{"last_updated":1741335144,"ttl":60,"version":"2.2","data":{"bikes":[{"bike_id":"ee1d2ad1-36ca-49dd-a328-f2a9a9994ecb","system_id":"levelo_inurba_marseille","lat":43.31079,"lon":5.38134,"is_reserved":false,"is_disabled":true,"rental_uris":{"android":"levelo://app?vid=ee1d2ad1-36ca-49dd-a328-f2a9a9994ecb","ios":"levelo://app?vid=ee1d2ad1-36ca-49dd-a328-f2a9a9994ecb"},"vehicle_type_id":"4","last_reported":1741335144,"current_range_meters":0,"station_id":"","pricing_plan_id":"cebpf4jnsgd1na2vs0mg"},{"bike_id":"d86fb6f5-7d71-45e5-a564-a9dfd520225a","system_id":"levelo_inurba_marseille","lat":43.30944,"lon":5.39044,"is_reserved":false,"is_disabled":true,"rental_uris":{"android":"levelo://app?vid=d86fb6f5-7d71-45e5-a564-a9dfd520225a","ios":"levelo://app?vid=d86fb6f5-7d71-45e5-a564-a9dfd520225a"},"vehicle_type_id":"4","last_reported":1741335144,"current_range_meters":0,"station_id":"ce4bgup2rcd13ifvqco0","pricing_plan_id":"cebpf4jnsgd1na2vs0mg"},{"bike_id":"9f64841d-0bd5-4802-b3fc-c7abc48e2843","system_id":"levelo_inurba_marseille","lat":43.30875,"lon":5.39667,"is_reserved":false,"is_disabled":true,"rental_uris":{"android":"levelo://app?vid=9f64841d-0bd5-4802-b3fc-c7abc48e2843","ios":"levelo://app?vid=9f64841d-0bd5-4802-b3fc-c7abc48e2843"},"vehicle_type_id":"4","last_reported":1741335144,"current_range_meters":0,"station_id":"ce4bh012rcd13ifvqcv0","pricing_plan_id":"cebpf4jnsgd1na2vs0mg"},{"bike_id":"c936d0ee-1ccf-4cca-8f4b-0c5ff423c182","system_id":"levelo_inurba_marseille","lat":43.28425,"lon":5.34996,"is_reserved":false,"is_disabled":true,"rental_uris":{"android":"levelo://app?vid=c936d0ee-1ccf-4cca-8f4b-0c5ff423c182","ios":"levelo://app?vid=c936d0ee-1ccf-4cca-8f4b-0c5ff423c182"},"vehicle_type_id":"4","last_reported":1741335144,"current_range_meters":0,"station_id":"ce4bhbh2rcd13ifvqepg","pricing_plan_id":"cebpf4jnsgd1na2vs0mg"},{"bike_id":"00cee1c5-71e1-471e-83f4-fc0fe9610e67","system_id":"levelo_inurba_marseille","lat":43.27958,"lon":5.38702,"is_reserved":false,"is_disabled":true,"rental_uris":{"android":"levelo://app?vid=00cee1c5-71e1-471e-83f4-fc0fe9610e67","ios":"levelo://app?vid=00cee1c5-71e1-471e-83f4-fc0fe9610e67"},"vehicle_type_id":"4","last_reported":1741335144,"current_range_meters":0,"station_id":"ce4bhg12rcd13ifvqf80","pricing_plan_id":"cebpf4jnsgd1na2vs0mg"},{"bike_id":"eaec98b2-026a-4de0-a6b2-405ce79cafc9","system_id":"levelo_inurba_marseille","lat":43.26949,"lon":5.3864,"is_reserved":false,"is_disabled":true,"rental_uris":{"android":"levelo://app?vid=eaec98b2-026a-4de0-a6b2-405ce79cafc9","ios":"levelo://app?vid=eaec98b2-026a-4de0-a6b2-405ce79cafc9"},"vehicle_type_id":"4","last_reported":1741335144,"current_range_meters":0,"station_id":"ce4bhh92rcd13ifvqfh0","pricing_plan_id":"cebpf4jnsgd1na2vs0mg"},{"bike_id":"fd3969db-25e9-424b-bc71-523f0eb1872c","system_id":"levelo_inurba_marseille","lat":43.23153,"lon":5.43697,"is_reserved":false,"is_disabled":true,"rental_uris":{"android":"levelo://app?vid=fd3969db-25e9-424b-bc71-523f0eb1872c","ios":"levelo://app?vid=fd3969db-25e9-424b-bc71-523f0eb1872c"},"vehicle_type_id":"4","last_reported":1741335144,"current_range_meters":0,"station_id":"ce4bhmp2rcd13ifvqgog","pricing_plan_id":"cebpf4jnsgd1na2vs0mg"},{"bike_id":"e9afb1b1-c04a-4b2b-88bf-e7afbf67d34c","system_id":"levelo_inurba_marseille","lat":43.23181,"lon":5.39997,"is_reserved":false,"is_disabled":true,"rental_uris":{"android":"levelo://app?vid=e9afb1b1-c04a-4b2b-88bf-e7afbf67d34c","ios":"levelo://app?vid=e9afb1b1-c04a-4b2b-88bf-e7afbf67d34c"},"vehicle_type_id":"4","last_reported":1741335144,"current_range_meters":0,"station_id":"ce4bhn12rcd13ifvqgqg","pricing_plan_id":"cebpf4jnsgd1na2vs0mg"},{"bike_id":"e0014f9e-7e65-47aa-a3a0-8624b0d64140","system_id":"levelo_inurba_marseille","lat":43.26944,"lon":5.40265,"is_reserved":false,"is_disabled":true,"rental_uris":{"android":"levelo://app?vid=e0014f9e-7e65-47aa-a3a0-8624b0d64140","ios":"levelo://app?vid=e0014f9e-7e65-47aa-a3a0-8624b0d64140"},"vehicle_type_id":"4","last_reported":1741335144,"current_range_meters":0,"station_id":"cjm6bp8fraef2m0cb0m0","pricing_plan_id":"cebpf4jnsgd1na2vs0mg"},{"bike_id":"feb0f1e4-8daa-4169-9c60-dbb8b1521e48","system_id":"levelo_inurba_marseille","lat":43.32485,"lon":5.36557,"is_reserved":false,"is_disabled":true,"rental_uris":{"android":"levelo://app?vid=feb0f1e4-8daa-4169-9c60-dbb8b1521e48","ios":"levelo://app?vid=feb0f1e4-8daa-4169-9c60-dbb8b1521e48"},"vehicle_type_id":"4","last_reported":1741335144,"current_range_meters":400,"station_id":"ce4bhs12rcd13ifvqhvg","pricing_plan_id":"cebpf4jnsgd1na2vs0mg"},{"bike_id":"5335ccc2-c2fe-4324-aa16-1eec29e362db","system_id":"levelo_inurba_marseille","lat":43.29354,"lon":5.38296,"is_reserved":false,"is_disabled":true,"rental_uris":{"android":"levelo://app?vid=5335ccc2-c2fe-4324-aa16-1eec29e362db","ios":"levelo://app?vid=5335ccc2-c2fe-4324-aa16-1eec29e362db"},"vehicle_type_id":"4","last_reported":1741335144,"current_range_meters":800,"station_id":"","pricing_plan_id":"cebpf4jnsgd1na2vs0mg"},{"bike_id":"2bf48063-5264-47d0-a568-e9f265a613f9","system_id":"levelo_inurba_marseille","lat":43.28854,"lon":5.35854,"is_reserved":false,"is_disabled":true,"rental_uris":{"android":"levelo://app?vid=2bf48063-5264-47d0-a568-e9f265a613f9","ios":"levelo://app?vid=2bf48063-5264-47d0-a568-e9f265a613f9"},"vehicle_type_id":"4","last_reported":1741335144,"current_range_meters":800,"station_id":"ce4bhb12rcd13ifvqem0","pricing_plan_id":"cebpf4jnsgd1na2vs0mg"},{"bike_id":"52c5a161-792e-4fa6-8fa8-87cd04e41f67","system_id":"levelo_inurba_marseille","lat":43.253366,"lon":5.402242,"is_reserved":false,"is_disabled":true,"rental_uris":{"android":"levelo://app?vid=52c5a161-792e-4fa6-8fa8-87cd04e41f67","ios":"levelo://app?vid=52c5a161-792e-4fa6-8fa8-87cd04e41f67"},"vehicle_type_id":"4","last_reported":1741335144,"current_range_meters":1200,"station_id":"ce4bgnh2rcd13ifvqc0g","pricing_plan_id":"cebpf4jnsgd1na2vs0mg"},{"bike_id":"f72f03b8-0c59-4295-af62-f00fc1147d38","system_id":"levelo_inurba_marseille","lat":43.29849,"lon":5.36289,"is_reserved":false,"is_disabled":true,"rental_uris":{"android":"levelo://app?vid=f72f03b8-0c59-4295-af62-f00fc1147d38","ios":"levelo://app?vid=f72f03b8-0c59-4295-af62-f00fc1147d38"},"vehicle_type_id":"4","last_reported":1741335144,"current_range_meters":1200,"station_id":"ce4bgpp2rcd13ifvqc3g","pricing_plan_id":"cebpf4jnsgd1na2vs0mg"},{"bike_id":"26e1fd6a-090d-4770-9b32-d42e8e30ad77","system_id":"levelo_inurba_marseille","lat":43.2408,"lon":5.37759,"is_reserved":false,"is_disabled":false,"rental_uris":{"android":"levelo://app?vid=26e1fd6a-090d-4770-9b32-d42e8e30ad77","ios":"levelo://app?vid=26e1fd6a-090d-4770-9b32-d42e8e30ad77"},"vehicle_type_id":"4","last_reported":1741335144,"current_range_meters":1200,"station_id":"ce4bhnp2rcd13ifvqgvg","pricing_plan_id":"cebpf4jnsgd1na2vs0mg"},{"bike_id":"58817e4b-895a-4999-a38f-55d62db2e292","system_id":"levelo_inurba_marseille","lat":43.28348,"lon":5.38105,"is_reserved":false,"is_disabled":true,"rental_uris":{"android":"levelo://app?vid=58817e4b-895a-4999-a38f-55d62db2e292","ios":"levelo://app?vid=58817e4b-895a-4999-a38f-55d62db2e292"},"vehicle_type_id":"4","last_reported":1741335144,"current_range_meters":1600,"station_id":"ce4bh412rcd13ifvqdr0","pricing_plan_id":"cebpf4jnsgd1na2vs0mg"},{"bike_id":"ae74298a-7c71-4011-9e18-731e9e5bc09e","system_id":"levelo_inurba_marseille","lat":43.26939,"lon":5.38645,"is_reserved":false,"is_disabled":true,"rental_uris":{"android":"levelo://app?vid=ae74298a-7c71-4011-9e18-731e9e5bc09e","ios":"levelo://app?vid=ae74298a-7c71-4011-9e18-731e9e5bc09e"},"vehicle_type_id":"4","last_reported":1741335144,"current_range_meters":1600,"station_id":"ce4bhh92rcd13ifvqfh0","pricing_plan_id":"cebpf4jnsgd1na2vs0mg"},{"bike_id":"6584eb2d-e0d0-4ab2-b2a6-30975553baef","system_id":"levelo_inurba_marseille","lat":43.29844,"lon":5.36276,"is_reserved":false,"is_disabled":false,"rental_uris":{"android":"levelo://app?vid=6584eb2d-e0d0-4ab2-b2a6-30975553baef","ios":"levelo://app?vid=6584eb2d-e0d0-4ab2-b2a6-30975553baef"},"vehicle_type_id":"4","last_reported":1741335144,"current_range_meters":2000,"station_id":"ce4bgpp2rcd13ifvqc3g","pricing_plan_id":"cebpf4jnsgd1na2vs0mg"},{"bike_id":"a0ac4a40-3acc-4189-a04b-8c1577726d6f","system_id":"levelo_inurba_marseille","lat":43.30095,"lon":5.39074,"is_reserved":false,"is_disabled":true,"rental_uris":{"android":"levelo://app?vid=a0ac4a40-3acc-4189-a04b-8c1577726d6f","ios":"levelo://app?vid=a0ac4a40-3acc-4189-a04b-8c1577726d6f"},"vehicle_type_id":"4","last_reported":1741335144,"current_range_meters":2000,"station_id":"ce4bh192rcd13ifvqdb0","pricing_plan_id":"cebpf4jnsgd1na2vs0mg"},{"bike_id":"8c17816a-0835-4290-9957-825bc3fd75f2","system_id":"levelo_inurba_marseille","lat":43.28846,"lon":5.39322,"is_reserved":false,"is_disabled":true,"rental_uris":{"android":"levelo://app?vid=8c17816a-0835-4290-9957-825bc3fd75f2","ios":"levelo://app?vid=8c17816a-0835-4290-9957-825bc3fd75f2"},"vehicle_type_id":"4","last_reported":1741335144,"current_range_meters":2000,"station_id":"ce4bh2p2rcd13ifvqdi0","pricing_plan_id":"cebpf4jnsgd1na2vs0mg"},{"bike_id":"f732301c-5814-4217-889c-43168a540117","system_id":"levelo_inurba_marseille","lat":43.25565,"lon":5.38231,"is_reserved":false,"is_disabled":true,"rental_uris":{"android":"levelo://app?vid=f732301c-5814-4217-889c-43168a540117","ios":"levelo://app?vid=f732301c-5814-4217-889c-43168a540117"},"vehicle_type_id":"4","last_reported":1741335144,"current_range_meters":2000,"station_id":"ce4bhih2rcd13ifvqfs0","pricing_plan_id":"cebpf4jnsgd1na2vs0mg"},{"bike_id":"52825aa5-39e5-4af6-8b1b-b15f642854b4","system_id":"levelo_inurba_marseille","lat":43.259363,"lon":5.409077,"is_reserved":false,"is_disabled":true,"rental_uris":{"android":"levelo://app?vid=52825aa5-39e5-4af6-8b1b-b15f642854b4","ios":"levelo://app?vid=52825aa5-39e5-4af6-8b1b-b15f642854b4"},"vehicle_type_id":"4","last_reported":1741335144,"current_range_meters":2000,"station_id":"ce4bhm92rcd13ifvqglg","pricing_plan_id":"cebpf4jnsgd1na2vs0mg"},{"bike_id":"42eccaf5-53fa-4467-8dbb-c674ce4a5491","system_id":"levelo_inurba_marseille","lat":43.33623,"lon":5.41009,"is_reserved":false,"is_disabled":true,"rental_uris":{"android":"levelo://app?vid=42eccaf5-53fa-4467-8dbb-c674ce4a5491","ios":"levelo://app?vid=42eccaf5-53fa-4467-8dbb-c674ce4a5491"},"vehicle_type_id":"4","last_reported":1741335144,"current_range_meters":2000,"station_id":"ce4bhqh2rcd13ifvqhmg","pricing_plan_id":"cebpf4jnsgd1na2vs0mg"},{"bike_id":"604baac5-83b7-465a-a47d-088d34b42ff7","system_id":"levelo_inurba_marseille","lat":43.31216,"lon":5.36844,"is_reserved":false,"is_disabled":false,"rental_uris":{"android":"levelo://app?vid=604baac5-83b7-465a-a47d-088d34b42ff7","ios":"levelo://app?vid=604baac5-83b7-465a-a47d-088d34b42ff7"},"vehicle_type_id":"4","last_reported":1741335144,"current_range_meters":2800,"station_id":"ce4bgl92rcd13ifvqbq0","pricing_plan_id":"cebpf4jnsgd1na2vs0mg"},{"bike_id":"c6efdfee-4842-42b0-a53a-6965d2d6795d","system_id":"levelo_inurba_marseille","lat":43.26471,"lon":5.39557,"is_reserved":false,"is_disabled":false,"rental_uris":{"android":"levelo://app?vid=c6efdfee-4842-42b0-a53a-6965d2d6795d","ios":"levelo://app?vid=c6efdfee-4842-42b0-a53a-6965d2d6795d"},"vehicle_type_id":"4","last_reported":1741335144,"current_range_meters":2800,"station_id":"ce4bhi12rcd13ifvqfq0","pricing_plan_id":"cebpf4jnsgd1na2vs0mg"},{"bike_id":"b54317ef-a5b5-450f-88ad-57d8c17e4013","system_id":"levelo_inurba_marseille","lat":43.24083,"lon":5.37758,"is_reserved":false,"is_disabled":false,"rental_uris":{"android":"levelo://app?vid=b54317ef-a5b5-450f-88ad-57d8c17e4013","ios":"levelo://app?vid=b54317ef-a5b5-450f-88ad-57d8c17e4013"},"vehicle_type_id":"4","last_reported":1741335144,"current_range_meters":2800,"station_id":"ce4bhnp2rcd13ifvqgvg","pricing_plan_id":"cebpf4jnsgd1na2vs0mg"},{"bike_id":"1ba6df28-a920-4781-acf6-b20610d56546","system_id":"levelo_inurba_marseille","lat":43.29038,"lon":5.37562,"is_reserved":false,"is_disabled":false,"rental_uris":{"android":"levelo://app?vid=1ba6df28-a920-4781-acf6-b20610d56546","ios":"levelo://app?vid=1ba6df28-a920-4781-acf6-b20610d56546"},"vehicle_type_id":"4","last_reported":1741335144,"current_range_meters":3200,"station_id":"ce4bh692rcd13ifvqe90","pricing_plan_id":"cebpf4jnsgd1na2vs0mg"},{"bike_id":"5c1061d9-a30a-4504-aa2b-78dd9b688118","system_id":"levelo_inurba_marseille","lat":43.29782,"lon":5.37094,"is_reserved":false,"is_disabled":false,"rental_uris":{"android":"levelo://app?vid=5c1061d9-a30a-4504-aa2b-78dd9b688118","ios":"levelo://app?vid=5c1061d9-a30a-4504-aa2b-78dd9b688118"},"vehicle_type_id":"4","last_reported":1741335144,"current_range_meters":4000,"station_id":"ce4bgop2rcd13ifvqc1g","pricing_plan_id":"cebpf4jnsgd1na2vs0mg"},{"bike_id":"90749686-8990-4294-b1e1-5f2d733e6e37","system_id":"levelo_inurba_marseille","lat":43.231425,"lon":5.436896,"is_reserved":false,"is_disabled":false,"rental_uris":{"android":"levelo://app?vid=90749686-8990-4294-b1e1-5f2d733e6e37","ios":"levelo://app?vid=90749686-8990-4294-b1e1-5f2d733e6e37"},"vehicle_type_id":"4","last_reported":1741335144,"current_range_meters":4000,"station_id":"ce4bhmp2rcd13ifvqgog","pricing_plan_id":"cebpf4jnsgd1na2vs0mg"},{"bike_id":"5e2a7c49-ce3c-4fd6-8ee4-35572445cd82","system_id":"levelo_inurba_marseille","lat":43.28172,"lon":5.42645,"is_reserved":false,"is_disabled":false,"rental_uris":{"android":"levelo://app?vid=5e2a7c49-ce3c-4fd6-8ee4-35572445cd82","ios":"levelo://app?vid=5e2a7c49-ce3c-4fd6-8ee4-35572445cd82"},"vehicle_type_id":"4","last_reported":1741335144,"current_range_meters":4000,"station_id":"ce4bhnh2rcd13ifvqgug","pricing_plan_id":"cebpf4jnsgd1na2vs0mg"},{"bike_id":"3fffc9cd-f418-41de-9fba-0cc23722d684","system_id":"levelo_inurba_marseille","lat":43.23069,"lon":5.35501,"is_reserved":false,"is_disabled":false,"rental_uris":{"android":"levelo://app?vid=3fffc9cd-f418-41de-9fba-0cc23722d684","ios":"levelo://app?vid=3fffc9cd-f418-41de-9fba-0cc23722d684"},"vehicle_type_id":"4","last_reported":1741335144,"current_range_meters":4000,"station_id":"cpo3342slgdg3j2ifvpg","pricing_plan_id":"cebpf4jnsgd1na2vs0mg"},{"bike_id":"d34b5910-fa9c-4576-b503-7c12034693b7","system_id":"levelo_inurba_marseille","lat":43.26777,"lon":5.39428,"is_reserved":false,"is_disabled":false,"rental_uris":{"android":"levelo://app?vid=d34b5910-fa9c-4576-b503-7c12034693b7","ios":"levelo://app?vid=d34b5910-fa9c-4576-b503-7c12034693b7"},"vehicle_type_id":"4","last_reported":1741335144,"current_range_meters":4400,"station_id":"ce4bhh12rcd13ifvqfg0","pricing_plan_id":"cebpf4jnsgd1na2vs0mg"},{"bike_id":"bf79e937-0cb1-4c33-a49a-c89ae47feddc","system_id":"levelo_inurba_marseille","lat":43.31345,"lon":5.36764,"is_reserved":false,"is_disabled":false,"rental_uris":{"android":"levelo://app?vid=bf79e937-0cb1-4c33-a49a-c89ae47feddc","ios":"levelo://app?vid=bf79e937-0cb1-4c33-a49a-c89ae47feddc"},"vehicle_type_id":"4","last_reported":1741335144,"current_range_meters":4800,"station_id":"ce4bgr92rcd13ifvqc6g","pricing_plan_id":"cebpf4jnsgd1na2vs0mg"},{"bike_id":"205934c4-bdeb-4aa0-ba14-738bc63a1d4a","system_id":"levelo_inurba_marseille","lat":43.25725,"lon":5.41107,"is_reserved":false,"is_disabled":false,"rental_uris":{"android":"levelo://app?vid=205934c4-bdeb-4aa0-ba14-738bc63a1d4a","ios":"levelo://app?vid=205934c4-bdeb-4aa0-ba14-738bc63a1d4a"},"vehicle_type_id":"4","last_reported":1741335144,"current_range_meters":4800,"station_id":"ce4bhkp2rcd13ifvqgd0","pricing_plan_id":"cebpf4jnsgd1na2vs0mg"},{"bike_id":"38b627cb-2a59-4eb9-82d3-262f9a90ba20","system_id":"levelo_inurba_marseille","lat":43.24075,"lon":5.37762,"is_reserved":false,"is_disabled":false,"rental_uris":{"android":"levelo://app?vid=38b627cb-2a59-4eb9-82d3-262f9a90ba20","ios":"levelo://app?vid=38b627cb-2a59-4eb9-82d3-262f9a90ba20"},"vehicle_type_id":"4","last_reported":1741335144,"current_range_meters":4800,"station_id":"ce4bhnp2rcd13ifvqgvg","pricing_plan_id":"cebpf4jnsgd1na2vs0mg"},{"bike_id":"60ca2d11-e6af-45ee-8186-84d398205c2c","system_id":"levelo_inurba_marseille","lat":43.26683,"lon":5.38278,"is_reserved":false,"is_disabled":false,"rental_uris":{"android":"levelo://app?vid=60ca2d11-e6af-45ee-8186-84d398205c2c","ios":"levelo://app?vid=60ca2d11-e6af-45ee-8186-84d398205c2c"},"vehicle_type_id":"4","last_reported":1741335144,"current_range_meters":6000,"station_id":"ce4bhg92rcd13ifvqf90","pricing_plan_id":"cebpf4jnsgd1na2vs0mg"},{"bike_id":"bf342717-63c0-499a-a753-35e922ba7de5","system_id":"levelo_inurba_marseille","lat":43.25021,"lon":5.38897,"is_reserved":false,"is_disabled":false,"rental_uris":{"android":"levelo://app?vid=bf342717-63c0-499a-a753-35e922ba7de5","ios":"levelo://app?vid=bf342717-63c0-499a-a753-35e922ba7de5"},"vehicle_type_id":"4","last_reported":1741335144,"current_range_meters":6000,"station_id":"ce4bhgp2rcd13ifvqfd0","pricing_plan_id":"cebpf4jnsgd1na2vs0mg"},{"bike_id":"d2fd960f-0af3-4bf9-bd6a-b0c4aa4544af","system_id":"levelo_inurba_marseille","lat":43.23183,"lon":5.39988,"is_reserved":false,"is_disabled":false,"rental_uris":{"android":"levelo://app?vid=d2fd960f-0af3-4bf9-bd6a-b0c4aa4544af","ios":"levelo://app?vid=d2fd960f-0af3-4bf9-bd6a-b0c4aa4544af"},"vehicle_type_id":"4","last_reported":1741335144,"current_range_meters":6000,"station_id":"ce4bhn12rcd13ifvqgqg","pricing_plan_id":"cebpf4jnsgd1na2vs0mg"},{"bike_id":"e0c0bec3-454a-410d-a60f-3aed516ec149","system_id":"levelo_inurba_marseille","lat":43.232,"lon":5.35555,"is_reserved":false,"is_disabled":false,"rental_uris":{"android":"levelo://app?vid=e0c0bec3-454a-410d-a60f-3aed516ec149","ios":"levelo://app?vid=e0c0bec3-454a-410d-a60f-3aed516ec149"},"vehicle_type_id":"4","last_reported":1741335144,"current_range_meters":6000,"station_id":"ce4bhu92rcd13ifvqi70","pricing_plan_id":"cebpf4jnsgd1na2vs0mg"},{"bike_id":"afa5713c-d5c9-44f7-ad17-c6217eb36580","system_id":"levelo_inurba_marseille","lat":43.31227,"lon":5.36864,"is_reserved":false,"is_disabled":false,"rental_uris":{"android":"levelo://app?vid=afa5713c-d5c9-44f7-ad17-c6217eb36580","ios":"levelo://app?vid=afa5713c-d5c9-44f7-ad17-c6217eb36580"},"vehicle_type_id":"4","last_reported":1741335144,"current_range_meters":6400,"station_id":"ce4bgl92rcd13ifvqbq0","pricing_plan_id":"cebpf4jnsgd1na2vs0mg"},{"bike_id":"8f8e582a-83ce-42ee-980c-410e6df1ec3f","system_id":"levelo_inurba_marseille","lat":43.29771,"lon":5.37118,"is_reserved":false,"is_disabled":false,"rental_uris":{"android":"levelo://app?vid=8f8e582a-83ce-42ee-980c-410e6df1ec3f","ios":"levelo://app?vid=8f8e582a-83ce-42ee-980c-410e6df1ec3f"},"vehicle_type_id":"4","last_reported":1741335144,"current_range_meters":6400,"station_id":"ce4bgop2rcd13ifvqc1g","pricing_plan_id":"cebpf4jnsgd1na2vs0mg"},{"bike_id":"31d0d2ca-5a69-4103-af3c-17b79e351a8a","system_id":"levelo_inurba_marseille","lat":43.26554,"lon":5.39037,"is_reserved":false,"is_disabled":false,"rental_uris":{"android":"levelo://app?vid=31d0d2ca-5a69-4103-af3c-17b79e351a8a","ios":"levelo://app?vid=31d0d2ca-5a69-4103-af3c-17b79e351a8a"},"vehicle_type_id":"4","last_reported":1741335144,"current_range_meters":6400,"station_id":"ce4bhe12rcd13ifvqf30","pricing_plan_id":"cebpf4jnsgd1na2vs0mg"},{"bike_id":"fe0659af-9cec-4dc5-81cd-fa11d1ae4511","system_id":"levelo_inurba_marseille","lat":43.2669,"lon":5.38274,"is_reserved":false,"is_disabled":false,"rental_uris":{"android":"levelo://app?vid=fe0659af-9cec-4dc5-81cd-fa11d1ae4511","ios":"levelo://app?vid=fe0659af-9cec-4dc5-81cd-fa11d1ae4511"},"vehicle_type_id":"4","last_reported":1741335144,"current_range_meters":6400,"station_id":"ce4bhg92rcd13ifvqf90","pricing_plan_id":"cebpf4jnsgd1na2vs0mg"},{"bike_id":"d5c55ecd-f3e4-4705-bef7-6a461e83c21a","system_id":"levelo_inurba_marseille","lat":43.26498,"lon":5.39539,"is_reserved":false,"is_disabled":false,"rental_uris":{"android":"levelo://app?vid=d5c55ecd-f3e4-4705-bef7-6a461e83c21a","ios":"levelo://app?vid=d5c55ecd-f3e4-4705-bef7-6a461e83c21a"},"vehicle_type_id":"4","last_reported":1741335144,"current_range_meters":6400,"station_id":"ce4bhi12rcd13ifvqfq0","pricing_plan_id":"cebpf4jnsgd1na2vs0mg"},{"bike_id":"a9124e56-4258-4b04-850e-fa40cba75b16","system_id":"levelo_inurba_marseille","lat":43.27497,"lon":5.42449,"is_reserved":false,"is_disabled":false,"rental_uris":{"android":"levelo://app?vid=a9124e56-4258-4b04-850e-fa40cba75b16","ios":"levelo://app?vid=a9124e56-4258-4b04-850e-fa40cba75b16"},"vehicle_type_id":"4","last_reported":1741335144,"current_range_meters":6400,"station_id":"ce4bhn92rcd13ifvqgrg","pricing_plan_id":"cebpf4jnsgd1na2vs0mg"},{"bike_id":"b128a848-1fbe-452d-aa99-802041786fec","system_id":"levelo_inurba_marseille","lat":43.29556,"lon":5.42286,"is_reserved":false,"is_disabled":false,"rental_uris":{"android":"levelo://app?vid=b128a848-1fbe-452d-aa99-802041786fec","ios":"levelo://app?vid=b128a848-1fbe-452d-aa99-802041786fec"},"vehicle_type_id":"4","last_reported":1741335144,"current_range_meters":6400,"station_id":"ce4bhph2rcd13ifvqhdg","pricing_plan_id":"cebpf4jnsgd1na2vs0mg"},{"bike_id":"23a85b18-2c8a-40be-b017-8e3a4e336a2d","system_id":"levelo_inurba_marseille","lat":43.29369,"lon":5.37842,"is_reserved":false,"is_disabled":false,"rental_uris":{"android":"levelo://app?vid=23a85b18-2c8a-40be-b017-8e3a4e336a2d","ios":"levelo://app?vid=23a85b18-2c8a-40be-b017-8e3a4e336a2d"},"vehicle_type_id":"4","last_reported":1741335144,"current_range_meters":6800,"station_id":"ce4bgjh2rcd13ifvqbf0","pricing_plan_id":"cebpf4jnsgd1na2vs0mg"},{"bike_id":"f5f16292-5540-4aae-b9c8-f3d9f389f20c","system_id":"levelo_inurba_marseille","lat":43.27066,"lon":5.42301,"is_reserved":false,"is_disabled":false,"rental_uris":{"android":"levelo://app?vid=f5f16292-5540-4aae-b9c8-f3d9f389f20c","ios":"levelo://app?vid=f5f16292-5540-4aae-b9c8-f3d9f389f20c"},"vehicle_type_id":"4","last_reported":1741335144,"current_range_meters":6800,"station_id":"ce4bhk92rcd13ifvqgb0","pricing_plan_id":"cebpf4jnsgd1na2vs0mg"},{"bike_id":"2e4050f6-4e20-44cd-9f7b-424fda138fd9","system_id":"levelo_inurba_marseille","lat":43.27498,"lon":5.42448,"is_reserved":false,"is_disabled":false,"rental_uris":{"android":"levelo://app?vid=2e4050f6-4e20-44cd-9f7b-424fda138fd9","ios":"levelo://app?vid=2e4050f6-4e20-44cd-9f7b-424fda138fd9"},"vehicle_type_id":"4","last_reported":1741335144,"current_range_meters":6800,"station_id":"ce4bhn92rcd13ifvqgrg","pricing_plan_id":"cebpf4jnsgd1na2vs0mg"},{"bike_id":"e010cecd-4667-4abc-9f99-d441da01aed5","system_id":"levelo_inurba_marseille","lat":43.27829,"lon":5.3792,"is_reserved":false,"is_disabled":false,"rental_uris":{"android":"levelo://app?vid=e010cecd-4667-4abc-9f99-d441da01aed5","ios":"levelo://app?vid=e010cecd-4667-4abc-9f99-d441da01aed5"},"vehicle_type_id":"4","last_reported":1741335144,"current_range_meters":7200,"station_id":"","pricing_plan_id":"cebpf4jnsgd1na2vs0mg"},{"bike_id":"27bf5454-f5cc-40f9-873e-597610f0d7f8","system_id":"levelo_inurba_marseille","lat":43.27611,"lon":5.36121,"is_reserved":false,"is_disabled":false,"rental_uris":{"android":"levelo://app?vid=27bf5454-f5cc-40f9-873e-597610f0d7f8","ios":"levelo://app?vid=27bf5454-f5cc-40f9-873e-597610f0d7f8"},"vehicle_type_id":"4","last_reported":1741335144,"current_range_meters":7200,"station_id":"ce4bgj92rcd13ifvqbe0","pricing_plan_id":"cebpf4jnsgd1na2vs0mg"},{"bike_id":"6b30518e-80eb-43e3-be8f-8ca00652c393","system_id":"levelo_inurba_marseille","lat":43.29841,"lon":5.3627,"is_reserved":false,"is_disabled":false,"rental_uris":{"android":"levelo://app?vid=6b30518e-80eb-43e3-be8f-8ca00652c393","ios":"levelo://app?vid=6b30518e-80eb-43e3-be8f-8ca00652c393"},"vehicle_type_id":"4","last_reported":1741335144,"current_range_meters":7200,"station_id":"ce4bgpp2rcd13ifvqc3g","pricing_plan_id":"cebpf4jnsgd1na2vs0mg"},{"bike_id":"8161d758-4e56-4ad2-b864-c044c7317db7","system_id":"levelo_inurba_marseille","lat":43.30468,"lon":5.37915,"is_reserved":false,"is_disabled":false,"rental_uris":{"android":"levelo://app?vid=8161d758-4e56-4ad2-b864-c044c7317db7","ios":"levelo://app?vid=8161d758-4e56-4ad2-b864-c044c7317db7"},"vehicle_type_id":"4","last_reported":1741335144,"current_range_meters":7200,"station_id":"ce4bgup2rcd13ifvqcn0","pricing_plan_id":"cebpf4jnsgd1na2vs0mg"},{"bike_id":"f6be84bb-43f5-4ae4-b3bd-10f006f6e917","system_id":"levelo_inurba_marseille","lat":43.30955,"lon":5.39043,"is_reserved":false,"is_disabled":false,"rental_uris":{"android":"levelo://app?vid=f6be84bb-43f5-4ae4-b3bd-10f006f6e917","ios":"levelo://app?vid=f6be84bb-43f5-4ae4-b3bd-10f006f6e917"},"vehicle_type_id":"4","last_reported":1741335144,"current_range_meters":7200,"station_id":"ce4bgup2rcd13ifvqco0","pricing_plan_id":"cebpf4jnsgd1na2vs0mg"},{"bike_id":"8aef80f6-d63a-4d5b-a709-5382d05dd4df","system_id":"levelo_inurba_marseille","lat":43.25001,"lon":5.38937,"is_reserved":false,"is_disabled":false,"rental_uris":{"android":"levelo://app?vid=8aef80f6-d63a-4d5b-a709-5382d05dd4df","ios":"levelo://app?vid=8aef80f6-d63a-4d5b-a709-5382d05dd4df"},"vehicle_type_id":"4","last_reported":1741335144,"current_range_meters":7200,"station_id":"ce4bhgp2rcd13ifvqfd0","pricing_plan_id":"cebpf4jnsgd1na2vs0mg"},{"bike_id":"abdc7a6f-de4f-4b3b-b537-5a723ca3b154","system_id":"levelo_inurba_marseille","lat":43.26951,"lon":5.38648,"is_reserved":false,"is_disabled":false,"rental_uris":{"android":"levelo://app?vid=abdc7a6f-de4f-4b3b-b537-5a723ca3b154","ios":"levelo://app?vid=abdc7a6f-de4f-4b3b-b537-5a723ca3b154"},"vehicle_type_id":"4","last_reported":1741335144,"current_range_meters":7200,"station_id":"ce4bhh92rcd13ifvqfh0","pricing_plan_id":"cebpf4jnsgd1na2vs0mg"},{"bike_id":"f927a9c8-5d84-472f-b8fd-88f2fc3bc3e6","system_id":"levelo_inurba_marseille","lat":43.29908,"lon":5.43635,"is_reserved":false,"is_disabled":false,"rental_uris":{"android":"levelo://app?vid=f927a9c8-5d84-472f-b8fd-88f2fc3bc3e6","ios":"levelo://app?vid=f927a9c8-5d84-472f-b8fd-88f2fc3bc3e6"},"vehicle_type_id":"4","last_reported":1741335144,"current_range_meters":7200,"station_id":"ce4bhpp2rcd13ifvqhfg","pricing_plan_id":"cebpf4jnsgd1na2vs0mg"},{"bike_id":"7f1905bf-da4d-4f13-af14-c5d46804e585","system_id":"levelo_inurba_marseille","lat":43.23191,"lon":5.35552,"is_reserved":false,"is_disabled":false,"rental_uris":{"android":"levelo://app?vid=7f1905bf-da4d-4f13-af14-c5d46804e585","ios":"levelo://app?vid=7f1905bf-da4d-4f13-af14-c5d46804e585"},"vehicle_type_id":"4","last_reported":1741335144,"current_range_meters":7200,"station_id":"ce4bhu92rcd13ifvqi70","pricing_plan_id":"cebpf4jnsgd1na2vs0mg"},{"bike_id":"f2b6d3da-7378-45c5-9a38-ba6eefa96bac","system_id":"levelo_inurba_marseille","lat":43.32426,"lon":5.41614,"is_reserved":false,"is_disabled":false,"rental_uris":{"android":"levelo://app?vid=f2b6d3da-7378-45c5-9a38-ba6eefa96bac","ios":"levelo://app?vid=f2b6d3da-7378-45c5-9a38-ba6eefa96bac"},"vehicle_type_id":"4","last_reported":1741335144,"current_range_meters":8000,"station_id":"","pricing_plan_id":"cebpf4jnsgd1na2vs0mg"},{"bike_id":"81220ab9-fb8e-4638-a084-692a6595df85","system_id":"levelo_inurba_marseille","lat":43.2619,"lon":5.4207,"is_reserved":false,"is_disabled":false,"rental_uris":{"android":"levelo://app?vid=81220ab9-fb8e-4638-a084-692a6595df85","ios":"levelo://app?vid=81220ab9-fb8e-4638-a084-692a6595df85"},"vehicle_type_id":"4","last_reported":1741335144,"current_range_meters":8000,"station_id":"","pricing_plan_id":"cebpf4jnsgd1na2vs0mg"},{"bike_id":"e3afcce2-84da-4ed0-b71d-6d2fd204e8af","system_id":"levelo_inurba_marseille","lat":43.286171,"lon":5.351058,"is_reserved":false,"is_disabled":false,"rental_uris":{"android":"levelo://app?vid=e3afcce2-84da-4ed0-b71d-6d2fd204e8af","ios":"levelo://app?vid=e3afcce2-84da-4ed0-b71d-6d2fd204e8af"},"vehicle_type_id":"4","last_reported":1741335144,"current_range_meters":8000,"station_id":"ce4bgkh2rcd13ifvqbl0","pricing_plan_id":"cebpf4jnsgd1na2vs0mg"},{"bike_id":"d8e0cd60-2b65-4338-bbaf-5428c7410cef","system_id":"levelo_inurba_marseille","lat":43.30911,"lon":5.36846,"is_reserved":false,"is_disabled":false,"rental_uris":{"android":"levelo://app?vid=d8e0cd60-2b65-4338-bbaf-5428c7410cef","ios":"levelo://app?vid=d8e0cd60-2b65-4338-bbaf-5428c7410cef"},"vehicle_type_id":"4","last_reported":1741335144,"current_range_meters":8000,"station_id":"ce4bgn92rcd13ifvqbvg","pricing_plan_id":"cebpf4jnsgd1na2vs0mg"},{"bike_id":"9ddfd7ce-2afc-4da7-ab9c-ead6ccd68301","system_id":"levelo_inurba_marseille","lat":43.31345,"lon":5.36727,"is_reserved":false,"is_disabled":false,"rental_uris":{"android":"levelo://app?vid=9ddfd7ce-2afc-4da7-ab9c-ead6ccd68301","ios":"levelo://app?vid=9ddfd7ce-2afc-4da7-ab9c-ead6ccd68301"},"vehicle_type_id":"4","last_reported":1741335144,"current_range_meters":8000,"station_id":"ce4bgr92rcd13ifvqc6g","pricing_plan_id":"cebpf4jnsgd1na2vs0mg"},{"bike_id":"26d2696b-f894-454f-9934-59cabb72aea4","system_id":"levelo_inurba_marseille","lat":43.27371,"lon":5.36266,"is_reserved":false,"is_disabled":false,"rental_uris":{"android":"levelo://app?vid=26d2696b-f894-454f-9934-59cabb72aea4","ios":"levelo://app?vid=26d2696b-f894-454f-9934-59cabb72aea4"},"vehicle_type_id":"4","last_reported":1741335144,"current_range_meters":8000,"station_id":"ce4bhbh2rcd13ifvqeo0","pricing_plan_id":"cebpf4jnsgd1na2vs0mg"},{"bike_id":"651068a3-bff5-4aa4-bafe-de2f2377d643","system_id":"levelo_inurba_marseille","lat":43.25714,"lon":5.41122,"is_reserved":false,"is_disabled":false,"rental_uris":{"android":"levelo://app?vid=651068a3-bff5-4aa4-bafe-de2f2377d643","ios":"levelo://app?vid=651068a3-bff5-4aa4-bafe-de2f2377d643"},"vehicle_type_id":"4","last_reported":1741335144,"current_range_meters":8000,"station_id":"ce4bhkp2rcd13ifvqgd0","pricing_plan_id":"cebpf4jnsgd1na2vs0mg"},{"bike_id":"c262f8cf-6400-4efd-af91-c8aabadab203","system_id":"levelo_inurba_marseille","lat":43.2319,"lon":5.40004,"is_reserved":false,"is_disabled":false,"rental_uris":{"android":"levelo://app?vid=c262f8cf-6400-4efd-af91-c8aabadab203","ios":"levelo://app?vid=c262f8cf-6400-4efd-af91-c8aabadab203"},"vehicle_type_id":"4","last_reported":1741335144,"current_range_meters":8000,"station_id":"ce4bhn12rcd13ifvqgqg","pricing_plan_id":"cebpf4jnsgd1na2vs0mg"},{"bike_id":"23fed444-bd25-41d0-ba3c-a3f4c45a67f1","system_id":"levelo_inurba_marseille","lat":43.24059,"lon":5.37747,"is_reserved":false,"is_disabled":false,"rental_uris":{"android":"levelo://app?vid=23fed444-bd25-41d0-ba3c-a3f4c45a67f1","ios":"levelo://app?vid=23fed444-bd25-41d0-ba3c-a3f4c45a67f1"},"vehicle_type_id":"4","last_reported":1741335144,"current_range_meters":8000,"station_id":"ce4bhnp2rcd13ifvqgvg","pricing_plan_id":"cebpf4jnsgd1na2vs0mg"},{"bike_id":"3c5e0350-07a6-4d3d-b526-00ffb41b6d3e","system_id":"levelo_inurba_marseille","lat":43.27957,"lon":5.41048,"is_reserved":false,"is_disabled":false,"rental_uris":{"android":"levelo://app?vid=3c5e0350-07a6-4d3d-b526-00ffb41b6d3e","ios":"levelo://app?vid=3c5e0350-07a6-4d3d-b526-00ffb41b6d3e"},"vehicle_type_id":"4","last_reported":1741335144,"current_range_meters":8000,"station_id":"ce4bhnp2rcd13ifvqh0g","pricing_plan_id":"cebpf4jnsgd1na2vs0mg"},{"bike_id":"32d1f900-0344-4b56-aaa5-564d19ec802c","system_id":"levelo_inurba_marseille","lat":43.2794,"lon":5.41047,"is_reserved":false,"is_disabled":false,"rental_uris":{"android":"levelo://app?vid=32d1f900-0344-4b56-aaa5-564d19ec802c","ios":"levelo://app?vid=32d1f900-0344-4b56-aaa5-564d19ec802c"},"vehicle_type_id":"4","last_reported":1741335144,"current_range_meters":8000,"station_id":"ce4bhnp2rcd13ifvqh0g","pricing_plan_id":"cebpf4jnsgd1na2vs0mg"},{"bike_id":"5487e4c1-499e-460a-9df1-016e88b5ed82","system_id":"levelo_inurba_marseille","lat":43.29911,"lon":5.43664,"is_reserved":false,"is_disabled":false,"rental_uris":{"android":"levelo://app?vid=5487e4c1-499e-460a-9df1-016e88b5ed82","ios":"levelo://app?vid=5487e4c1-499e-460a-9df1-016e88b5ed82"},"vehicle_type_id":"4","last_reported":1741335144,"current_range_meters":8000,"station_id":"ce4bhpp2rcd13ifvqhfg","pricing_plan_id":"cebpf4jnsgd1na2vs0mg"},{"bike_id":"858c50df-ffa3-4ac3-a680-aba957e8944e","system_id":"levelo_inurba_marseille","lat":43.29908,"lon":5.43648,"is_reserved":false,"is_disabled":false,"rental_uris":{"android":"levelo://app?vid=858c50df-ffa3-4ac3-a680-aba957e8944e","ios":"levelo://app?vid=858c50df-ffa3-4ac3-a680-aba957e8944e"},"vehicle_type_id":"4","last_reported":1741335144,"current_range_meters":8000,"station_id":"ce4bhpp2rcd13ifvqhfg","pricing_plan_id":"cebpf4jnsgd1na2vs0mg"},{"bike_id":"f25f4f6e-697a-480c-95f0-89bf5426a900","system_id":"levelo_inurba_marseille","lat":43.33611,"lon":5.41032,"is_reserved":false,"is_disabled":false,"rental_uris":{"android":"levelo://app?vid=f25f4f6e-697a-480c-95f0-89bf5426a900","ios":"levelo://app?vid=f25f4f6e-697a-480c-95f0-89bf5426a900"},"vehicle_type_id":"4","last_reported":1741335144,"current_range_meters":8000,"station_id":"ce4bhqh2rcd13ifvqhmg","pricing_plan_id":"cebpf4jnsgd1na2vs0mg"},{"bike_id":"c5d9a748-fb84-4751-9008-dc4467d9ed9a","system_id":"levelo_inurba_marseille","lat":43.23194,"lon":5.35548,"is_reserved":false,"is_disabled":false,"rental_uris":{"android":"levelo://app?vid=c5d9a748-fb84-4751-9008-dc4467d9ed9a","ios":"levelo://app?vid=c5d9a748-fb84-4751-9008-dc4467d9ed9a"},"vehicle_type_id":"4","last_reported":1741335144,"current_range_meters":8000,"station_id":"ce4bhu92rcd13ifvqi70","pricing_plan_id":"cebpf4jnsgd1na2vs0mg"},{"bike_id":"fbe50864-25cc-4155-a7e3-9a4c8dd54dd6","system_id":"levelo_inurba_marseille","lat":43.30914,"lon":5.36854,"is_reserved":false,"is_disabled":false,"rental_uris":{"android":"levelo://app?vid=fbe50864-25cc-4155-a7e3-9a4c8dd54dd6","ios":"levelo://app?vid=fbe50864-25cc-4155-a7e3-9a4c8dd54dd6"},"vehicle_type_id":"4","last_reported":1741335144,"current_range_meters":8400,"station_id":"ce4bgn92rcd13ifvqbvg","pricing_plan_id":"cebpf4jnsgd1na2vs0mg"},{"bike_id":"0a1473f1-6746-43b4-94c1-d28148658361","system_id":"levelo_inurba_marseille","lat":43.31343,"lon":5.36718,"is_reserved":false,"is_disabled":false,"rental_uris":{"android":"levelo://app?vid=0a1473f1-6746-43b4-94c1-d28148658361","ios":"levelo://app?vid=0a1473f1-6746-43b4-94c1-d28148658361"},"vehicle_type_id":"4","last_reported":1741335144,"current_range_meters":8400,"station_id":"ce4bgr92rcd13ifvqc6g","pricing_plan_id":"cebpf4jnsgd1na2vs0mg"},{"bike_id":"4aeb3e2a-2058-4f9b-bec2-b0f6a0ccbc79","system_id":"levelo_inurba_marseille","lat":43.30433,"lon":5.39743,"is_reserved":false,"is_disabled":false,"rental_uris":{"android":"levelo://app?vid=4aeb3e2a-2058-4f9b-bec2-b0f6a0ccbc79","ios":"levelo://app?vid=4aeb3e2a-2058-4f9b-bec2-b0f6a0ccbc79"},"vehicle_type_id":"4","last_reported":1741335144,"current_range_meters":8400,"station_id":"ce4bh092rcd13ifvqd20","pricing_plan_id":"cebpf4jnsgd1na2vs0mg"},{"bike_id":"bfde4ae6-3c1a-4057-a835-94ea74d83456","system_id":"levelo_inurba_marseille","lat":43.28986,"lon":5.37842,"is_reserved":false,"is_disabled":false,"rental_uris":{"android":"levelo://app?vid=bfde4ae6-3c1a-4057-a835-94ea74d83456","ios":"levelo://app?vid=bfde4ae6-3c1a-4057-a835-94ea74d83456"},"vehicle_type_id":"4","last_reported":1741335144,"current_range_meters":8400,"station_id":"ce4bh9p2rcd13ifvqed0","pricing_plan_id":"cebpf4jnsgd1na2vs0mg"},{"bike_id":"fdde8103-1f2a-4455-bcfa-e1d74ecb0194","system_id":"levelo_inurba_marseille","lat":43.27802,"lon":5.40721,"is_reserved":false,"is_disabled":false,"rental_uris":{"android":"levelo://app?vid=fdde8103-1f2a-4455-bcfa-e1d74ecb0194","ios":"levelo://app?vid=fdde8103-1f2a-4455-bcfa-e1d74ecb0194"},"vehicle_type_id":"4","last_reported":1741335144,"current_range_meters":8400,"station_id":"ce4bhnh2rcd13ifvqgtg","pricing_plan_id":"cebpf4jnsgd1na2vs0mg"},{"bike_id":"d9b4e821-0c42-42c8-b88c-ec7f1d7ab942","system_id":"levelo_inurba_marseille","lat":43.24078,"lon":5.37762,"is_reserved":false,"is_disabled":false,"rental_uris":{"android":"levelo://app?vid=d9b4e821-0c42-42c8-b88c-ec7f1d7ab942","ios":"levelo://app?vid=d9b4e821-0c42-42c8-b88c-ec7f1d7ab942"},"vehicle_type_id":"4","last_reported":1741335144,"current_range_meters":8400,"station_id":"ce4bhnp2rcd13ifvqgvg","pricing_plan_id":"cebpf4jnsgd1na2vs0mg"},{"bike_id":"1b34c58c-f011-43f3-baac-47c6cf7523c0","system_id":"levelo_inurba_marseille","lat":43.298951,"lon":5.436722,"is_reserved":false,"is_disabled":false,"rental_uris":{"android":"levelo://app?vid=1b34c58c-f011-43f3-baac-47c6cf7523c0","ios":"levelo://app?vid=1b34c58c-f011-43f3-baac-47c6cf7523c0"},"vehicle_type_id":"4","last_reported":1741335144,"current_range_meters":8400,"station_id":"ce4bhpp2rcd13ifvqhfg","pricing_plan_id":"cebpf4jnsgd1na2vs0mg"},{"bike_id":"659b8f60-191a-40fa-a18d-f62ece25e449","system_id":"levelo_inurba_marseille","lat":43.3054,"lon":5.36706,"is_reserved":false,"is_disabled":false,"rental_uris":{"android":"levelo://app?vid=659b8f60-191a-40fa-a18d-f62ece25e449","ios":"levelo://app?vid=659b8f60-191a-40fa-a18d-f62ece25e449"},"vehicle_type_id":"4","last_reported":1741335144,"current_range_meters":8800,"station_id":"ce4bgrp2rcd13ifvqc9g","pricing_plan_id":"cebpf4jnsgd1na2vs0mg"},{"bike_id":"f73c1751-9f0e-479f-9e9f-366c8c6563ea","system_id":"levelo_inurba_marseille","lat":43.268416,"lon":5.384953,"is_reserved":false,"is_disabled":false,"rental_uris":{"android":"levelo://app?vid=f73c1751-9f0e-479f-9e9f-366c8c6563ea","ios":"levelo://app?vid=f73c1751-9f0e-479f-9e9f-366c8c6563ea"},"vehicle_type_id":"4","last_reported":1741335144,"current_range_meters":8800,"station_id":"ce4bhh92rcd13ifvqfh0","pricing_plan_id":"cebpf4jnsgd1na2vs0mg"},{"bike_id":"b2c94af5-bdff-4efc-819d-12cc6aa4c843","system_id":"levelo_inurba_marseille","lat":43.24026,"lon":5.37769,"is_reserved":false,"is_disabled":false,"rental_uris":{"android":"levelo://app?vid=b2c94af5-bdff-4efc-819d-12cc6aa4c843","ios":"levelo://app?vid=b2c94af5-bdff-4efc-819d-12cc6aa4c843"},"vehicle_type_id":"4","last_reported":1741335144,"current_range_meters":8800,"station_id":"ce4bhnp2rcd13ifvqgvg","pricing_plan_id":"cebpf4jnsgd1na2vs0mg"},{"bike_id":"357f6b0d-7429-4870-b5b1-c540923d954d","system_id":"levelo_inurba_marseille","lat":43.23062,"lon":5.35496,"is_reserved":false,"is_disabled":false,"rental_uris":{"android":"levelo://app?vid=357f6b0d-7429-4870-b5b1-c540923d954d","ios":"levelo://app?vid=357f6b0d-7429-4870-b5b1-c540923d954d"},"vehicle_type_id":"4","last_reported":1741335144,"current_range_meters":8800,"station_id":"cpo3342slgdg3j2ifvpg","pricing_plan_id":"cebpf4jnsgd1na2vs0mg"},{"bike_id":"e2a1b5c0-11be-424d-9537-fafb86f45f07","system_id":"levelo_inurba_marseille","lat":43.30909,"lon":5.3684,"is_reserved":false,"is_disabled":false,"rental_uris":{"android":"levelo://app?vid=e2a1b5c0-11be-424d-9537-fafb86f45f07","ios":"levelo://app?vid=e2a1b5c0-11be-424d-9537-fafb86f45f07"},"vehicle_type_id":"4","last_reported":1741335144,"current_range_meters":9200,"station_id":"ce4bgn92rcd13ifvqbvg","pricing_plan_id":"cebpf4jnsgd1na2vs0mg"},{"bike_id":"63e8bde6-e089-4d91-b9df-ebb8cf035fa8","system_id":"levelo_inurba_marseille","lat":43.29637,"lon":5.40593,"is_reserved":false,"is_disabled":false,"rental_uris":{"android":"levelo://app?vid=63e8bde6-e089-4d91-b9df-ebb8cf035fa8","ios":"levelo://app?vid=63e8bde6-e089-4d91-b9df-ebb8cf035fa8"},"vehicle_type_id":"4","last_reported":1741335144,"current_range_meters":9200,"station_id":"ce4bh0h2rcd13ifvqd60","pricing_plan_id":"cebpf4jnsgd1na2vs0mg"},{"bike_id":"c9742983-7a2c-4b6f-870f-19adb55ad0ea","system_id":"levelo_inurba_marseille","lat":43.30077,"lon":5.3908,"is_reserved":false,"is_disabled":false,"rental_uris":{"android":"levelo://app?vid=c9742983-7a2c-4b6f-870f-19adb55ad0ea","ios":"levelo://app?vid=c9742983-7a2c-4b6f-870f-19adb55ad0ea"},"vehicle_type_id":"4","last_reported":1741335144,"current_range_meters":9200,"station_id":"ce4bh192rcd13ifvqdb0","pricing_plan_id":"cebpf4jnsgd1na2vs0mg"},{"bike_id":"161c8373-c567-4da9-ba19-8203be971429","system_id":"levelo_inurba_marseille","lat":43.2917,"lon":5.37157,"is_reserved":false,"is_disabled":false,"rental_uris":{"android":"levelo://app?vid=161c8373-c567-4da9-ba19-8203be971429","ios":"levelo://app?vid=161c8373-c567-4da9-ba19-8203be971429"},"vehicle_type_id":"4","last_reported":1741335144,"current_range_meters":9200,"station_id":"ce4bha92rcd13ifvqeh0","pricing_plan_id":"cebpf4jnsgd1na2vs0mg"},{"bike_id":"bd8fd190-1d6e-4add-8bad-f864179ba855","system_id":"levelo_inurba_marseille","lat":43.28615,"lon":5.35104,"is_reserved":false,"is_disabled":false,"rental_uris":{"android":"levelo://app?vid=bd8fd190-1d6e-4add-8bad-f864179ba855","ios":"levelo://app?vid=bd8fd190-1d6e-4add-8bad-f864179ba855"},"vehicle_type_id":"4","last_reported":1741335144,"current_range_meters":9200,"station_id":"ce4bhch2rcd13ifvqeug","pricing_plan_id":"cebpf4jnsgd1na2vs0mg"},{"bike_id":"b62cee08-340a-4342-b792-f9ab96038d59","system_id":"levelo_inurba_marseille","lat":43.24389,"lon":5.37063,"is_reserved":false,"is_disabled":false,"rental_uris":{"android":"levelo://app?vid=b62cee08-340a-4342-b792-f9ab96038d59","ios":"levelo://app?vid=b62cee08-340a-4342-b792-f9ab96038d59"},"vehicle_type_id":"4","last_reported":1741335144,"current_range_meters":9200,"station_id":"ce4bhhh2rcd13ifvqfk0","pricing_plan_id":"cebpf4jnsgd1na2vs0mg"},{"bike_id":"93bf5a61-b8a8-49cd-8b33-574a28d9bdf3","system_id":"levelo_inurba_marseille","lat":43.24057,"lon":5.37782,"is_reserved":false,"is_disabled":false,"rental_uris":{"android":"levelo://app?vid=93bf5a61-b8a8-49cd-8b33-574a28d9bdf3","ios":"levelo://app?vid=93bf5a61-b8a8-49cd-8b33-574a28d9bdf3"},"vehicle_type_id":"4","last_reported":1741335144,"current_range_meters":9200,"station_id":"ce4bhnp2rcd13ifvqgvg","pricing_plan_id":"cebpf4jnsgd1na2vs0mg"},{"bike_id":"74a6b741-2fac-4ad9-9fa9-73091c4dbdff","system_id":"levelo_inurba_marseille","lat":43.28698,"lon":5.39992,"is_reserved":false,"is_disabled":false,"rental_uris":{"android":"levelo://app?vid=74a6b741-2fac-4ad9-9fa9-73091c4dbdff","ios":"levelo://app?vid=74a6b741-2fac-4ad9-9fa9-73091c4dbdff"},"vehicle_type_id":"4","last_reported":1741335144,"current_range_meters":9200,"station_id":"ce4bho92rcd13ifvqh3g","pricing_plan_id":"cebpf4jnsgd1na2vs0mg"},{"bike_id":"2d340159-37c8-41dc-a62f-ca06729e55bc","system_id":"levelo_inurba_marseille","lat":43.32417,"lon":5.36673,"is_reserved":false,"is_disabled":false,"rental_uris":{"android":"levelo://app?vid=2d340159-37c8-41dc-a62f-ca06729e55bc","ios":"levelo://app?vid=2d340159-37c8-41dc-a62f-ca06729e55bc"},"vehicle_type_id":"4","last_reported":1741335144,"current_range_meters":9200,"station_id":"ce4bhsh2rcd13ifvqi2g","pricing_plan_id":"cebpf4jnsgd1na2vs0mg"},{"bike_id":"c1ef0e1a-f14a-49dc-9142-24a0f46d9e6e","system_id":"levelo_inurba_marseille","lat":43.28422,"lon":5.34977,"is_reserved":false,"is_disabled":false,"rental_uris":{"android":"levelo://app?vid=c1ef0e1a-f14a-49dc-9142-24a0f46d9e6e","ios":"levelo://app?vid=c1ef0e1a-f14a-49dc-9142-24a0f46d9e6e"},"vehicle_type_id":"4","last_reported":1741335144,"current_range_meters":9600,"station_id":"ce4bhbh2rcd13ifvqepg","pricing_plan_id":"cebpf4jnsgd1na2vs0mg"},{"bike_id":"549f0e20-712f-455b-8868-0f3f9588d3f7","system_id":"levelo_inurba_marseille","lat":43.23196,"lon":5.39984,"is_reserved":false,"is_disabled":false,"rental_uris":{"android":"levelo://app?vid=549f0e20-712f-455b-8868-0f3f9588d3f7","ios":"levelo://app?vid=549f0e20-712f-455b-8868-0f3f9588d3f7"},"vehicle_type_id":"4","last_reported":1741335144,"current_range_meters":9600,"station_id":"ce4bhn12rcd13ifvqgqg","pricing_plan_id":"cebpf4jnsgd1na2vs0mg"},{"bike_id":"7582ad68-779a-4296-9bd6-58a679d7fcda","system_id":"levelo_inurba_marseille","lat":43.24073,"lon":5.37791,"is_reserved":false,"is_disabled":false,"rental_uris":{"android":"levelo://app?vid=7582ad68-779a-4296-9bd6-58a679d7fcda","ios":"levelo://app?vid=7582ad68-779a-4296-9bd6-58a679d7fcda"},"vehicle_type_id":"4","last_reported":1741335144,"current_range_meters":9600,"station_id":"ce4bhnp2rcd13ifvqgvg","pricing_plan_id":"cebpf4jnsgd1na2vs0mg"},{"bike_id":"af64aab6-b0ec-4322-8958-8e2433b8de14","system_id":"levelo_inurba_marseille","lat":43.24065,"lon":5.37762,"is_reserved":false,"is_disabled":false,"rental_uris":{"android":"levelo://app?vid=af64aab6-b0ec-4322-8958-8e2433b8de14","ios":"levelo://app?vid=af64aab6-b0ec-4322-8958-8e2433b8de14"},"vehicle_type_id":"4","last_reported":1741335144,"current_range_meters":9600,"station_id":"ce4bhnp2rcd13ifvqgvg","pricing_plan_id":"cebpf4jnsgd1na2vs0mg"},{"bike_id":"25fa3c25-b6a8-4846-b5aa-b5bbfcb9cf23","system_id":"levelo_inurba_marseille","lat":43.29049,"lon":5.3997,"is_reserved":false,"is_disabled":false,"rental_uris":{"android":"levelo://app?vid=25fa3c25-b6a8-4846-b5aa-b5bbfcb9cf23","ios":"levelo://app?vid=25fa3c25-b6a8-4846-b5aa-b5bbfcb9cf23"},"vehicle_type_id":"4","last_reported":1741335144,"current_range_meters":10000,"station_id":"ce4bh392rcd13ifvqdm0","pricing_plan_id":"cebpf4jnsgd1na2vs0mg"},{"bike_id":"56db0908-ef01-44f7-b403-cea5d6e769c0","system_id":"levelo_inurba_marseille","lat":43.26194,"lon":5.3745,"is_reserved":false,"is_disabled":false,"rental_uris":{"android":"levelo://app?vid=56db0908-ef01-44f7-b403-cea5d6e769c0","ios":"levelo://app?vid=56db0908-ef01-44f7-b403-cea5d6e769c0"},"vehicle_type_id":"4","last_reported":1741335144,"current_range_meters":10000,"station_id":"ce4bhgp2rcd13ifvqfc0","pricing_plan_id":"cebpf4jnsgd1na2vs0mg"},{"bike_id":"7d483360-c35f-4d7f-9a39-8a1e6c8ecd39","system_id":"levelo_inurba_marseille","lat":43.26954,"lon":5.38633,"is_reserved":false,"is_disabled":false,"rental_uris":{"android":"levelo://app?vid=7d483360-c35f-4d7f-9a39-8a1e6c8ecd39","ios":"levelo://app?vid=7d483360-c35f-4d7f-9a39-8a1e6c8ecd39"},"vehicle_type_id":"4","last_reported":1741335144,"current_range_meters":10000,"station_id":"ce4bhh92rcd13ifvqfh0","pricing_plan_id":"cebpf4jnsgd1na2vs0mg"},{"bike_id":"971f69a4-b62a-415e-908a-92b6e2f96f06","system_id":"levelo_inurba_marseille","lat":43.24662,"lon":5.38169,"is_reserved":false,"is_disabled":false,"rental_uris":{"android":"levelo://app?vid=971f69a4-b62a-415e-908a-92b6e2f96f06","ios":"levelo://app?vid=971f69a4-b62a-415e-908a-92b6e2f96f06"},"vehicle_type_id":"4","last_reported":1741335144,"current_range_meters":10000,"station_id":"ce4bhih2rcd13ifvqfr0","pricing_plan_id":"cebpf4jnsgd1na2vs0mg"},{"bike_id":"32acfc34-8cd4-4262-8ead-298d21d83614","system_id":"levelo_inurba_marseille","lat":43.23155,"lon":5.43714,"is_reserved":false,"is_disabled":false,"rental_uris":{"android":"levelo://app?vid=32acfc34-8cd4-4262-8ead-298d21d83614","ios":"levelo://app?vid=32acfc34-8cd4-4262-8ead-298d21d83614"},"vehicle_type_id":"4","last_reported":1741335144,"current_range_meters":10000,"station_id":"ce4bhmp2rcd13ifvqgog","pricing_plan_id":"cebpf4jnsgd1na2vs0mg"},{"bike_id":"d015e1e7-8b4f-4898-a841-104d62c0d9ad","system_id":"levelo_inurba_marseille","lat":43.23187,"lon":5.39983,"is_reserved":false,"is_disabled":false,"rental_uris":{"android":"levelo://app?vid=d015e1e7-8b4f-4898-a841-104d62c0d9ad","ios":"levelo://app?vid=d015e1e7-8b4f-4898-a841-104d62c0d9ad"},"vehicle_type_id":"4","last_reported":1741335144,"current_range_meters":10000,"station_id":"ce4bhn12rcd13ifvqgqg","pricing_plan_id":"cebpf4jnsgd1na2vs0mg"},{"bike_id":"b32aab43-86a3-483e-9b6b-4557e9339503","system_id":"levelo_inurba_marseille","lat":43.30954,"lon":5.39046,"is_reserved":false,"is_disabled":false,"rental_uris":{"android":"levelo://app?vid=b32aab43-86a3-483e-9b6b-4557e9339503","ios":"levelo://app?vid=b32aab43-86a3-483e-9b6b-4557e9339503"},"vehicle_type_id":"4","last_reported":1741335144,"current_range_meters":10800,"station_id":"ce4bgup2rcd13ifvqco0","pricing_plan_id":"cebpf4jnsgd1na2vs0mg"},{"bike_id":"450439a7-a862-4524-b173-408943e07d73","system_id":"levelo_inurba_marseille","lat":43.29115,"lon":5.40098,"is_reserved":false,"is_disabled":false,"rental_uris":{"android":"levelo://app?vid=450439a7-a862-4524-b173-408943e07d73","ios":"levelo://app?vid=450439a7-a862-4524-b173-408943e07d73"},"vehicle_type_id":"4","last_reported":1741335144,"current_range_meters":10800,"station_id":"ce4bh392rcd13ifvqdm0","pricing_plan_id":"cebpf4jnsgd1na2vs0mg"},{"bike_id":"7c48aa60-b88e-430b-9ded-eab56b382445","system_id":"levelo_inurba_marseille","lat":43.29028,"lon":5.38115,"is_reserved":false,"is_disabled":false,"rental_uris":{"android":"levelo://app?vid=7c48aa60-b88e-430b-9ded-eab56b382445","ios":"levelo://app?vid=7c48aa60-b88e-430b-9ded-eab56b382445"},"vehicle_type_id":"4","last_reported":1741335144,"current_range_meters":10800,"station_id":"ce4bh4p2rcd13ifvqe1g","pricing_plan_id":"cebpf4jnsgd1na2vs0mg"},{"bike_id":"03b2a53b-cd6d-4353-957f-2760b29c52f8","system_id":"levelo_inurba_marseille","lat":43.28453,"lon":5.35012,"is_reserved":false,"is_disabled":false,"rental_uris":{"android":"levelo://app?vid=03b2a53b-cd6d-4353-957f-2760b29c52f8","ios":"levelo://app?vid=03b2a53b-cd6d-4353-957f-2760b29c52f8"},"vehicle_type_id":"4","last_reported":1741335144,"current_range_meters":10800,"station_id":"ce4bhbh2rcd13ifvqepg","pricing_plan_id":"cebpf4jnsgd1na2vs0mg"},{"bike_id":"34aa14cc-09e2-478d-a4d8-f2c0b44526ae","system_id":"levelo_inurba_marseille","lat":43.26218,"lon":5.40461,"is_reserved":false,"is_disabled":false,"rental_uris":{"android":"levelo://app?vid=34aa14cc-09e2-478d-a4d8-f2c0b44526ae","ios":"levelo://app?vid=34aa14cc-09e2-478d-a4d8-f2c0b44526ae"},"vehicle_type_id":"4","last_reported":1741335144,"current_range_meters":10800,"station_id":"ce4bhmh2rcd13ifvqgmg","pricing_plan_id":"cebpf4jnsgd1na2vs0mg"},{"bike_id":"2b1de8ba-6297-479a-97e0-c4ffcb43060b","system_id":"levelo_inurba_marseille","lat":43.23195,"lon":5.39975,"is_reserved":false,"is_disabled":false,"rental_uris":{"android":"levelo://app?vid=2b1de8ba-6297-479a-97e0-c4ffcb43060b","ios":"levelo://app?vid=2b1de8ba-6297-479a-97e0-c4ffcb43060b"},"vehicle_type_id":"4","last_reported":1741335144,"current_range_meters":10800,"station_id":"ce4bhn12rcd13ifvqgqg","pricing_plan_id":"cebpf4jnsgd1na2vs0mg"},{"bike_id":"42323b44-4776-4993-88db-08c90d643018","system_id":"levelo_inurba_marseille","lat":43.300892,"lon":5.376622,"is_reserved":false,"is_disabled":false,"rental_uris":{"android":"levelo://app?vid=42323b44-4776-4993-88db-08c90d643018","ios":"levelo://app?vid=42323b44-4776-4993-88db-08c90d643018"},"vehicle_type_id":"4","last_reported":1741335144,"current_range_meters":11200,"station_id":"","pricing_plan_id":"cebpf4jnsgd1na2vs0mg"},{"bike_id":"707f7ab7-3329-4bbe-a15e-b7a9d9e721c7","system_id":"levelo_inurba_marseille","lat":43.31229,"lon":5.36861,"is_reserved":false,"is_disabled":false,"rental_uris":{"android":"levelo://app?vid=707f7ab7-3329-4bbe-a15e-b7a9d9e721c7","ios":"levelo://app?vid=707f7ab7-3329-4bbe-a15e-b7a9d9e721c7"},"vehicle_type_id":"4","last_reported":1741335144,"current_range_meters":11200,"station_id":"ce4bgl92rcd13ifvqbq0","pricing_plan_id":"cebpf4jnsgd1na2vs0mg"},{"bike_id":"953d01f2-bd21-43f6-94db-7a5ae90c3a9b","system_id":"levelo_inurba_marseille","lat":43.29281,"lon":5.40118,"is_reserved":false,"is_disabled":false,"rental_uris":{"android":"levelo://app?vid=953d01f2-bd21-43f6-94db-7a5ae90c3a9b","ios":"levelo://app?vid=953d01f2-bd21-43f6-94db-7a5ae90c3a9b"},"vehicle_type_id":"4","last_reported":1741335144,"current_range_meters":11200,"station_id":"ce4bh312rcd13ifvqdk0","pricing_plan_id":"cebpf4jnsgd1na2vs0mg"},{"bike_id":"09b5a791-41f8-48d8-a8af-e40022d24921","system_id":"levelo_inurba_marseille","lat":43.26787,"lon":5.39418,"is_reserved":false,"is_disabled":false,"rental_uris":{"android":"levelo://app?vid=09b5a791-41f8-48d8-a8af-e40022d24921","ios":"levelo://app?vid=09b5a791-41f8-48d8-a8af-e40022d24921"},"vehicle_type_id":"4","last_reported":1741335144,"current_range_meters":11200,"station_id":"ce4bhh12rcd13ifvqfg0","pricing_plan_id":"cebpf4jnsgd1na2vs0mg"},{"bike_id":"6ea729a2-3067-45cf-8c3c-0c87ac7b42ca","system_id":"levelo_inurba_marseille","lat":43.24073,"lon":5.37766,"is_reserved":false,"is_disabled":false,"rental_uris":{"android":"levelo://app?vid=6ea729a2-3067-45cf-8c3c-0c87ac7b42ca","ios":"levelo://app?vid=6ea729a2-3067-45cf-8c3c-0c87ac7b42ca"},"vehicle_type_id":"4","last_reported":1741335144,"current_range_meters":11200,"station_id":"ce4bhnp2rcd13ifvqgvg","pricing_plan_id":"cebpf4jnsgd1na2vs0mg"},{"bike_id":"97ec7852-1a72-4f4d-8bce-6eb24e8fcbf1","system_id":"levelo_inurba_marseille","lat":43.336032,"lon":5.410326,"is_reserved":false,"is_disabled":false,"rental_uris":{"android":"levelo://app?vid=97ec7852-1a72-4f4d-8bce-6eb24e8fcbf1","ios":"levelo://app?vid=97ec7852-1a72-4f4d-8bce-6eb24e8fcbf1"},"vehicle_type_id":"4","last_reported":1741335144,"current_range_meters":11200,"station_id":"ce4bhqh2rcd13ifvqhmg","pricing_plan_id":"cebpf4jnsgd1na2vs0mg"},{"bike_id":"5bf2fb3c-30ac-4ff1-beb5-e66f3b7aee41","system_id":"levelo_inurba_marseille","lat":43.32314,"lon":5.38863,"is_reserved":false,"is_disabled":false,"rental_uris":{"android":"levelo://app?vid=5bf2fb3c-30ac-4ff1-beb5-e66f3b7aee41","ios":"levelo://app?vid=5bf2fb3c-30ac-4ff1-beb5-e66f3b7aee41"},"vehicle_type_id":"4","last_reported":1741335144,"current_range_meters":11200,"station_id":"ce4bhqp2rcd13ifvqhog","pricing_plan_id":"cebpf4jnsgd1na2vs0mg"},{"bike_id":"8548b99b-01ca-43a3-9e8d-f8acb64a8638","system_id":"levelo_inurba_marseille","lat":43.27491,"lon":5.42457,"is_reserved":false,"is_disabled":false,"rental_uris":{"android":"levelo://app?vid=8548b99b-01ca-43a3-9e8d-f8acb64a8638","ios":"levelo://app?vid=8548b99b-01ca-43a3-9e8d-f8acb64a8638"},"vehicle_type_id":"4","last_reported":1741335144,"current_range_meters":11600,"station_id":"ce4bhn92rcd13ifvqgrg","pricing_plan_id":"cebpf4jnsgd1na2vs0mg"},{"bike_id":"6a1366c1-41ed-4dda-b62f-b12cda709bc4","system_id":"levelo_inurba_marseille","lat":43.32356,"lon":5.38917,"is_reserved":false,"is_disabled":false,"rental_uris":{"android":"levelo://app?vid=6a1366c1-41ed-4dda-b62f-b12cda709bc4","ios":"levelo://app?vid=6a1366c1-41ed-4dda-b62f-b12cda709bc4"},"vehicle_type_id":"4","last_reported":1741335144,"current_range_meters":11600,"station_id":"ce4bhqp2rcd13ifvqhog","pricing_plan_id":"cebpf4jnsgd1na2vs0mg"},{"bike_id":"daa48c53-c5de-46aa-94fc-655cbd710c8c","system_id":"levelo_inurba_marseille","lat":43.22928,"lon":5.35398,"is_reserved":false,"is_disabled":false,"rental_uris":{"android":"levelo://app?vid=daa48c53-c5de-46aa-94fc-655cbd710c8c","ios":"levelo://app?vid=daa48c53-c5de-46aa-94fc-655cbd710c8c"},"vehicle_type_id":"4","last_reported":1741335144,"current_range_meters":11600,"station_id":"cpo3532slgdg3j2ikp40","pricing_plan_id":"cebpf4jnsgd1na2vs0mg"},{"bike_id":"773b5bb5-136d-4c66-bac9-7348ed7bc4c5","system_id":"levelo_inurba_marseille","lat":43.287193,"lon":5.379335,"is_reserved":false,"is_disabled":false,"rental_uris":{"android":"levelo://app?vid=773b5bb5-136d-4c66-bac9-7348ed7bc4c5","ios":"levelo://app?vid=773b5bb5-136d-4c66-bac9-7348ed7bc4c5"},"vehicle_type_id":"4","last_reported":1741335144,"current_range_meters":12000,"station_id":"ce4bh9p2rcd13ifvqec0","pricing_plan_id":"cebpf4jnsgd1na2vs0mg"},{"bike_id":"ce0b824b-7f76-40e8-a9e1-18f27192fc1f","system_id":"levelo_inurba_marseille","lat":43.24071,"lon":5.37753,"is_reserved":false,"is_disabled":false,"rental_uris":{"android":"levelo://app?vid=ce0b824b-7f76-40e8-a9e1-18f27192fc1f","ios":"levelo://app?vid=ce0b824b-7f76-40e8-a9e1-18f27192fc1f"},"vehicle_type_id":"4","last_reported":1741335144,"current_range_meters":12000,"station_id":"ce4bhnp2rcd13ifvqgvg","pricing_plan_id":"cebpf4jnsgd1na2vs0mg"},{"bike_id":"d0a9e0b6-7460-48af-b167-fa241d6b44c3","system_id":"levelo_inurba_marseille","lat":43.32117,"lon":5.36789,"is_reserved":false,"is_disabled":false,"rental_uris":{"android":"levelo://app?vid=d0a9e0b6-7460-48af-b167-fa241d6b44c3","ios":"levelo://app?vid=d0a9e0b6-7460-48af-b167-fa241d6b44c3"},"vehicle_type_id":"4","last_reported":1741335144,"current_range_meters":12000,"station_id":"ce4bhrh2rcd13ifvqhug","pricing_plan_id":"cebpf4jnsgd1na2vs0mg"},{"bike_id":"6163b413-5ed4-4137-b8d8-c944711320b4","system_id":"levelo_inurba_marseille","lat":43.29226,"lon":5.36065,"is_reserved":false,"is_disabled":false,"rental_uris":{"android":"levelo://app?vid=6163b413-5ed4-4137-b8d8-c944711320b4","ios":"levelo://app?vid=6163b413-5ed4-4137-b8d8-c944711320b4"},"vehicle_type_id":"4","last_reported":1741335144,"current_range_meters":12400,"station_id":"ce4bhbh2rcd13ifvqeqg","pricing_plan_id":"cebpf4jnsgd1na2vs0mg"},{"bike_id":"1ea20267-c047-4d3e-b61f-4c89af5c4965","system_id":"levelo_inurba_marseille","lat":43.2695,"lon":5.38638,"is_reserved":false,"is_disabled":false,"rental_uris":{"android":"levelo://app?vid=1ea20267-c047-4d3e-b61f-4c89af5c4965","ios":"levelo://app?vid=1ea20267-c047-4d3e-b61f-4c89af5c4965"},"vehicle_type_id":"4","last_reported":1741335144,"current_range_meters":12400,"station_id":"ce4bhh92rcd13ifvqfh0","pricing_plan_id":"cebpf4jnsgd1na2vs0mg"},{"bike_id":"693db7cd-c1ad-4554-a554-5ae5efa16a2d","system_id":"levelo_inurba_marseille","lat":43.24161,"lon":5.39736,"is_reserved":false,"is_disabled":false,"rental_uris":{"android":"levelo://app?vid=693db7cd-c1ad-4554-a554-5ae5efa16a2d","ios":"levelo://app?vid=693db7cd-c1ad-4554-a554-5ae5efa16a2d"},"vehicle_type_id":"4","last_reported":1741335144,"current_range_meters":12400,"station_id":"ce4bhn12rcd13ifvqgpg","pricing_plan_id":"cebpf4jnsgd1na2vs0mg"},{"bike_id":"e2c9a10f-d165-47fa-bcc3-3b72ae9367ad","system_id":"levelo_inurba_marseille","lat":43.23211,"lon":5.39987,"is_reserved":false,"is_disabled":false,"rental_uris":{"android":"levelo://app?vid=e2c9a10f-d165-47fa-bcc3-3b72ae9367ad","ios":"levelo://app?vid=e2c9a10f-d165-47fa-bcc3-3b72ae9367ad"},"vehicle_type_id":"4","last_reported":1741335144,"current_range_meters":12400,"station_id":"ce4bhn12rcd13ifvqgqg","pricing_plan_id":"cebpf4jnsgd1na2vs0mg"},{"bike_id":"fb9fe5c8-244f-47c3-aa5b-0ac4cf40dbfe","system_id":"levelo_inurba_marseille","lat":43.24072,"lon":5.37761,"is_reserved":false,"is_disabled":false,"rental_uris":{"android":"levelo://app?vid=fb9fe5c8-244f-47c3-aa5b-0ac4cf40dbfe","ios":"levelo://app?vid=fb9fe5c8-244f-47c3-aa5b-0ac4cf40dbfe"},"vehicle_type_id":"4","last_reported":1741335144,"current_range_meters":12400,"station_id":"ce4bhnp2rcd13ifvqgvg","pricing_plan_id":"cebpf4jnsgd1na2vs0mg"},{"bike_id":"3949e300-2dbd-4203-aa58-eef0b1b0c774","system_id":"levelo_inurba_marseille","lat":43.337842,"lon":5.374356,"is_reserved":false,"is_disabled":false,"rental_uris":{"android":"levelo://app?vid=3949e300-2dbd-4203-aa58-eef0b1b0c774","ios":"levelo://app?vid=3949e300-2dbd-4203-aa58-eef0b1b0c774"},"vehicle_type_id":"4","last_reported":1741335144,"current_range_meters":12800,"station_id":"","pricing_plan_id":"cebpf4jnsgd1na2vs0mg"},{"bike_id":"33c3461d-33a4-42b7-aaad-38e2706134ea","system_id":"levelo_inurba_marseille","lat":43.25929,"lon":5.40884,"is_reserved":false,"is_disabled":false,"rental_uris":{"android":"levelo://app?vid=33c3461d-33a4-42b7-aaad-38e2706134ea","ios":"levelo://app?vid=33c3461d-33a4-42b7-aaad-38e2706134ea"},"vehicle_type_id":"4","last_reported":1741335144,"current_range_meters":12800,"station_id":"ce4bhm92rcd13ifvqglg","pricing_plan_id":"cebpf4jnsgd1na2vs0mg"},{"bike_id":"6d7e0450-89ad-4e81-9f4f-61db2e3e009a","system_id":"levelo_inurba_marseille","lat":43.29905,"lon":5.43711,"is_reserved":false,"is_disabled":false,"rental_uris":{"android":"levelo://app?vid=6d7e0450-89ad-4e81-9f4f-61db2e3e009a","ios":"levelo://app?vid=6d7e0450-89ad-4e81-9f4f-61db2e3e009a"},"vehicle_type_id":"4","last_reported":1741335144,"current_range_meters":13600,"station_id":"","pricing_plan_id":"cebpf4jnsgd1na2vs0mg"},{"bike_id":"563c9629-05cf-49ef-8ac6-4e5ef18e4f1d","system_id":"levelo_inurba_marseille","lat":43.25085,"lon":5.39537,"is_reserved":false,"is_disabled":false,"rental_uris":{"android":"levelo://app?vid=563c9629-05cf-49ef-8ac6-4e5ef18e4f1d","ios":"levelo://app?vid=563c9629-05cf-49ef-8ac6-4e5ef18e4f1d"},"vehicle_type_id":"4","last_reported":1741335144,"current_range_meters":13600,"station_id":"ce4bhm12rcd13ifvqgkg","pricing_plan_id":"cebpf4jnsgd1na2vs0mg"},{"bike_id":"0526cfc7-294a-4c9b-9466-442f591045bc","system_id":"levelo_inurba_marseille","lat":43.23191,"lon":5.39985,"is_reserved":false,"is_disabled":false,"rental_uris":{"android":"levelo://app?vid=0526cfc7-294a-4c9b-9466-442f591045bc","ios":"levelo://app?vid=0526cfc7-294a-4c9b-9466-442f591045bc"},"vehicle_type_id":"4","last_reported":1741335144,"current_range_meters":13600,"station_id":"ce4bhn12rcd13ifvqgqg","pricing_plan_id":"cebpf4jnsgd1na2vs0mg"},{"bike_id":"9efbff90-6380-4e58-8359-a0c4a1eca8c5","system_id":"levelo_inurba_marseille","lat":43.32363,"lon":5.3887,"is_reserved":false,"is_disabled":false,"rental_uris":{"android":"levelo://app?vid=9efbff90-6380-4e58-8359-a0c4a1eca8c5","ios":"levelo://app?vid=9efbff90-6380-4e58-8359-a0c4a1eca8c5"},"vehicle_type_id":"4","last_reported":1741335144,"current_range_meters":13600,"station_id":"ce4bhqp2rcd13ifvqhog","pricing_plan_id":"cebpf4jnsgd1na2vs0mg"},{"bike_id":"41467d62-573c-4dd2-a21a-5867e06ef715","system_id":"levelo_inurba_marseille","lat":43.3046,"lon":5.37901,"is_reserved":false,"is_disabled":false,"rental_uris":{"android":"levelo://app?vid=41467d62-573c-4dd2-a21a-5867e06ef715","ios":"levelo://app?vid=41467d62-573c-4dd2-a21a-5867e06ef715"},"vehicle_type_id":"4","last_reported":1741335144,"current_range_meters":14000,"station_id":"ce4bgup2rcd13ifvqcn0","pricing_plan_id":"cebpf4jnsgd1na2vs0mg"},{"bike_id":"04b8010c-1d8e-4bbc-a882-fcda2e9bfe6b","system_id":"levelo_inurba_marseille","lat":43.284195,"lon":5.375258,"is_reserved":false,"is_disabled":false,"rental_uris":{"android":"levelo://app?vid=04b8010c-1d8e-4bbc-a882-fcda2e9bfe6b","ios":"levelo://app?vid=04b8010c-1d8e-4bbc-a882-fcda2e9bfe6b"},"vehicle_type_id":"4","last_reported":1741335144,"current_range_meters":14000,"station_id":"ce4bh412rcd13ifvqds0","pricing_plan_id":"cebpf4jnsgd1na2vs0mg"},{"bike_id":"bb6d715d-c94d-4de6-b9ab-2f545fb11e85","system_id":"levelo_inurba_marseille","lat":43.293466,"lon":5.38637,"is_reserved":false,"is_disabled":false,"rental_uris":{"android":"levelo://app?vid=bb6d715d-c94d-4de6-b9ab-2f545fb11e85","ios":"levelo://app?vid=bb6d715d-c94d-4de6-b9ab-2f545fb11e85"},"vehicle_type_id":"4","last_reported":1741335144,"current_range_meters":14000,"station_id":"ce4bhpp2rcd13ifvqhgg","pricing_plan_id":"cebpf4jnsgd1na2vs0mg"},{"bike_id":"6dc172cc-bafc-4383-897b-623fe4e9d3d1","system_id":"levelo_inurba_marseille","lat":43.30547,"lon":5.3653,"is_reserved":false,"is_disabled":false,"rental_uris":{"android":"levelo://app?vid=6dc172cc-bafc-4383-897b-623fe4e9d3d1","ios":"levelo://app?vid=6dc172cc-bafc-4383-897b-623fe4e9d3d1"},"vehicle_type_id":"4","last_reported":1741335144,"current_range_meters":14400,"station_id":"ce4bgs12rcd13ifvqcag","pricing_plan_id":"cebpf4jnsgd1na2vs0mg"},{"bike_id":"14e76b96-af6e-4e50-b023-8d9acb4cdf7c","system_id":"levelo_inurba_marseille","lat":43.30463,"lon":5.37905,"is_reserved":false,"is_disabled":false,"rental_uris":{"android":"levelo://app?vid=14e76b96-af6e-4e50-b023-8d9acb4cdf7c","ios":"levelo://app?vid=14e76b96-af6e-4e50-b023-8d9acb4cdf7c"},"vehicle_type_id":"4","last_reported":1741335144,"current_range_meters":14400,"station_id":"ce4bgup2rcd13ifvqcn0","pricing_plan_id":"cebpf4jnsgd1na2vs0mg"},{"bike_id":"2dc90382-68f4-4aaf-aff4-99386d606858","system_id":"levelo_inurba_marseille","lat":43.26578,"lon":5.39003,"is_reserved":false,"is_disabled":false,"rental_uris":{"android":"levelo://app?vid=2dc90382-68f4-4aaf-aff4-99386d606858","ios":"levelo://app?vid=2dc90382-68f4-4aaf-aff4-99386d606858"},"vehicle_type_id":"4","last_reported":1741335144,"current_range_meters":14400,"station_id":"ce4bhe12rcd13ifvqf30","pricing_plan_id":"cebpf4jnsgd1na2vs0mg"},{"bike_id":"6901c985-3237-4a3b-8579-87e57cfd1efa","system_id":"levelo_inurba_marseille","lat":43.24993,"lon":5.38943,"is_reserved":false,"is_disabled":false,"rental_uris":{"android":"levelo://app?vid=6901c985-3237-4a3b-8579-87e57cfd1efa","ios":"levelo://app?vid=6901c985-3237-4a3b-8579-87e57cfd1efa"},"vehicle_type_id":"4","last_reported":1741335144,"current_range_meters":14400,"station_id":"ce4bhgp2rcd13ifvqfd0","pricing_plan_id":"cebpf4jnsgd1na2vs0mg"},{"bike_id":"0c20e9a6-6f7b-426e-8a39-be58ccd08fb0","system_id":"levelo_inurba_marseille","lat":43.26778,"lon":5.39423,"is_reserved":false,"is_disabled":false,"rental_uris":{"android":"levelo://app?vid=0c20e9a6-6f7b-426e-8a39-be58ccd08fb0","ios":"levelo://app?vid=0c20e9a6-6f7b-426e-8a39-be58ccd08fb0"},"vehicle_type_id":"4","last_reported":1741335144,"current_range_meters":14400,"station_id":"ce4bhh12rcd13ifvqfg0","pricing_plan_id":"cebpf4jnsgd1na2vs0mg"},{"bike_id":"96db5714-7ddf-48eb-8287-997601313b2b","system_id":"levelo_inurba_marseille","lat":43.25866,"lon":5.39898,"is_reserved":false,"is_disabled":false,"rental_uris":{"android":"levelo://app?vid=96db5714-7ddf-48eb-8287-997601313b2b","ios":"levelo://app?vid=96db5714-7ddf-48eb-8287-997601313b2b"},"vehicle_type_id":"4","last_reported":1741335144,"current_range_meters":14400,"station_id":"ce4bhl92rcd13ifvqghg","pricing_plan_id":"cebpf4jnsgd1na2vs0mg"},{"bike_id":"5f598be0-e162-4184-948a-4d84c2e78910","system_id":"levelo_inurba_marseille","lat":43.24186,"lon":5.39747,"is_reserved":false,"is_disabled":false,"rental_uris":{"android":"levelo://app?vid=5f598be0-e162-4184-948a-4d84c2e78910","ios":"levelo://app?vid=5f598be0-e162-4184-948a-4d84c2e78910"},"vehicle_type_id":"4","last_reported":1741335144,"current_range_meters":14400,"station_id":"ce4bhn12rcd13ifvqgpg","pricing_plan_id":"cebpf4jnsgd1na2vs0mg"},{"bike_id":"2cfabe69-9a40-448d-bf5c-37c20b7714b3","system_id":"levelo_inurba_marseille","lat":43.30881,"lon":5.37196,"is_reserved":false,"is_disabled":false,"rental_uris":{"android":"levelo://app?vid=2cfabe69-9a40-448d-bf5c-37c20b7714b3","ios":"levelo://app?vid=2cfabe69-9a40-448d-bf5c-37c20b7714b3"},"vehicle_type_id":"4","last_reported":1741335144,"current_range_meters":14800,"station_id":"ce4bguh2rcd13ifvqckg","pricing_plan_id":"cebpf4jnsgd1na2vs0mg"},{"bike_id":"b0808d70-b2b5-4785-b7ef-fa1e1b150388","system_id":"levelo_inurba_marseille","lat":43.30883,"lon":5.372,"is_reserved":false,"is_disabled":false,"rental_uris":{"android":"levelo://app?vid=b0808d70-b2b5-4785-b7ef-fa1e1b150388","ios":"levelo://app?vid=b0808d70-b2b5-4785-b7ef-fa1e1b150388"},"vehicle_type_id":"4","last_reported":1741335144,"current_range_meters":14800,"station_id":"ce4bguh2rcd13ifvqckg","pricing_plan_id":"cebpf4jnsgd1na2vs0mg"},{"bike_id":"e32e5309-5cf3-4586-ab57-38cd5f2cf148","system_id":"levelo_inurba_marseille","lat":43.24379,"lon":5.3708,"is_reserved":false,"is_disabled":false,"rental_uris":{"android":"levelo://app?vid=e32e5309-5cf3-4586-ab57-38cd5f2cf148","ios":"levelo://app?vid=e32e5309-5cf3-4586-ab57-38cd5f2cf148"},"vehicle_type_id":"4","last_reported":1741335144,"current_range_meters":14800,"station_id":"ce4bhhh2rcd13ifvqfk0","pricing_plan_id":"cebpf4jnsgd1na2vs0mg"},{"bike_id":"30bb02bf-c2c5-415d-87a9-57c8b623d67c","system_id":"levelo_inurba_marseille","lat":43.23178,"lon":5.39994,"is_reserved":false,"is_disabled":false,"rental_uris":{"android":"levelo://app?vid=30bb02bf-c2c5-415d-87a9-57c8b623d67c","ios":"levelo://app?vid=30bb02bf-c2c5-415d-87a9-57c8b623d67c"},"vehicle_type_id":"4","last_reported":1741335144,"current_range_meters":14800,"station_id":"ce4bhn12rcd13ifvqgqg","pricing_plan_id":"cebpf4jnsgd1na2vs0mg"},{"bike_id":"6152b505-bdaa-4154-9904-8e28b1c35e0b","system_id":"levelo_inurba_marseille","lat":43.27826,"lon":5.40721,"is_reserved":false,"is_disabled":false,"rental_uris":{"android":"levelo://app?vid=6152b505-bdaa-4154-9904-8e28b1c35e0b","ios":"levelo://app?vid=6152b505-bdaa-4154-9904-8e28b1c35e0b"},"vehicle_type_id":"4","last_reported":1741335144,"current_range_meters":14800,"station_id":"ce4bhnh2rcd13ifvqgtg","pricing_plan_id":"cebpf4jnsgd1na2vs0mg"},{"bike_id":"0e674cb4-f37d-4bd5-aaff-7ec953d386c6","system_id":"levelo_inurba_marseille","lat":43.24168,"lon":5.36409,"is_reserved":false,"is_disabled":false,"rental_uris":{"android":"levelo://app?vid=0e674cb4-f37d-4bd5-aaff-7ec953d386c6","ios":"levelo://app?vid=0e674cb4-f37d-4bd5-aaff-7ec953d386c6"},"vehicle_type_id":"4","last_reported":1741335144,"current_range_meters":14800,"station_id":"cpo36qri1sfpv3e86is0","pricing_plan_id":"cebpf4jnsgd1na2vs0mg"},{"bike_id":"7e1d3869-31a1-4d96-8df6-5756a2c76cb8","system_id":"levelo_inurba_marseille","lat":43.28354,"lon":5.38103,"is_reserved":false,"is_disabled":false,"rental_uris":{"android":"levelo://app?vid=7e1d3869-31a1-4d96-8df6-5756a2c76cb8","ios":"levelo://app?vid=7e1d3869-31a1-4d96-8df6-5756a2c76cb8"},"vehicle_type_id":"4","last_reported":1741335144,"current_range_meters":15200,"station_id":"ce4bh412rcd13ifvqdr0","pricing_plan_id":"cebpf4jnsgd1na2vs0mg"},{"bike_id":"6ae77951-a909-4dfa-a933-35324bca41b7","system_id":"levelo_inurba_marseille","lat":43.25018,"lon":5.38925,"is_reserved":false,"is_disabled":false,"rental_uris":{"android":"levelo://app?vid=6ae77951-a909-4dfa-a933-35324bca41b7","ios":"levelo://app?vid=6ae77951-a909-4dfa-a933-35324bca41b7"},"vehicle_type_id":"4","last_reported":1741335144,"current_range_meters":15200,"station_id":"ce4bhgp2rcd13ifvqfd0","pricing_plan_id":"cebpf4jnsgd1na2vs0mg"},{"bike_id":"4a46d298-3e7a-4948-90da-4a2ea16a4285","system_id":"levelo_inurba_marseille","lat":43.25001,"lon":5.38929,"is_reserved":false,"is_disabled":false,"rental_uris":{"android":"levelo://app?vid=4a46d298-3e7a-4948-90da-4a2ea16a4285","ios":"levelo://app?vid=4a46d298-3e7a-4948-90da-4a2ea16a4285"},"vehicle_type_id":"4","last_reported":1741335144,"current_range_meters":15200,"station_id":"ce4bhgp2rcd13ifvqfd0","pricing_plan_id":"cebpf4jnsgd1na2vs0mg"},{"bike_id":"c08ed7e5-2d9b-4459-92fc-cf957180ed4a","system_id":"levelo_inurba_marseille","lat":43.25819,"lon":5.39448,"is_reserved":false,"is_disabled":false,"rental_uris":{"android":"levelo://app?vid=c08ed7e5-2d9b-4459-92fc-cf957180ed4a","ios":"levelo://app?vid=c08ed7e5-2d9b-4459-92fc-cf957180ed4a"},"vehicle_type_id":"4","last_reported":1741335144,"current_range_meters":15200,"station_id":"ce4bhip2rcd13ifvqft0","pricing_plan_id":"cebpf4jnsgd1na2vs0mg"},{"bike_id":"8ea383d4-f425-4f2e-91a3-57cb03091ad5","system_id":"levelo_inurba_marseille","lat":43.24077,"lon":5.37764,"is_reserved":false,"is_disabled":false,"rental_uris":{"android":"levelo://app?vid=8ea383d4-f425-4f2e-91a3-57cb03091ad5","ios":"levelo://app?vid=8ea383d4-f425-4f2e-91a3-57cb03091ad5"},"vehicle_type_id":"4","last_reported":1741335144,"current_range_meters":15200,"station_id":"ce4bhnp2rcd13ifvqgvg","pricing_plan_id":"cebpf4jnsgd1na2vs0mg"},{"bike_id":"a59c941d-b9d9-4002-b926-de5d10e62478","system_id":"levelo_inurba_marseille","lat":43.24078,"lon":5.37754,"is_reserved":false,"is_disabled":false,"rental_uris":{"android":"levelo://app?vid=a59c941d-b9d9-4002-b926-de5d10e62478","ios":"levelo://app?vid=a59c941d-b9d9-4002-b926-de5d10e62478"},"vehicle_type_id":"4","last_reported":1741335144,"current_range_meters":15200,"station_id":"ce4bhnp2rcd13ifvqgvg","pricing_plan_id":"cebpf4jnsgd1na2vs0mg"},{"bike_id":"2f80fa14-45f3-40fd-8835-a76e0d67388f","system_id":"levelo_inurba_marseille","lat":43.29557,"lon":5.42284,"is_reserved":false,"is_disabled":false,"rental_uris":{"android":"levelo://app?vid=2f80fa14-45f3-40fd-8835-a76e0d67388f","ios":"levelo://app?vid=2f80fa14-45f3-40fd-8835-a76e0d67388f"},"vehicle_type_id":"4","last_reported":1741335144,"current_range_meters":15200,"station_id":"ce4bhph2rcd13ifvqhdg","pricing_plan_id":"cebpf4jnsgd1na2vs0mg"},{"bike_id":"e6472cf0-0ad7-491d-9b42-ba9a1b7210e2","system_id":"levelo_inurba_marseille","lat":43.29894,"lon":5.43669,"is_reserved":false,"is_disabled":false,"rental_uris":{"android":"levelo://app?vid=e6472cf0-0ad7-491d-9b42-ba9a1b7210e2","ios":"levelo://app?vid=e6472cf0-0ad7-491d-9b42-ba9a1b7210e2"},"vehicle_type_id":"4","last_reported":1741335144,"current_range_meters":15200,"station_id":"ce4bhpp2rcd13ifvqhfg","pricing_plan_id":"cebpf4jnsgd1na2vs0mg"},{"bike_id":"7372ba19-4949-453e-a20c-490c28817add","system_id":"levelo_inurba_marseille","lat":43.33801,"lon":5.37464,"is_reserved":false,"is_disabled":false,"rental_uris":{"android":"levelo://app?vid=7372ba19-4949-453e-a20c-490c28817add","ios":"levelo://app?vid=7372ba19-4949-453e-a20c-490c28817add"},"vehicle_type_id":"4","last_reported":1741335144,"current_range_meters":16000,"station_id":"","pricing_plan_id":"cebpf4jnsgd1na2vs0mg"},{"bike_id":"ad9a8406-e1b8-4c43-83e7-6ca47ad1435f","system_id":"levelo_inurba_marseille","lat":43.24967,"lon":5.38987,"is_reserved":false,"is_disabled":false,"rental_uris":{"android":"levelo://app?vid=ad9a8406-e1b8-4c43-83e7-6ca47ad1435f","ios":"levelo://app?vid=ad9a8406-e1b8-4c43-83e7-6ca47ad1435f"},"vehicle_type_id":"4","last_reported":1741335144,"current_range_meters":16000,"station_id":"","pricing_plan_id":"cebpf4jnsgd1na2vs0mg"},{"bike_id":"7a234828-ce11-459e-8c82-c4c9a970f721","system_id":"levelo_inurba_marseille","lat":43.3122,"lon":5.36834,"is_reserved":false,"is_disabled":false,"rental_uris":{"android":"levelo://app?vid=7a234828-ce11-459e-8c82-c4c9a970f721","ios":"levelo://app?vid=7a234828-ce11-459e-8c82-c4c9a970f721"},"vehicle_type_id":"4","last_reported":1741335144,"current_range_meters":16000,"station_id":"ce4bgl92rcd13ifvqbq0","pricing_plan_id":"cebpf4jnsgd1na2vs0mg"},{"bike_id":"35358317-de54-4a09-b979-66e187ea4848","system_id":"levelo_inurba_marseille","lat":43.30469,"lon":5.37901,"is_reserved":false,"is_disabled":false,"rental_uris":{"android":"levelo://app?vid=35358317-de54-4a09-b979-66e187ea4848","ios":"levelo://app?vid=35358317-de54-4a09-b979-66e187ea4848"},"vehicle_type_id":"4","last_reported":1741335144,"current_range_meters":16000,"station_id":"ce4bgup2rcd13ifvqcn0","pricing_plan_id":"cebpf4jnsgd1na2vs0mg"},{"bike_id":"1f93e32b-fd9b-4348-9077-db1bd15c3d48","system_id":"levelo_inurba_marseille","lat":43.30592,"lon":5.39349,"is_reserved":false,"is_disabled":false,"rental_uris":{"android":"levelo://app?vid=1f93e32b-fd9b-4348-9077-db1bd15c3d48","ios":"levelo://app?vid=1f93e32b-fd9b-4348-9077-db1bd15c3d48"},"vehicle_type_id":"4","last_reported":1741335144,"current_range_meters":16000,"station_id":"ce4bh0p2rcd13ifvqd80","pricing_plan_id":"cebpf4jnsgd1na2vs0mg"},{"bike_id":"89764de6-a9e7-4660-bdc1-41f9002aaba7","system_id":"levelo_inurba_marseille","lat":43.26566,"lon":5.39009,"is_reserved":false,"is_disabled":false,"rental_uris":{"android":"levelo://app?vid=89764de6-a9e7-4660-bdc1-41f9002aaba7","ios":"levelo://app?vid=89764de6-a9e7-4660-bdc1-41f9002aaba7"},"vehicle_type_id":"4","last_reported":1741335144,"current_range_meters":16000,"station_id":"ce4bhe12rcd13ifvqf30","pricing_plan_id":"cebpf4jnsgd1na2vs0mg"},{"bike_id":"60dbdfe4-0290-459f-80b1-32d771207de8","system_id":"levelo_inurba_marseille","lat":43.24999,"lon":5.38928,"is_reserved":false,"is_disabled":false,"rental_uris":{"android":"levelo://app?vid=60dbdfe4-0290-459f-80b1-32d771207de8","ios":"levelo://app?vid=60dbdfe4-0290-459f-80b1-32d771207de8"},"vehicle_type_id":"4","last_reported":1741335144,"current_range_meters":16000,"station_id":"ce4bhgp2rcd13ifvqfd0","pricing_plan_id":"cebpf4jnsgd1na2vs0mg"},{"bike_id":"daa3212f-f74e-4f24-8643-d0769656394c","system_id":"levelo_inurba_marseille","lat":43.262043,"lon":5.379287,"is_reserved":false,"is_disabled":false,"rental_uris":{"android":"levelo://app?vid=daa3212f-f74e-4f24-8643-d0769656394c","ios":"levelo://app?vid=daa3212f-f74e-4f24-8643-d0769656394c"},"vehicle_type_id":"4","last_reported":1741335144,"current_range_meters":16000,"station_id":"ce4bhh12rcd13ifvqfg0","pricing_plan_id":"cebpf4jnsgd1na2vs0mg"},{"bike_id":"c8ddc6ab-493e-48d6-b49c-df6a13f9d385","system_id":"levelo_inurba_marseille","lat":43.26785,"lon":5.39422,"is_reserved":false,"is_disabled":false,"rental_uris":{"android":"levelo://app?vid=c8ddc6ab-493e-48d6-b49c-df6a13f9d385","ios":"levelo://app?vid=c8ddc6ab-493e-48d6-b49c-df6a13f9d385"},"vehicle_type_id":"4","last_reported":1741335144,"current_range_meters":16000,"station_id":"ce4bhh12rcd13ifvqfg0","pricing_plan_id":"cebpf4jnsgd1na2vs0mg"},{"bike_id":"e524bcef-a391-41b2-bad2-673eae53ea51","system_id":"levelo_inurba_marseille","lat":43.31718,"lon":5.43695,"is_reserved":false,"is_disabled":false,"rental_uris":{"android":"levelo://app?vid=e524bcef-a391-41b2-bad2-673eae53ea51","ios":"levelo://app?vid=e524bcef-a391-41b2-bad2-673eae53ea51"},"vehicle_type_id":"4","last_reported":1741335144,"current_range_meters":16000,"station_id":"ce4bhp92rcd13ifvqhcg","pricing_plan_id":"cebpf4jnsgd1na2vs0mg"},{"bike_id":"cc0cce90-0f7d-43a8-abe9-5fb0f372a06d","system_id":"levelo_inurba_marseille","lat":43.27229,"lon":5.38452,"is_reserved":false,"is_disabled":false,"rental_uris":{"android":"levelo://app?vid=cc0cce90-0f7d-43a8-abe9-5fb0f372a06d","ios":"levelo://app?vid=cc0cce90-0f7d-43a8-abe9-5fb0f372a06d"},"vehicle_type_id":"4","last_reported":1741335144,"current_range_meters":16400,"station_id":"","pricing_plan_id":"cebpf4jnsgd1na2vs0mg"},{"bike_id":"db1c7047-7b9f-4b56-96ef-3b289cb537df","system_id":"levelo_inurba_marseille","lat":43.308246,"lon":5.373972,"is_reserved":false,"is_disabled":false,"rental_uris":{"android":"levelo://app?vid=db1c7047-7b9f-4b56-96ef-3b289cb537df","ios":"levelo://app?vid=db1c7047-7b9f-4b56-96ef-3b289cb537df"},"vehicle_type_id":"4","last_reported":1741335144,"current_range_meters":16400,"station_id":"","pricing_plan_id":"cebpf4jnsgd1na2vs0mg"},{"bike_id":"5f2d494f-ad46-4e2b-bd09-208c2fc8bf1d","system_id":"levelo_inurba_marseille","lat":43.29302,"lon":5.37453,"is_reserved":false,"is_disabled":false,"rental_uris":{"android":"levelo://app?vid=5f2d494f-ad46-4e2b-bd09-208c2fc8bf1d","ios":"levelo://app?vid=5f2d494f-ad46-4e2b-bd09-208c2fc8bf1d"},"vehicle_type_id":"4","last_reported":1741335144,"current_range_meters":16400,"station_id":"ce4bgi12rcd13ifvqb70","pricing_plan_id":"cebpf4jnsgd1na2vs0mg"},{"bike_id":"3958395a-0b9e-48c1-a043-fae57864f15e","system_id":"levelo_inurba_marseille","lat":43.30888,"lon":5.37195,"is_reserved":false,"is_disabled":false,"rental_uris":{"android":"levelo://app?vid=3958395a-0b9e-48c1-a043-fae57864f15e","ios":"levelo://app?vid=3958395a-0b9e-48c1-a043-fae57864f15e"},"vehicle_type_id":"4","last_reported":1741335144,"current_range_meters":16400,"station_id":"ce4bguh2rcd13ifvqckg","pricing_plan_id":"cebpf4jnsgd1na2vs0mg"},{"bike_id":"cb63c875-d240-4dbb-b430-8d2fe4ab437b","system_id":"levelo_inurba_marseille","lat":43.25815,"lon":5.39438,"is_reserved":false,"is_disabled":false,"rental_uris":{"android":"levelo://app?vid=cb63c875-d240-4dbb-b430-8d2fe4ab437b","ios":"levelo://app?vid=cb63c875-d240-4dbb-b430-8d2fe4ab437b"},"vehicle_type_id":"4","last_reported":1741335144,"current_range_meters":16400,"station_id":"ce4bhip2rcd13ifvqft0","pricing_plan_id":"cebpf4jnsgd1na2vs0mg"},{"bike_id":"c48e35e9-96dc-461c-b71f-daf1396652cf","system_id":"levelo_inurba_marseille","lat":43.31077,"lon":5.42434,"is_reserved":false,"is_disabled":false,"rental_uris":{"android":"levelo://app?vid=c48e35e9-96dc-461c-b71f-daf1396652cf","ios":"levelo://app?vid=c48e35e9-96dc-461c-b71f-daf1396652cf"},"vehicle_type_id":"4","last_reported":1741335144,"current_range_meters":16400,"station_id":"ce4bhp92rcd13ifvqhag","pricing_plan_id":"cebpf4jnsgd1na2vs0mg"},{"bike_id":"5ab2001e-22b6-4441-9cbe-2789bb8f2209","system_id":"levelo_inurba_marseille","lat":43.33613,"lon":5.41031,"is_reserved":false,"is_disabled":false,"rental_uris":{"android":"levelo://app?vid=5ab2001e-22b6-4441-9cbe-2789bb8f2209","ios":"levelo://app?vid=5ab2001e-22b6-4441-9cbe-2789bb8f2209"},"vehicle_type_id":"4","last_reported":1741335144,"current_range_meters":16400,"station_id":"ce4bhqh2rcd13ifvqhmg","pricing_plan_id":"cebpf4jnsgd1na2vs0mg"},{"bike_id":"b1d03295-5a4c-4b8b-ad8e-3dbefaa793f2","system_id":"levelo_inurba_marseille","lat":43.23182,"lon":5.35563,"is_reserved":false,"is_disabled":false,"rental_uris":{"android":"levelo://app?vid=b1d03295-5a4c-4b8b-ad8e-3dbefaa793f2","ios":"levelo://app?vid=b1d03295-5a4c-4b8b-ad8e-3dbefaa793f2"},"vehicle_type_id":"4","last_reported":1741335144,"current_range_meters":16400,"station_id":"ce4bhu92rcd13ifvqi70","pricing_plan_id":"cebpf4jnsgd1na2vs0mg"},{"bike_id":"368a2f8b-22a3-468e-9b56-728d8379f647","system_id":"levelo_inurba_marseille","lat":43.30205,"lon":5.3665,"is_reserved":false,"is_disabled":false,"rental_uris":{"android":"levelo://app?vid=368a2f8b-22a3-468e-9b56-728d8379f647","ios":"levelo://app?vid=368a2f8b-22a3-468e-9b56-728d8379f647"},"vehicle_type_id":"4","last_reported":1741335144,"current_range_meters":16800,"station_id":"ce4bgrh2rcd13ifvqc8g","pricing_plan_id":"cebpf4jnsgd1na2vs0mg"},{"bike_id":"4f44efd0-2ec1-456a-be1f-9b8a67b5b291","system_id":"levelo_inurba_marseille","lat":43.28703,"lon":5.37939,"is_reserved":false,"is_disabled":false,"rental_uris":{"android":"levelo://app?vid=4f44efd0-2ec1-456a-be1f-9b8a67b5b291","ios":"levelo://app?vid=4f44efd0-2ec1-456a-be1f-9b8a67b5b291"},"vehicle_type_id":"4","last_reported":1741335144,"current_range_meters":16800,"station_id":"ce4bh9p2rcd13ifvqec0","pricing_plan_id":"cebpf4jnsgd1na2vs0mg"},{"bike_id":"cc4b45ba-e948-4425-a74c-6bae9a34adce","system_id":"levelo_inurba_marseille","lat":43.2572,"lon":5.41114,"is_reserved":false,"is_disabled":false,"rental_uris":{"android":"levelo://app?vid=cc4b45ba-e948-4425-a74c-6bae9a34adce","ios":"levelo://app?vid=cc4b45ba-e948-4425-a74c-6bae9a34adce"},"vehicle_type_id":"4","last_reported":1741335144,"current_range_meters":16800,"station_id":"ce4bhkp2rcd13ifvqgd0","pricing_plan_id":"cebpf4jnsgd1na2vs0mg"},{"bike_id":"9b8789be-c150-4679-b8ba-e1d5e4639da2","system_id":"levelo_inurba_marseille","lat":43.2572,"lon":5.41114,"is_reserved":false,"is_disabled":false,"rental_uris":{"android":"levelo://app?vid=9b8789be-c150-4679-b8ba-e1d5e4639da2","ios":"levelo://app?vid=9b8789be-c150-4679-b8ba-e1d5e4639da2"},"vehicle_type_id":"4","last_reported":1741335144,"current_range_meters":16800,"station_id":"ce4bhkp2rcd13ifvqgd0","pricing_plan_id":"cebpf4jnsgd1na2vs0mg"},{"bike_id":"37c795b7-c172-41a1-a38f-2f25494fb3e3","system_id":"levelo_inurba_marseille","lat":43.2597,"lon":5.40896,"is_reserved":false,"is_disabled":false,"rental_uris":{"android":"levelo://app?vid=37c795b7-c172-41a1-a38f-2f25494fb3e3","ios":"levelo://app?vid=37c795b7-c172-41a1-a38f-2f25494fb3e3"},"vehicle_type_id":"4","last_reported":1741335144,"current_range_meters":16800,"station_id":"ce4bhm92rcd13ifvqglg","pricing_plan_id":"cebpf4jnsgd1na2vs0mg"},{"bike_id":"c51fc77d-8742-4691-8a3f-9712f1286c1a","system_id":"levelo_inurba_marseille","lat":43.309553,"lon":5.390316,"is_reserved":false,"is_disabled":false,"rental_uris":{"android":"levelo://app?vid=c51fc77d-8742-4691-8a3f-9712f1286c1a","ios":"levelo://app?vid=c51fc77d-8742-4691-8a3f-9712f1286c1a"},"vehicle_type_id":"4","last_reported":1741335144,"current_range_meters":16800,"station_id":"ce4bhnh2rcd13ifvqgug","pricing_plan_id":"cebpf4jnsgd1na2vs0mg"},{"bike_id":"fd6296bd-f750-4893-b30b-28489933da7e","system_id":"levelo_inurba_marseille","lat":43.24051,"lon":5.3774,"is_reserved":false,"is_disabled":false,"rental_uris":{"android":"levelo://app?vid=fd6296bd-f750-4893-b30b-28489933da7e","ios":"levelo://app?vid=fd6296bd-f750-4893-b30b-28489933da7e"},"vehicle_type_id":"4","last_reported":1741335144,"current_range_meters":16800,"station_id":"ce4bhnp2rcd13ifvqgvg","pricing_plan_id":"cebpf4jnsgd1na2vs0mg"},{"bike_id":"c4c723cb-a07b-4be7-9352-175d996d4f95","system_id":"levelo_inurba_marseille","lat":43.27939,"lon":5.41062,"is_reserved":false,"is_disabled":false,"rental_uris":{"android":"levelo://app?vid=c4c723cb-a07b-4be7-9352-175d996d4f95","ios":"levelo://app?vid=c4c723cb-a07b-4be7-9352-175d996d4f95"},"vehicle_type_id":"4","last_reported":1741335144,"current_range_meters":16800,"station_id":"ce4bhnp2rcd13ifvqh0g","pricing_plan_id":"cebpf4jnsgd1na2vs0mg"},{"bike_id":"1de64fe9-c44a-44a5-9a26-1a4528bc35c1","system_id":"levelo_inurba_marseille","lat":43.34142,"lon":5.40909,"is_reserved":false,"is_disabled":false,"rental_uris":{"android":"levelo://app?vid=1de64fe9-c44a-44a5-9a26-1a4528bc35c1","ios":"levelo://app?vid=1de64fe9-c44a-44a5-9a26-1a4528bc35c1"},"vehicle_type_id":"4","last_reported":1741335144,"current_range_meters":16800,"station_id":"ce4bhqh2rcd13ifvqhlg","pricing_plan_id":"cebpf4jnsgd1na2vs0mg"},{"bike_id":"34fca5e7-8353-4d68-89e6-b1d671353da7","system_id":"levelo_inurba_marseille","lat":43.32363,"lon":5.389,"is_reserved":false,"is_disabled":false,"rental_uris":{"android":"levelo://app?vid=34fca5e7-8353-4d68-89e6-b1d671353da7","ios":"levelo://app?vid=34fca5e7-8353-4d68-89e6-b1d671353da7"},"vehicle_type_id":"4","last_reported":1741335144,"current_range_meters":16800,"station_id":"ce4bhqp2rcd13ifvqhog","pricing_plan_id":"cebpf4jnsgd1na2vs0mg"},{"bike_id":"6351a8ed-7eea-49ff-9a0f-7707be008b9e","system_id":"levelo_inurba_marseille","lat":43.30193,"lon":5.36628,"is_reserved":false,"is_disabled":false,"rental_uris":{"android":"levelo://app?vid=6351a8ed-7eea-49ff-9a0f-7707be008b9e","ios":"levelo://app?vid=6351a8ed-7eea-49ff-9a0f-7707be008b9e"},"vehicle_type_id":"4","last_reported":1741335144,"current_range_meters":17200,"station_id":"ce4bgrh2rcd13ifvqc8g","pricing_plan_id":"cebpf4jnsgd1na2vs0mg"},{"bike_id":"03be0c45-6693-411c-b3fc-1773f70b19c4","system_id":"levelo_inurba_marseille","lat":43.2418,"lon":5.3973,"is_reserved":false,"is_disabled":false,"rental_uris":{"android":"levelo://app?vid=03be0c45-6693-411c-b3fc-1773f70b19c4","ios":"levelo://app?vid=03be0c45-6693-411c-b3fc-1773f70b19c4"},"vehicle_type_id":"4","last_reported":1741335144,"current_range_meters":17200,"station_id":"ce4bhn12rcd13ifvqgpg","pricing_plan_id":"cebpf4jnsgd1na2vs0mg"},{"bike_id":"98be6f75-0102-4dce-8c3f-55baf9837a5e","system_id":"levelo_inurba_marseille","lat":43.24059,"lon":5.37767,"is_reserved":false,"is_disabled":false,"rental_uris":{"android":"levelo://app?vid=98be6f75-0102-4dce-8c3f-55baf9837a5e","ios":"levelo://app?vid=98be6f75-0102-4dce-8c3f-55baf9837a5e"},"vehicle_type_id":"4","last_reported":1741335144,"current_range_meters":17200,"station_id":"ce4bhnp2rcd13ifvqgvg","pricing_plan_id":"cebpf4jnsgd1na2vs0mg"},{"bike_id":"b078b069-8e37-4234-bc0c-ef4a6d24068c","system_id":"levelo_inurba_marseille","lat":43.24082,"lon":5.3776,"is_reserved":false,"is_disabled":false,"rental_uris":{"android":"levelo://app?vid=b078b069-8e37-4234-bc0c-ef4a6d24068c","ios":"levelo://app?vid=b078b069-8e37-4234-bc0c-ef4a6d24068c"},"vehicle_type_id":"4","last_reported":1741335144,"current_range_meters":17200,"station_id":"ce4bhnp2rcd13ifvqgvg","pricing_plan_id":"cebpf4jnsgd1na2vs0mg"},{"bike_id":"a72440ba-0919-4be9-b25e-b81dbe1cdb2b","system_id":"levelo_inurba_marseille","lat":43.32359,"lon":5.38889,"is_reserved":false,"is_disabled":false,"rental_uris":{"android":"levelo://app?vid=a72440ba-0919-4be9-b25e-b81dbe1cdb2b","ios":"levelo://app?vid=a72440ba-0919-4be9-b25e-b81dbe1cdb2b"},"vehicle_type_id":"4","last_reported":1741335144,"current_range_meters":17200,"station_id":"ce4bhqp2rcd13ifvqhog","pricing_plan_id":"cebpf4jnsgd1na2vs0mg"},{"bike_id":"5ea6f19d-4cb9-4246-b5ab-9834e7987cb7","system_id":"levelo_inurba_marseille","lat":43.29313,"lon":5.3717,"is_reserved":false,"is_disabled":false,"rental_uris":{"android":"levelo://app?vid=5ea6f19d-4cb9-4246-b5ab-9834e7987cb7","ios":"levelo://app?vid=5ea6f19d-4cb9-4246-b5ab-9834e7987cb7"},"vehicle_type_id":"4","last_reported":1741335144,"current_range_meters":17600,"station_id":"ce4bgh92rcd13ifvqb40","pricing_plan_id":"cebpf4jnsgd1na2vs0mg"},{"bike_id":"9a062110-a8d9-4262-8540-007c07fd1a3b","system_id":"levelo_inurba_marseille","lat":43.23184,"lon":5.39998,"is_reserved":false,"is_disabled":false,"rental_uris":{"android":"levelo://app?vid=9a062110-a8d9-4262-8540-007c07fd1a3b","ios":"levelo://app?vid=9a062110-a8d9-4262-8540-007c07fd1a3b"},"vehicle_type_id":"4","last_reported":1741335144,"current_range_meters":17600,"station_id":"ce4bhn12rcd13ifvqgqg","pricing_plan_id":"cebpf4jnsgd1na2vs0mg"},{"bike_id":"b2c2514d-58df-4080-9acc-0a3325c87525","system_id":"levelo_inurba_marseille","lat":43.32367,"lon":5.36766,"is_reserved":false,"is_disabled":false,"rental_uris":{"android":"levelo://app?vid=b2c2514d-58df-4080-9acc-0a3325c87525","ios":"levelo://app?vid=b2c2514d-58df-4080-9acc-0a3325c87525"},"vehicle_type_id":"4","last_reported":1741335144,"current_range_meters":17600,"station_id":"ce4bhsh2rcd13ifvqi2g","pricing_plan_id":"cebpf4jnsgd1na2vs0mg"},{"bike_id":"ca9d1345-391c-4bf2-82f1-c5215f5d8a0c","system_id":"levelo_inurba_marseille","lat":43.29026,"lon":5.4,"is_reserved":false,"is_disabled":false,"rental_uris":{"android":"levelo://app?vid=ca9d1345-391c-4bf2-82f1-c5215f5d8a0c","ios":"levelo://app?vid=ca9d1345-391c-4bf2-82f1-c5215f5d8a0c"},"vehicle_type_id":"4","last_reported":1741335144,"current_range_meters":18000,"station_id":"ce4bh392rcd13ifvqdm0","pricing_plan_id":"cebpf4jnsgd1na2vs0mg"},{"bike_id":"1ecf6134-e66b-49d0-ab6d-aa1000b6029d","system_id":"levelo_inurba_marseille","lat":43.28661,"lon":5.3635,"is_reserved":false,"is_disabled":false,"rental_uris":{"android":"levelo://app?vid=1ecf6134-e66b-49d0-ab6d-aa1000b6029d","ios":"levelo://app?vid=1ecf6134-e66b-49d0-ab6d-aa1000b6029d"},"vehicle_type_id":"4","last_reported":1741335144,"current_range_meters":18000,"station_id":"ce4bhah2rcd13ifvqej0","pricing_plan_id":"cebpf4jnsgd1na2vs0mg"},{"bike_id":"a608eae3-b9b9-48e9-b86d-d2f6bca2ba9d","system_id":"levelo_inurba_marseille","lat":43.26785,"lon":5.39417,"is_reserved":false,"is_disabled":false,"rental_uris":{"android":"levelo://app?vid=a608eae3-b9b9-48e9-b86d-d2f6bca2ba9d","ios":"levelo://app?vid=a608eae3-b9b9-48e9-b86d-d2f6bca2ba9d"},"vehicle_type_id":"4","last_reported":1741335144,"current_range_meters":18000,"station_id":"ce4bhh12rcd13ifvqfg0","pricing_plan_id":"cebpf4jnsgd1na2vs0mg"},{"bike_id":"a16e5e2c-dca2-4fd6-a17a-ec91229f2862","system_id":"levelo_inurba_marseille","lat":43.26947,"lon":5.38639,"is_reserved":false,"is_disabled":false,"rental_uris":{"android":"levelo://app?vid=a16e5e2c-dca2-4fd6-a17a-ec91229f2862","ios":"levelo://app?vid=a16e5e2c-dca2-4fd6-a17a-ec91229f2862"},"vehicle_type_id":"4","last_reported":1741335144,"current_range_meters":18000,"station_id":"ce4bhh92rcd13ifvqfh0","pricing_plan_id":"cebpf4jnsgd1na2vs0mg"},{"bike_id":"525be0b4-f4ae-41e2-b978-e931d3bc4ea2","system_id":"levelo_inurba_marseille","lat":43.25933,"lon":5.40929,"is_reserved":false,"is_disabled":false,"rental_uris":{"android":"levelo://app?vid=525be0b4-f4ae-41e2-b978-e931d3bc4ea2","ios":"levelo://app?vid=525be0b4-f4ae-41e2-b978-e931d3bc4ea2"},"vehicle_type_id":"4","last_reported":1741335144,"current_range_meters":18000,"station_id":"ce4bhm92rcd13ifvqglg","pricing_plan_id":"cebpf4jnsgd1na2vs0mg"},{"bike_id":"b074c098-105a-483f-9325-0896897af1e3","system_id":"levelo_inurba_marseille","lat":43.23187,"lon":5.40005,"is_reserved":false,"is_disabled":false,"rental_uris":{"android":"levelo://app?vid=b074c098-105a-483f-9325-0896897af1e3","ios":"levelo://app?vid=b074c098-105a-483f-9325-0896897af1e3"},"vehicle_type_id":"4","last_reported":1741335144,"current_range_meters":18000,"station_id":"ce4bhn12rcd13ifvqgqg","pricing_plan_id":"cebpf4jnsgd1na2vs0mg"},{"bike_id":"1ff664cb-f378-4a6c-b3c1-b47ee25a2174","system_id":"levelo_inurba_marseille","lat":43.323666,"lon":5.388771,"is_reserved":false,"is_disabled":false,"rental_uris":{"android":"levelo://app?vid=1ff664cb-f378-4a6c-b3c1-b47ee25a2174","ios":"levelo://app?vid=1ff664cb-f378-4a6c-b3c1-b47ee25a2174"},"vehicle_type_id":"4","last_reported":1741335144,"current_range_meters":18000,"station_id":"ce4bhqp2rcd13ifvqhog","pricing_plan_id":"cebpf4jnsgd1na2vs0mg"},{"bike_id":"d3c8f304-490f-406a-bd1e-8a039529a8d4","system_id":"levelo_inurba_marseille","lat":43.32101,"lon":5.36793,"is_reserved":false,"is_disabled":false,"rental_uris":{"android":"levelo://app?vid=d3c8f304-490f-406a-bd1e-8a039529a8d4","ios":"levelo://app?vid=d3c8f304-490f-406a-bd1e-8a039529a8d4"},"vehicle_type_id":"4","last_reported":1741335144,"current_range_meters":18000,"station_id":"ce4bhrh2rcd13ifvqhug","pricing_plan_id":"cebpf4jnsgd1na2vs0mg"},{"bike_id":"c1c412b3-ae23-45ab-894a-fe5b494cc9e6","system_id":"levelo_inurba_marseille","lat":43.231902,"lon":5.355581,"is_reserved":false,"is_disabled":false,"rental_uris":{"android":"levelo://app?vid=c1c412b3-ae23-45ab-894a-fe5b494cc9e6","ios":"levelo://app?vid=c1c412b3-ae23-45ab-894a-fe5b494cc9e6"},"vehicle_type_id":"4","last_reported":1741335144,"current_range_meters":18000,"station_id":"ce4bhu92rcd13ifvqi70","pricing_plan_id":"cebpf4jnsgd1na2vs0mg"},{"bike_id":"d76f15d6-9c40-42dd-85d4-6e9270bd28b8","system_id":"levelo_inurba_marseille","lat":43.23148,"lon":5.43717,"is_reserved":false,"is_disabled":false,"rental_uris":{"android":"levelo://app?vid=d76f15d6-9c40-42dd-85d4-6e9270bd28b8","ios":"levelo://app?vid=d76f15d6-9c40-42dd-85d4-6e9270bd28b8"},"vehicle_type_id":"4","last_reported":1741335144,"current_range_meters":18800,"station_id":"ce4bhmp2rcd13ifvqgog","pricing_plan_id":"cebpf4jnsgd1na2vs0mg"},{"bike_id":"cd299be1-43ff-4d7d-9c8a-6db4cbe93a04","system_id":"levelo_inurba_marseille","lat":43.24073,"lon":5.37757,"is_reserved":false,"is_disabled":false,"rental_uris":{"android":"levelo://app?vid=cd299be1-43ff-4d7d-9c8a-6db4cbe93a04","ios":"levelo://app?vid=cd299be1-43ff-4d7d-9c8a-6db4cbe93a04"},"vehicle_type_id":"4","last_reported":1741335144,"current_range_meters":18800,"station_id":"ce4bhnp2rcd13ifvqgvg","pricing_plan_id":"cebpf4jnsgd1na2vs0mg"},{"bike_id":"5155280c-b661-41e2-b45b-4d5997756ac4","system_id":"levelo_inurba_marseille","lat":43.24071,"lon":5.37778,"is_reserved":false,"is_disabled":false,"rental_uris":{"android":"levelo://app?vid=5155280c-b661-41e2-b45b-4d5997756ac4","ios":"levelo://app?vid=5155280c-b661-41e2-b45b-4d5997756ac4"},"vehicle_type_id":"4","last_reported":1741335144,"current_range_meters":18800,"station_id":"ce4bhnp2rcd13ifvqgvg","pricing_plan_id":"cebpf4jnsgd1na2vs0mg"},{"bike_id":"e6fda615-fd41-4b55-a73b-5d4708966aba","system_id":"levelo_inurba_marseille","lat":43.34144,"lon":5.40904,"is_reserved":false,"is_disabled":false,"rental_uris":{"android":"levelo://app?vid=e6fda615-fd41-4b55-a73b-5d4708966aba","ios":"levelo://app?vid=e6fda615-fd41-4b55-a73b-5d4708966aba"},"vehicle_type_id":"4","last_reported":1741335144,"current_range_meters":18800,"station_id":"ce4bhqh2rcd13ifvqhlg","pricing_plan_id":"cebpf4jnsgd1na2vs0mg"},{"bike_id":"4ca5c1e1-8fa6-4fe3-b89e-979337cc0706","system_id":"levelo_inurba_marseille","lat":43.30474,"lon":5.3792,"is_reserved":false,"is_disabled":false,"rental_uris":{"android":"levelo://app?vid=4ca5c1e1-8fa6-4fe3-b89e-979337cc0706","ios":"levelo://app?vid=4ca5c1e1-8fa6-4fe3-b89e-979337cc0706"},"vehicle_type_id":"4","last_reported":1741335144,"current_range_meters":19200,"station_id":"ce4bgup2rcd13ifvqcn0","pricing_plan_id":"cebpf4jnsgd1na2vs0mg"},{"bike_id":"779dc82b-c908-4862-8cac-be4abbbfce08","system_id":"levelo_inurba_marseille","lat":43.286181,"lon":5.350984,"is_reserved":false,"is_disabled":false,"rental_uris":{"android":"levelo://app?vid=779dc82b-c908-4862-8cac-be4abbbfce08","ios":"levelo://app?vid=779dc82b-c908-4862-8cac-be4abbbfce08"},"vehicle_type_id":"4","last_reported":1741335144,"current_range_meters":19200,"station_id":"ce4bhch2rcd13ifvqeug","pricing_plan_id":"cebpf4jnsgd1na2vs0mg"},{"bike_id":"0b430c6b-47c5-4b80-b500-24188c992917","system_id":"levelo_inurba_marseille","lat":43.30141,"lon":5.37411,"is_reserved":false,"is_disabled":false,"rental_uris":{"android":"levelo://app?vid=0b430c6b-47c5-4b80-b500-24188c992917","ios":"levelo://app?vid=0b430c6b-47c5-4b80-b500-24188c992917"},"vehicle_type_id":"4","last_reported":1741335144,"current_range_meters":19600,"station_id":"ce4bgs92rcd13ifvqcc0","pricing_plan_id":"cebpf4jnsgd1na2vs0mg"},{"bike_id":"e7a47a36-4c7a-4d18-9556-80e0688c24b2","system_id":"levelo_inurba_marseille","lat":43.3029,"lon":5.37698,"is_reserved":false,"is_disabled":false,"rental_uris":{"android":"levelo://app?vid=e7a47a36-4c7a-4d18-9556-80e0688c24b2","ios":"levelo://app?vid=e7a47a36-4c7a-4d18-9556-80e0688c24b2"},"vehicle_type_id":"4","last_reported":1741335144,"current_range_meters":19600,"station_id":"ce4bguh2rcd13ifvqcj0","pricing_plan_id":"cebpf4jnsgd1na2vs0mg"},{"bike_id":"e38fdd6b-9037-48d0-bf51-29371898881f","system_id":"levelo_inurba_marseille","lat":43.25003,"lon":5.38902,"is_reserved":false,"is_disabled":false,"rental_uris":{"android":"levelo://app?vid=e38fdd6b-9037-48d0-bf51-29371898881f","ios":"levelo://app?vid=e38fdd6b-9037-48d0-bf51-29371898881f"},"vehicle_type_id":"4","last_reported":1741335144,"current_range_meters":19600,"station_id":"ce4bhgp2rcd13ifvqfd0","pricing_plan_id":"cebpf4jnsgd1na2vs0mg"},{"bike_id":"d18421f8-be50-400a-b8c9-aaac9c49779c","system_id":"levelo_inurba_marseille","lat":43.23962,"lon":5.36633,"is_reserved":false,"is_disabled":false,"rental_uris":{"android":"levelo://app?vid=d18421f8-be50-400a-b8c9-aaac9c49779c","ios":"levelo://app?vid=d18421f8-be50-400a-b8c9-aaac9c49779c"},"vehicle_type_id":"4","last_reported":1741335144,"current_range_meters":19600,"station_id":"ce4bhi12rcd13ifvqfp0","pricing_plan_id":"cebpf4jnsgd1na2vs0mg"},{"bike_id":"2ff1260d-2ca9-49c4-be1a-1b9af583c110","system_id":"levelo_inurba_marseille","lat":43.26248,"lon":5.40465,"is_reserved":false,"is_disabled":false,"rental_uris":{"android":"levelo://app?vid=2ff1260d-2ca9-49c4-be1a-1b9af583c110","ios":"levelo://app?vid=2ff1260d-2ca9-49c4-be1a-1b9af583c110"},"vehicle_type_id":"4","last_reported":1741335144,"current_range_meters":19600,"station_id":"ce4bhmh2rcd13ifvqgmg","pricing_plan_id":"cebpf4jnsgd1na2vs0mg"},{"bike_id":"c385e41a-10bf-4ee1-b7f3-7e93ba0f26f6","system_id":"levelo_inurba_marseille","lat":43.31867,"lon":5.40753,"is_reserved":false,"is_disabled":false,"rental_uris":{"android":"levelo://app?vid=c385e41a-10bf-4ee1-b7f3-7e93ba0f26f6","ios":"levelo://app?vid=c385e41a-10bf-4ee1-b7f3-7e93ba0f26f6"},"vehicle_type_id":"4","last_reported":1741335144,"current_range_meters":19600,"station_id":"ce4bhq12rcd13ifvqhig","pricing_plan_id":"cebpf4jnsgd1na2vs0mg"},{"bike_id":"62b8f8c6-4f3a-4290-a9fa-eb80264648df","system_id":"levelo_inurba_marseille","lat":43.33593,"lon":5.40992,"is_reserved":false,"is_disabled":false,"rental_uris":{"android":"levelo://app?vid=62b8f8c6-4f3a-4290-a9fa-eb80264648df","ios":"levelo://app?vid=62b8f8c6-4f3a-4290-a9fa-eb80264648df"},"vehicle_type_id":"4","last_reported":1741335144,"current_range_meters":19600,"station_id":"ce4bhqh2rcd13ifvqhmg","pricing_plan_id":"cebpf4jnsgd1na2vs0mg"},{"bike_id":"9d5b824a-cc91-4fd5-8f4f-f20d4a403471","system_id":"levelo_inurba_marseille","lat":43.30533,"lon":5.36562,"is_reserved":false,"is_disabled":false,"rental_uris":{"android":"levelo://app?vid=9d5b824a-cc91-4fd5-8f4f-f20d4a403471","ios":"levelo://app?vid=9d5b824a-cc91-4fd5-8f4f-f20d4a403471"},"vehicle_type_id":"4","last_reported":1741335144,"current_range_meters":20000,"station_id":"ce4bgs12rcd13ifvqcag","pricing_plan_id":"cebpf4jnsgd1na2vs0mg"},{"bike_id":"56871ca9-1acd-4420-ab84-9d69cd2e9071","system_id":"levelo_inurba_marseille","lat":43.30469,"lon":5.37918,"is_reserved":false,"is_disabled":false,"rental_uris":{"android":"levelo://app?vid=56871ca9-1acd-4420-ab84-9d69cd2e9071","ios":"levelo://app?vid=56871ca9-1acd-4420-ab84-9d69cd2e9071"},"vehicle_type_id":"4","last_reported":1741335144,"current_range_meters":20000,"station_id":"ce4bgup2rcd13ifvqcn0","pricing_plan_id":"cebpf4jnsgd1na2vs0mg"},{"bike_id":"587cdb44-b6f6-47ff-bb74-0d8dc2116e63","system_id":"levelo_inurba_marseille","lat":43.27558,"lon":5.38436,"is_reserved":false,"is_disabled":false,"rental_uris":{"android":"levelo://app?vid=587cdb44-b6f6-47ff-bb74-0d8dc2116e63","ios":"levelo://app?vid=587cdb44-b6f6-47ff-bb74-0d8dc2116e63"},"vehicle_type_id":"4","last_reported":1741335144,"current_range_meters":20000,"station_id":"ce4bhh92rcd13ifvqfi0","pricing_plan_id":"cebpf4jnsgd1na2vs0mg"},{"bike_id":"a3ac6585-d943-44e4-8c50-765dcb90fd8f","system_id":"levelo_inurba_marseille","lat":43.24178,"lon":5.39728,"is_reserved":false,"is_disabled":false,"rental_uris":{"android":"levelo://app?vid=a3ac6585-d943-44e4-8c50-765dcb90fd8f","ios":"levelo://app?vid=a3ac6585-d943-44e4-8c50-765dcb90fd8f"},"vehicle_type_id":"4","last_reported":1741335144,"current_range_meters":20000,"station_id":"ce4bhn12rcd13ifvqgpg","pricing_plan_id":"cebpf4jnsgd1na2vs0mg"},