{"last_updated":1775048082,"ttl":60,"version":"2.2","data":{"bikes":[{"bike_id":"de5ec2e7-0cbb-4570-bdcf-f4638bbde496","system_id":"levelo_inurba_marseille","lat":43.23894,"lon":5.37441,"is_reserved":false,"is_disabled":false,"rental_uris":{"android":"levelo://app?vid=de5ec2e7-0cbb-4570-bdcf-f4638bbde496","ios":"levelo://app?vid=de5ec2e7-0cbb-4570-bdcf-f4638bbde496"},"vehicle_type_id":"4","last_reported":1775048082,"current_range_meters":2800,"station_id":"st_d6sm7csbq4hs73f8fpjg","pricing_plan_id":"cebpf4jnsgd1na2vs0mg"},{"bike_id":"b2d72fd8-9618-48b7-8f8f-0078908bfacf","system_id":"levelo_inurba_marseille","lat":43.30117,"lon":5.43097,"is_reserved":false,"is_disabled":false,"rental_uris":{"android":"levelo://app?vid=b2d72fd8-9618-48b7-8f8f-0078908bfacf","ios":"levelo://app?vid=b2d72fd8-9618-48b7-8f8f-0078908bfacf"},"vehicle_type_id":"4","last_reported":1775048082,"current_range_meters":2800,"station_id":"st_d3js3co5814s73ftftug","pricing_plan_id":"cebpf4jnsgd1na2vs0mg"},{"bike_id":"8dfb175f-b023-4de6-bc2d-c52a0fcec68a","system_id":"levelo_inurba_marseille","lat":43.2836,"lon":5.38098,"is_reserved":false,"is_disabled":false,"rental_uris":{"android":"levelo://app?vid=8dfb175f-b023-4de6-bc2d-c52a0fcec68a","ios":"levelo://app?vid=8dfb175f-b023-4de6-bc2d-c52a0fcec68a"},"vehicle_type_id":"4","last_reported":1775048082,"current_range_meters":2800,"station_id":"ce4bh412rcd13ifvqdr0","pricing_plan_id":"cebpf4jnsgd1na2vs0mg"},{"bike_id":"bb9c9ce8-7ad8-4c58-9c75-429d43a3d175","system_id":"levelo_inurba_marseille","lat":43.24026,"lon":5.36215,"is_reserved":false,"is_disabled":false,"rental_uris":{"android":"levelo://app?vid=bb9c9ce8-7ad8-4c58-9c75-429d43a3d175","ios":"levelo://app?vid=bb9c9ce8-7ad8-4c58-9c75-429d43a3d175"},"vehicle_type_id":"4","last_reported":1775048082,"current_range_meters":2800,"station_id":"","pricing_plan_id":"cebpf4jnsgd1na2vs0mg"},{"bike_id":"1b6a734f-0c23-40f4-b2a6-4376dd8d57f0","system_id":"levelo_inurba_marseille","lat":43.23399,"lon":5.41235,"is_reserved":false,"is_disabled":false,"rental_uris":{"android":"levelo://app?vid=1b6a734f-0c23-40f4-b2a6-4376dd8d57f0","ios":"levelo://app?vid=1b6a734f-0c23-40f4-b2a6-4376dd8d57f0"},"vehicle_type_id":"4","last_reported":1775048082,"current_range_meters":2800,"station_id":"st_d75pvndhf9lc73cqq3eg","pricing_plan_id":"cebpf4jnsgd1na2vs0mg"},{"bike_id":"8224fee4-1d52-4b11-b16a-70c5a6603dd7","system_id":"levelo_inurba_marseille","lat":43.28479,"lon":5.48408,"is_reserved":false,"is_disabled":false,"rental_uris":{"android":"levelo://app?vid=8224fee4-1d52-4b11-b16a-70c5a6603dd7","ios":"levelo://app?vid=8224fee4-1d52-4b11-b16a-70c5a6603dd7"},"vehicle_type_id":"4","last_reported":1775048082,"current_range_meters":2800,"station_id":"","pricing_plan_id":"cebpf4jnsgd1na2vs0mg"},{"bike_id":"aff3ff3f-6b67-4330-8619-cb367673fc13","system_id":"levelo_inurba_marseille","lat":43.24391,"lon":5.37038,"is_reserved":false,"is_disabled":false,"rental_uris":{"android":"levelo://app?vid=aff3ff3f-6b67-4330-8619-cb367673fc13","ios":"levelo://app?vid=aff3ff3f-6b67-4330-8619-cb367673fc13"},"vehicle_type_id":"4","last_reported":1775048082,"current_range_meters":3200,"station_id":"ce4bhhh2rcd13ifvqfk0","pricing_plan_id":"cebpf4jnsgd1na2vs0mg"},{"bike_id":"05b700ea-9bbc-436d-9f8b-7ccf8feb86bf","system_id":"levelo_inurba_marseille","lat":43.24468,"lon":5.42517,"is_reserved":false,"is_disabled":false,"rental_uris":{"android":"levelo://app?vid=05b700ea-9bbc-436d-9f8b-7ccf8feb86bf","ios":"levelo://app?vid=05b700ea-9bbc-436d-9f8b-7ccf8feb86bf"},"vehicle_type_id":"4","last_reported":1775048082,"current_range_meters":3200,"station_id":"st_d4a3vfp97mjs738cd8kg","pricing_plan_id":"cebpf4jnsgd1na2vs0mg"},{"bike_id":"3398a272-3388-4322-b7d1-4801a5bb8bb6","system_id":"levelo_inurba_marseille","lat":43.2455,"lon":5.39514,"is_reserved":false,"is_disabled":false,"rental_uris":{"android":"levelo://app?vid=3398a272-3388-4322-b7d1-4801a5bb8bb6","ios":"levelo://app?vid=3398a272-3388-4322-b7d1-4801a5bb8bb6"},"vehicle_type_id":"4","last_reported":1775048082,"current_range_meters":3200,"station_id":"ce4bhlp2rcd13ifvqgjg","pricing_plan_id":"cebpf4jnsgd1na2vs0mg"},{"bike_id":"3681bea9-2900-445c-b2d4-06ae4cedc9b9","system_id":"levelo_inurba_marseille","lat":43.29602,"lon":5.38113,"is_reserved":false,"is_disabled":true,"rental_uris":{"android":"levelo://app?vid=3681bea9-2900-445c-b2d4-06ae4cedc9b9","ios":"levelo://app?vid=3681bea9-2900-445c-b2d4-06ae4cedc9b9"},"vehicle_type_id":"4","last_reported":1775048082,"current_range_meters":3600,"station_id":"ce4bgl12rcd13ifvqbo0","pricing_plan_id":"cebpf4jnsgd1na2vs0mg"},{"bike_id":"55f1e071-1199-4172-af4b-7b94ca26b9a9","system_id":"levelo_inurba_marseille","lat":43.30283,"lon":5.37673,"is_reserved":false,"is_disabled":false,"rental_uris":{"android":"levelo://app?vid=55f1e071-1199-4172-af4b-7b94ca26b9a9","ios":"levelo://app?vid=55f1e071-1199-4172-af4b-7b94ca26b9a9"},"vehicle_type_id":"4","last_reported":1775048082,"current_range_meters":3600,"station_id":"ce4bguh2rcd13ifvqcj0","pricing_plan_id":"cebpf4jnsgd1na2vs0mg"},{"bike_id":"e4956c66-fba0-45d5-a7d2-90ca01f34637","system_id":"levelo_inurba_marseille","lat":43.21745,"lon":5.34606,"is_reserved":false,"is_disabled":false,"rental_uris":{"android":"levelo://app?vid=e4956c66-fba0-45d5-a7d2-90ca01f34637","ios":"levelo://app?vid=e4956c66-fba0-45d5-a7d2-90ca01f34637"},"vehicle_type_id":"4","last_reported":1775048082,"current_range_meters":3600,"station_id":"st_cvj6r9ubvosntc0bgbag","pricing_plan_id":"cebpf4jnsgd1na2vs0mg"},{"bike_id":"b4f4bd3c-2385-4cfd-9027-17ec16a9b740","system_id":"levelo_inurba_marseille","lat":43.311713,"lon":5.387102,"is_reserved":false,"is_disabled":false,"rental_uris":{"android":"levelo://app?vid=b4f4bd3c-2385-4cfd-9027-17ec16a9b740","ios":"levelo://app?vid=b4f4bd3c-2385-4cfd-9027-17ec16a9b740"},"vehicle_type_id":"4","last_reported":1775048082,"current_range_meters":3600,"station_id":"ce4bgv12rcd13ifvqcp0","pricing_plan_id":"cebpf4jnsgd1na2vs0mg"},{"bike_id":"9e8c35a2-3d4d-48a8-87e2-0775e9d3d581","system_id":"levelo_inurba_marseille","lat":43.27478,"lon":5.40819,"is_reserved":false,"is_disabled":false,"rental_uris":{"android":"levelo://app?vid=9e8c35a2-3d4d-48a8-87e2-0775e9d3d581","ios":"levelo://app?vid=9e8c35a2-3d4d-48a8-87e2-0775e9d3d581"},"vehicle_type_id":"4","last_reported":1775048082,"current_range_meters":3600,"station_id":"","pricing_plan_id":"cebpf4jnsgd1na2vs0mg"},{"bike_id":"09fd0961-537f-4b10-9218-06513f653464","system_id":"levelo_inurba_marseille","lat":43.29158,"lon":5.42621,"is_reserved":false,"is_disabled":false,"rental_uris":{"android":"levelo://app?vid=09fd0961-537f-4b10-9218-06513f653464","ios":"levelo://app?vid=09fd0961-537f-4b10-9218-06513f653464"},"vehicle_type_id":"4","last_reported":1775048082,"current_range_meters":3600,"station_id":"","pricing_plan_id":"cebpf4jnsgd1na2vs0mg"},{"bike_id":"1a3fd6e4-4abe-40a7-9853-f0a7b124005b","system_id":"levelo_inurba_marseille","lat":43.27373,"lon":5.36251,"is_reserved":false,"is_disabled":false,"rental_uris":{"android":"levelo://app?vid=1a3fd6e4-4abe-40a7-9853-f0a7b124005b","ios":"levelo://app?vid=1a3fd6e4-4abe-40a7-9853-f0a7b124005b"},"vehicle_type_id":"4","last_reported":1775048082,"current_range_meters":3600,"station_id":"ce4bhbh2rcd13ifvqeo0","pricing_plan_id":"cebpf4jnsgd1na2vs0mg"},{"bike_id":"b56e07c1-b812-4392-b509-22221252f482","system_id":"levelo_inurba_marseille","lat":43.28276,"lon":5.40805,"is_reserved":false,"is_disabled":false,"rental_uris":{"android":"levelo://app?vid=b56e07c1-b812-4392-b509-22221252f482","ios":"levelo://app?vid=b56e07c1-b812-4392-b509-22221252f482"},"vehicle_type_id":"4","last_reported":1775048082,"current_range_meters":3600,"station_id":"","pricing_plan_id":"cebpf4jnsgd1na2vs0mg"},{"bike_id":"59dd7cea-1fd3-4432-ab54-3a824507c81c","system_id":"levelo_inurba_marseille","lat":43.25175,"lon":5.41961,"is_reserved":false,"is_disabled":false,"rental_uris":{"android":"levelo://app?vid=59dd7cea-1fd3-4432-ab54-3a824507c81c","ios":"levelo://app?vid=59dd7cea-1fd3-4432-ab54-3a824507c81c"},"vehicle_type_id":"4","last_reported":1775048082,"current_range_meters":3600,"station_id":"","pricing_plan_id":"cebpf4jnsgd1na2vs0mg"},{"bike_id":"9da6f0a0-254f-4937-8243-355fe7b156df","system_id":"levelo_inurba_marseille","lat":43.28544,"lon":5.44086,"is_reserved":false,"is_disabled":false,"rental_uris":{"android":"levelo://app?vid=9da6f0a0-254f-4937-8243-355fe7b156df","ios":"levelo://app?vid=9da6f0a0-254f-4937-8243-355fe7b156df"},"vehicle_type_id":"4","last_reported":1775048082,"current_range_meters":3600,"station_id":"st_d3j3df2ikq2c7380ej80","pricing_plan_id":"cebpf4jnsgd1na2vs0mg"},{"bike_id":"f61ef52f-eb9b-40c8-8362-f7999b4a93b2","system_id":"levelo_inurba_marseille","lat":43.2603,"lon":5.3754,"is_reserved":false,"is_disabled":false,"rental_uris":{"android":"levelo://app?vid=f61ef52f-eb9b-40c8-8362-f7999b4a93b2","ios":"levelo://app?vid=f61ef52f-eb9b-40c8-8362-f7999b4a93b2"},"vehicle_type_id":"4","last_reported":1775048082,"current_range_meters":3600,"station_id":"ce4bhgh2rcd13ifvqfa0","pricing_plan_id":"cebpf4jnsgd1na2vs0mg"},{"bike_id":"f8fc97de-3cc0-4d59-b927-2064a756faee","system_id":"levelo_inurba_marseille","lat":43.30147,"lon":5.38076,"is_reserved":false,"is_disabled":false,"rental_uris":{"android":"levelo://app?vid=f8fc97de-3cc0-4d59-b927-2064a756faee","ios":"levelo://app?vid=f8fc97de-3cc0-4d59-b927-2064a756faee"},"vehicle_type_id":"4","last_reported":1775048082,"current_range_meters":3600,"station_id":"ce4bgjp2rcd13ifvqbh0","pricing_plan_id":"cebpf4jnsgd1na2vs0mg"},{"bike_id":"5f8ce50d-e59d-44ad-9646-24fed4114323","system_id":"levelo_inurba_marseille","lat":43.25222,"lon":5.38073,"is_reserved":false,"is_disabled":false,"rental_uris":{"android":"levelo://app?vid=5f8ce50d-e59d-44ad-9646-24fed4114323","ios":"levelo://app?vid=5f8ce50d-e59d-44ad-9646-24fed4114323"},"vehicle_type_id":"4","last_reported":1775048082,"current_range_meters":3600,"station_id":"","pricing_plan_id":"cebpf4jnsgd1na2vs0mg"},{"bike_id":"40cb7c20-581a-493c-aa58-c9321d5ce120","system_id":"levelo_inurba_marseille","lat":43.28512,"lon":5.44151,"is_reserved":false,"is_disabled":false,"rental_uris":{"android":"levelo://app?vid=40cb7c20-581a-493c-aa58-c9321d5ce120","ios":"levelo://app?vid=40cb7c20-581a-493c-aa58-c9321d5ce120"},"vehicle_type_id":"4","last_reported":1775048082,"current_range_meters":4000,"station_id":"st_d3j3df2ikq2c7380ej80","pricing_plan_id":"cebpf4jnsgd1na2vs0mg"},{"bike_id":"1b696ba7-1268-4f77-b988-fc0fa467655d","system_id":"levelo_inurba_marseille","lat":43.27852,"lon":5.39184,"is_reserved":false,"is_disabled":false,"rental_uris":{"android":"levelo://app?vid=1b696ba7-1268-4f77-b988-fc0fa467655d","ios":"levelo://app?vid=1b696ba7-1268-4f77-b988-fc0fa467655d"},"vehicle_type_id":"4","last_reported":1775048082,"current_range_meters":4000,"station_id":"ce4bhjp2rcd13ifvqga0","pricing_plan_id":"cebpf4jnsgd1na2vs0mg"},{"bike_id":"4977f95e-718a-4120-8926-2364059fe1a3","system_id":"levelo_inurba_marseille","lat":43.27276,"lon":5.40166,"is_reserved":false,"is_disabled":false,"rental_uris":{"android":"levelo://app?vid=4977f95e-718a-4120-8926-2364059fe1a3","ios":"levelo://app?vid=4977f95e-718a-4120-8926-2364059fe1a3"},"vehicle_type_id":"4","last_reported":1775048082,"current_range_meters":4000,"station_id":"","pricing_plan_id":"cebpf4jnsgd1na2vs0mg"},{"bike_id":"ace2b5ee-1355-40d7-ba59-bba7c913ea22","system_id":"levelo_inurba_marseille","lat":43.337444,"lon":5.374475,"is_reserved":false,"is_disabled":true,"rental_uris":{"android":"levelo://app?vid=ace2b5ee-1355-40d7-ba59-bba7c913ea22","ios":"levelo://app?vid=ace2b5ee-1355-40d7-ba59-bba7c913ea22"},"vehicle_type_id":"4","last_reported":1775048082,"current_range_meters":4000,"station_id":"","pricing_plan_id":"cebpf4jnsgd1na2vs0mg"},{"bike_id":"aac1d201-4604-4928-a1e8-3a9c499870e7","system_id":"levelo_inurba_marseille","lat":43.24645,"lon":5.38884,"is_reserved":false,"is_disabled":false,"rental_uris":{"android":"levelo://app?vid=aac1d201-4604-4928-a1e8-3a9c499870e7","ios":"levelo://app?vid=aac1d201-4604-4928-a1e8-3a9c499870e7"},"vehicle_type_id":"4","last_reported":1775048082,"current_range_meters":4000,"station_id":"ce4bhg12rcd13ifvqf60","pricing_plan_id":"cebpf4jnsgd1na2vs0mg"},{"bike_id":"53879992-769e-433a-9fe8-396906624217","system_id":"levelo_inurba_marseille","lat":43.24343,"lon":5.371,"is_reserved":false,"is_disabled":false,"rental_uris":{"android":"levelo://app?vid=53879992-769e-433a-9fe8-396906624217","ios":"levelo://app?vid=53879992-769e-433a-9fe8-396906624217"},"vehicle_type_id":"4","last_reported":1775048082,"current_range_meters":4000,"station_id":"","pricing_plan_id":"cebpf4jnsgd1na2vs0mg"},{"bike_id":"d3ee0dda-b558-4430-8d6e-5b3279bab0c0","system_id":"levelo_inurba_marseille","lat":43.29786,"lon":5.42733,"is_reserved":false,"is_disabled":false,"rental_uris":{"android":"levelo://app?vid=d3ee0dda-b558-4430-8d6e-5b3279bab0c0","ios":"levelo://app?vid=d3ee0dda-b558-4430-8d6e-5b3279bab0c0"},"vehicle_type_id":"4","last_reported":1775048082,"current_range_meters":4000,"station_id":"st_d3md5207bmas73dh9klg","pricing_plan_id":"cebpf4jnsgd1na2vs0mg"},{"bike_id":"f1c7cedb-7ca6-425d-bb6e-eba3f64564e5","system_id":"levelo_inurba_marseille","lat":43.24183,"lon":5.3971,"is_reserved":false,"is_disabled":false,"rental_uris":{"android":"levelo://app?vid=f1c7cedb-7ca6-425d-bb6e-eba3f64564e5","ios":"levelo://app?vid=f1c7cedb-7ca6-425d-bb6e-eba3f64564e5"},"vehicle_type_id":"4","last_reported":1775048082,"current_range_meters":4000,"station_id":"ce4bhn12rcd13ifvqgpg","pricing_plan_id":"cebpf4jnsgd1na2vs0mg"},{"bike_id":"895454a4-b2a9-4659-a69d-b068ca687ad0","system_id":"levelo_inurba_marseille","lat":43.29517,"lon":5.38547,"is_reserved":false,"is_disabled":true,"rental_uris":{"android":"levelo://app?vid=895454a4-b2a9-4659-a69d-b068ca687ad0","ios":"levelo://app?vid=895454a4-b2a9-4659-a69d-b068ca687ad0"},"vehicle_type_id":"4","last_reported":1775048082,"current_range_meters":4000,"station_id":"","pricing_plan_id":"cebpf4jnsgd1na2vs0mg"},{"bike_id":"8b972516-364d-4c36-a2f6-f81da10bf5ee","system_id":"levelo_inurba_marseille","lat":43.30065,"lon":5.43143,"is_reserved":false,"is_disabled":false,"rental_uris":{"android":"levelo://app?vid=8b972516-364d-4c36-a2f6-f81da10bf5ee","ios":"levelo://app?vid=8b972516-364d-4c36-a2f6-f81da10bf5ee"},"vehicle_type_id":"4","last_reported":1775048082,"current_range_meters":4000,"station_id":"","pricing_plan_id":"cebpf4jnsgd1na2vs0mg"},{"bike_id":"5594fef1-50b5-4719-8406-506999474c85","system_id":"levelo_inurba_marseille","lat":43.23055,"lon":5.3548,"is_reserved":false,"is_disabled":false,"rental_uris":{"android":"levelo://app?vid=5594fef1-50b5-4719-8406-506999474c85","ios":"levelo://app?vid=5594fef1-50b5-4719-8406-506999474c85"},"vehicle_type_id":"4","last_reported":1775048082,"current_range_meters":4000,"station_id":"cpo3342slgdg3j2ifvpg","pricing_plan_id":"cebpf4jnsgd1na2vs0mg"},{"bike_id":"585f8b02-5ec4-46fd-b1e3-b36632c6ef1a","system_id":"levelo_inurba_marseille","lat":43.262,"lon":5.37456,"is_reserved":false,"is_disabled":false,"rental_uris":{"android":"levelo://app?vid=585f8b02-5ec4-46fd-b1e3-b36632c6ef1a","ios":"levelo://app?vid=585f8b02-5ec4-46fd-b1e3-b36632c6ef1a"},"vehicle_type_id":"4","last_reported":1775048082,"current_range_meters":4000,"station_id":"ce4bhgp2rcd13ifvqfc0","pricing_plan_id":"cebpf4jnsgd1na2vs0mg"},{"bike_id":"96b824b6-e7fd-42c3-9c8e-2b60944cea49","system_id":"levelo_inurba_marseille","lat":43.2558,"lon":5.38239,"is_reserved":false,"is_disabled":false,"rental_uris":{"android":"levelo://app?vid=96b824b6-e7fd-42c3-9c8e-2b60944cea49","ios":"levelo://app?vid=96b824b6-e7fd-42c3-9c8e-2b60944cea49"},"vehicle_type_id":"4","last_reported":1775048082,"current_range_meters":4000,"station_id":"ce4bhih2rcd13ifvqfs0","pricing_plan_id":"cebpf4jnsgd1na2vs0mg"},{"bike_id":"2087d413-f15e-4f97-98f2-ae1153fc5db4","system_id":"levelo_inurba_marseille","lat":43.244,"lon":5.37033,"is_reserved":false,"is_disabled":false,"rental_uris":{"android":"levelo://app?vid=2087d413-f15e-4f97-98f2-ae1153fc5db4","ios":"levelo://app?vid=2087d413-f15e-4f97-98f2-ae1153fc5db4"},"vehicle_type_id":"4","last_reported":1775048082,"current_range_meters":4000,"station_id":"ce4bhhh2rcd13ifvqfk0","pricing_plan_id":"cebpf4jnsgd1na2vs0mg"},{"bike_id":"43e4bb96-0cd3-4e42-baf5-dd0ee842f69a","system_id":"levelo_inurba_marseille","lat":43.23792,"lon":5.36629,"is_reserved":false,"is_disabled":false,"rental_uris":{"android":"levelo://app?vid=43e4bb96-0cd3-4e42-baf5-dd0ee842f69a","ios":"levelo://app?vid=43e4bb96-0cd3-4e42-baf5-dd0ee842f69a"},"vehicle_type_id":"4","last_reported":1775048082,"current_range_meters":4000,"station_id":"st_d3nk18o9ro0c73en2l3g","pricing_plan_id":"cebpf4jnsgd1na2vs0mg"},{"bike_id":"e5a7a53a-b267-4440-9c9f-66f6b2ca226b","system_id":"levelo_inurba_marseille","lat":43.29602,"lon":5.37193,"is_reserved":false,"is_disabled":false,"rental_uris":{"android":"levelo://app?vid=e5a7a53a-b267-4440-9c9f-66f6b2ca226b","ios":"levelo://app?vid=e5a7a53a-b267-4440-9c9f-66f6b2ca226b"},"vehicle_type_id":"4","last_reported":1775048082,"current_range_meters":4400,"station_id":"ce4bgnh2rcd13ifvqc0g","pricing_plan_id":"cebpf4jnsgd1na2vs0mg"},{"bike_id":"3a922081-a991-4b97-906e-7f7dba00403a","system_id":"levelo_inurba_marseille","lat":43.32356,"lon":5.36757,"is_reserved":false,"is_disabled":false,"rental_uris":{"android":"levelo://app?vid=3a922081-a991-4b97-906e-7f7dba00403a","ios":"levelo://app?vid=3a922081-a991-4b97-906e-7f7dba00403a"},"vehicle_type_id":"4","last_reported":1775048082,"current_range_meters":4400,"station_id":"ce4bhsh2rcd13ifvqi2g","pricing_plan_id":"cebpf4jnsgd1na2vs0mg"},{"bike_id":"12028f3d-60f5-4e64-999a-4edac29ada05","system_id":"levelo_inurba_marseille","lat":43.30905,"lon":5.36847,"is_reserved":false,"is_disabled":false,"rental_uris":{"android":"levelo://app?vid=12028f3d-60f5-4e64-999a-4edac29ada05","ios":"levelo://app?vid=12028f3d-60f5-4e64-999a-4edac29ada05"},"vehicle_type_id":"4","last_reported":1775048082,"current_range_meters":4400,"station_id":"ce4bgn92rcd13ifvqbvg","pricing_plan_id":"cebpf4jnsgd1na2vs0mg"},{"bike_id":"9c1440ce-c955-43db-9800-7794805da744","system_id":"levelo_inurba_marseille","lat":43.2397,"lon":5.36644,"is_reserved":false,"is_disabled":false,"rental_uris":{"android":"levelo://app?vid=9c1440ce-c955-43db-9800-7794805da744","ios":"levelo://app?vid=9c1440ce-c955-43db-9800-7794805da744"},"vehicle_type_id":"4","last_reported":1775048082,"current_range_meters":4400,"station_id":"ce4bhi12rcd13ifvqfp0","pricing_plan_id":"cebpf4jnsgd1na2vs0mg"},{"bike_id":"0f2a0c24-473b-4afb-ada8-c7edfe8888ce","system_id":"levelo_inurba_marseille","lat":43.29853,"lon":5.36289,"is_reserved":false,"is_disabled":false,"rental_uris":{"android":"levelo://app?vid=0f2a0c24-473b-4afb-ada8-c7edfe8888ce","ios":"levelo://app?vid=0f2a0c24-473b-4afb-ada8-c7edfe8888ce"},"vehicle_type_id":"4","last_reported":1775048082,"current_range_meters":4400,"station_id":"ce4bgpp2rcd13ifvqc3g","pricing_plan_id":"cebpf4jnsgd1na2vs0mg"},{"bike_id":"b53f224e-5c2b-47b3-a19b-0c6884245c31","system_id":"levelo_inurba_marseille","lat":43.23973,"lon":5.36616,"is_reserved":false,"is_disabled":false,"rental_uris":{"android":"levelo://app?vid=b53f224e-5c2b-47b3-a19b-0c6884245c31","ios":"levelo://app?vid=b53f224e-5c2b-47b3-a19b-0c6884245c31"},"vehicle_type_id":"4","last_reported":1775048082,"current_range_meters":4400,"station_id":"ce4bhi12rcd13ifvqfp0","pricing_plan_id":"cebpf4jnsgd1na2vs0mg"},{"bike_id":"9413365a-3f56-4b1d-b117-b074e05b3240","system_id":"levelo_inurba_marseille","lat":43.31043,"lon":5.37153,"is_reserved":false,"is_disabled":false,"rental_uris":{"android":"levelo://app?vid=9413365a-3f56-4b1d-b117-b074e05b3240","ios":"levelo://app?vid=9413365a-3f56-4b1d-b117-b074e05b3240"},"vehicle_type_id":"4","last_reported":1775048082,"current_range_meters":4400,"station_id":"","pricing_plan_id":"cebpf4jnsgd1na2vs0mg"},{"bike_id":"3b0676d0-3c5e-443f-a620-c38959c0c6cb","system_id":"levelo_inurba_marseille","lat":43.22534,"lon":5.34829,"is_reserved":false,"is_disabled":false,"rental_uris":{"android":"levelo://app?vid=3b0676d0-3c5e-443f-a620-c38959c0c6cb","ios":"levelo://app?vid=3b0676d0-3c5e-443f-a620-c38959c0c6cb"},"vehicle_type_id":"4","last_reported":1775048082,"current_range_meters":4400,"station_id":"","pricing_plan_id":"cebpf4jnsgd1na2vs0mg"},{"bike_id":"220112ee-7160-43bb-8085-3a89f0835be2","system_id":"levelo_inurba_marseille","lat":43.26566,"lon":5.37316,"is_reserved":false,"is_disabled":false,"rental_uris":{"android":"levelo://app?vid=220112ee-7160-43bb-8085-3a89f0835be2","ios":"levelo://app?vid=220112ee-7160-43bb-8085-3a89f0835be2"},"vehicle_type_id":"4","last_reported":1775048082,"current_range_meters":4400,"station_id":"ce4bhg12rcd13ifvqf70","pricing_plan_id":"cebpf4jnsgd1na2vs0mg"},{"bike_id":"43ecb730-4f2d-42f6-b4b6-05ed9bc91d2f","system_id":"levelo_inurba_marseille","lat":43.24388,"lon":5.3703,"is_reserved":false,"is_disabled":false,"rental_uris":{"android":"levelo://app?vid=43ecb730-4f2d-42f6-b4b6-05ed9bc91d2f","ios":"levelo://app?vid=43ecb730-4f2d-42f6-b4b6-05ed9bc91d2f"},"vehicle_type_id":"4","last_reported":1775048082,"current_range_meters":4400,"station_id":"ce4bhhh2rcd13ifvqfk0","pricing_plan_id":"cebpf4jnsgd1na2vs0mg"},{"bike_id":"08e71c86-43a8-4902-86cf-de3f77db33e6","system_id":"levelo_inurba_marseille","lat":43.29691,"lon":5.44437,"is_reserved":false,"is_disabled":false,"rental_uris":{"android":"levelo://app?vid=08e71c86-43a8-4902-86cf-de3f77db33e6","ios":"levelo://app?vid=08e71c86-43a8-4902-86cf-de3f77db33e6"},"vehicle_type_id":"4","last_reported":1775048082,"current_range_meters":4400,"station_id":"","pricing_plan_id":"cebpf4jnsgd1na2vs0mg"},{"bike_id":"0ebcc71a-1070-45ee-8791-56ad76c8f07f","system_id":"levelo_inurba_marseille","lat":43.26371,"lon":5.41076,"is_reserved":false,"is_disabled":false,"rental_uris":{"android":"levelo://app?vid=0ebcc71a-1070-45ee-8791-56ad76c8f07f","ios":"levelo://app?vid=0ebcc71a-1070-45ee-8791-56ad76c8f07f"},"vehicle_type_id":"4","last_reported":1775048082,"current_range_meters":4400,"station_id":"st_d4e5ca6na9uc73bfl5fg","pricing_plan_id":"cebpf4jnsgd1na2vs0mg"},{"bike_id":"bb0d11db-19ae-4f1c-8146-45d8cf0530f7","system_id":"levelo_inurba_marseille","lat":43.337444,"lon":5.374475,"is_reserved":false,"is_disabled":true,"rental_uris":{"android":"levelo://app?vid=bb0d11db-19ae-4f1c-8146-45d8cf0530f7","ios":"levelo://app?vid=bb0d11db-19ae-4f1c-8146-45d8cf0530f7"},"vehicle_type_id":"4","last_reported":1775048082,"current_range_meters":4400,"station_id":"","pricing_plan_id":"cebpf4jnsgd1na2vs0mg"},{"bike_id":"6eab7b6b-53d1-4e72-8789-f597a7b08fa0","system_id":"levelo_inurba_marseille","lat":43.31724,"lon":5.42397,"is_reserved":false,"is_disabled":false,"rental_uris":{"android":"levelo://app?vid=6eab7b6b-53d1-4e72-8789-f597a7b08fa0","ios":"levelo://app?vid=6eab7b6b-53d1-4e72-8789-f597a7b08fa0"},"vehicle_type_id":"4","last_reported":1775048082,"current_range_meters":4400,"station_id":"ce4bhp92rcd13ifvqhbg","pricing_plan_id":"cebpf4jnsgd1na2vs0mg"},{"bike_id":"37eb3fab-ef0c-4540-827a-5365245b083e","system_id":"levelo_inurba_marseille","lat":43.2494,"lon":5.40473,"is_reserved":false,"is_disabled":false,"rental_uris":{"android":"levelo://app?vid=37eb3fab-ef0c-4540-827a-5365245b083e","ios":"levelo://app?vid=37eb3fab-ef0c-4540-827a-5365245b083e"},"vehicle_type_id":"4","last_reported":1775048082,"current_range_meters":4400,"station_id":"st_d2ngiaodas8pm72gd1h0","pricing_plan_id":"cebpf4jnsgd1na2vs0mg"},{"bike_id":"fd8535af-5209-4b87-ba76-7ce9f7c8358b","system_id":"levelo_inurba_marseille","lat":43.23146,"lon":5.43725,"is_reserved":false,"is_disabled":false,"rental_uris":{"android":"levelo://app?vid=fd8535af-5209-4b87-ba76-7ce9f7c8358b","ios":"levelo://app?vid=fd8535af-5209-4b87-ba76-7ce9f7c8358b"},"vehicle_type_id":"4","last_reported":1775048082,"current_range_meters":4800,"station_id":"ce4bhmp2rcd13ifvqgog","pricing_plan_id":"cebpf4jnsgd1na2vs0mg"},{"bike_id":"9c014c21-0814-46e2-9079-4ed86b4000e6","system_id":"levelo_inurba_marseille","lat":43.23787,"lon":5.36636,"is_reserved":false,"is_disabled":false,"rental_uris":{"android":"levelo://app?vid=9c014c21-0814-46e2-9079-4ed86b4000e6","ios":"levelo://app?vid=9c014c21-0814-46e2-9079-4ed86b4000e6"},"vehicle_type_id":"4","last_reported":1775048082,"current_range_meters":4800,"station_id":"st_d3nk18o9ro0c73en2l3g","pricing_plan_id":"cebpf4jnsgd1na2vs0mg"},{"bike_id":"76cb063d-d528-4b85-bd1f-92cb87912c86","system_id":"levelo_inurba_marseille","lat":43.28374,"lon":5.39363,"is_reserved":false,"is_disabled":false,"rental_uris":{"android":"levelo://app?vid=76cb063d-d528-4b85-bd1f-92cb87912c86","ios":"levelo://app?vid=76cb063d-d528-4b85-bd1f-92cb87912c86"},"vehicle_type_id":"4","last_reported":1775048082,"current_range_meters":4800,"station_id":"","pricing_plan_id":"cebpf4jnsgd1na2vs0mg"},{"bike_id":"10143625-4f1f-4b98-a23a-f0e119d830ff","system_id":"levelo_inurba_marseille","lat":43.24819,"lon":5.37462,"is_reserved":false,"is_disabled":false,"rental_uris":{"android":"levelo://app?vid=10143625-4f1f-4b98-a23a-f0e119d830ff","ios":"levelo://app?vid=10143625-4f1f-4b98-a23a-f0e119d830ff"},"vehicle_type_id":"4","last_reported":1775048082,"current_range_meters":4800,"station_id":"ce4bhgh2rcd13ifvqfb0","pricing_plan_id":"cebpf4jnsgd1na2vs0mg"},{"bike_id":"b1e9f130-d8ae-4858-bc10-b368a2ad0d85","system_id":"levelo_inurba_marseille","lat":43.28483,"lon":5.48391,"is_reserved":false,"is_disabled":false,"rental_uris":{"android":"levelo://app?vid=b1e9f130-d8ae-4858-bc10-b368a2ad0d85","ios":"levelo://app?vid=b1e9f130-d8ae-4858-bc10-b368a2ad0d85"},"vehicle_type_id":"4","last_reported":1775048082,"current_range_meters":4800,"station_id":"","pricing_plan_id":"cebpf4jnsgd1na2vs0mg"},{"bike_id":"a5b21948-fcb5-4ade-bce3-37cd3c403d4c","system_id":"levelo_inurba_marseille","lat":43.23065,"lon":5.35493,"is_reserved":false,"is_disabled":false,"rental_uris":{"android":"levelo://app?vid=a5b21948-fcb5-4ade-bce3-37cd3c403d4c","ios":"levelo://app?vid=a5b21948-fcb5-4ade-bce3-37cd3c403d4c"},"vehicle_type_id":"4","last_reported":1775048082,"current_range_meters":4800,"station_id":"cpo3342slgdg3j2ifvpg","pricing_plan_id":"cebpf4jnsgd1na2vs0mg"},{"bike_id":"3c031494-90c1-4144-83c6-b76f2c8a6b36","system_id":"levelo_inurba_marseille","lat":43.28711,"lon":5.39957,"is_reserved":false,"is_disabled":false,"rental_uris":{"android":"levelo://app?vid=3c031494-90c1-4144-83c6-b76f2c8a6b36","ios":"levelo://app?vid=3c031494-90c1-4144-83c6-b76f2c8a6b36"},"vehicle_type_id":"4","last_reported":1775048082,"current_range_meters":4800,"station_id":"ce4bho92rcd13ifvqh3g","pricing_plan_id":"cebpf4jnsgd1na2vs0mg"},{"bike_id":"ae252984-33f9-4582-8e8a-f420930221a8","system_id":"levelo_inurba_marseille","lat":43.29533,"lon":5.38656,"is_reserved":false,"is_disabled":false,"rental_uris":{"android":"levelo://app?vid=ae252984-33f9-4582-8e8a-f420930221a8","ios":"levelo://app?vid=ae252984-33f9-4582-8e8a-f420930221a8"},"vehicle_type_id":"4","last_reported":1775048082,"current_range_meters":4800,"station_id":"","pricing_plan_id":"cebpf4jnsgd1na2vs0mg"},{"bike_id":"82ef25fe-ced1-4b2f-9f5f-f3e9366b70f0","system_id":"levelo_inurba_marseille","lat":43.28478,"lon":5.48398,"is_reserved":false,"is_disabled":false,"rental_uris":{"android":"levelo://app?vid=82ef25fe-ced1-4b2f-9f5f-f3e9366b70f0","ios":"levelo://app?vid=82ef25fe-ced1-4b2f-9f5f-f3e9366b70f0"},"vehicle_type_id":"4","last_reported":1775048082,"current_range_meters":4800,"station_id":"st_d3svhcjqgbts73a3dn0g","pricing_plan_id":"cebpf4jnsgd1na2vs0mg"},{"bike_id":"6ecded90-e08a-42ec-a535-e9f406d9d027","system_id":"levelo_inurba_marseille","lat":43.24549,"lon":5.39519,"is_reserved":false,"is_disabled":false,"rental_uris":{"android":"levelo://app?vid=6ecded90-e08a-42ec-a535-e9f406d9d027","ios":"levelo://app?vid=6ecded90-e08a-42ec-a535-e9f406d9d027"},"vehicle_type_id":"4","last_reported":1775048082,"current_range_meters":4800,"station_id":"ce4bhlp2rcd13ifvqgjg","pricing_plan_id":"cebpf4jnsgd1na2vs0mg"},{"bike_id":"41f2d05d-5de5-4240-8492-08072a8e89cb","system_id":"levelo_inurba_marseille","lat":43.26566,"lon":5.37289,"is_reserved":false,"is_disabled":false,"rental_uris":{"android":"levelo://app?vid=41f2d05d-5de5-4240-8492-08072a8e89cb","ios":"levelo://app?vid=41f2d05d-5de5-4240-8492-08072a8e89cb"},"vehicle_type_id":"4","last_reported":1775048082,"current_range_meters":4800,"station_id":"ce4bhg12rcd13ifvqf70","pricing_plan_id":"cebpf4jnsgd1na2vs0mg"},{"bike_id":"b2752c14-57b1-492e-91e5-68b726022ce6","system_id":"levelo_inurba_marseille","lat":43.32105,"lon":5.36778,"is_reserved":false,"is_disabled":false,"rental_uris":{"android":"levelo://app?vid=b2752c14-57b1-492e-91e5-68b726022ce6","ios":"levelo://app?vid=b2752c14-57b1-492e-91e5-68b726022ce6"},"vehicle_type_id":"4","last_reported":1775048082,"current_range_meters":4800,"station_id":"ce4bhrh2rcd13ifvqhug","pricing_plan_id":"cebpf4jnsgd1na2vs0mg"},{"bike_id":"d4e4eacc-5fcb-4531-a49d-0c01ef525503","system_id":"levelo_inurba_marseille","lat":43.30952,"lon":5.39046,"is_reserved":false,"is_disabled":false,"rental_uris":{"android":"levelo://app?vid=d4e4eacc-5fcb-4531-a49d-0c01ef525503","ios":"levelo://app?vid=d4e4eacc-5fcb-4531-a49d-0c01ef525503"},"vehicle_type_id":"4","last_reported":1775048082,"current_range_meters":4800,"station_id":"ce4bgup2rcd13ifvqco0","pricing_plan_id":"cebpf4jnsgd1na2vs0mg"},{"bike_id":"ea3a296b-a9b2-4e1a-8c5c-2dcc4b99876f","system_id":"levelo_inurba_marseille","lat":43.23983,"lon":5.36594,"is_reserved":false,"is_disabled":false,"rental_uris":{"android":"levelo://app?vid=ea3a296b-a9b2-4e1a-8c5c-2dcc4b99876f","ios":"levelo://app?vid=ea3a296b-a9b2-4e1a-8c5c-2dcc4b99876f"},"vehicle_type_id":"4","last_reported":1775048082,"current_range_meters":4800,"station_id":"ce4bhi12rcd13ifvqfp0","pricing_plan_id":"cebpf4jnsgd1na2vs0mg"},{"bike_id":"b1d02504-2c4f-47d1-9d0a-aa3599012e9a","system_id":"levelo_inurba_marseille","lat":43.26817,"lon":5.40241,"is_reserved":false,"is_disabled":false,"rental_uris":{"android":"levelo://app?vid=b1d02504-2c4f-47d1-9d0a-aa3599012e9a","ios":"levelo://app?vid=b1d02504-2c4f-47d1-9d0a-aa3599012e9a"},"vehicle_type_id":"4","last_reported":1775048082,"current_range_meters":4800,"station_id":"ce501612rcd8frsf0b60","pricing_plan_id":"cebpf4jnsgd1na2vs0mg"},{"bike_id":"f16b5cd3-bbc5-4be5-8171-95842c0cc8e5","system_id":"levelo_inurba_marseille","lat":43.26688,"lon":5.3827,"is_reserved":false,"is_disabled":false,"rental_uris":{"android":"levelo://app?vid=f16b5cd3-bbc5-4be5-8171-95842c0cc8e5","ios":"levelo://app?vid=f16b5cd3-bbc5-4be5-8171-95842c0cc8e5"},"vehicle_type_id":"4","last_reported":1775048082,"current_range_meters":4800,"station_id":"ce4bhg92rcd13ifvqf90","pricing_plan_id":"cebpf4jnsgd1na2vs0mg"},{"bike_id":"b30474c6-10d5-47a6-9acc-a4af281f9552","system_id":"levelo_inurba_marseille","lat":43.24387,"lon":5.3705,"is_reserved":false,"is_disabled":false,"rental_uris":{"android":"levelo://app?vid=b30474c6-10d5-47a6-9acc-a4af281f9552","ios":"levelo://app?vid=b30474c6-10d5-47a6-9acc-a4af281f9552"},"vehicle_type_id":"4","last_reported":1775048082,"current_range_meters":4800,"station_id":"ce4bhhh2rcd13ifvqfk0","pricing_plan_id":"cebpf4jnsgd1na2vs0mg"},{"bike_id":"63657eb1-3e73-42da-84c4-e0cebc783daf","system_id":"levelo_inurba_marseille","lat":43.30423,"lon":5.39741,"is_reserved":false,"is_disabled":false,"rental_uris":{"android":"levelo://app?vid=63657eb1-3e73-42da-84c4-e0cebc783daf","ios":"levelo://app?vid=63657eb1-3e73-42da-84c4-e0cebc783daf"},"vehicle_type_id":"4","last_reported":1775048082,"current_range_meters":4800,"station_id":"ce4bh092rcd13ifvqd20","pricing_plan_id":"cebpf4jnsgd1na2vs0mg"},{"bike_id":"dfb946ce-fedb-4e12-8519-cb8fb15a5c14","system_id":"levelo_inurba_marseille","lat":43.24168,"lon":5.36399,"is_reserved":false,"is_disabled":false,"rental_uris":{"android":"levelo://app?vid=dfb946ce-fedb-4e12-8519-cb8fb15a5c14","ios":"levelo://app?vid=dfb946ce-fedb-4e12-8519-cb8fb15a5c14"},"vehicle_type_id":"4","last_reported":1775048082,"current_range_meters":5600,"station_id":"cpo36qri1sfpv3e86is0","pricing_plan_id":"cebpf4jnsgd1na2vs0mg"},{"bike_id":"a20f850c-d4ca-4157-bd3f-18fda064d36f","system_id":"levelo_inurba_marseille","lat":43.29529,"lon":5.38657,"is_reserved":false,"is_disabled":false,"rental_uris":{"android":"levelo://app?vid=a20f850c-d4ca-4157-bd3f-18fda064d36f","ios":"levelo://app?vid=a20f850c-d4ca-4157-bd3f-18fda064d36f"},"vehicle_type_id":"4","last_reported":1775048082,"current_range_meters":5600,"station_id":"","pricing_plan_id":"cebpf4jnsgd1na2vs0mg"},{"bike_id":"54b32ec7-ddfd-41e6-ae23-087da91e8924","system_id":"levelo_inurba_marseille","lat":43.2989,"lon":5.4365,"is_reserved":false,"is_disabled":false,"rental_uris":{"android":"levelo://app?vid=54b32ec7-ddfd-41e6-ae23-087da91e8924","ios":"levelo://app?vid=54b32ec7-ddfd-41e6-ae23-087da91e8924"},"vehicle_type_id":"4","last_reported":1775048082,"current_range_meters":5600,"station_id":"ce4bhpp2rcd13ifvqhfg","pricing_plan_id":"cebpf4jnsgd1na2vs0mg"},{"bike_id":"bcc288dd-6942-4899-95ee-d43aed6e21bd","system_id":"levelo_inurba_marseille","lat":43.31295,"lon":5.36746,"is_reserved":false,"is_disabled":false,"rental_uris":{"android":"levelo://app?vid=bcc288dd-6942-4899-95ee-d43aed6e21bd","ios":"levelo://app?vid=bcc288dd-6942-4899-95ee-d43aed6e21bd"},"vehicle_type_id":"4","last_reported":1775048082,"current_range_meters":5600,"station_id":"ce4bgr92rcd13ifvqc6g","pricing_plan_id":"cebpf4jnsgd1na2vs0mg"},{"bike_id":"38fa3918-21fd-4e4d-a1bb-2cb71f51b7fa","system_id":"levelo_inurba_marseille","lat":43.30186,"lon":5.38088,"is_reserved":false,"is_disabled":false,"rental_uris":{"android":"levelo://app?vid=38fa3918-21fd-4e4d-a1bb-2cb71f51b7fa","ios":"levelo://app?vid=38fa3918-21fd-4e4d-a1bb-2cb71f51b7fa"},"vehicle_type_id":"4","last_reported":1775048082,"current_range_meters":5600,"station_id":"ce4bgjp2rcd13ifvqbh0","pricing_plan_id":"cebpf4jnsgd1na2vs0mg"},{"bike_id":"5a354721-9725-4059-b6ca-89e0df8dd9e6","system_id":"levelo_inurba_marseille","lat":43.290419,"lon":5.399652,"is_reserved":false,"is_disabled":false,"rental_uris":{"android":"levelo://app?vid=5a354721-9725-4059-b6ca-89e0df8dd9e6","ios":"levelo://app?vid=5a354721-9725-4059-b6ca-89e0df8dd9e6"},"vehicle_type_id":"4","last_reported":1775048082,"current_range_meters":5600,"station_id":"ce4bh392rcd13ifvqdm0","pricing_plan_id":"cebpf4jnsgd1na2vs0mg"},{"bike_id":"435393ff-9e8e-4fa2-82a4-6ce12bbccbed","system_id":"levelo_inurba_marseille","lat":43.28477,"lon":5.48406,"is_reserved":false,"is_disabled":false,"rental_uris":{"android":"levelo://app?vid=435393ff-9e8e-4fa2-82a4-6ce12bbccbed","ios":"levelo://app?vid=435393ff-9e8e-4fa2-82a4-6ce12bbccbed"},"vehicle_type_id":"4","last_reported":1775048082,"current_range_meters":5600,"station_id":"st_d3svhcjqgbts73a3dn0g","pricing_plan_id":"cebpf4jnsgd1na2vs0mg"},{"bike_id":"dd0c2c54-978e-49b8-89a3-9926153b6f8e","system_id":"levelo_inurba_marseille","lat":43.29902,"lon":5.43655,"is_reserved":false,"is_disabled":false,"rental_uris":{"android":"levelo://app?vid=dd0c2c54-978e-49b8-89a3-9926153b6f8e","ios":"levelo://app?vid=dd0c2c54-978e-49b8-89a3-9926153b6f8e"},"vehicle_type_id":"4","last_reported":1775048082,"current_range_meters":5600,"station_id":"ce4bhpp2rcd13ifvqhfg","pricing_plan_id":"cebpf4jnsgd1na2vs0mg"},{"bike_id":"1f6bd616-f380-4630-a66b-f980a33e8714","system_id":"levelo_inurba_marseille","lat":43.31357,"lon":5.36686,"is_reserved":false,"is_disabled":false,"rental_uris":{"android":"levelo://app?vid=1f6bd616-f380-4630-a66b-f980a33e8714","ios":"levelo://app?vid=1f6bd616-f380-4630-a66b-f980a33e8714"},"vehicle_type_id":"4","last_reported":1775048082,"current_range_meters":5600,"station_id":"ce4bgr92rcd13ifvqc6g","pricing_plan_id":"cebpf4jnsgd1na2vs0mg"},{"bike_id":"3419a408-ab31-43ef-b75c-92281255117d","system_id":"levelo_inurba_marseille","lat":43.26564,"lon":5.3727,"is_reserved":false,"is_disabled":false,"rental_uris":{"android":"levelo://app?vid=3419a408-ab31-43ef-b75c-92281255117d","ios":"levelo://app?vid=3419a408-ab31-43ef-b75c-92281255117d"},"vehicle_type_id":"4","last_reported":1775048082,"current_range_meters":5600,"station_id":"ce4bhg12rcd13ifvqf70","pricing_plan_id":"cebpf4jnsgd1na2vs0mg"},{"bike_id":"cf450e1b-8aa1-4d78-ac0a-8df926f4f821","system_id":"levelo_inurba_marseille","lat":43.24382,"lon":5.37045,"is_reserved":false,"is_disabled":false,"rental_uris":{"android":"levelo://app?vid=cf450e1b-8aa1-4d78-ac0a-8df926f4f821","ios":"levelo://app?vid=cf450e1b-8aa1-4d78-ac0a-8df926f4f821"},"vehicle_type_id":"4","last_reported":1775048082,"current_range_meters":5600,"station_id":"ce4bhhh2rcd13ifvqfk0","pricing_plan_id":"cebpf4jnsgd1na2vs0mg"},{"bike_id":"2472a388-2ba6-406a-93b5-09de3d970e91","system_id":"levelo_inurba_marseille","lat":43.24381,"lon":5.37075,"is_reserved":false,"is_disabled":false,"rental_uris":{"android":"levelo://app?vid=2472a388-2ba6-406a-93b5-09de3d970e91","ios":"levelo://app?vid=2472a388-2ba6-406a-93b5-09de3d970e91"},"vehicle_type_id":"4","last_reported":1775048082,"current_range_meters":5600,"station_id":"ce4bhhh2rcd13ifvqfk0","pricing_plan_id":"cebpf4jnsgd1na2vs0mg"},{"bike_id":"0f182db9-a1f9-46fd-9199-275e74a125d7","system_id":"levelo_inurba_marseille","lat":43.24168,"lon":5.36396,"is_reserved":false,"is_disabled":false,"rental_uris":{"android":"levelo://app?vid=0f182db9-a1f9-46fd-9199-275e74a125d7","ios":"levelo://app?vid=0f182db9-a1f9-46fd-9199-275e74a125d7"},"vehicle_type_id":"4","last_reported":1775048082,"current_range_meters":5600,"station_id":"cpo36qri1sfpv3e86is0","pricing_plan_id":"cebpf4jnsgd1na2vs0mg"},{"bike_id":"fbb75834-f22e-4b0c-a13f-b3782403aa38","system_id":"levelo_inurba_marseille","lat":43.2396,"lon":5.36621,"is_reserved":false,"is_disabled":false,"rental_uris":{"android":"levelo://app?vid=fbb75834-f22e-4b0c-a13f-b3782403aa38","ios":"levelo://app?vid=fbb75834-f22e-4b0c-a13f-b3782403aa38"},"vehicle_type_id":"4","last_reported":1775048082,"current_range_meters":5600,"station_id":"ce4bhi12rcd13ifvqfp0","pricing_plan_id":"cebpf4jnsgd1na2vs0mg"},{"bike_id":"44f9d2b5-878b-45f7-83f0-9fe3de8ddc6b","system_id":"levelo_inurba_marseille","lat":43.30634,"lon":5.36571,"is_reserved":false,"is_disabled":false,"rental_uris":{"android":"levelo://app?vid=44f9d2b5-878b-45f7-83f0-9fe3de8ddc6b","ios":"levelo://app?vid=44f9d2b5-878b-45f7-83f0-9fe3de8ddc6b"},"vehicle_type_id":"4","last_reported":1775048082,"current_range_meters":5600,"station_id":"","pricing_plan_id":"cebpf4jnsgd1na2vs0mg"},{"bike_id":"72509681-52aa-4782-9de0-820bb878387d","system_id":"levelo_inurba_marseille","lat":43.22559,"lon":5.41622,"is_reserved":false,"is_disabled":false,"rental_uris":{"android":"levelo://app?vid=72509681-52aa-4782-9de0-820bb878387d","ios":"levelo://app?vid=72509681-52aa-4782-9de0-820bb878387d"},"vehicle_type_id":"4","last_reported":1775048082,"current_range_meters":5600,"station_id":"st_d2o4gvlbi1j2169b742g","pricing_plan_id":"cebpf4jnsgd1na2vs0mg"},{"bike_id":"2143be35-497d-4c7b-9f85-3e781cd61463","system_id":"levelo_inurba_marseille","lat":43.29898,"lon":5.43665,"is_reserved":false,"is_disabled":false,"rental_uris":{"android":"levelo://app?vid=2143be35-497d-4c7b-9f85-3e781cd61463","ios":"levelo://app?vid=2143be35-497d-4c7b-9f85-3e781cd61463"},"vehicle_type_id":"4","last_reported":1775048082,"current_range_meters":5600,"station_id":"ce4bhpp2rcd13ifvqhfg","pricing_plan_id":"cebpf4jnsgd1na2vs0mg"},{"bike_id":"6ec1889d-c43d-42d7-9ebb-6d09626d1897","system_id":"levelo_inurba_marseille","lat":43.2465,"lon":5.38895,"is_reserved":false,"is_disabled":false,"rental_uris":{"android":"levelo://app?vid=6ec1889d-c43d-42d7-9ebb-6d09626d1897","ios":"levelo://app?vid=6ec1889d-c43d-42d7-9ebb-6d09626d1897"},"vehicle_type_id":"4","last_reported":1775048082,"current_range_meters":6000,"station_id":"ce4bhg12rcd13ifvqf60","pricing_plan_id":"cebpf4jnsgd1na2vs0mg"},{"bike_id":"8429f855-c4a0-4803-9ce7-0d1fb93dbfe8","system_id":"levelo_inurba_marseille","lat":43.28558,"lon":5.4833,"is_reserved":false,"is_disabled":false,"rental_uris":{"android":"levelo://app?vid=8429f855-c4a0-4803-9ce7-0d1fb93dbfe8","ios":"levelo://app?vid=8429f855-c4a0-4803-9ce7-0d1fb93dbfe8"},"vehicle_type_id":"4","last_reported":1775048082,"current_range_meters":6000,"station_id":"","pricing_plan_id":"cebpf4jnsgd1na2vs0mg"},{"bike_id":"97911566-b39d-4772-9786-37508c49e45f","system_id":"levelo_inurba_marseille","lat":43.22555,"lon":5.41633,"is_reserved":false,"is_disabled":false,"rental_uris":{"android":"levelo://app?vid=97911566-b39d-4772-9786-37508c49e45f","ios":"levelo://app?vid=97911566-b39d-4772-9786-37508c49e45f"},"vehicle_type_id":"4","last_reported":1775048082,"current_range_meters":6000,"station_id":"st_d2o4gvlbi1j2169b742g","pricing_plan_id":"cebpf4jnsgd1na2vs0mg"},{"bike_id":"1130d409-34d2-42ba-a5d5-ed99d6325005","system_id":"levelo_inurba_marseille","lat":43.21757,"lon":5.34587,"is_reserved":false,"is_disabled":false,"rental_uris":{"android":"levelo://app?vid=1130d409-34d2-42ba-a5d5-ed99d6325005","ios":"levelo://app?vid=1130d409-34d2-42ba-a5d5-ed99d6325005"},"vehicle_type_id":"4","last_reported":1775048082,"current_range_meters":6000,"station_id":"st_cvj6r9ubvosntc0bgbag","pricing_plan_id":"cebpf4jnsgd1na2vs0mg"},{"bike_id":"a4e9157a-6430-48ed-901c-a58b97ff87d7","system_id":"levelo_inurba_marseille","lat":43.28405,"lon":5.37521,"is_reserved":false,"is_disabled":false,"rental_uris":{"android":"levelo://app?vid=a4e9157a-6430-48ed-901c-a58b97ff87d7","ios":"levelo://app?vid=a4e9157a-6430-48ed-901c-a58b97ff87d7"},"vehicle_type_id":"4","last_reported":1775048082,"current_range_meters":6000,"station_id":"ce4bh412rcd13ifvqds0","pricing_plan_id":"cebpf4jnsgd1na2vs0mg"},{"bike_id":"69a280ea-6990-4f67-a2e6-d659df6ba179","system_id":"levelo_inurba_marseille","lat":43.28154,"lon":5.42637,"is_reserved":false,"is_disabled":false,"rental_uris":{"android":"levelo://app?vid=69a280ea-6990-4f67-a2e6-d659df6ba179","ios":"levelo://app?vid=69a280ea-6990-4f67-a2e6-d659df6ba179"},"vehicle_type_id":"4","last_reported":1775048082,"current_range_meters":6000,"station_id":"ce4bhnh2rcd13ifvqgug","pricing_plan_id":"cebpf4jnsgd1na2vs0mg"},{"bike_id":"b3b27935-445b-4cfa-be4d-d3876dc0e11d","system_id":"levelo_inurba_marseille","lat":43.27942,"lon":5.41046,"is_reserved":false,"is_disabled":false,"rental_uris":{"android":"levelo://app?vid=b3b27935-445b-4cfa-be4d-d3876dc0e11d","ios":"levelo://app?vid=b3b27935-445b-4cfa-be4d-d3876dc0e11d"},"vehicle_type_id":"4","last_reported":1775048082,"current_range_meters":6000,"station_id":"ce4bhnp2rcd13ifvqh0g","pricing_plan_id":"cebpf4jnsgd1na2vs0mg"},{"bike_id":"58f34c6b-a86e-4e7a-8bcc-4b268f42924a","system_id":"levelo_inurba_marseille","lat":43.32237,"lon":5.37128,"is_reserved":false,"is_disabled":false,"rental_uris":{"android":"levelo://app?vid=58f34c6b-a86e-4e7a-8bcc-4b268f42924a","ios":"levelo://app?vid=58f34c6b-a86e-4e7a-8bcc-4b268f42924a"},"vehicle_type_id":"4","last_reported":1775048082,"current_range_meters":6000,"station_id":"","pricing_plan_id":"cebpf4jnsgd1na2vs0mg"},{"bike_id":"dbb463b5-6249-4cb0-a91a-704c133aae64","system_id":"levelo_inurba_marseille","lat":43.27372,"lon":5.36259,"is_reserved":false,"is_disabled":false,"rental_uris":{"android":"levelo://app?vid=dbb463b5-6249-4cb0-a91a-704c133aae64","ios":"levelo://app?vid=dbb463b5-6249-4cb0-a91a-704c133aae64"},"vehicle_type_id":"4","last_reported":1775048082,"current_range_meters":6000,"station_id":"ce4bhbh2rcd13ifvqeo0","pricing_plan_id":"cebpf4jnsgd1na2vs0mg"},{"bike_id":"4f461c12-a839-4112-843e-a559d023da9c","system_id":"levelo_inurba_marseille","lat":43.212,"lon":5.35065,"is_reserved":false,"is_disabled":false,"rental_uris":{"android":"levelo://app?vid=4f461c12-a839-4112-843e-a559d023da9c","ios":"levelo://app?vid=4f461c12-a839-4112-843e-a559d023da9c"},"vehicle_type_id":"4","last_reported":1775048082,"current_range_meters":6000,"station_id":"st_cvj6sg6p6f1abm77japg","pricing_plan_id":"cebpf4jnsgd1na2vs0mg"},{"bike_id":"3ed7bdd6-848d-4392-aea7-a376aa471b6b","system_id":"levelo_inurba_marseille","lat":43.31641,"lon":5.40537,"is_reserved":false,"is_disabled":false,"rental_uris":{"android":"levelo://app?vid=3ed7bdd6-848d-4392-aea7-a376aa471b6b","ios":"levelo://app?vid=3ed7bdd6-848d-4392-aea7-a376aa471b6b"},"vehicle_type_id":"4","last_reported":1775048082,"current_range_meters":6400,"station_id":"","pricing_plan_id":"cebpf4jnsgd1na2vs0mg"},{"bike_id":"dbafccf7-0909-44bd-86f0-abe7aa0ed694","system_id":"levelo_inurba_marseille","lat":43.29498,"lon":5.43294,"is_reserved":false,"is_disabled":false,"rental_uris":{"android":"levelo://app?vid=dbafccf7-0909-44bd-86f0-abe7aa0ed694","ios":"levelo://app?vid=dbafccf7-0909-44bd-86f0-abe7aa0ed694"},"vehicle_type_id":"4","last_reported":1775048082,"current_range_meters":6400,"station_id":"st_d3j5ugp08ojc73fj9d10","pricing_plan_id":"cebpf4jnsgd1na2vs0mg"},{"bike_id":"1fd14647-60cf-49f0-a971-843beb62395e","system_id":"levelo_inurba_marseille","lat":43.28541,"lon":5.44074,"is_reserved":false,"is_disabled":false,"rental_uris":{"android":"levelo://app?vid=1fd14647-60cf-49f0-a971-843beb62395e","ios":"levelo://app?vid=1fd14647-60cf-49f0-a971-843beb62395e"},"vehicle_type_id":"4","last_reported":1775048082,"current_range_meters":6400,"station_id":"st_d3j3df2ikq2c7380ej80","pricing_plan_id":"cebpf4jnsgd1na2vs0mg"},{"bike_id":"434cc04b-da26-4ac7-ac64-881d26ef5485","system_id":"levelo_inurba_marseille","lat":43.28617,"lon":5.35109,"is_reserved":false,"is_disabled":false,"rental_uris":{"android":"levelo://app?vid=434cc04b-da26-4ac7-ac64-881d26ef5485","ios":"levelo://app?vid=434cc04b-da26-4ac7-ac64-881d26ef5485"},"vehicle_type_id":"4","last_reported":1775048082,"current_range_meters":6400,"station_id":"ce4bhch2rcd13ifvqeug","pricing_plan_id":"cebpf4jnsgd1na2vs0mg"},{"bike_id":"9dd9c9d9-d1bc-4acd-a00d-94b45ac08816","system_id":"levelo_inurba_marseille","lat":43.27619,"lon":5.36108,"is_reserved":false,"is_disabled":false,"rental_uris":{"android":"levelo://app?vid=9dd9c9d9-d1bc-4acd-a00d-94b45ac08816","ios":"levelo://app?vid=9dd9c9d9-d1bc-4acd-a00d-94b45ac08816"},"vehicle_type_id":"4","last_reported":1775048082,"current_range_meters":6400,"station_id":"ce4bgj92rcd13ifvqbe0","pricing_plan_id":"cebpf4jnsgd1na2vs0mg"},{"bike_id":"1754bafc-ae68-46a3-b361-b22a272bb45f","system_id":"levelo_inurba_marseille","lat":43.28261,"lon":5.350653,"is_reserved":false,"is_disabled":false,"rental_uris":{"android":"levelo://app?vid=1754bafc-ae68-46a3-b361-b22a272bb45f","ios":"levelo://app?vid=1754bafc-ae68-46a3-b361-b22a272bb45f"},"vehicle_type_id":"4","last_reported":1775048082,"current_range_meters":6400,"station_id":"ce4bhbp2rcd13ifvqerg","pricing_plan_id":"cebpf4jnsgd1na2vs0mg"},{"bike_id":"004df5ee-8705-4c28-841c-14c96dac261e","system_id":"levelo_inurba_marseille","lat":43.3014,"lon":5.38082,"is_reserved":false,"is_disabled":false,"rental_uris":{"android":"levelo://app?vid=004df5ee-8705-4c28-841c-14c96dac261e","ios":"levelo://app?vid=004df5ee-8705-4c28-841c-14c96dac261e"},"vehicle_type_id":"4","last_reported":1775048082,"current_range_meters":6400,"station_id":"ce4bgjp2rcd13ifvqbh0","pricing_plan_id":"cebpf4jnsgd1na2vs0mg"},{"bike_id":"4dc5e590-cebf-4591-86fa-2533cf011660","system_id":"levelo_inurba_marseille","lat":43.23967,"lon":5.36631,"is_reserved":false,"is_disabled":false,"rental_uris":{"android":"levelo://app?vid=4dc5e590-cebf-4591-86fa-2533cf011660","ios":"levelo://app?vid=4dc5e590-cebf-4591-86fa-2533cf011660"},"vehicle_type_id":"4","last_reported":1775048082,"current_range_meters":6400,"station_id":"ce4bhi12rcd13ifvqfp0","pricing_plan_id":"cebpf4jnsgd1na2vs0mg"},{"bike_id":"751823b1-fecf-476f-a14d-b22ea92d3e4c","system_id":"levelo_inurba_marseille","lat":43.29181,"lon":5.42644,"is_reserved":false,"is_disabled":false,"rental_uris":{"android":"levelo://app?vid=751823b1-fecf-476f-a14d-b22ea92d3e4c","ios":"levelo://app?vid=751823b1-fecf-476f-a14d-b22ea92d3e4c"},"vehicle_type_id":"4","last_reported":1775048082,"current_range_meters":6400,"station_id":"","pricing_plan_id":"cebpf4jnsgd1na2vs0mg"},{"bike_id":"eb168392-a120-432c-95f8-0710fc1ccfde","system_id":"levelo_inurba_marseille","lat":43.23193,"lon":5.35561,"is_reserved":false,"is_disabled":false,"rental_uris":{"android":"levelo://app?vid=eb168392-a120-432c-95f8-0710fc1ccfde","ios":"levelo://app?vid=eb168392-a120-432c-95f8-0710fc1ccfde"},"vehicle_type_id":"4","last_reported":1775048082,"current_range_meters":6400,"station_id":"ce4bhu92rcd13ifvqi70","pricing_plan_id":"cebpf4jnsgd1na2vs0mg"},{"bike_id":"4bf36fd2-1e8c-4fcf-9092-da10f6287b33","system_id":"levelo_inurba_marseille","lat":43.2737,"lon":5.3626,"is_reserved":false,"is_disabled":false,"rental_uris":{"android":"levelo://app?vid=4bf36fd2-1e8c-4fcf-9092-da10f6287b33","ios":"levelo://app?vid=4bf36fd2-1e8c-4fcf-9092-da10f6287b33"},"vehicle_type_id":"4","last_reported":1775048082,"current_range_meters":6400,"station_id":"ce4bhbh2rcd13ifvqeo0","pricing_plan_id":"cebpf4jnsgd1na2vs0mg"},{"bike_id":"6b7bc170-a894-4feb-a830-7e3967ff5bc5","system_id":"levelo_inurba_marseille","lat":43.26557,"lon":5.37281,"is_reserved":false,"is_disabled":false,"rental_uris":{"android":"levelo://app?vid=6b7bc170-a894-4feb-a830-7e3967ff5bc5","ios":"levelo://app?vid=6b7bc170-a894-4feb-a830-7e3967ff5bc5"},"vehicle_type_id":"4","last_reported":1775048082,"current_range_meters":6800,"station_id":"ce4bhg12rcd13ifvqf70","pricing_plan_id":"cebpf4jnsgd1na2vs0mg"},{"bike_id":"020709b2-4511-4f7a-8597-5644cfeba6fe","system_id":"levelo_inurba_marseille","lat":43.24159,"lon":5.36415,"is_reserved":false,"is_disabled":false,"rental_uris":{"android":"levelo://app?vid=020709b2-4511-4f7a-8597-5644cfeba6fe","ios":"levelo://app?vid=020709b2-4511-4f7a-8597-5644cfeba6fe"},"vehicle_type_id":"4","last_reported":1775048082,"current_range_meters":6800,"station_id":"cpo36qri1sfpv3e86is0","pricing_plan_id":"cebpf4jnsgd1na2vs0mg"},{"bike_id":"e48449c9-7d13-4803-b2aa-7fb857c0a68c","system_id":"levelo_inurba_marseille","lat":43.24431,"lon":5.41587,"is_reserved":false,"is_disabled":false,"rental_uris":{"android":"levelo://app?vid=e48449c9-7d13-4803-b2aa-7fb857c0a68c","ios":"levelo://app?vid=e48449c9-7d13-4803-b2aa-7fb857c0a68c"},"vehicle_type_id":"4","last_reported":1775048082,"current_range_meters":6800,"station_id":"","pricing_plan_id":"cebpf4jnsgd1na2vs0mg"},{"bike_id":"06ca8996-a9bb-4e2f-a1fb-37e84eba5174","system_id":"levelo_inurba_marseille","lat":43.29868,"lon":5.4205,"is_reserved":false,"is_disabled":false,"rental_uris":{"android":"levelo://app?vid=06ca8996-a9bb-4e2f-a1fb-37e84eba5174","ios":"levelo://app?vid=06ca8996-a9bb-4e2f-a1fb-37e84eba5174"},"vehicle_type_id":"4","last_reported":1775048082,"current_range_meters":6800,"station_id":"st_d6tc004otcvc738tfe70","pricing_plan_id":"cebpf4jnsgd1na2vs0mg"},{"bike_id":"3779fce9-2c24-4d4f-a0f7-bcfba516f403","system_id":"levelo_inurba_marseille","lat":43.21757,"lon":5.34579,"is_reserved":false,"is_disabled":false,"rental_uris":{"android":"levelo://app?vid=3779fce9-2c24-4d4f-a0f7-bcfba516f403","ios":"levelo://app?vid=3779fce9-2c24-4d4f-a0f7-bcfba516f403"},"vehicle_type_id":"4","last_reported":1775048082,"current_range_meters":6800,"station_id":"st_cvj6r9ubvosntc0bgbag","pricing_plan_id":"cebpf4jnsgd1na2vs0mg"},{"bike_id":"d41d5ff3-651c-4e70-8a12-e8a105b53c64","system_id":"levelo_inurba_marseille","lat":43.3157,"lon":5.44544,"is_reserved":false,"is_disabled":false,"rental_uris":{"android":"levelo://app?vid=d41d5ff3-651c-4e70-8a12-e8a105b53c64","ios":"levelo://app?vid=d41d5ff3-651c-4e70-8a12-e8a105b53c64"},"vehicle_type_id":"4","last_reported":1775048082,"current_range_meters":6800,"station_id":"","pricing_plan_id":"cebpf4jnsgd1na2vs0mg"},{"bike_id":"a9616136-f3db-4e2d-951b-e20c22b73feb","system_id":"levelo_inurba_marseille","lat":43.24803,"lon":5.37452,"is_reserved":false,"is_disabled":false,"rental_uris":{"android":"levelo://app?vid=a9616136-f3db-4e2d-951b-e20c22b73feb","ios":"levelo://app?vid=a9616136-f3db-4e2d-951b-e20c22b73feb"},"vehicle_type_id":"4","last_reported":1775048082,"current_range_meters":6800,"station_id":"ce4bhgh2rcd13ifvqfb0","pricing_plan_id":"cebpf4jnsgd1na2vs0mg"},{"bike_id":"e100bd93-1703-44b8-a832-5d7ea88fe7f4","system_id":"levelo_inurba_marseille","lat":43.24466,"lon":5.4254,"is_reserved":false,"is_disabled":false,"rental_uris":{"android":"levelo://app?vid=e100bd93-1703-44b8-a832-5d7ea88fe7f4","ios":"levelo://app?vid=e100bd93-1703-44b8-a832-5d7ea88fe7f4"},"vehicle_type_id":"4","last_reported":1775048082,"current_range_meters":6800,"station_id":"st_d4a3vfp97mjs738cd8kg","pricing_plan_id":"cebpf4jnsgd1na2vs0mg"},{"bike_id":"df3803fc-a4e8-41a3-a0f5-2361c135450e","system_id":"levelo_inurba_marseille","lat":43.24169,"lon":5.36377,"is_reserved":false,"is_disabled":false,"rental_uris":{"android":"levelo://app?vid=df3803fc-a4e8-41a3-a0f5-2361c135450e","ios":"levelo://app?vid=df3803fc-a4e8-41a3-a0f5-2361c135450e"},"vehicle_type_id":"4","last_reported":1775048082,"current_range_meters":6800,"station_id":"cpo36qri1sfpv3e86is0","pricing_plan_id":"cebpf4jnsgd1na2vs0mg"},{"bike_id":"61dc7beb-63c5-45cd-906b-0925d0f5df41","system_id":"levelo_inurba_marseille","lat":43.28529,"lon":5.44099,"is_reserved":false,"is_disabled":false,"rental_uris":{"android":"levelo://app?vid=61dc7beb-63c5-45cd-906b-0925d0f5df41","ios":"levelo://app?vid=61dc7beb-63c5-45cd-906b-0925d0f5df41"},"vehicle_type_id":"4","last_reported":1775048082,"current_range_meters":6800,"station_id":"st_d3j3df2ikq2c7380ej80","pricing_plan_id":"cebpf4jnsgd1na2vs0mg"},{"bike_id":"5efda9c6-1b8f-409f-ae55-b0c3a847462a","system_id":"levelo_inurba_marseille","lat":43.30947,"lon":5.39035,"is_reserved":false,"is_disabled":false,"rental_uris":{"android":"levelo://app?vid=5efda9c6-1b8f-409f-ae55-b0c3a847462a","ios":"levelo://app?vid=5efda9c6-1b8f-409f-ae55-b0c3a847462a"},"vehicle_type_id":"4","last_reported":1775048082,"current_range_meters":6800,"station_id":"ce4bgup2rcd13ifvqco0","pricing_plan_id":"cebpf4jnsgd1na2vs0mg"},{"bike_id":"45c050e8-a329-47f8-a86f-69826197952f","system_id":"levelo_inurba_marseille","lat":43.24166,"lon":5.36388,"is_reserved":false,"is_disabled":false,"rental_uris":{"android":"levelo://app?vid=45c050e8-a329-47f8-a86f-69826197952f","ios":"levelo://app?vid=45c050e8-a329-47f8-a86f-69826197952f"},"vehicle_type_id":"4","last_reported":1775048082,"current_range_meters":6800,"station_id":"cpo36qri1sfpv3e86is0","pricing_plan_id":"cebpf4jnsgd1na2vs0mg"},{"bike_id":"96f64e49-7ba9-4a9b-ae7d-7e7667644a85","system_id":"levelo_inurba_marseille","lat":43.23195,"lon":5.35542,"is_reserved":false,"is_disabled":false,"rental_uris":{"android":"levelo://app?vid=96f64e49-7ba9-4a9b-ae7d-7e7667644a85","ios":"levelo://app?vid=96f64e49-7ba9-4a9b-ae7d-7e7667644a85"},"vehicle_type_id":"4","last_reported":1775048082,"current_range_meters":6800,"station_id":"ce4bhu92rcd13ifvqi70","pricing_plan_id":"cebpf4jnsgd1na2vs0mg"},{"bike_id":"f2a7e3a5-cac5-4b5c-9077-f8604e7b1b43","system_id":"levelo_inurba_marseille","lat":43.28989,"lon":5.43001,"is_reserved":false,"is_disabled":false,"rental_uris":{"android":"levelo://app?vid=f2a7e3a5-cac5-4b5c-9077-f8604e7b1b43","ios":"levelo://app?vid=f2a7e3a5-cac5-4b5c-9077-f8604e7b1b43"},"vehicle_type_id":"4","last_reported":1775048082,"current_range_meters":6800,"station_id":"","pricing_plan_id":"cebpf4jnsgd1na2vs0mg"},{"bike_id":"333a339b-a965-44f4-82f3-17a0518601d7","system_id":"levelo_inurba_marseille","lat":43.24809,"lon":5.37463,"is_reserved":false,"is_disabled":false,"rental_uris":{"android":"levelo://app?vid=333a339b-a965-44f4-82f3-17a0518601d7","ios":"levelo://app?vid=333a339b-a965-44f4-82f3-17a0518601d7"},"vehicle_type_id":"4","last_reported":1775048082,"current_range_meters":6800,"station_id":"ce4bhgh2rcd13ifvqfb0","pricing_plan_id":"cebpf4jnsgd1na2vs0mg"},{"bike_id":"77f46a51-e56c-4bc4-9780-c0047cf28a69","system_id":"levelo_inurba_marseille","lat":43.25113,"lon":5.40314,"is_reserved":false,"is_disabled":false,"rental_uris":{"android":"levelo://app?vid=77f46a51-e56c-4bc4-9780-c0047cf28a69","ios":"levelo://app?vid=77f46a51-e56c-4bc4-9780-c0047cf28a69"},"vehicle_type_id":"4","last_reported":1775048082,"current_range_meters":6800,"station_id":"ce4bhlh2rcd13ifvqgig","pricing_plan_id":"cebpf4jnsgd1na2vs0mg"},{"bike_id":"8fc970ee-a484-45a1-8680-8f7f28a23ddf","system_id":"levelo_inurba_marseille","lat":43.21744,"lon":5.34592,"is_reserved":false,"is_disabled":false,"rental_uris":{"android":"levelo://app?vid=8fc970ee-a484-45a1-8680-8f7f28a23ddf","ios":"levelo://app?vid=8fc970ee-a484-45a1-8680-8f7f28a23ddf"},"vehicle_type_id":"4","last_reported":1775048082,"current_range_meters":6800,"station_id":"st_cvj6r9ubvosntc0bgbag","pricing_plan_id":"cebpf4jnsgd1na2vs0mg"},{"bike_id":"521fdd5c-22f2-444b-870e-16f0ca92be9e","system_id":"levelo_inurba_marseille","lat":43.29525,"lon":5.38653,"is_reserved":false,"is_disabled":false,"rental_uris":{"android":"levelo://app?vid=521fdd5c-22f2-444b-870e-16f0ca92be9e","ios":"levelo://app?vid=521fdd5c-22f2-444b-870e-16f0ca92be9e"},"vehicle_type_id":"4","last_reported":1775048082,"current_range_meters":7200,"station_id":"","pricing_plan_id":"cebpf4jnsgd1na2vs0mg"},{"bike_id":"15627b94-0339-4aab-b936-c98235ca103a","system_id":"levelo_inurba_marseille","lat":43.232,"lon":5.39957,"is_reserved":false,"is_disabled":true,"rental_uris":{"android":"levelo://app?vid=15627b94-0339-4aab-b936-c98235ca103a","ios":"levelo://app?vid=15627b94-0339-4aab-b936-c98235ca103a"},"vehicle_type_id":"4","last_reported":1775048082,"current_range_meters":7200,"station_id":"ce4bhn12rcd13ifvqgqg","pricing_plan_id":"cebpf4jnsgd1na2vs0mg"},{"bike_id":"13bdf853-afc2-4aaa-b17a-15283655f76c","system_id":"levelo_inurba_marseille","lat":43.25004,"lon":5.38938,"is_reserved":false,"is_disabled":false,"rental_uris":{"android":"levelo://app?vid=13bdf853-afc2-4aaa-b17a-15283655f76c","ios":"levelo://app?vid=13bdf853-afc2-4aaa-b17a-15283655f76c"},"vehicle_type_id":"4","last_reported":1775048082,"current_range_meters":7200,"station_id":"ce4bhgp2rcd13ifvqfd0","pricing_plan_id":"cebpf4jnsgd1na2vs0mg"},{"bike_id":"ace8d92c-665e-46a4-858d-e12872c8b9f0","system_id":"levelo_inurba_marseille","lat":43.28475,"lon":5.48401,"is_reserved":false,"is_disabled":false,"rental_uris":{"android":"levelo://app?vid=ace8d92c-665e-46a4-858d-e12872c8b9f0","ios":"levelo://app?vid=ace8d92c-665e-46a4-858d-e12872c8b9f0"},"vehicle_type_id":"4","last_reported":1775048082,"current_range_meters":7200,"station_id":"","pricing_plan_id":"cebpf4jnsgd1na2vs0mg"},{"bike_id":"ddacb53e-55a3-4a67-a531-5d71504540ee","system_id":"levelo_inurba_marseille","lat":43.22553,"lon":5.41628,"is_reserved":false,"is_disabled":false,"rental_uris":{"android":"levelo://app?vid=ddacb53e-55a3-4a67-a531-5d71504540ee","ios":"levelo://app?vid=ddacb53e-55a3-4a67-a531-5d71504540ee"},"vehicle_type_id":"4","last_reported":1775048082,"current_range_meters":7200,"station_id":"st_d2o4gvlbi1j2169b742g","pricing_plan_id":"cebpf4jnsgd1na2vs0mg"},{"bike_id":"0d0c8f03-48a7-4e97-9825-e79885ed278e","system_id":"levelo_inurba_marseille","lat":43.23069,"lon":5.35497,"is_reserved":false,"is_disabled":false,"rental_uris":{"android":"levelo://app?vid=0d0c8f03-48a7-4e97-9825-e79885ed278e","ios":"levelo://app?vid=0d0c8f03-48a7-4e97-9825-e79885ed278e"},"vehicle_type_id":"4","last_reported":1775048082,"current_range_meters":7200,"station_id":"cpo3342slgdg3j2ifvpg","pricing_plan_id":"cebpf4jnsgd1na2vs0mg"},{"bike_id":"c46b9691-8495-4ec3-9b9e-c04c1003a346","system_id":"levelo_inurba_marseille","lat":43.28535,"lon":5.44104,"is_reserved":false,"is_disabled":false,"rental_uris":{"android":"levelo://app?vid=c46b9691-8495-4ec3-9b9e-c04c1003a346","ios":"levelo://app?vid=c46b9691-8495-4ec3-9b9e-c04c1003a346"},"vehicle_type_id":"4","last_reported":1775048082,"current_range_meters":7200,"station_id":"st_d3j3df2ikq2c7380ej80","pricing_plan_id":"cebpf4jnsgd1na2vs0mg"},{"bike_id":"ac750519-69a1-4eac-846f-31128d535c20","system_id":"levelo_inurba_marseille","lat":43.24402,"lon":5.37069,"is_reserved":false,"is_disabled":false,"rental_uris":{"android":"levelo://app?vid=ac750519-69a1-4eac-846f-31128d535c20","ios":"levelo://app?vid=ac750519-69a1-4eac-846f-31128d535c20"},"vehicle_type_id":"4","last_reported":1775048082,"current_range_meters":7200,"station_id":"ce4bhhh2rcd13ifvqfk0","pricing_plan_id":"cebpf4jnsgd1na2vs0mg"},{"bike_id":"81b00432-51ba-4db2-9f54-2c041f2427bd","system_id":"levelo_inurba_marseille","lat":43.24999,"lon":5.38946,"is_reserved":false,"is_disabled":false,"rental_uris":{"android":"levelo://app?vid=81b00432-51ba-4db2-9f54-2c041f2427bd","ios":"levelo://app?vid=81b00432-51ba-4db2-9f54-2c041f2427bd"},"vehicle_type_id":"4","last_reported":1775048082,"current_range_meters":7200,"station_id":"ce4bhgp2rcd13ifvqfd0","pricing_plan_id":"cebpf4jnsgd1na2vs0mg"},{"bike_id":"839f391b-feab-427a-b17d-2d524e38c555","system_id":"levelo_inurba_marseille","lat":43.23783,"lon":5.36625,"is_reserved":false,"is_disabled":false,"rental_uris":{"android":"levelo://app?vid=839f391b-feab-427a-b17d-2d524e38c555","ios":"levelo://app?vid=839f391b-feab-427a-b17d-2d524e38c555"},"vehicle_type_id":"4","last_reported":1775048082,"current_range_meters":7200,"station_id":"st_d3nk18o9ro0c73en2l3g","pricing_plan_id":"cebpf4jnsgd1na2vs0mg"},{"bike_id":"00fccfce-bcae-4eeb-94c9-d763c7a116b6","system_id":"levelo_inurba_marseille","lat":43.30142,"lon":5.38092,"is_reserved":false,"is_disabled":false,"rental_uris":{"android":"levelo://app?vid=00fccfce-bcae-4eeb-94c9-d763c7a116b6","ios":"levelo://app?vid=00fccfce-bcae-4eeb-94c9-d763c7a116b6"},"vehicle_type_id":"4","last_reported":1775048082,"current_range_meters":7200,"station_id":"ce4bgjp2rcd13ifvqbh0","pricing_plan_id":"cebpf4jnsgd1na2vs0mg"},{"bike_id":"e1a367f1-e965-4b14-910c-035500053b1f","system_id":"levelo_inurba_marseille","lat":43.28409,"lon":5.34993,"is_reserved":false,"is_disabled":false,"rental_uris":{"android":"levelo://app?vid=e1a367f1-e965-4b14-910c-035500053b1f","ios":"levelo://app?vid=e1a367f1-e965-4b14-910c-035500053b1f"},"vehicle_type_id":"4","last_reported":1775048082,"current_range_meters":7200,"station_id":"ce4bhbh2rcd13ifvqepg","pricing_plan_id":"cebpf4jnsgd1na2vs0mg"},{"bike_id":"61347705-ad09-4da0-88fd-36ae93b6cbe6","system_id":"levelo_inurba_marseille","lat":43.32348,"lon":5.36743,"is_reserved":false,"is_disabled":false,"rental_uris":{"android":"levelo://app?vid=61347705-ad09-4da0-88fd-36ae93b6cbe6","ios":"levelo://app?vid=61347705-ad09-4da0-88fd-36ae93b6cbe6"},"vehicle_type_id":"4","last_reported":1775048082,"current_range_meters":7200,"station_id":"ce4bhsh2rcd13ifvqi2g","pricing_plan_id":"cebpf4jnsgd1na2vs0mg"},{"bike_id":"3010ca9d-c8fb-41d7-ace8-3104f4f63f5d","system_id":"levelo_inurba_marseille","lat":43.2319,"lon":5.3557,"is_reserved":false,"is_disabled":false,"rental_uris":{"android":"levelo://app?vid=3010ca9d-c8fb-41d7-ace8-3104f4f63f5d","ios":"levelo://app?vid=3010ca9d-c8fb-41d7-ace8-3104f4f63f5d"},"vehicle_type_id":"4","last_reported":1775048082,"current_range_meters":7200,"station_id":"ce4bhu92rcd13ifvqi70","pricing_plan_id":"cebpf4jnsgd1na2vs0mg"},{"bike_id":"a15f4114-aaae-4758-a526-23144560e54e","system_id":"levelo_inurba_marseille","lat":43.3053,"lon":5.36724,"is_reserved":false,"is_disabled":false,"rental_uris":{"android":"levelo://app?vid=a15f4114-aaae-4758-a526-23144560e54e","ios":"levelo://app?vid=a15f4114-aaae-4758-a526-23144560e54e"},"vehicle_type_id":"4","last_reported":1775048082,"current_range_meters":7200,"station_id":"ce4bgrp2rcd13ifvqc9g","pricing_plan_id":"cebpf4jnsgd1na2vs0mg"},{"bike_id":"febd890f-8091-48ad-815e-abf0b801ed37","system_id":"levelo_inurba_marseille","lat":43.24395,"lon":5.37044,"is_reserved":false,"is_disabled":false,"rental_uris":{"android":"levelo://app?vid=febd890f-8091-48ad-815e-abf0b801ed37","ios":"levelo://app?vid=febd890f-8091-48ad-815e-abf0b801ed37"},"vehicle_type_id":"4","last_reported":1775048082,"current_range_meters":7200,"station_id":"ce4bhhh2rcd13ifvqfk0","pricing_plan_id":"cebpf4jnsgd1na2vs0mg"},{"bike_id":"b5edaea5-8eb8-41c5-a742-553f4edc3d5d","system_id":"levelo_inurba_marseille","lat":43.31387,"lon":5.3672,"is_reserved":false,"is_disabled":false,"rental_uris":{"android":"levelo://app?vid=b5edaea5-8eb8-41c5-a742-553f4edc3d5d","ios":"levelo://app?vid=b5edaea5-8eb8-41c5-a742-553f4edc3d5d"},"vehicle_type_id":"4","last_reported":1775048082,"current_range_meters":7200,"station_id":"","pricing_plan_id":"cebpf4jnsgd1na2vs0mg"},{"bike_id":"60f5c726-df58-408b-b64f-895541cbb220","system_id":"levelo_inurba_marseille","lat":43.25126,"lon":5.40289,"is_reserved":false,"is_disabled":false,"rental_uris":{"android":"levelo://app?vid=60f5c726-df58-408b-b64f-895541cbb220","ios":"levelo://app?vid=60f5c726-df58-408b-b64f-895541cbb220"},"vehicle_type_id":"4","last_reported":1775048082,"current_range_meters":7200,"station_id":"ce4bhlh2rcd13ifvqgig","pricing_plan_id":"cebpf4jnsgd1na2vs0mg"},{"bike_id":"70b15db6-3217-4d89-ac61-5713567e98b7","system_id":"levelo_inurba_marseille","lat":43.31876,"lon":5.3999,"is_reserved":false,"is_disabled":false,"rental_uris":{"android":"levelo://app?vid=70b15db6-3217-4d89-ac61-5713567e98b7","ios":"levelo://app?vid=70b15db6-3217-4d89-ac61-5713567e98b7"},"vehicle_type_id":"4","last_reported":1775048082,"current_range_meters":7200,"station_id":"","pricing_plan_id":"cebpf4jnsgd1na2vs0mg"},{"bike_id":"7d221536-c309-4cb7-98fe-5bdf54751499","system_id":"levelo_inurba_marseille","lat":43.28479,"lon":5.48396,"is_reserved":false,"is_disabled":false,"rental_uris":{"android":"levelo://app?vid=7d221536-c309-4cb7-98fe-5bdf54751499","ios":"levelo://app?vid=7d221536-c309-4cb7-98fe-5bdf54751499"},"vehicle_type_id":"4","last_reported":1775048082,"current_range_meters":7200,"station_id":"","pricing_plan_id":"cebpf4jnsgd1na2vs0mg"},{"bike_id":"2b49fafc-1982-406b-b509-135eb726e407","system_id":"levelo_inurba_marseille","lat":43.2853,"lon":5.44118,"is_reserved":false,"is_disabled":false,"rental_uris":{"android":"levelo://app?vid=2b49fafc-1982-406b-b509-135eb726e407","ios":"levelo://app?vid=2b49fafc-1982-406b-b509-135eb726e407"},"vehicle_type_id":"4","last_reported":1775048082,"current_range_meters":7200,"station_id":"st_d3j3df2ikq2c7380ej80","pricing_plan_id":"cebpf4jnsgd1na2vs0mg"},{"bike_id":"437e4f3a-fe91-4ac4-a609-0c5a83e9fa75","system_id":"levelo_inurba_marseille","lat":43.31072,"lon":5.37164,"is_reserved":false,"is_disabled":false,"rental_uris":{"android":"levelo://app?vid=437e4f3a-fe91-4ac4-a609-0c5a83e9fa75","ios":"levelo://app?vid=437e4f3a-fe91-4ac4-a609-0c5a83e9fa75"},"vehicle_type_id":"4","last_reported":1775048082,"current_range_meters":7200,"station_id":"st_d4kl2rp97mjs73e7tdfg","pricing_plan_id":"cebpf4jnsgd1na2vs0mg"},{"bike_id":"0be0f331-343d-4e35-84d1-0c2a496d1cfe","system_id":"levelo_inurba_marseille","lat":43.31893,"lon":5.36799,"is_reserved":false,"is_disabled":false,"rental_uris":{"android":"levelo://app?vid=0be0f331-343d-4e35-84d1-0c2a496d1cfe","ios":"levelo://app?vid=0be0f331-343d-4e35-84d1-0c2a496d1cfe"},"vehicle_type_id":"4","last_reported":1775048082,"current_range_meters":7200,"station_id":"","pricing_plan_id":"cebpf4jnsgd1na2vs0mg"},{"bike_id":"1bfa51ce-78f3-4c67-be01-387854e4298a","system_id":"levelo_inurba_marseille","lat":43.29302,"lon":5.37163,"is_reserved":false,"is_disabled":true,"rental_uris":{"android":"levelo://app?vid=1bfa51ce-78f3-4c67-be01-387854e4298a","ios":"levelo://app?vid=1bfa51ce-78f3-4c67-be01-387854e4298a"},"vehicle_type_id":"4","last_reported":1775048082,"current_range_meters":7200,"station_id":"ce4bgh92rcd13ifvqb40","pricing_plan_id":"cebpf4jnsgd1na2vs0mg"},{"bike_id":"86f155e1-1ac1-445c-bbca-e5237a1a1a71","system_id":"levelo_inurba_marseille","lat":43.24385,"lon":5.37058,"is_reserved":false,"is_disabled":false,"rental_uris":{"android":"levelo://app?vid=86f155e1-1ac1-445c-bbca-e5237a1a1a71","ios":"levelo://app?vid=86f155e1-1ac1-445c-bbca-e5237a1a1a71"},"vehicle_type_id":"4","last_reported":1775048082,"current_range_meters":7200,"station_id":"ce4bhhh2rcd13ifvqfk0","pricing_plan_id":"cebpf4jnsgd1na2vs0mg"},{"bike_id":"94502d57-9e70-4e30-a5c8-cd0ba3f292fd","system_id":"levelo_inurba_marseille","lat":43.24179,"lon":5.39736,"is_reserved":false,"is_disabled":false,"rental_uris":{"android":"levelo://app?vid=94502d57-9e70-4e30-a5c8-cd0ba3f292fd","ios":"levelo://app?vid=94502d57-9e70-4e30-a5c8-cd0ba3f292fd"},"vehicle_type_id":"4","last_reported":1775048082,"current_range_meters":7200,"station_id":"ce4bhn12rcd13ifvqgpg","pricing_plan_id":"cebpf4jnsgd1na2vs0mg"},{"bike_id":"0fb57e09-b43b-4018-a68b-a36a0540a577","system_id":"levelo_inurba_marseille","lat":43.31361,"lon":5.36749,"is_reserved":false,"is_disabled":false,"rental_uris":{"android":"levelo://app?vid=0fb57e09-b43b-4018-a68b-a36a0540a577","ios":"levelo://app?vid=0fb57e09-b43b-4018-a68b-a36a0540a577"},"vehicle_type_id":"4","last_reported":1775048082,"current_range_meters":7200,"station_id":"ce4bgr92rcd13ifvqc6g","pricing_plan_id":"cebpf4jnsgd1na2vs0mg"},{"bike_id":"d721da08-e802-47fb-be61-12b004eefc44","system_id":"levelo_inurba_marseille","lat":43.30486,"lon":5.37896,"is_reserved":false,"is_disabled":false,"rental_uris":{"android":"levelo://app?vid=d721da08-e802-47fb-be61-12b004eefc44","ios":"levelo://app?vid=d721da08-e802-47fb-be61-12b004eefc44"},"vehicle_type_id":"4","last_reported":1775048082,"current_range_meters":8000,"station_id":"ce4bgup2rcd13ifvqcn0","pricing_plan_id":"cebpf4jnsgd1na2vs0mg"},{"bike_id":"982951ba-d1eb-42d4-bb65-5d98050aa6ef","system_id":"levelo_inurba_marseille","lat":43.28478,"lon":5.48406,"is_reserved":false,"is_disabled":false,"rental_uris":{"android":"levelo://app?vid=982951ba-d1eb-42d4-bb65-5d98050aa6ef","ios":"levelo://app?vid=982951ba-d1eb-42d4-bb65-5d98050aa6ef"},"vehicle_type_id":"4","last_reported":1775048082,"current_range_meters":8000,"station_id":"","pricing_plan_id":"cebpf4jnsgd1na2vs0mg"},{"bike_id":"d2789415-2230-4975-9b78-741d8751b1e5","system_id":"levelo_inurba_marseille","lat":43.28256,"lon":5.35067,"is_reserved":false,"is_disabled":false,"rental_uris":{"android":"levelo://app?vid=d2789415-2230-4975-9b78-741d8751b1e5","ios":"levelo://app?vid=d2789415-2230-4975-9b78-741d8751b1e5"},"vehicle_type_id":"4","last_reported":1775048082,"current_range_meters":8000,"station_id":"ce4bhbp2rcd13ifvqerg","pricing_plan_id":"cebpf4jnsgd1na2vs0mg"},{"bike_id":"9f379acd-775f-40aa-a2ad-0898810cd24c","system_id":"levelo_inurba_marseille","lat":43.24395,"lon":5.37056,"is_reserved":false,"is_disabled":false,"rental_uris":{"android":"levelo://app?vid=9f379acd-775f-40aa-a2ad-0898810cd24c","ios":"levelo://app?vid=9f379acd-775f-40aa-a2ad-0898810cd24c"},"vehicle_type_id":"4","last_reported":1775048082,"current_range_meters":8000,"station_id":"ce4bhhh2rcd13ifvqfk0","pricing_plan_id":"cebpf4jnsgd1na2vs0mg"},{"bike_id":"3fecce1e-883c-4fd2-ba0b-0827a7aa44bb","system_id":"levelo_inurba_marseille","lat":43.2827,"lon":5.35074,"is_reserved":false,"is_disabled":false,"rental_uris":{"android":"levelo://app?vid=3fecce1e-883c-4fd2-ba0b-0827a7aa44bb","ios":"levelo://app?vid=3fecce1e-883c-4fd2-ba0b-0827a7aa44bb"},"vehicle_type_id":"4","last_reported":1775048082,"current_range_meters":8000,"station_id":"ce4bhbp2rcd13ifvqerg","pricing_plan_id":"cebpf4jnsgd1na2vs0mg"},{"bike_id":"22d0463a-842c-416d-a08f-f31a99a970eb","system_id":"levelo_inurba_marseille","lat":43.292235,"lon":5.360517,"is_reserved":false,"is_disabled":false,"rental_uris":{"android":"levelo://app?vid=22d0463a-842c-416d-a08f-f31a99a970eb","ios":"levelo://app?vid=22d0463a-842c-416d-a08f-f31a99a970eb"},"vehicle_type_id":"4","last_reported":1775048082,"current_range_meters":8000,"station_id":"ce4bhbh2rcd13ifvqeqg","pricing_plan_id":"cebpf4jnsgd1na2vs0mg"},{"bike_id":"9f6ed03a-510f-4f98-9815-cfda4191a823","system_id":"levelo_inurba_marseille","lat":43.21739,"lon":5.34602,"is_reserved":false,"is_disabled":false,"rental_uris":{"android":"levelo://app?vid=9f6ed03a-510f-4f98-9815-cfda4191a823","ios":"levelo://app?vid=9f6ed03a-510f-4f98-9815-cfda4191a823"},"vehicle_type_id":"4","last_reported":1775048082,"current_range_meters":8000,"station_id":"st_cvj6r9ubvosntc0bgbag","pricing_plan_id":"cebpf4jnsgd1na2vs0mg"},{"bike_id":"4d8d5681-33f6-4394-9826-1d82295531a1","system_id":"levelo_inurba_marseille","lat":43.21198,"lon":5.35061,"is_reserved":false,"is_disabled":false,"rental_uris":{"android":"levelo://app?vid=4d8d5681-33f6-4394-9826-1d82295531a1","ios":"levelo://app?vid=4d8d5681-33f6-4394-9826-1d82295531a1"},"vehicle_type_id":"4","last_reported":1775048082,"current_range_meters":8000,"station_id":"","pricing_plan_id":"cebpf4jnsgd1na2vs0mg"},{"bike_id":"6c3b2188-ad26-44f1-97bc-4de5c5fe5d74","system_id":"levelo_inurba_marseille","lat":43.28483,"lon":5.48399,"is_reserved":false,"is_disabled":false,"rental_uris":{"android":"levelo://app?vid=6c3b2188-ad26-44f1-97bc-4de5c5fe5d74","ios":"levelo://app?vid=6c3b2188-ad26-44f1-97bc-4de5c5fe5d74"},"vehicle_type_id":"4","last_reported":1775048082,"current_range_meters":8000,"station_id":"","pricing_plan_id":"cebpf4jnsgd1na2vs0mg"},{"bike_id":"4a7848da-0238-4e80-97c3-8553a0c6d8f8","system_id":"levelo_inurba_marseille","lat":43.31691,"lon":5.40472,"is_reserved":false,"is_disabled":false,"rental_uris":{"android":"levelo://app?vid=4a7848da-0238-4e80-97c3-8553a0c6d8f8","ios":"levelo://app?vid=4a7848da-0238-4e80-97c3-8553a0c6d8f8"},"vehicle_type_id":"4","last_reported":1775048082,"current_range_meters":8000,"station_id":"ce4bh012rcd13ifvqd00","pricing_plan_id":"cebpf4jnsgd1na2vs0mg"},{"bike_id":"9dc75759-4dc5-400e-98ef-3056e03615db","system_id":"levelo_inurba_marseille","lat":43.29101,"lon":5.38123,"is_reserved":false,"is_disabled":false,"rental_uris":{"android":"levelo://app?vid=9dc75759-4dc5-400e-98ef-3056e03615db","ios":"levelo://app?vid=9dc75759-4dc5-400e-98ef-3056e03615db"},"vehicle_type_id":"4","last_reported":1775048082,"current_range_meters":8000,"station_id":"ce4bh512rcd13ifvqe2g","pricing_plan_id":"cebpf4jnsgd1na2vs0mg"},{"bike_id":"7f77661e-8255-4bff-ae87-d0ced813db2a","system_id":"levelo_inurba_marseille","lat":43.24166,"lon":5.36388,"is_reserved":false,"is_disabled":false,"rental_uris":{"android":"levelo://app?vid=7f77661e-8255-4bff-ae87-d0ced813db2a","ios":"levelo://app?vid=7f77661e-8255-4bff-ae87-d0ced813db2a"},"vehicle_type_id":"4","last_reported":1775048082,"current_range_meters":8000,"station_id":"cpo36qri1sfpv3e86is0","pricing_plan_id":"cebpf4jnsgd1na2vs0mg"},{"bike_id":"32bbc785-7878-457c-9b63-c753cac045af","system_id":"levelo_inurba_marseille","lat":43.21708,"lon":5.34588,"is_reserved":false,"is_disabled":false,"rental_uris":{"android":"levelo://app?vid=32bbc785-7878-457c-9b63-c753cac045af","ios":"levelo://app?vid=32bbc785-7878-457c-9b63-c753cac045af"},"vehicle_type_id":"4","last_reported":1775048082,"current_range_meters":8000,"station_id":"st_cvj6r9ubvosntc0bgbag","pricing_plan_id":"cebpf4jnsgd1na2vs0mg"},{"bike_id":"414e0a70-6dfc-4ae8-82b3-ec8ad75a8436","system_id":"levelo_inurba_marseille","lat":43.25581,"lon":5.38225,"is_reserved":false,"is_disabled":false,"rental_uris":{"android":"levelo://app?vid=414e0a70-6dfc-4ae8-82b3-ec8ad75a8436","ios":"levelo://app?vid=414e0a70-6dfc-4ae8-82b3-ec8ad75a8436"},"vehicle_type_id":"4","last_reported":1775048082,"current_range_meters":8000,"station_id":"ce4bhih2rcd13ifvqfs0","pricing_plan_id":"cebpf4jnsgd1na2vs0mg"},{"bike_id":"71224a3d-8d9c-4dcd-8c75-68f0bf224d3b","system_id":"levelo_inurba_marseille","lat":43.28724,"lon":5.37915,"is_reserved":false,"is_disabled":false,"rental_uris":{"android":"levelo://app?vid=71224a3d-8d9c-4dcd-8c75-68f0bf224d3b","ios":"levelo://app?vid=71224a3d-8d9c-4dcd-8c75-68f0bf224d3b"},"vehicle_type_id":"4","last_reported":1775048082,"current_range_meters":8000,"station_id":"ce4bh9p2rcd13ifvqec0","pricing_plan_id":"cebpf4jnsgd1na2vs0mg"},{"bike_id":"c01d9e49-fff9-456c-8c86-45ce90e055c7","system_id":"levelo_inurba_marseille","lat":43.31198,"lon":5.36909,"is_reserved":false,"is_disabled":false,"rental_uris":{"android":"levelo://app?vid=c01d9e49-fff9-456c-8c86-45ce90e055c7","ios":"levelo://app?vid=c01d9e49-fff9-456c-8c86-45ce90e055c7"},"vehicle_type_id":"4","last_reported":1775048082,"current_range_meters":8000,"station_id":"ce4bgl92rcd13ifvqbq0","pricing_plan_id":"cebpf4jnsgd1na2vs0mg"},{"bike_id":"60302b5d-df5c-45a3-a2b0-7da1516d2ff3","system_id":"levelo_inurba_marseille","lat":43.31332,"lon":5.36722,"is_reserved":false,"is_disabled":false,"rental_uris":{"android":"levelo://app?vid=60302b5d-df5c-45a3-a2b0-7da1516d2ff3","ios":"levelo://app?vid=60302b5d-df5c-45a3-a2b0-7da1516d2ff3"},"vehicle_type_id":"4","last_reported":1775048082,"current_range_meters":8000,"station_id":"ce4bgr92rcd13ifvqc6g","pricing_plan_id":"cebpf4jnsgd1na2vs0mg"},{"bike_id":"34202a4d-30c4-4b01-92b6-12f62e5395d5","system_id":"levelo_inurba_marseille","lat":43.24942,"lon":5.40491,"is_reserved":false,"is_disabled":false,"rental_uris":{"android":"levelo://app?vid=34202a4d-30c4-4b01-92b6-12f62e5395d5","ios":"levelo://app?vid=34202a4d-30c4-4b01-92b6-12f62e5395d5"},"vehicle_type_id":"4","last_reported":1775048082,"current_range_meters":8000,"station_id":"st_d2ngiaodas8pm72gd1h0","pricing_plan_id":"cebpf4jnsgd1na2vs0mg"},{"bike_id":"f6990c9c-4fef-4b7f-af11-f98a6f99cfe7","system_id":"levelo_inurba_marseille","lat":43.30798,"lon":5.38131,"is_reserved":false,"is_disabled":false,"rental_uris":{"android":"levelo://app?vid=f6990c9c-4fef-4b7f-af11-f98a6f99cfe7","ios":"levelo://app?vid=f6990c9c-4fef-4b7f-af11-f98a6f99cfe7"},"vehicle_type_id":"4","last_reported":1775048082,"current_range_meters":8000,"station_id":"ce4bgt12rcd13ifvqce0","pricing_plan_id":"cebpf4jnsgd1na2vs0mg"},{"bike_id":"bed085cd-e643-4cf8-a83c-4e3f37218df7","system_id":"levelo_inurba_marseille","lat":43.23149,"lon":5.40181,"is_reserved":false,"is_disabled":false,"rental_uris":{"android":"levelo://app?vid=bed085cd-e643-4cf8-a83c-4e3f37218df7","ios":"levelo://app?vid=bed085cd-e643-4cf8-a83c-4e3f37218df7"},"vehicle_type_id":"4","last_reported":1775048082,"current_range_meters":8000,"station_id":"","pricing_plan_id":"cebpf4jnsgd1na2vs0mg"},{"bike_id":"801e394f-075e-436d-a193-48f5477757ff","system_id":"levelo_inurba_marseille","lat":43.24654,"lon":5.38892,"is_reserved":false,"is_disabled":false,"rental_uris":{"android":"levelo://app?vid=801e394f-075e-436d-a193-48f5477757ff","ios":"levelo://app?vid=801e394f-075e-436d-a193-48f5477757ff"},"vehicle_type_id":"4","last_reported":1775048082,"current_range_meters":8000,"station_id":"ce4bhg12rcd13ifvqf60","pricing_plan_id":"cebpf4jnsgd1na2vs0mg"},{"bike_id":"dff2d987-a29f-4cc3-8a17-2c1ea8221bd9","system_id":"levelo_inurba_marseille","lat":43.303,"lon":5.36875,"is_reserved":false,"is_disabled":false,"rental_uris":{"android":"levelo://app?vid=dff2d987-a29f-4cc3-8a17-2c1ea8221bd9","ios":"levelo://app?vid=dff2d987-a29f-4cc3-8a17-2c1ea8221bd9"},"vehicle_type_id":"4","last_reported":1775048082,"current_range_meters":8000,"station_id":"ce4bgqh2rcd13ifvqc5g","pricing_plan_id":"cebpf4jnsgd1na2vs0mg"},{"bike_id":"c267eaf3-200a-4a1c-8074-fa1f1a8154c6","system_id":"levelo_inurba_marseille","lat":43.21755,"lon":5.34579,"is_reserved":false,"is_disabled":false,"rental_uris":{"android":"levelo://app?vid=c267eaf3-200a-4a1c-8074-fa1f1a8154c6","ios":"levelo://app?vid=c267eaf3-200a-4a1c-8074-fa1f1a8154c6"},"vehicle_type_id":"4","last_reported":1775048082,"current_range_meters":8000,"station_id":"st_cvj6r9ubvosntc0bgbag","pricing_plan_id":"cebpf4jnsgd1na2vs0mg"},{"bike_id":"2c78b9d7-6797-4c09-ad87-2e1c14443b34","system_id":"levelo_inurba_marseille","lat":43.28583,"lon":5.42866,"is_reserved":false,"is_disabled":false,"rental_uris":{"android":"levelo://app?vid=2c78b9d7-6797-4c09-ad87-2e1c14443b34","ios":"levelo://app?vid=2c78b9d7-6797-4c09-ad87-2e1c14443b34"},"vehicle_type_id":"4","last_reported":1775048082,"current_range_meters":8000,"station_id":"","pricing_plan_id":"cebpf4jnsgd1na2vs0mg"},{"bike_id":"445fec31-c679-4dc2-9f69-02fc378a85e1","system_id":"levelo_inurba_marseille","lat":43.29,"lon":5.35596,"is_reserved":false,"is_disabled":false,"rental_uris":{"android":"levelo://app?vid=445fec31-c679-4dc2-9f69-02fc378a85e1","ios":"levelo://app?vid=445fec31-c679-4dc2-9f69-02fc378a85e1"},"vehicle_type_id":"4","last_reported":1775048082,"current_range_meters":8000,"station_id":"ce4bhb92rcd13ifvqen0","pricing_plan_id":"cebpf4jnsgd1na2vs0mg"},{"bike_id":"f56d7445-00a0-462a-9cac-ec053ad4a04e","system_id":"levelo_inurba_marseille","lat":43.31535,"lon":5.38022,"is_reserved":false,"is_disabled":true,"rental_uris":{"android":"levelo://app?vid=f56d7445-00a0-462a-9cac-ec053ad4a04e","ios":"levelo://app?vid=f56d7445-00a0-462a-9cac-ec053ad4a04e"},"vehicle_type_id":"4","last_reported":1775048082,"current_range_meters":8400,"station_id":"ce4bhsp2rcd13ifvqi50","pricing_plan_id":"cebpf4jnsgd1na2vs0mg"},{"bike_id":"a2eaa8fe-9ee3-4783-9910-a0708dc6938b","system_id":"levelo_inurba_marseille","lat":43.23055,"lon":5.35483,"is_reserved":false,"is_disabled":false,"rental_uris":{"android":"levelo://app?vid=a2eaa8fe-9ee3-4783-9910-a0708dc6938b","ios":"levelo://app?vid=a2eaa8fe-9ee3-4783-9910-a0708dc6938b"},"vehicle_type_id":"4","last_reported":1775048082,"current_range_meters":8400,"station_id":"cpo3342slgdg3j2ifvpg","pricing_plan_id":"cebpf4jnsgd1na2vs0mg"},{"bike_id":"ce8c76c9-8d46-40c8-b510-58f72cf4c10f","system_id":"levelo_inurba_marseille","lat":43.28426,"lon":5.34994,"is_reserved":false,"is_disabled":false,"rental_uris":{"android":"levelo://app?vid=ce8c76c9-8d46-40c8-b510-58f72cf4c10f","ios":"levelo://app?vid=ce8c76c9-8d46-40c8-b510-58f72cf4c10f"},"vehicle_type_id":"4","last_reported":1775048082,"current_range_meters":8400,"station_id":"ce4bhbh2rcd13ifvqepg","pricing_plan_id":"cebpf4jnsgd1na2vs0mg"},{"bike_id":"11d19dab-7798-472d-a3cd-c1ff1cf623a6","system_id":"levelo_inurba_marseille","lat":43.25044,"lon":5.38913,"is_reserved":false,"is_disabled":false,"rental_uris":{"android":"levelo://app?vid=11d19dab-7798-472d-a3cd-c1ff1cf623a6","ios":"levelo://app?vid=11d19dab-7798-472d-a3cd-c1ff1cf623a6"},"vehicle_type_id":"4","last_reported":1775048082,"current_range_meters":8400,"station_id":"ce4bhgp2rcd13ifvqfd0","pricing_plan_id":"cebpf4jnsgd1na2vs0mg"},{"bike_id":"17987e54-a74f-4b58-9a2b-684ccc9cae15","system_id":"levelo_inurba_marseille","lat":43.30304,"lon":5.36889,"is_reserved":false,"is_disabled":false,"rental_uris":{"android":"levelo://app?vid=17987e54-a74f-4b58-9a2b-684ccc9cae15","ios":"levelo://app?vid=17987e54-a74f-4b58-9a2b-684ccc9cae15"},"vehicle_type_id":"4","last_reported":1775048082,"current_range_meters":8400,"station_id":"ce4bgqh2rcd13ifvqc5g","pricing_plan_id":"cebpf4jnsgd1na2vs0mg"},{"bike_id":"ac9cfb47-6491-4537-bdd0-177ab07e5667","system_id":"levelo_inurba_marseille","lat":43.31361,"lon":5.36706,"is_reserved":false,"is_disabled":false,"rental_uris":{"android":"levelo://app?vid=ac9cfb47-6491-4537-bdd0-177ab07e5667","ios":"levelo://app?vid=ac9cfb47-6491-4537-bdd0-177ab07e5667"},"vehicle_type_id":"4","last_reported":1775048082,"current_range_meters":8400,"station_id":"ce4bgr92rcd13ifvqc6g","pricing_plan_id":"cebpf4jnsgd1na2vs0mg"},{"bike_id":"40ae6876-93ad-49b7-afa2-c1d073456f62","system_id":"levelo_inurba_marseille","lat":43.27061,"lon":5.4227,"is_reserved":false,"is_disabled":false,"rental_uris":{"android":"levelo://app?vid=40ae6876-93ad-49b7-afa2-c1d073456f62","ios":"levelo://app?vid=40ae6876-93ad-49b7-afa2-c1d073456f62"},"vehicle_type_id":"4","last_reported":1775048082,"current_range_meters":8400,"station_id":"ce4bhk92rcd13ifvqgb0","pricing_plan_id":"cebpf4jnsgd1na2vs0mg"},{"bike_id":"e0586f0f-cdd2-462c-9ebe-35b0fad932d9","system_id":"levelo_inurba_marseille","lat":43.29573,"lon":5.37497,"is_reserved":false,"is_disabled":false,"rental_uris":{"android":"levelo://app?vid=e0586f0f-cdd2-462c-9ebe-35b0fad932d9","ios":"levelo://app?vid=e0586f0f-cdd2-462c-9ebe-35b0fad932d9"},"vehicle_type_id":"4","last_reported":1775048082,"current_range_meters":8400,"station_id":"ce4bgh92rcd13ifvqb50","pricing_plan_id":"cebpf4jnsgd1na2vs0mg"},{"bike_id":"68945dd7-fcc7-4d4c-a459-6c84a8a17358","system_id":"levelo_inurba_marseille","lat":43.23967,"lon":5.36614,"is_reserved":false,"is_disabled":false,"rental_uris":{"android":"levelo://app?vid=68945dd7-fcc7-4d4c-a459-6c84a8a17358","ios":"levelo://app?vid=68945dd7-fcc7-4d4c-a459-6c84a8a17358"},"vehicle_type_id":"4","last_reported":1775048082,"current_range_meters":8400,"station_id":"ce4bhi12rcd13ifvqfp0","pricing_plan_id":"cebpf4jnsgd1na2vs0mg"},{"bike_id":"19d804f8-e022-4728-979b-c94761dfb083","system_id":"levelo_inurba_marseille","lat":43.23775,"lon":5.36609,"is_reserved":false,"is_disabled":false,"rental_uris":{"android":"levelo://app?vid=19d804f8-e022-4728-979b-c94761dfb083","ios":"levelo://app?vid=19d804f8-e022-4728-979b-c94761dfb083"},"vehicle_type_id":"4","last_reported":1775048082,"current_range_meters":8400,"station_id":"st_d3nk18o9ro0c73en2l3g","pricing_plan_id":"cebpf4jnsgd1na2vs0mg"},{"bike_id":"9139abb1-4c46-4177-a461-e51c411e8289","system_id":"levelo_inurba_marseille","lat":43.24958,"lon":5.40494,"is_reserved":false,"is_disabled":false,"rental_uris":{"android":"levelo://app?vid=9139abb1-4c46-4177-a461-e51c411e8289","ios":"levelo://app?vid=9139abb1-4c46-4177-a461-e51c411e8289"},"vehicle_type_id":"4","last_reported":1775048082,"current_range_meters":8400,"station_id":"st_d2ngiaodas8pm72gd1h0","pricing_plan_id":"cebpf4jnsgd1na2vs0mg"},{"bike_id":"d5d3c35b-4420-4569-83eb-e2eef5fa6559","system_id":"levelo_inurba_marseille","lat":43.22563,"lon":5.41634,"is_reserved":false,"is_disabled":false,"rental_uris":{"android":"levelo://app?vid=d5d3c35b-4420-4569-83eb-e2eef5fa6559","ios":"levelo://app?vid=d5d3c35b-4420-4569-83eb-e2eef5fa6559"},"vehicle_type_id":"4","last_reported":1775048082,"current_range_meters":8400,"station_id":"st_d2o4gvlbi1j2169b742g","pricing_plan_id":"cebpf4jnsgd1na2vs0mg"},{"bike_id":"ab953684-c50b-46cb-9080-b961ab7b0165","system_id":"levelo_inurba_marseille","lat":43.286973,"lon":5.373932,"is_reserved":false,"is_disabled":true,"rental_uris":{"android":"levelo://app?vid=ab953684-c50b-46cb-9080-b961ab7b0165","ios":"levelo://app?vid=ab953684-c50b-46cb-9080-b961ab7b0165"},"vehicle_type_id":"4","last_reported":1775048082,"current_range_meters":8400,"station_id":"ce4bh3p2rcd13ifvqdq0","pricing_plan_id":"cebpf4jnsgd1na2vs0mg"},{"bike_id":"17b8fc26-3ba8-4cf9-a457-0b2cc0ec871e","system_id":"levelo_inurba_marseille","lat":43.27482,"lon":5.41662,"is_reserved":false,"is_disabled":false,"rental_uris":{"android":"levelo://app?vid=17b8fc26-3ba8-4cf9-a457-0b2cc0ec871e","ios":"levelo://app?vid=17b8fc26-3ba8-4cf9-a457-0b2cc0ec871e"},"vehicle_type_id":"4","last_reported":1775048082,"current_range_meters":8400,"station_id":"","pricing_plan_id":"cebpf4jnsgd1na2vs0mg"},{"bike_id":"ed2eb0f0-a8f3-4650-8afb-1367d8d42115","system_id":"levelo_inurba_marseille","lat":43.26502,"lon":5.39546,"is_reserved":false,"is_disabled":false,"rental_uris":{"android":"levelo://app?vid=ed2eb0f0-a8f3-4650-8afb-1367d8d42115","ios":"levelo://app?vid=ed2eb0f0-a8f3-4650-8afb-1367d8d42115"},"vehicle_type_id":"4","last_reported":1775048082,"current_range_meters":8400,"station_id":"ce4bhi12rcd13ifvqfq0","pricing_plan_id":"cebpf4jnsgd1na2vs0mg"},{"bike_id":"e125ec2c-c1f3-4f98-8302-6b86870eed3b","system_id":"levelo_inurba_marseille","lat":43.28626,"lon":5.35087,"is_reserved":false,"is_disabled":false,"rental_uris":{"android":"levelo://app?vid=e125ec2c-c1f3-4f98-8302-6b86870eed3b","ios":"levelo://app?vid=e125ec2c-c1f3-4f98-8302-6b86870eed3b"},"vehicle_type_id":"4","last_reported":1775048082,"current_range_meters":8400,"station_id":"ce4bhch2rcd13ifvqeug","pricing_plan_id":"cebpf4jnsgd1na2vs0mg"},{"bike_id":"598a5c18-c5d5-4ac5-a2f5-980a9e3651a7","system_id":"levelo_inurba_marseille","lat":43.25876,"lon":5.399,"is_reserved":false,"is_disabled":false,"rental_uris":{"android":"levelo://app?vid=598a5c18-c5d5-4ac5-a2f5-980a9e3651a7","ios":"levelo://app?vid=598a5c18-c5d5-4ac5-a2f5-980a9e3651a7"},"vehicle_type_id":"4","last_reported":1775048082,"current_range_meters":8400,"station_id":"ce4bhl92rcd13ifvqghg","pricing_plan_id":"cebpf4jnsgd1na2vs0mg"},{"bike_id":"a17dbbf9-2919-4aa7-a6bc-4d101b9dc30c","system_id":"levelo_inurba_marseille","lat":43.27524,"lon":5.40927,"is_reserved":false,"is_disabled":false,"rental_uris":{"android":"levelo://app?vid=a17dbbf9-2919-4aa7-a6bc-4d101b9dc30c","ios":"levelo://app?vid=a17dbbf9-2919-4aa7-a6bc-4d101b9dc30c"},"vehicle_type_id":"4","last_reported":1775048082,"current_range_meters":8400,"station_id":"","pricing_plan_id":"cebpf4jnsgd1na2vs0mg"},{"bike_id":"a03b38c3-0cbd-4143-b398-c981b6d41a75","system_id":"levelo_inurba_marseille","lat":43.24376,"lon":5.37103,"is_reserved":false,"is_disabled":false,"rental_uris":{"android":"levelo://app?vid=a03b38c3-0cbd-4143-b398-c981b6d41a75","ios":"levelo://app?vid=a03b38c3-0cbd-4143-b398-c981b6d41a75"},"vehicle_type_id":"4","last_reported":1775048082,"current_range_meters":8400,"station_id":"ce4bhhh2rcd13ifvqfk0","pricing_plan_id":"cebpf4jnsgd1na2vs0mg"},{"bike_id":"c379d5f2-d47d-4c62-876b-a0cf3c48e778","system_id":"levelo_inurba_marseille","lat":43.29577,"lon":5.37515,"is_reserved":false,"is_disabled":false,"rental_uris":{"android":"levelo://app?vid=c379d5f2-d47d-4c62-876b-a0cf3c48e778","ios":"levelo://app?vid=c379d5f2-d47d-4c62-876b-a0cf3c48e778"},"vehicle_type_id":"4","last_reported":1775048082,"current_range_meters":8400,"station_id":"ce4bgh92rcd13ifvqb50","pricing_plan_id":"cebpf4jnsgd1na2vs0mg"},{"bike_id":"eb5ca31c-0cdd-4bd2-8ca1-4274e92c10bb","system_id":"levelo_inurba_marseille","lat":43.24168,"lon":5.39706,"is_reserved":false,"is_disabled":false,"rental_uris":{"android":"levelo://app?vid=eb5ca31c-0cdd-4bd2-8ca1-4274e92c10bb","ios":"levelo://app?vid=eb5ca31c-0cdd-4bd2-8ca1-4274e92c10bb"},"vehicle_type_id":"4","last_reported":1775048082,"current_range_meters":8400,"station_id":"ce4bhn12rcd13ifvqgpg","pricing_plan_id":"cebpf4jnsgd1na2vs0mg"},{"bike_id":"82aa2247-2f97-4eae-b852-8bb3bb7068d3","system_id":"levelo_inurba_marseille","lat":43.33543,"lon":5.37483,"is_reserved":false,"is_disabled":false,"rental_uris":{"android":"levelo://app?vid=82aa2247-2f97-4eae-b852-8bb3bb7068d3","ios":"levelo://app?vid=82aa2247-2f97-4eae-b852-8bb3bb7068d3"},"vehicle_type_id":"4","last_reported":1775048082,"current_range_meters":8400,"station_id":"st_d46tts09ee8s73dlu43g","pricing_plan_id":"cebpf4jnsgd1na2vs0mg"},{"bike_id":"052f68eb-b3d2-4c29-a99d-37f9d3e34be6","system_id":"levelo_inurba_marseille","lat":43.24875,"lon":5.4266,"is_reserved":false,"is_disabled":false,"rental_uris":{"android":"levelo://app?vid=052f68eb-b3d2-4c29-a99d-37f9d3e34be6","ios":"levelo://app?vid=052f68eb-b3d2-4c29-a99d-37f9d3e34be6"},"vehicle_type_id":"4","last_reported":1775048082,"current_range_meters":8400,"station_id":"","pricing_plan_id":"cebpf4jnsgd1na2vs0mg"},{"bike_id":"781ce17c-2c8d-4171-9586-4c587f2fe3b9","system_id":"levelo_inurba_marseille","lat":43.28621,"lon":5.35098,"is_reserved":false,"is_disabled":false,"rental_uris":{"android":"levelo://app?vid=781ce17c-2c8d-4171-9586-4c587f2fe3b9","ios":"levelo://app?vid=781ce17c-2c8d-4171-9586-4c587f2fe3b9"},"vehicle_type_id":"4","last_reported":1775048082,"current_range_meters":8400,"station_id":"ce4bhch2rcd13ifvqeug","pricing_plan_id":"cebpf4jnsgd1na2vs0mg"},{"bike_id":"c4b3a404-8973-49f4-83ed-16a928725494","system_id":"levelo_inurba_marseille","lat":43.28726,"lon":5.36079,"is_reserved":false,"is_disabled":false,"rental_uris":{"android":"levelo://app?vid=c4b3a404-8973-49f4-83ed-16a928725494","ios":"levelo://app?vid=c4b3a404-8973-49f4-83ed-16a928725494"},"vehicle_type_id":"4","last_reported":1775048082,"current_range_meters":8400,"station_id":"cki0cbj6b192h4jlfktg","pricing_plan_id":"cebpf4jnsgd1na2vs0mg"},{"bike_id":"f2a7af03-f8d5-4e2c-a948-3b30a1d99bb2","system_id":"levelo_inurba_marseille","lat":43.25113,"lon":5.40318,"is_reserved":false,"is_disabled":false,"rental_uris":{"android":"levelo://app?vid=f2a7af03-f8d5-4e2c-a948-3b30a1d99bb2","ios":"levelo://app?vid=f2a7af03-f8d5-4e2c-a948-3b30a1d99bb2"},"vehicle_type_id":"4","last_reported":1775048082,"current_range_meters":8400,"station_id":"ce4bhlh2rcd13ifvqgig","pricing_plan_id":"cebpf4jnsgd1na2vs0mg"},{"bike_id":"d40307b1-f491-459e-8738-a815a83d5b13","system_id":"levelo_inurba_marseille","lat":43.30472,"lon":5.37899,"is_reserved":false,"is_disabled":false,"rental_uris":{"android":"levelo://app?vid=d40307b1-f491-459e-8738-a815a83d5b13","ios":"levelo://app?vid=d40307b1-f491-459e-8738-a815a83d5b13"},"vehicle_type_id":"4","last_reported":1775048082,"current_range_meters":8400,"station_id":"ce4bgup2rcd13ifvqcn0","pricing_plan_id":"cebpf4jnsgd1na2vs0mg"},{"bike_id":"6a5ff4a3-857d-4b5b-9a0e-b97eb89025bb","system_id":"levelo_inurba_marseille","lat":43.31386,"lon":5.36743,"is_reserved":false,"is_disabled":false,"rental_uris":{"android":"levelo://app?vid=6a5ff4a3-857d-4b5b-9a0e-b97eb89025bb","ios":"levelo://app?vid=6a5ff4a3-857d-4b5b-9a0e-b97eb89025bb"},"vehicle_type_id":"4","last_reported":1775048082,"current_range_meters":8400,"station_id":"ce4bgr92rcd13ifvqc6g","pricing_plan_id":"cebpf4jnsgd1na2vs0mg"},{"bike_id":"32ce32e5-a75e-4d33-a6a0-ddb258c2dd86","system_id":"levelo_inurba_marseille","lat":43.23908,"lon":5.37442,"is_reserved":false,"is_disabled":false,"rental_uris":{"android":"levelo://app?vid=32ce32e5-a75e-4d33-a6a0-ddb258c2dd86","ios":"levelo://app?vid=32ce32e5-a75e-4d33-a6a0-ddb258c2dd86"},"vehicle_type_id":"4","last_reported":1775048082,"current_range_meters":8400,"station_id":"st_d6sm7csbq4hs73f8fpjg","pricing_plan_id":"cebpf4jnsgd1na2vs0mg"},{"bike_id":"78151f0b-d096-4bc8-9d04-f28fec21246f","system_id":"levelo_inurba_marseille","lat":43.23199,"lon":5.39953,"is_reserved":false,"is_disabled":false,"rental_uris":{"android":"levelo://app?vid=78151f0b-d096-4bc8-9d04-f28fec21246f","ios":"levelo://app?vid=78151f0b-d096-4bc8-9d04-f28fec21246f"},"vehicle_type_id":"4","last_reported":1775048082,"current_range_meters":8800,"station_id":"ce4bhn12rcd13ifvqgqg","pricing_plan_id":"cebpf4jnsgd1na2vs0mg"},{"bike_id":"62bf82c9-a7d6-485f-b660-bbbb2d4f54e9","system_id":"levelo_inurba_marseille","lat":43.24387,"lon":5.37046,"is_reserved":false,"is_disabled":false,"rental_uris":{"android":"levelo://app?vid=62bf82c9-a7d6-485f-b660-bbbb2d4f54e9","ios":"levelo://app?vid=62bf82c9-a7d6-485f-b660-bbbb2d4f54e9"},"vehicle_type_id":"4","last_reported":1775048082,"current_range_meters":8800,"station_id":"ce4bhhh2rcd13ifvqfk0","pricing_plan_id":"cebpf4jnsgd1na2vs0mg"},{"bike_id":"de3bdf23-33b1-4bf8-b651-d6927f99d5de","system_id":"levelo_inurba_marseille","lat":43.28407,"lon":5.34985,"is_reserved":false,"is_disabled":true,"rental_uris":{"android":"levelo://app?vid=de3bdf23-33b1-4bf8-b651-d6927f99d5de","ios":"levelo://app?vid=de3bdf23-33b1-4bf8-b651-d6927f99d5de"},"vehicle_type_id":"4","last_reported":1775048082,"current_range_meters":8800,"station_id":"ce4bhbh2rcd13ifvqepg","pricing_plan_id":"cebpf4jnsgd1na2vs0mg"},{"bike_id":"b9a2dc0a-a78c-4ec1-b214-1ebc47ea2ab0","system_id":"levelo_inurba_marseille","lat":43.22548,"lon":5.41646,"is_reserved":false,"is_disabled":false,"rental_uris":{"android":"levelo://app?vid=b9a2dc0a-a78c-4ec1-b214-1ebc47ea2ab0","ios":"levelo://app?vid=b9a2dc0a-a78c-4ec1-b214-1ebc47ea2ab0"},"vehicle_type_id":"4","last_reported":1775048082,"current_range_meters":8800,"station_id":"st_d2o4gvlbi1j2169b742g","pricing_plan_id":"cebpf4jnsgd1na2vs0mg"},{"bike_id":"6aee172d-0522-4ca5-bf94-26ba71758890","system_id":"levelo_inurba_marseille","lat":43.30925,"lon":5.41612,"is_reserved":false,"is_disabled":false,"rental_uris":{"android":"levelo://app?vid=6aee172d-0522-4ca5-bf94-26ba71758890","ios":"levelo://app?vid=6aee172d-0522-4ca5-bf94-26ba71758890"},"vehicle_type_id":"4","last_reported":1775048082,"current_range_meters":8800,"station_id":"","pricing_plan_id":"cebpf4jnsgd1na2vs0mg"},{"bike_id":"8f24d772-c3a5-4063-b7dd-a309ad302575","system_id":"levelo_inurba_marseille","lat":43.27323,"lon":5.39112,"is_reserved":false,"is_disabled":false,"rental_uris":{"android":"levelo://app?vid=8f24d772-c3a5-4063-b7dd-a309ad302575","ios":"levelo://app?vid=8f24d772-c3a5-4063-b7dd-a309ad302575"},"vehicle_type_id":"4","last_reported":1775048082,"current_range_meters":8800,"station_id":"ce4bhgp2rcd13ifvqfe0","pricing_plan_id":"cebpf4jnsgd1na2vs0mg"},{"bike_id":"63fb680a-80a0-4917-a382-5c782fa1ce74","system_id":"levelo_inurba_marseille","lat":43.23182,"lon":5.3999,"is_reserved":false,"is_disabled":false,"rental_uris":{"android":"levelo://app?vid=63fb680a-80a0-4917-a382-5c782fa1ce74","ios":"levelo://app?vid=63fb680a-80a0-4917-a382-5c782fa1ce74"},"vehicle_type_id":"4","last_reported":1775048082,"current_range_meters":8800,"station_id":"ce4bhn12rcd13ifvqgqg","pricing_plan_id":"cebpf4jnsgd1na2vs0mg"},{"bike_id":"7deddf28-6ab7-4d57-ba7b-457ba30a5290","system_id":"levelo_inurba_marseille","lat":43.28615,"lon":5.351,"is_reserved":false,"is_disabled":false,"rental_uris":{"android":"levelo://app?vid=7deddf28-6ab7-4d57-ba7b-457ba30a5290","ios":"levelo://app?vid=7deddf28-6ab7-4d57-ba7b-457ba30a5290"},"vehicle_type_id":"4","last_reported":1775048082,"current_range_meters":8800,"station_id":"ce4bhch2rcd13ifvqeug","pricing_plan_id":"cebpf4jnsgd1na2vs0mg"},{"bike_id":"b149b05d-17dc-4174-91fd-6a2d9bb13c8f","system_id":"levelo_inurba_marseille","lat":43.31647,"lon":5.38126,"is_reserved":false,"is_disabled":false,"rental_uris":{"android":"levelo://app?vid=b149b05d-17dc-4174-91fd-6a2d9bb13c8f","ios":"levelo://app?vid=b149b05d-17dc-4174-91fd-6a2d9bb13c8f"},"vehicle_type_id":"4","last_reported":1775048082,"current_range_meters":8800,"station_id":"","pricing_plan_id":"cebpf4jnsgd1na2vs0mg"},{"bike_id":"28902c85-2ce9-4ec9-adfe-51cf4064fa09","system_id":"levelo_inurba_marseille","lat":43.28446,"lon":5.3918,"is_reserved":false,"is_disabled":true,"rental_uris":{"android":"levelo://app?vid=28902c85-2ce9-4ec9-adfe-51cf4064fa09","ios":"levelo://app?vid=28902c85-2ce9-4ec9-adfe-51cf4064fa09"},"vehicle_type_id":"4","last_reported":1775048082,"current_range_meters":8800,"station_id":"ce4bhoh2rcd13ifvqh5g","pricing_plan_id":"cebpf4jnsgd1na2vs0mg"},{"bike_id":"737528a4-3acd-4374-bfa1-9b3cbbf2613a","system_id":"levelo_inurba_marseille","lat":43.28418,"lon":5.34971,"is_reserved":false,"is_disabled":false,"rental_uris":{"android":"levelo://app?vid=737528a4-3acd-4374-bfa1-9b3cbbf2613a","ios":"levelo://app?vid=737528a4-3acd-4374-bfa1-9b3cbbf2613a"},"vehicle_type_id":"4","last_reported":1775048082,"current_range_meters":8800,"station_id":"ce4bhbh2rcd13ifvqepg","pricing_plan_id":"cebpf4jnsgd1na2vs0mg"},{"bike_id":"e9b3f906-3c96-41d2-bde3-70019147dd95","system_id":"levelo_inurba_marseille","lat":43.22565,"lon":5.41627,"is_reserved":false,"is_disabled":false,"rental_uris":{"android":"levelo://app?vid=e9b3f906-3c96-41d2-bde3-70019147dd95","ios":"levelo://app?vid=e9b3f906-3c96-41d2-bde3-70019147dd95"},"vehicle_type_id":"4","last_reported":1775048082,"current_range_meters":8800,"station_id":"st_d2o4gvlbi1j2169b742g","pricing_plan_id":"cebpf4jnsgd1na2vs0mg"},{"bike_id":"e8197674-fbc2-4124-a196-4530cf1aab60","system_id":"levelo_inurba_marseille","lat":43.24383,"lon":5.37042,"is_reserved":false,"is_disabled":false,"rental_uris":{"android":"levelo://app?vid=e8197674-fbc2-4124-a196-4530cf1aab60","ios":"levelo://app?vid=e8197674-fbc2-4124-a196-4530cf1aab60"},"vehicle_type_id":"4","last_reported":1775048082,"current_range_meters":8800,"station_id":"ce4bhhh2rcd13ifvqfk0","pricing_plan_id":"cebpf4jnsgd1na2vs0mg"},{"bike_id":"2be64f19-432b-4d07-98a7-6e9bfd23e981","system_id":"levelo_inurba_marseille","lat":43.2975,"lon":5.42781,"is_reserved":false,"is_disabled":false,"rental_uris":{"android":"levelo://app?vid=2be64f19-432b-4d07-98a7-6e9bfd23e981","ios":"levelo://app?vid=2be64f19-432b-4d07-98a7-6e9bfd23e981"},"vehicle_type_id":"4","last_reported":1775048082,"current_range_meters":8800,"station_id":"st_d3md5207bmas73dh9klg","pricing_plan_id":"cebpf4jnsgd1na2vs0mg"},{"bike_id":"b8acc31c-8e82-4e01-a84e-0ccdc5227b32","system_id":"levelo_inurba_marseille","lat":43.31333,"lon":5.36716,"is_reserved":false,"is_disabled":false,"rental_uris":{"android":"levelo://app?vid=b8acc31c-8e82-4e01-a84e-0ccdc5227b32","ios":"levelo://app?vid=b8acc31c-8e82-4e01-a84e-0ccdc5227b32"},