{"last_updated":1703523977,"ttl":30,"version":"2.2","data":{"bikes":[{"bike_id":"481575b1-3467-4b2f-b4bc-19206f8e7c24","system_id":"levelo_inurba_marseille","lat":43.313391,"lon":5.36706,"is_reserved":false,"is_disabled":false,"rental_uris":{"android":"levelo://app?vid=481575b1-3467-4b2f-b4bc-19206f8e7c24","ios":"levelo://app?vid=481575b1-3467-4b2f-b4bc-19206f8e7c24"},"vehicle_type_id":"4","last_reported":1703523977,"current_range_meters":15600,"station_id":"ce4bgr92rcd13ifvqc6g","pricing_plan_id":"free"},{"bike_id":"62235977-7229-4418-818b-24a0f5380c49","system_id":"levelo_inurba_marseille","lat":43.312239,"lon":5.368562,"is_reserved":false,"is_disabled":false,"rental_uris":{"android":"levelo://app?vid=62235977-7229-4418-818b-24a0f5380c49","ios":"levelo://app?vid=62235977-7229-4418-818b-24a0f5380c49"},"vehicle_type_id":"4","last_reported":1703523977,"current_range_meters":27600,"station_id":"ce4bgl92rcd13ifvqbq0","pricing_plan_id":"free"},{"bike_id":"e8348dca-1aa3-47f0-92ce-543bb534a4c2","system_id":"levelo_inurba_marseille","lat":43.314811,"lon":5.373104,"is_reserved":false,"is_disabled":false,"rental_uris":{"android":"levelo://app?vid=e8348dca-1aa3-47f0-92ce-543bb534a4c2","ios":"levelo://app?vid=e8348dca-1aa3-47f0-92ce-543bb534a4c2"},"vehicle_type_id":"4","last_reported":1703523977,"current_range_meters":26000,"station_id":"ce4bgt12rcd13ifvqcd0","pricing_plan_id":"free"},{"bike_id":"d2be49f4-d512-450f-80de-370a6da97420","system_id":"levelo_inurba_marseille","lat":43.318964,"lon":5.36877,"is_reserved":false,"is_disabled":false,"rental_uris":{"android":"levelo://app?vid=d2be49f4-d512-450f-80de-370a6da97420","ios":"levelo://app?vid=d2be49f4-d512-450f-80de-370a6da97420"},"vehicle_type_id":"4","last_reported":1703523977,"current_range_meters":10000,"station_id":"","pricing_plan_id":"free"},{"bike_id":"cc2f4e4f-2b28-4e84-be8f-32c8a171c9e1","system_id":"levelo_inurba_marseille","lat":43.31338,"lon":5.37621,"is_reserved":false,"is_disabled":false,"rental_uris":{"android":"levelo://app?vid=cc2f4e4f-2b28-4e84-be8f-32c8a171c9e1","ios":"levelo://app?vid=cc2f4e4f-2b28-4e84-be8f-32c8a171c9e1"},"vehicle_type_id":"4","last_reported":1703523977,"current_range_meters":27200,"station_id":"","pricing_plan_id":"free"},{"bike_id":"c776d591-5be4-49cc-8c2c-45233dba694a","system_id":"levelo_inurba_marseille","lat":43.305368,"lon":5.367343,"is_reserved":false,"is_disabled":false,"rental_uris":{"android":"levelo://app?vid=c776d591-5be4-49cc-8c2c-45233dba694a","ios":"levelo://app?vid=c776d591-5be4-49cc-8c2c-45233dba694a"},"vehicle_type_id":"4","last_reported":1703523977,"current_range_meters":18000,"station_id":"ce4bgrp2rcd13ifvqc9g","pricing_plan_id":"free"},{"bike_id":"a05cf92b-6afb-4aa1-8199-baa62eb24219","system_id":"levelo_inurba_marseille","lat":43.305368,"lon":5.367343,"is_reserved":false,"is_disabled":false,"rental_uris":{"android":"levelo://app?vid=a05cf92b-6afb-4aa1-8199-baa62eb24219","ios":"levelo://app?vid=a05cf92b-6afb-4aa1-8199-baa62eb24219"},"vehicle_type_id":"4","last_reported":1703523977,"current_range_meters":17200,"station_id":"ce4bgrp2rcd13ifvqc9g","pricing_plan_id":"free"},{"bike_id":"8fef822f-8c06-4395-beea-4d9578bdea4b","system_id":"levelo_inurba_marseille","lat":43.305368,"lon":5.367343,"is_reserved":false,"is_disabled":false,"rental_uris":{"android":"levelo://app?vid=8fef822f-8c06-4395-beea-4d9578bdea4b","ios":"levelo://app?vid=8fef822f-8c06-4395-beea-4d9578bdea4b"},"vehicle_type_id":"4","last_reported":1703523977,"current_range_meters":20400,"station_id":"ce4bgrp2rcd13ifvqc9g","pricing_plan_id":"free"},{"bike_id":"383c90e6-09a3-441e-9c5e-eaedc1c24b4d","system_id":"levelo_inurba_marseille","lat":43.305714,"lon":5.365633,"is_reserved":false,"is_disabled":false,"rental_uris":{"android":"levelo://app?vid=383c90e6-09a3-441e-9c5e-eaedc1c24b4d","ios":"levelo://app?vid=383c90e6-09a3-441e-9c5e-eaedc1c24b4d"},"vehicle_type_id":"4","last_reported":1703523977,"current_range_meters":26000,"station_id":"ce4bgs12rcd13ifvqcag","pricing_plan_id":"free"},{"bike_id":"4933251a-20f1-4a17-b9dd-cfd9683047a0","system_id":"levelo_inurba_marseille","lat":43.305368,"lon":5.367343,"is_reserved":false,"is_disabled":false,"rental_uris":{"android":"levelo://app?vid=4933251a-20f1-4a17-b9dd-cfd9683047a0","ios":"levelo://app?vid=4933251a-20f1-4a17-b9dd-cfd9683047a0"},"vehicle_type_id":"4","last_reported":1703523977,"current_range_meters":2000,"station_id":"ce4bgrp2rcd13ifvqc9g","pricing_plan_id":"free"},{"bike_id":"a340cac0-9ac1-4379-8a88-c286b939ce44","system_id":"levelo_inurba_marseille","lat":43.305368,"lon":5.367343,"is_reserved":false,"is_disabled":false,"rental_uris":{"android":"levelo://app?vid=a340cac0-9ac1-4379-8a88-c286b939ce44","ios":"levelo://app?vid=a340cac0-9ac1-4379-8a88-c286b939ce44"},"vehicle_type_id":"4","last_reported":1703523977,"current_range_meters":4400,"station_id":"ce4bgrp2rcd13ifvqc9g","pricing_plan_id":"free"},{"bike_id":"ed0ee458-d167-4624-8c61-96e3c5ea9645","system_id":"levelo_inurba_marseille","lat":43.305706,"lon":5.365654,"is_reserved":false,"is_disabled":false,"rental_uris":{"android":"levelo://app?vid=ed0ee458-d167-4624-8c61-96e3c5ea9645","ios":"levelo://app?vid=ed0ee458-d167-4624-8c61-96e3c5ea9645"},"vehicle_type_id":"4","last_reported":1703523977,"current_range_meters":5200,"station_id":"ce4bgs12rcd13ifvqcag","pricing_plan_id":"free"},{"bike_id":"1a71022c-fdb5-4632-a425-38d7ef4f21e4","system_id":"levelo_inurba_marseille","lat":43.318369,"lon":5.373936,"is_reserved":false,"is_disabled":false,"rental_uris":{"android":"levelo://app?vid=1a71022c-fdb5-4632-a425-38d7ef4f21e4","ios":"levelo://app?vid=1a71022c-fdb5-4632-a425-38d7ef4f21e4"},"vehicle_type_id":"4","last_reported":1703523977,"current_range_meters":0,"station_id":"","pricing_plan_id":"free"},{"bike_id":"f9b7b142-dae9-4c7f-a60e-059c4b240af6","system_id":"levelo_inurba_marseille","lat":43.311229,"lon":5.377739,"is_reserved":false,"is_disabled":false,"rental_uris":{"android":"levelo://app?vid=f9b7b142-dae9-4c7f-a60e-059c4b240af6","ios":"levelo://app?vid=f9b7b142-dae9-4c7f-a60e-059c4b240af6"},"vehicle_type_id":"4","last_reported":1703523977,"current_range_meters":16000,"station_id":"ce4bgt92rcd13ifvqcg0","pricing_plan_id":"free"},{"bike_id":"d3de8212-6286-49a4-b0d3-fd02d927aba1","system_id":"levelo_inurba_marseille","lat":43.311125,"lon":5.377624,"is_reserved":false,"is_disabled":false,"rental_uris":{"android":"levelo://app?vid=d3de8212-6286-49a4-b0d3-fd02d927aba1","ios":"levelo://app?vid=d3de8212-6286-49a4-b0d3-fd02d927aba1"},"vehicle_type_id":"4","last_reported":1703523977,"current_range_meters":26800,"station_id":"ce4bgt92rcd13ifvqcg0","pricing_plan_id":"free"},{"bike_id":"5cf967f9-5399-4028-a165-a8c9723a29c4","system_id":"levelo_inurba_marseille","lat":43.317075,"lon":5.377367,"is_reserved":false,"is_disabled":false,"rental_uris":{"android":"levelo://app?vid=5cf967f9-5399-4028-a165-a8c9723a29c4","ios":"levelo://app?vid=5cf967f9-5399-4028-a165-a8c9723a29c4"},"vehicle_type_id":"4","last_reported":1703523977,"current_range_meters":26800,"station_id":"ce4bgth2rcd13ifvqch0","pricing_plan_id":"free"},{"bike_id":"b74bf671-ca78-45f7-8b14-4576746b80ef","system_id":"levelo_inurba_marseille","lat":43.30304,"lon":5.368987,"is_reserved":false,"is_disabled":false,"rental_uris":{"android":"levelo://app?vid=b74bf671-ca78-45f7-8b14-4576746b80ef","ios":"levelo://app?vid=b74bf671-ca78-45f7-8b14-4576746b80ef"},"vehicle_type_id":"4","last_reported":1703523977,"current_range_meters":27600,"station_id":"ce4bgqh2rcd13ifvqc5g","pricing_plan_id":"free"},{"bike_id":"b334b641-5a55-48a0-be70-983c0edde04a","system_id":"levelo_inurba_marseille","lat":43.303046,"lon":5.368981,"is_reserved":false,"is_disabled":false,"rental_uris":{"android":"levelo://app?vid=b334b641-5a55-48a0-be70-983c0edde04a","ios":"levelo://app?vid=b334b641-5a55-48a0-be70-983c0edde04a"},"vehicle_type_id":"4","last_reported":1703523977,"current_range_meters":17200,"station_id":"ce4bgqh2rcd13ifvqc5g","pricing_plan_id":"free"},{"bike_id":"67f53113-bf46-4315-a50b-27f21e9dd5e0","system_id":"levelo_inurba_marseille","lat":43.31536,"lon":5.38019,"is_reserved":false,"is_disabled":false,"rental_uris":{"android":"levelo://app?vid=67f53113-bf46-4315-a50b-27f21e9dd5e0","ios":"levelo://app?vid=67f53113-bf46-4315-a50b-27f21e9dd5e0"},"vehicle_type_id":"4","last_reported":1703523977,"current_range_meters":26800,"station_id":"ce4bhsp2rcd13ifvqi50","pricing_plan_id":"free"},{"bike_id":"8707c2d4-2376-4897-a4cf-e6b1e82d0f51","system_id":"levelo_inurba_marseille","lat":43.315293,"lon":5.380349,"is_reserved":false,"is_disabled":false,"rental_uris":{"android":"levelo://app?vid=8707c2d4-2376-4897-a4cf-e6b1e82d0f51","ios":"levelo://app?vid=8707c2d4-2376-4897-a4cf-e6b1e82d0f51"},"vehicle_type_id":"4","last_reported":1703523977,"current_range_meters":20800,"station_id":"ce4bhsp2rcd13ifvqi50","pricing_plan_id":"free"},{"bike_id":"e6eefbd8-ecea-42cb-8c7a-0640952ddaea","system_id":"levelo_inurba_marseille","lat":43.31778,"lon":5.37908,"is_reserved":false,"is_disabled":false,"rental_uris":{"android":"levelo://app?vid=e6eefbd8-ecea-42cb-8c7a-0640952ddaea","ios":"levelo://app?vid=e6eefbd8-ecea-42cb-8c7a-0640952ddaea"},"vehicle_type_id":"4","last_reported":1703523977,"current_range_meters":22800,"station_id":"","pricing_plan_id":"free"},{"bike_id":"07104835-3553-4a69-a0e4-0e0cd65b630c","system_id":"levelo_inurba_marseille","lat":43.313571,"lon":5.384829,"is_reserved":false,"is_disabled":false,"rental_uris":{"android":"levelo://app?vid=07104835-3553-4a69-a0e4-0e0cd65b630c","ios":"levelo://app?vid=07104835-3553-4a69-a0e4-0e0cd65b630c"},"vehicle_type_id":"4","last_reported":1703523977,"current_range_meters":26800,"station_id":"ce4bgt92rcd13ifvqcf0","pricing_plan_id":"free"},{"bike_id":"809faa9e-e50b-48d7-bd51-c19cfa6e7724","system_id":"levelo_inurba_marseille","lat":43.308012,"lon":5.381511,"is_reserved":false,"is_disabled":false,"rental_uris":{"android":"levelo://app?vid=809faa9e-e50b-48d7-bd51-c19cfa6e7724","ios":"levelo://app?vid=809faa9e-e50b-48d7-bd51-c19cfa6e7724"},"vehicle_type_id":"4","last_reported":1703523977,"current_range_meters":25200,"station_id":"ce4bgt12rcd13ifvqce0","pricing_plan_id":"free"},{"bike_id":"94ade658-a3ef-4c03-8cec-69621a4f41bb","system_id":"levelo_inurba_marseille","lat":43.304606,"lon":5.379026,"is_reserved":false,"is_disabled":false,"rental_uris":{"android":"levelo://app?vid=94ade658-a3ef-4c03-8cec-69621a4f41bb","ios":"levelo://app?vid=94ade658-a3ef-4c03-8cec-69621a4f41bb"},"vehicle_type_id":"4","last_reported":1703523977,"current_range_meters":0,"station_id":"ce4bgup2rcd13ifvqcn0","pricing_plan_id":"free"},{"bike_id":"7a586bf0-15a1-4789-887c-99b8776a5aae","system_id":"levelo_inurba_marseille","lat":43.30466,"lon":5.37895,"is_reserved":false,"is_disabled":false,"rental_uris":{"android":"levelo://app?vid=7a586bf0-15a1-4789-887c-99b8776a5aae","ios":"levelo://app?vid=7a586bf0-15a1-4789-887c-99b8776a5aae"},"vehicle_type_id":"4","last_reported":1703523977,"current_range_meters":12000,"station_id":"ce4bgup2rcd13ifvqcn0","pricing_plan_id":"free"},{"bike_id":"ab3c7e4c-2d70-4fca-90a9-9d912a1e04ec","system_id":"levelo_inurba_marseille","lat":43.30461,"lon":5.379,"is_reserved":false,"is_disabled":false,"rental_uris":{"android":"levelo://app?vid=ab3c7e4c-2d70-4fca-90a9-9d912a1e04ec","ios":"levelo://app?vid=ab3c7e4c-2d70-4fca-90a9-9d912a1e04ec"},"vehicle_type_id":"4","last_reported":1703523977,"current_range_meters":9600,"station_id":"ce4bgup2rcd13ifvqcn0","pricing_plan_id":"free"},{"bike_id":"3e3cea46-211e-4934-a3a4-d8465e65e881","system_id":"levelo_inurba_marseille","lat":43.304606,"lon":5.379026,"is_reserved":false,"is_disabled":false,"rental_uris":{"android":"levelo://app?vid=3e3cea46-211e-4934-a3a4-d8465e65e881","ios":"levelo://app?vid=3e3cea46-211e-4934-a3a4-d8465e65e881"},"vehicle_type_id":"4","last_reported":1703523977,"current_range_meters":18000,"station_id":"ce4bgup2rcd13ifvqcn0","pricing_plan_id":"free"},{"bike_id":"f5c0e4d6-16bd-47eb-ba92-aa201d0984ce","system_id":"levelo_inurba_marseille","lat":43.324771,"lon":5.36557,"is_reserved":false,"is_disabled":false,"rental_uris":{"android":"levelo://app?vid=f5c0e4d6-16bd-47eb-ba92-aa201d0984ce","ios":"levelo://app?vid=f5c0e4d6-16bd-47eb-ba92-aa201d0984ce"},"vehicle_type_id":"4","last_reported":1703523977,"current_range_meters":7600,"station_id":"ce4bhs12rcd13ifvqhvg","pricing_plan_id":"free"},{"bike_id":"6a3e3d28-1291-4d4b-bf7c-74834b7950d7","system_id":"levelo_inurba_marseille","lat":43.324771,"lon":5.36557,"is_reserved":false,"is_disabled":false,"rental_uris":{"android":"levelo://app?vid=6a3e3d28-1291-4d4b-bf7c-74834b7950d7","ios":"levelo://app?vid=6a3e3d28-1291-4d4b-bf7c-74834b7950d7"},"vehicle_type_id":"4","last_reported":1703523977,"current_range_meters":25200,"station_id":"ce4bhs12rcd13ifvqhvg","pricing_plan_id":"free"},{"bike_id":"673afe24-13ca-4117-906e-0ada444292f1","system_id":"levelo_inurba_marseille","lat":43.324771,"lon":5.36557,"is_reserved":false,"is_disabled":false,"rental_uris":{"android":"levelo://app?vid=673afe24-13ca-4117-906e-0ada444292f1","ios":"levelo://app?vid=673afe24-13ca-4117-906e-0ada444292f1"},"vehicle_type_id":"4","last_reported":1703523977,"current_range_meters":25200,"station_id":"ce4bhs12rcd13ifvqhvg","pricing_plan_id":"free"},{"bike_id":"9d21651b-6703-48db-8f64-2df20565c3bb","system_id":"levelo_inurba_marseille","lat":43.302784,"lon":5.377158,"is_reserved":false,"is_disabled":false,"rental_uris":{"android":"levelo://app?vid=9d21651b-6703-48db-8f64-2df20565c3bb","ios":"levelo://app?vid=9d21651b-6703-48db-8f64-2df20565c3bb"},"vehicle_type_id":"4","last_reported":1703523977,"current_range_meters":16400,"station_id":"ce4bguh2rcd13ifvqcj0","pricing_plan_id":"free"},{"bike_id":"9011995a-6fb0-4e38-9a9b-bdcc1110a2a4","system_id":"levelo_inurba_marseille","lat":43.303578,"lon":5.378145,"is_reserved":false,"is_disabled":false,"rental_uris":{"android":"levelo://app?vid=9011995a-6fb0-4e38-9a9b-bdcc1110a2a4","ios":"levelo://app?vid=9011995a-6fb0-4e38-9a9b-bdcc1110a2a4"},"vehicle_type_id":"4","last_reported":1703523977,"current_range_meters":22400,"station_id":"","pricing_plan_id":"free"},{"bike_id":"7cbc52a8-3902-44a9-b33c-9c857d17fadd","system_id":"levelo_inurba_marseille","lat":43.302784,"lon":5.377158,"is_reserved":false,"is_disabled":false,"rental_uris":{"android":"levelo://app?vid=7cbc52a8-3902-44a9-b33c-9c857d17fadd","ios":"levelo://app?vid=7cbc52a8-3902-44a9-b33c-9c857d17fadd"},"vehicle_type_id":"4","last_reported":1703523977,"current_range_meters":16800,"station_id":"ce4bguh2rcd13ifvqcj0","pricing_plan_id":"free"},{"bike_id":"60759498-503d-4868-95df-2064b9e1ca57","system_id":"levelo_inurba_marseille","lat":43.30141,"lon":5.37417,"is_reserved":false,"is_disabled":false,"rental_uris":{"android":"levelo://app?vid=60759498-503d-4868-95df-2064b9e1ca57","ios":"levelo://app?vid=60759498-503d-4868-95df-2064b9e1ca57"},"vehicle_type_id":"4","last_reported":1703523977,"current_range_meters":17600,"station_id":"ce4bgs92rcd13ifvqcc0","pricing_plan_id":"free"},{"bike_id":"70b0ad2a-6533-4324-9176-53aa3f1f6a7a","system_id":"levelo_inurba_marseille","lat":43.32,"lon":5.3814,"is_reserved":false,"is_disabled":false,"rental_uris":{"android":"levelo://app?vid=70b0ad2a-6533-4324-9176-53aa3f1f6a7a","ios":"levelo://app?vid=70b0ad2a-6533-4324-9176-53aa3f1f6a7a"},"vehicle_type_id":"4","last_reported":1703523977,"current_range_meters":6000,"station_id":"ce4bhr12rcd13ifvqhpg","pricing_plan_id":"free"},{"bike_id":"75302cd8-b984-4433-930e-e983bd8d8018","system_id":"levelo_inurba_marseille","lat":43.313571,"lon":5.384829,"is_reserved":false,"is_disabled":false,"rental_uris":{"android":"levelo://app?vid=75302cd8-b984-4433-930e-e983bd8d8018","ios":"levelo://app?vid=75302cd8-b984-4433-930e-e983bd8d8018"},"vehicle_type_id":"4","last_reported":1703523977,"current_range_meters":10000,"station_id":"ce4bgt92rcd13ifvqcf0","pricing_plan_id":"free"},{"bike_id":"6cadaa56-5d90-470c-a0dc-ff3ad57fa748","system_id":"levelo_inurba_marseille","lat":43.313571,"lon":5.384829,"is_reserved":false,"is_disabled":false,"rental_uris":{"android":"levelo://app?vid=6cadaa56-5d90-470c-a0dc-ff3ad57fa748","ios":"levelo://app?vid=6cadaa56-5d90-470c-a0dc-ff3ad57fa748"},"vehicle_type_id":"4","last_reported":1703523977,"current_range_meters":17600,"station_id":"ce4bgt92rcd13ifvqcf0","pricing_plan_id":"free"},{"bike_id":"644e9374-a8cb-4157-9ac5-720e438022e4","system_id":"levelo_inurba_marseille","lat":43.29934,"lon":5.36535,"is_reserved":false,"is_disabled":false,"rental_uris":{"android":"levelo://app?vid=644e9374-a8cb-4157-9ac5-720e438022e4","ios":"levelo://app?vid=644e9374-a8cb-4157-9ac5-720e438022e4"},"vehicle_type_id":"4","last_reported":1703523977,"current_range_meters":14800,"station_id":"ce4bgm92rcd13ifvqbr0","pricing_plan_id":"free"},{"bike_id":"79375219-f7ad-4f6f-8fa1-0eef1373574b","system_id":"levelo_inurba_marseille","lat":43.305364,"lon":5.384119,"is_reserved":false,"is_disabled":false,"rental_uris":{"android":"levelo://app?vid=79375219-f7ad-4f6f-8fa1-0eef1373574b","ios":"levelo://app?vid=79375219-f7ad-4f6f-8fa1-0eef1373574b"},"vehicle_type_id":"4","last_reported":1703523977,"current_range_meters":25200,"station_id":"ce4bgg92rcd13ifvqb30","pricing_plan_id":"free"},{"bike_id":"d2a918f7-7907-44c6-ada9-c902336fc605","system_id":"levelo_inurba_marseille","lat":43.298433,"lon":5.362774,"is_reserved":false,"is_disabled":false,"rental_uris":{"android":"levelo://app?vid=d2a918f7-7907-44c6-ada9-c902336fc605","ios":"levelo://app?vid=d2a918f7-7907-44c6-ada9-c902336fc605"},"vehicle_type_id":"4","last_reported":1703523977,"current_range_meters":5600,"station_id":"ce4bgpp2rcd13ifvqc3g","pricing_plan_id":"free"},{"bike_id":"1bee77e9-eb5c-490e-b0eb-842b347d24dd","system_id":"levelo_inurba_marseille","lat":43.299243,"lon":5.374807,"is_reserved":false,"is_disabled":false,"rental_uris":{"android":"levelo://app?vid=1bee77e9-eb5c-490e-b0eb-842b347d24dd","ios":"levelo://app?vid=1bee77e9-eb5c-490e-b0eb-842b347d24dd"},"vehicle_type_id":"4","last_reported":1703523977,"current_range_meters":19200,"station_id":"ce4bgjh2rcd13ifvqbg0","pricing_plan_id":"free"},{"bike_id":"477aa14a-bff0-4099-ab13-3d7e5e44542e","system_id":"levelo_inurba_marseille","lat":43.311722,"lon":5.387247,"is_reserved":false,"is_disabled":false,"rental_uris":{"android":"levelo://app?vid=477aa14a-bff0-4099-ab13-3d7e5e44542e","ios":"levelo://app?vid=477aa14a-bff0-4099-ab13-3d7e5e44542e"},"vehicle_type_id":"4","last_reported":1703523977,"current_range_meters":30400,"station_id":"ce4bgv12rcd13ifvqcp0","pricing_plan_id":"free"},{"bike_id":"3540d652-83ee-4e54-82bb-c4527c65e1e6","system_id":"levelo_inurba_marseille","lat":43.299243,"lon":5.374807,"is_reserved":false,"is_disabled":false,"rental_uris":{"android":"levelo://app?vid=3540d652-83ee-4e54-82bb-c4527c65e1e6","ios":"levelo://app?vid=3540d652-83ee-4e54-82bb-c4527c65e1e6"},"vehicle_type_id":"4","last_reported":1703523977,"current_range_meters":25600,"station_id":"ce4bgjh2rcd13ifvqbg0","pricing_plan_id":"free"},{"bike_id":"51714c4a-3132-4951-88ec-80e85fa125e8","system_id":"levelo_inurba_marseille","lat":43.32809,"lon":5.36686,"is_reserved":false,"is_disabled":false,"rental_uris":{"android":"levelo://app?vid=51714c4a-3132-4951-88ec-80e85fa125e8","ios":"levelo://app?vid=51714c4a-3132-4951-88ec-80e85fa125e8"},"vehicle_type_id":"4","last_reported":1703523977,"current_range_meters":10400,"station_id":"ce4bhs92rcd13ifvqi0g","pricing_plan_id":"free"},{"bike_id":"19d42bbe-b568-4d0a-affe-2c7823044edb","system_id":"levelo_inurba_marseille","lat":43.328248,"lon":5.366798,"is_reserved":false,"is_disabled":false,"rental_uris":{"android":"levelo://app?vid=19d42bbe-b568-4d0a-affe-2c7823044edb","ios":"levelo://app?vid=19d42bbe-b568-4d0a-affe-2c7823044edb"},"vehicle_type_id":"4","last_reported":1703523977,"current_range_meters":17200,"station_id":"ce4bhs92rcd13ifvqi0g","pricing_plan_id":"free"},{"bike_id":"0ea359f7-1aa4-4d04-af38-4990586453d2","system_id":"levelo_inurba_marseille","lat":43.328371,"lon":5.366909,"is_reserved":false,"is_disabled":false,"rental_uris":{"android":"levelo://app?vid=0ea359f7-1aa4-4d04-af38-4990586453d2","ios":"levelo://app?vid=0ea359f7-1aa4-4d04-af38-4990586453d2"},"vehicle_type_id":"4","last_reported":1703523977,"current_range_meters":21200,"station_id":"ce4bhs92rcd13ifvqi0g","pricing_plan_id":"free"},{"bike_id":"de708f00-7118-4d7c-9021-d7dcbd798473","system_id":"levelo_inurba_marseille","lat":43.328371,"lon":5.366909,"is_reserved":false,"is_disabled":false,"rental_uris":{"android":"levelo://app?vid=de708f00-7118-4d7c-9021-d7dcbd798473","ios":"levelo://app?vid=de708f00-7118-4d7c-9021-d7dcbd798473"},"vehicle_type_id":"4","last_reported":1703523977,"current_range_meters":29600,"station_id":"ce4bhs92rcd13ifvqi0g","pricing_plan_id":"free"},{"bike_id":"b22d5e96-ae51-458c-8279-1d308fe846b0","system_id":"levelo_inurba_marseille","lat":43.328371,"lon":5.366909,"is_reserved":false,"is_disabled":false,"rental_uris":{"android":"levelo://app?vid=b22d5e96-ae51-458c-8279-1d308fe846b0","ios":"levelo://app?vid=b22d5e96-ae51-458c-8279-1d308fe846b0"},"vehicle_type_id":"4","last_reported":1703523977,"current_range_meters":14400,"station_id":"ce4bhs92rcd13ifvqi0g","pricing_plan_id":"free"},{"bike_id":"6f67326a-1664-406f-9978-902e013e2357","system_id":"levelo_inurba_marseille","lat":43.328371,"lon":5.366909,"is_reserved":false,"is_disabled":false,"rental_uris":{"android":"levelo://app?vid=6f67326a-1664-406f-9978-902e013e2357","ios":"levelo://app?vid=6f67326a-1664-406f-9978-902e013e2357"},"vehicle_type_id":"4","last_reported":1703523977,"current_range_meters":14800,"station_id":"ce4bhs92rcd13ifvqi0g","pricing_plan_id":"free"},{"bike_id":"eba6867d-6d75-4354-b206-2059ecdc5071","system_id":"levelo_inurba_marseille","lat":43.328371,"lon":5.366909,"is_reserved":false,"is_disabled":false,"rental_uris":{"android":"levelo://app?vid=eba6867d-6d75-4354-b206-2059ecdc5071","ios":"levelo://app?vid=eba6867d-6d75-4354-b206-2059ecdc5071"},"vehicle_type_id":"4","last_reported":1703523977,"current_range_meters":10800,"station_id":"ce4bhs92rcd13ifvqi0g","pricing_plan_id":"free"},{"bike_id":"098d14f9-0ff6-4c3a-aca9-b52d7aa219f1","system_id":"levelo_inurba_marseille","lat":43.297163,"lon":5.365866,"is_reserved":false,"is_disabled":false,"rental_uris":{"android":"levelo://app?vid=098d14f9-0ff6-4c3a-aca9-b52d7aa219f1","ios":"levelo://app?vid=098d14f9-0ff6-4c3a-aca9-b52d7aa219f1"},"vehicle_type_id":"4","last_reported":1703523977,"current_range_meters":30400,"station_id":"ce4bgn12rcd13ifvqbt0","pricing_plan_id":"free"},{"bike_id":"0bb4153f-1504-485b-aa48-4570feec2be4","system_id":"levelo_inurba_marseille","lat":43.297163,"lon":5.365866,"is_reserved":false,"is_disabled":false,"rental_uris":{"android":"levelo://app?vid=0bb4153f-1504-485b-aa48-4570feec2be4","ios":"levelo://app?vid=0bb4153f-1504-485b-aa48-4570feec2be4"},"vehicle_type_id":"4","last_reported":1703523977,"current_range_meters":2400,"station_id":"ce4bgn12rcd13ifvqbt0","pricing_plan_id":"free"},{"bike_id":"a8e6e3d9-ce28-437e-9aa1-842db681aefa","system_id":"levelo_inurba_marseille","lat":43.2968,"lon":5.37291,"is_reserved":false,"is_disabled":false,"rental_uris":{"android":"levelo://app?vid=a8e6e3d9-ce28-437e-9aa1-842db681aefa","ios":"levelo://app?vid=a8e6e3d9-ce28-437e-9aa1-842db681aefa"},"vehicle_type_id":"4","last_reported":1703523977,"current_range_meters":22800,"station_id":"ce4bgk12rcd13ifvqbj0","pricing_plan_id":"free"},{"bike_id":"921b424d-ad0d-4c7a-9d74-66e3a49bfa19","system_id":"levelo_inurba_marseille","lat":43.32934,"lon":5.36612,"is_reserved":false,"is_disabled":false,"rental_uris":{"android":"levelo://app?vid=921b424d-ad0d-4c7a-9d74-66e3a49bfa19","ios":"levelo://app?vid=921b424d-ad0d-4c7a-9d74-66e3a49bfa19"},"vehicle_type_id":"4","last_reported":1703523977,"current_range_meters":24400,"station_id":"","pricing_plan_id":"free"},{"bike_id":"c4f67237-95e2-483b-8c3e-a34672fa5f5c","system_id":"levelo_inurba_marseille","lat":43.2968,"lon":5.37291,"is_reserved":false,"is_disabled":false,"rental_uris":{"android":"levelo://app?vid=c4f67237-95e2-483b-8c3e-a34672fa5f5c","ios":"levelo://app?vid=c4f67237-95e2-483b-8c3e-a34672fa5f5c"},"vehicle_type_id":"4","last_reported":1703523977,"current_range_meters":27200,"station_id":"ce4bgk12rcd13ifvqbj0","pricing_plan_id":"free"},{"bike_id":"a652687a-d58d-4d0f-bb1a-6214ca033a73","system_id":"levelo_inurba_marseille","lat":43.2968,"lon":5.37291,"is_reserved":false,"is_disabled":false,"rental_uris":{"android":"levelo://app?vid=a652687a-d58d-4d0f-bb1a-6214ca033a73","ios":"levelo://app?vid=a652687a-d58d-4d0f-bb1a-6214ca033a73"},"vehicle_type_id":"4","last_reported":1703523977,"current_range_meters":10400,"station_id":"ce4bgk12rcd13ifvqbj0","pricing_plan_id":"free"},{"bike_id":"4828c522-873b-470d-81eb-d3a2f24853da","system_id":"levelo_inurba_marseille","lat":43.296129,"lon":5.370777,"is_reserved":false,"is_disabled":false,"rental_uris":{"android":"levelo://app?vid=4828c522-873b-470d-81eb-d3a2f24853da","ios":"levelo://app?vid=4828c522-873b-470d-81eb-d3a2f24853da"},"vehicle_type_id":"4","last_reported":1703523977,"current_range_meters":28400,"station_id":"ce4bgnh2rcd13ifvqc0g","pricing_plan_id":"free"},{"bike_id":"8478c010-1d21-4be9-bb6a-dd0208a330a1","system_id":"levelo_inurba_marseille","lat":43.29573,"lon":5.367355,"is_reserved":false,"is_disabled":false,"rental_uris":{"android":"levelo://app?vid=8478c010-1d21-4be9-bb6a-dd0208a330a1","ios":"levelo://app?vid=8478c010-1d21-4be9-bb6a-dd0208a330a1"},"vehicle_type_id":"4","last_reported":1703523977,"current_range_meters":25200,"station_id":"ce4bgph2rcd13ifvqc2g","pricing_plan_id":"free"},{"bike_id":"06e957bd-df49-4d32-abc4-2e72cf631ab7","system_id":"levelo_inurba_marseille","lat":43.29573,"lon":5.367355,"is_reserved":false,"is_disabled":false,"rental_uris":{"android":"levelo://app?vid=06e957bd-df49-4d32-abc4-2e72cf631ab7","ios":"levelo://app?vid=06e957bd-df49-4d32-abc4-2e72cf631ab7"},"vehicle_type_id":"4","last_reported":1703523977,"current_range_meters":20000,"station_id":"ce4bgph2rcd13ifvqc2g","pricing_plan_id":"free"},{"bike_id":"168ff66e-d3f0-4405-8a42-4e492b51d94f","system_id":"levelo_inurba_marseille","lat":43.29573,"lon":5.367355,"is_reserved":false,"is_disabled":false,"rental_uris":{"android":"levelo://app?vid=168ff66e-d3f0-4405-8a42-4e492b51d94f","ios":"levelo://app?vid=168ff66e-d3f0-4405-8a42-4e492b51d94f"},"vehicle_type_id":"4","last_reported":1703523977,"current_range_meters":12400,"station_id":"ce4bgph2rcd13ifvqc2g","pricing_plan_id":"free"},{"bike_id":"3f0f0aad-3e04-4438-a015-faa76a0ab504","system_id":"levelo_inurba_marseille","lat":43.29573,"lon":5.367355,"is_reserved":false,"is_disabled":false,"rental_uris":{"android":"levelo://app?vid=3f0f0aad-3e04-4438-a015-faa76a0ab504","ios":"levelo://app?vid=3f0f0aad-3e04-4438-a015-faa76a0ab504"},"vehicle_type_id":"4","last_reported":1703523977,"current_range_meters":17200,"station_id":"ce4bgph2rcd13ifvqc2g","pricing_plan_id":"free"},{"bike_id":"671d3444-566c-4438-b7a2-d3fecd577f4f","system_id":"levelo_inurba_marseille","lat":43.29573,"lon":5.367355,"is_reserved":false,"is_disabled":false,"rental_uris":{"android":"levelo://app?vid=671d3444-566c-4438-b7a2-d3fecd577f4f","ios":"levelo://app?vid=671d3444-566c-4438-b7a2-d3fecd577f4f"},"vehicle_type_id":"4","last_reported":1703523977,"current_range_meters":6800,"station_id":"ce4bgph2rcd13ifvqc2g","pricing_plan_id":"free"},{"bike_id":"887b29a9-b28d-4343-bd08-f302b619aa86","system_id":"levelo_inurba_marseille","lat":43.29711,"lon":5.37668,"is_reserved":false,"is_disabled":false,"rental_uris":{"android":"levelo://app?vid=887b29a9-b28d-4343-bd08-f302b619aa86","ios":"levelo://app?vid=887b29a9-b28d-4343-bd08-f302b619aa86"},"vehicle_type_id":"4","last_reported":1703523977,"current_range_meters":10800,"station_id":"ce4bgkh2rcd13ifvqbl0","pricing_plan_id":"free"},{"bike_id":"98edab5e-aa28-474b-8bfb-082bc7ff09cf","system_id":"levelo_inurba_marseille","lat":43.309589,"lon":5.390258,"is_reserved":false,"is_disabled":false,"rental_uris":{"android":"levelo://app?vid=98edab5e-aa28-474b-8bfb-082bc7ff09cf","ios":"levelo://app?vid=98edab5e-aa28-474b-8bfb-082bc7ff09cf"},"vehicle_type_id":"4","last_reported":1703523977,"current_range_meters":20800,"station_id":"ce4bgup2rcd13ifvqco0","pricing_plan_id":"free"},{"bike_id":"b090850e-5105-40fa-9bdb-7e142ad51288","system_id":"levelo_inurba_marseille","lat":43.29707,"lon":5.37696,"is_reserved":false,"is_disabled":false,"rental_uris":{"android":"levelo://app?vid=b090850e-5105-40fa-9bdb-7e142ad51288","ios":"levelo://app?vid=b090850e-5105-40fa-9bdb-7e142ad51288"},"vehicle_type_id":"4","last_reported":1703523977,"current_range_meters":0,"station_id":"ce4bgkh2rcd13ifvqbl0","pricing_plan_id":"free"},{"bike_id":"506b2531-968e-48c0-968a-4013ec46a47d","system_id":"levelo_inurba_marseille","lat":43.299028,"lon":5.381509,"is_reserved":false,"is_disabled":false,"rental_uris":{"android":"levelo://app?vid=506b2531-968e-48c0-968a-4013ec46a47d","ios":"levelo://app?vid=506b2531-968e-48c0-968a-4013ec46a47d"},"vehicle_type_id":"4","last_reported":1703523977,"current_range_meters":21600,"station_id":"ce4bgj12rcd13ifvqbc0","pricing_plan_id":"free"},{"bike_id":"5e260a01-66aa-427a-b163-23558f45cc9e","system_id":"levelo_inurba_marseille","lat":43.299047,"lon":5.381509,"is_reserved":false,"is_disabled":false,"rental_uris":{"android":"levelo://app?vid=5e260a01-66aa-427a-b163-23558f45cc9e","ios":"levelo://app?vid=5e260a01-66aa-427a-b163-23558f45cc9e"},"vehicle_type_id":"4","last_reported":1703523977,"current_range_meters":31200,"station_id":"ce4bgj12rcd13ifvqbc0","pricing_plan_id":"free"},{"bike_id":"17cc0b98-d890-4054-b8af-b9948e7f4e3c","system_id":"levelo_inurba_marseille","lat":43.309589,"lon":5.390258,"is_reserved":false,"is_disabled":false,"rental_uris":{"android":"levelo://app?vid=17cc0b98-d890-4054-b8af-b9948e7f4e3c","ios":"levelo://app?vid=17cc0b98-d890-4054-b8af-b9948e7f4e3c"},"vehicle_type_id":"4","last_reported":1703523977,"current_range_meters":26800,"station_id":"ce4bgup2rcd13ifvqco0","pricing_plan_id":"free"},{"bike_id":"832e2173-c8ed-4c6f-a3b2-146af632aa3e","system_id":"levelo_inurba_marseille","lat":43.299028,"lon":5.381509,"is_reserved":false,"is_disabled":false,"rental_uris":{"android":"levelo://app?vid=832e2173-c8ed-4c6f-a3b2-146af632aa3e","ios":"levelo://app?vid=832e2173-c8ed-4c6f-a3b2-146af632aa3e"},"vehicle_type_id":"4","last_reported":1703523977,"current_range_meters":31200,"station_id":"ce4bgj12rcd13ifvqbc0","pricing_plan_id":"free"},{"bike_id":"90d9cf58-1dc5-4d8a-824f-802a3b33bbc1","system_id":"levelo_inurba_marseille","lat":43.317619,"lon":5.390141,"is_reserved":false,"is_disabled":false,"rental_uris":{"android":"levelo://app?vid=90d9cf58-1dc5-4d8a-824f-802a3b33bbc1","ios":"levelo://app?vid=90d9cf58-1dc5-4d8a-824f-802a3b33bbc1"},"vehicle_type_id":"4","last_reported":1703523977,"current_range_meters":29200,"station_id":"ce4bhqp2rcd13ifvqhng","pricing_plan_id":"free"},{"bike_id":"7d707291-7ce0-4206-ab51-d38fc2436b5b","system_id":"levelo_inurba_marseille","lat":43.298095,"lon":5.38086,"is_reserved":false,"is_disabled":false,"rental_uris":{"android":"levelo://app?vid=7d707291-7ce0-4206-ab51-d38fc2436b5b","ios":"levelo://app?vid=7d707291-7ce0-4206-ab51-d38fc2436b5b"},"vehicle_type_id":"4","last_reported":1703523977,"current_range_meters":31200,"station_id":"ce4bgip2rcd13ifvqbb0","pricing_plan_id":"free"},{"bike_id":"ddcd3e06-ed30-4cd5-9587-9ed88d456aa5","system_id":"levelo_inurba_marseille","lat":43.29806,"lon":5.38092,"is_reserved":false,"is_disabled":false,"rental_uris":{"android":"levelo://app?vid=ddcd3e06-ed30-4cd5-9587-9ed88d456aa5","ios":"levelo://app?vid=ddcd3e06-ed30-4cd5-9587-9ed88d456aa5"},"vehicle_type_id":"4","last_reported":1703523977,"current_range_meters":29200,"station_id":"ce4bgip2rcd13ifvqbb0","pricing_plan_id":"free"},{"bike_id":"e1aba21d-e1b8-4801-9800-c20d9c090050","system_id":"levelo_inurba_marseille","lat":43.296277,"lon":5.377108,"is_reserved":false,"is_disabled":false,"rental_uris":{"android":"levelo://app?vid=e1aba21d-e1b8-4801-9800-c20d9c090050","ios":"levelo://app?vid=e1aba21d-e1b8-4801-9800-c20d9c090050"},"vehicle_type_id":"4","last_reported":1703523977,"current_range_meters":17600,"station_id":"ce4bgi92rcd13ifvqb90","pricing_plan_id":"free"},{"bike_id":"b48ab94e-b23a-4823-b16a-673ffe10d5d0","system_id":"levelo_inurba_marseille","lat":43.304278,"lon":5.388868,"is_reserved":false,"is_disabled":false,"rental_uris":{"android":"levelo://app?vid=b48ab94e-b23a-4823-b16a-673ffe10d5d0","ios":"levelo://app?vid=b48ab94e-b23a-4823-b16a-673ffe10d5d0"},"vehicle_type_id":"4","last_reported":1703523977,"current_range_meters":15200,"station_id":"ce4bgk12rcd13ifvqbi0","pricing_plan_id":"free"},{"bike_id":"e6d21323-0b9d-4352-b997-2c4789ffbca4","system_id":"levelo_inurba_marseille","lat":43.296277,"lon":5.377108,"is_reserved":false,"is_disabled":false,"rental_uris":{"android":"levelo://app?vid=e6d21323-0b9d-4352-b997-2c4789ffbca4","ios":"levelo://app?vid=e6d21323-0b9d-4352-b997-2c4789ffbca4"},"vehicle_type_id":"4","last_reported":1703523977,"current_range_meters":9600,"station_id":"ce4bgi92rcd13ifvqb90","pricing_plan_id":"free"},{"bike_id":"a3b57ccb-dcbf-4531-ba0a-d20f84c541dc","system_id":"levelo_inurba_marseille","lat":43.29616,"lon":5.37719,"is_reserved":false,"is_disabled":false,"rental_uris":{"android":"levelo://app?vid=a3b57ccb-dcbf-4531-ba0a-d20f84c541dc","ios":"levelo://app?vid=a3b57ccb-dcbf-4531-ba0a-d20f84c541dc"},"vehicle_type_id":"4","last_reported":1703523977,"current_range_meters":9200,"station_id":"ce4bgi92rcd13ifvqb90","pricing_plan_id":"free"},{"bike_id":"f709a0d3-de95-4c5a-be4f-40b27519dd22","system_id":"levelo_inurba_marseille","lat":43.296263,"lon":5.377094,"is_reserved":false,"is_disabled":false,"rental_uris":{"android":"levelo://app?vid=f709a0d3-de95-4c5a-be4f-40b27519dd22","ios":"levelo://app?vid=f709a0d3-de95-4c5a-be4f-40b27519dd22"},"vehicle_type_id":"4","last_reported":1703523977,"current_range_meters":28000,"station_id":"ce4bgi92rcd13ifvqb90","pricing_plan_id":"free"},{"bike_id":"d0d1b1b2-de20-414c-b53c-fd97b584cfeb","system_id":"levelo_inurba_marseille","lat":43.29613,"lon":5.37718,"is_reserved":false,"is_disabled":false,"rental_uris":{"android":"levelo://app?vid=d0d1b1b2-de20-414c-b53c-fd97b584cfeb","ios":"levelo://app?vid=d0d1b1b2-de20-414c-b53c-fd97b584cfeb"},"vehicle_type_id":"4","last_reported":1703523977,"current_range_meters":13600,"station_id":"ce4bgi92rcd13ifvqb90","pricing_plan_id":"free"},{"bike_id":"e39c1668-4d91-4912-ae74-1ca645501574","system_id":"levelo_inurba_marseille","lat":43.296277,"lon":5.377108,"is_reserved":false,"is_disabled":false,"rental_uris":{"android":"levelo://app?vid=e39c1668-4d91-4912-ae74-1ca645501574","ios":"levelo://app?vid=e39c1668-4d91-4912-ae74-1ca645501574"},"vehicle_type_id":"4","last_reported":1703523977,"current_range_meters":23200,"station_id":"ce4bgi92rcd13ifvqb90","pricing_plan_id":"free"},{"bike_id":"263aaf91-c7ab-4d06-bd76-3d523fd01cf8","system_id":"levelo_inurba_marseille","lat":43.296277,"lon":5.377108,"is_reserved":false,"is_disabled":false,"rental_uris":{"android":"levelo://app?vid=263aaf91-c7ab-4d06-bd76-3d523fd01cf8","ios":"levelo://app?vid=263aaf91-c7ab-4d06-bd76-3d523fd01cf8"},"vehicle_type_id":"4","last_reported":1703523977,"current_range_meters":28800,"station_id":"ce4bgi92rcd13ifvqb90","pricing_plan_id":"free"},{"bike_id":"ee20e05d-a5ba-4c3e-9897-220e380196be","system_id":"levelo_inurba_marseille","lat":43.29602,"lon":5.37721,"is_reserved":false,"is_disabled":false,"rental_uris":{"android":"levelo://app?vid=ee20e05d-a5ba-4c3e-9897-220e380196be","ios":"levelo://app?vid=ee20e05d-a5ba-4c3e-9897-220e380196be"},"vehicle_type_id":"4","last_reported":1703523977,"current_range_meters":2800,"station_id":"ce4bgi92rcd13ifvqb90","pricing_plan_id":"free"},{"bike_id":"fcdcdf24-8071-4bfa-9346-d2605e7cb4a0","system_id":"levelo_inurba_marseille","lat":43.299717,"lon":5.384845,"is_reserved":false,"is_disabled":false,"rental_uris":{"android":"levelo://app?vid=fcdcdf24-8071-4bfa-9346-d2605e7cb4a0","ios":"levelo://app?vid=fcdcdf24-8071-4bfa-9346-d2605e7cb4a0"},"vehicle_type_id":"4","last_reported":1703523977,"current_range_meters":7600,"station_id":"ce4bgj92rcd13ifvqbd0","pricing_plan_id":"free"},{"bike_id":"41732681-9b02-4143-b56e-8541f8eade60","system_id":"levelo_inurba_marseille","lat":43.295279,"lon":5.375048,"is_reserved":false,"is_disabled":false,"rental_uris":{"android":"levelo://app?vid=41732681-9b02-4143-b56e-8541f8eade60","ios":"levelo://app?vid=41732681-9b02-4143-b56e-8541f8eade60"},"vehicle_type_id":"4","last_reported":1703523977,"current_range_meters":11200,"station_id":"ce4bgkp2rcd13ifvqbmg","pricing_plan_id":"free"},{"bike_id":"efe35a27-9372-4971-a7bd-efa498509817","system_id":"levelo_inurba_marseille","lat":43.295279,"lon":5.375048,"is_reserved":false,"is_disabled":false,"rental_uris":{"android":"levelo://app?vid=efe35a27-9372-4971-a7bd-efa498509817","ios":"levelo://app?vid=efe35a27-9372-4971-a7bd-efa498509817"},"vehicle_type_id":"4","last_reported":1703523977,"current_range_meters":30000,"station_id":"ce4bgkp2rcd13ifvqbmg","pricing_plan_id":"free"},{"bike_id":"40efda5d-5fd2-4468-b5ae-a9dd62a1439a","system_id":"levelo_inurba_marseille","lat":43.299724,"lon":5.384848,"is_reserved":false,"is_disabled":false,"rental_uris":{"android":"levelo://app?vid=40efda5d-5fd2-4468-b5ae-a9dd62a1439a","ios":"levelo://app?vid=40efda5d-5fd2-4468-b5ae-a9dd62a1439a"},"vehicle_type_id":"4","last_reported":1703523977,"current_range_meters":27200,"station_id":"ce4bgj92rcd13ifvqbd0","pricing_plan_id":"free"},{"bike_id":"f0f12ac5-1666-4a3a-a9a8-494990a6c085","system_id":"levelo_inurba_marseille","lat":43.32367,"lon":5.388836,"is_reserved":false,"is_disabled":false,"rental_uris":{"android":"levelo://app?vid=f0f12ac5-1666-4a3a-a9a8-494990a6c085","ios":"levelo://app?vid=f0f12ac5-1666-4a3a-a9a8-494990a6c085"},"vehicle_type_id":"4","last_reported":1703523977,"current_range_meters":20400,"station_id":"ce4bhqp2rcd13ifvqhog","pricing_plan_id":"free"},{"bike_id":"f872aac9-19a0-4553-a759-978e1fa70c81","system_id":"levelo_inurba_marseille","lat":43.29602,"lon":5.381084,"is_reserved":false,"is_disabled":false,"rental_uris":{"android":"levelo://app?vid=f872aac9-19a0-4553-a759-978e1fa70c81","ios":"levelo://app?vid=f872aac9-19a0-4553-a759-978e1fa70c81"},"vehicle_type_id":"4","last_reported":1703523977,"current_range_meters":30000,"station_id":"ce4bgl12rcd13ifvqbo0","pricing_plan_id":"free"},{"bike_id":"1f9f1f72-a0fc-4029-9770-d238c0d16ecb","system_id":"levelo_inurba_marseille","lat":43.29602,"lon":5.381084,"is_reserved":false,"is_disabled":false,"rental_uris":{"android":"levelo://app?vid=1f9f1f72-a0fc-4029-9770-d238c0d16ecb","ios":"levelo://app?vid=1f9f1f72-a0fc-4029-9770-d238c0d16ecb"},"vehicle_type_id":"4","last_reported":1703523977,"current_range_meters":25600,"station_id":"ce4bgl12rcd13ifvqbo0","pricing_plan_id":"free"},{"bike_id":"030d2fa3-310b-4963-800f-1cf053b25b8d","system_id":"levelo_inurba_marseille","lat":43.292749,"lon":5.368402,"is_reserved":false,"is_disabled":false,"rental_uris":{"android":"levelo://app?vid=030d2fa3-310b-4963-800f-1cf053b25b8d","ios":"levelo://app?vid=030d2fa3-310b-4963-800f-1cf053b25b8d"},"vehicle_type_id":"4","last_reported":1703523977,"current_range_meters":400,"station_id":"ce4bhbp2rcd13ifvqesg","pricing_plan_id":"free"},{"bike_id":"66090169-56d0-4327-ac4a-5a0739ff15e9","system_id":"levelo_inurba_marseille","lat":43.292749,"lon":5.368402,"is_reserved":false,"is_disabled":false,"rental_uris":{"android":"levelo://app?vid=66090169-56d0-4327-ac4a-5a0739ff15e9","ios":"levelo://app?vid=66090169-56d0-4327-ac4a-5a0739ff15e9"},"vehicle_type_id":"4","last_reported":1703523977,"current_range_meters":15200,"station_id":"ce4bhbp2rcd13ifvqesg","pricing_plan_id":"free"},{"bike_id":"4d2763b8-5236-4d36-a485-5522b1a59298","system_id":"levelo_inurba_marseille","lat":43.292311,"lon":5.360731,"is_reserved":false,"is_disabled":false,"rental_uris":{"android":"levelo://app?vid=4d2763b8-5236-4d36-a485-5522b1a59298","ios":"levelo://app?vid=4d2763b8-5236-4d36-a485-5522b1a59298"},"vehicle_type_id":"4","last_reported":1703523977,"current_range_meters":13600,"station_id":"ce4bhbh2rcd13ifvqeqg","pricing_plan_id":"free"},{"bike_id":"06bd850f-eb79-4fca-bf70-822288b6fc83","system_id":"levelo_inurba_marseille","lat":43.292749,"lon":5.368402,"is_reserved":false,"is_disabled":false,"rental_uris":{"android":"levelo://app?vid=06bd850f-eb79-4fca-bf70-822288b6fc83","ios":"levelo://app?vid=06bd850f-eb79-4fca-bf70-822288b6fc83"},"vehicle_type_id":"4","last_reported":1703523977,"current_range_meters":7600,"station_id":"ce4bhbp2rcd13ifvqesg","pricing_plan_id":"free"},{"bike_id":"869220c2-3c4d-42bd-8111-6adec3acca9a","system_id":"levelo_inurba_marseille","lat":43.305994,"lon":5.393687,"is_reserved":false,"is_disabled":false,"rental_uris":{"android":"levelo://app?vid=869220c2-3c4d-42bd-8111-6adec3acca9a","ios":"levelo://app?vid=869220c2-3c4d-42bd-8111-6adec3acca9a"},"vehicle_type_id":"4","last_reported":1703523977,"current_range_meters":5200,"station_id":"ce4bh0p2rcd13ifvqd80","pricing_plan_id":"free"},{"bike_id":"2b4e5145-ee80-4c3a-9dab-2707092b6028","system_id":"levelo_inurba_marseille","lat":43.293009,"lon":5.374584,"is_reserved":false,"is_disabled":false,"rental_uris":{"android":"levelo://app?vid=2b4e5145-ee80-4c3a-9dab-2707092b6028","ios":"levelo://app?vid=2b4e5145-ee80-4c3a-9dab-2707092b6028"},"vehicle_type_id":"4","last_reported":1703523977,"current_range_meters":16400,"station_id":"ce4bgi12rcd13ifvqb70","pricing_plan_id":"free"},{"bike_id":"3667dbb8-1220-40b3-875d-999e8aa588d9","system_id":"levelo_inurba_marseille","lat":43.29296,"lon":5.3744,"is_reserved":false,"is_disabled":false,"rental_uris":{"android":"levelo://app?vid=3667dbb8-1220-40b3-875d-999e8aa588d9","ios":"levelo://app?vid=3667dbb8-1220-40b3-875d-999e8aa588d9"},"vehicle_type_id":"4","last_reported":1703523977,"current_range_meters":24800,"station_id":"ce4bgi12rcd13ifvqb70","pricing_plan_id":"free"},{"bike_id":"eda74946-bd25-4ef1-af95-db839904e5a1","system_id":"levelo_inurba_marseille","lat":43.303002,"lon":5.392142,"is_reserved":false,"is_disabled":false,"rental_uris":{"android":"levelo://app?vid=eda74946-bd25-4ef1-af95-db839904e5a1","ios":"levelo://app?vid=eda74946-bd25-4ef1-af95-db839904e5a1"},"vehicle_type_id":"4","last_reported":1703523977,"current_range_meters":25600,"station_id":"ce4bgkh2rcd13ifvqbk0","pricing_plan_id":"free"},{"bike_id":"92f47b03-2c97-47d6-901f-e2a2f16dd002","system_id":"levelo_inurba_marseille","lat":43.2936,"lon":5.37835,"is_reserved":false,"is_disabled":false,"rental_uris":{"android":"levelo://app?vid=92f47b03-2c97-47d6-901f-e2a2f16dd002","ios":"levelo://app?vid=92f47b03-2c97-47d6-901f-e2a2f16dd002"},"vehicle_type_id":"4","last_reported":1703523977,"current_range_meters":16400,"station_id":"ce4bgjh2rcd13ifvqbf0","pricing_plan_id":"free"},{"bike_id":"959f5c07-5507-4fe6-a9df-8eb0e8e13168","system_id":"levelo_inurba_marseille","lat":43.303002,"lon":5.392142,"is_reserved":false,"is_disabled":false,"rental_uris":{"android":"levelo://app?vid=959f5c07-5507-4fe6-a9df-8eb0e8e13168","ios":"levelo://app?vid=959f5c07-5507-4fe6-a9df-8eb0e8e13168"},"vehicle_type_id":"4","last_reported":1703523977,"current_range_meters":3200,"station_id":"ce4bgkh2rcd13ifvqbk0","pricing_plan_id":"free"},{"bike_id":"51d8106f-b4f0-44ed-b54d-8d59c81acf35","system_id":"levelo_inurba_marseille","lat":43.303002,"lon":5.392142,"is_reserved":false,"is_disabled":false,"rental_uris":{"android":"levelo://app?vid=51d8106f-b4f0-44ed-b54d-8d59c81acf35","ios":"levelo://app?vid=51d8106f-b4f0-44ed-b54d-8d59c81acf35"},"vehicle_type_id":"4","last_reported":1703523977,"current_range_meters":1200,"station_id":"ce4bgkh2rcd13ifvqbk0","pricing_plan_id":"free"},{"bike_id":"49b7dd79-3d88-4a2f-b6e2-4062343ebea3","system_id":"levelo_inurba_marseille","lat":43.2936,"lon":5.37835,"is_reserved":false,"is_disabled":false,"rental_uris":{"android":"levelo://app?vid=49b7dd79-3d88-4a2f-b6e2-4062343ebea3","ios":"levelo://app?vid=49b7dd79-3d88-4a2f-b6e2-4062343ebea3"},"vehicle_type_id":"4","last_reported":1703523977,"current_range_meters":6800,"station_id":"ce4bgjh2rcd13ifvqbf0","pricing_plan_id":"free"},{"bike_id":"0b87f915-612f-4eb1-b708-173086f5daa7","system_id":"levelo_inurba_marseille","lat":43.2936,"lon":5.37835,"is_reserved":false,"is_disabled":false,"rental_uris":{"android":"levelo://app?vid=0b87f915-612f-4eb1-b708-173086f5daa7","ios":"levelo://app?vid=0b87f915-612f-4eb1-b708-173086f5daa7"},"vehicle_type_id":"4","last_reported":1703523977,"current_range_meters":28800,"station_id":"ce4bgjh2rcd13ifvqbf0","pricing_plan_id":"free"},{"bike_id":"f96d04ca-0caa-4070-be0d-6deb29de79c9","system_id":"levelo_inurba_marseille","lat":43.2936,"lon":5.37835,"is_reserved":false,"is_disabled":false,"rental_uris":{"android":"levelo://app?vid=f96d04ca-0caa-4070-be0d-6deb29de79c9","ios":"levelo://app?vid=f96d04ca-0caa-4070-be0d-6deb29de79c9"},"vehicle_type_id":"4","last_reported":1703523977,"current_range_meters":27600,"station_id":"ce4bgjh2rcd13ifvqbf0","pricing_plan_id":"free"},{"bike_id":"08d469d9-b1c9-48bb-9a15-0ab488b0385f","system_id":"levelo_inurba_marseille","lat":43.2936,"lon":5.37835,"is_reserved":false,"is_disabled":false,"rental_uris":{"android":"levelo://app?vid=08d469d9-b1c9-48bb-9a15-0ab488b0385f","ios":"levelo://app?vid=08d469d9-b1c9-48bb-9a15-0ab488b0385f"},"vehicle_type_id":"4","last_reported":1703523977,"current_range_meters":27600,"station_id":"ce4bgjh2rcd13ifvqbf0","pricing_plan_id":"free"},{"bike_id":"f91cad2e-25f9-4ad9-aff9-d7c9be985c69","system_id":"levelo_inurba_marseille","lat":43.2936,"lon":5.37835,"is_reserved":false,"is_disabled":false,"rental_uris":{"android":"levelo://app?vid=f91cad2e-25f9-4ad9-aff9-d7c9be985c69","ios":"levelo://app?vid=f91cad2e-25f9-4ad9-aff9-d7c9be985c69"},"vehicle_type_id":"4","last_reported":1703523977,"current_range_meters":22000,"station_id":"ce4bgjh2rcd13ifvqbf0","pricing_plan_id":"free"},{"bike_id":"71634296-c8ee-4d85-9410-35340e19d460","system_id":"levelo_inurba_marseille","lat":43.300852,"lon":5.390859,"is_reserved":false,"is_disabled":false,"rental_uris":{"android":"levelo://app?vid=71634296-c8ee-4d85-9410-35340e19d460","ios":"levelo://app?vid=71634296-c8ee-4d85-9410-35340e19d460"},"vehicle_type_id":"4","last_reported":1703523977,"current_range_meters":30400,"station_id":"ce4bh192rcd13ifvqdb0","pricing_plan_id":"free"},{"bike_id":"d8849233-8dc7-4818-8711-b19bbe612b97","system_id":"levelo_inurba_marseille","lat":43.2936,"lon":5.37835,"is_reserved":false,"is_disabled":false,"rental_uris":{"android":"levelo://app?vid=d8849233-8dc7-4818-8711-b19bbe612b97","ios":"levelo://app?vid=d8849233-8dc7-4818-8711-b19bbe612b97"},"vehicle_type_id":"4","last_reported":1703523977,"current_range_meters":31200,"station_id":"ce4bgjh2rcd13ifvqbf0","pricing_plan_id":"free"},{"bike_id":"9cdd4d54-1f83-4598-bf2c-8d1a82d18eb6","system_id":"levelo_inurba_marseille","lat":43.300852,"lon":5.390859,"is_reserved":false,"is_disabled":false,"rental_uris":{"android":"levelo://app?vid=9cdd4d54-1f83-4598-bf2c-8d1a82d18eb6","ios":"levelo://app?vid=9cdd4d54-1f83-4598-bf2c-8d1a82d18eb6"},"vehicle_type_id":"4","last_reported":1703523977,"current_range_meters":7600,"station_id":"ce4bh192rcd13ifvqdb0","pricing_plan_id":"free"},{"bike_id":"c2ede81f-1b07-4dbb-a330-68523034310e","system_id":"levelo_inurba_marseille","lat":43.29169,"lon":5.371549,"is_reserved":false,"is_disabled":false,"rental_uris":{"android":"levelo://app?vid=c2ede81f-1b07-4dbb-a330-68523034310e","ios":"levelo://app?vid=c2ede81f-1b07-4dbb-a330-68523034310e"},"vehicle_type_id":"4","last_reported":1703523977,"current_range_meters":22400,"station_id":"ce4bha92rcd13ifvqeh0","pricing_plan_id":"free"},{"bike_id":"b64c1f66-58c7-4b29-9f19-9395fcdaef8e","system_id":"levelo_inurba_marseille","lat":43.298693,"lon":5.389036,"is_reserved":false,"is_disabled":false,"rental_uris":{"android":"levelo://app?vid=b64c1f66-58c7-4b29-9f19-9395fcdaef8e","ios":"levelo://app?vid=b64c1f66-58c7-4b29-9f19-9395fcdaef8e"},"vehicle_type_id":"4","last_reported":1703523977,"current_range_meters":12000,"station_id":"","pricing_plan_id":"free"},{"bike_id":"89bf1791-be67-48fb-ac43-0d7cb962ae97","system_id":"levelo_inurba_marseille","lat":43.313291,"lon":5.396838,"is_reserved":false,"is_disabled":false,"rental_uris":{"android":"levelo://app?vid=89bf1791-be67-48fb-ac43-0d7cb962ae97","ios":"levelo://app?vid=89bf1791-be67-48fb-ac43-0d7cb962ae97"},"vehicle_type_id":"4","last_reported":1703523977,"current_range_meters":17200,"station_id":"ce4bgvp2rcd13ifvqcu0","pricing_plan_id":"free"},{"bike_id":"3b6a2954-e5f3-459d-a612-236a61fd8a06","system_id":"levelo_inurba_marseille","lat":43.313291,"lon":5.396838,"is_reserved":false,"is_disabled":false,"rental_uris":{"android":"levelo://app?vid=3b6a2954-e5f3-459d-a612-236a61fd8a06","ios":"levelo://app?vid=3b6a2954-e5f3-459d-a612-236a61fd8a06"},"vehicle_type_id":"4","last_reported":1703523977,"current_range_meters":31200,"station_id":"ce4bgvp2rcd13ifvqcu0","pricing_plan_id":"free"},{"bike_id":"2050bbd9-9ea3-4674-a01e-c5ff6f9b8ab7","system_id":"levelo_inurba_marseille","lat":43.313291,"lon":5.396838,"is_reserved":false,"is_disabled":false,"rental_uris":{"android":"levelo://app?vid=2050bbd9-9ea3-4674-a01e-c5ff6f9b8ab7","ios":"levelo://app?vid=2050bbd9-9ea3-4674-a01e-c5ff6f9b8ab7"},"vehicle_type_id":"4","last_reported":1703523977,"current_range_meters":13600,"station_id":"ce4bgvp2rcd13ifvqcu0","pricing_plan_id":"free"},{"bike_id":"40ccd2b3-40be-4112-a24b-78c581c9abf0","system_id":"levelo_inurba_marseille","lat":43.29529,"lon":5.385581,"is_reserved":false,"is_disabled":false,"rental_uris":{"android":"levelo://app?vid=40ccd2b3-40be-4112-a24b-78c581c9abf0","ios":"levelo://app?vid=40ccd2b3-40be-4112-a24b-78c581c9abf0"},"vehicle_type_id":"4","last_reported":1703523977,"current_range_meters":27600,"station_id":"ce4bgih2rcd13ifvqba0","pricing_plan_id":"free"},{"bike_id":"8c999067-d3cf-40dc-b3a2-035212af8199","system_id":"levelo_inurba_marseille","lat":43.29529,"lon":5.385581,"is_reserved":false,"is_disabled":false,"rental_uris":{"android":"levelo://app?vid=8c999067-d3cf-40dc-b3a2-035212af8199","ios":"levelo://app?vid=8c999067-d3cf-40dc-b3a2-035212af8199"},"vehicle_type_id":"4","last_reported":1703523977,"current_range_meters":29600,"station_id":"ce4bgih2rcd13ifvqba0","pricing_plan_id":"free"},{"bike_id":"74dade8c-a68e-4638-92da-28687af78ded","system_id":"levelo_inurba_marseille","lat":43.29529,"lon":5.385581,"is_reserved":false,"is_disabled":false,"rental_uris":{"android":"levelo://app?vid=74dade8c-a68e-4638-92da-28687af78ded","ios":"levelo://app?vid=74dade8c-a68e-4638-92da-28687af78ded"},"vehicle_type_id":"4","last_reported":1703523977,"current_range_meters":27200,"station_id":"ce4bgih2rcd13ifvqba0","pricing_plan_id":"free"},{"bike_id":"81913b3c-2064-4217-a2d0-4a7e4ac1675b","system_id":"levelo_inurba_marseille","lat":43.290779,"lon":5.371482,"is_reserved":false,"is_disabled":false,"rental_uris":{"android":"levelo://app?vid=81913b3c-2064-4217-a2d0-4a7e4ac1675b","ios":"levelo://app?vid=81913b3c-2064-4217-a2d0-4a7e4ac1675b"},"vehicle_type_id":"4","last_reported":1703523977,"current_range_meters":26400,"station_id":"ce4bh5p2rcd13ifvqe4g","pricing_plan_id":"free"},{"bike_id":"62bf6474-2f5b-467a-9de4-44c81cb637ee","system_id":"levelo_inurba_marseille","lat":43.289184,"lon":5.366408,"is_reserved":false,"is_disabled":false,"rental_uris":{"android":"levelo://app?vid=62bf6474-2f5b-467a-9de4-44c81cb637ee","ios":"levelo://app?vid=62bf6474-2f5b-467a-9de4-44c81cb637ee"},"vehicle_type_id":"4","last_reported":1703523977,"current_range_meters":31600,"station_id":"ce4bhap2rcd13ifvqek0","pricing_plan_id":"free"},{"bike_id":"d2ac1886-0057-4e06-8bf6-545275773e70","system_id":"levelo_inurba_marseille","lat":43.294162,"lon":5.386292,"is_reserved":false,"is_disabled":false,"rental_uris":{"android":"levelo://app?vid=d2ac1886-0057-4e06-8bf6-545275773e70","ios":"levelo://app?vid=d2ac1886-0057-4e06-8bf6-545275773e70"},"vehicle_type_id":"4","last_reported":1703523977,"current_range_meters":28000,"station_id":"ce4bh2h2rcd13ifvqdh0","pricing_plan_id":"free"},{"bike_id":"97ba2e97-6116-4a29-ba9d-47a0f6dd5782","system_id":"levelo_inurba_marseille","lat":43.289184,"lon":5.366408,"is_reserved":false,"is_disabled":false,"rental_uris":{"android":"levelo://app?vid=97ba2e97-6116-4a29-ba9d-47a0f6dd5782","ios":"levelo://app?vid=97ba2e97-6116-4a29-ba9d-47a0f6dd5782"},"vehicle_type_id":"4","last_reported":1703523977,"current_range_meters":800,"station_id":"ce4bhap2rcd13ifvqek0","pricing_plan_id":"free"},{"bike_id":"234d0f32-c8f0-4e65-8b43-29df15b6e85f","system_id":"levelo_inurba_marseille","lat":43.294162,"lon":5.386292,"is_reserved":false,"is_disabled":false,"rental_uris":{"android":"levelo://app?vid=234d0f32-c8f0-4e65-8b43-29df15b6e85f","ios":"levelo://app?vid=234d0f32-c8f0-4e65-8b43-29df15b6e85f"},"vehicle_type_id":"4","last_reported":1703523977,"current_range_meters":30800,"station_id":"ce4bh2h2rcd13ifvqdh0","pricing_plan_id":"free"},{"bike_id":"b62d23c3-441d-42b9-b2e5-56ac2b43c64f","system_id":"levelo_inurba_marseille","lat":43.289184,"lon":5.366408,"is_reserved":false,"is_disabled":false,"rental_uris":{"android":"levelo://app?vid=b62d23c3-441d-42b9-b2e5-56ac2b43c64f","ios":"levelo://app?vid=b62d23c3-441d-42b9-b2e5-56ac2b43c64f"},"vehicle_type_id":"4","last_reported":1703523977,"current_range_meters":8400,"station_id":"ce4bhap2rcd13ifvqek0","pricing_plan_id":"free"},{"bike_id":"e314fbaf-5475-4566-b435-962c94bd6869","system_id":"levelo_inurba_marseille","lat":43.304274,"lon":5.397513,"is_reserved":false,"is_disabled":false,"rental_uris":{"android":"levelo://app?vid=e314fbaf-5475-4566-b435-962c94bd6869","ios":"levelo://app?vid=e314fbaf-5475-4566-b435-962c94bd6869"},"vehicle_type_id":"4","last_reported":1703523977,"current_range_meters":17200,"station_id":"ce4bh092rcd13ifvqd20","pricing_plan_id":"free"},{"bike_id":"de271d97-325c-4951-9c1f-465587c24656","system_id":"levelo_inurba_marseille","lat":43.30433,"lon":5.397466,"is_reserved":false,"is_disabled":false,"rental_uris":{"android":"levelo://app?vid=de271d97-325c-4951-9c1f-465587c24656","ios":"levelo://app?vid=de271d97-325c-4951-9c1f-465587c24656"},"vehicle_type_id":"4","last_reported":1703523977,"current_range_meters":31200,"station_id":"ce4bh092rcd13ifvqd20","pricing_plan_id":"free"},{"bike_id":"a53fb760-b4f1-45c4-a9e8-30a05e9d0f74","system_id":"levelo_inurba_marseille","lat":43.292644,"lon":5.384257,"is_reserved":false,"is_disabled":false,"rental_uris":{"android":"levelo://app?vid=a53fb760-b4f1-45c4-a9e8-30a05e9d0f74","ios":"levelo://app?vid=a53fb760-b4f1-45c4-a9e8-30a05e9d0f74"},"vehicle_type_id":"4","last_reported":1703523977,"current_range_meters":27600,"station_id":"ce4bh692rcd13ifvqea0","pricing_plan_id":"free"},{"bike_id":"4a9183fb-63a7-4785-a7e9-3160295f2388","system_id":"levelo_inurba_marseille","lat":43.30429,"lon":5.39751,"is_reserved":false,"is_disabled":false,"rental_uris":{"android":"levelo://app?vid=4a9183fb-63a7-4785-a7e9-3160295f2388","ios":"levelo://app?vid=4a9183fb-63a7-4785-a7e9-3160295f2388"},"vehicle_type_id":"4","last_reported":1703523977,"current_range_meters":6800,"station_id":"ce4bh092rcd13ifvqd20","pricing_plan_id":"free"},{"bike_id":"bd632759-b17b-41a2-992c-13c5f14921de","system_id":"levelo_inurba_marseille","lat":43.292644,"lon":5.384257,"is_reserved":false,"is_disabled":false,"rental_uris":{"android":"levelo://app?vid=bd632759-b17b-41a2-992c-13c5f14921de","ios":"levelo://app?vid=bd632759-b17b-41a2-992c-13c5f14921de"},"vehicle_type_id":"4","last_reported":1703523977,"current_range_meters":12000,"station_id":"ce4bh692rcd13ifvqea0","pricing_plan_id":"free"},{"bike_id":"4ac28f22-dcba-4116-9e3b-a1e232acf836","system_id":"levelo_inurba_marseille","lat":43.290103,"lon":5.356114,"is_reserved":false,"is_disabled":false,"rental_uris":{"android":"levelo://app?vid=4ac28f22-dcba-4116-9e3b-a1e232acf836","ios":"levelo://app?vid=4ac28f22-dcba-4116-9e3b-a1e232acf836"},"vehicle_type_id":"4","last_reported":1703523977,"current_range_meters":0,"station_id":"ce4bhb92rcd13ifvqen0","pricing_plan_id":"free"},{"bike_id":"22313407-9d09-435f-b158-10ab3c8b5aa7","system_id":"levelo_inurba_marseille","lat":43.29786,"lon":5.3935,"is_reserved":false,"is_disabled":false,"rental_uris":{"android":"levelo://app?vid=22313407-9d09-435f-b158-10ab3c8b5aa7","ios":"levelo://app?vid=22313407-9d09-435f-b158-10ab3c8b5aa7"},"vehicle_type_id":"4","last_reported":1703523977,"current_range_meters":28800,"station_id":"chh1huq6cuj3fo74tm60","pricing_plan_id":"free"},{"bike_id":"5d1bde58-2c7b-438a-bd37-7bc100df62bf","system_id":"levelo_inurba_marseille","lat":43.33024,"lon":5.39037,"is_reserved":false,"is_disabled":false,"rental_uris":{"android":"levelo://app?vid=5d1bde58-2c7b-438a-bd37-7bc100df62bf","ios":"levelo://app?vid=5d1bde58-2c7b-438a-bd37-7bc100df62bf"},"vehicle_type_id":"4","last_reported":1703523977,"current_range_meters":16800,"station_id":"","pricing_plan_id":"free"},{"bike_id":"a01e8492-43df-4c15-87b4-86cf25f3ebdd","system_id":"levelo_inurba_marseille","lat":43.2901,"lon":5.381269,"is_reserved":false,"is_disabled":false,"rental_uris":{"android":"levelo://app?vid=a01e8492-43df-4c15-87b4-86cf25f3ebdd","ios":"levelo://app?vid=a01e8492-43df-4c15-87b4-86cf25f3ebdd"},"vehicle_type_id":"4","last_reported":1703523977,"current_range_meters":20400,"station_id":"ce4bh4p2rcd13ifvqe1g","pricing_plan_id":"free"},{"bike_id":"7244b12c-a4ed-4fcc-a53c-0222ae84e7e2","system_id":"levelo_inurba_marseille","lat":43.33119,"lon":5.38976,"is_reserved":false,"is_disabled":false,"rental_uris":{"android":"levelo://app?vid=7244b12c-a4ed-4fcc-a53c-0222ae84e7e2","ios":"levelo://app?vid=7244b12c-a4ed-4fcc-a53c-0222ae84e7e2"},"vehicle_type_id":"4","last_reported":1703523977,"current_range_meters":28800,"station_id":"","pricing_plan_id":"free"},{"bike_id":"ed98de2a-365a-47e4-ab01-ac82dc34df39","system_id":"levelo_inurba_marseille","lat":43.2901,"lon":5.381269,"is_reserved":false,"is_disabled":false,"rental_uris":{"android":"levelo://app?vid=ed98de2a-365a-47e4-ab01-ac82dc34df39","ios":"levelo://app?vid=ed98de2a-365a-47e4-ab01-ac82dc34df39"},"vehicle_type_id":"4","last_reported":1703523977,"current_range_meters":30400,"station_id":"ce4bh4p2rcd13ifvqe1g","pricing_plan_id":"free"},{"bike_id":"89867a69-c089-47be-910e-1c8a1d09a954","system_id":"levelo_inurba_marseille","lat":43.330592,"lon":5.390708,"is_reserved":false,"is_disabled":false,"rental_uris":{"android":"levelo://app?vid=89867a69-c089-47be-910e-1c8a1d09a954","ios":"levelo://app?vid=89867a69-c089-47be-910e-1c8a1d09a954"},"vehicle_type_id":"4","last_reported":1703523977,"current_range_meters":16800,"station_id":"","pricing_plan_id":"free"},{"bike_id":"4aac448d-ea19-4dee-b69b-8b32bd67559b","system_id":"levelo_inurba_marseille","lat":43.28856,"lon":5.358371,"is_reserved":false,"is_disabled":false,"rental_uris":{"android":"levelo://app?vid=4aac448d-ea19-4dee-b69b-8b32bd67559b","ios":"levelo://app?vid=4aac448d-ea19-4dee-b69b-8b32bd67559b"},"vehicle_type_id":"4","last_reported":1703523977,"current_range_meters":12400,"station_id":"ce4bhb12rcd13ifvqem0","pricing_plan_id":"free"},{"bike_id":"0d9c8563-4a48-46d6-8f8a-ddb3e255587d","system_id":"levelo_inurba_marseille","lat":43.28856,"lon":5.358371,"is_reserved":false,"is_disabled":false,"rental_uris":{"android":"levelo://app?vid=0d9c8563-4a48-46d6-8f8a-ddb3e255587d","ios":"levelo://app?vid=0d9c8563-4a48-46d6-8f8a-ddb3e255587d"},"vehicle_type_id":"4","last_reported":1703523977,"current_range_meters":20000,"station_id":"ce4bhb12rcd13ifvqem0","pricing_plan_id":"free"},{"bike_id":"4a567f15-c8c7-45a1-89d2-82c585dbdf31","system_id":"levelo_inurba_marseille","lat":43.293259,"lon":5.371586,"is_reserved":false,"is_disabled":false,"rental_uris":{"android":"levelo://app?vid=4a567f15-c8c7-45a1-89d2-82c585dbdf31","ios":"levelo://app?vid=4a567f15-c8c7-45a1-89d2-82c585dbdf31"},"vehicle_type_id":"4","last_reported":1703523977,"current_range_meters":11200,"station_id":"ce4bgh92rcd13ifvqb40","pricing_plan_id":"free"},{"bike_id":"76666845-9b33-4f21-9032-82e7508390f8","system_id":"levelo_inurba_marseille","lat":43.309371,"lon":5.401449,"is_reserved":false,"is_disabled":false,"rental_uris":{"android":"levelo://app?vid=76666845-9b33-4f21-9032-82e7508390f8","ios":"levelo://app?vid=76666845-9b33-4f21-9032-82e7508390f8"},"vehicle_type_id":"4","last_reported":1703523977,"current_range_meters":25200,"station_id":"ce4bgvp2rcd13ifvqct0","pricing_plan_id":"free"},{"bike_id":"1dc0891e-bdae-4471-9be5-e8ba59d42c01","system_id":"levelo_inurba_marseille","lat":43.28727,"lon":5.36078,"is_reserved":false,"is_disabled":false,"rental_uris":{"android":"levelo://app?vid=1dc0891e-bdae-4471-9be5-e8ba59d42c01","ios":"levelo://app?vid=1dc0891e-bdae-4471-9be5-e8ba59d42c01"},"vehicle_type_id":"4","last_reported":1703523977,"current_range_meters":26800,"station_id":"cki0cbj6b192h4jlfktg","pricing_plan_id":"free"},{"bike_id":"02a1e374-cea2-4b13-83f7-16fcfeaddb67","system_id":"levelo_inurba_marseille","lat":43.298681,"lon":5.397225,"is_reserved":false,"is_disabled":false,"rental_uris":{"android":"levelo://app?vid=02a1e374-cea2-4b13-83f7-16fcfeaddb67","ios":"levelo://app?vid=02a1e374-cea2-4b13-83f7-16fcfeaddb67"},"vehicle_type_id":"4","last_reported":1703523977,"current_range_meters":30800,"station_id":"ce4bh0h2rcd13ifvqd50","pricing_plan_id":"free"},{"bike_id":"f3fe71bd-8862-46b4-8fc9-672eb5d99d9f","system_id":"levelo_inurba_marseille","lat":43.286961,"lon":5.373785,"is_reserved":false,"is_disabled":false,"rental_uris":{"android":"levelo://app?vid=f3fe71bd-8862-46b4-8fc9-672eb5d99d9f","ios":"levelo://app?vid=f3fe71bd-8862-46b4-8fc9-672eb5d99d9f"},"vehicle_type_id":"4","last_reported":1703523977,"current_range_meters":7600,"station_id":"ce4bh3p2rcd13ifvqdq0","pricing_plan_id":"free"},{"bike_id":"5cec7219-3179-478d-88a9-b421f1110c27","system_id":"levelo_inurba_marseille","lat":43.29521,"lon":5.39394,"is_reserved":false,"is_disabled":false,"rental_uris":{"android":"levelo://app?vid=5cec7219-3179-478d-88a9-b421f1110c27","ios":"levelo://app?vid=5cec7219-3179-478d-88a9-b421f1110c27"},"vehicle_type_id":"4","last_reported":1703523977,"current_range_meters":28400,"station_id":"ce4bh292rcd13ifvqdf0","pricing_plan_id":"free"},{"bike_id":"d33065ad-1118-43db-ba53-d839adeacdee","system_id":"levelo_inurba_marseille","lat":43.29515,"lon":5.39389,"is_reserved":false,"is_disabled":false,"rental_uris":{"android":"levelo://app?vid=d33065ad-1118-43db-ba53-d839adeacdee","ios":"levelo://app?vid=d33065ad-1118-43db-ba53-d839adeacdee"},"vehicle_type_id":"4","last_reported":1703523977,"current_range_meters":400,"station_id":"ce4bh292rcd13ifvqdf0","pricing_plan_id":"free"},{"bike_id":"790ac815-6fb3-4772-9fb6-1d8b35d6fe27","system_id":"levelo_inurba_marseille","lat":43.286961,"lon":5.373785,"is_reserved":false,"is_disabled":false,"rental_uris":{"android":"levelo://app?vid=790ac815-6fb3-4772-9fb6-1d8b35d6fe27","ios":"levelo://app?vid=790ac815-6fb3-4772-9fb6-1d8b35d6fe27"},"vehicle_type_id":"4","last_reported":1703523977,"current_range_meters":30000,"station_id":"ce4bh3p2rcd13ifvqdq0","pricing_plan_id":"free"},{"bike_id":"6eb8d9bf-bb36-4f48-939a-2a05e59dc9ed","system_id":"levelo_inurba_marseille","lat":43.289307,"lon":5.38406,"is_reserved":false,"is_disabled":false,"rental_uris":{"android":"levelo://app?vid=6eb8d9bf-bb36-4f48-939a-2a05e59dc9ed","ios":"levelo://app?vid=6eb8d9bf-bb36-4f48-939a-2a05e59dc9ed"},"vehicle_type_id":"4","last_reported":1703523977,"current_range_meters":3600,"station_id":"ce4bh612rcd13ifvqe6g","pricing_plan_id":"free"},{"bike_id":"a4f81d61-acdb-444b-af8b-b6298de33ea6","system_id":"levelo_inurba_marseille","lat":43.290345,"lon":5.38646,"is_reserved":false,"is_disabled":false,"rental_uris":{"android":"levelo://app?vid=a4f81d61-acdb-444b-af8b-b6298de33ea6","ios":"levelo://app?vid=a4f81d61-acdb-444b-af8b-b6298de33ea6"},"vehicle_type_id":"4","last_reported":1703523977,"current_range_meters":19200,"station_id":"ce4bh4p2rcd13ifvqe0g","pricing_plan_id":"free"},{"bike_id":"137bbfc5-9177-4077-99a9-f5aca3ded894","system_id":"levelo_inurba_marseille","lat":43.290345,"lon":5.38646,"is_reserved":false,"is_disabled":false,"rental_uris":{"android":"levelo://app?vid=137bbfc5-9177-4077-99a9-f5aca3ded894","ios":"levelo://app?vid=137bbfc5-9177-4077-99a9-f5aca3ded894"},"vehicle_type_id":"4","last_reported":1703523977,"current_range_meters":27600,"station_id":"ce4bh4p2rcd13ifvqe0g","pricing_plan_id":"free"},{"bike_id":"9d25bbe6-6121-406d-8803-a340738149c8","system_id":"levelo_inurba_marseille","lat":43.289307,"lon":5.38406,"is_reserved":false,"is_disabled":false,"rental_uris":{"android":"levelo://app?vid=9d25bbe6-6121-406d-8803-a340738149c8","ios":"levelo://app?vid=9d25bbe6-6121-406d-8803-a340738149c8"},"vehicle_type_id":"4","last_reported":1703523977,"current_range_meters":24000,"station_id":"ce4bh612rcd13ifvqe6g","pricing_plan_id":"free"},{"bike_id":"d59e8884-ab49-4eee-b8d1-c25f52a7bbc0","system_id":"levelo_inurba_marseille","lat":43.290345,"lon":5.38646,"is_reserved":false,"is_disabled":false,"rental_uris":{"android":"levelo://app?vid=d59e8884-ab49-4eee-b8d1-c25f52a7bbc0","ios":"levelo://app?vid=d59e8884-ab49-4eee-b8d1-c25f52a7bbc0"},"vehicle_type_id":"4","last_reported":1703523977,"current_range_meters":27200,"station_id":"ce4bh4p2rcd13ifvqe0g","pricing_plan_id":"free"},{"bike_id":"a0b03d8e-4166-4eac-aae3-14551c30d7f6","system_id":"levelo_inurba_marseille","lat":43.289307,"lon":5.38406,"is_reserved":false,"is_disabled":false,"rental_uris":{"android":"levelo://app?vid=a0b03d8e-4166-4eac-aae3-14551c30d7f6","ios":"levelo://app?vid=a0b03d8e-4166-4eac-aae3-14551c30d7f6"},"vehicle_type_id":"4","last_reported":1703523977,"current_range_meters":21200,"station_id":"ce4bh612rcd13ifvqe6g","pricing_plan_id":"free"},{"bike_id":"58287bc2-f798-447f-98f0-1feb0986d5f9","system_id":"levelo_inurba_marseille","lat":43.289307,"lon":5.38406,"is_reserved":false,"is_disabled":false,"rental_uris":{"android":"levelo://app?vid=58287bc2-f798-447f-98f0-1feb0986d5f9","ios":"levelo://app?vid=58287bc2-f798-447f-98f0-1feb0986d5f9"},"vehicle_type_id":"4","last_reported":1703523977,"current_range_meters":9600,"station_id":"ce4bh612rcd13ifvqe6g","pricing_plan_id":"free"},{"bike_id":"69043c95-7f11-44e3-9d9e-48493c9210d8","system_id":"levelo_inurba_marseille","lat":43.289307,"lon":5.38406,"is_reserved":false,"is_disabled":false,"rental_uris":{"android":"levelo://app?vid=69043c95-7f11-44e3-9d9e-48493c9210d8","ios":"levelo://app?vid=69043c95-7f11-44e3-9d9e-48493c9210d8"},"vehicle_type_id":"4","last_reported":1703523977,"current_range_meters":28400,"station_id":"ce4bh612rcd13ifvqe6g","pricing_plan_id":"free"},{"bike_id":"fcfdfc02-5b9c-49c2-958a-b85d39064882","system_id":"levelo_inurba_marseille","lat":43.286039,"lon":5.370679,"is_reserved":false,"is_disabled":false,"rental_uris":{"android":"levelo://app?vid=fcfdfc02-5b9c-49c2-958a-b85d39064882","ios":"levelo://app?vid=fcfdfc02-5b9c-49c2-958a-b85d39064882"},"vehicle_type_id":"4","last_reported":1703523977,"current_range_meters":9200,"station_id":"ce4bht12rcd13ifvqi60","pricing_plan_id":"free"},{"bike_id":"b269c749-19b3-457a-9f11-021ccc443c55","system_id":"levelo_inurba_marseille","lat":43.286039,"lon":5.370679,"is_reserved":false,"is_disabled":false,"rental_uris":{"android":"levelo://app?vid=b269c749-19b3-457a-9f11-021ccc443c55","ios":"levelo://app?vid=b269c749-19b3-457a-9f11-021ccc443c55"},"vehicle_type_id":"4","last_reported":1703523977,"current_range_meters":7600,"station_id":"ce4bht12rcd13ifvqi60","pricing_plan_id":"free"},{"bike_id":"96032c65-ad05-4627-9655-b64d1764d84b","system_id":"levelo_inurba_marseille","lat":43.28606,"lon":5.37062,"is_reserved":false,"is_disabled":false,"rental_uris":{"android":"levelo://app?vid=96032c65-ad05-4627-9655-b64d1764d84b","ios":"levelo://app?vid=96032c65-ad05-4627-9655-b64d1764d84b"},"vehicle_type_id":"4","last_reported":1703523977,"current_range_meters":7200,"station_id":"ce4bht12rcd13ifvqi60","pricing_plan_id":"free"},{"bike_id":"0ade99fb-20fc-423b-a697-58876a6bf0b1","system_id":"levelo_inurba_marseille","lat":43.287096,"lon":5.379411,"is_reserved":false,"is_disabled":false,"rental_uris":{"android":"levelo://app?vid=0ade99fb-20fc-423b-a697-58876a6bf0b1","ios":"levelo://app?vid=0ade99fb-20fc-423b-a697-58876a6bf0b1"},"vehicle_type_id":"4","last_reported":1703523977,"current_range_meters":21600,"station_id":"ce4bh9p2rcd13ifvqec0","pricing_plan_id":"free"},{"bike_id":"d3f87648-fa46-4e0f-85a3-39f063b748e0","system_id":"levelo_inurba_marseille","lat":43.33255,"lon":5.39428,"is_reserved":false,"is_disabled":false,"rental_uris":{"android":"levelo://app?vid=d3f87648-fa46-4e0f-85a3-39f063b748e0","ios":"levelo://app?vid=d3f87648-fa46-4e0f-85a3-39f063b748e0"},"vehicle_type_id":"4","last_reported":1703523977,"current_range_meters":28400,"station_id":"","pricing_plan_id":"free"},{"bike_id":"201a159b-abf2-47c6-87a5-455e20a9a6ab","system_id":"levelo_inurba_marseille","lat":43.291994,"lon":5.392907,"is_reserved":false,"is_disabled":false,"rental_uris":{"android":"levelo://app?vid=201a159b-abf2-47c6-87a5-455e20a9a6ab","ios":"levelo://app?vid=201a159b-abf2-47c6-87a5-455e20a9a6ab"},"vehicle_type_id":"4","last_reported":1703523977,"current_range_meters":12400,"station_id":"ce4bh192rcd13ifvqdd0","pricing_plan_id":"free"},{"bike_id":"7f6daaf6-8c88-4ae4-8839-35343aa252fd","system_id":"levelo_inurba_marseille","lat":43.291994,"lon":5.392907,"is_reserved":false,"is_disabled":false,"rental_uris":{"android":"levelo://app?vid=7f6daaf6-8c88-4ae4-8839-35343aa252fd","ios":"levelo://app?vid=7f6daaf6-8c88-4ae4-8839-35343aa252fd"},"vehicle_type_id":"4","last_reported":1703523977,"current_range_meters":27200,"station_id":"ce4bh192rcd13ifvqdd0","pricing_plan_id":"free"},{"bike_id":"e2adfa7c-882e-48a1-9ee4-b36e6186ebbf","system_id":"levelo_inurba_marseille","lat":43.330912,"lon":5.396935,"is_reserved":false,"is_disabled":false,"rental_uris":{"android":"levelo://app?vid=e2adfa7c-882e-48a1-9ee4-b36e6186ebbf","ios":"levelo://app?vid=e2adfa7c-882e-48a1-9ee4-b36e6186ebbf"},"vehicle_type_id":"4","last_reported":1703523977,"current_range_meters":6400,"station_id":"","pricing_plan_id":"free"},{"bike_id":"25f31d95-b191-4186-84b3-b832805f9068","system_id":"levelo_inurba_marseille","lat":43.284538,"lon":5.358657,"is_reserved":false,"is_disabled":false,"rental_uris":{"android":"levelo://app?vid=25f31d95-b191-4186-84b3-b832805f9068","ios":"levelo://app?vid=25f31d95-b191-4186-84b3-b832805f9068"},"vehicle_type_id":"4","last_reported":1703523977,"current_range_meters":24400,"station_id":"ce4bhah2rcd13ifvqei0","pricing_plan_id":"free"},{"bike_id":"6fce6cf9-3857-4ce7-8dd8-c8d6febadb9e","system_id":"levelo_inurba_marseille","lat":43.284538,"lon":5.358657,"is_reserved":false,"is_disabled":false,"rental_uris":{"android":"levelo://app?vid=6fce6cf9-3857-4ce7-8dd8-c8d6febadb9e","ios":"levelo://app?vid=6fce6cf9-3857-4ce7-8dd8-c8d6febadb9e"},"vehicle_type_id":"4","last_reported":1703523977,"current_range_meters":31200,"station_id":"ce4bhah2rcd13ifvqei0","pricing_plan_id":"free"},{"bike_id":"70a7a43c-b0db-43c7-80a3-33cfd4da5a4d","system_id":"levelo_inurba_marseille","lat":43.294314,"lon":5.397498,"is_reserved":false,"is_disabled":false,"rental_uris":{"android":"levelo://app?vid=70a7a43c-b0db-43c7-80a3-33cfd4da5a4d","ios":"levelo://app?vid=70a7a43c-b0db-43c7-80a3-33cfd4da5a4d"},"vehicle_type_id":"4","last_reported":1703523977,"current_range_meters":10400,"station_id":"ce4bh3h2rcd13ifvqdo0","pricing_plan_id":"free"},{"bike_id":"739a8e6f-1442-437a-9f38-ede859472acd","system_id":"levelo_inurba_marseille","lat":43.285856,"lon":5.350771,"is_reserved":false,"is_disabled":false,"rental_uris":{"android":"levelo://app?vid=739a8e6f-1442-437a-9f38-ede859472acd","ios":"levelo://app?vid=739a8e6f-1442-437a-9f38-ede859472acd"},"vehicle_type_id":"4","last_reported":1703523977,"current_range_meters":31200,"station_id":"ce4bhch2rcd13ifvqeug","pricing_plan_id":"free"},{"bike_id":"bcb850ea-4558-48f8-884b-17064076fc95","system_id":"levelo_inurba_marseille","lat":43.283998,"lon":5.375062,"is_reserved":false,"is_disabled":false,"rental_uris":{"android":"levelo://app?vid=bcb850ea-4558-48f8-884b-17064076fc95","ios":"levelo://app?vid=bcb850ea-4558-48f8-884b-17064076fc95"},"vehicle_type_id":"4","last_reported":1703523977,"current_range_meters":20000,"station_id":"ce4bh412rcd13ifvqds0","pricing_plan_id":"free"},{"bike_id":"8202f3d3-9e4b-4efc-ba33-9b4c62477dfd","system_id":"levelo_inurba_marseille","lat":43.295713,"lon":5.399639,"is_reserved":false,"is_disabled":false,"rental_uris":{"android":"levelo://app?vid=8202f3d3-9e4b-4efc-ba33-9b4c62477dfd","ios":"levelo://app?vid=8202f3d3-9e4b-4efc-ba33-9b4c62477dfd"},"vehicle_type_id":"4","last_reported":1703523977,"current_range_meters":30000,"station_id":"ce4bh312rcd13ifvqdj0","pricing_plan_id":"free"},{"bike_id":"e485450b-2736-4f4c-b94b-0da5a69b88aa","system_id":"levelo_inurba_marseille","lat":43.331957,"lon":5.39736,"is_reserved":false,"is_disabled":false,"rental_uris":{"android":"levelo://app?vid=e485450b-2736-4f4c-b94b-0da5a69b88aa","ios":"levelo://app?vid=e485450b-2736-4f4c-b94b-0da5a69b88aa"},"vehicle_type_id":"4","last_reported":1703523977,"current_range_meters":23600,"station_id":"","pricing_plan_id":"free"},{"bike_id":"4b388e93-8359-494a-93e7-a691dd1edc09","system_id":"levelo_inurba_marseille","lat":43.33163,"lon":5.39812,"is_reserved":false,"is_disabled":false,"rental_uris":{"android":"levelo://app?vid=4b388e93-8359-494a-93e7-a691dd1edc09","ios":"levelo://app?vid=4b388e93-8359-494a-93e7-a691dd1edc09"},"vehicle_type_id":"4","last_reported":1703523977,"current_range_meters":28000,"station_id":"","pricing_plan_id":"free"},{"bike_id":"ff6ebe2d-10e0-4bee-8d5b-0d34d0573673","system_id":"levelo_inurba_marseille","lat":43.337131,"lon":5.391636,"is_reserved":false,"is_disabled":false,"rental_uris":{"android":"levelo://app?vid=ff6ebe2d-10e0-4bee-8d5b-0d34d0573673","ios":"levelo://app?vid=ff6ebe2d-10e0-4bee-8d5b-0d34d0573673"},"vehicle_type_id":"4","last_reported":1703523977,"current_range_meters":21200,"station_id":"ce4bhr92rcd13ifvqhsg","pricing_plan_id":"free"},{"bike_id":"9960fa43-3a3b-4d5b-8fe2-258b49d47b49","system_id":"levelo_inurba_marseille","lat":43.323464,"lon":5.406297,"is_reserved":false,"is_disabled":false,"rental_uris":{"android":"levelo://app?vid=9960fa43-3a3b-4d5b-8fe2-258b49d47b49","ios":"levelo://app?vid=9960fa43-3a3b-4d5b-8fe2-258b49d47b49"},"vehicle_type_id":"4","last_reported":1703523977,"current_range_meters":27600,"station_id":"ce4bhq92rcd13ifvqhjg","pricing_plan_id":"free"},{"bike_id":"5c545ef0-aef8-4aed-923a-64714cfa6905","system_id":"levelo_inurba_marseille","lat":43.284717,"lon":5.38409,"is_reserved":false,"is_disabled":false,"rental_uris":{"android":"levelo://app?vid=5c545ef0-aef8-4aed-923a-64714cfa6905","ios":"levelo://app?vid=5c545ef0-aef8-4aed-923a-64714cfa6905"},"vehicle_type_id":"4","last_reported":1703523977,"current_range_meters":9200,"station_id":"ce4bh512rcd13ifvqe3g","pricing_plan_id":"free"},{"bike_id":"54f77560-de57-4c6c-bb6e-e0d1c095fd06","system_id":"levelo_inurba_marseille","lat":43.28464,"lon":5.38412,"is_reserved":false,"is_disabled":false,"rental_uris":{"android":"levelo://app?vid=54f77560-de57-4c6c-bb6e-e0d1c095fd06","ios":"levelo://app?vid=54f77560-de57-4c6c-bb6e-e0d1c095fd06"},"vehicle_type_id":"4","last_reported":1703523977,"current_range_meters":28000,"station_id":"ce4bh512rcd13ifvqe3g","pricing_plan_id":"free"},{"bike_id":"c972cdb0-30b0-4772-8ccd-556439cdeced","system_id":"levelo_inurba_marseille","lat":43.283498,"lon":5.380948,"is_reserved":false,"is_disabled":false,"rental_uris":{"android":"levelo://app?vid=c972cdb0-30b0-4772-8ccd-556439cdeced","ios":"levelo://app?vid=c972cdb0-30b0-4772-8ccd-556439cdeced"},"vehicle_type_id":"4","last_reported":1703523977,"current_range_meters":20400,"station_id":"ce4bh412rcd13ifvqdr0","pricing_plan_id":"free"},{"bike_id":"e5070973-444d-464e-9d66-16b1f5babe6f","system_id":"levelo_inurba_marseille","lat":43.283498,"lon":5.380948,"is_reserved":false,"is_disabled":false,"rental_uris":{"android":"levelo://app?vid=e5070973-444d-464e-9d66-16b1f5babe6f","ios":"levelo://app?vid=e5070973-444d-464e-9d66-16b1f5babe6f"},"vehicle_type_id":"4","last_reported":1703523977,"current_range_meters":26000,"station_id":"ce4bh412rcd13ifvqdr0","pricing_plan_id":"free"},{"bike_id":"bf1bd078-8292-4457-9da8-30e6e2e2dd3c","system_id":"levelo_inurba_marseille","lat":43.292724,"lon":5.401131,"is_reserved":false,"is_disabled":false,"rental_uris":{"android":"levelo://app?vid=bf1bd078-8292-4457-9da8-30e6e2e2dd3c","ios":"levelo://app?vid=bf1bd078-8292-4457-9da8-30e6e2e2dd3c"},"vehicle_type_id":"4","last_reported":1703523977,"current_range_meters":24000,"station_id":"ce4bh312rcd13ifvqdk0","pricing_plan_id":"free"},{"bike_id":"514a3616-0b0f-460d-bf61-22a522ce2324","system_id":"levelo_inurba_marseille","lat":43.282754,"lon":5.350519,"is_reserved":false,"is_disabled":false,"rental_uris":{"android":"levelo://app?vid=514a3616-0b0f-460d-bf61-22a522ce2324","ios":"levelo://app?vid=514a3616-0b0f-460d-bf61-22a522ce2324"},"vehicle_type_id":"4","last_reported":1703523977,"current_range_meters":5200,"station_id":"ce4bhbp2rcd13ifvqerg","pricing_plan_id":"free"},{"bike_id":"ae3388e7-dfd5-49cc-a0bb-07d143cfba5e","system_id":"levelo_inurba_marseille","lat":43.283502,"lon":5.386471,"is_reserved":false,"is_disabled":false,"rental_uris":{"android":"levelo://app?vid=ae3388e7-dfd5-49cc-a0bb-07d143cfba5e","ios":"levelo://app?vid=ae3388e7-dfd5-49cc-a0bb-07d143cfba5e"},"vehicle_type_id":"4","last_reported":1703523977,"current_range_meters":29200,"station_id":"ce4bh492rcd13ifvqdvg","pricing_plan_id":"free"},{"bike_id":"e8af4819-7400-45f8-a377-0844ff0ae133","system_id":"levelo_inurba_marseille","lat":43.282754,"lon":5.350519,"is_reserved":false,"is_disabled":false,"rental_uris":{"android":"levelo://app?vid=e8af4819-7400-45f8-a377-0844ff0ae133","ios":"levelo://app?vid=e8af4819-7400-45f8-a377-0844ff0ae133"},"vehicle_type_id":"4","last_reported":1703523977,"current_range_meters":7200,"station_id":"ce4bhbp2rcd13ifvqerg","pricing_plan_id":"free"},{"bike_id":"330ecc5c-b51a-4c66-b975-e6a7866433a6","system_id":"levelo_inurba_marseille","lat":43.28039,"lon":5.369297,"is_reserved":false,"is_disabled":false,"rental_uris":{"android":"levelo://app?vid=330ecc5c-b51a-4c66-b975-e6a7866433a6","ios":"levelo://app?vid=330ecc5c-b51a-4c66-b975-e6a7866433a6"},"vehicle_type_id":"4","last_reported":1703523977,"current_range_meters":27600,"station_id":"ce4bha12rcd13ifvqef0","pricing_plan_id":"free"},{"bike_id":"d313ccc4-8e32-4634-ac91-d40b555d516d","system_id":"levelo_inurba_marseille","lat":43.28253,"lon":5.35073,"is_reserved":false,"is_disabled":false,"rental_uris":{"android":"levelo://app?vid=d313ccc4-8e32-4634-ac91-d40b555d516d","ios":"levelo://app?vid=d313ccc4-8e32-4634-ac91-d40b555d516d"},"vehicle_type_id":"4","last_reported":1703523977,"current_range_meters":31200,"station_id":"ce4bhbp2rcd13ifvqerg","pricing_plan_id":"free"},{"bike_id":"4d15cfdf-248d-407f-8182-e7be3134db2e","system_id":"levelo_inurba_marseille","lat":43.29044,"lon":5.39966,"is_reserved":false,"is_disabled":false,"rental_uris":{"android":"levelo://app?vid=4d15cfdf-248d-407f-8182-e7be3134db2e","ios":"levelo://app?vid=4d15cfdf-248d-407f-8182-e7be3134db2e"},"vehicle_type_id":"4","last_reported":1703523977,"current_range_meters":2400,"station_id":"ce4bh392rcd13ifvqdm0","pricing_plan_id":"free"},{"bike_id":"7a417aba-c5f3-4415-b83a-4b27f33f5efa","system_id":"levelo_inurba_marseille","lat":43.29032,"lon":5.39965,"is_reserved":false,"is_disabled":false,"rental_uris":{"android":"levelo://app?vid=7a417aba-c5f3-4415-b83a-4b27f33f5efa","ios":"levelo://app?vid=7a417aba-c5f3-4415-b83a-4b27f33f5efa"},"vehicle_type_id":"4","last_reported":1703523977,"current_range_meters":18400,"station_id":"ce4bh392rcd13ifvqdm0","pricing_plan_id":"free"},{"bike_id":"553e18cd-1f68-46c0-83c2-9bcb3e5d7688","system_id":"levelo_inurba_marseille","lat":43.283502,"lon":5.386471,"is_reserved":false,"is_disabled":false,"rental_uris":{"android":"levelo://app?vid=553e18cd-1f68-46c0-83c2-9bcb3e5d7688","ios":"levelo://app?vid=553e18cd-1f68-46c0-83c2-9bcb3e5d7688"},"vehicle_type_id":"4","last_reported":1703523977,"current_range_meters":19200,"station_id":"ce4bh492rcd13ifvqdvg","pricing_plan_id":"free"},{"bike_id":"0a929a2c-ce39-45aa-94c2-1ba7bce635a7","system_id":"levelo_inurba_marseille","lat":43.290412,"lon":5.399633,"is_reserved":false,"is_disabled":false,"rental_uris":{"android":"levelo://app?vid=0a929a2c-ce39-45aa-94c2-1ba7bce635a7","ios":"levelo://app?vid=0a929a2c-ce39-45aa-94c2-1ba7bce635a7"},"vehicle_type_id":"4","last_reported":1703523977,"current_range_meters":16000,"station_id":"ce4bh392rcd13ifvqdm0","pricing_plan_id":"free"},{"bike_id":"a33a7a4b-9a19-4006-9725-7e2164696921","system_id":"levelo_inurba_marseille","lat":43.281044,"lon":5.378308,"is_reserved":false,"is_disabled":false,"rental_uris":{"android":"levelo://app?vid=a33a7a4b-9a19-4006-9725-7e2164696921","ios":"levelo://app?vid=a33a7a4b-9a19-4006-9725-7e2164696921"},"vehicle_type_id":"4","last_reported":1703523977,"current_range_meters":13200,"station_id":"ce4bha12rcd13ifvqee0","pricing_plan_id":"free"},{"bike_id":"8d2021fa-288b-42bf-939b-e82ba633c6ba","system_id":"levelo_inurba_marseille","lat":43.284462,"lon":5.392121,"is_reserved":false,"is_disabled":false,"rental_uris":{"android":"levelo://app?vid=8d2021fa-288b-42bf-939b-e82ba633c6ba","ios":"levelo://app?vid=8d2021fa-288b-42bf-939b-e82ba633c6ba"},"vehicle_type_id":"4","last_reported":1703523977,"current_range_meters":28400,"station_id":"ce4bhoh2rcd13ifvqh5g","pricing_plan_id":"free"},{"bike_id":"386b6e80-ff1e-45a3-8fe6-96e070e7707f","system_id":"levelo_inurba_marseille","lat":43.28573,"lon":5.394992,"is_reserved":false,"is_disabled":false,"rental_uris":{"android":"levelo://app?vid=386b6e80-ff1e-45a3-8fe6-96e070e7707f","ios":"levelo://app?vid=386b6e80-ff1e-45a3-8fe6-96e070e7707f"},"vehicle_type_id":"4","last_reported":1703523977,"current_range_meters":27600,"station_id":"ce4bh292rcd13ifvqdg0","pricing_plan_id":"free"},{"bike_id":"a761166b-dccd-4f80-a7dd-20b28377f7ed","system_id":"levelo_inurba_marseille","lat":43.304188,"lon":5.412904,"is_reserved":false,"is_disabled":false,"rental_uris":{"android":"levelo://app?vid=a761166b-dccd-4f80-a7dd-20b28377f7ed","ios":"levelo://app?vid=a761166b-dccd-4f80-a7dd-20b28377f7ed"},"vehicle_type_id":"4","last_reported":1703523977,"current_range_meters":26800,"station_id":"ce4bhop2rcd13ifvqh8g","pricing_plan_id":"free"},{"bike_id":"f6a86a79-b144-491a-a6de-8593df15dfb8","system_id":"levelo_inurba_marseille","lat":43.279087,"lon":5.380114,"is_reserved":false,"is_disabled":false,"rental_uris":{"android":"levelo://app?vid=f6a86a79-b144-491a-a6de-8593df15dfb8","ios":"levelo://app?vid=f6a86a79-b144-491a-a6de-8593df15dfb8"},"vehicle_type_id":"4","last_reported":1703523977,"current_range_meters":30400,"station_id":"ce4bhf92rcd13ifvqf50","pricing_plan_id":"free"},{"bike_id":"8273d5ec-0acc-4ee7-99a3-3e42bcc89121","system_id":"levelo_inurba_marseille","lat":43.320045,"lon":5.415046,"is_reserved":false,"is_disabled":false,"rental_uris":{"android":"levelo://app?vid=8273d5ec-0acc-4ee7-99a3-3e42bcc89121","ios":"levelo://app?vid=8273d5ec-0acc-4ee7-99a3-3e42bcc89121"},"vehicle_type_id":"4","last_reported":1703523977,"current_range_meters":31200,"station_id":"ce4bhq92rcd13ifvqhkg","pricing_plan_id":"free"},{"bike_id":"94e0b362-e115-460f-a39a-ef14e9953cd7","system_id":"levelo_inurba_marseille","lat":43.320045,"lon":5.415046,"is_reserved":false,"is_disabled":false,"rental_uris":{"android":"levelo://app?vid=94e0b362-e115-460f-a39a-ef14e9953cd7","ios":"levelo://app?vid=94e0b362-e115-460f-a39a-ef14e9953cd7"},"vehicle_type_id":"4","last_reported":1703523977,"current_range_meters":26400,"station_id":"ce4bhq92rcd13ifvqhkg","pricing_plan_id":"free"},{"bike_id":"34158c04-90ab-44ff-844e-fe8c6866438b","system_id":"levelo_inurba_marseille","lat":43.299577,"lon":5.413277,"is_reserved":false,"is_disabled":false,"rental_uris":{"android":"levelo://app?vid=34158c04-90ab-44ff-844e-fe8c6866438b","ios":"levelo://app?vid=34158c04-90ab-44ff-844e-fe8c6866438b"},"vehicle_type_id":"4","last_reported":1703523977,"current_range_meters":30400,"station_id":"ce4bhp12rcd13ifvqh9g","pricing_plan_id":"free"},{"bike_id":"8dc1a192-1b6f-467a-861b-d4c6f7601906","system_id":"levelo_inurba_marseille","lat":43.299579,"lon":5.413255,"is_reserved":false,"is_disabled":false,"rental_uris":{"android":"levelo://app?vid=8dc1a192-1b6f-467a-861b-d4c6f7601906","ios":"levelo://app?vid=8dc1a192-1b6f-467a-861b-d4c6f7601906"},"vehicle_type_id":"4","last_reported":1703523977,"current_range_meters":20800,"station_id":"ce4bhp12rcd13ifvqh9g","pricing_plan_id":"free"},{"bike_id":"2950f92c-3e43-4204-b7ae-3f0ac182f86d","system_id":"levelo_inurba_marseille","lat":43.279742,"lon":5.38744,"is_reserved":false,"is_disabled":false,"rental_uris":{"android":"levelo://app?vid=2950f92c-3e43-4204-b7ae-3f0ac182f86d","ios":"levelo://app?vid=2950f92c-3e43-4204-b7ae-3f0ac182f86d"},"vehicle_type_id":"4","last_reported":1703523977,"current_range_meters":26400,"station_id":"ce4bhg12rcd13ifvqf80","pricing_plan_id":"free"},{"bike_id":"f5d929fb-c387-465d-aef2-24817c2d013b","system_id":"levelo_inurba_marseille","lat":43.279742,"lon":5.38744,"is_reserved":false,"is_disabled":false,"rental_uris":{"android":"levelo://app?vid=f5d929fb-c387-465d-aef2-24817c2d013b","ios":"levelo://app?vid=f5d929fb-c387-465d-aef2-24817c2d013b"},"vehicle_type_id":"4","last_reported":1703523977,"current_range_meters":26400,"station_id":"ce4bhg12rcd13ifvqf80","pricing_plan_id":"free"},{"bike_id":"52f2acaa-dbe8-4c7b-965e-5a4b0a898171","system_id":"levelo_inurba_marseille","lat":43.279742,"lon":5.38744,"is_reserved":false,"is_disabled":false,"rental_uris":{"android":"levelo://app?vid=52f2acaa-dbe8-4c7b-965e-5a4b0a898171","ios":"levelo://app?vid=52f2acaa-dbe8-4c7b-965e-5a4b0a898171"},"vehicle_type_id":"4","last_reported":1703523977,"current_range_meters":26400,"station_id":"ce4bhg12rcd13ifvqf80","pricing_plan_id":"free"},{"bike_id":"b86bd647-4e6b-4af2-afbf-023cdeec0498","system_id":"levelo_inurba_marseille","lat":43.276179,"lon":5.361009,"is_reserved":false,"is_disabled":false,"rental_uris":{"android":"levelo://app?vid=b86bd647-4e6b-4af2-afbf-023cdeec0498","ios":"levelo://app?vid=b86bd647-4e6b-4af2-afbf-023cdeec0498"},"vehicle_type_id":"4","last_reported":1703523977,"current_range_meters":22800,"station_id":"ce4bgj92rcd13ifvqbe0","pricing_plan_id":"free"},{"bike_id":"49e520e1-7c90-48f7-b38c-c853e4beed6a","system_id":"levelo_inurba_marseille","lat":43.325243,"lon":5.414326,"is_reserved":false,"is_disabled":false,"rental_uris":{"android":"levelo://app?vid=49e520e1-7c90-48f7-b38c-c853e4beed6a","ios":"levelo://app?vid=49e520e1-7c90-48f7-b38c-c853e4beed6a"},"vehicle_type_id":"4","last_reported":1703523977,"current_range_meters":24000,"station_id":"ce4bhq12rcd13ifvqhhg","pricing_plan_id":"free"},{"bike_id":"53b25145-234c-4ec5-96bb-54263b30e47a","system_id":"levelo_inurba_marseille","lat":43.27618,"lon":5.361009,"is_reserved":false,"is_disabled":false,"rental_uris":{"android":"levelo://app?vid=53b25145-234c-4ec5-96bb-54263b30e47a","ios":"levelo://app?vid=53b25145-234c-4ec5-96bb-54263b30e47a"},"vehicle_type_id":"4","last_reported":1703523977,"current_range_meters":23200,"station_id":"ce4bgj92rcd13ifvqbe0","pricing_plan_id":"free"},{"bike_id":"db603bcd-b784-469c-a675-9accaf04df29","system_id":"levelo_inurba_marseille","lat":43.27618,"lon":5.361009,"is_reserved":false,"is_disabled":false,"rental_uris":{"android":"levelo://app?vid=db603bcd-b784-469c-a675-9accaf04df29","ios":"levelo://app?vid=db603bcd-b784-469c-a675-9accaf04df29"},"vehicle_type_id":"4","last_reported":1703523977,"current_range_meters":16800,"station_id":"ce4bgj92rcd13ifvqbe0","pricing_plan_id":"free"},{"bike_id":"d9243b8b-f144-421d-aff9-a36c4a5a74dc","system_id":"levelo_inurba_marseille","lat":43.276179,"lon":5.361009,"is_reserved":false,"is_disabled":false,"rental_uris":{"android":"levelo://app?vid=d9243b8b-f144-421d-aff9-a36c4a5a74dc","ios":"levelo://app?vid=d9243b8b-f144-421d-aff9-a36c4a5a74dc"},"vehicle_type_id":"4","last_reported":1703523977,"current_range_meters":17200,"station_id":"ce4bgj92rcd13ifvqbe0","pricing_plan_id":"free"},{"bike_id":"503a2c85-e0f3-4475-8bb4-af56890a8dd4","system_id":"levelo_inurba_marseille","lat":43.276179,"lon":5.361009,"is_reserved":false,"is_disabled":false,"rental_uris":{"android":"levelo://app?vid=503a2c85-e0f3-4475-8bb4-af56890a8dd4","ios":"levelo://app?vid=503a2c85-e0f3-4475-8bb4-af56890a8dd4"},"vehicle_type_id":"4","last_reported":1703523977,"current_range_meters":31200,"station_id":"ce4bgj92rcd13ifvqbe0","pricing_plan_id":"free"},{"bike_id":"80616b4f-dfc6-4d0c-a92d-950417d88619","system_id":"levelo_inurba_marseille","lat":43.276179,"lon":5.361009,"is_reserved":false,"is_disabled":false,"rental_uris":{"android":"levelo://app?vid=80616b4f-dfc6-4d0c-a92d-950417d88619","ios":"levelo://app?vid=80616b4f-dfc6-4d0c-a92d-950417d88619"},"vehicle_type_id":"4","last_reported":1703523977,"current_range_meters":22400,"station_id":"ce4bgj92rcd13ifvqbe0","pricing_plan_id":"free"},{"bike_id":"143a6b6a-65da-44af-ba7e-91189f646f24","system_id":"levelo_inurba_marseille","lat":43.280784,"lon":5.396622,"is_reserved":false,"is_disabled":false,"rental_uris":{"android":"levelo://app?vid=143a6b6a-65da-44af-ba7e-91189f646f24","ios":"levelo://app?vid=143a6b6a-65da-44af-ba7e-91189f646f24"},"vehicle_type_id":"4","last_reported":1703523977,"current_range_meters":27200,"station_id":"ce4bho12rcd13ifvqh2g","pricing_plan_id":"free"},{"bike_id":"921ed6c5-ef26-40fb-b950-d9f07fbc2ffa","system_id":"levelo_inurba_marseille","lat":43.279776,"lon":5.394924,"is_reserved":false,"is_disabled":false,"rental_uris":{"android":"levelo://app?vid=921ed6c5-ef26-40fb-b950-d9f07fbc2ffa","ios":"levelo://app?vid=921ed6c5-ef26-40fb-b950-d9f07fbc2ffa"},"vehicle_type_id":"4","last_reported":1703523977,"current_range_meters":18000,"station_id":"","pricing_plan_id":"free"},{"bike_id":"a1fd9245-3a45-44e6-ad1e-18749d45dc12","system_id":"levelo_inurba_marseille","lat":43.303837,"lon":5.418724,"is_reserved":false,"is_disabled":false,"rental_uris":{"android":"levelo://app?vid=a1fd9245-3a45-44e6-ad1e-18749d45dc12","ios":"levelo://app?vid=a1fd9245-3a45-44e6-ad1e-18749d45dc12"},"vehicle_type_id":"4","last_reported":1703523977,"current_range_meters":22800,"station_id":"ce4bhop2rcd13ifvqh7g","pricing_plan_id":"free"},{"bike_id":"986a7138-ad86-4d7e-ad8c-82cd647ebfaf","system_id":"levelo_inurba_marseille","lat":43.275625,"lon":5.384392,"is_reserved":false,"is_disabled":false,"rental_uris":{"android":"levelo://app?vid=986a7138-ad86-4d7e-ad8c-82cd647ebfaf","ios":"levelo://app?vid=986a7138-ad86-4d7e-ad8c-82cd647ebfaf"},"vehicle_type_id":"4","last_reported":1703523977,"current_range_meters":29200,"station_id":"ce4bhh92rcd13ifvqfi0","pricing_plan_id":"free"},{"bike_id":"2dc2ff66-bbde-495f-a5b0-3943049902b0","system_id":"levelo_inurba_marseille","lat":43.275625,"lon":5.384392,"is_reserved":false,"is_disabled":false,"rental_uris":{"android":"levelo://app?vid=2dc2ff66-bbde-495f-a5b0-3943049902b0","ios":"levelo://app?vid=2dc2ff66-bbde-495f-a5b0-3943049902b0"},"vehicle_type_id":"4","last_reported":1703523977,"current_range_meters":19600,"station_id":"ce4bhh92rcd13ifvqfi0","pricing_plan_id":"free"},{"bike_id":"10795a91-6c03-4074-85a3-120093d0f2d5","system_id":"levelo_inurba_marseille","lat":43.276771,"lon":5.388799,"is_reserved":false,"is_disabled":false,"rental_uris":{"android":"levelo://app?vid=10795a91-6c03-4074-85a3-120093d0f2d5","ios":"levelo://app?vid=10795a91-6c03-4074-85a3-120093d0f2d5"},"vehicle_type_id":"4","last_reported":1703523977,"current_range_meters":25600,"station_id":"ce4bhi12rcd13ifvqfo0","pricing_plan_id":"free"},{"bike_id":"a31403d3-3f52-46c5-bf04-84e097645452","system_id":"levelo_inurba_marseille","lat":43.317121,"lon":5.423936,"is_reserved":false,"is_disabled":false,"rental_uris":{"android":"levelo://app?vid=a31403d3-3f52-46c5-bf04-84e097645452","ios":"levelo://app?vid=a31403d3-3f52-46c5-bf04-84e097645452"},"vehicle_type_id":"4","last_reported":1703523977,"current_range_meters":27600,"station_id":"ce4bhp92rcd13ifvqhbg","pricing_plan_id":"free"},{"bike_id":"c3fdb492-d5d7-4166-9fa0-6a16d6bd6962","system_id":"levelo_inurba_marseille","lat":43.310785,"lon":5.424305,"is_reserved":false,"is_disabled":false,"rental_uris":{"android":"levelo://app?vid=c3fdb492-d5d7-4166-9fa0-6a16d6bd6962","ios":"levelo://app?vid=c3fdb492-d5d7-4166-9fa0-6a16d6bd6962"},"vehicle_type_id":"4","last_reported":1703523977,"current_range_meters":12800,"station_id":"ce4bhp92rcd13ifvqhag","pricing_plan_id":"free"},{"bike_id":"ec9bed21-ab15-4437-b93e-3ba68087485a","system_id":"levelo_inurba_marseille","lat":43.31086,"lon":5.42431,"is_reserved":false,"is_disabled":false,"rental_uris":{"android":"levelo://app?vid=ec9bed21-ab15-4437-b93e-3ba68087485a","ios":"levelo://app?vid=ec9bed21-ab15-4437-b93e-3ba68087485a"},"vehicle_type_id":"4","last_reported":1703523977,"current_range_meters":26000,"station_id":"ce4bhp92rcd13ifvqhag","pricing_plan_id":"free"},{"bike_id":"136cb9da-15ee-40e3-bc2c-40c9c9d6a86d","system_id":"levelo_inurba_marseille","lat":43.317121,"lon":5.423936,"is_reserved":false,"is_disabled":false,"rental_uris":{"android":"levelo://app?vid=136cb9da-15ee-40e3-bc2c-40c9c9d6a86d","ios":"levelo://app?vid=136cb9da-15ee-40e3-bc2c-40c9c9d6a86d"},"vehicle_type_id":"4","last_reported":1703523977,"current_range_meters":30400,"station_id":"ce4bhp92rcd13ifvqhbg","pricing_plan_id":"free"},{"bike_id":"89fad256-a692-486c-a6b6-a6875e277971","system_id":"levelo_inurba_marseille","lat":43.273125,"lon":5.390731,"is_reserved":false,"is_disabled":false,"rental_uris":{"android":"levelo://app?vid=89fad256-a692-486c-a6b6-a6875e277971","ios":"levelo://app?vid=89fad256-a692-486c-a6b6-a6875e277971"},"vehicle_type_id":"4","last_reported":1703523977,"current_range_meters":10000,"station_id":"ce4bhgp2rcd13ifvqfe0","pricing_plan_id":"free"},{"bike_id":"f6133491-ff83-415f-8a7d-195abfef63a4","system_id":"levelo_inurba_marseille","lat":43.304096,"lon":5.425385,"is_reserved":false,"is_disabled":false,"rental_uris":{"android":"levelo://app?vid=f6133491-ff83-415f-8a7d-195abfef63a4","ios":"levelo://app?vid=f6133491-ff83-415f-8a7d-195abfef63a4"},"vehicle_type_id":"4","last_reported":1703523977,"current_range_meters":10000,"station_id":"ce4bhoh2rcd13ifvqh6g","pricing_plan_id":"free"},{"bike_id":"cb6b2288-2fd3-4282-94eb-683acd48348a","system_id":"levelo_inurba_marseille","lat":43.295511,"lon":5.422926,"is_reserved":false,"is_disabled":false,"rental_uris":{"android":"levelo://app?vid=cb6b2288-2fd3-4282-94eb-683acd48348a","ios":"levelo://app?vid=cb6b2288-2fd3-4282-94eb-683acd48348a"},"vehicle_type_id":"4","last_reported":1703523977,"current_range_meters":27200,"station_id":"ce4bhph2rcd13ifvqhdg","pricing_plan_id":"free"},{"bike_id":"0347a5a3-d10e-4624-870f-f108089b65eb","system_id":"levelo_inurba_marseille","lat":43.295523,"lon":5.422926,"is_reserved":false,"is_disabled":false,"rental_uris":{"android":"levelo://app?vid=0347a5a3-d10e-4624-870f-f108089b65eb","ios":"levelo://app?vid=0347a5a3-d10e-4624-870f-f108089b65eb"},"vehicle_type_id":"4","last_reported":1703523977,"current_range_meters":23200,"station_id":"ce4bhph2rcd13ifvqhdg","pricing_plan_id":"free"},{"bike_id":"e192df68-2c2b-482d-b6fd-3b8920434290","system_id":"levelo_inurba_marseille","lat":43.295523,"lon":5.422926,"is_reserved":false,"is_disabled":false,"rental_uris":{"android":"levelo://app?vid=e192df68-2c2b-482d-b6fd-3b8920434290","ios":"levelo://app?vid=e192df68-2c2b-482d-b6fd-3b8920434290"},"vehicle_type_id":"4","last_reported":1703523977,"current_range_meters":31600,"station_id":"ce4bhph2rcd13ifvqhdg","pricing_plan_id":"free"},{"bike_id":"5b8be4a2-9e7a-457f-b482-e2479c2a3178","system_id":"levelo_inurba_marseille","lat":43.295511,"lon":5.422926,"is_reserved":false,"is_disabled":false,"rental_uris":{"android":"levelo://app?vid=5b8be4a2-9e7a-457f-b482-e2479c2a3178","ios":"levelo://app?vid=5b8be4a2-9e7a-457f-b482-e2479c2a3178"},"vehicle_type_id":"4","last_reported":1703523977,"current_range_meters":31200,"station_id":"ce4bhph2rcd13ifvqhdg","pricing_plan_id":"free"},{"bike_id":"8d5bec82-4442-4f4e-b4ac-39fd3add04cc","system_id":"levelo_inurba_marseille","lat":43.295523,"lon":5.422926,"is_reserved":false,"is_disabled":false,"rental_uris":{"android":"levelo://app?vid=8d5bec82-4442-4f4e-b4ac-39fd3add04cc","ios":"levelo://app?vid=8d5bec82-4442-4f4e-b4ac-39fd3add04cc"},"vehicle_type_id":"4","last_reported":1703523977,"current_range_meters":28000,"station_id":"ce4bhph2rcd13ifvqhdg","pricing_plan_id":"free"},{"bike_id":"54931eaa-b633-4ada-9886-68c85f99977c","system_id":"levelo_inurba_marseille","lat":43.278128,"lon":5.407195,"is_reserved":false,"is_disabled":false,"rental_uris":{"android":"levelo://app?vid=54931eaa-b633-4ada-9886-68c85f99977c","ios":"levelo://app?vid=54931eaa-b633-4ada-9886-68c85f99977c"},"vehicle_type_id":"4","last_reported":1703523977,"current_range_meters":31200,"station_id":"ce4bhnh2rcd13ifvqgtg","pricing_plan_id":"free"},{"bike_id":"7f2e5865-c62c-49e1-8fe7-99698ae37e08","system_id":"levelo_inurba_marseille","lat":43.278128,"lon":5.407195,"is_reserved":false,"is_disabled":false,"rental_uris":{"android":"levelo://app?vid=7f2e5865-c62c-49e1-8fe7-99698ae37e08","ios":"levelo://app?vid=7f2e5865-c62c-49e1-8fe7-99698ae37e08"},"vehicle_type_id":"4","last_reported":1703523977,"current_range_meters":5200,"station_id":"ce4bhnh2rcd13ifvqgtg","pricing_plan_id":"free"},{"bike_id":"ca449159-21e9-4973-9caf-89f05b20c9b8","system_id":"levelo_inurba_marseille","lat":43.278128,"lon":5.407195,"is_reserved":false,"is_disabled":false,"rental_uris":{"android":"levelo://app?vid=ca449159-21e9-4973-9caf-89f05b20c9b8","ios":"levelo://app?vid=ca449159-21e9-4973-9caf-89f05b20c9b8"},"vehicle_type_id":"4","last_reported":1703523977,"current_range_meters":7600,"station_id":"ce4bhnh2rcd13ifvqgtg","pricing_plan_id":"free"},{"bike_id":"20f05b18-f1ac-406b-9a44-a196c3d60941","system_id":"levelo_inurba_marseille","lat":43.269467,"lon":5.386439,"is_reserved":false,"is_disabled":false,"rental_uris":{"android":"levelo://app?vid=20f05b18-f1ac-406b-9a44-a196c3d60941","ios":"levelo://app?vid=20f05b18-f1ac-406b-9a44-a196c3d60941"},"vehicle_type_id":"4","last_reported":1703523977,"current_range_meters":31200,"station_id":"ce4bhh92rcd13ifvqfh0","pricing_plan_id":"free"},{"bike_id":"c56ab9c4-6e27-468e-876f-4e2f1e1192e2","system_id":"levelo_inurba_marseille","lat":43.269467,"lon":5.386439,"is_reserved":false,"is_disabled":false,"rental_uris":{"android":"levelo://app?vid=c56ab9c4-6e27-468e-876f-4e2f1e1192e2","ios":"levelo://app?vid=c56ab9c4-6e27-468e-876f-4e2f1e1192e2"},"vehicle_type_id":"4","last_reported":1703523977,"current_range_meters":23600,"station_id":"ce4bhh92rcd13ifvqfh0","pricing_plan_id":"free"},{"bike_id":"ad5c93c7-d5dd-4d0b-ad21-2677dab83455","system_id":"levelo_inurba_marseille","lat":43.269467,"lon":5.386439,"is_reserved":false,"is_disabled":false,"rental_uris":{"android":"levelo://app?vid=ad5c93c7-d5dd-4d0b-ad21-2677dab83455","ios":"levelo://app?vid=ad5c93c7-d5dd-4d0b-ad21-2677dab83455"},"vehicle_type_id":"4","last_reported":1703523977,"current_range_meters":27200,"station_id":"ce4bhh92rcd13ifvqfh0","pricing_plan_id":"free"},{"bike_id":"ad393b89-5f5e-4f93-827b-16c15385b5e4","system_id":"levelo_inurba_marseille","lat":43.279465,"lon":5.410561,"is_reserved":false,"is_disabled":false,"rental_uris":{"android":"levelo://app?vid=ad393b89-5f5e-4f93-827b-16c15385b5e4","ios":"levelo://app?vid=ad393b89-5f5e-4f93-827b-16c15385b5e4"},"vehicle_type_id":"4","last_reported":1703523977,"current_range_meters":4000,"station_id":"ce4bhnp2rcd13ifvqh0g","pricing_plan_id":"free"},{"bike_id":"52420c2a-3507-4327-9372-752a57eb1964","system_id":"levelo_inurba_marseille","lat":43.279465,"lon":5.410561,"is_reserved":false,"is_disabled":false,"rental_uris":{"android":"levelo://app?vid=52420c2a-3507-4327-9372-752a57eb1964","ios":"levelo://app?vid=52420c2a-3507-4327-9372-752a57eb1964"},