{"last_updated":1716566926,"ttl":30,"version":"2.2","data":{"bikes":[{"bike_id":"319bd486-be00-4d2c-9dbb-3b5354a6584d","system_id":"levelo_inurba_marseille","lat":43.31244,"lon":5.36845,"is_reserved":false,"is_disabled":false,"rental_uris":{"android":"levelo://app?vid=319bd486-be00-4d2c-9dbb-3b5354a6584d","ios":"levelo://app?vid=319bd486-be00-4d2c-9dbb-3b5354a6584d"},"vehicle_type_id":"4","last_reported":1716566926,"current_range_meters":17200,"station_id":"ce4bgl92rcd13ifvqbq0","pricing_plan_id":"cebpf4jnsgd1na2vs0mg"},{"bike_id":"fe50994c-01e6-4ced-a09d-383640757d5f","system_id":"levelo_inurba_marseille","lat":43.309076,"lon":5.368465,"is_reserved":false,"is_disabled":false,"rental_uris":{"android":"levelo://app?vid=fe50994c-01e6-4ced-a09d-383640757d5f","ios":"levelo://app?vid=fe50994c-01e6-4ced-a09d-383640757d5f"},"vehicle_type_id":"4","last_reported":1716566926,"current_range_meters":26400,"station_id":"ce4bgn92rcd13ifvqbvg","pricing_plan_id":"cebpf4jnsgd1na2vs0mg"},{"bike_id":"23820d95-3340-4af2-a360-fa54a4c47958","system_id":"levelo_inurba_marseille","lat":43.314811,"lon":5.373103,"is_reserved":false,"is_disabled":false,"rental_uris":{"android":"levelo://app?vid=23820d95-3340-4af2-a360-fa54a4c47958","ios":"levelo://app?vid=23820d95-3340-4af2-a360-fa54a4c47958"},"vehicle_type_id":"4","last_reported":1716566926,"current_range_meters":19200,"station_id":"ce4bgt12rcd13ifvqcd0","pricing_plan_id":"cebpf4jnsgd1na2vs0mg"},{"bike_id":"3c3b1225-3a67-44fe-b2dc-d9f430221580","system_id":"levelo_inurba_marseille","lat":43.315071,"lon":5.37295,"is_reserved":false,"is_disabled":false,"rental_uris":{"android":"levelo://app?vid=3c3b1225-3a67-44fe-b2dc-d9f430221580","ios":"levelo://app?vid=3c3b1225-3a67-44fe-b2dc-d9f430221580"},"vehicle_type_id":"4","last_reported":1716566926,"current_range_meters":8800,"station_id":"ce4bgt12rcd13ifvqcd0","pricing_plan_id":"cebpf4jnsgd1na2vs0mg"},{"bike_id":"d3070ce8-db96-4e8b-8f66-c807782fe455","system_id":"levelo_inurba_marseille","lat":43.314811,"lon":5.373103,"is_reserved":false,"is_disabled":false,"rental_uris":{"android":"levelo://app?vid=d3070ce8-db96-4e8b-8f66-c807782fe455","ios":"levelo://app?vid=d3070ce8-db96-4e8b-8f66-c807782fe455"},"vehicle_type_id":"4","last_reported":1716566926,"current_range_meters":26400,"station_id":"ce4bgt12rcd13ifvqcd0","pricing_plan_id":"cebpf4jnsgd1na2vs0mg"},{"bike_id":"9631c321-ff59-41f8-9a6b-3f08782b6754","system_id":"levelo_inurba_marseille","lat":43.31489,"lon":5.37312,"is_reserved":false,"is_disabled":false,"rental_uris":{"android":"levelo://app?vid=9631c321-ff59-41f8-9a6b-3f08782b6754","ios":"levelo://app?vid=9631c321-ff59-41f8-9a6b-3f08782b6754"},"vehicle_type_id":"4","last_reported":1716566926,"current_range_meters":23600,"station_id":"ce4bgt12rcd13ifvqcd0","pricing_plan_id":"cebpf4jnsgd1na2vs0mg"},{"bike_id":"f52f999b-9a83-4b7f-bb1e-ab57f093c88a","system_id":"levelo_inurba_marseille","lat":43.31495,"lon":5.3731,"is_reserved":false,"is_disabled":false,"rental_uris":{"android":"levelo://app?vid=f52f999b-9a83-4b7f-bb1e-ab57f093c88a","ios":"levelo://app?vid=f52f999b-9a83-4b7f-bb1e-ab57f093c88a"},"vehicle_type_id":"4","last_reported":1716566926,"current_range_meters":2400,"station_id":"ce4bgt12rcd13ifvqcd0","pricing_plan_id":"cebpf4jnsgd1na2vs0mg"},{"bike_id":"9d15d0e4-5626-4379-91ea-9975f9c2c27d","system_id":"levelo_inurba_marseille","lat":43.314975,"lon":5.373088,"is_reserved":false,"is_disabled":false,"rental_uris":{"android":"levelo://app?vid=9d15d0e4-5626-4379-91ea-9975f9c2c27d","ios":"levelo://app?vid=9d15d0e4-5626-4379-91ea-9975f9c2c27d"},"vehicle_type_id":"4","last_reported":1716566926,"current_range_meters":25200,"station_id":"ce4bgt12rcd13ifvqcd0","pricing_plan_id":"cebpf4jnsgd1na2vs0mg"},{"bike_id":"377b2489-552e-43d1-a474-10c97a5224ec","system_id":"levelo_inurba_marseille","lat":43.314811,"lon":5.373104,"is_reserved":false,"is_disabled":false,"rental_uris":{"android":"levelo://app?vid=377b2489-552e-43d1-a474-10c97a5224ec","ios":"levelo://app?vid=377b2489-552e-43d1-a474-10c97a5224ec"},"vehicle_type_id":"4","last_reported":1716566926,"current_range_meters":2400,"station_id":"ce4bgt12rcd13ifvqcd0","pricing_plan_id":"cebpf4jnsgd1na2vs0mg"},{"bike_id":"fcd29ed5-c70c-4651-aa0a-e78d1db807ce","system_id":"levelo_inurba_marseille","lat":43.314811,"lon":5.373104,"is_reserved":false,"is_disabled":false,"rental_uris":{"android":"levelo://app?vid=fcd29ed5-c70c-4651-aa0a-e78d1db807ce","ios":"levelo://app?vid=fcd29ed5-c70c-4651-aa0a-e78d1db807ce"},"vehicle_type_id":"4","last_reported":1716566926,"current_range_meters":19200,"station_id":"ce4bgt12rcd13ifvqcd0","pricing_plan_id":"cebpf4jnsgd1na2vs0mg"},{"bike_id":"34ed9b3f-fb89-499c-963f-5564467d983e","system_id":"levelo_inurba_marseille","lat":43.314811,"lon":5.373104,"is_reserved":false,"is_disabled":false,"rental_uris":{"android":"levelo://app?vid=34ed9b3f-fb89-499c-963f-5564467d983e","ios":"levelo://app?vid=34ed9b3f-fb89-499c-963f-5564467d983e"},"vehicle_type_id":"4","last_reported":1716566926,"current_range_meters":26000,"station_id":"ce4bgt12rcd13ifvqcd0","pricing_plan_id":"cebpf4jnsgd1na2vs0mg"},{"bike_id":"0c905e29-e39e-4b01-83d4-eaea3c5a923b","system_id":"levelo_inurba_marseille","lat":43.308958,"lon":5.371998,"is_reserved":false,"is_disabled":false,"rental_uris":{"android":"levelo://app?vid=0c905e29-e39e-4b01-83d4-eaea3c5a923b","ios":"levelo://app?vid=0c905e29-e39e-4b01-83d4-eaea3c5a923b"},"vehicle_type_id":"4","last_reported":1716566926,"current_range_meters":10800,"station_id":"ce4bguh2rcd13ifvqckg","pricing_plan_id":"cebpf4jnsgd1na2vs0mg"},{"bike_id":"3100fd07-eb0b-4cef-9bc9-92b4b1b5b118","system_id":"levelo_inurba_marseille","lat":43.30898,"lon":5.37203,"is_reserved":false,"is_disabled":false,"rental_uris":{"android":"levelo://app?vid=3100fd07-eb0b-4cef-9bc9-92b4b1b5b118","ios":"levelo://app?vid=3100fd07-eb0b-4cef-9bc9-92b4b1b5b118"},"vehicle_type_id":"4","last_reported":1716566926,"current_range_meters":22000,"station_id":"ce4bguh2rcd13ifvqckg","pricing_plan_id":"cebpf4jnsgd1na2vs0mg"},{"bike_id":"f607a2d9-dea8-4867-a264-a375240e5b9a","system_id":"levelo_inurba_marseille","lat":43.31672,"lon":5.3722,"is_reserved":false,"is_disabled":false,"rental_uris":{"android":"levelo://app?vid=f607a2d9-dea8-4867-a264-a375240e5b9a","ios":"levelo://app?vid=f607a2d9-dea8-4867-a264-a375240e5b9a"},"vehicle_type_id":"4","last_reported":1716566926,"current_range_meters":2800,"station_id":"","pricing_plan_id":"cebpf4jnsgd1na2vs0mg"},{"bike_id":"ba19fe6b-c8e8-4995-b891-bdda0dbfe5d5","system_id":"levelo_inurba_marseille","lat":43.30537,"lon":5.367345,"is_reserved":false,"is_disabled":false,"rental_uris":{"android":"levelo://app?vid=ba19fe6b-c8e8-4995-b891-bdda0dbfe5d5","ios":"levelo://app?vid=ba19fe6b-c8e8-4995-b891-bdda0dbfe5d5"},"vehicle_type_id":"4","last_reported":1716566926,"current_range_meters":11200,"station_id":"ce4bgrp2rcd13ifvqc9g","pricing_plan_id":"cebpf4jnsgd1na2vs0mg"},{"bike_id":"a382841a-f751-438c-8bca-d5b3357e663d","system_id":"levelo_inurba_marseille","lat":43.3056,"lon":5.36544,"is_reserved":false,"is_disabled":false,"rental_uris":{"android":"levelo://app?vid=a382841a-f751-438c-8bca-d5b3357e663d","ios":"levelo://app?vid=a382841a-f751-438c-8bca-d5b3357e663d"},"vehicle_type_id":"4","last_reported":1716566926,"current_range_meters":6000,"station_id":"ce4bgs12rcd13ifvqcag","pricing_plan_id":"cebpf4jnsgd1na2vs0mg"},{"bike_id":"861f0e10-bdf2-43c5-bfe1-129925a7db07","system_id":"levelo_inurba_marseille","lat":43.30559,"lon":5.36549,"is_reserved":false,"is_disabled":false,"rental_uris":{"android":"levelo://app?vid=861f0e10-bdf2-43c5-bfe1-129925a7db07","ios":"levelo://app?vid=861f0e10-bdf2-43c5-bfe1-129925a7db07"},"vehicle_type_id":"4","last_reported":1716566926,"current_range_meters":26800,"station_id":"ce4bgs12rcd13ifvqcag","pricing_plan_id":"cebpf4jnsgd1na2vs0mg"},{"bike_id":"ce9bb59e-54a5-4c8a-8514-e94c42bfa4ff","system_id":"levelo_inurba_marseille","lat":43.305714,"lon":5.365633,"is_reserved":false,"is_disabled":false,"rental_uris":{"android":"levelo://app?vid=ce9bb59e-54a5-4c8a-8514-e94c42bfa4ff","ios":"levelo://app?vid=ce9bb59e-54a5-4c8a-8514-e94c42bfa4ff"},"vehicle_type_id":"4","last_reported":1716566926,"current_range_meters":4800,"station_id":"ce4bgs12rcd13ifvqcag","pricing_plan_id":"cebpf4jnsgd1na2vs0mg"},{"bike_id":"f58d66a6-9907-47ef-a2eb-550bfafd92f4","system_id":"levelo_inurba_marseille","lat":43.305408,"lon":5.365573,"is_reserved":false,"is_disabled":false,"rental_uris":{"android":"levelo://app?vid=f58d66a6-9907-47ef-a2eb-550bfafd92f4","ios":"levelo://app?vid=f58d66a6-9907-47ef-a2eb-550bfafd92f4"},"vehicle_type_id":"4","last_reported":1716566926,"current_range_meters":28400,"station_id":"ce4bgs12rcd13ifvqcag","pricing_plan_id":"cebpf4jnsgd1na2vs0mg"},{"bike_id":"290b827c-54ef-4b66-8d74-7c3dc42231b1","system_id":"levelo_inurba_marseille","lat":43.305706,"lon":5.365654,"is_reserved":false,"is_disabled":false,"rental_uris":{"android":"levelo://app?vid=290b827c-54ef-4b66-8d74-7c3dc42231b1","ios":"levelo://app?vid=290b827c-54ef-4b66-8d74-7c3dc42231b1"},"vehicle_type_id":"4","last_reported":1716566926,"current_range_meters":23200,"station_id":"ce4bgs12rcd13ifvqcag","pricing_plan_id":"cebpf4jnsgd1na2vs0mg"},{"bike_id":"814fae55-9262-431f-80ba-4a08b490c919","system_id":"levelo_inurba_marseille","lat":43.305377,"lon":5.365362,"is_reserved":false,"is_disabled":false,"rental_uris":{"android":"levelo://app?vid=814fae55-9262-431f-80ba-4a08b490c919","ios":"levelo://app?vid=814fae55-9262-431f-80ba-4a08b490c919"},"vehicle_type_id":"4","last_reported":1716566926,"current_range_meters":20000,"station_id":"ce4bgs12rcd13ifvqcag","pricing_plan_id":"cebpf4jnsgd1na2vs0mg"},{"bike_id":"07859226-62eb-4149-a028-5847cd4f7312","system_id":"levelo_inurba_marseille","lat":43.30614,"lon":5.37217,"is_reserved":false,"is_disabled":false,"rental_uris":{"android":"levelo://app?vid=07859226-62eb-4149-a028-5847cd4f7312","ios":"levelo://app?vid=07859226-62eb-4149-a028-5847cd4f7312"},"vehicle_type_id":"4","last_reported":1716566926,"current_range_meters":13200,"station_id":"ce4bgqh2rcd13ifvqc4g","pricing_plan_id":"cebpf4jnsgd1na2vs0mg"},{"bike_id":"a6ff42ba-4d16-41f5-a66d-9d6140361aa6","system_id":"levelo_inurba_marseille","lat":43.305989,"lon":5.37225,"is_reserved":false,"is_disabled":false,"rental_uris":{"android":"levelo://app?vid=a6ff42ba-4d16-41f5-a66d-9d6140361aa6","ios":"levelo://app?vid=a6ff42ba-4d16-41f5-a66d-9d6140361aa6"},"vehicle_type_id":"4","last_reported":1716566926,"current_range_meters":4000,"station_id":"ce4bgqh2rcd13ifvqc4g","pricing_plan_id":"cebpf4jnsgd1na2vs0mg"},{"bike_id":"085f8808-1d82-4a31-a42a-8e58df7e3717","system_id":"levelo_inurba_marseille","lat":43.305989,"lon":5.37225,"is_reserved":false,"is_disabled":false,"rental_uris":{"android":"levelo://app?vid=085f8808-1d82-4a31-a42a-8e58df7e3717","ios":"levelo://app?vid=085f8808-1d82-4a31-a42a-8e58df7e3717"},"vehicle_type_id":"4","last_reported":1716566926,"current_range_meters":31200,"station_id":"ce4bgqh2rcd13ifvqc4g","pricing_plan_id":"cebpf4jnsgd1na2vs0mg"},{"bike_id":"070c1f08-0aff-447d-90ed-da40a8d132c7","system_id":"levelo_inurba_marseille","lat":43.305989,"lon":5.37225,"is_reserved":false,"is_disabled":false,"rental_uris":{"android":"levelo://app?vid=070c1f08-0aff-447d-90ed-da40a8d132c7","ios":"levelo://app?vid=070c1f08-0aff-447d-90ed-da40a8d132c7"},"vehicle_type_id":"4","last_reported":1716566926,"current_range_meters":16000,"station_id":"ce4bgqh2rcd13ifvqc4g","pricing_plan_id":"cebpf4jnsgd1na2vs0mg"},{"bike_id":"f623445d-5cc5-4197-b5fc-26fe1762f37c","system_id":"levelo_inurba_marseille","lat":43.307945,"lon":5.376487,"is_reserved":false,"is_disabled":false,"rental_uris":{"android":"levelo://app?vid=f623445d-5cc5-4197-b5fc-26fe1762f37c","ios":"levelo://app?vid=f623445d-5cc5-4197-b5fc-26fe1762f37c"},"vehicle_type_id":"4","last_reported":1716566926,"current_range_meters":28800,"station_id":"ce4bgv92rcd13ifvqcq0","pricing_plan_id":"cebpf4jnsgd1na2vs0mg"},{"bike_id":"61889c37-7e7a-4b0e-9ad3-e13abd0b2ed1","system_id":"levelo_inurba_marseille","lat":43.307945,"lon":5.376487,"is_reserved":false,"is_disabled":false,"rental_uris":{"android":"levelo://app?vid=61889c37-7e7a-4b0e-9ad3-e13abd0b2ed1","ios":"levelo://app?vid=61889c37-7e7a-4b0e-9ad3-e13abd0b2ed1"},"vehicle_type_id":"4","last_reported":1716566926,"current_range_meters":4400,"station_id":"ce4bgv92rcd13ifvqcq0","pricing_plan_id":"cebpf4jnsgd1na2vs0mg"},{"bike_id":"eb7c733e-5fae-4ba2-88f1-2412c04e26dc","system_id":"levelo_inurba_marseille","lat":43.307945,"lon":5.376487,"is_reserved":false,"is_disabled":false,"rental_uris":{"android":"levelo://app?vid=eb7c733e-5fae-4ba2-88f1-2412c04e26dc","ios":"levelo://app?vid=eb7c733e-5fae-4ba2-88f1-2412c04e26dc"},"vehicle_type_id":"4","last_reported":1716566926,"current_range_meters":11600,"station_id":"ce4bgv92rcd13ifvqcq0","pricing_plan_id":"cebpf4jnsgd1na2vs0mg"},{"bike_id":"4be03ef2-285c-4d03-971c-421d9d454ef8","system_id":"levelo_inurba_marseille","lat":43.307945,"lon":5.376487,"is_reserved":false,"is_disabled":false,"rental_uris":{"android":"levelo://app?vid=4be03ef2-285c-4d03-971c-421d9d454ef8","ios":"levelo://app?vid=4be03ef2-285c-4d03-971c-421d9d454ef8"},"vehicle_type_id":"4","last_reported":1716566926,"current_range_meters":30400,"station_id":"ce4bgv92rcd13ifvqcq0","pricing_plan_id":"cebpf4jnsgd1na2vs0mg"},{"bike_id":"1c9a4456-0730-4038-9636-e8e88059bac5","system_id":"levelo_inurba_marseille","lat":43.307945,"lon":5.376487,"is_reserved":false,"is_disabled":false,"rental_uris":{"android":"levelo://app?vid=1c9a4456-0730-4038-9636-e8e88059bac5","ios":"levelo://app?vid=1c9a4456-0730-4038-9636-e8e88059bac5"},"vehicle_type_id":"4","last_reported":1716566926,"current_range_meters":12400,"station_id":"ce4bgv92rcd13ifvqcq0","pricing_plan_id":"cebpf4jnsgd1na2vs0mg"},{"bike_id":"f161c0f3-f28b-4efd-9f32-7b0241f0213c","system_id":"levelo_inurba_marseille","lat":43.307945,"lon":5.376487,"is_reserved":false,"is_disabled":false,"rental_uris":{"android":"levelo://app?vid=f161c0f3-f28b-4efd-9f32-7b0241f0213c","ios":"levelo://app?vid=f161c0f3-f28b-4efd-9f32-7b0241f0213c"},"vehicle_type_id":"4","last_reported":1716566926,"current_range_meters":14400,"station_id":"ce4bgv92rcd13ifvqcq0","pricing_plan_id":"cebpf4jnsgd1na2vs0mg"},{"bike_id":"7c7e1623-3d3d-4de1-acac-a66f56164fbe","system_id":"levelo_inurba_marseille","lat":43.307945,"lon":5.376487,"is_reserved":false,"is_disabled":false,"rental_uris":{"android":"levelo://app?vid=7c7e1623-3d3d-4de1-acac-a66f56164fbe","ios":"levelo://app?vid=7c7e1623-3d3d-4de1-acac-a66f56164fbe"},"vehicle_type_id":"4","last_reported":1716566926,"current_range_meters":24400,"station_id":"ce4bgv92rcd13ifvqcq0","pricing_plan_id":"cebpf4jnsgd1na2vs0mg"},{"bike_id":"b5263313-2f9a-454f-8171-be5b6cfa626e","system_id":"levelo_inurba_marseille","lat":43.317098,"lon":5.377877,"is_reserved":false,"is_disabled":false,"rental_uris":{"android":"levelo://app?vid=b5263313-2f9a-454f-8171-be5b6cfa626e","ios":"levelo://app?vid=b5263313-2f9a-454f-8171-be5b6cfa626e"},"vehicle_type_id":"4","last_reported":1716566926,"current_range_meters":23200,"station_id":"ce4bgth2rcd13ifvqch0","pricing_plan_id":"cebpf4jnsgd1na2vs0mg"},{"bike_id":"8fef0df6-30fa-4153-b861-8f8c8d435aff","system_id":"levelo_inurba_marseille","lat":43.303046,"lon":5.368981,"is_reserved":false,"is_disabled":false,"rental_uris":{"android":"levelo://app?vid=8fef0df6-30fa-4153-b861-8f8c8d435aff","ios":"levelo://app?vid=8fef0df6-30fa-4153-b861-8f8c8d435aff"},"vehicle_type_id":"4","last_reported":1716566926,"current_range_meters":2000,"station_id":"ce4bgqh2rcd13ifvqc5g","pricing_plan_id":"cebpf4jnsgd1na2vs0mg"},{"bike_id":"de8dfcc2-1a57-44ff-996c-2bdb0955344f","system_id":"levelo_inurba_marseille","lat":43.315289,"lon":5.380349,"is_reserved":false,"is_disabled":false,"rental_uris":{"android":"levelo://app?vid=de8dfcc2-1a57-44ff-996c-2bdb0955344f","ios":"levelo://app?vid=de8dfcc2-1a57-44ff-996c-2bdb0955344f"},"vehicle_type_id":"4","last_reported":1716566926,"current_range_meters":13200,"station_id":"ce4bhsp2rcd13ifvqi50","pricing_plan_id":"cebpf4jnsgd1na2vs0mg"},{"bike_id":"f25db129-61e4-45ff-8c35-e631de267322","system_id":"levelo_inurba_marseille","lat":43.301939,"lon":5.366286,"is_reserved":false,"is_disabled":false,"rental_uris":{"android":"levelo://app?vid=f25db129-61e4-45ff-8c35-e631de267322","ios":"levelo://app?vid=f25db129-61e4-45ff-8c35-e631de267322"},"vehicle_type_id":"4","last_reported":1716566926,"current_range_meters":26400,"station_id":"ce4bgrh2rcd13ifvqc8g","pricing_plan_id":"cebpf4jnsgd1na2vs0mg"},{"bike_id":"03b2d0ac-4855-463a-a2f0-be21041dc802","system_id":"levelo_inurba_marseille","lat":43.304606,"lon":5.379026,"is_reserved":false,"is_disabled":false,"rental_uris":{"android":"levelo://app?vid=03b2d0ac-4855-463a-a2f0-be21041dc802","ios":"levelo://app?vid=03b2d0ac-4855-463a-a2f0-be21041dc802"},"vehicle_type_id":"4","last_reported":1716566926,"current_range_meters":31200,"station_id":"ce4bgup2rcd13ifvqcn0","pricing_plan_id":"cebpf4jnsgd1na2vs0mg"},{"bike_id":"f8ffaa57-6eea-4af6-aeab-a2501b331893","system_id":"levelo_inurba_marseille","lat":43.324771,"lon":5.36557,"is_reserved":false,"is_disabled":false,"rental_uris":{"android":"levelo://app?vid=f8ffaa57-6eea-4af6-aeab-a2501b331893","ios":"levelo://app?vid=f8ffaa57-6eea-4af6-aeab-a2501b331893"},"vehicle_type_id":"4","last_reported":1716566926,"current_range_meters":31200,"station_id":"ce4bhs12rcd13ifvqhvg","pricing_plan_id":"cebpf4jnsgd1na2vs0mg"},{"bike_id":"a5088846-e85a-40ae-afb2-ba43e274e7d5","system_id":"levelo_inurba_marseille","lat":43.324771,"lon":5.36557,"is_reserved":false,"is_disabled":false,"rental_uris":{"android":"levelo://app?vid=a5088846-e85a-40ae-afb2-ba43e274e7d5","ios":"levelo://app?vid=a5088846-e85a-40ae-afb2-ba43e274e7d5"},"vehicle_type_id":"4","last_reported":1716566926,"current_range_meters":17200,"station_id":"ce4bhs12rcd13ifvqhvg","pricing_plan_id":"cebpf4jnsgd1na2vs0mg"},{"bike_id":"706efe4b-ab2c-4b6b-9fa9-d96e3129a976","system_id":"levelo_inurba_marseille","lat":43.324771,"lon":5.36557,"is_reserved":false,"is_disabled":false,"rental_uris":{"android":"levelo://app?vid=706efe4b-ab2c-4b6b-9fa9-d96e3129a976","ios":"levelo://app?vid=706efe4b-ab2c-4b6b-9fa9-d96e3129a976"},"vehicle_type_id":"4","last_reported":1716566926,"current_range_meters":20000,"station_id":"ce4bhs12rcd13ifvqhvg","pricing_plan_id":"cebpf4jnsgd1na2vs0mg"},{"bike_id":"f22c24f6-9295-4f14-bcb0-5f42ea025f9f","system_id":"levelo_inurba_marseille","lat":43.30712,"lon":5.381641,"is_reserved":false,"is_disabled":false,"rental_uris":{"android":"levelo://app?vid=f22c24f6-9295-4f14-bcb0-5f42ea025f9f","ios":"levelo://app?vid=f22c24f6-9295-4f14-bcb0-5f42ea025f9f"},"vehicle_type_id":"4","last_reported":1716566926,"current_range_meters":9200,"station_id":"ce4bgt12rcd13ifvqce0","pricing_plan_id":"cebpf4jnsgd1na2vs0mg"},{"bike_id":"46cad44a-c6f9-49fd-aa92-8c749577af76","system_id":"levelo_inurba_marseille","lat":43.324817,"lon":5.365718,"is_reserved":false,"is_disabled":false,"rental_uris":{"android":"levelo://app?vid=46cad44a-c6f9-49fd-aa92-8c749577af76","ios":"levelo://app?vid=46cad44a-c6f9-49fd-aa92-8c749577af76"},"vehicle_type_id":"4","last_reported":1716566926,"current_range_meters":6800,"station_id":"ce4bhs12rcd13ifvqhvg","pricing_plan_id":"cebpf4jnsgd1na2vs0mg"},{"bike_id":"ea907f84-dbdc-4a85-bdb3-2569bfe37edc","system_id":"levelo_inurba_marseille","lat":43.324771,"lon":5.36557,"is_reserved":false,"is_disabled":false,"rental_uris":{"android":"levelo://app?vid=ea907f84-dbdc-4a85-bdb3-2569bfe37edc","ios":"levelo://app?vid=ea907f84-dbdc-4a85-bdb3-2569bfe37edc"},"vehicle_type_id":"4","last_reported":1716566926,"current_range_meters":21600,"station_id":"ce4bhs12rcd13ifvqhvg","pricing_plan_id":"cebpf4jnsgd1na2vs0mg"},{"bike_id":"97aa767d-4a7c-4d81-b244-c5d3efb49efc","system_id":"levelo_inurba_marseille","lat":43.324771,"lon":5.36557,"is_reserved":false,"is_disabled":false,"rental_uris":{"android":"levelo://app?vid=97aa767d-4a7c-4d81-b244-c5d3efb49efc","ios":"levelo://app?vid=97aa767d-4a7c-4d81-b244-c5d3efb49efc"},"vehicle_type_id":"4","last_reported":1716566926,"current_range_meters":25600,"station_id":"ce4bhs12rcd13ifvqhvg","pricing_plan_id":"cebpf4jnsgd1na2vs0mg"},{"bike_id":"6a39c2c1-3f5d-4386-9723-56c6d4271e93","system_id":"levelo_inurba_marseille","lat":43.32484,"lon":5.36563,"is_reserved":false,"is_disabled":false,"rental_uris":{"android":"levelo://app?vid=6a39c2c1-3f5d-4386-9723-56c6d4271e93","ios":"levelo://app?vid=6a39c2c1-3f5d-4386-9723-56c6d4271e93"},"vehicle_type_id":"4","last_reported":1716566926,"current_range_meters":400,"station_id":"ce4bhs12rcd13ifvqhvg","pricing_plan_id":"cebpf4jnsgd1na2vs0mg"},{"bike_id":"1400d0c1-a098-49cc-adaf-76897b171761","system_id":"levelo_inurba_marseille","lat":43.324771,"lon":5.36557,"is_reserved":false,"is_disabled":false,"rental_uris":{"android":"levelo://app?vid=1400d0c1-a098-49cc-adaf-76897b171761","ios":"levelo://app?vid=1400d0c1-a098-49cc-adaf-76897b171761"},"vehicle_type_id":"4","last_reported":1716566926,"current_range_meters":24000,"station_id":"ce4bhs12rcd13ifvqhvg","pricing_plan_id":"cebpf4jnsgd1na2vs0mg"},{"bike_id":"50c29a44-7852-4484-a720-9496a83819c1","system_id":"levelo_inurba_marseille","lat":43.302784,"lon":5.377158,"is_reserved":false,"is_disabled":false,"rental_uris":{"android":"levelo://app?vid=50c29a44-7852-4484-a720-9496a83819c1","ios":"levelo://app?vid=50c29a44-7852-4484-a720-9496a83819c1"},"vehicle_type_id":"4","last_reported":1716566926,"current_range_meters":28000,"station_id":"ce4bguh2rcd13ifvqcj0","pricing_plan_id":"cebpf4jnsgd1na2vs0mg"},{"bike_id":"0fbe5198-f394-4686-a086-9ac196b8caea","system_id":"levelo_inurba_marseille","lat":43.319935,"lon":5.381699,"is_reserved":false,"is_disabled":false,"rental_uris":{"android":"levelo://app?vid=0fbe5198-f394-4686-a086-9ac196b8caea","ios":"levelo://app?vid=0fbe5198-f394-4686-a086-9ac196b8caea"},"vehicle_type_id":"4","last_reported":1716566926,"current_range_meters":22800,"station_id":"ce4bhr12rcd13ifvqhpg","pricing_plan_id":"cebpf4jnsgd1na2vs0mg"},{"bike_id":"659b5f1e-1b58-48d0-8b18-0f8309fdf1c3","system_id":"levelo_inurba_marseille","lat":43.319935,"lon":5.381699,"is_reserved":false,"is_disabled":false,"rental_uris":{"android":"levelo://app?vid=659b5f1e-1b58-48d0-8b18-0f8309fdf1c3","ios":"levelo://app?vid=659b5f1e-1b58-48d0-8b18-0f8309fdf1c3"},"vehicle_type_id":"4","last_reported":1716566926,"current_range_meters":3200,"station_id":"ce4bhr12rcd13ifvqhpg","pricing_plan_id":"cebpf4jnsgd1na2vs0mg"},{"bike_id":"71369abf-e394-4940-97da-986f25abee8b","system_id":"levelo_inurba_marseille","lat":43.319935,"lon":5.381699,"is_reserved":false,"is_disabled":false,"rental_uris":{"android":"levelo://app?vid=71369abf-e394-4940-97da-986f25abee8b","ios":"levelo://app?vid=71369abf-e394-4940-97da-986f25abee8b"},"vehicle_type_id":"4","last_reported":1716566926,"current_range_meters":22000,"station_id":"ce4bhr12rcd13ifvqhpg","pricing_plan_id":"cebpf4jnsgd1na2vs0mg"},{"bike_id":"d6cf34df-394c-4d92-a652-1b6a17a3dade","system_id":"levelo_inurba_marseille","lat":43.319935,"lon":5.381699,"is_reserved":false,"is_disabled":false,"rental_uris":{"android":"levelo://app?vid=d6cf34df-394c-4d92-a652-1b6a17a3dade","ios":"levelo://app?vid=d6cf34df-394c-4d92-a652-1b6a17a3dade"},"vehicle_type_id":"4","last_reported":1716566926,"current_range_meters":7200,"station_id":"ce4bhr12rcd13ifvqhpg","pricing_plan_id":"cebpf4jnsgd1na2vs0mg"},{"bike_id":"355ef40c-fce9-431a-9fc9-60a8505fc255","system_id":"levelo_inurba_marseille","lat":43.319935,"lon":5.381699,"is_reserved":false,"is_disabled":false,"rental_uris":{"android":"levelo://app?vid=355ef40c-fce9-431a-9fc9-60a8505fc255","ios":"levelo://app?vid=355ef40c-fce9-431a-9fc9-60a8505fc255"},"vehicle_type_id":"4","last_reported":1716566926,"current_range_meters":15600,"station_id":"ce4bhr12rcd13ifvqhpg","pricing_plan_id":"cebpf4jnsgd1na2vs0mg"},{"bike_id":"1366b3d5-04b1-4cd5-a5e6-45a66ac47ff6","system_id":"levelo_inurba_marseille","lat":43.319935,"lon":5.381699,"is_reserved":false,"is_disabled":false,"rental_uris":{"android":"levelo://app?vid=1366b3d5-04b1-4cd5-a5e6-45a66ac47ff6","ios":"levelo://app?vid=1366b3d5-04b1-4cd5-a5e6-45a66ac47ff6"},"vehicle_type_id":"4","last_reported":1716566926,"current_range_meters":4000,"station_id":"ce4bhr12rcd13ifvqhpg","pricing_plan_id":"cebpf4jnsgd1na2vs0mg"},{"bike_id":"f0f9944e-decf-49be-917f-137cea141675","system_id":"levelo_inurba_marseille","lat":43.313571,"lon":5.384829,"is_reserved":false,"is_disabled":false,"rental_uris":{"android":"levelo://app?vid=f0f9944e-decf-49be-917f-137cea141675","ios":"levelo://app?vid=f0f9944e-decf-49be-917f-137cea141675"},"vehicle_type_id":"4","last_reported":1716566926,"current_range_meters":4000,"station_id":"ce4bgt92rcd13ifvqcf0","pricing_plan_id":"cebpf4jnsgd1na2vs0mg"},{"bike_id":"a4f02269-9c61-4b1b-bb6f-973ab34264cf","system_id":"levelo_inurba_marseille","lat":43.313571,"lon":5.384829,"is_reserved":false,"is_disabled":false,"rental_uris":{"android":"levelo://app?vid=a4f02269-9c61-4b1b-bb6f-973ab34264cf","ios":"levelo://app?vid=a4f02269-9c61-4b1b-bb6f-973ab34264cf"},"vehicle_type_id":"4","last_reported":1716566926,"current_range_meters":17200,"station_id":"ce4bgt92rcd13ifvqcf0","pricing_plan_id":"cebpf4jnsgd1na2vs0mg"},{"bike_id":"c966d728-7dd5-4d99-8171-e1d233e65442","system_id":"levelo_inurba_marseille","lat":43.30143,"lon":5.37413,"is_reserved":false,"is_disabled":false,"rental_uris":{"android":"levelo://app?vid=c966d728-7dd5-4d99-8171-e1d233e65442","ios":"levelo://app?vid=c966d728-7dd5-4d99-8171-e1d233e65442"},"vehicle_type_id":"4","last_reported":1716566926,"current_range_meters":17600,"station_id":"ce4bgs92rcd13ifvqcc0","pricing_plan_id":"cebpf4jnsgd1na2vs0mg"},{"bike_id":"f13bc90f-8b25-4811-9304-65e796373c63","system_id":"levelo_inurba_marseille","lat":43.313571,"lon":5.384829,"is_reserved":false,"is_disabled":false,"rental_uris":{"android":"levelo://app?vid=f13bc90f-8b25-4811-9304-65e796373c63","ios":"levelo://app?vid=f13bc90f-8b25-4811-9304-65e796373c63"},"vehicle_type_id":"4","last_reported":1716566926,"current_range_meters":8400,"station_id":"ce4bgt92rcd13ifvqcf0","pricing_plan_id":"cebpf4jnsgd1na2vs0mg"},{"bike_id":"69194de8-b4c6-4074-91f7-6183af2b4bdb","system_id":"levelo_inurba_marseille","lat":43.299724,"lon":5.371829,"is_reserved":false,"is_disabled":false,"rental_uris":{"android":"levelo://app?vid=69194de8-b4c6-4074-91f7-6183af2b4bdb","ios":"levelo://app?vid=69194de8-b4c6-4074-91f7-6183af2b4bdb"},"vehicle_type_id":"4","last_reported":1716566926,"current_range_meters":13200,"station_id":"ce4bgr92rcd13ifvqc7g","pricing_plan_id":"cebpf4jnsgd1na2vs0mg"},{"bike_id":"c8dc29d7-aa04-470a-b0f0-f1d146f03e49","system_id":"levelo_inurba_marseille","lat":43.298433,"lon":5.362774,"is_reserved":false,"is_disabled":false,"rental_uris":{"android":"levelo://app?vid=c8dc29d7-aa04-470a-b0f0-f1d146f03e49","ios":"levelo://app?vid=c8dc29d7-aa04-470a-b0f0-f1d146f03e49"},"vehicle_type_id":"4","last_reported":1716566926,"current_range_meters":26000,"station_id":"ce4bgpp2rcd13ifvqc3g","pricing_plan_id":"cebpf4jnsgd1na2vs0mg"},{"bike_id":"26189afd-df96-4f9c-88c6-0e01335de9d8","system_id":"levelo_inurba_marseille","lat":43.298433,"lon":5.362774,"is_reserved":false,"is_disabled":false,"rental_uris":{"android":"levelo://app?vid=26189afd-df96-4f9c-88c6-0e01335de9d8","ios":"levelo://app?vid=26189afd-df96-4f9c-88c6-0e01335de9d8"},"vehicle_type_id":"4","last_reported":1716566926,"current_range_meters":31200,"station_id":"ce4bgpp2rcd13ifvqc3g","pricing_plan_id":"cebpf4jnsgd1na2vs0mg"},{"bike_id":"b74d5cc6-42fc-4157-9c72-388e4db8cec7","system_id":"levelo_inurba_marseille","lat":43.298433,"lon":5.362774,"is_reserved":false,"is_disabled":false,"rental_uris":{"android":"levelo://app?vid=b74d5cc6-42fc-4157-9c72-388e4db8cec7","ios":"levelo://app?vid=b74d5cc6-42fc-4157-9c72-388e4db8cec7"},"vehicle_type_id":"4","last_reported":1716566926,"current_range_meters":20800,"station_id":"ce4bgpp2rcd13ifvqc3g","pricing_plan_id":"cebpf4jnsgd1na2vs0mg"},{"bike_id":"0a54c0d0-3360-4ab0-a71a-773256598603","system_id":"levelo_inurba_marseille","lat":43.298433,"lon":5.362774,"is_reserved":false,"is_disabled":false,"rental_uris":{"android":"levelo://app?vid=0a54c0d0-3360-4ab0-a71a-773256598603","ios":"levelo://app?vid=0a54c0d0-3360-4ab0-a71a-773256598603"},"vehicle_type_id":"4","last_reported":1716566926,"current_range_meters":19600,"station_id":"ce4bgpp2rcd13ifvqc3g","pricing_plan_id":"cebpf4jnsgd1na2vs0mg"},{"bike_id":"5f498ce9-fc59-4912-b42c-0a5c4908aa38","system_id":"levelo_inurba_marseille","lat":43.298433,"lon":5.362774,"is_reserved":false,"is_disabled":false,"rental_uris":{"android":"levelo://app?vid=5f498ce9-fc59-4912-b42c-0a5c4908aa38","ios":"levelo://app?vid=5f498ce9-fc59-4912-b42c-0a5c4908aa38"},"vehicle_type_id":"4","last_reported":1716566926,"current_range_meters":25600,"station_id":"ce4bgpp2rcd13ifvqc3g","pricing_plan_id":"cebpf4jnsgd1na2vs0mg"},{"bike_id":"0ef7eff3-c6a2-4f57-b87b-d35ef537addc","system_id":"levelo_inurba_marseille","lat":43.298433,"lon":5.362774,"is_reserved":false,"is_disabled":false,"rental_uris":{"android":"levelo://app?vid=0ef7eff3-c6a2-4f57-b87b-d35ef537addc","ios":"levelo://app?vid=0ef7eff3-c6a2-4f57-b87b-d35ef537addc"},"vehicle_type_id":"4","last_reported":1716566926,"current_range_meters":10400,"station_id":"ce4bgpp2rcd13ifvqc3g","pricing_plan_id":"cebpf4jnsgd1na2vs0mg"},{"bike_id":"336d5d4d-9605-4fcb-864b-3aea2280ae65","system_id":"levelo_inurba_marseille","lat":43.305364,"lon":5.384119,"is_reserved":false,"is_disabled":false,"rental_uris":{"android":"levelo://app?vid=336d5d4d-9605-4fcb-864b-3aea2280ae65","ios":"levelo://app?vid=336d5d4d-9605-4fcb-864b-3aea2280ae65"},"vehicle_type_id":"4","last_reported":1716566926,"current_range_meters":12000,"station_id":"ce4bgg92rcd13ifvqb30","pricing_plan_id":"cebpf4jnsgd1na2vs0mg"},{"bike_id":"3b3faaa5-6bae-44f8-8aac-90767cb72dc8","system_id":"levelo_inurba_marseille","lat":43.298433,"lon":5.362774,"is_reserved":false,"is_disabled":false,"rental_uris":{"android":"levelo://app?vid=3b3faaa5-6bae-44f8-8aac-90767cb72dc8","ios":"levelo://app?vid=3b3faaa5-6bae-44f8-8aac-90767cb72dc8"},"vehicle_type_id":"4","last_reported":1716566926,"current_range_meters":28400,"station_id":"ce4bgpp2rcd13ifvqc3g","pricing_plan_id":"cebpf4jnsgd1na2vs0mg"},{"bike_id":"a1b7489e-97e4-4466-96ef-0bb002ffa013","system_id":"levelo_inurba_marseille","lat":43.298433,"lon":5.362774,"is_reserved":false,"is_disabled":false,"rental_uris":{"android":"levelo://app?vid=a1b7489e-97e4-4466-96ef-0bb002ffa013","ios":"levelo://app?vid=a1b7489e-97e4-4466-96ef-0bb002ffa013"},"vehicle_type_id":"4","last_reported":1716566926,"current_range_meters":31200,"station_id":"ce4bgpp2rcd13ifvqc3g","pricing_plan_id":"cebpf4jnsgd1na2vs0mg"},{"bike_id":"c4fc6e74-e498-422f-a026-7de1a40e15bc","system_id":"levelo_inurba_marseille","lat":43.305364,"lon":5.384119,"is_reserved":false,"is_disabled":false,"rental_uris":{"android":"levelo://app?vid=c4fc6e74-e498-422f-a026-7de1a40e15bc","ios":"levelo://app?vid=c4fc6e74-e498-422f-a026-7de1a40e15bc"},"vehicle_type_id":"4","last_reported":1716566926,"current_range_meters":26000,"station_id":"ce4bgg92rcd13ifvqb30","pricing_plan_id":"cebpf4jnsgd1na2vs0mg"},{"bike_id":"d4529a56-635f-4d5d-9377-4be1afe28d42","system_id":"levelo_inurba_marseille","lat":43.311722,"lon":5.387247,"is_reserved":false,"is_disabled":false,"rental_uris":{"android":"levelo://app?vid=d4529a56-635f-4d5d-9377-4be1afe28d42","ios":"levelo://app?vid=d4529a56-635f-4d5d-9377-4be1afe28d42"},"vehicle_type_id":"4","last_reported":1716566926,"current_range_meters":800,"station_id":"ce4bgv12rcd13ifvqcp0","pricing_plan_id":"cebpf4jnsgd1na2vs0mg"},{"bike_id":"aaeb54f7-df8b-4dab-aae1-2016ebe7dbae","system_id":"levelo_inurba_marseille","lat":43.299243,"lon":5.37481,"is_reserved":false,"is_disabled":false,"rental_uris":{"android":"levelo://app?vid=aaeb54f7-df8b-4dab-aae1-2016ebe7dbae","ios":"levelo://app?vid=aaeb54f7-df8b-4dab-aae1-2016ebe7dbae"},"vehicle_type_id":"4","last_reported":1716566926,"current_range_meters":11200,"station_id":"ce4bgjh2rcd13ifvqbg0","pricing_plan_id":"cebpf4jnsgd1na2vs0mg"},{"bike_id":"8cd4a6c2-ae70-421d-a7c2-8e03d453613a","system_id":"levelo_inurba_marseille","lat":43.297916,"lon":5.370974,"is_reserved":false,"is_disabled":false,"rental_uris":{"android":"levelo://app?vid=8cd4a6c2-ae70-421d-a7c2-8e03d453613a","ios":"levelo://app?vid=8cd4a6c2-ae70-421d-a7c2-8e03d453613a"},"vehicle_type_id":"4","last_reported":1716566926,"current_range_meters":1600,"station_id":"ce4bgop2rcd13ifvqc1g","pricing_plan_id":"cebpf4jnsgd1na2vs0mg"},{"bike_id":"ed492a4e-944e-43b3-bd26-4581a8e6f7a8","system_id":"levelo_inurba_marseille","lat":43.297794,"lon":5.370888,"is_reserved":false,"is_disabled":false,"rental_uris":{"android":"levelo://app?vid=ed492a4e-944e-43b3-bd26-4581a8e6f7a8","ios":"levelo://app?vid=ed492a4e-944e-43b3-bd26-4581a8e6f7a8"},"vehicle_type_id":"4","last_reported":1716566926,"current_range_meters":30000,"station_id":"ce4bgop2rcd13ifvqc1g","pricing_plan_id":"cebpf4jnsgd1na2vs0mg"},{"bike_id":"9834557c-5c1b-464f-914a-8bf7152c05db","system_id":"levelo_inurba_marseille","lat":43.297794,"lon":5.370888,"is_reserved":false,"is_disabled":false,"rental_uris":{"android":"levelo://app?vid=9834557c-5c1b-464f-914a-8bf7152c05db","ios":"levelo://app?vid=9834557c-5c1b-464f-914a-8bf7152c05db"},"vehicle_type_id":"4","last_reported":1716566926,"current_range_meters":17200,"station_id":"ce4bgop2rcd13ifvqc1g","pricing_plan_id":"cebpf4jnsgd1na2vs0mg"},{"bike_id":"9c15b08f-9058-4daf-b4e5-bdb71ecd1f9c","system_id":"levelo_inurba_marseille","lat":43.2978,"lon":5.37116,"is_reserved":false,"is_disabled":false,"rental_uris":{"android":"levelo://app?vid=9c15b08f-9058-4daf-b4e5-bdb71ecd1f9c","ios":"levelo://app?vid=9c15b08f-9058-4daf-b4e5-bdb71ecd1f9c"},"vehicle_type_id":"4","last_reported":1716566926,"current_range_meters":0,"station_id":"ce4bgop2rcd13ifvqc1g","pricing_plan_id":"cebpf4jnsgd1na2vs0mg"},{"bike_id":"789328d4-6408-480a-a7f2-275f692dda22","system_id":"levelo_inurba_marseille","lat":43.297774,"lon":5.370875,"is_reserved":false,"is_disabled":false,"rental_uris":{"android":"levelo://app?vid=789328d4-6408-480a-a7f2-275f692dda22","ios":"levelo://app?vid=789328d4-6408-480a-a7f2-275f692dda22"},"vehicle_type_id":"4","last_reported":1716566926,"current_range_meters":20800,"station_id":"ce4bgop2rcd13ifvqc1g","pricing_plan_id":"cebpf4jnsgd1na2vs0mg"},{"bike_id":"79f33001-a651-4b0f-b82e-f19ee71b8d0f","system_id":"levelo_inurba_marseille","lat":43.32289,"lon":5.38264,"is_reserved":false,"is_disabled":false,"rental_uris":{"android":"levelo://app?vid=79f33001-a651-4b0f-b82e-f19ee71b8d0f","ios":"levelo://app?vid=79f33001-a651-4b0f-b82e-f19ee71b8d0f"},"vehicle_type_id":"4","last_reported":1716566926,"current_range_meters":28800,"station_id":"ce4bhr12rcd13ifvqhqg","pricing_plan_id":"cebpf4jnsgd1na2vs0mg"},{"bike_id":"a9c38c7c-2f1a-4bff-a9ae-be2146643247","system_id":"levelo_inurba_marseille","lat":43.322872,"lon":5.382756,"is_reserved":false,"is_disabled":false,"rental_uris":{"android":"levelo://app?vid=a9c38c7c-2f1a-4bff-a9ae-be2146643247","ios":"levelo://app?vid=a9c38c7c-2f1a-4bff-a9ae-be2146643247"},"vehicle_type_id":"4","last_reported":1716566926,"current_range_meters":23600,"station_id":"ce4bhr12rcd13ifvqhqg","pricing_plan_id":"cebpf4jnsgd1na2vs0mg"},{"bike_id":"f48a49a5-c606-459b-b8f7-bc9b6c445a44","system_id":"levelo_inurba_marseille","lat":43.322872,"lon":5.382756,"is_reserved":false,"is_disabled":false,"rental_uris":{"android":"levelo://app?vid=f48a49a5-c606-459b-b8f7-bc9b6c445a44","ios":"levelo://app?vid=f48a49a5-c606-459b-b8f7-bc9b6c445a44"},"vehicle_type_id":"4","last_reported":1716566926,"current_range_meters":20000,"station_id":"ce4bhr12rcd13ifvqhqg","pricing_plan_id":"cebpf4jnsgd1na2vs0mg"},{"bike_id":"66425d78-e730-4e03-8806-befd97dd7ae9","system_id":"levelo_inurba_marseille","lat":43.322872,"lon":5.382756,"is_reserved":false,"is_disabled":false,"rental_uris":{"android":"levelo://app?vid=66425d78-e730-4e03-8806-befd97dd7ae9","ios":"levelo://app?vid=66425d78-e730-4e03-8806-befd97dd7ae9"},"vehicle_type_id":"4","last_reported":1716566926,"current_range_meters":21600,"station_id":"ce4bhr12rcd13ifvqhqg","pricing_plan_id":"cebpf4jnsgd1na2vs0mg"},{"bike_id":"0eacb89d-8113-4632-9297-0488296ac72e","system_id":"levelo_inurba_marseille","lat":43.29722,"lon":5.36621,"is_reserved":false,"is_disabled":false,"rental_uris":{"android":"levelo://app?vid=0eacb89d-8113-4632-9297-0488296ac72e","ios":"levelo://app?vid=0eacb89d-8113-4632-9297-0488296ac72e"},"vehicle_type_id":"4","last_reported":1716566926,"current_range_meters":0,"station_id":"ce4bgn12rcd13ifvqbt0","pricing_plan_id":"cebpf4jnsgd1na2vs0mg"},{"bike_id":"5dd3a2cb-49d1-4b97-b33b-111e275e7b0c","system_id":"levelo_inurba_marseille","lat":43.29718,"lon":5.36613,"is_reserved":false,"is_disabled":false,"rental_uris":{"android":"levelo://app?vid=5dd3a2cb-49d1-4b97-b33b-111e275e7b0c","ios":"levelo://app?vid=5dd3a2cb-49d1-4b97-b33b-111e275e7b0c"},"vehicle_type_id":"4","last_reported":1716566926,"current_range_meters":0,"station_id":"ce4bgn12rcd13ifvqbt0","pricing_plan_id":"cebpf4jnsgd1na2vs0mg"},{"bike_id":"fef19b85-e841-42d1-9cad-a8ea3c9523a5","system_id":"levelo_inurba_marseille","lat":43.29851,"lon":5.37698,"is_reserved":false,"is_disabled":false,"rental_uris":{"android":"levelo://app?vid=fef19b85-e841-42d1-9cad-a8ea3c9523a5","ios":"levelo://app?vid=fef19b85-e841-42d1-9cad-a8ea3c9523a5"},"vehicle_type_id":"4","last_reported":1716566926,"current_range_meters":10800,"station_id":"","pricing_plan_id":"cebpf4jnsgd1na2vs0mg"},{"bike_id":"19984f91-d60e-4a17-896f-39e2bc8fffe8","system_id":"levelo_inurba_marseille","lat":43.2968,"lon":5.37291,"is_reserved":false,"is_disabled":false,"rental_uris":{"android":"levelo://app?vid=19984f91-d60e-4a17-896f-39e2bc8fffe8","ios":"levelo://app?vid=19984f91-d60e-4a17-896f-39e2bc8fffe8"},"vehicle_type_id":"4","last_reported":1716566926,"current_range_meters":4400,"station_id":"ce4bgk12rcd13ifvqbj0","pricing_plan_id":"cebpf4jnsgd1na2vs0mg"},{"bike_id":"c8c84656-2ae8-4078-b738-9080248de5d3","system_id":"levelo_inurba_marseille","lat":43.2968,"lon":5.37291,"is_reserved":false,"is_disabled":false,"rental_uris":{"android":"levelo://app?vid=c8c84656-2ae8-4078-b738-9080248de5d3","ios":"levelo://app?vid=c8c84656-2ae8-4078-b738-9080248de5d3"},"vehicle_type_id":"4","last_reported":1716566926,"current_range_meters":4800,"station_id":"ce4bgk12rcd13ifvqbj0","pricing_plan_id":"cebpf4jnsgd1na2vs0mg"},{"bike_id":"b0181dbd-d16d-4347-9382-b450da867146","system_id":"levelo_inurba_marseille","lat":43.29657,"lon":5.36162,"is_reserved":false,"is_disabled":false,"rental_uris":{"android":"levelo://app?vid=b0181dbd-d16d-4347-9382-b450da867146","ios":"levelo://app?vid=b0181dbd-d16d-4347-9382-b450da867146"},"vehicle_type_id":"4","last_reported":1716566926,"current_range_meters":12000,"station_id":"","pricing_plan_id":"cebpf4jnsgd1na2vs0mg"},{"bike_id":"21413092-e971-4d30-857b-241afb232306","system_id":"levelo_inurba_marseille","lat":43.29573,"lon":5.367355,"is_reserved":false,"is_disabled":false,"rental_uris":{"android":"levelo://app?vid=21413092-e971-4d30-857b-241afb232306","ios":"levelo://app?vid=21413092-e971-4d30-857b-241afb232306"},"vehicle_type_id":"4","last_reported":1716566926,"current_range_meters":16400,"station_id":"ce4bgph2rcd13ifvqc2g","pricing_plan_id":"cebpf4jnsgd1na2vs0mg"},{"bike_id":"a52d4acb-5112-4ebb-9647-b0453428bf2f","system_id":"levelo_inurba_marseille","lat":43.296129,"lon":5.370777,"is_reserved":false,"is_disabled":false,"rental_uris":{"android":"levelo://app?vid=a52d4acb-5112-4ebb-9647-b0453428bf2f","ios":"levelo://app?vid=a52d4acb-5112-4ebb-9647-b0453428bf2f"},"vehicle_type_id":"4","last_reported":1716566926,"current_range_meters":0,"station_id":"ce4bgnh2rcd13ifvqc0g","pricing_plan_id":"cebpf4jnsgd1na2vs0mg"},{"bike_id":"fa25322f-f3bd-40a9-b6f0-36999b148b1f","system_id":"levelo_inurba_marseille","lat":43.29573,"lon":5.367355,"is_reserved":false,"is_disabled":false,"rental_uris":{"android":"levelo://app?vid=fa25322f-f3bd-40a9-b6f0-36999b148b1f","ios":"levelo://app?vid=fa25322f-f3bd-40a9-b6f0-36999b148b1f"},"vehicle_type_id":"4","last_reported":1716566926,"current_range_meters":16800,"station_id":"ce4bgph2rcd13ifvqc2g","pricing_plan_id":"cebpf4jnsgd1na2vs0mg"},{"bike_id":"39e41708-3b70-4fac-b722-271a587c4edd","system_id":"levelo_inurba_marseille","lat":43.29573,"lon":5.367355,"is_reserved":false,"is_disabled":false,"rental_uris":{"android":"levelo://app?vid=39e41708-3b70-4fac-b722-271a587c4edd","ios":"levelo://app?vid=39e41708-3b70-4fac-b722-271a587c4edd"},"vehicle_type_id":"4","last_reported":1716566926,"current_range_meters":0,"station_id":"ce4bgph2rcd13ifvqc2g","pricing_plan_id":"cebpf4jnsgd1na2vs0mg"},{"bike_id":"9549bfb9-7683-4900-95c5-29f340e94ddc","system_id":"levelo_inurba_marseille","lat":43.29573,"lon":5.367355,"is_reserved":false,"is_disabled":false,"rental_uris":{"android":"levelo://app?vid=9549bfb9-7683-4900-95c5-29f340e94ddc","ios":"levelo://app?vid=9549bfb9-7683-4900-95c5-29f340e94ddc"},"vehicle_type_id":"4","last_reported":1716566926,"current_range_meters":15600,"station_id":"ce4bgph2rcd13ifvqc2g","pricing_plan_id":"cebpf4jnsgd1na2vs0mg"},{"bike_id":"909e1757-ab27-4fb1-b62d-4ae39f8a82d4","system_id":"levelo_inurba_marseille","lat":43.29573,"lon":5.367355,"is_reserved":false,"is_disabled":false,"rental_uris":{"android":"levelo://app?vid=909e1757-ab27-4fb1-b62d-4ae39f8a82d4","ios":"levelo://app?vid=909e1757-ab27-4fb1-b62d-4ae39f8a82d4"},"vehicle_type_id":"4","last_reported":1716566926,"current_range_meters":29600,"station_id":"ce4bgph2rcd13ifvqc2g","pricing_plan_id":"cebpf4jnsgd1na2vs0mg"},{"bike_id":"1caa3f95-3079-41f2-8bd4-87b4a27461ec","system_id":"levelo_inurba_marseille","lat":43.29573,"lon":5.367355,"is_reserved":false,"is_disabled":false,"rental_uris":{"android":"levelo://app?vid=1caa3f95-3079-41f2-8bd4-87b4a27461ec","ios":"levelo://app?vid=1caa3f95-3079-41f2-8bd4-87b4a27461ec"},"vehicle_type_id":"4","last_reported":1716566926,"current_range_meters":10400,"station_id":"ce4bgph2rcd13ifvqc2g","pricing_plan_id":"cebpf4jnsgd1na2vs0mg"},{"bike_id":"d91989e2-8884-4fa8-8a48-dc0f179cbe7c","system_id":"levelo_inurba_marseille","lat":43.29906,"lon":5.38135,"is_reserved":false,"is_disabled":false,"rental_uris":{"android":"levelo://app?vid=d91989e2-8884-4fa8-8a48-dc0f179cbe7c","ios":"levelo://app?vid=d91989e2-8884-4fa8-8a48-dc0f179cbe7c"},"vehicle_type_id":"4","last_reported":1716566926,"current_range_meters":0,"station_id":"ce4bgj12rcd13ifvqbc0","pricing_plan_id":"cebpf4jnsgd1na2vs0mg"},{"bike_id":"28efc93e-1133-4585-a6f8-58ccd5226ad5","system_id":"levelo_inurba_marseille","lat":43.296921,"lon":5.376579,"is_reserved":false,"is_disabled":false,"rental_uris":{"android":"levelo://app?vid=28efc93e-1133-4585-a6f8-58ccd5226ad5","ios":"levelo://app?vid=28efc93e-1133-4585-a6f8-58ccd5226ad5"},"vehicle_type_id":"4","last_reported":1716566926,"current_range_meters":11600,"station_id":"ce4bgkh2rcd13ifvqbl0","pricing_plan_id":"cebpf4jnsgd1na2vs0mg"},{"bike_id":"05a74a78-ea64-40bd-9500-a1e15f16a643","system_id":"levelo_inurba_marseille","lat":43.299707,"lon":5.384859,"is_reserved":false,"is_disabled":false,"rental_uris":{"android":"levelo://app?vid=05a74a78-ea64-40bd-9500-a1e15f16a643","ios":"levelo://app?vid=05a74a78-ea64-40bd-9500-a1e15f16a643"},"vehicle_type_id":"4","last_reported":1716566926,"current_range_meters":11600,"station_id":"ce4bgj92rcd13ifvqbd0","pricing_plan_id":"cebpf4jnsgd1na2vs0mg"},{"bike_id":"8c2878a4-ac16-422f-9061-0373f94dca95","system_id":"levelo_inurba_marseille","lat":43.317557,"lon":5.390173,"is_reserved":false,"is_disabled":false,"rental_uris":{"android":"levelo://app?vid=8c2878a4-ac16-422f-9061-0373f94dca95","ios":"levelo://app?vid=8c2878a4-ac16-422f-9061-0373f94dca95"},"vehicle_type_id":"4","last_reported":1716566926,"current_range_meters":27200,"station_id":"ce4bhqp2rcd13ifvqhng","pricing_plan_id":"cebpf4jnsgd1na2vs0mg"},{"bike_id":"85d4bcb1-c96d-4c54-bc0e-bb0a0eeb9e6a","system_id":"levelo_inurba_marseille","lat":43.317557,"lon":5.390173,"is_reserved":false,"is_disabled":false,"rental_uris":{"android":"levelo://app?vid=85d4bcb1-c96d-4c54-bc0e-bb0a0eeb9e6a","ios":"levelo://app?vid=85d4bcb1-c96d-4c54-bc0e-bb0a0eeb9e6a"},"vehicle_type_id":"4","last_reported":1716566926,"current_range_meters":4000,"station_id":"ce4bhqp2rcd13ifvqhng","pricing_plan_id":"cebpf4jnsgd1na2vs0mg"},{"bike_id":"e6cfff27-eb02-4061-9e88-eb25561fe585","system_id":"levelo_inurba_marseille","lat":43.317557,"lon":5.390173,"is_reserved":false,"is_disabled":false,"rental_uris":{"android":"levelo://app?vid=e6cfff27-eb02-4061-9e88-eb25561fe585","ios":"levelo://app?vid=e6cfff27-eb02-4061-9e88-eb25561fe585"},"vehicle_type_id":"4","last_reported":1716566926,"current_range_meters":6800,"station_id":"ce4bhqp2rcd13ifvqhng","pricing_plan_id":"cebpf4jnsgd1na2vs0mg"},{"bike_id":"53b7b1f6-b9dc-42f9-aa06-87d2a682971b","system_id":"levelo_inurba_marseille","lat":43.29573,"lon":5.367355,"is_reserved":false,"is_disabled":false,"rental_uris":{"android":"levelo://app?vid=53b7b1f6-b9dc-42f9-aa06-87d2a682971b","ios":"levelo://app?vid=53b7b1f6-b9dc-42f9-aa06-87d2a682971b"},"vehicle_type_id":"4","last_reported":1716566926,"current_range_meters":26000,"station_id":"ce4bgph2rcd13ifvqc2g","pricing_plan_id":"cebpf4jnsgd1na2vs0mg"},{"bike_id":"6d4ad390-0389-45bb-9918-97072d15829a","system_id":"levelo_inurba_marseille","lat":43.295748,"lon":5.37522,"is_reserved":false,"is_disabled":false,"rental_uris":{"android":"levelo://app?vid=6d4ad390-0389-45bb-9918-97072d15829a","ios":"levelo://app?vid=6d4ad390-0389-45bb-9918-97072d15829a"},"vehicle_type_id":"4","last_reported":1716566926,"current_range_meters":13600,"station_id":"ce4bgh92rcd13ifvqb50","pricing_plan_id":"cebpf4jnsgd1na2vs0mg"},{"bike_id":"9eac1da7-7de0-4dfb-b7c0-7025ca2c18f6","system_id":"levelo_inurba_marseille","lat":43.295748,"lon":5.37522,"is_reserved":false,"is_disabled":false,"rental_uris":{"android":"levelo://app?vid=9eac1da7-7de0-4dfb-b7c0-7025ca2c18f6","ios":"levelo://app?vid=9eac1da7-7de0-4dfb-b7c0-7025ca2c18f6"},"vehicle_type_id":"4","last_reported":1716566926,"current_range_meters":14400,"station_id":"ce4bgh92rcd13ifvqb50","pricing_plan_id":"cebpf4jnsgd1na2vs0mg"},{"bike_id":"6b25e392-83ce-483f-9e96-d36edb0303ee","system_id":"levelo_inurba_marseille","lat":43.304274,"lon":5.388873,"is_reserved":false,"is_disabled":false,"rental_uris":{"android":"levelo://app?vid=6b25e392-83ce-483f-9e96-d36edb0303ee","ios":"levelo://app?vid=6b25e392-83ce-483f-9e96-d36edb0303ee"},"vehicle_type_id":"4","last_reported":1716566926,"current_range_meters":400,"station_id":"ce4bgk12rcd13ifvqbi0","pricing_plan_id":"cebpf4jnsgd1na2vs0mg"},{"bike_id":"789fff30-6d7a-4de9-8735-fa649018811b","system_id":"levelo_inurba_marseille","lat":43.29616,"lon":5.37714,"is_reserved":false,"is_disabled":false,"rental_uris":{"android":"levelo://app?vid=789fff30-6d7a-4de9-8735-fa649018811b","ios":"levelo://app?vid=789fff30-6d7a-4de9-8735-fa649018811b"},"vehicle_type_id":"4","last_reported":1716566926,"current_range_meters":0,"station_id":"ce4bgi92rcd13ifvqb90","pricing_plan_id":"cebpf4jnsgd1na2vs0mg"},{"bike_id":"5fd624c3-9d39-46b2-b29c-54b3147e65e0","system_id":"levelo_inurba_marseille","lat":43.296277,"lon":5.377108,"is_reserved":false,"is_disabled":false,"rental_uris":{"android":"levelo://app?vid=5fd624c3-9d39-46b2-b29c-54b3147e65e0","ios":"levelo://app?vid=5fd624c3-9d39-46b2-b29c-54b3147e65e0"},"vehicle_type_id":"4","last_reported":1716566926,"current_range_meters":31200,"station_id":"ce4bgi92rcd13ifvqb90","pricing_plan_id":"cebpf4jnsgd1na2vs0mg"},{"bike_id":"cf181974-964b-4532-86e2-a3ecffd97036","system_id":"levelo_inurba_marseille","lat":43.29613,"lon":5.37723,"is_reserved":false,"is_disabled":false,"rental_uris":{"android":"levelo://app?vid=cf181974-964b-4532-86e2-a3ecffd97036","ios":"levelo://app?vid=cf181974-964b-4532-86e2-a3ecffd97036"},"vehicle_type_id":"4","last_reported":1716566926,"current_range_meters":31200,"station_id":"ce4bgi92rcd13ifvqb90","pricing_plan_id":"cebpf4jnsgd1na2vs0mg"},{"bike_id":"d014cf3e-048b-41f0-8f75-4b7171a47831","system_id":"levelo_inurba_marseille","lat":43.299717,"lon":5.384845,"is_reserved":false,"is_disabled":false,"rental_uris":{"android":"levelo://app?vid=d014cf3e-048b-41f0-8f75-4b7171a47831","ios":"levelo://app?vid=d014cf3e-048b-41f0-8f75-4b7171a47831"},"vehicle_type_id":"4","last_reported":1716566926,"current_range_meters":31600,"station_id":"ce4bgj92rcd13ifvqbd0","pricing_plan_id":"cebpf4jnsgd1na2vs0mg"},{"bike_id":"35be79d5-f2aa-4aec-8757-400714465b70","system_id":"levelo_inurba_marseille","lat":43.29977,"lon":5.38488,"is_reserved":false,"is_disabled":false,"rental_uris":{"android":"levelo://app?vid=35be79d5-f2aa-4aec-8757-400714465b70","ios":"levelo://app?vid=35be79d5-f2aa-4aec-8757-400714465b70"},"vehicle_type_id":"4","last_reported":1716566926,"current_range_meters":0,"station_id":"ce4bgj92rcd13ifvqbd0","pricing_plan_id":"cebpf4jnsgd1na2vs0mg"},{"bike_id":"d5bcf5f5-2b98-4ba3-8912-a316631c0473","system_id":"levelo_inurba_marseille","lat":43.299717,"lon":5.384845,"is_reserved":false,"is_disabled":false,"rental_uris":{"android":"levelo://app?vid=d5bcf5f5-2b98-4ba3-8912-a316631c0473","ios":"levelo://app?vid=d5bcf5f5-2b98-4ba3-8912-a316631c0473"},"vehicle_type_id":"4","last_reported":1716566926,"current_range_meters":15200,"station_id":"ce4bgj92rcd13ifvqbd0","pricing_plan_id":"cebpf4jnsgd1na2vs0mg"},{"bike_id":"ea5c8d42-c861-4802-a2ac-9f57d3bd183f","system_id":"levelo_inurba_marseille","lat":43.299705,"lon":5.384978,"is_reserved":false,"is_disabled":false,"rental_uris":{"android":"levelo://app?vid=ea5c8d42-c861-4802-a2ac-9f57d3bd183f","ios":"levelo://app?vid=ea5c8d42-c861-4802-a2ac-9f57d3bd183f"},"vehicle_type_id":"4","last_reported":1716566926,"current_range_meters":30000,"station_id":"ce4bgj92rcd13ifvqbd0","pricing_plan_id":"cebpf4jnsgd1na2vs0mg"},{"bike_id":"c692fd75-9972-42e1-92a8-4ac7cce47a41","system_id":"levelo_inurba_marseille","lat":43.299243,"lon":5.37481,"is_reserved":false,"is_disabled":false,"rental_uris":{"android":"levelo://app?vid=c692fd75-9972-42e1-92a8-4ac7cce47a41","ios":"levelo://app?vid=c692fd75-9972-42e1-92a8-4ac7cce47a41"},"vehicle_type_id":"4","last_reported":1716566926,"current_range_meters":15600,"station_id":"ce4bgjh2rcd13ifvqbg0","pricing_plan_id":"cebpf4jnsgd1na2vs0mg"},{"bike_id":"78252e3e-8eff-4ccb-a142-6526e4cc39f4","system_id":"levelo_inurba_marseille","lat":43.30089,"lon":5.38729,"is_reserved":false,"is_disabled":false,"rental_uris":{"android":"levelo://app?vid=78252e3e-8eff-4ccb-a142-6526e4cc39f4","ios":"levelo://app?vid=78252e3e-8eff-4ccb-a142-6526e4cc39f4"},"vehicle_type_id":"4","last_reported":1716566926,"current_range_meters":4000,"station_id":"","pricing_plan_id":"cebpf4jnsgd1na2vs0mg"},{"bike_id":"eb4aea4b-c8cd-4ab1-9f1a-a78b6e3ef297","system_id":"levelo_inurba_marseille","lat":43.32368,"lon":5.38883,"is_reserved":false,"is_disabled":false,"rental_uris":{"android":"levelo://app?vid=eb4aea4b-c8cd-4ab1-9f1a-a78b6e3ef297","ios":"levelo://app?vid=eb4aea4b-c8cd-4ab1-9f1a-a78b6e3ef297"},"vehicle_type_id":"4","last_reported":1716566926,"current_range_meters":22000,"station_id":"ce4bhqp2rcd13ifvqhog","pricing_plan_id":"cebpf4jnsgd1na2vs0mg"},{"bike_id":"4c8882e3-fb0d-4069-aa35-6a6f8d4824eb","system_id":"levelo_inurba_marseille","lat":43.32367,"lon":5.388836,"is_reserved":false,"is_disabled":false,"rental_uris":{"android":"levelo://app?vid=4c8882e3-fb0d-4069-aa35-6a6f8d4824eb","ios":"levelo://app?vid=4c8882e3-fb0d-4069-aa35-6a6f8d4824eb"},"vehicle_type_id":"4","last_reported":1716566926,"current_range_meters":0,"station_id":"ce4bhqp2rcd13ifvqhog","pricing_plan_id":"cebpf4jnsgd1na2vs0mg"},{"bike_id":"d2314fda-eda4-4418-8e87-717bf28240f2","system_id":"levelo_inurba_marseille","lat":43.32369,"lon":5.38884,"is_reserved":false,"is_disabled":false,"rental_uris":{"android":"levelo://app?vid=d2314fda-eda4-4418-8e87-717bf28240f2","ios":"levelo://app?vid=d2314fda-eda4-4418-8e87-717bf28240f2"},"vehicle_type_id":"4","last_reported":1716566926,"current_range_meters":27200,"station_id":"ce4bhqp2rcd13ifvqhog","pricing_plan_id":"cebpf4jnsgd1na2vs0mg"},{"bike_id":"75dda9b9-6391-4e5b-b650-78dee840a8a4","system_id":"levelo_inurba_marseille","lat":43.32363,"lon":5.38894,"is_reserved":false,"is_disabled":false,"rental_uris":{"android":"levelo://app?vid=75dda9b9-6391-4e5b-b650-78dee840a8a4","ios":"levelo://app?vid=75dda9b9-6391-4e5b-b650-78dee840a8a4"},"vehicle_type_id":"4","last_reported":1716566926,"current_range_meters":0,"station_id":"ce4bhqp2rcd13ifvqhog","pricing_plan_id":"cebpf4jnsgd1na2vs0mg"},{"bike_id":"144631d7-b1fb-4446-a934-fcf489eb54b0","system_id":"levelo_inurba_marseille","lat":43.323731,"lon":5.388874,"is_reserved":false,"is_disabled":false,"rental_uris":{"android":"levelo://app?vid=144631d7-b1fb-4446-a934-fcf489eb54b0","ios":"levelo://app?vid=144631d7-b1fb-4446-a934-fcf489eb54b0"},"vehicle_type_id":"4","last_reported":1716566926,"current_range_meters":27600,"station_id":"ce4bhqp2rcd13ifvqhog","pricing_plan_id":"cebpf4jnsgd1na2vs0mg"},{"bike_id":"d987e0b4-58cf-40f9-b65b-0136a10defbb","system_id":"levelo_inurba_marseille","lat":43.29596,"lon":5.38061,"is_reserved":false,"is_disabled":false,"rental_uris":{"android":"levelo://app?vid=d987e0b4-58cf-40f9-b65b-0136a10defbb","ios":"levelo://app?vid=d987e0b4-58cf-40f9-b65b-0136a10defbb"},"vehicle_type_id":"4","last_reported":1716566926,"current_range_meters":0,"station_id":"ce4bgl12rcd13ifvqbo0","pricing_plan_id":"cebpf4jnsgd1na2vs0mg"},{"bike_id":"996f7fe3-b27e-45b4-818b-d4efb301ce7a","system_id":"levelo_inurba_marseille","lat":43.293249,"lon":5.371578,"is_reserved":false,"is_disabled":false,"rental_uris":{"android":"levelo://app?vid=996f7fe3-b27e-45b4-818b-d4efb301ce7a","ios":"levelo://app?vid=996f7fe3-b27e-45b4-818b-d4efb301ce7a"},"vehicle_type_id":"4","last_reported":1716566926,"current_range_meters":4400,"station_id":"ce4bgh92rcd13ifvqb40","pricing_plan_id":"cebpf4jnsgd1na2vs0mg"},{"bike_id":"fbc513ae-479b-4c42-9eed-a7a639bfed92","system_id":"levelo_inurba_marseille","lat":43.29601,"lon":5.381084,"is_reserved":false,"is_disabled":false,"rental_uris":{"android":"levelo://app?vid=fbc513ae-479b-4c42-9eed-a7a639bfed92","ios":"levelo://app?vid=fbc513ae-479b-4c42-9eed-a7a639bfed92"},"vehicle_type_id":"4","last_reported":1716566926,"current_range_meters":6400,"station_id":"ce4bgl12rcd13ifvqbo0","pricing_plan_id":"cebpf4jnsgd1na2vs0mg"},{"bike_id":"af7320a1-63a3-48bd-bf20-b2da86914de6","system_id":"levelo_inurba_marseille","lat":43.293259,"lon":5.371586,"is_reserved":false,"is_disabled":false,"rental_uris":{"android":"levelo://app?vid=af7320a1-63a3-48bd-bf20-b2da86914de6","ios":"levelo://app?vid=af7320a1-63a3-48bd-bf20-b2da86914de6"},"vehicle_type_id":"4","last_reported":1716566926,"current_range_meters":0,"station_id":"ce4bgh92rcd13ifvqb40","pricing_plan_id":"cebpf4jnsgd1na2vs0mg"},{"bike_id":"2fcc92ad-4cd7-4cc1-b9a6-f6dc1ea1ecf6","system_id":"levelo_inurba_marseille","lat":43.293009,"lon":5.374584,"is_reserved":false,"is_disabled":false,"rental_uris":{"android":"levelo://app?vid=2fcc92ad-4cd7-4cc1-b9a6-f6dc1ea1ecf6","ios":"levelo://app?vid=2fcc92ad-4cd7-4cc1-b9a6-f6dc1ea1ecf6"},"vehicle_type_id":"4","last_reported":1716566926,"current_range_meters":17600,"station_id":"ce4bgi12rcd13ifvqb70","pricing_plan_id":"cebpf4jnsgd1na2vs0mg"},{"bike_id":"19a35fe7-f96f-4b56-b500-59d8dc287a00","system_id":"levelo_inurba_marseille","lat":43.305994,"lon":5.393687,"is_reserved":false,"is_disabled":false,"rental_uris":{"android":"levelo://app?vid=19a35fe7-f96f-4b56-b500-59d8dc287a00","ios":"levelo://app?vid=19a35fe7-f96f-4b56-b500-59d8dc287a00"},"vehicle_type_id":"4","last_reported":1716566926,"current_range_meters":8800,"station_id":"ce4bh0p2rcd13ifvqd80","pricing_plan_id":"cebpf4jnsgd1na2vs0mg"},{"bike_id":"c86e5ae8-b792-4af3-8a3c-cf26a8d89c16","system_id":"levelo_inurba_marseille","lat":43.29529,"lon":5.385581,"is_reserved":false,"is_disabled":false,"rental_uris":{"android":"levelo://app?vid=c86e5ae8-b792-4af3-8a3c-cf26a8d89c16","ios":"levelo://app?vid=c86e5ae8-b792-4af3-8a3c-cf26a8d89c16"},"vehicle_type_id":"4","last_reported":1716566926,"current_range_meters":24400,"station_id":"ce4bgih2rcd13ifvqba0","pricing_plan_id":"cebpf4jnsgd1na2vs0mg"},{"bike_id":"a7fc6b64-1abc-4dfe-89a1-19d76f4302a3","system_id":"levelo_inurba_marseille","lat":43.303002,"lon":5.392142,"is_reserved":false,"is_disabled":false,"rental_uris":{"android":"levelo://app?vid=a7fc6b64-1abc-4dfe-89a1-19d76f4302a3","ios":"levelo://app?vid=a7fc6b64-1abc-4dfe-89a1-19d76f4302a3"},"vehicle_type_id":"4","last_reported":1716566926,"current_range_meters":5200,"station_id":"ce4bgkh2rcd13ifvqbk0","pricing_plan_id":"cebpf4jnsgd1na2vs0mg"},{"bike_id":"04a7d246-4e3c-4fcd-925f-58e60b220d29","system_id":"levelo_inurba_marseille","lat":43.302992,"lon":5.392136,"is_reserved":false,"is_disabled":false,"rental_uris":{"android":"levelo://app?vid=04a7d246-4e3c-4fcd-925f-58e60b220d29","ios":"levelo://app?vid=04a7d246-4e3c-4fcd-925f-58e60b220d29"},"vehicle_type_id":"4","last_reported":1716566926,"current_range_meters":15200,"station_id":"ce4bgkh2rcd13ifvqbk0","pricing_plan_id":"cebpf4jnsgd1na2vs0mg"},{"bike_id":"e8a27d01-9562-48d5-8dd3-98f36d1014c3","system_id":"levelo_inurba_marseille","lat":43.2936,"lon":5.37835,"is_reserved":false,"is_disabled":false,"rental_uris":{"android":"levelo://app?vid=e8a27d01-9562-48d5-8dd3-98f36d1014c3","ios":"levelo://app?vid=e8a27d01-9562-48d5-8dd3-98f36d1014c3"},"vehicle_type_id":"4","last_reported":1716566926,"current_range_meters":17200,"station_id":"ce4bgjh2rcd13ifvqbf0","pricing_plan_id":"cebpf4jnsgd1na2vs0mg"},{"bike_id":"9c2704cf-7431-4890-acbe-b76e42e834d4","system_id":"levelo_inurba_marseille","lat":43.2936,"lon":5.37835,"is_reserved":false,"is_disabled":false,"rental_uris":{"android":"levelo://app?vid=9c2704cf-7431-4890-acbe-b76e42e834d4","ios":"levelo://app?vid=9c2704cf-7431-4890-acbe-b76e42e834d4"},"vehicle_type_id":"4","last_reported":1716566926,"current_range_meters":18800,"station_id":"ce4bgjh2rcd13ifvqbf0","pricing_plan_id":"cebpf4jnsgd1na2vs0mg"},{"bike_id":"0dfe53be-c52c-4c0a-8f62-63e045744296","system_id":"levelo_inurba_marseille","lat":43.2936,"lon":5.37835,"is_reserved":false,"is_disabled":false,"rental_uris":{"android":"levelo://app?vid=0dfe53be-c52c-4c0a-8f62-63e045744296","ios":"levelo://app?vid=0dfe53be-c52c-4c0a-8f62-63e045744296"},"vehicle_type_id":"4","last_reported":1716566926,"current_range_meters":19600,"station_id":"ce4bgjh2rcd13ifvqbf0","pricing_plan_id":"cebpf4jnsgd1na2vs0mg"},{"bike_id":"3fee84fa-9f0b-4dc4-af12-a9b0a2d4ca9e","system_id":"levelo_inurba_marseille","lat":43.2936,"lon":5.37835,"is_reserved":false,"is_disabled":false,"rental_uris":{"android":"levelo://app?vid=3fee84fa-9f0b-4dc4-af12-a9b0a2d4ca9e","ios":"levelo://app?vid=3fee84fa-9f0b-4dc4-af12-a9b0a2d4ca9e"},"vehicle_type_id":"4","last_reported":1716566926,"current_range_meters":20000,"station_id":"ce4bgjh2rcd13ifvqbf0","pricing_plan_id":"cebpf4jnsgd1na2vs0mg"},{"bike_id":"6c187dbf-45e5-4536-8c0c-0604846d4e8b","system_id":"levelo_inurba_marseille","lat":43.2936,"lon":5.37835,"is_reserved":false,"is_disabled":false,"rental_uris":{"android":"levelo://app?vid=6c187dbf-45e5-4536-8c0c-0604846d4e8b","ios":"levelo://app?vid=6c187dbf-45e5-4536-8c0c-0604846d4e8b"},"vehicle_type_id":"4","last_reported":1716566926,"current_range_meters":10800,"station_id":"ce4bgjh2rcd13ifvqbf0","pricing_plan_id":"cebpf4jnsgd1na2vs0mg"},{"bike_id":"4b024dfc-0b6b-4aa8-b628-624763dd230d","system_id":"levelo_inurba_marseille","lat":43.2936,"lon":5.37835,"is_reserved":false,"is_disabled":false,"rental_uris":{"android":"levelo://app?vid=4b024dfc-0b6b-4aa8-b628-624763dd230d","ios":"levelo://app?vid=4b024dfc-0b6b-4aa8-b628-624763dd230d"},"vehicle_type_id":"4","last_reported":1716566926,"current_range_meters":10800,"station_id":"ce4bgjh2rcd13ifvqbf0","pricing_plan_id":"cebpf4jnsgd1na2vs0mg"},{"bike_id":"b5ac4304-87e3-4fc7-9a95-3c5db9375ec4","system_id":"levelo_inurba_marseille","lat":43.2936,"lon":5.37835,"is_reserved":false,"is_disabled":false,"rental_uris":{"android":"levelo://app?vid=b5ac4304-87e3-4fc7-9a95-3c5db9375ec4","ios":"levelo://app?vid=b5ac4304-87e3-4fc7-9a95-3c5db9375ec4"},"vehicle_type_id":"4","last_reported":1716566926,"current_range_meters":8400,"station_id":"ce4bgjh2rcd13ifvqbf0","pricing_plan_id":"cebpf4jnsgd1na2vs0mg"},{"bike_id":"102d13b6-e543-49f2-b2d4-a02a30423cd6","system_id":"levelo_inurba_marseille","lat":43.292311,"lon":5.360731,"is_reserved":false,"is_disabled":false,"rental_uris":{"android":"levelo://app?vid=102d13b6-e543-49f2-b2d4-a02a30423cd6","ios":"levelo://app?vid=102d13b6-e543-49f2-b2d4-a02a30423cd6"},"vehicle_type_id":"4","last_reported":1716566926,"current_range_meters":28000,"station_id":"ce4bhbh2rcd13ifvqeqg","pricing_plan_id":"cebpf4jnsgd1na2vs0mg"},{"bike_id":"c9d68047-1100-4f96-b43c-a01deee8d564","system_id":"levelo_inurba_marseille","lat":43.292311,"lon":5.360731,"is_reserved":false,"is_disabled":false,"rental_uris":{"android":"levelo://app?vid=c9d68047-1100-4f96-b43c-a01deee8d564","ios":"levelo://app?vid=c9d68047-1100-4f96-b43c-a01deee8d564"},"vehicle_type_id":"4","last_reported":1716566926,"current_range_meters":12000,"station_id":"ce4bhbh2rcd13ifvqeqg","pricing_plan_id":"cebpf4jnsgd1na2vs0mg"},{"bike_id":"ab8f3953-f9dd-48fe-8245-206450ef3fe2","system_id":"levelo_inurba_marseille","lat":43.292311,"lon":5.360731,"is_reserved":false,"is_disabled":false,"rental_uris":{"android":"levelo://app?vid=ab8f3953-f9dd-48fe-8245-206450ef3fe2","ios":"levelo://app?vid=ab8f3953-f9dd-48fe-8245-206450ef3fe2"},"vehicle_type_id":"4","last_reported":1716566926,"current_range_meters":20800,"station_id":"ce4bhbh2rcd13ifvqeqg","pricing_plan_id":"cebpf4jnsgd1na2vs0mg"},{"bike_id":"43907bd0-4103-4669-b052-6f1c68333ab7","system_id":"levelo_inurba_marseille","lat":43.292311,"lon":5.360731,"is_reserved":false,"is_disabled":false,"rental_uris":{"android":"levelo://app?vid=43907bd0-4103-4669-b052-6f1c68333ab7","ios":"levelo://app?vid=43907bd0-4103-4669-b052-6f1c68333ab7"},"vehicle_type_id":"4","last_reported":1716566926,"current_range_meters":7200,"station_id":"ce4bhbh2rcd13ifvqeqg","pricing_plan_id":"cebpf4jnsgd1na2vs0mg"},{"bike_id":"bb0ef65d-f533-467b-a0fd-74c4bc833a78","system_id":"levelo_inurba_marseille","lat":43.298764,"lon":5.388973,"is_reserved":false,"is_disabled":false,"rental_uris":{"android":"levelo://app?vid=bb0ef65d-f533-467b-a0fd-74c4bc833a78","ios":"levelo://app?vid=bb0ef65d-f533-467b-a0fd-74c4bc833a78"},"vehicle_type_id":"4","last_reported":1716566926,"current_range_meters":1200,"station_id":"ce4bh392rcd13ifvqdl0","pricing_plan_id":"cebpf4jnsgd1na2vs0mg"},{"bike_id":"51a9b107-35ce-4c1a-9fe7-97d44d450364","system_id":"levelo_inurba_marseille","lat":43.298764,"lon":5.388973,"is_reserved":false,"is_disabled":false,"rental_uris":{"android":"levelo://app?vid=51a9b107-35ce-4c1a-9fe7-97d44d450364","ios":"levelo://app?vid=51a9b107-35ce-4c1a-9fe7-97d44d450364"},"vehicle_type_id":"4","last_reported":1716566926,"current_range_meters":22800,"station_id":"ce4bh392rcd13ifvqdl0","pricing_plan_id":"cebpf4jnsgd1na2vs0mg"},{"bike_id":"23f79f2d-e349-413b-ae78-c3b7f633e079","system_id":"levelo_inurba_marseille","lat":43.3008,"lon":5.39097,"is_reserved":false,"is_disabled":false,"rental_uris":{"android":"levelo://app?vid=23f79f2d-e349-413b-ae78-c3b7f633e079","ios":"levelo://app?vid=23f79f2d-e349-413b-ae78-c3b7f633e079"},"vehicle_type_id":"4","last_reported":1716566926,"current_range_meters":18400,"station_id":"ce4bh192rcd13ifvqdb0","pricing_plan_id":"cebpf4jnsgd1na2vs0mg"},{"bike_id":"6d17ad17-93e9-4345-8063-407212a91f88","system_id":"levelo_inurba_marseille","lat":43.291671,"lon":5.371575,"is_reserved":false,"is_disabled":false,"rental_uris":{"android":"levelo://app?vid=6d17ad17-93e9-4345-8063-407212a91f88","ios":"levelo://app?vid=6d17ad17-93e9-4345-8063-407212a91f88"},"vehicle_type_id":"4","last_reported":1716566926,"current_range_meters":30400,"station_id":"ce4bha92rcd13ifvqeh0","pricing_plan_id":"cebpf4jnsgd1na2vs0mg"},{"bike_id":"4c558dfc-e905-4aa3-bf11-99e95027d443","system_id":"levelo_inurba_marseille","lat":43.298764,"lon":5.388973,"is_reserved":false,"is_disabled":false,"rental_uris":{"android":"levelo://app?vid=4c558dfc-e905-4aa3-bf11-99e95027d443","ios":"levelo://app?vid=4c558dfc-e905-4aa3-bf11-99e95027d443"},"vehicle_type_id":"4","last_reported":1716566926,"current_range_meters":12800,"station_id":"ce4bh392rcd13ifvqdl0","pricing_plan_id":"cebpf4jnsgd1na2vs0mg"},{"bike_id":"68374877-a77e-46ca-94af-3df0971d95dc","system_id":"levelo_inurba_marseille","lat":43.298764,"lon":5.388973,"is_reserved":false,"is_disabled":false,"rental_uris":{"android":"levelo://app?vid=68374877-a77e-46ca-94af-3df0971d95dc","ios":"levelo://app?vid=68374877-a77e-46ca-94af-3df0971d95dc"},"vehicle_type_id":"4","last_reported":1716566926,"current_range_meters":30000,"station_id":"ce4bh392rcd13ifvqdl0","pricing_plan_id":"cebpf4jnsgd1na2vs0mg"},{"bike_id":"38fc4e08-3208-4d64-9288-f7e490ad9665","system_id":"levelo_inurba_marseille","lat":43.292005,"lon":5.357875,"is_reserved":false,"is_disabled":false,"rental_uris":{"android":"levelo://app?vid=38fc4e08-3208-4d64-9288-f7e490ad9665","ios":"levelo://app?vid=38fc4e08-3208-4d64-9288-f7e490ad9665"},"vehicle_type_id":"4","last_reported":1716566926,"current_range_meters":400,"station_id":"ce4bhb12rcd13ifvqel0","pricing_plan_id":"cebpf4jnsgd1na2vs0mg"},{"bike_id":"3be3a56f-7711-44f8-86df-38a9cf685e9a","system_id":"levelo_inurba_marseille","lat":43.292005,"lon":5.357875,"is_reserved":false,"is_disabled":false,"rental_uris":{"android":"levelo://app?vid=3be3a56f-7711-44f8-86df-38a9cf685e9a","ios":"levelo://app?vid=3be3a56f-7711-44f8-86df-38a9cf685e9a"},"vehicle_type_id":"4","last_reported":1716566926,"current_range_meters":19600,"station_id":"ce4bhb12rcd13ifvqel0","pricing_plan_id":"cebpf4jnsgd1na2vs0mg"},{"bike_id":"6dc8e306-e5e9-4617-9970-e7d63287946e","system_id":"levelo_inurba_marseille","lat":43.292005,"lon":5.357875,"is_reserved":false,"is_disabled":false,"rental_uris":{"android":"levelo://app?vid=6dc8e306-e5e9-4617-9970-e7d63287946e","ios":"levelo://app?vid=6dc8e306-e5e9-4617-9970-e7d63287946e"},"vehicle_type_id":"4","last_reported":1716566926,"current_range_meters":21600,"station_id":"ce4bhb12rcd13ifvqel0","pricing_plan_id":"cebpf4jnsgd1na2vs0mg"},{"bike_id":"532faa4f-c870-44d5-b2ff-10c69ea5f8ea","system_id":"levelo_inurba_marseille","lat":43.29201,"lon":5.3581,"is_reserved":false,"is_disabled":false,"rental_uris":{"android":"levelo://app?vid=532faa4f-c870-44d5-b2ff-10c69ea5f8ea","ios":"levelo://app?vid=532faa4f-c870-44d5-b2ff-10c69ea5f8ea"},"vehicle_type_id":"4","last_reported":1716566926,"current_range_meters":24000,"station_id":"ce4bhb12rcd13ifvqel0","pricing_plan_id":"cebpf4jnsgd1na2vs0mg"},{"bike_id":"c361158f-3f93-4017-bb18-0a4605b07992","system_id":"levelo_inurba_marseille","lat":43.292005,"lon":5.357875,"is_reserved":false,"is_disabled":false,"rental_uris":{"android":"levelo://app?vid=c361158f-3f93-4017-bb18-0a4605b07992","ios":"levelo://app?vid=c361158f-3f93-4017-bb18-0a4605b07992"},"vehicle_type_id":"4","last_reported":1716566926,"current_range_meters":29200,"station_id":"ce4bhb12rcd13ifvqel0","pricing_plan_id":"cebpf4jnsgd1na2vs0mg"},{"bike_id":"900ac51d-782f-4cc2-90c4-91930048f70a","system_id":"levelo_inurba_marseille","lat":43.291994,"lon":5.357886,"is_reserved":false,"is_disabled":false,"rental_uris":{"android":"levelo://app?vid=900ac51d-782f-4cc2-90c4-91930048f70a","ios":"levelo://app?vid=900ac51d-782f-4cc2-90c4-91930048f70a"},"vehicle_type_id":"4","last_reported":1716566926,"current_range_meters":15200,"station_id":"ce4bhb12rcd13ifvqel0","pricing_plan_id":"cebpf4jnsgd1na2vs0mg"},{"bike_id":"d1239f8d-0760-4c92-b521-6ef6b1353461","system_id":"levelo_inurba_marseille","lat":43.292005,"lon":5.357875,"is_reserved":false,"is_disabled":false,"rental_uris":{"android":"levelo://app?vid=d1239f8d-0760-4c92-b521-6ef6b1353461","ios":"levelo://app?vid=d1239f8d-0760-4c92-b521-6ef6b1353461"},"vehicle_type_id":"4","last_reported":1716566926,"current_range_meters":19200,"station_id":"ce4bhb12rcd13ifvqel0","pricing_plan_id":"cebpf4jnsgd1na2vs0mg"},{"bike_id":"122befda-b2cc-4360-b18f-0e2bda42b1ff","system_id":"levelo_inurba_marseille","lat":43.29193,"lon":5.35811,"is_reserved":false,"is_disabled":false,"rental_uris":{"android":"levelo://app?vid=122befda-b2cc-4360-b18f-0e2bda42b1ff","ios":"levelo://app?vid=122befda-b2cc-4360-b18f-0e2bda42b1ff"},"vehicle_type_id":"4","last_reported":1716566926,"current_range_meters":3200,"station_id":"ce4bhb12rcd13ifvqel0","pricing_plan_id":"cebpf4jnsgd1na2vs0mg"},{"bike_id":"5769e96f-58f6-4275-a9c4-6b91714d526f","system_id":"levelo_inurba_marseille","lat":43.292005,"lon":5.357875,"is_reserved":false,"is_disabled":false,"rental_uris":{"android":"levelo://app?vid=5769e96f-58f6-4275-a9c4-6b91714d526f","ios":"levelo://app?vid=5769e96f-58f6-4275-a9c4-6b91714d526f"},"vehicle_type_id":"4","last_reported":1716566926,"current_range_meters":0,"station_id":"ce4bhb12rcd13ifvqel0","pricing_plan_id":"cebpf4jnsgd1na2vs0mg"},{"bike_id":"c09b5f49-cadd-4212-aa6b-d1cf2f842e93","system_id":"levelo_inurba_marseille","lat":43.29195,"lon":5.35793,"is_reserved":false,"is_disabled":false,"rental_uris":{"android":"levelo://app?vid=c09b5f49-cadd-4212-aa6b-d1cf2f842e93","ios":"levelo://app?vid=c09b5f49-cadd-4212-aa6b-d1cf2f842e93"},"vehicle_type_id":"4","last_reported":1716566926,"current_range_meters":0,"station_id":"ce4bhb12rcd13ifvqel0","pricing_plan_id":"cebpf4jnsgd1na2vs0mg"},{"bike_id":"c1a0a53a-9ef3-4c7d-a169-cc8e81bfd02f","system_id":"levelo_inurba_marseille","lat":43.292005,"lon":5.357875,"is_reserved":false,"is_disabled":false,"rental_uris":{"android":"levelo://app?vid=c1a0a53a-9ef3-4c7d-a169-cc8e81bfd02f","ios":"levelo://app?vid=c1a0a53a-9ef3-4c7d-a169-cc8e81bfd02f"},"vehicle_type_id":"4","last_reported":1716566926,"current_range_meters":10800,"station_id":"ce4bhb12rcd13ifvqel0","pricing_plan_id":"cebpf4jnsgd1na2vs0mg"},{"bike_id":"441da0c6-731f-471e-bc6f-0fcb00e1a6cd","system_id":"levelo_inurba_marseille","lat":43.313291,"lon":5.396838,"is_reserved":false,"is_disabled":false,"rental_uris":{"android":"levelo://app?vid=441da0c6-731f-471e-bc6f-0fcb00e1a6cd","ios":"levelo://app?vid=441da0c6-731f-471e-bc6f-0fcb00e1a6cd"},"vehicle_type_id":"4","last_reported":1716566926,"current_range_meters":8400,"station_id":"ce4bgvp2rcd13ifvqcu0","pricing_plan_id":"cebpf4jnsgd1na2vs0mg"},{"bike_id":"61effb28-f80c-4d53-a1f1-5545a779f329","system_id":"levelo_inurba_marseille","lat":43.291994,"lon":5.357886,"is_reserved":false,"is_disabled":false,"rental_uris":{"android":"levelo://app?vid=61effb28-f80c-4d53-a1f1-5545a779f329","ios":"levelo://app?vid=61effb28-f80c-4d53-a1f1-5545a779f329"},"vehicle_type_id":"4","last_reported":1716566926,"current_range_meters":30000,"station_id":"ce4bhb12rcd13ifvqel0","pricing_plan_id":"cebpf4jnsgd1na2vs0mg"},{"bike_id":"2f3ef81a-b29a-4184-a1bd-1cff8b658621","system_id":"levelo_inurba_marseille","lat":43.29529,"lon":5.385581,"is_reserved":false,"is_disabled":false,"rental_uris":{"android":"levelo://app?vid=2f3ef81a-b29a-4184-a1bd-1cff8b658621","ios":"levelo://app?vid=2f3ef81a-b29a-4184-a1bd-1cff8b658621"},"vehicle_type_id":"4","last_reported":1716566926,"current_range_meters":30400,"station_id":"ce4bgih2rcd13ifvqba0","pricing_plan_id":"cebpf4jnsgd1na2vs0mg"},{"bike_id":"c796f3b4-5f7a-4ffb-ad29-12fc11433329","system_id":"levelo_inurba_marseille","lat":43.29529,"lon":5.385581,"is_reserved":false,"is_disabled":false,"rental_uris":{"android":"levelo://app?vid=c796f3b4-5f7a-4ffb-ad29-12fc11433329","ios":"levelo://app?vid=c796f3b4-5f7a-4ffb-ad29-12fc11433329"},"vehicle_type_id":"4","last_reported":1716566926,"current_range_meters":9200,"station_id":"ce4bgih2rcd13ifvqba0","pricing_plan_id":"cebpf4jnsgd1na2vs0mg"},{"bike_id":"ff398eb5-e67d-40a6-80ba-ca135251a31c","system_id":"levelo_inurba_marseille","lat":43.29529,"lon":5.385581,"is_reserved":false,"is_disabled":false,"rental_uris":{"android":"levelo://app?vid=ff398eb5-e67d-40a6-80ba-ca135251a31c","ios":"levelo://app?vid=ff398eb5-e67d-40a6-80ba-ca135251a31c"},"vehicle_type_id":"4","last_reported":1716566926,"current_range_meters":29600,"station_id":"ce4bgih2rcd13ifvqba0","pricing_plan_id":"cebpf4jnsgd1na2vs0mg"},{"bike_id":"b745935f-9551-4517-88dc-a914308268cb","system_id":"levelo_inurba_marseille","lat":43.29529,"lon":5.385581,"is_reserved":false,"is_disabled":false,"rental_uris":{"android":"levelo://app?vid=b745935f-9551-4517-88dc-a914308268cb","ios":"levelo://app?vid=b745935f-9551-4517-88dc-a914308268cb"},"vehicle_type_id":"4","last_reported":1716566926,"current_range_meters":18000,"station_id":"ce4bgih2rcd13ifvqba0","pricing_plan_id":"cebpf4jnsgd1na2vs0mg"},{"bike_id":"4c5781f2-0043-48eb-a797-42f79649f40a","system_id":"levelo_inurba_marseille","lat":43.29529,"lon":5.385581,"is_reserved":false,"is_disabled":false,"rental_uris":{"android":"levelo://app?vid=4c5781f2-0043-48eb-a797-42f79649f40a","ios":"levelo://app?vid=4c5781f2-0043-48eb-a797-42f79649f40a"},"vehicle_type_id":"4","last_reported":1716566926,"current_range_meters":5200,"station_id":"ce4bgih2rcd13ifvqba0","pricing_plan_id":"cebpf4jnsgd1na2vs0mg"},{"bike_id":"8112fa46-28fd-406f-8f1c-05a01486a21f","system_id":"levelo_inurba_marseille","lat":43.29529,"lon":5.385581,"is_reserved":false,"is_disabled":false,"rental_uris":{"android":"levelo://app?vid=8112fa46-28fd-406f-8f1c-05a01486a21f","ios":"levelo://app?vid=8112fa46-28fd-406f-8f1c-05a01486a21f"},"vehicle_type_id":"4","last_reported":1716566926,"current_range_meters":16800,"station_id":"ce4bgih2rcd13ifvqba0","pricing_plan_id":"cebpf4jnsgd1na2vs0mg"},{"bike_id":"343b5619-adb8-4326-8144-67ab87d2706b","system_id":"levelo_inurba_marseille","lat":43.29529,"lon":5.385581,"is_reserved":false,"is_disabled":false,"rental_uris":{"android":"levelo://app?vid=343b5619-adb8-4326-8144-67ab87d2706b","ios":"levelo://app?vid=343b5619-adb8-4326-8144-67ab87d2706b"},"vehicle_type_id":"4","last_reported":1716566926,"current_range_meters":8000,"station_id":"ce4bgih2rcd13ifvqba0","pricing_plan_id":"cebpf4jnsgd1na2vs0mg"},{"bike_id":"37204c04-f55f-4976-963b-7b162dfd687d","system_id":"levelo_inurba_marseille","lat":43.29529,"lon":5.385581,"is_reserved":false,"is_disabled":false,"rental_uris":{"android":"levelo://app?vid=37204c04-f55f-4976-963b-7b162dfd687d","ios":"levelo://app?vid=37204c04-f55f-4976-963b-7b162dfd687d"},"vehicle_type_id":"4","last_reported":1716566926,"current_range_meters":18000,"station_id":"ce4bgih2rcd13ifvqba0","pricing_plan_id":"cebpf4jnsgd1na2vs0mg"},{"bike_id":"6a614a58-f5fc-4ec9-93b5-cfe8e3ab0ffd","system_id":"levelo_inurba_marseille","lat":43.29529,"lon":5.385581,"is_reserved":false,"is_disabled":false,"rental_uris":{"android":"levelo://app?vid=6a614a58-f5fc-4ec9-93b5-cfe8e3ab0ffd","ios":"levelo://app?vid=6a614a58-f5fc-4ec9-93b5-cfe8e3ab0ffd"},"vehicle_type_id":"4","last_reported":1716566926,"current_range_meters":4800,"station_id":"ce4bgih2rcd13ifvqba0","pricing_plan_id":"cebpf4jnsgd1na2vs0mg"},{"bike_id":"4b0129fb-c246-46d6-b382-d70f575dbc0a","system_id":"levelo_inurba_marseille","lat":43.29529,"lon":5.385581,"is_reserved":false,"is_disabled":false,"rental_uris":{"android":"levelo://app?vid=4b0129fb-c246-46d6-b382-d70f575dbc0a","ios":"levelo://app?vid=4b0129fb-c246-46d6-b382-d70f575dbc0a"},"vehicle_type_id":"4","last_reported":1716566926,"current_range_meters":6400,"station_id":"ce4bgih2rcd13ifvqba0","pricing_plan_id":"cebpf4jnsgd1na2vs0mg"},{"bike_id":"a354f9d6-56e4-4dbe-832b-aafdef31dbac","system_id":"levelo_inurba_marseille","lat":43.29529,"lon":5.385581,"is_reserved":false,"is_disabled":false,"rental_uris":{"android":"levelo://app?vid=a354f9d6-56e4-4dbe-832b-aafdef31dbac","ios":"levelo://app?vid=a354f9d6-56e4-4dbe-832b-aafdef31dbac"},"vehicle_type_id":"4","last_reported":1716566926,"current_range_meters":20000,"station_id":"ce4bgih2rcd13ifvqba0","pricing_plan_id":"cebpf4jnsgd1na2vs0mg"},{"bike_id":"b515ac1d-69e7-4abf-af81-d13be3f61a1f","system_id":"levelo_inurba_marseille","lat":43.29529,"lon":5.385581,"is_reserved":false,"is_disabled":false,"rental_uris":{"android":"levelo://app?vid=b515ac1d-69e7-4abf-af81-d13be3f61a1f","ios":"levelo://app?vid=b515ac1d-69e7-4abf-af81-d13be3f61a1f"},"vehicle_type_id":"4","last_reported":1716566926,"current_range_meters":22800,"station_id":"ce4bgih2rcd13ifvqba0","pricing_plan_id":"cebpf4jnsgd1na2vs0mg"},{"bike_id":"31e6cb9c-af45-4d69-8192-2bd4df66494f","system_id":"levelo_inurba_marseille","lat":43.29529,"lon":5.385581,"is_reserved":false,"is_disabled":false,"rental_uris":{"android":"levelo://app?vid=31e6cb9c-af45-4d69-8192-2bd4df66494f","ios":"levelo://app?vid=31e6cb9c-af45-4d69-8192-2bd4df66494f"},"vehicle_type_id":"4","last_reported":1716566926,"current_range_meters":18800,"station_id":"ce4bgih2rcd13ifvqba0","pricing_plan_id":"cebpf4jnsgd1na2vs0mg"},{"bike_id":"68bab451-366a-4aec-b0c5-eddca72c2b14","system_id":"levelo_inurba_marseille","lat":43.29529,"lon":5.385581,"is_reserved":false,"is_disabled":false,"rental_uris":{"android":"levelo://app?vid=68bab451-366a-4aec-b0c5-eddca72c2b14","ios":"levelo://app?vid=68bab451-366a-4aec-b0c5-eddca72c2b14"},"vehicle_type_id":"4","last_reported":1716566926,"current_range_meters":22400,"station_id":"ce4bgih2rcd13ifvqba0","pricing_plan_id":"cebpf4jnsgd1na2vs0mg"},{"bike_id":"32622bc8-c28a-4269-b588-794a94c82208","system_id":"levelo_inurba_marseille","lat":43.290779,"lon":5.371482,"is_reserved":false,"is_disabled":false,"rental_uris":{"android":"levelo://app?vid=32622bc8-c28a-4269-b588-794a94c82208","ios":"levelo://app?vid=32622bc8-c28a-4269-b588-794a94c82208"},"vehicle_type_id":"4","last_reported":1716566926,"current_range_meters":12800,"station_id":"ce4bh5p2rcd13ifvqe4g","pricing_plan_id":"cebpf4jnsgd1na2vs0mg"},{"bike_id":"7e25f7b5-05b4-42a2-b071-295473f66dbf","system_id":"levelo_inurba_marseille","lat":43.300852,"lon":5.390859,"is_reserved":false,"is_disabled":false,"rental_uris":{"android":"levelo://app?vid=7e25f7b5-05b4-42a2-b071-295473f66dbf","ios":"levelo://app?vid=7e25f7b5-05b4-42a2-b071-295473f66dbf"},"vehicle_type_id":"4","last_reported":1716566926,"current_range_meters":6400,"station_id":"ce4bh192rcd13ifvqdb0","pricing_plan_id":"cebpf4jnsgd1na2vs0mg"},{"bike_id":"941b0144-7cab-4da6-ad7b-38ede70e126c","system_id":"levelo_inurba_marseille","lat":43.302008,"lon":5.394694,"is_reserved":false,"is_disabled":false,"rental_uris":{"android":"levelo://app?vid=941b0144-7cab-4da6-ad7b-38ede70e126c","ios":"levelo://app?vid=941b0144-7cab-4da6-ad7b-38ede70e126c"},"vehicle_type_id":"4","last_reported":1716566926,"current_range_meters":12800,"station_id":"ce4bh0p2rcd13ifvqd70","pricing_plan_id":"cebpf4jnsgd1na2vs0mg"},{"bike_id":"75fb0d68-f3aa-4173-8609-6e5de943a5c9","system_id":"levelo_inurba_marseille","lat":43.290631,"lon":5.359244,"is_reserved":false,"is_disabled":false,"rental_uris":{"android":"levelo://app?vid=75fb0d68-f3aa-4173-8609-6e5de943a5c9","ios":"levelo://app?vid=75fb0d68-f3aa-4173-8609-6e5de943a5c9"},"vehicle_type_id":"4","last_reported":1716566926,"current_range_meters":18000,"station_id":"ce4bha92rcd13ifvqeg0","pricing_plan_id":"cebpf4jnsgd1na2vs0mg"},{"bike_id":"736f7c6c-6579-4fec-815b-8df31a83b103","system_id":"levelo_inurba_marseille","lat":43.29428,"lon":5.38621,"is_reserved":false,"is_disabled":false,"rental_uris":{"android":"levelo://app?vid=736f7c6c-6579-4fec-815b-8df31a83b103","ios":"levelo://app?vid=736f7c6c-6579-4fec-815b-8df31a83b103"},"vehicle_type_id":"4","last_reported":1716566926,"current_range_meters":400,"station_id":"ce4bh2h2rcd13ifvqdh0","pricing_plan_id":"cebpf4jnsgd1na2vs0mg"},{"bike_id":"20c18c03-1ce9-4edc-977c-bc431f645a21","system_id":"levelo_inurba_marseille","lat":43.290319,"lon":5.375732,"is_reserved":false,"is_disabled":false,"rental_uris":{"android":"levelo://app?vid=20c18c03-1ce9-4edc-977c-bc431f645a21","ios":"levelo://app?vid=20c18c03-1ce9-4edc-977c-bc431f645a21"},"vehicle_type_id":"4","last_reported":1716566926,"current_range_meters":11600,"station_id":"ce4bh692rcd13ifvqe90","pricing_plan_id":"cebpf4jnsgd1na2vs0mg"},{"bike_id":"07334b3c-502f-43da-9c39-c58a198d8f89","system_id":"levelo_inurba_marseille","lat":43.29422,"lon":5.38622,"is_reserved":false,"is_disabled":false,"rental_uris":{"android":"levelo://app?vid=07334b3c-502f-43da-9c39-c58a198d8f89","ios":"levelo://app?vid=07334b3c-502f-43da-9c39-c58a198d8f89"},"vehicle_type_id":"4","last_reported":1716566926,"current_range_meters":15600,"station_id":"ce4bh2h2rcd13ifvqdh0","pricing_plan_id":"cebpf4jnsgd1na2vs0mg"},{"bike_id":"cc220819-fcc2-4ebb-96e9-1cc1f71b4df0","system_id":"levelo_inurba_marseille","lat":43.2942,"lon":5.38622,"is_reserved":false,"is_disabled":false,"rental_uris":{"android":"levelo://app?vid=cc220819-fcc2-4ebb-96e9-1cc1f71b4df0","ios":"levelo://app?vid=cc220819-fcc2-4ebb-96e9-1cc1f71b4df0"},"vehicle_type_id":"4","last_reported":1716566926,"current_range_meters":6400,"station_id":"ce4bh2h2rcd13ifvqdh0","pricing_plan_id":"cebpf4jnsgd1na2vs0mg"},{"bike_id":"48c2d9f8-bdab-4ef2-989f-15854b0903cb","system_id":"levelo_inurba_marseille","lat":43.29423,"lon":5.38628,"is_reserved":false,"is_disabled":false,"rental_uris":{"android":"levelo://app?vid=48c2d9f8-bdab-4ef2-989f-15854b0903cb","ios":"levelo://app?vid=48c2d9f8-bdab-4ef2-989f-15854b0903cb"},"vehicle_type_id":"4","last_reported":1716566926,"current_range_meters":21200,"station_id":"ce4bh2h2rcd13ifvqdh0","pricing_plan_id":"cebpf4jnsgd1na2vs0mg"},{"bike_id":"ba77a3cf-b298-4bac-b594-cd8e1e86011e","system_id":"levelo_inurba_marseille","lat":43.29423,"lon":5.38632,"is_reserved":false,"is_disabled":false,"rental_uris":{"android":"levelo://app?vid=ba77a3cf-b298-4bac-b594-cd8e1e86011e","ios":"levelo://app?vid=ba77a3cf-b298-4bac-b594-cd8e1e86011e"},"vehicle_type_id":"4","last_reported":1716566926,"current_range_meters":22000,"station_id":"ce4bh2h2rcd13ifvqdh0","pricing_plan_id":"cebpf4jnsgd1na2vs0mg"},{"bike_id":"6c3979e8-811f-46a3-9e64-efa60a3eaaf6","system_id":"levelo_inurba_marseille","lat":43.289184,"lon":5.366408,"is_reserved":false,"is_disabled":false,"rental_uris":{"android":"levelo://app?vid=6c3979e8-811f-46a3-9e64-efa60a3eaaf6","ios":"levelo://app?vid=6c3979e8-811f-46a3-9e64-efa60a3eaaf6"},"vehicle_type_id":"4","last_reported":1716566926,"current_range_meters":5600,"station_id":"ce4bhap2rcd13ifvqek0","pricing_plan_id":"cebpf4jnsgd1na2vs0mg"},{"bike_id":"a28f8641-0a35-4422-ad97-18068bae9ffb","system_id":"levelo_inurba_marseille","lat":43.2942,"lon":5.38633,"is_reserved":false,"is_disabled":false,"rental_uris":{"android":"levelo://app?vid=a28f8641-0a35-4422-ad97-18068bae9ffb","ios":"levelo://app?vid=a28f8641-0a35-4422-ad97-18068bae9ffb"},"vehicle_type_id":"4","last_reported":1716566926,"current_range_meters":26000,"station_id":"ce4bh2h2rcd13ifvqdh0","pricing_plan_id":"cebpf4jnsgd1na2vs0mg"},{"bike_id":"540673eb-397a-4355-b013-cd729cf95103","system_id":"levelo_inurba_marseille","lat":43.29418,"lon":5.3863,"is_reserved":false,"is_disabled":false,"rental_uris":{"android":"levelo://app?vid=540673eb-397a-4355-b013-cd729cf95103","ios":"levelo://app?vid=540673eb-397a-4355-b013-cd729cf95103"},"vehicle_type_id":"4","last_reported":1716566926,"current_range_meters":24000,"station_id":"ce4bh2h2rcd13ifvqdh0","pricing_plan_id":"cebpf4jnsgd1na2vs0mg"},{"bike_id":"cdecaf77-6145-46c1-8ac7-b9cd29cd58b9","system_id":"levelo_inurba_marseille","lat":43.289184,"lon":5.366408,"is_reserved":false,"is_disabled":false,"rental_uris":{"android":"levelo://app?vid=cdecaf77-6145-46c1-8ac7-b9cd29cd58b9","ios":"levelo://app?vid=cdecaf77-6145-46c1-8ac7-b9cd29cd58b9"},"vehicle_type_id":"4","last_reported":1716566926,"current_range_meters":26800,"station_id":"ce4bhap2rcd13ifvqek0","pricing_plan_id":"cebpf4jnsgd1na2vs0mg"},{"bike_id":"4536ffd9-93d6-4b4e-a874-4f1ae873df67","system_id":"levelo_inurba_marseille","lat":43.289184,"lon":5.366408,"is_reserved":false,"is_disabled":false,"rental_uris":{"android":"levelo://app?vid=4536ffd9-93d6-4b4e-a874-4f1ae873df67","ios":"levelo://app?vid=4536ffd9-93d6-4b4e-a874-4f1ae873df67"},"vehicle_type_id":"4","last_reported":1716566926,"current_range_meters":24800,"station_id":"ce4bhap2rcd13ifvqek0","pricing_plan_id":"cebpf4jnsgd1na2vs0mg"},{"bike_id":"da600146-ae3b-42e0-ab5f-0d23ff30d2f1","system_id":"levelo_inurba_marseille","lat":43.289184,"lon":5.366408,"is_reserved":false,"is_disabled":false,"rental_uris":{"android":"levelo://app?vid=da600146-ae3b-42e0-ab5f-0d23ff30d2f1","ios":"levelo://app?vid=da600146-ae3b-42e0-ab5f-0d23ff30d2f1"},"vehicle_type_id":"4","last_reported":1716566926,"current_range_meters":0,"station_id":"ce4bhap2rcd13ifvqek0","pricing_plan_id":"cebpf4jnsgd1na2vs0mg"},{"bike_id":"0e2e14e5-d9a6-4ae3-b3d6-9807250339f7","system_id":"levelo_inurba_marseille","lat":43.289184,"lon":5.366408,"is_reserved":false,"is_disabled":false,"rental_uris":{"android":"levelo://app?vid=0e2e14e5-d9a6-4ae3-b3d6-9807250339f7","ios":"levelo://app?vid=0e2e14e5-d9a6-4ae3-b3d6-9807250339f7"},"vehicle_type_id":"4","last_reported":1716566926,"current_range_meters":23600,"station_id":"ce4bhap2rcd13ifvqek0","pricing_plan_id":"cebpf4jnsgd1na2vs0mg"},{"bike_id":"e97982cb-1e61-4fb9-a9f5-c3532b249bfa","system_id":"levelo_inurba_marseille","lat":43.289184,"lon":5.366408,"is_reserved":false,"is_disabled":false,"rental_uris":{"android":"levelo://app?vid=e97982cb-1e61-4fb9-a9f5-c3532b249bfa","ios":"levelo://app?vid=e97982cb-1e61-4fb9-a9f5-c3532b249bfa"},"vehicle_type_id":"4","last_reported":1716566926,"current_range_meters":7200,"station_id":"ce4bhap2rcd13ifvqek0","pricing_plan_id":"cebpf4jnsgd1na2vs0mg"},{"bike_id":"8b6b9919-2e50-49b9-8f2f-f7490fb0eb21","system_id":"levelo_inurba_marseille","lat":43.289184,"lon":5.366408,"is_reserved":false,"is_disabled":false,"rental_uris":{"android":"levelo://app?vid=8b6b9919-2e50-49b9-8f2f-f7490fb0eb21","ios":"levelo://app?vid=8b6b9919-2e50-49b9-8f2f-f7490fb0eb21"},"vehicle_type_id":"4","last_reported":1716566926,"current_range_meters":18400,"station_id":"ce4bhap2rcd13ifvqek0","pricing_plan_id":"cebpf4jnsgd1na2vs0mg"},{"bike_id":"595fc08a-ad8c-4455-b5ff-c6bd8e83fda0","system_id":"levelo_inurba_marseille","lat":43.294113,"lon":5.386346,"is_reserved":false,"is_disabled":false,"rental_uris":{"android":"levelo://app?vid=595fc08a-ad8c-4455-b5ff-c6bd8e83fda0","ios":"levelo://app?vid=595fc08a-ad8c-4455-b5ff-c6bd8e83fda0"},"vehicle_type_id":"4","last_reported":1716566926,"current_range_meters":6400,"station_id":"ce4bh2h2rcd13ifvqdh0","pricing_plan_id":"cebpf4jnsgd1na2vs0mg"},{"bike_id":"6ee08c06-340c-4548-975f-a993be04390b","system_id":"levelo_inurba_marseille","lat":43.294114,"lon":5.386453,"is_reserved":false,"is_disabled":false,"rental_uris":{"android":"levelo://app?vid=6ee08c06-340c-4548-975f-a993be04390b","ios":"levelo://app?vid=6ee08c06-340c-4548-975f-a993be04390b"},"vehicle_type_id":"4","last_reported":1716566926,"current_range_meters":20400,"station_id":"ce4bh2h2rcd13ifvqdh0","pricing_plan_id":"cebpf4jnsgd1na2vs0mg"},{"bike_id":"62ec8ca6-4f5a-4c7f-b9b5-bfc25221d195","system_id":"levelo_inurba_marseille","lat":43.289468,"lon":5.363719,"is_reserved":false,"is_disabled":false,"rental_uris":{"android":"levelo://app?vid=62ec8ca6-4f5a-4c7f-b9b5-bfc25221d195","ios":"levelo://app?vid=62ec8ca6-4f5a-4c7f-b9b5-bfc25221d195"},"vehicle_type_id":"4","last_reported":1716566926,"current_range_meters":0,"station_id":"ce4bhc92rcd13ifvqetg","pricing_plan_id":"cebpf4jnsgd1na2vs0mg"},{"bike_id":"c156292c-b776-43f9-9401-b68cb39e1ca7","system_id":"levelo_inurba_marseille","lat":43.292644,"lon":5.384257,"is_reserved":false,"is_disabled":false,"rental_uris":{"android":"levelo://app?vid=c156292c-b776-43f9-9401-b68cb39e1ca7","ios":"levelo://app?vid=c156292c-b776-43f9-9401-b68cb39e1ca7"},"vehicle_type_id":"4","last_reported":1716566926,"current_range_meters":24800,"station_id":"ce4bh692rcd13ifvqea0","pricing_plan_id":"cebpf4jnsgd1na2vs0mg"},{"bike_id":"2b328653-c509-42b8-9836-59ec31384fea","system_id":"levelo_inurba_marseille","lat":43.30432,"lon":5.39739,"is_reserved":false,"is_disabled":false,"rental_uris":{"android":"levelo://app?vid=2b328653-c509-42b8-9836-59ec31384fea","ios":"levelo://app?vid=2b328653-c509-42b8-9836-59ec31384fea"},"vehicle_type_id":"4","last_reported":1716566926,"current_range_meters":0,"station_id":"ce4bh092rcd13ifvqd20","pricing_plan_id":"cebpf4jnsgd1na2vs0mg"},{"bike_id":"32107c75-a965-47a6-92d0-5d70567b70c6","system_id":"levelo_inurba_marseille","lat":43.292642,"lon":5.384254,"is_reserved":false,"is_disabled":false,"rental_uris":{"android":"levelo://app?vid=32107c75-a965-47a6-92d0-5d70567b70c6","ios":"levelo://app?vid=32107c75-a965-47a6-92d0-5d70567b70c6"},"vehicle_type_id":"4","last_reported":1716566926,"current_range_meters":0,"station_id":"ce4bh692rcd13ifvqea0","pricing_plan_id":"cebpf4jnsgd1na2vs0mg"},{"bike_id":"702866ab-7ad9-4820-9c62-01b255791dc6","system_id":"levelo_inurba_marseille","lat":43.292644,"lon":5.384257,"is_reserved":false,"is_disabled":false,"rental_uris":{"android":"levelo://app?vid=702866ab-7ad9-4820-9c62-01b255791dc6","ios":"levelo://app?vid=702866ab-7ad9-4820-9c62-01b255791dc6"},"vehicle_type_id":"4","last_reported":1716566926,"current_range_meters":12000,"station_id":"ce4bh692rcd13ifvqea0","pricing_plan_id":"cebpf4jnsgd1na2vs0mg"},{"bike_id":"8fcf9f0c-28dd-4ae3-a17a-4b925c6cf5cf","system_id":"levelo_inurba_marseille","lat":43.304274,"lon":5.397513,"is_reserved":false,"is_disabled":false,"rental_uris":{"android":"levelo://app?vid=8fcf9f0c-28dd-4ae3-a17a-4b925c6cf5cf","ios":"levelo://app?vid=8fcf9f0c-28dd-4ae3-a17a-4b925c6cf5cf"},"vehicle_type_id":"4","last_reported":1716566926,"current_range_meters":4400,"station_id":"ce4bh092rcd13ifvqd20","pricing_plan_id":"cebpf4jnsgd1na2vs0mg"},{"bike_id":"bbd28c58-375f-4d48-b55d-06def5b04f54","system_id":"levelo_inurba_marseille","lat":43.292642,"lon":5.384254,"is_reserved":false,"is_disabled":false,"rental_uris":{"android":"levelo://app?vid=bbd28c58-375f-4d48-b55d-06def5b04f54","ios":"levelo://app?vid=bbd28c58-375f-4d48-b55d-06def5b04f54"},"vehicle_type_id":"4","last_reported":1716566926,"current_range_meters":26000,"station_id":"ce4bh692rcd13ifvqea0","pricing_plan_id":"cebpf4jnsgd1na2vs0mg"},{"bike_id":"3f4c45b4-f1cf-4eb4-9e0c-5696d027f60e","system_id":"levelo_inurba_marseille","lat":43.292642,"lon":5.384254,"is_reserved":false,"is_disabled":false,"rental_uris":{"android":"levelo://app?vid=3f4c45b4-f1cf-4eb4-9e0c-5696d027f60e","ios":"levelo://app?vid=3f4c45b4-f1cf-4eb4-9e0c-5696d027f60e"},"vehicle_type_id":"4","last_reported":1716566926,"current_range_meters":25200,"station_id":"ce4bh692rcd13ifvqea0","pricing_plan_id":"cebpf4jnsgd1na2vs0mg"},{"bike_id":"26879562-a620-4492-9fea-8aefe63ff97d","system_id":"levelo_inurba_marseille","lat":43.304296,"lon":5.397513,"is_reserved":false,"is_disabled":false,"rental_uris":{"android":"levelo://app?vid=26879562-a620-4492-9fea-8aefe63ff97d","ios":"levelo://app?vid=26879562-a620-4492-9fea-8aefe63ff97d"},"vehicle_type_id":"4","last_reported":1716566926,"current_range_meters":31200,"station_id":"ce4bh092rcd13ifvqd20","pricing_plan_id":"cebpf4jnsgd1na2vs0mg"},{"bike_id":"46bdc7a6-103c-4b9b-8512-6af3c578de46","system_id":"levelo_inurba_marseille","lat":43.30432,"lon":5.39757,"is_reserved":false,"is_disabled":false,"rental_uris":{"android":"levelo://app?vid=46bdc7a6-103c-4b9b-8512-6af3c578de46","ios":"levelo://app?vid=46bdc7a6-103c-4b9b-8512-6af3c578de46"},"vehicle_type_id":"4","last_reported":1716566926,"current_range_meters":0,"station_id":"ce4bh092rcd13ifvqd20","pricing_plan_id":"cebpf4jnsgd1na2vs0mg"},{"bike_id":"549ef7c4-d211-4868-9c9d-88baed1b03c7","system_id":"levelo_inurba_marseille","lat":43.290104,"lon":5.356111,"is_reserved":false,"is_disabled":false,"rental_uris":{"android":"levelo://app?vid=549ef7c4-d211-4868-9c9d-88baed1b03c7","ios":"levelo://app?vid=549ef7c4-d211-4868-9c9d-88baed1b03c7"},"vehicle_type_id":"4","last_reported":1716566926,"current_range_meters":12800,"station_id":"ce4bhb92rcd13ifvqen0","pricing_plan_id":"cebpf4jnsgd1na2vs0mg"},{"bike_id":"eefea682-4f0d-41c1-ad3c-f669e428afad","system_id":"levelo_inurba_marseille","lat":43.290103,"lon":5.356114,"is_reserved":false,"is_disabled":false,"rental_uris":{"android":"levelo://app?vid=eefea682-4f0d-41c1-ad3c-f669e428afad","ios":"levelo://app?vid=eefea682-4f0d-41c1-ad3c-f669e428afad"},"vehicle_type_id":"4","last_reported":1716566926,"current_range_meters":6400,"station_id":"ce4bhb92rcd13ifvqen0","pricing_plan_id":"cebpf4jnsgd1na2vs0mg"},{"bike_id":"da695d37-9faf-4fce-b5bb-24c132004f13","system_id":"levelo_inurba_marseille","lat":43.302576,"lon":5.396737,"is_reserved":false,"is_disabled":false,"rental_uris":{"android":"levelo://app?vid=da695d37-9faf-4fce-b5bb-24c132004f13","ios":"levelo://app?vid=da695d37-9faf-4fce-b5bb-24c132004f13"},"vehicle_type_id":"4","last_reported":1716566926,"current_range_meters":25200,"station_id":"ce4bh0h2rcd13ifvqd40","pricing_plan_id":"cebpf4jnsgd1na2vs0mg"},{"bike_id":"8b430e00-2d87-4633-b070-ea241569876f","system_id":"levelo_inurba_marseille","lat":43.290103,"lon":5.356114,"is_reserved":false,"is_disabled":false,"rental_uris":{"android":"levelo://app?vid=8b430e00-2d87-4633-b070-ea241569876f","ios":"levelo://app?vid=8b430e00-2d87-4633-b070-ea241569876f"},"vehicle_type_id":"4","last_reported":1716566926,"current_range_meters":13200,"station_id":"ce4bhb92rcd13ifvqen0","pricing_plan_id":"cebpf4jnsgd1na2vs0mg"},{"bike_id":"286ca79d-d6c6-4e7f-8d7b-6217063b9bf2","system_id":"levelo_inurba_marseille","lat":43.290103,"lon":5.356114,"is_reserved":false,"is_disabled":false,"rental_uris":{"android":"levelo://app?vid=286ca79d-d6c6-4e7f-8d7b-6217063b9bf2","ios":"levelo://app?vid=286ca79d-d6c6-4e7f-8d7b-6217063b9bf2"},"vehicle_type_id":"4","last_reported":1716566926,"current_range_meters":11200,"station_id":"ce4bhb92rcd13ifvqen0","pricing_plan_id":"cebpf4jnsgd1na2vs0mg"},{"bike_id":"8cd51dd0-de1b-4907-82ea-7e9c2bedfcb4","system_id":"levelo_inurba_marseille","lat":43.29008,"lon":5.35619,"is_reserved":false,"is_disabled":false,"rental_uris":{"android":"levelo://app?vid=8cd51dd0-de1b-4907-82ea-7e9c2bedfcb4","ios":"levelo://app?vid=8cd51dd0-de1b-4907-82ea-7e9c2bedfcb4"},"vehicle_type_id":"4","last_reported":1716566926,"current_range_meters":20000,"station_id":"ce4bhb92rcd13ifvqen0","pricing_plan_id":"cebpf4jnsgd1na2vs0mg"},{"bike_id":"71a91556-5386-4fb8-90a3-de72c4419390","system_id":"levelo_inurba_marseille","lat":43.290103,"lon":5.356114,"is_reserved":false,"is_disabled":false,"rental_uris":{"android":"levelo://app?vid=71a91556-5386-4fb8-90a3-de72c4419390","ios":"levelo://app?vid=71a91556-5386-4fb8-90a3-de72c4419390"},"vehicle_type_id":"4","last_reported":1716566926,"current_range_meters":6400,"station_id":"ce4bhb92rcd13ifvqen0","pricing_plan_id":"cebpf4jnsgd1na2vs0mg"},{"bike_id":"2b4e3517-6740-4b83-9ea3-c02ab3d62a8d","system_id":"levelo_inurba_marseille","lat":43.290103,"lon":5.356114,"is_reserved":false,"is_disabled":false,"rental_uris":{"android":"levelo://app?vid=2b4e3517-6740-4b83-9ea3-c02ab3d62a8d","ios":"levelo://app?vid=2b4e3517-6740-4b83-9ea3-c02ab3d62a8d"},"vehicle_type_id":"4","last_reported":1716566926,"current_range_meters":17600,"station_id":"ce4bhb92rcd13ifvqen0","pricing_plan_id":"cebpf4jnsgd1na2vs0mg"},{"bike_id":"13421fbd-5ab3-4713-ae0f-8df548dd4166","system_id":"levelo_inurba_marseille","lat":43.290103,"lon":5.356114,"is_reserved":false,"is_disabled":false,"rental_uris":{"android":"levelo://app?vid=13421fbd-5ab3-4713-ae0f-8df548dd4166","ios":"levelo://app?vid=13421fbd-5ab3-4713-ae0f-8df548dd4166"},"vehicle_type_id":"4","last_reported":1716566926,"current_range_meters":2800,"station_id":"ce4bhb92rcd13ifvqen0","pricing_plan_id":"cebpf4jnsgd1na2vs0mg"},{"bike_id":"808e94bb-3f1f-4192-bb66-b92e503b59ad","system_id":"levelo_inurba_marseille","lat":43.29008,"lon":5.35614,"is_reserved":false,"is_disabled":false,"rental_uris":{"android":"levelo://app?vid=808e94bb-3f1f-4192-bb66-b92e503b59ad","ios":"levelo://app?vid=808e94bb-3f1f-4192-bb66-b92e503b59ad"},"vehicle_type_id":"4","last_reported":1716566926,"current_range_meters":2000,"station_id":"ce4bhb92rcd13ifvqen0","pricing_plan_id":"cebpf4jnsgd1na2vs0mg"},{"bike_id":"ad211297-ac30-4c9a-9d97-3c0f79ea9d80","system_id":"levelo_inurba_marseille","lat":43.290104,"lon":5.356111,"is_reserved":false,"is_disabled":false,"rental_uris":{"android":"levelo://app?vid=ad211297-ac30-4c9a-9d97-3c0f79ea9d80","ios":"levelo://app?vid=ad211297-ac30-4c9a-9d97-3c0f79ea9d80"},"vehicle_type_id":"4","last_reported":1716566926,"current_range_meters":5200,"station_id":"ce4bhb92rcd13ifvqen0","pricing_plan_id":"cebpf4jnsgd1na2vs0mg"},{"bike_id":"576feec9-6dc0-447a-a20c-7177f777cd9c","system_id":"levelo_inurba_marseille","lat":43.290104,"lon":5.356111,"is_reserved":false,"is_disabled":false,"rental_uris":{"android":"levelo://app?vid=576feec9-6dc0-447a-a20c-7177f777cd9c","ios":"levelo://app?vid=576feec9-6dc0-447a-a20c-7177f777cd9c"},"vehicle_type_id":"4","last_reported":1716566926,"current_range_meters":18000,"station_id":"ce4bhb92rcd13ifvqen0","pricing_plan_id":"cebpf4jnsgd1na2vs0mg"},{"bike_id":"374635b5-766a-475b-8dc3-4e88630f557b","system_id":"levelo_inurba_marseille","lat":43.28856,"lon":5.358371,"is_reserved":false,"is_disabled":false,"rental_uris":{"android":"levelo://app?vid=374635b5-766a-475b-8dc3-4e88630f557b","ios":"levelo://app?vid=374635b5-766a-475b-8dc3-4e88630f557b"},"vehicle_type_id":"4","last_reported":1716566926,"current_range_meters":6000,"station_id":"ce4bhb12rcd13ifvqem0","pricing_plan_id":"cebpf4jnsgd1na2vs0mg"},{"bike_id":"8fae2673-cc2e-47de-8d47-7e0eca5589e2","system_id":"levelo_inurba_marseille","lat":43.290104,"lon":5.356111,"is_reserved":false,"is_disabled":false,"rental_uris":{"android":"levelo://app?vid=8fae2673-cc2e-47de-8d47-7e0eca5589e2","ios":"levelo://app?vid=8fae2673-cc2e-47de-8d47-7e0eca5589e2"},"vehicle_type_id":"4","last_reported":1716566926,"current_range_meters":7600,"station_id":"ce4bhb92rcd13ifvqen0","pricing_plan_id":"cebpf4jnsgd1na2vs0mg"},{"bike_id":"e950b2a9-27ed-41d9-81cf-053ccf200e85","system_id":"levelo_inurba_marseille","lat":43.29785,"lon":5.393646,"is_reserved":false,"is_disabled":false,"rental_uris":{"android":"levelo://app?vid=e950b2a9-27ed-41d9-81cf-053ccf200e85","ios":"levelo://app?vid=e950b2a9-27ed-41d9-81cf-053ccf200e85"},"vehicle_type_id":"4","last_reported":1716566926,"current_range_meters":0,"station_id":"chh1huq6cuj3fo74tm60","pricing_plan_id":"cebpf4jnsgd1na2vs0mg"},{"bike_id":"9307c7cc-bc75-4250-a603-50eebfa366fc","system_id":"levelo_inurba_marseille","lat":43.330442,"lon":5.389148,"is_reserved":false,"is_disabled":false,"rental_uris":{"android":"levelo://app?vid=9307c7cc-bc75-4250-a603-50eebfa366fc","ios":"levelo://app?vid=9307c7cc-bc75-4250-a603-50eebfa366fc"},"vehicle_type_id":"4","last_reported":1716566926,"current_range_meters":20000,"station_id":"ce4bhr92rcd13ifvqhrg","pricing_plan_id":"cebpf4jnsgd1na2vs0mg"},{"bike_id":"9fbdc11d-b51a-4927-a739-bfefc61eef59","system_id":"levelo_inurba_marseille","lat":43.330442,"lon":5.389148,"is_reserved":false,"is_disabled":false,"rental_uris":{"android":"levelo://app?vid=9fbdc11d-b51a-4927-a739-bfefc61eef59","ios":"levelo://app?vid=9fbdc11d-b51a-4927-a739-bfefc61eef59"},"vehicle_type_id":"4","last_reported":1716566926,"current_range_meters":29600,"station_id":"ce4bhr92rcd13ifvqhrg","pricing_plan_id":"cebpf4jnsgd1na2vs0mg"},{"bike_id":"3cb73162-7123-4c95-9da6-28734335367c","system_id":"levelo_inurba_marseille","lat":43.33029,"lon":5.39047,"is_reserved":false,"is_disabled":false,"rental_uris":{"android":"levelo://app?vid=3cb73162-7123-4c95-9da6-28734335367c","ios":"levelo://app?vid=3cb73162-7123-4c95-9da6-28734335367c"},"vehicle_type_id":"4","last_reported":1716566926,"current_range_meters":2400,"station_id":"ce4bhr92rcd13ifvqhrg","pricing_plan_id":"cebpf4jnsgd1na2vs0mg"},