{"last_updated":1740939084,"ttl":60,"version":"2.2","data":{"bikes":[{"bike_id":"819fc6fd-4768-4c11-82f9-0b5fd0b62d4a","system_id":"levelo_inurba_marseille","lat":43.34237,"lon":5.37783,"is_reserved":false,"is_disabled":true,"rental_uris":{"android":"levelo://app?vid=819fc6fd-4768-4c11-82f9-0b5fd0b62d4a","ios":"levelo://app?vid=819fc6fd-4768-4c11-82f9-0b5fd0b62d4a"},"vehicle_type_id":"4","last_reported":1740939084,"current_range_meters":0,"station_id":"","pricing_plan_id":"cebpf4jnsgd1na2vs0mg"},{"bike_id":"303c2b96-5131-48b9-8dd0-e5a82865f4bc","system_id":"levelo_inurba_marseille","lat":43.35339,"lon":5.36547,"is_reserved":false,"is_disabled":true,"rental_uris":{"android":"levelo://app?vid=303c2b96-5131-48b9-8dd0-e5a82865f4bc","ios":"levelo://app?vid=303c2b96-5131-48b9-8dd0-e5a82865f4bc"},"vehicle_type_id":"4","last_reported":1740939084,"current_range_meters":0,"station_id":"","pricing_plan_id":"cebpf4jnsgd1na2vs0mg"},{"bike_id":"d5458f89-73a3-43f1-9894-000389f52995","system_id":"levelo_inurba_marseille","lat":43.27615,"lon":5.41485,"is_reserved":false,"is_disabled":true,"rental_uris":{"android":"levelo://app?vid=d5458f89-73a3-43f1-9894-000389f52995","ios":"levelo://app?vid=d5458f89-73a3-43f1-9894-000389f52995"},"vehicle_type_id":"4","last_reported":1740939084,"current_range_meters":0,"station_id":"","pricing_plan_id":"cebpf4jnsgd1na2vs0mg"},{"bike_id":"ea6a02cb-3810-403c-ab47-423df20fff9f","system_id":"levelo_inurba_marseille","lat":43.28846,"lon":5.44857,"is_reserved":false,"is_disabled":true,"rental_uris":{"android":"levelo://app?vid=ea6a02cb-3810-403c-ab47-423df20fff9f","ios":"levelo://app?vid=ea6a02cb-3810-403c-ab47-423df20fff9f"},"vehicle_type_id":"4","last_reported":1740939084,"current_range_meters":0,"station_id":"","pricing_plan_id":"cebpf4jnsgd1na2vs0mg"},{"bike_id":"afcec8eb-28d8-4889-8879-0897cb5957e3","system_id":"levelo_inurba_marseille","lat":43.28001,"lon":5.40589,"is_reserved":false,"is_disabled":true,"rental_uris":{"android":"levelo://app?vid=afcec8eb-28d8-4889-8879-0897cb5957e3","ios":"levelo://app?vid=afcec8eb-28d8-4889-8879-0897cb5957e3"},"vehicle_type_id":"4","last_reported":1740939084,"current_range_meters":0,"station_id":"","pricing_plan_id":"cebpf4jnsgd1na2vs0mg"},{"bike_id":"7299c7f5-b19a-415a-98fb-92e8f867f54e","system_id":"levelo_inurba_marseille","lat":43.31685,"lon":5.39711,"is_reserved":false,"is_disabled":true,"rental_uris":{"android":"levelo://app?vid=7299c7f5-b19a-415a-98fb-92e8f867f54e","ios":"levelo://app?vid=7299c7f5-b19a-415a-98fb-92e8f867f54e"},"vehicle_type_id":"4","last_reported":1740939084,"current_range_meters":0,"station_id":"","pricing_plan_id":"cebpf4jnsgd1na2vs0mg"},{"bike_id":"5470a9d6-cc14-47be-aa41-6413d29a0781","system_id":"levelo_inurba_marseille","lat":43.262263,"lon":5.404469,"is_reserved":false,"is_disabled":true,"rental_uris":{"android":"levelo://app?vid=5470a9d6-cc14-47be-aa41-6413d29a0781","ios":"levelo://app?vid=5470a9d6-cc14-47be-aa41-6413d29a0781"},"vehicle_type_id":"4","last_reported":1740939084,"current_range_meters":0,"station_id":"","pricing_plan_id":"cebpf4jnsgd1na2vs0mg"},{"bike_id":"afca1dcf-e9a1-4bcb-afd5-5615d10ae1b5","system_id":"levelo_inurba_marseille","lat":43.29301,"lon":5.37458,"is_reserved":false,"is_disabled":true,"rental_uris":{"android":"levelo://app?vid=afca1dcf-e9a1-4bcb-afd5-5615d10ae1b5","ios":"levelo://app?vid=afca1dcf-e9a1-4bcb-afd5-5615d10ae1b5"},"vehicle_type_id":"4","last_reported":1740939084,"current_range_meters":0,"station_id":"ce4bgi12rcd13ifvqb70","pricing_plan_id":"cebpf4jnsgd1na2vs0mg"},{"bike_id":"2d9f9746-0f17-40e4-90b1-75588057c09a","system_id":"levelo_inurba_marseille","lat":43.29612,"lon":5.37736,"is_reserved":false,"is_disabled":true,"rental_uris":{"android":"levelo://app?vid=2d9f9746-0f17-40e4-90b1-75588057c09a","ios":"levelo://app?vid=2d9f9746-0f17-40e4-90b1-75588057c09a"},"vehicle_type_id":"4","last_reported":1740939084,"current_range_meters":0,"station_id":"ce4bgi92rcd13ifvqb90","pricing_plan_id":"cebpf4jnsgd1na2vs0mg"},{"bike_id":"44a8ae1c-a113-440f-838d-15cb54ae0a8c","system_id":"levelo_inurba_marseille","lat":43.298,"lon":5.38127,"is_reserved":false,"is_disabled":true,"rental_uris":{"android":"levelo://app?vid=44a8ae1c-a113-440f-838d-15cb54ae0a8c","ios":"levelo://app?vid=44a8ae1c-a113-440f-838d-15cb54ae0a8c"},"vehicle_type_id":"4","last_reported":1740939084,"current_range_meters":0,"station_id":"ce4bgip2rcd13ifvqbb0","pricing_plan_id":"cebpf4jnsgd1na2vs0mg"},{"bike_id":"5eaf555c-3719-4b84-a140-97e5fbb39c69","system_id":"levelo_inurba_marseille","lat":43.29379,"lon":5.37844,"is_reserved":false,"is_disabled":true,"rental_uris":{"android":"levelo://app?vid=5eaf555c-3719-4b84-a140-97e5fbb39c69","ios":"levelo://app?vid=5eaf555c-3719-4b84-a140-97e5fbb39c69"},"vehicle_type_id":"4","last_reported":1740939084,"current_range_meters":0,"station_id":"ce4bgjh2rcd13ifvqbf0","pricing_plan_id":"cebpf4jnsgd1na2vs0mg"},{"bike_id":"af1d8f72-4ab4-4630-bf67-7ab81fbc01e3","system_id":"levelo_inurba_marseille","lat":43.301563,"lon":5.380773,"is_reserved":false,"is_disabled":true,"rental_uris":{"android":"levelo://app?vid=af1d8f72-4ab4-4630-bf67-7ab81fbc01e3","ios":"levelo://app?vid=af1d8f72-4ab4-4630-bf67-7ab81fbc01e3"},"vehicle_type_id":"4","last_reported":1740939084,"current_range_meters":0,"station_id":"ce4bgjp2rcd13ifvqbh0","pricing_plan_id":"cebpf4jnsgd1na2vs0mg"},{"bike_id":"8bbe49d9-81e0-46c2-84b6-9b43bcc32056","system_id":"levelo_inurba_marseille","lat":43.30307,"lon":5.39216,"is_reserved":false,"is_disabled":true,"rental_uris":{"android":"levelo://app?vid=8bbe49d9-81e0-46c2-84b6-9b43bcc32056","ios":"levelo://app?vid=8bbe49d9-81e0-46c2-84b6-9b43bcc32056"},"vehicle_type_id":"4","last_reported":1740939084,"current_range_meters":0,"station_id":"ce4bgkh2rcd13ifvqbk0","pricing_plan_id":"cebpf4jnsgd1na2vs0mg"},{"bike_id":"a530018c-95c9-40c7-aa89-3e83bdc1a101","system_id":"levelo_inurba_marseille","lat":43.30291,"lon":5.39209,"is_reserved":false,"is_disabled":true,"rental_uris":{"android":"levelo://app?vid=a530018c-95c9-40c7-aa89-3e83bdc1a101","ios":"levelo://app?vid=a530018c-95c9-40c7-aa89-3e83bdc1a101"},"vehicle_type_id":"4","last_reported":1740939084,"current_range_meters":0,"station_id":"ce4bgkh2rcd13ifvqbk0","pricing_plan_id":"cebpf4jnsgd1na2vs0mg"},{"bike_id":"367fb4ce-d5e7-4054-aafc-c4d30cf921b6","system_id":"levelo_inurba_marseille","lat":43.29709,"lon":5.37695,"is_reserved":false,"is_disabled":true,"rental_uris":{"android":"levelo://app?vid=367fb4ce-d5e7-4054-aafc-c4d30cf921b6","ios":"levelo://app?vid=367fb4ce-d5e7-4054-aafc-c4d30cf921b6"},"vehicle_type_id":"4","last_reported":1740939084,"current_range_meters":0,"station_id":"ce4bgkh2rcd13ifvqbl0","pricing_plan_id":"cebpf4jnsgd1na2vs0mg"},{"bike_id":"ec5839fe-f775-4eb6-8517-1e3cbc51f490","system_id":"levelo_inurba_marseille","lat":43.311513,"lon":5.3675,"is_reserved":false,"is_disabled":true,"rental_uris":{"android":"levelo://app?vid=ec5839fe-f775-4eb6-8517-1e3cbc51f490","ios":"levelo://app?vid=ec5839fe-f775-4eb6-8517-1e3cbc51f490"},"vehicle_type_id":"4","last_reported":1740939084,"current_range_meters":0,"station_id":"ce4bgl92rcd13ifvqbq0","pricing_plan_id":"cebpf4jnsgd1na2vs0mg"},{"bike_id":"e3bbd29b-b7d8-4ed4-9ae0-9b3b26779f26","system_id":"levelo_inurba_marseille","lat":43.31337,"lon":5.36756,"is_reserved":false,"is_disabled":true,"rental_uris":{"android":"levelo://app?vid=e3bbd29b-b7d8-4ed4-9ae0-9b3b26779f26","ios":"levelo://app?vid=e3bbd29b-b7d8-4ed4-9ae0-9b3b26779f26"},"vehicle_type_id":"4","last_reported":1740939084,"current_range_meters":0,"station_id":"ce4bgr92rcd13ifvqc6g","pricing_plan_id":"cebpf4jnsgd1na2vs0mg"},{"bike_id":"6e748dc7-5745-4207-8121-8f696c66177d","system_id":"levelo_inurba_marseille","lat":43.30532,"lon":5.36692,"is_reserved":false,"is_disabled":true,"rental_uris":{"android":"levelo://app?vid=6e748dc7-5745-4207-8121-8f696c66177d","ios":"levelo://app?vid=6e748dc7-5745-4207-8121-8f696c66177d"},"vehicle_type_id":"4","last_reported":1740939084,"current_range_meters":0,"station_id":"ce4bgrp2rcd13ifvqc9g","pricing_plan_id":"cebpf4jnsgd1na2vs0mg"},{"bike_id":"bbfd2121-d605-4774-ba32-5ad06351b622","system_id":"levelo_inurba_marseille","lat":43.31355,"lon":5.38488,"is_reserved":false,"is_disabled":true,"rental_uris":{"android":"levelo://app?vid=bbfd2121-d605-4774-ba32-5ad06351b622","ios":"levelo://app?vid=bbfd2121-d605-4774-ba32-5ad06351b622"},"vehicle_type_id":"4","last_reported":1740939084,"current_range_meters":0,"station_id":"ce4bgt92rcd13ifvqcf0","pricing_plan_id":"cebpf4jnsgd1na2vs0mg"},{"bike_id":"4ac8942c-ac2f-4920-a7b8-462bf0409333","system_id":"levelo_inurba_marseille","lat":43.30601,"lon":5.39354,"is_reserved":false,"is_disabled":true,"rental_uris":{"android":"levelo://app?vid=4ac8942c-ac2f-4920-a7b8-462bf0409333","ios":"levelo://app?vid=4ac8942c-ac2f-4920-a7b8-462bf0409333"},"vehicle_type_id":"4","last_reported":1740939084,"current_range_meters":0,"station_id":"ce4bh0p2rcd13ifvqd80","pricing_plan_id":"cebpf4jnsgd1na2vs0mg"},{"bike_id":"1ce2bac7-4e0e-415d-8233-42f75c1b1dcf","system_id":"levelo_inurba_marseille","lat":43.29421,"lon":5.38629,"is_reserved":false,"is_disabled":true,"rental_uris":{"android":"levelo://app?vid=1ce2bac7-4e0e-415d-8233-42f75c1b1dcf","ios":"levelo://app?vid=1ce2bac7-4e0e-415d-8233-42f75c1b1dcf"},"vehicle_type_id":"4","last_reported":1740939084,"current_range_meters":0,"station_id":"ce4bh2h2rcd13ifvqdh0","pricing_plan_id":"cebpf4jnsgd1na2vs0mg"},{"bike_id":"d89ceb66-7e5e-4d7e-9358-d9dec4d14fa9","system_id":"levelo_inurba_marseille","lat":43.29877,"lon":5.389,"is_reserved":false,"is_disabled":true,"rental_uris":{"android":"levelo://app?vid=d89ceb66-7e5e-4d7e-9358-d9dec4d14fa9","ios":"levelo://app?vid=d89ceb66-7e5e-4d7e-9358-d9dec4d14fa9"},"vehicle_type_id":"4","last_reported":1740939084,"current_range_meters":0,"station_id":"ce4bh392rcd13ifvqdl0","pricing_plan_id":"cebpf4jnsgd1na2vs0mg"},{"bike_id":"978edbba-31af-47ac-8591-f7b41506ca4a","system_id":"levelo_inurba_marseille","lat":43.29501,"lon":5.39063,"is_reserved":false,"is_disabled":true,"rental_uris":{"android":"levelo://app?vid=978edbba-31af-47ac-8591-f7b41506ca4a","ios":"levelo://app?vid=978edbba-31af-47ac-8591-f7b41506ca4a"},"vehicle_type_id":"4","last_reported":1740939084,"current_range_meters":0,"station_id":"ce4bh3p2rcd13ifvqdp0","pricing_plan_id":"cebpf4jnsgd1na2vs0mg"},{"bike_id":"9e2f22e9-a60a-4e1b-8ede-7c02afd68c51","system_id":"levelo_inurba_marseille","lat":43.28357,"lon":5.38109,"is_reserved":false,"is_disabled":true,"rental_uris":{"android":"levelo://app?vid=9e2f22e9-a60a-4e1b-8ede-7c02afd68c51","ios":"levelo://app?vid=9e2f22e9-a60a-4e1b-8ede-7c02afd68c51"},"vehicle_type_id":"4","last_reported":1740939084,"current_range_meters":0,"station_id":"ce4bh412rcd13ifvqdr0","pricing_plan_id":"cebpf4jnsgd1na2vs0mg"},{"bike_id":"163775f5-fe91-4924-9b01-b596a56e594c","system_id":"levelo_inurba_marseille","lat":43.28405,"lon":5.37513,"is_reserved":false,"is_disabled":true,"rental_uris":{"android":"levelo://app?vid=163775f5-fe91-4924-9b01-b596a56e594c","ios":"levelo://app?vid=163775f5-fe91-4924-9b01-b596a56e594c"},"vehicle_type_id":"4","last_reported":1740939084,"current_range_meters":0,"station_id":"ce4bh412rcd13ifvqds0","pricing_plan_id":"cebpf4jnsgd1na2vs0mg"},{"bike_id":"51f1a57b-4bba-4acc-a5f0-a23b1c132df0","system_id":"levelo_inurba_marseille","lat":43.28501,"lon":5.38446,"is_reserved":false,"is_disabled":true,"rental_uris":{"android":"levelo://app?vid=51f1a57b-4bba-4acc-a5f0-a23b1c132df0","ios":"levelo://app?vid=51f1a57b-4bba-4acc-a5f0-a23b1c132df0"},"vehicle_type_id":"4","last_reported":1740939084,"current_range_meters":0,"station_id":"ce4bh512rcd13ifvqe3g","pricing_plan_id":"cebpf4jnsgd1na2vs0mg"},{"bike_id":"7de4b236-a1de-4493-a94d-ee1045ae87b3","system_id":"levelo_inurba_marseille","lat":43.2924,"lon":5.38436,"is_reserved":false,"is_disabled":true,"rental_uris":{"android":"levelo://app?vid=7de4b236-a1de-4493-a94d-ee1045ae87b3","ios":"levelo://app?vid=7de4b236-a1de-4493-a94d-ee1045ae87b3"},"vehicle_type_id":"4","last_reported":1740939084,"current_range_meters":0,"station_id":"ce4bh692rcd13ifvqea0","pricing_plan_id":"cebpf4jnsgd1na2vs0mg"},{"bike_id":"dc1b8111-c301-43a0-b7f7-d0c1e446ded9","system_id":"levelo_inurba_marseille","lat":43.28098,"lon":5.37841,"is_reserved":false,"is_disabled":true,"rental_uris":{"android":"levelo://app?vid=dc1b8111-c301-43a0-b7f7-d0c1e446ded9","ios":"levelo://app?vid=dc1b8111-c301-43a0-b7f7-d0c1e446ded9"},"vehicle_type_id":"4","last_reported":1740939084,"current_range_meters":0,"station_id":"ce4bha12rcd13ifvqee0","pricing_plan_id":"cebpf4jnsgd1na2vs0mg"},{"bike_id":"cc7015d0-81f2-45c9-8889-3448f79f41a2","system_id":"levelo_inurba_marseille","lat":43.2904,"lon":5.3592,"is_reserved":false,"is_disabled":true,"rental_uris":{"android":"levelo://app?vid=cc7015d0-81f2-45c9-8889-3448f79f41a2","ios":"levelo://app?vid=cc7015d0-81f2-45c9-8889-3448f79f41a2"},"vehicle_type_id":"4","last_reported":1740939084,"current_range_meters":0,"station_id":"ce4bha92rcd13ifvqeg0","pricing_plan_id":"cebpf4jnsgd1na2vs0mg"},{"bike_id":"93baca2f-9832-4c3b-8cfb-d12ee9d3ae85","system_id":"levelo_inurba_marseille","lat":43.28934,"lon":5.36397,"is_reserved":false,"is_disabled":true,"rental_uris":{"android":"levelo://app?vid=93baca2f-9832-4c3b-8cfb-d12ee9d3ae85","ios":"levelo://app?vid=93baca2f-9832-4c3b-8cfb-d12ee9d3ae85"},"vehicle_type_id":"4","last_reported":1740939084,"current_range_meters":0,"station_id":"ce4bhc92rcd13ifvqetg","pricing_plan_id":"cebpf4jnsgd1na2vs0mg"},{"bike_id":"6b768668-c54f-4ee5-97b9-13a31d4f6500","system_id":"levelo_inurba_marseille","lat":43.27915,"lon":5.38669,"is_reserved":false,"is_disabled":true,"rental_uris":{"android":"levelo://app?vid=6b768668-c54f-4ee5-97b9-13a31d4f6500","ios":"levelo://app?vid=6b768668-c54f-4ee5-97b9-13a31d4f6500"},"vehicle_type_id":"4","last_reported":1740939084,"current_range_meters":0,"station_id":"ce4bhg12rcd13ifvqf80","pricing_plan_id":"cebpf4jnsgd1na2vs0mg"},{"bike_id":"2cbd93b7-7401-4cc4-8b13-56605ad53d7f","system_id":"levelo_inurba_marseille","lat":43.26688,"lon":5.38267,"is_reserved":false,"is_disabled":true,"rental_uris":{"android":"levelo://app?vid=2cbd93b7-7401-4cc4-8b13-56605ad53d7f","ios":"levelo://app?vid=2cbd93b7-7401-4cc4-8b13-56605ad53d7f"},"vehicle_type_id":"4","last_reported":1740939084,"current_range_meters":0,"station_id":"ce4bhg92rcd13ifvqf90","pricing_plan_id":"cebpf4jnsgd1na2vs0mg"},{"bike_id":"328b379b-4238-4113-91ef-f40e8ecba4e6","system_id":"levelo_inurba_marseille","lat":43.26216,"lon":5.37435,"is_reserved":false,"is_disabled":true,"rental_uris":{"android":"levelo://app?vid=328b379b-4238-4113-91ef-f40e8ecba4e6","ios":"levelo://app?vid=328b379b-4238-4113-91ef-f40e8ecba4e6"},"vehicle_type_id":"4","last_reported":1740939084,"current_range_meters":0,"station_id":"ce4bhgp2rcd13ifvqfc0","pricing_plan_id":"cebpf4jnsgd1na2vs0mg"},{"bike_id":"b3ece9f9-4072-4490-9d82-3fb36070225f","system_id":"levelo_inurba_marseille","lat":43.26779,"lon":5.39417,"is_reserved":false,"is_disabled":true,"rental_uris":{"android":"levelo://app?vid=b3ece9f9-4072-4490-9d82-3fb36070225f","ios":"levelo://app?vid=b3ece9f9-4072-4490-9d82-3fb36070225f"},"vehicle_type_id":"4","last_reported":1740939084,"current_range_meters":0,"station_id":"ce4bhh12rcd13ifvqfg0","pricing_plan_id":"cebpf4jnsgd1na2vs0mg"},{"bike_id":"87fc19b6-12f0-4b39-b0d9-5edb3f8c1b7d","system_id":"levelo_inurba_marseille","lat":43.27212,"lon":5.39183,"is_reserved":false,"is_disabled":true,"rental_uris":{"android":"levelo://app?vid=87fc19b6-12f0-4b39-b0d9-5edb3f8c1b7d","ios":"levelo://app?vid=87fc19b6-12f0-4b39-b0d9-5edb3f8c1b7d"},"vehicle_type_id":"4","last_reported":1740939084,"current_range_meters":0,"station_id":"ce4bhhp2rcd13ifvqfm0","pricing_plan_id":"cebpf4jnsgd1na2vs0mg"},{"bike_id":"45849833-7049-4339-990d-683680060f2a","system_id":"levelo_inurba_marseille","lat":43.2721,"lon":5.39172,"is_reserved":false,"is_disabled":true,"rental_uris":{"android":"levelo://app?vid=45849833-7049-4339-990d-683680060f2a","ios":"levelo://app?vid=45849833-7049-4339-990d-683680060f2a"},"vehicle_type_id":"4","last_reported":1740939084,"current_range_meters":0,"station_id":"ce4bhhp2rcd13ifvqfm0","pricing_plan_id":"cebpf4jnsgd1na2vs0mg"},{"bike_id":"618eda91-80a4-4750-8810-e011905b46e1","system_id":"levelo_inurba_marseille","lat":43.29285,"lon":5.37437,"is_reserved":false,"is_disabled":true,"rental_uris":{"android":"levelo://app?vid=618eda91-80a4-4750-8810-e011905b46e1","ios":"levelo://app?vid=618eda91-80a4-4750-8810-e011905b46e1"},"vehicle_type_id":"4","last_reported":1740939084,"current_range_meters":400,"station_id":"ce4bgi12rcd13ifvqb70","pricing_plan_id":"cebpf4jnsgd1na2vs0mg"},{"bike_id":"0a4e7b02-9a65-41a7-b80e-dcd83aea8b5e","system_id":"levelo_inurba_marseille","lat":43.30162,"lon":5.3807,"is_reserved":false,"is_disabled":true,"rental_uris":{"android":"levelo://app?vid=0a4e7b02-9a65-41a7-b80e-dcd83aea8b5e","ios":"levelo://app?vid=0a4e7b02-9a65-41a7-b80e-dcd83aea8b5e"},"vehicle_type_id":"4","last_reported":1740939084,"current_range_meters":400,"station_id":"ce4bgjp2rcd13ifvqbh0","pricing_plan_id":"cebpf4jnsgd1na2vs0mg"},{"bike_id":"aa37c472-82c2-4d53-879a-25881fca771e","system_id":"levelo_inurba_marseille","lat":43.31233,"lon":5.36863,"is_reserved":false,"is_disabled":true,"rental_uris":{"android":"levelo://app?vid=aa37c472-82c2-4d53-879a-25881fca771e","ios":"levelo://app?vid=aa37c472-82c2-4d53-879a-25881fca771e"},"vehicle_type_id":"4","last_reported":1740939084,"current_range_meters":400,"station_id":"ce4bgl92rcd13ifvqbq0","pricing_plan_id":"cebpf4jnsgd1na2vs0mg"},{"bike_id":"d5aa7664-a3c7-4bba-be91-5d9e1801a58a","system_id":"levelo_inurba_marseille","lat":43.29935,"lon":5.365538,"is_reserved":false,"is_disabled":true,"rental_uris":{"android":"levelo://app?vid=d5aa7664-a3c7-4bba-be91-5d9e1801a58a","ios":"levelo://app?vid=d5aa7664-a3c7-4bba-be91-5d9e1801a58a"},"vehicle_type_id":"4","last_reported":1740939084,"current_range_meters":400,"station_id":"ce4bgm92rcd13ifvqbr0","pricing_plan_id":"cebpf4jnsgd1na2vs0mg"},{"bike_id":"697bd808-226e-450c-997d-9756c61096ec","system_id":"levelo_inurba_marseille","lat":43.305363,"lon":5.365243,"is_reserved":false,"is_disabled":true,"rental_uris":{"android":"levelo://app?vid=697bd808-226e-450c-997d-9756c61096ec","ios":"levelo://app?vid=697bd808-226e-450c-997d-9756c61096ec"},"vehicle_type_id":"4","last_reported":1740939084,"current_range_meters":400,"station_id":"ce4bgs12rcd13ifvqcag","pricing_plan_id":"cebpf4jnsgd1na2vs0mg"},{"bike_id":"3dc51d4b-942a-4e15-b861-351ae7ddae06","system_id":"levelo_inurba_marseille","lat":43.30792,"lon":5.3816,"is_reserved":false,"is_disabled":true,"rental_uris":{"android":"levelo://app?vid=3dc51d4b-942a-4e15-b861-351ae7ddae06","ios":"levelo://app?vid=3dc51d4b-942a-4e15-b861-351ae7ddae06"},"vehicle_type_id":"4","last_reported":1740939084,"current_range_meters":400,"station_id":"ce4bgt12rcd13ifvqce0","pricing_plan_id":"cebpf4jnsgd1na2vs0mg"},{"bike_id":"bbbfe46c-b28c-485b-8524-2bfd02a09788","system_id":"levelo_inurba_marseille","lat":43.29421,"lon":5.38624,"is_reserved":false,"is_disabled":true,"rental_uris":{"android":"levelo://app?vid=bbbfe46c-b28c-485b-8524-2bfd02a09788","ios":"levelo://app?vid=bbbfe46c-b28c-485b-8524-2bfd02a09788"},"vehicle_type_id":"4","last_reported":1740939084,"current_range_meters":400,"station_id":"ce4bh2h2rcd13ifvqdh0","pricing_plan_id":"cebpf4jnsgd1na2vs0mg"},{"bike_id":"2abeee79-ad1e-4d73-9ef7-a99975f399f6","system_id":"levelo_inurba_marseille","lat":43.298916,"lon":5.384427,"is_reserved":false,"is_disabled":true,"rental_uris":{"android":"levelo://app?vid=2abeee79-ad1e-4d73-9ef7-a99975f399f6","ios":"levelo://app?vid=2abeee79-ad1e-4d73-9ef7-a99975f399f6"},"vehicle_type_id":"4","last_reported":1740939084,"current_range_meters":400,"station_id":"ce4bh312rcd13ifvqdj0","pricing_plan_id":"cebpf4jnsgd1na2vs0mg"},{"bike_id":"2e208862-1e3c-4145-814a-d46897a0c46e","system_id":"levelo_inurba_marseille","lat":43.28613,"lon":5.37064,"is_reserved":false,"is_disabled":true,"rental_uris":{"android":"levelo://app?vid=2e208862-1e3c-4145-814a-d46897a0c46e","ios":"levelo://app?vid=2e208862-1e3c-4145-814a-d46897a0c46e"},"vehicle_type_id":"4","last_reported":1740939084,"current_range_meters":400,"station_id":"ce4bht12rcd13ifvqi60","pricing_plan_id":"cebpf4jnsgd1na2vs0mg"},{"bike_id":"d000173b-3e6e-46b8-9984-18e230b90d15","system_id":"levelo_inurba_marseille","lat":43.23194,"lon":5.35558,"is_reserved":false,"is_disabled":true,"rental_uris":{"android":"levelo://app?vid=d000173b-3e6e-46b8-9984-18e230b90d15","ios":"levelo://app?vid=d000173b-3e6e-46b8-9984-18e230b90d15"},"vehicle_type_id":"4","last_reported":1740939084,"current_range_meters":400,"station_id":"ce4bhu92rcd13ifvqi70","pricing_plan_id":"cebpf4jnsgd1na2vs0mg"},{"bike_id":"2fc1305b-d3cb-40c8-8b32-1f0ec8747b95","system_id":"levelo_inurba_marseille","lat":43.26823,"lon":5.40255,"is_reserved":false,"is_disabled":true,"rental_uris":{"android":"levelo://app?vid=2fc1305b-d3cb-40c8-8b32-1f0ec8747b95","ios":"levelo://app?vid=2fc1305b-d3cb-40c8-8b32-1f0ec8747b95"},"vehicle_type_id":"4","last_reported":1740939084,"current_range_meters":400,"station_id":"ce501612rcd8frsf0b60","pricing_plan_id":"cebpf4jnsgd1na2vs0mg"},{"bike_id":"e15ea71e-182a-4ce2-80ac-1f44914abb68","system_id":"levelo_inurba_marseille","lat":43.29658,"lon":5.37168,"is_reserved":false,"is_disabled":true,"rental_uris":{"android":"levelo://app?vid=e15ea71e-182a-4ce2-80ac-1f44914abb68","ios":"levelo://app?vid=e15ea71e-182a-4ce2-80ac-1f44914abb68"},"vehicle_type_id":"4","last_reported":1740939084,"current_range_meters":800,"station_id":"ce4bgnh2rcd13ifvqc0g","pricing_plan_id":"cebpf4jnsgd1na2vs0mg"},{"bike_id":"5e41ebac-b19a-42ea-ac5e-08806c6478bf","system_id":"levelo_inurba_marseille","lat":43.31186,"lon":5.38714,"is_reserved":false,"is_disabled":true,"rental_uris":{"android":"levelo://app?vid=5e41ebac-b19a-42ea-ac5e-08806c6478bf","ios":"levelo://app?vid=5e41ebac-b19a-42ea-ac5e-08806c6478bf"},"vehicle_type_id":"4","last_reported":1740939084,"current_range_meters":800,"station_id":"ce4bgv12rcd13ifvqcp0","pricing_plan_id":"cebpf4jnsgd1na2vs0mg"},{"bike_id":"c6bf8ecc-28c1-4ca1-a6f9-5d073f0a2959","system_id":"levelo_inurba_marseille","lat":43.30265,"lon":5.40087,"is_reserved":false,"is_disabled":true,"rental_uris":{"android":"levelo://app?vid=c6bf8ecc-28c1-4ca1-a6f9-5d073f0a2959","ios":"levelo://app?vid=c6bf8ecc-28c1-4ca1-a6f9-5d073f0a2959"},"vehicle_type_id":"4","last_reported":1740939084,"current_range_meters":800,"station_id":"ce4bgvh2rcd13ifvqcs0","pricing_plan_id":"cebpf4jnsgd1na2vs0mg"},{"bike_id":"bd47f297-15b6-43e5-8870-333585d98450","system_id":"levelo_inurba_marseille","lat":43.30213,"lon":5.395,"is_reserved":false,"is_disabled":true,"rental_uris":{"android":"levelo://app?vid=bd47f297-15b6-43e5-8870-333585d98450","ios":"levelo://app?vid=bd47f297-15b6-43e5-8870-333585d98450"},"vehicle_type_id":"4","last_reported":1740939084,"current_range_meters":800,"station_id":"ce4bh0p2rcd13ifvqd70","pricing_plan_id":"cebpf4jnsgd1na2vs0mg"},{"bike_id":"9082ee6a-b6ad-49ee-b081-e1e485f9d7b8","system_id":"levelo_inurba_marseille","lat":43.28863,"lon":5.39326,"is_reserved":false,"is_disabled":true,"rental_uris":{"android":"levelo://app?vid=9082ee6a-b6ad-49ee-b081-e1e485f9d7b8","ios":"levelo://app?vid=9082ee6a-b6ad-49ee-b081-e1e485f9d7b8"},"vehicle_type_id":"4","last_reported":1740939084,"current_range_meters":800,"station_id":"ce4bh2p2rcd13ifvqdi0","pricing_plan_id":"cebpf4jnsgd1na2vs0mg"},{"bike_id":"e73d486f-48b8-4150-a7ae-22d10941e4a3","system_id":"levelo_inurba_marseille","lat":43.28334,"lon":5.38108,"is_reserved":false,"is_disabled":true,"rental_uris":{"android":"levelo://app?vid=e73d486f-48b8-4150-a7ae-22d10941e4a3","ios":"levelo://app?vid=e73d486f-48b8-4150-a7ae-22d10941e4a3"},"vehicle_type_id":"4","last_reported":1740939084,"current_range_meters":800,"station_id":"ce4bh412rcd13ifvqdr0","pricing_plan_id":"cebpf4jnsgd1na2vs0mg"},{"bike_id":"76b7b621-9f49-47d7-bad9-7b0d78e4686d","system_id":"levelo_inurba_marseille","lat":43.2902,"lon":5.3864,"is_reserved":false,"is_disabled":true,"rental_uris":{"android":"levelo://app?vid=76b7b621-9f49-47d7-bad9-7b0d78e4686d","ios":"levelo://app?vid=76b7b621-9f49-47d7-bad9-7b0d78e4686d"},"vehicle_type_id":"4","last_reported":1740939084,"current_range_meters":800,"station_id":"ce4bh4p2rcd13ifvqe0g","pricing_plan_id":"cebpf4jnsgd1na2vs0mg"},{"bike_id":"91c26f47-4c53-40bc-bd7e-ea871b2f03bf","system_id":"levelo_inurba_marseille","lat":43.29178,"lon":5.37152,"is_reserved":false,"is_disabled":true,"rental_uris":{"android":"levelo://app?vid=91c26f47-4c53-40bc-bd7e-ea871b2f03bf","ios":"levelo://app?vid=91c26f47-4c53-40bc-bd7e-ea871b2f03bf"},"vehicle_type_id":"4","last_reported":1740939084,"current_range_meters":800,"station_id":"ce4bha92rcd13ifvqeh0","pricing_plan_id":"cebpf4jnsgd1na2vs0mg"},{"bike_id":"c813ce35-b980-4a27-9325-97de2acdeae3","system_id":"levelo_inurba_marseille","lat":43.28847,"lon":5.35857,"is_reserved":false,"is_disabled":true,"rental_uris":{"android":"levelo://app?vid=c813ce35-b980-4a27-9325-97de2acdeae3","ios":"levelo://app?vid=c813ce35-b980-4a27-9325-97de2acdeae3"},"vehicle_type_id":"4","last_reported":1740939084,"current_range_meters":800,"station_id":"ce4bhb12rcd13ifvqem0","pricing_plan_id":"cebpf4jnsgd1na2vs0mg"},{"bike_id":"a65cb524-c756-42a0-9639-a6505770c05b","system_id":"levelo_inurba_marseille","lat":43.35036,"lon":5.3673,"is_reserved":false,"is_disabled":true,"rental_uris":{"android":"levelo://app?vid=a65cb524-c756-42a0-9639-a6505770c05b","ios":"levelo://app?vid=a65cb524-c756-42a0-9639-a6505770c05b"},"vehicle_type_id":"4","last_reported":1740939084,"current_range_meters":1200,"station_id":"","pricing_plan_id":"cebpf4jnsgd1na2vs0mg"},{"bike_id":"5565e9b3-27e1-4899-bd00-b7a7087c733a","system_id":"levelo_inurba_marseille","lat":43.29266,"lon":5.38429,"is_reserved":false,"is_disabled":true,"rental_uris":{"android":"levelo://app?vid=5565e9b3-27e1-4899-bd00-b7a7087c733a","ios":"levelo://app?vid=5565e9b3-27e1-4899-bd00-b7a7087c733a"},"vehicle_type_id":"4","last_reported":1740939084,"current_range_meters":1200,"station_id":"ce4bh692rcd13ifvqea0","pricing_plan_id":"cebpf4jnsgd1na2vs0mg"},{"bike_id":"88638660-a575-46ad-8d1e-4188ddf802dd","system_id":"levelo_inurba_marseille","lat":43.29257,"lon":5.38436,"is_reserved":false,"is_disabled":true,"rental_uris":{"android":"levelo://app?vid=88638660-a575-46ad-8d1e-4188ddf802dd","ios":"levelo://app?vid=88638660-a575-46ad-8d1e-4188ddf802dd"},"vehicle_type_id":"4","last_reported":1740939084,"current_range_meters":1200,"station_id":"ce4bh692rcd13ifvqea0","pricing_plan_id":"cebpf4jnsgd1na2vs0mg"},{"bike_id":"e78e692d-df65-49ca-b575-4a41d2115807","system_id":"levelo_inurba_marseille","lat":43.28424,"lon":5.34996,"is_reserved":false,"is_disabled":true,"rental_uris":{"android":"levelo://app?vid=e78e692d-df65-49ca-b575-4a41d2115807","ios":"levelo://app?vid=e78e692d-df65-49ca-b575-4a41d2115807"},"vehicle_type_id":"4","last_reported":1740939084,"current_range_meters":1200,"station_id":"ce4bhbh2rcd13ifvqepg","pricing_plan_id":"cebpf4jnsgd1na2vs0mg"},{"bike_id":"37027680-60c8-47ac-a054-ecb5f9410b1d","system_id":"levelo_inurba_marseille","lat":43.27998,"lon":5.41667,"is_reserved":false,"is_disabled":true,"rental_uris":{"android":"levelo://app?vid=37027680-60c8-47ac-a054-ecb5f9410b1d","ios":"levelo://app?vid=37027680-60c8-47ac-a054-ecb5f9410b1d"},"vehicle_type_id":"4","last_reported":1740939084,"current_range_meters":1200,"station_id":"ce4bho12rcd13ifvqh1g","pricing_plan_id":"cebpf4jnsgd1na2vs0mg"},{"bike_id":"c9c6f74c-af47-4e7f-90fc-7a80a710863b","system_id":"levelo_inurba_marseille","lat":43.32369,"lon":5.38887,"is_reserved":false,"is_disabled":true,"rental_uris":{"android":"levelo://app?vid=c9c6f74c-af47-4e7f-90fc-7a80a710863b","ios":"levelo://app?vid=c9c6f74c-af47-4e7f-90fc-7a80a710863b"},"vehicle_type_id":"4","last_reported":1740939084,"current_range_meters":1200,"station_id":"ce4bhqp2rcd13ifvqhog","pricing_plan_id":"cebpf4jnsgd1na2vs0mg"},{"bike_id":"51b8980b-729f-4d52-b35f-990c798fc454","system_id":"levelo_inurba_marseille","lat":43.29585,"lon":5.37478,"is_reserved":false,"is_disabled":true,"rental_uris":{"android":"levelo://app?vid=51b8980b-729f-4d52-b35f-990c798fc454","ios":"levelo://app?vid=51b8980b-729f-4d52-b35f-990c798fc454"},"vehicle_type_id":"4","last_reported":1740939084,"current_range_meters":1600,"station_id":"ce4bgh92rcd13ifvqb50","pricing_plan_id":"cebpf4jnsgd1na2vs0mg"},{"bike_id":"e5e796c9-a727-4d64-b79d-d60b1cc92693","system_id":"levelo_inurba_marseille","lat":43.29539,"lon":5.37498,"is_reserved":false,"is_disabled":true,"rental_uris":{"android":"levelo://app?vid=e5e796c9-a727-4d64-b79d-d60b1cc92693","ios":"levelo://app?vid=e5e796c9-a727-4d64-b79d-d60b1cc92693"},"vehicle_type_id":"4","last_reported":1740939084,"current_range_meters":1600,"station_id":"ce4bgkp2rcd13ifvqbmg","pricing_plan_id":"cebpf4jnsgd1na2vs0mg"},{"bike_id":"dc6ada71-8356-4b08-9ef2-2141735d53eb","system_id":"levelo_inurba_marseille","lat":43.28672,"lon":5.38665,"is_reserved":false,"is_disabled":true,"rental_uris":{"android":"levelo://app?vid=dc6ada71-8356-4b08-9ef2-2141735d53eb","ios":"levelo://app?vid=dc6ada71-8356-4b08-9ef2-2141735d53eb"},"vehicle_type_id":"4","last_reported":1740939084,"current_range_meters":1600,"station_id":"ce4bh492rcd13ifvqdug","pricing_plan_id":"cebpf4jnsgd1na2vs0mg"},{"bike_id":"a9fdabe1-c703-486c-a49b-e1aca5dbf783","system_id":"levelo_inurba_marseille","lat":43.27315,"lon":5.39094,"is_reserved":false,"is_disabled":true,"rental_uris":{"android":"levelo://app?vid=a9fdabe1-c703-486c-a49b-e1aca5dbf783","ios":"levelo://app?vid=a9fdabe1-c703-486c-a49b-e1aca5dbf783"},"vehicle_type_id":"4","last_reported":1740939084,"current_range_meters":1600,"station_id":"ce4bhgp2rcd13ifvqfe0","pricing_plan_id":"cebpf4jnsgd1na2vs0mg"},{"bike_id":"3d6be6ef-f272-4851-b439-43b4f4e70c97","system_id":"levelo_inurba_marseille","lat":43.2756,"lon":5.3841,"is_reserved":false,"is_disabled":true,"rental_uris":{"android":"levelo://app?vid=3d6be6ef-f272-4851-b439-43b4f4e70c97","ios":"levelo://app?vid=3d6be6ef-f272-4851-b439-43b4f4e70c97"},"vehicle_type_id":"4","last_reported":1740939084,"current_range_meters":1600,"station_id":"ce4bhh92rcd13ifvqfi0","pricing_plan_id":"cebpf4jnsgd1na2vs0mg"},{"bike_id":"e2dba25c-e3e6-45d1-9d6b-56c1354b9ea6","system_id":"levelo_inurba_marseille","lat":43.27226,"lon":5.39191,"is_reserved":false,"is_disabled":true,"rental_uris":{"android":"levelo://app?vid=e2dba25c-e3e6-45d1-9d6b-56c1354b9ea6","ios":"levelo://app?vid=e2dba25c-e3e6-45d1-9d6b-56c1354b9ea6"},"vehicle_type_id":"4","last_reported":1740939084,"current_range_meters":1600,"station_id":"ce4bhhp2rcd13ifvqfm0","pricing_plan_id":"cebpf4jnsgd1na2vs0mg"},{"bike_id":"6ebe2888-f0b2-43c8-ac06-b1c80eafa553","system_id":"levelo_inurba_marseille","lat":43.2843,"lon":5.39243,"is_reserved":false,"is_disabled":true,"rental_uris":{"android":"levelo://app?vid=6ebe2888-f0b2-43c8-ac06-b1c80eafa553","ios":"levelo://app?vid=6ebe2888-f0b2-43c8-ac06-b1c80eafa553"},"vehicle_type_id":"4","last_reported":1740939084,"current_range_meters":1600,"station_id":"ce4bhoh2rcd13ifvqh5g","pricing_plan_id":"cebpf4jnsgd1na2vs0mg"},{"bike_id":"50ff7f12-0288-4242-b871-96ae8b9d32a6","system_id":"levelo_inurba_marseille","lat":43.28724,"lon":5.36081,"is_reserved":false,"is_disabled":true,"rental_uris":{"android":"levelo://app?vid=50ff7f12-0288-4242-b871-96ae8b9d32a6","ios":"levelo://app?vid=50ff7f12-0288-4242-b871-96ae8b9d32a6"},"vehicle_type_id":"4","last_reported":1740939084,"current_range_meters":1600,"station_id":"cki0cbj6b192h4jlfktg","pricing_plan_id":"cebpf4jnsgd1na2vs0mg"},{"bike_id":"a0791c99-9558-43d8-93b1-9ce8db099084","system_id":"levelo_inurba_marseille","lat":43.30801,"lon":5.38161,"is_reserved":false,"is_disabled":true,"rental_uris":{"android":"levelo://app?vid=a0791c99-9558-43d8-93b1-9ce8db099084","ios":"levelo://app?vid=a0791c99-9558-43d8-93b1-9ce8db099084"},"vehicle_type_id":"4","last_reported":1740939084,"current_range_meters":2000,"station_id":"ce4bgt12rcd13ifvqce0","pricing_plan_id":"cebpf4jnsgd1na2vs0mg"},{"bike_id":"1a811d92-f901-4d4f-af14-3f6f065e999b","system_id":"levelo_inurba_marseille","lat":43.30931,"lon":5.40146,"is_reserved":false,"is_disabled":true,"rental_uris":{"android":"levelo://app?vid=1a811d92-f901-4d4f-af14-3f6f065e999b","ios":"levelo://app?vid=1a811d92-f901-4d4f-af14-3f6f065e999b"},"vehicle_type_id":"4","last_reported":1740939084,"current_range_meters":2000,"station_id":"ce4bgvp2rcd13ifvqct0","pricing_plan_id":"cebpf4jnsgd1na2vs0mg"},{"bike_id":"d6dde28f-02ea-4d33-833b-1b69a223fe92","system_id":"levelo_inurba_marseille","lat":43.27948,"lon":5.38662,"is_reserved":false,"is_disabled":true,"rental_uris":{"android":"levelo://app?vid=d6dde28f-02ea-4d33-833b-1b69a223fe92","ios":"levelo://app?vid=d6dde28f-02ea-4d33-833b-1b69a223fe92"},"vehicle_type_id":"4","last_reported":1740939084,"current_range_meters":2000,"station_id":"ce4bhg12rcd13ifvqf80","pricing_plan_id":"cebpf4jnsgd1na2vs0mg"},{"bike_id":"cb1b3fd6-5a6c-48f1-addf-f977ef30469d","system_id":"levelo_inurba_marseille","lat":43.29884,"lon":5.38086,"is_reserved":false,"is_disabled":true,"rental_uris":{"android":"levelo://app?vid=cb1b3fd6-5a6c-48f1-addf-f977ef30469d","ios":"levelo://app?vid=cb1b3fd6-5a6c-48f1-addf-f977ef30469d"},"vehicle_type_id":"4","last_reported":1740939084,"current_range_meters":2000,"station_id":"ce4bhnh2rcd13ifvqgug","pricing_plan_id":"cebpf4jnsgd1na2vs0mg"},{"bike_id":"a772da6b-aa7f-4f6a-b5cf-2b755917953d","system_id":"levelo_inurba_marseille","lat":43.27948,"lon":5.41046,"is_reserved":false,"is_disabled":true,"rental_uris":{"android":"levelo://app?vid=a772da6b-aa7f-4f6a-b5cf-2b755917953d","ios":"levelo://app?vid=a772da6b-aa7f-4f6a-b5cf-2b755917953d"},"vehicle_type_id":"4","last_reported":1740939084,"current_range_meters":2000,"station_id":"ce4bhnp2rcd13ifvqh0g","pricing_plan_id":"cebpf4jnsgd1na2vs0mg"},{"bike_id":"df99a2b9-8f5e-47ba-8f84-af6154bff8f3","system_id":"levelo_inurba_marseille","lat":43.30302,"lon":5.39212,"is_reserved":false,"is_disabled":false,"rental_uris":{"android":"levelo://app?vid=df99a2b9-8f5e-47ba-8f84-af6154bff8f3","ios":"levelo://app?vid=df99a2b9-8f5e-47ba-8f84-af6154bff8f3"},"vehicle_type_id":"4","last_reported":1740939084,"current_range_meters":3200,"station_id":"ce4bgkh2rcd13ifvqbk0","pricing_plan_id":"cebpf4jnsgd1na2vs0mg"},{"bike_id":"93ef974d-9f4e-4d35-9854-9c852009c5cb","system_id":"levelo_inurba_marseille","lat":43.27431,"lon":5.39415,"is_reserved":false,"is_disabled":false,"rental_uris":{"android":"levelo://app?vid=93ef974d-9f4e-4d35-9854-9c852009c5cb","ios":"levelo://app?vid=93ef974d-9f4e-4d35-9854-9c852009c5cb"},"vehicle_type_id":"4","last_reported":1740939084,"current_range_meters":3200,"station_id":"ce4bhdp2rcd13ifvqf20","pricing_plan_id":"cebpf4jnsgd1na2vs0mg"},{"bike_id":"395f4e47-767b-4ee5-b3b4-6a8453576879","system_id":"levelo_inurba_marseille","lat":43.27326,"lon":5.39126,"is_reserved":false,"is_disabled":false,"rental_uris":{"android":"levelo://app?vid=395f4e47-767b-4ee5-b3b4-6a8453576879","ios":"levelo://app?vid=395f4e47-767b-4ee5-b3b4-6a8453576879"},"vehicle_type_id":"4","last_reported":1740939084,"current_range_meters":3200,"station_id":"ce4bhgp2rcd13ifvqfe0","pricing_plan_id":"cebpf4jnsgd1na2vs0mg"},{"bike_id":"452dcb55-19e7-4210-9210-4b976b4f3382","system_id":"levelo_inurba_marseille","lat":43.30369,"lon":5.41882,"is_reserved":false,"is_disabled":false,"rental_uris":{"android":"levelo://app?vid=452dcb55-19e7-4210-9210-4b976b4f3382","ios":"levelo://app?vid=452dcb55-19e7-4210-9210-4b976b4f3382"},"vehicle_type_id":"4","last_reported":1740939084,"current_range_meters":3200,"station_id":"ce4bhop2rcd13ifvqh7g","pricing_plan_id":"cebpf4jnsgd1na2vs0mg"},{"bike_id":"0c4e757c-3c25-41ec-b62f-429ea115924f","system_id":"levelo_inurba_marseille","lat":43.29966,"lon":5.38495,"is_reserved":false,"is_disabled":false,"rental_uris":{"android":"levelo://app?vid=0c4e757c-3c25-41ec-b62f-429ea115924f","ios":"levelo://app?vid=0c4e757c-3c25-41ec-b62f-429ea115924f"},"vehicle_type_id":"4","last_reported":1740939084,"current_range_meters":3600,"station_id":"ce4bgj92rcd13ifvqbd0","pricing_plan_id":"cebpf4jnsgd1na2vs0mg"},{"bike_id":"970e9546-17d0-4386-a826-4bc311a3d8f9","system_id":"levelo_inurba_marseille","lat":43.28692,"lon":5.37399,"is_reserved":false,"is_disabled":true,"rental_uris":{"android":"levelo://app?vid=970e9546-17d0-4386-a826-4bc311a3d8f9","ios":"levelo://app?vid=970e9546-17d0-4386-a826-4bc311a3d8f9"},"vehicle_type_id":"4","last_reported":1740939084,"current_range_meters":3600,"station_id":"ce4bh3p2rcd13ifvqdq0","pricing_plan_id":"cebpf4jnsgd1na2vs0mg"},{"bike_id":"939a76fc-08cc-4f74-b105-bf37281692f3","system_id":"levelo_inurba_marseille","lat":43.29033,"lon":5.38651,"is_reserved":false,"is_disabled":false,"rental_uris":{"android":"levelo://app?vid=939a76fc-08cc-4f74-b105-bf37281692f3","ios":"levelo://app?vid=939a76fc-08cc-4f74-b105-bf37281692f3"},"vehicle_type_id":"4","last_reported":1740939084,"current_range_meters":3600,"station_id":"ce4bh4p2rcd13ifvqe0g","pricing_plan_id":"cebpf4jnsgd1na2vs0mg"},{"bike_id":"f1d9a348-1410-40f1-af7e-9232020c7bd5","system_id":"levelo_inurba_marseille","lat":43.25726,"lon":5.41111,"is_reserved":false,"is_disabled":true,"rental_uris":{"android":"levelo://app?vid=f1d9a348-1410-40f1-af7e-9232020c7bd5","ios":"levelo://app?vid=f1d9a348-1410-40f1-af7e-9232020c7bd5"},"vehicle_type_id":"4","last_reported":1740939084,"current_range_meters":3600,"station_id":"ce4bhkp2rcd13ifvqgd0","pricing_plan_id":"cebpf4jnsgd1na2vs0mg"},{"bike_id":"c61dbc0e-25bb-4df8-b89a-7ef214620141","system_id":"levelo_inurba_marseille","lat":43.29785,"lon":5.38109,"is_reserved":false,"is_disabled":false,"rental_uris":{"android":"levelo://app?vid=c61dbc0e-25bb-4df8-b89a-7ef214620141","ios":"levelo://app?vid=c61dbc0e-25bb-4df8-b89a-7ef214620141"},"vehicle_type_id":"4","last_reported":1740939084,"current_range_meters":4400,"station_id":"ce4bgip2rcd13ifvqbb0","pricing_plan_id":"cebpf4jnsgd1na2vs0mg"},{"bike_id":"ca72c808-d21a-44f8-ba43-05ce3a9bdd5c","system_id":"levelo_inurba_marseille","lat":43.31115,"lon":5.37771,"is_reserved":false,"is_disabled":false,"rental_uris":{"android":"levelo://app?vid=ca72c808-d21a-44f8-ba43-05ce3a9bdd5c","ios":"levelo://app?vid=ca72c808-d21a-44f8-ba43-05ce3a9bdd5c"},"vehicle_type_id":"4","last_reported":1740939084,"current_range_meters":4400,"station_id":"ce4bgt92rcd13ifvqcg0","pricing_plan_id":"cebpf4jnsgd1na2vs0mg"},{"bike_id":"3cd08aef-c26a-4f04-866d-035dc12fbc13","system_id":"levelo_inurba_marseille","lat":43.29268,"lon":5.38434,"is_reserved":false,"is_disabled":false,"rental_uris":{"android":"levelo://app?vid=3cd08aef-c26a-4f04-866d-035dc12fbc13","ios":"levelo://app?vid=3cd08aef-c26a-4f04-866d-035dc12fbc13"},"vehicle_type_id":"4","last_reported":1740939084,"current_range_meters":4400,"station_id":"ce4bh692rcd13ifvqea0","pricing_plan_id":"cebpf4jnsgd1na2vs0mg"},{"bike_id":"825a09ec-69bc-4f9c-b46e-ba73224a21da","system_id":"levelo_inurba_marseille","lat":43.26784,"lon":5.39419,"is_reserved":false,"is_disabled":true,"rental_uris":{"android":"levelo://app?vid=825a09ec-69bc-4f9c-b46e-ba73224a21da","ios":"levelo://app?vid=825a09ec-69bc-4f9c-b46e-ba73224a21da"},"vehicle_type_id":"4","last_reported":1740939084,"current_range_meters":4400,"station_id":"ce4bhh12rcd13ifvqfg0","pricing_plan_id":"cebpf4jnsgd1na2vs0mg"},{"bike_id":"0dce5f65-44b1-481f-8714-2e0034bf6622","system_id":"levelo_inurba_marseille","lat":43.2734,"lon":5.39122,"is_reserved":false,"is_disabled":false,"rental_uris":{"android":"levelo://app?vid=0dce5f65-44b1-481f-8714-2e0034bf6622","ios":"levelo://app?vid=0dce5f65-44b1-481f-8714-2e0034bf6622"},"vehicle_type_id":"4","last_reported":1740939084,"current_range_meters":4800,"station_id":"","pricing_plan_id":"cebpf4jnsgd1na2vs0mg"},{"bike_id":"8495d6e7-63fe-4b59-b888-8a50c2cca97a","system_id":"levelo_inurba_marseille","lat":43.28352,"lon":5.38105,"is_reserved":false,"is_disabled":false,"rental_uris":{"android":"levelo://app?vid=8495d6e7-63fe-4b59-b888-8a50c2cca97a","ios":"levelo://app?vid=8495d6e7-63fe-4b59-b888-8a50c2cca97a"},"vehicle_type_id":"4","last_reported":1740939084,"current_range_meters":4800,"station_id":"ce4bh412rcd13ifvqdr0","pricing_plan_id":"cebpf4jnsgd1na2vs0mg"},{"bike_id":"65d38703-ecdd-44e8-b487-d583d64c9d12","system_id":"levelo_inurba_marseille","lat":43.29412,"lon":5.38619,"is_reserved":false,"is_disabled":false,"rental_uris":{"android":"levelo://app?vid=65d38703-ecdd-44e8-b487-d583d64c9d12","ios":"levelo://app?vid=65d38703-ecdd-44e8-b487-d583d64c9d12"},"vehicle_type_id":"4","last_reported":1740939084,"current_range_meters":5600,"station_id":"ce4bh2h2rcd13ifvqdh0","pricing_plan_id":"cebpf4jnsgd1na2vs0mg"},{"bike_id":"65e5db55-746d-43c3-b77b-ad8a943be072","system_id":"levelo_inurba_marseille","lat":43.2942,"lon":5.38627,"is_reserved":false,"is_disabled":false,"rental_uris":{"android":"levelo://app?vid=65e5db55-746d-43c3-b77b-ad8a943be072","ios":"levelo://app?vid=65e5db55-746d-43c3-b77b-ad8a943be072"},"vehicle_type_id":"4","last_reported":1740939084,"current_range_meters":5600,"station_id":"ce4bh2h2rcd13ifvqdh0","pricing_plan_id":"cebpf4jnsgd1na2vs0mg"},{"bike_id":"fd29ec35-5e36-48cf-b730-40472773ec6d","system_id":"levelo_inurba_marseille","lat":43.29561,"lon":5.42285,"is_reserved":false,"is_disabled":false,"rental_uris":{"android":"levelo://app?vid=fd29ec35-5e36-48cf-b730-40472773ec6d","ios":"levelo://app?vid=fd29ec35-5e36-48cf-b730-40472773ec6d"},"vehicle_type_id":"4","last_reported":1740939084,"current_range_meters":5600,"station_id":"ce4bhph2rcd13ifvqhdg","pricing_plan_id":"cebpf4jnsgd1na2vs0mg"},{"bike_id":"da97b340-9909-4dc6-b40b-aa2c2a1144e4","system_id":"levelo_inurba_marseille","lat":43.29266,"lon":5.38428,"is_reserved":false,"is_disabled":false,"rental_uris":{"android":"levelo://app?vid=da97b340-9909-4dc6-b40b-aa2c2a1144e4","ios":"levelo://app?vid=da97b340-9909-4dc6-b40b-aa2c2a1144e4"},"vehicle_type_id":"4","last_reported":1740939084,"current_range_meters":6000,"station_id":"ce4bh692rcd13ifvqea0","pricing_plan_id":"cebpf4jnsgd1na2vs0mg"},{"bike_id":"cf3da2ed-c8d2-4698-918b-ccef1b30a917","system_id":"levelo_inurba_marseille","lat":43.2587,"lon":5.39896,"is_reserved":false,"is_disabled":false,"rental_uris":{"android":"levelo://app?vid=cf3da2ed-c8d2-4698-918b-ccef1b30a917","ios":"levelo://app?vid=cf3da2ed-c8d2-4698-918b-ccef1b30a917"},"vehicle_type_id":"4","last_reported":1740939084,"current_range_meters":6000,"station_id":"ce4bhl92rcd13ifvqghg","pricing_plan_id":"cebpf4jnsgd1na2vs0mg"},{"bike_id":"2babc9a7-33bc-499e-bc1e-20ed28f940f3","system_id":"levelo_inurba_marseille","lat":43.29461,"lon":5.38638,"is_reserved":false,"is_disabled":false,"rental_uris":{"android":"levelo://app?vid=2babc9a7-33bc-499e-bc1e-20ed28f940f3","ios":"levelo://app?vid=2babc9a7-33bc-499e-bc1e-20ed28f940f3"},"vehicle_type_id":"4","last_reported":1740939084,"current_range_meters":6400,"station_id":"","pricing_plan_id":"cebpf4jnsgd1na2vs0mg"},{"bike_id":"ef1988b2-c496-45ca-b281-6b3287278b47","system_id":"levelo_inurba_marseille","lat":43.30794,"lon":5.38149,"is_reserved":false,"is_disabled":false,"rental_uris":{"android":"levelo://app?vid=ef1988b2-c496-45ca-b281-6b3287278b47","ios":"levelo://app?vid=ef1988b2-c496-45ca-b281-6b3287278b47"},"vehicle_type_id":"4","last_reported":1740939084,"current_range_meters":6400,"station_id":"ce4bgt12rcd13ifvqce0","pricing_plan_id":"cebpf4jnsgd1na2vs0mg"},{"bike_id":"d5e408dd-fa9c-4210-98cc-a819548f34c0","system_id":"levelo_inurba_marseille","lat":43.29185,"lon":5.3931,"is_reserved":false,"is_disabled":false,"rental_uris":{"android":"levelo://app?vid=d5e408dd-fa9c-4210-98cc-a819548f34c0","ios":"levelo://app?vid=d5e408dd-fa9c-4210-98cc-a819548f34c0"},"vehicle_type_id":"4","last_reported":1740939084,"current_range_meters":6400,"station_id":"ce4bh192rcd13ifvqdd0","pricing_plan_id":"cebpf4jnsgd1na2vs0mg"},{"bike_id":"3644521b-0b3d-45cc-ae77-34c43efc1725","system_id":"levelo_inurba_marseille","lat":43.29411,"lon":5.38605,"is_reserved":false,"is_disabled":false,"rental_uris":{"android":"levelo://app?vid=3644521b-0b3d-45cc-ae77-34c43efc1725","ios":"levelo://app?vid=3644521b-0b3d-45cc-ae77-34c43efc1725"},"vehicle_type_id":"4","last_reported":1740939084,"current_range_meters":6400,"station_id":"ce4bh2h2rcd13ifvqdh0","pricing_plan_id":"cebpf4jnsgd1na2vs0mg"},{"bike_id":"f46c2dbc-2e4d-4452-8019-7a4034f83a1b","system_id":"levelo_inurba_marseille","lat":43.28704,"lon":5.37386,"is_reserved":false,"is_disabled":false,"rental_uris":{"android":"levelo://app?vid=f46c2dbc-2e4d-4452-8019-7a4034f83a1b","ios":"levelo://app?vid=f46c2dbc-2e4d-4452-8019-7a4034f83a1b"},"vehicle_type_id":"4","last_reported":1740939084,"current_range_meters":6400,"station_id":"ce4bh3p2rcd13ifvqdq0","pricing_plan_id":"cebpf4jnsgd1na2vs0mg"},{"bike_id":"b4885ea7-931a-407b-beea-f03e677a29a3","system_id":"levelo_inurba_marseille","lat":43.23956,"lon":5.36648,"is_reserved":false,"is_disabled":false,"rental_uris":{"android":"levelo://app?vid=b4885ea7-931a-407b-beea-f03e677a29a3","ios":"levelo://app?vid=b4885ea7-931a-407b-beea-f03e677a29a3"},"vehicle_type_id":"4","last_reported":1740939084,"current_range_meters":6400,"station_id":"ce4bhi12rcd13ifvqfp0","pricing_plan_id":"cebpf4jnsgd1na2vs0mg"},{"bike_id":"6d4933b5-8743-48d6-9e00-a5b6c3841845","system_id":"levelo_inurba_marseille","lat":43.27832,"lon":5.40722,"is_reserved":false,"is_disabled":false,"rental_uris":{"android":"levelo://app?vid=6d4933b5-8743-48d6-9e00-a5b6c3841845","ios":"levelo://app?vid=6d4933b5-8743-48d6-9e00-a5b6c3841845"},"vehicle_type_id":"4","last_reported":1740939084,"current_range_meters":6400,"station_id":"ce4bhnh2rcd13ifvqgtg","pricing_plan_id":"cebpf4jnsgd1na2vs0mg"},{"bike_id":"ea557d62-6b13-4297-beaa-58467cde6e01","system_id":"levelo_inurba_marseille","lat":43.31529,"lon":5.38042,"is_reserved":false,"is_disabled":false,"rental_uris":{"android":"levelo://app?vid=ea557d62-6b13-4297-beaa-58467cde6e01","ios":"levelo://app?vid=ea557d62-6b13-4297-beaa-58467cde6e01"},"vehicle_type_id":"4","last_reported":1740939084,"current_range_meters":6400,"station_id":"ce4bhsp2rcd13ifvqi50","pricing_plan_id":"cebpf4jnsgd1na2vs0mg"},{"bike_id":"53ebed9a-fd1a-4d94-96e3-0c8bc5887ace","system_id":"levelo_inurba_marseille","lat":43.314231,"lon":5.393684,"is_reserved":false,"is_disabled":false,"rental_uris":{"android":"levelo://app?vid=53ebed9a-fd1a-4d94-96e3-0c8bc5887ace","ios":"levelo://app?vid=53ebed9a-fd1a-4d94-96e3-0c8bc5887ace"},"vehicle_type_id":"4","last_reported":1740939084,"current_range_meters":6800,"station_id":"","pricing_plan_id":"cebpf4jnsgd1na2vs0mg"},{"bike_id":"e034a469-10b3-46b6-8793-86dabf6df1a0","system_id":"levelo_inurba_marseille","lat":43.29786,"lon":5.38105,"is_reserved":false,"is_disabled":false,"rental_uris":{"android":"levelo://app?vid=e034a469-10b3-46b6-8793-86dabf6df1a0","ios":"levelo://app?vid=e034a469-10b3-46b6-8793-86dabf6df1a0"},"vehicle_type_id":"4","last_reported":1740939084,"current_range_meters":6800,"station_id":"ce4bgip2rcd13ifvqbb0","pricing_plan_id":"cebpf4jnsgd1na2vs0mg"},{"bike_id":"cfcb0273-7337-4621-96ed-1e1413e21f71","system_id":"levelo_inurba_marseille","lat":43.30168,"lon":5.39728,"is_reserved":false,"is_disabled":false,"rental_uris":{"android":"levelo://app?vid=cfcb0273-7337-4621-96ed-1e1413e21f71","ios":"levelo://app?vid=cfcb0273-7337-4621-96ed-1e1413e21f71"},"vehicle_type_id":"4","last_reported":1740939084,"current_range_meters":6800,"station_id":"ce4bgup2rcd13ifvqco0","pricing_plan_id":"cebpf4jnsgd1na2vs0mg"},{"bike_id":"0e793872-e9c5-469f-af52-dac8fe1b1432","system_id":"levelo_inurba_marseille","lat":43.3116,"lon":5.38672,"is_reserved":false,"is_disabled":false,"rental_uris":{"android":"levelo://app?vid=0e793872-e9c5-469f-af52-dac8fe1b1432","ios":"levelo://app?vid=0e793872-e9c5-469f-af52-dac8fe1b1432"},"vehicle_type_id":"4","last_reported":1740939084,"current_range_meters":6800,"station_id":"ce4bgv12rcd13ifvqcp0","pricing_plan_id":"cebpf4jnsgd1na2vs0mg"},{"bike_id":"fcaed973-7f7b-4fb6-8b95-5c91a1de9442","system_id":"levelo_inurba_marseille","lat":43.3025,"lon":5.4005,"is_reserved":false,"is_disabled":false,"rental_uris":{"android":"levelo://app?vid=fcaed973-7f7b-4fb6-8b95-5c91a1de9442","ios":"levelo://app?vid=fcaed973-7f7b-4fb6-8b95-5c91a1de9442"},"vehicle_type_id":"4","last_reported":1740939084,"current_range_meters":6800,"station_id":"ce4bgvh2rcd13ifvqcs0","pricing_plan_id":"cebpf4jnsgd1na2vs0mg"},{"bike_id":"29491404-dbda-466c-9bf7-e1d6ac1bb2ba","system_id":"levelo_inurba_marseille","lat":43.25121,"lon":5.40317,"is_reserved":false,"is_disabled":false,"rental_uris":{"android":"levelo://app?vid=29491404-dbda-466c-9bf7-e1d6ac1bb2ba","ios":"levelo://app?vid=29491404-dbda-466c-9bf7-e1d6ac1bb2ba"},"vehicle_type_id":"4","last_reported":1740939084,"current_range_meters":6800,"station_id":"ce4bhlh2rcd13ifvqgig","pricing_plan_id":"cebpf4jnsgd1na2vs0mg"},{"bike_id":"6e20da60-61cf-4ebb-a763-715af3d71757","system_id":"levelo_inurba_marseille","lat":43.24547,"lon":5.39524,"is_reserved":false,"is_disabled":false,"rental_uris":{"android":"levelo://app?vid=6e20da60-61cf-4ebb-a763-715af3d71757","ios":"levelo://app?vid=6e20da60-61cf-4ebb-a763-715af3d71757"},"vehicle_type_id":"4","last_reported":1740939084,"current_range_meters":6800,"station_id":"ce4bhlp2rcd13ifvqgjg","pricing_plan_id":"cebpf4jnsgd1na2vs0mg"},{"bike_id":"318dcb1b-9247-409e-9dad-ff18bd11104d","system_id":"levelo_inurba_marseille","lat":43.2482,"lon":5.37377,"is_reserved":false,"is_disabled":false,"rental_uris":{"android":"levelo://app?vid=318dcb1b-9247-409e-9dad-ff18bd11104d","ios":"levelo://app?vid=318dcb1b-9247-409e-9dad-ff18bd11104d"},"vehicle_type_id":"4","last_reported":1740939084,"current_range_meters":7200,"station_id":"","pricing_plan_id":"cebpf4jnsgd1na2vs0mg"},{"bike_id":"73a4f0a9-2a9c-4839-80b8-acd05a8f539c","system_id":"levelo_inurba_marseille","lat":43.286913,"lon":5.373843,"is_reserved":false,"is_disabled":false,"rental_uris":{"android":"levelo://app?vid=73a4f0a9-2a9c-4839-80b8-acd05a8f539c","ios":"levelo://app?vid=73a4f0a9-2a9c-4839-80b8-acd05a8f539c"},"vehicle_type_id":"4","last_reported":1740939084,"current_range_meters":7200,"station_id":"ce4bh3p2rcd13ifvqdq0","pricing_plan_id":"cebpf4jnsgd1na2vs0mg"},{"bike_id":"b695c1b8-9d19-4083-975b-f498ffa15a5a","system_id":"levelo_inurba_marseille","lat":43.2871,"lon":5.37405,"is_reserved":false,"is_disabled":false,"rental_uris":{"android":"levelo://app?vid=b695c1b8-9d19-4083-975b-f498ffa15a5a","ios":"levelo://app?vid=b695c1b8-9d19-4083-975b-f498ffa15a5a"},"vehicle_type_id":"4","last_reported":1740939084,"current_range_meters":7200,"station_id":"ce4bh3p2rcd13ifvqdq0","pricing_plan_id":"cebpf4jnsgd1na2vs0mg"},{"bike_id":"ff91c29b-a03b-4550-a8e8-49e99cb9a8a1","system_id":"levelo_inurba_marseille","lat":43.29257,"lon":5.38442,"is_reserved":false,"is_disabled":false,"rental_uris":{"android":"levelo://app?vid=ff91c29b-a03b-4550-a8e8-49e99cb9a8a1","ios":"levelo://app?vid=ff91c29b-a03b-4550-a8e8-49e99cb9a8a1"},"vehicle_type_id":"4","last_reported":1740939084,"current_range_meters":7200,"station_id":"ce4bh692rcd13ifvqea0","pricing_plan_id":"cebpf4jnsgd1na2vs0mg"},{"bike_id":"843eb921-9621-40e0-85ea-20f30e30b32b","system_id":"levelo_inurba_marseille","lat":43.2927,"lon":5.38452,"is_reserved":false,"is_disabled":false,"rental_uris":{"android":"levelo://app?vid=843eb921-9621-40e0-85ea-20f30e30b32b","ios":"levelo://app?vid=843eb921-9621-40e0-85ea-20f30e30b32b"},"vehicle_type_id":"4","last_reported":1740939084,"current_range_meters":7200,"station_id":"ce4bh692rcd13ifvqea0","pricing_plan_id":"cebpf4jnsgd1na2vs0mg"},{"bike_id":"b811c60a-6933-40a7-84ba-ba9cab9803d2","system_id":"levelo_inurba_marseille","lat":43.24998,"lon":5.38939,"is_reserved":false,"is_disabled":false,"rental_uris":{"android":"levelo://app?vid=b811c60a-6933-40a7-84ba-ba9cab9803d2","ios":"levelo://app?vid=b811c60a-6933-40a7-84ba-ba9cab9803d2"},"vehicle_type_id":"4","last_reported":1740939084,"current_range_meters":7200,"station_id":"ce4bhgp2rcd13ifvqfd0","pricing_plan_id":"cebpf4jnsgd1na2vs0mg"},{"bike_id":"4a01e614-9a34-4e70-9e02-4e744008ae90","system_id":"levelo_inurba_marseille","lat":43.31378,"lon":5.3919,"is_reserved":false,"is_disabled":false,"rental_uris":{"android":"levelo://app?vid=4a01e614-9a34-4e70-9e02-4e744008ae90","ios":"levelo://app?vid=4a01e614-9a34-4e70-9e02-4e744008ae90"},"vehicle_type_id":"4","last_reported":1740939084,"current_range_meters":8000,"station_id":"","pricing_plan_id":"cebpf4jnsgd1na2vs0mg"},{"bike_id":"3cbb5843-7d6f-4ab1-8221-c879ecca96e4","system_id":"levelo_inurba_marseille","lat":43.32722,"lon":5.36322,"is_reserved":false,"is_disabled":false,"rental_uris":{"android":"levelo://app?vid=3cbb5843-7d6f-4ab1-8221-c879ecca96e4","ios":"levelo://app?vid=3cbb5843-7d6f-4ab1-8221-c879ecca96e4"},"vehicle_type_id":"4","last_reported":1740939084,"current_range_meters":8000,"station_id":"","pricing_plan_id":"cebpf4jnsgd1na2vs0mg"},{"bike_id":"fe9ebf8c-deb4-4a79-8518-d02cc7b4a9ed","system_id":"levelo_inurba_marseille","lat":43.30532,"lon":5.36717,"is_reserved":false,"is_disabled":false,"rental_uris":{"android":"levelo://app?vid=fe9ebf8c-deb4-4a79-8518-d02cc7b4a9ed","ios":"levelo://app?vid=fe9ebf8c-deb4-4a79-8518-d02cc7b4a9ed"},"vehicle_type_id":"4","last_reported":1740939084,"current_range_meters":8000,"station_id":"ce4bgrp2rcd13ifvqc9g","pricing_plan_id":"cebpf4jnsgd1na2vs0mg"},{"bike_id":"27ee9ae2-c5e7-4c2e-ad90-0c911cf7f55f","system_id":"levelo_inurba_marseille","lat":43.2501,"lon":5.38918,"is_reserved":false,"is_disabled":false,"rental_uris":{"android":"levelo://app?vid=27ee9ae2-c5e7-4c2e-ad90-0c911cf7f55f","ios":"levelo://app?vid=27ee9ae2-c5e7-4c2e-ad90-0c911cf7f55f"},"vehicle_type_id":"4","last_reported":1740939084,"current_range_meters":8000,"station_id":"ce4bhgp2rcd13ifvqfd0","pricing_plan_id":"cebpf4jnsgd1na2vs0mg"},{"bike_id":"59acd8f1-fe25-4f7b-90e6-830f3a0c7613","system_id":"levelo_inurba_marseille","lat":43.27318,"lon":5.39084,"is_reserved":false,"is_disabled":false,"rental_uris":{"android":"levelo://app?vid=59acd8f1-fe25-4f7b-90e6-830f3a0c7613","ios":"levelo://app?vid=59acd8f1-fe25-4f7b-90e6-830f3a0c7613"},"vehicle_type_id":"4","last_reported":1740939084,"current_range_meters":8000,"station_id":"ce4bhgp2rcd13ifvqfe0","pricing_plan_id":"cebpf4jnsgd1na2vs0mg"},{"bike_id":"b79a1169-d2e4-4e55-8d6b-be1f32789b98","system_id":"levelo_inurba_marseille","lat":43.2784,"lon":5.39214,"is_reserved":false,"is_disabled":false,"rental_uris":{"android":"levelo://app?vid=b79a1169-d2e4-4e55-8d6b-be1f32789b98","ios":"levelo://app?vid=b79a1169-d2e4-4e55-8d6b-be1f32789b98"},"vehicle_type_id":"4","last_reported":1740939084,"current_range_meters":8000,"station_id":"ce4bhjp2rcd13ifvqga0","pricing_plan_id":"cebpf4jnsgd1na2vs0mg"},{"bike_id":"3b899ec8-5a44-4ffd-8e3c-ea3713149e76","system_id":"levelo_inurba_marseille","lat":43.25706,"lon":5.41111,"is_reserved":false,"is_disabled":false,"rental_uris":{"android":"levelo://app?vid=3b899ec8-5a44-4ffd-8e3c-ea3713149e76","ios":"levelo://app?vid=3b899ec8-5a44-4ffd-8e3c-ea3713149e76"},"vehicle_type_id":"4","last_reported":1740939084,"current_range_meters":8000,"station_id":"ce4bhkp2rcd13ifvqgd0","pricing_plan_id":"cebpf4jnsgd1na2vs0mg"},{"bike_id":"00d6971b-d44e-4efa-846c-404f63e7c12e","system_id":"levelo_inurba_marseille","lat":43.29559,"lon":5.42292,"is_reserved":false,"is_disabled":false,"rental_uris":{"android":"levelo://app?vid=00d6971b-d44e-4efa-846c-404f63e7c12e","ios":"levelo://app?vid=00d6971b-d44e-4efa-846c-404f63e7c12e"},"vehicle_type_id":"4","last_reported":1740939084,"current_range_meters":8000,"station_id":"ce4bhph2rcd13ifvqhdg","pricing_plan_id":"cebpf4jnsgd1na2vs0mg"},{"bike_id":"3a00af1d-64b3-4f0c-9ae0-dc76fb5014f4","system_id":"levelo_inurba_marseille","lat":43.29556,"lon":5.42291,"is_reserved":false,"is_disabled":false,"rental_uris":{"android":"levelo://app?vid=3a00af1d-64b3-4f0c-9ae0-dc76fb5014f4","ios":"levelo://app?vid=3a00af1d-64b3-4f0c-9ae0-dc76fb5014f4"},"vehicle_type_id":"4","last_reported":1740939084,"current_range_meters":8000,"station_id":"ce4bhph2rcd13ifvqhdg","pricing_plan_id":"cebpf4jnsgd1na2vs0mg"},{"bike_id":"eafe4694-db55-4cde-85aa-971c3787bde8","system_id":"levelo_inurba_marseille","lat":43.24159,"lon":5.3642,"is_reserved":false,"is_disabled":false,"rental_uris":{"android":"levelo://app?vid=eafe4694-db55-4cde-85aa-971c3787bde8","ios":"levelo://app?vid=eafe4694-db55-4cde-85aa-971c3787bde8"},"vehicle_type_id":"4","last_reported":1740939084,"current_range_meters":8000,"station_id":"cpo36qri1sfpv3e86is0","pricing_plan_id":"cebpf4jnsgd1na2vs0mg"},{"bike_id":"d149ba3b-206e-46a0-8a3f-7909f974e9bd","system_id":"levelo_inurba_marseille","lat":43.30039,"lon":5.40178,"is_reserved":false,"is_disabled":false,"rental_uris":{"android":"levelo://app?vid=d149ba3b-206e-46a0-8a3f-7909f974e9bd","ios":"levelo://app?vid=d149ba3b-206e-46a0-8a3f-7909f974e9bd"},"vehicle_type_id":"4","last_reported":1740939084,"current_range_meters":8400,"station_id":"","pricing_plan_id":"cebpf4jnsgd1na2vs0mg"},{"bike_id":"71ef95bd-c7db-4629-9024-97b95023e92c","system_id":"levelo_inurba_marseille","lat":43.31218,"lon":5.36857,"is_reserved":false,"is_disabled":false,"rental_uris":{"android":"levelo://app?vid=71ef95bd-c7db-4629-9024-97b95023e92c","ios":"levelo://app?vid=71ef95bd-c7db-4629-9024-97b95023e92c"},"vehicle_type_id":"4","last_reported":1740939084,"current_range_meters":8400,"station_id":"ce4bgl92rcd13ifvqbq0","pricing_plan_id":"cebpf4jnsgd1na2vs0mg"},{"bike_id":"437ca13c-df0a-40a8-84f1-562001d9ad9b","system_id":"levelo_inurba_marseille","lat":43.30192,"lon":5.36628,"is_reserved":false,"is_disabled":false,"rental_uris":{"android":"levelo://app?vid=437ca13c-df0a-40a8-84f1-562001d9ad9b","ios":"levelo://app?vid=437ca13c-df0a-40a8-84f1-562001d9ad9b"},"vehicle_type_id":"4","last_reported":1740939084,"current_range_meters":8400,"station_id":"ce4bgrh2rcd13ifvqc8g","pricing_plan_id":"cebpf4jnsgd1na2vs0mg"},{"bike_id":"d3c878ae-d2b0-48cf-be19-242d324a7a91","system_id":"levelo_inurba_marseille","lat":43.2918,"lon":5.39316,"is_reserved":false,"is_disabled":false,"rental_uris":{"android":"levelo://app?vid=d3c878ae-d2b0-48cf-be19-242d324a7a91","ios":"levelo://app?vid=d3c878ae-d2b0-48cf-be19-242d324a7a91"},"vehicle_type_id":"4","last_reported":1740939084,"current_range_meters":8400,"station_id":"ce4bh192rcd13ifvqdd0","pricing_plan_id":"cebpf4jnsgd1na2vs0mg"},{"bike_id":"94d3e47f-e7f1-418c-822b-e29651078add","system_id":"levelo_inurba_marseille","lat":43.2942,"lon":5.38629,"is_reserved":false,"is_disabled":false,"rental_uris":{"android":"levelo://app?vid=94d3e47f-e7f1-418c-822b-e29651078add","ios":"levelo://app?vid=94d3e47f-e7f1-418c-822b-e29651078add"},"vehicle_type_id":"4","last_reported":1740939084,"current_range_meters":8400,"station_id":"ce4bh2h2rcd13ifvqdh0","pricing_plan_id":"cebpf4jnsgd1na2vs0mg"},{"bike_id":"cd009495-1e5f-4fa7-99f5-005a06f4cfe6","system_id":"levelo_inurba_marseille","lat":43.29422,"lon":5.38617,"is_reserved":false,"is_disabled":false,"rental_uris":{"android":"levelo://app?vid=cd009495-1e5f-4fa7-99f5-005a06f4cfe6","ios":"levelo://app?vid=cd009495-1e5f-4fa7-99f5-005a06f4cfe6"},"vehicle_type_id":"4","last_reported":1740939084,"current_range_meters":8400,"station_id":"ce4bh2h2rcd13ifvqdh0","pricing_plan_id":"cebpf4jnsgd1na2vs0mg"},{"bike_id":"8689682f-2568-4e90-b3f9-a8802bd64794","system_id":"levelo_inurba_marseille","lat":43.29879,"lon":5.3891,"is_reserved":false,"is_disabled":false,"rental_uris":{"android":"levelo://app?vid=8689682f-2568-4e90-b3f9-a8802bd64794","ios":"levelo://app?vid=8689682f-2568-4e90-b3f9-a8802bd64794"},"vehicle_type_id":"4","last_reported":1740939084,"current_range_meters":8400,"station_id":"ce4bh392rcd13ifvqdl0","pricing_plan_id":"cebpf4jnsgd1na2vs0mg"},{"bike_id":"4320d103-322d-4d96-86a8-99897045ae34","system_id":"levelo_inurba_marseille","lat":43.24075,"lon":5.37753,"is_reserved":false,"is_disabled":false,"rental_uris":{"android":"levelo://app?vid=4320d103-322d-4d96-86a8-99897045ae34","ios":"levelo://app?vid=4320d103-322d-4d96-86a8-99897045ae34"},"vehicle_type_id":"4","last_reported":1740939084,"current_range_meters":8400,"station_id":"ce4bhnp2rcd13ifvqgvg","pricing_plan_id":"cebpf4jnsgd1na2vs0mg"},{"bike_id":"37bbdd89-7211-4646-9c8b-e8c902ba19b3","system_id":"levelo_inurba_marseille","lat":43.29555,"lon":5.42289,"is_reserved":false,"is_disabled":false,"rental_uris":{"android":"levelo://app?vid=37bbdd89-7211-4646-9c8b-e8c902ba19b3","ios":"levelo://app?vid=37bbdd89-7211-4646-9c8b-e8c902ba19b3"},"vehicle_type_id":"4","last_reported":1740939084,"current_range_meters":8400,"station_id":"ce4bhph2rcd13ifvqhdg","pricing_plan_id":"cebpf4jnsgd1na2vs0mg"},{"bike_id":"34763611-ebe6-4cc1-8950-30c66c591f5c","system_id":"levelo_inurba_marseille","lat":43.33068,"lon":5.39061,"is_reserved":false,"is_disabled":false,"rental_uris":{"android":"levelo://app?vid=34763611-ebe6-4cc1-8950-30c66c591f5c","ios":"levelo://app?vid=34763611-ebe6-4cc1-8950-30c66c591f5c"},"vehicle_type_id":"4","last_reported":1740939084,"current_range_meters":8400,"station_id":"ce4bhr92rcd13ifvqhrg","pricing_plan_id":"cebpf4jnsgd1na2vs0mg"},{"bike_id":"0693b9d6-4a9d-4e38-bfa2-80f934bcc2e3","system_id":"levelo_inurba_marseille","lat":43.2417,"lon":5.36396,"is_reserved":false,"is_disabled":false,"rental_uris":{"android":"levelo://app?vid=0693b9d6-4a9d-4e38-bfa2-80f934bcc2e3","ios":"levelo://app?vid=0693b9d6-4a9d-4e38-bfa2-80f934bcc2e3"},"vehicle_type_id":"4","last_reported":1740939084,"current_range_meters":8400,"station_id":"cpo36qri1sfpv3e86is0","pricing_plan_id":"cebpf4jnsgd1na2vs0mg"},{"bike_id":"0e4d5d36-7d5d-4fbf-9597-759cc9a1b223","system_id":"levelo_inurba_marseille","lat":43.30563,"lon":5.37246,"is_reserved":false,"is_disabled":false,"rental_uris":{"android":"levelo://app?vid=0e4d5d36-7d5d-4fbf-9597-759cc9a1b223","ios":"levelo://app?vid=0e4d5d36-7d5d-4fbf-9597-759cc9a1b223"},"vehicle_type_id":"4","last_reported":1740939084,"current_range_meters":8800,"station_id":"","pricing_plan_id":"cebpf4jnsgd1na2vs0mg"},{"bike_id":"fa30438f-1ef4-4e80-9d13-0273cf4a485d","system_id":"levelo_inurba_marseille","lat":43.29608,"lon":5.37727,"is_reserved":false,"is_disabled":false,"rental_uris":{"android":"levelo://app?vid=fa30438f-1ef4-4e80-9d13-0273cf4a485d","ios":"levelo://app?vid=fa30438f-1ef4-4e80-9d13-0273cf4a485d"},"vehicle_type_id":"4","last_reported":1740939084,"current_range_meters":8800,"station_id":"ce4bgi92rcd13ifvqb90","pricing_plan_id":"cebpf4jnsgd1na2vs0mg"},{"bike_id":"f53a24c7-b4ca-4142-8ba4-47df0ddfac13","system_id":"levelo_inurba_marseille","lat":43.30889,"lon":5.36837,"is_reserved":false,"is_disabled":false,"rental_uris":{"android":"levelo://app?vid=f53a24c7-b4ca-4142-8ba4-47df0ddfac13","ios":"levelo://app?vid=f53a24c7-b4ca-4142-8ba4-47df0ddfac13"},"vehicle_type_id":"4","last_reported":1740939084,"current_range_meters":8800,"station_id":"ce4bgn92rcd13ifvqbvg","pricing_plan_id":"cebpf4jnsgd1na2vs0mg"},{"bike_id":"d6af2a55-e22c-4b16-9b22-aa5c12070e67","system_id":"levelo_inurba_marseille","lat":43.30322,"lon":5.36924,"is_reserved":false,"is_disabled":false,"rental_uris":{"android":"levelo://app?vid=d6af2a55-e22c-4b16-9b22-aa5c12070e67","ios":"levelo://app?vid=d6af2a55-e22c-4b16-9b22-aa5c12070e67"},"vehicle_type_id":"4","last_reported":1740939084,"current_range_meters":8800,"station_id":"ce4bgqh2rcd13ifvqc5g","pricing_plan_id":"cebpf4jnsgd1na2vs0mg"},{"bike_id":"fa7a5a62-c4b0-4739-b34d-131878c1f5b9","system_id":"levelo_inurba_marseille","lat":43.27426,"lon":5.39413,"is_reserved":false,"is_disabled":false,"rental_uris":{"android":"levelo://app?vid=fa7a5a62-c4b0-4739-b34d-131878c1f5b9","ios":"levelo://app?vid=fa7a5a62-c4b0-4739-b34d-131878c1f5b9"},"vehicle_type_id":"4","last_reported":1740939084,"current_range_meters":8800,"station_id":"ce4bhdp2rcd13ifvqf20","pricing_plan_id":"cebpf4jnsgd1na2vs0mg"},{"bike_id":"a1009f5e-67da-4aac-bee3-19c785d1fdc9","system_id":"levelo_inurba_marseille","lat":43.27308,"lon":5.39086,"is_reserved":false,"is_disabled":false,"rental_uris":{"android":"levelo://app?vid=a1009f5e-67da-4aac-bee3-19c785d1fdc9","ios":"levelo://app?vid=a1009f5e-67da-4aac-bee3-19c785d1fdc9"},"vehicle_type_id":"4","last_reported":1740939084,"current_range_meters":8800,"station_id":"ce4bhgp2rcd13ifvqfe0","pricing_plan_id":"cebpf4jnsgd1na2vs0mg"},{"bike_id":"17972838-9097-450d-8048-8efb60bee997","system_id":"levelo_inurba_marseille","lat":43.298516,"lon":5.362932,"is_reserved":false,"is_disabled":false,"rental_uris":{"android":"levelo://app?vid=17972838-9097-450d-8048-8efb60bee997","ios":"levelo://app?vid=17972838-9097-450d-8048-8efb60bee997"},"vehicle_type_id":"4","last_reported":1740939084,"current_range_meters":9200,"station_id":"ce4bgpp2rcd13ifvqc3g","pricing_plan_id":"cebpf4jnsgd1na2vs0mg"},{"bike_id":"0dbffb11-eeff-46f0-bc8a-af1680ab7d9b","system_id":"levelo_inurba_marseille","lat":43.31361,"lon":5.38495,"is_reserved":false,"is_disabled":false,"rental_uris":{"android":"levelo://app?vid=0dbffb11-eeff-46f0-bc8a-af1680ab7d9b","ios":"levelo://app?vid=0dbffb11-eeff-46f0-bc8a-af1680ab7d9b"},"vehicle_type_id":"4","last_reported":1740939084,"current_range_meters":9200,"station_id":"ce4bgt92rcd13ifvqcf0","pricing_plan_id":"cebpf4jnsgd1na2vs0mg"},{"bike_id":"c22075e0-1220-4155-b66c-6a13d69d2b72","system_id":"levelo_inurba_marseille","lat":43.31123,"lon":5.37742,"is_reserved":false,"is_disabled":false,"rental_uris":{"android":"levelo://app?vid=c22075e0-1220-4155-b66c-6a13d69d2b72","ios":"levelo://app?vid=c22075e0-1220-4155-b66c-6a13d69d2b72"},"vehicle_type_id":"4","last_reported":1740939084,"current_range_meters":9200,"station_id":"ce4bgt92rcd13ifvqcg0","pricing_plan_id":"cebpf4jnsgd1na2vs0mg"},{"bike_id":"f84fa307-06fa-4f7b-9541-f26d8dc9bb1e","system_id":"levelo_inurba_marseille","lat":43.31119,"lon":5.37759,"is_reserved":false,"is_disabled":false,"rental_uris":{"android":"levelo://app?vid=f84fa307-06fa-4f7b-9541-f26d8dc9bb1e","ios":"levelo://app?vid=f84fa307-06fa-4f7b-9541-f26d8dc9bb1e"},"vehicle_type_id":"4","last_reported":1740939084,"current_range_meters":9200,"station_id":"ce4bgt92rcd13ifvqcg0","pricing_plan_id":"cebpf4jnsgd1na2vs0mg"},{"bike_id":"bca92f86-7941-4047-9234-084542ba7f68","system_id":"levelo_inurba_marseille","lat":43.29524,"lon":5.39411,"is_reserved":false,"is_disabled":false,"rental_uris":{"android":"levelo://app?vid=bca92f86-7941-4047-9234-084542ba7f68","ios":"levelo://app?vid=bca92f86-7941-4047-9234-084542ba7f68"},"vehicle_type_id":"4","last_reported":1740939084,"current_range_meters":9200,"station_id":"ce4bh292rcd13ifvqdf0","pricing_plan_id":"cebpf4jnsgd1na2vs0mg"},{"bike_id":"f53888ff-b28c-4747-8b34-0dbb5b8277ed","system_id":"levelo_inurba_marseille","lat":43.28712,"lon":5.3739,"is_reserved":false,"is_disabled":false,"rental_uris":{"android":"levelo://app?vid=f53888ff-b28c-4747-8b34-0dbb5b8277ed","ios":"levelo://app?vid=f53888ff-b28c-4747-8b34-0dbb5b8277ed"},"vehicle_type_id":"4","last_reported":1740939084,"current_range_meters":9200,"station_id":"ce4bh3p2rcd13ifvqdq0","pricing_plan_id":"cebpf4jnsgd1na2vs0mg"},{"bike_id":"ac7b8de3-2320-482e-b8f5-1c3f0b23229a","system_id":"levelo_inurba_marseille","lat":43.29073,"lon":5.37167,"is_reserved":false,"is_disabled":false,"rental_uris":{"android":"levelo://app?vid=ac7b8de3-2320-482e-b8f5-1c3f0b23229a","ios":"levelo://app?vid=ac7b8de3-2320-482e-b8f5-1c3f0b23229a"},"vehicle_type_id":"4","last_reported":1740939084,"current_range_meters":9200,"station_id":"ce4bh5p2rcd13ifvqe4g","pricing_plan_id":"cebpf4jnsgd1na2vs0mg"},{"bike_id":"b54b960d-d3b7-48f6-ae58-365af958ec58","system_id":"levelo_inurba_marseille","lat":43.27427,"lon":5.39422,"is_reserved":false,"is_disabled":false,"rental_uris":{"android":"levelo://app?vid=b54b960d-d3b7-48f6-ae58-365af958ec58","ios":"levelo://app?vid=b54b960d-d3b7-48f6-ae58-365af958ec58"},"vehicle_type_id":"4","last_reported":1740939084,"current_range_meters":9200,"station_id":"ce4bhdp2rcd13ifvqf20","pricing_plan_id":"cebpf4jnsgd1na2vs0mg"},{"bike_id":"5365f3e3-1095-4284-be0e-5e73a795384b","system_id":"levelo_inurba_marseille","lat":43.2574,"lon":5.41104,"is_reserved":false,"is_disabled":false,"rental_uris":{"android":"levelo://app?vid=5365f3e3-1095-4284-be0e-5e73a795384b","ios":"levelo://app?vid=5365f3e3-1095-4284-be0e-5e73a795384b"},"vehicle_type_id":"4","last_reported":1740939084,"current_range_meters":9200,"station_id":"ce4bhkp2rcd13ifvqgd0","pricing_plan_id":"cebpf4jnsgd1na2vs0mg"},{"bike_id":"657afcfe-69ff-4f9d-b68c-bfa5bf30ed49","system_id":"levelo_inurba_marseille","lat":43.27823,"lon":5.40744,"is_reserved":false,"is_disabled":false,"rental_uris":{"android":"levelo://app?vid=657afcfe-69ff-4f9d-b68c-bfa5bf30ed49","ios":"levelo://app?vid=657afcfe-69ff-4f9d-b68c-bfa5bf30ed49"},"vehicle_type_id":"4","last_reported":1740939084,"current_range_meters":9200,"station_id":"ce4bhnh2rcd13ifvqgtg","pricing_plan_id":"cebpf4jnsgd1na2vs0mg"},{"bike_id":"59ef5800-ff3c-4c18-9229-7ba16507dc77","system_id":"levelo_inurba_marseille","lat":43.27808,"lon":5.4071,"is_reserved":false,"is_disabled":false,"rental_uris":{"android":"levelo://app?vid=59ef5800-ff3c-4c18-9229-7ba16507dc77","ios":"levelo://app?vid=59ef5800-ff3c-4c18-9229-7ba16507dc77"},"vehicle_type_id":"4","last_reported":1740939084,"current_range_meters":9200,"station_id":"ce4bhnh2rcd13ifvqgtg","pricing_plan_id":"cebpf4jnsgd1na2vs0mg"},{"bike_id":"13985eab-e3f9-4cc2-ba2f-d24a29935124","system_id":"levelo_inurba_marseille","lat":43.30798,"lon":5.3737,"is_reserved":false,"is_disabled":false,"rental_uris":{"android":"levelo://app?vid=13985eab-e3f9-4cc2-ba2f-d24a29935124","ios":"levelo://app?vid=13985eab-e3f9-4cc2-ba2f-d24a29935124"},"vehicle_type_id":"4","last_reported":1740939084,"current_range_meters":9600,"station_id":"","pricing_plan_id":"cebpf4jnsgd1na2vs0mg"},{"bike_id":"9e505845-4971-47cf-84ef-90a1567fb5d9","system_id":"levelo_inurba_marseille","lat":43.2927,"lon":5.37623,"is_reserved":false,"is_disabled":false,"rental_uris":{"android":"levelo://app?vid=9e505845-4971-47cf-84ef-90a1567fb5d9","ios":"levelo://app?vid=9e505845-4971-47cf-84ef-90a1567fb5d9"},"vehicle_type_id":"4","last_reported":1740939084,"current_range_meters":9600,"station_id":"ce4bgi12rcd13ifvqb80","pricing_plan_id":"cebpf4jnsgd1na2vs0mg"},{"bike_id":"adf63bbb-eaa0-45a7-a944-bf55da192429","system_id":"levelo_inurba_marseille","lat":43.29272,"lon":5.38447,"is_reserved":false,"is_disabled":false,"rental_uris":{"android":"levelo://app?vid=adf63bbb-eaa0-45a7-a944-bf55da192429","ios":"levelo://app?vid=adf63bbb-eaa0-45a7-a944-bf55da192429"},"vehicle_type_id":"4","last_reported":1740939084,"current_range_meters":9600,"station_id":"ce4bh692rcd13ifvqea0","pricing_plan_id":"cebpf4jnsgd1na2vs0mg"},{"bike_id":"24486769-e612-469e-8133-e07f00e33e25","system_id":"levelo_inurba_marseille","lat":43.26819,"lon":5.39436,"is_reserved":false,"is_disabled":false,"rental_uris":{"android":"levelo://app?vid=24486769-e612-469e-8133-e07f00e33e25","ios":"levelo://app?vid=24486769-e612-469e-8133-e07f00e33e25"},"vehicle_type_id":"4","last_reported":1740939084,"current_range_meters":9600,"station_id":"ce4bhh12rcd13ifvqfg0","pricing_plan_id":"cebpf4jnsgd1na2vs0mg"},{"bike_id":"f711a177-8c95-4e96-bcaf-e6e0dc33f59e","system_id":"levelo_inurba_marseille","lat":43.24392,"lon":5.37052,"is_reserved":false,"is_disabled":false,"rental_uris":{"android":"levelo://app?vid=f711a177-8c95-4e96-bcaf-e6e0dc33f59e","ios":"levelo://app?vid=f711a177-8c95-4e96-bcaf-e6e0dc33f59e"},"vehicle_type_id":"4","last_reported":1740939084,"current_range_meters":9600,"station_id":"ce4bhhh2rcd13ifvqfk0","pricing_plan_id":"cebpf4jnsgd1na2vs0mg"},{"bike_id":"ab1060c6-b742-499d-b43e-31b55742689d","system_id":"levelo_inurba_marseille","lat":43.27814,"lon":5.40715,"is_reserved":false,"is_disabled":false,"rental_uris":{"android":"levelo://app?vid=ab1060c6-b742-499d-b43e-31b55742689d","ios":"levelo://app?vid=ab1060c6-b742-499d-b43e-31b55742689d"},"vehicle_type_id":"4","last_reported":1740939084,"current_range_meters":9600,"station_id":"ce4bhnh2rcd13ifvqgtg","pricing_plan_id":"cebpf4jnsgd1na2vs0mg"},{"bike_id":"20bc478e-c3a8-4799-a9f1-63e6df54eae1","system_id":"levelo_inurba_marseille","lat":43.2781,"lon":5.40712,"is_reserved":false,"is_disabled":false,"rental_uris":{"android":"levelo://app?vid=20bc478e-c3a8-4799-a9f1-63e6df54eae1","ios":"levelo://app?vid=20bc478e-c3a8-4799-a9f1-63e6df54eae1"},"vehicle_type_id":"4","last_reported":1740939084,"current_range_meters":9600,"station_id":"ce4bhnh2rcd13ifvqgtg","pricing_plan_id":"cebpf4jnsgd1na2vs0mg"},{"bike_id":"98eaac4c-2803-4b16-bec0-69efd70c9c80","system_id":"levelo_inurba_marseille","lat":43.29366,"lon":5.37851,"is_reserved":false,"is_disabled":false,"rental_uris":{"android":"levelo://app?vid=98eaac4c-2803-4b16-bec0-69efd70c9c80","ios":"levelo://app?vid=98eaac4c-2803-4b16-bec0-69efd70c9c80"},"vehicle_type_id":"4","last_reported":1740939084,"current_range_meters":10000,"station_id":"ce4bgjh2rcd13ifvqbf0","pricing_plan_id":"cebpf4jnsgd1na2vs0mg"},{"bike_id":"a7eab01e-8555-496d-bed6-7cca319426f9","system_id":"levelo_inurba_marseille","lat":43.3091,"lon":5.36856,"is_reserved":false,"is_disabled":false,"rental_uris":{"android":"levelo://app?vid=a7eab01e-8555-496d-bed6-7cca319426f9","ios":"levelo://app?vid=a7eab01e-8555-496d-bed6-7cca319426f9"},"vehicle_type_id":"4","last_reported":1740939084,"current_range_meters":10000,"station_id":"ce4bgn92rcd13ifvqbvg","pricing_plan_id":"cebpf4jnsgd1na2vs0mg"},{"bike_id":"fc1be2c5-fb89-4dae-b3de-0c26a59635f1","system_id":"levelo_inurba_marseille","lat":43.31328,"lon":5.39692,"is_reserved":false,"is_disabled":false,"rental_uris":{"android":"levelo://app?vid=fc1be2c5-fb89-4dae-b3de-0c26a59635f1","ios":"levelo://app?vid=fc1be2c5-fb89-4dae-b3de-0c26a59635f1"},"vehicle_type_id":"4","last_reported":1740939084,"current_range_meters":10000,"station_id":"ce4bgvp2rcd13ifvqcu0","pricing_plan_id":"cebpf4jnsgd1na2vs0mg"},{"bike_id":"5739d2be-b5d3-48f7-be4c-7a8d9c39055c","system_id":"levelo_inurba_marseille","lat":43.28406,"lon":5.37516,"is_reserved":false,"is_disabled":false,"rental_uris":{"android":"levelo://app?vid=5739d2be-b5d3-48f7-be4c-7a8d9c39055c","ios":"levelo://app?vid=5739d2be-b5d3-48f7-be4c-7a8d9c39055c"},"vehicle_type_id":"4","last_reported":1740939084,"current_range_meters":10000,"station_id":"ce4bh412rcd13ifvqds0","pricing_plan_id":"cebpf4jnsgd1na2vs0mg"},{"bike_id":"ad1fd2b7-b712-4e7d-9cab-5fa27345bfb6","system_id":"levelo_inurba_marseille","lat":43.27429,"lon":5.39412,"is_reserved":false,"is_disabled":false,"rental_uris":{"android":"levelo://app?vid=ad1fd2b7-b712-4e7d-9cab-5fa27345bfb6","ios":"levelo://app?vid=ad1fd2b7-b712-4e7d-9cab-5fa27345bfb6"},"vehicle_type_id":"4","last_reported":1740939084,"current_range_meters":10000,"station_id":"ce4bhdp2rcd13ifvqf20","pricing_plan_id":"cebpf4jnsgd1na2vs0mg"},{"bike_id":"f230b182-20a0-4789-986b-24f8f7d29173","system_id":"levelo_inurba_marseille","lat":43.26232,"lon":5.40465,"is_reserved":false,"is_disabled":false,"rental_uris":{"android":"levelo://app?vid=f230b182-20a0-4789-986b-24f8f7d29173","ios":"levelo://app?vid=f230b182-20a0-4789-986b-24f8f7d29173"},"vehicle_type_id":"4","last_reported":1740939084,"current_range_meters":10000,"station_id":"ce4bhmh2rcd13ifvqgmg","pricing_plan_id":"cebpf4jnsgd1na2vs0mg"},{"bike_id":"372b0032-ea0b-4c81-98a7-bdc7da57d72d","system_id":"levelo_inurba_marseille","lat":43.30414,"lon":5.41282,"is_reserved":false,"is_disabled":false,"rental_uris":{"android":"levelo://app?vid=372b0032-ea0b-4c81-98a7-bdc7da57d72d","ios":"levelo://app?vid=372b0032-ea0b-4c81-98a7-bdc7da57d72d"},"vehicle_type_id":"4","last_reported":1740939084,"current_range_meters":10000,"station_id":"ce4bhop2rcd13ifvqh8g","pricing_plan_id":"cebpf4jnsgd1na2vs0mg"},{"bike_id":"c66a61e8-acac-4c53-8abb-0a01ae4beade","system_id":"levelo_inurba_marseille","lat":43.24846,"lon":5.37462,"is_reserved":false,"is_disabled":false,"rental_uris":{"android":"levelo://app?vid=c66a61e8-acac-4c53-8abb-0a01ae4beade","ios":"levelo://app?vid=c66a61e8-acac-4c53-8abb-0a01ae4beade"},"vehicle_type_id":"4","last_reported":1740939084,"current_range_meters":10800,"station_id":"","pricing_plan_id":"cebpf4jnsgd1na2vs0mg"},{"bike_id":"37763cbe-3542-4f29-8bab-61c39d22f89b","system_id":"levelo_inurba_marseille","lat":43.29415,"lon":5.38625,"is_reserved":false,"is_disabled":false,"rental_uris":{"android":"levelo://app?vid=37763cbe-3542-4f29-8bab-61c39d22f89b","ios":"levelo://app?vid=37763cbe-3542-4f29-8bab-61c39d22f89b"},"vehicle_type_id":"4","last_reported":1740939084,"current_range_meters":10800,"station_id":"ce4bh2h2rcd13ifvqdh0","pricing_plan_id":"cebpf4jnsgd1na2vs0mg"},{"bike_id":"addc1a17-ab25-47de-a398-e0a4310bc9df","system_id":"levelo_inurba_marseille","lat":43.26954,"lon":5.38693,"is_reserved":false,"is_disabled":false,"rental_uris":{"android":"levelo://app?vid=addc1a17-ab25-47de-a398-e0a4310bc9df","ios":"levelo://app?vid=addc1a17-ab25-47de-a398-e0a4310bc9df"},"vehicle_type_id":"4","last_reported":1740939084,"current_range_meters":10800,"station_id":"ce4bhh92rcd13ifvqfh0","pricing_plan_id":"cebpf4jnsgd1na2vs0mg"},{"bike_id":"5e2f1c1c-b88b-490b-8fb4-30d4f19d3ef2","system_id":"levelo_inurba_marseille","lat":43.27213,"lon":5.39184,"is_reserved":false,"is_disabled":false,"rental_uris":{"android":"levelo://app?vid=5e2f1c1c-b88b-490b-8fb4-30d4f19d3ef2","ios":"levelo://app?vid=5e2f1c1c-b88b-490b-8fb4-30d4f19d3ef2"},"vehicle_type_id":"4","last_reported":1740939084,"current_range_meters":10800,"station_id":"ce4bhhp2rcd13ifvqfm0","pricing_plan_id":"cebpf4jnsgd1na2vs0mg"},{"bike_id":"c20b0eaa-9ef5-4a27-8786-f7670fd86830","system_id":"levelo_inurba_marseille","lat":43.27947,"lon":5.4105,"is_reserved":false,"is_disabled":false,"rental_uris":{"android":"levelo://app?vid=c20b0eaa-9ef5-4a27-8786-f7670fd86830","ios":"levelo://app?vid=c20b0eaa-9ef5-4a27-8786-f7670fd86830"},"vehicle_type_id":"4","last_reported":1740939084,"current_range_meters":10800,"station_id":"ce4bhnp2rcd13ifvqh0g","pricing_plan_id":"cebpf4jnsgd1na2vs0mg"},{"bike_id":"3c9c65ff-a2a8-4c52-a6f4-62bcc77556ef","system_id":"levelo_inurba_marseille","lat":43.24159,"lon":5.36409,"is_reserved":false,"is_disabled":false,"rental_uris":{"android":"levelo://app?vid=3c9c65ff-a2a8-4c52-a6f4-62bcc77556ef","ios":"levelo://app?vid=3c9c65ff-a2a8-4c52-a6f4-62bcc77556ef"},"vehicle_type_id":"4","last_reported":1740939084,"current_range_meters":10800,"station_id":"cpo36qri1sfpv3e86is0","pricing_plan_id":"cebpf4jnsgd1na2vs0mg"},{"bike_id":"4d6c738d-a60b-44e7-9164-73adebb5d01f","system_id":"levelo_inurba_marseille","lat":43.31213,"lon":5.36879,"is_reserved":false,"is_disabled":false,"rental_uris":{"android":"levelo://app?vid=4d6c738d-a60b-44e7-9164-73adebb5d01f","ios":"levelo://app?vid=4d6c738d-a60b-44e7-9164-73adebb5d01f"},"vehicle_type_id":"4","last_reported":1740939084,"current_range_meters":11200,"station_id":"ce4bgl92rcd13ifvqbq0","pricing_plan_id":"cebpf4jnsgd1na2vs0mg"},{"bike_id":"1f6f0a0d-753c-4f9e-af58-17eecdf44b78","system_id":"levelo_inurba_marseille","lat":43.28366,"lon":5.38631,"is_reserved":false,"is_disabled":false,"rental_uris":{"android":"levelo://app?vid=1f6f0a0d-753c-4f9e-af58-17eecdf44b78","ios":"levelo://app?vid=1f6f0a0d-753c-4f9e-af58-17eecdf44b78"},"vehicle_type_id":"4","last_reported":1740939084,"current_range_meters":11200,"station_id":"ce4bh492rcd13ifvqdvg","pricing_plan_id":"cebpf4jnsgd1na2vs0mg"},{"bike_id":"d15a920c-600b-4ae1-bbc4-6f27080680ca","system_id":"levelo_inurba_marseille","lat":43.24681,"lon":5.38145,"is_reserved":false,"is_disabled":false,"rental_uris":{"android":"levelo://app?vid=d15a920c-600b-4ae1-bbc4-6f27080680ca","ios":"levelo://app?vid=d15a920c-600b-4ae1-bbc4-6f27080680ca"},"vehicle_type_id":"4","last_reported":1740939084,"current_range_meters":11200,"station_id":"ce4bhih2rcd13ifvqfr0","pricing_plan_id":"cebpf4jnsgd1na2vs0mg"},{"bike_id":"ccab9dd3-2745-4c8d-9831-6d29bb2ae6f8","system_id":"levelo_inurba_marseille","lat":43.24659,"lon":5.38172,"is_reserved":false,"is_disabled":false,"rental_uris":{"android":"levelo://app?vid=ccab9dd3-2745-4c8d-9831-6d29bb2ae6f8","ios":"levelo://app?vid=ccab9dd3-2745-4c8d-9831-6d29bb2ae6f8"},"vehicle_type_id":"4","last_reported":1740939084,"current_range_meters":11200,"station_id":"ce4bhih2rcd13ifvqfr0","pricing_plan_id":"cebpf4jnsgd1na2vs0mg"},{"bike_id":"e3c760e3-9f1c-43b9-bf60-d3d11c5303b0","system_id":"levelo_inurba_marseille","lat":43.28724,"lon":5.36072,"is_reserved":false,"is_disabled":false,"rental_uris":{"android":"levelo://app?vid=e3c760e3-9f1c-43b9-bf60-d3d11c5303b0","ios":"levelo://app?vid=e3c760e3-9f1c-43b9-bf60-d3d11c5303b0"},"vehicle_type_id":"4","last_reported":1740939084,"current_range_meters":11200,"station_id":"cki0cbj6b192h4jlfktg","pricing_plan_id":"cebpf4jnsgd1na2vs0mg"},{"bike_id":"88d09cbc-1497-4fea-99b9-c1fe29ff58f0","system_id":"levelo_inurba_marseille","lat":43.28046,"lon":5.36602,"is_reserved":false,"is_disabled":false,"rental_uris":{"android":"levelo://app?vid=88d09cbc-1497-4fea-99b9-c1fe29ff58f0","ios":"levelo://app?vid=88d09cbc-1497-4fea-99b9-c1fe29ff58f0"},"vehicle_type_id":"4","last_reported":1740939084,"current_range_meters":11600,"station_id":"","pricing_plan_id":"cebpf4jnsgd1na2vs0mg"},{"bike_id":"16d60b61-7077-40e1-9c68-f999a108aaa9","system_id":"levelo_inurba_marseille","lat":43.30887,"lon":5.39612,"is_reserved":false,"is_disabled":false,"rental_uris":{"android":"levelo://app?vid=16d60b61-7077-40e1-9c68-f999a108aaa9","ios":"levelo://app?vid=16d60b61-7077-40e1-9c68-f999a108aaa9"},"vehicle_type_id":"4","last_reported":1740939084,"current_range_meters":11600,"station_id":"ce4bh012rcd13ifvqcv0","pricing_plan_id":"cebpf4jnsgd1na2vs0mg"},{"bike_id":"2dfdffeb-1022-43a0-b45e-bf653d6b0acf","system_id":"levelo_inurba_marseille","lat":43.27789,"lon":5.35524,"is_reserved":false,"is_disabled":false,"rental_uris":{"android":"levelo://app?vid=2dfdffeb-1022-43a0-b45e-bf653d6b0acf","ios":"levelo://app?vid=2dfdffeb-1022-43a0-b45e-bf653d6b0acf"},"vehicle_type_id":"4","last_reported":1740939084,"current_range_meters":11600,"station_id":"ce4bhbh2rcd13ifvqeo0","pricing_plan_id":"cebpf4jnsgd1na2vs0mg"},{"bike_id":"083ea764-7c31-4e60-94ca-b7ddadd9c0ff","system_id":"levelo_inurba_marseille","lat":43.28617,"lon":5.35101,"is_reserved":false,"is_disabled":false,"rental_uris":{"android":"levelo://app?vid=083ea764-7c31-4e60-94ca-b7ddadd9c0ff","ios":"levelo://app?vid=083ea764-7c31-4e60-94ca-b7ddadd9c0ff"},"vehicle_type_id":"4","last_reported":1740939084,"current_range_meters":11600,"station_id":"ce4bhch2rcd13ifvqeug","pricing_plan_id":"cebpf4jnsgd1na2vs0mg"},{"bike_id":"0d29ac61-86b3-4000-9108-0a9ef3adfc29","system_id":"levelo_inurba_marseille","lat":43.27316,"lon":5.39091,"is_reserved":false,"is_disabled":false,"rental_uris":{"android":"levelo://app?vid=0d29ac61-86b3-4000-9108-0a9ef3adfc29","ios":"levelo://app?vid=0d29ac61-86b3-4000-9108-0a9ef3adfc29"},"vehicle_type_id":"4","last_reported":1740939084,"current_range_meters":11600,"station_id":"ce4bhgp2rcd13ifvqfe0","pricing_plan_id":"cebpf4jnsgd1na2vs0mg"},{"bike_id":"4d1e1c30-1d07-45d8-b967-5851eafbda79","system_id":"levelo_inurba_marseille","lat":43.29424,"lon":5.38621,"is_reserved":false,"is_disabled":false,"rental_uris":{"android":"levelo://app?vid=4d1e1c30-1d07-45d8-b967-5851eafbda79","ios":"levelo://app?vid=4d1e1c30-1d07-45d8-b967-5851eafbda79"},"vehicle_type_id":"4","last_reported":1740939084,"current_range_meters":12000,"station_id":"ce4bh2h2rcd13ifvqdh0","pricing_plan_id":"cebpf4jnsgd1na2vs0mg"},{"bike_id":"2935aa11-2de3-4210-9f37-dc433b723a34","system_id":"levelo_inurba_marseille","lat":43.29428,"lon":5.38669,"is_reserved":false,"is_disabled":false,"rental_uris":{"android":"levelo://app?vid=2935aa11-2de3-4210-9f37-dc433b723a34","ios":"levelo://app?vid=2935aa11-2de3-4210-9f37-dc433b723a34"},"vehicle_type_id":"4","last_reported":1740939084,"current_range_meters":12000,"station_id":"ce4bh2h2rcd13ifvqdh0","pricing_plan_id":"cebpf4jnsgd1na2vs0mg"},{"bike_id":"a3e4e670-96af-42cb-8c2e-a7c558780b0b","system_id":"levelo_inurba_marseille","lat":43.24079,"lon":5.37763,"is_reserved":false,"is_disabled":false,"rental_uris":{"android":"levelo://app?vid=a3e4e670-96af-42cb-8c2e-a7c558780b0b","ios":"levelo://app?vid=a3e4e670-96af-42cb-8c2e-a7c558780b0b"},"vehicle_type_id":"4","last_reported":1740939084,"current_range_meters":12000,"station_id":"ce4bhnp2rcd13ifvqgvg","pricing_plan_id":"cebpf4jnsgd1na2vs0mg"},{"bike_id":"21a422fc-17b6-402f-beff-907d36b26026","system_id":"levelo_inurba_marseille","lat":43.30415,"lon":5.41292,"is_reserved":false,"is_disabled":false,"rental_uris":{"android":"levelo://app?vid=21a422fc-17b6-402f-beff-907d36b26026","ios":"levelo://app?vid=21a422fc-17b6-402f-beff-907d36b26026"},"vehicle_type_id":"4","last_reported":1740939084,"current_range_meters":12000,"station_id":"ce4bhop2rcd13ifvqh8g","pricing_plan_id":"cebpf4jnsgd1na2vs0mg"},{"bike_id":"61e3c74e-7012-4cb6-8ef4-17db5d82fdf7","system_id":"levelo_inurba_marseille","lat":43.25322,"lon":5.39304,"is_reserved":false,"is_disabled":false,"rental_uris":{"android":"levelo://app?vid=61e3c74e-7012-4cb6-8ef4-17db5d82fdf7","ios":"levelo://app?vid=61e3c74e-7012-4cb6-8ef4-17db5d82fdf7"},"vehicle_type_id":"4","last_reported":1740939084,"current_range_meters":12400,"station_id":"","pricing_plan_id":"cebpf4jnsgd1na2vs0mg"},{"bike_id":"5e39dfc5-d10e-43c6-906b-15e40fd08157","system_id":"levelo_inurba_marseille","lat":43.29784,"lon":5.38118,"is_reserved":false,"is_disabled":false,"rental_uris":{"android":"levelo://app?vid=5e39dfc5-d10e-43c6-906b-15e40fd08157","ios":"levelo://app?vid=5e39dfc5-d10e-43c6-906b-15e40fd08157"},"vehicle_type_id":"4","last_reported":1740939084,"current_range_meters":12400,"station_id":"ce4bgip2rcd13ifvqbb0","pricing_plan_id":"cebpf4jnsgd1na2vs0mg"},{"bike_id":"31d79ec4-6bdc-4eb7-83ce-7086e494b5af","system_id":"levelo_inurba_marseille","lat":43.30835,"lon":5.396349,"is_reserved":false,"is_disabled":false,"rental_uris":{"android":"levelo://app?vid=31d79ec4-6bdc-4eb7-83ce-7086e494b5af","ios":"levelo://app?vid=31d79ec4-6bdc-4eb7-83ce-7086e494b5af"},"vehicle_type_id":"4","last_reported":1740939084,"current_range_meters":12400,"station_id":"ce4bh112rcd13ifvqda0","pricing_plan_id":"cebpf4jnsgd1na2vs0mg"},{"bike_id":"afaa6ab0-706f-48b9-9e8b-246ecf081361","system_id":"levelo_inurba_marseille","lat":43.24384,"lon":5.37041,"is_reserved":false,"is_disabled":false,"rental_uris":{"android":"levelo://app?vid=afaa6ab0-706f-48b9-9e8b-246ecf081361","ios":"levelo://app?vid=afaa6ab0-706f-48b9-9e8b-246ecf081361"},"vehicle_type_id":"4","last_reported":1740939084,"current_range_meters":12400,"station_id":"ce4bhhh2rcd13ifvqfk0","pricing_plan_id":"cebpf4jnsgd1na2vs0mg"},{"bike_id":"73c7cf32-4da5-4691-b3fa-989c8ede8b61","system_id":"levelo_inurba_marseille","lat":43.27681,"lon":5.38882,"is_reserved":false,"is_disabled":false,"rental_uris":{"android":"levelo://app?vid=73c7cf32-4da5-4691-b3fa-989c8ede8b61","ios":"levelo://app?vid=73c7cf32-4da5-4691-b3fa-989c8ede8b61"},"vehicle_type_id":"4","last_reported":1740939084,"current_range_meters":12400,"station_id":"ce4bhi12rcd13ifvqfo0","pricing_plan_id":"cebpf4jnsgd1na2vs0mg"},{"bike_id":"6ad9a58b-1c14-4340-8ecb-dc587d24951e","system_id":"levelo_inurba_marseille","lat":43.26198,"lon":5.37937,"is_reserved":false,"is_disabled":false,"rental_uris":{"android":"levelo://app?vid=6ad9a58b-1c14-4340-8ecb-dc587d24951e","ios":"levelo://app?vid=6ad9a58b-1c14-4340-8ecb-dc587d24951e"},"vehicle_type_id":"4","last_reported":1740939084,"current_range_meters":12400,"station_id":"ce4bhjp2rcd13ifvqg90","pricing_plan_id":"cebpf4jnsgd1na2vs0mg"},{"bike_id":"847ed3c8-a2e2-4904-9ad1-e1485c1b8953","system_id":"levelo_inurba_marseille","lat":43.28079,"lon":5.39657,"is_reserved":false,"is_disabled":false,"rental_uris":{"android":"levelo://app?vid=847ed3c8-a2e2-4904-9ad1-e1485c1b8953","ios":"levelo://app?vid=847ed3c8-a2e2-4904-9ad1-e1485c1b8953"},"vehicle_type_id":"4","last_reported":1740939084,"current_range_meters":12400,"station_id":"ce4bho12rcd13ifvqh2g","pricing_plan_id":"cebpf4jnsgd1na2vs0mg"},{"bike_id":"ce8fe0de-4e74-4c91-a6bf-f18b5f844150","system_id":"levelo_inurba_marseille","lat":43.27969,"lon":5.38714,"is_reserved":false,"is_disabled":false,"rental_uris":{"android":"levelo://app?vid=ce8fe0de-4e74-4c91-a6bf-f18b5f844150","ios":"levelo://app?vid=ce8fe0de-4e74-4c91-a6bf-f18b5f844150"},"vehicle_type_id":"4","last_reported":1740939084,"current_range_meters":12800,"station_id":"ce4bhg12rcd13ifvqf80","pricing_plan_id":"cebpf4jnsgd1na2vs0mg"},{"bike_id":"12ab922a-f881-4968-9e63-ec8d58f2ca05","system_id":"levelo_inurba_marseille","lat":43.24825,"lon":5.37428,"is_reserved":false,"is_disabled":false,"rental_uris":{"android":"levelo://app?vid=12ab922a-f881-4968-9e63-ec8d58f2ca05","ios":"levelo://app?vid=12ab922a-f881-4968-9e63-ec8d58f2ca05"},"vehicle_type_id":"4","last_reported":1740939084,"current_range_meters":12800,"station_id":"ce4bhgh2rcd13ifvqfb0","pricing_plan_id":"cebpf4jnsgd1na2vs0mg"},{"bike_id":"0820645f-584e-4202-9b4f-e62470d9ff0b","system_id":"levelo_inurba_marseille","lat":43.26784,"lon":5.39414,"is_reserved":false,"is_disabled":false,"rental_uris":{"android":"levelo://app?vid=0820645f-584e-4202-9b4f-e62470d9ff0b","ios":"levelo://app?vid=0820645f-584e-4202-9b4f-e62470d9ff0b"},"vehicle_type_id":"4","last_reported":1740939084,"current_range_meters":12800,"station_id":"ce4bhh12rcd13ifvqfg0","pricing_plan_id":"cebpf4jnsgd1na2vs0mg"},{"bike_id":"d88df5f8-0f1b-467e-a15c-79e404316106","system_id":"levelo_inurba_marseille","lat":43.27212,"lon":5.39184,"is_reserved":false,"is_disabled":false,"rental_uris":{"android":"levelo://app?vid=d88df5f8-0f1b-467e-a15c-79e404316106","ios":"levelo://app?vid=d88df5f8-0f1b-467e-a15c-79e404316106"},"vehicle_type_id":"4","last_reported":1740939084,"current_range_meters":12800,"station_id":"ce4bhhp2rcd13ifvqfm0","pricing_plan_id":"cebpf4jnsgd1na2vs0mg"},{"bike_id":"5c81af79-853e-44ee-b07e-7605f1ed4791","system_id":"levelo_inurba_marseille","lat":43.27811,"lon":5.40712,"is_reserved":false,"is_disabled":false,"rental_uris":{"android":"levelo://app?vid=5c81af79-853e-44ee-b07e-7605f1ed4791","ios":"levelo://app?vid=5c81af79-853e-44ee-b07e-7605f1ed4791"},"vehicle_type_id":"4","last_reported":1740939084,"current_range_meters":12800,"station_id":"ce4bhnh2rcd13ifvqgtg","pricing_plan_id":"cebpf4jnsgd1na2vs0mg"},{"bike_id":"f2c0ca3b-8324-45cc-9282-3b53540210ba","system_id":"levelo_inurba_marseille","lat":43.29553,"lon":5.42279,"is_reserved":false,"is_disabled":false,"rental_uris":{"android":"levelo://app?vid=f2c0ca3b-8324-45cc-9282-3b53540210ba","ios":"levelo://app?vid=f2c0ca3b-8324-45cc-9282-3b53540210ba"},"vehicle_type_id":"4","last_reported":1740939084,"current_range_meters":12800,"station_id":"ce4bhph2rcd13ifvqhdg","pricing_plan_id":"cebpf4jnsgd1na2vs0mg"},{"bike_id":"d2b3dcc3-a4b5-41b7-b523-311a8a4bf368","system_id":"levelo_inurba_marseille","lat":43.26558,"lon":5.372808,"is_reserved":false,"is_disabled":false,"rental_uris":{"android":"levelo://app?vid=d2b3dcc3-a4b5-41b7-b523-311a8a4bf368","ios":"levelo://app?vid=d2b3dcc3-a4b5-41b7-b523-311a8a4bf368"},"vehicle_type_id":"4","last_reported":1740939084,"current_range_meters":13600,"station_id":"ce4bhch2rcd13ifvqeug","pricing_plan_id":"cebpf4jnsgd1na2vs0mg"},{"bike_id":"2e7fb5cd-2e99-4cc9-92f0-4e595c1edef2","system_id":"levelo_inurba_marseille","lat":43.27322,"lon":5.39074,"is_reserved":false,"is_disabled":false,"rental_uris":{"android":"levelo://app?vid=2e7fb5cd-2e99-4cc9-92f0-4e595c1edef2","ios":"levelo://app?vid=2e7fb5cd-2e99-4cc9-92f0-4e595c1edef2"},"vehicle_type_id":"4","last_reported":1740939084,"current_range_meters":13600,"station_id":"ce4bhgp2rcd13ifvqfe0","pricing_plan_id":"cebpf4jnsgd1na2vs0mg"},{"bike_id":"3b603ab4-ff5f-4986-b1c6-a85db602e61f","system_id":"levelo_inurba_marseille","lat":43.29306,"lon":5.37168,"is_reserved":false,"is_disabled":false,"rental_uris":{"android":"levelo://app?vid=3b603ab4-ff5f-4986-b1c6-a85db602e61f","ios":"levelo://app?vid=3b603ab4-ff5f-4986-b1c6-a85db602e61f"},"vehicle_type_id":"4","last_reported":1740939084,"current_range_meters":14000,"station_id":"ce4bgh92rcd13ifvqb40","pricing_plan_id":"cebpf4jnsgd1na2vs0mg"},{"bike_id":"0105fe6d-b104-4bcb-91d5-e3c87859fcc3","system_id":"levelo_inurba_marseille","lat":43.32373,"lon":5.38897,"is_reserved":false,"is_disabled":false,"rental_uris":{"android":"levelo://app?vid=0105fe6d-b104-4bcb-91d5-e3c87859fcc3","ios":"levelo://app?vid=0105fe6d-b104-4bcb-91d5-e3c87859fcc3"},"vehicle_type_id":"4","last_reported":1740939084,"current_range_meters":14000,"station_id":"ce4bhqp2rcd13ifvqhog","pricing_plan_id":"cebpf4jnsgd1na2vs0mg"},{"bike_id":"18ed809a-93be-4ceb-a90d-b4661309b51d","system_id":"levelo_inurba_marseille","lat":43.30955,"lon":5.37437,"is_reserved":false,"is_disabled":false,"rental_uris":{"android":"levelo://app?vid=18ed809a-93be-4ceb-a90d-b4661309b51d","ios":"levelo://app?vid=18ed809a-93be-4ceb-a90d-b4661309b51d"},"vehicle_type_id":"4","last_reported":1740939084,"current_range_meters":14400,"station_id":"","pricing_plan_id":"cebpf4jnsgd1na2vs0mg"},{"bike_id":"d4bb921d-b965-48fb-a5d9-4adf6e0fa9ca","system_id":"levelo_inurba_marseille","lat":43.29795,"lon":5.38089,"is_reserved":false,"is_disabled":false,"rental_uris":{"android":"levelo://app?vid=d4bb921d-b965-48fb-a5d9-4adf6e0fa9ca","ios":"levelo://app?vid=d4bb921d-b965-48fb-a5d9-4adf6e0fa9ca"},"vehicle_type_id":"4","last_reported":1740939084,"current_range_meters":14400,"station_id":"ce4bgip2rcd13ifvqbb0","pricing_plan_id":"cebpf4jnsgd1na2vs0mg"},{"bike_id":"e8e14f42-e080-4a5f-af10-c3d4dcacbc5b","system_id":"levelo_inurba_marseille","lat":43.31163,"lon":5.38723,"is_reserved":false,"is_disabled":false,"rental_uris":{"android":"levelo://app?vid=e8e14f42-e080-4a5f-af10-c3d4dcacbc5b","ios":"levelo://app?vid=e8e14f42-e080-4a5f-af10-c3d4dcacbc5b"},"vehicle_type_id":"4","last_reported":1740939084,"current_range_meters":14400,"station_id":"ce4bgv12rcd13ifvqcp0","pricing_plan_id":"cebpf4jnsgd1na2vs0mg"},{"bike_id":"082db46a-c5a5-413b-b7bc-2a9573be91c8","system_id":"levelo_inurba_marseille","lat":43.2835,"lon":5.3808,"is_reserved":false,"is_disabled":false,"rental_uris":{"android":"levelo://app?vid=082db46a-c5a5-413b-b7bc-2a9573be91c8","ios":"levelo://app?vid=082db46a-c5a5-413b-b7bc-2a9573be91c8"},"vehicle_type_id":"4","last_reported":1740939084,"current_range_meters":14400,"station_id":"ce4bh412rcd13ifvqdr0","pricing_plan_id":"cebpf4jnsgd1na2vs0mg"},{"bike_id":"0d533f29-0ec6-4d93-a9bc-407b4b0fa6eb","system_id":"levelo_inurba_marseille","lat":43.26788,"lon":5.3941,"is_reserved":false,"is_disabled":false,"rental_uris":{"android":"levelo://app?vid=0d533f29-0ec6-4d93-a9bc-407b4b0fa6eb","ios":"levelo://app?vid=0d533f29-0ec6-4d93-a9bc-407b4b0fa6eb"},"vehicle_type_id":"4","last_reported":1740939084,"current_range_meters":14400,"station_id":"ce4bhh12rcd13ifvqfg0","pricing_plan_id":"cebpf4jnsgd1na2vs0mg"},{"bike_id":"1962d621-251b-439e-921d-204487dc7299","system_id":"levelo_inurba_marseille","lat":43.26506,"lon":5.39571,"is_reserved":false,"is_disabled":false,"rental_uris":{"android":"levelo://app?vid=1962d621-251b-439e-921d-204487dc7299","ios":"levelo://app?vid=1962d621-251b-439e-921d-204487dc7299"},"vehicle_type_id":"4","last_reported":1740939084,"current_range_meters":14400,"station_id":"ce4bhi12rcd13ifvqfq0","pricing_plan_id":"cebpf4jnsgd1na2vs0mg"},{"bike_id":"4564f812-f08b-4a66-981e-2461c0bf420c","system_id":"levelo_inurba_marseille","lat":43.24551,"lon":5.39529,"is_reserved":false,"is_disabled":false,"rental_uris":{"android":"levelo://app?vid=4564f812-f08b-4a66-981e-2461c0bf420c","ios":"levelo://app?vid=4564f812-f08b-4a66-981e-2461c0bf420c"},"vehicle_type_id":"4","last_reported":1740939084,"current_range_meters":14400,"station_id":"ce4bhlp2rcd13ifvqgjg","pricing_plan_id":"cebpf4jnsgd1na2vs0mg"},{"bike_id":"ac5892ae-ac78-4c04-aae1-c25c0dd1c9a4","system_id":"levelo_inurba_marseille","lat":43.26824,"lon":5.40246,"is_reserved":false,"is_disabled":false,"rental_uris":{"android":"levelo://app?vid=ac5892ae-ac78-4c04-aae1-c25c0dd1c9a4","ios":"levelo://app?vid=ac5892ae-ac78-4c04-aae1-c25c0dd1c9a4"},"vehicle_type_id":"4","last_reported":1740939084,"current_range_meters":14400,"station_id":"ce501612rcd8frsf0b60","pricing_plan_id":"cebpf4jnsgd1na2vs0mg"},{"bike_id":"c5b35fc3-133b-4fcd-9bc1-000b1b46221f","system_id":"levelo_inurba_marseille","lat":43.24152,"lon":5.36433,"is_reserved":false,"is_disabled":false,"rental_uris":{"android":"levelo://app?vid=c5b35fc3-133b-4fcd-9bc1-000b1b46221f","ios":"levelo://app?vid=c5b35fc3-133b-4fcd-9bc1-000b1b46221f"},"vehicle_type_id":"4","last_reported":1740939084,"current_range_meters":14400,"station_id":"cpo36qri1sfpv3e86is0","pricing_plan_id":"cebpf4jnsgd1na2vs0mg"},{"bike_id":"4664a978-7572-4939-a8cb-3e796878c40d","system_id":"levelo_inurba_marseille","lat":43.2943,"lon":5.38635,"is_reserved":false,"is_disabled":false,"rental_uris":{"android":"levelo://app?vid=4664a978-7572-4939-a8cb-3e796878c40d","ios":"levelo://app?vid=4664a978-7572-4939-a8cb-3e796878c40d"},"vehicle_type_id":"4","last_reported":1740939084,"current_range_meters":14800,"station_id":"ce4bh2h2rcd13ifvqdh0","pricing_plan_id":"cebpf4jnsgd1na2vs0mg"},{"bike_id":"bb67237a-f88f-4063-af78-fd788eb88d7b","system_id":"levelo_inurba_marseille","lat":43.31716,"lon":5.43707,"is_reserved":false,"is_disabled":false,"rental_uris":{"android":"levelo://app?vid=bb67237a-f88f-4063-af78-fd788eb88d7b","ios":"levelo://app?vid=bb67237a-f88f-4063-af78-fd788eb88d7b"},"vehicle_type_id":"4","last_reported":1740939084,"current_range_meters":14800,"station_id":"ce4bhp92rcd13ifvqhcg","pricing_plan_id":"cebpf4jnsgd1na2vs0mg"},{"bike_id":"cc836fe0-3cfd-4fe9-beb4-1fec15d76872","system_id":"levelo_inurba_marseille","lat":43.30423,"lon":5.37345,"is_reserved":false,"is_disabled":false,"rental_uris":{"android":"levelo://app?vid=cc836fe0-3cfd-4fe9-beb4-1fec15d76872","ios":"levelo://app?vid=cc836fe0-3cfd-4fe9-beb4-1fec15d76872"},"vehicle_type_id":"4","last_reported":1740939084,"current_range_meters":15200,"station_id":"","pricing_plan_id":"cebpf4jnsgd1na2vs0mg"},{"bike_id":"d782e5f3-c965-4764-ba52-bacdeb77322e","system_id":"levelo_inurba_marseille","lat":43.29529,"lon":5.38545,"is_reserved":false,"is_disabled":false,"rental_uris":{"android":"levelo://app?vid=d782e5f3-c965-4764-ba52-bacdeb77322e","ios":"levelo://app?vid=d782e5f3-c965-4764-ba52-bacdeb77322e"},"vehicle_type_id":"4","last_reported":1740939084,"current_range_meters":15200,"station_id":"ce4bgih2rcd13ifvqba0","pricing_plan_id":"cebpf4jnsgd1na2vs0mg"},{"bike_id":"c598d556-9343-4839-a2e9-0d53843938fb","system_id":"levelo_inurba_marseille","lat":43.29783,"lon":5.38108,"is_reserved":false,"is_disabled":false,"rental_uris":{"android":"levelo://app?vid=c598d556-9343-4839-a2e9-0d53843938fb","ios":"levelo://app?vid=c598d556-9343-4839-a2e9-0d53843938fb"},"vehicle_type_id":"4","last_reported":1740939084,"current_range_meters":15200,"station_id":"ce4bgip2rcd13ifvqbb0","pricing_plan_id":"cebpf4jnsgd1na2vs0mg"},{"bike_id":"d6c04ced-c58e-4deb-9c7b-5a0b0eb23a33","system_id":"levelo_inurba_marseille","lat":43.2926,"lon":5.38445,"is_reserved":false,"is_disabled":false,"rental_uris":{"android":"levelo://app?vid=d6c04ced-c58e-4deb-9c7b-5a0b0eb23a33","ios":"levelo://app?vid=d6c04ced-c58e-4deb-9c7b-5a0b0eb23a33"},"vehicle_type_id":"4","last_reported":1740939084,"current_range_meters":15200,"station_id":"ce4bh692rcd13ifvqea0","pricing_plan_id":"cebpf4jnsgd1na2vs0mg"},{"bike_id":"7891ee5b-002e-452e-9466-a14f0d28dfeb","system_id":"levelo_inurba_marseille","lat":43.28101,"lon":5.37837,"is_reserved":false,"is_disabled":false,"rental_uris":{"android":"levelo://app?vid=7891ee5b-002e-452e-9466-a14f0d28dfeb","ios":"levelo://app?vid=7891ee5b-002e-452e-9466-a14f0d28dfeb"},"vehicle_type_id":"4","last_reported":1740939084,"current_range_meters":15200,"station_id":"ce4bha12rcd13ifvqee0","pricing_plan_id":"cebpf4jnsgd1na2vs0mg"},