{"last_updated":1676940144,"ttl":30,"version":"2.2","data":{"bikes":[{"bike_id":"482424dd-f038-4f97-9dd7-ccf1bfa68f20","system_id":"levelo_inurba_marseille","lat":43.312239,"lon":5.368562,"is_reserved":false,"is_disabled":false,"rental_uris":{"android":"levelo://app?vid=482424dd-f038-4f97-9dd7-ccf1bfa68f20","ios":"levelo://app?vid=482424dd-f038-4f97-9dd7-ccf1bfa68f20"},"vehicle_type_id":"4","last_reported":1676940145,"current_range_meters":28800,"station_id":"ce4bgl92rcd13ifvqbq0","pricing_plan_id":"free"},{"bike_id":"bd10506c-ca3c-4201-85e1-f4ba2e8f835e","system_id":"levelo_inurba_marseille","lat":43.309076,"lon":5.368465,"is_reserved":false,"is_disabled":false,"rental_uris":{"android":"levelo://app?vid=bd10506c-ca3c-4201-85e1-f4ba2e8f835e","ios":"levelo://app?vid=bd10506c-ca3c-4201-85e1-f4ba2e8f835e"},"vehicle_type_id":"4","last_reported":1676940145,"current_range_meters":15600,"station_id":"ce4bgn92rcd13ifvqbvg","pricing_plan_id":"free"},{"bike_id":"a1bb9750-fad1-4807-9039-de7c4406d2ed","system_id":"levelo_inurba_marseille","lat":43.31254,"lon":5.37291,"is_reserved":false,"is_disabled":false,"rental_uris":{"android":"levelo://app?vid=a1bb9750-fad1-4807-9039-de7c4406d2ed","ios":"levelo://app?vid=a1bb9750-fad1-4807-9039-de7c4406d2ed"},"vehicle_type_id":"4","last_reported":1676940145,"current_range_meters":4000,"station_id":"","pricing_plan_id":"free"},{"bike_id":"11a24967-3c4c-4654-8abd-695d948f1024","system_id":"levelo_inurba_marseille","lat":43.31507,"lon":5.37299,"is_reserved":false,"is_disabled":false,"rental_uris":{"android":"levelo://app?vid=11a24967-3c4c-4654-8abd-695d948f1024","ios":"levelo://app?vid=11a24967-3c4c-4654-8abd-695d948f1024"},"vehicle_type_id":"4","last_reported":1676940145,"current_range_meters":20400,"station_id":"","pricing_plan_id":"free"},{"bike_id":"64befa56-ecdf-41d1-9c87-fa7a0131f582","system_id":"levelo_inurba_marseille","lat":43.31498,"lon":5.37308,"is_reserved":false,"is_disabled":false,"rental_uris":{"android":"levelo://app?vid=64befa56-ecdf-41d1-9c87-fa7a0131f582","ios":"levelo://app?vid=64befa56-ecdf-41d1-9c87-fa7a0131f582"},"vehicle_type_id":"4","last_reported":1676940145,"current_range_meters":25200,"station_id":"","pricing_plan_id":"free"},{"bike_id":"590fdb29-de61-4cae-b718-e7a199b9f47d","system_id":"levelo_inurba_marseille","lat":43.314977,"lon":5.373093,"is_reserved":false,"is_disabled":false,"rental_uris":{"android":"levelo://app?vid=590fdb29-de61-4cae-b718-e7a199b9f47d","ios":"levelo://app?vid=590fdb29-de61-4cae-b718-e7a199b9f47d"},"vehicle_type_id":"4","last_reported":1676940145,"current_range_meters":1200,"station_id":"","pricing_plan_id":"free"},{"bike_id":"341fc87c-1ba6-483d-87ad-28f50b4f8c58","system_id":"levelo_inurba_marseille","lat":43.308614,"lon":5.372098,"is_reserved":false,"is_disabled":false,"rental_uris":{"android":"levelo://app?vid=341fc87c-1ba6-483d-87ad-28f50b4f8c58","ios":"levelo://app?vid=341fc87c-1ba6-483d-87ad-28f50b4f8c58"},"vehicle_type_id":"4","last_reported":1676940145,"current_range_meters":1600,"station_id":"ce4bguh2rcd13ifvqckg","pricing_plan_id":"free"},{"bike_id":"8bbaa1a2-2b0c-4de0-871f-c107a967a8f9","system_id":"levelo_inurba_marseille","lat":43.308614,"lon":5.372098,"is_reserved":false,"is_disabled":false,"rental_uris":{"android":"levelo://app?vid=8bbaa1a2-2b0c-4de0-871f-c107a967a8f9","ios":"levelo://app?vid=8bbaa1a2-2b0c-4de0-871f-c107a967a8f9"},"vehicle_type_id":"4","last_reported":1676940145,"current_range_meters":3600,"station_id":"ce4bguh2rcd13ifvqckg","pricing_plan_id":"free"},{"bike_id":"68f29226-ab95-4062-90b1-e2a5468856b1","system_id":"levelo_inurba_marseille","lat":43.305989,"lon":5.37225,"is_reserved":false,"is_disabled":false,"rental_uris":{"android":"levelo://app?vid=68f29226-ab95-4062-90b1-e2a5468856b1","ios":"levelo://app?vid=68f29226-ab95-4062-90b1-e2a5468856b1"},"vehicle_type_id":"4","last_reported":1676940145,"current_range_meters":32000,"station_id":"ce4bgqh2rcd13ifvqc4g","pricing_plan_id":"free"},{"bike_id":"93c19842-59c1-4d96-b46c-026d45459a7c","system_id":"levelo_inurba_marseille","lat":43.306143,"lon":5.372173,"is_reserved":false,"is_disabled":false,"rental_uris":{"android":"levelo://app?vid=93c19842-59c1-4d96-b46c-026d45459a7c","ios":"levelo://app?vid=93c19842-59c1-4d96-b46c-026d45459a7c"},"vehicle_type_id":"4","last_reported":1676940145,"current_range_meters":0,"station_id":"ce4bgqh2rcd13ifvqc4g","pricing_plan_id":"free"},{"bike_id":"5094a5bc-f571-420a-ba5c-fd194547fc40","system_id":"levelo_inurba_marseille","lat":43.30614,"lon":5.37222,"is_reserved":false,"is_disabled":false,"rental_uris":{"android":"levelo://app?vid=5094a5bc-f571-420a-ba5c-fd194547fc40","ios":"levelo://app?vid=5094a5bc-f571-420a-ba5c-fd194547fc40"},"vehicle_type_id":"4","last_reported":1676940145,"current_range_meters":800,"station_id":"ce4bgqh2rcd13ifvqc4g","pricing_plan_id":"free"},{"bike_id":"23a8a145-65c1-46e1-bc44-24c4ad7b8149","system_id":"levelo_inurba_marseille","lat":43.30612,"lon":5.372263,"is_reserved":false,"is_disabled":false,"rental_uris":{"android":"levelo://app?vid=23a8a145-65c1-46e1-bc44-24c4ad7b8149","ios":"levelo://app?vid=23a8a145-65c1-46e1-bc44-24c4ad7b8149"},"vehicle_type_id":"4","last_reported":1676940145,"current_range_meters":2400,"station_id":"ce4bgqh2rcd13ifvqc4g","pricing_plan_id":"free"},{"bike_id":"9f829da5-f7aa-4875-9d2b-52d910d24830","system_id":"levelo_inurba_marseille","lat":43.30606,"lon":5.3723,"is_reserved":false,"is_disabled":false,"rental_uris":{"android":"levelo://app?vid=9f829da5-f7aa-4875-9d2b-52d910d24830","ios":"levelo://app?vid=9f829da5-f7aa-4875-9d2b-52d910d24830"},"vehicle_type_id":"4","last_reported":1676940145,"current_range_meters":12400,"station_id":"ce4bgqh2rcd13ifvqc4g","pricing_plan_id":"free"},{"bike_id":"8c88aeb7-b014-432e-9916-248dbaa493fc","system_id":"levelo_inurba_marseille","lat":43.306043,"lon":5.372335,"is_reserved":false,"is_disabled":false,"rental_uris":{"android":"levelo://app?vid=8c88aeb7-b014-432e-9916-248dbaa493fc","ios":"levelo://app?vid=8c88aeb7-b014-432e-9916-248dbaa493fc"},"vehicle_type_id":"4","last_reported":1676940145,"current_range_meters":24800,"station_id":"ce4bgqh2rcd13ifvqc4g","pricing_plan_id":"free"},{"bike_id":"5ea63283-bd3c-43b3-8ead-2fe6acd32f54","system_id":"levelo_inurba_marseille","lat":43.305989,"lon":5.37225,"is_reserved":false,"is_disabled":false,"rental_uris":{"android":"levelo://app?vid=5ea63283-bd3c-43b3-8ead-2fe6acd32f54","ios":"levelo://app?vid=5ea63283-bd3c-43b3-8ead-2fe6acd32f54"},"vehicle_type_id":"4","last_reported":1676940145,"current_range_meters":16400,"station_id":"ce4bgqh2rcd13ifvqc4g","pricing_plan_id":"free"},{"bike_id":"fd95ebf9-bd64-436d-86d3-e79076dfd247","system_id":"levelo_inurba_marseille","lat":43.319202,"lon":5.373475,"is_reserved":false,"is_disabled":false,"rental_uris":{"android":"levelo://app?vid=fd95ebf9-bd64-436d-86d3-e79076dfd247","ios":"levelo://app?vid=fd95ebf9-bd64-436d-86d3-e79076dfd247"},"vehicle_type_id":"4","last_reported":1676940145,"current_range_meters":24400,"station_id":"","pricing_plan_id":"free"},{"bike_id":"bf090e11-f456-4279-86a9-69ad37b8a555","system_id":"levelo_inurba_marseille","lat":43.304217,"lon":5.368172,"is_reserved":false,"is_disabled":false,"rental_uris":{"android":"levelo://app?vid=bf090e11-f456-4279-86a9-69ad37b8a555","ios":"levelo://app?vid=bf090e11-f456-4279-86a9-69ad37b8a555"},"vehicle_type_id":"4","last_reported":1676940145,"current_range_meters":0,"station_id":"","pricing_plan_id":"free"},{"bike_id":"b45a4770-5b04-4538-b777-8e6f24bd551f","system_id":"levelo_inurba_marseille","lat":43.317075,"lon":5.377367,"is_reserved":false,"is_disabled":false,"rental_uris":{"android":"levelo://app?vid=b45a4770-5b04-4538-b777-8e6f24bd551f","ios":"levelo://app?vid=b45a4770-5b04-4538-b777-8e6f24bd551f"},"vehicle_type_id":"4","last_reported":1676940145,"current_range_meters":23600,"station_id":"ce4bgth2rcd13ifvqch0","pricing_plan_id":"free"},{"bike_id":"01d2beb0-7c38-430a-b81a-4fda40652a9d","system_id":"levelo_inurba_marseille","lat":43.301939,"lon":5.366286,"is_reserved":false,"is_disabled":false,"rental_uris":{"android":"levelo://app?vid=01d2beb0-7c38-430a-b81a-4fda40652a9d","ios":"levelo://app?vid=01d2beb0-7c38-430a-b81a-4fda40652a9d"},"vehicle_type_id":"4","last_reported":1676940145,"current_range_meters":18400,"station_id":"ce4bgrh2rcd13ifvqc8g","pricing_plan_id":"free"},{"bike_id":"834bf70f-3114-47be-bc97-c118e07007b2","system_id":"levelo_inurba_marseille","lat":43.301939,"lon":5.366286,"is_reserved":false,"is_disabled":false,"rental_uris":{"android":"levelo://app?vid=834bf70f-3114-47be-bc97-c118e07007b2","ios":"levelo://app?vid=834bf70f-3114-47be-bc97-c118e07007b2"},"vehicle_type_id":"4","last_reported":1676940145,"current_range_meters":22400,"station_id":"ce4bgrh2rcd13ifvqc8g","pricing_plan_id":"free"},{"bike_id":"a8ed7106-fd96-414c-9a9b-05386eb824d4","system_id":"levelo_inurba_marseille","lat":43.301939,"lon":5.366286,"is_reserved":false,"is_disabled":false,"rental_uris":{"android":"levelo://app?vid=a8ed7106-fd96-414c-9a9b-05386eb824d4","ios":"levelo://app?vid=a8ed7106-fd96-414c-9a9b-05386eb824d4"},"vehicle_type_id":"4","last_reported":1676940145,"current_range_meters":6400,"station_id":"ce4bgrh2rcd13ifvqc8g","pricing_plan_id":"free"},{"bike_id":"7d6c0ccd-e2ac-4bf7-b3cc-2d92b7a7fc64","system_id":"levelo_inurba_marseille","lat":43.308012,"lon":5.381511,"is_reserved":false,"is_disabled":false,"rental_uris":{"android":"levelo://app?vid=7d6c0ccd-e2ac-4bf7-b3cc-2d92b7a7fc64","ios":"levelo://app?vid=7d6c0ccd-e2ac-4bf7-b3cc-2d92b7a7fc64"},"vehicle_type_id":"4","last_reported":1676940145,"current_range_meters":5200,"station_id":"ce4bgt12rcd13ifvqce0","pricing_plan_id":"free"},{"bike_id":"6bfc9aa6-aaac-4734-a309-3a925ba1fe31","system_id":"levelo_inurba_marseille","lat":43.308012,"lon":5.381511,"is_reserved":false,"is_disabled":false,"rental_uris":{"android":"levelo://app?vid=6bfc9aa6-aaac-4734-a309-3a925ba1fe31","ios":"levelo://app?vid=6bfc9aa6-aaac-4734-a309-3a925ba1fe31"},"vehicle_type_id":"4","last_reported":1676940145,"current_range_meters":6000,"station_id":"ce4bgt12rcd13ifvqce0","pricing_plan_id":"free"},{"bike_id":"235425cf-e293-4adb-9b6d-1ad40baf613c","system_id":"levelo_inurba_marseille","lat":43.308012,"lon":5.381511,"is_reserved":false,"is_disabled":false,"rental_uris":{"android":"levelo://app?vid=235425cf-e293-4adb-9b6d-1ad40baf613c","ios":"levelo://app?vid=235425cf-e293-4adb-9b6d-1ad40baf613c"},"vehicle_type_id":"4","last_reported":1676940145,"current_range_meters":4000,"station_id":"ce4bgt12rcd13ifvqce0","pricing_plan_id":"free"},{"bike_id":"eb2ff6c1-f620-479b-ae86-b5410bb8d215","system_id":"levelo_inurba_marseille","lat":43.308012,"lon":5.381511,"is_reserved":false,"is_disabled":false,"rental_uris":{"android":"levelo://app?vid=eb2ff6c1-f620-479b-ae86-b5410bb8d215","ios":"levelo://app?vid=eb2ff6c1-f620-479b-ae86-b5410bb8d215"},"vehicle_type_id":"4","last_reported":1676940145,"current_range_meters":2800,"station_id":"ce4bgt12rcd13ifvqce0","pricing_plan_id":"free"},{"bike_id":"60194dab-0c05-4bbd-953c-a85e2a0e5648","system_id":"levelo_inurba_marseille","lat":43.301388,"lon":5.374127,"is_reserved":false,"is_disabled":false,"rental_uris":{"android":"levelo://app?vid=60194dab-0c05-4bbd-953c-a85e2a0e5648","ios":"levelo://app?vid=60194dab-0c05-4bbd-953c-a85e2a0e5648"},"vehicle_type_id":"4","last_reported":1676940145,"current_range_meters":0,"station_id":"","pricing_plan_id":"free"},{"bike_id":"19530891-5d85-4872-985a-a8759d5c0a97","system_id":"levelo_inurba_marseille","lat":43.313571,"lon":5.384829,"is_reserved":false,"is_disabled":false,"rental_uris":{"android":"levelo://app?vid=19530891-5d85-4872-985a-a8759d5c0a97","ios":"levelo://app?vid=19530891-5d85-4872-985a-a8759d5c0a97"},"vehicle_type_id":"4","last_reported":1676940145,"current_range_meters":3600,"station_id":"ce4bgt92rcd13ifvqcf0","pricing_plan_id":"free"},{"bike_id":"99922a25-b365-424f-899b-1d75320ce780","system_id":"levelo_inurba_marseille","lat":43.313571,"lon":5.384829,"is_reserved":false,"is_disabled":false,"rental_uris":{"android":"levelo://app?vid=99922a25-b365-424f-899b-1d75320ce780","ios":"levelo://app?vid=99922a25-b365-424f-899b-1d75320ce780"},"vehicle_type_id":"4","last_reported":1676940145,"current_range_meters":9600,"station_id":"ce4bgt92rcd13ifvqcf0","pricing_plan_id":"free"},{"bike_id":"a89fa856-2e1c-4eed-8f62-3c8ae9fa9d5b","system_id":"levelo_inurba_marseille","lat":43.313571,"lon":5.384829,"is_reserved":false,"is_disabled":false,"rental_uris":{"android":"levelo://app?vid=a89fa856-2e1c-4eed-8f62-3c8ae9fa9d5b","ios":"levelo://app?vid=a89fa856-2e1c-4eed-8f62-3c8ae9fa9d5b"},"vehicle_type_id":"4","last_reported":1676940145,"current_range_meters":15600,"station_id":"ce4bgt92rcd13ifvqcf0","pricing_plan_id":"free"},{"bike_id":"2ce25ff0-915e-4b83-84d9-91f52314e123","system_id":"levelo_inurba_marseille","lat":43.313728,"lon":5.384983,"is_reserved":false,"is_disabled":false,"rental_uris":{"android":"levelo://app?vid=2ce25ff0-915e-4b83-84d9-91f52314e123","ios":"levelo://app?vid=2ce25ff0-915e-4b83-84d9-91f52314e123"},"vehicle_type_id":"4","last_reported":1676940145,"current_range_meters":18000,"station_id":"","pricing_plan_id":"free"},{"bike_id":"e773b231-2867-4206-a30c-7235cd89351b","system_id":"levelo_inurba_marseille","lat":43.313571,"lon":5.384829,"is_reserved":false,"is_disabled":false,"rental_uris":{"android":"levelo://app?vid=e773b231-2867-4206-a30c-7235cd89351b","ios":"levelo://app?vid=e773b231-2867-4206-a30c-7235cd89351b"},"vehicle_type_id":"4","last_reported":1676940145,"current_range_meters":24800,"station_id":"ce4bgt92rcd13ifvqcf0","pricing_plan_id":"free"},{"bike_id":"874022e4-0648-48b5-957e-36709c432d26","system_id":"levelo_inurba_marseille","lat":43.305364,"lon":5.384119,"is_reserved":false,"is_disabled":false,"rental_uris":{"android":"levelo://app?vid=874022e4-0648-48b5-957e-36709c432d26","ios":"levelo://app?vid=874022e4-0648-48b5-957e-36709c432d26"},"vehicle_type_id":"4","last_reported":1676940145,"current_range_meters":26400,"station_id":"ce4bgg92rcd13ifvqb30","pricing_plan_id":"free"},{"bike_id":"a47539d7-8086-4e06-9ab3-ca4553026494","system_id":"levelo_inurba_marseille","lat":43.305364,"lon":5.384119,"is_reserved":false,"is_disabled":false,"rental_uris":{"android":"levelo://app?vid=a47539d7-8086-4e06-9ab3-ca4553026494","ios":"levelo://app?vid=a47539d7-8086-4e06-9ab3-ca4553026494"},"vehicle_type_id":"4","last_reported":1676940145,"current_range_meters":2400,"station_id":"ce4bgg92rcd13ifvqb30","pricing_plan_id":"free"},{"bike_id":"4143fe9c-4a11-4a7c-80a1-6eb14c69407b","system_id":"levelo_inurba_marseille","lat":43.311722,"lon":5.387247,"is_reserved":false,"is_disabled":false,"rental_uris":{"android":"levelo://app?vid=4143fe9c-4a11-4a7c-80a1-6eb14c69407b","ios":"levelo://app?vid=4143fe9c-4a11-4a7c-80a1-6eb14c69407b"},"vehicle_type_id":"4","last_reported":1676940145,"current_range_meters":30800,"station_id":"ce4bgv12rcd13ifvqcp0","pricing_plan_id":"free"},{"bike_id":"43c45271-1e75-4b3a-8350-7260054ee86c","system_id":"levelo_inurba_marseille","lat":43.311722,"lon":5.387247,"is_reserved":false,"is_disabled":false,"rental_uris":{"android":"levelo://app?vid=43c45271-1e75-4b3a-8350-7260054ee86c","ios":"levelo://app?vid=43c45271-1e75-4b3a-8350-7260054ee86c"},"vehicle_type_id":"4","last_reported":1676940145,"current_range_meters":20400,"station_id":"ce4bgv12rcd13ifvqcp0","pricing_plan_id":"free"},{"bike_id":"a73133b3-307d-488e-ab3b-b1560be029bf","system_id":"levelo_inurba_marseille","lat":43.311722,"lon":5.387247,"is_reserved":false,"is_disabled":false,"rental_uris":{"android":"levelo://app?vid=a73133b3-307d-488e-ab3b-b1560be029bf","ios":"levelo://app?vid=a73133b3-307d-488e-ab3b-b1560be029bf"},"vehicle_type_id":"4","last_reported":1676940145,"current_range_meters":28800,"station_id":"ce4bgv12rcd13ifvqcp0","pricing_plan_id":"free"},{"bike_id":"954caf89-2121-4e71-8080-cb4f10f0cdb6","system_id":"levelo_inurba_marseille","lat":43.311722,"lon":5.387247,"is_reserved":false,"is_disabled":false,"rental_uris":{"android":"levelo://app?vid=954caf89-2121-4e71-8080-cb4f10f0cdb6","ios":"levelo://app?vid=954caf89-2121-4e71-8080-cb4f10f0cdb6"},"vehicle_type_id":"4","last_reported":1676940145,"current_range_meters":31600,"station_id":"ce4bgv12rcd13ifvqcp0","pricing_plan_id":"free"},{"bike_id":"e748b511-5a1a-4b68-850f-9771e83f9133","system_id":"levelo_inurba_marseille","lat":43.328371,"lon":5.366912,"is_reserved":false,"is_disabled":false,"rental_uris":{"android":"levelo://app?vid=e748b511-5a1a-4b68-850f-9771e83f9133","ios":"levelo://app?vid=e748b511-5a1a-4b68-850f-9771e83f9133"},"vehicle_type_id":"4","last_reported":1676940145,"current_range_meters":8800,"station_id":"ce4bhs92rcd13ifvqi0g","pricing_plan_id":"free"},{"bike_id":"15f7495e-8b1a-41cf-ad9c-2ae8536cd685","system_id":"levelo_inurba_marseille","lat":43.328371,"lon":5.366912,"is_reserved":false,"is_disabled":false,"rental_uris":{"android":"levelo://app?vid=15f7495e-8b1a-41cf-ad9c-2ae8536cd685","ios":"levelo://app?vid=15f7495e-8b1a-41cf-ad9c-2ae8536cd685"},"vehicle_type_id":"4","last_reported":1676940145,"current_range_meters":6400,"station_id":"ce4bhs92rcd13ifvqi0g","pricing_plan_id":"free"},{"bike_id":"0a1aa449-374d-4117-8043-f24276291189","system_id":"levelo_inurba_marseille","lat":43.328376,"lon":5.36698,"is_reserved":false,"is_disabled":false,"rental_uris":{"android":"levelo://app?vid=0a1aa449-374d-4117-8043-f24276291189","ios":"levelo://app?vid=0a1aa449-374d-4117-8043-f24276291189"},"vehicle_type_id":"4","last_reported":1676940145,"current_range_meters":0,"station_id":"","pricing_plan_id":"free"},{"bike_id":"e0510644-1564-459f-a770-60b1be87b744","system_id":"levelo_inurba_marseille","lat":43.296833,"lon":5.372971,"is_reserved":false,"is_disabled":false,"rental_uris":{"android":"levelo://app?vid=e0510644-1564-459f-a770-60b1be87b744","ios":"levelo://app?vid=e0510644-1564-459f-a770-60b1be87b744"},"vehicle_type_id":"4","last_reported":1676940145,"current_range_meters":0,"station_id":"","pricing_plan_id":"free"},{"bike_id":"8d15f7f9-c4b3-40c1-9b50-05f1d0fb7148","system_id":"levelo_inurba_marseille","lat":43.29573,"lon":5.367355,"is_reserved":false,"is_disabled":false,"rental_uris":{"android":"levelo://app?vid=8d15f7f9-c4b3-40c1-9b50-05f1d0fb7148","ios":"levelo://app?vid=8d15f7f9-c4b3-40c1-9b50-05f1d0fb7148"},"vehicle_type_id":"4","last_reported":1676940145,"current_range_meters":2400,"station_id":"ce4bgph2rcd13ifvqc2g","pricing_plan_id":"free"},{"bike_id":"ceba613b-3c44-4e6e-8d14-2d76aab6ddb2","system_id":"levelo_inurba_marseille","lat":43.29573,"lon":5.367355,"is_reserved":false,"is_disabled":false,"rental_uris":{"android":"levelo://app?vid=ceba613b-3c44-4e6e-8d14-2d76aab6ddb2","ios":"levelo://app?vid=ceba613b-3c44-4e6e-8d14-2d76aab6ddb2"},"vehicle_type_id":"4","last_reported":1676940145,"current_range_meters":24400,"station_id":"ce4bgph2rcd13ifvqc2g","pricing_plan_id":"free"},{"bike_id":"e77bce35-85b5-4641-a807-69ed132d28d5","system_id":"levelo_inurba_marseille","lat":43.299053,"lon":5.38143,"is_reserved":false,"is_disabled":false,"rental_uris":{"android":"levelo://app?vid=e77bce35-85b5-4641-a807-69ed132d28d5","ios":"levelo://app?vid=e77bce35-85b5-4641-a807-69ed132d28d5"},"vehicle_type_id":"4","last_reported":1676940145,"current_range_meters":6000,"station_id":"ce4bgj12rcd13ifvqbc0","pricing_plan_id":"free"},{"bike_id":"c50484f4-afb6-4497-be77-f2fb6ec6d7b2","system_id":"levelo_inurba_marseille","lat":43.309589,"lon":5.390258,"is_reserved":false,"is_disabled":false,"rental_uris":{"android":"levelo://app?vid=c50484f4-afb6-4497-be77-f2fb6ec6d7b2","ios":"levelo://app?vid=c50484f4-afb6-4497-be77-f2fb6ec6d7b2"},"vehicle_type_id":"4","last_reported":1676940145,"current_range_meters":23200,"station_id":"ce4bgup2rcd13ifvqco0","pricing_plan_id":"free"},{"bike_id":"207d04fe-6195-4cda-a58d-0ed64fdb89ce","system_id":"levelo_inurba_marseille","lat":43.309589,"lon":5.390258,"is_reserved":false,"is_disabled":false,"rental_uris":{"android":"levelo://app?vid=207d04fe-6195-4cda-a58d-0ed64fdb89ce","ios":"levelo://app?vid=207d04fe-6195-4cda-a58d-0ed64fdb89ce"},"vehicle_type_id":"4","last_reported":1676940145,"current_range_meters":28800,"station_id":"ce4bgup2rcd13ifvqco0","pricing_plan_id":"free"},{"bike_id":"52d01c43-5c96-4fa0-a606-3c440eac335f","system_id":"levelo_inurba_marseille","lat":43.317557,"lon":5.390173,"is_reserved":false,"is_disabled":false,"rental_uris":{"android":"levelo://app?vid=52d01c43-5c96-4fa0-a606-3c440eac335f","ios":"levelo://app?vid=52d01c43-5c96-4fa0-a606-3c440eac335f"},"vehicle_type_id":"4","last_reported":1676940145,"current_range_meters":22000,"station_id":"ce4bhqp2rcd13ifvqhng","pricing_plan_id":"free"},{"bike_id":"b48907a1-3b03-4ca4-9ac2-a1ccbbf057fe","system_id":"levelo_inurba_marseille","lat":43.317557,"lon":5.390173,"is_reserved":false,"is_disabled":false,"rental_uris":{"android":"levelo://app?vid=b48907a1-3b03-4ca4-9ac2-a1ccbbf057fe","ios":"levelo://app?vid=b48907a1-3b03-4ca4-9ac2-a1ccbbf057fe"},"vehicle_type_id":"4","last_reported":1676940145,"current_range_meters":3600,"station_id":"ce4bhqp2rcd13ifvqhng","pricing_plan_id":"free"},{"bike_id":"91d29548-91d5-42ba-baf2-1b4ad3ad945f","system_id":"levelo_inurba_marseille","lat":43.317557,"lon":5.390173,"is_reserved":false,"is_disabled":false,"rental_uris":{"android":"levelo://app?vid=91d29548-91d5-42ba-baf2-1b4ad3ad945f","ios":"levelo://app?vid=91d29548-91d5-42ba-baf2-1b4ad3ad945f"},"vehicle_type_id":"4","last_reported":1676940145,"current_range_meters":10000,"station_id":"ce4bhqp2rcd13ifvqhng","pricing_plan_id":"free"},{"bike_id":"e030ca9f-9482-4563-b901-597e9513cc88","system_id":"levelo_inurba_marseille","lat":43.317557,"lon":5.390173,"is_reserved":false,"is_disabled":false,"rental_uris":{"android":"levelo://app?vid=e030ca9f-9482-4563-b901-597e9513cc88","ios":"levelo://app?vid=e030ca9f-9482-4563-b901-597e9513cc88"},"vehicle_type_id":"4","last_reported":1676940145,"current_range_meters":30800,"station_id":"ce4bhqp2rcd13ifvqhng","pricing_plan_id":"free"},{"bike_id":"260cd37a-36ef-40a7-bf86-132a3a0ad186","system_id":"levelo_inurba_marseille","lat":43.297865,"lon":5.381113,"is_reserved":false,"is_disabled":false,"rental_uris":{"android":"levelo://app?vid=260cd37a-36ef-40a7-bf86-132a3a0ad186","ios":"levelo://app?vid=260cd37a-36ef-40a7-bf86-132a3a0ad186"},"vehicle_type_id":"4","last_reported":1676940145,"current_range_meters":0,"station_id":"ce4bgip2rcd13ifvqbb0","pricing_plan_id":"free"},{"bike_id":"158bff59-7305-4fcc-8150-5c2966f8e491","system_id":"levelo_inurba_marseille","lat":43.32367,"lon":5.388836,"is_reserved":false,"is_disabled":false,"rental_uris":{"android":"levelo://app?vid=158bff59-7305-4fcc-8150-5c2966f8e491","ios":"levelo://app?vid=158bff59-7305-4fcc-8150-5c2966f8e491"},"vehicle_type_id":"4","last_reported":1676940145,"current_range_meters":29200,"station_id":"ce4bhqp2rcd13ifvqhog","pricing_plan_id":"free"},{"bike_id":"50ccab21-73de-4008-abdf-a2386dddaa23","system_id":"levelo_inurba_marseille","lat":43.32367,"lon":5.388836,"is_reserved":false,"is_disabled":false,"rental_uris":{"android":"levelo://app?vid=50ccab21-73de-4008-abdf-a2386dddaa23","ios":"levelo://app?vid=50ccab21-73de-4008-abdf-a2386dddaa23"},"vehicle_type_id":"4","last_reported":1676940145,"current_range_meters":30800,"station_id":"ce4bhqp2rcd13ifvqhog","pricing_plan_id":"free"},{"bike_id":"567ed783-643e-42a0-afc0-6ee05a6e0a09","system_id":"levelo_inurba_marseille","lat":43.32367,"lon":5.388836,"is_reserved":false,"is_disabled":false,"rental_uris":{"android":"levelo://app?vid=567ed783-643e-42a0-afc0-6ee05a6e0a09","ios":"levelo://app?vid=567ed783-643e-42a0-afc0-6ee05a6e0a09"},"vehicle_type_id":"4","last_reported":1676940145,"current_range_meters":14400,"station_id":"ce4bhqp2rcd13ifvqhog","pricing_plan_id":"free"},{"bike_id":"50747275-a479-4e62-b3ce-f9f81a476075","system_id":"levelo_inurba_marseille","lat":43.32367,"lon":5.388836,"is_reserved":false,"is_disabled":false,"rental_uris":{"android":"levelo://app?vid=50747275-a479-4e62-b3ce-f9f81a476075","ios":"levelo://app?vid=50747275-a479-4e62-b3ce-f9f81a476075"},"vehicle_type_id":"4","last_reported":1676940145,"current_range_meters":27200,"station_id":"ce4bhqp2rcd13ifvqhog","pricing_plan_id":"free"},{"bike_id":"143caf39-2626-4ca4-8915-f24fdf59543f","system_id":"levelo_inurba_marseille","lat":43.32367,"lon":5.388836,"is_reserved":false,"is_disabled":false,"rental_uris":{"android":"levelo://app?vid=143caf39-2626-4ca4-8915-f24fdf59543f","ios":"levelo://app?vid=143caf39-2626-4ca4-8915-f24fdf59543f"},"vehicle_type_id":"4","last_reported":1676940145,"current_range_meters":14400,"station_id":"ce4bhqp2rcd13ifvqhog","pricing_plan_id":"free"},{"bike_id":"fdb337d5-4a1a-4ae5-aeb1-968aec016ea0","system_id":"levelo_inurba_marseille","lat":43.32367,"lon":5.388836,"is_reserved":false,"is_disabled":false,"rental_uris":{"android":"levelo://app?vid=fdb337d5-4a1a-4ae5-aeb1-968aec016ea0","ios":"levelo://app?vid=fdb337d5-4a1a-4ae5-aeb1-968aec016ea0"},"vehicle_type_id":"4","last_reported":1676940145,"current_range_meters":24000,"station_id":"ce4bhqp2rcd13ifvqhog","pricing_plan_id":"free"},{"bike_id":"f486bf01-fbb7-44d7-a232-d3225c195364","system_id":"levelo_inurba_marseille","lat":43.2607,"lon":5.393983,"is_reserved":false,"is_disabled":false,"rental_uris":{"android":"levelo://app?vid=f486bf01-fbb7-44d7-a232-d3225c195364","ios":"levelo://app?vid=f486bf01-fbb7-44d7-a232-d3225c195364"},"vehicle_type_id":"4","last_reported":1676940145,"current_range_meters":14400,"station_id":"ce4bhh92rcd13ifvqfj0","pricing_plan_id":"free"},{"bike_id":"96d768b0-ff0b-44be-a14b-d4484e3897ac","system_id":"levelo_inurba_marseille","lat":43.323003,"lon":5.389837,"is_reserved":false,"is_disabled":false,"rental_uris":{"android":"levelo://app?vid=96d768b0-ff0b-44be-a14b-d4484e3897ac","ios":"levelo://app?vid=96d768b0-ff0b-44be-a14b-d4484e3897ac"},"vehicle_type_id":"4","last_reported":1676940145,"current_range_meters":24800,"station_id":"","pricing_plan_id":"free"},{"bike_id":"1f6dbc6d-6042-4671-a170-7d7724bfb70b","system_id":"levelo_inurba_marseille","lat":43.305994,"lon":5.393687,"is_reserved":false,"is_disabled":false,"rental_uris":{"android":"levelo://app?vid=1f6dbc6d-6042-4671-a170-7d7724bfb70b","ios":"levelo://app?vid=1f6dbc6d-6042-4671-a170-7d7724bfb70b"},"vehicle_type_id":"4","last_reported":1676940145,"current_range_meters":18400,"station_id":"ce4bh0p2rcd13ifvqd80","pricing_plan_id":"free"},{"bike_id":"4a3d4c8a-b2cd-41b0-832e-6d6d0fbd57eb","system_id":"levelo_inurba_marseille","lat":43.305994,"lon":5.393687,"is_reserved":false,"is_disabled":false,"rental_uris":{"android":"levelo://app?vid=4a3d4c8a-b2cd-41b0-832e-6d6d0fbd57eb","ios":"levelo://app?vid=4a3d4c8a-b2cd-41b0-832e-6d6d0fbd57eb"},"vehicle_type_id":"4","last_reported":1676940145,"current_range_meters":31600,"station_id":"ce4bh0p2rcd13ifvqd80","pricing_plan_id":"free"},{"bike_id":"c5c3296a-aa14-4216-acbe-309b2c862c38","system_id":"levelo_inurba_marseille","lat":43.305994,"lon":5.393687,"is_reserved":false,"is_disabled":false,"rental_uris":{"android":"levelo://app?vid=c5c3296a-aa14-4216-acbe-309b2c862c38","ios":"levelo://app?vid=c5c3296a-aa14-4216-acbe-309b2c862c38"},"vehicle_type_id":"4","last_reported":1676940145,"current_range_meters":18400,"station_id":"ce4bh0p2rcd13ifvqd80","pricing_plan_id":"free"},{"bike_id":"25bd3620-f418-434f-afe3-0f33c4ea360b","system_id":"levelo_inurba_marseille","lat":43.305994,"lon":5.393687,"is_reserved":false,"is_disabled":false,"rental_uris":{"android":"levelo://app?vid=25bd3620-f418-434f-afe3-0f33c4ea360b","ios":"levelo://app?vid=25bd3620-f418-434f-afe3-0f33c4ea360b"},"vehicle_type_id":"4","last_reported":1676940145,"current_range_meters":8800,"station_id":"ce4bh0p2rcd13ifvqd80","pricing_plan_id":"free"},{"bike_id":"e4f7911c-3fae-4d50-bc33-bcf5cd423cc8","system_id":"levelo_inurba_marseille","lat":43.305994,"lon":5.393687,"is_reserved":false,"is_disabled":false,"rental_uris":{"android":"levelo://app?vid=e4f7911c-3fae-4d50-bc33-bcf5cd423cc8","ios":"levelo://app?vid=e4f7911c-3fae-4d50-bc33-bcf5cd423cc8"},"vehicle_type_id":"4","last_reported":1676940145,"current_range_meters":2400,"station_id":"ce4bh0p2rcd13ifvqd80","pricing_plan_id":"free"},{"bike_id":"2edecbef-23ab-4477-a3bb-48532c09b9fc","system_id":"levelo_inurba_marseille","lat":43.305994,"lon":5.393687,"is_reserved":false,"is_disabled":false,"rental_uris":{"android":"levelo://app?vid=2edecbef-23ab-4477-a3bb-48532c09b9fc","ios":"levelo://app?vid=2edecbef-23ab-4477-a3bb-48532c09b9fc"},"vehicle_type_id":"4","last_reported":1676940145,"current_range_meters":31600,"station_id":"ce4bh0p2rcd13ifvqd80","pricing_plan_id":"free"},{"bike_id":"00a32451-1a15-463e-a4cd-0a319f612d7f","system_id":"levelo_inurba_marseille","lat":43.305994,"lon":5.393687,"is_reserved":false,"is_disabled":false,"rental_uris":{"android":"levelo://app?vid=00a32451-1a15-463e-a4cd-0a319f612d7f","ios":"levelo://app?vid=00a32451-1a15-463e-a4cd-0a319f612d7f"},"vehicle_type_id":"4","last_reported":1676940145,"current_range_meters":28000,"station_id":"ce4bh0p2rcd13ifvqd80","pricing_plan_id":"free"},{"bike_id":"5e4e4692-ced5-4cc7-9506-f73efa27d5c2","system_id":"levelo_inurba_marseille","lat":43.305994,"lon":5.393687,"is_reserved":false,"is_disabled":false,"rental_uris":{"android":"levelo://app?vid=5e4e4692-ced5-4cc7-9506-f73efa27d5c2","ios":"levelo://app?vid=5e4e4692-ced5-4cc7-9506-f73efa27d5c2"},"vehicle_type_id":"4","last_reported":1676940145,"current_range_meters":3600,"station_id":"ce4bh0p2rcd13ifvqd80","pricing_plan_id":"free"},{"bike_id":"5d34307c-730c-406a-b12e-0b0d96dcfc77","system_id":"levelo_inurba_marseille","lat":43.305994,"lon":5.393687,"is_reserved":false,"is_disabled":false,"rental_uris":{"android":"levelo://app?vid=5d34307c-730c-406a-b12e-0b0d96dcfc77","ios":"levelo://app?vid=5d34307c-730c-406a-b12e-0b0d96dcfc77"},"vehicle_type_id":"4","last_reported":1676940145,"current_range_meters":22000,"station_id":"ce4bh0p2rcd13ifvqd80","pricing_plan_id":"free"},{"bike_id":"bcd58477-66c0-4067-8a51-63b49baa0f72","system_id":"levelo_inurba_marseille","lat":43.305994,"lon":5.393687,"is_reserved":false,"is_disabled":false,"rental_uris":{"android":"levelo://app?vid=bcd58477-66c0-4067-8a51-63b49baa0f72","ios":"levelo://app?vid=bcd58477-66c0-4067-8a51-63b49baa0f72"},"vehicle_type_id":"4","last_reported":1676940145,"current_range_meters":11200,"station_id":"ce4bh0p2rcd13ifvqd80","pricing_plan_id":"free"},{"bike_id":"4fdab60d-32f9-4680-a14d-8f0e3185c68f","system_id":"levelo_inurba_marseille","lat":43.292659,"lon":5.359695,"is_reserved":false,"is_disabled":false,"rental_uris":{"android":"levelo://app?vid=4fdab60d-32f9-4680-a14d-8f0e3185c68f","ios":"levelo://app?vid=4fdab60d-32f9-4680-a14d-8f0e3185c68f"},"vehicle_type_id":"4","last_reported":1676940145,"current_range_meters":21600,"station_id":"","pricing_plan_id":"free"},{"bike_id":"a47daabb-6a7c-43f7-a720-78b2ca692fc9","system_id":"levelo_inurba_marseille","lat":43.292311,"lon":5.360731,"is_reserved":false,"is_disabled":false,"rental_uris":{"android":"levelo://app?vid=a47daabb-6a7c-43f7-a720-78b2ca692fc9","ios":"levelo://app?vid=a47daabb-6a7c-43f7-a720-78b2ca692fc9"},"vehicle_type_id":"4","last_reported":1676940145,"current_range_meters":18000,"station_id":"ce4bhbh2rcd13ifvqeqg","pricing_plan_id":"free"},{"bike_id":"b2b824fa-7a4d-466a-8096-ebecf93da407","system_id":"levelo_inurba_marseille","lat":43.292311,"lon":5.360731,"is_reserved":false,"is_disabled":false,"rental_uris":{"android":"levelo://app?vid=b2b824fa-7a4d-466a-8096-ebecf93da407","ios":"levelo://app?vid=b2b824fa-7a4d-466a-8096-ebecf93da407"},"vehicle_type_id":"4","last_reported":1676940145,"current_range_meters":6800,"station_id":"ce4bhbh2rcd13ifvqeqg","pricing_plan_id":"free"},{"bike_id":"6a1fad7d-25c7-4491-a8c7-9740658f7c1e","system_id":"levelo_inurba_marseille","lat":43.292311,"lon":5.360731,"is_reserved":false,"is_disabled":false,"rental_uris":{"android":"levelo://app?vid=6a1fad7d-25c7-4491-a8c7-9740658f7c1e","ios":"levelo://app?vid=6a1fad7d-25c7-4491-a8c7-9740658f7c1e"},"vehicle_type_id":"4","last_reported":1676940145,"current_range_meters":0,"station_id":"ce4bhbh2rcd13ifvqeqg","pricing_plan_id":"free"},{"bike_id":"887eddd6-b666-422c-8a34-ec4856afef03","system_id":"levelo_inurba_marseille","lat":43.292311,"lon":5.360731,"is_reserved":false,"is_disabled":false,"rental_uris":{"android":"levelo://app?vid=887eddd6-b666-422c-8a34-ec4856afef03","ios":"levelo://app?vid=887eddd6-b666-422c-8a34-ec4856afef03"},"vehicle_type_id":"4","last_reported":1676940145,"current_range_meters":20400,"station_id":"ce4bhbh2rcd13ifvqeqg","pricing_plan_id":"free"},{"bike_id":"4985dc55-280e-4466-99d5-6063e7492e27","system_id":"levelo_inurba_marseille","lat":43.292311,"lon":5.360731,"is_reserved":false,"is_disabled":false,"rental_uris":{"android":"levelo://app?vid=4985dc55-280e-4466-99d5-6063e7492e27","ios":"levelo://app?vid=4985dc55-280e-4466-99d5-6063e7492e27"},"vehicle_type_id":"4","last_reported":1676940145,"current_range_meters":8000,"station_id":"ce4bhbh2rcd13ifvqeqg","pricing_plan_id":"free"},{"bike_id":"d6acda8c-393d-4196-9029-b973b514d189","system_id":"levelo_inurba_marseille","lat":43.292311,"lon":5.360731,"is_reserved":false,"is_disabled":false,"rental_uris":{"android":"levelo://app?vid=d6acda8c-393d-4196-9029-b973b514d189","ios":"levelo://app?vid=d6acda8c-393d-4196-9029-b973b514d189"},"vehicle_type_id":"4","last_reported":1676940145,"current_range_meters":16400,"station_id":"ce4bhbh2rcd13ifvqeqg","pricing_plan_id":"free"},{"bike_id":"28f18bbd-6541-4326-bfef-fbd3858b7db8","system_id":"levelo_inurba_marseille","lat":43.3133,"lon":5.39686,"is_reserved":false,"is_disabled":false,"rental_uris":{"android":"levelo://app?vid=28f18bbd-6541-4326-bfef-fbd3858b7db8","ios":"levelo://app?vid=28f18bbd-6541-4326-bfef-fbd3858b7db8"},"vehicle_type_id":"4","last_reported":1676940145,"current_range_meters":11600,"station_id":"ce4bgvp2rcd13ifvqcu0","pricing_plan_id":"free"},{"bike_id":"b3f6ba4b-828c-4cb4-b443-e474a89bb683","system_id":"levelo_inurba_marseille","lat":43.313291,"lon":5.396838,"is_reserved":false,"is_disabled":false,"rental_uris":{"android":"levelo://app?vid=b3f6ba4b-828c-4cb4-b443-e474a89bb683","ios":"levelo://app?vid=b3f6ba4b-828c-4cb4-b443-e474a89bb683"},"vehicle_type_id":"4","last_reported":1676940145,"current_range_meters":22000,"station_id":"ce4bgvp2rcd13ifvqcu0","pricing_plan_id":"free"},{"bike_id":"d4f01844-c870-4a82-a1fb-64214a56b96a","system_id":"levelo_inurba_marseille","lat":43.313274,"lon":5.396888,"is_reserved":false,"is_disabled":false,"rental_uris":{"android":"levelo://app?vid=d4f01844-c870-4a82-a1fb-64214a56b96a","ios":"levelo://app?vid=d4f01844-c870-4a82-a1fb-64214a56b96a"},"vehicle_type_id":"4","last_reported":1676940145,"current_range_meters":29600,"station_id":"","pricing_plan_id":"free"},{"bike_id":"c817f547-e4bb-4ad8-9658-8c6d8043eb73","system_id":"levelo_inurba_marseille","lat":43.31327,"lon":5.39689,"is_reserved":false,"is_disabled":false,"rental_uris":{"android":"levelo://app?vid=c817f547-e4bb-4ad8-9658-8c6d8043eb73","ios":"levelo://app?vid=c817f547-e4bb-4ad8-9658-8c6d8043eb73"},"vehicle_type_id":"4","last_reported":1676940145,"current_range_meters":18800,"station_id":"ce4bgvp2rcd13ifvqcu0","pricing_plan_id":"free"},{"bike_id":"53582b16-01ee-4e55-b5d9-223d34aaaf97","system_id":"levelo_inurba_marseille","lat":43.31327,"lon":5.39689,"is_reserved":false,"is_disabled":false,"rental_uris":{"android":"levelo://app?vid=53582b16-01ee-4e55-b5d9-223d34aaaf97","ios":"levelo://app?vid=53582b16-01ee-4e55-b5d9-223d34aaaf97"},"vehicle_type_id":"4","last_reported":1676940145,"current_range_meters":24800,"station_id":"ce4bgvp2rcd13ifvqcu0","pricing_plan_id":"free"},{"bike_id":"5df1be5e-3b8d-405b-b4bc-1df852dd43b9","system_id":"levelo_inurba_marseille","lat":43.313291,"lon":5.396838,"is_reserved":false,"is_disabled":false,"rental_uris":{"android":"levelo://app?vid=5df1be5e-3b8d-405b-b4bc-1df852dd43b9","ios":"levelo://app?vid=5df1be5e-3b8d-405b-b4bc-1df852dd43b9"},"vehicle_type_id":"4","last_reported":1676940145,"current_range_meters":21200,"station_id":"ce4bgvp2rcd13ifvqcu0","pricing_plan_id":"free"},{"bike_id":"d6081fde-300a-40ae-a489-95d3ae114b03","system_id":"levelo_inurba_marseille","lat":43.313254,"lon":5.396905,"is_reserved":false,"is_disabled":false,"rental_uris":{"android":"levelo://app?vid=d6081fde-300a-40ae-a489-95d3ae114b03","ios":"levelo://app?vid=d6081fde-300a-40ae-a489-95d3ae114b03"},"vehicle_type_id":"4","last_reported":1676940145,"current_range_meters":28000,"station_id":"ce4bgvp2rcd13ifvqcu0","pricing_plan_id":"free"},{"bike_id":"3b80926e-8e65-4514-a9de-41826b1f9ff3","system_id":"levelo_inurba_marseille","lat":43.31323,"lon":5.396906,"is_reserved":false,"is_disabled":false,"rental_uris":{"android":"levelo://app?vid=3b80926e-8e65-4514-a9de-41826b1f9ff3","ios":"levelo://app?vid=3b80926e-8e65-4514-a9de-41826b1f9ff3"},"vehicle_type_id":"4","last_reported":1676940145,"current_range_meters":24400,"station_id":"ce4bgvp2rcd13ifvqcu0","pricing_plan_id":"free"},{"bike_id":"e1e580c9-9dbd-4cfa-a790-78ff53b41363","system_id":"levelo_inurba_marseille","lat":43.313263,"lon":5.396908,"is_reserved":false,"is_disabled":false,"rental_uris":{"android":"levelo://app?vid=e1e580c9-9dbd-4cfa-a790-78ff53b41363","ios":"levelo://app?vid=e1e580c9-9dbd-4cfa-a790-78ff53b41363"},"vehicle_type_id":"4","last_reported":1676940145,"current_range_meters":18800,"station_id":"ce4bgvp2rcd13ifvqcu0","pricing_plan_id":"free"},{"bike_id":"492b2301-fb69-4b92-ab85-9e10f9695a18","system_id":"levelo_inurba_marseille","lat":43.31321,"lon":5.39691,"is_reserved":false,"is_disabled":false,"rental_uris":{"android":"levelo://app?vid=492b2301-fb69-4b92-ab85-9e10f9695a18","ios":"levelo://app?vid=492b2301-fb69-4b92-ab85-9e10f9695a18"},"vehicle_type_id":"4","last_reported":1676940145,"current_range_meters":21600,"station_id":"ce4bgvp2rcd13ifvqcu0","pricing_plan_id":"free"},{"bike_id":"0120ac30-980a-4720-bad1-cc8c9ebf8d91","system_id":"levelo_inurba_marseille","lat":43.313242,"lon":5.396915,"is_reserved":false,"is_disabled":false,"rental_uris":{"android":"levelo://app?vid=0120ac30-980a-4720-bad1-cc8c9ebf8d91","ios":"levelo://app?vid=0120ac30-980a-4720-bad1-cc8c9ebf8d91"},"vehicle_type_id":"4","last_reported":1676940145,"current_range_meters":30800,"station_id":"","pricing_plan_id":"free"},{"bike_id":"ceb67649-cac7-4ef7-acfd-011feda4c619","system_id":"levelo_inurba_marseille","lat":43.31322,"lon":5.39693,"is_reserved":false,"is_disabled":false,"rental_uris":{"android":"levelo://app?vid=ceb67649-cac7-4ef7-acfd-011feda4c619","ios":"levelo://app?vid=ceb67649-cac7-4ef7-acfd-011feda4c619"},"vehicle_type_id":"4","last_reported":1676940145,"current_range_meters":23600,"station_id":"","pricing_plan_id":"free"},{"bike_id":"38ba4d43-62f7-4be9-bce2-d8fb897d32ec","system_id":"levelo_inurba_marseille","lat":43.313291,"lon":5.396838,"is_reserved":false,"is_disabled":false,"rental_uris":{"android":"levelo://app?vid=38ba4d43-62f7-4be9-bce2-d8fb897d32ec","ios":"levelo://app?vid=38ba4d43-62f7-4be9-bce2-d8fb897d32ec"},"vehicle_type_id":"4","last_reported":1676940145,"current_range_meters":25200,"station_id":"ce4bgvp2rcd13ifvqcu0","pricing_plan_id":"free"},{"bike_id":"c4d8b864-65a3-4dc2-b319-b5c39b6ca021","system_id":"levelo_inurba_marseille","lat":43.313291,"lon":5.396838,"is_reserved":false,"is_disabled":false,"rental_uris":{"android":"levelo://app?vid=c4d8b864-65a3-4dc2-b319-b5c39b6ca021","ios":"levelo://app?vid=c4d8b864-65a3-4dc2-b319-b5c39b6ca021"},"vehicle_type_id":"4","last_reported":1676940145,"current_range_meters":28400,"station_id":"ce4bgvp2rcd13ifvqcu0","pricing_plan_id":"free"},{"bike_id":"e27742ed-5b36-4366-bdce-98b2c90ef441","system_id":"levelo_inurba_marseille","lat":43.313291,"lon":5.396838,"is_reserved":false,"is_disabled":false,"rental_uris":{"android":"levelo://app?vid=e27742ed-5b36-4366-bdce-98b2c90ef441","ios":"levelo://app?vid=e27742ed-5b36-4366-bdce-98b2c90ef441"},"vehicle_type_id":"4","last_reported":1676940145,"current_range_meters":25200,"station_id":"ce4bgvp2rcd13ifvqcu0","pricing_plan_id":"free"},{"bike_id":"53974275-d1e3-4a70-aeba-eb1833101e14","system_id":"levelo_inurba_marseille","lat":43.313291,"lon":5.396838,"is_reserved":false,"is_disabled":false,"rental_uris":{"android":"levelo://app?vid=53974275-d1e3-4a70-aeba-eb1833101e14","ios":"levelo://app?vid=53974275-d1e3-4a70-aeba-eb1833101e14"},"vehicle_type_id":"4","last_reported":1676940145,"current_range_meters":12000,"station_id":"ce4bgvp2rcd13ifvqcu0","pricing_plan_id":"free"},{"bike_id":"fa1c5cb4-eac0-4062-abed-7403b2d17c3c","system_id":"levelo_inurba_marseille","lat":43.313291,"lon":5.396838,"is_reserved":false,"is_disabled":false,"rental_uris":{"android":"levelo://app?vid=fa1c5cb4-eac0-4062-abed-7403b2d17c3c","ios":"levelo://app?vid=fa1c5cb4-eac0-4062-abed-7403b2d17c3c"},"vehicle_type_id":"4","last_reported":1676940145,"current_range_meters":30800,"station_id":"ce4bgvp2rcd13ifvqcu0","pricing_plan_id":"free"},{"bike_id":"2d37dd02-82f5-40c7-b1da-5c439d9756c5","system_id":"levelo_inurba_marseille","lat":43.31325,"lon":5.39695,"is_reserved":false,"is_disabled":false,"rental_uris":{"android":"levelo://app?vid=2d37dd02-82f5-40c7-b1da-5c439d9756c5","ios":"levelo://app?vid=2d37dd02-82f5-40c7-b1da-5c439d9756c5"},"vehicle_type_id":"4","last_reported":1676940145,"current_range_meters":20400,"station_id":"ce4bgvp2rcd13ifvqcu0","pricing_plan_id":"free"},{"bike_id":"68064883-b777-4fc9-87de-35ea782349d3","system_id":"levelo_inurba_marseille","lat":43.313291,"lon":5.396838,"is_reserved":false,"is_disabled":false,"rental_uris":{"android":"levelo://app?vid=68064883-b777-4fc9-87de-35ea782349d3","ios":"levelo://app?vid=68064883-b777-4fc9-87de-35ea782349d3"},"vehicle_type_id":"4","last_reported":1676940145,"current_range_meters":28400,"station_id":"ce4bgvp2rcd13ifvqcu0","pricing_plan_id":"free"},{"bike_id":"63c4dc4a-3999-4ae7-8add-5ce9514d28ba","system_id":"levelo_inurba_marseille","lat":43.313291,"lon":5.396838,"is_reserved":false,"is_disabled":false,"rental_uris":{"android":"levelo://app?vid=63c4dc4a-3999-4ae7-8add-5ce9514d28ba","ios":"levelo://app?vid=63c4dc4a-3999-4ae7-8add-5ce9514d28ba"},"vehicle_type_id":"4","last_reported":1676940145,"current_range_meters":25600,"station_id":"ce4bgvp2rcd13ifvqcu0","pricing_plan_id":"free"},{"bike_id":"ae43ef46-ede4-472b-90f6-ab0ee3f3299a","system_id":"levelo_inurba_marseille","lat":43.313291,"lon":5.396838,"is_reserved":false,"is_disabled":false,"rental_uris":{"android":"levelo://app?vid=ae43ef46-ede4-472b-90f6-ab0ee3f3299a","ios":"levelo://app?vid=ae43ef46-ede4-472b-90f6-ab0ee3f3299a"},"vehicle_type_id":"4","last_reported":1676940145,"current_range_meters":30400,"station_id":"ce4bgvp2rcd13ifvqcu0","pricing_plan_id":"free"},{"bike_id":"245ba2e4-a56c-4e97-b850-6a20e7c94579","system_id":"levelo_inurba_marseille","lat":43.31329,"lon":5.39699,"is_reserved":false,"is_disabled":false,"rental_uris":{"android":"levelo://app?vid=245ba2e4-a56c-4e97-b850-6a20e7c94579","ios":"levelo://app?vid=245ba2e4-a56c-4e97-b850-6a20e7c94579"},"vehicle_type_id":"4","last_reported":1676940145,"current_range_meters":19200,"station_id":"","pricing_plan_id":"free"},{"bike_id":"65580627-6d76-4bce-b134-49d7ffd88af2","system_id":"levelo_inurba_marseille","lat":43.313291,"lon":5.396838,"is_reserved":false,"is_disabled":false,"rental_uris":{"android":"levelo://app?vid=65580627-6d76-4bce-b134-49d7ffd88af2","ios":"levelo://app?vid=65580627-6d76-4bce-b134-49d7ffd88af2"},"vehicle_type_id":"4","last_reported":1676940145,"current_range_meters":26400,"station_id":"ce4bgvp2rcd13ifvqcu0","pricing_plan_id":"free"},{"bike_id":"3728ea73-4633-4ac8-ad6f-8c268a87d576","system_id":"levelo_inurba_marseille","lat":43.29539,"lon":5.38543,"is_reserved":false,"is_disabled":false,"rental_uris":{"android":"levelo://app?vid=3728ea73-4633-4ac8-ad6f-8c268a87d576","ios":"levelo://app?vid=3728ea73-4633-4ac8-ad6f-8c268a87d576"},"vehicle_type_id":"4","last_reported":1676940145,"current_range_meters":12000,"station_id":"ce4bgih2rcd13ifvqba0","pricing_plan_id":"free"},{"bike_id":"175dd801-1b8b-4302-87ce-ca68ff15c4e2","system_id":"levelo_inurba_marseille","lat":43.2953,"lon":5.38544,"is_reserved":false,"is_disabled":false,"rental_uris":{"android":"levelo://app?vid=175dd801-1b8b-4302-87ce-ca68ff15c4e2","ios":"levelo://app?vid=175dd801-1b8b-4302-87ce-ca68ff15c4e2"},"vehicle_type_id":"4","last_reported":1676940145,"current_range_meters":24800,"station_id":"ce4bgih2rcd13ifvqba0","pricing_plan_id":"free"},{"bike_id":"abf8c50e-f428-4dad-8b1e-d4b814055d3d","system_id":"levelo_inurba_marseille","lat":43.32262,"lon":5.39452,"is_reserved":false,"is_disabled":false,"rental_uris":{"android":"levelo://app?vid=abf8c50e-f428-4dad-8b1e-d4b814055d3d","ios":"levelo://app?vid=abf8c50e-f428-4dad-8b1e-d4b814055d3d"},"vehicle_type_id":"4","last_reported":1676940145,"current_range_meters":0,"station_id":"","pricing_plan_id":"free"},{"bike_id":"1e282ca4-1ca7-454c-9f93-edd49dc04981","system_id":"levelo_inurba_marseille","lat":43.302008,"lon":5.394694,"is_reserved":false,"is_disabled":false,"rental_uris":{"android":"levelo://app?vid=1e282ca4-1ca7-454c-9f93-edd49dc04981","ios":"levelo://app?vid=1e282ca4-1ca7-454c-9f93-edd49dc04981"},"vehicle_type_id":"4","last_reported":1676940145,"current_range_meters":10400,"station_id":"ce4bh0p2rcd13ifvqd70","pricing_plan_id":"free"},{"bike_id":"31a0034a-8cef-4d41-b74d-81b04a9becdb","system_id":"levelo_inurba_marseille","lat":43.302008,"lon":5.394694,"is_reserved":false,"is_disabled":false,"rental_uris":{"android":"levelo://app?vid=31a0034a-8cef-4d41-b74d-81b04a9becdb","ios":"levelo://app?vid=31a0034a-8cef-4d41-b74d-81b04a9becdb"},"vehicle_type_id":"4","last_reported":1676940145,"current_range_meters":4000,"station_id":"ce4bh0p2rcd13ifvqd70","pricing_plan_id":"free"},{"bike_id":"5840f1ec-f4d7-4397-82ac-749537c12498","system_id":"levelo_inurba_marseille","lat":43.290624,"lon":5.359245,"is_reserved":false,"is_disabled":false,"rental_uris":{"android":"levelo://app?vid=5840f1ec-f4d7-4397-82ac-749537c12498","ios":"levelo://app?vid=5840f1ec-f4d7-4397-82ac-749537c12498"},"vehicle_type_id":"4","last_reported":1676940145,"current_range_meters":1600,"station_id":"ce4bha92rcd13ifvqeg0","pricing_plan_id":"free"},{"bike_id":"280e7d99-ccc4-41ae-b5da-1149fe9c3004","system_id":"levelo_inurba_marseille","lat":43.290624,"lon":5.359245,"is_reserved":false,"is_disabled":false,"rental_uris":{"android":"levelo://app?vid=280e7d99-ccc4-41ae-b5da-1149fe9c3004","ios":"levelo://app?vid=280e7d99-ccc4-41ae-b5da-1149fe9c3004"},"vehicle_type_id":"4","last_reported":1676940145,"current_range_meters":7600,"station_id":"ce4bha92rcd13ifvqeg0","pricing_plan_id":"free"},{"bike_id":"f7b7502d-1971-45c4-b066-027b4c16a4ba","system_id":"levelo_inurba_marseille","lat":43.290624,"lon":5.359245,"is_reserved":false,"is_disabled":false,"rental_uris":{"android":"levelo://app?vid=f7b7502d-1971-45c4-b066-027b4c16a4ba","ios":"levelo://app?vid=f7b7502d-1971-45c4-b066-027b4c16a4ba"},"vehicle_type_id":"4","last_reported":1676940145,"current_range_meters":0,"station_id":"ce4bha92rcd13ifvqeg0","pricing_plan_id":"free"},{"bike_id":"c88b4510-8993-46bf-86ee-366817c87e3b","system_id":"levelo_inurba_marseille","lat":43.290624,"lon":5.359245,"is_reserved":false,"is_disabled":false,"rental_uris":{"android":"levelo://app?vid=c88b4510-8993-46bf-86ee-366817c87e3b","ios":"levelo://app?vid=c88b4510-8993-46bf-86ee-366817c87e3b"},"vehicle_type_id":"4","last_reported":1676940145,"current_range_meters":22000,"station_id":"ce4bha92rcd13ifvqeg0","pricing_plan_id":"free"},{"bike_id":"84f2703b-f24d-4385-806f-aed8495856de","system_id":"levelo_inurba_marseille","lat":43.290624,"lon":5.359245,"is_reserved":false,"is_disabled":false,"rental_uris":{"android":"levelo://app?vid=84f2703b-f24d-4385-806f-aed8495856de","ios":"levelo://app?vid=84f2703b-f24d-4385-806f-aed8495856de"},"vehicle_type_id":"4","last_reported":1676940145,"current_range_meters":3200,"station_id":"ce4bha92rcd13ifvqeg0","pricing_plan_id":"free"},{"bike_id":"ef904c4c-5fcb-4e11-a783-d037df31fb14","system_id":"levelo_inurba_marseille","lat":43.290624,"lon":5.359245,"is_reserved":false,"is_disabled":false,"rental_uris":{"android":"levelo://app?vid=ef904c4c-5fcb-4e11-a783-d037df31fb14","ios":"levelo://app?vid=ef904c4c-5fcb-4e11-a783-d037df31fb14"},"vehicle_type_id":"4","last_reported":1676940145,"current_range_meters":8800,"station_id":"ce4bha92rcd13ifvqeg0","pricing_plan_id":"free"},{"bike_id":"8aef3b74-11e5-4346-bc3a-53a501d7c425","system_id":"levelo_inurba_marseille","lat":43.289487,"lon":5.366297,"is_reserved":false,"is_disabled":false,"rental_uris":{"android":"levelo://app?vid=8aef3b74-11e5-4346-bc3a-53a501d7c425","ios":"levelo://app?vid=8aef3b74-11e5-4346-bc3a-53a501d7c425"},"vehicle_type_id":"4","last_reported":1676940145,"current_range_meters":19600,"station_id":"","pricing_plan_id":"free"},{"bike_id":"3eddaa74-82a3-49ed-8293-e10407da6f20","system_id":"levelo_inurba_marseille","lat":43.28944,"lon":5.36626,"is_reserved":false,"is_disabled":false,"rental_uris":{"android":"levelo://app?vid=3eddaa74-82a3-49ed-8293-e10407da6f20","ios":"levelo://app?vid=3eddaa74-82a3-49ed-8293-e10407da6f20"},"vehicle_type_id":"4","last_reported":1676940145,"current_range_meters":5600,"station_id":"","pricing_plan_id":"free"},{"bike_id":"585bcc12-1e5e-4429-8443-c3325e2d0268","system_id":"levelo_inurba_marseille","lat":43.28941,"lon":5.36638,"is_reserved":false,"is_disabled":false,"rental_uris":{"android":"levelo://app?vid=585bcc12-1e5e-4429-8443-c3325e2d0268","ios":"levelo://app?vid=585bcc12-1e5e-4429-8443-c3325e2d0268"},"vehicle_type_id":"4","last_reported":1676940145,"current_range_meters":6000,"station_id":"ce4bhap2rcd13ifvqek0","pricing_plan_id":"free"},{"bike_id":"e9a2688d-d42c-441c-87ef-7581b3474254","system_id":"levelo_inurba_marseille","lat":43.28941,"lon":5.3663,"is_reserved":false,"is_disabled":false,"rental_uris":{"android":"levelo://app?vid=e9a2688d-d42c-441c-87ef-7581b3474254","ios":"levelo://app?vid=e9a2688d-d42c-441c-87ef-7581b3474254"},"vehicle_type_id":"4","last_reported":1676940145,"current_range_meters":10000,"station_id":"","pricing_plan_id":"free"},{"bike_id":"12cc4130-52db-44fe-a541-b89a8319a76f","system_id":"levelo_inurba_marseille","lat":43.289184,"lon":5.366408,"is_reserved":false,"is_disabled":false,"rental_uris":{"android":"levelo://app?vid=12cc4130-52db-44fe-a541-b89a8319a76f","ios":"levelo://app?vid=12cc4130-52db-44fe-a541-b89a8319a76f"},"vehicle_type_id":"4","last_reported":1676940145,"current_range_meters":24000,"station_id":"ce4bhap2rcd13ifvqek0","pricing_plan_id":"free"},{"bike_id":"f0d9b89a-3466-435b-b2fc-3584a8ae5ec9","system_id":"levelo_inurba_marseille","lat":43.289468,"lon":5.363719,"is_reserved":false,"is_disabled":false,"rental_uris":{"android":"levelo://app?vid=f0d9b89a-3466-435b-b2fc-3584a8ae5ec9","ios":"levelo://app?vid=f0d9b89a-3466-435b-b2fc-3584a8ae5ec9"},"vehicle_type_id":"4","last_reported":1676940145,"current_range_meters":27600,"station_id":"ce4bhc92rcd13ifvqetg","pricing_plan_id":"free"},{"bike_id":"7c5ef8b4-e0b9-4433-97e3-944293f09d47","system_id":"levelo_inurba_marseille","lat":43.292613,"lon":5.38436,"is_reserved":false,"is_disabled":false,"rental_uris":{"android":"levelo://app?vid=7c5ef8b4-e0b9-4433-97e3-944293f09d47","ios":"levelo://app?vid=7c5ef8b4-e0b9-4433-97e3-944293f09d47"},"vehicle_type_id":"4","last_reported":1676940145,"current_range_meters":0,"station_id":"ce4bh692rcd13ifvqea0","pricing_plan_id":"free"},{"bike_id":"20eb41e1-71e6-4771-b008-4f127c3a9451","system_id":"levelo_inurba_marseille","lat":43.292619,"lon":5.384473,"is_reserved":false,"is_disabled":false,"rental_uris":{"android":"levelo://app?vid=20eb41e1-71e6-4771-b008-4f127c3a9451","ios":"levelo://app?vid=20eb41e1-71e6-4771-b008-4f127c3a9451"},"vehicle_type_id":"4","last_reported":1676940145,"current_range_meters":0,"station_id":"","pricing_plan_id":"free"},{"bike_id":"37479b13-9891-4107-b1b0-ef27756bb701","system_id":"levelo_inurba_marseille","lat":43.330442,"lon":5.389148,"is_reserved":false,"is_disabled":false,"rental_uris":{"android":"levelo://app?vid=37479b13-9891-4107-b1b0-ef27756bb701","ios":"levelo://app?vid=37479b13-9891-4107-b1b0-ef27756bb701"},"vehicle_type_id":"4","last_reported":1676940145,"current_range_meters":30800,"station_id":"ce4bhr92rcd13ifvqhrg","pricing_plan_id":"free"},{"bike_id":"898bd0e3-a7f4-4757-aa34-2e64b09c2c1a","system_id":"levelo_inurba_marseille","lat":43.290104,"lon":5.356111,"is_reserved":false,"is_disabled":false,"rental_uris":{"android":"levelo://app?vid=898bd0e3-a7f4-4757-aa34-2e64b09c2c1a","ios":"levelo://app?vid=898bd0e3-a7f4-4757-aa34-2e64b09c2c1a"},"vehicle_type_id":"4","last_reported":1676940145,"current_range_meters":26000,"station_id":"ce4bhb92rcd13ifvqen0","pricing_plan_id":"free"},{"bike_id":"6bde3431-c3f8-420c-9e4c-0719be1e23cf","system_id":"levelo_inurba_marseille","lat":43.330405,"lon":5.389166,"is_reserved":false,"is_disabled":false,"rental_uris":{"android":"levelo://app?vid=6bde3431-c3f8-420c-9e4c-0719be1e23cf","ios":"levelo://app?vid=6bde3431-c3f8-420c-9e4c-0719be1e23cf"},"vehicle_type_id":"4","last_reported":1676940145,"current_range_meters":29200,"station_id":"ce4bhr92rcd13ifvqhrg","pricing_plan_id":"free"},{"bike_id":"5b763896-9d0a-4a17-ade8-34bb6f0946c3","system_id":"levelo_inurba_marseille","lat":43.330399,"lon":5.38919,"is_reserved":false,"is_disabled":false,"rental_uris":{"android":"levelo://app?vid=5b763896-9d0a-4a17-ade8-34bb6f0946c3","ios":"levelo://app?vid=5b763896-9d0a-4a17-ade8-34bb6f0946c3"},"vehicle_type_id":"4","last_reported":1676940145,"current_range_meters":26800,"station_id":"ce4bhr92rcd13ifvqhrg","pricing_plan_id":"free"},{"bike_id":"2f57434c-886c-4573-9d55-ec6b247af0ae","system_id":"levelo_inurba_marseille","lat":43.33043,"lon":5.38916,"is_reserved":false,"is_disabled":false,"rental_uris":{"android":"levelo://app?vid=2f57434c-886c-4573-9d55-ec6b247af0ae","ios":"levelo://app?vid=2f57434c-886c-4573-9d55-ec6b247af0ae"},"vehicle_type_id":"4","last_reported":1676940145,"current_range_meters":25600,"station_id":"","pricing_plan_id":"free"},{"bike_id":"20f7eda5-39d3-4afe-ae56-9a840a04cab1","system_id":"levelo_inurba_marseille","lat":43.330442,"lon":5.389148,"is_reserved":false,"is_disabled":false,"rental_uris":{"android":"levelo://app?vid=20f7eda5-39d3-4afe-ae56-9a840a04cab1","ios":"levelo://app?vid=20f7eda5-39d3-4afe-ae56-9a840a04cab1"},"vehicle_type_id":"4","last_reported":1676940145,"current_range_meters":30000,"station_id":"ce4bhr92rcd13ifvqhrg","pricing_plan_id":"free"},{"bike_id":"a9a533e2-a694-46d6-97ca-e53bd461fb9a","system_id":"levelo_inurba_marseille","lat":43.330442,"lon":5.389148,"is_reserved":false,"is_disabled":false,"rental_uris":{"android":"levelo://app?vid=a9a533e2-a694-46d6-97ca-e53bd461fb9a","ios":"levelo://app?vid=a9a533e2-a694-46d6-97ca-e53bd461fb9a"},"vehicle_type_id":"4","last_reported":1676940145,"current_range_meters":24400,"station_id":"ce4bhr92rcd13ifvqhrg","pricing_plan_id":"free"},{"bike_id":"dfbc8af8-c178-43d3-87d9-4d5cb0762399","system_id":"levelo_inurba_marseille","lat":43.330442,"lon":5.389148,"is_reserved":false,"is_disabled":false,"rental_uris":{"android":"levelo://app?vid=dfbc8af8-c178-43d3-87d9-4d5cb0762399","ios":"levelo://app?vid=dfbc8af8-c178-43d3-87d9-4d5cb0762399"},"vehicle_type_id":"4","last_reported":1676940145,"current_range_meters":31600,"station_id":"ce4bhr92rcd13ifvqhrg","pricing_plan_id":"free"},{"bike_id":"4a9ff081-5f64-4a51-adbc-bc89785741d0","system_id":"levelo_inurba_marseille","lat":43.290104,"lon":5.356111,"is_reserved":false,"is_disabled":false,"rental_uris":{"android":"levelo://app?vid=4a9ff081-5f64-4a51-adbc-bc89785741d0","ios":"levelo://app?vid=4a9ff081-5f64-4a51-adbc-bc89785741d0"},"vehicle_type_id":"4","last_reported":1676940145,"current_range_meters":6000,"station_id":"ce4bhb92rcd13ifvqen0","pricing_plan_id":"free"},{"bike_id":"6c4bb5ad-bb60-46f6-afe2-03ea3ffd247c","system_id":"levelo_inurba_marseille","lat":43.330442,"lon":5.389148,"is_reserved":false,"is_disabled":false,"rental_uris":{"android":"levelo://app?vid=6c4bb5ad-bb60-46f6-afe2-03ea3ffd247c","ios":"levelo://app?vid=6c4bb5ad-bb60-46f6-afe2-03ea3ffd247c"},"vehicle_type_id":"4","last_reported":1676940145,"current_range_meters":27600,"station_id":"ce4bhr92rcd13ifvqhrg","pricing_plan_id":"free"},{"bike_id":"ef97761d-7708-4db6-b892-abd3b66682c3","system_id":"levelo_inurba_marseille","lat":43.330442,"lon":5.389148,"is_reserved":false,"is_disabled":false,"rental_uris":{"android":"levelo://app?vid=ef97761d-7708-4db6-b892-abd3b66682c3","ios":"levelo://app?vid=ef97761d-7708-4db6-b892-abd3b66682c3"},"vehicle_type_id":"4","last_reported":1676940145,"current_range_meters":25200,"station_id":"ce4bhr92rcd13ifvqhrg","pricing_plan_id":"free"},{"bike_id":"178c92ac-f595-45e7-b597-7d21405dc102","system_id":"levelo_inurba_marseille","lat":43.330442,"lon":5.389148,"is_reserved":false,"is_disabled":false,"rental_uris":{"android":"levelo://app?vid=178c92ac-f595-45e7-b597-7d21405dc102","ios":"levelo://app?vid=178c92ac-f595-45e7-b597-7d21405dc102"},"vehicle_type_id":"4","last_reported":1676940145,"current_range_meters":21200,"station_id":"ce4bhr92rcd13ifvqhrg","pricing_plan_id":"free"},{"bike_id":"30e64a77-47b2-4bcf-8fd6-547206590b4f","system_id":"levelo_inurba_marseille","lat":43.330442,"lon":5.389148,"is_reserved":false,"is_disabled":false,"rental_uris":{"android":"levelo://app?vid=30e64a77-47b2-4bcf-8fd6-547206590b4f","ios":"levelo://app?vid=30e64a77-47b2-4bcf-8fd6-547206590b4f"},"vehicle_type_id":"4","last_reported":1676940145,"current_range_meters":29600,"station_id":"ce4bhr92rcd13ifvqhrg","pricing_plan_id":"free"},{"bike_id":"89340a36-b690-43c4-83de-072d279138ca","system_id":"levelo_inurba_marseille","lat":43.290994,"lon":5.381513,"is_reserved":false,"is_disabled":false,"rental_uris":{"android":"levelo://app?vid=89340a36-b690-43c4-83de-072d279138ca","ios":"levelo://app?vid=89340a36-b690-43c4-83de-072d279138ca"},"vehicle_type_id":"4","last_reported":1676940145,"current_range_meters":0,"station_id":"ce4bh512rcd13ifvqe2g","pricing_plan_id":"free"},{"bike_id":"3d7d5458-a0b6-43a6-b226-0c22167a477d","system_id":"levelo_inurba_marseille","lat":43.28856,"lon":5.358371,"is_reserved":false,"is_disabled":false,"rental_uris":{"android":"levelo://app?vid=3d7d5458-a0b6-43a6-b226-0c22167a477d","ios":"levelo://app?vid=3d7d5458-a0b6-43a6-b226-0c22167a477d"},"vehicle_type_id":"4","last_reported":1676940145,"current_range_meters":24000,"station_id":"ce4bhb12rcd13ifvqem0","pricing_plan_id":"free"},{"bike_id":"df81ac38-54e4-4ad5-9849-060082647089","system_id":"levelo_inurba_marseille","lat":43.28856,"lon":5.358371,"is_reserved":false,"is_disabled":false,"rental_uris":{"android":"levelo://app?vid=df81ac38-54e4-4ad5-9849-060082647089","ios":"levelo://app?vid=df81ac38-54e4-4ad5-9849-060082647089"},"vehicle_type_id":"4","last_reported":1676940145,"current_range_meters":17200,"station_id":"ce4bhb12rcd13ifvqem0","pricing_plan_id":"free"},{"bike_id":"c3d70ced-b750-4bb4-bb4a-e22f6ca95137","system_id":"levelo_inurba_marseille","lat":43.28856,"lon":5.358371,"is_reserved":false,"is_disabled":false,"rental_uris":{"android":"levelo://app?vid=c3d70ced-b750-4bb4-bb4a-e22f6ca95137","ios":"levelo://app?vid=c3d70ced-b750-4bb4-bb4a-e22f6ca95137"},"vehicle_type_id":"4","last_reported":1676940145,"current_range_meters":30000,"station_id":"ce4bhb12rcd13ifvqem0","pricing_plan_id":"free"},{"bike_id":"6d9d8f1f-8441-468d-ada7-956495ee7ae4","system_id":"levelo_inurba_marseille","lat":43.28856,"lon":5.358371,"is_reserved":false,"is_disabled":false,"rental_uris":{"android":"levelo://app?vid=6d9d8f1f-8441-468d-ada7-956495ee7ae4","ios":"levelo://app?vid=6d9d8f1f-8441-468d-ada7-956495ee7ae4"},"vehicle_type_id":"4","last_reported":1676940145,"current_range_meters":18400,"station_id":"ce4bhb12rcd13ifvqem0","pricing_plan_id":"free"},{"bike_id":"5ad3c0b7-363b-436f-bbae-86652cb64e94","system_id":"levelo_inurba_marseille","lat":43.28856,"lon":5.358371,"is_reserved":false,"is_disabled":false,"rental_uris":{"android":"levelo://app?vid=5ad3c0b7-363b-436f-bbae-86652cb64e94","ios":"levelo://app?vid=5ad3c0b7-363b-436f-bbae-86652cb64e94"},"vehicle_type_id":"4","last_reported":1676940145,"current_range_meters":25200,"station_id":"ce4bhb12rcd13ifvqem0","pricing_plan_id":"free"},{"bike_id":"1147b6c2-2202-4c65-be84-a7f59128bf80","system_id":"levelo_inurba_marseille","lat":43.28856,"lon":5.358371,"is_reserved":false,"is_disabled":false,"rental_uris":{"android":"levelo://app?vid=1147b6c2-2202-4c65-be84-a7f59128bf80","ios":"levelo://app?vid=1147b6c2-2202-4c65-be84-a7f59128bf80"},"vehicle_type_id":"4","last_reported":1676940145,"current_range_meters":27200,"station_id":"ce4bhb12rcd13ifvqem0","pricing_plan_id":"free"},{"bike_id":"5ef29cf6-d8ea-4e9c-9fff-834b48643af0","system_id":"levelo_inurba_marseille","lat":43.28856,"lon":5.358371,"is_reserved":false,"is_disabled":false,"rental_uris":{"android":"levelo://app?vid=5ef29cf6-d8ea-4e9c-9fff-834b48643af0","ios":"levelo://app?vid=5ef29cf6-d8ea-4e9c-9fff-834b48643af0"},"vehicle_type_id":"4","last_reported":1676940145,"current_range_meters":24400,"station_id":"ce4bhb12rcd13ifvqem0","pricing_plan_id":"free"},{"bike_id":"e15fec03-93f5-4c49-a4dd-fb842babe59c","system_id":"levelo_inurba_marseille","lat":43.3066,"lon":5.400777,"is_reserved":false,"is_disabled":false,"rental_uris":{"android":"levelo://app?vid=e15fec03-93f5-4c49-a4dd-fb842babe59c","ios":"levelo://app?vid=e15fec03-93f5-4c49-a4dd-fb842babe59c"},"vehicle_type_id":"4","last_reported":1676940145,"current_range_meters":25600,"station_id":"ce4bh112rcd13ifvqda0","pricing_plan_id":"free"},{"bike_id":"89b35039-6e5f-4b4d-93d2-59ec10d2d6e8","system_id":"levelo_inurba_marseille","lat":43.306511,"lon":5.400751,"is_reserved":false,"is_disabled":false,"rental_uris":{"android":"levelo://app?vid=89b35039-6e5f-4b4d-93d2-59ec10d2d6e8","ios":"levelo://app?vid=89b35039-6e5f-4b4d-93d2-59ec10d2d6e8"},"vehicle_type_id":"4","last_reported":1676940145,"current_range_meters":2400,"station_id":"","pricing_plan_id":"free"},{"bike_id":"a77fd495-dcc3-4ea1-96fc-01ff114b20f9","system_id":"levelo_inurba_marseille","lat":43.306412,"lon":5.401035,"is_reserved":false,"is_disabled":false,"rental_uris":{"android":"levelo://app?vid=a77fd495-dcc3-4ea1-96fc-01ff114b20f9","ios":"levelo://app?vid=a77fd495-dcc3-4ea1-96fc-01ff114b20f9"},"vehicle_type_id":"4","last_reported":1676940145,"current_range_meters":19600,"station_id":"ce4bh112rcd13ifvqda0","pricing_plan_id":"free"},{"bike_id":"07bbd3e9-8813-4080-b461-d771f82bd647","system_id":"levelo_inurba_marseille","lat":43.306539,"lon":5.400774,"is_reserved":false,"is_disabled":false,"rental_uris":{"android":"levelo://app?vid=07bbd3e9-8813-4080-b461-d771f82bd647","ios":"levelo://app?vid=07bbd3e9-8813-4080-b461-d771f82bd647"},"vehicle_type_id":"4","last_reported":1676940145,"current_range_meters":13200,"station_id":"","pricing_plan_id":"free"},{"bike_id":"c1eb1b88-be4b-4548-a448-1f213d2be9ed","system_id":"levelo_inurba_marseille","lat":43.30642,"lon":5.401031,"is_reserved":false,"is_disabled":false,"rental_uris":{"android":"levelo://app?vid=c1eb1b88-be4b-4548-a448-1f213d2be9ed","ios":"levelo://app?vid=c1eb1b88-be4b-4548-a448-1f213d2be9ed"},"vehicle_type_id":"4","last_reported":1676940145,"current_range_meters":24400,"station_id":"ce4bh112rcd13ifvqda0","pricing_plan_id":"free"},{"bike_id":"7b69538c-e0b8-4a0f-ac72-1f2bf9b91168","system_id":"levelo_inurba_marseille","lat":43.306412,"lon":5.401035,"is_reserved":false,"is_disabled":false,"rental_uris":{"android":"levelo://app?vid=7b69538c-e0b8-4a0f-ac72-1f2bf9b91168","ios":"levelo://app?vid=7b69538c-e0b8-4a0f-ac72-1f2bf9b91168"},"vehicle_type_id":"4","last_reported":1676940145,"current_range_meters":24800,"station_id":"ce4bh112rcd13ifvqda0","pricing_plan_id":"free"},{"bike_id":"32cf081f-68ff-443b-8aaf-7457c46559f1","system_id":"levelo_inurba_marseille","lat":43.306553,"lon":5.4008,"is_reserved":false,"is_disabled":false,"rental_uris":{"android":"levelo://app?vid=32cf081f-68ff-443b-8aaf-7457c46559f1","ios":"levelo://app?vid=32cf081f-68ff-443b-8aaf-7457c46559f1"},"vehicle_type_id":"4","last_reported":1676940145,"current_range_meters":19600,"station_id":"","pricing_plan_id":"free"},{"bike_id":"4078e38c-5190-4372-8447-a2aaba5f498b","system_id":"levelo_inurba_marseille","lat":43.306471,"lon":5.400774,"is_reserved":false,"is_disabled":false,"rental_uris":{"android":"levelo://app?vid=4078e38c-5190-4372-8447-a2aaba5f498b","ios":"levelo://app?vid=4078e38c-5190-4372-8447-a2aaba5f498b"},"vehicle_type_id":"4","last_reported":1676940145,"current_range_meters":18000,"station_id":"","pricing_plan_id":"free"},{"bike_id":"249c47cb-5dcf-495a-b20c-20081b998dd9","system_id":"levelo_inurba_marseille","lat":43.30642,"lon":5.401031,"is_reserved":false,"is_disabled":false,"rental_uris":{"android":"levelo://app?vid=249c47cb-5dcf-495a-b20c-20081b998dd9","ios":"levelo://app?vid=249c47cb-5dcf-495a-b20c-20081b998dd9"},"vehicle_type_id":"4","last_reported":1676940145,"current_range_meters":12400,"station_id":"ce4bh112rcd13ifvqda0","pricing_plan_id":"free"},{"bike_id":"65ef0d4d-2589-4c0f-b708-5712e0726151","system_id":"levelo_inurba_marseille","lat":43.301117,"lon":5.398795,"is_reserved":false,"is_disabled":false,"rental_uris":{"android":"levelo://app?vid=65ef0d4d-2589-4c0f-b708-5712e0726151","ios":"levelo://app?vid=65ef0d4d-2589-4c0f-b708-5712e0726151"},"vehicle_type_id":"4","last_reported":1676940145,"current_range_meters":13200,"station_id":"ce4bh0h2rcd13ifvqd40","pricing_plan_id":"free"},{"bike_id":"247f058d-61a3-4b04-b9e7-c8b571f1cf5f","system_id":"levelo_inurba_marseille","lat":43.301117,"lon":5.398795,"is_reserved":false,"is_disabled":false,"rental_uris":{"android":"levelo://app?vid=247f058d-61a3-4b04-b9e7-c8b571f1cf5f","ios":"levelo://app?vid=247f058d-61a3-4b04-b9e7-c8b571f1cf5f"},"vehicle_type_id":"4","last_reported":1676940145,"current_range_meters":19200,"station_id":"ce4bh0h2rcd13ifvqd40","pricing_plan_id":"free"},{"bike_id":"34a60612-4ee1-42aa-b98a-ca31d219cfa3","system_id":"levelo_inurba_marseille","lat":43.3013,"lon":5.39877,"is_reserved":false,"is_disabled":false,"rental_uris":{"android":"levelo://app?vid=34a60612-4ee1-42aa-b98a-ca31d219cfa3","ios":"levelo://app?vid=34a60612-4ee1-42aa-b98a-ca31d219cfa3"},"vehicle_type_id":"4","last_reported":1676940145,"current_range_meters":17600,"station_id":"ce4bh0h2rcd13ifvqd40","pricing_plan_id":"free"},{"bike_id":"9069b1ef-b106-4b4e-9659-6f972909013d","system_id":"levelo_inurba_marseille","lat":43.30133,"lon":5.3988,"is_reserved":false,"is_disabled":false,"rental_uris":{"android":"levelo://app?vid=9069b1ef-b106-4b4e-9659-6f972909013d","ios":"levelo://app?vid=9069b1ef-b106-4b4e-9659-6f972909013d"},"vehicle_type_id":"4","last_reported":1676940145,"current_range_meters":13600,"station_id":"","pricing_plan_id":"free"},{"bike_id":"861d6603-2c7d-42ca-81b0-b674f69aac86","system_id":"levelo_inurba_marseille","lat":43.301357,"lon":5.398837,"is_reserved":false,"is_disabled":false,"rental_uris":{"android":"levelo://app?vid=861d6603-2c7d-42ca-81b0-b674f69aac86","ios":"levelo://app?vid=861d6603-2c7d-42ca-81b0-b674f69aac86"},"vehicle_type_id":"4","last_reported":1676940145,"current_range_meters":23200,"station_id":"ce4bh0h2rcd13ifvqd40","pricing_plan_id":"free"},{"bike_id":"91bb722d-245a-434c-bcca-3c909f93e532","system_id":"levelo_inurba_marseille","lat":43.301117,"lon":5.398795,"is_reserved":false,"is_disabled":false,"rental_uris":{"android":"levelo://app?vid=91bb722d-245a-434c-bcca-3c909f93e532","ios":"levelo://app?vid=91bb722d-245a-434c-bcca-3c909f93e532"},"vehicle_type_id":"4","last_reported":1676940145,"current_range_meters":29600,"station_id":"ce4bh0h2rcd13ifvqd40","pricing_plan_id":"free"},{"bike_id":"6a8d7ea9-619c-40c4-a73c-466346abd3c1","system_id":"levelo_inurba_marseille","lat":43.298681,"lon":5.397225,"is_reserved":false,"is_disabled":false,"rental_uris":{"android":"levelo://app?vid=6a8d7ea9-619c-40c4-a73c-466346abd3c1","ios":"levelo://app?vid=6a8d7ea9-619c-40c4-a73c-466346abd3c1"},"vehicle_type_id":"4","last_reported":1676940145,"current_range_meters":23600,"station_id":"ce4bh0h2rcd13ifvqd50","pricing_plan_id":"free"},{"bike_id":"f7a6c4a6-99e5-414b-a02b-3a68b708498a","system_id":"levelo_inurba_marseille","lat":43.298681,"lon":5.397225,"is_reserved":false,"is_disabled":false,"rental_uris":{"android":"levelo://app?vid=f7a6c4a6-99e5-414b-a02b-3a68b708498a","ios":"levelo://app?vid=f7a6c4a6-99e5-414b-a02b-3a68b708498a"},"vehicle_type_id":"4","last_reported":1676940145,"current_range_meters":21600,"station_id":"ce4bh0h2rcd13ifvqd50","pricing_plan_id":"free"},{"bike_id":"e9020db7-f455-4d44-9f94-2dc6873ec9f8","system_id":"levelo_inurba_marseille","lat":43.298681,"lon":5.397225,"is_reserved":false,"is_disabled":false,"rental_uris":{"android":"levelo://app?vid=e9020db7-f455-4d44-9f94-2dc6873ec9f8","ios":"levelo://app?vid=e9020db7-f455-4d44-9f94-2dc6873ec9f8"},"vehicle_type_id":"4","last_reported":1676940145,"current_range_meters":14800,"station_id":"ce4bh0h2rcd13ifvqd50","pricing_plan_id":"free"},{"bike_id":"b31170ac-0a18-463a-a214-9a6b4eb35bae","system_id":"levelo_inurba_marseille","lat":43.298681,"lon":5.397225,"is_reserved":false,"is_disabled":false,"rental_uris":{"android":"levelo://app?vid=b31170ac-0a18-463a-a214-9a6b4eb35bae","ios":"levelo://app?vid=b31170ac-0a18-463a-a214-9a6b4eb35bae"},"vehicle_type_id":"4","last_reported":1676940145,"current_range_meters":14000,"station_id":"ce4bh0h2rcd13ifvqd50","pricing_plan_id":"free"},{"bike_id":"489fa852-c91b-4f67-a2f8-308ff236d625","system_id":"levelo_inurba_marseille","lat":43.298681,"lon":5.397225,"is_reserved":false,"is_disabled":false,"rental_uris":{"android":"levelo://app?vid=489fa852-c91b-4f67-a2f8-308ff236d625","ios":"levelo://app?vid=489fa852-c91b-4f67-a2f8-308ff236d625"},"vehicle_type_id":"4","last_reported":1676940145,"current_range_meters":31200,"station_id":"ce4bh0h2rcd13ifvqd50","pricing_plan_id":"free"},{"bike_id":"c49cacc3-0a92-41d5-a463-cc03da95ab62","system_id":"levelo_inurba_marseille","lat":43.298681,"lon":5.397225,"is_reserved":false,"is_disabled":false,"rental_uris":{"android":"levelo://app?vid=c49cacc3-0a92-41d5-a463-cc03da95ab62","ios":"levelo://app?vid=c49cacc3-0a92-41d5-a463-cc03da95ab62"},"vehicle_type_id":"4","last_reported":1676940145,"current_range_meters":6800,"station_id":"ce4bh0h2rcd13ifvqd50","pricing_plan_id":"free"},{"bike_id":"637b20d2-bca0-43ed-ad27-3fed273f270f","system_id":"levelo_inurba_marseille","lat":43.295213,"lon":5.393927,"is_reserved":false,"is_disabled":false,"rental_uris":{"android":"levelo://app?vid=637b20d2-bca0-43ed-ad27-3fed273f270f","ios":"levelo://app?vid=637b20d2-bca0-43ed-ad27-3fed273f270f"},"vehicle_type_id":"4","last_reported":1676940145,"current_range_meters":12800,"station_id":"ce4bh212rcd13ifvqde0","pricing_plan_id":"free"},{"bike_id":"074adefd-8dac-47a4-8b4c-4f9c216dd63b","system_id":"levelo_inurba_marseille","lat":43.295248,"lon":5.394019,"is_reserved":false,"is_disabled":false,"rental_uris":{"android":"levelo://app?vid=074adefd-8dac-47a4-8b4c-4f9c216dd63b","ios":"levelo://app?vid=074adefd-8dac-47a4-8b4c-4f9c216dd63b"},"vehicle_type_id":"4","last_reported":1676940145,"current_range_meters":27600,"station_id":"ce4bh212rcd13ifvqde0","pricing_plan_id":"free"},{"bike_id":"f5106d28-afd5-44f0-b970-f70197a9d32f","system_id":"levelo_inurba_marseille","lat":43.295244,"lon":5.394031,"is_reserved":false,"is_disabled":false,"rental_uris":{"android":"levelo://app?vid=f5106d28-afd5-44f0-b970-f70197a9d32f","ios":"levelo://app?vid=f5106d28-afd5-44f0-b970-f70197a9d32f"},"vehicle_type_id":"4","last_reported":1676940145,"current_range_meters":31600,"station_id":"ce4bh212rcd13ifvqde0","pricing_plan_id":"free"},{"bike_id":"1cc2df88-35bc-4666-a9a5-c55964151e6b","system_id":"levelo_inurba_marseille","lat":43.295225,"lon":5.39402,"is_reserved":false,"is_disabled":false,"rental_uris":{"android":"levelo://app?vid=1cc2df88-35bc-4666-a9a5-c55964151e6b","ios":"levelo://app?vid=1cc2df88-35bc-4666-a9a5-c55964151e6b"},"vehicle_type_id":"4","last_reported":1676940145,"current_range_meters":9200,"station_id":"ce4bh212rcd13ifvqde0","pricing_plan_id":"free"},{"bike_id":"8f5628ac-2e4f-4e29-a13d-8dc4adbf2a31","system_id":"levelo_inurba_marseille","lat":43.295214,"lon":5.394009,"is_reserved":false,"is_disabled":false,"rental_uris":{"android":"levelo://app?vid=8f5628ac-2e4f-4e29-a13d-8dc4adbf2a31","ios":"levelo://app?vid=8f5628ac-2e4f-4e29-a13d-8dc4adbf2a31"},"vehicle_type_id":"4","last_reported":1676940145,"current_range_meters":5200,"station_id":"ce4bh212rcd13ifvqde0","pricing_plan_id":"free"},{"bike_id":"5960e9b5-3310-4ea0-8967-35c2c8f75588","system_id":"levelo_inurba_marseille","lat":43.29522,"lon":5.394037,"is_reserved":false,"is_disabled":false,"rental_uris":{"android":"levelo://app?vid=5960e9b5-3310-4ea0-8967-35c2c8f75588","ios":"levelo://app?vid=5960e9b5-3310-4ea0-8967-35c2c8f75588"},"vehicle_type_id":"4","last_reported":1676940145,"current_range_meters":26800,"station_id":"ce4bh212rcd13ifvqde0","pricing_plan_id":"free"},{"bike_id":"b1e7d179-8289-409c-837c-54c8b32129a6","system_id":"levelo_inurba_marseille","lat":43.295233,"lon":5.394066,"is_reserved":false,"is_disabled":false,"rental_uris":{"android":"levelo://app?vid=b1e7d179-8289-409c-837c-54c8b32129a6","ios":"levelo://app?vid=b1e7d179-8289-409c-837c-54c8b32129a6"},"vehicle_type_id":"4","last_reported":1676940145,"current_range_meters":31600,"station_id":"ce4bh212rcd13ifvqde0","pricing_plan_id":"free"},{"bike_id":"63d0b890-54ff-495d-93ac-ccaddd883704","system_id":"levelo_inurba_marseille","lat":43.29522,"lon":5.39406,"is_reserved":false,"is_disabled":false,"rental_uris":{"android":"levelo://app?vid=63d0b890-54ff-495d-93ac-ccaddd883704","ios":"levelo://app?vid=63d0b890-54ff-495d-93ac-ccaddd883704"},"vehicle_type_id":"4","last_reported":1676940145,"current_range_meters":12800,"station_id":"ce4bh212rcd13ifvqde0","pricing_plan_id":"free"},{"bike_id":"64f782d3-fb40-4fbf-9b47-5fb233d6f492","system_id":"levelo_inurba_marseille","lat":43.29517,"lon":5.39401,"is_reserved":false,"is_disabled":false,"rental_uris":{"android":"levelo://app?vid=64f782d3-fb40-4fbf-9b47-5fb233d6f492","ios":"levelo://app?vid=64f782d3-fb40-4fbf-9b47-5fb233d6f492"},"vehicle_type_id":"4","last_reported":1676940145,"current_range_meters":0,"station_id":"ce4bh212rcd13ifvqde0","pricing_plan_id":"free"},{"bike_id":"5ec5b13f-73d9-4a5c-8648-40df7a5078cf","system_id":"levelo_inurba_marseille","lat":43.295176,"lon":5.394021,"is_reserved":false,"is_disabled":false,"rental_uris":{"android":"levelo://app?vid=5ec5b13f-73d9-4a5c-8648-40df7a5078cf","ios":"levelo://app?vid=5ec5b13f-73d9-4a5c-8648-40df7a5078cf"},"vehicle_type_id":"4","last_reported":1676940145,"current_range_meters":6000,"station_id":"ce4bh212rcd13ifvqde0","pricing_plan_id":"free"},{"bike_id":"7b924db6-e78c-423b-94d1-7ef47e00d6dc","system_id":"levelo_inurba_marseille","lat":43.29521,"lon":5.394064,"is_reserved":false,"is_disabled":false,"rental_uris":{"android":"levelo://app?vid=7b924db6-e78c-423b-94d1-7ef47e00d6dc","ios":"levelo://app?vid=7b924db6-e78c-423b-94d1-7ef47e00d6dc"},"vehicle_type_id":"4","last_reported":1676940145,"current_range_meters":30800,"station_id":"ce4bh212rcd13ifvqde0","pricing_plan_id":"free"},{"bike_id":"ab515a50-eeb7-47bc-bc0a-be3693fbf160","system_id":"levelo_inurba_marseille","lat":43.295185,"lon":5.3941,"is_reserved":false,"is_disabled":false,"rental_uris":{"android":"levelo://app?vid=ab515a50-eeb7-47bc-bc0a-be3693fbf160","ios":"levelo://app?vid=ab515a50-eeb7-47bc-bc0a-be3693fbf160"},"vehicle_type_id":"4","last_reported":1676940145,"current_range_meters":15600,"station_id":"ce4bh212rcd13ifvqde0","pricing_plan_id":"free"},{"bike_id":"5945995e-2c90-44d0-9cc5-3b892cc647eb","system_id":"levelo_inurba_marseille","lat":43.302573,"lon":5.400548,"is_reserved":false,"is_disabled":false,"rental_uris":{"android":"levelo://app?vid=5945995e-2c90-44d0-9cc5-3b892cc647eb","ios":"levelo://app?vid=5945995e-2c90-44d0-9cc5-3b892cc647eb"},"vehicle_type_id":"4","last_reported":1676940145,"current_range_meters":11200,"station_id":"","pricing_plan_id":"free"},{"bike_id":"a2dc91e3-bfd1-41cd-9b16-55fd1456ed69","system_id":"levelo_inurba_marseille","lat":43.29031,"lon":5.38644,"is_reserved":false,"is_disabled":false,"rental_uris":{"android":"levelo://app?vid=a2dc91e3-bfd1-41cd-9b16-55fd1456ed69","ios":"levelo://app?vid=a2dc91e3-bfd1-41cd-9b16-55fd1456ed69"},"vehicle_type_id":"4","last_reported":1676940145,"current_range_meters":12000,"station_id":"","pricing_plan_id":"free"},{"bike_id":"7cda6621-6da0-4ef2-82c1-d55e4f3c0747","system_id":"levelo_inurba_marseille","lat":43.30257,"lon":5.40063,"is_reserved":false,"is_disabled":false,"rental_uris":{"android":"levelo://app?vid=7cda6621-6da0-4ef2-82c1-d55e4f3c0747","ios":"levelo://app?vid=7cda6621-6da0-4ef2-82c1-d55e4f3c0747"},"vehicle_type_id":"4","last_reported":1676940145,"current_range_meters":10000,"station_id":"","pricing_plan_id":"free"},{"bike_id":"a4ddb93c-23bb-4738-8a86-cd48adac6e1b","system_id":"levelo_inurba_marseille","lat":43.302452,"lon":5.400575,"is_reserved":false,"is_disabled":false,"rental_uris":{"android":"levelo://app?vid=a4ddb93c-23bb-4738-8a86-cd48adac6e1b","ios":"levelo://app?vid=a4ddb93c-23bb-4738-8a86-cd48adac6e1b"},"vehicle_type_id":"4","last_reported":1676940145,"current_range_meters":24000,"station_id":"","pricing_plan_id":"free"},{"bike_id":"ddb7d64b-b053-4d31-8f5b-72725e6cfaae","system_id":"levelo_inurba_marseille","lat":43.302432,"lon":5.400577,"is_reserved":false,"is_disabled":false,"rental_uris":{"android":"levelo://app?vid=ddb7d64b-b053-4d31-8f5b-72725e6cfaae","ios":"levelo://app?vid=ddb7d64b-b053-4d31-8f5b-72725e6cfaae"},"vehicle_type_id":"4","last_reported":1676940145,"current_range_meters":28400,"station_id":"ce4bgvh2rcd13ifvqcs0","pricing_plan_id":"free"},{"bike_id":"fbc898e2-216f-44b9-8a5d-3eff87131ac1","system_id":"levelo_inurba_marseille","lat":43.302759,"lon":5.400793,"is_reserved":false,"is_disabled":false,"rental_uris":{"android":"levelo://app?vid=fbc898e2-216f-44b9-8a5d-3eff87131ac1","ios":"levelo://app?vid=fbc898e2-216f-44b9-8a5d-3eff87131ac1"},"vehicle_type_id":"4","last_reported":1676940145,"current_range_meters":5600,"station_id":"ce4bgvh2rcd13ifvqcs0","pricing_plan_id":"free"},{"bike_id":"9a50cd7d-3235-42c3-a6e4-699f17d73498","system_id":"levelo_inurba_marseille","lat":43.302759,"lon":5.400793,"is_reserved":false,"is_disabled":false,"rental_uris":{"android":"levelo://app?vid=9a50cd7d-3235-42c3-a6e4-699f17d73498","ios":"levelo://app?vid=9a50cd7d-3235-42c3-a6e4-699f17d73498"},"vehicle_type_id":"4","last_reported":1676940145,"current_range_meters":29200,"station_id":"ce4bgvh2rcd13ifvqcs0","pricing_plan_id":"free"},{"bike_id":"6cce9e5b-be48-4f71-9655-8f3c97b32138","system_id":"levelo_inurba_marseille","lat":43.286039,"lon":5.370679,"is_reserved":false,"is_disabled":false,"rental_uris":{"android":"levelo://app?vid=6cce9e5b-be48-4f71-9655-8f3c97b32138","ios":"levelo://app?vid=6cce9e5b-be48-4f71-9655-8f3c97b32138"},"vehicle_type_id":"4","last_reported":1676940145,"current_range_meters":6800,"station_id":"ce4bht12rcd13ifvqi60","pricing_plan_id":"free"},{"bike_id":"94b9b4a3-1492-4691-afb7-dc1c562eff11","system_id":"levelo_inurba_marseille","lat":43.286039,"lon":5.370679,"is_reserved":false,"is_disabled":false,"rental_uris":{"android":"levelo://app?vid=94b9b4a3-1492-4691-afb7-dc1c562eff11","ios":"levelo://app?vid=94b9b4a3-1492-4691-afb7-dc1c562eff11"},"vehicle_type_id":"4","last_reported":1676940145,"current_range_meters":18400,"station_id":"ce4bht12rcd13ifvqi60","pricing_plan_id":"free"},{"bike_id":"a26d55e1-7d7c-4169-93ca-4d9dad65472c","system_id":"levelo_inurba_marseille","lat":43.286039,"lon":5.370679,"is_reserved":false,"is_disabled":false,"rental_uris":{"android":"levelo://app?vid=a26d55e1-7d7c-4169-93ca-4d9dad65472c","ios":"levelo://app?vid=a26d55e1-7d7c-4169-93ca-4d9dad65472c"},"vehicle_type_id":"4","last_reported":1676940145,"current_range_meters":10800,"station_id":"ce4bht12rcd13ifvqi60","pricing_plan_id":"free"},{"bike_id":"c22dacc1-6edd-44b9-b047-6194595f746b","system_id":"levelo_inurba_marseille","lat":43.286039,"lon":5.370679,"is_reserved":false,"is_disabled":false,"rental_uris":{"android":"levelo://app?vid=c22dacc1-6edd-44b9-b047-6194595f746b","ios":"levelo://app?vid=c22dacc1-6edd-44b9-b047-6194595f746b"},"vehicle_type_id":"4","last_reported":1676940145,"current_range_meters":4800,"station_id":"ce4bht12rcd13ifvqi60","pricing_plan_id":"free"},{"bike_id":"b41e6261-a7a5-45a5-9994-f80cf023833a","system_id":"levelo_inurba_marseille","lat":43.286039,"lon":5.370679,"is_reserved":false,"is_disabled":false,"rental_uris":{"android":"levelo://app?vid=b41e6261-a7a5-45a5-9994-f80cf023833a","ios":"levelo://app?vid=b41e6261-a7a5-45a5-9994-f80cf023833a"},"vehicle_type_id":"4","last_reported":1676940145,"current_range_meters":20800,"station_id":"ce4bht12rcd13ifvqi60","pricing_plan_id":"free"},{"bike_id":"57a2fc3c-64d1-494d-a87a-16c6acbc0fc0","system_id":"levelo_inurba_marseille","lat":43.287184,"lon":5.37937,"is_reserved":false,"is_disabled":false,"rental_uris":{"android":"levelo://app?vid=57a2fc3c-64d1-494d-a87a-16c6acbc0fc0","ios":"levelo://app?vid=57a2fc3c-64d1-494d-a87a-16c6acbc0fc0"},"vehicle_type_id":"4","last_reported":1676940145,"current_range_meters":18800,"station_id":"ce4bh9p2rcd13ifvqec0","pricing_plan_id":"free"},{"bike_id":"7098ed58-de92-4550-b2de-54bcbe4afbab","system_id":"levelo_inurba_marseille","lat":43.287217,"lon":5.379413,"is_reserved":false,"is_disabled":false,"rental_uris":{"android":"levelo://app?vid=7098ed58-de92-4550-b2de-54bcbe4afbab","ios":"levelo://app?vid=7098ed58-de92-4550-b2de-54bcbe4afbab"},"vehicle_type_id":"4","last_reported":1676940145,"current_range_meters":23200,"station_id":"","pricing_plan_id":"free"},{"bike_id":"fb5cffa4-21b5-4b2c-a42a-9f4121840f0e","system_id":"levelo_inurba_marseille","lat":43.287203,"lon":5.37943,"is_reserved":false,"is_disabled":false,"rental_uris":{"android":"levelo://app?vid=fb5cffa4-21b5-4b2c-a42a-9f4121840f0e","ios":"levelo://app?vid=fb5cffa4-21b5-4b2c-a42a-9f4121840f0e"},"vehicle_type_id":"4","last_reported":1676940145,"current_range_meters":16000,"station_id":"","pricing_plan_id":"free"},{"bike_id":"b41b6470-70a0-44fc-8922-4a8615aa61eb","system_id":"levelo_inurba_marseille","lat":43.287165,"lon":5.379336,"is_reserved":false,"is_disabled":false,"rental_uris":{"android":"levelo://app?vid=b41b6470-70a0-44fc-8922-4a8615aa61eb","ios":"levelo://app?vid=b41b6470-70a0-44fc-8922-4a8615aa61eb"},"vehicle_type_id":"4","last_reported":1676940145,"current_range_meters":0,"station_id":"ce4bh9p2rcd13ifvqec0","pricing_plan_id":"free"},{"bike_id":"10f154f6-7b9f-4089-9467-b5dd466bba84","system_id":"levelo_inurba_marseille","lat":43.28716,"lon":5.37938,"is_reserved":false,"is_disabled":false,"rental_uris":{"android":"levelo://app?vid=10f154f6-7b9f-4089-9467-b5dd466bba84","ios":"levelo://app?vid=10f154f6-7b9f-4089-9467-b5dd466bba84"},"vehicle_type_id":"4","last_reported":1676940145,"current_range_meters":23600,"station_id":"","pricing_plan_id":"free"},{"bike_id":"c200d498-c068-451b-9677-993f84a30f9b","system_id":"levelo_inurba_marseille","lat":43.28715,"lon":5.379367,"is_reserved":false,"is_disabled":false,"rental_uris":{"android":"levelo://app?vid=c200d498-c068-451b-9677-993f84a30f9b","ios":"levelo://app?vid=c200d498-c068-451b-9677-993f84a30f9b"},"vehicle_type_id":"4","last_reported":1676940145,"current_range_meters":0,"station_id":"","pricing_plan_id":"free"},{"bike_id":"16e0f97e-9fd4-4b2c-987b-a4e1458e2f06","system_id":"levelo_inurba_marseille","lat":43.287141,"lon":5.379484,"is_reserved":false,"is_disabled":false,"rental_uris":{"android":"levelo://app?vid=16e0f97e-9fd4-4b2c-987b-a4e1458e2f06","ios":"levelo://app?vid=16e0f97e-9fd4-4b2c-987b-a4e1458e2f06"},"vehicle_type_id":"4","last_reported":1676940145,"current_range_meters":0,"station_id":"ce4bh9p2rcd13ifvqec0","pricing_plan_id":"free"},{"bike_id":"7da5f5a1-c759-46e8-9281-f452b1f1958f","system_id":"levelo_inurba_marseille","lat":43.287121,"lon":5.379444,"is_reserved":false,"is_disabled":false,"rental_uris":{"android":"levelo://app?vid=7da5f5a1-c759-46e8-9281-f452b1f1958f","ios":"levelo://app?vid=7da5f5a1-c759-46e8-9281-f452b1f1958f"},"vehicle_type_id":"4","last_reported":1676940145,"current_range_meters":0,"station_id":"","pricing_plan_id":"free"},{"bike_id":"c2d3c2e5-e1b8-4b7b-aee3-de205598cf5f","system_id":"levelo_inurba_marseille","lat":43.31645,"lon":5.40437,"is_reserved":false,"is_disabled":false,"rental_uris":{"android":"levelo://app?vid=c2d3c2e5-e1b8-4b7b-aee3-de205598cf5f","ios":"levelo://app?vid=c2d3c2e5-e1b8-4b7b-aee3-de205598cf5f"},"vehicle_type_id":"4","last_reported":1676940145,"current_range_meters":22800,"station_id":"ce4bh012rcd13ifvqd00","pricing_plan_id":"free"},{"bike_id":"612e0587-4191-48b1-bbec-cecb5f3ccd48","system_id":"levelo_inurba_marseille","lat":43.316416,"lon":5.404381,"is_reserved":false,"is_disabled":false,"rental_uris":{"android":"levelo://app?vid=612e0587-4191-48b1-bbec-cecb5f3ccd48","ios":"levelo://app?vid=612e0587-4191-48b1-bbec-cecb5f3ccd48"},"vehicle_type_id":"4","last_reported":1676940145,"current_range_meters":18000,"station_id":"","pricing_plan_id":"free"},{"bike_id":"3430dee9-a277-497e-8c56-8610e1fdb028","system_id":"levelo_inurba_marseille","lat":43.316517,"lon":5.404375,"is_reserved":false,"is_disabled":false,"rental_uris":{"android":"levelo://app?vid=3430dee9-a277-497e-8c56-8610e1fdb028","ios":"levelo://app?vid=3430dee9-a277-497e-8c56-8610e1fdb028"},"vehicle_type_id":"4","last_reported":1676940145,"current_range_meters":3600,"station_id":"ce4bh012rcd13ifvqd00","pricing_plan_id":"free"},{"bike_id":"a9193429-9004-4ff7-a258-7a996465ec38","system_id":"levelo_inurba_marseille","lat":43.316517,"lon":5.404375,"is_reserved":false,"is_disabled":false,"rental_uris":{"android":"levelo://app?vid=a9193429-9004-4ff7-a258-7a996465ec38","ios":"levelo://app?vid=a9193429-9004-4ff7-a258-7a996465ec38"},"vehicle_type_id":"4","last_reported":1676940145,"current_range_meters":22000,"station_id":"ce4bh012rcd13ifvqd00","pricing_plan_id":"free"},{"bike_id":"a8f36528-ab5f-47cb-aeb9-4ab289aca4e6","system_id":"levelo_inurba_marseille","lat":43.316517,"lon":5.404375,"is_reserved":false,"is_disabled":false,"rental_uris":{"android":"levelo://app?vid=a8f36528-ab5f-47cb-aeb9-4ab289aca4e6","ios":"levelo://app?vid=a8f36528-ab5f-47cb-aeb9-4ab289aca4e6"},"vehicle_type_id":"4","last_reported":1676940145,"current_range_meters":14000,"station_id":"ce4bh012rcd13ifvqd00","pricing_plan_id":"free"},{"bike_id":"dcdc2109-8b23-4856-93d5-458865a8fe02","system_id":"levelo_inurba_marseille","lat":43.3164,"lon":5.40441,"is_reserved":false,"is_disabled":false,"rental_uris":{"android":"levelo://app?vid=dcdc2109-8b23-4856-93d5-458865a8fe02","ios":"levelo://app?vid=dcdc2109-8b23-4856-93d5-458865a8fe02"},"vehicle_type_id":"4","last_reported":1676940145,"current_range_meters":18800,"station_id":"ce4bh012rcd13ifvqd00","pricing_plan_id":"free"},{"bike_id":"cf4bcc7f-437f-44f7-84fa-3f9a8eabbf5d","system_id":"levelo_inurba_marseille","lat":43.316517,"lon":5.404375,"is_reserved":false,"is_disabled":false,"rental_uris":{"android":"levelo://app?vid=cf4bcc7f-437f-44f7-84fa-3f9a8eabbf5d","ios":"levelo://app?vid=cf4bcc7f-437f-44f7-84fa-3f9a8eabbf5d"},"vehicle_type_id":"4","last_reported":1676940145,"current_range_meters":27200,"station_id":"ce4bh012rcd13ifvqd00","pricing_plan_id":"free"},{"bike_id":"2c9ab700-f53a-4660-a1bc-9c0464d8b6a5","system_id":"levelo_inurba_marseille","lat":43.31645,"lon":5.40441,"is_reserved":false,"is_disabled":false,"rental_uris":{"android":"levelo://app?vid=2c9ab700-f53a-4660-a1bc-9c0464d8b6a5","ios":"levelo://app?vid=2c9ab700-f53a-4660-a1bc-9c0464d8b6a5"},"vehicle_type_id":"4","last_reported":1676940145,"current_range_meters":10000,"station_id":"ce4bh012rcd13ifvqd00","pricing_plan_id":"free"},{"bike_id":"3bd888f9-57f3-486a-8c81-1a23e083154d","system_id":"levelo_inurba_marseille","lat":43.316517,"lon":5.404375,"is_reserved":false,"is_disabled":false,"rental_uris":{"android":"levelo://app?vid=3bd888f9-57f3-486a-8c81-1a23e083154d","ios":"levelo://app?vid=3bd888f9-57f3-486a-8c81-1a23e083154d"},"vehicle_type_id":"4","last_reported":1676940145,"current_range_meters":26800,"station_id":"ce4bh012rcd13ifvqd00","pricing_plan_id":"free"},{"bike_id":"b253af5e-2f95-403b-8a1b-f9897ce2ffe5","system_id":"levelo_inurba_marseille","lat":43.316517,"lon":5.404375,"is_reserved":false,"is_disabled":false,"rental_uris":{"android":"levelo://app?vid=b253af5e-2f95-403b-8a1b-f9897ce2ffe5","ios":"levelo://app?vid=b253af5e-2f95-403b-8a1b-f9897ce2ffe5"},"vehicle_type_id":"4","last_reported":1676940145,"current_range_meters":26400,"station_id":"ce4bh012rcd13ifvqd00","pricing_plan_id":"free"},{"bike_id":"5db713fe-8a64-4adf-b891-21857fee4221","system_id":"levelo_inurba_marseille","lat":43.284663,"lon":5.358883,"is_reserved":false,"is_disabled":false,"rental_uris":{"android":"levelo://app?vid=5db713fe-8a64-4adf-b891-21857fee4221","ios":"levelo://app?vid=5db713fe-8a64-4adf-b891-21857fee4221"},"vehicle_type_id":"4","last_reported":1676940145,"current_range_meters":17600,"station_id":"","pricing_plan_id":"free"},{"bike_id":"229bc382-e3f4-4dae-a981-0178b90974de","system_id":"levelo_inurba_marseille","lat":43.28466,"lon":5.3589,"is_reserved":false,"is_disabled":false,"rental_uris":{"android":"levelo://app?vid=229bc382-e3f4-4dae-a981-0178b90974de","ios":"levelo://app?vid=229bc382-e3f4-4dae-a981-0178b90974de"},"vehicle_type_id":"4","last_reported":1676940145,"current_range_meters":7600,"station_id":"","pricing_plan_id":"free"},{"bike_id":"a8e6966c-93e5-4cb9-96a4-135c60dac56b","system_id":"levelo_inurba_marseille","lat":43.284643,"lon":5.358905,"is_reserved":false,"is_disabled":false,"rental_uris":{"android":"levelo://app?vid=a8e6966c-93e5-4cb9-96a4-135c60dac56b","ios":"levelo://app?vid=a8e6966c-93e5-4cb9-96a4-135c60dac56b"},"vehicle_type_id":"4","last_reported":1676940145,"current_range_meters":2400,"station_id":"","pricing_plan_id":"free"},{"bike_id":"a54477e7-837f-4d93-845e-2a5adb39f2e1","system_id":"levelo_inurba_marseille","lat":43.28465,"lon":5.35885,"is_reserved":false,"is_disabled":false,"rental_uris":{"android":"levelo://app?vid=a54477e7-837f-4d93-845e-2a5adb39f2e1","ios":"levelo://app?vid=a54477e7-837f-4d93-845e-2a5adb39f2e1"},"vehicle_type_id":"4","last_reported":1676940145,"current_range_meters":17600,"station_id":"","pricing_plan_id":"free"},{"bike_id":"7bcaaef7-05a7-40df-91b1-9b3caa8c1a29","system_id":"levelo_inurba_marseille","lat":43.284534,"lon":5.358662,"is_reserved":false,"is_disabled":false,"rental_uris":{"android":"levelo://app?vid=7bcaaef7-05a7-40df-91b1-9b3caa8c1a29","ios":"levelo://app?vid=7bcaaef7-05a7-40df-91b1-9b3caa8c1a29"},"vehicle_type_id":"4","last_reported":1676940145,"current_range_meters":18400,"station_id":"ce4bhah2rcd13ifvqei0","pricing_plan_id":"free"},{"bike_id":"4de0e4f8-0a98-4876-8b88-0f0701f91fae","system_id":"levelo_inurba_marseille","lat":43.28463,"lon":5.3589,"is_reserved":false,"is_disabled":false,"rental_uris":{"android":"levelo://app?vid=4de0e4f8-0a98-4876-8b88-0f0701f91fae","ios":"levelo://app?vid=4de0e4f8-0a98-4876-8b88-0f0701f91fae"},"vehicle_type_id":"4","last_reported":1676940145,"current_range_meters":26400,"station_id":"","pricing_plan_id":"free"},{"bike_id":"99446bbd-1330-4fda-a7c0-4d65a35b5829","system_id":"levelo_inurba_marseille","lat":43.284626,"lon":5.358918,"is_reserved":false,"is_disabled":false,"rental_uris":{"android":"levelo://app?vid=99446bbd-1330-4fda-a7c0-4d65a35b5829","ios":"levelo://app?vid=99446bbd-1330-4fda-a7c0-4d65a35b5829"},"vehicle_type_id":"4","last_reported":1676940145,"current_range_meters":18000,"station_id":"","pricing_plan_id":"free"},{"bike_id":"abcbecbb-b762-4988-86f0-1479137f2ffc","system_id":"levelo_inurba_marseille","lat":43.284633,"lon":5.358865,"is_reserved":false,"is_disabled":false,"rental_uris":{"android":"levelo://app?vid=abcbecbb-b762-4988-86f0-1479137f2ffc","ios":"levelo://app?vid=abcbecbb-b762-4988-86f0-1479137f2ffc"},"vehicle_type_id":"4","last_reported":1676940145,"current_range_meters":15600,"station_id":"","pricing_plan_id":"free"},{"bike_id":"af56310b-5fec-44c6-9e13-8135e99da67c","system_id":"levelo_inurba_marseille","lat":43.2846,"lon":5.35903,"is_reserved":false,"is_disabled":false,"rental_uris":{"android":"levelo://app?vid=af56310b-5fec-44c6-9e13-8135e99da67c","ios":"levelo://app?vid=af56310b-5fec-44c6-9e13-8135e99da67c"},"vehicle_type_id":"4","last_reported":1676940145,"current_range_meters":14800,"station_id":"","pricing_plan_id":"free"},{"bike_id":"dc6ca787-54e2-42bc-9aa4-7c15aabed629","system_id":"levelo_inurba_marseille","lat":43.284625,"lon":5.358862,"is_reserved":false,"is_disabled":false,"rental_uris":{"android":"levelo://app?vid=dc6ca787-54e2-42bc-9aa4-7c15aabed629","ios":"levelo://app?vid=dc6ca787-54e2-42bc-9aa4-7c15aabed629"},"vehicle_type_id":"4","last_reported":1676940145,"current_range_meters":0,"station_id":"","pricing_plan_id":"free"},{"bike_id":"97b5a58b-ec12-497d-8628-e444d236278c","system_id":"levelo_inurba_marseille","lat":43.284618,"lon":5.35882,"is_reserved":false,"is_disabled":false,"rental_uris":{"android":"levelo://app?vid=97b5a58b-ec12-497d-8628-e444d236278c","ios":"levelo://app?vid=97b5a58b-ec12-497d-8628-e444d236278c"},"vehicle_type_id":"4","last_reported":1676940145,"current_range_meters":12800,"station_id":"ce4bhah2rcd13ifvqei0","pricing_plan_id":"free"},{"bike_id":"24af8c49-6907-4bcc-8a51-90891ca23e96","system_id":"levelo_inurba_marseille","lat":43.284534,"lon":5.358662,"is_reserved":false,"is_disabled":false,"rental_uris":{"android":"levelo://app?vid=24af8c49-6907-4bcc-8a51-90891ca23e96","ios":"levelo://app?vid=24af8c49-6907-4bcc-8a51-90891ca23e96"},"vehicle_type_id":"4","last_reported":1676940145,"current_range_meters":12000,"station_id":"ce4bhah2rcd13ifvqei0","pricing_plan_id":"free"},{"bike_id":"c555ed3d-726f-4810-a729-e6ae76014bac","system_id":"levelo_inurba_marseille","lat":43.284534,"lon":5.358662,"is_reserved":false,"is_disabled":false,"rental_uris":{"android":"levelo://app?vid=c555ed3d-726f-4810-a729-e6ae76014bac","ios":"levelo://app?vid=c555ed3d-726f-4810-a729-e6ae76014bac"},"vehicle_type_id":"4","last_reported":1676940145,"current_range_meters":2800,"station_id":"ce4bhah2rcd13ifvqei0","pricing_plan_id":"free"},{"bike_id":"66fec806-078a-499d-ab5e-6101ac925bbd","system_id":"levelo_inurba_marseille","lat":43.295753,"lon":5.399807,"is_reserved":false,"is_disabled":false,"rental_uris":{"android":"levelo://app?vid=66fec806-078a-499d-ab5e-6101ac925bbd","ios":"levelo://app?vid=66fec806-078a-499d-ab5e-6101ac925bbd"},"vehicle_type_id":"4","last_reported":1676940145,"current_range_meters":5200,"station_id":"ce4bh312rcd13ifvqdj0","pricing_plan_id":"free"},{"bike_id":"45193954-c3be-4773-b748-8bef01576379","system_id":"levelo_inurba_marseille","lat":43.295758,"lon":5.399821,"is_reserved":false,"is_disabled":false,"rental_uris":{"android":"levelo://app?vid=45193954-c3be-4773-b748-8bef01576379","ios":"levelo://app?vid=45193954-c3be-4773-b748-8bef01576379"},"vehicle_type_id":"4","last_reported":1676940145,"current_range_meters":24400,"station_id":"","pricing_plan_id":"free"},{"bike_id":"6500bd6f-95d9-48f8-8b84-130f7c7dc028","system_id":"levelo_inurba_marseille","lat":43.295713,"lon":5.399639,"is_reserved":false,"is_disabled":false,"rental_uris":{"android":"levelo://app?vid=6500bd6f-95d9-48f8-8b84-130f7c7dc028","ios":"levelo://app?vid=6500bd6f-95d9-48f8-8b84-130f7c7dc028"},"vehicle_type_id":"4","last_reported":1676940145,"current_range_meters":29200,"station_id":"ce4bh312rcd13ifvqdj0","pricing_plan_id":"free"},{"bike_id":"7758f4ac-5f16-4de6-bfe1-d4ff884914f9","system_id":"levelo_inurba_marseille","lat":43.296248,"lon":5.400348,"is_reserved":false,"is_disabled":false,"rental_uris":{"android":"levelo://app?vid=7758f4ac-5f16-4de6-bfe1-d4ff884914f9","ios":"levelo://app?vid=7758f4ac-5f16-4de6-bfe1-d4ff884914f9"},"vehicle_type_id":"4","last_reported":1676940145,"current_range_meters":0,"station_id":"","pricing_plan_id":"free"},{"bike_id":"8f9a7de0-9f0a-4ca8-9b16-1c558ec795ff","system_id":"levelo_inurba_marseille","lat":43.295713,"lon":5.399639,"is_reserved":false,"is_disabled":false,"rental_uris":{"android":"levelo://app?vid=8f9a7de0-9f0a-4ca8-9b16-1c558ec795ff","ios":"levelo://app?vid=8f9a7de0-9f0a-4ca8-9b16-1c558ec795ff"},"vehicle_type_id":"4","last_reported":1676940145,"current_range_meters":28400,"station_id":"ce4bh312rcd13ifvqdj0","pricing_plan_id":"free"},{"bike_id":"b39d1f94-2a60-4c4e-95a1-c41cb2466249","system_id":"levelo_inurba_marseille","lat":43.286867,"lon":5.386457,"is_reserved":false,"is_disabled":false,"rental_uris":{"android":"levelo://app?vid=b39d1f94-2a60-4c4e-95a1-c41cb2466249","ios":"levelo://app?vid=b39d1f94-2a60-4c4e-95a1-c41cb2466249"},"vehicle_type_id":"4","last_reported":1676940145,"current_range_meters":1600,"station_id":"","pricing_plan_id":"free"},{"bike_id":"7f05bf01-9d25-438d-9ac8-cf6f4b581712","system_id":"levelo_inurba_marseille","lat":43.286861,"lon":5.386642,"is_reserved":false,"is_disabled":false,"rental_uris":{"android":"levelo://app?vid=7f05bf01-9d25-438d-9ac8-cf6f4b581712","ios":"levelo://app?vid=7f05bf01-9d25-438d-9ac8-cf6f4b581712"},"vehicle_type_id":"4","last_reported":1676940145,"current_range_meters":25600,"station_id":"","pricing_plan_id":"free"},{"bike_id":"24d197c3-b6dc-4851-999a-bb7e283608b2","system_id":"levelo_inurba_marseille","lat":43.286595,"lon":5.386795,"is_reserved":false,"is_disabled":false,"rental_uris":{"android":"levelo://app?vid=24d197c3-b6dc-4851-999a-bb7e283608b2","ios":"levelo://app?vid=24d197c3-b6dc-4851-999a-bb7e283608b2"},"vehicle_type_id":"4","last_reported":1676940145,"current_range_meters":12400,"station_id":"ce4bh492rcd13ifvqdug","pricing_plan_id":"free"},{"bike_id":"e7cb7af6-e8a9-47b3-bddd-e287e3e3dfce","system_id":"levelo_inurba_marseille","lat":43.286595,"lon":5.386795,"is_reserved":false,"is_disabled":false,"rental_uris":{"android":"levelo://app?vid=e7cb7af6-e8a9-47b3-bddd-e287e3e3dfce","ios":"levelo://app?vid=e7cb7af6-e8a9-47b3-bddd-e287e3e3dfce"},"vehicle_type_id":"4","last_reported":1676940145,"current_range_meters":23200,"station_id":"ce4bh492rcd13ifvqdug","pricing_plan_id":"free"},{"bike_id":"466237a7-66a4-4a97-9c7e-d0ce0c8c2883","system_id":"levelo_inurba_marseille","lat":43.2868,"lon":5.38668,"is_reserved":false,"is_disabled":false,"rental_uris":{"android":"levelo://app?vid=466237a7-66a4-4a97-9c7e-d0ce0c8c2883","ios":"levelo://app?vid=466237a7-66a4-4a97-9c7e-d0ce0c8c2883"},"vehicle_type_id":"4","last_reported":1676940145,"current_range_meters":27200,"station_id":"","pricing_plan_id":"free"},{"bike_id":"01ac8ed5-b1d8-4e1d-a2d5-63a1823b73aa","system_id":"levelo_inurba_marseille","lat":43.286786,"lon":5.386689,"is_reserved":false,"is_disabled":false,"rental_uris":{"android":"levelo://app?vid=01ac8ed5-b1d8-4e1d-a2d5-63a1823b73aa","ios":"levelo://app?vid=01ac8ed5-b1d8-4e1d-a2d5-63a1823b73aa"},"vehicle_type_id":"4","last_reported":1676940145,"current_range_meters":19600,"station_id":"ce4bh492rcd13ifvqdug","pricing_plan_id":"free"},{"bike_id":"035c051b-0a17-45fd-ba6a-c5dc1e86e9c0","system_id":"levelo_inurba_marseille","lat":43.286759,"lon":5.386735,"is_reserved":false,"is_disabled":false,"rental_uris":{"android":"levelo://app?vid=035c051b-0a17-45fd-ba6a-c5dc1e86e9c0","ios":"levelo://app?vid=035c051b-0a17-45fd-ba6a-c5dc1e86e9c0"},"vehicle_type_id":"4","last_reported":1676940145,"current_range_meters":6800,"station_id":"","pricing_plan_id":"free"},{"bike_id":"981cfbf9-12c8-4ca3-a080-ac76ab5f2d12","system_id":"levelo_inurba_marseille","lat":43.337168,"lon":5.391825,"is_reserved":false,"is_disabled":false,"rental_uris":{"android":"levelo://app?vid=981cfbf9-12c8-4ca3-a080-ac76ab5f2d12","ios":"levelo://app?vid=981cfbf9-12c8-4ca3-a080-ac76ab5f2d12"},"vehicle_type_id":"4","last_reported":1676940145,"current_range_meters":23600,"station_id":"ce4bhr92rcd13ifvqhsg","pricing_plan_id":"free"},