{"last_updated":1761070484,"ttl":60,"version":"2.2","data":{"bikes":[{"bike_id":"d8a0f4f8-3964-402e-924c-3470748785aa","system_id":"levelo_inurba_marseille","lat":43.337444,"lon":5.374475,"is_reserved":false,"is_disabled":false,"rental_uris":{"android":"levelo://app?vid=d8a0f4f8-3964-402e-924c-3470748785aa","ios":"levelo://app?vid=d8a0f4f8-3964-402e-924c-3470748785aa"},"vehicle_type_id":"4","last_reported":1761070484,"current_range_meters":0,"station_id":"","pricing_plan_id":"cebpf4jnsgd1na2vs0mg"},{"bike_id":"afc9ae89-ac49-4918-a52e-e4090de477f3","system_id":"levelo_inurba_marseille","lat":43.2842,"lon":5.34973,"is_reserved":false,"is_disabled":false,"rental_uris":{"android":"levelo://app?vid=afc9ae89-ac49-4918-a52e-e4090de477f3","ios":"levelo://app?vid=afc9ae89-ac49-4918-a52e-e4090de477f3"},"vehicle_type_id":"4","last_reported":1761070484,"current_range_meters":2800,"station_id":"ce4bhbh2rcd13ifvqepg","pricing_plan_id":"cebpf4jnsgd1na2vs0mg"},{"bike_id":"396584c5-1d28-48c8-ab7a-a3598b944eac","system_id":"levelo_inurba_marseille","lat":43.30453,"lon":5.3791,"is_reserved":false,"is_disabled":false,"rental_uris":{"android":"levelo://app?vid=396584c5-1d28-48c8-ab7a-a3598b944eac","ios":"levelo://app?vid=396584c5-1d28-48c8-ab7a-a3598b944eac"},"vehicle_type_id":"4","last_reported":1761070484,"current_range_meters":2800,"station_id":"ce4bgup2rcd13ifvqcn0","pricing_plan_id":"cebpf4jnsgd1na2vs0mg"},{"bike_id":"91f69060-3543-4e34-b988-d49287b314e8","system_id":"levelo_inurba_marseille","lat":43.28861,"lon":5.42522,"is_reserved":false,"is_disabled":false,"rental_uris":{"android":"levelo://app?vid=91f69060-3543-4e34-b988-d49287b314e8","ios":"levelo://app?vid=91f69060-3543-4e34-b988-d49287b314e8"},"vehicle_type_id":"4","last_reported":1761070484,"current_range_meters":2800,"station_id":"st_d3b462108ojc7389ooeg","pricing_plan_id":"cebpf4jnsgd1na2vs0mg"},{"bike_id":"bb78f9f8-2b33-411d-858e-853808caa8c5","system_id":"levelo_inurba_marseille","lat":43.24665,"lon":5.38158,"is_reserved":false,"is_disabled":false,"rental_uris":{"android":"levelo://app?vid=bb78f9f8-2b33-411d-858e-853808caa8c5","ios":"levelo://app?vid=bb78f9f8-2b33-411d-858e-853808caa8c5"},"vehicle_type_id":"4","last_reported":1761070484,"current_range_meters":2800,"station_id":"ce4bhih2rcd13ifvqfr0","pricing_plan_id":"cebpf4jnsgd1na2vs0mg"},{"bike_id":"a95e8437-e14a-4686-8c7f-cd9b11b65cce","system_id":"levelo_inurba_marseille","lat":43.292697,"lon":5.384353,"is_reserved":false,"is_disabled":false,"rental_uris":{"android":"levelo://app?vid=a95e8437-e14a-4686-8c7f-cd9b11b65cce","ios":"levelo://app?vid=a95e8437-e14a-4686-8c7f-cd9b11b65cce"},"vehicle_type_id":"4","last_reported":1761070484,"current_range_meters":3200,"station_id":"ce4bh692rcd13ifvqea0","pricing_plan_id":"cebpf4jnsgd1na2vs0mg"},{"bike_id":"782dcdf3-a9ba-4150-8299-00fb0a6dec0c","system_id":"levelo_inurba_marseille","lat":43.28878,"lon":5.38323,"is_reserved":false,"is_disabled":false,"rental_uris":{"android":"levelo://app?vid=782dcdf3-a9ba-4150-8299-00fb0a6dec0c","ios":"levelo://app?vid=782dcdf3-a9ba-4150-8299-00fb0a6dec0c"},"vehicle_type_id":"4","last_reported":1761070484,"current_range_meters":3200,"station_id":"","pricing_plan_id":"cebpf4jnsgd1na2vs0mg"},{"bike_id":"eaf6f8e6-6cb6-423e-955e-3e245a56c2a5","system_id":"levelo_inurba_marseille","lat":43.29795,"lon":5.38088,"is_reserved":false,"is_disabled":false,"rental_uris":{"android":"levelo://app?vid=eaf6f8e6-6cb6-423e-955e-3e245a56c2a5","ios":"levelo://app?vid=eaf6f8e6-6cb6-423e-955e-3e245a56c2a5"},"vehicle_type_id":"4","last_reported":1761070484,"current_range_meters":3200,"station_id":"ce4bgip2rcd13ifvqbb0","pricing_plan_id":"cebpf4jnsgd1na2vs0mg"},{"bike_id":"71ccd507-8127-45a8-b2d3-d05f22ff2408","system_id":"levelo_inurba_marseille","lat":43.29528,"lon":5.39402,"is_reserved":false,"is_disabled":false,"rental_uris":{"android":"levelo://app?vid=71ccd507-8127-45a8-b2d3-d05f22ff2408","ios":"levelo://app?vid=71ccd507-8127-45a8-b2d3-d05f22ff2408"},"vehicle_type_id":"4","last_reported":1761070484,"current_range_meters":3200,"station_id":"ce4bh292rcd13ifvqdf0","pricing_plan_id":"cebpf4jnsgd1na2vs0mg"},{"bike_id":"1d7996e2-92e5-4b85-992a-f0d1ada08a5a","system_id":"levelo_inurba_marseille","lat":43.32659,"lon":5.40993,"is_reserved":false,"is_disabled":false,"rental_uris":{"android":"levelo://app?vid=1d7996e2-92e5-4b85-992a-f0d1ada08a5a","ios":"levelo://app?vid=1d7996e2-92e5-4b85-992a-f0d1ada08a5a"},"vehicle_type_id":"4","last_reported":1761070484,"current_range_meters":3200,"station_id":"ce4bhpp2rcd13ifvqhgg","pricing_plan_id":"cebpf4jnsgd1na2vs0mg"},{"bike_id":"1ca07a2f-3f0c-4b9c-b594-fd6590fe1a61","system_id":"levelo_inurba_marseille","lat":43.28079,"lon":5.39651,"is_reserved":false,"is_disabled":false,"rental_uris":{"android":"levelo://app?vid=1ca07a2f-3f0c-4b9c-b594-fd6590fe1a61","ios":"levelo://app?vid=1ca07a2f-3f0c-4b9c-b594-fd6590fe1a61"},"vehicle_type_id":"4","last_reported":1761070484,"current_range_meters":3200,"station_id":"ce4bho12rcd13ifvqh2g","pricing_plan_id":"cebpf4jnsgd1na2vs0mg"},{"bike_id":"d9509a79-6887-4485-af49-40b45c312292","system_id":"levelo_inurba_marseille","lat":43.24387,"lon":5.3706,"is_reserved":false,"is_disabled":false,"rental_uris":{"android":"levelo://app?vid=d9509a79-6887-4485-af49-40b45c312292","ios":"levelo://app?vid=d9509a79-6887-4485-af49-40b45c312292"},"vehicle_type_id":"4","last_reported":1761070484,"current_range_meters":3200,"station_id":"ce4bhhh2rcd13ifvqfk0","pricing_plan_id":"cebpf4jnsgd1na2vs0mg"},{"bike_id":"94793c3f-97b1-4e6a-86cb-692644e55c0f","system_id":"levelo_inurba_marseille","lat":43.29608,"lon":5.38104,"is_reserved":false,"is_disabled":false,"rental_uris":{"android":"levelo://app?vid=94793c3f-97b1-4e6a-86cb-692644e55c0f","ios":"levelo://app?vid=94793c3f-97b1-4e6a-86cb-692644e55c0f"},"vehicle_type_id":"4","last_reported":1761070484,"current_range_meters":3200,"station_id":"ce4bgl12rcd13ifvqbo0","pricing_plan_id":"cebpf4jnsgd1na2vs0mg"},{"bike_id":"b0a8b156-35ee-434a-bb28-0a308942a4b0","system_id":"levelo_inurba_marseille","lat":43.27044,"lon":5.40275,"is_reserved":false,"is_disabled":false,"rental_uris":{"android":"levelo://app?vid=b0a8b156-35ee-434a-bb28-0a308942a4b0","ios":"levelo://app?vid=b0a8b156-35ee-434a-bb28-0a308942a4b0"},"vehicle_type_id":"4","last_reported":1761070484,"current_range_meters":3200,"station_id":"ce4bhk92rcd13ifvqgc0","pricing_plan_id":"cebpf4jnsgd1na2vs0mg"},{"bike_id":"fbb75000-48f5-4dbe-aa37-aa4a8d769d08","system_id":"levelo_inurba_marseille","lat":43.21164,"lon":5.35106,"is_reserved":false,"is_disabled":false,"rental_uris":{"android":"levelo://app?vid=fbb75000-48f5-4dbe-aa37-aa4a8d769d08","ios":"levelo://app?vid=fbb75000-48f5-4dbe-aa37-aa4a8d769d08"},"vehicle_type_id":"4","last_reported":1761070484,"current_range_meters":3600,"station_id":"st_cvj6sg6p6f1abm77japg","pricing_plan_id":"cebpf4jnsgd1na2vs0mg"},{"bike_id":"58c244c9-33e3-460f-b30c-6de8f6006769","system_id":"levelo_inurba_marseille","lat":43.2944,"lon":5.397541,"is_reserved":false,"is_disabled":false,"rental_uris":{"android":"levelo://app?vid=58c244c9-33e3-460f-b30c-6de8f6006769","ios":"levelo://app?vid=58c244c9-33e3-460f-b30c-6de8f6006769"},"vehicle_type_id":"4","last_reported":1761070484,"current_range_meters":3600,"station_id":"ce4bh3h2rcd13ifvqdo0","pricing_plan_id":"cebpf4jnsgd1na2vs0mg"},{"bike_id":"78a0dc8b-3b9d-41f7-a3a3-18ec054e3617","system_id":"levelo_inurba_marseille","lat":43.30968,"lon":5.3812,"is_reserved":false,"is_disabled":false,"rental_uris":{"android":"levelo://app?vid=78a0dc8b-3b9d-41f7-a3a3-18ec054e3617","ios":"levelo://app?vid=78a0dc8b-3b9d-41f7-a3a3-18ec054e3617"},"vehicle_type_id":"4","last_reported":1761070484,"current_range_meters":3600,"station_id":"","pricing_plan_id":"cebpf4jnsgd1na2vs0mg"},{"bike_id":"e8cfa124-af8e-4672-9dd0-cfe4ba32995f","system_id":"levelo_inurba_marseille","lat":43.27057,"lon":5.40258,"is_reserved":false,"is_disabled":false,"rental_uris":{"android":"levelo://app?vid=e8cfa124-af8e-4672-9dd0-cfe4ba32995f","ios":"levelo://app?vid=e8cfa124-af8e-4672-9dd0-cfe4ba32995f"},"vehicle_type_id":"4","last_reported":1761070484,"current_range_meters":3600,"station_id":"ce4bhk92rcd13ifvqgc0","pricing_plan_id":"cebpf4jnsgd1na2vs0mg"},{"bike_id":"063f9e6b-5f86-42ec-8f9e-15d16751a2a3","system_id":"levelo_inurba_marseille","lat":43.304305,"lon":5.388946,"is_reserved":false,"is_disabled":false,"rental_uris":{"android":"levelo://app?vid=063f9e6b-5f86-42ec-8f9e-15d16751a2a3","ios":"levelo://app?vid=063f9e6b-5f86-42ec-8f9e-15d16751a2a3"},"vehicle_type_id":"4","last_reported":1761070484,"current_range_meters":3600,"station_id":"ce4bgk12rcd13ifvqbi0","pricing_plan_id":"cebpf4jnsgd1na2vs0mg"},{"bike_id":"8a830d4f-ddab-46b9-9d0f-77194401daa1","system_id":"levelo_inurba_marseille","lat":43.347204,"lon":5.366098,"is_reserved":false,"is_disabled":false,"rental_uris":{"android":"levelo://app?vid=8a830d4f-ddab-46b9-9d0f-77194401daa1","ios":"levelo://app?vid=8a830d4f-ddab-46b9-9d0f-77194401daa1"},"vehicle_type_id":"4","last_reported":1761070484,"current_range_meters":4000,"station_id":"","pricing_plan_id":"cebpf4jnsgd1na2vs0mg"},{"bike_id":"4dcd6c0e-efa5-4a91-b090-f5a73c1d108a","system_id":"levelo_inurba_marseille","lat":43.301382,"lon":5.387728,"is_reserved":false,"is_disabled":false,"rental_uris":{"android":"levelo://app?vid=4dcd6c0e-efa5-4a91-b090-f5a73c1d108a","ios":"levelo://app?vid=4dcd6c0e-efa5-4a91-b090-f5a73c1d108a"},"vehicle_type_id":"4","last_reported":1761070484,"current_range_meters":4000,"station_id":"ce4bghh2rcd13ifvqb60","pricing_plan_id":"cebpf4jnsgd1na2vs0mg"},{"bike_id":"5aea6d4a-64c1-499d-8865-04b7d42e4e1d","system_id":"levelo_inurba_marseille","lat":43.29897,"lon":5.4367,"is_reserved":false,"is_disabled":false,"rental_uris":{"android":"levelo://app?vid=5aea6d4a-64c1-499d-8865-04b7d42e4e1d","ios":"levelo://app?vid=5aea6d4a-64c1-499d-8865-04b7d42e4e1d"},"vehicle_type_id":"4","last_reported":1761070484,"current_range_meters":4000,"station_id":"ce4bhpp2rcd13ifvqhfg","pricing_plan_id":"cebpf4jnsgd1na2vs0mg"},{"bike_id":"5bed5c92-90cd-400d-8a52-cfe8f76f5431","system_id":"levelo_inurba_marseille","lat":43.29531,"lon":5.38542,"is_reserved":false,"is_disabled":false,"rental_uris":{"android":"levelo://app?vid=5bed5c92-90cd-400d-8a52-cfe8f76f5431","ios":"levelo://app?vid=5bed5c92-90cd-400d-8a52-cfe8f76f5431"},"vehicle_type_id":"4","last_reported":1761070484,"current_range_meters":4000,"station_id":"ce4bgih2rcd13ifvqba0","pricing_plan_id":"cebpf4jnsgd1na2vs0mg"},{"bike_id":"1defe313-df70-41cb-8589-b1954b1f1901","system_id":"levelo_inurba_marseille","lat":43.30642,"lon":5.40091,"is_reserved":false,"is_disabled":false,"rental_uris":{"android":"levelo://app?vid=1defe313-df70-41cb-8589-b1954b1f1901","ios":"levelo://app?vid=1defe313-df70-41cb-8589-b1954b1f1901"},"vehicle_type_id":"4","last_reported":1761070484,"current_range_meters":4000,"station_id":"ce4bh112rcd13ifvqda0","pricing_plan_id":"cebpf4jnsgd1na2vs0mg"},{"bike_id":"f7d19b6c-f6a2-4541-b051-f09d996aa1d7","system_id":"levelo_inurba_marseille","lat":43.3126,"lon":5.40168,"is_reserved":false,"is_disabled":false,"rental_uris":{"android":"levelo://app?vid=f7d19b6c-f6a2-4541-b051-f09d996aa1d7","ios":"levelo://app?vid=f7d19b6c-f6a2-4541-b051-f09d996aa1d7"},"vehicle_type_id":"4","last_reported":1761070484,"current_range_meters":4400,"station_id":"ce4bh092rcd13ifvqd30","pricing_plan_id":"cebpf4jnsgd1na2vs0mg"},{"bike_id":"67114583-4c5d-469b-b6ae-8fd7f99b927c","system_id":"levelo_inurba_marseille","lat":43.3037,"lon":5.42483,"is_reserved":false,"is_disabled":false,"rental_uris":{"android":"levelo://app?vid=67114583-4c5d-469b-b6ae-8fd7f99b927c","ios":"levelo://app?vid=67114583-4c5d-469b-b6ae-8fd7f99b927c"},"vehicle_type_id":"4","last_reported":1761070484,"current_range_meters":4400,"station_id":"ce4bhoh2rcd13ifvqh6g","pricing_plan_id":"cebpf4jnsgd1na2vs0mg"},{"bike_id":"a43c549b-5158-4165-b67e-a563bce323a6","system_id":"levelo_inurba_marseille","lat":43.26938,"lon":5.40254,"is_reserved":false,"is_disabled":false,"rental_uris":{"android":"levelo://app?vid=a43c549b-5158-4165-b67e-a563bce323a6","ios":"levelo://app?vid=a43c549b-5158-4165-b67e-a563bce323a6"},"vehicle_type_id":"4","last_reported":1761070484,"current_range_meters":4400,"station_id":"cjm6bp8fraef2m0cb0m0","pricing_plan_id":"cebpf4jnsgd1na2vs0mg"},{"bike_id":"c16aa940-3ddb-4721-9294-dd5bf24f0d97","system_id":"levelo_inurba_marseille","lat":43.30882,"lon":5.37184,"is_reserved":false,"is_disabled":false,"rental_uris":{"android":"levelo://app?vid=c16aa940-3ddb-4721-9294-dd5bf24f0d97","ios":"levelo://app?vid=c16aa940-3ddb-4721-9294-dd5bf24f0d97"},"vehicle_type_id":"4","last_reported":1761070484,"current_range_meters":4400,"station_id":"ce4bguh2rcd13ifvqckg","pricing_plan_id":"cebpf4jnsgd1na2vs0mg"},{"bike_id":"5b3f5a09-db99-41ad-ac67-f5ff78686202","system_id":"levelo_inurba_marseille","lat":43.29792,"lon":5.38105,"is_reserved":false,"is_disabled":false,"rental_uris":{"android":"levelo://app?vid=5b3f5a09-db99-41ad-ac67-f5ff78686202","ios":"levelo://app?vid=5b3f5a09-db99-41ad-ac67-f5ff78686202"},"vehicle_type_id":"4","last_reported":1761070484,"current_range_meters":4400,"station_id":"ce4bgip2rcd13ifvqbb0","pricing_plan_id":"cebpf4jnsgd1na2vs0mg"},{"bike_id":"e1bcd65c-0079-4d8b-a9ac-c32fb2adb25b","system_id":"levelo_inurba_marseille","lat":43.27563,"lon":5.38418,"is_reserved":false,"is_disabled":false,"rental_uris":{"android":"levelo://app?vid=e1bcd65c-0079-4d8b-a9ac-c32fb2adb25b","ios":"levelo://app?vid=e1bcd65c-0079-4d8b-a9ac-c32fb2adb25b"},"vehicle_type_id":"4","last_reported":1761070484,"current_range_meters":4800,"station_id":"ce4bhh92rcd13ifvqfi0","pricing_plan_id":"cebpf4jnsgd1na2vs0mg"},{"bike_id":"4e9fef70-0019-4525-b002-fdec15bfe8e8","system_id":"levelo_inurba_marseille","lat":43.32657,"lon":5.40989,"is_reserved":false,"is_disabled":false,"rental_uris":{"android":"levelo://app?vid=4e9fef70-0019-4525-b002-fdec15bfe8e8","ios":"levelo://app?vid=4e9fef70-0019-4525-b002-fdec15bfe8e8"},"vehicle_type_id":"4","last_reported":1761070484,"current_range_meters":4800,"station_id":"ce4bhpp2rcd13ifvqhgg","pricing_plan_id":"cebpf4jnsgd1na2vs0mg"},{"bike_id":"c8a19736-da5d-496f-843a-32fa9497fddd","system_id":"levelo_inurba_marseille","lat":43.28354,"lon":5.38097,"is_reserved":false,"is_disabled":false,"rental_uris":{"android":"levelo://app?vid=c8a19736-da5d-496f-843a-32fa9497fddd","ios":"levelo://app?vid=c8a19736-da5d-496f-843a-32fa9497fddd"},"vehicle_type_id":"4","last_reported":1761070484,"current_range_meters":4800,"station_id":"ce4bh412rcd13ifvqdr0","pricing_plan_id":"cebpf4jnsgd1na2vs0mg"},{"bike_id":"212a9329-66c4-44b3-8186-4a3357c4630e","system_id":"levelo_inurba_marseille","lat":43.29202,"lon":5.38096,"is_reserved":false,"is_disabled":false,"rental_uris":{"android":"levelo://app?vid=212a9329-66c4-44b3-8186-4a3357c4630e","ios":"levelo://app?vid=212a9329-66c4-44b3-8186-4a3357c4630e"},"vehicle_type_id":"4","last_reported":1761070484,"current_range_meters":4800,"station_id":"","pricing_plan_id":"cebpf4jnsgd1na2vs0mg"},{"bike_id":"cffdb36e-06b9-4668-bbca-5cfd08613d9c","system_id":"levelo_inurba_marseille","lat":43.26054,"lon":5.394,"is_reserved":false,"is_disabled":false,"rental_uris":{"android":"levelo://app?vid=cffdb36e-06b9-4668-bbca-5cfd08613d9c","ios":"levelo://app?vid=cffdb36e-06b9-4668-bbca-5cfd08613d9c"},"vehicle_type_id":"4","last_reported":1761070484,"current_range_meters":4800,"station_id":"ce4bhh92rcd13ifvqfj0","pricing_plan_id":"cebpf4jnsgd1na2vs0mg"},{"bike_id":"106ed44b-7a54-458f-9a4f-fdc2091cc74d","system_id":"levelo_inurba_marseille","lat":43.29965,"lon":5.38496,"is_reserved":false,"is_disabled":false,"rental_uris":{"android":"levelo://app?vid=106ed44b-7a54-458f-9a4f-fdc2091cc74d","ios":"levelo://app?vid=106ed44b-7a54-458f-9a4f-fdc2091cc74d"},"vehicle_type_id":"4","last_reported":1761070484,"current_range_meters":5600,"station_id":"ce4bgj92rcd13ifvqbd0","pricing_plan_id":"cebpf4jnsgd1na2vs0mg"},{"bike_id":"07400bae-6660-48e7-b291-4f4876e146d8","system_id":"levelo_inurba_marseille","lat":43.310742,"lon":5.424341,"is_reserved":false,"is_disabled":true,"rental_uris":{"android":"levelo://app?vid=07400bae-6660-48e7-b291-4f4876e146d8","ios":"levelo://app?vid=07400bae-6660-48e7-b291-4f4876e146d8"},"vehicle_type_id":"4","last_reported":1761070484,"current_range_meters":5600,"station_id":"","pricing_plan_id":"cebpf4jnsgd1na2vs0mg"},{"bike_id":"f70d30d3-d3d2-4ca2-9567-efde2bf42316","system_id":"levelo_inurba_marseille","lat":43.241861,"lon":5.397149,"is_reserved":false,"is_disabled":false,"rental_uris":{"android":"levelo://app?vid=f70d30d3-d3d2-4ca2-9567-efde2bf42316","ios":"levelo://app?vid=f70d30d3-d3d2-4ca2-9567-efde2bf42316"},"vehicle_type_id":"4","last_reported":1761070484,"current_range_meters":5600,"station_id":"ce4bhn12rcd13ifvqgpg","pricing_plan_id":"cebpf4jnsgd1na2vs0mg"},{"bike_id":"b047a8d6-1e45-45ee-b80b-62194dcb8a5c","system_id":"levelo_inurba_marseille","lat":43.28663,"lon":5.36358,"is_reserved":false,"is_disabled":false,"rental_uris":{"android":"levelo://app?vid=b047a8d6-1e45-45ee-b80b-62194dcb8a5c","ios":"levelo://app?vid=b047a8d6-1e45-45ee-b80b-62194dcb8a5c"},"vehicle_type_id":"4","last_reported":1761070484,"current_range_meters":5600,"station_id":"ce4bhah2rcd13ifvqej0","pricing_plan_id":"cebpf4jnsgd1na2vs0mg"},{"bike_id":"f4093380-f6e8-4320-8107-a19e45049c76","system_id":"levelo_inurba_marseille","lat":43.29036,"lon":5.39973,"is_reserved":false,"is_disabled":false,"rental_uris":{"android":"levelo://app?vid=f4093380-f6e8-4320-8107-a19e45049c76","ios":"levelo://app?vid=f4093380-f6e8-4320-8107-a19e45049c76"},"vehicle_type_id":"4","last_reported":1761070484,"current_range_meters":5600,"station_id":"ce4bh392rcd13ifvqdm0","pricing_plan_id":"cebpf4jnsgd1na2vs0mg"},{"bike_id":"85ba36fd-0466-4b78-9a8e-ea811c13b421","system_id":"levelo_inurba_marseille","lat":43.29802,"lon":5.38096,"is_reserved":false,"is_disabled":false,"rental_uris":{"android":"levelo://app?vid=85ba36fd-0466-4b78-9a8e-ea811c13b421","ios":"levelo://app?vid=85ba36fd-0466-4b78-9a8e-ea811c13b421"},"vehicle_type_id":"4","last_reported":1761070484,"current_range_meters":5600,"station_id":"ce4bgip2rcd13ifvqbb0","pricing_plan_id":"cebpf4jnsgd1na2vs0mg"},{"bike_id":"b6ef4666-78d9-4c00-8b8c-95803ec92121","system_id":"levelo_inurba_marseille","lat":43.292956,"lon":5.374792,"is_reserved":false,"is_disabled":false,"rental_uris":{"android":"levelo://app?vid=b6ef4666-78d9-4c00-8b8c-95803ec92121","ios":"levelo://app?vid=b6ef4666-78d9-4c00-8b8c-95803ec92121"},"vehicle_type_id":"4","last_reported":1761070484,"current_range_meters":5600,"station_id":"ce4bgi12rcd13ifvqb70","pricing_plan_id":"cebpf4jnsgd1na2vs0mg"},{"bike_id":"7caedf13-0e6c-4e85-89b1-5b84714fee23","system_id":"levelo_inurba_marseille","lat":43.286087,"lon":5.370657,"is_reserved":false,"is_disabled":false,"rental_uris":{"android":"levelo://app?vid=7caedf13-0e6c-4e85-89b1-5b84714fee23","ios":"levelo://app?vid=7caedf13-0e6c-4e85-89b1-5b84714fee23"},"vehicle_type_id":"4","last_reported":1761070484,"current_range_meters":6000,"station_id":"ce4bht12rcd13ifvqi60","pricing_plan_id":"cebpf4jnsgd1na2vs0mg"},{"bike_id":"1ba3be21-68cd-430f-b45c-a9520ddc1548","system_id":"levelo_inurba_marseille","lat":43.24944,"lon":5.40489,"is_reserved":false,"is_disabled":false,"rental_uris":{"android":"levelo://app?vid=1ba3be21-68cd-430f-b45c-a9520ddc1548","ios":"levelo://app?vid=1ba3be21-68cd-430f-b45c-a9520ddc1548"},"vehicle_type_id":"4","last_reported":1761070484,"current_range_meters":6000,"station_id":"st_d2ngiaodas8pm72gd1h0","pricing_plan_id":"cebpf4jnsgd1na2vs0mg"},{"bike_id":"4e0a9cc2-c12b-4f74-b53f-9abad2d319be","system_id":"levelo_inurba_marseille","lat":43.299091,"lon":5.381436,"is_reserved":false,"is_disabled":false,"rental_uris":{"android":"levelo://app?vid=4e0a9cc2-c12b-4f74-b53f-9abad2d319be","ios":"levelo://app?vid=4e0a9cc2-c12b-4f74-b53f-9abad2d319be"},"vehicle_type_id":"4","last_reported":1761070484,"current_range_meters":6000,"station_id":"ce4bgj12rcd13ifvqbc0","pricing_plan_id":"cebpf4jnsgd1na2vs0mg"},{"bike_id":"99599c13-66ba-4d0b-b294-296499401319","system_id":"levelo_inurba_marseille","lat":43.29964,"lon":5.38501,"is_reserved":false,"is_disabled":false,"rental_uris":{"android":"levelo://app?vid=99599c13-66ba-4d0b-b294-296499401319","ios":"levelo://app?vid=99599c13-66ba-4d0b-b294-296499401319"},"vehicle_type_id":"4","last_reported":1761070484,"current_range_meters":6400,"station_id":"ce4bgj92rcd13ifvqbd0","pricing_plan_id":"cebpf4jnsgd1na2vs0mg"},{"bike_id":"c037874f-e454-4d1e-9f03-b485b4dbd4f2","system_id":"levelo_inurba_marseille","lat":43.29218,"lon":5.37074,"is_reserved":false,"is_disabled":false,"rental_uris":{"android":"levelo://app?vid=c037874f-e454-4d1e-9f03-b485b4dbd4f2","ios":"levelo://app?vid=c037874f-e454-4d1e-9f03-b485b4dbd4f2"},"vehicle_type_id":"4","last_reported":1761070484,"current_range_meters":6400,"station_id":"","pricing_plan_id":"cebpf4jnsgd1na2vs0mg"},{"bike_id":"9f4880cd-eb80-4a97-a192-8cbac81b1fcf","system_id":"levelo_inurba_marseille","lat":43.24385,"lon":5.37056,"is_reserved":false,"is_disabled":false,"rental_uris":{"android":"levelo://app?vid=9f4880cd-eb80-4a97-a192-8cbac81b1fcf","ios":"levelo://app?vid=9f4880cd-eb80-4a97-a192-8cbac81b1fcf"},"vehicle_type_id":"4","last_reported":1761070484,"current_range_meters":6400,"station_id":"ce4bhhh2rcd13ifvqfk0","pricing_plan_id":"cebpf4jnsgd1na2vs0mg"},{"bike_id":"b57659f4-d3ee-4dae-9f8a-459796f973b4","system_id":"levelo_inurba_marseille","lat":43.25341,"lon":5.42186,"is_reserved":false,"is_disabled":false,"rental_uris":{"android":"levelo://app?vid=b57659f4-d3ee-4dae-9f8a-459796f973b4","ios":"levelo://app?vid=b57659f4-d3ee-4dae-9f8a-459796f973b4"},"vehicle_type_id":"4","last_reported":1761070484,"current_range_meters":6400,"station_id":"st_d2m65c5bi1j21697t3ng","pricing_plan_id":"cebpf4jnsgd1na2vs0mg"},{"bike_id":"426f5ef6-b14c-4439-9413-813a26441bfd","system_id":"levelo_inurba_marseille","lat":43.270977,"lon":5.392025,"is_reserved":false,"is_disabled":false,"rental_uris":{"android":"levelo://app?vid=426f5ef6-b14c-4439-9413-813a26441bfd","ios":"levelo://app?vid=426f5ef6-b14c-4439-9413-813a26441bfd"},"vehicle_type_id":"4","last_reported":1761070484,"current_range_meters":6400,"station_id":"ce4bhg12rcd13ifvqf80","pricing_plan_id":"cebpf4jnsgd1na2vs0mg"},{"bike_id":"98490d11-db71-4361-ab96-f0addd49d050","system_id":"levelo_inurba_marseille","lat":43.30012,"lon":5.37329,"is_reserved":false,"is_disabled":false,"rental_uris":{"android":"levelo://app?vid=98490d11-db71-4361-ab96-f0addd49d050","ios":"levelo://app?vid=98490d11-db71-4361-ab96-f0addd49d050"},"vehicle_type_id":"4","last_reported":1761070484,"current_range_meters":6400,"station_id":"","pricing_plan_id":"cebpf4jnsgd1na2vs0mg"},{"bike_id":"4bb6d993-b33c-4862-ab4c-59be979be62e","system_id":"levelo_inurba_marseille","lat":43.29254,"lon":5.40933,"is_reserved":false,"is_disabled":false,"rental_uris":{"android":"levelo://app?vid=4bb6d993-b33c-4862-ab4c-59be979be62e","ios":"levelo://app?vid=4bb6d993-b33c-4862-ab4c-59be979be62e"},"vehicle_type_id":"4","last_reported":1761070484,"current_range_meters":6800,"station_id":"ce4bh192rcd13ifvqdc0","pricing_plan_id":"cebpf4jnsgd1na2vs0mg"},{"bike_id":"3dce95df-7659-446e-9010-516137ea4310","system_id":"levelo_inurba_marseille","lat":43.30959,"lon":5.39037,"is_reserved":false,"is_disabled":true,"rental_uris":{"android":"levelo://app?vid=3dce95df-7659-446e-9010-516137ea4310","ios":"levelo://app?vid=3dce95df-7659-446e-9010-516137ea4310"},"vehicle_type_id":"4","last_reported":1761070484,"current_range_meters":6800,"station_id":"ce4bgup2rcd13ifvqco0","pricing_plan_id":"cebpf4jnsgd1na2vs0mg"},{"bike_id":"23d2e327-9a1c-43f9-a1d7-2fca27e96f84","system_id":"levelo_inurba_marseille","lat":43.27359,"lon":5.415082,"is_reserved":false,"is_disabled":false,"rental_uris":{"android":"levelo://app?vid=23d2e327-9a1c-43f9-a1d7-2fca27e96f84","ios":"levelo://app?vid=23d2e327-9a1c-43f9-a1d7-2fca27e96f84"},"vehicle_type_id":"4","last_reported":1761070484,"current_range_meters":6800,"station_id":"","pricing_plan_id":"cebpf4jnsgd1na2vs0mg"},{"bike_id":"79f37df5-d1a8-46d7-9a51-1ff055a9d589","system_id":"levelo_inurba_marseille","lat":43.27813,"lon":5.4071,"is_reserved":false,"is_disabled":false,"rental_uris":{"android":"levelo://app?vid=79f37df5-d1a8-46d7-9a51-1ff055a9d589","ios":"levelo://app?vid=79f37df5-d1a8-46d7-9a51-1ff055a9d589"},"vehicle_type_id":"4","last_reported":1761070484,"current_range_meters":6800,"station_id":"ce4bhnh2rcd13ifvqgtg","pricing_plan_id":"cebpf4jnsgd1na2vs0mg"},{"bike_id":"a3bdd55d-49e2-41c8-8b4e-b0b1310c439f","system_id":"levelo_inurba_marseille","lat":43.330236,"lon":5.390394,"is_reserved":false,"is_disabled":false,"rental_uris":{"android":"levelo://app?vid=a3bdd55d-49e2-41c8-8b4e-b0b1310c439f","ios":"levelo://app?vid=a3bdd55d-49e2-41c8-8b4e-b0b1310c439f"},"vehicle_type_id":"4","last_reported":1761070484,"current_range_meters":6800,"station_id":"","pricing_plan_id":"cebpf4jnsgd1na2vs0mg"},{"bike_id":"32fe13f3-1998-41d4-a763-4eea85838a36","system_id":"levelo_inurba_marseille","lat":43.28609,"lon":5.37073,"is_reserved":false,"is_disabled":false,"rental_uris":{"android":"levelo://app?vid=32fe13f3-1998-41d4-a763-4eea85838a36","ios":"levelo://app?vid=32fe13f3-1998-41d4-a763-4eea85838a36"},"vehicle_type_id":"4","last_reported":1761070484,"current_range_meters":6800,"station_id":"ce4bht12rcd13ifvqi60","pricing_plan_id":"cebpf4jnsgd1na2vs0mg"},{"bike_id":"04018adf-9b7e-4f75-95a6-f2dca1881420","system_id":"levelo_inurba_marseille","lat":43.21741,"lon":5.34594,"is_reserved":false,"is_disabled":true,"rental_uris":{"android":"levelo://app?vid=04018adf-9b7e-4f75-95a6-f2dca1881420","ios":"levelo://app?vid=04018adf-9b7e-4f75-95a6-f2dca1881420"},"vehicle_type_id":"4","last_reported":1761070484,"current_range_meters":6800,"station_id":"st_cvj6r9ubvosntc0bgbag","pricing_plan_id":"cebpf4jnsgd1na2vs0mg"},{"bike_id":"079a6d06-2828-4fed-8686-7cf3c7bd9b69","system_id":"levelo_inurba_marseille","lat":43.2991,"lon":5.37492,"is_reserved":false,"is_disabled":false,"rental_uris":{"android":"levelo://app?vid=079a6d06-2828-4fed-8686-7cf3c7bd9b69","ios":"levelo://app?vid=079a6d06-2828-4fed-8686-7cf3c7bd9b69"},"vehicle_type_id":"4","last_reported":1761070484,"current_range_meters":6800,"station_id":"ce4bgjh2rcd13ifvqbg0","pricing_plan_id":"cebpf4jnsgd1na2vs0mg"},{"bike_id":"8952652d-181d-4647-99e0-dd7c8dc8f72d","system_id":"levelo_inurba_marseille","lat":43.285346,"lon":5.440997,"is_reserved":false,"is_disabled":false,"rental_uris":{"android":"levelo://app?vid=8952652d-181d-4647-99e0-dd7c8dc8f72d","ios":"levelo://app?vid=8952652d-181d-4647-99e0-dd7c8dc8f72d"},"vehicle_type_id":"4","last_reported":1761070484,"current_range_meters":7200,"station_id":"st_d3j3df2ikq2c7380ej80","pricing_plan_id":"cebpf4jnsgd1na2vs0mg"},{"bike_id":"ed2de12c-08dc-4858-9bd2-843458f09865","system_id":"levelo_inurba_marseille","lat":43.30898,"lon":5.37192,"is_reserved":false,"is_disabled":false,"rental_uris":{"android":"levelo://app?vid=ed2de12c-08dc-4858-9bd2-843458f09865","ios":"levelo://app?vid=ed2de12c-08dc-4858-9bd2-843458f09865"},"vehicle_type_id":"4","last_reported":1761070484,"current_range_meters":7200,"station_id":"ce4bguh2rcd13ifvqckg","pricing_plan_id":"cebpf4jnsgd1na2vs0mg"},{"bike_id":"6d8da19b-0143-43ba-a2b6-b774a32597d4","system_id":"levelo_inurba_marseille","lat":43.28152,"lon":5.34773,"is_reserved":false,"is_disabled":false,"rental_uris":{"android":"levelo://app?vid=6d8da19b-0143-43ba-a2b6-b774a32597d4","ios":"levelo://app?vid=6d8da19b-0143-43ba-a2b6-b774a32597d4"},"vehicle_type_id":"4","last_reported":1761070484,"current_range_meters":7200,"station_id":"","pricing_plan_id":"cebpf4jnsgd1na2vs0mg"},{"bike_id":"9000d598-4615-4375-b3e1-b7516ad2df50","system_id":"levelo_inurba_marseille","lat":43.29251,"lon":5.38321,"is_reserved":false,"is_disabled":false,"rental_uris":{"android":"levelo://app?vid=9000d598-4615-4375-b3e1-b7516ad2df50","ios":"levelo://app?vid=9000d598-4615-4375-b3e1-b7516ad2df50"},"vehicle_type_id":"4","last_reported":1761070484,"current_range_meters":7200,"station_id":"","pricing_plan_id":"cebpf4jnsgd1na2vs0mg"},{"bike_id":"2163cee1-36bf-49aa-85c0-3b2412b7de2b","system_id":"levelo_inurba_marseille","lat":43.28937,"lon":5.36641,"is_reserved":false,"is_disabled":true,"rental_uris":{"android":"levelo://app?vid=2163cee1-36bf-49aa-85c0-3b2412b7de2b","ios":"levelo://app?vid=2163cee1-36bf-49aa-85c0-3b2412b7de2b"},"vehicle_type_id":"4","last_reported":1761070484,"current_range_meters":7200,"station_id":"ce4bhap2rcd13ifvqek0","pricing_plan_id":"cebpf4jnsgd1na2vs0mg"},{"bike_id":"ccf52927-a9d1-4898-8ca8-889ca18bdda0","system_id":"levelo_inurba_marseille","lat":43.29489,"lon":5.43306,"is_reserved":false,"is_disabled":false,"rental_uris":{"android":"levelo://app?vid=ccf52927-a9d1-4898-8ca8-889ca18bdda0","ios":"levelo://app?vid=ccf52927-a9d1-4898-8ca8-889ca18bdda0"},"vehicle_type_id":"4","last_reported":1761070484,"current_range_meters":7200,"station_id":"st_d3j5ugp08ojc73fj9d10","pricing_plan_id":"cebpf4jnsgd1na2vs0mg"},{"bike_id":"7e58c3d1-90c8-41c2-9973-f84efc2d1298","system_id":"levelo_inurba_marseille","lat":43.29567,"lon":5.37522,"is_reserved":false,"is_disabled":false,"rental_uris":{"android":"levelo://app?vid=7e58c3d1-90c8-41c2-9973-f84efc2d1298","ios":"levelo://app?vid=7e58c3d1-90c8-41c2-9973-f84efc2d1298"},"vehicle_type_id":"4","last_reported":1761070484,"current_range_meters":8000,"station_id":"ce4bgh92rcd13ifvqb50","pricing_plan_id":"cebpf4jnsgd1na2vs0mg"},{"bike_id":"a7c7675d-e06c-4794-bdda-4ac8c78a31c6","system_id":"levelo_inurba_marseille","lat":43.282593,"lon":5.350757,"is_reserved":false,"is_disabled":true,"rental_uris":{"android":"levelo://app?vid=a7c7675d-e06c-4794-bdda-4ac8c78a31c6","ios":"levelo://app?vid=a7c7675d-e06c-4794-bdda-4ac8c78a31c6"},"vehicle_type_id":"4","last_reported":1761070484,"current_range_meters":8000,"station_id":"ce4bhbp2rcd13ifvqerg","pricing_plan_id":"cebpf4jnsgd1na2vs0mg"},{"bike_id":"4155b509-5eec-4d26-9ca6-0e9567c14c9d","system_id":"levelo_inurba_marseille","lat":43.29536,"lon":5.38552,"is_reserved":false,"is_disabled":false,"rental_uris":{"android":"levelo://app?vid=4155b509-5eec-4d26-9ca6-0e9567c14c9d","ios":"levelo://app?vid=4155b509-5eec-4d26-9ca6-0e9567c14c9d"},"vehicle_type_id":"4","last_reported":1761070484,"current_range_meters":8000,"station_id":"ce4bgih2rcd13ifvqba0","pricing_plan_id":"cebpf4jnsgd1na2vs0mg"},{"bike_id":"60bb7a1d-7ef9-406f-bf22-ce9733794c6e","system_id":"levelo_inurba_marseille","lat":43.28153,"lon":5.42662,"is_reserved":false,"is_disabled":false,"rental_uris":{"android":"levelo://app?vid=60bb7a1d-7ef9-406f-bf22-ce9733794c6e","ios":"levelo://app?vid=60bb7a1d-7ef9-406f-bf22-ce9733794c6e"},"vehicle_type_id":"4","last_reported":1761070484,"current_range_meters":8000,"station_id":"ce4bhnh2rcd13ifvqgug","pricing_plan_id":"cebpf4jnsgd1na2vs0mg"},{"bike_id":"c1652b09-995c-43ab-af03-aa73bd387ca1","system_id":"levelo_inurba_marseille","lat":43.29525,"lon":5.38555,"is_reserved":false,"is_disabled":false,"rental_uris":{"android":"levelo://app?vid=c1652b09-995c-43ab-af03-aa73bd387ca1","ios":"levelo://app?vid=c1652b09-995c-43ab-af03-aa73bd387ca1"},"vehicle_type_id":"4","last_reported":1761070484,"current_range_meters":8000,"station_id":"ce4bgih2rcd13ifvqba0","pricing_plan_id":"cebpf4jnsgd1na2vs0mg"},{"bike_id":"e542827a-d965-4a6a-b311-dec4a873b687","system_id":"levelo_inurba_marseille","lat":43.231504,"lon":5.437064,"is_reserved":false,"is_disabled":false,"rental_uris":{"android":"levelo://app?vid=e542827a-d965-4a6a-b311-dec4a873b687","ios":"levelo://app?vid=e542827a-d965-4a6a-b311-dec4a873b687"},"vehicle_type_id":"4","last_reported":1761070484,"current_range_meters":8000,"station_id":"ce4bhmp2rcd13ifvqgog","pricing_plan_id":"cebpf4jnsgd1na2vs0mg"},{"bike_id":"58dc9567-5152-41da-9572-9b47df2fa2d7","system_id":"levelo_inurba_marseille","lat":43.27808,"lon":5.40714,"is_reserved":false,"is_disabled":false,"rental_uris":{"android":"levelo://app?vid=58dc9567-5152-41da-9572-9b47df2fa2d7","ios":"levelo://app?vid=58dc9567-5152-41da-9572-9b47df2fa2d7"},"vehicle_type_id":"4","last_reported":1761070484,"current_range_meters":8000,"station_id":"ce4bhnh2rcd13ifvqgtg","pricing_plan_id":"cebpf4jnsgd1na2vs0mg"},{"bike_id":"fcf9577c-4edc-46fb-9ac3-427b2bac71a0","system_id":"levelo_inurba_marseille","lat":43.31726,"lon":5.42397,"is_reserved":false,"is_disabled":false,"rental_uris":{"android":"levelo://app?vid=fcf9577c-4edc-46fb-9ac3-427b2bac71a0","ios":"levelo://app?vid=fcf9577c-4edc-46fb-9ac3-427b2bac71a0"},"vehicle_type_id":"4","last_reported":1761070484,"current_range_meters":8400,"station_id":"ce4bhp92rcd13ifvqhbg","pricing_plan_id":"cebpf4jnsgd1na2vs0mg"},{"bike_id":"bf8ec125-d0e1-4669-93ef-7d5ad0ddea3a","system_id":"levelo_inurba_marseille","lat":43.27233,"lon":5.40065,"is_reserved":false,"is_disabled":false,"rental_uris":{"android":"levelo://app?vid=bf8ec125-d0e1-4669-93ef-7d5ad0ddea3a","ios":"levelo://app?vid=bf8ec125-d0e1-4669-93ef-7d5ad0ddea3a"},"vehicle_type_id":"4","last_reported":1761070484,"current_range_meters":8400,"station_id":"","pricing_plan_id":"cebpf4jnsgd1na2vs0mg"},{"bike_id":"64034e31-b132-4b3b-afd0-99cdc1bab034","system_id":"levelo_inurba_marseille","lat":43.30423,"lon":5.38895,"is_reserved":false,"is_disabled":false,"rental_uris":{"android":"levelo://app?vid=64034e31-b132-4b3b-afd0-99cdc1bab034","ios":"levelo://app?vid=64034e31-b132-4b3b-afd0-99cdc1bab034"},"vehicle_type_id":"4","last_reported":1761070484,"current_range_meters":8400,"station_id":"ce4bgk12rcd13ifvqbi0","pricing_plan_id":"cebpf4jnsgd1na2vs0mg"},{"bike_id":"e7cb61d9-84d9-41c0-8427-00fc6a9e436b","system_id":"levelo_inurba_marseille","lat":43.31057,"lon":5.3758,"is_reserved":false,"is_disabled":false,"rental_uris":{"android":"levelo://app?vid=e7cb61d9-84d9-41c0-8427-00fc6a9e436b","ios":"levelo://app?vid=e7cb61d9-84d9-41c0-8427-00fc6a9e436b"},"vehicle_type_id":"4","last_reported":1761070484,"current_range_meters":8400,"station_id":"","pricing_plan_id":"cebpf4jnsgd1na2vs0mg"},{"bike_id":"47703f25-1cc0-4d1d-acce-f471e6d95a89","system_id":"levelo_inurba_marseille","lat":43.29525,"lon":5.39394,"is_reserved":false,"is_disabled":false,"rental_uris":{"android":"levelo://app?vid=47703f25-1cc0-4d1d-acce-f471e6d95a89","ios":"levelo://app?vid=47703f25-1cc0-4d1d-acce-f471e6d95a89"},"vehicle_type_id":"4","last_reported":1761070484,"current_range_meters":8400,"station_id":"ce4bh292rcd13ifvqdf0","pricing_plan_id":"cebpf4jnsgd1na2vs0mg"},{"bike_id":"988b51c4-4798-4b6e-a63a-f12cddd4040a","system_id":"levelo_inurba_marseille","lat":43.2953,"lon":5.38542,"is_reserved":false,"is_disabled":false,"rental_uris":{"android":"levelo://app?vid=988b51c4-4798-4b6e-a63a-f12cddd4040a","ios":"levelo://app?vid=988b51c4-4798-4b6e-a63a-f12cddd4040a"},"vehicle_type_id":"4","last_reported":1761070484,"current_range_meters":8400,"station_id":"ce4bgih2rcd13ifvqba0","pricing_plan_id":"cebpf4jnsgd1na2vs0mg"},{"bike_id":"c4432b73-0adb-475d-83b3-18f6e7bba483","system_id":"levelo_inurba_marseille","lat":43.33103,"lon":5.39374,"is_reserved":false,"is_disabled":false,"rental_uris":{"android":"levelo://app?vid=c4432b73-0adb-475d-83b3-18f6e7bba483","ios":"levelo://app?vid=c4432b73-0adb-475d-83b3-18f6e7bba483"},"vehicle_type_id":"4","last_reported":1761070484,"current_range_meters":8400,"station_id":"","pricing_plan_id":"cebpf4jnsgd1na2vs0mg"},{"bike_id":"79c51b69-0679-4128-b28a-491a52cfc149","system_id":"levelo_inurba_marseille","lat":43.304308,"lon":5.405861,"is_reserved":false,"is_disabled":false,"rental_uris":{"android":"levelo://app?vid=79c51b69-0679-4128-b28a-491a52cfc149","ios":"levelo://app?vid=79c51b69-0679-4128-b28a-491a52cfc149"},"vehicle_type_id":"4","last_reported":1761070484,"current_range_meters":8800,"station_id":"","pricing_plan_id":"cebpf4jnsgd1na2vs0mg"},{"bike_id":"a2e131f8-3c9f-478a-b394-6a9db5f46a7a","system_id":"levelo_inurba_marseille","lat":43.30131,"lon":5.37428,"is_reserved":false,"is_disabled":true,"rental_uris":{"android":"levelo://app?vid=a2e131f8-3c9f-478a-b394-6a9db5f46a7a","ios":"levelo://app?vid=a2e131f8-3c9f-478a-b394-6a9db5f46a7a"},"vehicle_type_id":"4","last_reported":1761070484,"current_range_meters":8800,"station_id":"ce4bgs92rcd13ifvqcc0","pricing_plan_id":"cebpf4jnsgd1na2vs0mg"},{"bike_id":"f2ff0ade-5361-46d8-ab78-69bd403c3483","system_id":"levelo_inurba_marseille","lat":43.28209,"lon":5.34991,"is_reserved":false,"is_disabled":false,"rental_uris":{"android":"levelo://app?vid=f2ff0ade-5361-46d8-ab78-69bd403c3483","ios":"levelo://app?vid=f2ff0ade-5361-46d8-ab78-69bd403c3483"},"vehicle_type_id":"4","last_reported":1761070484,"current_range_meters":8800,"station_id":"","pricing_plan_id":"cebpf4jnsgd1na2vs0mg"},{"bike_id":"9e50971e-20aa-4b8b-97dc-2bbff690a60c","system_id":"levelo_inurba_marseille","lat":43.26568,"lon":5.39006,"is_reserved":false,"is_disabled":false,"rental_uris":{"android":"levelo://app?vid=9e50971e-20aa-4b8b-97dc-2bbff690a60c","ios":"levelo://app?vid=9e50971e-20aa-4b8b-97dc-2bbff690a60c"},"vehicle_type_id":"4","last_reported":1761070484,"current_range_meters":8800,"station_id":"ce4bhe12rcd13ifvqf30","pricing_plan_id":"cebpf4jnsgd1na2vs0mg"},{"bike_id":"4dd59333-e4e7-4a62-82cd-a5195c5563df","system_id":"levelo_inurba_marseille","lat":43.2926,"lon":5.4091,"is_reserved":false,"is_disabled":false,"rental_uris":{"android":"levelo://app?vid=4dd59333-e4e7-4a62-82cd-a5195c5563df","ios":"levelo://app?vid=4dd59333-e4e7-4a62-82cd-a5195c5563df"},"vehicle_type_id":"4","last_reported":1761070484,"current_range_meters":9200,"station_id":"ce4bh192rcd13ifvqdc0","pricing_plan_id":"cebpf4jnsgd1na2vs0mg"},{"bike_id":"bedab86a-a42b-4d3b-a255-7e555fb6da4b","system_id":"levelo_inurba_marseille","lat":43.28856,"lon":5.45162,"is_reserved":false,"is_disabled":false,"rental_uris":{"android":"levelo://app?vid=bedab86a-a42b-4d3b-a255-7e555fb6da4b","ios":"levelo://app?vid=bedab86a-a42b-4d3b-a255-7e555fb6da4b"},"vehicle_type_id":"4","last_reported":1761070484,"current_range_meters":9200,"station_id":"","pricing_plan_id":"cebpf4jnsgd1na2vs0mg"},{"bike_id":"b05fa741-189f-40ae-a89c-2977a62785fc","system_id":"levelo_inurba_marseille","lat":43.28452,"lon":5.39176,"is_reserved":false,"is_disabled":false,"rental_uris":{"android":"levelo://app?vid=b05fa741-189f-40ae-a89c-2977a62785fc","ios":"levelo://app?vid=b05fa741-189f-40ae-a89c-2977a62785fc"},"vehicle_type_id":"4","last_reported":1761070484,"current_range_meters":9200,"station_id":"ce4bhoh2rcd13ifvqh5g","pricing_plan_id":"cebpf4jnsgd1na2vs0mg"},{"bike_id":"a65361c6-0b73-4360-8f07-985dca8edb53","system_id":"levelo_inurba_marseille","lat":43.30128,"lon":5.38763,"is_reserved":false,"is_disabled":false,"rental_uris":{"android":"levelo://app?vid=a65361c6-0b73-4360-8f07-985dca8edb53","ios":"levelo://app?vid=a65361c6-0b73-4360-8f07-985dca8edb53"},"vehicle_type_id":"4","last_reported":1761070484,"current_range_meters":9200,"station_id":"ce4bghh2rcd13ifvqb60","pricing_plan_id":"cebpf4jnsgd1na2vs0mg"},{"bike_id":"f36bf9b6-e8a5-4259-8928-69e686b73348","system_id":"levelo_inurba_marseille","lat":43.29781,"lon":5.38103,"is_reserved":false,"is_disabled":false,"rental_uris":{"android":"levelo://app?vid=f36bf9b6-e8a5-4259-8928-69e686b73348","ios":"levelo://app?vid=f36bf9b6-e8a5-4259-8928-69e686b73348"},"vehicle_type_id":"4","last_reported":1761070484,"current_range_meters":9200,"station_id":"ce4bgip2rcd13ifvqbb0","pricing_plan_id":"cebpf4jnsgd1na2vs0mg"},{"bike_id":"52d1e06b-a484-49bb-80f2-f336eeeddea2","system_id":"levelo_inurba_marseille","lat":43.29022,"lon":5.3757,"is_reserved":false,"is_disabled":false,"rental_uris":{"android":"levelo://app?vid=52d1e06b-a484-49bb-80f2-f336eeeddea2","ios":"levelo://app?vid=52d1e06b-a484-49bb-80f2-f336eeeddea2"},"vehicle_type_id":"4","last_reported":1761070484,"current_range_meters":9200,"station_id":"ce4bh692rcd13ifvqe90","pricing_plan_id":"cebpf4jnsgd1na2vs0mg"},{"bike_id":"adb6da43-a790-4bbe-8cdb-8fa1e5d17796","system_id":"levelo_inurba_marseille","lat":43.3175,"lon":5.38585,"is_reserved":false,"is_disabled":true,"rental_uris":{"android":"levelo://app?vid=adb6da43-a790-4bbe-8cdb-8fa1e5d17796","ios":"levelo://app?vid=adb6da43-a790-4bbe-8cdb-8fa1e5d17796"},"vehicle_type_id":"4","last_reported":1761070484,"current_range_meters":9200,"station_id":"","pricing_plan_id":"cebpf4jnsgd1na2vs0mg"},{"bike_id":"face8811-6222-467b-bca1-6c8d01e04d41","system_id":"levelo_inurba_marseille","lat":43.27998,"lon":5.41669,"is_reserved":false,"is_disabled":false,"rental_uris":{"android":"levelo://app?vid=face8811-6222-467b-bca1-6c8d01e04d41","ios":"levelo://app?vid=face8811-6222-467b-bca1-6c8d01e04d41"},"vehicle_type_id":"4","last_reported":1761070484,"current_range_meters":9200,"station_id":"ce4bho12rcd13ifvqh1g","pricing_plan_id":"cebpf4jnsgd1na2vs0mg"},{"bike_id":"3aed6bc0-f981-41ce-a3e6-2a6abd472c46","system_id":"levelo_inurba_marseille","lat":43.3013,"lon":5.3986,"is_reserved":false,"is_disabled":false,"rental_uris":{"android":"levelo://app?vid=3aed6bc0-f981-41ce-a3e6-2a6abd472c46","ios":"levelo://app?vid=3aed6bc0-f981-41ce-a3e6-2a6abd472c46"},"vehicle_type_id":"4","last_reported":1761070484,"current_range_meters":9600,"station_id":"ce4bh0h2rcd13ifvqd40","pricing_plan_id":"cebpf4jnsgd1na2vs0mg"},{"bike_id":"4154d683-e72a-4592-9e60-2a3872848698","system_id":"levelo_inurba_marseille","lat":43.28474,"lon":5.48393,"is_reserved":false,"is_disabled":false,"rental_uris":{"android":"levelo://app?vid=4154d683-e72a-4592-9e60-2a3872848698","ios":"levelo://app?vid=4154d683-e72a-4592-9e60-2a3872848698"},"vehicle_type_id":"4","last_reported":1761070484,"current_range_meters":9600,"station_id":"st_d3jp68qikq2c7381ktn0","pricing_plan_id":"cebpf4jnsgd1na2vs0mg"},{"bike_id":"effb89ec-6e78-4bf8-b418-20a9a4d35448","system_id":"levelo_inurba_marseille","lat":43.2695,"lon":5.38637,"is_reserved":false,"is_disabled":false,"rental_uris":{"android":"levelo://app?vid=effb89ec-6e78-4bf8-b418-20a9a4d35448","ios":"levelo://app?vid=effb89ec-6e78-4bf8-b418-20a9a4d35448"},"vehicle_type_id":"4","last_reported":1761070484,"current_range_meters":9600,"station_id":"ce4bhh92rcd13ifvqfh0","pricing_plan_id":"cebpf4jnsgd1na2vs0mg"},{"bike_id":"b3368da1-faef-43a4-ada4-73d0de7687c7","system_id":"levelo_inurba_marseille","lat":43.31571,"lon":5.38755,"is_reserved":false,"is_disabled":true,"rental_uris":{"android":"levelo://app?vid=b3368da1-faef-43a4-ada4-73d0de7687c7","ios":"levelo://app?vid=b3368da1-faef-43a4-ada4-73d0de7687c7"},"vehicle_type_id":"4","last_reported":1761070484,"current_range_meters":9600,"station_id":"","pricing_plan_id":"cebpf4jnsgd1na2vs0mg"},{"bike_id":"dd822990-d630-4d76-9321-b9210cc9ae67","system_id":"levelo_inurba_marseille","lat":43.24648,"lon":5.38892,"is_reserved":false,"is_disabled":false,"rental_uris":{"android":"levelo://app?vid=dd822990-d630-4d76-9321-b9210cc9ae67","ios":"levelo://app?vid=dd822990-d630-4d76-9321-b9210cc9ae67"},"vehicle_type_id":"4","last_reported":1761070484,"current_range_meters":9600,"station_id":"ce4bhg12rcd13ifvqf60","pricing_plan_id":"cebpf4jnsgd1na2vs0mg"},{"bike_id":"3d2df575-6b60-4c98-98f9-0230ba3d81cd","system_id":"levelo_inurba_marseille","lat":43.26678,"lon":5.38265,"is_reserved":false,"is_disabled":false,"rental_uris":{"android":"levelo://app?vid=3d2df575-6b60-4c98-98f9-0230ba3d81cd","ios":"levelo://app?vid=3d2df575-6b60-4c98-98f9-0230ba3d81cd"},"vehicle_type_id":"4","last_reported":1761070484,"current_range_meters":9600,"station_id":"ce4bhg92rcd13ifvqf90","pricing_plan_id":"cebpf4jnsgd1na2vs0mg"},{"bike_id":"6ecb7a27-e85e-45b0-ab5a-d0e3e8d1c168","system_id":"levelo_inurba_marseille","lat":43.28993,"lon":5.35596,"is_reserved":false,"is_disabled":false,"rental_uris":{"android":"levelo://app?vid=6ecb7a27-e85e-45b0-ab5a-d0e3e8d1c168","ios":"levelo://app?vid=6ecb7a27-e85e-45b0-ab5a-d0e3e8d1c168"},"vehicle_type_id":"4","last_reported":1761070484,"current_range_meters":10000,"station_id":"ce4bhb92rcd13ifvqen0","pricing_plan_id":"cebpf4jnsgd1na2vs0mg"},{"bike_id":"b7e41c34-cad5-468c-aadc-3ef8a1845b5a","system_id":"levelo_inurba_marseille","lat":43.281567,"lon":5.361271,"is_reserved":false,"is_disabled":false,"rental_uris":{"android":"levelo://app?vid=b7e41c34-cad5-468c-aadc-3ef8a1845b5a","ios":"levelo://app?vid=b7e41c34-cad5-468c-aadc-3ef8a1845b5a"},"vehicle_type_id":"4","last_reported":1761070484,"current_range_meters":10000,"station_id":"","pricing_plan_id":"cebpf4jnsgd1na2vs0mg"},{"bike_id":"fe998b17-9d85-477f-b92c-87f6ebb6e1b3","system_id":"levelo_inurba_marseille","lat":43.24474,"lon":5.36939,"is_reserved":false,"is_disabled":false,"rental_uris":{"android":"levelo://app?vid=fe998b17-9d85-477f-b92c-87f6ebb6e1b3","ios":"levelo://app?vid=fe998b17-9d85-477f-b92c-87f6ebb6e1b3"},"vehicle_type_id":"4","last_reported":1761070484,"current_range_meters":10000,"station_id":"","pricing_plan_id":"cebpf4jnsgd1na2vs0mg"},{"bike_id":"1fb64989-0eae-4f9d-8439-0ac794c553e0","system_id":"levelo_inurba_marseille","lat":43.32657,"lon":5.40995,"is_reserved":false,"is_disabled":false,"rental_uris":{"android":"levelo://app?vid=1fb64989-0eae-4f9d-8439-0ac794c553e0","ios":"levelo://app?vid=1fb64989-0eae-4f9d-8439-0ac794c553e0"},"vehicle_type_id":"4","last_reported":1761070484,"current_range_meters":10000,"station_id":"ce4bhpp2rcd13ifvqhgg","pricing_plan_id":"cebpf4jnsgd1na2vs0mg"},{"bike_id":"0d56b96e-b0ac-472d-b17c-d371061bc91f","system_id":"levelo_inurba_marseille","lat":43.30302,"lon":5.39214,"is_reserved":false,"is_disabled":false,"rental_uris":{"android":"levelo://app?vid=0d56b96e-b0ac-472d-b17c-d371061bc91f","ios":"levelo://app?vid=0d56b96e-b0ac-472d-b17c-d371061bc91f"},"vehicle_type_id":"4","last_reported":1761070484,"current_range_meters":10000,"station_id":"ce4bgkh2rcd13ifvqbk0","pricing_plan_id":"cebpf4jnsgd1na2vs0mg"},{"bike_id":"3d068a7d-8c2c-4f97-8d7d-54140fa95800","system_id":"levelo_inurba_marseille","lat":43.27355,"lon":5.39877,"is_reserved":false,"is_disabled":false,"rental_uris":{"android":"levelo://app?vid=3d068a7d-8c2c-4f97-8d7d-54140fa95800","ios":"levelo://app?vid=3d068a7d-8c2c-4f97-8d7d-54140fa95800"},"vehicle_type_id":"4","last_reported":1761070484,"current_range_meters":10000,"station_id":"","pricing_plan_id":"cebpf4jnsgd1na2vs0mg"},{"bike_id":"460bed0c-e4f8-462b-a97a-a91ae7a03bd0","system_id":"levelo_inurba_marseille","lat":43.28732,"lon":5.37938,"is_reserved":false,"is_disabled":false,"rental_uris":{"android":"levelo://app?vid=460bed0c-e4f8-462b-a97a-a91ae7a03bd0","ios":"levelo://app?vid=460bed0c-e4f8-462b-a97a-a91ae7a03bd0"},"vehicle_type_id":"4","last_reported":1761070484,"current_range_meters":10000,"station_id":"ce4bh9p2rcd13ifvqec0","pricing_plan_id":"cebpf4jnsgd1na2vs0mg"},{"bike_id":"bf3ec2a9-83af-4f9a-83bb-9250427727ab","system_id":"levelo_inurba_marseille","lat":43.28097,"lon":5.37834,"is_reserved":false,"is_disabled":false,"rental_uris":{"android":"levelo://app?vid=bf3ec2a9-83af-4f9a-83bb-9250427727ab","ios":"levelo://app?vid=bf3ec2a9-83af-4f9a-83bb-9250427727ab"},"vehicle_type_id":"4","last_reported":1761070484,"current_range_meters":10000,"station_id":"ce4bha12rcd13ifvqee0","pricing_plan_id":"cebpf4jnsgd1na2vs0mg"},{"bike_id":"49cabdc5-ab59-45bc-b0af-456b5f3dbb0b","system_id":"levelo_inurba_marseille","lat":43.29538,"lon":5.38555,"is_reserved":false,"is_disabled":false,"rental_uris":{"android":"levelo://app?vid=49cabdc5-ab59-45bc-b0af-456b5f3dbb0b","ios":"levelo://app?vid=49cabdc5-ab59-45bc-b0af-456b5f3dbb0b"},"vehicle_type_id":"4","last_reported":1761070484,"current_range_meters":10000,"station_id":"ce4bgih2rcd13ifvqba0","pricing_plan_id":"cebpf4jnsgd1na2vs0mg"},{"bike_id":"d3d80c83-5cfc-4c71-8706-cb9e3cc2b9d6","system_id":"levelo_inurba_marseille","lat":43.28356,"lon":5.38097,"is_reserved":false,"is_disabled":false,"rental_uris":{"android":"levelo://app?vid=d3d80c83-5cfc-4c71-8706-cb9e3cc2b9d6","ios":"levelo://app?vid=d3d80c83-5cfc-4c71-8706-cb9e3cc2b9d6"},"vehicle_type_id":"4","last_reported":1761070484,"current_range_meters":10000,"station_id":"ce4bh412rcd13ifvqdr0","pricing_plan_id":"cebpf4jnsgd1na2vs0mg"},{"bike_id":"66bec76d-d7e9-4a1e-a715-39e56334bf96","system_id":"levelo_inurba_marseille","lat":43.28309,"lon":5.3966,"is_reserved":false,"is_disabled":false,"rental_uris":{"android":"levelo://app?vid=66bec76d-d7e9-4a1e-a715-39e56334bf96","ios":"levelo://app?vid=66bec76d-d7e9-4a1e-a715-39e56334bf96"},"vehicle_type_id":"4","last_reported":1761070484,"current_range_meters":10800,"station_id":"","pricing_plan_id":"cebpf4jnsgd1na2vs0mg"},{"bike_id":"609e8845-7ae3-4c4f-97f5-856dd3a8b490","system_id":"levelo_inurba_marseille","lat":43.28859,"lon":5.42512,"is_reserved":false,"is_disabled":false,"rental_uris":{"android":"levelo://app?vid=609e8845-7ae3-4c4f-97f5-856dd3a8b490","ios":"levelo://app?vid=609e8845-7ae3-4c4f-97f5-856dd3a8b490"},"vehicle_type_id":"4","last_reported":1761070484,"current_range_meters":10800,"station_id":"st_d3b462108ojc7389ooeg","pricing_plan_id":"cebpf4jnsgd1na2vs0mg"},{"bike_id":"b1e01f76-34b6-4521-a483-ac2e8db39d64","system_id":"levelo_inurba_marseille","lat":43.29532,"lon":5.38546,"is_reserved":false,"is_disabled":false,"rental_uris":{"android":"levelo://app?vid=b1e01f76-34b6-4521-a483-ac2e8db39d64","ios":"levelo://app?vid=b1e01f76-34b6-4521-a483-ac2e8db39d64"},"vehicle_type_id":"4","last_reported":1761070484,"current_range_meters":10800,"station_id":"ce4bgih2rcd13ifvqba0","pricing_plan_id":"cebpf4jnsgd1na2vs0mg"},{"bike_id":"7e6e9abf-a05a-48e2-a9f5-321bff5491ad","system_id":"levelo_inurba_marseille","lat":43.292,"lon":5.35806,"is_reserved":false,"is_disabled":false,"rental_uris":{"android":"levelo://app?vid=7e6e9abf-a05a-48e2-a9f5-321bff5491ad","ios":"levelo://app?vid=7e6e9abf-a05a-48e2-a9f5-321bff5491ad"},"vehicle_type_id":"4","last_reported":1761070484,"current_range_meters":10800,"station_id":"ce4bhb12rcd13ifvqel0","pricing_plan_id":"cebpf4jnsgd1na2vs0mg"},{"bike_id":"76a1e5f0-dc94-4b86-b044-a27f1909e8b8","system_id":"levelo_inurba_marseille","lat":43.2954,"lon":5.38541,"is_reserved":false,"is_disabled":false,"rental_uris":{"android":"levelo://app?vid=76a1e5f0-dc94-4b86-b044-a27f1909e8b8","ios":"levelo://app?vid=76a1e5f0-dc94-4b86-b044-a27f1909e8b8"},"vehicle_type_id":"4","last_reported":1761070484,"current_range_meters":10800,"station_id":"ce4bgih2rcd13ifvqba0","pricing_plan_id":"cebpf4jnsgd1na2vs0mg"},{"bike_id":"0408f8b8-571c-431b-8edf-2a0e588fc64a","system_id":"levelo_inurba_marseille","lat":43.29913,"lon":5.37486,"is_reserved":false,"is_disabled":false,"rental_uris":{"android":"levelo://app?vid=0408f8b8-571c-431b-8edf-2a0e588fc64a","ios":"levelo://app?vid=0408f8b8-571c-431b-8edf-2a0e588fc64a"},"vehicle_type_id":"4","last_reported":1761070484,"current_range_meters":10800,"station_id":"ce4bgjh2rcd13ifvqbg0","pricing_plan_id":"cebpf4jnsgd1na2vs0mg"},{"bike_id":"da3c5d5d-639d-4a11-88e1-f7b9c2ad220a","system_id":"levelo_inurba_marseille","lat":43.31682,"lon":5.377499,"is_reserved":false,"is_disabled":true,"rental_uris":{"android":"levelo://app?vid=da3c5d5d-639d-4a11-88e1-f7b9c2ad220a","ios":"levelo://app?vid=da3c5d5d-639d-4a11-88e1-f7b9c2ad220a"},"vehicle_type_id":"4","last_reported":1761070484,"current_range_meters":10800,"station_id":"ce4bgth2rcd13ifvqch0","pricing_plan_id":"cebpf4jnsgd1na2vs0mg"},{"bike_id":"4970dc4d-8cf1-4f95-a468-969a12174cf8","system_id":"levelo_inurba_marseille","lat":43.28037,"lon":5.36945,"is_reserved":false,"is_disabled":false,"rental_uris":{"android":"levelo://app?vid=4970dc4d-8cf1-4f95-a468-969a12174cf8","ios":"levelo://app?vid=4970dc4d-8cf1-4f95-a468-969a12174cf8"},"vehicle_type_id":"4","last_reported":1761070484,"current_range_meters":10800,"station_id":"ce4bha12rcd13ifvqef0","pricing_plan_id":"cebpf4jnsgd1na2vs0mg"},{"bike_id":"74a48bc3-2325-4a2b-a709-af187880e6b0","system_id":"levelo_inurba_marseille","lat":43.31725,"lon":5.42398,"is_reserved":false,"is_disabled":false,"rental_uris":{"android":"levelo://app?vid=74a48bc3-2325-4a2b-a709-af187880e6b0","ios":"levelo://app?vid=74a48bc3-2325-4a2b-a709-af187880e6b0"},"vehicle_type_id":"4","last_reported":1761070484,"current_range_meters":10800,"station_id":"ce4bhp92rcd13ifvqhbg","pricing_plan_id":"cebpf4jnsgd1na2vs0mg"},{"bike_id":"e3894d31-0203-46b8-9821-aa34e857ae38","system_id":"levelo_inurba_marseille","lat":43.3122,"lon":5.3686,"is_reserved":false,"is_disabled":false,"rental_uris":{"android":"levelo://app?vid=e3894d31-0203-46b8-9821-aa34e857ae38","ios":"levelo://app?vid=e3894d31-0203-46b8-9821-aa34e857ae38"},"vehicle_type_id":"4","last_reported":1761070484,"current_range_meters":10800,"station_id":"ce4bgl92rcd13ifvqbq0","pricing_plan_id":"cebpf4jnsgd1na2vs0mg"},{"bike_id":"261e6c9c-83e5-48ce-904f-a6bb4564a644","system_id":"levelo_inurba_marseille","lat":43.28445,"lon":5.39206,"is_reserved":false,"is_disabled":false,"rental_uris":{"android":"levelo://app?vid=261e6c9c-83e5-48ce-904f-a6bb4564a644","ios":"levelo://app?vid=261e6c9c-83e5-48ce-904f-a6bb4564a644"},"vehicle_type_id":"4","last_reported":1761070484,"current_range_meters":10800,"station_id":"ce4bhoh2rcd13ifvqh5g","pricing_plan_id":"cebpf4jnsgd1na2vs0mg"},{"bike_id":"54a7471e-8675-4b3b-a7a5-316aa76bbcbc","system_id":"levelo_inurba_marseille","lat":43.27919,"lon":5.40449,"is_reserved":false,"is_disabled":false,"rental_uris":{"android":"levelo://app?vid=54a7471e-8675-4b3b-a7a5-316aa76bbcbc","ios":"levelo://app?vid=54a7471e-8675-4b3b-a7a5-316aa76bbcbc"},"vehicle_type_id":"4","last_reported":1761070484,"current_range_meters":10800,"station_id":"","pricing_plan_id":"cebpf4jnsgd1na2vs0mg"},{"bike_id":"19840955-f9d6-49c1-86e8-b7616b7da32c","system_id":"levelo_inurba_marseille","lat":43.33134,"lon":5.39115,"is_reserved":false,"is_disabled":true,"rental_uris":{"android":"levelo://app?vid=19840955-f9d6-49c1-86e8-b7616b7da32c","ios":"levelo://app?vid=19840955-f9d6-49c1-86e8-b7616b7da32c"},"vehicle_type_id":"4","last_reported":1761070484,"current_range_meters":10800,"station_id":"","pricing_plan_id":"cebpf4jnsgd1na2vs0mg"},{"bike_id":"3b17342c-613e-493f-b05a-71de114152cc","system_id":"levelo_inurba_marseille","lat":43.32291,"lon":5.38267,"is_reserved":false,"is_disabled":false,"rental_uris":{"android":"levelo://app?vid=3b17342c-613e-493f-b05a-71de114152cc","ios":"levelo://app?vid=3b17342c-613e-493f-b05a-71de114152cc"},"vehicle_type_id":"4","last_reported":1761070484,"current_range_meters":11200,"station_id":"ce4bhr12rcd13ifvqhqg","pricing_plan_id":"cebpf4jnsgd1na2vs0mg"},{"bike_id":"491311b9-1be9-4610-9db4-0855420c2a0c","system_id":"levelo_inurba_marseille","lat":43.29003,"lon":5.356,"is_reserved":false,"is_disabled":false,"rental_uris":{"android":"levelo://app?vid=491311b9-1be9-4610-9db4-0855420c2a0c","ios":"levelo://app?vid=491311b9-1be9-4610-9db4-0855420c2a0c"},"vehicle_type_id":"4","last_reported":1761070484,"current_range_meters":11200,"station_id":"ce4bhb92rcd13ifvqen0","pricing_plan_id":"cebpf4jnsgd1na2vs0mg"},{"bike_id":"e98423ab-e70e-4388-87ef-3ff97612e7b0","system_id":"levelo_inurba_marseille","lat":43.309108,"lon":5.368485,"is_reserved":false,"is_disabled":false,"rental_uris":{"android":"levelo://app?vid=e98423ab-e70e-4388-87ef-3ff97612e7b0","ios":"levelo://app?vid=e98423ab-e70e-4388-87ef-3ff97612e7b0"},"vehicle_type_id":"4","last_reported":1761070484,"current_range_meters":11200,"station_id":"ce4bgn92rcd13ifvqbvg","pricing_plan_id":"cebpf4jnsgd1na2vs0mg"},{"bike_id":"62901ef3-3742-4a8a-899a-a2ffd164662c","system_id":"levelo_inurba_marseille","lat":43.30293,"lon":5.36883,"is_reserved":false,"is_disabled":false,"rental_uris":{"android":"levelo://app?vid=62901ef3-3742-4a8a-899a-a2ffd164662c","ios":"levelo://app?vid=62901ef3-3742-4a8a-899a-a2ffd164662c"},"vehicle_type_id":"4","last_reported":1761070484,"current_range_meters":11600,"station_id":"ce4bgqh2rcd13ifvqc5g","pricing_plan_id":"cebpf4jnsgd1na2vs0mg"},{"bike_id":"c4d17d81-19cf-4697-a9b1-d780d189ed78","system_id":"levelo_inurba_marseille","lat":43.25112,"lon":5.40324,"is_reserved":false,"is_disabled":true,"rental_uris":{"android":"levelo://app?vid=c4d17d81-19cf-4697-a9b1-d780d189ed78","ios":"levelo://app?vid=c4d17d81-19cf-4697-a9b1-d780d189ed78"},"vehicle_type_id":"4","last_reported":1761070484,"current_range_meters":11600,"station_id":"ce4bhlh2rcd13ifvqgig","pricing_plan_id":"cebpf4jnsgd1na2vs0mg"},{"bike_id":"546e21fd-6450-47b0-bcb2-4c1b409acdf5","system_id":"levelo_inurba_marseille","lat":43.31182,"lon":5.38709,"is_reserved":false,"is_disabled":false,"rental_uris":{"android":"levelo://app?vid=546e21fd-6450-47b0-bcb2-4c1b409acdf5","ios":"levelo://app?vid=546e21fd-6450-47b0-bcb2-4c1b409acdf5"},"vehicle_type_id":"4","last_reported":1761070484,"current_range_meters":11600,"station_id":"ce4bgv12rcd13ifvqcp0","pricing_plan_id":"cebpf4jnsgd1na2vs0mg"},{"bike_id":"2f09c01d-689c-4521-97af-b4ef07cad168","system_id":"levelo_inurba_marseille","lat":43.22556,"lon":5.41645,"is_reserved":false,"is_disabled":false,"rental_uris":{"android":"levelo://app?vid=2f09c01d-689c-4521-97af-b4ef07cad168","ios":"levelo://app?vid=2f09c01d-689c-4521-97af-b4ef07cad168"},"vehicle_type_id":"4","last_reported":1761070484,"current_range_meters":11600,"station_id":"st_d2o4gvlbi1j2169b742g","pricing_plan_id":"cebpf4jnsgd1na2vs0mg"},{"bike_id":"83220eea-11fb-4fe7-bbbe-1bb92379424d","system_id":"levelo_inurba_marseille","lat":43.299695,"lon":5.38497,"is_reserved":false,"is_disabled":false,"rental_uris":{"android":"levelo://app?vid=83220eea-11fb-4fe7-bbbe-1bb92379424d","ios":"levelo://app?vid=83220eea-11fb-4fe7-bbbe-1bb92379424d"},"vehicle_type_id":"4","last_reported":1761070484,"current_range_meters":11600,"station_id":"ce4bgj92rcd13ifvqbd0","pricing_plan_id":"cebpf4jnsgd1na2vs0mg"},{"bike_id":"f5ff7f89-fcb0-4301-89bb-3b65f0cee78c","system_id":"levelo_inurba_marseille","lat":43.301608,"lon":5.374492,"is_reserved":false,"is_disabled":false,"rental_uris":{"android":"levelo://app?vid=f5ff7f89-fcb0-4301-89bb-3b65f0cee78c","ios":"levelo://app?vid=f5ff7f89-fcb0-4301-89bb-3b65f0cee78c"},"vehicle_type_id":"4","last_reported":1761070484,"current_range_meters":11600,"station_id":"ce4bgs92rcd13ifvqcc0","pricing_plan_id":"cebpf4jnsgd1na2vs0mg"},{"bike_id":"90f5fc65-80af-4ea2-91f1-12c8b32ad257","system_id":"levelo_inurba_marseille","lat":43.29791,"lon":5.38108,"is_reserved":false,"is_disabled":false,"rental_uris":{"android":"levelo://app?vid=90f5fc65-80af-4ea2-91f1-12c8b32ad257","ios":"levelo://app?vid=90f5fc65-80af-4ea2-91f1-12c8b32ad257"},"vehicle_type_id":"4","last_reported":1761070484,"current_range_meters":11600,"station_id":"ce4bgip2rcd13ifvqbb0","pricing_plan_id":"cebpf4jnsgd1na2vs0mg"},{"bike_id":"33ac3a37-e314-46ed-a3cb-93545f53343d","system_id":"levelo_inurba_marseille","lat":43.25007,"lon":5.38912,"is_reserved":false,"is_disabled":true,"rental_uris":{"android":"levelo://app?vid=33ac3a37-e314-46ed-a3cb-93545f53343d","ios":"levelo://app?vid=33ac3a37-e314-46ed-a3cb-93545f53343d"},"vehicle_type_id":"4","last_reported":1761070484,"current_range_meters":12000,"station_id":"ce4bhgp2rcd13ifvqfd0","pricing_plan_id":"cebpf4jnsgd1na2vs0mg"},{"bike_id":"83933163-fad8-44b5-9f90-b50cf024ca56","system_id":"levelo_inurba_marseille","lat":43.2902,"lon":5.38638,"is_reserved":false,"is_disabled":false,"rental_uris":{"android":"levelo://app?vid=83933163-fad8-44b5-9f90-b50cf024ca56","ios":"levelo://app?vid=83933163-fad8-44b5-9f90-b50cf024ca56"},"vehicle_type_id":"4","last_reported":1761070484,"current_range_meters":12000,"station_id":"ce4bh4p2rcd13ifvqe0g","pricing_plan_id":"cebpf4jnsgd1na2vs0mg"},{"bike_id":"f16f3058-cee8-4643-b610-c775b0936878","system_id":"levelo_inurba_marseille","lat":43.30921,"lon":5.40144,"is_reserved":false,"is_disabled":false,"rental_uris":{"android":"levelo://app?vid=f16f3058-cee8-4643-b610-c775b0936878","ios":"levelo://app?vid=f16f3058-cee8-4643-b610-c775b0936878"},"vehicle_type_id":"4","last_reported":1761070484,"current_range_meters":12000,"station_id":"ce4bgvp2rcd13ifvqct0","pricing_plan_id":"cebpf4jnsgd1na2vs0mg"},{"bike_id":"350f7b75-240c-4f13-919f-73a2814010a9","system_id":"levelo_inurba_marseille","lat":43.29195,"lon":5.39315,"is_reserved":false,"is_disabled":false,"rental_uris":{"android":"levelo://app?vid=350f7b75-240c-4f13-919f-73a2814010a9","ios":"levelo://app?vid=350f7b75-240c-4f13-919f-73a2814010a9"},"vehicle_type_id":"4","last_reported":1761070484,"current_range_meters":12000,"station_id":"ce4bh192rcd13ifvqdd0","pricing_plan_id":"cebpf4jnsgd1na2vs0mg"},{"bike_id":"7e6356c6-9ed4-4909-b272-5ac6f63121f4","system_id":"levelo_inurba_marseille","lat":43.24662,"lon":5.38166,"is_reserved":false,"is_disabled":false,"rental_uris":{"android":"levelo://app?vid=7e6356c6-9ed4-4909-b272-5ac6f63121f4","ios":"levelo://app?vid=7e6356c6-9ed4-4909-b272-5ac6f63121f4"},"vehicle_type_id":"4","last_reported":1761070484,"current_range_meters":12000,"station_id":"ce4bhih2rcd13ifvqfr0","pricing_plan_id":"cebpf4jnsgd1na2vs0mg"},{"bike_id":"5df8d2bd-c3c3-45d4-b3bb-7cb639ab5c47","system_id":"levelo_inurba_marseille","lat":43.3174,"lon":5.38973,"is_reserved":false,"is_disabled":false,"rental_uris":{"android":"levelo://app?vid=5df8d2bd-c3c3-45d4-b3bb-7cb639ab5c47","ios":"levelo://app?vid=5df8d2bd-c3c3-45d4-b3bb-7cb639ab5c47"},"vehicle_type_id":"4","last_reported":1761070484,"current_range_meters":12000,"station_id":"ce4bhqp2rcd13ifvqhng","pricing_plan_id":"cebpf4jnsgd1na2vs0mg"},{"bike_id":"a8d1902e-0278-4b44-a9cc-f8ed7a13fce7","system_id":"levelo_inurba_marseille","lat":43.23961,"lon":5.36624,"is_reserved":false,"is_disabled":false,"rental_uris":{"android":"levelo://app?vid=a8d1902e-0278-4b44-a9cc-f8ed7a13fce7","ios":"levelo://app?vid=a8d1902e-0278-4b44-a9cc-f8ed7a13fce7"},"vehicle_type_id":"4","last_reported":1761070484,"current_range_meters":12400,"station_id":"ce4bhi12rcd13ifvqfp0","pricing_plan_id":"cebpf4jnsgd1na2vs0mg"},{"bike_id":"09438769-f7b8-4321-99f5-2a5ce4383407","system_id":"levelo_inurba_marseille","lat":43.31166,"lon":5.38718,"is_reserved":false,"is_disabled":false,"rental_uris":{"android":"levelo://app?vid=09438769-f7b8-4321-99f5-2a5ce4383407","ios":"levelo://app?vid=09438769-f7b8-4321-99f5-2a5ce4383407"},"vehicle_type_id":"4","last_reported":1761070484,"current_range_meters":12400,"station_id":"ce4bgv12rcd13ifvqcp0","pricing_plan_id":"cebpf4jnsgd1na2vs0mg"},{"bike_id":"204abbb8-7e92-4806-9649-d3a9db3e8c38","system_id":"levelo_inurba_marseille","lat":43.28717,"lon":5.37944,"is_reserved":false,"is_disabled":false,"rental_uris":{"android":"levelo://app?vid=204abbb8-7e92-4806-9649-d3a9db3e8c38","ios":"levelo://app?vid=204abbb8-7e92-4806-9649-d3a9db3e8c38"},"vehicle_type_id":"4","last_reported":1761070484,"current_range_meters":12400,"station_id":"ce4bh9p2rcd13ifvqec0","pricing_plan_id":"cebpf4jnsgd1na2vs0mg"},{"bike_id":"b8457e49-45d1-4539-8d31-1eb0283df508","system_id":"levelo_inurba_marseille","lat":43.3315,"lon":5.3548,"is_reserved":false,"is_disabled":false,"rental_uris":{"android":"levelo://app?vid=b8457e49-45d1-4539-8d31-1eb0283df508","ios":"levelo://app?vid=b8457e49-45d1-4539-8d31-1eb0283df508"},"vehicle_type_id":"4","last_reported":1761070484,"current_range_meters":12400,"station_id":"","pricing_plan_id":"cebpf4jnsgd1na2vs0mg"},{"bike_id":"520493fc-faaf-4cf1-8565-e71f0588e716","system_id":"levelo_inurba_marseille","lat":43.29318,"lon":5.37178,"is_reserved":false,"is_disabled":false,"rental_uris":{"android":"levelo://app?vid=520493fc-faaf-4cf1-8565-e71f0588e716","ios":"levelo://app?vid=520493fc-faaf-4cf1-8565-e71f0588e716"},"vehicle_type_id":"4","last_reported":1761070484,"current_range_meters":12400,"station_id":"ce4bgh92rcd13ifvqb40","pricing_plan_id":"cebpf4jnsgd1na2vs0mg"},{"bike_id":"b1077679-51cb-44be-b2fb-8d45771f8a24","system_id":"levelo_inurba_marseille","lat":43.2797,"lon":5.38759,"is_reserved":false,"is_disabled":false,"rental_uris":{"android":"levelo://app?vid=b1077679-51cb-44be-b2fb-8d45771f8a24","ios":"levelo://app?vid=b1077679-51cb-44be-b2fb-8d45771f8a24"},"vehicle_type_id":"4","last_reported":1761070484,"current_range_meters":12400,"station_id":"ce4bhg12rcd13ifvqf80","pricing_plan_id":"cebpf4jnsgd1na2vs0mg"},{"bike_id":"4c0a5d73-60b7-4822-a290-6e489f4a946f","system_id":"levelo_inurba_marseille","lat":43.2848,"lon":5.38517,"is_reserved":false,"is_disabled":true,"rental_uris":{"android":"levelo://app?vid=4c0a5d73-60b7-4822-a290-6e489f4a946f","ios":"levelo://app?vid=4c0a5d73-60b7-4822-a290-6e489f4a946f"},"vehicle_type_id":"4","last_reported":1761070484,"current_range_meters":12800,"station_id":"ce4bh8p2rcd13ifvqeb0","pricing_plan_id":"cebpf4jnsgd1na2vs0mg"},{"bike_id":"8e4ec8a8-e68d-4f48-9e6c-ca2d16ad44cd","system_id":"levelo_inurba_marseille","lat":43.29259,"lon":5.38447,"is_reserved":false,"is_disabled":false,"rental_uris":{"android":"levelo://app?vid=8e4ec8a8-e68d-4f48-9e6c-ca2d16ad44cd","ios":"levelo://app?vid=8e4ec8a8-e68d-4f48-9e6c-ca2d16ad44cd"},"vehicle_type_id":"4","last_reported":1761070484,"current_range_meters":13600,"station_id":"ce4bh692rcd13ifvqea0","pricing_plan_id":"cebpf4jnsgd1na2vs0mg"},{"bike_id":"dfb2adad-1827-488f-9269-e58c13b34d9b","system_id":"levelo_inurba_marseille","lat":43.28424,"lon":5.3499,"is_reserved":false,"is_disabled":false,"rental_uris":{"android":"levelo://app?vid=dfb2adad-1827-488f-9269-e58c13b34d9b","ios":"levelo://app?vid=dfb2adad-1827-488f-9269-e58c13b34d9b"},"vehicle_type_id":"4","last_reported":1761070484,"current_range_meters":13600,"station_id":"ce4bhbh2rcd13ifvqepg","pricing_plan_id":"cebpf4jnsgd1na2vs0mg"},{"bike_id":"ab5ef0fb-f4ef-465f-b948-955cf8d7ed16","system_id":"levelo_inurba_marseille","lat":43.26951,"lon":5.38642,"is_reserved":false,"is_disabled":false,"rental_uris":{"android":"levelo://app?vid=ab5ef0fb-f4ef-465f-b948-955cf8d7ed16","ios":"levelo://app?vid=ab5ef0fb-f4ef-465f-b948-955cf8d7ed16"},"vehicle_type_id":"4","last_reported":1761070484,"current_range_meters":13600,"station_id":"ce4bhh92rcd13ifvqfh0","pricing_plan_id":"cebpf4jnsgd1na2vs0mg"},{"bike_id":"1c3f929b-9404-4238-be16-5939b872255f","system_id":"levelo_inurba_marseille","lat":43.318178,"lon":5.423959,"is_reserved":false,"is_disabled":false,"rental_uris":{"android":"levelo://app?vid=1c3f929b-9404-4238-be16-5939b872255f","ios":"levelo://app?vid=1c3f929b-9404-4238-be16-5939b872255f"},"vehicle_type_id":"4","last_reported":1761070484,"current_range_meters":13600,"station_id":"ce4bhp92rcd13ifvqhbg","pricing_plan_id":"cebpf4jnsgd1na2vs0mg"},{"bike_id":"3b5b5126-5f36-4e80-aa13-1543e5dd6511","system_id":"levelo_inurba_marseille","lat":43.285919,"lon":5.350945,"is_reserved":false,"is_disabled":false,"rental_uris":{"android":"levelo://app?vid=3b5b5126-5f36-4e80-aa13-1543e5dd6511","ios":"levelo://app?vid=3b5b5126-5f36-4e80-aa13-1543e5dd6511"},"vehicle_type_id":"4","last_reported":1761070484,"current_range_meters":13600,"station_id":"ce4bhch2rcd13ifvqeug","pricing_plan_id":"cebpf4jnsgd1na2vs0mg"},{"bike_id":"0adee493-4c66-40dc-8e16-0362a62eca2b","system_id":"levelo_inurba_marseille","lat":43.26063,"lon":5.39398,"is_reserved":false,"is_disabled":false,"rental_uris":{"android":"levelo://app?vid=0adee493-4c66-40dc-8e16-0362a62eca2b","ios":"levelo://app?vid=0adee493-4c66-40dc-8e16-0362a62eca2b"},"vehicle_type_id":"4","last_reported":1761070484,"current_range_meters":13600,"station_id":"ce4bhh92rcd13ifvqfj0","pricing_plan_id":"cebpf4jnsgd1na2vs0mg"},{"bike_id":"b6a6a1dc-551f-4fdd-8470-a8bc03161949","system_id":"levelo_inurba_marseille","lat":43.28723,"lon":5.37934,"is_reserved":false,"is_disabled":false,"rental_uris":{"android":"levelo://app?vid=b6a6a1dc-551f-4fdd-8470-a8bc03161949","ios":"levelo://app?vid=b6a6a1dc-551f-4fdd-8470-a8bc03161949"},"vehicle_type_id":"4","last_reported":1761070484,"current_range_meters":13600,"station_id":"ce4bh9p2rcd13ifvqec0","pricing_plan_id":"cebpf4jnsgd1na2vs0mg"},{"bike_id":"22c660ad-ddf4-4958-a393-4acd861a2ace","system_id":"levelo_inurba_marseille","lat":43.28093,"lon":5.37796,"is_reserved":false,"is_disabled":false,"rental_uris":{"android":"levelo://app?vid=22c660ad-ddf4-4958-a393-4acd861a2ace","ios":"levelo://app?vid=22c660ad-ddf4-4958-a393-4acd861a2ace"},"vehicle_type_id":"4","last_reported":1761070484,"current_range_meters":14000,"station_id":"ce4bha12rcd13ifvqee0","pricing_plan_id":"cebpf4jnsgd1na2vs0mg"},{"bike_id":"81ec61dc-95e7-4561-9bd7-10c1fe1e71de","system_id":"levelo_inurba_marseille","lat":43.286648,"lon":5.363524,"is_reserved":false,"is_disabled":false,"rental_uris":{"android":"levelo://app?vid=81ec61dc-95e7-4561-9bd7-10c1fe1e71de","ios":"levelo://app?vid=81ec61dc-95e7-4561-9bd7-10c1fe1e71de"},"vehicle_type_id":"4","last_reported":1761070484,"current_range_meters":14000,"station_id":"ce4bhah2rcd13ifvqej0","pricing_plan_id":"cebpf4jnsgd1na2vs0mg"},{"bike_id":"f6214244-fb70-4a26-af5a-c133e19afadb","system_id":"levelo_inurba_marseille","lat":43.30933,"lon":5.40139,"is_reserved":false,"is_disabled":false,"rental_uris":{"android":"levelo://app?vid=f6214244-fb70-4a26-af5a-c133e19afadb","ios":"levelo://app?vid=f6214244-fb70-4a26-af5a-c133e19afadb"},"vehicle_type_id":"4","last_reported":1761070484,"current_range_meters":14000,"station_id":"ce4bgvp2rcd13ifvqct0","pricing_plan_id":"cebpf4jnsgd1na2vs0mg"},{"bike_id":"73403115-e729-4b28-a1f7-2c113e5e6e69","system_id":"levelo_inurba_marseille","lat":43.24946,"lon":5.4049,"is_reserved":false,"is_disabled":false,"rental_uris":{"android":"levelo://app?vid=73403115-e729-4b28-a1f7-2c113e5e6e69","ios":"levelo://app?vid=73403115-e729-4b28-a1f7-2c113e5e6e69"},"vehicle_type_id":"4","last_reported":1761070484,"current_range_meters":14000,"station_id":"st_d2ngiaodas8pm72gd1h0","pricing_plan_id":"cebpf4jnsgd1na2vs0mg"},{"bike_id":"365a7aba-bfca-4431-89ff-2f504fe4e97d","system_id":"levelo_inurba_marseille","lat":43.30255,"lon":5.40062,"is_reserved":false,"is_disabled":false,"rental_uris":{"android":"levelo://app?vid=365a7aba-bfca-4431-89ff-2f504fe4e97d","ios":"levelo://app?vid=365a7aba-bfca-4431-89ff-2f504fe4e97d"},"vehicle_type_id":"4","last_reported":1761070484,"current_range_meters":14400,"station_id":"ce4bgvh2rcd13ifvqcs0","pricing_plan_id":"cebpf4jnsgd1na2vs0mg"},{"bike_id":"d38bb17a-4ac6-4da6-829b-fc2ffe260364","system_id":"levelo_inurba_marseille","lat":43.31887,"lon":5.40752,"is_reserved":false,"is_disabled":true,"rental_uris":{"android":"levelo://app?vid=d38bb17a-4ac6-4da6-829b-fc2ffe260364","ios":"levelo://app?vid=d38bb17a-4ac6-4da6-829b-fc2ffe260364"},"vehicle_type_id":"4","last_reported":1761070484,"current_range_meters":14400,"station_id":"ce4bhq12rcd13ifvqhig","pricing_plan_id":"cebpf4jnsgd1na2vs0mg"},{"bike_id":"3201e625-69d5-420e-838c-f4c3f44666ef","system_id":"levelo_inurba_marseille","lat":43.33796,"lon":5.37435,"is_reserved":false,"is_disabled":false,"rental_uris":{"android":"levelo://app?vid=3201e625-69d5-420e-838c-f4c3f44666ef","ios":"levelo://app?vid=3201e625-69d5-420e-838c-f4c3f44666ef"},"vehicle_type_id":"4","last_reported":1761070484,"current_range_meters":14400,"station_id":"","pricing_plan_id":"cebpf4jnsgd1na2vs0mg"},{"bike_id":"77892b55-69b2-45ea-985a-afde127c721f","system_id":"levelo_inurba_marseille","lat":43.297913,"lon":5.380842,"is_reserved":false,"is_disabled":false,"rental_uris":{"android":"levelo://app?vid=77892b55-69b2-45ea-985a-afde127c721f","ios":"levelo://app?vid=77892b55-69b2-45ea-985a-afde127c721f"},"vehicle_type_id":"4","last_reported":1761070484,"current_range_meters":14400,"station_id":"","pricing_plan_id":"cebpf4jnsgd1na2vs0mg"},{"bike_id":"5c664fb3-2c78-4bab-b93f-bebb10ffa958","system_id":"levelo_inurba_marseille","lat":43.29257,"lon":5.38442,"is_reserved":false,"is_disabled":false,"rental_uris":{"android":"levelo://app?vid=5c664fb3-2c78-4bab-b93f-bebb10ffa958","ios":"levelo://app?vid=5c664fb3-2c78-4bab-b93f-bebb10ffa958"},"vehicle_type_id":"4","last_reported":1761070484,"current_range_meters":14400,"station_id":"ce4bh692rcd13ifvqea0","pricing_plan_id":"cebpf4jnsgd1na2vs0mg"},{"bike_id":"02f7835e-8895-43db-bc46-dc0659a292d5","system_id":"levelo_inurba_marseille","lat":43.29331,"lon":5.3707,"is_reserved":false,"is_disabled":false,"rental_uris":{"android":"levelo://app?vid=02f7835e-8895-43db-bc46-dc0659a292d5","ios":"levelo://app?vid=02f7835e-8895-43db-bc46-dc0659a292d5"},"vehicle_type_id":"4","last_reported":1761070484,"current_range_meters":14400,"station_id":"","pricing_plan_id":"cebpf4jnsgd1na2vs0mg"},{"bike_id":"77f5b891-81b4-4d86-8920-e7f705c3abfc","system_id":"levelo_inurba_marseille","lat":43.24662,"lon":5.38165,"is_reserved":false,"is_disabled":false,"rental_uris":{"android":"levelo://app?vid=77f5b891-81b4-4d86-8920-e7f705c3abfc","ios":"levelo://app?vid=77f5b891-81b4-4d86-8920-e7f705c3abfc"},"vehicle_type_id":"4","last_reported":1761070484,"current_range_meters":14400,"station_id":"ce4bhih2rcd13ifvqfr0","pricing_plan_id":"cebpf4jnsgd1na2vs0mg"},{"bike_id":"d83ba3b5-f05f-4b3f-995a-05ad1a505367","system_id":"levelo_inurba_marseille","lat":43.3172,"lon":5.42409,"is_reserved":false,"is_disabled":false,"rental_uris":{"android":"levelo://app?vid=d83ba3b5-f05f-4b3f-995a-05ad1a505367","ios":"levelo://app?vid=d83ba3b5-f05f-4b3f-995a-05ad1a505367"},"vehicle_type_id":"4","last_reported":1761070484,"current_range_meters":14800,"station_id":"ce4bhp92rcd13ifvqhbg","pricing_plan_id":"cebpf4jnsgd1na2vs0mg"},{"bike_id":"bfb49ac8-7cd7-4abf-87fe-e5eac64a56b2","system_id":"levelo_inurba_marseille","lat":43.239657,"lon":5.366359,"is_reserved":false,"is_disabled":false,"rental_uris":{"android":"levelo://app?vid=bfb49ac8-7cd7-4abf-87fe-e5eac64a56b2","ios":"levelo://app?vid=bfb49ac8-7cd7-4abf-87fe-e5eac64a56b2"},"vehicle_type_id":"4","last_reported":1761070484,"current_range_meters":14800,"station_id":"ce4bhi12rcd13ifvqfp0","pricing_plan_id":"cebpf4jnsgd1na2vs0mg"},{"bike_id":"c8601a92-951a-448f-9d69-34fac2d91627","system_id":"levelo_inurba_marseille","lat":43.31176,"lon":5.3872,"is_reserved":false,"is_disabled":false,"rental_uris":{"android":"levelo://app?vid=c8601a92-951a-448f-9d69-34fac2d91627","ios":"levelo://app?vid=c8601a92-951a-448f-9d69-34fac2d91627"},"vehicle_type_id":"4","last_reported":1761070484,"current_range_meters":14800,"station_id":"ce4bgv12rcd13ifvqcp0","pricing_plan_id":"cebpf4jnsgd1na2vs0mg"},{"bike_id":"89dd87c4-c8d0-4de7-8902-2b0447e67475","system_id":"levelo_inurba_marseille","lat":43.31232,"lon":5.36877,"is_reserved":false,"is_disabled":false,"rental_uris":{"android":"levelo://app?vid=89dd87c4-c8d0-4de7-8902-2b0447e67475","ios":"levelo://app?vid=89dd87c4-c8d0-4de7-8902-2b0447e67475"},"vehicle_type_id":"4","last_reported":1761070484,"current_range_meters":15200,"station_id":"","pricing_plan_id":"cebpf4jnsgd1na2vs0mg"},{"bike_id":"ee83e065-d9fc-44f0-9d9f-6da9daf8092d","system_id":"levelo_inurba_marseille","lat":43.29527,"lon":5.38542,"is_reserved":false,"is_disabled":false,"rental_uris":{"android":"levelo://app?vid=ee83e065-d9fc-44f0-9d9f-6da9daf8092d","ios":"levelo://app?vid=ee83e065-d9fc-44f0-9d9f-6da9daf8092d"},"vehicle_type_id":"4","last_reported":1761070484,"current_range_meters":15200,"station_id":"ce4bgih2rcd13ifvqba0","pricing_plan_id":"cebpf4jnsgd1na2vs0mg"},{"bike_id":"da19cf54-3963-4f1d-a62b-5703c0ffe407","system_id":"levelo_inurba_marseille","lat":43.31878,"lon":5.40737,"is_reserved":false,"is_disabled":false,"rental_uris":{"android":"levelo://app?vid=da19cf54-3963-4f1d-a62b-5703c0ffe407","ios":"levelo://app?vid=da19cf54-3963-4f1d-a62b-5703c0ffe407"},"vehicle_type_id":"4","last_reported":1761070484,"current_range_meters":15200,"station_id":"ce4bhq12rcd13ifvqhig","pricing_plan_id":"cebpf4jnsgd1na2vs0mg"},{"bike_id":"2c20ce77-04c5-4eed-a053-801c8e8d1b46","system_id":"levelo_inurba_marseille","lat":43.24051,"lon":5.3775,"is_reserved":false,"is_disabled":false,"rental_uris":{"android":"levelo://app?vid=2c20ce77-04c5-4eed-a053-801c8e8d1b46","ios":"levelo://app?vid=2c20ce77-04c5-4eed-a053-801c8e8d1b46"},"vehicle_type_id":"4","last_reported":1761070484,"current_range_meters":15200,"station_id":"ce4bhnp2rcd13ifvqgvg","pricing_plan_id":"cebpf4jnsgd1na2vs0mg"},{"bike_id":"18467f9c-66da-465c-9832-fd4aab93a964","system_id":"levelo_inurba_marseille","lat":43.29196,"lon":5.39311,"is_reserved":false,"is_disabled":false,"rental_uris":{"android":"levelo://app?vid=18467f9c-66da-465c-9832-fd4aab93a964","ios":"levelo://app?vid=18467f9c-66da-465c-9832-fd4aab93a964"},"vehicle_type_id":"4","last_reported":1761070484,"current_range_meters":16000,"station_id":"ce4bh192rcd13ifvqdd0","pricing_plan_id":"cebpf4jnsgd1na2vs0mg"},{"bike_id":"9ae6d079-1c6a-443d-9090-9459a404ee49","system_id":"levelo_inurba_marseille","lat":43.2963,"lon":5.40595,"is_reserved":false,"is_disabled":false,"rental_uris":{"android":"levelo://app?vid=9ae6d079-1c6a-443d-9090-9459a404ee49","ios":"levelo://app?vid=9ae6d079-1c6a-443d-9090-9459a404ee49"},"vehicle_type_id":"4","last_reported":1761070484,"current_range_meters":16000,"station_id":"ce4bh0h2rcd13ifvqd60","pricing_plan_id":"cebpf4jnsgd1na2vs0mg"},{"bike_id":"4859d202-5dad-49c9-9955-c92097024800","system_id":"levelo_inurba_marseille","lat":43.29552,"lon":5.38551,"is_reserved":false,"is_disabled":false,"rental_uris":{"android":"levelo://app?vid=4859d202-5dad-49c9-9955-c92097024800","ios":"levelo://app?vid=4859d202-5dad-49c9-9955-c92097024800"},"vehicle_type_id":"4","last_reported":1761070484,"current_range_meters":16000,"station_id":"ce4bgih2rcd13ifvqba0","pricing_plan_id":"cebpf4jnsgd1na2vs0mg"},{"bike_id":"ca84a29b-f084-4199-a59f-9793698a3d35","system_id":"levelo_inurba_marseille","lat":43.25331,"lon":5.42181,"is_reserved":false,"is_disabled":false,"rental_uris":{"android":"levelo://app?vid=ca84a29b-f084-4199-a59f-9793698a3d35","ios":"levelo://app?vid=ca84a29b-f084-4199-a59f-9793698a3d35"},"vehicle_type_id":"4","last_reported":1761070484,"current_range_meters":16000,"station_id":"st_d2m65c5bi1j21697t3ng","pricing_plan_id":"cebpf4jnsgd1na2vs0mg"},{"bike_id":"91ca82d1-633f-4a57-8a5d-2ce5a543272f","system_id":"levelo_inurba_marseille","lat":43.299139,"lon":5.381017,"is_reserved":false,"is_disabled":false,"rental_uris":{"android":"levelo://app?vid=91ca82d1-633f-4a57-8a5d-2ce5a543272f","ios":"levelo://app?vid=91ca82d1-633f-4a57-8a5d-2ce5a543272f"},"vehicle_type_id":"4","last_reported":1761070484,"current_range_meters":16400,"station_id":"ce4bgj12rcd13ifvqbc0","pricing_plan_id":"cebpf4jnsgd1na2vs0mg"},{"bike_id":"35055d36-474f-46bb-a86c-d8e3e83971cd","system_id":"levelo_inurba_marseille","lat":43.33607,"lon":5.4103,"is_reserved":false,"is_disabled":false,"rental_uris":{"android":"levelo://app?vid=35055d36-474f-46bb-a86c-d8e3e83971cd","ios":"levelo://app?vid=35055d36-474f-46bb-a86c-d8e3e83971cd"},"vehicle_type_id":"4","last_reported":1761070484,"current_range_meters":16400,"station_id":"ce4bhqh2rcd13ifvqhmg","pricing_plan_id":"cebpf4jnsgd1na2vs0mg"},{"bike_id":"146c2516-bef0-44a7-b04d-fb80b55a97f2","system_id":"levelo_inurba_marseille","lat":43.3012,"lon":5.43114,"is_reserved":false,"is_disabled":false,"rental_uris":{"android":"levelo://app?vid=146c2516-bef0-44a7-b04d-fb80b55a97f2","ios":"levelo://app?vid=146c2516-bef0-44a7-b04d-fb80b55a97f2"},"vehicle_type_id":"4","last_reported":1761070484,"current_range_meters":16400,"station_id":"st_d3js3co5814s73ftftug","pricing_plan_id":"cebpf4jnsgd1na2vs0mg"},{"bike_id":"23d6a212-ff7f-450b-95e3-06f76be2ff8e","system_id":"levelo_inurba_marseille","lat":43.28079,"lon":5.39656,"is_reserved":false,"is_disabled":false,"rental_uris":{"android":"levelo://app?vid=23d6a212-ff7f-450b-95e3-06f76be2ff8e","ios":"levelo://app?vid=23d6a212-ff7f-450b-95e3-06f76be2ff8e"},"vehicle_type_id":"4","last_reported":1761070484,"current_range_meters":16400,"station_id":"ce4bho12rcd13ifvqh2g","pricing_plan_id":"cebpf4jnsgd1na2vs0mg"},{"bike_id":"573c9fcd-f531-4594-a753-62bd3b8031d0","system_id":"levelo_inurba_marseille","lat":43.28999,"lon":5.38126,"is_reserved":false,"is_disabled":false,"rental_uris":{"android":"levelo://app?vid=573c9fcd-f531-4594-a753-62bd3b8031d0","ios":"levelo://app?vid=573c9fcd-f531-4594-a753-62bd3b8031d0"},"vehicle_type_id":"4","last_reported":1761070484,"current_range_meters":16400,"station_id":"ce4bh4p2rcd13ifvqe1g","pricing_plan_id":"cebpf4jnsgd1na2vs0mg"},{"bike_id":"6a0425da-171c-45ae-a3aa-99256da5979a","system_id":"levelo_inurba_marseille","lat":43.29756,"lon":5.42785,"is_reserved":false,"is_disabled":false,"rental_uris":{"android":"levelo://app?vid=6a0425da-171c-45ae-a3aa-99256da5979a","ios":"levelo://app?vid=6a0425da-171c-45ae-a3aa-99256da5979a"},"vehicle_type_id":"4","last_reported":1761070484,"current_range_meters":16400,"station_id":"st_d3md5207bmas73dh9klg","pricing_plan_id":"cebpf4jnsgd1na2vs0mg"},{"bike_id":"64d9e813-4fd3-4955-9199-a35ddf1a26f6","system_id":"levelo_inurba_marseille","lat":43.24168,"lon":5.36423,"is_reserved":false,"is_disabled":false,"rental_uris":{"android":"levelo://app?vid=64d9e813-4fd3-4955-9199-a35ddf1a26f6","ios":"levelo://app?vid=64d9e813-4fd3-4955-9199-a35ddf1a26f6"},"vehicle_type_id":"4","last_reported":1761070484,"current_range_meters":16400,"station_id":"cpo36qri1sfpv3e86is0","pricing_plan_id":"cebpf4jnsgd1na2vs0mg"},{"bike_id":"e33169b7-7cf1-41d0-845a-52334e2bc1c8","system_id":"levelo_inurba_marseille","lat":43.2998,"lon":5.38499,"is_reserved":false,"is_disabled":false,"rental_uris":{"android":"levelo://app?vid=e33169b7-7cf1-41d0-845a-52334e2bc1c8","ios":"levelo://app?vid=e33169b7-7cf1-41d0-845a-52334e2bc1c8"},"vehicle_type_id":"4","last_reported":1761070484,"current_range_meters":16400,"station_id":"ce4bgj92rcd13ifvqbd0","pricing_plan_id":"cebpf4jnsgd1na2vs0mg"},{"bike_id":"5fea8592-f4d8-4bf1-a3dc-1cb4bcfa1dd9","system_id":"levelo_inurba_marseille","lat":43.313628,"lon":5.385976,"is_reserved":false,"is_disabled":false,"rental_uris":{"android":"levelo://app?vid=5fea8592-f4d8-4bf1-a3dc-1cb4bcfa1dd9","ios":"levelo://app?vid=5fea8592-f4d8-4bf1-a3dc-1cb4bcfa1dd9"},"vehicle_type_id":"4","last_reported":1761070484,"current_range_meters":16400,"station_id":"ce4bgt92rcd13ifvqcf0","pricing_plan_id":"cebpf4jnsgd1na2vs0mg"},{"bike_id":"197aca6c-07ff-4cc6-97eb-2bdb88d086ec","system_id":"levelo_inurba_marseille","lat":43.284979,"lon":5.35006,"is_reserved":false,"is_disabled":false,"rental_uris":{"android":"levelo://app?vid=197aca6c-07ff-4cc6-97eb-2bdb88d086ec","ios":"levelo://app?vid=197aca6c-07ff-4cc6-97eb-2bdb88d086ec"},"vehicle_type_id":"4","last_reported":1761070484,"current_range_meters":16400,"station_id":"ce4bhbh2rcd13ifvqepg","pricing_plan_id":"cebpf4jnsgd1na2vs0mg"},{"bike_id":"bcac21ff-5f96-434a-bbd3-f15b93d38d84","system_id":"levelo_inurba_marseille","lat":43.280642,"lon":5.352788,"is_reserved":false,"is_disabled":false,"rental_uris":{"android":"levelo://app?vid=bcac21ff-5f96-434a-bbd3-f15b93d38d84","ios":"levelo://app?vid=bcac21ff-5f96-434a-bbd3-f15b93d38d84"},"vehicle_type_id":"4","last_reported":1761070484,"current_range_meters":16400,"station_id":"","pricing_plan_id":"cebpf4jnsgd1na2vs0mg"},{"bike_id":"a630ed88-3f05-4926-bbab-8387ab6b6a28","system_id":"levelo_inurba_marseille","lat":43.23157,"lon":5.43708,"is_reserved":false,"is_disabled":true,"rental_uris":{"android":"levelo://app?vid=a630ed88-3f05-4926-bbab-8387ab6b6a28","ios":"levelo://app?vid=a630ed88-3f05-4926-bbab-8387ab6b6a28"},"vehicle_type_id":"4","last_reported":1761070484,"current_range_meters":16400,"station_id":"ce4bhmp2rcd13ifvqgog","pricing_plan_id":"cebpf4jnsgd1na2vs0mg"},{"bike_id":"4e7e8f57-06ea-4923-b3c1-ea91802d5920","system_id":"levelo_inurba_marseille","lat":43.279916,"lon":5.416433,"is_reserved":false,"is_disabled":false,"rental_uris":{"android":"levelo://app?vid=4e7e8f57-06ea-4923-b3c1-ea91802d5920","ios":"levelo://app?vid=4e7e8f57-06ea-4923-b3c1-ea91802d5920"},"vehicle_type_id":"4","last_reported":1761070484,"current_range_meters":16400,"station_id":"ce4bho12rcd13ifvqh1g","pricing_plan_id":"cebpf4jnsgd1na2vs0mg"},{"bike_id":"4d49c897-b0fd-4635-a1c9-89d76ebe8453","system_id":"levelo_inurba_marseille","lat":43.29529,"lon":5.38546,"is_reserved":false,"is_disabled":false,"rental_uris":{"android":"levelo://app?vid=4d49c897-b0fd-4635-a1c9-89d76ebe8453","ios":"levelo://app?vid=4d49c897-b0fd-4635-a1c9-89d76ebe8453"},"vehicle_type_id":"4","last_reported":1761070484,"current_range_meters":16400,"station_id":"ce4bgih2rcd13ifvqba0","pricing_plan_id":"cebpf4jnsgd1na2vs0mg"},{"bike_id":"5f0c4e6e-8342-4b95-87f4-4062bdcd73ed","system_id":"levelo_inurba_marseille","lat":43.29414,"lon":5.38633,"is_reserved":false,"is_disabled":false,"rental_uris":{"android":"levelo://app?vid=5f0c4e6e-8342-4b95-87f4-4062bdcd73ed","ios":"levelo://app?vid=5f0c4e6e-8342-4b95-87f4-4062bdcd73ed"},"vehicle_type_id":"4","last_reported":1761070484,"current_range_meters":16400,"station_id":"","pricing_plan_id":"cebpf4jnsgd1na2vs0mg"},{"bike_id":"041ac89b-948f-4c1f-933d-146ae1050df5","system_id":"levelo_inurba_marseille","lat":43.262115,"lon":5.374403,"is_reserved":false,"is_disabled":false,"rental_uris":{"android":"levelo://app?vid=041ac89b-948f-4c1f-933d-146ae1050df5","ios":"levelo://app?vid=041ac89b-948f-4c1f-933d-146ae1050df5"},"vehicle_type_id":"4","last_reported":1761070484,"current_range_meters":16400,"station_id":"","pricing_plan_id":"cebpf4jnsgd1na2vs0mg"},{"bike_id":"123b2eec-986c-4bcd-9a7f-829b36002ae2","system_id":"levelo_inurba_marseille","lat":43.29253,"lon":5.37642,"is_reserved":false,"is_disabled":false,"rental_uris":{"android":"levelo://app?vid=123b2eec-986c-4bcd-9a7f-829b36002ae2","ios":"levelo://app?vid=123b2eec-986c-4bcd-9a7f-829b36002ae2"},"vehicle_type_id":"4","last_reported":1761070484,"current_range_meters":16400,"station_id":"ce4bgi12rcd13ifvqb80","pricing_plan_id":"cebpf4jnsgd1na2vs0mg"},{"bike_id":"cf3a4a75-d73c-4c66-ac51-2e243e7e1c00","system_id":"levelo_inurba_marseille","lat":43.29537,"lon":5.38549,"is_reserved":false,"is_disabled":false,"rental_uris":{"android":"levelo://app?vid=cf3a4a75-d73c-4c66-ac51-2e243e7e1c00","ios":"levelo://app?vid=cf3a4a75-d73c-4c66-ac51-2e243e7e1c00"},"vehicle_type_id":"4","last_reported":1761070484,"current_range_meters":16800,"station_id":"ce4bgih2rcd13ifvqba0","pricing_plan_id":"cebpf4jnsgd1na2vs0mg"},{"bike_id":"e97cee2c-2821-4589-ad0d-39b7b7c16139","system_id":"levelo_inurba_marseille","lat":43.29588,"lon":5.37717,"is_reserved":false,"is_disabled":true,"rental_uris":{"android":"levelo://app?vid=e97cee2c-2821-4589-ad0d-39b7b7c16139","ios":"levelo://app?vid=e97cee2c-2821-4589-ad0d-39b7b7c16139"},"vehicle_type_id":"4","last_reported":1761070484,"current_range_meters":16800,"station_id":"ce4bgi92rcd13ifvqb90","pricing_plan_id":"cebpf4jnsgd1na2vs0mg"},{"bike_id":"6692e090-9792-45dd-b639-89e41212fa24","system_id":"levelo_inurba_marseille","lat":43.31281,"lon":5.38462,"is_reserved":false,"is_disabled":true,"rental_uris":{"android":"levelo://app?vid=6692e090-9792-45dd-b639-89e41212fa24","ios":"levelo://app?vid=6692e090-9792-45dd-b639-89e41212fa24"},"vehicle_type_id":"4","last_reported":1761070484,"current_range_meters":16800,"station_id":"","pricing_plan_id":"cebpf4jnsgd1na2vs0mg"},{"bike_id":"e9e0800e-072b-467c-8633-5b9408e137ab","system_id":"levelo_inurba_marseille","lat":43.29563,"lon":5.39985,"is_reserved":false,"is_disabled":false,"rental_uris":{"android":"levelo://app?vid=e9e0800e-072b-467c-8633-5b9408e137ab","ios":"levelo://app?vid=e9e0800e-072b-467c-8633-5b9408e137ab"},"vehicle_type_id":"4","last_reported":1761070484,"current_range_meters":16800,"station_id":"ce4bh312rcd13ifvqdj0","pricing_plan_id":"cebpf4jnsgd1na2vs0mg"},{"bike_id":"3a7cfcd1-3fc4-4ef8-ace2-ab06750e021e","system_id":"levelo_inurba_marseille","lat":43.2907,"lon":5.37172,"is_reserved":false,"is_disabled":false,"rental_uris":{"android":"levelo://app?vid=3a7cfcd1-3fc4-4ef8-ace2-ab06750e021e","ios":"levelo://app?vid=3a7cfcd1-3fc4-4ef8-ace2-ab06750e021e"},"vehicle_type_id":"4","last_reported":1761070484,"current_range_meters":16800,"station_id":"ce4bh5p2rcd13ifvqe4g","pricing_plan_id":"cebpf4jnsgd1na2vs0mg"},{"bike_id":"fbbe31f9-13ef-4cb2-9045-cc1bda3771d7","system_id":"levelo_inurba_marseille","lat":43.31114,"lon":5.37791,"is_reserved":false,"is_disabled":false,"rental_uris":{"android":"levelo://app?vid=fbbe31f9-13ef-4cb2-9045-cc1bda3771d7","ios":"levelo://app?vid=fbbe31f9-13ef-4cb2-9045-cc1bda3771d7"},"vehicle_type_id":"4","last_reported":1761070484,"current_range_meters":16800,"station_id":"ce4bgt92rcd13ifvqcg0","pricing_plan_id":"cebpf4jnsgd1na2vs0mg"},{"bike_id":"37d01fc8-4b4d-4652-a489-1254eb9d4c80","system_id":"levelo_inurba_marseille","lat":43.34076,"lon":5.40411,"is_reserved":false,"is_disabled":false,"rental_uris":{"android":"levelo://app?vid=37d01fc8-4b4d-4652-a489-1254eb9d4c80","ios":"levelo://app?vid=37d01fc8-4b4d-4652-a489-1254eb9d4c80"},"vehicle_type_id":"4","last_reported":1761070484,"current_range_meters":16800,"station_id":"","pricing_plan_id":"cebpf4jnsgd1na2vs0mg"},{"bike_id":"2425fa95-090a-45a0-842a-ed073796412e","system_id":"levelo_inurba_marseille","lat":43.31364,"lon":5.38485,"is_reserved":false,"is_disabled":false,"rental_uris":{"android":"levelo://app?vid=2425fa95-090a-45a0-842a-ed073796412e","ios":"levelo://app?vid=2425fa95-090a-45a0-842a-ed073796412e"},"vehicle_type_id":"4","last_reported":1761070484,"current_range_meters":16800,"station_id":"ce4bgt92rcd13ifvqcf0","pricing_plan_id":"cebpf4jnsgd1na2vs0mg"},{"bike_id":"36ce942d-00e0-4d48-b90b-b36fd0edad7f","system_id":"levelo_inurba_marseille","lat":43.2467,"lon":5.38162,"is_reserved":false,"is_disabled":false,"rental_uris":{"android":"levelo://app?vid=36ce942d-00e0-4d48-b90b-b36fd0edad7f","ios":"levelo://app?vid=36ce942d-00e0-4d48-b90b-b36fd0edad7f"},"vehicle_type_id":"4","last_reported":1761070484,"current_range_meters":16800,"station_id":"ce4bhih2rcd13ifvqfr0","pricing_plan_id":"cebpf4jnsgd1na2vs0mg"},{"bike_id":"1bfc3530-e891-4135-8be1-2038f02b15a9","system_id":"levelo_inurba_marseille","lat":43.26531,"lon":5.39047,"is_reserved":false,"is_disabled":false,"rental_uris":{"android":"levelo://app?vid=1bfc3530-e891-4135-8be1-2038f02b15a9","ios":"levelo://app?vid=1bfc3530-e891-4135-8be1-2038f02b15a9"},"vehicle_type_id":"4","last_reported":1761070484,"current_range_meters":16800,"station_id":"ce4bhe12rcd13ifvqf30","pricing_plan_id":"cebpf4jnsgd1na2vs0mg"},{"bike_id":"6dda31ac-2b1f-4a4e-91ea-ced8629aa74b","system_id":"levelo_inurba_marseille","lat":43.28692,"lon":5.37378,"is_reserved":false,"is_disabled":false,"rental_uris":{"android":"levelo://app?vid=6dda31ac-2b1f-4a4e-91ea-ced8629aa74b","ios":"levelo://app?vid=6dda31ac-2b1f-4a4e-91ea-ced8629aa74b"},"vehicle_type_id":"4","last_reported":1761070484,"current_range_meters":17200,"station_id":"ce4bh3p2rcd13ifvqdq0","pricing_plan_id":"cebpf4jnsgd1na2vs0mg"},{"bike_id":"14a48b0f-291f-48df-a6cf-497725597040","system_id":"levelo_inurba_marseille","lat":43.29024,"lon":5.3815,"is_reserved":false,"is_disabled":false,"rental_uris":{"android":"levelo://app?vid=14a48b0f-291f-48df-a6cf-497725597040","ios":"levelo://app?vid=14a48b0f-291f-48df-a6cf-497725597040"},"vehicle_type_id":"4","last_reported":1761070484,"current_range_meters":17200,"station_id":"ce4bh4p2rcd13ifvqe1g","pricing_plan_id":"cebpf4jnsgd1na2vs0mg"},{"bike_id":"d00f4c2a-3594-49b4-b41c-198467814d53","system_id":"levelo_inurba_marseille","lat":43.24074,"lon":5.37762,"is_reserved":false,"is_disabled":false,"rental_uris":{"android":"levelo://app?vid=d00f4c2a-3594-49b4-b41c-198467814d53","ios":"levelo://app?vid=d00f4c2a-3594-49b4-b41c-198467814d53"},"vehicle_type_id":"4","last_reported":1761070484,"current_range_meters":17200,"station_id":"ce4bhnp2rcd13ifvqgvg","pricing_plan_id":"cebpf4jnsgd1na2vs0mg"},{"bike_id":"e97fdad0-6b2d-4ae0-8462-b73762c6c8da","system_id":"levelo_inurba_marseille","lat":43.24662,"lon":5.38144,"is_reserved":false,"is_disabled":false,"rental_uris":{"android":"levelo://app?vid=e97fdad0-6b2d-4ae0-8462-b73762c6c8da","ios":"levelo://app?vid=e97fdad0-6b2d-4ae0-8462-b73762c6c8da"},"vehicle_type_id":"4","last_reported":1761070484,"current_range_meters":17200,"station_id":"ce4bhih2rcd13ifvqfr0","pricing_plan_id":"cebpf4jnsgd1na2vs0mg"},{"bike_id":"396aaa55-c35f-41fc-8337-93bac25c9dde","system_id":"levelo_inurba_marseille","lat":43.29226,"lon":5.356053,"is_reserved":false,"is_disabled":false,"rental_uris":{"android":"levelo://app?vid=396aaa55-c35f-41fc-8337-93bac25c9dde","ios":"levelo://app?vid=396aaa55-c35f-41fc-8337-93bac25c9dde"},"vehicle_type_id":"4","last_reported":1761070484,"current_range_meters":17200,"station_id":"","pricing_plan_id":"cebpf4jnsgd1na2vs0mg"},{"bike_id":"464bd8a3-6573-4884-b980-774e68ad4ab1","system_id":"levelo_inurba_marseille","lat":43.27178,"lon":5.40988,"is_reserved":false,"is_disabled":false,"rental_uris":{"android":"levelo://app?vid=464bd8a3-6573-4884-b980-774e68ad4ab1","ios":"levelo://app?vid=464bd8a3-6573-4884-b980-774e68ad4ab1"},"vehicle_type_id":"4","last_reported":1761070484,"current_range_meters":17200,"station_id":"ce4bhl12rcd13ifvqgf0","pricing_plan_id":"cebpf4jnsgd1na2vs0mg"},{"bike_id":"53c6235b-6e0c-4c8b-8256-bfcb035bd976","system_id":"levelo_inurba_marseille","lat":43.28465,"lon":5.38435,"is_reserved":false,"is_disabled":false,"rental_uris":{"android":"levelo://app?vid=53c6235b-6e0c-4c8b-8256-bfcb035bd976","ios":"levelo://app?vid=53c6235b-6e0c-4c8b-8256-bfcb035bd976"},"vehicle_type_id":"4","last_reported":1761070484,"current_range_meters":17200,"station_id":"ce4bh512rcd13ifvqe3g","pricing_plan_id":"cebpf4jnsgd1na2vs0mg"},{"bike_id":"46e71a08-7e6c-4660-87ec-495dba3c6628","system_id":"levelo_inurba_marseille","lat":43.29621,"lon":5.37152,"is_reserved":false,"is_disabled":false,"rental_uris":{"android":"levelo://app?vid=46e71a08-7e6c-4660-87ec-495dba3c6628","ios":"levelo://app?vid=46e71a08-7e6c-4660-87ec-495dba3c6628"},"vehicle_type_id":"4","last_reported":1761070484,"current_range_meters":17200,"station_id":"","pricing_plan_id":"cebpf4jnsgd1na2vs0mg"},{"bike_id":"1dcf3ec6-f82c-404e-9f76-04f2dfad117c","system_id":"levelo_inurba_marseille","lat":43.292755,"lon":5.384303,"is_reserved":false,"is_disabled":false,"rental_uris":{"android":"levelo://app?vid=1dcf3ec6-f82c-404e-9f76-04f2dfad117c","ios":"levelo://app?vid=1dcf3ec6-f82c-404e-9f76-04f2dfad117c"},"vehicle_type_id":"4","last_reported":1761070484,"current_range_meters":17200,"station_id":"","pricing_plan_id":"cebpf4jnsgd1na2vs0mg"},{"bike_id":"b50588c1-1820-4f9e-b36e-c5ff6aa84147","system_id":"levelo_inurba_marseille","lat":43.26557,"lon":5.3903,"is_reserved":false,"is_disabled":false,"rental_uris":{"android":"levelo://app?vid=b50588c1-1820-4f9e-b36e-c5ff6aa84147","ios":"levelo://app?vid=b50588c1-1820-4f9e-b36e-c5ff6aa84147"},"vehicle_type_id":"4","last_reported":1761070484,"current_range_meters":17200,"station_id":"ce4bhe12rcd13ifvqf30","pricing_plan_id":"cebpf4jnsgd1na2vs0mg"},{"bike_id":"e30fd030-d59f-4d68-9f38-c3b759ac2b44","system_id":"levelo_inurba_marseille","lat":43.29035,"lon":5.35904,"is_reserved":false,"is_disabled":false,"rental_uris":{"android":"levelo://app?vid=e30fd030-d59f-4d68-9f38-c3b759ac2b44","ios":"levelo://app?vid=e30fd030-d59f-4d68-9f38-c3b759ac2b44"},"vehicle_type_id":"4","last_reported":1761070484,"current_range_meters":17200,"station_id":"ce4bha92rcd13ifvqeg0","pricing_plan_id":"cebpf4jnsgd1na2vs0mg"},{"bike_id":"1ef1dcd9-d9f8-45c6-a46e-cc80f718de9d","system_id":"levelo_inurba_marseille","lat":43.29532,"lon":5.39392,"is_reserved":false,"is_disabled":false,"rental_uris":{"android":"levelo://app?vid=1ef1dcd9-d9f8-45c6-a46e-cc80f718de9d","ios":"levelo://app?vid=1ef1dcd9-d9f8-45c6-a46e-cc80f718de9d"},"vehicle_type_id":"4","last_reported":1761070484,"current_range_meters":17200,"station_id":"ce4bh292rcd13ifvqdf0","pricing_plan_id":"cebpf4jnsgd1na2vs0mg"},{"bike_id":"8d4500e4-09c0-4b55-8332-23b3e44ccf45","system_id":"levelo_inurba_marseille","lat":43.29896,"lon":5.43669,"is_reserved":false,"is_disabled":false,"rental_uris":{"android":"levelo://app?vid=8d4500e4-09c0-4b55-8332-23b3e44ccf45","ios":"levelo://app?vid=8d4500e4-09c0-4b55-8332-23b3e44ccf45"},"vehicle_type_id":"4","last_reported":1761070484,"current_range_meters":17200,"station_id":"ce4bhpp2rcd13ifvqhfg","pricing_plan_id":"cebpf4jnsgd1na2vs0mg"},{"bike_id":"3dce182a-7186-49c1-80ae-6bafeb03fbb1","system_id":"levelo_inurba_marseille","lat":43.29262,"lon":5.37626,"is_reserved":false,"is_disabled":false,"rental_uris":{"android":"levelo://app?vid=3dce182a-7186-49c1-80ae-6bafeb03fbb1","ios":"levelo://app?vid=3dce182a-7186-49c1-80ae-6bafeb03fbb1"},"vehicle_type_id":"4","last_reported":1761070484,"current_range_meters":17600,"station_id":"ce4bgi12rcd13ifvqb80","pricing_plan_id":"cebpf4jnsgd1na2vs0mg"},{"bike_id":"c3ea6a13-2909-4818-a4ac-ba6b4120ef87","system_id":"levelo_inurba_marseille","lat":43.295281,"lon":5.385363,"is_reserved":false,"is_disabled":false,"rental_uris":{"android":"levelo://app?vid=c3ea6a13-2909-4818-a4ac-ba6b4120ef87","ios":"levelo://app?vid=c3ea6a13-2909-4818-a4ac-ba6b4120ef87"},"vehicle_type_id":"4","last_reported":1761070484,"current_range_meters":17600,"station_id":"ce4bgih2rcd13ifvqba0","pricing_plan_id":"cebpf4jnsgd1na2vs0mg"},{"bike_id":"ec763977-d491-43df-87a8-7fa294e800c4","system_id":"levelo_inurba_marseille","lat":43.29056,"lon":5.35912,"is_reserved":false,"is_disabled":false,"rental_uris":{"android":"levelo://app?vid=ec763977-d491-43df-87a8-7fa294e800c4","ios":"levelo://app?vid=ec763977-d491-43df-87a8-7fa294e800c4"},"vehicle_type_id":"4","last_reported":1761070484,"current_range_meters":17600,"station_id":"ce4bha92rcd13ifvqeg0","pricing_plan_id":"cebpf4jnsgd1na2vs0mg"},{"bike_id":"1ae4f4ba-cdf3-4681-97bc-7048fb9fbd77","system_id":"levelo_inurba_marseille","lat":43.27817,"lon":5.39217,"is_reserved":false,"is_disabled":false,"rental_uris":{"android":"levelo://app?vid=1ae4f4ba-cdf3-4681-97bc-7048fb9fbd77","ios":"levelo://app?vid=1ae4f4ba-cdf3-4681-97bc-7048fb9fbd77"},"vehicle_type_id":"4","last_reported":1761070484,"current_range_meters":17600,"station_id":"ce4bhjp2rcd13ifvqga0","pricing_plan_id":"cebpf4jnsgd1na2vs0mg"},{"bike_id":"55358317-6d2d-449a-9fd5-f9cb320ca377","system_id":"levelo_inurba_marseille","lat":43.323617,"lon":5.38915,"is_reserved":false,"is_disabled":false,"rental_uris":{"android":"levelo://app?vid=55358317-6d2d-449a-9fd5-f9cb320ca377","ios":"levelo://app?vid=55358317-6d2d-449a-9fd5-f9cb320ca377"},"vehicle_type_id":"4","last_reported":1761070484,"current_range_meters":18000,"station_id":"ce4bhqp2rcd13ifvqhog","pricing_plan_id":"cebpf4jnsgd1na2vs0mg"},{"bike_id":"5b2fb394-b654-4cda-abea-19d87e1a4938","system_id":"levelo_inurba_marseille","lat":43.240822,"lon":5.377519,"is_reserved":false,"is_disabled":false,"rental_uris":{"android":"levelo://app?vid=5b2fb394-b654-4cda-abea-19d87e1a4938","ios":"levelo://app?vid=5b2fb394-b654-4cda-abea-19d87e1a4938"},"vehicle_type_id":"4","last_reported":1761070484,"current_range_meters":18000,"station_id":"ce4bhnp2rcd13ifvqgvg","pricing_plan_id":"cebpf4jnsgd1na2vs0mg"},{"bike_id":"a89e38a8-8680-46ea-ae3a-521cb2ea64e1","system_id":"levelo_inurba_marseille","lat":43.27055,"lon":5.42278,"is_reserved":false,"is_disabled":false,"rental_uris":{"android":"levelo://app?vid=a89e38a8-8680-46ea-ae3a-521cb2ea64e1","ios":"levelo://app?vid=a89e38a8-8680-46ea-ae3a-521cb2ea64e1"},"vehicle_type_id":"4","last_reported":1761070484,"current_range_meters":18000,"station_id":"ce4bhk92rcd13ifvqgb0","pricing_plan_id":"cebpf4jnsgd1na2vs0mg"},{"bike_id":"3a66d3e4-4ca6-4add-a0a0-e36a07e17076","system_id":"levelo_inurba_marseille","lat":43.28645,"lon":5.38672,"is_reserved":false,"is_disabled":false,"rental_uris":{"android":"levelo://app?vid=3a66d3e4-4ca6-4add-a0a0-e36a07e17076","ios":"levelo://app?vid=3a66d3e4-4ca6-4add-a0a0-e36a07e17076"},"vehicle_type_id":"4","last_reported":1761070484,"current_range_meters":18000,"station_id":"ce4bh492rcd13ifvqdug","pricing_plan_id":"cebpf4jnsgd1na2vs0mg"},{"bike_id":"07e992db-48e1-481b-a50e-3b491cfc1455","system_id":"levelo_inurba_marseille","lat":43.31991,"lon":5.41291,"is_reserved":false,"is_disabled":false,"rental_uris":{"android":"levelo://app?vid=07e992db-48e1-481b-a50e-3b491cfc1455","ios":"levelo://app?vid=07e992db-48e1-481b-a50e-3b491cfc1455"},"vehicle_type_id":"4","last_reported":1761070484,"current_range_meters":18000,"station_id":"","pricing_plan_id":"cebpf4jnsgd1na2vs0mg"},