{"last_updated":1692212692,"ttl":30,"version":"2.2","data":{"bikes":[{"bike_id":"e2c856af-4737-4926-8bbf-940eac69259d","system_id":"levelo_inurba_marseille","lat":43.31341,"lon":5.367098,"is_reserved":false,"is_disabled":false,"rental_uris":{"android":"levelo://app?vid=e2c856af-4737-4926-8bbf-940eac69259d","ios":"levelo://app?vid=e2c856af-4737-4926-8bbf-940eac69259d"},"vehicle_type_id":"4","last_reported":1692212693,"current_range_meters":0,"station_id":"ce4bgr92rcd13ifvqc6g","pricing_plan_id":"free"},{"bike_id":"4abda2c6-8172-447b-980f-0a6ec16212d4","system_id":"levelo_inurba_marseille","lat":43.31341,"lon":5.367098,"is_reserved":false,"is_disabled":false,"rental_uris":{"android":"levelo://app?vid=4abda2c6-8172-447b-980f-0a6ec16212d4","ios":"levelo://app?vid=4abda2c6-8172-447b-980f-0a6ec16212d4"},"vehicle_type_id":"4","last_reported":1692212693,"current_range_meters":11200,"station_id":"ce4bgr92rcd13ifvqc6g","pricing_plan_id":"free"},{"bike_id":"78c81236-0c45-4464-a230-37ac04c87493","system_id":"levelo_inurba_marseille","lat":43.312239,"lon":5.368562,"is_reserved":false,"is_disabled":false,"rental_uris":{"android":"levelo://app?vid=78c81236-0c45-4464-a230-37ac04c87493","ios":"levelo://app?vid=78c81236-0c45-4464-a230-37ac04c87493"},"vehicle_type_id":"4","last_reported":1692212693,"current_range_meters":13200,"station_id":"ce4bgl92rcd13ifvqbq0","pricing_plan_id":"free"},{"bike_id":"a406dc68-66c6-473f-9486-be1b3fd3f4f6","system_id":"levelo_inurba_marseille","lat":43.312239,"lon":5.368562,"is_reserved":false,"is_disabled":false,"rental_uris":{"android":"levelo://app?vid=a406dc68-66c6-473f-9486-be1b3fd3f4f6","ios":"levelo://app?vid=a406dc68-66c6-473f-9486-be1b3fd3f4f6"},"vehicle_type_id":"4","last_reported":1692212693,"current_range_meters":29600,"station_id":"ce4bgl92rcd13ifvqbq0","pricing_plan_id":"free"},{"bike_id":"0de95b05-640f-4570-8393-9eb7ff5bd77c","system_id":"levelo_inurba_marseille","lat":43.30915,"lon":5.36845,"is_reserved":false,"is_disabled":false,"rental_uris":{"android":"levelo://app?vid=0de95b05-640f-4570-8393-9eb7ff5bd77c","ios":"levelo://app?vid=0de95b05-640f-4570-8393-9eb7ff5bd77c"},"vehicle_type_id":"4","last_reported":1692212693,"current_range_meters":20400,"station_id":"","pricing_plan_id":"free"},{"bike_id":"165b513f-ec63-42c3-b14c-bfdcaf630207","system_id":"levelo_inurba_marseille","lat":43.309076,"lon":5.368465,"is_reserved":false,"is_disabled":false,"rental_uris":{"android":"levelo://app?vid=165b513f-ec63-42c3-b14c-bfdcaf630207","ios":"levelo://app?vid=165b513f-ec63-42c3-b14c-bfdcaf630207"},"vehicle_type_id":"4","last_reported":1692212693,"current_range_meters":31200,"station_id":"ce4bgn92rcd13ifvqbvg","pricing_plan_id":"free"},{"bike_id":"969df578-38ac-4002-a3cd-2aa44dde506d","system_id":"levelo_inurba_marseille","lat":43.314811,"lon":5.373103,"is_reserved":false,"is_disabled":false,"rental_uris":{"android":"levelo://app?vid=969df578-38ac-4002-a3cd-2aa44dde506d","ios":"levelo://app?vid=969df578-38ac-4002-a3cd-2aa44dde506d"},"vehicle_type_id":"4","last_reported":1692212693,"current_range_meters":2000,"station_id":"ce4bgt12rcd13ifvqcd0","pricing_plan_id":"free"},{"bike_id":"84199a24-1f9e-4d65-a5d0-dc80c57b1a30","system_id":"levelo_inurba_marseille","lat":43.309039,"lon":5.371797,"is_reserved":false,"is_disabled":false,"rental_uris":{"android":"levelo://app?vid=84199a24-1f9e-4d65-a5d0-dc80c57b1a30","ios":"levelo://app?vid=84199a24-1f9e-4d65-a5d0-dc80c57b1a30"},"vehicle_type_id":"4","last_reported":1692212693,"current_range_meters":5200,"station_id":"ce4bguh2rcd13ifvqckg","pricing_plan_id":"free"},{"bike_id":"39b58ec6-e2ec-4842-8259-d164b04a93a3","system_id":"levelo_inurba_marseille","lat":43.309039,"lon":5.371797,"is_reserved":false,"is_disabled":false,"rental_uris":{"android":"levelo://app?vid=39b58ec6-e2ec-4842-8259-d164b04a93a3","ios":"levelo://app?vid=39b58ec6-e2ec-4842-8259-d164b04a93a3"},"vehicle_type_id":"4","last_reported":1692212693,"current_range_meters":5600,"station_id":"ce4bguh2rcd13ifvqckg","pricing_plan_id":"free"},{"bike_id":"9d19aa49-8783-48e8-a89f-116aeacef6e4","system_id":"levelo_inurba_marseille","lat":43.30886,"lon":5.37182,"is_reserved":false,"is_disabled":false,"rental_uris":{"android":"levelo://app?vid=9d19aa49-8783-48e8-a89f-116aeacef6e4","ios":"levelo://app?vid=9d19aa49-8783-48e8-a89f-116aeacef6e4"},"vehicle_type_id":"4","last_reported":1692212693,"current_range_meters":10800,"station_id":"ce4bguh2rcd13ifvqckg","pricing_plan_id":"free"},{"bike_id":"1df26d76-7c46-4583-ab68-75fe03d78750","system_id":"levelo_inurba_marseille","lat":43.309039,"lon":5.371797,"is_reserved":false,"is_disabled":false,"rental_uris":{"android":"levelo://app?vid=1df26d76-7c46-4583-ab68-75fe03d78750","ios":"levelo://app?vid=1df26d76-7c46-4583-ab68-75fe03d78750"},"vehicle_type_id":"4","last_reported":1692212693,"current_range_meters":21200,"station_id":"ce4bguh2rcd13ifvqckg","pricing_plan_id":"free"},{"bike_id":"9fbe6e18-d192-44c2-98b5-cafb68b41aa4","system_id":"levelo_inurba_marseille","lat":43.30527,"lon":5.36536,"is_reserved":false,"is_disabled":false,"rental_uris":{"android":"levelo://app?vid=9fbe6e18-d192-44c2-98b5-cafb68b41aa4","ios":"levelo://app?vid=9fbe6e18-d192-44c2-98b5-cafb68b41aa4"},"vehicle_type_id":"4","last_reported":1692212693,"current_range_meters":24400,"station_id":"ce4bgs12rcd13ifvqcag","pricing_plan_id":"free"},{"bike_id":"fcb1f672-53a3-4e6d-ab2f-bcd97b4207a7","system_id":"levelo_inurba_marseille","lat":43.305989,"lon":5.37225,"is_reserved":false,"is_disabled":false,"rental_uris":{"android":"levelo://app?vid=fcb1f672-53a3-4e6d-ab2f-bcd97b4207a7","ios":"levelo://app?vid=fcb1f672-53a3-4e6d-ab2f-bcd97b4207a7"},"vehicle_type_id":"4","last_reported":1692212693,"current_range_meters":25600,"station_id":"ce4bgqh2rcd13ifvqc4g","pricing_plan_id":"free"},{"bike_id":"386ed8e3-b71e-4f68-86af-202c5b76503e","system_id":"levelo_inurba_marseille","lat":43.305989,"lon":5.37225,"is_reserved":false,"is_disabled":false,"rental_uris":{"android":"levelo://app?vid=386ed8e3-b71e-4f68-86af-202c5b76503e","ios":"levelo://app?vid=386ed8e3-b71e-4f68-86af-202c5b76503e"},"vehicle_type_id":"4","last_reported":1692212693,"current_range_meters":31200,"station_id":"ce4bgqh2rcd13ifvqc4g","pricing_plan_id":"free"},{"bike_id":"a813cc6a-021f-4aee-aa72-a79ccc117e5c","system_id":"levelo_inurba_marseille","lat":43.311125,"lon":5.377624,"is_reserved":false,"is_disabled":false,"rental_uris":{"android":"levelo://app?vid=a813cc6a-021f-4aee-aa72-a79ccc117e5c","ios":"levelo://app?vid=a813cc6a-021f-4aee-aa72-a79ccc117e5c"},"vehicle_type_id":"4","last_reported":1692212693,"current_range_meters":3200,"station_id":"ce4bgt92rcd13ifvqcg0","pricing_plan_id":"free"},{"bike_id":"f3bc93d7-167e-4d5b-ad43-854fca9dfe05","system_id":"levelo_inurba_marseille","lat":43.311125,"lon":5.377624,"is_reserved":false,"is_disabled":false,"rental_uris":{"android":"levelo://app?vid=f3bc93d7-167e-4d5b-ad43-854fca9dfe05","ios":"levelo://app?vid=f3bc93d7-167e-4d5b-ad43-854fca9dfe05"},"vehicle_type_id":"4","last_reported":1692212693,"current_range_meters":19200,"station_id":"ce4bgt92rcd13ifvqcg0","pricing_plan_id":"free"},{"bike_id":"d00d18a9-ad9d-402d-b08f-c2a35c10c6b1","system_id":"levelo_inurba_marseille","lat":43.30787,"lon":5.37635,"is_reserved":false,"is_disabled":false,"rental_uris":{"android":"levelo://app?vid=d00d18a9-ad9d-402d-b08f-c2a35c10c6b1","ios":"levelo://app?vid=d00d18a9-ad9d-402d-b08f-c2a35c10c6b1"},"vehicle_type_id":"4","last_reported":1692212693,"current_range_meters":10400,"station_id":"ce4bgv92rcd13ifvqcq0","pricing_plan_id":"free"},{"bike_id":"25559cf7-fd16-49d7-9379-469f1a9ff38e","system_id":"levelo_inurba_marseille","lat":43.31643,"lon":5.37809,"is_reserved":false,"is_disabled":false,"rental_uris":{"android":"levelo://app?vid=25559cf7-fd16-49d7-9379-469f1a9ff38e","ios":"levelo://app?vid=25559cf7-fd16-49d7-9379-469f1a9ff38e"},"vehicle_type_id":"4","last_reported":1692212693,"current_range_meters":19600,"station_id":"","pricing_plan_id":"free"},{"bike_id":"92be00df-8df7-4b91-b678-616ccf916c98","system_id":"levelo_inurba_marseille","lat":43.31684,"lon":5.37784,"is_reserved":false,"is_disabled":false,"rental_uris":{"android":"levelo://app?vid=92be00df-8df7-4b91-b678-616ccf916c98","ios":"levelo://app?vid=92be00df-8df7-4b91-b678-616ccf916c98"},"vehicle_type_id":"4","last_reported":1692212693,"current_range_meters":25200,"station_id":"ce4bgth2rcd13ifvqch0","pricing_plan_id":"free"},{"bike_id":"2e977bf2-6881-4f27-9683-57a37e954f17","system_id":"levelo_inurba_marseille","lat":43.315293,"lon":5.380349,"is_reserved":false,"is_disabled":false,"rental_uris":{"android":"levelo://app?vid=2e977bf2-6881-4f27-9683-57a37e954f17","ios":"levelo://app?vid=2e977bf2-6881-4f27-9683-57a37e954f17"},"vehicle_type_id":"4","last_reported":1692212693,"current_range_meters":4000,"station_id":"ce4bhsp2rcd13ifvqi50","pricing_plan_id":"free"},{"bike_id":"df15a2b6-7a09-4269-bcf4-be1d2e0334b4","system_id":"levelo_inurba_marseille","lat":43.315293,"lon":5.380349,"is_reserved":false,"is_disabled":false,"rental_uris":{"android":"levelo://app?vid=df15a2b6-7a09-4269-bcf4-be1d2e0334b4","ios":"levelo://app?vid=df15a2b6-7a09-4269-bcf4-be1d2e0334b4"},"vehicle_type_id":"4","last_reported":1692212693,"current_range_meters":22400,"station_id":"ce4bhsp2rcd13ifvqi50","pricing_plan_id":"free"},{"bike_id":"3f1c898e-5ac1-4542-825e-f4bbc1fd65ae","system_id":"levelo_inurba_marseille","lat":43.31523,"lon":5.38036,"is_reserved":false,"is_disabled":false,"rental_uris":{"android":"levelo://app?vid=3f1c898e-5ac1-4542-825e-f4bbc1fd65ae","ios":"levelo://app?vid=3f1c898e-5ac1-4542-825e-f4bbc1fd65ae"},"vehicle_type_id":"4","last_reported":1692212693,"current_range_meters":15200,"station_id":"ce4bhsp2rcd13ifvqi50","pricing_plan_id":"free"},{"bike_id":"a418ce72-db18-4c26-b54b-8a0518d317e2","system_id":"levelo_inurba_marseille","lat":43.301939,"lon":5.366286,"is_reserved":false,"is_disabled":false,"rental_uris":{"android":"levelo://app?vid=a418ce72-db18-4c26-b54b-8a0518d317e2","ios":"levelo://app?vid=a418ce72-db18-4c26-b54b-8a0518d317e2"},"vehicle_type_id":"4","last_reported":1692212693,"current_range_meters":9200,"station_id":"ce4bgrh2rcd13ifvqc8g","pricing_plan_id":"free"},{"bike_id":"958422dc-c1be-442c-8bae-9743549af83d","system_id":"levelo_inurba_marseille","lat":43.301939,"lon":5.366286,"is_reserved":false,"is_disabled":false,"rental_uris":{"android":"levelo://app?vid=958422dc-c1be-442c-8bae-9743549af83d","ios":"levelo://app?vid=958422dc-c1be-442c-8bae-9743549af83d"},"vehicle_type_id":"4","last_reported":1692212693,"current_range_meters":12400,"station_id":"ce4bgrh2rcd13ifvqc8g","pricing_plan_id":"free"},{"bike_id":"a2c9d1ce-4c2f-4cec-9f70-a84a9ddeeb65","system_id":"levelo_inurba_marseille","lat":43.308012,"lon":5.381511,"is_reserved":false,"is_disabled":false,"rental_uris":{"android":"levelo://app?vid=a2c9d1ce-4c2f-4cec-9f70-a84a9ddeeb65","ios":"levelo://app?vid=a2c9d1ce-4c2f-4cec-9f70-a84a9ddeeb65"},"vehicle_type_id":"4","last_reported":1692212693,"current_range_meters":13600,"station_id":"ce4bgt12rcd13ifvqce0","pricing_plan_id":"free"},{"bike_id":"19e54d62-0ed7-42f6-845c-a18b4713c68d","system_id":"levelo_inurba_marseille","lat":43.308012,"lon":5.381511,"is_reserved":false,"is_disabled":false,"rental_uris":{"android":"levelo://app?vid=19e54d62-0ed7-42f6-845c-a18b4713c68d","ios":"levelo://app?vid=19e54d62-0ed7-42f6-845c-a18b4713c68d"},"vehicle_type_id":"4","last_reported":1692212693,"current_range_meters":10400,"station_id":"ce4bgt12rcd13ifvqce0","pricing_plan_id":"free"},{"bike_id":"719f724e-099e-4b67-bf6b-216da1e21045","system_id":"levelo_inurba_marseille","lat":43.30805,"lon":5.38147,"is_reserved":false,"is_disabled":false,"rental_uris":{"android":"levelo://app?vid=719f724e-099e-4b67-bf6b-216da1e21045","ios":"levelo://app?vid=719f724e-099e-4b67-bf6b-216da1e21045"},"vehicle_type_id":"4","last_reported":1692212693,"current_range_meters":12800,"station_id":"ce4bgt12rcd13ifvqce0","pricing_plan_id":"free"},{"bike_id":"242b58dc-2f58-434b-8ad0-3444105d3d8f","system_id":"levelo_inurba_marseille","lat":43.308,"lon":5.38146,"is_reserved":false,"is_disabled":false,"rental_uris":{"android":"levelo://app?vid=242b58dc-2f58-434b-8ad0-3444105d3d8f","ios":"levelo://app?vid=242b58dc-2f58-434b-8ad0-3444105d3d8f"},"vehicle_type_id":"4","last_reported":1692212693,"current_range_meters":19600,"station_id":"ce4bgt12rcd13ifvqce0","pricing_plan_id":"free"},{"bike_id":"dbd29273-7d38-42d6-83b1-6f60a00931fb","system_id":"levelo_inurba_marseille","lat":43.30798,"lon":5.38148,"is_reserved":false,"is_disabled":false,"rental_uris":{"android":"levelo://app?vid=dbd29273-7d38-42d6-83b1-6f60a00931fb","ios":"levelo://app?vid=dbd29273-7d38-42d6-83b1-6f60a00931fb"},"vehicle_type_id":"4","last_reported":1692212693,"current_range_meters":2800,"station_id":"ce4bgt12rcd13ifvqce0","pricing_plan_id":"free"},{"bike_id":"532c83a1-3f60-4504-a3b9-5764776ce3ad","system_id":"levelo_inurba_marseille","lat":43.308012,"lon":5.381511,"is_reserved":false,"is_disabled":false,"rental_uris":{"android":"levelo://app?vid=532c83a1-3f60-4504-a3b9-5764776ce3ad","ios":"levelo://app?vid=532c83a1-3f60-4504-a3b9-5764776ce3ad"},"vehicle_type_id":"4","last_reported":1692212693,"current_range_meters":5200,"station_id":"ce4bgt12rcd13ifvqce0","pricing_plan_id":"free"},{"bike_id":"222d7479-b144-4e20-a9cd-d221f35a1a8e","system_id":"levelo_inurba_marseille","lat":43.308012,"lon":5.381511,"is_reserved":false,"is_disabled":false,"rental_uris":{"android":"levelo://app?vid=222d7479-b144-4e20-a9cd-d221f35a1a8e","ios":"levelo://app?vid=222d7479-b144-4e20-a9cd-d221f35a1a8e"},"vehicle_type_id":"4","last_reported":1692212693,"current_range_meters":27200,"station_id":"ce4bgt12rcd13ifvqce0","pricing_plan_id":"free"},{"bike_id":"e1713a9c-5912-4754-86ac-748761077053","system_id":"levelo_inurba_marseille","lat":43.304606,"lon":5.379026,"is_reserved":false,"is_disabled":false,"rental_uris":{"android":"levelo://app?vid=e1713a9c-5912-4754-86ac-748761077053","ios":"levelo://app?vid=e1713a9c-5912-4754-86ac-748761077053"},"vehicle_type_id":"4","last_reported":1692212693,"current_range_meters":12800,"station_id":"ce4bgup2rcd13ifvqcn0","pricing_plan_id":"free"},{"bike_id":"b328d323-4e49-4e11-8d47-6f47f1998c64","system_id":"levelo_inurba_marseille","lat":43.319935,"lon":5.381699,"is_reserved":false,"is_disabled":false,"rental_uris":{"android":"levelo://app?vid=b328d323-4e49-4e11-8d47-6f47f1998c64","ios":"levelo://app?vid=b328d323-4e49-4e11-8d47-6f47f1998c64"},"vehicle_type_id":"4","last_reported":1692212693,"current_range_meters":31200,"station_id":"ce4bhr12rcd13ifvqhpg","pricing_plan_id":"free"},{"bike_id":"958789e8-d1cb-4290-9f62-2fc5c53b07f0","system_id":"levelo_inurba_marseille","lat":43.302784,"lon":5.377158,"is_reserved":false,"is_disabled":false,"rental_uris":{"android":"levelo://app?vid=958789e8-d1cb-4290-9f62-2fc5c53b07f0","ios":"levelo://app?vid=958789e8-d1cb-4290-9f62-2fc5c53b07f0"},"vehicle_type_id":"4","last_reported":1692212693,"current_range_meters":2000,"station_id":"ce4bguh2rcd13ifvqcj0","pricing_plan_id":"free"},{"bike_id":"b7544848-4ecc-41c4-aa39-1fd8022f75e8","system_id":"levelo_inurba_marseille","lat":43.299401,"lon":5.365746,"is_reserved":false,"is_disabled":false,"rental_uris":{"android":"levelo://app?vid=b7544848-4ecc-41c4-aa39-1fd8022f75e8","ios":"levelo://app?vid=b7544848-4ecc-41c4-aa39-1fd8022f75e8"},"vehicle_type_id":"4","last_reported":1692212693,"current_range_meters":31600,"station_id":"ce4bgm92rcd13ifvqbr0","pricing_plan_id":"free"},{"bike_id":"39988015-4d43-4570-8114-82e634ba403b","system_id":"levelo_inurba_marseille","lat":43.299222,"lon":5.365554,"is_reserved":false,"is_disabled":false,"rental_uris":{"android":"levelo://app?vid=39988015-4d43-4570-8114-82e634ba403b","ios":"levelo://app?vid=39988015-4d43-4570-8114-82e634ba403b"},"vehicle_type_id":"4","last_reported":1692212693,"current_range_meters":16000,"station_id":"ce4bgm92rcd13ifvqbr0","pricing_plan_id":"free"},{"bike_id":"4152ce35-f1ea-4684-a5ad-c0f502df7fef","system_id":"levelo_inurba_marseille","lat":43.299401,"lon":5.365558,"is_reserved":false,"is_disabled":false,"rental_uris":{"android":"levelo://app?vid=4152ce35-f1ea-4684-a5ad-c0f502df7fef","ios":"levelo://app?vid=4152ce35-f1ea-4684-a5ad-c0f502df7fef"},"vehicle_type_id":"4","last_reported":1692212693,"current_range_meters":19200,"station_id":"ce4bgm92rcd13ifvqbr0","pricing_plan_id":"free"},{"bike_id":"4e25d21a-3494-443d-88cd-cc775d56085b","system_id":"levelo_inurba_marseille","lat":43.299222,"lon":5.365554,"is_reserved":false,"is_disabled":false,"rental_uris":{"android":"levelo://app?vid=4e25d21a-3494-443d-88cd-cc775d56085b","ios":"levelo://app?vid=4e25d21a-3494-443d-88cd-cc775d56085b"},"vehicle_type_id":"4","last_reported":1692212693,"current_range_meters":31200,"station_id":"ce4bgm92rcd13ifvqbr0","pricing_plan_id":"free"},{"bike_id":"10529aa8-af43-43ac-b69b-56a4c8da5623","system_id":"levelo_inurba_marseille","lat":43.299724,"lon":5.371829,"is_reserved":false,"is_disabled":false,"rental_uris":{"android":"levelo://app?vid=10529aa8-af43-43ac-b69b-56a4c8da5623","ios":"levelo://app?vid=10529aa8-af43-43ac-b69b-56a4c8da5623"},"vehicle_type_id":"4","last_reported":1692212693,"current_range_meters":22800,"station_id":"ce4bgr92rcd13ifvqc7g","pricing_plan_id":"free"},{"bike_id":"ee773e91-550e-4334-8c78-d44bed7d216a","system_id":"levelo_inurba_marseille","lat":43.2985,"lon":5.36288,"is_reserved":false,"is_disabled":false,"rental_uris":{"android":"levelo://app?vid=ee773e91-550e-4334-8c78-d44bed7d216a","ios":"levelo://app?vid=ee773e91-550e-4334-8c78-d44bed7d216a"},"vehicle_type_id":"4","last_reported":1692212693,"current_range_meters":10000,"station_id":"ce4bgpp2rcd13ifvqc3g","pricing_plan_id":"free"},{"bike_id":"6c4679b5-d34d-4a30-9bbf-c9bd6e0fb19c","system_id":"levelo_inurba_marseille","lat":43.2985,"lon":5.36285,"is_reserved":false,"is_disabled":false,"rental_uris":{"android":"levelo://app?vid=6c4679b5-d34d-4a30-9bbf-c9bd6e0fb19c","ios":"levelo://app?vid=6c4679b5-d34d-4a30-9bbf-c9bd6e0fb19c"},"vehicle_type_id":"4","last_reported":1692212693,"current_range_meters":9600,"station_id":"ce4bgpp2rcd13ifvqc3g","pricing_plan_id":"free"},{"bike_id":"f7c75c4b-b911-4fdd-9b74-03b121587fb0","system_id":"levelo_inurba_marseille","lat":43.2985,"lon":5.36283,"is_reserved":false,"is_disabled":false,"rental_uris":{"android":"levelo://app?vid=f7c75c4b-b911-4fdd-9b74-03b121587fb0","ios":"levelo://app?vid=f7c75c4b-b911-4fdd-9b74-03b121587fb0"},"vehicle_type_id":"4","last_reported":1692212693,"current_range_meters":2000,"station_id":"ce4bgpp2rcd13ifvqc3g","pricing_plan_id":"free"},{"bike_id":"aa09a4d0-3e76-4ae7-b697-2d846288d0e1","system_id":"levelo_inurba_marseille","lat":43.298433,"lon":5.362774,"is_reserved":false,"is_disabled":false,"rental_uris":{"android":"levelo://app?vid=aa09a4d0-3e76-4ae7-b697-2d846288d0e1","ios":"levelo://app?vid=aa09a4d0-3e76-4ae7-b697-2d846288d0e1"},"vehicle_type_id":"4","last_reported":1692212693,"current_range_meters":21200,"station_id":"ce4bgpp2rcd13ifvqc3g","pricing_plan_id":"free"},{"bike_id":"ab07e186-411e-4e22-9837-ca6336ab8ee4","system_id":"levelo_inurba_marseille","lat":43.29849,"lon":5.36284,"is_reserved":false,"is_disabled":false,"rental_uris":{"android":"levelo://app?vid=ab07e186-411e-4e22-9837-ca6336ab8ee4","ios":"levelo://app?vid=ab07e186-411e-4e22-9837-ca6336ab8ee4"},"vehicle_type_id":"4","last_reported":1692212693,"current_range_meters":7200,"station_id":"ce4bgpp2rcd13ifvqc3g","pricing_plan_id":"free"},{"bike_id":"aa09a507-f470-4bd3-8800-54316c5712d3","system_id":"levelo_inurba_marseille","lat":43.29849,"lon":5.36283,"is_reserved":false,"is_disabled":false,"rental_uris":{"android":"levelo://app?vid=aa09a507-f470-4bd3-8800-54316c5712d3","ios":"levelo://app?vid=aa09a507-f470-4bd3-8800-54316c5712d3"},"vehicle_type_id":"4","last_reported":1692212693,"current_range_meters":15200,"station_id":"ce4bgpp2rcd13ifvqc3g","pricing_plan_id":"free"},{"bike_id":"c56417ae-ee81-4265-8854-306f32b70d60","system_id":"levelo_inurba_marseille","lat":43.29846,"lon":5.36286,"is_reserved":false,"is_disabled":false,"rental_uris":{"android":"levelo://app?vid=c56417ae-ee81-4265-8854-306f32b70d60","ios":"levelo://app?vid=c56417ae-ee81-4265-8854-306f32b70d60"},"vehicle_type_id":"4","last_reported":1692212693,"current_range_meters":10400,"station_id":"ce4bgpp2rcd13ifvqc3g","pricing_plan_id":"free"},{"bike_id":"6a7a45f2-c0d2-46ba-bec2-35845a796e81","system_id":"levelo_inurba_marseille","lat":43.30543,"lon":5.38427,"is_reserved":false,"is_disabled":false,"rental_uris":{"android":"levelo://app?vid=6a7a45f2-c0d2-46ba-bec2-35845a796e81","ios":"levelo://app?vid=6a7a45f2-c0d2-46ba-bec2-35845a796e81"},"vehicle_type_id":"4","last_reported":1692212693,"current_range_meters":14400,"station_id":"ce4bgg92rcd13ifvqb30","pricing_plan_id":"free"},{"bike_id":"e7679269-da7a-43fe-ad98-75d8a3483c66","system_id":"levelo_inurba_marseille","lat":43.29846,"lon":5.36282,"is_reserved":false,"is_disabled":false,"rental_uris":{"android":"levelo://app?vid=e7679269-da7a-43fe-ad98-75d8a3483c66","ios":"levelo://app?vid=e7679269-da7a-43fe-ad98-75d8a3483c66"},"vehicle_type_id":"4","last_reported":1692212693,"current_range_meters":3200,"station_id":"ce4bgpp2rcd13ifvqc3g","pricing_plan_id":"free"},{"bike_id":"51dd1be4-3dec-4b75-b382-6e6736f26a4b","system_id":"levelo_inurba_marseille","lat":43.299243,"lon":5.374807,"is_reserved":false,"is_disabled":false,"rental_uris":{"android":"levelo://app?vid=51dd1be4-3dec-4b75-b382-6e6736f26a4b","ios":"levelo://app?vid=51dd1be4-3dec-4b75-b382-6e6736f26a4b"},"vehicle_type_id":"4","last_reported":1692212693,"current_range_meters":800,"station_id":"ce4bgjh2rcd13ifvqbg0","pricing_plan_id":"free"},{"bike_id":"fe5a6e04-8109-4d57-80b1-50b1295a38cc","system_id":"levelo_inurba_marseille","lat":43.305364,"lon":5.384119,"is_reserved":false,"is_disabled":false,"rental_uris":{"android":"levelo://app?vid=fe5a6e04-8109-4d57-80b1-50b1295a38cc","ios":"levelo://app?vid=fe5a6e04-8109-4d57-80b1-50b1295a38cc"},"vehicle_type_id":"4","last_reported":1692212693,"current_range_meters":21600,"station_id":"ce4bgg92rcd13ifvqb30","pricing_plan_id":"free"},{"bike_id":"761587cb-8c4d-4189-85b9-358b7be8b1db","system_id":"levelo_inurba_marseille","lat":43.305364,"lon":5.384119,"is_reserved":false,"is_disabled":false,"rental_uris":{"android":"levelo://app?vid=761587cb-8c4d-4189-85b9-358b7be8b1db","ios":"levelo://app?vid=761587cb-8c4d-4189-85b9-358b7be8b1db"},"vehicle_type_id":"4","last_reported":1692212693,"current_range_meters":31200,"station_id":"ce4bgg92rcd13ifvqb30","pricing_plan_id":"free"},{"bike_id":"530d50e7-1b0a-4f45-8a95-e9403cb7a694","system_id":"levelo_inurba_marseille","lat":43.298433,"lon":5.362774,"is_reserved":false,"is_disabled":false,"rental_uris":{"android":"levelo://app?vid=530d50e7-1b0a-4f45-8a95-e9403cb7a694","ios":"levelo://app?vid=530d50e7-1b0a-4f45-8a95-e9403cb7a694"},"vehicle_type_id":"4","last_reported":1692212693,"current_range_meters":16800,"station_id":"ce4bgpp2rcd13ifvqc3g","pricing_plan_id":"free"},{"bike_id":"4e2c86cf-2092-43cb-9d23-485709944c2a","system_id":"levelo_inurba_marseille","lat":43.311722,"lon":5.387247,"is_reserved":false,"is_disabled":false,"rental_uris":{"android":"levelo://app?vid=4e2c86cf-2092-43cb-9d23-485709944c2a","ios":"levelo://app?vid=4e2c86cf-2092-43cb-9d23-485709944c2a"},"vehicle_type_id":"4","last_reported":1692212693,"current_range_meters":6400,"station_id":"ce4bgv12rcd13ifvqcp0","pricing_plan_id":"free"},{"bike_id":"b426fb55-d2be-441f-91f5-63c97df77afc","system_id":"levelo_inurba_marseille","lat":43.298433,"lon":5.362774,"is_reserved":false,"is_disabled":false,"rental_uris":{"android":"levelo://app?vid=b426fb55-d2be-441f-91f5-63c97df77afc","ios":"levelo://app?vid=b426fb55-d2be-441f-91f5-63c97df77afc"},"vehicle_type_id":"4","last_reported":1692212693,"current_range_meters":18000,"station_id":"ce4bgpp2rcd13ifvqc3g","pricing_plan_id":"free"},{"bike_id":"fd92caf0-d653-4e98-b9d0-869daf38f528","system_id":"levelo_inurba_marseille","lat":43.298433,"lon":5.362774,"is_reserved":false,"is_disabled":false,"rental_uris":{"android":"levelo://app?vid=fd92caf0-d653-4e98-b9d0-869daf38f528","ios":"levelo://app?vid=fd92caf0-d653-4e98-b9d0-869daf38f528"},"vehicle_type_id":"4","last_reported":1692212693,"current_range_meters":31600,"station_id":"ce4bgpp2rcd13ifvqc3g","pricing_plan_id":"free"},{"bike_id":"fa61a25b-972b-4e79-84f6-b538b82cd14a","system_id":"levelo_inurba_marseille","lat":43.298433,"lon":5.362774,"is_reserved":false,"is_disabled":false,"rental_uris":{"android":"levelo://app?vid=fa61a25b-972b-4e79-84f6-b538b82cd14a","ios":"levelo://app?vid=fa61a25b-972b-4e79-84f6-b538b82cd14a"},"vehicle_type_id":"4","last_reported":1692212693,"current_range_meters":16800,"station_id":"ce4bgpp2rcd13ifvqc3g","pricing_plan_id":"free"},{"bike_id":"b9bf8de7-d07b-49c9-80e9-b5a33dcb5de2","system_id":"levelo_inurba_marseille","lat":43.29838,"lon":5.36267,"is_reserved":false,"is_disabled":false,"rental_uris":{"android":"levelo://app?vid=b9bf8de7-d07b-49c9-80e9-b5a33dcb5de2","ios":"levelo://app?vid=b9bf8de7-d07b-49c9-80e9-b5a33dcb5de2"},"vehicle_type_id":"4","last_reported":1692212693,"current_range_meters":18000,"station_id":"","pricing_plan_id":"free"},{"bike_id":"0bccb323-db62-441a-a824-6817ac264134","system_id":"levelo_inurba_marseille","lat":43.311722,"lon":5.387247,"is_reserved":false,"is_disabled":false,"rental_uris":{"android":"levelo://app?vid=0bccb323-db62-441a-a824-6817ac264134","ios":"levelo://app?vid=0bccb323-db62-441a-a824-6817ac264134"},"vehicle_type_id":"4","last_reported":1692212693,"current_range_meters":1200,"station_id":"ce4bgv12rcd13ifvqcp0","pricing_plan_id":"free"},{"bike_id":"a7c0f610-995e-4b56-824a-9598553ee190","system_id":"levelo_inurba_marseille","lat":43.31173,"lon":5.38711,"is_reserved":false,"is_disabled":false,"rental_uris":{"android":"levelo://app?vid=a7c0f610-995e-4b56-824a-9598553ee190","ios":"levelo://app?vid=a7c0f610-995e-4b56-824a-9598553ee190"},"vehicle_type_id":"4","last_reported":1692212693,"current_range_meters":18400,"station_id":"ce4bgv12rcd13ifvqcp0","pricing_plan_id":"free"},{"bike_id":"90ac2e90-cd5c-4d9c-bf0a-b11e15788567","system_id":"levelo_inurba_marseille","lat":43.311722,"lon":5.387247,"is_reserved":false,"is_disabled":false,"rental_uris":{"android":"levelo://app?vid=90ac2e90-cd5c-4d9c-bf0a-b11e15788567","ios":"levelo://app?vid=90ac2e90-cd5c-4d9c-bf0a-b11e15788567"},"vehicle_type_id":"4","last_reported":1692212693,"current_range_meters":2400,"station_id":"ce4bgv12rcd13ifvqcp0","pricing_plan_id":"free"},{"bike_id":"20066552-063e-4d3e-9e10-e0e8a6d2c838","system_id":"levelo_inurba_marseille","lat":43.322872,"lon":5.382756,"is_reserved":false,"is_disabled":false,"rental_uris":{"android":"levelo://app?vid=20066552-063e-4d3e-9e10-e0e8a6d2c838","ios":"levelo://app?vid=20066552-063e-4d3e-9e10-e0e8a6d2c838"},"vehicle_type_id":"4","last_reported":1692212693,"current_range_meters":15200,"station_id":"ce4bhr12rcd13ifvqhqg","pricing_plan_id":"free"},{"bike_id":"4ed96fad-2e51-49a2-879d-e8c05ef80263","system_id":"levelo_inurba_marseille","lat":43.328371,"lon":5.366909,"is_reserved":false,"is_disabled":false,"rental_uris":{"android":"levelo://app?vid=4ed96fad-2e51-49a2-879d-e8c05ef80263","ios":"levelo://app?vid=4ed96fad-2e51-49a2-879d-e8c05ef80263"},"vehicle_type_id":"4","last_reported":1692212693,"current_range_meters":14800,"station_id":"ce4bhs92rcd13ifvqi0g","pricing_plan_id":"free"},{"bike_id":"3dc8ddfd-e386-4774-938c-dc3a7b25274a","system_id":"levelo_inurba_marseille","lat":43.32824,"lon":5.36682,"is_reserved":false,"is_disabled":false,"rental_uris":{"android":"levelo://app?vid=3dc8ddfd-e386-4774-938c-dc3a7b25274a","ios":"levelo://app?vid=3dc8ddfd-e386-4774-938c-dc3a7b25274a"},"vehicle_type_id":"4","last_reported":1692212693,"current_range_meters":17600,"station_id":"ce4bhs92rcd13ifvqi0g","pricing_plan_id":"free"},{"bike_id":"6ece8e83-2d1d-4d08-ad69-51835c8252e1","system_id":"levelo_inurba_marseille","lat":43.32824,"lon":5.36678,"is_reserved":false,"is_disabled":false,"rental_uris":{"android":"levelo://app?vid=6ece8e83-2d1d-4d08-ad69-51835c8252e1","ios":"levelo://app?vid=6ece8e83-2d1d-4d08-ad69-51835c8252e1"},"vehicle_type_id":"4","last_reported":1692212693,"current_range_meters":24400,"station_id":"ce4bhs92rcd13ifvqi0g","pricing_plan_id":"free"},{"bike_id":"7e8f3059-d2c2-49e3-86f4-e89b1cb327f2","system_id":"levelo_inurba_marseille","lat":43.32827,"lon":5.3669,"is_reserved":false,"is_disabled":false,"rental_uris":{"android":"levelo://app?vid=7e8f3059-d2c2-49e3-86f4-e89b1cb327f2","ios":"levelo://app?vid=7e8f3059-d2c2-49e3-86f4-e89b1cb327f2"},"vehicle_type_id":"4","last_reported":1692212693,"current_range_meters":16000,"station_id":"ce4bhs92rcd13ifvqi0g","pricing_plan_id":"free"},{"bike_id":"154520f2-fd91-4cdf-914b-39adc14372e3","system_id":"levelo_inurba_marseille","lat":43.32827,"lon":5.36674,"is_reserved":false,"is_disabled":false,"rental_uris":{"android":"levelo://app?vid=154520f2-fd91-4cdf-914b-39adc14372e3","ios":"levelo://app?vid=154520f2-fd91-4cdf-914b-39adc14372e3"},"vehicle_type_id":"4","last_reported":1692212693,"current_range_meters":16000,"station_id":"ce4bhs92rcd13ifvqi0g","pricing_plan_id":"free"},{"bike_id":"2cacf4ba-30f0-4f40-92af-cee799fe4c0c","system_id":"levelo_inurba_marseille","lat":43.328371,"lon":5.366909,"is_reserved":false,"is_disabled":false,"rental_uris":{"android":"levelo://app?vid=2cacf4ba-30f0-4f40-92af-cee799fe4c0c","ios":"levelo://app?vid=2cacf4ba-30f0-4f40-92af-cee799fe4c0c"},"vehicle_type_id":"4","last_reported":1692212693,"current_range_meters":26400,"station_id":"ce4bhs92rcd13ifvqi0g","pricing_plan_id":"free"},{"bike_id":"5f8a6ca0-5dfe-4c06-929a-c1030bd48d99","system_id":"levelo_inurba_marseille","lat":43.32827,"lon":5.3667,"is_reserved":false,"is_disabled":false,"rental_uris":{"android":"levelo://app?vid=5f8a6ca0-5dfe-4c06-929a-c1030bd48d99","ios":"levelo://app?vid=5f8a6ca0-5dfe-4c06-929a-c1030bd48d99"},"vehicle_type_id":"4","last_reported":1692212693,"current_range_meters":14000,"station_id":"ce4bhs92rcd13ifvqi0g","pricing_plan_id":"free"},{"bike_id":"fa832a3b-a72f-42a2-8ac6-320395daaa8c","system_id":"levelo_inurba_marseille","lat":43.32828,"lon":5.36685,"is_reserved":false,"is_disabled":false,"rental_uris":{"android":"levelo://app?vid=fa832a3b-a72f-42a2-8ac6-320395daaa8c","ios":"levelo://app?vid=fa832a3b-a72f-42a2-8ac6-320395daaa8c"},"vehicle_type_id":"4","last_reported":1692212693,"current_range_meters":24400,"station_id":"ce4bhs92rcd13ifvqi0g","pricing_plan_id":"free"},{"bike_id":"94ca1dde-c62e-406c-a1ed-ce8078fc26e1","system_id":"levelo_inurba_marseille","lat":43.32828,"lon":5.36682,"is_reserved":false,"is_disabled":false,"rental_uris":{"android":"levelo://app?vid=94ca1dde-c62e-406c-a1ed-ce8078fc26e1","ios":"levelo://app?vid=94ca1dde-c62e-406c-a1ed-ce8078fc26e1"},"vehicle_type_id":"4","last_reported":1692212693,"current_range_meters":13600,"station_id":"ce4bhs92rcd13ifvqi0g","pricing_plan_id":"free"},{"bike_id":"dcb38f3d-00a9-47a5-892d-27a970edbd08","system_id":"levelo_inurba_marseille","lat":43.32831,"lon":5.36678,"is_reserved":false,"is_disabled":false,"rental_uris":{"android":"levelo://app?vid=dcb38f3d-00a9-47a5-892d-27a970edbd08","ios":"levelo://app?vid=dcb38f3d-00a9-47a5-892d-27a970edbd08"},"vehicle_type_id":"4","last_reported":1692212693,"current_range_meters":30000,"station_id":"ce4bhs92rcd13ifvqi0g","pricing_plan_id":"free"},{"bike_id":"d86e7b99-7484-476a-824e-ca64a2fdcfb6","system_id":"levelo_inurba_marseille","lat":43.32831,"lon":5.36674,"is_reserved":false,"is_disabled":false,"rental_uris":{"android":"levelo://app?vid=d86e7b99-7484-476a-824e-ca64a2fdcfb6","ios":"levelo://app?vid=d86e7b99-7484-476a-824e-ca64a2fdcfb6"},"vehicle_type_id":"4","last_reported":1692212693,"current_range_meters":29200,"station_id":"ce4bhs92rcd13ifvqi0g","pricing_plan_id":"free"},{"bike_id":"35aec5de-afee-44ee-be1c-9740a4407621","system_id":"levelo_inurba_marseille","lat":43.32834,"lon":5.36685,"is_reserved":false,"is_disabled":false,"rental_uris":{"android":"levelo://app?vid=35aec5de-afee-44ee-be1c-9740a4407621","ios":"levelo://app?vid=35aec5de-afee-44ee-be1c-9740a4407621"},"vehicle_type_id":"4","last_reported":1692212693,"current_range_meters":15200,"station_id":"ce4bhs92rcd13ifvqi0g","pricing_plan_id":"free"},{"bike_id":"c552620b-8281-48e6-bd37-4fb3f737bac6","system_id":"levelo_inurba_marseille","lat":43.32835,"lon":5.36677,"is_reserved":false,"is_disabled":false,"rental_uris":{"android":"levelo://app?vid=c552620b-8281-48e6-bd37-4fb3f737bac6","ios":"levelo://app?vid=c552620b-8281-48e6-bd37-4fb3f737bac6"},"vehicle_type_id":"4","last_reported":1692212693,"current_range_meters":400,"station_id":"ce4bhs92rcd13ifvqi0g","pricing_plan_id":"free"},{"bike_id":"6e141567-ce27-4b20-810a-9ecf17c0647e","system_id":"levelo_inurba_marseille","lat":43.32836,"lon":5.36679,"is_reserved":false,"is_disabled":false,"rental_uris":{"android":"levelo://app?vid=6e141567-ce27-4b20-810a-9ecf17c0647e","ios":"levelo://app?vid=6e141567-ce27-4b20-810a-9ecf17c0647e"},"vehicle_type_id":"4","last_reported":1692212693,"current_range_meters":22800,"station_id":"ce4bhs92rcd13ifvqi0g","pricing_plan_id":"free"},{"bike_id":"dd789220-e7b5-42c1-b9dc-dc4243148021","system_id":"levelo_inurba_marseille","lat":43.297163,"lon":5.365866,"is_reserved":false,"is_disabled":false,"rental_uris":{"android":"levelo://app?vid=dd789220-e7b5-42c1-b9dc-dc4243148021","ios":"levelo://app?vid=dd789220-e7b5-42c1-b9dc-dc4243148021"},"vehicle_type_id":"4","last_reported":1692212693,"current_range_meters":31200,"station_id":"ce4bgn12rcd13ifvqbt0","pricing_plan_id":"free"},{"bike_id":"9faa62d0-9681-478f-8c21-51a5a899f18e","system_id":"levelo_inurba_marseille","lat":43.29793,"lon":5.37409,"is_reserved":false,"is_disabled":false,"rental_uris":{"android":"levelo://app?vid=9faa62d0-9681-478f-8c21-51a5a899f18e","ios":"levelo://app?vid=9faa62d0-9681-478f-8c21-51a5a899f18e"},"vehicle_type_id":"4","last_reported":1692212693,"current_range_meters":10800,"station_id":"","pricing_plan_id":"free"},{"bike_id":"1b24a890-64ec-4222-83db-f05e30cf9e6a","system_id":"levelo_inurba_marseille","lat":43.303,"lon":5.3851,"is_reserved":false,"is_disabled":false,"rental_uris":{"android":"levelo://app?vid=1b24a890-64ec-4222-83db-f05e30cf9e6a","ios":"levelo://app?vid=1b24a890-64ec-4222-83db-f05e30cf9e6a"},"vehicle_type_id":"4","last_reported":1692212693,"current_range_meters":23200,"station_id":"","pricing_plan_id":"free"},{"bike_id":"a8eaf7dd-e435-4de3-be15-2c27c1cd362d","system_id":"levelo_inurba_marseille","lat":43.2968,"lon":5.37291,"is_reserved":false,"is_disabled":false,"rental_uris":{"android":"levelo://app?vid=a8eaf7dd-e435-4de3-be15-2c27c1cd362d","ios":"levelo://app?vid=a8eaf7dd-e435-4de3-be15-2c27c1cd362d"},"vehicle_type_id":"4","last_reported":1692212693,"current_range_meters":1600,"station_id":"ce4bgk12rcd13ifvqbj0","pricing_plan_id":"free"},{"bike_id":"0c16fd08-1d8d-44ab-8fd3-7ffb6e7e61a0","system_id":"levelo_inurba_marseille","lat":43.296131,"lon":5.370791,"is_reserved":false,"is_disabled":false,"rental_uris":{"android":"levelo://app?vid=0c16fd08-1d8d-44ab-8fd3-7ffb6e7e61a0","ios":"levelo://app?vid=0c16fd08-1d8d-44ab-8fd3-7ffb6e7e61a0"},"vehicle_type_id":"4","last_reported":1692212693,"current_range_meters":31200,"station_id":"ce4bgnh2rcd13ifvqc0g","pricing_plan_id":"free"},{"bike_id":"bb155e93-116e-494a-9911-2df351c7dae8","system_id":"levelo_inurba_marseille","lat":43.29619,"lon":5.37166,"is_reserved":false,"is_disabled":false,"rental_uris":{"android":"levelo://app?vid=bb155e93-116e-494a-9911-2df351c7dae8","ios":"levelo://app?vid=bb155e93-116e-494a-9911-2df351c7dae8"},"vehicle_type_id":"4","last_reported":1692212693,"current_range_meters":26800,"station_id":"","pricing_plan_id":"free"},{"bike_id":"73c9fcce-fa51-46fb-8322-546875e715c8","system_id":"levelo_inurba_marseille","lat":43.29573,"lon":5.367355,"is_reserved":false,"is_disabled":false,"rental_uris":{"android":"levelo://app?vid=73c9fcce-fa51-46fb-8322-546875e715c8","ios":"levelo://app?vid=73c9fcce-fa51-46fb-8322-546875e715c8"},"vehicle_type_id":"4","last_reported":1692212693,"current_range_meters":0,"station_id":"ce4bgph2rcd13ifvqc2g","pricing_plan_id":"free"},{"bike_id":"d16af6d5-f533-44d3-9b7b-13a8ef1a0fcb","system_id":"levelo_inurba_marseille","lat":43.299028,"lon":5.381509,"is_reserved":false,"is_disabled":false,"rental_uris":{"android":"levelo://app?vid=d16af6d5-f533-44d3-9b7b-13a8ef1a0fcb","ios":"levelo://app?vid=d16af6d5-f533-44d3-9b7b-13a8ef1a0fcb"},"vehicle_type_id":"4","last_reported":1692212693,"current_range_meters":12800,"station_id":"ce4bgj12rcd13ifvqbc0","pricing_plan_id":"free"},{"bike_id":"15a9a65d-0a49-44f9-a5d3-0e8b95a6642f","system_id":"levelo_inurba_marseille","lat":43.309589,"lon":5.390258,"is_reserved":false,"is_disabled":false,"rental_uris":{"android":"levelo://app?vid=15a9a65d-0a49-44f9-a5d3-0e8b95a6642f","ios":"levelo://app?vid=15a9a65d-0a49-44f9-a5d3-0e8b95a6642f"},"vehicle_type_id":"4","last_reported":1692212693,"current_range_meters":15600,"station_id":"ce4bgup2rcd13ifvqco0","pricing_plan_id":"free"},{"bike_id":"e407b5df-a689-4e21-8998-fa752ed0457c","system_id":"levelo_inurba_marseille","lat":43.296935,"lon":5.376544,"is_reserved":false,"is_disabled":false,"rental_uris":{"android":"levelo://app?vid=e407b5df-a689-4e21-8998-fa752ed0457c","ios":"levelo://app?vid=e407b5df-a689-4e21-8998-fa752ed0457c"},"vehicle_type_id":"4","last_reported":1692212693,"current_range_meters":15600,"station_id":"ce4bgkh2rcd13ifvqbl0","pricing_plan_id":"free"},{"bike_id":"5fed8310-bedf-440f-a5dd-bf7364db9561","system_id":"levelo_inurba_marseille","lat":43.299028,"lon":5.381509,"is_reserved":false,"is_disabled":false,"rental_uris":{"android":"levelo://app?vid=5fed8310-bedf-440f-a5dd-bf7364db9561","ios":"levelo://app?vid=5fed8310-bedf-440f-a5dd-bf7364db9561"},"vehicle_type_id":"4","last_reported":1692212693,"current_range_meters":25200,"station_id":"ce4bgj12rcd13ifvqbc0","pricing_plan_id":"free"},{"bike_id":"e7d393a6-5896-4d5d-8846-185d112a7d99","system_id":"levelo_inurba_marseille","lat":43.296935,"lon":5.376544,"is_reserved":false,"is_disabled":false,"rental_uris":{"android":"levelo://app?vid=e7d393a6-5896-4d5d-8846-185d112a7d99","ios":"levelo://app?vid=e7d393a6-5896-4d5d-8846-185d112a7d99"},"vehicle_type_id":"4","last_reported":1692212693,"current_range_meters":0,"station_id":"ce4bgkh2rcd13ifvqbl0","pricing_plan_id":"free"},{"bike_id":"c71fde01-9d23-41fc-8e5c-fbbb7f87ac7d","system_id":"levelo_inurba_marseille","lat":43.309589,"lon":5.390258,"is_reserved":false,"is_disabled":false,"rental_uris":{"android":"levelo://app?vid=c71fde01-9d23-41fc-8e5c-fbbb7f87ac7d","ios":"levelo://app?vid=c71fde01-9d23-41fc-8e5c-fbbb7f87ac7d"},"vehicle_type_id":"4","last_reported":1692212693,"current_range_meters":7200,"station_id":"ce4bgup2rcd13ifvqco0","pricing_plan_id":"free"},{"bike_id":"c949cbe3-76c6-4b6b-af73-039c48bbc7e0","system_id":"levelo_inurba_marseille","lat":43.296935,"lon":5.376544,"is_reserved":false,"is_disabled":false,"rental_uris":{"android":"levelo://app?vid=c949cbe3-76c6-4b6b-af73-039c48bbc7e0","ios":"levelo://app?vid=c949cbe3-76c6-4b6b-af73-039c48bbc7e0"},"vehicle_type_id":"4","last_reported":1692212693,"current_range_meters":0,"station_id":"ce4bgkh2rcd13ifvqbl0","pricing_plan_id":"free"},{"bike_id":"682feef4-f3f2-42dc-81fb-1efa7962820d","system_id":"levelo_inurba_marseille","lat":43.299028,"lon":5.381509,"is_reserved":false,"is_disabled":false,"rental_uris":{"android":"levelo://app?vid=682feef4-f3f2-42dc-81fb-1efa7962820d","ios":"levelo://app?vid=682feef4-f3f2-42dc-81fb-1efa7962820d"},"vehicle_type_id":"4","last_reported":1692212693,"current_range_meters":14400,"station_id":"ce4bgj12rcd13ifvqbc0","pricing_plan_id":"free"},{"bike_id":"bd5359b9-61f3-47ae-967e-4165ee88ff4f","system_id":"levelo_inurba_marseille","lat":43.309589,"lon":5.390258,"is_reserved":false,"is_disabled":false,"rental_uris":{"android":"levelo://app?vid=bd5359b9-61f3-47ae-967e-4165ee88ff4f","ios":"levelo://app?vid=bd5359b9-61f3-47ae-967e-4165ee88ff4f"},"vehicle_type_id":"4","last_reported":1692212693,"current_range_meters":3600,"station_id":"ce4bgup2rcd13ifvqco0","pricing_plan_id":"free"},{"bike_id":"7e4dacec-1d8e-4711-aea3-6d7de89e7a23","system_id":"levelo_inurba_marseille","lat":43.309589,"lon":5.390258,"is_reserved":false,"is_disabled":false,"rental_uris":{"android":"levelo://app?vid=7e4dacec-1d8e-4711-aea3-6d7de89e7a23","ios":"levelo://app?vid=7e4dacec-1d8e-4711-aea3-6d7de89e7a23"},"vehicle_type_id":"4","last_reported":1692212693,"current_range_meters":23200,"station_id":"ce4bgup2rcd13ifvqco0","pricing_plan_id":"free"},{"bike_id":"e1e4aae8-54f0-4edb-a820-05ff4906d7bd","system_id":"levelo_inurba_marseille","lat":43.309589,"lon":5.390258,"is_reserved":false,"is_disabled":false,"rental_uris":{"android":"levelo://app?vid=e1e4aae8-54f0-4edb-a820-05ff4906d7bd","ios":"levelo://app?vid=e1e4aae8-54f0-4edb-a820-05ff4906d7bd"},"vehicle_type_id":"4","last_reported":1692212693,"current_range_meters":18800,"station_id":"ce4bgup2rcd13ifvqco0","pricing_plan_id":"free"},{"bike_id":"451b8117-8c46-44f7-89aa-c1aa6e6f5be7","system_id":"levelo_inurba_marseille","lat":43.299028,"lon":5.381509,"is_reserved":false,"is_disabled":false,"rental_uris":{"android":"levelo://app?vid=451b8117-8c46-44f7-89aa-c1aa6e6f5be7","ios":"levelo://app?vid=451b8117-8c46-44f7-89aa-c1aa6e6f5be7"},"vehicle_type_id":"4","last_reported":1692212693,"current_range_meters":11200,"station_id":"ce4bgj12rcd13ifvqbc0","pricing_plan_id":"free"},{"bike_id":"2dddaf89-ac29-479e-8908-509c7c09e59d","system_id":"levelo_inurba_marseille","lat":43.309589,"lon":5.390258,"is_reserved":false,"is_disabled":false,"rental_uris":{"android":"levelo://app?vid=2dddaf89-ac29-479e-8908-509c7c09e59d","ios":"levelo://app?vid=2dddaf89-ac29-479e-8908-509c7c09e59d"},"vehicle_type_id":"4","last_reported":1692212693,"current_range_meters":20800,"station_id":"ce4bgup2rcd13ifvqco0","pricing_plan_id":"free"},{"bike_id":"82cc050c-0825-4a6b-8463-29aaa75d71d4","system_id":"levelo_inurba_marseille","lat":43.30948,"lon":5.39035,"is_reserved":false,"is_disabled":false,"rental_uris":{"android":"levelo://app?vid=82cc050c-0825-4a6b-8463-29aaa75d71d4","ios":"levelo://app?vid=82cc050c-0825-4a6b-8463-29aaa75d71d4"},"vehicle_type_id":"4","last_reported":1692212693,"current_range_meters":1200,"station_id":"ce4bgup2rcd13ifvqco0","pricing_plan_id":"free"},{"bike_id":"70e8fcba-4d06-491c-9de9-a14128c42746","system_id":"levelo_inurba_marseille","lat":43.317557,"lon":5.390173,"is_reserved":false,"is_disabled":false,"rental_uris":{"android":"levelo://app?vid=70e8fcba-4d06-491c-9de9-a14128c42746","ios":"levelo://app?vid=70e8fcba-4d06-491c-9de9-a14128c42746"},"vehicle_type_id":"4","last_reported":1692212693,"current_range_meters":30000,"station_id":"ce4bhqp2rcd13ifvqhng","pricing_plan_id":"free"},{"bike_id":"be472a66-12d7-4b1c-a801-1b9205d156df","system_id":"levelo_inurba_marseille","lat":43.31761,"lon":5.39007,"is_reserved":false,"is_disabled":false,"rental_uris":{"android":"levelo://app?vid=be472a66-12d7-4b1c-a801-1b9205d156df","ios":"levelo://app?vid=be472a66-12d7-4b1c-a801-1b9205d156df"},"vehicle_type_id":"4","last_reported":1692212693,"current_range_meters":31200,"station_id":"ce4bhqp2rcd13ifvqhng","pricing_plan_id":"free"},{"bike_id":"93de5219-47ff-4b18-a7bf-e79f70dc0971","system_id":"levelo_inurba_marseille","lat":43.3176,"lon":5.39011,"is_reserved":false,"is_disabled":false,"rental_uris":{"android":"levelo://app?vid=93de5219-47ff-4b18-a7bf-e79f70dc0971","ios":"levelo://app?vid=93de5219-47ff-4b18-a7bf-e79f70dc0971"},"vehicle_type_id":"4","last_reported":1692212693,"current_range_meters":30000,"station_id":"ce4bhqp2rcd13ifvqhng","pricing_plan_id":"free"},{"bike_id":"c2dd4bd6-ad62-4f90-af27-61e9344d9f3c","system_id":"levelo_inurba_marseille","lat":43.31758,"lon":5.39014,"is_reserved":false,"is_disabled":false,"rental_uris":{"android":"levelo://app?vid=c2dd4bd6-ad62-4f90-af27-61e9344d9f3c","ios":"levelo://app?vid=c2dd4bd6-ad62-4f90-af27-61e9344d9f3c"},"vehicle_type_id":"4","last_reported":1692212693,"current_range_meters":27200,"station_id":"ce4bhqp2rcd13ifvqhng","pricing_plan_id":"free"},{"bike_id":"dfe5956b-99da-461e-9ebb-3a92f42564f1","system_id":"levelo_inurba_marseille","lat":43.31754,"lon":5.39017,"is_reserved":false,"is_disabled":false,"rental_uris":{"android":"levelo://app?vid=dfe5956b-99da-461e-9ebb-3a92f42564f1","ios":"levelo://app?vid=dfe5956b-99da-461e-9ebb-3a92f42564f1"},"vehicle_type_id":"4","last_reported":1692212693,"current_range_meters":0,"station_id":"ce4bhqp2rcd13ifvqhng","pricing_plan_id":"free"},{"bike_id":"d92753e0-6ae4-4f40-8344-a6f54064d5fd","system_id":"levelo_inurba_marseille","lat":43.298037,"lon":5.381066,"is_reserved":false,"is_disabled":false,"rental_uris":{"android":"levelo://app?vid=d92753e0-6ae4-4f40-8344-a6f54064d5fd","ios":"levelo://app?vid=d92753e0-6ae4-4f40-8344-a6f54064d5fd"},"vehicle_type_id":"4","last_reported":1692212693,"current_range_meters":2800,"station_id":"ce4bgip2rcd13ifvqbb0","pricing_plan_id":"free"},{"bike_id":"3675f859-efe2-4829-b247-c765c4455f2f","system_id":"levelo_inurba_marseille","lat":43.298037,"lon":5.381066,"is_reserved":false,"is_disabled":false,"rental_uris":{"android":"levelo://app?vid=3675f859-efe2-4829-b247-c765c4455f2f","ios":"levelo://app?vid=3675f859-efe2-4829-b247-c765c4455f2f"},"vehicle_type_id":"4","last_reported":1692212693,"current_range_meters":9600,"station_id":"ce4bgip2rcd13ifvqbb0","pricing_plan_id":"free"},{"bike_id":"5f508034-d2dd-4c94-a392-1f4ca32add0c","system_id":"levelo_inurba_marseille","lat":43.298037,"lon":5.381066,"is_reserved":false,"is_disabled":false,"rental_uris":{"android":"levelo://app?vid=5f508034-d2dd-4c94-a392-1f4ca32add0c","ios":"levelo://app?vid=5f508034-d2dd-4c94-a392-1f4ca32add0c"},"vehicle_type_id":"4","last_reported":1692212693,"current_range_meters":20400,"station_id":"ce4bgip2rcd13ifvqbb0","pricing_plan_id":"free"},{"bike_id":"ff21f811-325c-43b7-821a-0698e0c21630","system_id":"levelo_inurba_marseille","lat":43.304278,"lon":5.388868,"is_reserved":false,"is_disabled":false,"rental_uris":{"android":"levelo://app?vid=ff21f811-325c-43b7-821a-0698e0c21630","ios":"levelo://app?vid=ff21f811-325c-43b7-821a-0698e0c21630"},"vehicle_type_id":"4","last_reported":1692212693,"current_range_meters":24000,"station_id":"ce4bgk12rcd13ifvqbi0","pricing_plan_id":"free"},{"bike_id":"4008b748-10e2-4513-b6e6-9b8b883fdad2","system_id":"levelo_inurba_marseille","lat":43.304246,"lon":5.388835,"is_reserved":false,"is_disabled":false,"rental_uris":{"android":"levelo://app?vid=4008b748-10e2-4513-b6e6-9b8b883fdad2","ios":"levelo://app?vid=4008b748-10e2-4513-b6e6-9b8b883fdad2"},"vehicle_type_id":"4","last_reported":1692212693,"current_range_meters":4400,"station_id":"ce4bgk12rcd13ifvqbi0","pricing_plan_id":"free"},{"bike_id":"ca858d2d-d07d-45ad-a521-dc278b7e90de","system_id":"levelo_inurba_marseille","lat":43.305994,"lon":5.393687,"is_reserved":false,"is_disabled":false,"rental_uris":{"android":"levelo://app?vid=ca858d2d-d07d-45ad-a521-dc278b7e90de","ios":"levelo://app?vid=ca858d2d-d07d-45ad-a521-dc278b7e90de"},"vehicle_type_id":"4","last_reported":1692212693,"current_range_meters":1600,"station_id":"ce4bh0p2rcd13ifvqd80","pricing_plan_id":"free"},{"bike_id":"a4df99ce-0488-49dd-a888-94686f562e88","system_id":"levelo_inurba_marseille","lat":43.295748,"lon":5.37522,"is_reserved":false,"is_disabled":false,"rental_uris":{"android":"levelo://app?vid=a4df99ce-0488-49dd-a888-94686f562e88","ios":"levelo://app?vid=a4df99ce-0488-49dd-a888-94686f562e88"},"vehicle_type_id":"4","last_reported":1692212693,"current_range_meters":28400,"station_id":"ce4bgh92rcd13ifvqb50","pricing_plan_id":"free"},{"bike_id":"fe692f72-857e-4db6-a732-c5143a73bfba","system_id":"levelo_inurba_marseille","lat":43.296263,"lon":5.377094,"is_reserved":false,"is_disabled":false,"rental_uris":{"android":"levelo://app?vid=fe692f72-857e-4db6-a732-c5143a73bfba","ios":"levelo://app?vid=fe692f72-857e-4db6-a732-c5143a73bfba"},"vehicle_type_id":"4","last_reported":1692212693,"current_range_meters":2800,"station_id":"ce4bgi92rcd13ifvqb90","pricing_plan_id":"free"},{"bike_id":"4e213cf0-5e42-4636-bcef-02008eb26a62","system_id":"levelo_inurba_marseille","lat":43.29528,"lon":5.37496,"is_reserved":false,"is_disabled":false,"rental_uris":{"android":"levelo://app?vid=4e213cf0-5e42-4636-bcef-02008eb26a62","ios":"levelo://app?vid=4e213cf0-5e42-4636-bcef-02008eb26a62"},"vehicle_type_id":"4","last_reported":1692212693,"current_range_meters":25600,"station_id":"ce4bgkp2rcd13ifvqbmg","pricing_plan_id":"free"},{"bike_id":"0b1db6be-eab0-4e6e-9785-c8d61b365b51","system_id":"levelo_inurba_marseille","lat":43.299707,"lon":5.384859,"is_reserved":false,"is_disabled":false,"rental_uris":{"android":"levelo://app?vid=0b1db6be-eab0-4e6e-9785-c8d61b365b51","ios":"levelo://app?vid=0b1db6be-eab0-4e6e-9785-c8d61b365b51"},"vehicle_type_id":"4","last_reported":1692212693,"current_range_meters":2800,"station_id":"ce4bgj92rcd13ifvqbd0","pricing_plan_id":"free"},{"bike_id":"efbd7f89-6ac9-4646-931d-6094d75ebccd","system_id":"levelo_inurba_marseille","lat":43.299707,"lon":5.384859,"is_reserved":false,"is_disabled":false,"rental_uris":{"android":"levelo://app?vid=efbd7f89-6ac9-4646-931d-6094d75ebccd","ios":"levelo://app?vid=efbd7f89-6ac9-4646-931d-6094d75ebccd"},"vehicle_type_id":"4","last_reported":1692212693,"current_range_meters":21200,"station_id":"ce4bgj92rcd13ifvqbd0","pricing_plan_id":"free"},{"bike_id":"357a4342-f36c-484b-a346-c547445ec336","system_id":"levelo_inurba_marseille","lat":43.299717,"lon":5.384845,"is_reserved":false,"is_disabled":false,"rental_uris":{"android":"levelo://app?vid=357a4342-f36c-484b-a346-c547445ec336","ios":"levelo://app?vid=357a4342-f36c-484b-a346-c547445ec336"},"vehicle_type_id":"4","last_reported":1692212693,"current_range_meters":16400,"station_id":"ce4bgj92rcd13ifvqbd0","pricing_plan_id":"free"},{"bike_id":"e9a87334-0092-4215-800f-8bd8960ce7d8","system_id":"levelo_inurba_marseille","lat":43.299717,"lon":5.384845,"is_reserved":false,"is_disabled":false,"rental_uris":{"android":"levelo://app?vid=e9a87334-0092-4215-800f-8bd8960ce7d8","ios":"levelo://app?vid=e9a87334-0092-4215-800f-8bd8960ce7d8"},"vehicle_type_id":"4","last_reported":1692212693,"current_range_meters":21200,"station_id":"ce4bgj92rcd13ifvqbd0","pricing_plan_id":"free"},{"bike_id":"6b6cba89-d2b8-44bb-8454-5df08cf65f67","system_id":"levelo_inurba_marseille","lat":43.32369,"lon":5.38882,"is_reserved":false,"is_disabled":false,"rental_uris":{"android":"levelo://app?vid=6b6cba89-d2b8-44bb-8454-5df08cf65f67","ios":"levelo://app?vid=6b6cba89-d2b8-44bb-8454-5df08cf65f67"},"vehicle_type_id":"4","last_reported":1692212693,"current_range_meters":26400,"station_id":"ce4bhqp2rcd13ifvqhog","pricing_plan_id":"free"},{"bike_id":"ed420379-a5f3-475c-afbc-36a5fb4cac96","system_id":"levelo_inurba_marseille","lat":43.29601,"lon":5.381084,"is_reserved":false,"is_disabled":false,"rental_uris":{"android":"levelo://app?vid=ed420379-a5f3-475c-afbc-36a5fb4cac96","ios":"levelo://app?vid=ed420379-a5f3-475c-afbc-36a5fb4cac96"},"vehicle_type_id":"4","last_reported":1692212693,"current_range_meters":0,"station_id":"ce4bgl12rcd13ifvqbo0","pricing_plan_id":"free"},{"bike_id":"5056c2eb-4356-4702-b901-d4f56b8bb28e","system_id":"levelo_inurba_marseille","lat":43.29601,"lon":5.381084,"is_reserved":false,"is_disabled":false,"rental_uris":{"android":"levelo://app?vid=5056c2eb-4356-4702-b901-d4f56b8bb28e","ios":"levelo://app?vid=5056c2eb-4356-4702-b901-d4f56b8bb28e"},"vehicle_type_id":"4","last_reported":1692212693,"current_range_meters":25600,"station_id":"ce4bgl12rcd13ifvqbo0","pricing_plan_id":"free"},{"bike_id":"f258d7ed-c613-4321-b231-57d9f47977b0","system_id":"levelo_inurba_marseille","lat":43.323695,"lon":5.389596,"is_reserved":false,"is_disabled":false,"rental_uris":{"android":"levelo://app?vid=f258d7ed-c613-4321-b231-57d9f47977b0","ios":"levelo://app?vid=f258d7ed-c613-4321-b231-57d9f47977b0"},"vehicle_type_id":"4","last_reported":1692212693,"current_range_meters":30000,"station_id":"ce4bhqp2rcd13ifvqhog","pricing_plan_id":"free"},{"bike_id":"42f5216e-dd83-4759-94bf-f42475241b5d","system_id":"levelo_inurba_marseille","lat":43.29303,"lon":5.3717,"is_reserved":false,"is_disabled":false,"rental_uris":{"android":"levelo://app?vid=42f5216e-dd83-4759-94bf-f42475241b5d","ios":"levelo://app?vid=42f5216e-dd83-4759-94bf-f42475241b5d"},"vehicle_type_id":"4","last_reported":1692212693,"current_range_meters":25200,"station_id":"ce4bgh92rcd13ifvqb40","pricing_plan_id":"free"},{"bike_id":"381f67aa-0327-40a6-835c-c3d05b5f4d2a","system_id":"levelo_inurba_marseille","lat":43.29273,"lon":5.36833,"is_reserved":false,"is_disabled":false,"rental_uris":{"android":"levelo://app?vid=381f67aa-0327-40a6-835c-c3d05b5f4d2a","ios":"levelo://app?vid=381f67aa-0327-40a6-835c-c3d05b5f4d2a"},"vehicle_type_id":"4","last_reported":1692212693,"current_range_meters":0,"station_id":"ce4bhbp2rcd13ifvqesg","pricing_plan_id":"free"},{"bike_id":"3cc59e88-4c9b-47d5-bcf4-cbd6f030d70f","system_id":"levelo_inurba_marseille","lat":43.29265,"lon":5.36841,"is_reserved":false,"is_disabled":false,"rental_uris":{"android":"levelo://app?vid=3cc59e88-4c9b-47d5-bcf4-cbd6f030d70f","ios":"levelo://app?vid=3cc59e88-4c9b-47d5-bcf4-cbd6f030d70f"},"vehicle_type_id":"4","last_reported":1692212693,"current_range_meters":6000,"station_id":"ce4bhbp2rcd13ifvqesg","pricing_plan_id":"free"},{"bike_id":"19f12be1-28fd-4dfc-8539-5b98e6efa473","system_id":"levelo_inurba_marseille","lat":43.293009,"lon":5.374584,"is_reserved":false,"is_disabled":false,"rental_uris":{"android":"levelo://app?vid=19f12be1-28fd-4dfc-8539-5b98e6efa473","ios":"levelo://app?vid=19f12be1-28fd-4dfc-8539-5b98e6efa473"},"vehicle_type_id":"4","last_reported":1692212693,"current_range_meters":22000,"station_id":"ce4bgi12rcd13ifvqb70","pricing_plan_id":"free"},{"bike_id":"07eff295-4647-4054-9a91-906a62901215","system_id":"levelo_inurba_marseille","lat":43.305994,"lon":5.393687,"is_reserved":false,"is_disabled":false,"rental_uris":{"android":"levelo://app?vid=07eff295-4647-4054-9a91-906a62901215","ios":"levelo://app?vid=07eff295-4647-4054-9a91-906a62901215"},"vehicle_type_id":"4","last_reported":1692212693,"current_range_meters":22400,"station_id":"ce4bh0p2rcd13ifvqd80","pricing_plan_id":"free"},{"bike_id":"b3fc0fc8-c621-4052-bc83-4bd6fe2e7cc5","system_id":"levelo_inurba_marseille","lat":43.293009,"lon":5.374584,"is_reserved":false,"is_disabled":false,"rental_uris":{"android":"levelo://app?vid=b3fc0fc8-c621-4052-bc83-4bd6fe2e7cc5","ios":"levelo://app?vid=b3fc0fc8-c621-4052-bc83-4bd6fe2e7cc5"},"vehicle_type_id":"4","last_reported":1692212693,"current_range_meters":800,"station_id":"ce4bgi12rcd13ifvqb70","pricing_plan_id":"free"},{"bike_id":"254b1bcb-30ad-4005-9a3d-39da3d91cb6e","system_id":"levelo_inurba_marseille","lat":43.293009,"lon":5.374584,"is_reserved":false,"is_disabled":false,"rental_uris":{"android":"levelo://app?vid=254b1bcb-30ad-4005-9a3d-39da3d91cb6e","ios":"levelo://app?vid=254b1bcb-30ad-4005-9a3d-39da3d91cb6e"},"vehicle_type_id":"4","last_reported":1692212693,"current_range_meters":31600,"station_id":"ce4bgi12rcd13ifvqb70","pricing_plan_id":"free"},{"bike_id":"38fef587-7cc5-4800-b069-87b8f296a10a","system_id":"levelo_inurba_marseille","lat":43.293009,"lon":5.374584,"is_reserved":false,"is_disabled":false,"rental_uris":{"android":"levelo://app?vid=38fef587-7cc5-4800-b069-87b8f296a10a","ios":"levelo://app?vid=38fef587-7cc5-4800-b069-87b8f296a10a"},"vehicle_type_id":"4","last_reported":1692212693,"current_range_meters":31600,"station_id":"ce4bgi12rcd13ifvqb70","pricing_plan_id":"free"},{"bike_id":"bef0af91-d145-42b7-ac48-bcc72bac01ee","system_id":"levelo_inurba_marseille","lat":43.30594,"lon":5.39355,"is_reserved":false,"is_disabled":false,"rental_uris":{"android":"levelo://app?vid=bef0af91-d145-42b7-ac48-bcc72bac01ee","ios":"levelo://app?vid=bef0af91-d145-42b7-ac48-bcc72bac01ee"},"vehicle_type_id":"4","last_reported":1692212693,"current_range_meters":8800,"station_id":"ce4bh0p2rcd13ifvqd80","pricing_plan_id":"free"},{"bike_id":"aae9bb70-f2d1-4467-be79-b46cf0d668fe","system_id":"levelo_inurba_marseille","lat":43.29296,"lon":5.37458,"is_reserved":false,"is_disabled":false,"rental_uris":{"android":"levelo://app?vid=aae9bb70-f2d1-4467-be79-b46cf0d668fe","ios":"levelo://app?vid=aae9bb70-f2d1-4467-be79-b46cf0d668fe"},"vehicle_type_id":"4","last_reported":1692212693,"current_range_meters":8800,"station_id":"ce4bgi12rcd13ifvqb70","pricing_plan_id":"free"},{"bike_id":"b365693d-6dbe-4296-8ea9-ba7fa98c83c7","system_id":"levelo_inurba_marseille","lat":43.29293,"lon":5.3746,"is_reserved":false,"is_disabled":false,"rental_uris":{"android":"levelo://app?vid=b365693d-6dbe-4296-8ea9-ba7fa98c83c7","ios":"levelo://app?vid=b365693d-6dbe-4296-8ea9-ba7fa98c83c7"},"vehicle_type_id":"4","last_reported":1692212693,"current_range_meters":16000,"station_id":"ce4bgi12rcd13ifvqb70","pricing_plan_id":"free"},{"bike_id":"69cbef79-0e65-4fbb-94d3-dd734db770cd","system_id":"levelo_inurba_marseille","lat":43.2937,"lon":5.37851,"is_reserved":false,"is_disabled":false,"rental_uris":{"android":"levelo://app?vid=69cbef79-0e65-4fbb-94d3-dd734db770cd","ios":"levelo://app?vid=69cbef79-0e65-4fbb-94d3-dd734db770cd"},"vehicle_type_id":"4","last_reported":1692212693,"current_range_meters":0,"station_id":"ce4bgjh2rcd13ifvqbf0","pricing_plan_id":"free"},{"bike_id":"d1c3c685-7694-4398-86d3-d35d6238ebf9","system_id":"levelo_inurba_marseille","lat":43.29371,"lon":5.37857,"is_reserved":false,"is_disabled":false,"rental_uris":{"android":"levelo://app?vid=d1c3c685-7694-4398-86d3-d35d6238ebf9","ios":"levelo://app?vid=d1c3c685-7694-4398-86d3-d35d6238ebf9"},"vehicle_type_id":"4","last_reported":1692212693,"current_range_meters":7600,"station_id":"ce4bgjh2rcd13ifvqbf0","pricing_plan_id":"free"},{"bike_id":"7eb248d8-e81a-4d72-89c3-2c7bd43925ad","system_id":"levelo_inurba_marseille","lat":43.300852,"lon":5.390859,"is_reserved":false,"is_disabled":false,"rental_uris":{"android":"levelo://app?vid=7eb248d8-e81a-4d72-89c3-2c7bd43925ad","ios":"levelo://app?vid=7eb248d8-e81a-4d72-89c3-2c7bd43925ad"},"vehicle_type_id":"4","last_reported":1692212693,"current_range_meters":14000,"station_id":"ce4bh192rcd13ifvqdb0","pricing_plan_id":"free"},{"bike_id":"32b48d54-66a9-4a8c-a228-272627854299","system_id":"levelo_inurba_marseille","lat":43.29227,"lon":5.36051,"is_reserved":false,"is_disabled":false,"rental_uris":{"android":"levelo://app?vid=32b48d54-66a9-4a8c-a228-272627854299","ios":"levelo://app?vid=32b48d54-66a9-4a8c-a228-272627854299"},"vehicle_type_id":"4","last_reported":1692212693,"current_range_meters":16400,"station_id":"ce4bhbh2rcd13ifvqeqg","pricing_plan_id":"free"},{"bike_id":"cd61c025-572e-43d1-9bd9-ec1051177868","system_id":"levelo_inurba_marseille","lat":43.300852,"lon":5.390859,"is_reserved":false,"is_disabled":false,"rental_uris":{"android":"levelo://app?vid=cd61c025-572e-43d1-9bd9-ec1051177868","ios":"levelo://app?vid=cd61c025-572e-43d1-9bd9-ec1051177868"},"vehicle_type_id":"4","last_reported":1692212693,"current_range_meters":31200,"station_id":"ce4bh192rcd13ifvqdb0","pricing_plan_id":"free"},{"bike_id":"d6736aa5-06b8-4dde-b190-5a885488a2e3","system_id":"levelo_inurba_marseille","lat":43.292214,"lon":5.360542,"is_reserved":false,"is_disabled":false,"rental_uris":{"android":"levelo://app?vid=d6736aa5-06b8-4dde-b190-5a885488a2e3","ios":"levelo://app?vid=d6736aa5-06b8-4dde-b190-5a885488a2e3"},"vehicle_type_id":"4","last_reported":1692212693,"current_range_meters":22400,"station_id":"ce4bhbh2rcd13ifvqeqg","pricing_plan_id":"free"},{"bike_id":"762d51a2-53e0-479b-9aa8-1a96f763f5e8","system_id":"levelo_inurba_marseille","lat":43.29218,"lon":5.36053,"is_reserved":false,"is_disabled":false,"rental_uris":{"android":"levelo://app?vid=762d51a2-53e0-479b-9aa8-1a96f763f5e8","ios":"levelo://app?vid=762d51a2-53e0-479b-9aa8-1a96f763f5e8"},"vehicle_type_id":"4","last_reported":1692212693,"current_range_meters":31200,"station_id":"ce4bhbh2rcd13ifvqeqg","pricing_plan_id":"free"},{"bike_id":"50cd6452-f093-4ac0-b5cf-a9d29ee7e405","system_id":"levelo_inurba_marseille","lat":43.292311,"lon":5.360731,"is_reserved":false,"is_disabled":false,"rental_uris":{"android":"levelo://app?vid=50cd6452-f093-4ac0-b5cf-a9d29ee7e405","ios":"levelo://app?vid=50cd6452-f093-4ac0-b5cf-a9d29ee7e405"},"vehicle_type_id":"4","last_reported":1692212693,"current_range_meters":31200,"station_id":"ce4bhbh2rcd13ifvqeqg","pricing_plan_id":"free"},{"bike_id":"1c7111ae-bbc7-4bc0-a3e1-7ec43d85a1a4","system_id":"levelo_inurba_marseille","lat":43.298764,"lon":5.388973,"is_reserved":false,"is_disabled":false,"rental_uris":{"android":"levelo://app?vid=1c7111ae-bbc7-4bc0-a3e1-7ec43d85a1a4","ios":"levelo://app?vid=1c7111ae-bbc7-4bc0-a3e1-7ec43d85a1a4"},"vehicle_type_id":"4","last_reported":1692212693,"current_range_meters":400,"station_id":"ce4bh392rcd13ifvqdl0","pricing_plan_id":"free"},{"bike_id":"85cce2ed-6265-4470-b4e9-7413fbb67254","system_id":"levelo_inurba_marseille","lat":43.29883,"lon":5.38904,"is_reserved":false,"is_disabled":false,"rental_uris":{"android":"levelo://app?vid=85cce2ed-6265-4470-b4e9-7413fbb67254","ios":"levelo://app?vid=85cce2ed-6265-4470-b4e9-7413fbb67254"},"vehicle_type_id":"4","last_reported":1692212693,"current_range_meters":14000,"station_id":"ce4bh392rcd13ifvqdl0","pricing_plan_id":"free"},{"bike_id":"a125a25b-073f-4c48-a3ef-8abedfc3ff70","system_id":"levelo_inurba_marseille","lat":43.298764,"lon":5.388973,"is_reserved":false,"is_disabled":false,"rental_uris":{"android":"levelo://app?vid=a125a25b-073f-4c48-a3ef-8abedfc3ff70","ios":"levelo://app?vid=a125a25b-073f-4c48-a3ef-8abedfc3ff70"},"vehicle_type_id":"4","last_reported":1692212693,"current_range_meters":14000,"station_id":"ce4bh392rcd13ifvqdl0","pricing_plan_id":"free"},{"bike_id":"7cf68528-4fba-4827-aa41-bb7fd4007837","system_id":"levelo_inurba_marseille","lat":43.29873,"lon":5.38901,"is_reserved":false,"is_disabled":false,"rental_uris":{"android":"levelo://app?vid=7cf68528-4fba-4827-aa41-bb7fd4007837","ios":"levelo://app?vid=7cf68528-4fba-4827-aa41-bb7fd4007837"},"vehicle_type_id":"4","last_reported":1692212693,"current_range_meters":24000,"station_id":"ce4bh392rcd13ifvqdl0","pricing_plan_id":"free"},{"bike_id":"2ff87604-56a4-4d24-b222-c810e105ec5e","system_id":"levelo_inurba_marseille","lat":43.298764,"lon":5.388973,"is_reserved":false,"is_disabled":false,"rental_uris":{"android":"levelo://app?vid=2ff87604-56a4-4d24-b222-c810e105ec5e","ios":"levelo://app?vid=2ff87604-56a4-4d24-b222-c810e105ec5e"},"vehicle_type_id":"4","last_reported":1692212693,"current_range_meters":3200,"station_id":"ce4bh392rcd13ifvqdl0","pricing_plan_id":"free"},{"bike_id":"321cc415-1c57-4878-b352-186cd48d47ef","system_id":"levelo_inurba_marseille","lat":43.29164,"lon":5.37137,"is_reserved":false,"is_disabled":false,"rental_uris":{"android":"levelo://app?vid=321cc415-1c57-4878-b352-186cd48d47ef","ios":"levelo://app?vid=321cc415-1c57-4878-b352-186cd48d47ef"},"vehicle_type_id":"4","last_reported":1692212693,"current_range_meters":12000,"station_id":"ce4bha92rcd13ifvqeh0","pricing_plan_id":"free"},{"bike_id":"0136dfd6-13d8-4865-a4df-5593a72944da","system_id":"levelo_inurba_marseille","lat":43.313291,"lon":5.396838,"is_reserved":false,"is_disabled":false,"rental_uris":{"android":"levelo://app?vid=0136dfd6-13d8-4865-a4df-5593a72944da","ios":"levelo://app?vid=0136dfd6-13d8-4865-a4df-5593a72944da"},"vehicle_type_id":"4","last_reported":1692212693,"current_range_meters":7200,"station_id":"ce4bgvp2rcd13ifvqcu0","pricing_plan_id":"free"},{"bike_id":"f0dd56b0-3706-4c12-945a-2f295b2e3ac5","system_id":"levelo_inurba_marseille","lat":43.31326,"lon":5.39688,"is_reserved":false,"is_disabled":false,"rental_uris":{"android":"levelo://app?vid=f0dd56b0-3706-4c12-945a-2f295b2e3ac5","ios":"levelo://app?vid=f0dd56b0-3706-4c12-945a-2f295b2e3ac5"},"vehicle_type_id":"4","last_reported":1692212693,"current_range_meters":16800,"station_id":"ce4bgvp2rcd13ifvqcu0","pricing_plan_id":"free"},{"bike_id":"8fd2c4e8-091a-48b4-9572-24f78b4ede30","system_id":"levelo_inurba_marseille","lat":43.30879,"lon":5.39641,"is_reserved":false,"is_disabled":false,"rental_uris":{"android":"levelo://app?vid=8fd2c4e8-091a-48b4-9572-24f78b4ede30","ios":"levelo://app?vid=8fd2c4e8-091a-48b4-9572-24f78b4ede30"},"vehicle_type_id":"4","last_reported":1692212693,"current_range_meters":29600,"station_id":"ce4bh012rcd13ifvqcv0","pricing_plan_id":"free"},{"bike_id":"56f4c0e9-fc60-4f46-bfa9-1896caec5ed9","system_id":"levelo_inurba_marseille","lat":43.31332,"lon":5.39691,"is_reserved":false,"is_disabled":false,"rental_uris":{"android":"levelo://app?vid=56f4c0e9-fc60-4f46-bfa9-1896caec5ed9","ios":"levelo://app?vid=56f4c0e9-fc60-4f46-bfa9-1896caec5ed9"},"vehicle_type_id":"4","last_reported":1692212693,"current_range_meters":21600,"station_id":"ce4bgvp2rcd13ifvqcu0","pricing_plan_id":"free"},{"bike_id":"fbfa8568-445c-49c1-826e-e15da3a2d4b5","system_id":"levelo_inurba_marseille","lat":43.313291,"lon":5.396838,"is_reserved":false,"is_disabled":false,"rental_uris":{"android":"levelo://app?vid=fbfa8568-445c-49c1-826e-e15da3a2d4b5","ios":"levelo://app?vid=fbfa8568-445c-49c1-826e-e15da3a2d4b5"},"vehicle_type_id":"4","last_reported":1692212693,"current_range_meters":16800,"station_id":"ce4bgvp2rcd13ifvqcu0","pricing_plan_id":"free"},{"bike_id":"e04689e2-90be-4065-942c-d2d00ede3251","system_id":"levelo_inurba_marseille","lat":43.2919,"lon":5.35793,"is_reserved":false,"is_disabled":false,"rental_uris":{"android":"levelo://app?vid=e04689e2-90be-4065-942c-d2d00ede3251","ios":"levelo://app?vid=e04689e2-90be-4065-942c-d2d00ede3251"},"vehicle_type_id":"4","last_reported":1692212693,"current_range_meters":18000,"station_id":"ce4bhb12rcd13ifvqel0","pricing_plan_id":"free"},{"bike_id":"0bf05c24-67f3-4d9e-a402-f978015fcfef","system_id":"levelo_inurba_marseille","lat":43.309038,"lon":5.396546,"is_reserved":false,"is_disabled":false,"rental_uris":{"android":"levelo://app?vid=0bf05c24-67f3-4d9e-a402-f978015fcfef","ios":"levelo://app?vid=0bf05c24-67f3-4d9e-a402-f978015fcfef"},"vehicle_type_id":"4","last_reported":1692212693,"current_range_meters":400,"station_id":"ce4bh012rcd13ifvqcv0","pricing_plan_id":"free"},{"bike_id":"c7515956-72aa-435e-9688-3a3252cbf8ec","system_id":"levelo_inurba_marseille","lat":43.309038,"lon":5.396546,"is_reserved":false,"is_disabled":false,"rental_uris":{"android":"levelo://app?vid=c7515956-72aa-435e-9688-3a3252cbf8ec","ios":"levelo://app?vid=c7515956-72aa-435e-9688-3a3252cbf8ec"},"vehicle_type_id":"4","last_reported":1692212693,"current_range_meters":5600,"station_id":"ce4bh012rcd13ifvqcv0","pricing_plan_id":"free"},{"bike_id":"1f56897c-accd-4b4e-8e9d-9c9e894f009e","system_id":"levelo_inurba_marseille","lat":43.309038,"lon":5.396546,"is_reserved":false,"is_disabled":false,"rental_uris":{"android":"levelo://app?vid=1f56897c-accd-4b4e-8e9d-9c9e894f009e","ios":"levelo://app?vid=1f56897c-accd-4b4e-8e9d-9c9e894f009e"},"vehicle_type_id":"4","last_reported":1692212693,"current_range_meters":800,"station_id":"ce4bh012rcd13ifvqcv0","pricing_plan_id":"free"},{"bike_id":"5cb69470-ace6-455f-96ca-682977a7d70e","system_id":"levelo_inurba_marseille","lat":43.29529,"lon":5.385581,"is_reserved":false,"is_disabled":false,"rental_uris":{"android":"levelo://app?vid=5cb69470-ace6-455f-96ca-682977a7d70e","ios":"levelo://app?vid=5cb69470-ace6-455f-96ca-682977a7d70e"},"vehicle_type_id":"4","last_reported":1692212693,"current_range_meters":24800,"station_id":"ce4bgih2rcd13ifvqba0","pricing_plan_id":"free"},{"bike_id":"5cc47bd5-d1b3-47fa-a84c-8c6c3b536d3f","system_id":"levelo_inurba_marseille","lat":43.29529,"lon":5.385581,"is_reserved":false,"is_disabled":false,"rental_uris":{"android":"levelo://app?vid=5cc47bd5-d1b3-47fa-a84c-8c6c3b536d3f","ios":"levelo://app?vid=5cc47bd5-d1b3-47fa-a84c-8c6c3b536d3f"},"vehicle_type_id":"4","last_reported":1692212693,"current_range_meters":7200,"station_id":"ce4bgih2rcd13ifvqba0","pricing_plan_id":"free"},{"bike_id":"5a64282e-4e38-410e-a5a5-c15adceff2eb","system_id":"levelo_inurba_marseille","lat":43.29529,"lon":5.385581,"is_reserved":false,"is_disabled":false,"rental_uris":{"android":"levelo://app?vid=5a64282e-4e38-410e-a5a5-c15adceff2eb","ios":"levelo://app?vid=5a64282e-4e38-410e-a5a5-c15adceff2eb"},"vehicle_type_id":"4","last_reported":1692212693,"current_range_meters":16000,"station_id":"ce4bgih2rcd13ifvqba0","pricing_plan_id":"free"},{"bike_id":"483d3970-7d86-499b-a74a-6ef55caabd3b","system_id":"levelo_inurba_marseille","lat":43.29529,"lon":5.385581,"is_reserved":false,"is_disabled":false,"rental_uris":{"android":"levelo://app?vid=483d3970-7d86-499b-a74a-6ef55caabd3b","ios":"levelo://app?vid=483d3970-7d86-499b-a74a-6ef55caabd3b"},"vehicle_type_id":"4","last_reported":1692212693,"current_range_meters":24400,"station_id":"ce4bgih2rcd13ifvqba0","pricing_plan_id":"free"},{"bike_id":"7a8f28d4-223f-45f9-b5f9-05d82de12435","system_id":"levelo_inurba_marseille","lat":43.29529,"lon":5.385581,"is_reserved":false,"is_disabled":false,"rental_uris":{"android":"levelo://app?vid=7a8f28d4-223f-45f9-b5f9-05d82de12435","ios":"levelo://app?vid=7a8f28d4-223f-45f9-b5f9-05d82de12435"},"vehicle_type_id":"4","last_reported":1692212693,"current_range_meters":28000,"station_id":"ce4bgih2rcd13ifvqba0","pricing_plan_id":"free"},{"bike_id":"32f99313-5996-4b3c-87ab-0a65a4ba3b3a","system_id":"levelo_inurba_marseille","lat":43.29529,"lon":5.385581,"is_reserved":false,"is_disabled":false,"rental_uris":{"android":"levelo://app?vid=32f99313-5996-4b3c-87ab-0a65a4ba3b3a","ios":"levelo://app?vid=32f99313-5996-4b3c-87ab-0a65a4ba3b3a"},"vehicle_type_id":"4","last_reported":1692212693,"current_range_meters":16800,"station_id":"ce4bgih2rcd13ifvqba0","pricing_plan_id":"free"},{"bike_id":"77e7e9f1-c601-43e8-81e7-8fdfbde96f04","system_id":"levelo_inurba_marseille","lat":43.29529,"lon":5.385581,"is_reserved":false,"is_disabled":false,"rental_uris":{"android":"levelo://app?vid=77e7e9f1-c601-43e8-81e7-8fdfbde96f04","ios":"levelo://app?vid=77e7e9f1-c601-43e8-81e7-8fdfbde96f04"},"vehicle_type_id":"4","last_reported":1692212693,"current_range_meters":10400,"station_id":"ce4bgih2rcd13ifvqba0","pricing_plan_id":"free"},{"bike_id":"d34ee7f9-130b-4672-9532-3c3bc4fdeb76","system_id":"levelo_inurba_marseille","lat":43.29529,"lon":5.385581,"is_reserved":false,"is_disabled":false,"rental_uris":{"android":"levelo://app?vid=d34ee7f9-130b-4672-9532-3c3bc4fdeb76","ios":"levelo://app?vid=d34ee7f9-130b-4672-9532-3c3bc4fdeb76"},"vehicle_type_id":"4","last_reported":1692212693,"current_range_meters":13200,"station_id":"ce4bgih2rcd13ifvqba0","pricing_plan_id":"free"},{"bike_id":"4015e505-6c52-4cb1-a736-d18f143ab2bf","system_id":"levelo_inurba_marseille","lat":43.29529,"lon":5.385581,"is_reserved":false,"is_disabled":false,"rental_uris":{"android":"levelo://app?vid=4015e505-6c52-4cb1-a736-d18f143ab2bf","ios":"levelo://app?vid=4015e505-6c52-4cb1-a736-d18f143ab2bf"},"vehicle_type_id":"4","last_reported":1692212693,"current_range_meters":22000,"station_id":"ce4bgih2rcd13ifvqba0","pricing_plan_id":"free"},{"bike_id":"cccd5de1-ac40-4cfd-8cd3-45f67a8b74d3","system_id":"levelo_inurba_marseille","lat":43.29529,"lon":5.385581,"is_reserved":false,"is_disabled":false,"rental_uris":{"android":"levelo://app?vid=cccd5de1-ac40-4cfd-8cd3-45f67a8b74d3","ios":"levelo://app?vid=cccd5de1-ac40-4cfd-8cd3-45f67a8b74d3"},"vehicle_type_id":"4","last_reported":1692212693,"current_range_meters":14000,"station_id":"ce4bgih2rcd13ifvqba0","pricing_plan_id":"free"},{"bike_id":"f9be8afb-c10a-4e56-ac52-0b52342409a5","system_id":"levelo_inurba_marseille","lat":43.290779,"lon":5.371482,"is_reserved":false,"is_disabled":false,"rental_uris":{"android":"levelo://app?vid=f9be8afb-c10a-4e56-ac52-0b52342409a5","ios":"levelo://app?vid=f9be8afb-c10a-4e56-ac52-0b52342409a5"},"vehicle_type_id":"4","last_reported":1692212693,"current_range_meters":21200,"station_id":"ce4bh5p2rcd13ifvqe4g","pricing_plan_id":"free"},{"bike_id":"88a25480-9b1a-41b0-899d-39de9184a593","system_id":"levelo_inurba_marseille","lat":43.290779,"lon":5.371482,"is_reserved":false,"is_disabled":false,"rental_uris":{"android":"levelo://app?vid=88a25480-9b1a-41b0-899d-39de9184a593","ios":"levelo://app?vid=88a25480-9b1a-41b0-899d-39de9184a593"},"vehicle_type_id":"4","last_reported":1692212693,"current_range_meters":31200,"station_id":"ce4bh5p2rcd13ifvqe4g","pricing_plan_id":"free"},{"bike_id":"e1a5ce4e-75b4-422a-92b9-0170bda983a2","system_id":"levelo_inurba_marseille","lat":43.290779,"lon":5.371482,"is_reserved":false,"is_disabled":false,"rental_uris":{"android":"levelo://app?vid=e1a5ce4e-75b4-422a-92b9-0170bda983a2","ios":"levelo://app?vid=e1a5ce4e-75b4-422a-92b9-0170bda983a2"},"vehicle_type_id":"4","last_reported":1692212693,"current_range_meters":3600,"station_id":"ce4bh5p2rcd13ifvqe4g","pricing_plan_id":"free"},{"bike_id":"e3d41b4d-d1d4-4d55-8206-375faf937bf1","system_id":"levelo_inurba_marseille","lat":43.290779,"lon":5.371482,"is_reserved":false,"is_disabled":false,"rental_uris":{"android":"levelo://app?vid=e3d41b4d-d1d4-4d55-8206-375faf937bf1","ios":"levelo://app?vid=e3d41b4d-d1d4-4d55-8206-375faf937bf1"},"vehicle_type_id":"4","last_reported":1692212693,"current_range_meters":12000,"station_id":"ce4bh5p2rcd13ifvqe4g","pricing_plan_id":"free"},{"bike_id":"8d41ea37-68af-4b8a-af87-1c2d2c0bb1e5","system_id":"levelo_inurba_marseille","lat":43.290779,"lon":5.371482,"is_reserved":false,"is_disabled":false,"rental_uris":{"android":"levelo://app?vid=8d41ea37-68af-4b8a-af87-1c2d2c0bb1e5","ios":"levelo://app?vid=8d41ea37-68af-4b8a-af87-1c2d2c0bb1e5"},"vehicle_type_id":"4","last_reported":1692212693,"current_range_meters":27600,"station_id":"ce4bh5p2rcd13ifvqe4g","pricing_plan_id":"free"},{"bike_id":"dc7c7e0a-b42e-4602-aa2e-952f8fef44e5","system_id":"levelo_inurba_marseille","lat":43.290779,"lon":5.371482,"is_reserved":false,"is_disabled":false,"rental_uris":{"android":"levelo://app?vid=dc7c7e0a-b42e-4602-aa2e-952f8fef44e5","ios":"levelo://app?vid=dc7c7e0a-b42e-4602-aa2e-952f8fef44e5"},"vehicle_type_id":"4","last_reported":1692212693,"current_range_meters":31600,"station_id":"ce4bh5p2rcd13ifvqe4g","pricing_plan_id":"free"},{"bike_id":"6d77901e-4fef-40d1-98cb-deb1b18f1ee1","system_id":"levelo_inurba_marseille","lat":43.29043,"lon":5.3757,"is_reserved":false,"is_disabled":false,"rental_uris":{"android":"levelo://app?vid=6d77901e-4fef-40d1-98cb-deb1b18f1ee1","ios":"levelo://app?vid=6d77901e-4fef-40d1-98cb-deb1b18f1ee1"},"vehicle_type_id":"4","last_reported":1692212693,"current_range_meters":14000,"station_id":"ce4bh692rcd13ifvqe90","pricing_plan_id":"free"},{"bike_id":"61d4ea3a-1658-41d9-9c21-637e04bbd594","system_id":"levelo_inurba_marseille","lat":43.2942,"lon":5.38618,"is_reserved":false,"is_disabled":false,"rental_uris":{"android":"levelo://app?vid=61d4ea3a-1658-41d9-9c21-637e04bbd594","ios":"levelo://app?vid=61d4ea3a-1658-41d9-9c21-637e04bbd594"},"vehicle_type_id":"4","last_reported":1692212693,"current_range_meters":19600,"station_id":"ce4bh2h2rcd13ifvqdh0","pricing_plan_id":"free"},{"bike_id":"8efd844b-8c00-4764-b7f5-bd02a4e0c8f0","system_id":"levelo_inurba_marseille","lat":43.29034,"lon":5.37554,"is_reserved":false,"is_disabled":false,"rental_uris":{"android":"levelo://app?vid=8efd844b-8c00-4764-b7f5-bd02a4e0c8f0","ios":"levelo://app?vid=8efd844b-8c00-4764-b7f5-bd02a4e0c8f0"},"vehicle_type_id":"4","last_reported":1692212693,"current_range_meters":5600,"station_id":"","pricing_plan_id":"free"},{"bike_id":"8cc4acec-1ed5-4227-9ac1-29ab41b48bcf","system_id":"levelo_inurba_marseille","lat":43.294162,"lon":5.386292,"is_reserved":false,"is_disabled":false,"rental_uris":{"android":"levelo://app?vid=8cc4acec-1ed5-4227-9ac1-29ab41b48bcf","ios":"levelo://app?vid=8cc4acec-1ed5-4227-9ac1-29ab41b48bcf"},"vehicle_type_id":"4","last_reported":1692212693,"current_range_meters":2400,"station_id":"ce4bh2h2rcd13ifvqdh0","pricing_plan_id":"free"},{"bike_id":"b50bb446-b0fe-47f1-b811-66b9e5eeb7e3","system_id":"levelo_inurba_marseille","lat":43.2942,"lon":5.38624,"is_reserved":false,"is_disabled":false,"rental_uris":{"android":"levelo://app?vid=b50bb446-b0fe-47f1-b811-66b9e5eeb7e3","ios":"levelo://app?vid=b50bb446-b0fe-47f1-b811-66b9e5eeb7e3"},"vehicle_type_id":"4","last_reported":1692212693,"current_range_meters":8000,"station_id":"ce4bh2h2rcd13ifvqdh0","pricing_plan_id":"free"},{"bike_id":"09a7ffe5-0111-4d0e-a167-61d770353be7","system_id":"levelo_inurba_marseille","lat":43.29417,"lon":5.38619,"is_reserved":false,"is_disabled":false,"rental_uris":{"android":"levelo://app?vid=09a7ffe5-0111-4d0e-a167-61d770353be7","ios":"levelo://app?vid=09a7ffe5-0111-4d0e-a167-61d770353be7"},"vehicle_type_id":"4","last_reported":1692212693,"current_range_meters":15600,"station_id":"ce4bh2h2rcd13ifvqdh0","pricing_plan_id":"free"},{"bike_id":"1a2e52fb-3940-4cd2-b91f-52ec46e708a5","system_id":"levelo_inurba_marseille","lat":43.294162,"lon":5.386292,"is_reserved":false,"is_disabled":false,"rental_uris":{"android":"levelo://app?vid=1a2e52fb-3940-4cd2-b91f-52ec46e708a5","ios":"levelo://app?vid=1a2e52fb-3940-4cd2-b91f-52ec46e708a5"},"vehicle_type_id":"4","last_reported":1692212693,"current_range_meters":10800,"station_id":"ce4bh2h2rcd13ifvqdh0","pricing_plan_id":"free"},{"bike_id":"fccddbf5-188f-4371-bd1f-01479556c955","system_id":"levelo_inurba_marseille","lat":43.294162,"lon":5.386292,"is_reserved":false,"is_disabled":false,"rental_uris":{"android":"levelo://app?vid=fccddbf5-188f-4371-bd1f-01479556c955","ios":"levelo://app?vid=fccddbf5-188f-4371-bd1f-01479556c955"},"vehicle_type_id":"4","last_reported":1692212693,"current_range_meters":6800,"station_id":"ce4bh2h2rcd13ifvqdh0","pricing_plan_id":"free"},{"bike_id":"5297be1d-4b91-4d04-8e0f-b504a47c16b2","system_id":"levelo_inurba_marseille","lat":43.294162,"lon":5.386292,"is_reserved":false,"is_disabled":false,"rental_uris":{"android":"levelo://app?vid=5297be1d-4b91-4d04-8e0f-b504a47c16b2","ios":"levelo://app?vid=5297be1d-4b91-4d04-8e0f-b504a47c16b2"},"vehicle_type_id":"4","last_reported":1692212693,"current_range_meters":20400,"station_id":"ce4bh2h2rcd13ifvqdh0","pricing_plan_id":"free"},{"bike_id":"1b19a3dc-fd1e-402d-9cac-b47340eaa3ff","system_id":"levelo_inurba_marseille","lat":43.294162,"lon":5.386292,"is_reserved":false,"is_disabled":false,"rental_uris":{"android":"levelo://app?vid=1b19a3dc-fd1e-402d-9cac-b47340eaa3ff","ios":"levelo://app?vid=1b19a3dc-fd1e-402d-9cac-b47340eaa3ff"},"vehicle_type_id":"4","last_reported":1692212693,"current_range_meters":25600,"station_id":"ce4bh2h2rcd13ifvqdh0","pricing_plan_id":"free"},{"bike_id":"81816046-15d6-4b0b-abc1-c2c9e03461f2","system_id":"levelo_inurba_marseille","lat":43.29416,"lon":5.38621,"is_reserved":false,"is_disabled":false,"rental_uris":{"android":"levelo://app?vid=81816046-15d6-4b0b-abc1-c2c9e03461f2","ios":"levelo://app?vid=81816046-15d6-4b0b-abc1-c2c9e03461f2"},"vehicle_type_id":"4","last_reported":1692212693,"current_range_meters":13600,"station_id":"ce4bh2h2rcd13ifvqdh0","pricing_plan_id":"free"},{"bike_id":"6156e803-1dfc-4d14-942d-8e99fdd29183","system_id":"levelo_inurba_marseille","lat":43.294162,"lon":5.386292,"is_reserved":false,"is_disabled":false,"rental_uris":{"android":"levelo://app?vid=6156e803-1dfc-4d14-942d-8e99fdd29183","ios":"levelo://app?vid=6156e803-1dfc-4d14-942d-8e99fdd29183"},"vehicle_type_id":"4","last_reported":1692212693,"current_range_meters":29600,"station_id":"ce4bh2h2rcd13ifvqdh0","pricing_plan_id":"free"},{"bike_id":"01a5fadc-88a4-4cb7-ad61-46d49f8acd18","system_id":"levelo_inurba_marseille","lat":43.29412,"lon":5.38618,"is_reserved":false,"is_disabled":false,"rental_uris":{"android":"levelo://app?vid=01a5fadc-88a4-4cb7-ad61-46d49f8acd18","ios":"levelo://app?vid=01a5fadc-88a4-4cb7-ad61-46d49f8acd18"},"vehicle_type_id":"4","last_reported":1692212693,"current_range_meters":7200,"station_id":"ce4bh2h2rcd13ifvqdh0","pricing_plan_id":"free"},{"bike_id":"df34144f-933f-4297-b881-39e8c7168cf8","system_id":"levelo_inurba_marseille","lat":43.294162,"lon":5.386292,"is_reserved":false,"is_disabled":false,"rental_uris":{"android":"levelo://app?vid=df34144f-933f-4297-b881-39e8c7168cf8","ios":"levelo://app?vid=df34144f-933f-4297-b881-39e8c7168cf8"},"vehicle_type_id":"4","last_reported":1692212693,"current_range_meters":12400,"station_id":"ce4bh2h2rcd13ifvqdh0","pricing_plan_id":"free"},{"bike_id":"9295873a-fb1c-447a-94be-e533fa02a69e","system_id":"levelo_inurba_marseille","lat":43.289184,"lon":5.366408,"is_reserved":false,"is_disabled":false,"rental_uris":{"android":"levelo://app?vid=9295873a-fb1c-447a-94be-e533fa02a69e","ios":"levelo://app?vid=9295873a-fb1c-447a-94be-e533fa02a69e"},"vehicle_type_id":"4","last_reported":1692212693,"current_range_meters":31600,"station_id":"ce4bhap2rcd13ifvqek0","pricing_plan_id":"free"},{"bike_id":"763ff14b-4c2a-48ae-a9ce-c3055c1edd1b","system_id":"levelo_inurba_marseille","lat":43.289184,"lon":5.366408,"is_reserved":false,"is_disabled":false,"rental_uris":{"android":"levelo://app?vid=763ff14b-4c2a-48ae-a9ce-c3055c1edd1b","ios":"levelo://app?vid=763ff14b-4c2a-48ae-a9ce-c3055c1edd1b"},"vehicle_type_id":"4","last_reported":1692212693,"current_range_meters":23600,"station_id":"ce4bhap2rcd13ifvqek0","pricing_plan_id":"free"},{"bike_id":"cdf2048e-5044-4961-be3e-11db418dc092","system_id":"levelo_inurba_marseille","lat":43.289184,"lon":5.366408,"is_reserved":false,"is_disabled":false,"rental_uris":{"android":"levelo://app?vid=cdf2048e-5044-4961-be3e-11db418dc092","ios":"levelo://app?vid=cdf2048e-5044-4961-be3e-11db418dc092"},"vehicle_type_id":"4","last_reported":1692212693,"current_range_meters":8800,"station_id":"ce4bhap2rcd13ifvqek0","pricing_plan_id":"free"},{"bike_id":"e8cbe34a-0283-4dcb-91d0-a6d1d9e571c6","system_id":"levelo_inurba_marseille","lat":43.289338,"lon":5.366415,"is_reserved":false,"is_disabled":false,"rental_uris":{"android":"levelo://app?vid=e8cbe34a-0283-4dcb-91d0-a6d1d9e571c6","ios":"levelo://app?vid=e8cbe34a-0283-4dcb-91d0-a6d1d9e571c6"},"vehicle_type_id":"4","last_reported":1692212693,"current_range_meters":31200,"station_id":"ce4bhap2rcd13ifvqek0","pricing_plan_id":"free"},{"bike_id":"b957329e-df32-4b6d-b65b-4b2d07fa6e00","system_id":"levelo_inurba_marseille","lat":43.29265,"lon":5.38445,"is_reserved":false,"is_disabled":false,"rental_uris":{"android":"levelo://app?vid=b957329e-df32-4b6d-b65b-4b2d07fa6e00","ios":"levelo://app?vid=b957329e-df32-4b6d-b65b-4b2d07fa6e00"},"vehicle_type_id":"4","last_reported":1692212693,"current_range_meters":2000,"station_id":"ce4bh692rcd13ifvqea0","pricing_plan_id":"free"},{"bike_id":"fb75b0dc-b7ef-4c5d-9fff-ba63e9728994","system_id":"levelo_inurba_marseille","lat":43.33042,"lon":5.38907,"is_reserved":false,"is_disabled":false,"rental_uris":{"android":"levelo://app?vid=fb75b0dc-b7ef-4c5d-9fff-ba63e9728994","ios":"levelo://app?vid=fb75b0dc-b7ef-4c5d-9fff-ba63e9728994"},"vehicle_type_id":"4","last_reported":1692212693,"current_range_meters":16400,"station_id":"ce4bhr92rcd13ifvqhrg","pricing_plan_id":"free"},{"bike_id":"be005e4f-d207-40fd-bd99-241d744b2797","system_id":"levelo_inurba_marseille","lat":43.33044,"lon":5.3891,"is_reserved":false,"is_disabled":false,"rental_uris":{"android":"levelo://app?vid=be005e4f-d207-40fd-bd99-241d744b2797","ios":"levelo://app?vid=be005e4f-d207-40fd-bd99-241d744b2797"},"vehicle_type_id":"4","last_reported":1692212693,"current_range_meters":15200,"station_id":"ce4bhr92rcd13ifvqhrg","pricing_plan_id":"free"},{"bike_id":"96ead541-9c33-4112-927f-93c74ea92183","system_id":"levelo_inurba_marseille","lat":43.33041,"lon":5.38918,"is_reserved":false,"is_disabled":false,"rental_uris":{"android":"levelo://app?vid=96ead541-9c33-4112-927f-93c74ea92183","ios":"levelo://app?vid=96ead541-9c33-4112-927f-93c74ea92183"},"vehicle_type_id":"4","last_reported":1692212693,"current_range_meters":28800,"station_id":"ce4bhr92rcd13ifvqhrg","pricing_plan_id":"free"},{"bike_id":"859ece1b-eaf2-4429-915d-1d151e169e7f","system_id":"levelo_inurba_marseille","lat":43.33045,"lon":5.38913,"is_reserved":false,"is_disabled":false,"rental_uris":{"android":"levelo://app?vid=859ece1b-eaf2-4429-915d-1d151e169e7f","ios":"levelo://app?vid=859ece1b-eaf2-4429-915d-1d151e169e7f"},"vehicle_type_id":"4","last_reported":1692212693,"current_range_meters":18000,"station_id":"ce4bhr92rcd13ifvqhrg","pricing_plan_id":"free"},{"bike_id":"ca420c02-7b3c-4340-963d-964224bd400d","system_id":"levelo_inurba_marseille","lat":43.33046,"lon":5.38912,"is_reserved":false,"is_disabled":false,"rental_uris":{"android":"levelo://app?vid=ca420c02-7b3c-4340-963d-964224bd400d","ios":"levelo://app?vid=ca420c02-7b3c-4340-963d-964224bd400d"},"vehicle_type_id":"4","last_reported":1692212693,"current_range_meters":24400,"station_id":"ce4bhr92rcd13ifvqhrg","pricing_plan_id":"free"},{"bike_id":"fa076e56-c4e4-481e-9547-eae6acb509a4","system_id":"levelo_inurba_marseille","lat":43.33043,"lon":5.38917,"is_reserved":false,"is_disabled":false,"rental_uris":{"android":"levelo://app?vid=fa076e56-c4e4-481e-9547-eae6acb509a4","ios":"levelo://app?vid=fa076e56-c4e4-481e-9547-eae6acb509a4"},"vehicle_type_id":"4","last_reported":1692212693,"current_range_meters":4400,"station_id":"ce4bhr92rcd13ifvqhrg","pricing_plan_id":"free"},{"bike_id":"2f0a0ac7-6e1a-4328-a504-4e02f95ee392","system_id":"levelo_inurba_marseille","lat":43.33042,"lon":5.38919,"is_reserved":false,"is_disabled":false,"rental_uris":{"android":"levelo://app?vid=2f0a0ac7-6e1a-4328-a504-4e02f95ee392","ios":"levelo://app?vid=2f0a0ac7-6e1a-4328-a504-4e02f95ee392"},"vehicle_type_id":"4","last_reported":1692212693,"current_range_meters":21200,"station_id":"ce4bhr92rcd13ifvqhrg","pricing_plan_id":"free"},{"bike_id":"454b0b4f-dc87-4e03-ac2a-cf0617f16bff","system_id":"levelo_inurba_marseille","lat":43.33042,"lon":5.3892,"is_reserved":false,"is_disabled":false,"rental_uris":{"android":"levelo://app?vid=454b0b4f-dc87-4e03-ac2a-cf0617f16bff","ios":"levelo://app?vid=454b0b4f-dc87-4e03-ac2a-cf0617f16bff"},"vehicle_type_id":"4","last_reported":1692212693,"current_range_meters":12800,"station_id":"ce4bhr92rcd13ifvqhrg","pricing_plan_id":"free"},{"bike_id":"d5578a77-3302-4d8a-ae9c-7edceb0f071e","system_id":"levelo_inurba_marseille","lat":43.33044,"lon":5.38917,"is_reserved":false,"is_disabled":false,"rental_uris":{"android":"levelo://app?vid=d5578a77-3302-4d8a-ae9c-7edceb0f071e","ios":"levelo://app?vid=d5578a77-3302-4d8a-ae9c-7edceb0f071e"},"vehicle_type_id":"4","last_reported":1692212693,"current_range_meters":24800,"station_id":"ce4bhr92rcd13ifvqhrg","pricing_plan_id":"free"},{"bike_id":"e184d9f0-8163-4a17-b3ea-e9518599abc7","system_id":"levelo_inurba_marseille","lat":43.33044,"lon":5.38917,"is_reserved":false,"is_disabled":false,"rental_uris":{"android":"levelo://app?vid=e184d9f0-8163-4a17-b3ea-e9518599abc7","ios":"levelo://app?vid=e184d9f0-8163-4a17-b3ea-e9518599abc7"},"vehicle_type_id":"4","last_reported":1692212693,"current_range_meters":24800,"station_id":"ce4bhr92rcd13ifvqhrg","pricing_plan_id":"free"},{"bike_id":"01bb66e8-6fc1-4982-b9b2-af4dae23e37f","system_id":"levelo_inurba_marseille","lat":43.33044,"lon":5.38918,"is_reserved":false,"is_disabled":false,"rental_uris":{"android":"levelo://app?vid=01bb66e8-6fc1-4982-b9b2-af4dae23e37f","ios":"levelo://app?vid=01bb66e8-6fc1-4982-b9b2-af4dae23e37f"},"vehicle_type_id":"4","last_reported":1692212693,"current_range_meters":23200,"station_id":"ce4bhr92rcd13ifvqhrg","pricing_plan_id":"free"},{"bike_id":"78f1a325-e5b4-4a72-bb0e-b29d3285ba24","system_id":"levelo_inurba_marseille","lat":43.29008,"lon":5.35609,"is_reserved":false,"is_disabled":false,"rental_uris":{"android":"levelo://app?vid=78f1a325-e5b4-4a72-bb0e-b29d3285ba24","ios":"levelo://app?vid=78f1a325-e5b4-4a72-bb0e-b29d3285ba24"},"vehicle_type_id":"4","last_reported":1692212693,"current_range_meters":31200,"station_id":"ce4bhb92rcd13ifvqen0","pricing_plan_id":"free"},{"bike_id":"75001701-ed95-4c4f-ae0f-256296c20192","system_id":"levelo_inurba_marseille","lat":43.33045,"lon":5.38918,"is_reserved":false,"is_disabled":false,"rental_uris":{"android":"levelo://app?vid=75001701-ed95-4c4f-ae0f-256296c20192","ios":"levelo://app?vid=75001701-ed95-4c4f-ae0f-256296c20192"},"vehicle_type_id":"4","last_reported":1692212693,"current_range_meters":4000,"station_id":"ce4bhr92rcd13ifvqhrg","pricing_plan_id":"free"},{"bike_id":"8ae0ce58-4162-4719-947c-e47cc63be26c","system_id":"levelo_inurba_marseille","lat":43.33046,"lon":5.38917,"is_reserved":false,"is_disabled":false,"rental_uris":{"android":"levelo://app?vid=8ae0ce58-4162-4719-947c-e47cc63be26c","ios":"levelo://app?vid=8ae0ce58-4162-4719-947c-e47cc63be26c"},"vehicle_type_id":"4","last_reported":1692212693,"current_range_meters":27200,"station_id":"ce4bhr92rcd13ifvqhrg","pricing_plan_id":"free"},{"bike_id":"569fb482-04ac-449f-b013-337617dfb7a0","system_id":"levelo_inurba_marseille","lat":43.33046,"lon":5.38919,"is_reserved":false,"is_disabled":false,"rental_uris":{"android":"levelo://app?vid=569fb482-04ac-449f-b013-337617dfb7a0","ios":"levelo://app?vid=569fb482-04ac-449f-b013-337617dfb7a0"},"vehicle_type_id":"4","last_reported":1692212693,"current_range_meters":20800,"station_id":"ce4bhr92rcd13ifvqhrg","pricing_plan_id":"free"},{"bike_id":"44187246-0965-445b-993d-80c986f4976a","system_id":"levelo_inurba_marseille","lat":43.289743,"lon":5.378304,"is_reserved":false,"is_disabled":false,"rental_uris":{"android":"levelo://app?vid=44187246-0965-445b-993d-80c986f4976a","ios":"levelo://app?vid=44187246-0965-445b-993d-80c986f4976a"},"vehicle_type_id":"4","last_reported":1692212693,"current_range_meters":16000,"station_id":"ce4bh9p2rcd13ifvqed0","pricing_plan_id":"free"},{"bike_id":"189c4f38-9a95-4ac3-bbec-a37fb29abff3","system_id":"levelo_inurba_marseille","lat":43.297815,"lon":5.393548,"is_reserved":false,"is_disabled":false,"rental_uris":{"android":"levelo://app?vid=189c4f38-9a95-4ac3-bbec-a37fb29abff3","ios":"levelo://app?vid=189c4f38-9a95-4ac3-bbec-a37fb29abff3"},"vehicle_type_id":"4","last_reported":1692212693,"current_range_meters":30000,"station_id":"chh1huq6cuj3fo74tm60","pricing_plan_id":"free"},{"bike_id":"21eee2a8-0060-438d-8a27-a7df0a46f58f","system_id":"levelo_inurba_marseille","lat":43.29789,"lon":5.39335,"is_reserved":false,"is_disabled":false,"rental_uris":{"android":"levelo://app?vid=21eee2a8-0060-438d-8a27-a7df0a46f58f","ios":"levelo://app?vid=21eee2a8-0060-438d-8a27-a7df0a46f58f"},"vehicle_type_id":"4","last_reported":1692212693,"current_range_meters":11200,"station_id":"chh1huq6cuj3fo74tm60","pricing_plan_id":"free"},{"bike_id":"bfa83017-58d0-4d13-8d94-3e0c8632f228","system_id":"levelo_inurba_marseille","lat":43.29791,"lon":5.39339,"is_reserved":false,"is_disabled":false,"rental_uris":{"android":"levelo://app?vid=bfa83017-58d0-4d13-8d94-3e0c8632f228","ios":"levelo://app?vid=bfa83017-58d0-4d13-8d94-3e0c8632f228"},"vehicle_type_id":"4","last_reported":1692212693,"current_range_meters":24000,"station_id":"chh1huq6cuj3fo74tm60","pricing_plan_id":"free"},{"bike_id":"f4a61caf-8079-4e85-a04a-3b4568c28f0c","system_id":"levelo_inurba_marseille","lat":43.29777,"lon":5.39332,"is_reserved":false,"is_disabled":false,"rental_uris":{"android":"levelo://app?vid=f4a61caf-8079-4e85-a04a-3b4568c28f0c","ios":"levelo://app?vid=f4a61caf-8079-4e85-a04a-3b4568c28f0c"},"vehicle_type_id":"4","last_reported":1692212693,"current_range_meters":22400,"station_id":"chh1huq6cuj3fo74tm60","pricing_plan_id":"free"},{"bike_id":"de5fbe1a-5dff-4924-ae2f-985d5bca9bac","system_id":"levelo_inurba_marseille","lat":43.29774,"lon":5.39332,"is_reserved":false,"is_disabled":false,"rental_uris":{"android":"levelo://app?vid=de5fbe1a-5dff-4924-ae2f-985d5bca9bac","ios":"levelo://app?vid=de5fbe1a-5dff-4924-ae2f-985d5bca9bac"},"vehicle_type_id":"4","last_reported":1692212693,"current_range_meters":1600,"station_id":"chh1huq6cuj3fo74tm60","pricing_plan_id":"free"},{"bike_id":"bd2a8d05-9775-4339-8a53-7f9bc355bc45","system_id":"levelo_inurba_marseille","lat":43.29227,"lon":5.38513,"is_reserved":false,"is_disabled":false,"rental_uris":{"android":"levelo://app?vid=bd2a8d05-9775-4339-8a53-7f9bc355bc45","ios":"levelo://app?vid=bd2a8d05-9775-4339-8a53-7f9bc355bc45"},"vehicle_type_id":"4","last_reported":1692212693,"current_range_meters":10400,"station_id":"ce4bh2h2rcd13ifvqdh0","pricing_plan_id":"free"},{"bike_id":"336dbdae-1010-4fe0-9398-570f1671da38","system_id":"levelo_inurba_marseille","lat":43.2952,"lon":5.39022,"is_reserved":false,"is_disabled":false,"rental_uris":{"android":"levelo://app?vid=336dbdae-1010-4fe0-9398-570f1671da38","ios":"levelo://app?vid=336dbdae-1010-4fe0-9398-570f1671da38"},"vehicle_type_id":"4","last_reported":1692212693,"current_range_meters":7200,"station_id":"ce4bh3p2rcd13ifvqdp0","pricing_plan_id":"free"},{"bike_id":"be4078fc-45fd-4a2f-bd1f-33030744b1fe","system_id":"levelo_inurba_marseille","lat":43.2886,"lon":5.35933,"is_reserved":false,"is_disabled":false,"rental_uris":{"android":"levelo://app?vid=be4078fc-45fd-4a2f-bd1f-33030744b1fe","ios":"levelo://app?vid=be4078fc-45fd-4a2f-bd1f-33030744b1fe"},"vehicle_type_id":"4","last_reported":1692212693,"current_range_meters":20800,"station_id":"","pricing_plan_id":"free"},{"bike_id":"3123c88c-0ce8-4849-b6ea-8a012948e350","system_id":"levelo_inurba_marseille","lat":43.28856,"lon":5.358371,"is_reserved":false,"is_disabled":false,"rental_uris":{"android":"levelo://app?vid=3123c88c-0ce8-4849-b6ea-8a012948e350","ios":"levelo://app?vid=3123c88c-0ce8-4849-b6ea-8a012948e350"},"vehicle_type_id":"4","last_reported":1692212693,"current_range_meters":11200,"station_id":"ce4bhb12rcd13ifvqem0","pricing_plan_id":"free"},{"bike_id":"fdec884d-f6a7-422b-befa-0d9c3742dcf5","system_id":"levelo_inurba_marseille","lat":43.31278,"lon":5.40155,"is_reserved":false,"is_disabled":false,"rental_uris":{"android":"levelo://app?vid=fdec884d-f6a7-422b-befa-0d9c3742dcf5","ios":"levelo://app?vid=fdec884d-f6a7-422b-befa-0d9c3742dcf5"},"vehicle_type_id":"4","last_reported":1692212693,"current_range_meters":9600,"station_id":"ce4bh092rcd13ifvqd30","pricing_plan_id":"free"},{"bike_id":"38a3d229-9587-45d7-bf56-2c6330314dff","system_id":"levelo_inurba_marseille","lat":43.31283,"lon":5.40159,"is_reserved":false,"is_disabled":false,"rental_uris":{"android":"levelo://app?vid=38a3d229-9587-45d7-bf56-2c6330314dff","ios":"levelo://app?vid=38a3d229-9587-45d7-bf56-2c6330314dff"},"vehicle_type_id":"4","last_reported":1692212693,"current_range_meters":11600,"station_id":"ce4bh092rcd13ifvqd30","pricing_plan_id":"free"},{"bike_id":"9e009048-f939-4b3b-af03-e577dfdbb4d4","system_id":"levelo_inurba_marseille","lat":43.31272,"lon":5.40162,"is_reserved":false,"is_disabled":false,"rental_uris":{"android":"levelo://app?vid=9e009048-f939-4b3b-af03-e577dfdbb4d4","ios":"levelo://app?vid=9e009048-f939-4b3b-af03-e577dfdbb4d4"},"vehicle_type_id":"4","last_reported":1692212693,"current_range_meters":8400,"station_id":"ce4bh092rcd13ifvqd30","pricing_plan_id":"free"},{"bike_id":"1435b356-1c3a-4bed-96ad-ded51c081340","system_id":"levelo_inurba_marseille","lat":43.33739,"lon":5.37462,"is_reserved":false,"is_disabled":false,"rental_uris":{"android":"levelo://app?vid=1435b356-1c3a-4bed-96ad-ded51c081340","ios":"levelo://app?vid=1435b356-1c3a-4bed-96ad-ded51c081340"},"vehicle_type_id":"4","last_reported":1692212693,"current_range_meters":31200,"station_id":"","pricing_plan_id":"free"},{"bike_id":"5bcbd7f2-6201-455b-88db-fa352a5a2c0a","system_id":"levelo_inurba_marseille","lat":43.31274,"lon":5.40169,"is_reserved":false,"is_disabled":false,"rental_uris":{"android":"levelo://app?vid=5bcbd7f2-6201-455b-88db-fa352a5a2c0a","ios":"levelo://app?vid=5bcbd7f2-6201-455b-88db-fa352a5a2c0a"},"vehicle_type_id":"4","last_reported":1692212693,"current_range_meters":22800,"station_id":"ce4bh092rcd13ifvqd30","pricing_plan_id":"free"},{"bike_id":"c57a3c15-cbba-4131-8cc9-f971efa39028","system_id":"levelo_inurba_marseille","lat":43.309371,"lon":5.401449,"is_reserved":false,"is_disabled":false,"rental_uris":{"android":"levelo://app?vid=c57a3c15-cbba-4131-8cc9-f971efa39028","ios":"levelo://app?vid=c57a3c15-cbba-4131-8cc9-f971efa39028"},"vehicle_type_id":"4","last_reported":1692212693,"current_range_meters":15200,"station_id":"ce4bgvp2rcd13ifvqct0","pricing_plan_id":"free"},{"bike_id":"bbd089f1-75c4-496b-b722-fbe1640a7cb7","system_id":"levelo_inurba_marseille","lat":43.33758,"lon":5.37434,"is_reserved":false,"is_disabled":false,"rental_uris":{"android":"levelo://app?vid=bbd089f1-75c4-496b-b722-fbe1640a7cb7","ios":"levelo://app?vid=bbd089f1-75c4-496b-b722-fbe1640a7cb7"},"vehicle_type_id":"4","last_reported":1692212693,"current_range_meters":9200,"station_id":"","pricing_plan_id":"free"},{"bike_id":"45855abc-7e17-4b52-82de-e1f25f0a6a64","system_id":"levelo_inurba_marseille","lat":43.3376,"lon":5.37438,"is_reserved":false,"is_disabled":false,"rental_uris":{"android":"levelo://app?vid=45855abc-7e17-4b52-82de-e1f25f0a6a64","ios":"levelo://app?vid=45855abc-7e17-4b52-82de-e1f25f0a6a64"},"vehicle_type_id":"4","last_reported":1692212693,"current_range_meters":8400,"station_id":"","pricing_plan_id":"free"},{"bike_id":"e74085d3-9440-45d8-a69f-04abc94c081c","system_id":"levelo_inurba_marseille","lat":43.30644,"lon":5.4009,"is_reserved":false,"is_disabled":false,"rental_uris":{"android":"levelo://app?vid=e74085d3-9440-45d8-a69f-04abc94c081c","ios":"levelo://app?vid=e74085d3-9440-45d8-a69f-04abc94c081c"},"vehicle_type_id":"4","last_reported":1692212693,"current_range_meters":17200,"station_id":"ce4bh112rcd13ifvqda0","pricing_plan_id":"free"},{"bike_id":"52000fbc-9e07-421b-8af5-05911f138b45","system_id":"levelo_inurba_marseille","lat":43.337661,"lon":5.374517,"is_reserved":false,"is_disabled":false,"rental_uris":{"android":"levelo://app?vid=52000fbc-9e07-421b-8af5-05911f138b45","ios":"levelo://app?vid=52000fbc-9e07-421b-8af5-05911f138b45"},"vehicle_type_id":"4","last_reported":1692212693,"current_range_meters":31200,"station_id":"","pricing_plan_id":"free"},{"bike_id":"ae4991d4-0aec-47bd-8c40-f0586215405f","system_id":"levelo_inurba_marseille","lat":43.30646,"lon":5.40097,"is_reserved":false,"is_disabled":false,"rental_uris":{"android":"levelo://app?vid=ae4991d4-0aec-47bd-8c40-f0586215405f","ios":"levelo://app?vid=ae4991d4-0aec-47bd-8c40-f0586215405f"},"vehicle_type_id":"4","last_reported":1692212693,"current_range_meters":6400,"station_id":"ce4bh112rcd13ifvqda0","pricing_plan_id":"free"},{"bike_id":"ea307329-9389-4ade-b39a-8b7725c2f190","system_id":"levelo_inurba_marseille","lat":43.306448,"lon":5.400994,"is_reserved":false,"is_disabled":false,"rental_uris":{"android":"levelo://app?vid=ea307329-9389-4ade-b39a-8b7725c2f190","ios":"levelo://app?vid=ea307329-9389-4ade-b39a-8b7725c2f190"},"vehicle_type_id":"4","last_reported":1692212693,"current_range_meters":8000,"station_id":"","pricing_plan_id":"free"},{"bike_id":"ff4ebd20-7c36-4ff6-be26-6880aea585f9","system_id":"levelo_inurba_marseille","lat":43.301117,"lon":5.398795,"is_reserved":false,"is_disabled":false,"rental_uris":{"android":"levelo://app?vid=ff4ebd20-7c36-4ff6-be26-6880aea585f9","ios":"levelo://app?vid=ff4ebd20-7c36-4ff6-be26-6880aea585f9"},"vehicle_type_id":"4","last_reported":1692212693,"current_range_meters":0,"station_id":"ce4bh0h2rcd13ifvqd40","pricing_plan_id":"free"},{"bike_id":"0b90e20e-8de6-4e26-8f61-a22271837a8e","system_id":"levelo_inurba_marseille","lat":43.301117,"lon":5.398795,"is_reserved":false,"is_disabled":false,"rental_uris":{"android":"levelo://app?vid=0b90e20e-8de6-4e26-8f61-a22271837a8e","ios":"levelo://app?vid=0b90e20e-8de6-4e26-8f61-a22271837a8e"},"vehicle_type_id":"4","last_reported":1692212693,"current_range_meters":21600,"station_id":"ce4bh0h2rcd13ifvqd40","pricing_plan_id":"free"},{"bike_id":"3e42ce9c-df19-4c43-9fbb-2a5492a3b17a","system_id":"levelo_inurba_marseille","lat":43.301117,"lon":5.398795,"is_reserved":false,"is_disabled":false,"rental_uris":{"android":"levelo://app?vid=3e42ce9c-df19-4c43-9fbb-2a5492a3b17a","ios":"levelo://app?vid=3e42ce9c-df19-4c43-9fbb-2a5492a3b17a"},