{"last_updated":1726830489,"ttl":30,"version":"2.2","data":{"bikes":[{"bike_id":"feb0c9dd-e1fa-4a52-ba8e-3d91bda9c4b5","system_id":"levelo_inurba_marseille","lat":43.30632,"lon":5.40101,"is_reserved":false,"is_disabled":false,"rental_uris":{"android":"levelo://app?vid=feb0c9dd-e1fa-4a52-ba8e-3d91bda9c4b5","ios":"levelo://app?vid=feb0c9dd-e1fa-4a52-ba8e-3d91bda9c4b5"},"vehicle_type_id":"4","last_reported":1726830489,"current_range_meters":33600,"station_id":"ce4bh112rcd13ifvqda0","pricing_plan_id":"cebpf4jnsgd1na2vs0mg"},{"bike_id":"6262deda-911f-4b00-82cc-f154b29b5e88","system_id":"levelo_inurba_marseille","lat":43.28346,"lon":5.38103,"is_reserved":false,"is_disabled":false,"rental_uris":{"android":"levelo://app?vid=6262deda-911f-4b00-82cc-f154b29b5e88","ios":"levelo://app?vid=6262deda-911f-4b00-82cc-f154b29b5e88"},"vehicle_type_id":"4","last_reported":1726830489,"current_range_meters":27200,"station_id":"ce4bh412rcd13ifvqdr0","pricing_plan_id":"cebpf4jnsgd1na2vs0mg"},{"bike_id":"8decc38d-b904-4181-a770-06e8ca60081b","system_id":"levelo_inurba_marseille","lat":43.28271,"lon":5.35057,"is_reserved":false,"is_disabled":false,"rental_uris":{"android":"levelo://app?vid=8decc38d-b904-4181-a770-06e8ca60081b","ios":"levelo://app?vid=8decc38d-b904-4181-a770-06e8ca60081b"},"vehicle_type_id":"4","last_reported":1726830489,"current_range_meters":16400,"station_id":"ce4bhbp2rcd13ifvqerg","pricing_plan_id":"cebpf4jnsgd1na2vs0mg"},{"bike_id":"d310b6b3-58cf-48fa-8378-2753a1c70c80","system_id":"levelo_inurba_marseille","lat":43.299,"lon":5.43669,"is_reserved":false,"is_disabled":false,"rental_uris":{"android":"levelo://app?vid=d310b6b3-58cf-48fa-8378-2753a1c70c80","ios":"levelo://app?vid=d310b6b3-58cf-48fa-8378-2753a1c70c80"},"vehicle_type_id":"4","last_reported":1726830489,"current_range_meters":22000,"station_id":"ce4bhpp2rcd13ifvqhfg","pricing_plan_id":"cebpf4jnsgd1na2vs0mg"},{"bike_id":"209ce7ad-63b8-4b40-b10e-afeb3a06a6bd","system_id":"levelo_inurba_marseille","lat":43.231567,"lon":5.437175,"is_reserved":false,"is_disabled":false,"rental_uris":{"android":"levelo://app?vid=209ce7ad-63b8-4b40-b10e-afeb3a06a6bd","ios":"levelo://app?vid=209ce7ad-63b8-4b40-b10e-afeb3a06a6bd"},"vehicle_type_id":"4","last_reported":1726830489,"current_range_meters":20800,"station_id":"ce4bhi12rcd13ifvqfq0","pricing_plan_id":"cebpf4jnsgd1na2vs0mg"},{"bike_id":"ee228979-1d72-475d-8ae1-9f52d797b43d","system_id":"levelo_inurba_marseille","lat":43.258636,"lon":5.398969,"is_reserved":false,"is_disabled":false,"rental_uris":{"android":"levelo://app?vid=ee228979-1d72-475d-8ae1-9f52d797b43d","ios":"levelo://app?vid=ee228979-1d72-475d-8ae1-9f52d797b43d"},"vehicle_type_id":"4","last_reported":1726830489,"current_range_meters":27600,"station_id":"ce4bhl92rcd13ifvqghg","pricing_plan_id":"cebpf4jnsgd1na2vs0mg"},{"bike_id":"735111d2-be31-499a-acbf-fe63d668a56f","system_id":"levelo_inurba_marseille","lat":43.290148,"lon":5.356083,"is_reserved":false,"is_disabled":false,"rental_uris":{"android":"levelo://app?vid=735111d2-be31-499a-acbf-fe63d668a56f","ios":"levelo://app?vid=735111d2-be31-499a-acbf-fe63d668a56f"},"vehicle_type_id":"4","last_reported":1726830489,"current_range_meters":12800,"station_id":"ce4bhb92rcd13ifvqen0","pricing_plan_id":"cebpf4jnsgd1na2vs0mg"},{"bike_id":"e532fd53-ad12-4848-82ea-70ac934c1c37","system_id":"levelo_inurba_marseille","lat":43.3375,"lon":5.37446,"is_reserved":false,"is_disabled":false,"rental_uris":{"android":"levelo://app?vid=e532fd53-ad12-4848-82ea-70ac934c1c37","ios":"levelo://app?vid=e532fd53-ad12-4848-82ea-70ac934c1c37"},"vehicle_type_id":"4","last_reported":1726830489,"current_range_meters":33600,"station_id":"","pricing_plan_id":"cebpf4jnsgd1na2vs0mg"},{"bike_id":"caacc5f9-63ca-414d-9124-88e29a835149","system_id":"levelo_inurba_marseille","lat":43.29851,"lon":5.36286,"is_reserved":false,"is_disabled":false,"rental_uris":{"android":"levelo://app?vid=caacc5f9-63ca-414d-9124-88e29a835149","ios":"levelo://app?vid=caacc5f9-63ca-414d-9124-88e29a835149"},"vehicle_type_id":"4","last_reported":1726830489,"current_range_meters":38800,"station_id":"ce4bgpp2rcd13ifvqc3g","pricing_plan_id":"cebpf4jnsgd1na2vs0mg"},{"bike_id":"15d97b14-1815-40fc-b655-a7140e106e9b","system_id":"levelo_inurba_marseille","lat":43.313303,"lon":5.39679,"is_reserved":false,"is_disabled":false,"rental_uris":{"android":"levelo://app?vid=15d97b14-1815-40fc-b655-a7140e106e9b","ios":"levelo://app?vid=15d97b14-1815-40fc-b655-a7140e106e9b"},"vehicle_type_id":"4","last_reported":1726830489,"current_range_meters":11200,"station_id":"ce4bgvp2rcd13ifvqcu0","pricing_plan_id":"cebpf4jnsgd1na2vs0mg"},{"bike_id":"32cb8a09-512b-41dc-8211-72fee15fff70","system_id":"levelo_inurba_marseille","lat":43.32483,"lon":5.36563,"is_reserved":false,"is_disabled":false,"rental_uris":{"android":"levelo://app?vid=32cb8a09-512b-41dc-8211-72fee15fff70","ios":"levelo://app?vid=32cb8a09-512b-41dc-8211-72fee15fff70"},"vehicle_type_id":"4","last_reported":1726830489,"current_range_meters":13600,"station_id":"ce4bhs12rcd13ifvqhvg","pricing_plan_id":"cebpf4jnsgd1na2vs0mg"},{"bike_id":"e9320818-c2cb-4a00-998a-252a32b95463","system_id":"levelo_inurba_marseille","lat":43.29842,"lon":5.36267,"is_reserved":false,"is_disabled":false,"rental_uris":{"android":"levelo://app?vid=e9320818-c2cb-4a00-998a-252a32b95463","ios":"levelo://app?vid=e9320818-c2cb-4a00-998a-252a32b95463"},"vehicle_type_id":"4","last_reported":1726830489,"current_range_meters":21600,"station_id":"ce4bgpp2rcd13ifvqc3g","pricing_plan_id":"cebpf4jnsgd1na2vs0mg"},{"bike_id":"bc7b31f9-e4a0-4f2d-9c38-d4211cfd62c7","system_id":"levelo_inurba_marseille","lat":43.28618,"lon":5.35111,"is_reserved":false,"is_disabled":false,"rental_uris":{"android":"levelo://app?vid=bc7b31f9-e4a0-4f2d-9c38-d4211cfd62c7","ios":"levelo://app?vid=bc7b31f9-e4a0-4f2d-9c38-d4211cfd62c7"},"vehicle_type_id":"4","last_reported":1726830489,"current_range_meters":10000,"station_id":"ce4bhch2rcd13ifvqeug","pricing_plan_id":"cebpf4jnsgd1na2vs0mg"},{"bike_id":"fdc69bcf-7945-4097-982d-215e43619115","system_id":"levelo_inurba_marseille","lat":43.29845,"lon":5.36277,"is_reserved":false,"is_disabled":false,"rental_uris":{"android":"levelo://app?vid=fdc69bcf-7945-4097-982d-215e43619115","ios":"levelo://app?vid=fdc69bcf-7945-4097-982d-215e43619115"},"vehicle_type_id":"4","last_reported":1726830489,"current_range_meters":39200,"station_id":"ce4bgpp2rcd13ifvqc3g","pricing_plan_id":"cebpf4jnsgd1na2vs0mg"},{"bike_id":"f6854acd-3776-4507-b2c7-002ee68ca554","system_id":"levelo_inurba_marseille","lat":43.289241,"lon":5.383902,"is_reserved":false,"is_disabled":false,"rental_uris":{"android":"levelo://app?vid=f6854acd-3776-4507-b2c7-002ee68ca554","ios":"levelo://app?vid=f6854acd-3776-4507-b2c7-002ee68ca554"},"vehicle_type_id":"4","last_reported":1726830489,"current_range_meters":24800,"station_id":"ce4bgs92rcd13ifvqcc0","pricing_plan_id":"cebpf4jnsgd1na2vs0mg"},{"bike_id":"4157a7a5-a7db-4a90-9504-66e91e2d691f","system_id":"levelo_inurba_marseille","lat":43.2717,"lon":5.40994,"is_reserved":false,"is_disabled":false,"rental_uris":{"android":"levelo://app?vid=4157a7a5-a7db-4a90-9504-66e91e2d691f","ios":"levelo://app?vid=4157a7a5-a7db-4a90-9504-66e91e2d691f"},"vehicle_type_id":"4","last_reported":1726830489,"current_range_meters":20400,"station_id":"ce4bhl12rcd13ifvqgf0","pricing_plan_id":"cebpf4jnsgd1na2vs0mg"},{"bike_id":"49b63845-bf0b-4c47-a61b-157ca63889ce","system_id":"levelo_inurba_marseille","lat":43.28939,"lon":5.36638,"is_reserved":false,"is_disabled":false,"rental_uris":{"android":"levelo://app?vid=49b63845-bf0b-4c47-a61b-157ca63889ce","ios":"levelo://app?vid=49b63845-bf0b-4c47-a61b-157ca63889ce"},"vehicle_type_id":"4","last_reported":1726830489,"current_range_meters":38000,"station_id":"ce4bhap2rcd13ifvqek0","pricing_plan_id":"cebpf4jnsgd1na2vs0mg"},{"bike_id":"a19b2abe-9ca8-43de-85f2-ea35f99ff8ce","system_id":"levelo_inurba_marseille","lat":43.23189,"lon":5.39981,"is_reserved":false,"is_disabled":false,"rental_uris":{"android":"levelo://app?vid=a19b2abe-9ca8-43de-85f2-ea35f99ff8ce","ios":"levelo://app?vid=a19b2abe-9ca8-43de-85f2-ea35f99ff8ce"},"vehicle_type_id":"4","last_reported":1726830489,"current_range_meters":9200,"station_id":"ce4bhn12rcd13ifvqgqg","pricing_plan_id":"cebpf4jnsgd1na2vs0mg"},{"bike_id":"fb9ec27c-b07a-4823-bd80-2aa1b39b1dee","system_id":"levelo_inurba_marseille","lat":43.27555,"lon":5.41694,"is_reserved":false,"is_disabled":false,"rental_uris":{"android":"levelo://app?vid=fb9ec27c-b07a-4823-bd80-2aa1b39b1dee","ios":"levelo://app?vid=fb9ec27c-b07a-4823-bd80-2aa1b39b1dee"},"vehicle_type_id":"4","last_reported":1726830489,"current_range_meters":32000,"station_id":"","pricing_plan_id":"cebpf4jnsgd1na2vs0mg"},{"bike_id":"838e99a9-3d23-4997-ab0d-600a12008281","system_id":"levelo_inurba_marseille","lat":43.27497,"lon":5.42453,"is_reserved":false,"is_disabled":false,"rental_uris":{"android":"levelo://app?vid=838e99a9-3d23-4997-ab0d-600a12008281","ios":"levelo://app?vid=838e99a9-3d23-4997-ab0d-600a12008281"},"vehicle_type_id":"4","last_reported":1726830489,"current_range_meters":20000,"station_id":"ce4bhn92rcd13ifvqgrg","pricing_plan_id":"cebpf4jnsgd1na2vs0mg"},{"bike_id":"06eef320-c2b1-42ca-bda3-e896022e4f06","system_id":"levelo_inurba_marseille","lat":43.27069,"lon":5.42271,"is_reserved":false,"is_disabled":false,"rental_uris":{"android":"levelo://app?vid=06eef320-c2b1-42ca-bda3-e896022e4f06","ios":"levelo://app?vid=06eef320-c2b1-42ca-bda3-e896022e4f06"},"vehicle_type_id":"4","last_reported":1726830489,"current_range_meters":13600,"station_id":"ce4bhk92rcd13ifvqgb0","pricing_plan_id":"cebpf4jnsgd1na2vs0mg"},{"bike_id":"d9de848c-ce0c-496d-a208-3ba1a332d539","system_id":"levelo_inurba_marseille","lat":43.30142,"lon":5.37408,"is_reserved":false,"is_disabled":false,"rental_uris":{"android":"levelo://app?vid=d9de848c-ce0c-496d-a208-3ba1a332d539","ios":"levelo://app?vid=d9de848c-ce0c-496d-a208-3ba1a332d539"},"vehicle_type_id":"4","last_reported":1726830489,"current_range_meters":35600,"station_id":"ce4bgs92rcd13ifvqcc0","pricing_plan_id":"cebpf4jnsgd1na2vs0mg"},{"bike_id":"816ca7be-0c7b-406b-bdb3-622f13941120","system_id":"levelo_inurba_marseille","lat":43.29897,"lon":5.4367,"is_reserved":false,"is_disabled":false,"rental_uris":{"android":"levelo://app?vid=816ca7be-0c7b-406b-bdb3-622f13941120","ios":"levelo://app?vid=816ca7be-0c7b-406b-bdb3-622f13941120"},"vehicle_type_id":"4","last_reported":1726830489,"current_range_meters":16800,"station_id":"ce4bhpp2rcd13ifvqhfg","pricing_plan_id":"cebpf4jnsgd1na2vs0mg"},{"bike_id":"1b910b94-6a6a-48ea-8d51-fd30b1ea2bf2","system_id":"levelo_inurba_marseille","lat":43.2862,"lon":5.35104,"is_reserved":false,"is_disabled":false,"rental_uris":{"android":"levelo://app?vid=1b910b94-6a6a-48ea-8d51-fd30b1ea2bf2","ios":"levelo://app?vid=1b910b94-6a6a-48ea-8d51-fd30b1ea2bf2"},"vehicle_type_id":"4","last_reported":1726830489,"current_range_meters":26800,"station_id":"ce4bhch2rcd13ifvqeug","pricing_plan_id":"cebpf4jnsgd1na2vs0mg"},{"bike_id":"58d1aa25-c911-4b97-8774-c52eebffd7b6","system_id":"levelo_inurba_marseille","lat":43.27811,"lon":5.4071,"is_reserved":false,"is_disabled":false,"rental_uris":{"android":"levelo://app?vid=58d1aa25-c911-4b97-8774-c52eebffd7b6","ios":"levelo://app?vid=58d1aa25-c911-4b97-8774-c52eebffd7b6"},"vehicle_type_id":"4","last_reported":1726830489,"current_range_meters":28000,"station_id":"ce4bhnh2rcd13ifvqgtg","pricing_plan_id":"cebpf4jnsgd1na2vs0mg"},{"bike_id":"76332b81-1d9a-40a2-a116-412ce60a9aa9","system_id":"levelo_inurba_marseille","lat":43.30151,"lon":5.38079,"is_reserved":false,"is_disabled":false,"rental_uris":{"android":"levelo://app?vid=76332b81-1d9a-40a2-a116-412ce60a9aa9","ios":"levelo://app?vid=76332b81-1d9a-40a2-a116-412ce60a9aa9"},"vehicle_type_id":"4","last_reported":1726830489,"current_range_meters":38800,"station_id":"ce4bgjp2rcd13ifvqbh0","pricing_plan_id":"cebpf4jnsgd1na2vs0mg"},{"bike_id":"aa99326a-93f4-47ff-b168-d9ee106cf221","system_id":"levelo_inurba_marseille","lat":43.308024,"lon":5.381561,"is_reserved":false,"is_disabled":false,"rental_uris":{"android":"levelo://app?vid=aa99326a-93f4-47ff-b168-d9ee106cf221","ios":"levelo://app?vid=aa99326a-93f4-47ff-b168-d9ee106cf221"},"vehicle_type_id":"4","last_reported":1726830489,"current_range_meters":8400,"station_id":"ce4bh0h2rcd13ifvqd50","pricing_plan_id":"cebpf4jnsgd1na2vs0mg"},{"bike_id":"15e2fcc3-a716-4634-a3d9-bcf8d3f01846","system_id":"levelo_inurba_marseille","lat":43.28268,"lon":5.35057,"is_reserved":false,"is_disabled":false,"rental_uris":{"android":"levelo://app?vid=15e2fcc3-a716-4634-a3d9-bcf8d3f01846","ios":"levelo://app?vid=15e2fcc3-a716-4634-a3d9-bcf8d3f01846"},"vehicle_type_id":"4","last_reported":1726830489,"current_range_meters":33600,"station_id":"ce4bhbp2rcd13ifvqerg","pricing_plan_id":"cebpf4jnsgd1na2vs0mg"},{"bike_id":"036ab25f-0c34-4c45-8e88-1fc9200da6fd","system_id":"levelo_inurba_marseille","lat":43.27178,"lon":5.42715,"is_reserved":false,"is_disabled":false,"rental_uris":{"android":"levelo://app?vid=036ab25f-0c34-4c45-8e88-1fc9200da6fd","ios":"levelo://app?vid=036ab25f-0c34-4c45-8e88-1fc9200da6fd"},"vehicle_type_id":"4","last_reported":1726830489,"current_range_meters":26000,"station_id":"","pricing_plan_id":"cebpf4jnsgd1na2vs0mg"},{"bike_id":"40e5b403-5590-4098-a474-822a4163b2a7","system_id":"levelo_inurba_marseille","lat":43.29975,"lon":5.37197,"is_reserved":false,"is_disabled":false,"rental_uris":{"android":"levelo://app?vid=40e5b403-5590-4098-a474-822a4163b2a7","ios":"levelo://app?vid=40e5b403-5590-4098-a474-822a4163b2a7"},"vehicle_type_id":"4","last_reported":1726830489,"current_range_meters":24800,"station_id":"ce4bgr92rcd13ifvqc7g","pricing_plan_id":"cebpf4jnsgd1na2vs0mg"},{"bike_id":"de5e3dce-8b62-4dcb-844b-27ea3f038c4c","system_id":"levelo_inurba_marseille","lat":43.30592,"lon":5.39356,"is_reserved":false,"is_disabled":false,"rental_uris":{"android":"levelo://app?vid=de5e3dce-8b62-4dcb-844b-27ea3f038c4c","ios":"levelo://app?vid=de5e3dce-8b62-4dcb-844b-27ea3f038c4c"},"vehicle_type_id":"4","last_reported":1726830489,"current_range_meters":25600,"station_id":"ce4bh0p2rcd13ifvqd80","pricing_plan_id":"cebpf4jnsgd1na2vs0mg"},{"bike_id":"809d76c3-2931-4bf7-911e-100e1b844076","system_id":"levelo_inurba_marseille","lat":43.26209,"lon":5.37441,"is_reserved":false,"is_disabled":false,"rental_uris":{"android":"levelo://app?vid=809d76c3-2931-4bf7-911e-100e1b844076","ios":"levelo://app?vid=809d76c3-2931-4bf7-911e-100e1b844076"},"vehicle_type_id":"4","last_reported":1726830489,"current_range_meters":26800,"station_id":"ce4bhgp2rcd13ifvqfc0","pricing_plan_id":"cebpf4jnsgd1na2vs0mg"},{"bike_id":"a5c7d987-8248-4350-9dd1-fbce29e57ba4","system_id":"levelo_inurba_marseille","lat":43.290523,"lon":5.399734,"is_reserved":false,"is_disabled":false,"rental_uris":{"android":"levelo://app?vid=a5c7d987-8248-4350-9dd1-fbce29e57ba4","ios":"levelo://app?vid=a5c7d987-8248-4350-9dd1-fbce29e57ba4"},"vehicle_type_id":"4","last_reported":1726830489,"current_range_meters":38400,"station_id":"ce4bh392rcd13ifvqdm0","pricing_plan_id":"cebpf4jnsgd1na2vs0mg"},{"bike_id":"0fb42f67-e6d4-4b33-8619-af1b1d2a30e9","system_id":"levelo_inurba_marseille","lat":43.23148,"lon":5.43721,"is_reserved":false,"is_disabled":false,"rental_uris":{"android":"levelo://app?vid=0fb42f67-e6d4-4b33-8619-af1b1d2a30e9","ios":"levelo://app?vid=0fb42f67-e6d4-4b33-8619-af1b1d2a30e9"},"vehicle_type_id":"4","last_reported":1726830489,"current_range_meters":39200,"station_id":"ce4bhmp2rcd13ifvqgog","pricing_plan_id":"cebpf4jnsgd1na2vs0mg"},{"bike_id":"99207751-c423-4511-a7fd-644c87a6b29d","system_id":"levelo_inurba_marseille","lat":43.28851,"lon":5.35858,"is_reserved":false,"is_disabled":false,"rental_uris":{"android":"levelo://app?vid=99207751-c423-4511-a7fd-644c87a6b29d","ios":"levelo://app?vid=99207751-c423-4511-a7fd-644c87a6b29d"},"vehicle_type_id":"4","last_reported":1726830489,"current_range_meters":38000,"station_id":"ce4bhb12rcd13ifvqem0","pricing_plan_id":"cebpf4jnsgd1na2vs0mg"},{"bike_id":"e3157b7d-f63e-4215-9b0b-bec081b31a83","system_id":"levelo_inurba_marseille","lat":43.32484,"lon":5.36563,"is_reserved":false,"is_disabled":false,"rental_uris":{"android":"levelo://app?vid=e3157b7d-f63e-4215-9b0b-bec081b31a83","ios":"levelo://app?vid=e3157b7d-f63e-4215-9b0b-bec081b31a83"},"vehicle_type_id":"4","last_reported":1726830489,"current_range_meters":6400,"station_id":"ce4bhs12rcd13ifvqhvg","pricing_plan_id":"cebpf4jnsgd1na2vs0mg"},{"bike_id":"9e4ee180-d896-4674-9f65-8fcd7298a6ec","system_id":"levelo_inurba_marseille","lat":43.27492,"lon":5.42456,"is_reserved":false,"is_disabled":false,"rental_uris":{"android":"levelo://app?vid=9e4ee180-d896-4674-9f65-8fcd7298a6ec","ios":"levelo://app?vid=9e4ee180-d896-4674-9f65-8fcd7298a6ec"},"vehicle_type_id":"4","last_reported":1726830489,"current_range_meters":37600,"station_id":"ce4bhn92rcd13ifvqgrg","pricing_plan_id":"cebpf4jnsgd1na2vs0mg"},{"bike_id":"69cc68e3-bedc-4e78-beda-e5464d93354e","system_id":"levelo_inurba_marseille","lat":43.29091,"lon":5.38138,"is_reserved":false,"is_disabled":false,"rental_uris":{"android":"levelo://app?vid=69cc68e3-bedc-4e78-beda-e5464d93354e","ios":"levelo://app?vid=69cc68e3-bedc-4e78-beda-e5464d93354e"},"vehicle_type_id":"4","last_reported":1726830489,"current_range_meters":33200,"station_id":"ce4bh512rcd13ifvqe2g","pricing_plan_id":"cebpf4jnsgd1na2vs0mg"},{"bike_id":"751f90c9-696d-43a3-abf5-68be55a262c9","system_id":"levelo_inurba_marseille","lat":43.33613,"lon":5.41022,"is_reserved":false,"is_disabled":false,"rental_uris":{"android":"levelo://app?vid=751f90c9-696d-43a3-abf5-68be55a262c9","ios":"levelo://app?vid=751f90c9-696d-43a3-abf5-68be55a262c9"},"vehicle_type_id":"4","last_reported":1726830489,"current_range_meters":16800,"station_id":"ce4bhqh2rcd13ifvqhmg","pricing_plan_id":"cebpf4jnsgd1na2vs0mg"},{"bike_id":"9899969d-4f8e-4fed-bc43-e675716ac04a","system_id":"levelo_inurba_marseille","lat":43.23153,"lon":5.43715,"is_reserved":false,"is_disabled":false,"rental_uris":{"android":"levelo://app?vid=9899969d-4f8e-4fed-bc43-e675716ac04a","ios":"levelo://app?vid=9899969d-4f8e-4fed-bc43-e675716ac04a"},"vehicle_type_id":"4","last_reported":1726830489,"current_range_meters":38800,"station_id":"ce4bhmp2rcd13ifvqgog","pricing_plan_id":"cebpf4jnsgd1na2vs0mg"},{"bike_id":"edfb1ff5-b81b-4225-8da9-100a9115b1e3","system_id":"levelo_inurba_marseille","lat":43.29735,"lon":5.36561,"is_reserved":false,"is_disabled":false,"rental_uris":{"android":"levelo://app?vid=edfb1ff5-b81b-4225-8da9-100a9115b1e3","ios":"levelo://app?vid=edfb1ff5-b81b-4225-8da9-100a9115b1e3"},"vehicle_type_id":"4","last_reported":1726830489,"current_range_meters":12800,"station_id":"","pricing_plan_id":"cebpf4jnsgd1na2vs0mg"},{"bike_id":"abf30139-5188-4fd8-99c4-304cf37a48eb","system_id":"levelo_inurba_marseille","lat":43.29302,"lon":5.37166,"is_reserved":false,"is_disabled":false,"rental_uris":{"android":"levelo://app?vid=abf30139-5188-4fd8-99c4-304cf37a48eb","ios":"levelo://app?vid=abf30139-5188-4fd8-99c4-304cf37a48eb"},"vehicle_type_id":"4","last_reported":1726830489,"current_range_meters":32000,"station_id":"ce4bgh92rcd13ifvqb40","pricing_plan_id":"cebpf4jnsgd1na2vs0mg"},{"bike_id":"e4a4b1c6-7e5c-47e5-9556-216a4409a182","system_id":"levelo_inurba_marseille","lat":43.30597,"lon":5.39365,"is_reserved":false,"is_disabled":false,"rental_uris":{"android":"levelo://app?vid=e4a4b1c6-7e5c-47e5-9556-216a4409a182","ios":"levelo://app?vid=e4a4b1c6-7e5c-47e5-9556-216a4409a182"},"vehicle_type_id":"4","last_reported":1726830489,"current_range_meters":13600,"station_id":"ce4bh0p2rcd13ifvqd80","pricing_plan_id":"cebpf4jnsgd1na2vs0mg"},{"bike_id":"15e3060d-1cfb-481c-9f48-257a94bd2c2a","system_id":"levelo_inurba_marseille","lat":43.32662,"lon":5.40994,"is_reserved":false,"is_disabled":false,"rental_uris":{"android":"levelo://app?vid=15e3060d-1cfb-481c-9f48-257a94bd2c2a","ios":"levelo://app?vid=15e3060d-1cfb-481c-9f48-257a94bd2c2a"},"vehicle_type_id":"4","last_reported":1726830489,"current_range_meters":37600,"station_id":"ce4bhpp2rcd13ifvqhgg","pricing_plan_id":"cebpf4jnsgd1na2vs0mg"},{"bike_id":"1177f99b-98bd-42c7-86aa-32b531828272","system_id":"levelo_inurba_marseille","lat":43.29933,"lon":5.36545,"is_reserved":false,"is_disabled":false,"rental_uris":{"android":"levelo://app?vid=1177f99b-98bd-42c7-86aa-32b531828272","ios":"levelo://app?vid=1177f99b-98bd-42c7-86aa-32b531828272"},"vehicle_type_id":"4","last_reported":1726830489,"current_range_meters":24400,"station_id":"ce4bgm92rcd13ifvqbr0","pricing_plan_id":"cebpf4jnsgd1na2vs0mg"},{"bike_id":"f1eb14d4-8136-437b-894a-f7928edd515d","system_id":"levelo_inurba_marseille","lat":43.31512,"lon":5.37278,"is_reserved":false,"is_disabled":false,"rental_uris":{"android":"levelo://app?vid=f1eb14d4-8136-437b-894a-f7928edd515d","ios":"levelo://app?vid=f1eb14d4-8136-437b-894a-f7928edd515d"},"vehicle_type_id":"4","last_reported":1726830489,"current_range_meters":9200,"station_id":"ce4bgt12rcd13ifvqcd0","pricing_plan_id":"cebpf4jnsgd1na2vs0mg"},{"bike_id":"ac15a0b2-7d64-45ba-b86e-cd64c79de886","system_id":"levelo_inurba_marseille","lat":43.295709,"lon":5.39983,"is_reserved":false,"is_disabled":false,"rental_uris":{"android":"levelo://app?vid=ac15a0b2-7d64-45ba-b86e-cd64c79de886","ios":"levelo://app?vid=ac15a0b2-7d64-45ba-b86e-cd64c79de886"},"vehicle_type_id":"4","last_reported":1726830489,"current_range_meters":4000,"station_id":"ce4bhnh2rcd13ifvqgtg","pricing_plan_id":"cebpf4jnsgd1na2vs0mg"},{"bike_id":"e8a1ac1d-9e10-4e94-9ed7-5b9ab1ebe882","system_id":"levelo_inurba_marseille","lat":43.23148,"lon":5.43728,"is_reserved":false,"is_disabled":false,"rental_uris":{"android":"levelo://app?vid=e8a1ac1d-9e10-4e94-9ed7-5b9ab1ebe882","ios":"levelo://app?vid=e8a1ac1d-9e10-4e94-9ed7-5b9ab1ebe882"},"vehicle_type_id":"4","last_reported":1726830489,"current_range_meters":28000,"station_id":"ce4bhmp2rcd13ifvqgog","pricing_plan_id":"cebpf4jnsgd1na2vs0mg"},{"bike_id":"fce287ad-70fa-4263-8851-9451b7dd1984","system_id":"levelo_inurba_marseille","lat":43.30599,"lon":5.39347,"is_reserved":false,"is_disabled":false,"rental_uris":{"android":"levelo://app?vid=fce287ad-70fa-4263-8851-9451b7dd1984","ios":"levelo://app?vid=fce287ad-70fa-4263-8851-9451b7dd1984"},"vehicle_type_id":"4","last_reported":1726830489,"current_range_meters":35600,"station_id":"ce4bh0p2rcd13ifvqd80","pricing_plan_id":"cebpf4jnsgd1na2vs0mg"},{"bike_id":"141d383a-8afb-4e33-be5f-6ddf92de8374","system_id":"levelo_inurba_marseille","lat":43.31183,"lon":5.38271,"is_reserved":false,"is_disabled":false,"rental_uris":{"android":"levelo://app?vid=141d383a-8afb-4e33-be5f-6ddf92de8374","ios":"levelo://app?vid=141d383a-8afb-4e33-be5f-6ddf92de8374"},"vehicle_type_id":"4","last_reported":1726830489,"current_range_meters":19600,"station_id":"","pricing_plan_id":"cebpf4jnsgd1na2vs0mg"},{"bike_id":"0b1e078f-ac07-4cd6-8531-bf3c84915e21","system_id":"levelo_inurba_marseille","lat":43.30781,"lon":5.37652,"is_reserved":false,"is_disabled":false,"rental_uris":{"android":"levelo://app?vid=0b1e078f-ac07-4cd6-8531-bf3c84915e21","ios":"levelo://app?vid=0b1e078f-ac07-4cd6-8531-bf3c84915e21"},"vehicle_type_id":"4","last_reported":1726830489,"current_range_meters":28800,"station_id":"ce4bgv92rcd13ifvqcq0","pricing_plan_id":"cebpf4jnsgd1na2vs0mg"},{"bike_id":"bf81a979-7aaa-4742-9060-8a1469781816","system_id":"levelo_inurba_marseille","lat":43.284081,"lon":5.349739,"is_reserved":false,"is_disabled":false,"rental_uris":{"android":"levelo://app?vid=bf81a979-7aaa-4742-9060-8a1469781816","ios":"levelo://app?vid=bf81a979-7aaa-4742-9060-8a1469781816"},"vehicle_type_id":"4","last_reported":1726830489,"current_range_meters":32800,"station_id":"ce4bhbh2rcd13ifvqepg","pricing_plan_id":"cebpf4jnsgd1na2vs0mg"},{"bike_id":"28747450-c42f-4ba6-a1d3-35ec4a385103","system_id":"levelo_inurba_marseille","lat":43.30151,"lon":5.38077,"is_reserved":false,"is_disabled":false,"rental_uris":{"android":"levelo://app?vid=28747450-c42f-4ba6-a1d3-35ec4a385103","ios":"levelo://app?vid=28747450-c42f-4ba6-a1d3-35ec4a385103"},"vehicle_type_id":"4","last_reported":1726830489,"current_range_meters":14400,"station_id":"ce4bgjp2rcd13ifvqbh0","pricing_plan_id":"cebpf4jnsgd1na2vs0mg"},{"bike_id":"d3c9d0d6-6911-48d9-bb05-aa1d3e29440b","system_id":"levelo_inurba_marseille","lat":43.33019,"lon":5.39027,"is_reserved":false,"is_disabled":false,"rental_uris":{"android":"levelo://app?vid=d3c9d0d6-6911-48d9-bb05-aa1d3e29440b","ios":"levelo://app?vid=d3c9d0d6-6911-48d9-bb05-aa1d3e29440b"},"vehicle_type_id":"4","last_reported":1726830489,"current_range_meters":38000,"station_id":"ce4bhr92rcd13ifvqhrg","pricing_plan_id":"cebpf4jnsgd1na2vs0mg"},{"bike_id":"b431aa11-7864-481f-af3a-c99c02ad287c","system_id":"levelo_inurba_marseille","lat":43.23964,"lon":5.36629,"is_reserved":false,"is_disabled":false,"rental_uris":{"android":"levelo://app?vid=b431aa11-7864-481f-af3a-c99c02ad287c","ios":"levelo://app?vid=b431aa11-7864-481f-af3a-c99c02ad287c"},"vehicle_type_id":"4","last_reported":1726830489,"current_range_meters":37600,"station_id":"ce4bhi12rcd13ifvqfp0","pricing_plan_id":"cebpf4jnsgd1na2vs0mg"},{"bike_id":"e6805398-14bf-4c72-b165-1bedb5484a2a","system_id":"levelo_inurba_marseille","lat":43.29844,"lon":5.36269,"is_reserved":false,"is_disabled":false,"rental_uris":{"android":"levelo://app?vid=e6805398-14bf-4c72-b165-1bedb5484a2a","ios":"levelo://app?vid=e6805398-14bf-4c72-b165-1bedb5484a2a"},"vehicle_type_id":"4","last_reported":1726830489,"current_range_meters":38800,"station_id":"ce4bgpp2rcd13ifvqc3g","pricing_plan_id":"cebpf4jnsgd1na2vs0mg"},{"bike_id":"10559592-7f9e-4fd5-b68d-eda40e846e0c","system_id":"levelo_inurba_marseille","lat":43.29624,"lon":5.37152,"is_reserved":false,"is_disabled":false,"rental_uris":{"android":"levelo://app?vid=10559592-7f9e-4fd5-b68d-eda40e846e0c","ios":"levelo://app?vid=10559592-7f9e-4fd5-b68d-eda40e846e0c"},"vehicle_type_id":"4","last_reported":1726830489,"current_range_meters":25600,"station_id":"ce4bgnh2rcd13ifvqc0g","pricing_plan_id":"cebpf4jnsgd1na2vs0mg"},{"bike_id":"c98f7ff1-f3c9-40cb-965e-23ea7f6f3219","system_id":"levelo_inurba_marseille","lat":43.2687,"lon":5.3707,"is_reserved":false,"is_disabled":false,"rental_uris":{"android":"levelo://app?vid=c98f7ff1-f3c9-40cb-965e-23ea7f6f3219","ios":"levelo://app?vid=c98f7ff1-f3c9-40cb-965e-23ea7f6f3219"},"vehicle_type_id":"4","last_reported":1726830489,"current_range_meters":36800,"station_id":"ce4bgr92rcd13ifvqc7g","pricing_plan_id":"cebpf4jnsgd1na2vs0mg"},{"bike_id":"35ddc044-e8b2-49ff-b1ba-2679673ffad7","system_id":"levelo_inurba_marseille","lat":43.29535,"lon":5.37509,"is_reserved":false,"is_disabled":false,"rental_uris":{"android":"levelo://app?vid=35ddc044-e8b2-49ff-b1ba-2679673ffad7","ios":"levelo://app?vid=35ddc044-e8b2-49ff-b1ba-2679673ffad7"},"vehicle_type_id":"4","last_reported":1726830489,"current_range_meters":38400,"station_id":"ce4bh4p2rcd13ifvqe1g","pricing_plan_id":"cebpf4jnsgd1na2vs0mg"},{"bike_id":"45870802-41b4-4e48-a8b9-54d7b4df093f","system_id":"levelo_inurba_marseille","lat":43.32686,"lon":5.41358,"is_reserved":false,"is_disabled":false,"rental_uris":{"android":"levelo://app?vid=45870802-41b4-4e48-a8b9-54d7b4df093f","ios":"levelo://app?vid=45870802-41b4-4e48-a8b9-54d7b4df093f"},"vehicle_type_id":"4","last_reported":1726830489,"current_range_meters":8400,"station_id":"","pricing_plan_id":"cebpf4jnsgd1na2vs0mg"},{"bike_id":"e93662b1-08ac-4abd-82f8-d99e5f5f14d3","system_id":"levelo_inurba_marseille","lat":43.30596,"lon":5.37233,"is_reserved":false,"is_disabled":false,"rental_uris":{"android":"levelo://app?vid=e93662b1-08ac-4abd-82f8-d99e5f5f14d3","ios":"levelo://app?vid=e93662b1-08ac-4abd-82f8-d99e5f5f14d3"},"vehicle_type_id":"4","last_reported":1726830489,"current_range_meters":38800,"station_id":"ce4bgqh2rcd13ifvqc4g","pricing_plan_id":"cebpf4jnsgd1na2vs0mg"},{"bike_id":"17aaf3b9-706d-4838-a4f4-06d78ce8491c","system_id":"levelo_inurba_marseille","lat":43.30602,"lon":5.39364,"is_reserved":false,"is_disabled":false,"rental_uris":{"android":"levelo://app?vid=17aaf3b9-706d-4838-a4f4-06d78ce8491c","ios":"levelo://app?vid=17aaf3b9-706d-4838-a4f4-06d78ce8491c"},"vehicle_type_id":"4","last_reported":1726830489,"current_range_meters":28800,"station_id":"ce4bh0p2rcd13ifvqd80","pricing_plan_id":"cebpf4jnsgd1na2vs0mg"},{"bike_id":"306549f4-d300-4209-9498-1103ebfb72df","system_id":"levelo_inurba_marseille","lat":43.30536,"lon":5.3654,"is_reserved":false,"is_disabled":false,"rental_uris":{"android":"levelo://app?vid=306549f4-d300-4209-9498-1103ebfb72df","ios":"levelo://app?vid=306549f4-d300-4209-9498-1103ebfb72df"},"vehicle_type_id":"4","last_reported":1726830489,"current_range_meters":28800,"station_id":"ce4bgs12rcd13ifvqcag","pricing_plan_id":"cebpf4jnsgd1na2vs0mg"},{"bike_id":"f822c367-9de4-4bd1-ba59-5352bb8abb40","system_id":"levelo_inurba_marseille","lat":43.243938,"lon":5.370665,"is_reserved":false,"is_disabled":false,"rental_uris":{"android":"levelo://app?vid=f822c367-9de4-4bd1-ba59-5352bb8abb40","ios":"levelo://app?vid=f822c367-9de4-4bd1-ba59-5352bb8abb40"},"vehicle_type_id":"4","last_reported":1726830489,"current_range_meters":21600,"station_id":"ce4bhhh2rcd13ifvqfk0","pricing_plan_id":"cebpf4jnsgd1na2vs0mg"},{"bike_id":"4826ac05-8ccd-4e7a-a498-d917cebf1979","system_id":"levelo_inurba_marseille","lat":43.262079,"lon":5.379264,"is_reserved":false,"is_disabled":false,"rental_uris":{"android":"levelo://app?vid=4826ac05-8ccd-4e7a-a498-d917cebf1979","ios":"levelo://app?vid=4826ac05-8ccd-4e7a-a498-d917cebf1979"},"vehicle_type_id":"4","last_reported":1726830489,"current_range_meters":38400,"station_id":"ce4bhh92rcd13ifvqfh0","pricing_plan_id":"cebpf4jnsgd1na2vs0mg"},{"bike_id":"0686b42b-5a38-417c-8e1e-28a4c76fa9f4","system_id":"levelo_inurba_marseille","lat":43.31483,"lon":5.37303,"is_reserved":false,"is_disabled":false,"rental_uris":{"android":"levelo://app?vid=0686b42b-5a38-417c-8e1e-28a4c76fa9f4","ios":"levelo://app?vid=0686b42b-5a38-417c-8e1e-28a4c76fa9f4"},"vehicle_type_id":"4","last_reported":1726830489,"current_range_meters":34000,"station_id":"ce4bgt12rcd13ifvqcd0","pricing_plan_id":"cebpf4jnsgd1na2vs0mg"},{"bike_id":"f67a4ea1-3202-46d0-9c95-74a9573f9c8c","system_id":"levelo_inurba_marseille","lat":43.27213,"lon":5.39176,"is_reserved":false,"is_disabled":false,"rental_uris":{"android":"levelo://app?vid=f67a4ea1-3202-46d0-9c95-74a9573f9c8c","ios":"levelo://app?vid=f67a4ea1-3202-46d0-9c95-74a9573f9c8c"},"vehicle_type_id":"4","last_reported":1726830489,"current_range_meters":20000,"station_id":"ce4bhhp2rcd13ifvqfm0","pricing_plan_id":"cebpf4jnsgd1na2vs0mg"},{"bike_id":"f104eaef-b3b0-4392-ad0b-884d81f7af7f","system_id":"levelo_inurba_marseille","lat":43.2749,"lon":5.42453,"is_reserved":false,"is_disabled":false,"rental_uris":{"android":"levelo://app?vid=f104eaef-b3b0-4392-ad0b-884d81f7af7f","ios":"levelo://app?vid=f104eaef-b3b0-4392-ad0b-884d81f7af7f"},"vehicle_type_id":"4","last_reported":1726830489,"current_range_meters":32800,"station_id":"ce4bhn92rcd13ifvqgrg","pricing_plan_id":"cebpf4jnsgd1na2vs0mg"},{"bike_id":"930df229-a4fc-46c0-980c-29c1519b09ed","system_id":"levelo_inurba_marseille","lat":43.32365,"lon":5.38884,"is_reserved":false,"is_disabled":false,"rental_uris":{"android":"levelo://app?vid=930df229-a4fc-46c0-980c-29c1519b09ed","ios":"levelo://app?vid=930df229-a4fc-46c0-980c-29c1519b09ed"},"vehicle_type_id":"4","last_reported":1726830489,"current_range_meters":21600,"station_id":"ce4bhqp2rcd13ifvqhog","pricing_plan_id":"cebpf4jnsgd1na2vs0mg"},{"bike_id":"2c1ce58c-ecc3-476c-a154-ac2b7ef72797","system_id":"levelo_inurba_marseille","lat":43.29611,"lon":5.37719,"is_reserved":false,"is_disabled":false,"rental_uris":{"android":"levelo://app?vid=2c1ce58c-ecc3-476c-a154-ac2b7ef72797","ios":"levelo://app?vid=2c1ce58c-ecc3-476c-a154-ac2b7ef72797"},"vehicle_type_id":"4","last_reported":1726830489,"current_range_meters":34800,"station_id":"ce4bgi92rcd13ifvqb90","pricing_plan_id":"cebpf4jnsgd1na2vs0mg"},{"bike_id":"9733eb26-9e68-456c-b0c3-d7415e89c90e","system_id":"levelo_inurba_marseille","lat":43.30547,"lon":5.36705,"is_reserved":false,"is_disabled":false,"rental_uris":{"android":"levelo://app?vid=9733eb26-9e68-456c-b0c3-d7415e89c90e","ios":"levelo://app?vid=9733eb26-9e68-456c-b0c3-d7415e89c90e"},"vehicle_type_id":"4","last_reported":1726830489,"current_range_meters":28400,"station_id":"ce4bgrp2rcd13ifvqc9g","pricing_plan_id":"cebpf4jnsgd1na2vs0mg"},{"bike_id":"c848236f-f000-44c2-8606-fd9e3aa07954","system_id":"levelo_inurba_marseille","lat":43.30459,"lon":5.3791,"is_reserved":false,"is_disabled":false,"rental_uris":{"android":"levelo://app?vid=c848236f-f000-44c2-8606-fd9e3aa07954","ios":"levelo://app?vid=c848236f-f000-44c2-8606-fd9e3aa07954"},"vehicle_type_id":"4","last_reported":1726830489,"current_range_meters":27600,"station_id":"ce4bgup2rcd13ifvqcn0","pricing_plan_id":"cebpf4jnsgd1na2vs0mg"},{"bike_id":"c0a590e6-b873-45be-bd9f-ed24c1027993","system_id":"levelo_inurba_marseille","lat":43.2549,"lon":5.37651,"is_reserved":false,"is_disabled":false,"rental_uris":{"android":"levelo://app?vid=c0a590e6-b873-45be-bd9f-ed24c1027993","ios":"levelo://app?vid=c0a590e6-b873-45be-bd9f-ed24c1027993"},"vehicle_type_id":"4","last_reported":1726830489,"current_range_meters":27200,"station_id":"ce4bhh12rcd13ifvqff0","pricing_plan_id":"cebpf4jnsgd1na2vs0mg"},{"bike_id":"4b8b85f9-1f15-479f-9589-0e363cc6984c","system_id":"levelo_inurba_marseille","lat":43.2958,"lon":5.36738,"is_reserved":false,"is_disabled":false,"rental_uris":{"android":"levelo://app?vid=4b8b85f9-1f15-479f-9589-0e363cc6984c","ios":"levelo://app?vid=4b8b85f9-1f15-479f-9589-0e363cc6984c"},"vehicle_type_id":"4","last_reported":1726830489,"current_range_meters":37600,"station_id":"ce4bgph2rcd13ifvqc2g","pricing_plan_id":"cebpf4jnsgd1na2vs0mg"},{"bike_id":"8ee6d5db-cb8b-4219-a1d2-5a1a8206952f","system_id":"levelo_inurba_marseille","lat":43.29555,"lon":5.42289,"is_reserved":false,"is_disabled":false,"rental_uris":{"android":"levelo://app?vid=8ee6d5db-cb8b-4219-a1d2-5a1a8206952f","ios":"levelo://app?vid=8ee6d5db-cb8b-4219-a1d2-5a1a8206952f"},"vehicle_type_id":"4","last_reported":1726830489,"current_range_meters":37600,"station_id":"ce4bhph2rcd13ifvqhdg","pricing_plan_id":"cebpf4jnsgd1na2vs0mg"},{"bike_id":"af42f746-66d2-45b8-9e58-3721ab0e338d","system_id":"levelo_inurba_marseille","lat":43.23197,"lon":5.35557,"is_reserved":false,"is_disabled":false,"rental_uris":{"android":"levelo://app?vid=af42f746-66d2-45b8-9e58-3721ab0e338d","ios":"levelo://app?vid=af42f746-66d2-45b8-9e58-3721ab0e338d"},"vehicle_type_id":"4","last_reported":1726830489,"current_range_meters":8400,"station_id":"ce4bhu92rcd13ifvqi70","pricing_plan_id":"cebpf4jnsgd1na2vs0mg"},{"bike_id":"680226f5-dafe-4dde-b555-d326cb4b1fbd","system_id":"levelo_inurba_marseille","lat":43.32547,"lon":5.41431,"is_reserved":false,"is_disabled":false,"rental_uris":{"android":"levelo://app?vid=680226f5-dafe-4dde-b555-d326cb4b1fbd","ios":"levelo://app?vid=680226f5-dafe-4dde-b555-d326cb4b1fbd"},"vehicle_type_id":"4","last_reported":1726830489,"current_range_meters":8000,"station_id":"ce4bhq12rcd13ifvqhhg","pricing_plan_id":"cebpf4jnsgd1na2vs0mg"},{"bike_id":"32a784fb-3c02-424e-ade0-5248eb3e2dac","system_id":"levelo_inurba_marseille","lat":43.25085,"lon":5.39524,"is_reserved":false,"is_disabled":false,"rental_uris":{"android":"levelo://app?vid=32a784fb-3c02-424e-ade0-5248eb3e2dac","ios":"levelo://app?vid=32a784fb-3c02-424e-ade0-5248eb3e2dac"},"vehicle_type_id":"4","last_reported":1726830489,"current_range_meters":37600,"station_id":"ce4bhm12rcd13ifvqgkg","pricing_plan_id":"cebpf4jnsgd1na2vs0mg"},{"bike_id":"ab704c81-0bdc-4966-a9a3-ecdb72287598","system_id":"levelo_inurba_marseille","lat":43.33604,"lon":5.41034,"is_reserved":false,"is_disabled":false,"rental_uris":{"android":"levelo://app?vid=ab704c81-0bdc-4966-a9a3-ecdb72287598","ios":"levelo://app?vid=ab704c81-0bdc-4966-a9a3-ecdb72287598"},"vehicle_type_id":"4","last_reported":1726830489,"current_range_meters":6400,"station_id":"ce4bhqh2rcd13ifvqhmg","pricing_plan_id":"cebpf4jnsgd1na2vs0mg"},{"bike_id":"bfc2814d-d660-4f27-8771-b310fb735346","system_id":"levelo_inurba_marseille","lat":43.2439,"lon":5.3706,"is_reserved":false,"is_disabled":false,"rental_uris":{"android":"levelo://app?vid=bfc2814d-d660-4f27-8771-b310fb735346","ios":"levelo://app?vid=bfc2814d-d660-4f27-8771-b310fb735346"},"vehicle_type_id":"4","last_reported":1726830489,"current_range_meters":35600,"station_id":"ce4bhhh2rcd13ifvqfk0","pricing_plan_id":"cebpf4jnsgd1na2vs0mg"},{"bike_id":"b4d90691-b2ae-447e-84f7-f1a017bf250a","system_id":"levelo_inurba_marseille","lat":43.26555,"lon":5.37286,"is_reserved":false,"is_disabled":false,"rental_uris":{"android":"levelo://app?vid=b4d90691-b2ae-447e-84f7-f1a017bf250a","ios":"levelo://app?vid=b4d90691-b2ae-447e-84f7-f1a017bf250a"},"vehicle_type_id":"4","last_reported":1726830489,"current_range_meters":14000,"station_id":"ce4bhg12rcd13ifvqf70","pricing_plan_id":"cebpf4jnsgd1na2vs0mg"},{"bike_id":"66bdbe49-6c87-4f80-b9c2-4a52c0ab5db0","system_id":"levelo_inurba_marseille","lat":43.30539,"lon":5.36706,"is_reserved":false,"is_disabled":false,"rental_uris":{"android":"levelo://app?vid=66bdbe49-6c87-4f80-b9c2-4a52c0ab5db0","ios":"levelo://app?vid=66bdbe49-6c87-4f80-b9c2-4a52c0ab5db0"},"vehicle_type_id":"4","last_reported":1726830489,"current_range_meters":24400,"station_id":"ce4bgrp2rcd13ifvqc9g","pricing_plan_id":"cebpf4jnsgd1na2vs0mg"},{"bike_id":"d931cd70-05fb-433c-b6a1-41d293cf3e23","system_id":"levelo_inurba_marseille","lat":43.30549,"lon":5.36705,"is_reserved":false,"is_disabled":false,"rental_uris":{"android":"levelo://app?vid=d931cd70-05fb-433c-b6a1-41d293cf3e23","ios":"levelo://app?vid=d931cd70-05fb-433c-b6a1-41d293cf3e23"},"vehicle_type_id":"4","last_reported":1726830489,"current_range_meters":16400,"station_id":"ce4bgrp2rcd13ifvqc9g","pricing_plan_id":"cebpf4jnsgd1na2vs0mg"},{"bike_id":"47b3a947-93fb-4339-9421-c2403a9b617f","system_id":"levelo_inurba_marseille","lat":43.28676,"lon":5.36361,"is_reserved":false,"is_disabled":false,"rental_uris":{"android":"levelo://app?vid=47b3a947-93fb-4339-9421-c2403a9b617f","ios":"levelo://app?vid=47b3a947-93fb-4339-9421-c2403a9b617f"},"vehicle_type_id":"4","last_reported":1726830489,"current_range_meters":14000,"station_id":"ce4bhah2rcd13ifvqej0","pricing_plan_id":"cebpf4jnsgd1na2vs0mg"},{"bike_id":"27099203-d06f-49c9-b470-13f269bf1b3c","system_id":"levelo_inurba_marseille","lat":43.287139,"lon":5.379371,"is_reserved":false,"is_disabled":false,"rental_uris":{"android":"levelo://app?vid=27099203-d06f-49c9-b470-13f269bf1b3c","ios":"levelo://app?vid=27099203-d06f-49c9-b470-13f269bf1b3c"},"vehicle_type_id":"4","last_reported":1726830489,"current_range_meters":24000,"station_id":"ce4bh9p2rcd13ifvqec0","pricing_plan_id":"cebpf4jnsgd1na2vs0mg"},{"bike_id":"e5775a31-6017-486d-8798-8f97ed149910","system_id":"levelo_inurba_marseille","lat":43.29972,"lon":5.37172,"is_reserved":false,"is_disabled":false,"rental_uris":{"android":"levelo://app?vid=e5775a31-6017-486d-8798-8f97ed149910","ios":"levelo://app?vid=e5775a31-6017-486d-8798-8f97ed149910"},"vehicle_type_id":"4","last_reported":1726830489,"current_range_meters":32000,"station_id":"ce4bgr92rcd13ifvqc7g","pricing_plan_id":"cebpf4jnsgd1na2vs0mg"},{"bike_id":"470d5d03-2251-4f98-9029-c3fecaef5730","system_id":"levelo_inurba_marseille","lat":43.23965,"lon":5.36638,"is_reserved":false,"is_disabled":false,"rental_uris":{"android":"levelo://app?vid=470d5d03-2251-4f98-9029-c3fecaef5730","ios":"levelo://app?vid=470d5d03-2251-4f98-9029-c3fecaef5730"},"vehicle_type_id":"4","last_reported":1726830489,"current_range_meters":32800,"station_id":"ce4bhi12rcd13ifvqfp0","pricing_plan_id":"cebpf4jnsgd1na2vs0mg"},{"bike_id":"5835972c-3486-46b5-af58-e2444cd3592d","system_id":"levelo_inurba_marseille","lat":43.30534,"lon":5.367,"is_reserved":false,"is_disabled":false,"rental_uris":{"android":"levelo://app?vid=5835972c-3486-46b5-af58-e2444cd3592d","ios":"levelo://app?vid=5835972c-3486-46b5-af58-e2444cd3592d"},"vehicle_type_id":"4","last_reported":1726830489,"current_range_meters":38800,"station_id":"ce4bgrp2rcd13ifvqc9g","pricing_plan_id":"cebpf4jnsgd1na2vs0mg"},{"bike_id":"33175350-ce7e-46a6-ac26-49a7f32942e3","system_id":"levelo_inurba_marseille","lat":43.2781,"lon":5.40708,"is_reserved":false,"is_disabled":false,"rental_uris":{"android":"levelo://app?vid=33175350-ce7e-46a6-ac26-49a7f32942e3","ios":"levelo://app?vid=33175350-ce7e-46a6-ac26-49a7f32942e3"},"vehicle_type_id":"4","last_reported":1726830489,"current_range_meters":12400,"station_id":"ce4bhnh2rcd13ifvqgtg","pricing_plan_id":"cebpf4jnsgd1na2vs0mg"},{"bike_id":"12e2fc85-0f6e-4f1b-9340-edf60c172101","system_id":"levelo_inurba_marseille","lat":43.326599,"lon":5.409936,"is_reserved":false,"is_disabled":false,"rental_uris":{"android":"levelo://app?vid=12e2fc85-0f6e-4f1b-9340-edf60c172101","ios":"levelo://app?vid=12e2fc85-0f6e-4f1b-9340-edf60c172101"},"vehicle_type_id":"4","last_reported":1726830489,"current_range_meters":25600,"station_id":"ce4bhqh2rcd13ifvqhmg","pricing_plan_id":"cebpf4jnsgd1na2vs0mg"},{"bike_id":"6920811c-7c55-4ce0-a8d0-1d82822cb0d4","system_id":"levelo_inurba_marseille","lat":43.30899,"lon":5.36862,"is_reserved":false,"is_disabled":false,"rental_uris":{"android":"levelo://app?vid=6920811c-7c55-4ce0-a8d0-1d82822cb0d4","ios":"levelo://app?vid=6920811c-7c55-4ce0-a8d0-1d82822cb0d4"},"vehicle_type_id":"4","last_reported":1726830489,"current_range_meters":38800,"station_id":"ce4bgn92rcd13ifvqbvg","pricing_plan_id":"cebpf4jnsgd1na2vs0mg"},{"bike_id":"9e17731e-35d9-4aa0-92b3-bc18bc20078c","system_id":"levelo_inurba_marseille","lat":43.3095,"lon":5.39036,"is_reserved":false,"is_disabled":false,"rental_uris":{"android":"levelo://app?vid=9e17731e-35d9-4aa0-92b3-bc18bc20078c","ios":"levelo://app?vid=9e17731e-35d9-4aa0-92b3-bc18bc20078c"},"vehicle_type_id":"4","last_reported":1726830489,"current_range_meters":38400,"station_id":"ce4bgup2rcd13ifvqco0","pricing_plan_id":"cebpf4jnsgd1na2vs0mg"},{"bike_id":"64c7f9c8-d639-46b4-a7f1-d768cc0f801a","system_id":"levelo_inurba_marseille","lat":43.31483,"lon":5.37308,"is_reserved":false,"is_disabled":false,"rental_uris":{"android":"levelo://app?vid=64c7f9c8-d639-46b4-a7f1-d768cc0f801a","ios":"levelo://app?vid=64c7f9c8-d639-46b4-a7f1-d768cc0f801a"},"vehicle_type_id":"4","last_reported":1726830489,"current_range_meters":19600,"station_id":"ce4bgt12rcd13ifvqcd0","pricing_plan_id":"cebpf4jnsgd1na2vs0mg"},{"bike_id":"604c9531-be4f-4974-bfe2-bd7828d7386f","system_id":"levelo_inurba_marseille","lat":43.29896,"lon":5.43673,"is_reserved":false,"is_disabled":false,"rental_uris":{"android":"levelo://app?vid=604c9531-be4f-4974-bfe2-bd7828d7386f","ios":"levelo://app?vid=604c9531-be4f-4974-bfe2-bd7828d7386f"},"vehicle_type_id":"4","last_reported":1726830489,"current_range_meters":28400,"station_id":"ce4bhpp2rcd13ifvqhfg","pricing_plan_id":"cebpf4jnsgd1na2vs0mg"},{"bike_id":"44da3e59-dcf2-4354-910f-f3fece0ed467","system_id":"levelo_inurba_marseille","lat":43.27064,"lon":5.42275,"is_reserved":false,"is_disabled":false,"rental_uris":{"android":"levelo://app?vid=44da3e59-dcf2-4354-910f-f3fece0ed467","ios":"levelo://app?vid=44da3e59-dcf2-4354-910f-f3fece0ed467"},"vehicle_type_id":"4","last_reported":1726830489,"current_range_meters":37600,"station_id":"ce4bhk92rcd13ifvqgb0","pricing_plan_id":"cebpf4jnsgd1na2vs0mg"},{"bike_id":"eb2ef9af-e9bb-4b94-aee1-3fb33b5e66f9","system_id":"levelo_inurba_marseille","lat":43.27988,"lon":5.41654,"is_reserved":false,"is_disabled":false,"rental_uris":{"android":"levelo://app?vid=eb2ef9af-e9bb-4b94-aee1-3fb33b5e66f9","ios":"levelo://app?vid=eb2ef9af-e9bb-4b94-aee1-3fb33b5e66f9"},"vehicle_type_id":"4","last_reported":1726830489,"current_range_meters":36800,"station_id":"ce4bho12rcd13ifvqh1g","pricing_plan_id":"cebpf4jnsgd1na2vs0mg"},{"bike_id":"bbabc812-5d4f-4dde-ac4b-6c59e8a40a27","system_id":"levelo_inurba_marseille","lat":43.27492,"lon":5.4245,"is_reserved":false,"is_disabled":false,"rental_uris":{"android":"levelo://app?vid=bbabc812-5d4f-4dde-ac4b-6c59e8a40a27","ios":"levelo://app?vid=bbabc812-5d4f-4dde-ac4b-6c59e8a40a27"},"vehicle_type_id":"4","last_reported":1726830489,"current_range_meters":38800,"station_id":"ce4bhn92rcd13ifvqgrg","pricing_plan_id":"cebpf4jnsgd1na2vs0mg"},{"bike_id":"15bbdbd8-fa35-4790-b472-706c4e2f4e69","system_id":"levelo_inurba_marseille","lat":43.3053,"lon":5.37272,"is_reserved":false,"is_disabled":false,"rental_uris":{"android":"levelo://app?vid=15bbdbd8-fa35-4790-b472-706c4e2f4e69","ios":"levelo://app?vid=15bbdbd8-fa35-4790-b472-706c4e2f4e69"},"vehicle_type_id":"4","last_reported":1726830489,"current_range_meters":3600,"station_id":"","pricing_plan_id":"cebpf4jnsgd1na2vs0mg"},{"bike_id":"9f8649e2-75d2-4d09-94ee-538fd13f9680","system_id":"levelo_inurba_marseille","lat":43.33605,"lon":5.41021,"is_reserved":false,"is_disabled":false,"rental_uris":{"android":"levelo://app?vid=9f8649e2-75d2-4d09-94ee-538fd13f9680","ios":"levelo://app?vid=9f8649e2-75d2-4d09-94ee-538fd13f9680"},"vehicle_type_id":"4","last_reported":1726830489,"current_range_meters":39200,"station_id":"ce4bhqh2rcd13ifvqhmg","pricing_plan_id":"cebpf4jnsgd1na2vs0mg"},{"bike_id":"95b41d6d-fd81-42f3-8c2c-23df7314a0a1","system_id":"levelo_inurba_marseille","lat":43.25118,"lon":5.40312,"is_reserved":false,"is_disabled":false,"rental_uris":{"android":"levelo://app?vid=95b41d6d-fd81-42f3-8c2c-23df7314a0a1","ios":"levelo://app?vid=95b41d6d-fd81-42f3-8c2c-23df7314a0a1"},"vehicle_type_id":"4","last_reported":1726830489,"current_range_meters":21600,"station_id":"ce4bhlh2rcd13ifvqgig","pricing_plan_id":"cebpf4jnsgd1na2vs0mg"},{"bike_id":"f52d1c94-c030-445a-9a07-7b2bc903c0df","system_id":"levelo_inurba_marseille","lat":43.29853,"lon":5.36282,"is_reserved":false,"is_disabled":false,"rental_uris":{"android":"levelo://app?vid=f52d1c94-c030-445a-9a07-7b2bc903c0df","ios":"levelo://app?vid=f52d1c94-c030-445a-9a07-7b2bc903c0df"},"vehicle_type_id":"4","last_reported":1726830489,"current_range_meters":33200,"station_id":"ce4bgpp2rcd13ifvqc3g","pricing_plan_id":"cebpf4jnsgd1na2vs0mg"},{"bike_id":"d1b4f3cb-e909-4b02-88ad-6094c0feade0","system_id":"levelo_inurba_marseille","lat":43.30148,"lon":5.38077,"is_reserved":false,"is_disabled":false,"rental_uris":{"android":"levelo://app?vid=d1b4f3cb-e909-4b02-88ad-6094c0feade0","ios":"levelo://app?vid=d1b4f3cb-e909-4b02-88ad-6094c0feade0"},"vehicle_type_id":"4","last_reported":1726830489,"current_range_meters":17600,"station_id":"ce4bgjp2rcd13ifvqbh0","pricing_plan_id":"cebpf4jnsgd1na2vs0mg"},{"bike_id":"7b50d6d5-7fa5-437f-9bd0-20b7660c4900","system_id":"levelo_inurba_marseille","lat":43.23062,"lon":5.35482,"is_reserved":false,"is_disabled":false,"rental_uris":{"android":"levelo://app?vid=7b50d6d5-7fa5-437f-9bd0-20b7660c4900","ios":"levelo://app?vid=7b50d6d5-7fa5-437f-9bd0-20b7660c4900"},"vehicle_type_id":"4","last_reported":1726830489,"current_range_meters":24800,"station_id":"cpo3342slgdg3j2ifvpg","pricing_plan_id":"cebpf4jnsgd1na2vs0mg"},{"bike_id":"8bded9b1-4958-41a5-9529-392455536bc5","system_id":"levelo_inurba_marseille","lat":43.27487,"lon":5.42444,"is_reserved":false,"is_disabled":false,"rental_uris":{"android":"levelo://app?vid=8bded9b1-4958-41a5-9529-392455536bc5","ios":"levelo://app?vid=8bded9b1-4958-41a5-9529-392455536bc5"},"vehicle_type_id":"4","last_reported":1726830489,"current_range_meters":38800,"station_id":"ce4bhn92rcd13ifvqgrg","pricing_plan_id":"cebpf4jnsgd1na2vs0mg"},{"bike_id":"923be1b8-882a-445b-83fa-e72f0e039471","system_id":"levelo_inurba_marseille","lat":43.30537,"lon":5.36522,"is_reserved":false,"is_disabled":false,"rental_uris":{"android":"levelo://app?vid=923be1b8-882a-445b-83fa-e72f0e039471","ios":"levelo://app?vid=923be1b8-882a-445b-83fa-e72f0e039471"},"vehicle_type_id":"4","last_reported":1726830489,"current_range_meters":38800,"station_id":"ce4bgs12rcd13ifvqcag","pricing_plan_id":"cebpf4jnsgd1na2vs0mg"},{"bike_id":"b91c7ff5-1428-41a2-a550-297e9b6eb590","system_id":"levelo_inurba_marseille","lat":43.304404,"lon":5.389149,"is_reserved":false,"is_disabled":false,"rental_uris":{"android":"levelo://app?vid=b91c7ff5-1428-41a2-a550-297e9b6eb590","ios":"levelo://app?vid=b91c7ff5-1428-41a2-a550-297e9b6eb590"},"vehicle_type_id":"4","last_reported":1726830489,"current_range_meters":22800,"station_id":"ce4bgk12rcd13ifvqbi0","pricing_plan_id":"cebpf4jnsgd1na2vs0mg"},{"bike_id":"07082340-96c5-49f6-a7e4-4d0666898917","system_id":"levelo_inurba_marseille","lat":43.25865,"lon":5.39898,"is_reserved":false,"is_disabled":false,"rental_uris":{"android":"levelo://app?vid=07082340-96c5-49f6-a7e4-4d0666898917","ios":"levelo://app?vid=07082340-96c5-49f6-a7e4-4d0666898917"},"vehicle_type_id":"4","last_reported":1726830489,"current_range_meters":18000,"station_id":"ce4bhl92rcd13ifvqghg","pricing_plan_id":"cebpf4jnsgd1na2vs0mg"},{"bike_id":"4fa0ca0d-342c-4cd6-990b-f5e4ae40db2b","system_id":"levelo_inurba_marseille","lat":43.29963,"lon":5.41325,"is_reserved":false,"is_disabled":false,"rental_uris":{"android":"levelo://app?vid=4fa0ca0d-342c-4cd6-990b-f5e4ae40db2b","ios":"levelo://app?vid=4fa0ca0d-342c-4cd6-990b-f5e4ae40db2b"},"vehicle_type_id":"4","last_reported":1726830489,"current_range_meters":36400,"station_id":"ce4bhp12rcd13ifvqh9g","pricing_plan_id":"cebpf4jnsgd1na2vs0mg"},{"bike_id":"cd3eaafd-9606-46ca-8944-d5f34e2d95c6","system_id":"levelo_inurba_marseille","lat":43.2465,"lon":5.38907,"is_reserved":false,"is_disabled":false,"rental_uris":{"android":"levelo://app?vid=cd3eaafd-9606-46ca-8944-d5f34e2d95c6","ios":"levelo://app?vid=cd3eaafd-9606-46ca-8944-d5f34e2d95c6"},"vehicle_type_id":"4","last_reported":1726830489,"current_range_meters":39200,"station_id":"ce4bhg12rcd13ifvqf60","pricing_plan_id":"cebpf4jnsgd1na2vs0mg"},{"bike_id":"0e22d5a2-1a21-4e01-8fff-7c220578f054","system_id":"levelo_inurba_marseille","lat":43.29715,"lon":5.36592,"is_reserved":false,"is_disabled":false,"rental_uris":{"android":"levelo://app?vid=0e22d5a2-1a21-4e01-8fff-7c220578f054","ios":"levelo://app?vid=0e22d5a2-1a21-4e01-8fff-7c220578f054"},"vehicle_type_id":"4","last_reported":1726830489,"current_range_meters":12400,"station_id":"ce4bgn12rcd13ifvqbt0","pricing_plan_id":"cebpf4jnsgd1na2vs0mg"},{"bike_id":"550ed68e-9a8c-4d20-9301-6d3830817a4d","system_id":"levelo_inurba_marseille","lat":43.304546,"lon":5.378874,"is_reserved":false,"is_disabled":false,"rental_uris":{"android":"levelo://app?vid=550ed68e-9a8c-4d20-9301-6d3830817a4d","ios":"levelo://app?vid=550ed68e-9a8c-4d20-9301-6d3830817a4d"},"vehicle_type_id":"4","last_reported":1726830489,"current_range_meters":36000,"station_id":"ce4bgup2rcd13ifvqcn0","pricing_plan_id":"cebpf4jnsgd1na2vs0mg"},{"bike_id":"ab7a50a8-4512-41f2-bd14-659057694b8c","system_id":"levelo_inurba_marseille","lat":43.29097,"lon":5.38133,"is_reserved":false,"is_disabled":false,"rental_uris":{"android":"levelo://app?vid=ab7a50a8-4512-41f2-bd14-659057694b8c","ios":"levelo://app?vid=ab7a50a8-4512-41f2-bd14-659057694b8c"},"vehicle_type_id":"4","last_reported":1726830489,"current_range_meters":24000,"station_id":"ce4bh512rcd13ifvqe2g","pricing_plan_id":"cebpf4jnsgd1na2vs0mg"},{"bike_id":"f8571aad-5f92-4ec9-b9ed-faec8639629b","system_id":"levelo_inurba_marseille","lat":43.3362,"lon":5.41019,"is_reserved":false,"is_disabled":false,"rental_uris":{"android":"levelo://app?vid=f8571aad-5f92-4ec9-b9ed-faec8639629b","ios":"levelo://app?vid=f8571aad-5f92-4ec9-b9ed-faec8639629b"},"vehicle_type_id":"4","last_reported":1726830489,"current_range_meters":16800,"station_id":"ce4bhqh2rcd13ifvqhmg","pricing_plan_id":"cebpf4jnsgd1na2vs0mg"},{"bike_id":"79c66cf1-cd91-4389-b17f-aaf81e94c310","system_id":"levelo_inurba_marseille","lat":43.23151,"lon":5.43714,"is_reserved":false,"is_disabled":false,"rental_uris":{"android":"levelo://app?vid=79c66cf1-cd91-4389-b17f-aaf81e94c310","ios":"levelo://app?vid=79c66cf1-cd91-4389-b17f-aaf81e94c310"},"vehicle_type_id":"4","last_reported":1726830489,"current_range_meters":28400,"station_id":"ce4bhmp2rcd13ifvqgog","pricing_plan_id":"cebpf4jnsgd1na2vs0mg"},{"bike_id":"ab68b68d-fc44-42da-9f6a-e546bdeafb56","system_id":"levelo_inurba_marseille","lat":43.29983,"lon":5.3718,"is_reserved":false,"is_disabled":false,"rental_uris":{"android":"levelo://app?vid=ab68b68d-fc44-42da-9f6a-e546bdeafb56","ios":"levelo://app?vid=ab68b68d-fc44-42da-9f6a-e546bdeafb56"},"vehicle_type_id":"4","last_reported":1726830489,"current_range_meters":23200,"station_id":"ce4bgr92rcd13ifvqc7g","pricing_plan_id":"cebpf4jnsgd1na2vs0mg"},{"bike_id":"fe3adf86-5e5f-4120-aa0a-7f5e11c2687b","system_id":"levelo_inurba_marseille","lat":43.301704,"lon":5.380795,"is_reserved":false,"is_disabled":false,"rental_uris":{"android":"levelo://app?vid=fe3adf86-5e5f-4120-aa0a-7f5e11c2687b","ios":"levelo://app?vid=fe3adf86-5e5f-4120-aa0a-7f5e11c2687b"},"vehicle_type_id":"4","last_reported":1726830489,"current_range_meters":28000,"station_id":"ce4bh0p2rcd13ifvqd80","pricing_plan_id":"cebpf4jnsgd1na2vs0mg"},{"bike_id":"eb1171f2-348b-4c4f-8355-c239b05d4e51","system_id":"levelo_inurba_marseille","lat":43.28274,"lon":5.3507,"is_reserved":false,"is_disabled":false,"rental_uris":{"android":"levelo://app?vid=eb1171f2-348b-4c4f-8355-c239b05d4e51","ios":"levelo://app?vid=eb1171f2-348b-4c4f-8355-c239b05d4e51"},"vehicle_type_id":"4","last_reported":1726830489,"current_range_meters":24800,"station_id":"ce4bhbp2rcd13ifvqerg","pricing_plan_id":"cebpf4jnsgd1na2vs0mg"},{"bike_id":"784fdcbe-6bf3-4153-ad79-2c1d566f6193","system_id":"levelo_inurba_marseille","lat":43.23183,"lon":5.39983,"is_reserved":false,"is_disabled":false,"rental_uris":{"android":"levelo://app?vid=784fdcbe-6bf3-4153-ad79-2c1d566f6193","ios":"levelo://app?vid=784fdcbe-6bf3-4153-ad79-2c1d566f6193"},"vehicle_type_id":"4","last_reported":1726830489,"current_range_meters":30800,"station_id":"ce4bhn12rcd13ifvqgqg","pricing_plan_id":"cebpf4jnsgd1na2vs0mg"},{"bike_id":"5705acbc-d503-4f36-a9f5-13b5f18aa34d","system_id":"levelo_inurba_marseille","lat":43.23956,"lon":5.36648,"is_reserved":false,"is_disabled":false,"rental_uris":{"android":"levelo://app?vid=5705acbc-d503-4f36-a9f5-13b5f18aa34d","ios":"levelo://app?vid=5705acbc-d503-4f36-a9f5-13b5f18aa34d"},"vehicle_type_id":"4","last_reported":1726830489,"current_range_meters":35600,"station_id":"ce4bhi12rcd13ifvqfp0","pricing_plan_id":"cebpf4jnsgd1na2vs0mg"},{"bike_id":"00e526e2-50eb-42e1-aded-5554238a0edf","system_id":"levelo_inurba_marseille","lat":43.25499,"lon":5.37651,"is_reserved":false,"is_disabled":false,"rental_uris":{"android":"levelo://app?vid=00e526e2-50eb-42e1-aded-5554238a0edf","ios":"levelo://app?vid=00e526e2-50eb-42e1-aded-5554238a0edf"},"vehicle_type_id":"4","last_reported":1726830489,"current_range_meters":27200,"station_id":"ce4bhh12rcd13ifvqff0","pricing_plan_id":"cebpf4jnsgd1na2vs0mg"},{"bike_id":"d81012da-5a71-4aad-8702-cd0dce9b4389","system_id":"levelo_inurba_marseille","lat":43.25122,"lon":5.40314,"is_reserved":false,"is_disabled":false,"rental_uris":{"android":"levelo://app?vid=d81012da-5a71-4aad-8702-cd0dce9b4389","ios":"levelo://app?vid=d81012da-5a71-4aad-8702-cd0dce9b4389"},"vehicle_type_id":"4","last_reported":1726830489,"current_range_meters":8400,"station_id":"ce4bhlh2rcd13ifvqgig","pricing_plan_id":"cebpf4jnsgd1na2vs0mg"},{"bike_id":"3542f62e-a0f1-48ca-827b-79008293c554","system_id":"levelo_inurba_marseille","lat":43.29896,"lon":5.43672,"is_reserved":false,"is_disabled":false,"rental_uris":{"android":"levelo://app?vid=3542f62e-a0f1-48ca-827b-79008293c554","ios":"levelo://app?vid=3542f62e-a0f1-48ca-827b-79008293c554"},"vehicle_type_id":"4","last_reported":1726830489,"current_range_meters":18800,"station_id":"ce4bhpp2rcd13ifvqhfg","pricing_plan_id":"cebpf4jnsgd1na2vs0mg"},{"bike_id":"c4ea5858-e2b5-4f5a-8279-93561e2b8f84","system_id":"levelo_inurba_marseille","lat":43.26954,"lon":5.38627,"is_reserved":false,"is_disabled":false,"rental_uris":{"android":"levelo://app?vid=c4ea5858-e2b5-4f5a-8279-93561e2b8f84","ios":"levelo://app?vid=c4ea5858-e2b5-4f5a-8279-93561e2b8f84"},"vehicle_type_id":"4","last_reported":1726830489,"current_range_meters":24800,"station_id":"ce4bhh92rcd13ifvqfh0","pricing_plan_id":"cebpf4jnsgd1na2vs0mg"},{"bike_id":"c13ff766-262c-4508-8af3-1b606db9747b","system_id":"levelo_inurba_marseille","lat":43.29277,"lon":5.40121,"is_reserved":false,"is_disabled":false,"rental_uris":{"android":"levelo://app?vid=c13ff766-262c-4508-8af3-1b606db9747b","ios":"levelo://app?vid=c13ff766-262c-4508-8af3-1b606db9747b"},"vehicle_type_id":"4","last_reported":1726830489,"current_range_meters":28800,"station_id":"ce4bh312rcd13ifvqdk0","pricing_plan_id":"cebpf4jnsgd1na2vs0mg"},{"bike_id":"7b9dd459-340b-4978-bfb0-6c163a5263e8","system_id":"levelo_inurba_marseille","lat":43.2319,"lon":5.35547,"is_reserved":false,"is_disabled":false,"rental_uris":{"android":"levelo://app?vid=7b9dd459-340b-4978-bfb0-6c163a5263e8","ios":"levelo://app?vid=7b9dd459-340b-4978-bfb0-6c163a5263e8"},"vehicle_type_id":"4","last_reported":1726830489,"current_range_meters":38800,"station_id":"ce4bhu92rcd13ifvqi70","pricing_plan_id":"cebpf4jnsgd1na2vs0mg"},{"bike_id":"4f43dba0-3939-44ed-896a-3812c56c94e0","system_id":"levelo_inurba_marseille","lat":43.30159,"lon":5.38073,"is_reserved":false,"is_disabled":false,"rental_uris":{"android":"levelo://app?vid=4f43dba0-3939-44ed-896a-3812c56c94e0","ios":"levelo://app?vid=4f43dba0-3939-44ed-896a-3812c56c94e0"},"vehicle_type_id":"4","last_reported":1726830489,"current_range_meters":20000,"station_id":"ce4bgjp2rcd13ifvqbh0","pricing_plan_id":"cebpf4jnsgd1na2vs0mg"},{"bike_id":"bebc581e-05ca-41a8-a96a-d04c251f95ef","system_id":"levelo_inurba_marseille","lat":43.29851,"lon":5.36277,"is_reserved":false,"is_disabled":false,"rental_uris":{"android":"levelo://app?vid=bebc581e-05ca-41a8-a96a-d04c251f95ef","ios":"levelo://app?vid=bebc581e-05ca-41a8-a96a-d04c251f95ef"},"vehicle_type_id":"4","last_reported":1726830489,"current_range_meters":22000,"station_id":"ce4bgpp2rcd13ifvqc3g","pricing_plan_id":"cebpf4jnsgd1na2vs0mg"},{"bike_id":"30d03598-4584-4809-9303-434479df300e","system_id":"levelo_inurba_marseille","lat":43.3248,"lon":5.36564,"is_reserved":false,"is_disabled":false,"rental_uris":{"android":"levelo://app?vid=30d03598-4584-4809-9303-434479df300e","ios":"levelo://app?vid=30d03598-4584-4809-9303-434479df300e"},"vehicle_type_id":"4","last_reported":1726830489,"current_range_meters":30400,"station_id":"ce4bhs12rcd13ifvqhvg","pricing_plan_id":"cebpf4jnsgd1na2vs0mg"},{"bike_id":"59526314-6814-428f-9df0-ead1cf1c2777","system_id":"levelo_inurba_marseille","lat":43.2593,"lon":5.40919,"is_reserved":false,"is_disabled":false,"rental_uris":{"android":"levelo://app?vid=59526314-6814-428f-9df0-ead1cf1c2777","ios":"levelo://app?vid=59526314-6814-428f-9df0-ead1cf1c2777"},"vehicle_type_id":"4","last_reported":1726830489,"current_range_meters":34800,"station_id":"ce4bhm92rcd13ifvqglg","pricing_plan_id":"cebpf4jnsgd1na2vs0mg"},{"bike_id":"9ad1f347-8b9d-4c26-bc8d-69ca26d01741","system_id":"levelo_inurba_marseille","lat":43.272491,"lon":5.419784,"is_reserved":false,"is_disabled":false,"rental_uris":{"android":"levelo://app?vid=9ad1f347-8b9d-4c26-bc8d-69ca26d01741","ios":"levelo://app?vid=9ad1f347-8b9d-4c26-bc8d-69ca26d01741"},"vehicle_type_id":"4","last_reported":1726830489,"current_range_meters":28000,"station_id":"","pricing_plan_id":"cebpf4jnsgd1na2vs0mg"},{"bike_id":"9d6aad91-3bde-49e8-a584-69fb053fee45","system_id":"levelo_inurba_marseille","lat":43.27996,"lon":5.40011,"is_reserved":false,"is_disabled":false,"rental_uris":{"android":"levelo://app?vid=9d6aad91-3bde-49e8-a584-69fb053fee45","ios":"levelo://app?vid=9d6aad91-3bde-49e8-a584-69fb053fee45"},"vehicle_type_id":"4","last_reported":1726830489,"current_range_meters":24400,"station_id":"ce4bho92rcd13ifvqh4g","pricing_plan_id":"cebpf4jnsgd1na2vs0mg"},{"bike_id":"22b53565-1e73-40dd-9fb8-97e0d7d0e467","system_id":"levelo_inurba_marseille","lat":43.27208,"lon":5.39176,"is_reserved":false,"is_disabled":false,"rental_uris":{"android":"levelo://app?vid=22b53565-1e73-40dd-9fb8-97e0d7d0e467","ios":"levelo://app?vid=22b53565-1e73-40dd-9fb8-97e0d7d0e467"},"vehicle_type_id":"4","last_reported":1726830489,"current_range_meters":30000,"station_id":"ce4bhhp2rcd13ifvqfm0","pricing_plan_id":"cebpf4jnsgd1na2vs0mg"},{"bike_id":"0d0eb2d1-892c-4e7d-a380-542ff46b38da","system_id":"levelo_inurba_marseille","lat":43.31228,"lon":5.36853,"is_reserved":false,"is_disabled":false,"rental_uris":{"android":"levelo://app?vid=0d0eb2d1-892c-4e7d-a380-542ff46b38da","ios":"levelo://app?vid=0d0eb2d1-892c-4e7d-a380-542ff46b38da"},"vehicle_type_id":"4","last_reported":1726830489,"current_range_meters":3200,"station_id":"ce4bgl92rcd13ifvqbq0","pricing_plan_id":"cebpf4jnsgd1na2vs0mg"},{"bike_id":"36124a4a-9ab7-4909-880f-bad78bb9952e","system_id":"levelo_inurba_marseille","lat":43.26951,"lon":5.38631,"is_reserved":false,"is_disabled":false,"rental_uris":{"android":"levelo://app?vid=36124a4a-9ab7-4909-880f-bad78bb9952e","ios":"levelo://app?vid=36124a4a-9ab7-4909-880f-bad78bb9952e"},"vehicle_type_id":"4","last_reported":1726830489,"current_range_meters":9200,"station_id":"ce4bhh92rcd13ifvqfh0","pricing_plan_id":"cebpf4jnsgd1na2vs0mg"},{"bike_id":"37bde8e3-b94a-4823-a1a5-ea749c3c3611","system_id":"levelo_inurba_marseille","lat":43.30061,"lon":5.400882,"is_reserved":false,"is_disabled":false,"rental_uris":{"android":"levelo://app?vid=37bde8e3-b94a-4823-a1a5-ea749c3c3611","ios":"levelo://app?vid=37bde8e3-b94a-4823-a1a5-ea749c3c3611"},"vehicle_type_id":"4","last_reported":1726830489,"current_range_meters":33200,"station_id":"ce4bgvh2rcd13ifvqcs0","pricing_plan_id":"cebpf4jnsgd1na2vs0mg"},{"bike_id":"4686ce75-3414-42ac-8275-4c1f27b60516","system_id":"levelo_inurba_marseille","lat":43.27817,"lon":5.40721,"is_reserved":false,"is_disabled":false,"rental_uris":{"android":"levelo://app?vid=4686ce75-3414-42ac-8275-4c1f27b60516","ios":"levelo://app?vid=4686ce75-3414-42ac-8275-4c1f27b60516"},"vehicle_type_id":"4","last_reported":1726830489,"current_range_meters":33200,"station_id":"ce4bhnh2rcd13ifvqgtg","pricing_plan_id":"cebpf4jnsgd1na2vs0mg"},{"bike_id":"625efc9f-ff46-4ca3-aaac-13f8f46af8bc","system_id":"levelo_inurba_marseille","lat":43.30946,"lon":5.39028,"is_reserved":false,"is_disabled":false,"rental_uris":{"android":"levelo://app?vid=625efc9f-ff46-4ca3-aaac-13f8f46af8bc","ios":"levelo://app?vid=625efc9f-ff46-4ca3-aaac-13f8f46af8bc"},"vehicle_type_id":"4","last_reported":1726830489,"current_range_meters":32000,"station_id":"ce4bgup2rcd13ifvqco0","pricing_plan_id":"cebpf4jnsgd1na2vs0mg"},{"bike_id":"eb2bede7-1cfc-481d-95f0-4175f9ef21df","system_id":"levelo_inurba_marseille","lat":43.25946,"lon":5.40908,"is_reserved":false,"is_disabled":false,"rental_uris":{"android":"levelo://app?vid=eb2bede7-1cfc-481d-95f0-4175f9ef21df","ios":"levelo://app?vid=eb2bede7-1cfc-481d-95f0-4175f9ef21df"},"vehicle_type_id":"4","last_reported":1726830489,"current_range_meters":16400,"station_id":"ce4bhm92rcd13ifvqglg","pricing_plan_id":"cebpf4jnsgd1na2vs0mg"},{"bike_id":"e28d3b60-113b-4e6b-a860-6ecf9aa23df3","system_id":"levelo_inurba_marseille","lat":43.24814,"lon":5.37455,"is_reserved":false,"is_disabled":false,"rental_uris":{"android":"levelo://app?vid=e28d3b60-113b-4e6b-a860-6ecf9aa23df3","ios":"levelo://app?vid=e28d3b60-113b-4e6b-a860-6ecf9aa23df3"},"vehicle_type_id":"4","last_reported":1726830489,"current_range_meters":37600,"station_id":"ce4bhgh2rcd13ifvqfb0","pricing_plan_id":"cebpf4jnsgd1na2vs0mg"},{"bike_id":"8252c765-e1e7-4ef5-92fb-809ea1e6a090","system_id":"levelo_inurba_marseille","lat":43.30542,"lon":5.36538,"is_reserved":false,"is_disabled":false,"rental_uris":{"android":"levelo://app?vid=8252c765-e1e7-4ef5-92fb-809ea1e6a090","ios":"levelo://app?vid=8252c765-e1e7-4ef5-92fb-809ea1e6a090"},"vehicle_type_id":"4","last_reported":1726830489,"current_range_meters":18000,"station_id":"ce4bgs12rcd13ifvqcag","pricing_plan_id":"cebpf4jnsgd1na2vs0mg"},{"bike_id":"a7826af1-5493-4d54-b8e5-c6f03eda6171","system_id":"levelo_inurba_marseille","lat":43.336119,"lon":5.410279,"is_reserved":false,"is_disabled":false,"rental_uris":{"android":"levelo://app?vid=a7826af1-5493-4d54-b8e5-c6f03eda6171","ios":"levelo://app?vid=a7826af1-5493-4d54-b8e5-c6f03eda6171"},"vehicle_type_id":"4","last_reported":1726830489,"current_range_meters":37600,"station_id":"ce4bhqh2rcd13ifvqhmg","pricing_plan_id":"cebpf4jnsgd1na2vs0mg"},{"bike_id":"aacf3e54-ff54-4ca6-8daa-8710a0b15cda","system_id":"levelo_inurba_marseille","lat":43.29537,"lon":5.38541,"is_reserved":false,"is_disabled":false,"rental_uris":{"android":"levelo://app?vid=aacf3e54-ff54-4ca6-8daa-8710a0b15cda","ios":"levelo://app?vid=aacf3e54-ff54-4ca6-8daa-8710a0b15cda"},"vehicle_type_id":"4","last_reported":1726830489,"current_range_meters":17200,"station_id":"ce4bgih2rcd13ifvqba0","pricing_plan_id":"cebpf4jnsgd1na2vs0mg"},{"bike_id":"3f92bbb0-67da-49b7-a380-d3e998be8116","system_id":"levelo_inurba_marseille","lat":43.30534,"lon":5.367,"is_reserved":false,"is_disabled":false,"rental_uris":{"android":"levelo://app?vid=3f92bbb0-67da-49b7-a380-d3e998be8116","ios":"levelo://app?vid=3f92bbb0-67da-49b7-a380-d3e998be8116"},"vehicle_type_id":"4","last_reported":1726830489,"current_range_meters":38800,"station_id":"ce4bgrp2rcd13ifvqc9g","pricing_plan_id":"cebpf4jnsgd1na2vs0mg"},{"bike_id":"933a501f-7ce2-458d-b32a-6c6e4326e27e","system_id":"levelo_inurba_marseille","lat":43.30463,"lon":5.37909,"is_reserved":false,"is_disabled":false,"rental_uris":{"android":"levelo://app?vid=933a501f-7ce2-458d-b32a-6c6e4326e27e","ios":"levelo://app?vid=933a501f-7ce2-458d-b32a-6c6e4326e27e"},"vehicle_type_id":"4","last_reported":1726830489,"current_range_meters":8800,"station_id":"ce4bgup2rcd13ifvqcn0","pricing_plan_id":"cebpf4jnsgd1na2vs0mg"},{"bike_id":"990abad9-1a01-4243-9e26-ac9eb8c4524a","system_id":"levelo_inurba_marseille","lat":43.283531,"lon":5.384561,"is_reserved":false,"is_disabled":false,"rental_uris":{"android":"levelo://app?vid=990abad9-1a01-4243-9e26-ac9eb8c4524a","ios":"levelo://app?vid=990abad9-1a01-4243-9e26-ac9eb8c4524a"},"vehicle_type_id":"4","last_reported":1726830489,"current_range_meters":36000,"station_id":"ce4bh492rcd13ifvqdvg","pricing_plan_id":"cebpf4jnsgd1na2vs0mg"},{"bike_id":"c2e8779b-00aa-4830-87c8-0c9f9e6db303","system_id":"levelo_inurba_marseille","lat":43.27311,"lon":5.39086,"is_reserved":false,"is_disabled":false,"rental_uris":{"android":"levelo://app?vid=c2e8779b-00aa-4830-87c8-0c9f9e6db303","ios":"levelo://app?vid=c2e8779b-00aa-4830-87c8-0c9f9e6db303"},"vehicle_type_id":"4","last_reported":1726830489,"current_range_meters":38800,"station_id":"ce4bhgp2rcd13ifvqfe0","pricing_plan_id":"cebpf4jnsgd1na2vs0mg"},{"bike_id":"59bcf95b-4fb4-4ef5-bbe9-00138aa77003","system_id":"levelo_inurba_marseille","lat":43.24178,"lon":5.39731,"is_reserved":false,"is_disabled":false,"rental_uris":{"android":"levelo://app?vid=59bcf95b-4fb4-4ef5-bbe9-00138aa77003","ios":"levelo://app?vid=59bcf95b-4fb4-4ef5-bbe9-00138aa77003"},"vehicle_type_id":"4","last_reported":1726830489,"current_range_meters":17200,"station_id":"ce4bhn12rcd13ifvqgpg","pricing_plan_id":"cebpf4jnsgd1na2vs0mg"},{"bike_id":"c5c5f884-e978-4f39-a241-0a951b56d029","system_id":"levelo_inurba_marseille","lat":43.27809,"lon":5.40724,"is_reserved":false,"is_disabled":false,"rental_uris":{"android":"levelo://app?vid=c5c5f884-e978-4f39-a241-0a951b56d029","ios":"levelo://app?vid=c5c5f884-e978-4f39-a241-0a951b56d029"},"vehicle_type_id":"4","last_reported":1726830489,"current_range_meters":18800,"station_id":"ce4bhnh2rcd13ifvqgtg","pricing_plan_id":"cebpf4jnsgd1na2vs0mg"},{"bike_id":"f25109f3-e0f2-4d70-933b-8e573b3ed06b","system_id":"levelo_inurba_marseille","lat":43.30896,"lon":5.3686,"is_reserved":false,"is_disabled":false,"rental_uris":{"android":"levelo://app?vid=f25109f3-e0f2-4d70-933b-8e573b3ed06b","ios":"levelo://app?vid=f25109f3-e0f2-4d70-933b-8e573b3ed06b"},"vehicle_type_id":"4","last_reported":1726830489,"current_range_meters":23200,"station_id":"ce4bgn92rcd13ifvqbvg","pricing_plan_id":"cebpf4jnsgd1na2vs0mg"},{"bike_id":"72037a56-c2bf-484b-8809-02be3d933732","system_id":"levelo_inurba_marseille","lat":43.30464,"lon":5.37914,"is_reserved":false,"is_disabled":false,"rental_uris":{"android":"levelo://app?vid=72037a56-c2bf-484b-8809-02be3d933732","ios":"levelo://app?vid=72037a56-c2bf-484b-8809-02be3d933732"},"vehicle_type_id":"4","last_reported":1726830489,"current_range_meters":35200,"station_id":"ce4bgup2rcd13ifvqcn0","pricing_plan_id":"cebpf4jnsgd1na2vs0mg"},{"bike_id":"91b633fd-ca80-46fe-a667-8ec680fc1824","system_id":"levelo_inurba_marseille","lat":43.26216,"lon":5.37438,"is_reserved":false,"is_disabled":false,"rental_uris":{"android":"levelo://app?vid=91b633fd-ca80-46fe-a667-8ec680fc1824","ios":"levelo://app?vid=91b633fd-ca80-46fe-a667-8ec680fc1824"},"vehicle_type_id":"4","last_reported":1726830489,"current_range_meters":28800,"station_id":"ce4bhgp2rcd13ifvqfc0","pricing_plan_id":"cebpf4jnsgd1na2vs0mg"},{"bike_id":"db5bed51-afb9-4548-98e9-7b7ae226c501","system_id":"levelo_inurba_marseille","lat":43.33756,"lon":5.37453,"is_reserved":false,"is_disabled":false,"rental_uris":{"android":"levelo://app?vid=db5bed51-afb9-4548-98e9-7b7ae226c501","ios":"levelo://app?vid=db5bed51-afb9-4548-98e9-7b7ae226c501"},"vehicle_type_id":"4","last_reported":1726830489,"current_range_meters":15200,"station_id":"","pricing_plan_id":"cebpf4jnsgd1na2vs0mg"},{"bike_id":"d21af575-0fdf-4700-a391-c5c34595b368","system_id":"levelo_inurba_marseille","lat":43.269562,"lon":5.38626,"is_reserved":false,"is_disabled":false,"rental_uris":{"android":"levelo://app?vid=d21af575-0fdf-4700-a391-c5c34595b368","ios":"levelo://app?vid=d21af575-0fdf-4700-a391-c5c34595b368"},"vehicle_type_id":"4","last_reported":1726830489,"current_range_meters":34800,"station_id":"ce4bhh92rcd13ifvqfh0","pricing_plan_id":"cebpf4jnsgd1na2vs0mg"},{"bike_id":"fccc13a6-0c93-4f77-b2e7-ea873c779a4f","system_id":"levelo_inurba_marseille","lat":43.29902,"lon":5.43672,"is_reserved":false,"is_disabled":false,"rental_uris":{"android":"levelo://app?vid=fccc13a6-0c93-4f77-b2e7-ea873c779a4f","ios":"levelo://app?vid=fccc13a6-0c93-4f77-b2e7-ea873c779a4f"},"vehicle_type_id":"4","last_reported":1726830489,"current_range_meters":14800,"station_id":"ce4bhpp2rcd13ifvqhfg","pricing_plan_id":"cebpf4jnsgd1na2vs0mg"},{"bike_id":"8368288d-e29d-45c4-bc5d-b4dbd544c462","system_id":"levelo_inurba_marseille","lat":43.29097,"lon":5.3815,"is_reserved":false,"is_disabled":false,"rental_uris":{"android":"levelo://app?vid=8368288d-e29d-45c4-bc5d-b4dbd544c462","ios":"levelo://app?vid=8368288d-e29d-45c4-bc5d-b4dbd544c462"},"vehicle_type_id":"4","last_reported":1726830489,"current_range_meters":34000,"station_id":"ce4bh512rcd13ifvqe2g","pricing_plan_id":"cebpf4jnsgd1na2vs0mg"},{"bike_id":"beba5e97-d564-4507-9e54-86895310f001","system_id":"levelo_inurba_marseille","lat":43.312424,"lon":5.368463,"is_reserved":false,"is_disabled":false,"rental_uris":{"android":"levelo://app?vid=beba5e97-d564-4507-9e54-86895310f001","ios":"levelo://app?vid=beba5e97-d564-4507-9e54-86895310f001"},"vehicle_type_id":"4","last_reported":1726830489,"current_range_meters":38800,"station_id":"ce4bgl92rcd13ifvqbq0","pricing_plan_id":"cebpf4jnsgd1na2vs0mg"},{"bike_id":"f517892d-88a4-4cfb-a02c-6d94aaa0a40d","system_id":"levelo_inurba_marseille","lat":43.30611,"lon":5.37219,"is_reserved":false,"is_disabled":false,"rental_uris":{"android":"levelo://app?vid=f517892d-88a4-4cfb-a02c-6d94aaa0a40d","ios":"levelo://app?vid=f517892d-88a4-4cfb-a02c-6d94aaa0a40d"},"vehicle_type_id":"4","last_reported":1726830489,"current_range_meters":38800,"station_id":"ce4bgqh2rcd13ifvqc4g","pricing_plan_id":"cebpf4jnsgd1na2vs0mg"},{"bike_id":"b87c8417-c59f-418d-bd60-25eb8e63567c","system_id":"levelo_inurba_marseille","lat":43.30542,"lon":5.36704,"is_reserved":false,"is_disabled":false,"rental_uris":{"android":"levelo://app?vid=b87c8417-c59f-418d-bd60-25eb8e63567c","ios":"levelo://app?vid=b87c8417-c59f-418d-bd60-25eb8e63567c"},"vehicle_type_id":"4","last_reported":1726830489,"current_range_meters":25600,"station_id":"ce4bgrp2rcd13ifvqc9g","pricing_plan_id":"cebpf4jnsgd1na2vs0mg"},{"bike_id":"dfa25865-d491-4319-ac0d-4a43b0719215","system_id":"levelo_inurba_marseille","lat":43.3248,"lon":5.36572,"is_reserved":false,"is_disabled":false,"rental_uris":{"android":"levelo://app?vid=dfa25865-d491-4319-ac0d-4a43b0719215","ios":"levelo://app?vid=dfa25865-d491-4319-ac0d-4a43b0719215"},"vehicle_type_id":"4","last_reported":1726830489,"current_range_meters":6800,"station_id":"ce4bhs12rcd13ifvqhvg","pricing_plan_id":"cebpf4jnsgd1na2vs0mg"},{"bike_id":"ab3d89cc-aeab-4675-9ef4-8c1b2c0d043c","system_id":"levelo_inurba_marseille","lat":43.30799,"lon":5.38146,"is_reserved":false,"is_disabled":false,"rental_uris":{"android":"levelo://app?vid=ab3d89cc-aeab-4675-9ef4-8c1b2c0d043c","ios":"levelo://app?vid=ab3d89cc-aeab-4675-9ef4-8c1b2c0d043c"},"vehicle_type_id":"4","last_reported":1726830489,"current_range_meters":34800,"station_id":"ce4bgt12rcd13ifvqce0","pricing_plan_id":"cebpf4jnsgd1na2vs0mg"},{"bike_id":"58014cc6-4f39-4119-a8a0-cdc0e2507820","system_id":"levelo_inurba_marseille","lat":43.32292,"lon":5.38263,"is_reserved":false,"is_disabled":false,"rental_uris":{"android":"levelo://app?vid=58014cc6-4f39-4119-a8a0-cdc0e2507820","ios":"levelo://app?vid=58014cc6-4f39-4119-a8a0-cdc0e2507820"},"vehicle_type_id":"4","last_reported":1726830489,"current_range_meters":38800,"station_id":"ce4bhr12rcd13ifvqhqg","pricing_plan_id":"cebpf4jnsgd1na2vs0mg"},{"bike_id":"200a196f-1346-4aeb-82be-312cc855b96b","system_id":"levelo_inurba_marseille","lat":43.289429,"lon":5.366485,"is_reserved":false,"is_disabled":false,"rental_uris":{"android":"levelo://app?vid=200a196f-1346-4aeb-82be-312cc855b96b","ios":"levelo://app?vid=200a196f-1346-4aeb-82be-312cc855b96b"},"vehicle_type_id":"4","last_reported":1726830489,"current_range_meters":35600,"station_id":"ce4bhap2rcd13ifvqek0","pricing_plan_id":"cebpf4jnsgd1na2vs0mg"},{"bike_id":"da03c2fc-fcf2-4a2d-86b6-a27893e90ddc","system_id":"levelo_inurba_marseille","lat":43.301804,"lon":5.366192,"is_reserved":false,"is_disabled":false,"rental_uris":{"android":"levelo://app?vid=da03c2fc-fcf2-4a2d-86b6-a27893e90ddc","ios":"levelo://app?vid=da03c2fc-fcf2-4a2d-86b6-a27893e90ddc"},"vehicle_type_id":"4","last_reported":1726830489,"current_range_meters":23200,"station_id":"ce4bgrh2rcd13ifvqc8g","pricing_plan_id":"cebpf4jnsgd1na2vs0mg"},{"bike_id":"bce83964-771d-421d-a795-c2b376c5b9dc","system_id":"levelo_inurba_marseille","lat":43.23195,"lon":5.35547,"is_reserved":false,"is_disabled":false,"rental_uris":{"android":"levelo://app?vid=bce83964-771d-421d-a795-c2b376c5b9dc","ios":"levelo://app?vid=bce83964-771d-421d-a795-c2b376c5b9dc"},"vehicle_type_id":"4","last_reported":1726830489,"current_range_meters":18800,"station_id":"ce4bhu92rcd13ifvqi70","pricing_plan_id":"cebpf4jnsgd1na2vs0mg"},{"bike_id":"c857e4c6-221d-4e33-bb7b-025f64b0c624","system_id":"levelo_inurba_marseille","lat":43.28663,"lon":5.38665,"is_reserved":false,"is_disabled":false,"rental_uris":{"android":"levelo://app?vid=c857e4c6-221d-4e33-bb7b-025f64b0c624","ios":"levelo://app?vid=c857e4c6-221d-4e33-bb7b-025f64b0c624"},"vehicle_type_id":"4","last_reported":1726830489,"current_range_meters":38000,"station_id":"ce4bh492rcd13ifvqdug","pricing_plan_id":"cebpf4jnsgd1na2vs0mg"},{"bike_id":"cb49c27a-2b9a-49d1-8f5a-2b6637d73ada","system_id":"levelo_inurba_marseille","lat":43.23181,"lon":5.39987,"is_reserved":false,"is_disabled":false,"rental_uris":{"android":"levelo://app?vid=cb49c27a-2b9a-49d1-8f5a-2b6637d73ada","ios":"levelo://app?vid=cb49c27a-2b9a-49d1-8f5a-2b6637d73ada"},"vehicle_type_id":"4","last_reported":1726830489,"current_range_meters":27600,"station_id":"ce4bhn12rcd13ifvqgqg","pricing_plan_id":"cebpf4jnsgd1na2vs0mg"},{"bike_id":"6c648bdd-85eb-4664-b61b-fc07a11b6677","system_id":"levelo_inurba_marseille","lat":43.26553,"lon":5.37284,"is_reserved":false,"is_disabled":false,"rental_uris":{"android":"levelo://app?vid=6c648bdd-85eb-4664-b61b-fc07a11b6677","ios":"levelo://app?vid=6c648bdd-85eb-4664-b61b-fc07a11b6677"},"vehicle_type_id":"4","last_reported":1726830489,"current_range_meters":14400,"station_id":"ce4bhg12rcd13ifvqf70","pricing_plan_id":"cebpf4jnsgd1na2vs0mg"},{"bike_id":"63478cfc-fe19-4128-90c9-d9ff3e6b9a45","system_id":"levelo_inurba_marseille","lat":43.32365,"lon":5.38878,"is_reserved":false,"is_disabled":false,"rental_uris":{"android":"levelo://app?vid=63478cfc-fe19-4128-90c9-d9ff3e6b9a45","ios":"levelo://app?vid=63478cfc-fe19-4128-90c9-d9ff3e6b9a45"},"vehicle_type_id":"4","last_reported":1726830489,"current_range_meters":28800,"station_id":"ce4bhqp2rcd13ifvqhog","pricing_plan_id":"cebpf4jnsgd1na2vs0mg"},{"bike_id":"02e9ef01-324c-4bae-8381-4c354b052cab","system_id":"levelo_inurba_marseille","lat":43.33604,"lon":5.41027,"is_reserved":false,"is_disabled":false,"rental_uris":{"android":"levelo://app?vid=02e9ef01-324c-4bae-8381-4c354b052cab","ios":"levelo://app?vid=02e9ef01-324c-4bae-8381-4c354b052cab"},"vehicle_type_id":"4","last_reported":1726830489,"current_range_meters":20400,"station_id":"ce4bhqh2rcd13ifvqhmg","pricing_plan_id":"cebpf4jnsgd1na2vs0mg"},{"bike_id":"aa32cc67-5a5b-4c57-9c61-ae28812ba8de","system_id":"levelo_inurba_marseille","lat":43.26032,"lon":5.37548,"is_reserved":false,"is_disabled":false,"rental_uris":{"android":"levelo://app?vid=aa32cc67-5a5b-4c57-9c61-ae28812ba8de","ios":"levelo://app?vid=aa32cc67-5a5b-4c57-9c61-ae28812ba8de"},"vehicle_type_id":"4","last_reported":1726830489,"current_range_meters":25200,"station_id":"ce4bhgh2rcd13ifvqfa0","pricing_plan_id":"cebpf4jnsgd1na2vs0mg"},{"bike_id":"0f3ccdaf-b25c-4be3-9e89-9a2ff691b1e1","system_id":"levelo_inurba_marseille","lat":43.30147,"lon":5.38065,"is_reserved":false,"is_disabled":false,"rental_uris":{"android":"levelo://app?vid=0f3ccdaf-b25c-4be3-9e89-9a2ff691b1e1","ios":"levelo://app?vid=0f3ccdaf-b25c-4be3-9e89-9a2ff691b1e1"},"vehicle_type_id":"4","last_reported":1726830489,"current_range_meters":8400,"station_id":"ce4bgjp2rcd13ifvqbh0","pricing_plan_id":"cebpf4jnsgd1na2vs0mg"},{"bike_id":"e9871919-1eb4-4e34-b09a-ba31cfe71d77","system_id":"levelo_inurba_marseille","lat":43.30546,"lon":5.3843,"is_reserved":false,"is_disabled":false,"rental_uris":{"android":"levelo://app?vid=e9871919-1eb4-4e34-b09a-ba31cfe71d77","ios":"levelo://app?vid=e9871919-1eb4-4e34-b09a-ba31cfe71d77"},"vehicle_type_id":"4","last_reported":1726830489,"current_range_meters":39200,"station_id":"ce4bgg92rcd13ifvqb30","pricing_plan_id":"cebpf4jnsgd1na2vs0mg"},{"bike_id":"c01f25e8-ffde-4a51-808d-2138ce21a7c7","system_id":"levelo_inurba_marseille","lat":43.28937,"lon":5.36638,"is_reserved":false,"is_disabled":false,"rental_uris":{"android":"levelo://app?vid=c01f25e8-ffde-4a51-808d-2138ce21a7c7","ios":"levelo://app?vid=c01f25e8-ffde-4a51-808d-2138ce21a7c7"},"vehicle_type_id":"4","last_reported":1726830489,"current_range_meters":4800,"station_id":"ce4bhap2rcd13ifvqek0","pricing_plan_id":"cebpf4jnsgd1na2vs0mg"},{"bike_id":"fa2e946d-01fe-4bb4-a2b0-55af60a0bcec","system_id":"levelo_inurba_marseille","lat":43.33718,"lon":5.39181,"is_reserved":false,"is_disabled":false,"rental_uris":{"android":"levelo://app?vid=fa2e946d-01fe-4bb4-a2b0-55af60a0bcec","ios":"levelo://app?vid=fa2e946d-01fe-4bb4-a2b0-55af60a0bcec"},"vehicle_type_id":"4","last_reported":1726830489,"current_range_meters":36800,"station_id":"ce4bhr92rcd13ifvqhsg","pricing_plan_id":"cebpf4jnsgd1na2vs0mg"},{"bike_id":"c33add25-123c-4b36-8cf5-b7923beb3261","system_id":"levelo_inurba_marseille","lat":43.32488,"lon":5.36565,"is_reserved":false,"is_disabled":false,"rental_uris":{"android":"levelo://app?vid=c33add25-123c-4b36-8cf5-b7923beb3261","ios":"levelo://app?vid=c33add25-123c-4b36-8cf5-b7923beb3261"},"vehicle_type_id":"4","last_reported":1726830489,"current_range_meters":20800,"station_id":"ce4bhs12rcd13ifvqhvg","pricing_plan_id":"cebpf4jnsgd1na2vs0mg"},{"bike_id":"1556d40c-3bc6-4ccb-917c-cc814b98e117","system_id":"levelo_inurba_marseille","lat":43.2656,"lon":5.37288,"is_reserved":false,"is_disabled":false,"rental_uris":{"android":"levelo://app?vid=1556d40c-3bc6-4ccb-917c-cc814b98e117","ios":"levelo://app?vid=1556d40c-3bc6-4ccb-917c-cc814b98e117"},"vehicle_type_id":"4","last_reported":1726830489,"current_range_meters":17600,"station_id":"ce4bhg12rcd13ifvqf70","pricing_plan_id":"cebpf4jnsgd1na2vs0mg"},{"bike_id":"e017095a-dc6f-477b-96fe-0ef4d2ec84a9","system_id":"levelo_inurba_marseille","lat":43.32283,"lon":5.38273,"is_reserved":false,"is_disabled":false,"rental_uris":{"android":"levelo://app?vid=e017095a-dc6f-477b-96fe-0ef4d2ec84a9","ios":"levelo://app?vid=e017095a-dc6f-477b-96fe-0ef4d2ec84a9"},"vehicle_type_id":"4","last_reported":1726830489,"current_range_meters":35600,"station_id":"ce4bhr12rcd13ifvqhqg","pricing_plan_id":"cebpf4jnsgd1na2vs0mg"},{"bike_id":"c625af20-51bd-4fc4-b897-b9173e6f87c2","system_id":"levelo_inurba_marseille","lat":43.33014,"lon":5.39048,"is_reserved":false,"is_disabled":false,"rental_uris":{"android":"levelo://app?vid=c625af20-51bd-4fc4-b897-b9173e6f87c2","ios":"levelo://app?vid=c625af20-51bd-4fc4-b897-b9173e6f87c2"},"vehicle_type_id":"4","last_reported":1726830489,"current_range_meters":6000,"station_id":"ce4bhr92rcd13ifvqhrg","pricing_plan_id":"cebpf4jnsgd1na2vs0mg"},{"bike_id":"0e5b6226-cc86-49e8-8479-db86b3bb3a36","system_id":"levelo_inurba_marseille","lat":43.29706,"lon":5.36605,"is_reserved":false,"is_disabled":false,"rental_uris":{"android":"levelo://app?vid=0e5b6226-cc86-49e8-8479-db86b3bb3a36","ios":"levelo://app?vid=0e5b6226-cc86-49e8-8479-db86b3bb3a36"},"vehicle_type_id":"4","last_reported":1726830489,"current_range_meters":32400,"station_id":"ce4bgn12rcd13ifvqbt0","pricing_plan_id":"cebpf4jnsgd1na2vs0mg"},{"bike_id":"f0d6d77d-6366-4ba5-8461-df8c5d81e05b","system_id":"levelo_inurba_marseille","lat":43.30461,"lon":5.37898,"is_reserved":false,"is_disabled":false,"rental_uris":{"android":"levelo://app?vid=f0d6d77d-6366-4ba5-8461-df8c5d81e05b","ios":"levelo://app?vid=f0d6d77d-6366-4ba5-8461-df8c5d81e05b"},"vehicle_type_id":"4","last_reported":1726830489,"current_range_meters":19600,"station_id":"ce4bgup2rcd13ifvqcn0","pricing_plan_id":"cebpf4jnsgd1na2vs0mg"},{"bike_id":"f6afed58-cf55-4d3c-8813-dc533e765c78","system_id":"levelo_inurba_marseille","lat":43.33605,"lon":5.41022,"is_reserved":false,"is_disabled":false,"rental_uris":{"android":"levelo://app?vid=f6afed58-cf55-4d3c-8813-dc533e765c78","ios":"levelo://app?vid=f6afed58-cf55-4d3c-8813-dc533e765c78"},"vehicle_type_id":"4","last_reported":1726830489,"current_range_meters":9200,"station_id":"ce4bhqh2rcd13ifvqhmg","pricing_plan_id":"cebpf4jnsgd1na2vs0mg"},{"bike_id":"ad8247a2-dc12-444b-8345-df66ce7b2f49","system_id":"levelo_inurba_marseille","lat":43.30599,"lon":5.37216,"is_reserved":false,"is_disabled":false,"rental_uris":{"android":"levelo://app?vid=ad8247a2-dc12-444b-8345-df66ce7b2f49","ios":"levelo://app?vid=ad8247a2-dc12-444b-8345-df66ce7b2f49"},"vehicle_type_id":"4","last_reported":1726830489,"current_range_meters":28000,"station_id":"ce4bgqh2rcd13ifvqc4g","pricing_plan_id":"cebpf4jnsgd1na2vs0mg"},{"bike_id":"0271e760-394a-46af-97f8-ff6577a27277","system_id":"levelo_inurba_marseille","lat":43.3054,"lon":5.36541,"is_reserved":false,"is_disabled":false,"rental_uris":{"android":"levelo://app?vid=0271e760-394a-46af-97f8-ff6577a27277","ios":"levelo://app?vid=0271e760-394a-46af-97f8-ff6577a27277"},"vehicle_type_id":"4","last_reported":1726830489,"current_range_meters":22400,"station_id":"ce4bgs12rcd13ifvqcag","pricing_plan_id":"cebpf4jnsgd1na2vs0mg"},{"bike_id":"517aabc5-f8a6-4fe2-bcfc-9786db0d86c0","system_id":"levelo_inurba_marseille","lat":43.24081,"lon":5.37746,"is_reserved":false,"is_disabled":false,"rental_uris":{"android":"levelo://app?vid=517aabc5-f8a6-4fe2-bcfc-9786db0d86c0","ios":"levelo://app?vid=517aabc5-f8a6-4fe2-bcfc-9786db0d86c0"},"vehicle_type_id":"4","last_reported":1726830489,"current_range_meters":30800,"station_id":"ce4bhnp2rcd13ifvqgvg","pricing_plan_id":"cebpf4jnsgd1na2vs0mg"},{"bike_id":"67c0d9da-13b7-41ac-a1be-c7de728164e4","system_id":"levelo_inurba_marseille","lat":43.29559,"lon":5.42287,"is_reserved":false,"is_disabled":false,"rental_uris":{"android":"levelo://app?vid=67c0d9da-13b7-41ac-a1be-c7de728164e4","ios":"levelo://app?vid=67c0d9da-13b7-41ac-a1be-c7de728164e4"},"vehicle_type_id":"4","last_reported":1726830489,"current_range_meters":33600,"station_id":"ce4bhph2rcd13ifvqhdg","pricing_plan_id":"cebpf4jnsgd1na2vs0mg"},{"bike_id":"89017bcd-c426-4dd2-bf01-395ad32e46da","system_id":"levelo_inurba_marseille","lat":43.295715,"lon":5.37511,"is_reserved":false,"is_disabled":false,"rental_uris":{"android":"levelo://app?vid=89017bcd-c426-4dd2-bf01-395ad32e46da","ios":"levelo://app?vid=89017bcd-c426-4dd2-bf01-395ad32e46da"},"vehicle_type_id":"4","last_reported":1726830489,"current_range_meters":26800,"station_id":"ce4bgh92rcd13ifvqb50","pricing_plan_id":"cebpf4jnsgd1na2vs0mg"},{"bike_id":"fa690805-233a-4a70-a9f3-33f1b67cdb1f","system_id":"levelo_inurba_marseille","lat":43.32286,"lon":5.38256,"is_reserved":false,"is_disabled":false,"rental_uris":{"android":"levelo://app?vid=fa690805-233a-4a70-a9f3-33f1b67cdb1f","ios":"levelo://app?vid=fa690805-233a-4a70-a9f3-33f1b67cdb1f"},"vehicle_type_id":"4","last_reported":1726830489,"current_range_meters":18000,"station_id":"ce4bhr12rcd13ifvqhqg","pricing_plan_id":"cebpf4jnsgd1na2vs0mg"},{"bike_id":"4663405f-5579-4e4e-9dd6-b5d67e6fda03","system_id":"levelo_inurba_marseille","lat":43.3015,"lon":5.38073,"is_reserved":false,"is_disabled":false,"rental_uris":{"android":"levelo://app?vid=4663405f-5579-4e4e-9dd6-b5d67e6fda03","ios":"levelo://app?vid=4663405f-5579-4e4e-9dd6-b5d67e6fda03"},"vehicle_type_id":"4","last_reported":1726830489,"current_range_meters":38800,"station_id":"ce4bgjp2rcd13ifvqbh0","pricing_plan_id":"cebpf4jnsgd1na2vs0mg"},{"bike_id":"577e435a-f36c-4883-b6f0-c48021798d60","system_id":"levelo_inurba_marseille","lat":43.23152,"lon":5.43712,"is_reserved":false,"is_disabled":false,"rental_uris":{"android":"levelo://app?vid=577e435a-f36c-4883-b6f0-c48021798d60","ios":"levelo://app?vid=577e435a-f36c-4883-b6f0-c48021798d60"},"vehicle_type_id":"4","last_reported":1726830489,"current_range_meters":38800,"station_id":"ce4bhmp2rcd13ifvqgog","pricing_plan_id":"cebpf4jnsgd1na2vs0mg"},{"bike_id":"9205eb9c-8d6f-4228-9d94-a61eb2d3095f","system_id":"levelo_inurba_marseille","lat":43.30536,"lon":5.3653,"is_reserved":false,"is_disabled":false,"rental_uris":{"android":"levelo://app?vid=9205eb9c-8d6f-4228-9d94-a61eb2d3095f","ios":"levelo://app?vid=9205eb9c-8d6f-4228-9d94-a61eb2d3095f"},"vehicle_type_id":"4","last_reported":1726830489,"current_range_meters":11600,"station_id":"ce4bgs12rcd13ifvqcag","pricing_plan_id":"cebpf4jnsgd1na2vs0mg"},{"bike_id":"728a6da4-dd0c-42ed-bc4c-72c30d202825","system_id":"levelo_inurba_marseille","lat":43.32481,"lon":5.36558,"is_reserved":false,"is_disabled":false,"rental_uris":{"android":"levelo://app?vid=728a6da4-dd0c-42ed-bc4c-72c30d202825","ios":"levelo://app?vid=728a6da4-dd0c-42ed-bc4c-72c30d202825"},"vehicle_type_id":"4","last_reported":1726830489,"current_range_meters":27200,"station_id":"ce4bhs12rcd13ifvqhvg","pricing_plan_id":"cebpf4jnsgd1na2vs0mg"},{"bike_id":"74c4797f-d4f5-40cb-b93b-7c39426cd71e","system_id":"levelo_inurba_marseille","lat":43.298534,"lon":5.362924,"is_reserved":false,"is_disabled":false,"rental_uris":{"android":"levelo://app?vid=74c4797f-d4f5-40cb-b93b-7c39426cd71e","ios":"levelo://app?vid=74c4797f-d4f5-40cb-b93b-7c39426cd71e"},"vehicle_type_id":"4","last_reported":1726830489,"current_range_meters":34800,"station_id":"ce4bgpp2rcd13ifvqc3g","pricing_plan_id":"cebpf4jnsgd1na2vs0mg"},{"bike_id":"b2763354-ec6c-4733-8de6-6c4493759ae9","system_id":"levelo_inurba_marseille","lat":43.29089,"lon":5.40217,"is_reserved":false,"is_disabled":false,"rental_uris":{"android":"levelo://app?vid=b2763354-ec6c-4733-8de6-6c4493759ae9","ios":"levelo://app?vid=b2763354-ec6c-4733-8de6-6c4493759ae9"},"vehicle_type_id":"4","last_reported":1726830489,"current_range_meters":20800,"station_id":"","pricing_plan_id":"cebpf4jnsgd1na2vs0mg"},{"bike_id":"cc1cdf61-fb23-490b-93a7-8f9ed3bff0f5","system_id":"levelo_inurba_marseille","lat":43.27229,"lon":5.3908,"is_reserved":false,"is_disabled":false,"rental_uris":{"android":"levelo://app?vid=cc1cdf61-fb23-490b-93a7-8f9ed3bff0f5","ios":"levelo://app?vid=cc1cdf61-fb23-490b-93a7-8f9ed3bff0f5"},"vehicle_type_id":"4","last_reported":1726830489,"current_range_meters":8800,"station_id":"","pricing_plan_id":"cebpf4jnsgd1na2vs0mg"},{"bike_id":"ac70f898-127e-4be6-878a-f17419392429","system_id":"levelo_inurba_marseille","lat":43.30907,"lon":5.36854,"is_reserved":false,"is_disabled":false,"rental_uris":{"android":"levelo://app?vid=ac70f898-127e-4be6-878a-f17419392429","ios":"levelo://app?vid=ac70f898-127e-4be6-878a-f17419392429"},"vehicle_type_id":"4","last_reported":1726830489,"current_range_meters":38800,"station_id":"ce4bgn92rcd13ifvqbvg","pricing_plan_id":"cebpf4jnsgd1na2vs0mg"},{"bike_id":"a0c8d0be-7b43-44d2-a546-391398923a96","system_id":"levelo_inurba_marseille","lat":43.30801,"lon":5.43525,"is_reserved":false,"is_disabled":false,"rental_uris":{"android":"levelo://app?vid=a0c8d0be-7b43-44d2-a546-391398923a96","ios":"levelo://app?vid=a0c8d0be-7b43-44d2-a546-391398923a96"},"vehicle_type_id":"4","last_reported":1726830489,"current_range_meters":16400,"station_id":"ce4bhph2rcd13ifvqheg","pricing_plan_id":"cebpf4jnsgd1na2vs0mg"},{"bike_id":"e10f285e-8a9c-42a9-8a60-8abbf37160e6","system_id":"levelo_inurba_marseille","lat":43.29886,"lon":5.38902,"is_reserved":false,"is_disabled":false,"rental_uris":{"android":"levelo://app?vid=e10f285e-8a9c-42a9-8a60-8abbf37160e6","ios":"levelo://app?vid=e10f285e-8a9c-42a9-8a60-8abbf37160e6"},"vehicle_type_id":"4","last_reported":1726830489,"current_range_meters":24000,"station_id":"ce4bh392rcd13ifvqdl0","pricing_plan_id":"cebpf4jnsgd1na2vs0mg"},{"bike_id":"e1da043a-66a9-420b-a7d2-04faa266fa2f","system_id":"levelo_inurba_marseille","lat":43.28666,"lon":5.38659,"is_reserved":false,"is_disabled":false,"rental_uris":{"android":"levelo://app?vid=e1da043a-66a9-420b-a7d2-04faa266fa2f","ios":"levelo://app?vid=e1da043a-66a9-420b-a7d2-04faa266fa2f"},"vehicle_type_id":"4","last_reported":1726830489,"current_range_meters":11600,"station_id":"ce4bh492rcd13ifvqdug","pricing_plan_id":"cebpf4jnsgd1na2vs0mg"},{"bike_id":"fe780c9c-7e13-4b38-81ce-ea43f071d76c","system_id":"levelo_inurba_marseille","lat":43.23061,"lon":5.35495,"is_reserved":false,"is_disabled":false,"rental_uris":{"android":"levelo://app?vid=fe780c9c-7e13-4b38-81ce-ea43f071d76c","ios":"levelo://app?vid=fe780c9c-7e13-4b38-81ce-ea43f071d76c"},"vehicle_type_id":"4","last_reported":1726830489,"current_range_meters":30800,"station_id":"cpo3342slgdg3j2ifvpg","pricing_plan_id":"cebpf4jnsgd1na2vs0mg"},{"bike_id":"df26bd81-cd3d-4de2-8ca3-706d698f32af","system_id":"levelo_inurba_marseille","lat":43.32489,"lon":5.36564,"is_reserved":false,"is_disabled":false,"rental_uris":{"android":"levelo://app?vid=df26bd81-cd3d-4de2-8ca3-706d698f32af","ios":"levelo://app?vid=df26bd81-cd3d-4de2-8ca3-706d698f32af"},"vehicle_type_id":"4","last_reported":1726830489,"current_range_meters":9200,"station_id":"ce4bhs12rcd13ifvqhvg","pricing_plan_id":"cebpf4jnsgd1na2vs0mg"},{"bike_id":"e5e46a97-52e1-4613-ad24-eeeb29f0311c","system_id":"levelo_inurba_marseille","lat":43.310608,"lon":5.38353,"is_reserved":false,"is_disabled":false,"rental_uris":{"android":"levelo://app?vid=e5e46a97-52e1-4613-ad24-eeeb29f0311c","ios":"levelo://app?vid=e5e46a97-52e1-4613-ad24-eeeb29f0311c"},"vehicle_type_id":"4","last_reported":1726830489,"current_range_meters":26000,"station_id":"ce4bgv92rcd13ifvqcr0","pricing_plan_id":"cebpf4jnsgd1na2vs0mg"},{"bike_id":"8d800646-9abe-42b6-8b3a-3d5eee2f8a33","system_id":"levelo_inurba_marseille","lat":43.337444,"lon":5.374475,"is_reserved":false,"is_disabled":false,"rental_uris":{"android":"levelo://app?vid=8d800646-9abe-42b6-8b3a-3d5eee2f8a33","ios":"levelo://app?vid=8d800646-9abe-42b6-8b3a-3d5eee2f8a33"},"vehicle_type_id":"4","last_reported":1726830489,"current_range_meters":6000,"station_id":"","pricing_plan_id":"cebpf4jnsgd1na2vs0mg"},{"bike_id":"0653cb10-c12e-4c27-af75-8f3495a98f89","system_id":"levelo_inurba_marseille","lat":43.32286,"lon":5.38261,"is_reserved":false,"is_disabled":false,"rental_uris":{"android":"levelo://app?vid=0653cb10-c12e-4c27-af75-8f3495a98f89","ios":"levelo://app?vid=0653cb10-c12e-4c27-af75-8f3495a98f89"},"vehicle_type_id":"4","last_reported":1726830489,"current_range_meters":6400,"station_id":"ce4bhr12rcd13ifvqhqg","pricing_plan_id":"cebpf4jnsgd1na2vs0mg"},{"bike_id":"f70da415-1fb2-4ed4-98cb-0261a21f6989","system_id":"levelo_inurba_marseille","lat":43.23155,"lon":5.43721,"is_reserved":false,"is_disabled":false,"rental_uris":{"android":"levelo://app?vid=f70da415-1fb2-4ed4-98cb-0261a21f6989","ios":"levelo://app?vid=f70da415-1fb2-4ed4-98cb-0261a21f6989"},"vehicle_type_id":"4","last_reported":1726830489,"current_range_meters":10800,"station_id":"ce4bhmp2rcd13ifvqgog","pricing_plan_id":"cebpf4jnsgd1na2vs0mg"},{"bike_id":"650cb571-71d6-44c2-b972-ab62d7a6c967","system_id":"levelo_inurba_marseille","lat":43.295356,"lon":5.3854,"is_reserved":false,"is_disabled":false,"rental_uris":{"android":"levelo://app?vid=650cb571-71d6-44c2-b972-ab62d7a6c967","ios":"levelo://app?vid=650cb571-71d6-44c2-b972-ab62d7a6c967"},"vehicle_type_id":"4","last_reported":1726830489,"current_range_meters":38800,"station_id":"ce4bgr92rcd13ifvqc7g","pricing_plan_id":"cebpf4jnsgd1na2vs0mg"},{"bike_id":"53e6a2c8-0873-4dd3-a562-3683c172cb28","system_id":"levelo_inurba_marseille","lat":43.32342,"lon":5.40615,"is_reserved":false,"is_disabled":false,"rental_uris":{"android":"levelo://app?vid=53e6a2c8-0873-4dd3-a562-3683c172cb28","ios":"levelo://app?vid=53e6a2c8-0873-4dd3-a562-3683c172cb28"},"vehicle_type_id":"4","last_reported":1726830489,"current_range_meters":36400,"station_id":"ce4bhq92rcd13ifvqhjg","pricing_plan_id":"cebpf4jnsgd1na2vs0mg"},{"bike_id":"2ef068cd-707f-4df8-94c2-85530c48db9f","system_id":"levelo_inurba_marseille","lat":43.30612,"lon":5.3723,"is_reserved":false,"is_disabled":false,"rental_uris":{"android":"levelo://app?vid=2ef068cd-707f-4df8-94c2-85530c48db9f","ios":"levelo://app?vid=2ef068cd-707f-4df8-94c2-85530c48db9f"},"vehicle_type_id":"4","last_reported":1726830489,"current_range_meters":39200,"station_id":"ce4bgqh2rcd13ifvqc4g","pricing_plan_id":"cebpf4jnsgd1na2vs0mg"},{"bike_id":"c2c9a555-6ec8-4b92-b33e-073571605c93","system_id":"levelo_inurba_marseille","lat":43.23192,"lon":5.35546,"is_reserved":false,"is_disabled":false,"rental_uris":{"android":"levelo://app?vid=c2c9a555-6ec8-4b92-b33e-073571605c93","ios":"levelo://app?vid=c2c9a555-6ec8-4b92-b33e-073571605c93"},"vehicle_type_id":"4","last_reported":1726830489,"current_range_meters":27600,"station_id":"ce4bhu92rcd13ifvqi70","pricing_plan_id":"cebpf4jnsgd1na2vs0mg"},{"bike_id":"7423bf83-fed1-4906-99d8-9967fcb8911a","system_id":"levelo_inurba_marseille","lat":43.28154,"lon":5.42655,"is_reserved":false,"is_disabled":false,"rental_uris":{"android":"levelo://app?vid=7423bf83-fed1-4906-99d8-9967fcb8911a","ios":"levelo://app?vid=7423bf83-fed1-4906-99d8-9967fcb8911a"},"vehicle_type_id":"4","last_reported":1726830489,"current_range_meters":19200,"station_id":"ce4bhnh2rcd13ifvqgug","pricing_plan_id":"cebpf4jnsgd1na2vs0mg"},{"bike_id":"62997862-0566-49dc-92c6-a8477c05ade8","system_id":"levelo_inurba_marseille","lat":43.27073,"lon":5.42277,"is_reserved":false,"is_disabled":false,"rental_uris":{"android":"levelo://app?vid=62997862-0566-49dc-92c6-a8477c05ade8","ios":"levelo://app?vid=62997862-0566-49dc-92c6-a8477c05ade8"},"vehicle_type_id":"4","last_reported":1726830489,"current_range_meters":38000,"station_id":"ce4bhk92rcd13ifvqgb0","pricing_plan_id":"cebpf4jnsgd1na2vs0mg"},{"bike_id":"6bb79fa3-ee0a-4c93-b03f-99cea7e7b637","system_id":"levelo_inurba_marseille","lat":43.25105,"lon":5.4032,"is_reserved":false,"is_disabled":false,"rental_uris":{"android":"levelo://app?vid=6bb79fa3-ee0a-4c93-b03f-99cea7e7b637","ios":"levelo://app?vid=6bb79fa3-ee0a-4c93-b03f-99cea7e7b637"},"vehicle_type_id":"4","last_reported":1726830489,"current_range_meters":30000,"station_id":"ce4bhlh2rcd13ifvqgig","pricing_plan_id":"cebpf4jnsgd1na2vs0mg"},{"bike_id":"a1b6729d-f46c-48a3-8306-f0b5b4640f33","system_id":"levelo_inurba_marseille","lat":43.24077,"lon":5.3775,"is_reserved":false,"is_disabled":false,"rental_uris":{"android":"levelo://app?vid=a1b6729d-f46c-48a3-8306-f0b5b4640f33","ios":"levelo://app?vid=a1b6729d-f46c-48a3-8306-f0b5b4640f33"},"vehicle_type_id":"4","last_reported":1726830489,"current_range_meters":17200,"station_id":"ce4bhnp2rcd13ifvqgvg","pricing_plan_id":"cebpf4jnsgd1na2vs0mg"},{"bike_id":"17bd8ac4-0d95-4779-bbb8-391f4891bca8","system_id":"levelo_inurba_marseille","lat":43.240657,"lon":5.377499,"is_reserved":false,"is_disabled":false,"rental_uris":{"android":"levelo://app?vid=17bd8ac4-0d95-4779-bbb8-391f4891bca8","ios":"levelo://app?vid=17bd8ac4-0d95-4779-bbb8-391f4891bca8"},"vehicle_type_id":"4","last_reported":1726830489,"current_range_meters":26800,"station_id":"ce4bhnp2rcd13ifvqgvg","pricing_plan_id":"cebpf4jnsgd1na2vs0mg"},{"bike_id":"3ea8f54f-9145-4e7d-b8dd-375864b1fadc","system_id":"levelo_inurba_marseille","lat":43.3199,"lon":5.37202,"is_reserved":false,"is_disabled":false,"rental_uris":{"android":"levelo://app?vid=3ea8f54f-9145-4e7d-b8dd-375864b1fadc","ios":"levelo://app?vid=3ea8f54f-9145-4e7d-b8dd-375864b1fadc"},"vehicle_type_id":"4","last_reported":1726830489,"current_range_meters":14400,"station_id":"","pricing_plan_id":"cebpf4jnsgd1na2vs0mg"},{"bike_id":"b1dc2936-5bc9-425a-8309-218c49b9b072","system_id":"levelo_inurba_marseille","lat":43.29771,"lon":5.4053,"is_reserved":false,"is_disabled":false,"rental_uris":{"android":"levelo://app?vid=b1dc2936-5bc9-425a-8309-218c49b9b072","ios":"levelo://app?vid=b1dc2936-5bc9-425a-8309-218c49b9b072"},"vehicle_type_id":"4","last_reported":1726830489,"current_range_meters":2800,"station_id":"ce4bh0h2rcd13ifvqd60","pricing_plan_id":"cebpf4jnsgd1na2vs0mg"},{"bike_id":"10c394a9-8f08-42ac-8762-2a132a422f2b","system_id":"levelo_inurba_marseille","lat":43.29538,"lon":5.37505,"is_reserved":false,"is_disabled":false,"rental_uris":{"android":"levelo://app?vid=10c394a9-8f08-42ac-8762-2a132a422f2b","ios":"levelo://app?vid=10c394a9-8f08-42ac-8762-2a132a422f2b"},"vehicle_type_id":"4","last_reported":1726830489,"current_range_meters":10000,"station_id":"ce4bgkp2rcd13ifvqbmg","pricing_plan_id":"cebpf4jnsgd1na2vs0mg"},{"bike_id":"75daae73-f01b-4472-bdb7-f1c4ffdff51f","system_id":"levelo_inurba_marseille","lat":43.31353,"lon":5.38479,"is_reserved":false,"is_disabled":false,"rental_uris":{"android":"levelo://app?vid=75daae73-f01b-4472-bdb7-f1c4ffdff51f","ios":"levelo://app?vid=75daae73-f01b-4472-bdb7-f1c4ffdff51f"},"vehicle_type_id":"4","last_reported":1726830489,"current_range_meters":25200,"station_id":"ce4bgt92rcd13ifvqcf0","pricing_plan_id":"cebpf4jnsgd1na2vs0mg"},{"bike_id":"af79a70f-f6b8-4778-ab45-0f250d695a30","system_id":"levelo_inurba_marseille","lat":43.27998,"lon":5.41662,"is_reserved":false,"is_disabled":false,"rental_uris":{"android":"levelo://app?vid=af79a70f-f6b8-4778-ab45-0f250d695a30","ios":"levelo://app?vid=af79a70f-f6b8-4778-ab45-0f250d695a30"},"vehicle_type_id":"4","last_reported":1726830489,"current_range_meters":6400,"station_id":"ce4bho12rcd13ifvqh1g","pricing_plan_id":"cebpf4jnsgd1na2vs0mg"},{"bike_id":"768f7580-7c1f-4c4a-b9a5-c5bbe0d1c230","system_id":"levelo_inurba_marseille","lat":43.27072,"lon":5.42273,"is_reserved":false,"is_disabled":false,"rental_uris":{"android":"levelo://app?vid=768f7580-7c1f-4c4a-b9a5-c5bbe0d1c230","ios":"levelo://app?vid=768f7580-7c1f-4c4a-b9a5-c5bbe0d1c230"},"vehicle_type_id":"4","last_reported":1726830489,"current_range_meters":25600,"station_id":"ce4bhk92rcd13ifvqgb0","pricing_plan_id":"cebpf4jnsgd1na2vs0mg"},