{"last_updated":1734462416,"ttl":60,"version":"2.2","data":{"bikes":[{"bike_id":"b0bc7051-5be2-49f2-ad50-87d97057f988","system_id":"levelo_inurba_marseille","lat":43.29,"lon":5.35609,"is_reserved":false,"is_disabled":false,"rental_uris":{"android":"levelo://app?vid=b0bc7051-5be2-49f2-ad50-87d97057f988","ios":"levelo://app?vid=b0bc7051-5be2-49f2-ad50-87d97057f988"},"vehicle_type_id":"4","last_reported":1734462416,"current_range_meters":19200,"station_id":"ce4bhb92rcd13ifvqen0","pricing_plan_id":"cebpf4jnsgd1na2vs0mg"},{"bike_id":"6e2cce5a-7603-4843-a252-616f12793bbd","system_id":"levelo_inurba_marseille","lat":43.3108,"lon":5.42431,"is_reserved":false,"is_disabled":false,"rental_uris":{"android":"levelo://app?vid=6e2cce5a-7603-4843-a252-616f12793bbd","ios":"levelo://app?vid=6e2cce5a-7603-4843-a252-616f12793bbd"},"vehicle_type_id":"4","last_reported":1734462416,"current_range_meters":8400,"station_id":"ce4bhp92rcd13ifvqhag","pricing_plan_id":"cebpf4jnsgd1na2vs0mg"},{"bike_id":"df99d8de-50f7-4deb-b58a-cb5175498e3a","system_id":"levelo_inurba_marseille","lat":43.28033,"lon":5.36946,"is_reserved":false,"is_disabled":false,"rental_uris":{"android":"levelo://app?vid=df99d8de-50f7-4deb-b58a-cb5175498e3a","ios":"levelo://app?vid=df99d8de-50f7-4deb-b58a-cb5175498e3a"},"vehicle_type_id":"4","last_reported":1734462416,"current_range_meters":19200,"station_id":"ce4bha12rcd13ifvqef0","pricing_plan_id":"cebpf4jnsgd1na2vs0mg"},{"bike_id":"fc2fa04a-e722-4371-8749-69685a4b0890","system_id":"levelo_inurba_marseille","lat":43.2558,"lon":5.3823,"is_reserved":false,"is_disabled":false,"rental_uris":{"android":"levelo://app?vid=fc2fa04a-e722-4371-8749-69685a4b0890","ios":"levelo://app?vid=fc2fa04a-e722-4371-8749-69685a4b0890"},"vehicle_type_id":"4","last_reported":1734462416,"current_range_meters":19600,"station_id":"ce4bhih2rcd13ifvqfs0","pricing_plan_id":"cebpf4jnsgd1na2vs0mg"},{"bike_id":"b2fae302-f5eb-4bc2-b462-662e3f43cfa7","system_id":"levelo_inurba_marseille","lat":43.26938,"lon":5.40216,"is_reserved":false,"is_disabled":false,"rental_uris":{"android":"levelo://app?vid=b2fae302-f5eb-4bc2-b462-662e3f43cfa7","ios":"levelo://app?vid=b2fae302-f5eb-4bc2-b462-662e3f43cfa7"},"vehicle_type_id":"4","last_reported":1734462416,"current_range_meters":38800,"station_id":"cjm6bp8fraef2m0cb0m0","pricing_plan_id":"cebpf4jnsgd1na2vs0mg"},{"bike_id":"b1b1f756-c1a0-4e66-8530-9c85602c1813","system_id":"levelo_inurba_marseille","lat":43.32357,"lon":5.36746,"is_reserved":false,"is_disabled":false,"rental_uris":{"android":"levelo://app?vid=b1b1f756-c1a0-4e66-8530-9c85602c1813","ios":"levelo://app?vid=b1b1f756-c1a0-4e66-8530-9c85602c1813"},"vehicle_type_id":"4","last_reported":1734462416,"current_range_meters":22000,"station_id":"ce4bhsh2rcd13ifvqi2g","pricing_plan_id":"cebpf4jnsgd1na2vs0mg"},{"bike_id":"5c9d787a-ed08-4f6d-aae6-50e448cf550d","system_id":"levelo_inurba_marseille","lat":43.26025,"lon":5.37553,"is_reserved":false,"is_disabled":false,"rental_uris":{"android":"levelo://app?vid=5c9d787a-ed08-4f6d-aae6-50e448cf550d","ios":"levelo://app?vid=5c9d787a-ed08-4f6d-aae6-50e448cf550d"},"vehicle_type_id":"4","last_reported":1734462416,"current_range_meters":35600,"station_id":"ce4bhgh2rcd13ifvqfa0","pricing_plan_id":"cebpf4jnsgd1na2vs0mg"},{"bike_id":"20358b83-225d-4ff6-8386-f5d7e4ace024","system_id":"levelo_inurba_marseille","lat":43.30008,"lon":5.37744,"is_reserved":false,"is_disabled":true,"rental_uris":{"android":"levelo://app?vid=20358b83-225d-4ff6-8386-f5d7e4ace024","ios":"levelo://app?vid=20358b83-225d-4ff6-8386-f5d7e4ace024"},"vehicle_type_id":"4","last_reported":1734462416,"current_range_meters":6400,"station_id":"","pricing_plan_id":"cebpf4jnsgd1na2vs0mg"},{"bike_id":"32ca045d-fd09-487a-9da6-b65775acb879","system_id":"levelo_inurba_marseille","lat":43.29039,"lon":5.37579,"is_reserved":false,"is_disabled":false,"rental_uris":{"android":"levelo://app?vid=32ca045d-fd09-487a-9da6-b65775acb879","ios":"levelo://app?vid=32ca045d-fd09-487a-9da6-b65775acb879"},"vehicle_type_id":"4","last_reported":1734462416,"current_range_meters":28800,"station_id":"ce4bh692rcd13ifvqe90","pricing_plan_id":"cebpf4jnsgd1na2vs0mg"},{"bike_id":"2fbdd41c-1732-4e93-8819-1535f69b6924","system_id":"levelo_inurba_marseille","lat":43.30768,"lon":5.41325,"is_reserved":false,"is_disabled":false,"rental_uris":{"android":"levelo://app?vid=2fbdd41c-1732-4e93-8819-1535f69b6924","ios":"levelo://app?vid=2fbdd41c-1732-4e93-8819-1535f69b6924"},"vehicle_type_id":"4","last_reported":1734462416,"current_range_meters":6000,"station_id":"ce4bhop2rcd13ifvqh8g","pricing_plan_id":"cebpf4jnsgd1na2vs0mg"},{"bike_id":"a1d87d7d-ed48-4a44-9c8b-92cf1bccaa52","system_id":"levelo_inurba_marseille","lat":43.29021,"lon":5.38634,"is_reserved":false,"is_disabled":false,"rental_uris":{"android":"levelo://app?vid=a1d87d7d-ed48-4a44-9c8b-92cf1bccaa52","ios":"levelo://app?vid=a1d87d7d-ed48-4a44-9c8b-92cf1bccaa52"},"vehicle_type_id":"4","last_reported":1734462416,"current_range_meters":39200,"station_id":"ce4bh4p2rcd13ifvqe0g","pricing_plan_id":"cebpf4jnsgd1na2vs0mg"},{"bike_id":"4ef58d0d-8e30-4280-aa40-6d3ae5111f3b","system_id":"levelo_inurba_marseille","lat":43.30568,"lon":5.36911,"is_reserved":false,"is_disabled":false,"rental_uris":{"android":"levelo://app?vid=4ef58d0d-8e30-4280-aa40-6d3ae5111f3b","ios":"levelo://app?vid=4ef58d0d-8e30-4280-aa40-6d3ae5111f3b"},"vehicle_type_id":"4","last_reported":1734462416,"current_range_meters":37600,"station_id":"","pricing_plan_id":"cebpf4jnsgd1na2vs0mg"},{"bike_id":"9c7729aa-c053-42ee-8ae5-924a26089996","system_id":"levelo_inurba_marseille","lat":43.29006,"lon":5.35616,"is_reserved":false,"is_disabled":false,"rental_uris":{"android":"levelo://app?vid=9c7729aa-c053-42ee-8ae5-924a26089996","ios":"levelo://app?vid=9c7729aa-c053-42ee-8ae5-924a26089996"},"vehicle_type_id":"4","last_reported":1734462416,"current_range_meters":22000,"station_id":"ce4bhb92rcd13ifvqen0","pricing_plan_id":"cebpf4jnsgd1na2vs0mg"},{"bike_id":"217019ea-8c08-4175-aab7-04728a42bf44","system_id":"levelo_inurba_marseille","lat":43.29527,"lon":5.39049,"is_reserved":false,"is_disabled":false,"rental_uris":{"android":"levelo://app?vid=217019ea-8c08-4175-aab7-04728a42bf44","ios":"levelo://app?vid=217019ea-8c08-4175-aab7-04728a42bf44"},"vehicle_type_id":"4","last_reported":1734462416,"current_range_meters":12400,"station_id":"ce4bh3p2rcd13ifvqdp0","pricing_plan_id":"cebpf4jnsgd1na2vs0mg"},{"bike_id":"93d60b0e-d1be-4313-951f-229c23b27964","system_id":"levelo_inurba_marseille","lat":43.29883,"lon":5.38893,"is_reserved":false,"is_disabled":false,"rental_uris":{"android":"levelo://app?vid=93d60b0e-d1be-4313-951f-229c23b27964","ios":"levelo://app?vid=93d60b0e-d1be-4313-951f-229c23b27964"},"vehicle_type_id":"4","last_reported":1734462416,"current_range_meters":32400,"station_id":"ce4bh392rcd13ifvqdl0","pricing_plan_id":"cebpf4jnsgd1na2vs0mg"},{"bike_id":"bfe97e7b-6b0b-4bdc-83b9-1bac7752b9af","system_id":"levelo_inurba_marseille","lat":43.2885,"lon":5.35837,"is_reserved":false,"is_disabled":false,"rental_uris":{"android":"levelo://app?vid=bfe97e7b-6b0b-4bdc-83b9-1bac7752b9af","ios":"levelo://app?vid=bfe97e7b-6b0b-4bdc-83b9-1bac7752b9af"},"vehicle_type_id":"4","last_reported":1734462416,"current_range_meters":24800,"station_id":"ce4bhb12rcd13ifvqem0","pricing_plan_id":"cebpf4jnsgd1na2vs0mg"},{"bike_id":"d3e67600-6e90-473b-950e-5b65b2fcf70e","system_id":"levelo_inurba_marseille","lat":43.28572,"lon":5.39491,"is_reserved":false,"is_disabled":true,"rental_uris":{"android":"levelo://app?vid=d3e67600-6e90-473b-950e-5b65b2fcf70e","ios":"levelo://app?vid=d3e67600-6e90-473b-950e-5b65b2fcf70e"},"vehicle_type_id":"4","last_reported":1734462416,"current_range_meters":5600,"station_id":"ce4bh292rcd13ifvqdg0","pricing_plan_id":"cebpf4jnsgd1na2vs0mg"},{"bike_id":"33d5b731-57e7-485a-afa6-25f1ad322dc5","system_id":"levelo_inurba_marseille","lat":43.33023,"lon":5.39027,"is_reserved":false,"is_disabled":false,"rental_uris":{"android":"levelo://app?vid=33d5b731-57e7-485a-afa6-25f1ad322dc5","ios":"levelo://app?vid=33d5b731-57e7-485a-afa6-25f1ad322dc5"},"vehicle_type_id":"4","last_reported":1734462416,"current_range_meters":14000,"station_id":"ce4bhr92rcd13ifvqhrg","pricing_plan_id":"cebpf4jnsgd1na2vs0mg"},{"bike_id":"3581cbf2-1bdf-434e-90fb-5ae87912cf6b","system_id":"levelo_inurba_marseille","lat":43.24999,"lon":5.38927,"is_reserved":false,"is_disabled":false,"rental_uris":{"android":"levelo://app?vid=3581cbf2-1bdf-434e-90fb-5ae87912cf6b","ios":"levelo://app?vid=3581cbf2-1bdf-434e-90fb-5ae87912cf6b"},"vehicle_type_id":"4","last_reported":1734462416,"current_range_meters":15200,"station_id":"ce4bhgp2rcd13ifvqfd0","pricing_plan_id":"cebpf4jnsgd1na2vs0mg"},{"bike_id":"aacc7da2-1446-4d2a-aa32-e804470fc32d","system_id":"levelo_inurba_marseille","lat":43.29305,"lon":5.38365,"is_reserved":false,"is_disabled":true,"rental_uris":{"android":"levelo://app?vid=aacc7da2-1446-4d2a-aa32-e804470fc32d","ios":"levelo://app?vid=aacc7da2-1446-4d2a-aa32-e804470fc32d"},"vehicle_type_id":"4","last_reported":1734462416,"current_range_meters":20400,"station_id":"","pricing_plan_id":"cebpf4jnsgd1na2vs0mg"},{"bike_id":"937c90ec-cf04-465b-97b2-ee54435829e8","system_id":"levelo_inurba_marseille","lat":43.301974,"lon":5.366212,"is_reserved":false,"is_disabled":true,"rental_uris":{"android":"levelo://app?vid=937c90ec-cf04-465b-97b2-ee54435829e8","ios":"levelo://app?vid=937c90ec-cf04-465b-97b2-ee54435829e8"},"vehicle_type_id":"4","last_reported":1734462416,"current_range_meters":30400,"station_id":"","pricing_plan_id":"cebpf4jnsgd1na2vs0mg"},{"bike_id":"416c954d-4ddb-49b8-960d-ab7c39721994","system_id":"levelo_inurba_marseille","lat":43.29023,"lon":5.38146,"is_reserved":false,"is_disabled":false,"rental_uris":{"android":"levelo://app?vid=416c954d-4ddb-49b8-960d-ab7c39721994","ios":"levelo://app?vid=416c954d-4ddb-49b8-960d-ab7c39721994"},"vehicle_type_id":"4","last_reported":1734462416,"current_range_meters":39200,"station_id":"ce4bh4p2rcd13ifvqe1g","pricing_plan_id":"cebpf4jnsgd1na2vs0mg"},{"bike_id":"124e6c05-4926-4207-84f5-da69a7334d60","system_id":"levelo_inurba_marseille","lat":43.29027,"lon":5.381,"is_reserved":false,"is_disabled":true,"rental_uris":{"android":"levelo://app?vid=124e6c05-4926-4207-84f5-da69a7334d60","ios":"levelo://app?vid=124e6c05-4926-4207-84f5-da69a7334d60"},"vehicle_type_id":"4","last_reported":1734462416,"current_range_meters":37600,"station_id":"ce4bh4p2rcd13ifvqe1g","pricing_plan_id":"cebpf4jnsgd1na2vs0mg"},{"bike_id":"ff5b0ab4-08c8-4e9b-a0c1-e2513867b02e","system_id":"levelo_inurba_marseille","lat":43.29164,"lon":5.37146,"is_reserved":false,"is_disabled":false,"rental_uris":{"android":"levelo://app?vid=ff5b0ab4-08c8-4e9b-a0c1-e2513867b02e","ios":"levelo://app?vid=ff5b0ab4-08c8-4e9b-a0c1-e2513867b02e"},"vehicle_type_id":"4","last_reported":1734462416,"current_range_meters":24400,"station_id":"ce4bha92rcd13ifvqeh0","pricing_plan_id":"cebpf4jnsgd1na2vs0mg"},{"bike_id":"b56c4a15-79b4-43a7-be93-f93d9975d6ed","system_id":"levelo_inurba_marseille","lat":43.26933,"lon":5.40253,"is_reserved":false,"is_disabled":false,"rental_uris":{"android":"levelo://app?vid=b56c4a15-79b4-43a7-be93-f93d9975d6ed","ios":"levelo://app?vid=b56c4a15-79b4-43a7-be93-f93d9975d6ed"},"vehicle_type_id":"4","last_reported":1734462416,"current_range_meters":14400,"station_id":"cjm6bp8fraef2m0cb0m0","pricing_plan_id":"cebpf4jnsgd1na2vs0mg"},{"bike_id":"6f168e46-9648-41fc-b6a8-e041ecc91ce6","system_id":"levelo_inurba_marseille","lat":43.27002,"lon":5.39954,"is_reserved":false,"is_disabled":false,"rental_uris":{"android":"levelo://app?vid=6f168e46-9648-41fc-b6a8-e041ecc91ce6","ios":"levelo://app?vid=6f168e46-9648-41fc-b6a8-e041ecc91ce6"},"vehicle_type_id":"4","last_reported":1734462416,"current_range_meters":11200,"station_id":"","pricing_plan_id":"cebpf4jnsgd1na2vs0mg"},{"bike_id":"dc0e6df7-295d-4e62-8939-9c7a9d49b036","system_id":"levelo_inurba_marseille","lat":43.29952,"lon":5.41338,"is_reserved":false,"is_disabled":true,"rental_uris":{"android":"levelo://app?vid=dc0e6df7-295d-4e62-8939-9c7a9d49b036","ios":"levelo://app?vid=dc0e6df7-295d-4e62-8939-9c7a9d49b036"},"vehicle_type_id":"4","last_reported":1734462416,"current_range_meters":28800,"station_id":"ce4bhp12rcd13ifvqh9g","pricing_plan_id":"cebpf4jnsgd1na2vs0mg"},{"bike_id":"75acb14d-600d-40c2-a537-3d7ffd4fdfab","system_id":"levelo_inurba_marseille","lat":43.28929,"lon":5.38392,"is_reserved":false,"is_disabled":false,"rental_uris":{"android":"levelo://app?vid=75acb14d-600d-40c2-a537-3d7ffd4fdfab","ios":"levelo://app?vid=75acb14d-600d-40c2-a537-3d7ffd4fdfab"},"vehicle_type_id":"4","last_reported":1734462416,"current_range_meters":29600,"station_id":"ce4bh612rcd13ifvqe6g","pricing_plan_id":"cebpf4jnsgd1na2vs0mg"},{"bike_id":"0a63bca6-39a0-42cf-bc8f-cd65c34f24df","system_id":"levelo_inurba_marseille","lat":43.24645,"lon":5.38889,"is_reserved":false,"is_disabled":false,"rental_uris":{"android":"levelo://app?vid=0a63bca6-39a0-42cf-bc8f-cd65c34f24df","ios":"levelo://app?vid=0a63bca6-39a0-42cf-bc8f-cd65c34f24df"},"vehicle_type_id":"4","last_reported":1734462416,"current_range_meters":38400,"station_id":"ce4bhg12rcd13ifvqf60","pricing_plan_id":"cebpf4jnsgd1na2vs0mg"},{"bike_id":"e2785b46-005d-4949-9961-a81dd2290aed","system_id":"levelo_inurba_marseille","lat":43.32111,"lon":5.36766,"is_reserved":false,"is_disabled":false,"rental_uris":{"android":"levelo://app?vid=e2785b46-005d-4949-9961-a81dd2290aed","ios":"levelo://app?vid=e2785b46-005d-4949-9961-a81dd2290aed"},"vehicle_type_id":"4","last_reported":1734462416,"current_range_meters":21600,"station_id":"ce4bhrh2rcd13ifvqhug","pricing_plan_id":"cebpf4jnsgd1na2vs0mg"},{"bike_id":"ea1ee0a0-f240-4d25-84d9-e6fb6fc7a18c","system_id":"levelo_inurba_marseille","lat":43.33767,"lon":5.4209,"is_reserved":false,"is_disabled":true,"rental_uris":{"android":"levelo://app?vid=ea1ee0a0-f240-4d25-84d9-e6fb6fc7a18c","ios":"levelo://app?vid=ea1ee0a0-f240-4d25-84d9-e6fb6fc7a18c"},"vehicle_type_id":"4","last_reported":1734462416,"current_range_meters":0,"station_id":"","pricing_plan_id":"cebpf4jnsgd1na2vs0mg"},{"bike_id":"06c6e1cd-66a9-44f1-a613-032c381bdb70","system_id":"levelo_inurba_marseille","lat":43.284523,"lon":5.358867,"is_reserved":false,"is_disabled":false,"rental_uris":{"android":"levelo://app?vid=06c6e1cd-66a9-44f1-a613-032c381bdb70","ios":"levelo://app?vid=06c6e1cd-66a9-44f1-a613-032c381bdb70"},"vehicle_type_id":"4","last_reported":1734462416,"current_range_meters":25200,"station_id":"ce4bhah2rcd13ifvqei0","pricing_plan_id":"cebpf4jnsgd1na2vs0mg"},{"bike_id":"12b4b165-951a-4db7-8b79-0bc1787b0fa0","system_id":"levelo_inurba_marseille","lat":43.3176,"lon":5.39011,"is_reserved":false,"is_disabled":false,"rental_uris":{"android":"levelo://app?vid=12b4b165-951a-4db7-8b79-0bc1787b0fa0","ios":"levelo://app?vid=12b4b165-951a-4db7-8b79-0bc1787b0fa0"},"vehicle_type_id":"4","last_reported":1734462416,"current_range_meters":38800,"station_id":"ce4bhqp2rcd13ifvqhng","pricing_plan_id":"cebpf4jnsgd1na2vs0mg"},{"bike_id":"c8f79b9f-b6a3-42c1-83aa-cf20faccc3b4","system_id":"levelo_inurba_marseille","lat":43.266785,"lon":5.382693,"is_reserved":false,"is_disabled":true,"rental_uris":{"android":"levelo://app?vid=c8f79b9f-b6a3-42c1-83aa-cf20faccc3b4","ios":"levelo://app?vid=c8f79b9f-b6a3-42c1-83aa-cf20faccc3b4"},"vehicle_type_id":"4","last_reported":1734462416,"current_range_meters":36800,"station_id":"ce4bhg92rcd13ifvqf90","pricing_plan_id":"cebpf4jnsgd1na2vs0mg"},{"bike_id":"23c3b506-79ac-4092-bb57-adc1e55bc018","system_id":"levelo_inurba_marseille","lat":43.30324,"lon":5.40424,"is_reserved":false,"is_disabled":false,"rental_uris":{"android":"levelo://app?vid=23c3b506-79ac-4092-bb57-adc1e55bc018","ios":"levelo://app?vid=23c3b506-79ac-4092-bb57-adc1e55bc018"},"vehicle_type_id":"4","last_reported":1734462416,"current_range_meters":26800,"station_id":"ce4bh012rcd13ifvqd10","pricing_plan_id":"cebpf4jnsgd1na2vs0mg"},{"bike_id":"7576d304-84af-4138-9020-bbd407062ccb","system_id":"levelo_inurba_marseille","lat":43.30869,"lon":5.39633,"is_reserved":false,"is_disabled":false,"rental_uris":{"android":"levelo://app?vid=7576d304-84af-4138-9020-bbd407062ccb","ios":"levelo://app?vid=7576d304-84af-4138-9020-bbd407062ccb"},"vehicle_type_id":"4","last_reported":1734462416,"current_range_meters":37600,"station_id":"ce4bh012rcd13ifvqcv0","pricing_plan_id":"cebpf4jnsgd1na2vs0mg"},{"bike_id":"ef00e13f-569a-41fd-b53e-49adca3b054e","system_id":"levelo_inurba_marseille","lat":43.27491,"lon":5.42449,"is_reserved":false,"is_disabled":false,"rental_uris":{"android":"levelo://app?vid=ef00e13f-569a-41fd-b53e-49adca3b054e","ios":"levelo://app?vid=ef00e13f-569a-41fd-b53e-49adca3b054e"},"vehicle_type_id":"4","last_reported":1734462416,"current_range_meters":24800,"station_id":"ce4bhn92rcd13ifvqgrg","pricing_plan_id":"cebpf4jnsgd1na2vs0mg"},{"bike_id":"2b9e5232-81d0-497c-a52e-1e7fea60b29a","system_id":"levelo_inurba_marseille","lat":43.32359,"lon":5.38885,"is_reserved":false,"is_disabled":false,"rental_uris":{"android":"levelo://app?vid=2b9e5232-81d0-497c-a52e-1e7fea60b29a","ios":"levelo://app?vid=2b9e5232-81d0-497c-a52e-1e7fea60b29a"},"vehicle_type_id":"4","last_reported":1734462416,"current_range_meters":27600,"station_id":"ce4bhqp2rcd13ifvqhog","pricing_plan_id":"cebpf4jnsgd1na2vs0mg"},{"bike_id":"094e3e51-6139-4b83-8b74-4823607cc628","system_id":"levelo_inurba_marseille","lat":43.2783,"lon":5.3921,"is_reserved":false,"is_disabled":false,"rental_uris":{"android":"levelo://app?vid=094e3e51-6139-4b83-8b74-4823607cc628","ios":"levelo://app?vid=094e3e51-6139-4b83-8b74-4823607cc628"},"vehicle_type_id":"4","last_reported":1734462416,"current_range_meters":21600,"station_id":"ce4bhjp2rcd13ifvqga0","pricing_plan_id":"cebpf4jnsgd1na2vs0mg"},{"bike_id":"7d6ada81-fb94-4a18-91f8-d67d9c990c45","system_id":"levelo_inurba_marseille","lat":43.26489,"lon":5.39537,"is_reserved":false,"is_disabled":false,"rental_uris":{"android":"levelo://app?vid=7d6ada81-fb94-4a18-91f8-d67d9c990c45","ios":"levelo://app?vid=7d6ada81-fb94-4a18-91f8-d67d9c990c45"},"vehicle_type_id":"4","last_reported":1734462416,"current_range_meters":36400,"station_id":"ce4bhi12rcd13ifvqfq0","pricing_plan_id":"cebpf4jnsgd1na2vs0mg"},{"bike_id":"fdae6994-2b52-4fd0-8d8f-e92f1ee91c77","system_id":"levelo_inurba_marseille","lat":43.28456,"lon":5.35888,"is_reserved":false,"is_disabled":false,"rental_uris":{"android":"levelo://app?vid=fdae6994-2b52-4fd0-8d8f-e92f1ee91c77","ios":"levelo://app?vid=fdae6994-2b52-4fd0-8d8f-e92f1ee91c77"},"vehicle_type_id":"4","last_reported":1734462416,"current_range_meters":30800,"station_id":"ce4bhah2rcd13ifvqei0","pricing_plan_id":"cebpf4jnsgd1na2vs0mg"},{"bike_id":"d5bb5233-5c13-4106-a5af-af43f6e0c448","system_id":"levelo_inurba_marseille","lat":43.31366,"lon":5.38499,"is_reserved":false,"is_disabled":false,"rental_uris":{"android":"levelo://app?vid=d5bb5233-5c13-4106-a5af-af43f6e0c448","ios":"levelo://app?vid=d5bb5233-5c13-4106-a5af-af43f6e0c448"},"vehicle_type_id":"4","last_reported":1734462416,"current_range_meters":38400,"station_id":"ce4bgt92rcd13ifvqcf0","pricing_plan_id":"cebpf4jnsgd1na2vs0mg"},{"bike_id":"38f20744-af43-4445-b9c5-a52798357518","system_id":"levelo_inurba_marseille","lat":43.25495,"lon":5.37648,"is_reserved":false,"is_disabled":false,"rental_uris":{"android":"levelo://app?vid=38f20744-af43-4445-b9c5-a52798357518","ios":"levelo://app?vid=38f20744-af43-4445-b9c5-a52798357518"},"vehicle_type_id":"4","last_reported":1734462416,"current_range_meters":38000,"station_id":"ce4bhh12rcd13ifvqff0","pricing_plan_id":"cebpf4jnsgd1na2vs0mg"},{"bike_id":"ec2c0dcf-4728-4f9b-9bc8-6144c7c801b4","system_id":"levelo_inurba_marseille","lat":43.297,"lon":5.36608,"is_reserved":false,"is_disabled":false,"rental_uris":{"android":"levelo://app?vid=ec2c0dcf-4728-4f9b-9bc8-6144c7c801b4","ios":"levelo://app?vid=ec2c0dcf-4728-4f9b-9bc8-6144c7c801b4"},"vehicle_type_id":"4","last_reported":1734462416,"current_range_meters":30400,"station_id":"ce4bgn12rcd13ifvqbt0","pricing_plan_id":"cebpf4jnsgd1na2vs0mg"},{"bike_id":"6fd8b0a3-84ab-40d1-b0a7-834e6f4c59e8","system_id":"levelo_inurba_marseille","lat":43.286479,"lon":5.385483,"is_reserved":false,"is_disabled":false,"rental_uris":{"android":"levelo://app?vid=6fd8b0a3-84ab-40d1-b0a7-834e6f4c59e8","ios":"levelo://app?vid=6fd8b0a3-84ab-40d1-b0a7-834e6f4c59e8"},"vehicle_type_id":"4","last_reported":1734462416,"current_range_meters":36000,"station_id":"ce4bhgp2rcd13ifvqfe0","pricing_plan_id":"cebpf4jnsgd1na2vs0mg"},{"bike_id":"72d4b414-1c0b-4b57-b8af-489c8e296d05","system_id":"levelo_inurba_marseille","lat":43.29513,"lon":5.39408,"is_reserved":false,"is_disabled":false,"rental_uris":{"android":"levelo://app?vid=72d4b414-1c0b-4b57-b8af-489c8e296d05","ios":"levelo://app?vid=72d4b414-1c0b-4b57-b8af-489c8e296d05"},"vehicle_type_id":"4","last_reported":1734462416,"current_range_meters":22400,"station_id":"ce4bh292rcd13ifvqdf0","pricing_plan_id":"cebpf4jnsgd1na2vs0mg"},{"bike_id":"309d831f-115c-4adf-a559-0862791f9321","system_id":"levelo_inurba_marseille","lat":43.26551,"lon":5.39011,"is_reserved":false,"is_disabled":false,"rental_uris":{"android":"levelo://app?vid=309d831f-115c-4adf-a559-0862791f9321","ios":"levelo://app?vid=309d831f-115c-4adf-a559-0862791f9321"},"vehicle_type_id":"4","last_reported":1734462416,"current_range_meters":14800,"station_id":"ce4bhe12rcd13ifvqf30","pricing_plan_id":"cebpf4jnsgd1na2vs0mg"},{"bike_id":"798b9048-2d0c-4fec-948c-1ef5a62cda3d","system_id":"levelo_inurba_marseille","lat":43.28469,"lon":5.38406,"is_reserved":false,"is_disabled":false,"rental_uris":{"android":"levelo://app?vid=798b9048-2d0c-4fec-948c-1ef5a62cda3d","ios":"levelo://app?vid=798b9048-2d0c-4fec-948c-1ef5a62cda3d"},"vehicle_type_id":"4","last_reported":1734462416,"current_range_meters":38800,"station_id":"ce4bh512rcd13ifvqe3g","pricing_plan_id":"cebpf4jnsgd1na2vs0mg"},{"bike_id":"5e92ecb3-11f8-486e-b871-ed378b8cfd18","system_id":"levelo_inurba_marseille","lat":43.31287,"lon":5.40159,"is_reserved":false,"is_disabled":false,"rental_uris":{"android":"levelo://app?vid=5e92ecb3-11f8-486e-b871-ed378b8cfd18","ios":"levelo://app?vid=5e92ecb3-11f8-486e-b871-ed378b8cfd18"},"vehicle_type_id":"4","last_reported":1734462416,"current_range_meters":16000,"station_id":"ce4bh092rcd13ifvqd30","pricing_plan_id":"cebpf4jnsgd1na2vs0mg"},{"bike_id":"7b99b9e0-22f7-471f-89c6-bd1477871d42","system_id":"levelo_inurba_marseille","lat":43.26946,"lon":5.40241,"is_reserved":false,"is_disabled":false,"rental_uris":{"android":"levelo://app?vid=7b99b9e0-22f7-471f-89c6-bd1477871d42","ios":"levelo://app?vid=7b99b9e0-22f7-471f-89c6-bd1477871d42"},"vehicle_type_id":"4","last_reported":1734462416,"current_range_meters":39200,"station_id":"cjm6bp8fraef2m0cb0m0","pricing_plan_id":"cebpf4jnsgd1na2vs0mg"},{"bike_id":"45b39e50-137b-40ed-8099-af5b128ed6d9","system_id":"levelo_inurba_marseille","lat":43.29548,"lon":5.42283,"is_reserved":false,"is_disabled":false,"rental_uris":{"android":"levelo://app?vid=45b39e50-137b-40ed-8099-af5b128ed6d9","ios":"levelo://app?vid=45b39e50-137b-40ed-8099-af5b128ed6d9"},"vehicle_type_id":"4","last_reported":1734462416,"current_range_meters":22400,"station_id":"ce4bhph2rcd13ifvqhdg","pricing_plan_id":"cebpf4jnsgd1na2vs0mg"},{"bike_id":"29178437-6c99-4660-97f8-8e869a8bd3ad","system_id":"levelo_inurba_marseille","lat":43.29544,"lon":5.42281,"is_reserved":false,"is_disabled":false,"rental_uris":{"android":"levelo://app?vid=29178437-6c99-4660-97f8-8e869a8bd3ad","ios":"levelo://app?vid=29178437-6c99-4660-97f8-8e869a8bd3ad"},"vehicle_type_id":"4","last_reported":1734462416,"current_range_meters":35200,"station_id":"ce4bhph2rcd13ifvqhdg","pricing_plan_id":"cebpf4jnsgd1na2vs0mg"},{"bike_id":"77b045ec-31af-4db4-b5a1-524f94c3c261","system_id":"levelo_inurba_marseille","lat":43.29296,"lon":5.3744,"is_reserved":false,"is_disabled":true,"rental_uris":{"android":"levelo://app?vid=77b045ec-31af-4db4-b5a1-524f94c3c261","ios":"levelo://app?vid=77b045ec-31af-4db4-b5a1-524f94c3c261"},"vehicle_type_id":"4","last_reported":1734462416,"current_range_meters":35600,"station_id":"ce4bgi12rcd13ifvqb70","pricing_plan_id":"cebpf4jnsgd1na2vs0mg"},{"bike_id":"4f720f2b-c111-4327-aa85-323f2f97bdbe","system_id":"levelo_inurba_marseille","lat":43.27821,"lon":5.40716,"is_reserved":false,"is_disabled":false,"rental_uris":{"android":"levelo://app?vid=4f720f2b-c111-4327-aa85-323f2f97bdbe","ios":"levelo://app?vid=4f720f2b-c111-4327-aa85-323f2f97bdbe"},"vehicle_type_id":"4","last_reported":1734462416,"current_range_meters":36800,"station_id":"ce4bhnh2rcd13ifvqgtg","pricing_plan_id":"cebpf4jnsgd1na2vs0mg"},{"bike_id":"2bf4c27f-73f1-47b0-882f-c1c6ceb171f4","system_id":"levelo_inurba_marseille","lat":43.24075,"lon":5.37755,"is_reserved":false,"is_disabled":false,"rental_uris":{"android":"levelo://app?vid=2bf4c27f-73f1-47b0-882f-c1c6ceb171f4","ios":"levelo://app?vid=2bf4c27f-73f1-47b0-882f-c1c6ceb171f4"},"vehicle_type_id":"4","last_reported":1734462416,"current_range_meters":38000,"station_id":"ce4bhnp2rcd13ifvqgvg","pricing_plan_id":"cebpf4jnsgd1na2vs0mg"},{"bike_id":"11de44e4-fb7b-4b95-8378-6a52a6f6b88e","system_id":"levelo_inurba_marseille","lat":43.28999,"lon":5.35616,"is_reserved":false,"is_disabled":false,"rental_uris":{"android":"levelo://app?vid=11de44e4-fb7b-4b95-8378-6a52a6f6b88e","ios":"levelo://app?vid=11de44e4-fb7b-4b95-8378-6a52a6f6b88e"},"vehicle_type_id":"4","last_reported":1734462416,"current_range_meters":38000,"station_id":"ce4bhb92rcd13ifvqen0","pricing_plan_id":"cebpf4jnsgd1na2vs0mg"},{"bike_id":"c924f1da-0b5b-433e-ba6b-4dd553b18e64","system_id":"levelo_inurba_marseille","lat":43.27838,"lon":5.39206,"is_reserved":false,"is_disabled":false,"rental_uris":{"android":"levelo://app?vid=c924f1da-0b5b-433e-ba6b-4dd553b18e64","ios":"levelo://app?vid=c924f1da-0b5b-433e-ba6b-4dd553b18e64"},"vehicle_type_id":"4","last_reported":1734462416,"current_range_meters":38800,"station_id":"ce4bhjp2rcd13ifvqga0","pricing_plan_id":"cebpf4jnsgd1na2vs0mg"},{"bike_id":"7ac5424e-a731-49fe-826a-ac5d1fb7499c","system_id":"levelo_inurba_marseille","lat":43.29414,"lon":5.38601,"is_reserved":false,"is_disabled":true,"rental_uris":{"android":"levelo://app?vid=7ac5424e-a731-49fe-826a-ac5d1fb7499c","ios":"levelo://app?vid=7ac5424e-a731-49fe-826a-ac5d1fb7499c"},"vehicle_type_id":"4","last_reported":1734462416,"current_range_meters":800,"station_id":"ce4bh2h2rcd13ifvqdh0","pricing_plan_id":"cebpf4jnsgd1na2vs0mg"},{"bike_id":"6b70e963-d907-4c51-a2c6-099ccb4404de","system_id":"levelo_inurba_marseille","lat":43.28483,"lon":5.38565,"is_reserved":false,"is_disabled":false,"rental_uris":{"android":"levelo://app?vid=6b70e963-d907-4c51-a2c6-099ccb4404de","ios":"levelo://app?vid=6b70e963-d907-4c51-a2c6-099ccb4404de"},"vehicle_type_id":"4","last_reported":1734462416,"current_range_meters":7200,"station_id":"ce4bh8p2rcd13ifvqeb0","pricing_plan_id":"cebpf4jnsgd1na2vs0mg"},{"bike_id":"2d9f154d-4e16-47a5-83ec-a1fadbb6614c","system_id":"levelo_inurba_marseille","lat":43.27814,"lon":5.40723,"is_reserved":false,"is_disabled":false,"rental_uris":{"android":"levelo://app?vid=2d9f154d-4e16-47a5-83ec-a1fadbb6614c","ios":"levelo://app?vid=2d9f154d-4e16-47a5-83ec-a1fadbb6614c"},"vehicle_type_id":"4","last_reported":1734462416,"current_range_meters":12000,"station_id":"ce4bhnh2rcd13ifvqgtg","pricing_plan_id":"cebpf4jnsgd1na2vs0mg"},{"bike_id":"2c72483d-c892-45c7-8c54-f9657c8601fa","system_id":"levelo_inurba_marseille","lat":43.29572,"lon":5.37511,"is_reserved":false,"is_disabled":false,"rental_uris":{"android":"levelo://app?vid=2c72483d-c892-45c7-8c54-f9657c8601fa","ios":"levelo://app?vid=2c72483d-c892-45c7-8c54-f9657c8601fa"},"vehicle_type_id":"4","last_reported":1734462416,"current_range_meters":24400,"station_id":"ce4bgh92rcd13ifvqb50","pricing_plan_id":"cebpf4jnsgd1na2vs0mg"},{"bike_id":"939ef11f-362b-4ed3-aded-ebb978be04f1","system_id":"levelo_inurba_marseille","lat":43.27938,"lon":5.41034,"is_reserved":false,"is_disabled":false,"rental_uris":{"android":"levelo://app?vid=939ef11f-362b-4ed3-aded-ebb978be04f1","ios":"levelo://app?vid=939ef11f-362b-4ed3-aded-ebb978be04f1"},"vehicle_type_id":"4","last_reported":1734462416,"current_range_meters":32400,"station_id":"ce4bhnp2rcd13ifvqh0g","pricing_plan_id":"cebpf4jnsgd1na2vs0mg"},{"bike_id":"b16fc3c0-7191-4399-85f7-4bade21bafac","system_id":"levelo_inurba_marseille","lat":43.29301,"lon":5.37461,"is_reserved":false,"is_disabled":false,"rental_uris":{"android":"levelo://app?vid=b16fc3c0-7191-4399-85f7-4bade21bafac","ios":"levelo://app?vid=b16fc3c0-7191-4399-85f7-4bade21bafac"},"vehicle_type_id":"4","last_reported":1734462416,"current_range_meters":17200,"station_id":"ce4bgi12rcd13ifvqb70","pricing_plan_id":"cebpf4jnsgd1na2vs0mg"},{"bike_id":"399886e1-1fd8-45ef-b9a3-f32444b7db24","system_id":"levelo_inurba_marseille","lat":43.27322,"lon":5.39087,"is_reserved":false,"is_disabled":true,"rental_uris":{"android":"levelo://app?vid=399886e1-1fd8-45ef-b9a3-f32444b7db24","ios":"levelo://app?vid=399886e1-1fd8-45ef-b9a3-f32444b7db24"},"vehicle_type_id":"4","last_reported":1734462416,"current_range_meters":35200,"station_id":"ce4bhgp2rcd13ifvqfe0","pricing_plan_id":"cebpf4jnsgd1na2vs0mg"},{"bike_id":"e3ce2d3d-b2b0-44a8-8f1f-bdd326112222","system_id":"levelo_inurba_marseille","lat":43.30947,"lon":5.39038,"is_reserved":false,"is_disabled":false,"rental_uris":{"android":"levelo://app?vid=e3ce2d3d-b2b0-44a8-8f1f-bdd326112222","ios":"levelo://app?vid=e3ce2d3d-b2b0-44a8-8f1f-bdd326112222"},"vehicle_type_id":"4","last_reported":1734462416,"current_range_meters":2000,"station_id":"ce4bgup2rcd13ifvqco0","pricing_plan_id":"cebpf4jnsgd1na2vs0mg"},{"bike_id":"bf673e10-a449-4566-ae2c-76daf1c928cc","system_id":"levelo_inurba_marseille","lat":43.29296,"lon":5.37452,"is_reserved":false,"is_disabled":false,"rental_uris":{"android":"levelo://app?vid=bf673e10-a449-4566-ae2c-76daf1c928cc","ios":"levelo://app?vid=bf673e10-a449-4566-ae2c-76daf1c928cc"},"vehicle_type_id":"4","last_reported":1734462416,"current_range_meters":38800,"station_id":"ce4bgi12rcd13ifvqb70","pricing_plan_id":"cebpf4jnsgd1na2vs0mg"},{"bike_id":"a89983e0-2d82-45cd-a003-27e4945f9c99","system_id":"levelo_inurba_marseille","lat":43.28719,"lon":5.37942,"is_reserved":false,"is_disabled":false,"rental_uris":{"android":"levelo://app?vid=a89983e0-2d82-45cd-a003-27e4945f9c99","ios":"levelo://app?vid=a89983e0-2d82-45cd-a003-27e4945f9c99"},"vehicle_type_id":"4","last_reported":1734462416,"current_range_meters":22800,"station_id":"ce4bh9p2rcd13ifvqec0","pricing_plan_id":"cebpf4jnsgd1na2vs0mg"},{"bike_id":"cebb2fe6-dd82-4aa3-a8d5-f3291341a320","system_id":"levelo_inurba_marseille","lat":43.24675,"lon":5.38148,"is_reserved":false,"is_disabled":false,"rental_uris":{"android":"levelo://app?vid=cebb2fe6-dd82-4aa3-a8d5-f3291341a320","ios":"levelo://app?vid=cebb2fe6-dd82-4aa3-a8d5-f3291341a320"},"vehicle_type_id":"4","last_reported":1734462416,"current_range_meters":22000,"station_id":"ce4bhih2rcd13ifvqfr0","pricing_plan_id":"cebpf4jnsgd1na2vs0mg"},{"bike_id":"782bcbf2-b7de-4b04-bebc-aaa0329dd90c","system_id":"levelo_inurba_marseille","lat":43.23197,"lon":5.35558,"is_reserved":false,"is_disabled":false,"rental_uris":{"android":"levelo://app?vid=782bcbf2-b7de-4b04-bebc-aaa0329dd90c","ios":"levelo://app?vid=782bcbf2-b7de-4b04-bebc-aaa0329dd90c"},"vehicle_type_id":"4","last_reported":1734462416,"current_range_meters":38800,"station_id":"ce4bhu92rcd13ifvqi70","pricing_plan_id":"cebpf4jnsgd1na2vs0mg"},{"bike_id":"a925316d-9d31-43b0-a430-5cb1bef87372","system_id":"levelo_inurba_marseille","lat":43.27177,"lon":5.40996,"is_reserved":false,"is_disabled":false,"rental_uris":{"android":"levelo://app?vid=a925316d-9d31-43b0-a430-5cb1bef87372","ios":"levelo://app?vid=a925316d-9d31-43b0-a430-5cb1bef87372"},"vehicle_type_id":"4","last_reported":1734462416,"current_range_meters":24400,"station_id":"ce4bhl12rcd13ifvqgf0","pricing_plan_id":"cebpf4jnsgd1na2vs0mg"},{"bike_id":"540c19ab-e8ac-4092-909b-c3e5069b6978","system_id":"levelo_inurba_marseille","lat":43.337444,"lon":5.374475,"is_reserved":false,"is_disabled":true,"rental_uris":{"android":"levelo://app?vid=540c19ab-e8ac-4092-909b-c3e5069b6978","ios":"levelo://app?vid=540c19ab-e8ac-4092-909b-c3e5069b6978"},"vehicle_type_id":"4","last_reported":1734462416,"current_range_meters":0,"station_id":"","pricing_plan_id":"cebpf4jnsgd1na2vs0mg"},{"bike_id":"6d0fe413-c02d-44e5-bae7-4197d61df69e","system_id":"levelo_inurba_marseille","lat":43.29616,"lon":5.37151,"is_reserved":false,"is_disabled":false,"rental_uris":{"android":"levelo://app?vid=6d0fe413-c02d-44e5-bae7-4197d61df69e","ios":"levelo://app?vid=6d0fe413-c02d-44e5-bae7-4197d61df69e"},"vehicle_type_id":"4","last_reported":1734462416,"current_range_meters":36800,"station_id":"ce4bgnh2rcd13ifvqc0g","pricing_plan_id":"cebpf4jnsgd1na2vs0mg"},{"bike_id":"0e853b40-5ab0-423f-9897-613da707d815","system_id":"levelo_inurba_marseille","lat":43.2781,"lon":5.40711,"is_reserved":false,"is_disabled":false,"rental_uris":{"android":"levelo://app?vid=0e853b40-5ab0-423f-9897-613da707d815","ios":"levelo://app?vid=0e853b40-5ab0-423f-9897-613da707d815"},"vehicle_type_id":"4","last_reported":1734462416,"current_range_meters":9200,"station_id":"ce4bhnh2rcd13ifvqgtg","pricing_plan_id":"cebpf4jnsgd1na2vs0mg"},{"bike_id":"99b91171-fdca-426c-9c5c-0f1db2efdad6","system_id":"levelo_inurba_marseille","lat":43.278051,"lon":5.40704,"is_reserved":false,"is_disabled":false,"rental_uris":{"android":"levelo://app?vid=99b91171-fdca-426c-9c5c-0f1db2efdad6","ios":"levelo://app?vid=99b91171-fdca-426c-9c5c-0f1db2efdad6"},"vehicle_type_id":"4","last_reported":1734462416,"current_range_meters":38800,"station_id":"ce4bhnh2rcd13ifvqgtg","pricing_plan_id":"cebpf4jnsgd1na2vs0mg"},{"bike_id":"5b9dadf4-f3ef-496a-933f-556a1442196c","system_id":"levelo_inurba_marseille","lat":43.2794,"lon":5.4104,"is_reserved":false,"is_disabled":false,"rental_uris":{"android":"levelo://app?vid=5b9dadf4-f3ef-496a-933f-556a1442196c","ios":"levelo://app?vid=5b9dadf4-f3ef-496a-933f-556a1442196c"},"vehicle_type_id":"4","last_reported":1734462416,"current_range_meters":38800,"station_id":"ce4bhnp2rcd13ifvqh0g","pricing_plan_id":"cebpf4jnsgd1na2vs0mg"},{"bike_id":"52ab890a-0d03-4302-bf47-9d77d5300a88","system_id":"levelo_inurba_marseille","lat":43.26565,"lon":5.39009,"is_reserved":false,"is_disabled":false,"rental_uris":{"android":"levelo://app?vid=52ab890a-0d03-4302-bf47-9d77d5300a88","ios":"levelo://app?vid=52ab890a-0d03-4302-bf47-9d77d5300a88"},"vehicle_type_id":"4","last_reported":1734462416,"current_range_meters":32000,"station_id":"ce4bhe12rcd13ifvqf30","pricing_plan_id":"cebpf4jnsgd1na2vs0mg"},{"bike_id":"62c99ef1-ed98-40bb-9ebe-4b8107ad9967","system_id":"levelo_inurba_marseille","lat":43.28352,"lon":5.3811,"is_reserved":false,"is_disabled":false,"rental_uris":{"android":"levelo://app?vid=62c99ef1-ed98-40bb-9ebe-4b8107ad9967","ios":"levelo://app?vid=62c99ef1-ed98-40bb-9ebe-4b8107ad9967"},"vehicle_type_id":"4","last_reported":1734462416,"current_range_meters":8800,"station_id":"ce4bh412rcd13ifvqdr0","pricing_plan_id":"cebpf4jnsgd1na2vs0mg"},{"bike_id":"231d02a6-2d87-4003-b423-b0c95ba9dcc2","system_id":"levelo_inurba_marseille","lat":43.29259,"lon":5.38432,"is_reserved":false,"is_disabled":false,"rental_uris":{"android":"levelo://app?vid=231d02a6-2d87-4003-b423-b0c95ba9dcc2","ios":"levelo://app?vid=231d02a6-2d87-4003-b423-b0c95ba9dcc2"},"vehicle_type_id":"4","last_reported":1734462416,"current_range_meters":16400,"station_id":"ce4bh692rcd13ifvqea0","pricing_plan_id":"cebpf4jnsgd1na2vs0mg"},{"bike_id":"9f9cb961-3ac0-4df0-a2fb-386a8ee258ad","system_id":"levelo_inurba_marseille","lat":43.2955,"lon":5.39404,"is_reserved":false,"is_disabled":false,"rental_uris":{"android":"levelo://app?vid=9f9cb961-3ac0-4df0-a2fb-386a8ee258ad","ios":"levelo://app?vid=9f9cb961-3ac0-4df0-a2fb-386a8ee258ad"},"vehicle_type_id":"4","last_reported":1734462416,"current_range_meters":22000,"station_id":"ce4bh292rcd13ifvqdf0","pricing_plan_id":"cebpf4jnsgd1na2vs0mg"},{"bike_id":"60905cf6-bb92-471e-aa93-fb0de12e1178","system_id":"levelo_inurba_marseille","lat":43.26566,"lon":5.39013,"is_reserved":false,"is_disabled":false,"rental_uris":{"android":"levelo://app?vid=60905cf6-bb92-471e-aa93-fb0de12e1178","ios":"levelo://app?vid=60905cf6-bb92-471e-aa93-fb0de12e1178"},"vehicle_type_id":"4","last_reported":1734462416,"current_range_meters":20800,"station_id":"ce4bhe12rcd13ifvqf30","pricing_plan_id":"cebpf4jnsgd1na2vs0mg"},{"bike_id":"e40982b3-d070-4ac9-9d92-78dbbb3e6a49","system_id":"levelo_inurba_marseille","lat":43.29574,"lon":5.39961,"is_reserved":false,"is_disabled":false,"rental_uris":{"android":"levelo://app?vid=e40982b3-d070-4ac9-9d92-78dbbb3e6a49","ios":"levelo://app?vid=e40982b3-d070-4ac9-9d92-78dbbb3e6a49"},"vehicle_type_id":"4","last_reported":1734462416,"current_range_meters":24800,"station_id":"ce4bh312rcd13ifvqdj0","pricing_plan_id":"cebpf4jnsgd1na2vs0mg"},{"bike_id":"1adaea00-ed72-49a8-91bf-6c20e9f42f29","system_id":"levelo_inurba_marseille","lat":43.23187,"lon":5.39983,"is_reserved":false,"is_disabled":false,"rental_uris":{"android":"levelo://app?vid=1adaea00-ed72-49a8-91bf-6c20e9f42f29","ios":"levelo://app?vid=1adaea00-ed72-49a8-91bf-6c20e9f42f29"},"vehicle_type_id":"4","last_reported":1734462416,"current_range_meters":27600,"station_id":"ce4bhn12rcd13ifvqgqg","pricing_plan_id":"cebpf4jnsgd1na2vs0mg"},{"bike_id":"272c380d-0e96-4217-82cd-b4ae34bffa4a","system_id":"levelo_inurba_marseille","lat":43.26936,"lon":5.38929,"is_reserved":false,"is_disabled":true,"rental_uris":{"android":"levelo://app?vid=272c380d-0e96-4217-82cd-b4ae34bffa4a","ios":"levelo://app?vid=272c380d-0e96-4217-82cd-b4ae34bffa4a"},"vehicle_type_id":"4","last_reported":1734462416,"current_range_meters":27600,"station_id":"ce4bhhh2rcd13ifvqfl0","pricing_plan_id":"cebpf4jnsgd1na2vs0mg"},{"bike_id":"2e004d8c-43d5-4398-ab30-c544c8cd9a74","system_id":"levelo_inurba_marseille","lat":43.28924,"lon":5.38387,"is_reserved":false,"is_disabled":false,"rental_uris":{"android":"levelo://app?vid=2e004d8c-43d5-4398-ab30-c544c8cd9a74","ios":"levelo://app?vid=2e004d8c-43d5-4398-ab30-c544c8cd9a74"},"vehicle_type_id":"4","last_reported":1734462416,"current_range_meters":24000,"station_id":"ce4bh612rcd13ifvqe6g","pricing_plan_id":"cebpf4jnsgd1na2vs0mg"},{"bike_id":"4e61d9a1-ea06-4b46-8816-b58fded388ad","system_id":"levelo_inurba_marseille","lat":43.31167,"lon":5.38701,"is_reserved":false,"is_disabled":false,"rental_uris":{"android":"levelo://app?vid=4e61d9a1-ea06-4b46-8816-b58fded388ad","ios":"levelo://app?vid=4e61d9a1-ea06-4b46-8816-b58fded388ad"},"vehicle_type_id":"4","last_reported":1734462416,"current_range_meters":16400,"station_id":"ce4bgv12rcd13ifvqcp0","pricing_plan_id":"cebpf4jnsgd1na2vs0mg"},{"bike_id":"8737c40b-2ede-40d9-aa0c-a4c0270e1970","system_id":"levelo_inurba_marseille","lat":43.30535,"lon":5.3842,"is_reserved":false,"is_disabled":false,"rental_uris":{"android":"levelo://app?vid=8737c40b-2ede-40d9-aa0c-a4c0270e1970","ios":"levelo://app?vid=8737c40b-2ede-40d9-aa0c-a4c0270e1970"},"vehicle_type_id":"4","last_reported":1734462416,"current_range_meters":2800,"station_id":"ce4bgg92rcd13ifvqb30","pricing_plan_id":"cebpf4jnsgd1na2vs0mg"},{"bike_id":"00267bf4-cbb0-42ab-952a-10399cc5a2b7","system_id":"levelo_inurba_marseille","lat":43.31365,"lon":5.38504,"is_reserved":false,"is_disabled":false,"rental_uris":{"android":"levelo://app?vid=00267bf4-cbb0-42ab-952a-10399cc5a2b7","ios":"levelo://app?vid=00267bf4-cbb0-42ab-952a-10399cc5a2b7"},"vehicle_type_id":"4","last_reported":1734462416,"current_range_meters":19200,"station_id":"ce4bgt92rcd13ifvqcf0","pricing_plan_id":"cebpf4jnsgd1na2vs0mg"},{"bike_id":"fbda7b10-078d-4c58-b700-d8ffd9b7aad2","system_id":"levelo_inurba_marseille","lat":43.29793,"lon":5.38118,"is_reserved":false,"is_disabled":true,"rental_uris":{"android":"levelo://app?vid=fbda7b10-078d-4c58-b700-d8ffd9b7aad2","ios":"levelo://app?vid=fbda7b10-078d-4c58-b700-d8ffd9b7aad2"},"vehicle_type_id":"4","last_reported":1734462416,"current_range_meters":27200,"station_id":"ce4bgip2rcd13ifvqbb0","pricing_plan_id":"cebpf4jnsgd1na2vs0mg"},{"bike_id":"7c56283e-1709-4994-bddf-5f66a8a9ce1e","system_id":"levelo_inurba_marseille","lat":43.30145,"lon":5.38784,"is_reserved":false,"is_disabled":false,"rental_uris":{"android":"levelo://app?vid=7c56283e-1709-4994-bddf-5f66a8a9ce1e","ios":"levelo://app?vid=7c56283e-1709-4994-bddf-5f66a8a9ce1e"},"vehicle_type_id":"4","last_reported":1734462416,"current_range_meters":36400,"station_id":"ce4bhoh2rcd13ifvqh6g","pricing_plan_id":"cebpf4jnsgd1na2vs0mg"},{"bike_id":"e63ec124-f160-46c4-aad4-b0f59e1a5cf9","system_id":"levelo_inurba_marseille","lat":43.27989,"lon":5.41643,"is_reserved":false,"is_disabled":true,"rental_uris":{"android":"levelo://app?vid=e63ec124-f160-46c4-aad4-b0f59e1a5cf9","ios":"levelo://app?vid=e63ec124-f160-46c4-aad4-b0f59e1a5cf9"},"vehicle_type_id":"4","last_reported":1734462416,"current_range_meters":24800,"station_id":"ce4bho12rcd13ifvqh1g","pricing_plan_id":"cebpf4jnsgd1na2vs0mg"},{"bike_id":"0427bfa4-7c9f-485e-9901-c36b0591c06e","system_id":"levelo_inurba_marseille","lat":43.2621,"lon":5.37441,"is_reserved":false,"is_disabled":false,"rental_uris":{"android":"levelo://app?vid=0427bfa4-7c9f-485e-9901-c36b0591c06e","ios":"levelo://app?vid=0427bfa4-7c9f-485e-9901-c36b0591c06e"},"vehicle_type_id":"4","last_reported":1734462416,"current_range_meters":24000,"station_id":"ce4bhgp2rcd13ifvqfc0","pricing_plan_id":"cebpf4jnsgd1na2vs0mg"},{"bike_id":"397934ca-5d7e-45c3-abb7-f7b5dfc5e953","system_id":"levelo_inurba_marseille","lat":43.2742,"lon":5.39418,"is_reserved":false,"is_disabled":false,"rental_uris":{"android":"levelo://app?vid=397934ca-5d7e-45c3-abb7-f7b5dfc5e953","ios":"levelo://app?vid=397934ca-5d7e-45c3-abb7-f7b5dfc5e953"},"vehicle_type_id":"4","last_reported":1734462416,"current_range_meters":36400,"station_id":"ce4bhdp2rcd13ifvqf20","pricing_plan_id":"cebpf4jnsgd1na2vs0mg"},{"bike_id":"107928ce-875f-4354-be38-938d8ee3c7db","system_id":"levelo_inurba_marseille","lat":43.3127,"lon":5.4017,"is_reserved":false,"is_disabled":false,"rental_uris":{"android":"levelo://app?vid=107928ce-875f-4354-be38-938d8ee3c7db","ios":"levelo://app?vid=107928ce-875f-4354-be38-938d8ee3c7db"},"vehicle_type_id":"4","last_reported":1734462416,"current_range_meters":30000,"station_id":"ce4bh092rcd13ifvqd30","pricing_plan_id":"cebpf4jnsgd1na2vs0mg"},{"bike_id":"efb96ad3-4e63-4408-8c01-0772d5a4e18b","system_id":"levelo_inurba_marseille","lat":43.31333,"lon":5.39694,"is_reserved":false,"is_disabled":false,"rental_uris":{"android":"levelo://app?vid=efb96ad3-4e63-4408-8c01-0772d5a4e18b","ios":"levelo://app?vid=efb96ad3-4e63-4408-8c01-0772d5a4e18b"},"vehicle_type_id":"4","last_reported":1734462416,"current_range_meters":38800,"station_id":"ce4bgvp2rcd13ifvqcu0","pricing_plan_id":"cebpf4jnsgd1na2vs0mg"},{"bike_id":"7eb4e478-5fba-424d-92a9-308eb380fc21","system_id":"levelo_inurba_marseille","lat":43.28689,"lon":5.37387,"is_reserved":false,"is_disabled":false,"rental_uris":{"android":"levelo://app?vid=7eb4e478-5fba-424d-92a9-308eb380fc21","ios":"levelo://app?vid=7eb4e478-5fba-424d-92a9-308eb380fc21"},"vehicle_type_id":"4","last_reported":1734462416,"current_range_meters":32400,"station_id":"ce4bh3p2rcd13ifvqdq0","pricing_plan_id":"cebpf4jnsgd1na2vs0mg"},{"bike_id":"01a870cf-dd25-47e3-81a3-76239976dd64","system_id":"levelo_inurba_marseille","lat":43.27494,"lon":5.42453,"is_reserved":false,"is_disabled":false,"rental_uris":{"android":"levelo://app?vid=01a870cf-dd25-47e3-81a3-76239976dd64","ios":"levelo://app?vid=01a870cf-dd25-47e3-81a3-76239976dd64"},"vehicle_type_id":"4","last_reported":1734462416,"current_range_meters":15200,"station_id":"ce4bhn92rcd13ifvqgrg","pricing_plan_id":"cebpf4jnsgd1na2vs0mg"},{"bike_id":"3a946bb4-183f-4cbb-927a-33845a01d711","system_id":"levelo_inurba_marseille","lat":43.27428,"lon":5.39411,"is_reserved":false,"is_disabled":false,"rental_uris":{"android":"levelo://app?vid=3a946bb4-183f-4cbb-927a-33845a01d711","ios":"levelo://app?vid=3a946bb4-183f-4cbb-927a-33845a01d711"},"vehicle_type_id":"4","last_reported":1734462416,"current_range_meters":19200,"station_id":"ce4bhdp2rcd13ifvqf20","pricing_plan_id":"cebpf4jnsgd1na2vs0mg"},{"bike_id":"adafdbd0-71dd-4ec6-aa0a-aba8315cae01","system_id":"levelo_inurba_marseille","lat":43.28156,"lon":5.42647,"is_reserved":false,"is_disabled":false,"rental_uris":{"android":"levelo://app?vid=adafdbd0-71dd-4ec6-aa0a-aba8315cae01","ios":"levelo://app?vid=adafdbd0-71dd-4ec6-aa0a-aba8315cae01"},"vehicle_type_id":"4","last_reported":1734462416,"current_range_meters":10000,"station_id":"ce4bhnh2rcd13ifvqgug","pricing_plan_id":"cebpf4jnsgd1na2vs0mg"},{"bike_id":"68907ca0-038a-4705-886b-af6c122ac485","system_id":"levelo_inurba_marseille","lat":43.23183,"lon":5.39984,"is_reserved":false,"is_disabled":false,"rental_uris":{"android":"levelo://app?vid=68907ca0-038a-4705-886b-af6c122ac485","ios":"levelo://app?vid=68907ca0-038a-4705-886b-af6c122ac485"},"vehicle_type_id":"4","last_reported":1734462416,"current_range_meters":38800,"station_id":"ce4bhn12rcd13ifvqgqg","pricing_plan_id":"cebpf4jnsgd1na2vs0mg"},{"bike_id":"365066b7-87c9-4627-88a4-8981fb729058","system_id":"levelo_inurba_marseille","lat":43.29783,"lon":5.39333,"is_reserved":false,"is_disabled":false,"rental_uris":{"android":"levelo://app?vid=365066b7-87c9-4627-88a4-8981fb729058","ios":"levelo://app?vid=365066b7-87c9-4627-88a4-8981fb729058"},"vehicle_type_id":"4","last_reported":1734462416,"current_range_meters":30000,"station_id":"chh1huq6cuj3fo74tm60","pricing_plan_id":"cebpf4jnsgd1na2vs0mg"},{"bike_id":"9a02bd39-35d6-449c-b219-849e0dab7b05","system_id":"levelo_inurba_marseille","lat":43.2905,"lon":5.35901,"is_reserved":false,"is_disabled":false,"rental_uris":{"android":"levelo://app?vid=9a02bd39-35d6-449c-b219-849e0dab7b05","ios":"levelo://app?vid=9a02bd39-35d6-449c-b219-849e0dab7b05"},"vehicle_type_id":"4","last_reported":1734462416,"current_range_meters":29600,"station_id":"ce4bha92rcd13ifvqeg0","pricing_plan_id":"cebpf4jnsgd1na2vs0mg"},{"bike_id":"a852f14c-1573-40fe-bdb0-30bcf5f773fb","system_id":"levelo_inurba_marseille","lat":43.28617,"lon":5.35105,"is_reserved":false,"is_disabled":true,"rental_uris":{"android":"levelo://app?vid=a852f14c-1573-40fe-bdb0-30bcf5f773fb","ios":"levelo://app?vid=a852f14c-1573-40fe-bdb0-30bcf5f773fb"},"vehicle_type_id":"4","last_reported":1734462416,"current_range_meters":19600,"station_id":"ce4bhch2rcd13ifvqeug","pricing_plan_id":"cebpf4jnsgd1na2vs0mg"},{"bike_id":"6433e93f-3f14-4aae-8bd9-6ff38945bae4","system_id":"levelo_inurba_marseille","lat":43.3014,"lon":5.38799,"is_reserved":false,"is_disabled":false,"rental_uris":{"android":"levelo://app?vid=6433e93f-3f14-4aae-8bd9-6ff38945bae4","ios":"levelo://app?vid=6433e93f-3f14-4aae-8bd9-6ff38945bae4"},"vehicle_type_id":"4","last_reported":1734462416,"current_range_meters":14400,"station_id":"ce4bhoh2rcd13ifvqh6g","pricing_plan_id":"cebpf4jnsgd1na2vs0mg"},{"bike_id":"a2c9bcd7-2065-49aa-b9a8-350bb49c1ef2","system_id":"levelo_inurba_marseille","lat":43.3361,"lon":5.41032,"is_reserved":false,"is_disabled":false,"rental_uris":{"android":"levelo://app?vid=a2c9bcd7-2065-49aa-b9a8-350bb49c1ef2","ios":"levelo://app?vid=a2c9bcd7-2065-49aa-b9a8-350bb49c1ef2"},"vehicle_type_id":"4","last_reported":1734462416,"current_range_meters":28400,"station_id":"ce4bhqh2rcd13ifvqhmg","pricing_plan_id":"cebpf4jnsgd1na2vs0mg"},{"bike_id":"39b7e59f-b5a3-4722-91bb-8b43e65eec83","system_id":"levelo_inurba_marseille","lat":43.28935,"lon":5.36629,"is_reserved":false,"is_disabled":false,"rental_uris":{"android":"levelo://app?vid=39b7e59f-b5a3-4722-91bb-8b43e65eec83","ios":"levelo://app?vid=39b7e59f-b5a3-4722-91bb-8b43e65eec83"},"vehicle_type_id":"4","last_reported":1734462416,"current_range_meters":28800,"station_id":"ce4bhap2rcd13ifvqek0","pricing_plan_id":"cebpf4jnsgd1na2vs0mg"},{"bike_id":"bb337245-7c41-4671-900b-a4d92ae562c6","system_id":"levelo_inurba_marseille","lat":43.29489,"lon":5.39047,"is_reserved":false,"is_disabled":true,"rental_uris":{"android":"levelo://app?vid=bb337245-7c41-4671-900b-a4d92ae562c6","ios":"levelo://app?vid=bb337245-7c41-4671-900b-a4d92ae562c6"},"vehicle_type_id":"4","last_reported":1734462416,"current_range_meters":4800,"station_id":"ce4bh3p2rcd13ifvqdp0","pricing_plan_id":"cebpf4jnsgd1na2vs0mg"},{"bike_id":"03f2433f-a4ed-40f2-961d-b5adc5c08276","system_id":"levelo_inurba_marseille","lat":43.31121,"lon":5.37759,"is_reserved":false,"is_disabled":false,"rental_uris":{"android":"levelo://app?vid=03f2433f-a4ed-40f2-961d-b5adc5c08276","ios":"levelo://app?vid=03f2433f-a4ed-40f2-961d-b5adc5c08276"},"vehicle_type_id":"4","last_reported":1734462416,"current_range_meters":38800,"station_id":"ce4bgt92rcd13ifvqcg0","pricing_plan_id":"cebpf4jnsgd1na2vs0mg"},{"bike_id":"825c3fa1-32a2-4282-8294-9c46932dfb4e","system_id":"levelo_inurba_marseille","lat":43.28719,"lon":5.37951,"is_reserved":false,"is_disabled":false,"rental_uris":{"android":"levelo://app?vid=825c3fa1-32a2-4282-8294-9c46932dfb4e","ios":"levelo://app?vid=825c3fa1-32a2-4282-8294-9c46932dfb4e"},"vehicle_type_id":"4","last_reported":1734462416,"current_range_meters":8400,"station_id":"ce4bh9p2rcd13ifvqec0","pricing_plan_id":"cebpf4jnsgd1na2vs0mg"},{"bike_id":"7399fd58-5dfd-44fa-92b1-0692ace70e73","system_id":"levelo_inurba_marseille","lat":43.3009,"lon":5.37128,"is_reserved":false,"is_disabled":false,"rental_uris":{"android":"levelo://app?vid=7399fd58-5dfd-44fa-92b1-0692ace70e73","ios":"levelo://app?vid=7399fd58-5dfd-44fa-92b1-0692ace70e73"},"vehicle_type_id":"4","last_reported":1734462416,"current_range_meters":24400,"station_id":"","pricing_plan_id":"cebpf4jnsgd1na2vs0mg"},{"bike_id":"704fba7f-7a42-47f8-9c2a-817ac6cf1935","system_id":"levelo_inurba_marseille","lat":43.26567,"lon":5.39007,"is_reserved":false,"is_disabled":false,"rental_uris":{"android":"levelo://app?vid=704fba7f-7a42-47f8-9c2a-817ac6cf1935","ios":"levelo://app?vid=704fba7f-7a42-47f8-9c2a-817ac6cf1935"},"vehicle_type_id":"4","last_reported":1734462416,"current_range_meters":36000,"station_id":"ce4bhe12rcd13ifvqf30","pricing_plan_id":"cebpf4jnsgd1na2vs0mg"},{"bike_id":"5df652f0-db05-40bf-8283-b56c2b8338d8","system_id":"levelo_inurba_marseille","lat":43.29884,"lon":5.37527,"is_reserved":false,"is_disabled":false,"rental_uris":{"android":"levelo://app?vid=5df652f0-db05-40bf-8283-b56c2b8338d8","ios":"levelo://app?vid=5df652f0-db05-40bf-8283-b56c2b8338d8"},"vehicle_type_id":"4","last_reported":1734462416,"current_range_meters":30800,"station_id":"","pricing_plan_id":"cebpf4jnsgd1na2vs0mg"},{"bike_id":"f47e1b80-2460-4f87-8a97-a3be70ab8985","system_id":"levelo_inurba_marseille","lat":43.31165,"lon":5.38721,"is_reserved":false,"is_disabled":false,"rental_uris":{"android":"levelo://app?vid=f47e1b80-2460-4f87-8a97-a3be70ab8985","ios":"levelo://app?vid=f47e1b80-2460-4f87-8a97-a3be70ab8985"},"vehicle_type_id":"4","last_reported":1734462416,"current_range_meters":22000,"station_id":"ce4bgv12rcd13ifvqcp0","pricing_plan_id":"cebpf4jnsgd1na2vs0mg"},{"bike_id":"44ff8e7d-1339-43c2-b508-1f594ee49259","system_id":"levelo_inurba_marseille","lat":43.27904,"lon":5.39599,"is_reserved":false,"is_disabled":false,"rental_uris":{"android":"levelo://app?vid=44ff8e7d-1339-43c2-b508-1f594ee49259","ios":"levelo://app?vid=44ff8e7d-1339-43c2-b508-1f594ee49259"},"vehicle_type_id":"4","last_reported":1734462416,"current_range_meters":37600,"station_id":"ce4bhf92rcd13ifvqf40","pricing_plan_id":"cebpf4jnsgd1na2vs0mg"},{"bike_id":"8ceeee5e-f34c-4883-8bf6-079e8a090dff","system_id":"levelo_inurba_marseille","lat":43.29973,"lon":5.38467,"is_reserved":false,"is_disabled":true,"rental_uris":{"android":"levelo://app?vid=8ceeee5e-f34c-4883-8bf6-079e8a090dff","ios":"levelo://app?vid=8ceeee5e-f34c-4883-8bf6-079e8a090dff"},"vehicle_type_id":"4","last_reported":1734462416,"current_range_meters":31200,"station_id":"ce4bgj92rcd13ifvqbd0","pricing_plan_id":"cebpf4jnsgd1na2vs0mg"},{"bike_id":"ce03ec55-35d3-44f5-8921-8d0d2d31846f","system_id":"levelo_inurba_marseille","lat":43.27821,"lon":5.40714,"is_reserved":false,"is_disabled":false,"rental_uris":{"android":"levelo://app?vid=ce03ec55-35d3-44f5-8921-8d0d2d31846f","ios":"levelo://app?vid=ce03ec55-35d3-44f5-8921-8d0d2d31846f"},"vehicle_type_id":"4","last_reported":1734462416,"current_range_meters":36000,"station_id":"ce4bhnh2rcd13ifvqgtg","pricing_plan_id":"cebpf4jnsgd1na2vs0mg"},{"bike_id":"1cc30cb6-f18d-4862-b991-88715930d8c9","system_id":"levelo_inurba_marseille","lat":43.24072,"lon":5.37761,"is_reserved":false,"is_disabled":false,"rental_uris":{"android":"levelo://app?vid=1cc30cb6-f18d-4862-b991-88715930d8c9","ios":"levelo://app?vid=1cc30cb6-f18d-4862-b991-88715930d8c9"},"vehicle_type_id":"4","last_reported":1734462416,"current_range_meters":17600,"station_id":"ce4bhnp2rcd13ifvqgvg","pricing_plan_id":"cebpf4jnsgd1na2vs0mg"},{"bike_id":"eb7cd7b9-01c5-4120-bb55-5221a32a505c","system_id":"levelo_inurba_marseille","lat":43.29278,"lon":5.40101,"is_reserved":false,"is_disabled":true,"rental_uris":{"android":"levelo://app?vid=eb7cd7b9-01c5-4120-bb55-5221a32a505c","ios":"levelo://app?vid=eb7cd7b9-01c5-4120-bb55-5221a32a505c"},"vehicle_type_id":"4","last_reported":1734462416,"current_range_meters":34000,"station_id":"ce4bh312rcd13ifvqdk0","pricing_plan_id":"cebpf4jnsgd1na2vs0mg"},{"bike_id":"eba901e5-0847-4fc0-b2b6-9eb1834c3e7a","system_id":"levelo_inurba_marseille","lat":43.29509,"lon":5.42336,"is_reserved":false,"is_disabled":true,"rental_uris":{"android":"levelo://app?vid=eba901e5-0847-4fc0-b2b6-9eb1834c3e7a","ios":"levelo://app?vid=eba901e5-0847-4fc0-b2b6-9eb1834c3e7a"},"vehicle_type_id":"4","last_reported":1734462416,"current_range_meters":0,"station_id":"","pricing_plan_id":"cebpf4jnsgd1na2vs0mg"},{"bike_id":"c71dca09-b946-4485-a053-6c7174aaa385","system_id":"levelo_inurba_marseille","lat":43.29532,"lon":5.38546,"is_reserved":false,"is_disabled":true,"rental_uris":{"android":"levelo://app?vid=c71dca09-b946-4485-a053-6c7174aaa385","ios":"levelo://app?vid=c71dca09-b946-4485-a053-6c7174aaa385"},"vehicle_type_id":"4","last_reported":1734462416,"current_range_meters":18800,"station_id":"ce4bgih2rcd13ifvqba0","pricing_plan_id":"cebpf4jnsgd1na2vs0mg"},{"bike_id":"4a6cf567-0476-47a4-9b25-bea5f116b73d","system_id":"levelo_inurba_marseille","lat":43.28458,"lon":5.35882,"is_reserved":false,"is_disabled":false,"rental_uris":{"android":"levelo://app?vid=4a6cf567-0476-47a4-9b25-bea5f116b73d","ios":"levelo://app?vid=4a6cf567-0476-47a4-9b25-bea5f116b73d"},"vehicle_type_id":"4","last_reported":1734462416,"current_range_meters":33200,"station_id":"ce4bhah2rcd13ifvqei0","pricing_plan_id":"cebpf4jnsgd1na2vs0mg"},{"bike_id":"7aad8740-ff3a-45f1-bc1f-cb1ab4d47b07","system_id":"levelo_inurba_marseille","lat":43.316708,"lon":5.372458,"is_reserved":false,"is_disabled":true,"rental_uris":{"android":"levelo://app?vid=7aad8740-ff3a-45f1-bc1f-cb1ab4d47b07","ios":"levelo://app?vid=7aad8740-ff3a-45f1-bc1f-cb1ab4d47b07"},"vehicle_type_id":"4","last_reported":1734462416,"current_range_meters":2000,"station_id":"","pricing_plan_id":"cebpf4jnsgd1na2vs0mg"},{"bike_id":"bad26968-edc6-485a-bb4a-b2da5ed8c3aa","system_id":"levelo_inurba_marseille","lat":43.29972,"lon":5.38491,"is_reserved":false,"is_disabled":false,"rental_uris":{"android":"levelo://app?vid=bad26968-edc6-485a-bb4a-b2da5ed8c3aa","ios":"levelo://app?vid=bad26968-edc6-485a-bb4a-b2da5ed8c3aa"},"vehicle_type_id":"4","last_reported":1734462416,"current_range_meters":37600,"station_id":"ce4bgj92rcd13ifvqbd0","pricing_plan_id":"cebpf4jnsgd1na2vs0mg"},{"bike_id":"5602b998-8538-45ef-9b3e-c46248c5e330","system_id":"levelo_inurba_marseille","lat":43.24667,"lon":5.38156,"is_reserved":false,"is_disabled":false,"rental_uris":{"android":"levelo://app?vid=5602b998-8538-45ef-9b3e-c46248c5e330","ios":"levelo://app?vid=5602b998-8538-45ef-9b3e-c46248c5e330"},"vehicle_type_id":"4","last_reported":1734462416,"current_range_meters":33200,"station_id":"ce4bhih2rcd13ifvqfr0","pricing_plan_id":"cebpf4jnsgd1na2vs0mg"},{"bike_id":"27d9e2c3-f922-4658-a131-5f6394c8c252","system_id":"levelo_inurba_marseille","lat":43.29043,"lon":5.35905,"is_reserved":false,"is_disabled":false,"rental_uris":{"android":"levelo://app?vid=27d9e2c3-f922-4658-a131-5f6394c8c252","ios":"levelo://app?vid=27d9e2c3-f922-4658-a131-5f6394c8c252"},"vehicle_type_id":"4","last_reported":1734462416,"current_range_meters":39200,"station_id":"ce4bha92rcd13ifvqeg0","pricing_plan_id":"cebpf4jnsgd1na2vs0mg"},{"bike_id":"ed3a8591-316e-49ab-a80e-c8c5d9c39c56","system_id":"levelo_inurba_marseille","lat":43.30099,"lon":5.39097,"is_reserved":false,"is_disabled":true,"rental_uris":{"android":"levelo://app?vid=ed3a8591-316e-49ab-a80e-c8c5d9c39c56","ios":"levelo://app?vid=ed3a8591-316e-49ab-a80e-c8c5d9c39c56"},"vehicle_type_id":"4","last_reported":1734462416,"current_range_meters":32400,"station_id":"ce4bh192rcd13ifvqdb0","pricing_plan_id":"cebpf4jnsgd1na2vs0mg"},{"bike_id":"5a37a828-cff2-4e6d-a76c-d01bbc621389","system_id":"levelo_inurba_marseille","lat":43.23194,"lon":5.3555,"is_reserved":false,"is_disabled":false,"rental_uris":{"android":"levelo://app?vid=5a37a828-cff2-4e6d-a76c-d01bbc621389","ios":"levelo://app?vid=5a37a828-cff2-4e6d-a76c-d01bbc621389"},"vehicle_type_id":"4","last_reported":1734462416,"current_range_meters":26000,"station_id":"ce4bhu92rcd13ifvqi70","pricing_plan_id":"cebpf4jnsgd1na2vs0mg"},{"bike_id":"9d42e2f3-7ea2-4081-8027-cccb4a14cbc2","system_id":"levelo_inurba_marseille","lat":43.287,"lon":5.39985,"is_reserved":false,"is_disabled":false,"rental_uris":{"android":"levelo://app?vid=9d42e2f3-7ea2-4081-8027-cccb4a14cbc2","ios":"levelo://app?vid=9d42e2f3-7ea2-4081-8027-cccb4a14cbc2"},"vehicle_type_id":"4","last_reported":1734462416,"current_range_meters":33200,"station_id":"ce4bho92rcd13ifvqh3g","pricing_plan_id":"cebpf4jnsgd1na2vs0mg"},{"bike_id":"d02419d3-ab9e-4a05-8bf6-59f7eb4ac434","system_id":"levelo_inurba_marseille","lat":43.31277,"lon":5.40166,"is_reserved":false,"is_disabled":false,"rental_uris":{"android":"levelo://app?vid=d02419d3-ab9e-4a05-8bf6-59f7eb4ac434","ios":"levelo://app?vid=d02419d3-ab9e-4a05-8bf6-59f7eb4ac434"},"vehicle_type_id":"4","last_reported":1734462416,"current_range_meters":27600,"station_id":"ce4bh092rcd13ifvqd30","pricing_plan_id":"cebpf4jnsgd1na2vs0mg"},{"bike_id":"7d822ce8-5a66-4580-bc87-15ab05332588","system_id":"levelo_inurba_marseille","lat":43.29883,"lon":5.38895,"is_reserved":false,"is_disabled":false,"rental_uris":{"android":"levelo://app?vid=7d822ce8-5a66-4580-bc87-15ab05332588","ios":"levelo://app?vid=7d822ce8-5a66-4580-bc87-15ab05332588"},"vehicle_type_id":"4","last_reported":1734462416,"current_range_meters":18800,"station_id":"ce4bh392rcd13ifvqdl0","pricing_plan_id":"cebpf4jnsgd1na2vs0mg"},{"bike_id":"1de05ea6-7ffc-4755-9d5c-2404e5a173c7","system_id":"levelo_inurba_marseille","lat":43.23065,"lon":5.35496,"is_reserved":false,"is_disabled":false,"rental_uris":{"android":"levelo://app?vid=1de05ea6-7ffc-4755-9d5c-2404e5a173c7","ios":"levelo://app?vid=1de05ea6-7ffc-4755-9d5c-2404e5a173c7"},"vehicle_type_id":"4","last_reported":1734462416,"current_range_meters":8800,"station_id":"cpo3342slgdg3j2ifvpg","pricing_plan_id":"cebpf4jnsgd1na2vs0mg"},{"bike_id":"7fed9000-8d51-4dae-a989-6d0765af5023","system_id":"levelo_inurba_marseille","lat":43.29706,"lon":5.37699,"is_reserved":false,"is_disabled":false,"rental_uris":{"android":"levelo://app?vid=7fed9000-8d51-4dae-a989-6d0765af5023","ios":"levelo://app?vid=7fed9000-8d51-4dae-a989-6d0765af5023"},"vehicle_type_id":"4","last_reported":1734462416,"current_range_meters":24800,"station_id":"ce4bgkh2rcd13ifvqbl0","pricing_plan_id":"cebpf4jnsgd1na2vs0mg"},{"bike_id":"a2a1e93d-0640-46b1-8548-8fdbe1511cb8","system_id":"levelo_inurba_marseille","lat":43.28348,"lon":5.38095,"is_reserved":false,"is_disabled":false,"rental_uris":{"android":"levelo://app?vid=a2a1e93d-0640-46b1-8548-8fdbe1511cb8","ios":"levelo://app?vid=a2a1e93d-0640-46b1-8548-8fdbe1511cb8"},"vehicle_type_id":"4","last_reported":1734462416,"current_range_meters":27200,"station_id":"ce4bh412rcd13ifvqdr0","pricing_plan_id":"cebpf4jnsgd1na2vs0mg"},{"bike_id":"0ff6fea5-f882-490d-b1fc-2cba3c649602","system_id":"levelo_inurba_marseille","lat":43.28732,"lon":5.36076,"is_reserved":false,"is_disabled":false,"rental_uris":{"android":"levelo://app?vid=0ff6fea5-f882-490d-b1fc-2cba3c649602","ios":"levelo://app?vid=0ff6fea5-f882-490d-b1fc-2cba3c649602"},"vehicle_type_id":"4","last_reported":1734462416,"current_range_meters":28800,"station_id":"cki0cbj6b192h4jlfktg","pricing_plan_id":"cebpf4jnsgd1na2vs0mg"},{"bike_id":"2d9f4e58-aed4-42e5-b03f-7c067dbd464d","system_id":"levelo_inurba_marseille","lat":43.27112,"lon":5.4073,"is_reserved":false,"is_disabled":false,"rental_uris":{"android":"levelo://app?vid=2d9f4e58-aed4-42e5-b03f-7c067dbd464d","ios":"levelo://app?vid=2d9f4e58-aed4-42e5-b03f-7c067dbd464d"},"vehicle_type_id":"4","last_reported":1734462416,"current_range_meters":25600,"station_id":"ce4bhk92rcd13ifvqgb0","pricing_plan_id":"cebpf4jnsgd1na2vs0mg"},{"bike_id":"24216fde-815f-466d-ae48-7f1bdc5c763a","system_id":"levelo_inurba_marseille","lat":43.275578,"lon":5.384236,"is_reserved":false,"is_disabled":false,"rental_uris":{"android":"levelo://app?vid=24216fde-815f-466d-ae48-7f1bdc5c763a","ios":"levelo://app?vid=24216fde-815f-466d-ae48-7f1bdc5c763a"},"vehicle_type_id":"4","last_reported":1734462416,"current_range_meters":18000,"station_id":"ce4bhh92rcd13ifvqfi0","pricing_plan_id":"cebpf4jnsgd1na2vs0mg"},{"bike_id":"40908e46-c615-4456-a38b-18d1d0193418","system_id":"levelo_inurba_marseille","lat":43.25003,"lon":5.38919,"is_reserved":false,"is_disabled":false,"rental_uris":{"android":"levelo://app?vid=40908e46-c615-4456-a38b-18d1d0193418","ios":"levelo://app?vid=40908e46-c615-4456-a38b-18d1d0193418"},"vehicle_type_id":"4","last_reported":1734462416,"current_range_meters":38800,"station_id":"ce4bhgp2rcd13ifvqfd0","pricing_plan_id":"cebpf4jnsgd1na2vs0mg"},{"bike_id":"41a1fd19-8c91-470f-af17-b5d8d6495338","system_id":"levelo_inurba_marseille","lat":43.28571,"lon":5.39483,"is_reserved":false,"is_disabled":false,"rental_uris":{"android":"levelo://app?vid=41a1fd19-8c91-470f-af17-b5d8d6495338","ios":"levelo://app?vid=41a1fd19-8c91-470f-af17-b5d8d6495338"},"vehicle_type_id":"4","last_reported":1734462416,"current_range_meters":34800,"station_id":"ce4bh292rcd13ifvqdg0","pricing_plan_id":"cebpf4jnsgd1na2vs0mg"},{"bike_id":"42543e8b-09e8-4b78-94df-240685797116","system_id":"levelo_inurba_marseille","lat":43.28948,"lon":5.36406,"is_reserved":false,"is_disabled":false,"rental_uris":{"android":"levelo://app?vid=42543e8b-09e8-4b78-94df-240685797116","ios":"levelo://app?vid=42543e8b-09e8-4b78-94df-240685797116"},"vehicle_type_id":"4","last_reported":1734462416,"current_range_meters":23200,"station_id":"ce4bhc92rcd13ifvqetg","pricing_plan_id":"cebpf4jnsgd1na2vs0mg"},{"bike_id":"7bf5b643-8941-4ca1-951d-05964437202f","system_id":"levelo_inurba_marseille","lat":43.30188,"lon":5.36612,"is_reserved":false,"is_disabled":true,"rental_uris":{"android":"levelo://app?vid=7bf5b643-8941-4ca1-951d-05964437202f","ios":"levelo://app?vid=7bf5b643-8941-4ca1-951d-05964437202f"},"vehicle_type_id":"4","last_reported":1734462416,"current_range_meters":400,"station_id":"ce4bgrh2rcd13ifvqc8g","pricing_plan_id":"cebpf4jnsgd1na2vs0mg"},{"bike_id":"289f0ac2-169c-4996-93c9-9c13fd50ee4f","system_id":"levelo_inurba_marseille","lat":43.29839,"lon":5.36297,"is_reserved":false,"is_disabled":false,"rental_uris":{"android":"levelo://app?vid=289f0ac2-169c-4996-93c9-9c13fd50ee4f","ios":"levelo://app?vid=289f0ac2-169c-4996-93c9-9c13fd50ee4f"},"vehicle_type_id":"4","last_reported":1734462416,"current_range_meters":36800,"station_id":"ce4bgpp2rcd13ifvqc3g","pricing_plan_id":"cebpf4jnsgd1na2vs0mg"},{"bike_id":"a2256738-fdfe-45b1-9f05-f313668b91c8","system_id":"levelo_inurba_marseille","lat":43.31117,"lon":5.37762,"is_reserved":false,"is_disabled":false,"rental_uris":{"android":"levelo://app?vid=a2256738-fdfe-45b1-9f05-f313668b91c8","ios":"levelo://app?vid=a2256738-fdfe-45b1-9f05-f313668b91c8"},"vehicle_type_id":"4","last_reported":1734462416,"current_range_meters":38800,"station_id":"ce4bgt92rcd13ifvqcg0","pricing_plan_id":"cebpf4jnsgd1na2vs0mg"},{"bike_id":"ff8a4c9f-cecd-4387-a712-60af5ad680f5","system_id":"levelo_inurba_marseille","lat":43.29258,"lon":5.38436,"is_reserved":false,"is_disabled":false,"rental_uris":{"android":"levelo://app?vid=ff8a4c9f-cecd-4387-a712-60af5ad680f5","ios":"levelo://app?vid=ff8a4c9f-cecd-4387-a712-60af5ad680f5"},"vehicle_type_id":"4","last_reported":1734462416,"current_range_meters":6800,"station_id":"ce4bh692rcd13ifvqea0","pricing_plan_id":"cebpf4jnsgd1na2vs0mg"},{"bike_id":"a4fc0512-1ef1-43b8-9bc6-70f723dce490","system_id":"levelo_inurba_marseille","lat":43.25582,"lon":5.38224,"is_reserved":false,"is_disabled":false,"rental_uris":{"android":"levelo://app?vid=a4fc0512-1ef1-43b8-9bc6-70f723dce490","ios":"levelo://app?vid=a4fc0512-1ef1-43b8-9bc6-70f723dce490"},"vehicle_type_id":"4","last_reported":1734462416,"current_range_meters":19200,"station_id":"ce4bhih2rcd13ifvqfs0","pricing_plan_id":"cebpf4jnsgd1na2vs0mg"},{"bike_id":"58827829-e30a-478e-8d3c-af8c7606b368","system_id":"levelo_inurba_marseille","lat":43.29628,"lon":5.40602,"is_reserved":false,"is_disabled":false,"rental_uris":{"android":"levelo://app?vid=58827829-e30a-478e-8d3c-af8c7606b368","ios":"levelo://app?vid=58827829-e30a-478e-8d3c-af8c7606b368"},"vehicle_type_id":"4","last_reported":1734462416,"current_range_meters":20400,"station_id":"ce4bh0h2rcd13ifvqd60","pricing_plan_id":"cebpf4jnsgd1na2vs0mg"},{"bike_id":"cab5cb01-b33a-421c-bfaf-c7630f90de8b","system_id":"levelo_inurba_marseille","lat":43.29046,"lon":5.3995,"is_reserved":false,"is_disabled":true,"rental_uris":{"android":"levelo://app?vid=cab5cb01-b33a-421c-bfaf-c7630f90de8b","ios":"levelo://app?vid=cab5cb01-b33a-421c-bfaf-c7630f90de8b"},"vehicle_type_id":"4","last_reported":1734462416,"current_range_meters":2000,"station_id":"ce4bh392rcd13ifvqdm0","pricing_plan_id":"cebpf4jnsgd1na2vs0mg"},{"bike_id":"78f5dcee-b6ca-4cfa-ae6f-ebcf64be1236","system_id":"levelo_inurba_marseille","lat":43.323404,"lon":5.406208,"is_reserved":false,"is_disabled":true,"rental_uris":{"android":"levelo://app?vid=78f5dcee-b6ca-4cfa-ae6f-ebcf64be1236","ios":"levelo://app?vid=78f5dcee-b6ca-4cfa-ae6f-ebcf64be1236"},"vehicle_type_id":"4","last_reported":1734462416,"current_range_meters":0,"station_id":"ce4bhq92rcd13ifvqhjg","pricing_plan_id":"cebpf4jnsgd1na2vs0mg"},{"bike_id":"e589751b-b6de-4d76-a5ef-c55512c7f4c9","system_id":"levelo_inurba_marseille","lat":43.28723,"lon":5.37946,"is_reserved":false,"is_disabled":true,"rental_uris":{"android":"levelo://app?vid=e589751b-b6de-4d76-a5ef-c55512c7f4c9","ios":"levelo://app?vid=e589751b-b6de-4d76-a5ef-c55512c7f4c9"},"vehicle_type_id":"4","last_reported":1734462416,"current_range_meters":3600,"station_id":"ce4bh9p2rcd13ifvqec0","pricing_plan_id":"cebpf4jnsgd1na2vs0mg"},{"bike_id":"d1adb045-11f4-4330-9d2b-f77d89c262d4","system_id":"levelo_inurba_marseille","lat":43.29304,"lon":5.37177,"is_reserved":false,"is_disabled":true,"rental_uris":{"android":"levelo://app?vid=d1adb045-11f4-4330-9d2b-f77d89c262d4","ios":"levelo://app?vid=d1adb045-11f4-4330-9d2b-f77d89c262d4"},"vehicle_type_id":"4","last_reported":1734462416,"current_range_meters":36000,"station_id":"ce4bgh92rcd13ifvqb40","pricing_plan_id":"cebpf4jnsgd1na2vs0mg"},{"bike_id":"fb5ac6cd-6d94-4004-9473-07d3146ccb2b","system_id":"levelo_inurba_marseille","lat":43.28872,"lon":5.35829,"is_reserved":false,"is_disabled":false,"rental_uris":{"android":"levelo://app?vid=fb5ac6cd-6d94-4004-9473-07d3146ccb2b","ios":"levelo://app?vid=fb5ac6cd-6d94-4004-9473-07d3146ccb2b"},"vehicle_type_id":"4","last_reported":1734462416,"current_range_meters":31200,"station_id":"ce4bhb12rcd13ifvqem0","pricing_plan_id":"cebpf4jnsgd1na2vs0mg"},{"bike_id":"0dda4003-865c-4e8d-8fae-087415c72429","system_id":"levelo_inurba_marseille","lat":43.29895,"lon":5.43674,"is_reserved":false,"is_disabled":false,"rental_uris":{"android":"levelo://app?vid=0dda4003-865c-4e8d-8fae-087415c72429","ios":"levelo://app?vid=0dda4003-865c-4e8d-8fae-087415c72429"},"vehicle_type_id":"4","last_reported":1734462416,"current_range_meters":12800,"station_id":"ce4bhpp2rcd13ifvqhfg","pricing_plan_id":"cebpf4jnsgd1na2vs0mg"},{"bike_id":"a33b825e-c779-4129-842f-aeba22c7390a","system_id":"levelo_inurba_marseille","lat":43.31693,"lon":5.40468,"is_reserved":false,"is_disabled":false,"rental_uris":{"android":"levelo://app?vid=a33b825e-c779-4129-842f-aeba22c7390a","ios":"levelo://app?vid=a33b825e-c779-4129-842f-aeba22c7390a"},"vehicle_type_id":"4","last_reported":1734462416,"current_range_meters":38800,"station_id":"ce4bh012rcd13ifvqd00","pricing_plan_id":"cebpf4jnsgd1na2vs0mg"},{"bike_id":"492fd9a4-6f47-465d-9838-b5fa8d28f268","system_id":"levelo_inurba_marseille","lat":43.24659,"lon":5.38164,"is_reserved":false,"is_disabled":false,"rental_uris":{"android":"levelo://app?vid=492fd9a4-6f47-465d-9838-b5fa8d28f268","ios":"levelo://app?vid=492fd9a4-6f47-465d-9838-b5fa8d28f268"},"vehicle_type_id":"4","last_reported":1734462416,"current_range_meters":32800,"station_id":"ce4bhih2rcd13ifvqfr0","pricing_plan_id":"cebpf4jnsgd1na2vs0mg"},{"bike_id":"533dbf31-8c40-4dc6-bc69-4565b55e9b89","system_id":"levelo_inurba_marseille","lat":43.2791,"lon":5.38012,"is_reserved":false,"is_disabled":false,"rental_uris":{"android":"levelo://app?vid=533dbf31-8c40-4dc6-bc69-4565b55e9b89","ios":"levelo://app?vid=533dbf31-8c40-4dc6-bc69-4565b55e9b89"},"vehicle_type_id":"4","last_reported":1734462416,"current_range_meters":28000,"station_id":"ce4bhf92rcd13ifvqf50","pricing_plan_id":"cebpf4jnsgd1na2vs0mg"},{"bike_id":"0bd5d813-d89e-42f3-8ce9-c06fb9ffedaa","system_id":"levelo_inurba_marseille","lat":43.28941,"lon":5.39625,"is_reserved":false,"is_disabled":true,"rental_uris":{"android":"levelo://app?vid=0bd5d813-d89e-42f3-8ce9-c06fb9ffedaa","ios":"levelo://app?vid=0bd5d813-d89e-42f3-8ce9-c06fb9ffedaa"},"vehicle_type_id":"4","last_reported":1734462416,"current_range_meters":37600,"station_id":"ce4bh3h2rcd13ifvqdn0","pricing_plan_id":"cebpf4jnsgd1na2vs0mg"},{"bike_id":"07fe5e1f-7503-4013-a17c-86fded7994b3","system_id":"levelo_inurba_marseille","lat":43.29262,"lon":5.40909,"is_reserved":false,"is_disabled":false,"rental_uris":{"android":"levelo://app?vid=07fe5e1f-7503-4013-a17c-86fded7994b3","ios":"levelo://app?vid=07fe5e1f-7503-4013-a17c-86fded7994b3"},"vehicle_type_id":"4","last_reported":1734462416,"current_range_meters":32000,"station_id":"ce4bh192rcd13ifvqdc0","pricing_plan_id":"cebpf4jnsgd1na2vs0mg"},{"bike_id":"d730b6d2-b4b0-444f-b860-eed7a4f03c01","system_id":"levelo_inurba_marseille","lat":43.32544,"lon":5.41424,"is_reserved":false,"is_disabled":false,"rental_uris":{"android":"levelo://app?vid=d730b6d2-b4b0-444f-b860-eed7a4f03c01","ios":"levelo://app?vid=d730b6d2-b4b0-444f-b860-eed7a4f03c01"},"vehicle_type_id":"4","last_reported":1734462416,"current_range_meters":16400,"station_id":"ce4bhq12rcd13ifvqhhg","pricing_plan_id":"cebpf4jnsgd1na2vs0mg"},{"bike_id":"a2df7d87-51ca-433e-ad68-1e23a0ea5897","system_id":"levelo_inurba_marseille","lat":43.279988,"lon":5.400059,"is_reserved":false,"is_disabled":false,"rental_uris":{"android":"levelo://app?vid=a2df7d87-51ca-433e-ad68-1e23a0ea5897","ios":"levelo://app?vid=a2df7d87-51ca-433e-ad68-1e23a0ea5897"},"vehicle_type_id":"4","last_reported":1734462416,"current_range_meters":39200,"station_id":"ce4bho92rcd13ifvqh4g","pricing_plan_id":"cebpf4jnsgd1na2vs0mg"},{"bike_id":"9a9ca54f-8f83-4db0-b780-a7eb0fa7f88d","system_id":"levelo_inurba_marseille","lat":43.2601,"lon":5.37562,"is_reserved":false,"is_disabled":false,"rental_uris":{"android":"levelo://app?vid=9a9ca54f-8f83-4db0-b780-a7eb0fa7f88d","ios":"levelo://app?vid=9a9ca54f-8f83-4db0-b780-a7eb0fa7f88d"},"vehicle_type_id":"4","last_reported":1734462416,"current_range_meters":36800,"station_id":"ce4bhgh2rcd13ifvqfa0","pricing_plan_id":"cebpf4jnsgd1na2vs0mg"},{"bike_id":"e72fa642-30df-464a-831c-61ff9cf06808","system_id":"levelo_inurba_marseille","lat":43.23052,"lon":5.35484,"is_reserved":false,"is_disabled":false,"rental_uris":{"android":"levelo://app?vid=e72fa642-30df-464a-831c-61ff9cf06808","ios":"levelo://app?vid=e72fa642-30df-464a-831c-61ff9cf06808"},"vehicle_type_id":"4","last_reported":1734462416,"current_range_meters":38800,"station_id":"cpo3342slgdg3j2ifvpg","pricing_plan_id":"cebpf4jnsgd1na2vs0mg"},{"bike_id":"59dd3452-a10e-4582-b091-d9bdba32cb2b","system_id":"levelo_inurba_marseille","lat":43.26596,"lon":5.3902,"is_reserved":false,"is_disabled":false,"rental_uris":{"android":"levelo://app?vid=59dd3452-a10e-4582-b091-d9bdba32cb2b","ios":"levelo://app?vid=59dd3452-a10e-4582-b091-d9bdba32cb2b"},"vehicle_type_id":"4","last_reported":1734462416,"current_range_meters":38800,"station_id":"ce4bhe12rcd13ifvqf30","pricing_plan_id":"cebpf4jnsgd1na2vs0mg"},{"bike_id":"4ad89db2-d7ae-4790-9e48-447a4f27414c","system_id":"levelo_inurba_marseille","lat":43.2694,"lon":5.40251,"is_reserved":false,"is_disabled":false,"rental_uris":{"android":"levelo://app?vid=4ad89db2-d7ae-4790-9e48-447a4f27414c","ios":"levelo://app?vid=4ad89db2-d7ae-4790-9e48-447a4f27414c"},"vehicle_type_id":"4","last_reported":1734462416,"current_range_meters":38000,"station_id":"cjm6bp8fraef2m0cb0m0","pricing_plan_id":"cebpf4jnsgd1na2vs0mg"},{"bike_id":"95c69429-156c-453e-b2c0-5f65d6fe9b40","system_id":"levelo_inurba_marseille","lat":43.23182,"lon":5.39987,"is_reserved":false,"is_disabled":false,"rental_uris":{"android":"levelo://app?vid=95c69429-156c-453e-b2c0-5f65d6fe9b40","ios":"levelo://app?vid=95c69429-156c-453e-b2c0-5f65d6fe9b40"},"vehicle_type_id":"4","last_reported":1734462416,"current_range_meters":28000,"station_id":"ce4bhn12rcd13ifvqgqg","pricing_plan_id":"cebpf4jnsgd1na2vs0mg"},{"bike_id":"39a34b47-1927-456f-8be7-5bf323f6de58","system_id":"levelo_inurba_marseille","lat":43.29538,"lon":5.38538,"is_reserved":false,"is_disabled":false,"rental_uris":{"android":"levelo://app?vid=39a34b47-1927-456f-8be7-5bf323f6de58","ios":"levelo://app?vid=39a34b47-1927-456f-8be7-5bf323f6de58"},"vehicle_type_id":"4","last_reported":1734462416,"current_range_meters":38800,"station_id":"ce4bgih2rcd13ifvqba0","pricing_plan_id":"cebpf4jnsgd1na2vs0mg"},{"bike_id":"21d9a6a6-9c73-45cd-ab9c-0c95285e894b","system_id":"levelo_inurba_marseille","lat":43.3026,"lon":5.40082,"is_reserved":false,"is_disabled":false,"rental_uris":{"android":"levelo://app?vid=21d9a6a6-9c73-45cd-ab9c-0c95285e894b","ios":"levelo://app?vid=21d9a6a6-9c73-45cd-ab9c-0c95285e894b"},"vehicle_type_id":"4","last_reported":1734462416,"current_range_meters":12400,"station_id":"ce4bgvh2rcd13ifvqcs0","pricing_plan_id":"cebpf4jnsgd1na2vs0mg"},{"bike_id":"a4f9dd48-b0ef-4046-b154-f63addf50a23","system_id":"levelo_inurba_marseille","lat":43.30895,"lon":5.37194,"is_reserved":false,"is_disabled":false,"rental_uris":{"android":"levelo://app?vid=a4f9dd48-b0ef-4046-b154-f63addf50a23","ios":"levelo://app?vid=a4f9dd48-b0ef-4046-b154-f63addf50a23"},"vehicle_type_id":"4","last_reported":1734462416,"current_range_meters":11600,"station_id":"ce4bguh2rcd13ifvqckg","pricing_plan_id":"cebpf4jnsgd1na2vs0mg"},{"bike_id":"92d120ee-1efa-43e7-b67c-b82cb5bff379","system_id":"levelo_inurba_marseille","lat":43.30357,"lon":5.41882,"is_reserved":false,"is_disabled":false,"rental_uris":{"android":"levelo://app?vid=92d120ee-1efa-43e7-b67c-b82cb5bff379","ios":"levelo://app?vid=92d120ee-1efa-43e7-b67c-b82cb5bff379"},"vehicle_type_id":"4","last_reported":1734462416,"current_range_meters":14400,"station_id":"ce4bhop2rcd13ifvqh7g","pricing_plan_id":"cebpf4jnsgd1na2vs0mg"},{"bike_id":"50a1b483-75a8-46df-8fd4-ad528343937d","system_id":"levelo_inurba_marseille","lat":43.31992,"lon":5.38143,"is_reserved":false,"is_disabled":false,"rental_uris":{"android":"levelo://app?vid=50a1b483-75a8-46df-8fd4-ad528343937d","ios":"levelo://app?vid=50a1b483-75a8-46df-8fd4-ad528343937d"},"vehicle_type_id":"4","last_reported":1734462416,"current_range_meters":20000,"station_id":"ce4bhr12rcd13ifvqhpg","pricing_plan_id":"cebpf4jnsgd1na2vs0mg"},{"bike_id":"9b3b15b8-0e59-4d35-bc41-e6a64a1479d7","system_id":"levelo_inurba_marseille","lat":43.28024,"lon":5.36942,"is_reserved":false,"is_disabled":false,"rental_uris":{"android":"levelo://app?vid=9b3b15b8-0e59-4d35-bc41-e6a64a1479d7","ios":"levelo://app?vid=9b3b15b8-0e59-4d35-bc41-e6a64a1479d7"},"vehicle_type_id":"4","last_reported":1734462416,"current_range_meters":37600,"station_id":"ce4bha12rcd13ifvqef0","pricing_plan_id":"cebpf4jnsgd1na2vs0mg"},{"bike_id":"59be24f3-ddfe-4937-bd81-8056adec3919","system_id":"levelo_inurba_marseille","lat":43.29843,"lon":5.36276,"is_reserved":false,"is_disabled":false,"rental_uris":{"android":"levelo://app?vid=59be24f3-ddfe-4937-bd81-8056adec3919","ios":"levelo://app?vid=59be24f3-ddfe-4937-bd81-8056adec3919"},"vehicle_type_id":"4","last_reported":1734462416,"current_range_meters":36000,"station_id":"ce4bgpp2rcd13ifvqc3g","pricing_plan_id":"cebpf4jnsgd1na2vs0mg"},{"bike_id":"197ed8a6-b80d-4d71-97e4-5f2cf13087a5","system_id":"levelo_inurba_marseille","lat":43.29172,"lon":5.37053,"is_reserved":false,"is_disabled":false,"rental_uris":{"android":"levelo://app?vid=197ed8a6-b80d-4d71-97e4-5f2cf13087a5","ios":"levelo://app?vid=197ed8a6-b80d-4d71-97e4-5f2cf13087a5"},"vehicle_type_id":"4","last_reported":1734462416,"current_range_meters":38400,"station_id":"","pricing_plan_id":"cebpf4jnsgd1na2vs0mg"},{"bike_id":"5716e911-1ddd-4195-aaba-8eb075050428","system_id":"levelo_inurba_marseille","lat":43.28459,"lon":5.35883,"is_reserved":false,"is_disabled":false,"rental_uris":{"android":"levelo://app?vid=5716e911-1ddd-4195-aaba-8eb075050428","ios":"levelo://app?vid=5716e911-1ddd-4195-aaba-8eb075050428"},"vehicle_type_id":"4","last_reported":1734462416,"current_range_meters":11200,"station_id":"ce4bhah2rcd13ifvqei0","pricing_plan_id":"cebpf4jnsgd1na2vs0mg"},{"bike_id":"c8399855-72d4-4f25-aa5a-52a18924a7b8","system_id":"levelo_inurba_marseille","lat":43.24161,"lon":5.36391,"is_reserved":false,"is_disabled":false,"rental_uris":{"android":"levelo://app?vid=c8399855-72d4-4f25-aa5a-52a18924a7b8","ios":"levelo://app?vid=c8399855-72d4-4f25-aa5a-52a18924a7b8"},"vehicle_type_id":"4","last_reported":1734462416,"current_range_meters":9600,"station_id":"cpo36qri1sfpv3e86is0","pricing_plan_id":"cebpf4jnsgd1na2vs0mg"},{"bike_id":"27361fb6-fa95-4996-99ed-1770f4e5aa04","system_id":"levelo_inurba_marseille","lat":43.31246,"lon":5.40183,"is_reserved":false,"is_disabled":false,"rental_uris":{"android":"levelo://app?vid=27361fb6-fa95-4996-99ed-1770f4e5aa04","ios":"levelo://app?vid=27361fb6-fa95-4996-99ed-1770f4e5aa04"},"vehicle_type_id":"4","last_reported":1734462416,"current_range_meters":38800,"station_id":"ce4bh092rcd13ifvqd30","pricing_plan_id":"cebpf4jnsgd1na2vs0mg"},{"bike_id":"cec5bdf2-0eed-4c84-8596-3e8e1dbb0650","system_id":"levelo_inurba_marseille","lat":43.32364,"lon":5.38876,"is_reserved":false,"is_disabled":true,"rental_uris":{"android":"levelo://app?vid=cec5bdf2-0eed-4c84-8596-3e8e1dbb0650","ios":"levelo://app?vid=cec5bdf2-0eed-4c84-8596-3e8e1dbb0650"},"vehicle_type_id":"4","last_reported":1734462416,"current_range_meters":2000,"station_id":"ce4bhqp2rcd13ifvqhog","pricing_plan_id":"cebpf4jnsgd1na2vs0mg"},{"bike_id":"caccf3df-025c-4334-8486-611a28578717","system_id":"levelo_inurba_marseille","lat":43.24657,"lon":5.38154,"is_reserved":false,"is_disabled":true,"rental_uris":{"android":"levelo://app?vid=caccf3df-025c-4334-8486-611a28578717","ios":"levelo://app?vid=caccf3df-025c-4334-8486-611a28578717"},"vehicle_type_id":"4","last_reported":1734462416,"current_range_meters":0,"station_id":"ce4bhih2rcd13ifvqfr0","pricing_plan_id":"cebpf4jnsgd1na2vs0mg"},{"bike_id":"f4b3fee4-b22d-4e10-9cb7-989becb0ffca","system_id":"levelo_inurba_marseille","lat":43.294,"lon":5.3861,"is_reserved":false,"is_disabled":false,"rental_uris":{"android":"levelo://app?vid=f4b3fee4-b22d-4e10-9cb7-989becb0ffca","ios":"levelo://app?vid=f4b3fee4-b22d-4e10-9cb7-989becb0ffca"},"vehicle_type_id":"4","last_reported":1734462416,"current_range_meters":33600,"station_id":"ce4bh2h2rcd13ifvqdh0","pricing_plan_id":"cebpf4jnsgd1na2vs0mg"},{"bike_id":"bed9f871-1620-4564-be1d-0c9369e670e1","system_id":"levelo_inurba_marseille","lat":43.29887,"lon":5.38904,"is_reserved":false,"is_disabled":false,"rental_uris":{"android":"levelo://app?vid=bed9f871-1620-4564-be1d-0c9369e670e1","ios":"levelo://app?vid=bed9f871-1620-4564-be1d-0c9369e670e1"},"vehicle_type_id":"4","last_reported":1734462416,"current_range_meters":38000,"station_id":"ce4bh392rcd13ifvqdl0","pricing_plan_id":"cebpf4jnsgd1na2vs0mg"},{"bike_id":"9b1317dd-bce6-4868-8ac9-016045263b46","system_id":"levelo_inurba_marseille","lat":43.29579,"lon":5.36741,"is_reserved":false,"is_disabled":false,"rental_uris":{"android":"levelo://app?vid=9b1317dd-bce6-4868-8ac9-016045263b46","ios":"levelo://app?vid=9b1317dd-bce6-4868-8ac9-016045263b46"},"vehicle_type_id":"4","last_reported":1734462416,"current_range_meters":38000,"station_id":"ce4bgph2rcd13ifvqc2g","pricing_plan_id":"cebpf4jnsgd1na2vs0mg"},{"bike_id":"8c1f4c83-c3db-4eb0-8ecc-c6625970d671","system_id":"levelo_inurba_marseille","lat":43.3011,"lon":5.39832,"is_reserved":false,"is_disabled":false,"rental_uris":{"android":"levelo://app?vid=8c1f4c83-c3db-4eb0-8ecc-c6625970d671","ios":"levelo://app?vid=8c1f4c83-c3db-4eb0-8ecc-c6625970d671"},"vehicle_type_id":"4","last_reported":1734462416,"current_range_meters":12400,"station_id":"ce4bh0h2rcd13ifvqd40","pricing_plan_id":"cebpf4jnsgd1na2vs0mg"},{"bike_id":"76adf408-c037-4157-88f5-eab2cfbef1ca","system_id":"levelo_inurba_marseille","lat":43.33023,"lon":5.39038,"is_reserved":false,"is_disabled":false,"rental_uris":{"android":"levelo://app?vid=76adf408-c037-4157-88f5-eab2cfbef1ca","ios":"levelo://app?vid=76adf408-c037-4157-88f5-eab2cfbef1ca"},"vehicle_type_id":"4","last_reported":1734462416,"current_range_meters":30400,"station_id":"ce4bhr92rcd13ifvqhrg","pricing_plan_id":"cebpf4jnsgd1na2vs0mg"},{"bike_id":"962f41fc-c318-4a6c-b2b2-b63ab7192ee3","system_id":"levelo_inurba_marseille","lat":43.28975,"lon":5.37831,"is_reserved":false,"is_disabled":false,"rental_uris":{"android":"levelo://app?vid=962f41fc-c318-4a6c-b2b2-b63ab7192ee3","ios":"levelo://app?vid=962f41fc-c318-4a6c-b2b2-b63ab7192ee3"},"vehicle_type_id":"4","last_reported":1734462416,"current_range_meters":13600,"station_id":"ce4bh9p2rcd13ifvqed0","pricing_plan_id":"cebpf4jnsgd1na2vs0mg"},{"bike_id":"7c6e62f7-fb8f-41ca-9a81-0c4aa82b9f20","system_id":"levelo_inurba_marseille","lat":43.28658,"lon":5.3635,"is_reserved":false,"is_disabled":false,"rental_uris":{"android":"levelo://app?vid=7c6e62f7-fb8f-41ca-9a81-0c4aa82b9f20","ios":"levelo://app?vid=7c6e62f7-fb8f-41ca-9a81-0c4aa82b9f20"},"vehicle_type_id":"4","last_reported":1734462416,"current_range_meters":38800,"station_id":"ce4bhah2rcd13ifvqej0","pricing_plan_id":"cebpf4jnsgd1na2vs0mg"},{"bike_id":"891cd8ce-5785-485c-822c-deb39f1e87e6","system_id":"levelo_inurba_marseille","lat":43.29363,"lon":5.37836,"is_reserved":false,"is_disabled":false,"rental_uris":{"android":"levelo://app?vid=891cd8ce-5785-485c-822c-deb39f1e87e6","ios":"levelo://app?vid=891cd8ce-5785-485c-822c-deb39f1e87e6"},"vehicle_type_id":"4","last_reported":1734462416,"current_range_meters":32800,"station_id":"ce4bgjh2rcd13ifvqbf0","pricing_plan_id":"cebpf4jnsgd1na2vs0mg"},{"bike_id":"d5c0eca7-34d5-4962-a556-1c81f5cfb7fa","system_id":"levelo_inurba_marseille","lat":43.315263,"lon":5.38036,"is_reserved":false,"is_disabled":false,"rental_uris":{"android":"levelo://app?vid=d5c0eca7-34d5-4962-a556-1c81f5cfb7fa","ios":"levelo://app?vid=d5c0eca7-34d5-4962-a556-1c81f5cfb7fa"},"vehicle_type_id":"4","last_reported":1734462416,"current_range_meters":28000,"station_id":"ce4bhsp2rcd13ifvqi50","pricing_plan_id":"cebpf4jnsgd1na2vs0mg"},{"bike_id":"b0b5ca3b-6a23-4037-8add-3940b0ed01fc","system_id":"levelo_inurba_marseille","lat":43.28102,"lon":5.37849,"is_reserved":false,"is_disabled":false,"rental_uris":{"android":"levelo://app?vid=b0b5ca3b-6a23-4037-8add-3940b0ed01fc","ios":"levelo://app?vid=b0b5ca3b-6a23-4037-8add-3940b0ed01fc"},"vehicle_type_id":"4","last_reported":1734462416,"current_range_meters":27600,"station_id":"ce4bha12rcd13ifvqee0","pricing_plan_id":"cebpf4jnsgd1na2vs0mg"},{"bike_id":"2063c458-f5d2-4eda-93d0-5c975edac02a","system_id":"levelo_inurba_marseille","lat":43.28944,"lon":5.36393,"is_reserved":false,"is_disabled":false,"rental_uris":{"android":"levelo://app?vid=2063c458-f5d2-4eda-93d0-5c975edac02a","ios":"levelo://app?vid=2063c458-f5d2-4eda-93d0-5c975edac02a"},"vehicle_type_id":"4","last_reported":1734462416,"current_range_meters":24800,"station_id":"ce4bhc92rcd13ifvqetg","pricing_plan_id":"cebpf4jnsgd1na2vs0mg"},{"bike_id":"dac211e7-f278-4f35-910f-62503c1e8281","system_id":"levelo_inurba_marseille","lat":43.31355,"lon":5.38496,"is_reserved":false,"is_disabled":false,"rental_uris":{"android":"levelo://app?vid=dac211e7-f278-4f35-910f-62503c1e8281","ios":"levelo://app?vid=dac211e7-f278-4f35-910f-62503c1e8281"},"vehicle_type_id":"4","last_reported":1734462416,"current_range_meters":38800,"station_id":"ce4bgt92rcd13ifvqcf0","pricing_plan_id":"cebpf4jnsgd1na2vs0mg"},{"bike_id":"563b4e1d-2e56-47c0-afec-7afc5fbabbcb","system_id":"levelo_inurba_marseille","lat":43.32164,"lon":5.37468,"is_reserved":false,"is_disabled":false,"rental_uris":{"android":"levelo://app?vid=563b4e1d-2e56-47c0-afec-7afc5fbabbcb","ios":"levelo://app?vid=563b4e1d-2e56-47c0-afec-7afc5fbabbcb"},"vehicle_type_id":"4","last_reported":1734462416,"current_range_meters":34800,"station_id":"","pricing_plan_id":"cebpf4jnsgd1na2vs0mg"},{"bike_id":"bdf518c3-8e1c-4e3a-bfa1-e7e3d9079018","system_id":"levelo_inurba_marseille","lat":43.33112,"lon":5.39007,"is_reserved":false,"is_disabled":false,"rental_uris":{"android":"levelo://app?vid=bdf518c3-8e1c-4e3a-bfa1-e7e3d9079018","ios":"levelo://app?vid=bdf518c3-8e1c-4e3a-bfa1-e7e3d9079018"},"vehicle_type_id":"4","last_reported":1734462416,"current_range_meters":38800,"station_id":"","pricing_plan_id":"cebpf4jnsgd1na2vs0mg"},{"bike_id":"b2d380e8-08ed-495f-a052-5d7dfa068f5b","system_id":"levelo_inurba_marseille","lat":43.26949,"lon":5.3863,"is_reserved":false,"is_disabled":true,"rental_uris":{"android":"levelo://app?vid=b2d380e8-08ed-495f-a052-5d7dfa068f5b","ios":"levelo://app?vid=b2d380e8-08ed-495f-a052-5d7dfa068f5b"},"vehicle_type_id":"4","last_reported":1734462416,"current_range_meters":0,"station_id":"ce4bhh92rcd13ifvqfh0","pricing_plan_id":"cebpf4jnsgd1na2vs0mg"},{"bike_id":"262db747-5df7-439b-b4e7-c313a4a57308","system_id":"levelo_inurba_marseille","lat":43.27818,"lon":5.40712,"is_reserved":false,"is_disabled":false,"rental_uris":{"android":"levelo://app?vid=262db747-5df7-439b-b4e7-c313a4a57308","ios":"levelo://app?vid=262db747-5df7-439b-b4e7-c313a4a57308"},"vehicle_type_id":"4","last_reported":1734462416,"current_range_meters":18800,"station_id":"ce4bhnh2rcd13ifvqgtg","pricing_plan_id":"cebpf4jnsgd1na2vs0mg"},{"bike_id":"e14f9774-c052-408f-b817-2e4f650072f0","system_id":"levelo_inurba_marseille","lat":43.303298,"lon":5.404304,"is_reserved":false,"is_disabled":false,"rental_uris":{"android":"levelo://app?vid=e14f9774-c052-408f-b817-2e4f650072f0","ios":"levelo://app?vid=e14f9774-c052-408f-b817-2e4f650072f0"},"vehicle_type_id":"4","last_reported":1734462416,"current_range_meters":29600,"station_id":"ce4bh012rcd13ifvqd10","pricing_plan_id":"cebpf4jnsgd1na2vs0mg"},{"bike_id":"d5c6ce19-842a-4c0c-a604-a28cc7cbaeab","system_id":"levelo_inurba_marseille","lat":43.28704,"lon":5.39993,"is_reserved":false,"is_disabled":false,"rental_uris":{"android":"levelo://app?vid=d5c6ce19-842a-4c0c-a604-a28cc7cbaeab","ios":"levelo://app?vid=d5c6ce19-842a-4c0c-a604-a28cc7cbaeab"},"vehicle_type_id":"4","last_reported":1734462416,"current_range_meters":39200,"station_id":"ce4bho92rcd13ifvqh3g","pricing_plan_id":"cebpf4jnsgd1na2vs0mg"},{"bike_id":"82f7f145-591c-4ce0-8f76-660882a2845e","system_id":"levelo_inurba_marseille","lat":43.3362,"lon":5.41018,"is_reserved":false,"is_disabled":true,"rental_uris":{"android":"levelo://app?vid=82f7f145-591c-4ce0-8f76-660882a2845e","ios":"levelo://app?vid=82f7f145-591c-4ce0-8f76-660882a2845e"},"vehicle_type_id":"4","last_reported":1734462416,"current_range_meters":34000,"station_id":"ce4bhqh2rcd13ifvqhmg","pricing_plan_id":"cebpf4jnsgd1na2vs0mg"},{"bike_id":"840ed963-9f8e-4d70-a8a0-f39a4af27f7a","system_id":"levelo_inurba_marseille","lat":43.27822,"lon":5.40715,"is_reserved":false,"is_disabled":false,"rental_uris":{"android":"levelo://app?vid=840ed963-9f8e-4d70-a8a0-f39a4af27f7a","ios":"levelo://app?vid=840ed963-9f8e-4d70-a8a0-f39a4af27f7a"},"vehicle_type_id":"4","last_reported":1734462416,"current_range_meters":28400,"station_id":"ce4bhnh2rcd13ifvqgtg","pricing_plan_id":"cebpf4jnsgd1na2vs0mg"},{"bike_id":"2ea2b566-c7ff-42df-9b9e-cc74037c16c1","system_id":"levelo_inurba_marseille","lat":43.287224,"lon":5.360851,"is_reserved":false,"is_disabled":false,"rental_uris":{"android":"levelo://app?vid=2ea2b566-c7ff-42df-9b9e-cc74037c16c1","ios":"levelo://app?vid=2ea2b566-c7ff-42df-9b9e-cc74037c16c1"},"vehicle_type_id":"4","last_reported":1734462416,"current_range_meters":38800,"station_id":"cki0cbj6b192h4jlfktg","pricing_plan_id":"cebpf4jnsgd1na2vs0mg"},{"bike_id":"a5507f5f-495d-449e-be0e-e7373f1f8861","system_id":"levelo_inurba_marseille","lat":43.29585,"lon":5.36764,"is_reserved":false,"is_disabled":false,"rental_uris":{"android":"levelo://app?vid=a5507f5f-495d-449e-be0e-e7373f1f8861","ios":"levelo://app?vid=a5507f5f-495d-449e-be0e-e7373f1f8861"},"vehicle_type_id":"4","last_reported":1734462416,"current_range_meters":33600,"station_id":"","pricing_plan_id":"cebpf4jnsgd1na2vs0mg"},{"bike_id":"ac7c5f56-daad-496c-965f-9103737000e8","system_id":"levelo_inurba_marseille","lat":43.23967,"lon":5.36629,"is_reserved":false,"is_disabled":false,"rental_uris":{"android":"levelo://app?vid=ac7c5f56-daad-496c-965f-9103737000e8","ios":"levelo://app?vid=ac7c5f56-daad-496c-965f-9103737000e8"},"vehicle_type_id":"4","last_reported":1734462416,"current_range_meters":38800,"station_id":"ce4bhi12rcd13ifvqfp0","pricing_plan_id":"cebpf4jnsgd1na2vs0mg"},{"bike_id":"3042285c-4f36-4e00-aa8e-2f4445e3a69e","system_id":"levelo_inurba_marseille","lat":43.32364,"lon":5.3887,"is_reserved":false,"is_disabled":false,"rental_uris":{"android":"levelo://app?vid=3042285c-4f36-4e00-aa8e-2f4445e3a69e","ios":"levelo://app?vid=3042285c-4f36-4e00-aa8e-2f4445e3a69e"},"vehicle_type_id":"4","last_reported":1734462416,"current_range_meters":38800,"station_id":"ce4bhqp2rcd13ifvqhog","pricing_plan_id":"cebpf4jnsgd1na2vs0mg"},{"bike_id":"ae9203ce-abb4-43fd-8ce8-3d87e58eba3c","system_id":"levelo_inurba_marseille","lat":43.31756,"lon":5.39019,"is_reserved":false,"is_disabled":false,"rental_uris":{"android":"levelo://app?vid=ae9203ce-abb4-43fd-8ce8-3d87e58eba3c","ios":"levelo://app?vid=ae9203ce-abb4-43fd-8ce8-3d87e58eba3c"},"vehicle_type_id":"4","last_reported":1734462416,"current_range_meters":20400,"station_id":"ce4bhqp2rcd13ifvqhng","pricing_plan_id":"cebpf4jnsgd1na2vs0mg"},{"bike_id":"f5d6a80f-4cdc-43d9-a251-ed5436737e28","system_id":"levelo_inurba_marseille","lat":43.31533,"lon":5.38024,"is_reserved":false,"is_disabled":false,"rental_uris":{"android":"levelo://app?vid=f5d6a80f-4cdc-43d9-a251-ed5436737e28","ios":"levelo://app?vid=f5d6a80f-4cdc-43d9-a251-ed5436737e28"},"vehicle_type_id":"4","last_reported":1734462416,"current_range_meters":38800,"station_id":"ce4bhsp2rcd13ifvqi50","pricing_plan_id":"cebpf4jnsgd1na2vs0mg"},{"bike_id":"05e06e5d-ea2e-4a8d-bc1c-d68f0491d915","system_id":"levelo_inurba_marseille","lat":43.25579,"lon":5.38228,"is_reserved":false,"is_disabled":false,"rental_uris":{"android":"levelo://app?vid=05e06e5d-ea2e-4a8d-bc1c-d68f0491d915","ios":"levelo://app?vid=05e06e5d-ea2e-4a8d-bc1c-d68f0491d915"},"vehicle_type_id":"4","last_reported":1734462416,"current_range_meters":24000,"station_id":"ce4bhih2rcd13ifvqfs0","pricing_plan_id":"cebpf4jnsgd1na2vs0mg"},{"bike_id":"3ea56f74-8bd6-4341-8672-65729d345bdc","system_id":"levelo_inurba_marseille","lat":43.29016,"lon":5.3814,"is_reserved":false,"is_disabled":false,"rental_uris":{"android":"levelo://app?vid=3ea56f74-8bd6-4341-8672-65729d345bdc","ios":"levelo://app?vid=3ea56f74-8bd6-4341-8672-65729d345bdc"},"vehicle_type_id":"4","last_reported":1734462416,"current_range_meters":3200,"station_id":"ce4bh4p2rcd13ifvqe1g","pricing_plan_id":"cebpf4jnsgd1na2vs0mg"},{"bike_id":"883b3f1b-01c4-47c7-9978-e5f0ddf771b8","system_id":"levelo_inurba_marseille","lat":43.33012,"lon":5.3905,"is_reserved":false,"is_disabled":false,"rental_uris":{"android":"levelo://app?vid=883b3f1b-01c4-47c7-9978-e5f0ddf771b8","ios":"levelo://app?vid=883b3f1b-01c4-47c7-9978-e5f0ddf771b8"},"vehicle_type_id":"4","last_reported":1734462416,"current_range_meters":20000,"station_id":"ce4bhr92rcd13ifvqhrg","pricing_plan_id":"cebpf4jnsgd1na2vs0mg"},{"bike_id":"a9400ed1-3a24-4ecc-82f2-c241a2db1602","system_id":"levelo_inurba_marseille","lat":43.28409,"lon":5.37508,"is_reserved":false,"is_disabled":false,"rental_uris":{"android":"levelo://app?vid=a9400ed1-3a24-4ecc-82f2-c241a2db1602","ios":"levelo://app?vid=a9400ed1-3a24-4ecc-82f2-c241a2db1602"},"vehicle_type_id":"4","last_reported":1734462416,"current_range_meters":28000,"station_id":"ce4bh412rcd13ifvqds0","pricing_plan_id":"cebpf4jnsgd1na2vs0mg"},{"bike_id":"bcd82c0f-76d2-4a91-84a3-cbe41a821089","system_id":"levelo_inurba_marseille","lat":43.32365,"lon":5.38885,"is_reserved":false,"is_disabled":false,"rental_uris":{"android":"levelo://app?vid=bcd82c0f-76d2-4a91-84a3-cbe41a821089","ios":"levelo://app?vid=bcd82c0f-76d2-4a91-84a3-cbe41a821089"},"vehicle_type_id":"4","last_reported":1734462416,"current_range_meters":34000,"station_id":"ce4bhqp2rcd13ifvqhog","pricing_plan_id":"cebpf4jnsgd1na2vs0mg"},{"bike_id":"a1af40d8-af84-498c-b3e9-21bfbcb6ca04","system_id":"levelo_inurba_marseille","lat":43.24807,"lon":5.37456,"is_reserved":false,"is_disabled":false,"rental_uris":{"android":"levelo://app?vid=a1af40d8-af84-498c-b3e9-21bfbcb6ca04","ios":"levelo://app?vid=a1af40d8-af84-498c-b3e9-21bfbcb6ca04"},"vehicle_type_id":"4","last_reported":1734462416,"current_range_meters":38800,"station_id":"ce4bhgh2rcd13ifvqfb0","pricing_plan_id":"cebpf4jnsgd1na2vs0mg"},{"bike_id":"b59c647e-051a-4eb5-a082-deb3a3d33fa7","system_id":"levelo_inurba_marseille","lat":43.29266,"lon":5.40123,"is_reserved":false,"is_disabled":true,"rental_uris":{"android":"levelo://app?vid=b59c647e-051a-4eb5-a082-deb3a3d33fa7","ios":"levelo://app?vid=b59c647e-051a-4eb5-a082-deb3a3d33fa7"},"vehicle_type_id":"4","last_reported":1734462416,"current_range_meters":18000,"station_id":"ce4bh312rcd13ifvqdk0","pricing_plan_id":"cebpf4jnsgd1na2vs0mg"},{"bike_id":"a3468072-2fe6-42bd-ac0f-9ee47b3b90ca","system_id":"levelo_inurba_marseille","lat":43.24997,"lon":5.38925,"is_reserved":false,"is_disabled":false,"rental_uris":{"android":"levelo://app?vid=a3468072-2fe6-42bd-ac0f-9ee47b3b90ca","ios":"levelo://app?vid=a3468072-2fe6-42bd-ac0f-9ee47b3b90ca"},"vehicle_type_id":"4","last_reported":1734462416,"current_range_meters":30800,"station_id":"ce4bhgp2rcd13ifvqfd0","pricing_plan_id":"cebpf4jnsgd1na2vs0mg"},{"bike_id":"b11935e9-650a-4cf3-98ee-136ac9bf4915","system_id":"levelo_inurba_marseille","lat":43.30418,"lon":5.39748,"is_reserved":false,"is_disabled":true,"rental_uris":{"android":"levelo://app?vid=b11935e9-650a-4cf3-98ee-136ac9bf4915","ios":"levelo://app?vid=b11935e9-650a-4cf3-98ee-136ac9bf4915"},"vehicle_type_id":"4","last_reported":1734462416,"current_range_meters":5600,"station_id":"ce4bh092rcd13ifvqd20","pricing_plan_id":"cebpf4jnsgd1na2vs0mg"},{"bike_id":"d0593f90-4e1d-4b16-8cc8-b45632b4702f","system_id":"levelo_inurba_marseille","lat":43.28345,"lon":5.38115,"is_reserved":false,"is_disabled":true,"rental_uris":{"android":"levelo://app?vid=d0593f90-4e1d-4b16-8cc8-b45632b4702f","ios":"levelo://app?vid=d0593f90-4e1d-4b16-8cc8-b45632b4702f"},"vehicle_type_id":"4","last_reported":1734462416,"current_range_meters":32000,"station_id":"ce4bh412rcd13ifvqdr0","pricing_plan_id":"cebpf4jnsgd1na2vs0mg"},{"bike_id":"26e9c1b9-02ea-4b06-afd3-3e0bdd6285ee","system_id":"levelo_inurba_marseille","lat":43.28073,"lon":5.39654,"is_reserved":false,"is_disabled":false,"rental_uris":{"android":"levelo://app?vid=26e9c1b9-02ea-4b06-afd3-3e0bdd6285ee","ios":"levelo://app?vid=26e9c1b9-02ea-4b06-afd3-3e0bdd6285ee"},"vehicle_type_id":"4","last_reported":1734462416,"current_range_meters":38800,"station_id":"ce4bho12rcd13ifvqh2g","pricing_plan_id":"cebpf4jnsgd1na2vs0mg"},{"bike_id":"72b3859c-92f5-4b07-9354-176d7789e2d7","system_id":"levelo_inurba_marseille","lat":43.28487,"lon":5.38557,"is_reserved":false,"is_disabled":false,"rental_uris":{"android":"levelo://app?vid=72b3859c-92f5-4b07-9354-176d7789e2d7","ios":"levelo://app?vid=72b3859c-92f5-4b07-9354-176d7789e2d7"},"vehicle_type_id":"4","last_reported":1734462416,"current_range_meters":11600,"station_id":"ce4bh8p2rcd13ifvqeb0","pricing_plan_id":"cebpf4jnsgd1na2vs0mg"},{"bike_id":"d63b0f4a-d179-4124-b7ac-4c5f55fa218a","system_id":"levelo_inurba_marseille","lat":43.2996,"lon":5.38501,"is_reserved":false,"is_disabled":false,"rental_uris":{"android":"levelo://app?vid=d63b0f4a-d179-4124-b7ac-4c5f55fa218a","ios":"levelo://app?vid=d63b0f4a-d179-4124-b7ac-4c5f55fa218a"},"vehicle_type_id":"4","last_reported":1734462416,"current_range_meters":37600,"station_id":"ce4bgj92rcd13ifvqbd0","pricing_plan_id":"cebpf4jnsgd1na2vs0mg"},{"bike_id":"099910f7-3241-4db5-b3c6-a9545dd650f6","system_id":"levelo_inurba_marseille","lat":43.28264,"lon":5.35066,"is_reserved":false,"is_disabled":false,"rental_uris":{"android":"levelo://app?vid=099910f7-3241-4db5-b3c6-a9545dd650f6","ios":"levelo://app?vid=099910f7-3241-4db5-b3c6-a9545dd650f6"},"vehicle_type_id":"4","last_reported":1734462416,"current_range_meters":19600,"station_id":"ce4bhbp2rcd13ifvqerg","pricing_plan_id":"cebpf4jnsgd1na2vs0mg"},{"bike_id":"79501bc4-d7a4-409e-95fc-fda9c874e2d8","system_id":"levelo_inurba_marseille","lat":43.282617,"lon":5.350614,"is_reserved":false,"is_disabled":true,"rental_uris":{"android":"levelo://app?vid=79501bc4-d7a4-409e-95fc-fda9c874e2d8","ios":"levelo://app?vid=79501bc4-d7a4-409e-95fc-fda9c874e2d8"},"vehicle_type_id":"4","last_reported":1734462416,"current_range_meters":3200,"station_id":"ce4bhbp2rcd13ifvqerg","pricing_plan_id":"cebpf4jnsgd1na2vs0mg"},{"bike_id":"8be087d3-9d6f-4250-a998-20bf5d178678","system_id":"levelo_inurba_marseille","lat":43.29289,"lon":5.37438,"is_reserved":false,"is_disabled":true,"rental_uris":{"android":"levelo://app?vid=8be087d3-9d6f-4250-a998-20bf5d178678","ios":"levelo://app?vid=8be087d3-9d6f-4250-a998-20bf5d178678"},"vehicle_type_id":"4","last_reported":1734462416,"current_range_meters":0,"station_id":"ce4bgi12rcd13ifvqb70","pricing_plan_id":"cebpf4jnsgd1na2vs0mg"},{"bike_id":"f95a6519-7474-44e4-9e6d-51ce64208eb5","system_id":"levelo_inurba_marseille","lat":43.27175,"lon":5.40991,"is_reserved":false,"is_disabled":true,"rental_uris":{"android":"levelo://app?vid=f95a6519-7474-44e4-9e6d-51ce64208eb5","ios":"levelo://app?vid=f95a6519-7474-44e4-9e6d-51ce64208eb5"},"vehicle_type_id":"4","last_reported":1734462416,"current_range_meters":400,"station_id":"ce4bhl12rcd13ifvqgf0","pricing_plan_id":"cebpf4jnsgd1na2vs0mg"},{"bike_id":"3d4faffe-b0f0-47fe-bfaa-23c8ee9fa1e3","system_id":"levelo_inurba_marseille","lat":43.313263,"lon":5.396893,"is_reserved":false,"is_disabled":false,"rental_uris":{"android":"levelo://app?vid=3d4faffe-b0f0-47fe-bfaa-23c8ee9fa1e3","ios":"levelo://app?vid=3d4faffe-b0f0-47fe-bfaa-23c8ee9fa1e3"},"vehicle_type_id":"4","last_reported":1734462416,"current_range_meters":30000,"station_id":"ce4bgvp2rcd13ifvqcu0","pricing_plan_id":"cebpf4jnsgd1na2vs0mg"},