{"last_updated":1741374464,"ttl":60,"version":"2.2","data":{"bikes":[{"bike_id":"94ae2d2c-7224-440b-ab78-492852db7165","system_id":"levelo_inurba_marseille","lat":43.30875,"lon":5.39651,"is_reserved":false,"is_disabled":false,"rental_uris":{"android":"levelo://app?vid=94ae2d2c-7224-440b-ab78-492852db7165","ios":"levelo://app?vid=94ae2d2c-7224-440b-ab78-492852db7165"},"vehicle_type_id":"4","last_reported":1741374464,"current_range_meters":2800,"station_id":"ce4bh012rcd13ifvqcv0","pricing_plan_id":"cebpf4jnsgd1na2vs0mg"},{"bike_id":"939126bb-d739-40d2-89fd-85ccfda464ae","system_id":"levelo_inurba_marseille","lat":43.27167,"lon":5.40986,"is_reserved":false,"is_disabled":false,"rental_uris":{"android":"levelo://app?vid=939126bb-d739-40d2-89fd-85ccfda464ae","ios":"levelo://app?vid=939126bb-d739-40d2-89fd-85ccfda464ae"},"vehicle_type_id":"4","last_reported":1741374464,"current_range_meters":2800,"station_id":"ce4bhl12rcd13ifvqgf0","pricing_plan_id":"cebpf4jnsgd1na2vs0mg"},{"bike_id":"277b3d5e-da8d-4945-9cfa-0b51ca49b049","system_id":"levelo_inurba_marseille","lat":43.30361,"lon":5.4188,"is_reserved":false,"is_disabled":false,"rental_uris":{"android":"levelo://app?vid=277b3d5e-da8d-4945-9cfa-0b51ca49b049","ios":"levelo://app?vid=277b3d5e-da8d-4945-9cfa-0b51ca49b049"},"vehicle_type_id":"4","last_reported":1741374464,"current_range_meters":2800,"station_id":"ce4bhop2rcd13ifvqh7g","pricing_plan_id":"cebpf4jnsgd1na2vs0mg"},{"bike_id":"c507b7de-285f-4511-aada-f2f80cfc5dca","system_id":"levelo_inurba_marseille","lat":43.2848,"lon":5.38441,"is_reserved":false,"is_disabled":false,"rental_uris":{"android":"levelo://app?vid=c507b7de-285f-4511-aada-f2f80cfc5dca","ios":"levelo://app?vid=c507b7de-285f-4511-aada-f2f80cfc5dca"},"vehicle_type_id":"4","last_reported":1741374464,"current_range_meters":2800,"station_id":"ce4bh512rcd13ifvqe3g","pricing_plan_id":"cebpf4jnsgd1na2vs0mg"},{"bike_id":"40e2e695-d552-4542-901f-9cd18e8de670","system_id":"levelo_inurba_marseille","lat":43.26699,"lon":5.38267,"is_reserved":false,"is_disabled":true,"rental_uris":{"android":"levelo://app?vid=40e2e695-d552-4542-901f-9cd18e8de670","ios":"levelo://app?vid=40e2e695-d552-4542-901f-9cd18e8de670"},"vehicle_type_id":"4","last_reported":1741374464,"current_range_meters":2800,"station_id":"ce4bhg92rcd13ifvqf90","pricing_plan_id":"cebpf4jnsgd1na2vs0mg"},{"bike_id":"5e909080-7e17-4100-a613-fae8411195f1","system_id":"levelo_inurba_marseille","lat":43.28482,"lon":5.3844,"is_reserved":false,"is_disabled":false,"rental_uris":{"android":"levelo://app?vid=5e909080-7e17-4100-a613-fae8411195f1","ios":"levelo://app?vid=5e909080-7e17-4100-a613-fae8411195f1"},"vehicle_type_id":"4","last_reported":1741374464,"current_range_meters":2800,"station_id":"ce4bh512rcd13ifvqe3g","pricing_plan_id":"cebpf4jnsgd1na2vs0mg"},{"bike_id":"417e57ed-2f49-42c4-8a63-ea12480b297b","system_id":"levelo_inurba_marseille","lat":43.27814,"lon":5.40699,"is_reserved":false,"is_disabled":false,"rental_uris":{"android":"levelo://app?vid=417e57ed-2f49-42c4-8a63-ea12480b297b","ios":"levelo://app?vid=417e57ed-2f49-42c4-8a63-ea12480b297b"},"vehicle_type_id":"4","last_reported":1741374464,"current_range_meters":3200,"station_id":"ce4bhnh2rcd13ifvqgtg","pricing_plan_id":"cebpf4jnsgd1na2vs0mg"},{"bike_id":"1adb58a8-7719-4e80-86f3-c379ccf7186d","system_id":"levelo_inurba_marseille","lat":43.29625,"lon":5.37731,"is_reserved":false,"is_disabled":false,"rental_uris":{"android":"levelo://app?vid=1adb58a8-7719-4e80-86f3-c379ccf7186d","ios":"levelo://app?vid=1adb58a8-7719-4e80-86f3-c379ccf7186d"},"vehicle_type_id":"4","last_reported":1741374464,"current_range_meters":3200,"station_id":"ce4bgi92rcd13ifvqb90","pricing_plan_id":"cebpf4jnsgd1na2vs0mg"},{"bike_id":"cb8fb3e5-80d7-4455-8982-8bd5a42ca36b","system_id":"levelo_inurba_marseille","lat":43.27814,"lon":5.40712,"is_reserved":false,"is_disabled":false,"rental_uris":{"android":"levelo://app?vid=cb8fb3e5-80d7-4455-8982-8bd5a42ca36b","ios":"levelo://app?vid=cb8fb3e5-80d7-4455-8982-8bd5a42ca36b"},"vehicle_type_id":"4","last_reported":1741374464,"current_range_meters":3200,"station_id":"ce4bhnh2rcd13ifvqgtg","pricing_plan_id":"cebpf4jnsgd1na2vs0mg"},{"bike_id":"3384348d-3fa0-4215-b2b7-8c915fa4393f","system_id":"levelo_inurba_marseille","lat":43.25117,"lon":5.40317,"is_reserved":false,"is_disabled":false,"rental_uris":{"android":"levelo://app?vid=3384348d-3fa0-4215-b2b7-8c915fa4393f","ios":"levelo://app?vid=3384348d-3fa0-4215-b2b7-8c915fa4393f"},"vehicle_type_id":"4","last_reported":1741374464,"current_range_meters":2000,"station_id":"ce4bhlh2rcd13ifvqgig","pricing_plan_id":"cebpf4jnsgd1na2vs0mg"},{"bike_id":"4700d0fd-566e-4dbb-b2a0-7422f92c7d76","system_id":"levelo_inurba_marseille","lat":43.28513,"lon":5.38519,"is_reserved":false,"is_disabled":false,"rental_uris":{"android":"levelo://app?vid=4700d0fd-566e-4dbb-b2a0-7422f92c7d76","ios":"levelo://app?vid=4700d0fd-566e-4dbb-b2a0-7422f92c7d76"},"vehicle_type_id":"4","last_reported":1741374464,"current_range_meters":3200,"station_id":"ce4bh8p2rcd13ifvqeb0","pricing_plan_id":"cebpf4jnsgd1na2vs0mg"},{"bike_id":"58635a93-596b-42ca-b006-b6558accf8c1","system_id":"levelo_inurba_marseille","lat":43.299655,"lon":5.384807,"is_reserved":false,"is_disabled":false,"rental_uris":{"android":"levelo://app?vid=58635a93-596b-42ca-b006-b6558accf8c1","ios":"levelo://app?vid=58635a93-596b-42ca-b006-b6558accf8c1"},"vehicle_type_id":"4","last_reported":1741374464,"current_range_meters":3200,"station_id":"ce4bgh92rcd13ifvqb50","pricing_plan_id":"cebpf4jnsgd1na2vs0mg"},{"bike_id":"d572b633-d5af-4df0-87b8-0a5b1819b02b","system_id":"levelo_inurba_marseille","lat":43.24217,"lon":5.39698,"is_reserved":false,"is_disabled":true,"rental_uris":{"android":"levelo://app?vid=d572b633-d5af-4df0-87b8-0a5b1819b02b","ios":"levelo://app?vid=d572b633-d5af-4df0-87b8-0a5b1819b02b"},"vehicle_type_id":"4","last_reported":1741374464,"current_range_meters":3600,"station_id":"ce4bhn12rcd13ifvqgpg","pricing_plan_id":"cebpf4jnsgd1na2vs0mg"},{"bike_id":"84fd8a9d-d33c-4402-bbe4-001e62a7f660","system_id":"levelo_inurba_marseille","lat":43.26625,"lon":5.39858,"is_reserved":false,"is_disabled":false,"rental_uris":{"android":"levelo://app?vid=84fd8a9d-d33c-4402-bbe4-001e62a7f660","ios":"levelo://app?vid=84fd8a9d-d33c-4402-bbe4-001e62a7f660"},"vehicle_type_id":"4","last_reported":1741374464,"current_range_meters":3600,"station_id":"","pricing_plan_id":"cebpf4jnsgd1na2vs0mg"},{"bike_id":"612f90c3-412d-4e43-b983-8c3a258e84a4","system_id":"levelo_inurba_marseille","lat":43.26059,"lon":5.39397,"is_reserved":false,"is_disabled":false,"rental_uris":{"android":"levelo://app?vid=612f90c3-412d-4e43-b983-8c3a258e84a4","ios":"levelo://app?vid=612f90c3-412d-4e43-b983-8c3a258e84a4"},"vehicle_type_id":"4","last_reported":1741374464,"current_range_meters":3600,"station_id":"ce4bhh92rcd13ifvqfj0","pricing_plan_id":"cebpf4jnsgd1na2vs0mg"},{"bike_id":"d6dfb925-75eb-4d93-8a0f-484371706997","system_id":"levelo_inurba_marseille","lat":43.29884,"lon":5.38898,"is_reserved":false,"is_disabled":false,"rental_uris":{"android":"levelo://app?vid=d6dfb925-75eb-4d93-8a0f-484371706997","ios":"levelo://app?vid=d6dfb925-75eb-4d93-8a0f-484371706997"},"vehicle_type_id":"4","last_reported":1741374464,"current_range_meters":6000,"station_id":"ce4bh392rcd13ifvqdl0","pricing_plan_id":"cebpf4jnsgd1na2vs0mg"},{"bike_id":"679e0147-5f0f-49b8-bfb5-d68e4596209f","system_id":"levelo_inurba_marseille","lat":43.28342,"lon":5.381,"is_reserved":false,"is_disabled":false,"rental_uris":{"android":"levelo://app?vid=679e0147-5f0f-49b8-bfb5-d68e4596209f","ios":"levelo://app?vid=679e0147-5f0f-49b8-bfb5-d68e4596209f"},"vehicle_type_id":"4","last_reported":1741374464,"current_range_meters":3600,"station_id":"ce4bh412rcd13ifvqdr0","pricing_plan_id":"cebpf4jnsgd1na2vs0mg"},{"bike_id":"48ef01b7-ed57-4737-96e7-6f7c821865c1","system_id":"levelo_inurba_marseille","lat":43.26066,"lon":5.39396,"is_reserved":false,"is_disabled":false,"rental_uris":{"android":"levelo://app?vid=48ef01b7-ed57-4737-96e7-6f7c821865c1","ios":"levelo://app?vid=48ef01b7-ed57-4737-96e7-6f7c821865c1"},"vehicle_type_id":"4","last_reported":1741374464,"current_range_meters":3600,"station_id":"ce4bhh92rcd13ifvqfj0","pricing_plan_id":"cebpf4jnsgd1na2vs0mg"},{"bike_id":"9dc4def2-7446-4b36-a0a9-c04d67808926","system_id":"levelo_inurba_marseille","lat":43.27898,"lon":5.38001,"is_reserved":false,"is_disabled":false,"rental_uris":{"android":"levelo://app?vid=9dc4def2-7446-4b36-a0a9-c04d67808926","ios":"levelo://app?vid=9dc4def2-7446-4b36-a0a9-c04d67808926"},"vehicle_type_id":"4","last_reported":1741374464,"current_range_meters":4000,"station_id":"ce4bhf92rcd13ifvqf50","pricing_plan_id":"cebpf4jnsgd1na2vs0mg"},{"bike_id":"de10dad3-cc48-400a-922c-cca5bf1a3a20","system_id":"levelo_inurba_marseille","lat":43.29938,"lon":5.38831,"is_reserved":false,"is_disabled":true,"rental_uris":{"android":"levelo://app?vid=de10dad3-cc48-400a-922c-cca5bf1a3a20","ios":"levelo://app?vid=de10dad3-cc48-400a-922c-cca5bf1a3a20"},"vehicle_type_id":"4","last_reported":1741374464,"current_range_meters":4400,"station_id":"","pricing_plan_id":"cebpf4jnsgd1na2vs0mg"},{"bike_id":"213a55ca-f2a7-4654-82bb-917e146ee276","system_id":"levelo_inurba_marseille","lat":43.27815,"lon":5.40713,"is_reserved":false,"is_disabled":false,"rental_uris":{"android":"levelo://app?vid=213a55ca-f2a7-4654-82bb-917e146ee276","ios":"levelo://app?vid=213a55ca-f2a7-4654-82bb-917e146ee276"},"vehicle_type_id":"4","last_reported":1741374464,"current_range_meters":4400,"station_id":"ce4bhnh2rcd13ifvqgtg","pricing_plan_id":"cebpf4jnsgd1na2vs0mg"},{"bike_id":"e5a502d0-4124-42b0-b083-0c5c5e872a40","system_id":"levelo_inurba_marseille","lat":43.28614,"lon":5.37055,"is_reserved":false,"is_disabled":false,"rental_uris":{"android":"levelo://app?vid=e5a502d0-4124-42b0-b083-0c5c5e872a40","ios":"levelo://app?vid=e5a502d0-4124-42b0-b083-0c5c5e872a40"},"vehicle_type_id":"4","last_reported":1741374464,"current_range_meters":4400,"station_id":"ce4bht12rcd13ifvqi60","pricing_plan_id":"cebpf4jnsgd1na2vs0mg"},{"bike_id":"67ce49df-f362-4e79-b7bd-9582c8d7eb5f","system_id":"levelo_inurba_marseille","lat":43.2971,"lon":5.37696,"is_reserved":false,"is_disabled":false,"rental_uris":{"android":"levelo://app?vid=67ce49df-f362-4e79-b7bd-9582c8d7eb5f","ios":"levelo://app?vid=67ce49df-f362-4e79-b7bd-9582c8d7eb5f"},"vehicle_type_id":"4","last_reported":1741374464,"current_range_meters":4800,"station_id":"ce4bgkh2rcd13ifvqbl0","pricing_plan_id":"cebpf4jnsgd1na2vs0mg"},{"bike_id":"302b9a8d-1b78-47af-8826-359fda490272","system_id":"levelo_inurba_marseille","lat":43.27809,"lon":5.4071,"is_reserved":false,"is_disabled":false,"rental_uris":{"android":"levelo://app?vid=302b9a8d-1b78-47af-8826-359fda490272","ios":"levelo://app?vid=302b9a8d-1b78-47af-8826-359fda490272"},"vehicle_type_id":"4","last_reported":1741374464,"current_range_meters":4800,"station_id":"ce4bhnh2rcd13ifvqgtg","pricing_plan_id":"cebpf4jnsgd1na2vs0mg"},{"bike_id":"ba7daa0c-7022-4864-a591-364ea0e0da85","system_id":"levelo_inurba_marseille","lat":43.27212,"lon":5.39186,"is_reserved":false,"is_disabled":false,"rental_uris":{"android":"levelo://app?vid=ba7daa0c-7022-4864-a591-364ea0e0da85","ios":"levelo://app?vid=ba7daa0c-7022-4864-a591-364ea0e0da85"},"vehicle_type_id":"4","last_reported":1741374464,"current_range_meters":2000,"station_id":"ce4bhhp2rcd13ifvqfm0","pricing_plan_id":"cebpf4jnsgd1na2vs0mg"},{"bike_id":"ee827e83-e2a8-4bab-acd9-7eb35c15bbee","system_id":"levelo_inurba_marseille","lat":43.30181,"lon":5.36608,"is_reserved":false,"is_disabled":false,"rental_uris":{"android":"levelo://app?vid=ee827e83-e2a8-4bab-acd9-7eb35c15bbee","ios":"levelo://app?vid=ee827e83-e2a8-4bab-acd9-7eb35c15bbee"},"vehicle_type_id":"4","last_reported":1741374464,"current_range_meters":5600,"station_id":"ce4bgrh2rcd13ifvqc8g","pricing_plan_id":"cebpf4jnsgd1na2vs0mg"},{"bike_id":"157324fb-3b1f-4510-a5be-085d0f0b1e2c","system_id":"levelo_inurba_marseille","lat":43.2827,"lon":5.35063,"is_reserved":false,"is_disabled":false,"rental_uris":{"android":"levelo://app?vid=157324fb-3b1f-4510-a5be-085d0f0b1e2c","ios":"levelo://app?vid=157324fb-3b1f-4510-a5be-085d0f0b1e2c"},"vehicle_type_id":"4","last_reported":1741374464,"current_range_meters":4800,"station_id":"ce4bhbp2rcd13ifvqerg","pricing_plan_id":"cebpf4jnsgd1na2vs0mg"},{"bike_id":"e2bd0aea-79df-4589-b3af-873952acf9e7","system_id":"levelo_inurba_marseille","lat":43.31174,"lon":5.38717,"is_reserved":false,"is_disabled":false,"rental_uris":{"android":"levelo://app?vid=e2bd0aea-79df-4589-b3af-873952acf9e7","ios":"levelo://app?vid=e2bd0aea-79df-4589-b3af-873952acf9e7"},"vehicle_type_id":"4","last_reported":1741374464,"current_range_meters":2800,"station_id":"ce4bgv12rcd13ifvqcp0","pricing_plan_id":"cebpf4jnsgd1na2vs0mg"},{"bike_id":"29571c4c-997f-493e-a0ba-bc3f7c15f537","system_id":"levelo_inurba_marseille","lat":43.29264,"lon":5.38441,"is_reserved":false,"is_disabled":false,"rental_uris":{"android":"levelo://app?vid=29571c4c-997f-493e-a0ba-bc3f7c15f537","ios":"levelo://app?vid=29571c4c-997f-493e-a0ba-bc3f7c15f537"},"vehicle_type_id":"4","last_reported":1741374464,"current_range_meters":5600,"station_id":"ce4bh692rcd13ifvqea0","pricing_plan_id":"cebpf4jnsgd1na2vs0mg"},{"bike_id":"20d4a8f5-db36-4f59-aca3-ceecf7ec512e","system_id":"levelo_inurba_marseille","lat":43.28677,"lon":5.38533,"is_reserved":false,"is_disabled":false,"rental_uris":{"android":"levelo://app?vid=20d4a8f5-db36-4f59-aca3-ceecf7ec512e","ios":"levelo://app?vid=20d4a8f5-db36-4f59-aca3-ceecf7ec512e"},"vehicle_type_id":"4","last_reported":1741374464,"current_range_meters":5600,"station_id":"","pricing_plan_id":"cebpf4jnsgd1na2vs0mg"},{"bike_id":"e585eb60-3452-409f-82a3-3ccb089b72a8","system_id":"levelo_inurba_marseille","lat":43.29418,"lon":5.3863,"is_reserved":false,"is_disabled":false,"rental_uris":{"android":"levelo://app?vid=e585eb60-3452-409f-82a3-3ccb089b72a8","ios":"levelo://app?vid=e585eb60-3452-409f-82a3-3ccb089b72a8"},"vehicle_type_id":"4","last_reported":1741374464,"current_range_meters":5600,"station_id":"ce4bh2h2rcd13ifvqdh0","pricing_plan_id":"cebpf4jnsgd1na2vs0mg"},{"bike_id":"7f1905bf-da4d-4f13-af14-c5d46804e585","system_id":"levelo_inurba_marseille","lat":43.23192,"lon":5.35549,"is_reserved":false,"is_disabled":false,"rental_uris":{"android":"levelo://app?vid=7f1905bf-da4d-4f13-af14-c5d46804e585","ios":"levelo://app?vid=7f1905bf-da4d-4f13-af14-c5d46804e585"},"vehicle_type_id":"4","last_reported":1741374464,"current_range_meters":5600,"station_id":"ce4bhu92rcd13ifvqi70","pricing_plan_id":"cebpf4jnsgd1na2vs0mg"},{"bike_id":"38609b10-7d3a-4901-9bfc-a1face2a7876","system_id":"levelo_inurba_marseille","lat":43.29524,"lon":5.38549,"is_reserved":false,"is_disabled":false,"rental_uris":{"android":"levelo://app?vid=38609b10-7d3a-4901-9bfc-a1face2a7876","ios":"levelo://app?vid=38609b10-7d3a-4901-9bfc-a1face2a7876"},"vehicle_type_id":"4","last_reported":1741374464,"current_range_meters":4800,"station_id":"ce4bgih2rcd13ifvqba0","pricing_plan_id":"cebpf4jnsgd1na2vs0mg"},{"bike_id":"bee65dbc-1230-4c60-abcd-01b585cd99a4","system_id":"levelo_inurba_marseille","lat":43.293,"lon":5.37454,"is_reserved":false,"is_disabled":false,"rental_uris":{"android":"levelo://app?vid=bee65dbc-1230-4c60-abcd-01b585cd99a4","ios":"levelo://app?vid=bee65dbc-1230-4c60-abcd-01b585cd99a4"},"vehicle_type_id":"4","last_reported":1741374464,"current_range_meters":5600,"station_id":"ce4bgi12rcd13ifvqb70","pricing_plan_id":"cebpf4jnsgd1na2vs0mg"},{"bike_id":"77932506-a232-4d46-b36d-352ef01eaf03","system_id":"levelo_inurba_marseille","lat":43.28004,"lon":5.40009,"is_reserved":false,"is_disabled":false,"rental_uris":{"android":"levelo://app?vid=77932506-a232-4d46-b36d-352ef01eaf03","ios":"levelo://app?vid=77932506-a232-4d46-b36d-352ef01eaf03"},"vehicle_type_id":"4","last_reported":1741374464,"current_range_meters":6000,"station_id":"ce4bho92rcd13ifvqh4g","pricing_plan_id":"cebpf4jnsgd1na2vs0mg"},{"bike_id":"d93bdeca-d0ff-402c-a1ae-de5375476d11","system_id":"levelo_inurba_marseille","lat":43.282266,"lon":5.402831,"is_reserved":false,"is_disabled":true,"rental_uris":{"android":"levelo://app?vid=d93bdeca-d0ff-402c-a1ae-de5375476d11","ios":"levelo://app?vid=d93bdeca-d0ff-402c-a1ae-de5375476d11"},"vehicle_type_id":"4","last_reported":1741374464,"current_range_meters":6000,"station_id":"","pricing_plan_id":"cebpf4jnsgd1na2vs0mg"},{"bike_id":"cb47043e-2b36-4398-963d-22088496551a","system_id":"levelo_inurba_marseille","lat":43.31752,"lon":5.3903,"is_reserved":false,"is_disabled":true,"rental_uris":{"android":"levelo://app?vid=cb47043e-2b36-4398-963d-22088496551a","ios":"levelo://app?vid=cb47043e-2b36-4398-963d-22088496551a"},"vehicle_type_id":"4","last_reported":1741374464,"current_range_meters":6000,"station_id":"ce4bhqp2rcd13ifvqhng","pricing_plan_id":"cebpf4jnsgd1na2vs0mg"},{"bike_id":"d97b34a5-4a9d-4d9c-b55f-b72c9be6ca47","system_id":"levelo_inurba_marseille","lat":43.25102,"lon":5.40405,"is_reserved":false,"is_disabled":true,"rental_uris":{"android":"levelo://app?vid=d97b34a5-4a9d-4d9c-b55f-b72c9be6ca47","ios":"levelo://app?vid=d97b34a5-4a9d-4d9c-b55f-b72c9be6ca47"},"vehicle_type_id":"4","last_reported":1741374464,"current_range_meters":6000,"station_id":"","pricing_plan_id":"cebpf4jnsgd1na2vs0mg"},{"bike_id":"6c8bea24-6e7d-4d8e-ab9b-45c96754faec","system_id":"levelo_inurba_marseille","lat":43.30635,"lon":5.40073,"is_reserved":false,"is_disabled":false,"rental_uris":{"android":"levelo://app?vid=6c8bea24-6e7d-4d8e-ab9b-45c96754faec","ios":"levelo://app?vid=6c8bea24-6e7d-4d8e-ab9b-45c96754faec"},"vehicle_type_id":"4","last_reported":1741374464,"current_range_meters":6000,"station_id":"ce4bh112rcd13ifvqda0","pricing_plan_id":"cebpf4jnsgd1na2vs0mg"},{"bike_id":"922965ec-ad3d-4bcd-8626-3511bd86109a","system_id":"levelo_inurba_marseille","lat":43.23191,"lon":5.39983,"is_reserved":false,"is_disabled":false,"rental_uris":{"android":"levelo://app?vid=922965ec-ad3d-4bcd-8626-3511bd86109a","ios":"levelo://app?vid=922965ec-ad3d-4bcd-8626-3511bd86109a"},"vehicle_type_id":"4","last_reported":1741374464,"current_range_meters":6000,"station_id":"ce4bhn12rcd13ifvqgqg","pricing_plan_id":"cebpf4jnsgd1na2vs0mg"},{"bike_id":"9bfe4e82-241b-4620-b471-d226beb88b23","system_id":"levelo_inurba_marseille","lat":43.229268,"lon":5.353734,"is_reserved":false,"is_disabled":false,"rental_uris":{"android":"levelo://app?vid=9bfe4e82-241b-4620-b471-d226beb88b23","ios":"levelo://app?vid=9bfe4e82-241b-4620-b471-d226beb88b23"},"vehicle_type_id":"4","last_reported":1741374464,"current_range_meters":6000,"station_id":"cpo3532slgdg3j2ikp40","pricing_plan_id":"cebpf4jnsgd1na2vs0mg"},{"bike_id":"f88a6cd9-f001-46b4-8023-0ed8105ce083","system_id":"levelo_inurba_marseille","lat":43.28029,"lon":5.36945,"is_reserved":false,"is_disabled":false,"rental_uris":{"android":"levelo://app?vid=f88a6cd9-f001-46b4-8023-0ed8105ce083","ios":"levelo://app?vid=f88a6cd9-f001-46b4-8023-0ed8105ce083"},"vehicle_type_id":"4","last_reported":1741374464,"current_range_meters":6400,"station_id":"ce4bha12rcd13ifvqef0","pricing_plan_id":"cebpf4jnsgd1na2vs0mg"},{"bike_id":"9557250c-2f27-4f1b-ac05-9910513b896b","system_id":"levelo_inurba_marseille","lat":43.298899,"lon":5.388991,"is_reserved":false,"is_disabled":false,"rental_uris":{"android":"levelo://app?vid=9557250c-2f27-4f1b-ac05-9910513b896b","ios":"levelo://app?vid=9557250c-2f27-4f1b-ac05-9910513b896b"},"vehicle_type_id":"4","last_reported":1741374464,"current_range_meters":11200,"station_id":"ce4bgj92rcd13ifvqbd0","pricing_plan_id":"cebpf4jnsgd1na2vs0mg"},{"bike_id":"2d38aacd-7e3d-4b03-9fab-83967b873e83","system_id":"levelo_inurba_marseille","lat":43.29275,"lon":5.36843,"is_reserved":false,"is_disabled":false,"rental_uris":{"android":"levelo://app?vid=2d38aacd-7e3d-4b03-9fab-83967b873e83","ios":"levelo://app?vid=2d38aacd-7e3d-4b03-9fab-83967b873e83"},"vehicle_type_id":"4","last_reported":1741374464,"current_range_meters":6400,"station_id":"ce4bhbp2rcd13ifvqesg","pricing_plan_id":"cebpf4jnsgd1na2vs0mg"},{"bike_id":"cec5e37f-c71d-44a2-9658-fb20721a8db4","system_id":"levelo_inurba_marseille","lat":43.29274,"lon":5.37625,"is_reserved":false,"is_disabled":false,"rental_uris":{"android":"levelo://app?vid=cec5e37f-c71d-44a2-9658-fb20721a8db4","ios":"levelo://app?vid=cec5e37f-c71d-44a2-9658-fb20721a8db4"},"vehicle_type_id":"4","last_reported":1741374464,"current_range_meters":6400,"station_id":"ce4bgi12rcd13ifvqb80","pricing_plan_id":"cebpf4jnsgd1na2vs0mg"},{"bike_id":"a89b725e-49ab-4067-a54d-d2972ea19f3d","system_id":"levelo_inurba_marseille","lat":43.24547,"lon":5.39522,"is_reserved":false,"is_disabled":false,"rental_uris":{"android":"levelo://app?vid=a89b725e-49ab-4067-a54d-d2972ea19f3d","ios":"levelo://app?vid=a89b725e-49ab-4067-a54d-d2972ea19f3d"},"vehicle_type_id":"4","last_reported":1741374464,"current_range_meters":6400,"station_id":"ce4bhlp2rcd13ifvqgjg","pricing_plan_id":"cebpf4jnsgd1na2vs0mg"},{"bike_id":"f7a85f1b-5528-4bd4-98d9-a65f1b6b8628","system_id":"levelo_inurba_marseille","lat":43.28919,"lon":5.35447,"is_reserved":false,"is_disabled":false,"rental_uris":{"android":"levelo://app?vid=f7a85f1b-5528-4bd4-98d9-a65f1b6b8628","ios":"levelo://app?vid=f7a85f1b-5528-4bd4-98d9-a65f1b6b8628"},"vehicle_type_id":"4","last_reported":1741374464,"current_range_meters":6400,"station_id":"","pricing_plan_id":"cebpf4jnsgd1na2vs0mg"},{"bike_id":"01fd6840-d8be-4b5e-9ba7-0ed0dbe54f06","system_id":"levelo_inurba_marseille","lat":43.23194,"lon":5.35556,"is_reserved":false,"is_disabled":false,"rental_uris":{"android":"levelo://app?vid=01fd6840-d8be-4b5e-9ba7-0ed0dbe54f06","ios":"levelo://app?vid=01fd6840-d8be-4b5e-9ba7-0ed0dbe54f06"},"vehicle_type_id":"4","last_reported":1741374464,"current_range_meters":6400,"station_id":"ce4bhu92rcd13ifvqi70","pricing_plan_id":"cebpf4jnsgd1na2vs0mg"},{"bike_id":"e1a3d094-fd5a-4b0e-b3fd-06c39e7f4f48","system_id":"levelo_inurba_marseille","lat":43.328847,"lon":5.390789,"is_reserved":false,"is_disabled":false,"rental_uris":{"android":"levelo://app?vid=e1a3d094-fd5a-4b0e-b3fd-06c39e7f4f48","ios":"levelo://app?vid=e1a3d094-fd5a-4b0e-b3fd-06c39e7f4f48"},"vehicle_type_id":"4","last_reported":1741374464,"current_range_meters":6400,"station_id":"","pricing_plan_id":"cebpf4jnsgd1na2vs0mg"},{"bike_id":"c5d9a748-fb84-4751-9008-dc4467d9ed9a","system_id":"levelo_inurba_marseille","lat":43.23196,"lon":5.35531,"is_reserved":false,"is_disabled":false,"rental_uris":{"android":"levelo://app?vid=c5d9a748-fb84-4751-9008-dc4467d9ed9a","ios":"levelo://app?vid=c5d9a748-fb84-4751-9008-dc4467d9ed9a"},"vehicle_type_id":"4","last_reported":1741374464,"current_range_meters":6400,"station_id":"ce4bhu92rcd13ifvqi70","pricing_plan_id":"cebpf4jnsgd1na2vs0mg"},{"bike_id":"889d7428-72ab-4419-a062-e45cc2e946b0","system_id":"levelo_inurba_marseille","lat":43.313298,"lon":5.397023,"is_reserved":false,"is_disabled":false,"rental_uris":{"android":"levelo://app?vid=889d7428-72ab-4419-a062-e45cc2e946b0","ios":"levelo://app?vid=889d7428-72ab-4419-a062-e45cc2e946b0"},"vehicle_type_id":"4","last_reported":1741374464,"current_range_meters":6400,"station_id":"ce4bgvp2rcd13ifvqcu0","pricing_plan_id":"cebpf4jnsgd1na2vs0mg"},{"bike_id":"48ce40c1-0299-44b6-af4d-acc32ba2f0c2","system_id":"levelo_inurba_marseille","lat":43.2396,"lon":5.36635,"is_reserved":false,"is_disabled":false,"rental_uris":{"android":"levelo://app?vid=48ce40c1-0299-44b6-af4d-acc32ba2f0c2","ios":"levelo://app?vid=48ce40c1-0299-44b6-af4d-acc32ba2f0c2"},"vehicle_type_id":"4","last_reported":1741374464,"current_range_meters":6400,"station_id":"ce4bhi12rcd13ifvqfp0","pricing_plan_id":"cebpf4jnsgd1na2vs0mg"},{"bike_id":"7b6541bd-56cb-40c0-9c58-77626a99bc9d","system_id":"levelo_inurba_marseille","lat":43.30679,"lon":5.40059,"is_reserved":false,"is_disabled":false,"rental_uris":{"android":"levelo://app?vid=7b6541bd-56cb-40c0-9c58-77626a99bc9d","ios":"levelo://app?vid=7b6541bd-56cb-40c0-9c58-77626a99bc9d"},"vehicle_type_id":"4","last_reported":1741374464,"current_range_meters":6800,"station_id":"ce4bh112rcd13ifvqda0","pricing_plan_id":"cebpf4jnsgd1na2vs0mg"},{"bike_id":"1b34c58c-f011-43f3-baac-47c6cf7523c0","system_id":"levelo_inurba_marseille","lat":43.29951,"lon":5.43647,"is_reserved":false,"is_disabled":false,"rental_uris":{"android":"levelo://app?vid=1b34c58c-f011-43f3-baac-47c6cf7523c0","ios":"levelo://app?vid=1b34c58c-f011-43f3-baac-47c6cf7523c0"},"vehicle_type_id":"4","last_reported":1741374464,"current_range_meters":6800,"station_id":"ce4bhpp2rcd13ifvqhfg","pricing_plan_id":"cebpf4jnsgd1na2vs0mg"},{"bike_id":"64c010a1-47e1-4e93-92d5-a6fbe1c36c60","system_id":"levelo_inurba_marseille","lat":43.29257,"lon":5.38441,"is_reserved":false,"is_disabled":false,"rental_uris":{"android":"levelo://app?vid=64c010a1-47e1-4e93-92d5-a6fbe1c36c60","ios":"levelo://app?vid=64c010a1-47e1-4e93-92d5-a6fbe1c36c60"},"vehicle_type_id":"4","last_reported":1741374464,"current_range_meters":6800,"station_id":"ce4bh692rcd13ifvqea0","pricing_plan_id":"cebpf4jnsgd1na2vs0mg"},{"bike_id":"72ad35d5-229e-4395-b775-8a505aad1b5e","system_id":"levelo_inurba_marseille","lat":43.287262,"lon":5.35211,"is_reserved":false,"is_disabled":false,"rental_uris":{"android":"levelo://app?vid=72ad35d5-229e-4395-b775-8a505aad1b5e","ios":"levelo://app?vid=72ad35d5-229e-4395-b775-8a505aad1b5e"},"vehicle_type_id":"4","last_reported":1741374464,"current_range_meters":6800,"station_id":"ce4bgj92rcd13ifvqbe0","pricing_plan_id":"cebpf4jnsgd1na2vs0mg"},{"bike_id":"2e19ac53-eb4f-4c78-8efa-36591ec9730b","system_id":"levelo_inurba_marseille","lat":43.30089,"lon":5.39073,"is_reserved":false,"is_disabled":false,"rental_uris":{"android":"levelo://app?vid=2e19ac53-eb4f-4c78-8efa-36591ec9730b","ios":"levelo://app?vid=2e19ac53-eb4f-4c78-8efa-36591ec9730b"},"vehicle_type_id":"4","last_reported":1741374464,"current_range_meters":6800,"station_id":"ce4bh192rcd13ifvqdb0","pricing_plan_id":"cebpf4jnsgd1na2vs0mg"},{"bike_id":"21c6b9d0-4129-48d2-9ac3-1813e3d92b6d","system_id":"levelo_inurba_marseille","lat":43.29266,"lon":5.38438,"is_reserved":false,"is_disabled":true,"rental_uris":{"android":"levelo://app?vid=21c6b9d0-4129-48d2-9ac3-1813e3d92b6d","ios":"levelo://app?vid=21c6b9d0-4129-48d2-9ac3-1813e3d92b6d"},"vehicle_type_id":"4","last_reported":1741374464,"current_range_meters":6800,"station_id":"ce4bh692rcd13ifvqea0","pricing_plan_id":"cebpf4jnsgd1na2vs0mg"},{"bike_id":"3ff9bb72-cc5f-4080-90dd-dc893379fbef","system_id":"levelo_inurba_marseille","lat":43.31708,"lon":5.43703,"is_reserved":false,"is_disabled":false,"rental_uris":{"android":"levelo://app?vid=3ff9bb72-cc5f-4080-90dd-dc893379fbef","ios":"levelo://app?vid=3ff9bb72-cc5f-4080-90dd-dc893379fbef"},"vehicle_type_id":"4","last_reported":1741374464,"current_range_meters":6800,"station_id":"ce4bhp92rcd13ifvqhcg","pricing_plan_id":"cebpf4jnsgd1na2vs0mg"},{"bike_id":"c9151ceb-fd35-4b40-9877-b7757062111e","system_id":"levelo_inurba_marseille","lat":43.27811,"lon":5.40711,"is_reserved":false,"is_disabled":false,"rental_uris":{"android":"levelo://app?vid=c9151ceb-fd35-4b40-9877-b7757062111e","ios":"levelo://app?vid=c9151ceb-fd35-4b40-9877-b7757062111e"},"vehicle_type_id":"4","last_reported":1741374464,"current_range_meters":6800,"station_id":"ce4bhnh2rcd13ifvqgtg","pricing_plan_id":"cebpf4jnsgd1na2vs0mg"},{"bike_id":"9ce7a6b2-6292-4c5e-9fe5-fd83b77ad0ba","system_id":"levelo_inurba_marseille","lat":43.27812,"lon":5.40707,"is_reserved":false,"is_disabled":false,"rental_uris":{"android":"levelo://app?vid=9ce7a6b2-6292-4c5e-9fe5-fd83b77ad0ba","ios":"levelo://app?vid=9ce7a6b2-6292-4c5e-9fe5-fd83b77ad0ba"},"vehicle_type_id":"4","last_reported":1741374464,"current_range_meters":6800,"station_id":"ce4bhnh2rcd13ifvqgtg","pricing_plan_id":"cebpf4jnsgd1na2vs0mg"},{"bike_id":"921cfebc-5d12-49fb-941f-f1ac4e5c7ad5","system_id":"levelo_inurba_marseille","lat":43.24806,"lon":5.37454,"is_reserved":false,"is_disabled":false,"rental_uris":{"android":"levelo://app?vid=921cfebc-5d12-49fb-941f-f1ac4e5c7ad5","ios":"levelo://app?vid=921cfebc-5d12-49fb-941f-f1ac4e5c7ad5"},"vehicle_type_id":"4","last_reported":1741374464,"current_range_meters":10800,"station_id":"ce4bhgh2rcd13ifvqfb0","pricing_plan_id":"cebpf4jnsgd1na2vs0mg"},{"bike_id":"05cc10ae-5cf4-455d-a2ec-97ca073ea296","system_id":"levelo_inurba_marseille","lat":43.27838,"lon":5.39215,"is_reserved":false,"is_disabled":false,"rental_uris":{"android":"levelo://app?vid=05cc10ae-5cf4-455d-a2ec-97ca073ea296","ios":"levelo://app?vid=05cc10ae-5cf4-455d-a2ec-97ca073ea296"},"vehicle_type_id":"4","last_reported":1741374464,"current_range_meters":14000,"station_id":"ce4bhjp2rcd13ifvqga0","pricing_plan_id":"cebpf4jnsgd1na2vs0mg"},{"bike_id":"24df224d-ffa5-472e-acc0-380979001d96","system_id":"levelo_inurba_marseille","lat":43.257224,"lon":5.411167,"is_reserved":false,"is_disabled":false,"rental_uris":{"android":"levelo://app?vid=24df224d-ffa5-472e-acc0-380979001d96","ios":"levelo://app?vid=24df224d-ffa5-472e-acc0-380979001d96"},"vehicle_type_id":"4","last_reported":1741374464,"current_range_meters":6800,"station_id":"ce4bhkp2rcd13ifvqgd0","pricing_plan_id":"cebpf4jnsgd1na2vs0mg"},{"bike_id":"5fec45d0-b303-429f-ba21-3a527c676e4c","system_id":"levelo_inurba_marseille","lat":43.293144,"lon":5.385553,"is_reserved":false,"is_disabled":false,"rental_uris":{"android":"levelo://app?vid=5fec45d0-b303-429f-ba21-3a527c676e4c","ios":"levelo://app?vid=5fec45d0-b303-429f-ba21-3a527c676e4c"},"vehicle_type_id":"4","last_reported":1741374464,"current_range_meters":6800,"station_id":"ce4bh0h2rcd13ifvqd40","pricing_plan_id":"cebpf4jnsgd1na2vs0mg"},{"bike_id":"c568d83d-1b12-4cd6-8359-0065f7523963","system_id":"levelo_inurba_marseille","lat":43.27812,"lon":5.40708,"is_reserved":false,"is_disabled":false,"rental_uris":{"android":"levelo://app?vid=c568d83d-1b12-4cd6-8359-0065f7523963","ios":"levelo://app?vid=c568d83d-1b12-4cd6-8359-0065f7523963"},"vehicle_type_id":"4","last_reported":1741374464,"current_range_meters":6800,"station_id":"ce4bhnh2rcd13ifvqgtg","pricing_plan_id":"cebpf4jnsgd1na2vs0mg"},{"bike_id":"529ec5b0-059f-4166-a870-9c8cda945e81","system_id":"levelo_inurba_marseille","lat":43.2923,"lon":5.36069,"is_reserved":false,"is_disabled":false,"rental_uris":{"android":"levelo://app?vid=529ec5b0-059f-4166-a870-9c8cda945e81","ios":"levelo://app?vid=529ec5b0-059f-4166-a870-9c8cda945e81"},"vehicle_type_id":"4","last_reported":1741374464,"current_range_meters":6800,"station_id":"ce4bhbh2rcd13ifvqeqg","pricing_plan_id":"cebpf4jnsgd1na2vs0mg"},{"bike_id":"2c4d9606-fa65-4213-8e28-7b8e0b47fabc","system_id":"levelo_inurba_marseille","lat":43.28615,"lon":5.37067,"is_reserved":false,"is_disabled":false,"rental_uris":{"android":"levelo://app?vid=2c4d9606-fa65-4213-8e28-7b8e0b47fabc","ios":"levelo://app?vid=2c4d9606-fa65-4213-8e28-7b8e0b47fabc"},"vehicle_type_id":"4","last_reported":1741374464,"current_range_meters":7200,"station_id":"ce4bht12rcd13ifvqi60","pricing_plan_id":"cebpf4jnsgd1na2vs0mg"},{"bike_id":"267ba4ed-5ddb-4e2f-b233-3e4d79d8949a","system_id":"levelo_inurba_marseille","lat":43.29264,"lon":5.38436,"is_reserved":false,"is_disabled":false,"rental_uris":{"android":"levelo://app?vid=267ba4ed-5ddb-4e2f-b233-3e4d79d8949a","ios":"levelo://app?vid=267ba4ed-5ddb-4e2f-b233-3e4d79d8949a"},"vehicle_type_id":"4","last_reported":1741374464,"current_range_meters":7200,"station_id":"ce4bh692rcd13ifvqea0","pricing_plan_id":"cebpf4jnsgd1na2vs0mg"},{"bike_id":"a010df3e-cde9-4d88-a127-45d016c7f864","system_id":"levelo_inurba_marseille","lat":43.24547,"lon":5.39516,"is_reserved":false,"is_disabled":false,"rental_uris":{"android":"levelo://app?vid=a010df3e-cde9-4d88-a127-45d016c7f864","ios":"levelo://app?vid=a010df3e-cde9-4d88-a127-45d016c7f864"},"vehicle_type_id":"4","last_reported":1741374464,"current_range_meters":7200,"station_id":"ce4bhlp2rcd13ifvqgjg","pricing_plan_id":"cebpf4jnsgd1na2vs0mg"},{"bike_id":"357f6b0d-7429-4870-b5b1-c540923d954d","system_id":"levelo_inurba_marseille","lat":43.23076,"lon":5.35507,"is_reserved":false,"is_disabled":false,"rental_uris":{"android":"levelo://app?vid=357f6b0d-7429-4870-b5b1-c540923d954d","ios":"levelo://app?vid=357f6b0d-7429-4870-b5b1-c540923d954d"},"vehicle_type_id":"4","last_reported":1741374464,"current_range_meters":7200,"station_id":"cpo3342slgdg3j2ifvpg","pricing_plan_id":"cebpf4jnsgd1na2vs0mg"},{"bike_id":"96547684-48f1-4542-9661-9e8b0db62001","system_id":"levelo_inurba_marseille","lat":43.26195,"lon":5.37932,"is_reserved":false,"is_disabled":false,"rental_uris":{"android":"levelo://app?vid=96547684-48f1-4542-9661-9e8b0db62001","ios":"levelo://app?vid=96547684-48f1-4542-9661-9e8b0db62001"},"vehicle_type_id":"4","last_reported":1741374464,"current_range_meters":7200,"station_id":"ce4bhjp2rcd13ifvqg90","pricing_plan_id":"cebpf4jnsgd1na2vs0mg"},{"bike_id":"805a0e0f-995b-47f3-8d0d-acb2607025a3","system_id":"levelo_inurba_marseille","lat":43.265002,"lon":5.395669,"is_reserved":false,"is_disabled":false,"rental_uris":{"android":"levelo://app?vid=805a0e0f-995b-47f3-8d0d-acb2607025a3","ios":"levelo://app?vid=805a0e0f-995b-47f3-8d0d-acb2607025a3"},"vehicle_type_id":"4","last_reported":1741374464,"current_range_meters":7200,"station_id":"ce4bhi12rcd13ifvqfq0","pricing_plan_id":"cebpf4jnsgd1na2vs0mg"},{"bike_id":"b3efa482-ba88-41b4-9fa2-130aeb426a3b","system_id":"levelo_inurba_marseille","lat":43.2804,"lon":5.36942,"is_reserved":false,"is_disabled":false,"rental_uris":{"android":"levelo://app?vid=b3efa482-ba88-41b4-9fa2-130aeb426a3b","ios":"levelo://app?vid=b3efa482-ba88-41b4-9fa2-130aeb426a3b"},"vehicle_type_id":"4","last_reported":1741374464,"current_range_meters":7200,"station_id":"ce4bha12rcd13ifvqef0","pricing_plan_id":"cebpf4jnsgd1na2vs0mg"},{"bike_id":"c9607e6e-7201-4de1-965c-bd74f2d32e18","system_id":"levelo_inurba_marseille","lat":43.29537,"lon":5.3854,"is_reserved":false,"is_disabled":false,"rental_uris":{"android":"levelo://app?vid=c9607e6e-7201-4de1-965c-bd74f2d32e18","ios":"levelo://app?vid=c9607e6e-7201-4de1-965c-bd74f2d32e18"},"vehicle_type_id":"4","last_reported":1741374464,"current_range_meters":7200,"station_id":"ce4bgih2rcd13ifvqba0","pricing_plan_id":"cebpf4jnsgd1na2vs0mg"},{"bike_id":"5ece6216-c140-461a-8332-f5b985568faf","system_id":"levelo_inurba_marseille","lat":43.27959,"lon":5.38617,"is_reserved":false,"is_disabled":true,"rental_uris":{"android":"levelo://app?vid=5ece6216-c140-461a-8332-f5b985568faf","ios":"levelo://app?vid=5ece6216-c140-461a-8332-f5b985568faf"},"vehicle_type_id":"4","last_reported":1741374464,"current_range_meters":7200,"station_id":"","pricing_plan_id":"cebpf4jnsgd1na2vs0mg"},{"bike_id":"203ddc38-c0a1-4f9e-aba8-5e5b4f3ade99","system_id":"levelo_inurba_marseille","lat":43.29268,"lon":5.38473,"is_reserved":false,"is_disabled":false,"rental_uris":{"android":"levelo://app?vid=203ddc38-c0a1-4f9e-aba8-5e5b4f3ade99","ios":"levelo://app?vid=203ddc38-c0a1-4f9e-aba8-5e5b4f3ade99"},"vehicle_type_id":"4","last_reported":1741374464,"current_range_meters":7200,"station_id":"ce4bh692rcd13ifvqea0","pricing_plan_id":"cebpf4jnsgd1na2vs0mg"},{"bike_id":"5fd16dbd-a9cb-4211-8133-1e9eed939509","system_id":"levelo_inurba_marseille","lat":43.29703,"lon":5.36614,"is_reserved":false,"is_disabled":false,"rental_uris":{"android":"levelo://app?vid=5fd16dbd-a9cb-4211-8133-1e9eed939509","ios":"levelo://app?vid=5fd16dbd-a9cb-4211-8133-1e9eed939509"},"vehicle_type_id":"4","last_reported":1741374464,"current_range_meters":8400,"station_id":"ce4bgn12rcd13ifvqbt0","pricing_plan_id":"cebpf4jnsgd1na2vs0mg"},{"bike_id":"51d3c799-c988-4498-99fd-69334003c643","system_id":"levelo_inurba_marseille","lat":43.29261,"lon":5.38439,"is_reserved":false,"is_disabled":true,"rental_uris":{"android":"levelo://app?vid=51d3c799-c988-4498-99fd-69334003c643","ios":"levelo://app?vid=51d3c799-c988-4498-99fd-69334003c643"},"vehicle_type_id":"4","last_reported":1741374464,"current_range_meters":8000,"station_id":"ce4bh692rcd13ifvqea0","pricing_plan_id":"cebpf4jnsgd1na2vs0mg"},{"bike_id":"143b74fc-ab7b-4910-8495-ffc1ad22971d","system_id":"levelo_inurba_marseille","lat":43.25013,"lon":5.38921,"is_reserved":false,"is_disabled":true,"rental_uris":{"android":"levelo://app?vid=143b74fc-ab7b-4910-8495-ffc1ad22971d","ios":"levelo://app?vid=143b74fc-ab7b-4910-8495-ffc1ad22971d"},"vehicle_type_id":"4","last_reported":1741374464,"current_range_meters":8000,"station_id":"ce4bhgp2rcd13ifvqfd0","pricing_plan_id":"cebpf4jnsgd1na2vs0mg"},{"bike_id":"93ef08eb-88b2-44cd-a96f-6d22ce2a4fc0","system_id":"levelo_inurba_marseille","lat":43.33028,"lon":5.39038,"is_reserved":false,"is_disabled":false,"rental_uris":{"android":"levelo://app?vid=93ef08eb-88b2-44cd-a96f-6d22ce2a4fc0","ios":"levelo://app?vid=93ef08eb-88b2-44cd-a96f-6d22ce2a4fc0"},"vehicle_type_id":"4","last_reported":1741374464,"current_range_meters":8000,"station_id":"ce4bhr92rcd13ifvqhrg","pricing_plan_id":"cebpf4jnsgd1na2vs0mg"},{"bike_id":"a306bea1-c20e-4eaf-9cf3-10dc6d9b0c9d","system_id":"levelo_inurba_marseille","lat":43.279938,"lon":5.416652,"is_reserved":false,"is_disabled":false,"rental_uris":{"android":"levelo://app?vid=a306bea1-c20e-4eaf-9cf3-10dc6d9b0c9d","ios":"levelo://app?vid=a306bea1-c20e-4eaf-9cf3-10dc6d9b0c9d"},"vehicle_type_id":"4","last_reported":1741374464,"current_range_meters":7200,"station_id":"ce4bhqp2rcd13ifvqhng","pricing_plan_id":"cebpf4jnsgd1na2vs0mg"},{"bike_id":"55f1a346-655d-4ceb-961f-e11c032b07e0","system_id":"levelo_inurba_marseille","lat":43.327,"lon":5.40291,"is_reserved":false,"is_disabled":false,"rental_uris":{"android":"levelo://app?vid=55f1a346-655d-4ceb-961f-e11c032b07e0","ios":"levelo://app?vid=55f1a346-655d-4ceb-961f-e11c032b07e0"},"vehicle_type_id":"4","last_reported":1741374464,"current_range_meters":8000,"station_id":"","pricing_plan_id":"cebpf4jnsgd1na2vs0mg"},{"bike_id":"ffa0f2b6-11e6-483e-b821-ae2777702922","system_id":"levelo_inurba_marseille","lat":43.27811,"lon":5.40713,"is_reserved":false,"is_disabled":false,"rental_uris":{"android":"levelo://app?vid=ffa0f2b6-11e6-483e-b821-ae2777702922","ios":"levelo://app?vid=ffa0f2b6-11e6-483e-b821-ae2777702922"},"vehicle_type_id":"4","last_reported":1741374464,"current_range_meters":8000,"station_id":"ce4bhnh2rcd13ifvqgtg","pricing_plan_id":"cebpf4jnsgd1na2vs0mg"},{"bike_id":"215a01e2-9c1c-45bf-a69c-7a5458c1fe75","system_id":"levelo_inurba_marseille","lat":43.28077,"lon":5.39657,"is_reserved":false,"is_disabled":false,"rental_uris":{"android":"levelo://app?vid=215a01e2-9c1c-45bf-a69c-7a5458c1fe75","ios":"levelo://app?vid=215a01e2-9c1c-45bf-a69c-7a5458c1fe75"},"vehicle_type_id":"4","last_reported":1741374464,"current_range_meters":8000,"station_id":"ce4bho12rcd13ifvqh2g","pricing_plan_id":"cebpf4jnsgd1na2vs0mg"},{"bike_id":"51510a95-54e3-4b84-9b22-bfa3391426f3","system_id":"levelo_inurba_marseille","lat":43.23195,"lon":5.35554,"is_reserved":false,"is_disabled":false,"rental_uris":{"android":"levelo://app?vid=51510a95-54e3-4b84-9b22-bfa3391426f3","ios":"levelo://app?vid=51510a95-54e3-4b84-9b22-bfa3391426f3"},"vehicle_type_id":"4","last_reported":1741374464,"current_range_meters":8400,"station_id":"ce4bhu92rcd13ifvqi70","pricing_plan_id":"cebpf4jnsgd1na2vs0mg"},{"bike_id":"b2cada68-d22d-4962-a15a-eab832155af1","system_id":"levelo_inurba_marseille","lat":43.3133,"lon":5.39705,"is_reserved":false,"is_disabled":false,"rental_uris":{"android":"levelo://app?vid=b2cada68-d22d-4962-a15a-eab832155af1","ios":"levelo://app?vid=b2cada68-d22d-4962-a15a-eab832155af1"},"vehicle_type_id":"4","last_reported":1741374464,"current_range_meters":8400,"station_id":"ce4bgvp2rcd13ifvqcu0","pricing_plan_id":"cebpf4jnsgd1na2vs0mg"},{"bike_id":"35130f87-b313-43ca-86df-0e44026654c1","system_id":"levelo_inurba_marseille","lat":43.30829,"lon":5.38043,"is_reserved":false,"is_disabled":false,"rental_uris":{"android":"levelo://app?vid=35130f87-b313-43ca-86df-0e44026654c1","ios":"levelo://app?vid=35130f87-b313-43ca-86df-0e44026654c1"},"vehicle_type_id":"4","last_reported":1741374464,"current_range_meters":8400,"station_id":"","pricing_plan_id":"cebpf4jnsgd1na2vs0mg"},{"bike_id":"ba3c5def-9d88-43bb-9923-7c2a4f1f1893","system_id":"levelo_inurba_marseille","lat":43.28342,"lon":5.38106,"is_reserved":false,"is_disabled":false,"rental_uris":{"android":"levelo://app?vid=ba3c5def-9d88-43bb-9923-7c2a4f1f1893","ios":"levelo://app?vid=ba3c5def-9d88-43bb-9923-7c2a4f1f1893"},"vehicle_type_id":"4","last_reported":1741374464,"current_range_meters":8400,"station_id":"ce4bh412rcd13ifvqdr0","pricing_plan_id":"cebpf4jnsgd1na2vs0mg"},{"bike_id":"c59d7187-bf6d-46d7-bb75-64e36223cdd6","system_id":"levelo_inurba_marseille","lat":43.29265,"lon":5.40126,"is_reserved":false,"is_disabled":true,"rental_uris":{"android":"levelo://app?vid=c59d7187-bf6d-46d7-bb75-64e36223cdd6","ios":"levelo://app?vid=c59d7187-bf6d-46d7-bb75-64e36223cdd6"},"vehicle_type_id":"4","last_reported":1741374464,"current_range_meters":8400,"station_id":"ce4bh312rcd13ifvqdk0","pricing_plan_id":"cebpf4jnsgd1na2vs0mg"},{"bike_id":"201e16e9-1f9c-45a3-8dec-2d516ef1efcb","system_id":"levelo_inurba_marseille","lat":43.23972,"lon":5.36625,"is_reserved":false,"is_disabled":false,"rental_uris":{"android":"levelo://app?vid=201e16e9-1f9c-45a3-8dec-2d516ef1efcb","ios":"levelo://app?vid=201e16e9-1f9c-45a3-8dec-2d516ef1efcb"},"vehicle_type_id":"4","last_reported":1741374464,"current_range_meters":6800,"station_id":"ce4bhi12rcd13ifvqfp0","pricing_plan_id":"cebpf4jnsgd1na2vs0mg"},{"bike_id":"05c1f1a1-657b-46d3-a057-48b147b633f2","system_id":"levelo_inurba_marseille","lat":43.299,"lon":5.38157,"is_reserved":false,"is_disabled":false,"rental_uris":{"android":"levelo://app?vid=05c1f1a1-657b-46d3-a057-48b147b633f2","ios":"levelo://app?vid=05c1f1a1-657b-46d3-a057-48b147b633f2"},"vehicle_type_id":"4","last_reported":1741374464,"current_range_meters":8400,"station_id":"ce4bgj12rcd13ifvqbc0","pricing_plan_id":"cebpf4jnsgd1na2vs0mg"},{"bike_id":"b4f01b10-b690-4897-b8b2-04082375f3aa","system_id":"levelo_inurba_marseille","lat":43.28272,"lon":5.35054,"is_reserved":false,"is_disabled":false,"rental_uris":{"android":"levelo://app?vid=b4f01b10-b690-4897-b8b2-04082375f3aa","ios":"levelo://app?vid=b4f01b10-b690-4897-b8b2-04082375f3aa"},"vehicle_type_id":"4","last_reported":1741374464,"current_range_meters":8400,"station_id":"ce4bhbp2rcd13ifvqerg","pricing_plan_id":"cebpf4jnsgd1na2vs0mg"},{"bike_id":"8be2a378-1cf4-44da-8557-fc3f05ef6642","system_id":"levelo_inurba_marseille","lat":43.29886,"lon":5.38135,"is_reserved":false,"is_disabled":false,"rental_uris":{"android":"levelo://app?vid=8be2a378-1cf4-44da-8557-fc3f05ef6642","ios":"levelo://app?vid=8be2a378-1cf4-44da-8557-fc3f05ef6642"},"vehicle_type_id":"4","last_reported":1741374464,"current_range_meters":8400,"station_id":"ce4bgj12rcd13ifvqbc0","pricing_plan_id":"cebpf4jnsgd1na2vs0mg"},{"bike_id":"28437508-fa41-4054-b93c-b2fb98fbe78d","system_id":"levelo_inurba_marseille","lat":43.27877,"lon":5.38018,"is_reserved":false,"is_disabled":false,"rental_uris":{"android":"levelo://app?vid=28437508-fa41-4054-b93c-b2fb98fbe78d","ios":"levelo://app?vid=28437508-fa41-4054-b93c-b2fb98fbe78d"},"vehicle_type_id":"4","last_reported":1741374464,"current_range_meters":8400,"station_id":"ce4bhf92rcd13ifvqf50","pricing_plan_id":"cebpf4jnsgd1na2vs0mg"},{"bike_id":"dc06feb6-6c0c-4ce0-8bf3-6f377a951202","system_id":"levelo_inurba_marseille","lat":43.29812,"lon":5.38071,"is_reserved":false,"is_disabled":false,"rental_uris":{"android":"levelo://app?vid=dc06feb6-6c0c-4ce0-8bf3-6f377a951202","ios":"levelo://app?vid=dc06feb6-6c0c-4ce0-8bf3-6f377a951202"},"vehicle_type_id":"4","last_reported":1741374464,"current_range_meters":8800,"station_id":"ce4bgip2rcd13ifvqbb0","pricing_plan_id":"cebpf4jnsgd1na2vs0mg"},{"bike_id":"9e0e6e41-5cde-4abe-bae4-412154965118","system_id":"levelo_inurba_marseille","lat":43.23953,"lon":5.3667,"is_reserved":false,"is_disabled":false,"rental_uris":{"android":"levelo://app?vid=9e0e6e41-5cde-4abe-bae4-412154965118","ios":"levelo://app?vid=9e0e6e41-5cde-4abe-bae4-412154965118"},"vehicle_type_id":"4","last_reported":1741374464,"current_range_meters":8800,"station_id":"ce4bhi12rcd13ifvqfp0","pricing_plan_id":"cebpf4jnsgd1na2vs0mg"},{"bike_id":"06b93b7f-3f57-448a-8635-5778c7e20c2d","system_id":"levelo_inurba_marseille","lat":43.31117,"lon":5.37761,"is_reserved":false,"is_disabled":false,"rental_uris":{"android":"levelo://app?vid=06b93b7f-3f57-448a-8635-5778c7e20c2d","ios":"levelo://app?vid=06b93b7f-3f57-448a-8635-5778c7e20c2d"},"vehicle_type_id":"4","last_reported":1741374464,"current_range_meters":8800,"station_id":"ce4bgt92rcd13ifvqcg0","pricing_plan_id":"cebpf4jnsgd1na2vs0mg"},{"bike_id":"c11e3687-d22e-4767-b261-fc1a049251e9","system_id":"levelo_inurba_marseille","lat":43.31326,"lon":5.39695,"is_reserved":false,"is_disabled":false,"rental_uris":{"android":"levelo://app?vid=c11e3687-d22e-4767-b261-fc1a049251e9","ios":"levelo://app?vid=c11e3687-d22e-4767-b261-fc1a049251e9"},"vehicle_type_id":"4","last_reported":1741374464,"current_range_meters":8800,"station_id":"ce4bgvp2rcd13ifvqcu0","pricing_plan_id":"cebpf4jnsgd1na2vs0mg"},{"bike_id":"c1139505-e8aa-43fb-acfd-117938f2cd8c","system_id":"levelo_inurba_marseille","lat":43.29305,"lon":5.37183,"is_reserved":false,"is_disabled":false,"rental_uris":{"android":"levelo://app?vid=c1139505-e8aa-43fb-acfd-117938f2cd8c","ios":"levelo://app?vid=c1139505-e8aa-43fb-acfd-117938f2cd8c"},"vehicle_type_id":"4","last_reported":1741374464,"current_range_meters":8800,"station_id":"ce4bgh92rcd13ifvqb40","pricing_plan_id":"cebpf4jnsgd1na2vs0mg"},{"bike_id":"56ae6274-f4f9-415a-b106-588b873345fa","system_id":"levelo_inurba_marseille","lat":43.28272,"lon":5.35059,"is_reserved":false,"is_disabled":false,"rental_uris":{"android":"levelo://app?vid=56ae6274-f4f9-415a-b106-588b873345fa","ios":"levelo://app?vid=56ae6274-f4f9-415a-b106-588b873345fa"},"vehicle_type_id":"4","last_reported":1741374464,"current_range_meters":8400,"station_id":"ce4bhbp2rcd13ifvqerg","pricing_plan_id":"cebpf4jnsgd1na2vs0mg"},{"bike_id":"90954e6e-1ec8-49e2-ba01-811da43dabf5","system_id":"levelo_inurba_marseille","lat":43.27327,"lon":5.39072,"is_reserved":false,"is_disabled":false,"rental_uris":{"android":"levelo://app?vid=90954e6e-1ec8-49e2-ba01-811da43dabf5","ios":"levelo://app?vid=90954e6e-1ec8-49e2-ba01-811da43dabf5"},"vehicle_type_id":"4","last_reported":1741374464,"current_range_meters":8400,"station_id":"ce4bhgp2rcd13ifvqfe0","pricing_plan_id":"cebpf4jnsgd1na2vs0mg"},{"bike_id":"b59eb22c-5f6d-4457-a67c-b4a4ff6e6d11","system_id":"levelo_inurba_marseille","lat":43.28611,"lon":5.3706,"is_reserved":false,"is_disabled":false,"rental_uris":{"android":"levelo://app?vid=b59eb22c-5f6d-4457-a67c-b4a4ff6e6d11","ios":"levelo://app?vid=b59eb22c-5f6d-4457-a67c-b4a4ff6e6d11"},"vehicle_type_id":"4","last_reported":1741374464,"current_range_meters":8800,"station_id":"ce4bht12rcd13ifvqi60","pricing_plan_id":"cebpf4jnsgd1na2vs0mg"},{"bike_id":"a8346857-aeb5-446d-a7c0-256440b8c5b2","system_id":"levelo_inurba_marseille","lat":43.27961,"lon":5.41029,"is_reserved":false,"is_disabled":false,"rental_uris":{"android":"levelo://app?vid=a8346857-aeb5-446d-a7c0-256440b8c5b2","ios":"levelo://app?vid=a8346857-aeb5-446d-a7c0-256440b8c5b2"},"vehicle_type_id":"4","last_reported":1741374464,"current_range_meters":8800,"station_id":"ce4bhnp2rcd13ifvqh0g","pricing_plan_id":"cebpf4jnsgd1na2vs0mg"},{"bike_id":"e2ddd3ac-f46d-4bb5-939b-a439c654d3b4","system_id":"levelo_inurba_marseille","lat":43.29617,"lon":5.37728,"is_reserved":false,"is_disabled":false,"rental_uris":{"android":"levelo://app?vid=e2ddd3ac-f46d-4bb5-939b-a439c654d3b4","ios":"levelo://app?vid=e2ddd3ac-f46d-4bb5-939b-a439c654d3b4"},"vehicle_type_id":"4","last_reported":1741374464,"current_range_meters":8800,"station_id":"ce4bgi92rcd13ifvqb90","pricing_plan_id":"cebpf4jnsgd1na2vs0mg"},{"bike_id":"b7ba9344-c0c3-4e1f-9860-c50e10bff41f","system_id":"levelo_inurba_marseille","lat":43.27425,"lon":5.39422,"is_reserved":false,"is_disabled":false,"rental_uris":{"android":"levelo://app?vid=b7ba9344-c0c3-4e1f-9860-c50e10bff41f","ios":"levelo://app?vid=b7ba9344-c0c3-4e1f-9860-c50e10bff41f"},"vehicle_type_id":"4","last_reported":1741374464,"current_range_meters":8800,"station_id":"ce4bhdp2rcd13ifvqf20","pricing_plan_id":"cebpf4jnsgd1na2vs0mg"},{"bike_id":"b92c1fbf-f275-49a4-9f38-8113e451ce0b","system_id":"levelo_inurba_marseille","lat":43.31121,"lon":5.37768,"is_reserved":false,"is_disabled":false,"rental_uris":{"android":"levelo://app?vid=b92c1fbf-f275-49a4-9f38-8113e451ce0b","ios":"levelo://app?vid=b92c1fbf-f275-49a4-9f38-8113e451ce0b"},"vehicle_type_id":"4","last_reported":1741374464,"current_range_meters":9200,"station_id":"ce4bgt92rcd13ifvqcg0","pricing_plan_id":"cebpf4jnsgd1na2vs0mg"},{"bike_id":"4bdee50d-2e91-412c-88e0-7d9617916e2e","system_id":"levelo_inurba_marseille","lat":43.29265,"lon":5.38442,"is_reserved":false,"is_disabled":false,"rental_uris":{"android":"levelo://app?vid=4bdee50d-2e91-412c-88e0-7d9617916e2e","ios":"levelo://app?vid=4bdee50d-2e91-412c-88e0-7d9617916e2e"},"vehicle_type_id":"4","last_reported":1741374464,"current_range_meters":9200,"station_id":"ce4bh692rcd13ifvqea0","pricing_plan_id":"cebpf4jnsgd1na2vs0mg"},{"bike_id":"69e36d32-a659-4e45-99a0-a38c3bbb7c74","system_id":"levelo_inurba_marseille","lat":43.29518,"lon":5.38549,"is_reserved":false,"is_disabled":false,"rental_uris":{"android":"levelo://app?vid=69e36d32-a659-4e45-99a0-a38c3bbb7c74","ios":"levelo://app?vid=69e36d32-a659-4e45-99a0-a38c3bbb7c74"},"vehicle_type_id":"4","last_reported":1741374464,"current_range_meters":9200,"station_id":"ce4bgih2rcd13ifvqba0","pricing_plan_id":"cebpf4jnsgd1na2vs0mg"},{"bike_id":"50cf34e3-a6c8-4a39-8bb3-c72bf0329907","system_id":"levelo_inurba_marseille","lat":43.31116,"lon":5.37761,"is_reserved":false,"is_disabled":false,"rental_uris":{"android":"levelo://app?vid=50cf34e3-a6c8-4a39-8bb3-c72bf0329907","ios":"levelo://app?vid=50cf34e3-a6c8-4a39-8bb3-c72bf0329907"},"vehicle_type_id":"4","last_reported":1741374464,"current_range_meters":9200,"station_id":"ce4bgt92rcd13ifvqcg0","pricing_plan_id":"cebpf4jnsgd1na2vs0mg"},{"bike_id":"d769ca3b-81b3-403a-8a39-771754ea7cbc","system_id":"levelo_inurba_marseille","lat":43.2318,"lon":5.39995,"is_reserved":false,"is_disabled":false,"rental_uris":{"android":"levelo://app?vid=d769ca3b-81b3-403a-8a39-771754ea7cbc","ios":"levelo://app?vid=d769ca3b-81b3-403a-8a39-771754ea7cbc"},"vehicle_type_id":"4","last_reported":1741374464,"current_range_meters":9200,"station_id":"ce4bhn12rcd13ifvqgqg","pricing_plan_id":"cebpf4jnsgd1na2vs0mg"},{"bike_id":"328a29fd-0ccd-46b2-b2ae-6b262b6e6e08","system_id":"levelo_inurba_marseille","lat":43.30223,"lon":5.39471,"is_reserved":false,"is_disabled":false,"rental_uris":{"android":"levelo://app?vid=328a29fd-0ccd-46b2-b2ae-6b262b6e6e08","ios":"levelo://app?vid=328a29fd-0ccd-46b2-b2ae-6b262b6e6e08"},"vehicle_type_id":"4","last_reported":1741374464,"current_range_meters":9200,"station_id":"ce4bh0p2rcd13ifvqd70","pricing_plan_id":"cebpf4jnsgd1na2vs0mg"},{"bike_id":"998136a3-7529-408c-bcd3-4ff1111acd0e","system_id":"levelo_inurba_marseille","lat":43.29594,"lon":5.381,"is_reserved":false,"is_disabled":false,"rental_uris":{"android":"levelo://app?vid=998136a3-7529-408c-bcd3-4ff1111acd0e","ios":"levelo://app?vid=998136a3-7529-408c-bcd3-4ff1111acd0e"},"vehicle_type_id":"4","last_reported":1741374464,"current_range_meters":9200,"station_id":"ce4bgl12rcd13ifvqbo0","pricing_plan_id":"cebpf4jnsgd1na2vs0mg"},{"bike_id":"903d9235-3e9c-41c2-842d-53ac41a587b4","system_id":"levelo_inurba_marseille","lat":43.29597,"lon":5.38109,"is_reserved":false,"is_disabled":false,"rental_uris":{"android":"levelo://app?vid=903d9235-3e9c-41c2-842d-53ac41a587b4","ios":"levelo://app?vid=903d9235-3e9c-41c2-842d-53ac41a587b4"},"vehicle_type_id":"4","last_reported":1741374464,"current_range_meters":9200,"station_id":"ce4bgl12rcd13ifvqbo0","pricing_plan_id":"cebpf4jnsgd1na2vs0mg"},{"bike_id":"3f37aee2-7fce-4abe-83d1-7fababd8fd27","system_id":"levelo_inurba_marseille","lat":43.29908,"lon":5.43661,"is_reserved":false,"is_disabled":false,"rental_uris":{"android":"levelo://app?vid=3f37aee2-7fce-4abe-83d1-7fababd8fd27","ios":"levelo://app?vid=3f37aee2-7fce-4abe-83d1-7fababd8fd27"},"vehicle_type_id":"4","last_reported":1741374464,"current_range_meters":9600,"station_id":"ce4bhpp2rcd13ifvqhfg","pricing_plan_id":"cebpf4jnsgd1na2vs0mg"},{"bike_id":"cee18dda-d637-4bb0-b4b3-24fe6d7dc455","system_id":"levelo_inurba_marseille","lat":43.287,"lon":5.39978,"is_reserved":false,"is_disabled":false,"rental_uris":{"android":"levelo://app?vid=cee18dda-d637-4bb0-b4b3-24fe6d7dc455","ios":"levelo://app?vid=cee18dda-d637-4bb0-b4b3-24fe6d7dc455"},"vehicle_type_id":"4","last_reported":1741374464,"current_range_meters":9600,"station_id":"ce4bho92rcd13ifvqh3g","pricing_plan_id":"cebpf4jnsgd1na2vs0mg"},{"bike_id":"da7c1c1b-5957-4da8-88e8-aef31256e926","system_id":"levelo_inurba_marseille","lat":43.25725,"lon":5.41113,"is_reserved":false,"is_disabled":false,"rental_uris":{"android":"levelo://app?vid=da7c1c1b-5957-4da8-88e8-aef31256e926","ios":"levelo://app?vid=da7c1c1b-5957-4da8-88e8-aef31256e926"},"vehicle_type_id":"4","last_reported":1741374464,"current_range_meters":9600,"station_id":"ce4bhkp2rcd13ifvqgd0","pricing_plan_id":"cebpf4jnsgd1na2vs0mg"},{"bike_id":"6c4fbaf9-9645-4ea6-8c6a-5770ca6d46ee","system_id":"levelo_inurba_marseille","lat":43.29617,"lon":5.37731,"is_reserved":false,"is_disabled":false,"rental_uris":{"android":"levelo://app?vid=6c4fbaf9-9645-4ea6-8c6a-5770ca6d46ee","ios":"levelo://app?vid=6c4fbaf9-9645-4ea6-8c6a-5770ca6d46ee"},"vehicle_type_id":"4","last_reported":1741374464,"current_range_meters":9600,"station_id":"ce4bgi92rcd13ifvqb90","pricing_plan_id":"cebpf4jnsgd1na2vs0mg"},{"bike_id":"c574f2cd-14ab-465a-8237-e9e551af029d","system_id":"levelo_inurba_marseille","lat":43.29534,"lon":5.38543,"is_reserved":false,"is_disabled":false,"rental_uris":{"android":"levelo://app?vid=c574f2cd-14ab-465a-8237-e9e551af029d","ios":"levelo://app?vid=c574f2cd-14ab-465a-8237-e9e551af029d"},"vehicle_type_id":"4","last_reported":1741374464,"current_range_meters":9600,"station_id":"ce4bgih2rcd13ifvqba0","pricing_plan_id":"cebpf4jnsgd1na2vs0mg"},{"bike_id":"e4b7e3ae-7116-4270-88a8-190c0075c866","system_id":"levelo_inurba_marseille","lat":43.32056,"lon":5.41525,"is_reserved":false,"is_disabled":false,"rental_uris":{"android":"levelo://app?vid=e4b7e3ae-7116-4270-88a8-190c0075c866","ios":"levelo://app?vid=e4b7e3ae-7116-4270-88a8-190c0075c866"},"vehicle_type_id":"4","last_reported":1741374464,"current_range_meters":9600,"station_id":"ce4bhq92rcd13ifvqhkg","pricing_plan_id":"cebpf4jnsgd1na2vs0mg"},{"bike_id":"d9c98cfe-70b6-4be5-b062-e7163acecce1","system_id":"levelo_inurba_marseille","lat":43.29304,"lon":5.37434,"is_reserved":false,"is_disabled":false,"rental_uris":{"android":"levelo://app?vid=d9c98cfe-70b6-4be5-b062-e7163acecce1","ios":"levelo://app?vid=d9c98cfe-70b6-4be5-b062-e7163acecce1"},"vehicle_type_id":"4","last_reported":1741374464,"current_range_meters":9600,"station_id":"ce4bgi12rcd13ifvqb70","pricing_plan_id":"cebpf4jnsgd1na2vs0mg"},{"bike_id":"431037b5-a5d3-4f7c-a082-acb5bd2f7940","system_id":"levelo_inurba_marseille","lat":43.23058,"lon":5.35492,"is_reserved":false,"is_disabled":false,"rental_uris":{"android":"levelo://app?vid=431037b5-a5d3-4f7c-a082-acb5bd2f7940","ios":"levelo://app?vid=431037b5-a5d3-4f7c-a082-acb5bd2f7940"},"vehicle_type_id":"4","last_reported":1741374464,"current_range_meters":9600,"station_id":"cpo3342slgdg3j2ifvpg","pricing_plan_id":"cebpf4jnsgd1na2vs0mg"},{"bike_id":"d75d384a-3c7a-4b8a-b8cc-d0d81855c962","system_id":"levelo_inurba_marseille","lat":43.29631,"lon":5.40596,"is_reserved":false,"is_disabled":false,"rental_uris":{"android":"levelo://app?vid=d75d384a-3c7a-4b8a-b8cc-d0d81855c962","ios":"levelo://app?vid=d75d384a-3c7a-4b8a-b8cc-d0d81855c962"},"vehicle_type_id":"4","last_reported":1741374464,"current_range_meters":7200,"station_id":"ce4bh0h2rcd13ifvqd60","pricing_plan_id":"cebpf4jnsgd1na2vs0mg"},{"bike_id":"42323b44-4776-4993-88db-08c90d643018","system_id":"levelo_inurba_marseille","lat":43.300872,"lon":5.376694,"is_reserved":false,"is_disabled":false,"rental_uris":{"android":"levelo://app?vid=42323b44-4776-4993-88db-08c90d643018","ios":"levelo://app?vid=42323b44-4776-4993-88db-08c90d643018"},"vehicle_type_id":"4","last_reported":1741374464,"current_range_meters":9600,"station_id":"","pricing_plan_id":"cebpf4jnsgd1na2vs0mg"},{"bike_id":"b00d5d52-4aa4-4037-80a0-4d913d70cdb4","system_id":"levelo_inurba_marseille","lat":43.311089,"lon":5.377758,"is_reserved":false,"is_disabled":false,"rental_uris":{"android":"levelo://app?vid=b00d5d52-4aa4-4037-80a0-4d913d70cdb4","ios":"levelo://app?vid=b00d5d52-4aa4-4037-80a0-4d913d70cdb4"},"vehicle_type_id":"4","last_reported":1741374464,"current_range_meters":10000,"station_id":"ce4bgrh2rcd13ifvqc8g","pricing_plan_id":"cebpf4jnsgd1na2vs0mg"},{"bike_id":"c4adb641-b65e-4129-a593-28e50778aa58","system_id":"levelo_inurba_marseille","lat":43.32655,"lon":5.40977,"is_reserved":false,"is_disabled":false,"rental_uris":{"android":"levelo://app?vid=c4adb641-b65e-4129-a593-28e50778aa58","ios":"levelo://app?vid=c4adb641-b65e-4129-a593-28e50778aa58"},"vehicle_type_id":"4","last_reported":1741374464,"current_range_meters":10000,"station_id":"ce4bhpp2rcd13ifvqhgg","pricing_plan_id":"cebpf4jnsgd1na2vs0mg"},{"bike_id":"8d4928e0-5b6b-4c63-92e5-15dc18de6c1d","system_id":"levelo_inurba_marseille","lat":43.33039,"lon":5.39054,"is_reserved":false,"is_disabled":false,"rental_uris":{"android":"levelo://app?vid=8d4928e0-5b6b-4c63-92e5-15dc18de6c1d","ios":"levelo://app?vid=8d4928e0-5b6b-4c63-92e5-15dc18de6c1d"},"vehicle_type_id":"4","last_reported":1741374464,"current_range_meters":10000,"station_id":"ce4bhr92rcd13ifvqhrg","pricing_plan_id":"cebpf4jnsgd1na2vs0mg"},{"bike_id":"2371b862-fdfc-4cd9-be06-53d5be99cbf0","system_id":"levelo_inurba_marseille","lat":43.28345,"lon":5.38118,"is_reserved":false,"is_disabled":false,"rental_uris":{"android":"levelo://app?vid=2371b862-fdfc-4cd9-be06-53d5be99cbf0","ios":"levelo://app?vid=2371b862-fdfc-4cd9-be06-53d5be99cbf0"},"vehicle_type_id":"4","last_reported":1741374464,"current_range_meters":10000,"station_id":"ce4bh412rcd13ifvqdr0","pricing_plan_id":"cebpf4jnsgd1na2vs0mg"},{"bike_id":"9da935d0-0941-44db-bb4f-7f7e582bd3d3","system_id":"levelo_inurba_marseille","lat":43.24153,"lon":5.36425,"is_reserved":false,"is_disabled":false,"rental_uris":{"android":"levelo://app?vid=9da935d0-0941-44db-bb4f-7f7e582bd3d3","ios":"levelo://app?vid=9da935d0-0941-44db-bb4f-7f7e582bd3d3"},"vehicle_type_id":"4","last_reported":1741374464,"current_range_meters":10000,"station_id":"cpo36qri1sfpv3e86is0","pricing_plan_id":"cebpf4jnsgd1na2vs0mg"},{"bike_id":"818f4b4f-878f-46b7-97fc-8b7a9da54046","system_id":"levelo_inurba_marseille","lat":43.26201,"lon":5.3793,"is_reserved":false,"is_disabled":false,"rental_uris":{"android":"levelo://app?vid=818f4b4f-878f-46b7-97fc-8b7a9da54046","ios":"levelo://app?vid=818f4b4f-878f-46b7-97fc-8b7a9da54046"},"vehicle_type_id":"4","last_reported":1741374464,"current_range_meters":9600,"station_id":"ce4bhjp2rcd13ifvqg90","pricing_plan_id":"cebpf4jnsgd1na2vs0mg"},{"bike_id":"a9e11406-9490-48f7-a168-9dbe9e02da43","system_id":"levelo_inurba_marseille","lat":43.32658,"lon":5.40992,"is_reserved":false,"is_disabled":false,"rental_uris":{"android":"levelo://app?vid=a9e11406-9490-48f7-a168-9dbe9e02da43","ios":"levelo://app?vid=a9e11406-9490-48f7-a168-9dbe9e02da43"},"vehicle_type_id":"4","last_reported":1741374464,"current_range_meters":10000,"station_id":"ce4bhpp2rcd13ifvqhgg","pricing_plan_id":"cebpf4jnsgd1na2vs0mg"},{"bike_id":"daa48c53-c5de-46aa-94fc-655cbd710c8c","system_id":"levelo_inurba_marseille","lat":43.22937,"lon":5.35382,"is_reserved":false,"is_disabled":false,"rental_uris":{"android":"levelo://app?vid=daa48c53-c5de-46aa-94fc-655cbd710c8c","ios":"levelo://app?vid=daa48c53-c5de-46aa-94fc-655cbd710c8c"},"vehicle_type_id":"4","last_reported":1741374464,"current_range_meters":10000,"station_id":"cpo3532slgdg3j2ikp40","pricing_plan_id":"cebpf4jnsgd1na2vs0mg"},{"bike_id":"a05930fc-a4ee-4488-b9de-946b26724077","system_id":"levelo_inurba_marseille","lat":43.29256,"lon":5.38446,"is_reserved":false,"is_disabled":false,"rental_uris":{"android":"levelo://app?vid=a05930fc-a4ee-4488-b9de-946b26724077","ios":"levelo://app?vid=a05930fc-a4ee-4488-b9de-946b26724077"},"vehicle_type_id":"4","last_reported":1741374464,"current_range_meters":10800,"station_id":"ce4bh692rcd13ifvqea0","pricing_plan_id":"cebpf4jnsgd1na2vs0mg"},{"bike_id":"3949e300-2dbd-4203-aa58-eef0b1b0c774","system_id":"levelo_inurba_marseille","lat":43.337655,"lon":5.374273,"is_reserved":false,"is_disabled":false,"rental_uris":{"android":"levelo://app?vid=3949e300-2dbd-4203-aa58-eef0b1b0c774","ios":"levelo://app?vid=3949e300-2dbd-4203-aa58-eef0b1b0c774"},"vehicle_type_id":"4","last_reported":1741374464,"current_range_meters":10800,"station_id":"","pricing_plan_id":"cebpf4jnsgd1na2vs0mg"},{"bike_id":"f63a2e4f-02af-4973-938a-b7f0345b46a9","system_id":"levelo_inurba_marseille","lat":43.2943,"lon":5.38633,"is_reserved":false,"is_disabled":false,"rental_uris":{"android":"levelo://app?vid=f63a2e4f-02af-4973-938a-b7f0345b46a9","ios":"levelo://app?vid=f63a2e4f-02af-4973-938a-b7f0345b46a9"},"vehicle_type_id":"4","last_reported":1741374464,"current_range_meters":10000,"station_id":"ce4bh2h2rcd13ifvqdh0","pricing_plan_id":"cebpf4jnsgd1na2vs0mg"},{"bike_id":"7b62c62b-d961-49e1-afe1-b0b21a291801","system_id":"levelo_inurba_marseille","lat":43.27869,"lon":5.41741,"is_reserved":false,"is_disabled":true,"rental_uris":{"android":"levelo://app?vid=7b62c62b-d961-49e1-afe1-b0b21a291801","ios":"levelo://app?vid=7b62c62b-d961-49e1-afe1-b0b21a291801"},"vehicle_type_id":"4","last_reported":1741374464,"current_range_meters":10800,"station_id":"","pricing_plan_id":"cebpf4jnsgd1na2vs0mg"},{"bike_id":"bd46704f-0224-4227-af84-38171ad856dc","system_id":"levelo_inurba_marseille","lat":43.29263,"lon":5.3686,"is_reserved":false,"is_disabled":false,"rental_uris":{"android":"levelo://app?vid=bd46704f-0224-4227-af84-38171ad856dc","ios":"levelo://app?vid=bd46704f-0224-4227-af84-38171ad856dc"},"vehicle_type_id":"4","last_reported":1741374464,"current_range_meters":8800,"station_id":"ce4bhbp2rcd13ifvqesg","pricing_plan_id":"cebpf4jnsgd1na2vs0mg"},{"bike_id":"a81a69d9-daa5-404c-9d95-49cc3b4fedbd","system_id":"levelo_inurba_marseille","lat":43.32051,"lon":5.41543,"is_reserved":false,"is_disabled":false,"rental_uris":{"android":"levelo://app?vid=a81a69d9-daa5-404c-9d95-49cc3b4fedbd","ios":"levelo://app?vid=a81a69d9-daa5-404c-9d95-49cc3b4fedbd"},"vehicle_type_id":"4","last_reported":1741374464,"current_range_meters":10800,"station_id":"ce4bhq92rcd13ifvqhkg","pricing_plan_id":"cebpf4jnsgd1na2vs0mg"},{"bike_id":"6ba66fdb-06a4-49a5-ad2d-7543724fe268","system_id":"levelo_inurba_marseille","lat":43.2743,"lon":5.39418,"is_reserved":false,"is_disabled":false,"rental_uris":{"android":"levelo://app?vid=6ba66fdb-06a4-49a5-ad2d-7543724fe268","ios":"levelo://app?vid=6ba66fdb-06a4-49a5-ad2d-7543724fe268"},"vehicle_type_id":"4","last_reported":1741374464,"current_range_meters":10000,"station_id":"ce4bhdp2rcd13ifvqf20","pricing_plan_id":"cebpf4jnsgd1na2vs0mg"},{"bike_id":"497b37ec-7833-4f32-8721-0cbd84b12671","system_id":"levelo_inurba_marseille","lat":43.30949,"lon":5.39028,"is_reserved":false,"is_disabled":false,"rental_uris":{"android":"levelo://app?vid=497b37ec-7833-4f32-8721-0cbd84b12671","ios":"levelo://app?vid=497b37ec-7833-4f32-8721-0cbd84b12671"},"vehicle_type_id":"4","last_reported":1741374464,"current_range_meters":10000,"station_id":"ce4bgup2rcd13ifvqco0","pricing_plan_id":"cebpf4jnsgd1na2vs0mg"},{"bike_id":"c08225ad-bdd4-4a99-8326-884f7da818ae","system_id":"levelo_inurba_marseille","lat":43.29172,"lon":5.37149,"is_reserved":false,"is_disabled":false,"rental_uris":{"android":"levelo://app?vid=c08225ad-bdd4-4a99-8326-884f7da818ae","ios":"levelo://app?vid=c08225ad-bdd4-4a99-8326-884f7da818ae"},"vehicle_type_id":"4","last_reported":1741374464,"current_range_meters":10800,"station_id":"ce4bha92rcd13ifvqeh0","pricing_plan_id":"cebpf4jnsgd1na2vs0mg"},{"bike_id":"3cf052cf-4d7b-433f-962b-a4b302f698e4","system_id":"levelo_inurba_marseille","lat":43.27997,"lon":5.4002,"is_reserved":false,"is_disabled":false,"rental_uris":{"android":"levelo://app?vid=3cf052cf-4d7b-433f-962b-a4b302f698e4","ios":"levelo://app?vid=3cf052cf-4d7b-433f-962b-a4b302f698e4"},"vehicle_type_id":"4","last_reported":1741374464,"current_range_meters":9600,"station_id":"ce4bho92rcd13ifvqh4g","pricing_plan_id":"cebpf4jnsgd1na2vs0mg"},{"bike_id":"688bdac1-4cf8-4093-b5fa-dc07a1309a60","system_id":"levelo_inurba_marseille","lat":43.30137,"lon":5.38785,"is_reserved":false,"is_disabled":false,"rental_uris":{"android":"levelo://app?vid=688bdac1-4cf8-4093-b5fa-dc07a1309a60","ios":"levelo://app?vid=688bdac1-4cf8-4093-b5fa-dc07a1309a60"},"vehicle_type_id":"4","last_reported":1741374464,"current_range_meters":10800,"station_id":"ce4bghh2rcd13ifvqb60","pricing_plan_id":"cebpf4jnsgd1na2vs0mg"},{"bike_id":"99e36b03-8a61-4028-92fa-909f701d8a2b","system_id":"levelo_inurba_marseille","lat":43.29412,"lon":5.38639,"is_reserved":false,"is_disabled":false,"rental_uris":{"android":"levelo://app?vid=99e36b03-8a61-4028-92fa-909f701d8a2b","ios":"levelo://app?vid=99e36b03-8a61-4028-92fa-909f701d8a2b"},"vehicle_type_id":"4","last_reported":1741374464,"current_range_meters":10000,"station_id":"ce4bh2h2rcd13ifvqdh0","pricing_plan_id":"cebpf4jnsgd1na2vs0mg"},{"bike_id":"71c840e9-3dba-45f4-880a-01d29ab0879c","system_id":"levelo_inurba_marseille","lat":43.27943,"lon":5.41046,"is_reserved":false,"is_disabled":false,"rental_uris":{"android":"levelo://app?vid=71c840e9-3dba-45f4-880a-01d29ab0879c","ios":"levelo://app?vid=71c840e9-3dba-45f4-880a-01d29ab0879c"},"vehicle_type_id":"4","last_reported":1741374464,"current_range_meters":10800,"station_id":"ce4bhnp2rcd13ifvqh0g","pricing_plan_id":"cebpf4jnsgd1na2vs0mg"},{"bike_id":"99372ffb-1d51-4014-a68c-53b2b424f35b","system_id":"levelo_inurba_marseille","lat":43.23189,"lon":5.39985,"is_reserved":false,"is_disabled":false,"rental_uris":{"android":"levelo://app?vid=99372ffb-1d51-4014-a68c-53b2b424f35b","ios":"levelo://app?vid=99372ffb-1d51-4014-a68c-53b2b424f35b"},"vehicle_type_id":"4","last_reported":1741374464,"current_range_meters":11200,"station_id":"ce4bhn12rcd13ifvqgqg","pricing_plan_id":"cebpf4jnsgd1na2vs0mg"},{"bike_id":"db7cd95b-0159-457d-aa08-f78ad0493427","system_id":"levelo_inurba_marseille","lat":43.3237,"lon":5.38923,"is_reserved":false,"is_disabled":false,"rental_uris":{"android":"levelo://app?vid=db7cd95b-0159-457d-aa08-f78ad0493427","ios":"levelo://app?vid=db7cd95b-0159-457d-aa08-f78ad0493427"},"vehicle_type_id":"4","last_reported":1741374464,"current_range_meters":11200,"station_id":"ce4bhqp2rcd13ifvqhog","pricing_plan_id":"cebpf4jnsgd1na2vs0mg"},{"bike_id":"ae99eef4-0d01-432b-b9f3-30beda5f0e73","system_id":"levelo_inurba_marseille","lat":43.299,"lon":5.43676,"is_reserved":false,"is_disabled":false,"rental_uris":{"android":"levelo://app?vid=ae99eef4-0d01-432b-b9f3-30beda5f0e73","ios":"levelo://app?vid=ae99eef4-0d01-432b-b9f3-30beda5f0e73"},"vehicle_type_id":"4","last_reported":1741374464,"current_range_meters":11600,"station_id":"ce4bhpp2rcd13ifvqhfg","pricing_plan_id":"cebpf4jnsgd1na2vs0mg"},{"bike_id":"c0a44601-40f2-43af-a819-13fdba1c4502","system_id":"levelo_inurba_marseille","lat":43.25728,"lon":5.41105,"is_reserved":false,"is_disabled":false,"rental_uris":{"android":"levelo://app?vid=c0a44601-40f2-43af-a819-13fdba1c4502","ios":"levelo://app?vid=c0a44601-40f2-43af-a819-13fdba1c4502"},"vehicle_type_id":"4","last_reported":1741374464,"current_range_meters":11600,"station_id":"ce4bhkp2rcd13ifvqgd0","pricing_plan_id":"cebpf4jnsgd1na2vs0mg"},{"bike_id":"60cb6e94-6ce8-42d7-b893-b8661dc60ebf","system_id":"levelo_inurba_marseille","lat":43.30141,"lon":5.37412,"is_reserved":false,"is_disabled":false,"rental_uris":{"android":"levelo://app?vid=60cb6e94-6ce8-42d7-b893-b8661dc60ebf","ios":"levelo://app?vid=60cb6e94-6ce8-42d7-b893-b8661dc60ebf"},"vehicle_type_id":"4","last_reported":1741374464,"current_range_meters":11600,"station_id":"ce4bgs92rcd13ifvqcc0","pricing_plan_id":"cebpf4jnsgd1na2vs0mg"},{"bike_id":"85bd779e-bcb3-4865-a556-1d47953f93ef","system_id":"levelo_inurba_marseille","lat":43.29323,"lon":5.37179,"is_reserved":false,"is_disabled":false,"rental_uris":{"android":"levelo://app?vid=85bd779e-bcb3-4865-a556-1d47953f93ef","ios":"levelo://app?vid=85bd779e-bcb3-4865-a556-1d47953f93ef"},"vehicle_type_id":"4","last_reported":1741374464,"current_range_meters":11600,"station_id":"ce4bgh92rcd13ifvqb40","pricing_plan_id":"cebpf4jnsgd1na2vs0mg"},{"bike_id":"bf7ebf63-105d-4df2-8e85-9634315b8af3","system_id":"levelo_inurba_marseille","lat":43.32661,"lon":5.40991,"is_reserved":false,"is_disabled":false,"rental_uris":{"android":"levelo://app?vid=bf7ebf63-105d-4df2-8e85-9634315b8af3","ios":"levelo://app?vid=bf7ebf63-105d-4df2-8e85-9634315b8af3"},"vehicle_type_id":"4","last_reported":1741374464,"current_range_meters":11600,"station_id":"ce4bhpp2rcd13ifvqhgg","pricing_plan_id":"cebpf4jnsgd1na2vs0mg"},{"bike_id":"078c81bc-2c7a-4523-a07a-c6568ba489f7","system_id":"levelo_inurba_marseille","lat":43.27911,"lon":5.38008,"is_reserved":false,"is_disabled":false,"rental_uris":{"android":"levelo://app?vid=078c81bc-2c7a-4523-a07a-c6568ba489f7","ios":"levelo://app?vid=078c81bc-2c7a-4523-a07a-c6568ba489f7"},"vehicle_type_id":"4","last_reported":1741374464,"current_range_meters":11600,"station_id":"ce4bhf92rcd13ifvqf50","pricing_plan_id":"cebpf4jnsgd1na2vs0mg"},{"bike_id":"b1e189d2-cc2d-4bbc-9210-3d18e5683801","system_id":"levelo_inurba_marseille","lat":43.26991,"lon":5.40339,"is_reserved":false,"is_disabled":true,"rental_uris":{"android":"levelo://app?vid=b1e189d2-cc2d-4bbc-9210-3d18e5683801","ios":"levelo://app?vid=b1e189d2-cc2d-4bbc-9210-3d18e5683801"},"vehicle_type_id":"4","last_reported":1741374464,"current_range_meters":12000,"station_id":"cjm6bp8fraef2m0cb0m0","pricing_plan_id":"cebpf4jnsgd1na2vs0mg"},{"bike_id":"81de7748-b1b5-421f-9e0b-234976ce22d5","system_id":"levelo_inurba_marseille","lat":43.29419,"lon":5.38634,"is_reserved":false,"is_disabled":false,"rental_uris":{"android":"levelo://app?vid=81de7748-b1b5-421f-9e0b-234976ce22d5","ios":"levelo://app?vid=81de7748-b1b5-421f-9e0b-234976ce22d5"},"vehicle_type_id":"4","last_reported":1741374464,"current_range_meters":12000,"station_id":"ce4bh2h2rcd13ifvqdh0","pricing_plan_id":"cebpf4jnsgd1na2vs0mg"},{"bike_id":"7a6390d5-30f1-42a9-81f6-77c4114cf172","system_id":"levelo_inurba_marseille","lat":43.27812,"lon":5.4071,"is_reserved":false,"is_disabled":false,"rental_uris":{"android":"levelo://app?vid=7a6390d5-30f1-42a9-81f6-77c4114cf172","ios":"levelo://app?vid=7a6390d5-30f1-42a9-81f6-77c4114cf172"},"vehicle_type_id":"4","last_reported":1741374464,"current_range_meters":12000,"station_id":"ce4bhnh2rcd13ifvqgtg","pricing_plan_id":"cebpf4jnsgd1na2vs0mg"},{"bike_id":"a6770ec2-2d7d-40c9-a213-103475a4267d","system_id":"levelo_inurba_marseille","lat":43.28351,"lon":5.38115,"is_reserved":false,"is_disabled":false,"rental_uris":{"android":"levelo://app?vid=a6770ec2-2d7d-40c9-a213-103475a4267d","ios":"levelo://app?vid=a6770ec2-2d7d-40c9-a213-103475a4267d"},"vehicle_type_id":"4","last_reported":1741374464,"current_range_meters":12000,"station_id":"ce4bh412rcd13ifvqdr0","pricing_plan_id":"cebpf4jnsgd1na2vs0mg"},{"bike_id":"0e674cb4-f37d-4bd5-aaff-7ec953d386c6","system_id":"levelo_inurba_marseille","lat":43.2417,"lon":5.36404,"is_reserved":false,"is_disabled":false,"rental_uris":{"android":"levelo://app?vid=0e674cb4-f37d-4bd5-aaff-7ec953d386c6","ios":"levelo://app?vid=0e674cb4-f37d-4bd5-aaff-7ec953d386c6"},"vehicle_type_id":"4","last_reported":1741374464,"current_range_meters":12000,"station_id":"cpo36qri1sfpv3e86is0","pricing_plan_id":"cebpf4jnsgd1na2vs0mg"},{"bike_id":"ace3b2bf-0059-49cf-b306-d68b9f2a0418","system_id":"levelo_inurba_marseille","lat":43.27994,"lon":5.40014,"is_reserved":false,"is_disabled":false,"rental_uris":{"android":"levelo://app?vid=ace3b2bf-0059-49cf-b306-d68b9f2a0418","ios":"levelo://app?vid=ace3b2bf-0059-49cf-b306-d68b9f2a0418"},"vehicle_type_id":"4","last_reported":1741374464,"current_range_meters":12000,"station_id":"ce4bho92rcd13ifvqh4g","pricing_plan_id":"cebpf4jnsgd1na2vs0mg"},{"bike_id":"f84dac07-aebc-4c91-86d5-a770501ab7d9","system_id":"levelo_inurba_marseille","lat":43.29508,"lon":5.39067,"is_reserved":false,"is_disabled":false,"rental_uris":{"android":"levelo://app?vid=f84dac07-aebc-4c91-86d5-a770501ab7d9","ios":"levelo://app?vid=f84dac07-aebc-4c91-86d5-a770501ab7d9"},"vehicle_type_id":"4","last_reported":1741374464,"current_range_meters":12400,"station_id":"ce4bh3p2rcd13ifvqdp0","pricing_plan_id":"cebpf4jnsgd1na2vs0mg"},{"bike_id":"e524bcef-a391-41b2-bad2-673eae53ea51","system_id":"levelo_inurba_marseille","lat":43.3171,"lon":5.43701,"is_reserved":false,"is_disabled":false,"rental_uris":{"android":"levelo://app?vid=e524bcef-a391-41b2-bad2-673eae53ea51","ios":"levelo://app?vid=e524bcef-a391-41b2-bad2-673eae53ea51"},"vehicle_type_id":"4","last_reported":1741374464,"current_range_meters":12400,"station_id":"ce4bhp92rcd13ifvqhcg","pricing_plan_id":"cebpf4jnsgd1na2vs0mg"},{"bike_id":"ae386171-a4eb-4543-8d6c-53b630504133","system_id":"levelo_inurba_marseille","lat":43.28726,"lon":5.37935,"is_reserved":false,"is_disabled":false,"rental_uris":{"android":"levelo://app?vid=ae386171-a4eb-4543-8d6c-53b630504133","ios":"levelo://app?vid=ae386171-a4eb-4543-8d6c-53b630504133"},"vehicle_type_id":"4","last_reported":1741374464,"current_range_meters":14400,"station_id":"ce4bh9p2rcd13ifvqec0","pricing_plan_id":"cebpf4jnsgd1na2vs0mg"},{"bike_id":"af727367-3bb1-4e28-bf7e-f3b81de5470f","system_id":"levelo_inurba_marseille","lat":43.29526,"lon":5.38553,"is_reserved":false,"is_disabled":false,"rental_uris":{"android":"levelo://app?vid=af727367-3bb1-4e28-bf7e-f3b81de5470f","ios":"levelo://app?vid=af727367-3bb1-4e28-bf7e-f3b81de5470f"},"vehicle_type_id":"4","last_reported":1741374464,"current_range_meters":12400,"station_id":"ce4bgih2rcd13ifvqba0","pricing_plan_id":"cebpf4jnsgd1na2vs0mg"},{"bike_id":"a6d41f6b-eecd-4970-8c54-be62ea1ba199","system_id":"levelo_inurba_marseille","lat":43.288553,"lon":5.35836,"is_reserved":false,"is_disabled":false,"rental_uris":{"android":"levelo://app?vid=a6d41f6b-eecd-4970-8c54-be62ea1ba199","ios":"levelo://app?vid=a6d41f6b-eecd-4970-8c54-be62ea1ba199"},"vehicle_type_id":"4","last_reported":1741374464,"current_range_meters":12400,"station_id":"ce4bhb12rcd13ifvqem0","pricing_plan_id":"cebpf4jnsgd1na2vs0mg"},{"bike_id":"42168c6f-35a5-43f2-8ef8-61a75051262d","system_id":"levelo_inurba_marseille","lat":43.28145,"lon":5.42646,"is_reserved":false,"is_disabled":true,"rental_uris":{"android":"levelo://app?vid=42168c6f-35a5-43f2-8ef8-61a75051262d","ios":"levelo://app?vid=42168c6f-35a5-43f2-8ef8-61a75051262d"},"vehicle_type_id":"4","last_reported":1741374464,"current_range_meters":12400,"station_id":"ce4bhnh2rcd13ifvqgug","pricing_plan_id":"cebpf4jnsgd1na2vs0mg"},{"bike_id":"86c7589b-99e4-4f2b-8bce-c44933cad914","system_id":"levelo_inurba_marseille","lat":43.23198,"lon":5.35555,"is_reserved":false,"is_disabled":false,"rental_uris":{"android":"levelo://app?vid=86c7589b-99e4-4f2b-8bce-c44933cad914","ios":"levelo://app?vid=86c7589b-99e4-4f2b-8bce-c44933cad914"},"vehicle_type_id":"4","last_reported":1741374464,"current_range_meters":12400,"station_id":"ce4bhu92rcd13ifvqi70","pricing_plan_id":"cebpf4jnsgd1na2vs0mg"},{"bike_id":"dac09d9e-9ab6-4c54-8fe2-7fcfc9203869","system_id":"levelo_inurba_marseille","lat":43.26556,"lon":5.37313,"is_reserved":false,"is_disabled":true,"rental_uris":{"android":"levelo://app?vid=dac09d9e-9ab6-4c54-8fe2-7fcfc9203869","ios":"levelo://app?vid=dac09d9e-9ab6-4c54-8fe2-7fcfc9203869"},"vehicle_type_id":"4","last_reported":1741374464,"current_range_meters":12400,"station_id":"ce4bhg12rcd13ifvqf70","pricing_plan_id":"cebpf4jnsgd1na2vs0mg"},{"bike_id":"360a33c0-b9d2-4bb8-8580-798821904501","system_id":"levelo_inurba_marseille","lat":43.26192,"lon":5.37452,"is_reserved":false,"is_disabled":false,"rental_uris":{"android":"levelo://app?vid=360a33c0-b9d2-4bb8-8580-798821904501","ios":"levelo://app?vid=360a33c0-b9d2-4bb8-8580-798821904501"},"vehicle_type_id":"4","last_reported":1741374464,"current_range_meters":12400,"station_id":"ce4bhgp2rcd13ifvqfc0","pricing_plan_id":"cebpf4jnsgd1na2vs0mg"},{"bike_id":"ce988d71-1a4f-4f92-aced-dd4ab5b7047f","system_id":"levelo_inurba_marseille","lat":43.27811,"lon":5.40714,"is_reserved":false,"is_disabled":false,"rental_uris":{"android":"levelo://app?vid=ce988d71-1a4f-4f92-aced-dd4ab5b7047f","ios":"levelo://app?vid=ce988d71-1a4f-4f92-aced-dd4ab5b7047f"},"vehicle_type_id":"4","last_reported":1741374464,"current_range_meters":12400,"station_id":"ce4bhnh2rcd13ifvqgtg","pricing_plan_id":"cebpf4jnsgd1na2vs0mg"},{"bike_id":"54954614-0ac5-41d2-8a16-307c508cf4e1","system_id":"levelo_inurba_marseille","lat":43.33018,"lon":5.39056,"is_reserved":false,"is_disabled":false,"rental_uris":{"android":"levelo://app?vid=54954614-0ac5-41d2-8a16-307c508cf4e1","ios":"levelo://app?vid=54954614-0ac5-41d2-8a16-307c508cf4e1"},"vehicle_type_id":"4","last_reported":1741374464,"current_range_meters":12400,"station_id":"ce4bhr92rcd13ifvqhrg","pricing_plan_id":"cebpf4jnsgd1na2vs0mg"},{"bike_id":"7372ba19-4949-453e-a20c-490c28817add","system_id":"levelo_inurba_marseille","lat":43.33772,"lon":5.37415,"is_reserved":false,"is_disabled":false,"rental_uris":{"android":"levelo://app?vid=7372ba19-4949-453e-a20c-490c28817add","ios":"levelo://app?vid=7372ba19-4949-453e-a20c-490c28817add"},"vehicle_type_id":"4","last_reported":1741374464,"current_range_meters":12800,"station_id":"","pricing_plan_id":"cebpf4jnsgd1na2vs0mg"},{"bike_id":"ed74edb6-e892-464b-9c40-c1f944ecd04a","system_id":"levelo_inurba_marseille","lat":43.29297,"lon":5.37463,"is_reserved":false,"is_disabled":false,"rental_uris":{"android":"levelo://app?vid=ed74edb6-e892-464b-9c40-c1f944ecd04a","ios":"levelo://app?vid=ed74edb6-e892-464b-9c40-c1f944ecd04a"},"vehicle_type_id":"4","last_reported":1741374464,"current_range_meters":12800,"station_id":"ce4bgi12rcd13ifvqb70","pricing_plan_id":"cebpf4jnsgd1na2vs0mg"},{"bike_id":"2a5d35df-8059-4201-842b-1dbf91654728","system_id":"levelo_inurba_marseille","lat":43.27812,"lon":5.40717,"is_reserved":false,"is_disabled":false,"rental_uris":{"android":"levelo://app?vid=2a5d35df-8059-4201-842b-1dbf91654728","ios":"levelo://app?vid=2a5d35df-8059-4201-842b-1dbf91654728"},"vehicle_type_id":"4","last_reported":1741374464,"current_range_meters":12800,"station_id":"ce4bhnh2rcd13ifvqgtg","pricing_plan_id":"cebpf4jnsgd1na2vs0mg"},{"bike_id":"a90387eb-ea20-4006-a44b-a52330e5a618","system_id":"levelo_inurba_marseille","lat":43.290039,"lon":5.356171,"is_reserved":false,"is_disabled":false,"rental_uris":{"android":"levelo://app?vid=a90387eb-ea20-4006-a44b-a52330e5a618","ios":"levelo://app?vid=a90387eb-ea20-4006-a44b-a52330e5a618"},"vehicle_type_id":"4","last_reported":1741374464,"current_range_meters":12800,"station_id":"ce4bhb92rcd13ifvqen0","pricing_plan_id":"cebpf4jnsgd1na2vs0mg"},{"bike_id":"d30fa9cd-12f6-47e8-93d4-f3251c64196c","system_id":"levelo_inurba_marseille","lat":43.27938,"lon":5.41049,"is_reserved":false,"is_disabled":false,"rental_uris":{"android":"levelo://app?vid=d30fa9cd-12f6-47e8-93d4-f3251c64196c","ios":"levelo://app?vid=d30fa9cd-12f6-47e8-93d4-f3251c64196c"},"vehicle_type_id":"4","last_reported":1741374464,"current_range_meters":12800,"station_id":"ce4bhnp2rcd13ifvqh0g","pricing_plan_id":"cebpf4jnsgd1na2vs0mg"},{"bike_id":"9c2a65ea-f853-4980-96dd-92ca8e872fcd","system_id":"levelo_inurba_marseille","lat":43.24914,"lon":5.40905,"is_reserved":false,"is_disabled":false,"rental_uris":{"android":"levelo://app?vid=9c2a65ea-f853-4980-96dd-92ca8e872fcd","ios":"levelo://app?vid=9c2a65ea-f853-4980-96dd-92ca8e872fcd"},"vehicle_type_id":"4","last_reported":1741374464,"current_range_meters":12800,"station_id":"","pricing_plan_id":"cebpf4jnsgd1na2vs0mg"},{"bike_id":"4f508b50-1e3d-40c5-be77-1e6495edbe07","system_id":"levelo_inurba_marseille","lat":43.25726,"lon":5.41082,"is_reserved":false,"is_disabled":false,"rental_uris":{"android":"levelo://app?vid=4f508b50-1e3d-40c5-be77-1e6495edbe07","ios":"levelo://app?vid=4f508b50-1e3d-40c5-be77-1e6495edbe07"},"vehicle_type_id":"4","last_reported":1741374464,"current_range_meters":13600,"station_id":"ce4bhkp2rcd13ifvqgd0","pricing_plan_id":"cebpf4jnsgd1na2vs0mg"},{"bike_id":"7e60b09d-959c-4d55-a820-f3270555724f","system_id":"levelo_inurba_marseille","lat":43.28614,"lon":5.35105,"is_reserved":false,"is_disabled":false,"rental_uris":{"android":"levelo://app?vid=7e60b09d-959c-4d55-a820-f3270555724f","ios":"levelo://app?vid=7e60b09d-959c-4d55-a820-f3270555724f"},"vehicle_type_id":"4","last_reported":1741374464,"current_range_meters":13600,"station_id":"ce4bhch2rcd13ifvqeug","pricing_plan_id":"cebpf4jnsgd1na2vs0mg"},{"bike_id":"9616f66c-e954-4d36-9352-5ba9de5e8e62","system_id":"levelo_inurba_marseille","lat":43.27825,"lon":5.40743,"is_reserved":false,"is_disabled":false,"rental_uris":{"android":"levelo://app?vid=9616f66c-e954-4d36-9352-5ba9de5e8e62","ios":"levelo://app?vid=9616f66c-e954-4d36-9352-5ba9de5e8e62"},"vehicle_type_id":"4","last_reported":1741374464,"current_range_meters":13600,"station_id":"ce4bhnh2rcd13ifvqgtg","pricing_plan_id":"cebpf4jnsgd1na2vs0mg"},{"bike_id":"b54292f7-ba5a-4ca2-851d-b34190bdf4a8","system_id":"levelo_inurba_marseille","lat":43.33027,"lon":5.39035,"is_reserved":false,"is_disabled":false,"rental_uris":{"android":"levelo://app?vid=b54292f7-ba5a-4ca2-851d-b34190bdf4a8","ios":"levelo://app?vid=b54292f7-ba5a-4ca2-851d-b34190bdf4a8"},"vehicle_type_id":"4","last_reported":1741374464,"current_range_meters":13600,"station_id":"ce4bhr92rcd13ifvqhrg","pricing_plan_id":"cebpf4jnsgd1na2vs0mg"},{"bike_id":"435b8807-e764-49a8-bb09-6f17b5942ba5","system_id":"levelo_inurba_marseille","lat":43.29967,"lon":5.38481,"is_reserved":false,"is_disabled":false,"rental_uris":{"android":"levelo://app?vid=435b8807-e764-49a8-bb09-6f17b5942ba5","ios":"levelo://app?vid=435b8807-e764-49a8-bb09-6f17b5942ba5"},"vehicle_type_id":"4","last_reported":1741374464,"current_range_meters":13600,"station_id":"ce4bgj92rcd13ifvqbd0","pricing_plan_id":"cebpf4jnsgd1na2vs0mg"},{"bike_id":"28cf91c8-babb-4532-a1ff-2467073c331a","system_id":"levelo_inurba_marseille","lat":43.31887,"lon":5.40744,"is_reserved":false,"is_disabled":false,"rental_uris":{"android":"levelo://app?vid=28cf91c8-babb-4532-a1ff-2467073c331a","ios":"levelo://app?vid=28cf91c8-babb-4532-a1ff-2467073c331a"},"vehicle_type_id":"4","last_reported":1741374464,"current_range_meters":13600,"station_id":"ce4bhq12rcd13ifvqhig","pricing_plan_id":"cebpf4jnsgd1na2vs0mg"},{"bike_id":"2464910a-c864-418c-a27f-8f7923d02717","system_id":"levelo_inurba_marseille","lat":43.29518,"lon":5.37502,"is_reserved":false,"is_disabled":false,"rental_uris":{"android":"levelo://app?vid=2464910a-c864-418c-a27f-8f7923d02717","ios":"levelo://app?vid=2464910a-c864-418c-a27f-8f7923d02717"},"vehicle_type_id":"4","last_reported":1741374464,"current_range_meters":12400,"station_id":"ce4bgkp2rcd13ifvqbmg","pricing_plan_id":"cebpf4jnsgd1na2vs0mg"},{"bike_id":"35336367-4200-42ff-af42-51cf283df166","system_id":"levelo_inurba_marseille","lat":43.29029,"lon":5.38646,"is_reserved":false,"is_disabled":false,"rental_uris":{"android":"levelo://app?vid=35336367-4200-42ff-af42-51cf283df166","ios":"levelo://app?vid=35336367-4200-42ff-af42-51cf283df166"},"vehicle_type_id":"4","last_reported":1741374464,"current_range_meters":12000,"station_id":"ce4bh4p2rcd13ifvqe0g","pricing_plan_id":"cebpf4jnsgd1na2vs0mg"},{"bike_id":"815fea3c-42d6-4958-bdf1-f1222995df70","system_id":"levelo_inurba_marseille","lat":43.29793,"lon":5.38101,"is_reserved":false,"is_disabled":false,"rental_uris":{"android":"levelo://app?vid=815fea3c-42d6-4958-bdf1-f1222995df70","ios":"levelo://app?vid=815fea3c-42d6-4958-bdf1-f1222995df70"},"vehicle_type_id":"4","last_reported":1741374464,"current_range_meters":13600,"station_id":"ce4bgip2rcd13ifvqbb0","pricing_plan_id":"cebpf4jnsgd1na2vs0mg"},{"bike_id":"7ba8347b-2e62-458c-8b85-0574e33534ac","system_id":"levelo_inurba_marseille","lat":43.28427,"lon":5.35906,"is_reserved":false,"is_disabled":false,"rental_uris":{"android":"levelo://app?vid=7ba8347b-2e62-458c-8b85-0574e33534ac","ios":"levelo://app?vid=7ba8347b-2e62-458c-8b85-0574e33534ac"},"vehicle_type_id":"4","last_reported":1741374464,"current_range_meters":11600,"station_id":"ce4bhah2rcd13ifvqei0","pricing_plan_id":"cebpf4jnsgd1na2vs0mg"},{"bike_id":"f36f63e6-ab3f-46cc-840d-fcc9422eab03","system_id":"levelo_inurba_marseille","lat":43.34142,"lon":5.40905,"is_reserved":false,"is_disabled":false,"rental_uris":{"android":"levelo://app?vid=f36f63e6-ab3f-46cc-840d-fcc9422eab03","ios":"levelo://app?vid=f36f63e6-ab3f-46cc-840d-fcc9422eab03"},"vehicle_type_id":"4","last_reported":1741374464,"current_range_meters":10000,"station_id":"ce4bhqh2rcd13ifvqhlg","pricing_plan_id":"cebpf4jnsgd1na2vs0mg"},{"bike_id":"5cabd61c-7a18-4a82-b4ff-b4d869db70af","system_id":"levelo_inurba_marseille","lat":43.25116,"lon":5.40325,"is_reserved":false,"is_disabled":false,"rental_uris":{"android":"levelo://app?vid=5cabd61c-7a18-4a82-b4ff-b4d869db70af","ios":"levelo://app?vid=5cabd61c-7a18-4a82-b4ff-b4d869db70af"},"vehicle_type_id":"4","last_reported":1741374464,"current_range_meters":10000,"station_id":"ce4bhlh2rcd13ifvqgig","pricing_plan_id":"cebpf4jnsgd1na2vs0mg"},{"bike_id":"117576de-ea7a-4e20-89ce-191a1398e64d","system_id":"levelo_inurba_marseille","lat":43.23196,"lon":5.39971,"is_reserved":false,"is_disabled":false,"rental_uris":{"android":"levelo://app?vid=117576de-ea7a-4e20-89ce-191a1398e64d","ios":"levelo://app?vid=117576de-ea7a-4e20-89ce-191a1398e64d"},"vehicle_type_id":"4","last_reported":1741374464,"current_range_meters":14000,"station_id":"ce4bhn12rcd13ifvqgqg","pricing_plan_id":"cebpf4jnsgd1na2vs0mg"},{"bike_id":"db1c7047-7b9f-4b56-96ef-3b289cb537df","system_id":"levelo_inurba_marseille","lat":43.3084,"lon":5.37405,"is_reserved":false,"is_disabled":false,"rental_uris":{"android":"levelo://app?vid=db1c7047-7b9f-4b56-96ef-3b289cb537df","ios":"levelo://app?vid=db1c7047-7b9f-4b56-96ef-3b289cb537df"},"vehicle_type_id":"4","last_reported":1741374464,"current_range_meters":14000,"station_id":"","pricing_plan_id":"cebpf4jnsgd1na2vs0mg"},{"bike_id":"19e17e2b-0222-426b-b245-7272e7634353","system_id":"levelo_inurba_marseille","lat":43.28567,"lon":5.39504,"is_reserved":false,"is_disabled":false,"rental_uris":{"android":"levelo://app?vid=19e17e2b-0222-426b-b245-7272e7634353","ios":"levelo://app?vid=19e17e2b-0222-426b-b245-7272e7634353"},"vehicle_type_id":"4","last_reported":1741374464,"current_range_meters":14000,"station_id":"ce4bh292rcd13ifvqdg0","pricing_plan_id":"cebpf4jnsgd1na2vs0mg"},{"bike_id":"c67de6f3-eaf0-4568-a65f-58fcccb4fe7e","system_id":"levelo_inurba_marseille","lat":43.28376,"lon":5.38652,"is_reserved":false,"is_disabled":false,"rental_uris":{"android":"levelo://app?vid=c67de6f3-eaf0-4568-a65f-58fcccb4fe7e","ios":"levelo://app?vid=c67de6f3-eaf0-4568-a65f-58fcccb4fe7e"},"vehicle_type_id":"4","last_reported":1741374464,"current_range_meters":14000,"station_id":"ce4bh492rcd13ifvqdvg","pricing_plan_id":"cebpf4jnsgd1na2vs0mg"},{"bike_id":"b533f38f-df9a-4e01-86fb-08f4b9bfcdfb","system_id":"levelo_inurba_marseille","lat":43.26229,"lon":5.42098,"is_reserved":false,"is_disabled":false,"rental_uris":{"android":"levelo://app?vid=b533f38f-df9a-4e01-86fb-08f4b9bfcdfb","ios":"levelo://app?vid=b533f38f-df9a-4e01-86fb-08f4b9bfcdfb"},"vehicle_type_id":"4","last_reported":1741374464,"current_range_meters":14000,"station_id":"","pricing_plan_id":"cebpf4jnsgd1na2vs0mg"},{"bike_id":"f479a6d1-3cb4-4f96-b97e-51428b8374e3","system_id":"levelo_inurba_marseille","lat":43.28456,"lon":5.35888,"is_reserved":false,"is_disabled":false,"rental_uris":{"android":"levelo://app?vid=f479a6d1-3cb4-4f96-b97e-51428b8374e3","ios":"levelo://app?vid=f479a6d1-3cb4-4f96-b97e-51428b8374e3"},"vehicle_type_id":"4","last_reported":1741374464,"current_range_meters":14000,"station_id":"ce4bhah2rcd13ifvqei0","pricing_plan_id":"cebpf4jnsgd1na2vs0mg"},{"bike_id":"9b8789be-c150-4679-b8ba-e1d5e4639da2","system_id":"levelo_inurba_marseille","lat":43.25726,"lon":5.41105,"is_reserved":false,"is_disabled":false,"rental_uris":{"android":"levelo://app?vid=9b8789be-c150-4679-b8ba-e1d5e4639da2","ios":"levelo://app?vid=9b8789be-c150-4679-b8ba-e1d5e4639da2"},"vehicle_type_id":"4","last_reported":1741374464,"current_range_meters":14000,"station_id":"ce4bhkp2rcd13ifvqgd0","pricing_plan_id":"cebpf4jnsgd1na2vs0mg"},{"bike_id":"75bdcf83-5140-440b-9e92-976e7b768fc9","system_id":"levelo_inurba_marseille","lat":43.29782,"lon":5.37041,"is_reserved":false,"is_disabled":false,"rental_uris":{"android":"levelo://app?vid=75bdcf83-5140-440b-9e92-976e7b768fc9","ios":"levelo://app?vid=75bdcf83-5140-440b-9e92-976e7b768fc9"},"vehicle_type_id":"4","last_reported":1741374464,"current_range_meters":14000,"station_id":"ce4bgop2rcd13ifvqc1g","pricing_plan_id":"cebpf4jnsgd1na2vs0mg"},{"bike_id":"2485a93b-7a62-4105-be0a-4e9a3b79fbfb","system_id":"levelo_inurba_marseille","lat":43.3112,"lon":5.37775,"is_reserved":false,"is_disabled":false,"rental_uris":{"android":"levelo://app?vid=2485a93b-7a62-4105-be0a-4e9a3b79fbfb","ios":"levelo://app?vid=2485a93b-7a62-4105-be0a-4e9a3b79fbfb"},"vehicle_type_id":"4","last_reported":1741374464,"current_range_meters":12000,"station_id":"ce4bgt92rcd13ifvqcg0","pricing_plan_id":"cebpf4jnsgd1na2vs0mg"},{"bike_id":"d15888b3-84cd-42f5-8973-07174fa936f9","system_id":"levelo_inurba_marseille","lat":43.31444,"lon":5.37391,"is_reserved":false,"is_disabled":false,"rental_uris":{"android":"levelo://app?vid=d15888b3-84cd-42f5-8973-07174fa936f9","ios":"levelo://app?vid=d15888b3-84cd-42f5-8973-07174fa936f9"},"vehicle_type_id":"4","last_reported":1741374464,"current_range_meters":14400,"station_id":"","pricing_plan_id":"cebpf4jnsgd1na2vs0mg"},{"bike_id":"fdfedfa7-23a2-4010-b35a-8f742aa67e84","system_id":"levelo_inurba_marseille","lat":43.28854,"lon":5.35852,"is_reserved":false,"is_disabled":false,"rental_uris":{"android":"levelo://app?vid=fdfedfa7-23a2-4010-b35a-8f742aa67e84","ios":"levelo://app?vid=fdfedfa7-23a2-4010-b35a-8f742aa67e84"},"vehicle_type_id":"4","last_reported":1741374464,"current_range_meters":14400,"station_id":"ce4bhb12rcd13ifvqem0","pricing_plan_id":"cebpf4jnsgd1na2vs0mg"},{"bike_id":"024fa65f-fc94-4c91-a637-3013b29f7baf","system_id":"levelo_inurba_marseille","lat":43.26196,"lon":5.37447,"is_reserved":false,"is_disabled":false,"rental_uris":{"android":"levelo://app?vid=024fa65f-fc94-4c91-a637-3013b29f7baf","ios":"levelo://app?vid=024fa65f-fc94-4c91-a637-3013b29f7baf"},"vehicle_type_id":"4","last_reported":1741374464,"current_range_meters":14400,"station_id":"ce4bhi12rcd13ifvqfq0","pricing_plan_id":"cebpf4jnsgd1na2vs0mg"},{"bike_id":"7a8959cf-cba4-472b-a67f-21d9d3e5e3a1","system_id":"levelo_inurba_marseille","lat":43.24385,"lon":5.4378,"is_reserved":false,"is_disabled":false,"rental_uris":{"android":"levelo://app?vid=7a8959cf-cba4-472b-a67f-21d9d3e5e3a1","ios":"levelo://app?vid=7a8959cf-cba4-472b-a67f-21d9d3e5e3a1"},"vehicle_type_id":"4","last_reported":1741374464,"current_range_meters":14800,"station_id":"","pricing_plan_id":"cebpf4jnsgd1na2vs0mg"},{"bike_id":"2f645863-526e-4f54-9414-c9eda2f3ac04","system_id":"levelo_inurba_marseille","lat":43.29252,"lon":5.38435,"is_reserved":false,"is_disabled":false,"rental_uris":{"android":"levelo://app?vid=2f645863-526e-4f54-9414-c9eda2f3ac04","ios":"levelo://app?vid=2f645863-526e-4f54-9414-c9eda2f3ac04"},"vehicle_type_id":"4","last_reported":1741374464,"current_range_meters":14800,"station_id":"ce4bh692rcd13ifvqea0","pricing_plan_id":"cebpf4jnsgd1na2vs0mg"},{"bike_id":"80f21975-751d-4f78-9c69-a3eb4698bf66","system_id":"levelo_inurba_marseille","lat":43.30181,"lon":5.36607,"is_reserved":false,"is_disabled":false,"rental_uris":{"android":"levelo://app?vid=80f21975-751d-4f78-9c69-a3eb4698bf66","ios":"levelo://app?vid=80f21975-751d-4f78-9c69-a3eb4698bf66"},"vehicle_type_id":"4","last_reported":1741374464,"current_range_meters":14800,"station_id":"ce4bgrh2rcd13ifvqc8g","pricing_plan_id":"cebpf4jnsgd1na2vs0mg"},{"bike_id":"653c8425-92aa-4e6a-b208-b7ec53593fa5","system_id":"levelo_inurba_marseille","lat":43.28854,"lon":5.3584,"is_reserved":false,"is_disabled":false,"rental_uris":{"android":"levelo://app?vid=653c8425-92aa-4e6a-b208-b7ec53593fa5","ios":"levelo://app?vid=653c8425-92aa-4e6a-b208-b7ec53593fa5"},"vehicle_type_id":"4","last_reported":1741374464,"current_range_meters":14000,"station_id":"ce4bhb12rcd13ifvqem0","pricing_plan_id":"cebpf4jnsgd1na2vs0mg"},{"bike_id":"686611a2-e927-4b19-a15b-c790570fe152","system_id":"levelo_inurba_marseille","lat":43.29279,"lon":5.37619,"is_reserved":false,"is_disabled":false,"rental_uris":{"android":"levelo://app?vid=686611a2-e927-4b19-a15b-c790570fe152","ios":"levelo://app?vid=686611a2-e927-4b19-a15b-c790570fe152"},"vehicle_type_id":"4","last_reported":1741374464,"current_range_meters":14800,"station_id":"ce4bgi12rcd13ifvqb80","pricing_plan_id":"cebpf4jnsgd1na2vs0mg"},{"bike_id":"de804031-bb9c-4930-8cf1-dee25351bc0a","system_id":"levelo_inurba_marseille","lat":43.30602,"lon":5.37239,"is_reserved":false,"is_disabled":false,"rental_uris":{"android":"levelo://app?vid=de804031-bb9c-4930-8cf1-dee25351bc0a","ios":"levelo://app?vid=de804031-bb9c-4930-8cf1-dee25351bc0a"},"vehicle_type_id":"4","last_reported":1741374464,"current_range_meters":11600,"station_id":"ce4bgqh2rcd13ifvqc4g","pricing_plan_id":"cebpf4jnsgd1na2vs0mg"},{"bike_id":"fbff65a7-8839-4196-9afc-1014a4eaa6f6","system_id":"levelo_inurba_marseille","lat":43.30251,"lon":5.40082,"is_reserved":false,"is_disabled":false,"rental_uris":{"android":"levelo://app?vid=fbff65a7-8839-4196-9afc-1014a4eaa6f6","ios":"levelo://app?vid=fbff65a7-8839-4196-9afc-1014a4eaa6f6"},"vehicle_type_id":"4","last_reported":1741374464,"current_range_meters":15200,"station_id":"ce4bgvh2rcd13ifvqcs0","pricing_plan_id":"cebpf4jnsgd1na2vs0mg"},{"bike_id":"8cc9aed7-f018-40c2-a553-a664e5ea4ba7","system_id":"levelo_inurba_marseille","lat":43.28575,"lon":5.38596,"is_reserved":false,"is_disabled":false,"rental_uris":{"android":"levelo://app?vid=8cc9aed7-f018-40c2-a553-a664e5ea4ba7","ios":"levelo://app?vid=8cc9aed7-f018-40c2-a553-a664e5ea4ba7"},"vehicle_type_id":"4","last_reported":1741374464,"current_range_meters":15200,"station_id":"ce4bh8p2rcd13ifvqeb0","pricing_plan_id":"cebpf4jnsgd1na2vs0mg"},{"bike_id":"d9b3875b-08a3-47c6-a01d-7b1b49d55503","system_id":"levelo_inurba_marseille","lat":43.29959,"lon":5.41316,"is_reserved":false,"is_disabled":false,"rental_uris":{"android":"levelo://app?vid=d9b3875b-08a3-47c6-a01d-7b1b49d55503","ios":"levelo://app?vid=d9b3875b-08a3-47c6-a01d-7b1b49d55503"},"vehicle_type_id":"4","last_reported":1741374464,"current_range_meters":14800,"station_id":"ce4bhp12rcd13ifvqh9g","pricing_plan_id":"cebpf4jnsgd1na2vs0mg"},{"bike_id":"9e0bdbc8-51e0-48b0-afe9-567ce2c91207","system_id":"levelo_inurba_marseille","lat":43.27815,"lon":5.40711,"is_reserved":false,"is_disabled":false,"rental_uris":{"android":"levelo://app?vid=9e0bdbc8-51e0-48b0-afe9-567ce2c91207","ios":"levelo://app?vid=9e0bdbc8-51e0-48b0-afe9-567ce2c91207"},"vehicle_type_id":"4","last_reported":1741374464,"current_range_meters":15200,"station_id":"ce4bhnh2rcd13ifvqgtg","pricing_plan_id":"cebpf4jnsgd1na2vs0mg"},{"bike_id":"873b6a3d-be67-473b-9616-285541733d24","system_id":"levelo_inurba_marseille","lat":43.29557,"lon":5.42291,"is_reserved":false,"is_disabled":false,"rental_uris":{"android":"levelo://app?vid=873b6a3d-be67-473b-9616-285541733d24","ios":"levelo://app?vid=873b6a3d-be67-473b-9616-285541733d24"},"vehicle_type_id":"4","last_reported":1741374464,"current_range_meters":14000,"station_id":"ce4bhph2rcd13ifvqhdg","pricing_plan_id":"cebpf4jnsgd1na2vs0mg"},{"bike_id":"ac548875-e8d0-4488-8429-c5c379b94fea","system_id":"levelo_inurba_marseille","lat":43.23195,"lon":5.40006,"is_reserved":false,"is_disabled":false,"rental_uris":{"android":"levelo://app?vid=ac548875-e8d0-4488-8429-c5c379b94fea","ios":"levelo://app?vid=ac548875-e8d0-4488-8429-c5c379b94fea"},"vehicle_type_id":"4","last_reported":1741374464,"current_range_meters":16000,"station_id":"ce4bhn12rcd13ifvqgqg","pricing_plan_id":"cebpf4jnsgd1na2vs0mg"},{"bike_id":"8e43052e-86ee-431c-a3c5-7b2cafc0c661","system_id":"levelo_inurba_marseille","lat":43.27316,"lon":5.39122,"is_reserved":false,"is_disabled":true,"rental_uris":{"android":"levelo://app?vid=8e43052e-86ee-431c-a3c5-7b2cafc0c661","ios":"levelo://app?vid=8e43052e-86ee-431c-a3c5-7b2cafc0c661"},"vehicle_type_id":"4","last_reported":1741374464,"current_range_meters":16000,"station_id":"ce4bhgp2rcd13ifvqfe0","pricing_plan_id":"cebpf4jnsgd1na2vs0mg"},{"bike_id":"b2c2514d-58df-4080-9acc-0a3325c87525","system_id":"levelo_inurba_marseille","lat":43.32343,"lon":5.36652,"is_reserved":false,"is_disabled":false,"rental_uris":{"android":"levelo://app?vid=b2c2514d-58df-4080-9acc-0a3325c87525","ios":"levelo://app?vid=b2c2514d-58df-4080-9acc-0a3325c87525"},"vehicle_type_id":"4","last_reported":1741374464,"current_range_meters":16000,"station_id":"ce4bhsh2rcd13ifvqi2g","pricing_plan_id":"cebpf4jnsgd1na2vs0mg"},{"bike_id":"388ea826-f5fa-4632-a530-45d13cc0a769","system_id":"levelo_inurba_marseille","lat":43.231906,"lon":5.399961,"is_reserved":false,"is_disabled":false,"rental_uris":{"android":"levelo://app?vid=388ea826-f5fa-4632-a530-45d13cc0a769","ios":"levelo://app?vid=388ea826-f5fa-4632-a530-45d13cc0a769"},"vehicle_type_id":"4","last_reported":1741374464,"current_range_meters":16000,"station_id":"ce4bhn12rcd13ifvqgqg","pricing_plan_id":"cebpf4jnsgd1na2vs0mg"},{"bike_id":"d9cd9b23-cf6a-4108-a3b6-7689a46585ed","system_id":"levelo_inurba_marseille","lat":43.30144,"lon":5.37406,"is_reserved":false,"is_disabled":false,"rental_uris":{"android":"levelo://app?vid=d9cd9b23-cf6a-4108-a3b6-7689a46585ed","ios":"levelo://app?vid=d9cd9b23-cf6a-4108-a3b6-7689a46585ed"},"vehicle_type_id":"4","last_reported":1741374464,"current_range_meters":16000,"station_id":"ce4bgs92rcd13ifvqcc0","pricing_plan_id":"cebpf4jnsgd1na2vs0mg"},{"bike_id":"6f1347c5-ed73-4af7-890d-1633d13b2eab","system_id":"levelo_inurba_marseille","lat":43.30483,"lon":5.36728,"is_reserved":false,"is_disabled":false,"rental_uris":{"android":"levelo://app?vid=6f1347c5-ed73-4af7-890d-1633d13b2eab","ios":"levelo://app?vid=6f1347c5-ed73-4af7-890d-1633d13b2eab"},"vehicle_type_id":"4","last_reported":1741374464,"current_range_meters":16000,"station_id":"","pricing_plan_id":"cebpf4jnsgd1na2vs0mg"},{"bike_id":"830b1c25-7cf5-4270-8e7a-b72bd6e17217","system_id":"levelo_inurba_marseille","lat":43.29032,"lon":5.38653,"is_reserved":false,"is_disabled":false,"rental_uris":{"android":"levelo://app?vid=830b1c25-7cf5-4270-8e7a-b72bd6e17217","ios":"levelo://app?vid=830b1c25-7cf5-4270-8e7a-b72bd6e17217"},"vehicle_type_id":"4","last_reported":1741374464,"current_range_meters":15200,"station_id":"ce4bh4p2rcd13ifvqe0g","pricing_plan_id":"cebpf4jnsgd1na2vs0mg"},{"bike_id":"1ff664cb-f378-4a6c-b3c1-b47ee25a2174","system_id":"levelo_inurba_marseille","lat":43.32353,"lon":5.38896,"is_reserved":false,"is_disabled":false,"rental_uris":{"android":"levelo://app?vid=1ff664cb-f378-4a6c-b3c1-b47ee25a2174","ios":"levelo://app?vid=1ff664cb-f378-4a6c-b3c1-b47ee25a2174"},"vehicle_type_id":"4","last_reported":1741374464,"current_range_meters":16000,"station_id":"ce4bhqp2rcd13ifvqhog","pricing_plan_id":"cebpf4jnsgd1na2vs0mg"},{"bike_id":"c3821921-6f0e-4522-ac7a-982a8ffe12d7","system_id":"levelo_inurba_marseille","lat":43.28836,"lon":5.35866,"is_reserved":false,"is_disabled":false,"rental_uris":{"android":"levelo://app?vid=c3821921-6f0e-4522-ac7a-982a8ffe12d7","ios":"levelo://app?vid=c3821921-6f0e-4522-ac7a-982a8ffe12d7"},