{"last_updated":1752689780,"ttl":60,"version":"2.2","data":{"bikes":[{"bike_id":"53b742a7-31ae-4272-9bba-7740339e2a2f","system_id":"levelo_inurba_marseille","lat":43.33747,"lon":5.37463,"is_reserved":false,"is_disabled":false,"rental_uris":{"android":"levelo://app?vid=53b742a7-31ae-4272-9bba-7740339e2a2f","ios":"levelo://app?vid=53b742a7-31ae-4272-9bba-7740339e2a2f"},"vehicle_type_id":"1","last_reported":1752689780,"current_range_meters":28000,"station_id":"","pricing_plan_id":"cebpf4jnsgd1na2vs0mg"},{"bike_id":"1b7e058b-c018-415e-8641-ef8bd3534066","system_id":"levelo_inurba_marseille","lat":43.28272,"lon":5.35049,"is_reserved":false,"is_disabled":false,"rental_uris":{"android":"levelo://app?vid=1b7e058b-c018-415e-8641-ef8bd3534066","ios":"levelo://app?vid=1b7e058b-c018-415e-8641-ef8bd3534066"},"vehicle_type_id":"4","last_reported":1752689780,"current_range_meters":2800,"station_id":"ce4bhbp2rcd13ifvqerg","pricing_plan_id":"cebpf4jnsgd1na2vs0mg"},{"bike_id":"39e08b44-b4c4-4a79-b7d1-b3cefa82ccd9","system_id":"levelo_inurba_marseille","lat":43.30802,"lon":5.43525,"is_reserved":false,"is_disabled":false,"rental_uris":{"android":"levelo://app?vid=39e08b44-b4c4-4a79-b7d1-b3cefa82ccd9","ios":"levelo://app?vid=39e08b44-b4c4-4a79-b7d1-b3cefa82ccd9"},"vehicle_type_id":"4","last_reported":1752689780,"current_range_meters":2800,"station_id":"ce4bhph2rcd13ifvqheg","pricing_plan_id":"cebpf4jnsgd1na2vs0mg"},{"bike_id":"0517f226-9c35-473e-b2c6-52179b326362","system_id":"levelo_inurba_marseille","lat":43.282639,"lon":5.350543,"is_reserved":false,"is_disabled":false,"rental_uris":{"android":"levelo://app?vid=0517f226-9c35-473e-b2c6-52179b326362","ios":"levelo://app?vid=0517f226-9c35-473e-b2c6-52179b326362"},"vehicle_type_id":"4","last_reported":1752689780,"current_range_meters":2800,"station_id":"","pricing_plan_id":"cebpf4jnsgd1na2vs0mg"},{"bike_id":"ce44358e-afa4-4b9c-8de3-b08684351f76","system_id":"levelo_inurba_marseille","lat":43.279477,"lon":5.410357,"is_reserved":false,"is_disabled":true,"rental_uris":{"android":"levelo://app?vid=ce44358e-afa4-4b9c-8de3-b08684351f76","ios":"levelo://app?vid=ce44358e-afa4-4b9c-8de3-b08684351f76"},"vehicle_type_id":"4","last_reported":1752689780,"current_range_meters":2800,"station_id":"ce4bhnp2rcd13ifvqh0g","pricing_plan_id":"cebpf4jnsgd1na2vs0mg"},{"bike_id":"7a15c0d3-0207-4d82-beff-fcdd84bb2c70","system_id":"levelo_inurba_marseille","lat":43.29984,"lon":5.37162,"is_reserved":false,"is_disabled":false,"rental_uris":{"android":"levelo://app?vid=7a15c0d3-0207-4d82-beff-fcdd84bb2c70","ios":"levelo://app?vid=7a15c0d3-0207-4d82-beff-fcdd84bb2c70"},"vehicle_type_id":"4","last_reported":1752689780,"current_range_meters":2800,"station_id":"ce4bgr92rcd13ifvqc7g","pricing_plan_id":"cebpf4jnsgd1na2vs0mg"},{"bike_id":"8780fb50-d6e2-447a-8c9b-f07287bcdcf1","system_id":"levelo_inurba_marseille","lat":43.24377,"lon":5.37057,"is_reserved":false,"is_disabled":false,"rental_uris":{"android":"levelo://app?vid=8780fb50-d6e2-447a-8c9b-f07287bcdcf1","ios":"levelo://app?vid=8780fb50-d6e2-447a-8c9b-f07287bcdcf1"},"vehicle_type_id":"4","last_reported":1752689780,"current_range_meters":2800,"station_id":"ce4bhhh2rcd13ifvqfk0","pricing_plan_id":"cebpf4jnsgd1na2vs0mg"},{"bike_id":"42219d88-e49f-470d-acbd-8ca8f9a0481d","system_id":"levelo_inurba_marseille","lat":43.296,"lon":5.38102,"is_reserved":false,"is_disabled":false,"rental_uris":{"android":"levelo://app?vid=42219d88-e49f-470d-acbd-8ca8f9a0481d","ios":"levelo://app?vid=42219d88-e49f-470d-acbd-8ca8f9a0481d"},"vehicle_type_id":"4","last_reported":1752689780,"current_range_meters":2800,"station_id":"ce4bgl12rcd13ifvqbo0","pricing_plan_id":"cebpf4jnsgd1na2vs0mg"},{"bike_id":"6368de16-d144-4f73-833e-ca19d2aeee12","system_id":"levelo_inurba_marseille","lat":43.22531,"lon":5.34767,"is_reserved":false,"is_disabled":false,"rental_uris":{"android":"levelo://app?vid=6368de16-d144-4f73-833e-ca19d2aeee12","ios":"levelo://app?vid=6368de16-d144-4f73-833e-ca19d2aeee12"},"vehicle_type_id":"4","last_reported":1752689780,"current_range_meters":3200,"station_id":"st_cvj5dfep6f1abm77gieg","pricing_plan_id":"cebpf4jnsgd1na2vs0mg"},{"bike_id":"f5a1d95c-ec79-456e-85a6-6ebbd5782c89","system_id":"levelo_inurba_marseille","lat":43.26193,"lon":5.3745,"is_reserved":false,"is_disabled":false,"rental_uris":{"android":"levelo://app?vid=f5a1d95c-ec79-456e-85a6-6ebbd5782c89","ios":"levelo://app?vid=f5a1d95c-ec79-456e-85a6-6ebbd5782c89"},"vehicle_type_id":"4","last_reported":1752689780,"current_range_meters":3200,"station_id":"ce4bhgp2rcd13ifvqfc0","pricing_plan_id":"cebpf4jnsgd1na2vs0mg"},{"bike_id":"d7600bc0-f529-4a60-ba3d-748f71366bfc","system_id":"levelo_inurba_marseille","lat":43.24678,"lon":5.38192,"is_reserved":false,"is_disabled":false,"rental_uris":{"android":"levelo://app?vid=d7600bc0-f529-4a60-ba3d-748f71366bfc","ios":"levelo://app?vid=d7600bc0-f529-4a60-ba3d-748f71366bfc"},"vehicle_type_id":"4","last_reported":1752689780,"current_range_meters":3600,"station_id":"ce4bhih2rcd13ifvqfr0","pricing_plan_id":"cebpf4jnsgd1na2vs0mg"},{"bike_id":"8013ac94-4528-4892-a4a1-3db9f80a58d2","system_id":"levelo_inurba_marseille","lat":43.33609,"lon":5.41036,"is_reserved":false,"is_disabled":false,"rental_uris":{"android":"levelo://app?vid=8013ac94-4528-4892-a4a1-3db9f80a58d2","ios":"levelo://app?vid=8013ac94-4528-4892-a4a1-3db9f80a58d2"},"vehicle_type_id":"4","last_reported":1752689780,"current_range_meters":4000,"station_id":"ce4bhqh2rcd13ifvqhmg","pricing_plan_id":"cebpf4jnsgd1na2vs0mg"},{"bike_id":"bdf14117-2297-472e-8745-9642c9d2a187","system_id":"levelo_inurba_marseille","lat":43.30332,"lon":5.40424,"is_reserved":false,"is_disabled":false,"rental_uris":{"android":"levelo://app?vid=bdf14117-2297-472e-8745-9642c9d2a187","ios":"levelo://app?vid=bdf14117-2297-472e-8745-9642c9d2a187"},"vehicle_type_id":"4","last_reported":1752689780,"current_range_meters":4000,"station_id":"ce4bh012rcd13ifvqd10","pricing_plan_id":"cebpf4jnsgd1na2vs0mg"},{"bike_id":"75e842aa-c102-4661-8687-dada4172c111","system_id":"levelo_inurba_marseille","lat":43.28263,"lon":5.35058,"is_reserved":false,"is_disabled":false,"rental_uris":{"android":"levelo://app?vid=75e842aa-c102-4661-8687-dada4172c111","ios":"levelo://app?vid=75e842aa-c102-4661-8687-dada4172c111"},"vehicle_type_id":"4","last_reported":1752689780,"current_range_meters":4000,"station_id":"ce4bhbp2rcd13ifvqerg","pricing_plan_id":"cebpf4jnsgd1na2vs0mg"},{"bike_id":"087763ea-286c-4179-843a-f9866e8a2d2f","system_id":"levelo_inurba_marseille","lat":43.279616,"lon":5.410839,"is_reserved":false,"is_disabled":false,"rental_uris":{"android":"levelo://app?vid=087763ea-286c-4179-843a-f9866e8a2d2f","ios":"levelo://app?vid=087763ea-286c-4179-843a-f9866e8a2d2f"},"vehicle_type_id":"4","last_reported":1752689780,"current_range_meters":4000,"station_id":"ce4bhnp2rcd13ifvqh0g","pricing_plan_id":"cebpf4jnsgd1na2vs0mg"},{"bike_id":"56e7f2d5-d888-4dc0-8037-2589f6000f64","system_id":"levelo_inurba_marseille","lat":43.29576,"lon":5.39974,"is_reserved":false,"is_disabled":false,"rental_uris":{"android":"levelo://app?vid=56e7f2d5-d888-4dc0-8037-2589f6000f64","ios":"levelo://app?vid=56e7f2d5-d888-4dc0-8037-2589f6000f64"},"vehicle_type_id":"4","last_reported":1752689780,"current_range_meters":3200,"station_id":"ce4bh312rcd13ifvqdj0","pricing_plan_id":"cebpf4jnsgd1na2vs0mg"},{"bike_id":"271a729c-3031-481b-8d6a-b9fe370536ce","system_id":"levelo_inurba_marseille","lat":43.29549,"lon":5.4229,"is_reserved":false,"is_disabled":false,"rental_uris":{"android":"levelo://app?vid=271a729c-3031-481b-8d6a-b9fe370536ce","ios":"levelo://app?vid=271a729c-3031-481b-8d6a-b9fe370536ce"},"vehicle_type_id":"4","last_reported":1752689780,"current_range_meters":4400,"station_id":"ce4bhph2rcd13ifvqhdg","pricing_plan_id":"cebpf4jnsgd1na2vs0mg"},{"bike_id":"2064bdb7-372e-49ad-84cc-61def3fdbc2e","system_id":"levelo_inurba_marseille","lat":43.28614,"lon":5.35089,"is_reserved":false,"is_disabled":false,"rental_uris":{"android":"levelo://app?vid=2064bdb7-372e-49ad-84cc-61def3fdbc2e","ios":"levelo://app?vid=2064bdb7-372e-49ad-84cc-61def3fdbc2e"},"vehicle_type_id":"4","last_reported":1752689780,"current_range_meters":4400,"station_id":"ce4bhch2rcd13ifvqeug","pricing_plan_id":"cebpf4jnsgd1na2vs0mg"},{"bike_id":"12f6949e-2aa4-4d48-8092-6bf7701e8413","system_id":"levelo_inurba_marseille","lat":43.28477,"lon":5.38418,"is_reserved":false,"is_disabled":false,"rental_uris":{"android":"levelo://app?vid=12f6949e-2aa4-4d48-8092-6bf7701e8413","ios":"levelo://app?vid=12f6949e-2aa4-4d48-8092-6bf7701e8413"},"vehicle_type_id":"4","last_reported":1752689780,"current_range_meters":4800,"station_id":"ce4bh512rcd13ifvqe3g","pricing_plan_id":"cebpf4jnsgd1na2vs0mg"},{"bike_id":"86ec0fea-51f3-484c-9268-308de95371ee","system_id":"levelo_inurba_marseille","lat":43.29261,"lon":5.38426,"is_reserved":false,"is_disabled":false,"rental_uris":{"android":"levelo://app?vid=86ec0fea-51f3-484c-9268-308de95371ee","ios":"levelo://app?vid=86ec0fea-51f3-484c-9268-308de95371ee"},"vehicle_type_id":"4","last_reported":1752689780,"current_range_meters":4800,"station_id":"ce4bh692rcd13ifvqea0","pricing_plan_id":"cebpf4jnsgd1na2vs0mg"},{"bike_id":"0d0cb779-f04d-49a3-b24e-b494e6617955","system_id":"levelo_inurba_marseille","lat":43.31692,"lon":5.40474,"is_reserved":false,"is_disabled":false,"rental_uris":{"android":"levelo://app?vid=0d0cb779-f04d-49a3-b24e-b494e6617955","ios":"levelo://app?vid=0d0cb779-f04d-49a3-b24e-b494e6617955"},"vehicle_type_id":"4","last_reported":1752689780,"current_range_meters":4800,"station_id":"ce4bh012rcd13ifvqd00","pricing_plan_id":"cebpf4jnsgd1na2vs0mg"},{"bike_id":"d46cd226-4dbb-44da-a5d7-bd9c7adc3e09","system_id":"levelo_inurba_marseille","lat":43.25584,"lon":5.38231,"is_reserved":false,"is_disabled":false,"rental_uris":{"android":"levelo://app?vid=d46cd226-4dbb-44da-a5d7-bd9c7adc3e09","ios":"levelo://app?vid=d46cd226-4dbb-44da-a5d7-bd9c7adc3e09"},"vehicle_type_id":"4","last_reported":1752689780,"current_range_meters":5600,"station_id":"ce4bhih2rcd13ifvqfs0","pricing_plan_id":"cebpf4jnsgd1na2vs0mg"},{"bike_id":"cd712f72-229a-4360-8bb0-009f1512a99e","system_id":"levelo_inurba_marseille","lat":43.29959,"lon":5.41317,"is_reserved":false,"is_disabled":false,"rental_uris":{"android":"levelo://app?vid=cd712f72-229a-4360-8bb0-009f1512a99e","ios":"levelo://app?vid=cd712f72-229a-4360-8bb0-009f1512a99e"},"vehicle_type_id":"4","last_reported":1752689780,"current_range_meters":5600,"station_id":"ce4bhp12rcd13ifvqh9g","pricing_plan_id":"cebpf4jnsgd1na2vs0mg"},{"bike_id":"6532efa7-a8c6-4cc1-bae0-0091974a312d","system_id":"levelo_inurba_marseille","lat":43.21194,"lon":5.35073,"is_reserved":false,"is_disabled":false,"rental_uris":{"android":"levelo://app?vid=6532efa7-a8c6-4cc1-bae0-0091974a312d","ios":"levelo://app?vid=6532efa7-a8c6-4cc1-bae0-0091974a312d"},"vehicle_type_id":"4","last_reported":1752689780,"current_range_meters":6000,"station_id":"st_cvj6sg6p6f1abm77japg","pricing_plan_id":"cebpf4jnsgd1na2vs0mg"},{"bike_id":"d714eae5-3e37-42b5-b7be-641573fbc5bb","system_id":"levelo_inurba_marseille","lat":43.29573,"lon":5.36721,"is_reserved":false,"is_disabled":false,"rental_uris":{"android":"levelo://app?vid=d714eae5-3e37-42b5-b7be-641573fbc5bb","ios":"levelo://app?vid=d714eae5-3e37-42b5-b7be-641573fbc5bb"},"vehicle_type_id":"4","last_reported":1752689780,"current_range_meters":6000,"station_id":"ce4bgph2rcd13ifvqc2g","pricing_plan_id":"cebpf4jnsgd1na2vs0mg"},{"bike_id":"b06727dd-d1fb-44d0-903c-281f993ceb93","system_id":"levelo_inurba_marseille","lat":43.282732,"lon":5.350578,"is_reserved":false,"is_disabled":false,"rental_uris":{"android":"levelo://app?vid=b06727dd-d1fb-44d0-903c-281f993ceb93","ios":"levelo://app?vid=b06727dd-d1fb-44d0-903c-281f993ceb93"},"vehicle_type_id":"4","last_reported":1752689780,"current_range_meters":6000,"station_id":"ce4bhbp2rcd13ifvqerg","pricing_plan_id":"cebpf4jnsgd1na2vs0mg"},{"bike_id":"e2f2f893-16c7-42e5-8c51-893940a1136e","system_id":"levelo_inurba_marseille","lat":43.30124,"lon":5.36857,"is_reserved":false,"is_disabled":false,"rental_uris":{"android":"levelo://app?vid=e2f2f893-16c7-42e5-8c51-893940a1136e","ios":"levelo://app?vid=e2f2f893-16c7-42e5-8c51-893940a1136e"},"vehicle_type_id":"4","last_reported":1752689780,"current_range_meters":6400,"station_id":"","pricing_plan_id":"cebpf4jnsgd1na2vs0mg"},{"bike_id":"892165f6-25a5-4f0a-a9a6-cf4efe50c3be","system_id":"levelo_inurba_marseille","lat":43.24853,"lon":5.42527,"is_reserved":false,"is_disabled":false,"rental_uris":{"android":"levelo://app?vid=892165f6-25a5-4f0a-a9a6-cf4efe50c3be","ios":"levelo://app?vid=892165f6-25a5-4f0a-a9a6-cf4efe50c3be"},"vehicle_type_id":"4","last_reported":1752689780,"current_range_meters":6400,"station_id":"","pricing_plan_id":"cebpf4jnsgd1na2vs0mg"},{"bike_id":"d1256fb7-0a11-45b3-ba9a-0769b4b06571","system_id":"levelo_inurba_marseille","lat":43.30308,"lon":5.39205,"is_reserved":false,"is_disabled":false,"rental_uris":{"android":"levelo://app?vid=d1256fb7-0a11-45b3-ba9a-0769b4b06571","ios":"levelo://app?vid=d1256fb7-0a11-45b3-ba9a-0769b4b06571"},"vehicle_type_id":"4","last_reported":1752689780,"current_range_meters":6400,"station_id":"ce4bgkh2rcd13ifvqbk0","pricing_plan_id":"cebpf4jnsgd1na2vs0mg"},{"bike_id":"3dae6675-14aa-44ca-ad4d-d26f0ea061a2","system_id":"levelo_inurba_marseille","lat":43.28665,"lon":5.36346,"is_reserved":false,"is_disabled":false,"rental_uris":{"android":"levelo://app?vid=3dae6675-14aa-44ca-ad4d-d26f0ea061a2","ios":"levelo://app?vid=3dae6675-14aa-44ca-ad4d-d26f0ea061a2"},"vehicle_type_id":"4","last_reported":1752689780,"current_range_meters":6400,"station_id":"ce4bhah2rcd13ifvqej0","pricing_plan_id":"cebpf4jnsgd1na2vs0mg"},{"bike_id":"5ff06d2e-1fcb-4f7f-b26f-494ef01051e2","system_id":"levelo_inurba_marseille","lat":43.26587,"lon":5.39483,"is_reserved":false,"is_disabled":true,"rental_uris":{"android":"levelo://app?vid=5ff06d2e-1fcb-4f7f-b26f-494ef01051e2","ios":"levelo://app?vid=5ff06d2e-1fcb-4f7f-b26f-494ef01051e2"},"vehicle_type_id":"4","last_reported":1752689780,"current_range_meters":6400,"station_id":"","pricing_plan_id":"cebpf4jnsgd1na2vs0mg"},{"bike_id":"73b14f66-acd3-42ca-ad07-1e25c3738060","system_id":"levelo_inurba_marseille","lat":43.292755,"lon":5.401232,"is_reserved":false,"is_disabled":false,"rental_uris":{"android":"levelo://app?vid=73b14f66-acd3-42ca-ad07-1e25c3738060","ios":"levelo://app?vid=73b14f66-acd3-42ca-ad07-1e25c3738060"},"vehicle_type_id":"4","last_reported":1752689780,"current_range_meters":6400,"station_id":"ce4bh312rcd13ifvqdk0","pricing_plan_id":"cebpf4jnsgd1na2vs0mg"},{"bike_id":"41aeb0b3-bd11-49f2-a4a5-fb30efc0f309","system_id":"levelo_inurba_marseille","lat":43.29,"lon":5.35614,"is_reserved":false,"is_disabled":false,"rental_uris":{"android":"levelo://app?vid=41aeb0b3-bd11-49f2-a4a5-fb30efc0f309","ios":"levelo://app?vid=41aeb0b3-bd11-49f2-a4a5-fb30efc0f309"},"vehicle_type_id":"4","last_reported":1752689780,"current_range_meters":6400,"station_id":"ce4bhb92rcd13ifvqen0","pricing_plan_id":"cebpf4jnsgd1na2vs0mg"},{"bike_id":"8b87ce33-471e-48ae-b18d-e6c7c3523ef8","system_id":"levelo_inurba_marseille","lat":43.29076,"lon":5.37151,"is_reserved":false,"is_disabled":false,"rental_uris":{"android":"levelo://app?vid=8b87ce33-471e-48ae-b18d-e6c7c3523ef8","ios":"levelo://app?vid=8b87ce33-471e-48ae-b18d-e6c7c3523ef8"},"vehicle_type_id":"4","last_reported":1752689780,"current_range_meters":6400,"station_id":"ce4bh5p2rcd13ifvqe4g","pricing_plan_id":"cebpf4jnsgd1na2vs0mg"},{"bike_id":"557a352a-658c-4b7e-afa9-2e6600a2d9f9","system_id":"levelo_inurba_marseille","lat":43.28695,"lon":5.37383,"is_reserved":false,"is_disabled":false,"rental_uris":{"android":"levelo://app?vid=557a352a-658c-4b7e-afa9-2e6600a2d9f9","ios":"levelo://app?vid=557a352a-658c-4b7e-afa9-2e6600a2d9f9"},"vehicle_type_id":"4","last_reported":1752689780,"current_range_meters":6400,"station_id":"ce4bh3p2rcd13ifvqdq0","pricing_plan_id":"cebpf4jnsgd1na2vs0mg"},{"bike_id":"4492a896-9a23-4394-99a2-c9856d0547e7","system_id":"levelo_inurba_marseille","lat":43.29576,"lon":5.39964,"is_reserved":false,"is_disabled":false,"rental_uris":{"android":"levelo://app?vid=4492a896-9a23-4394-99a2-c9856d0547e7","ios":"levelo://app?vid=4492a896-9a23-4394-99a2-c9856d0547e7"},"vehicle_type_id":"4","last_reported":1752689780,"current_range_meters":7200,"station_id":"ce4bh312rcd13ifvqdj0","pricing_plan_id":"cebpf4jnsgd1na2vs0mg"},{"bike_id":"4220413d-56f9-4833-90ef-667722f4c537","system_id":"levelo_inurba_marseille","lat":43.286147,"lon":5.35113,"is_reserved":false,"is_disabled":false,"rental_uris":{"android":"levelo://app?vid=4220413d-56f9-4833-90ef-667722f4c537","ios":"levelo://app?vid=4220413d-56f9-4833-90ef-667722f4c537"},"vehicle_type_id":"4","last_reported":1752689780,"current_range_meters":6800,"station_id":"ce4bhch2rcd13ifvqeug","pricing_plan_id":"cebpf4jnsgd1na2vs0mg"},{"bike_id":"b513c0a6-0be8-4dbd-b758-6ab3817f9da1","system_id":"levelo_inurba_marseille","lat":43.24998,"lon":5.38921,"is_reserved":false,"is_disabled":false,"rental_uris":{"android":"levelo://app?vid=b513c0a6-0be8-4dbd-b758-6ab3817f9da1","ios":"levelo://app?vid=b513c0a6-0be8-4dbd-b758-6ab3817f9da1"},"vehicle_type_id":"4","last_reported":1752689780,"current_range_meters":6800,"station_id":"ce4bhgp2rcd13ifvqfd0","pricing_plan_id":"cebpf4jnsgd1na2vs0mg"},{"bike_id":"1b51a587-b645-4a93-9b79-072378018f6a","system_id":"levelo_inurba_marseille","lat":43.29896,"lon":5.38133,"is_reserved":false,"is_disabled":false,"rental_uris":{"android":"levelo://app?vid=1b51a587-b645-4a93-9b79-072378018f6a","ios":"levelo://app?vid=1b51a587-b645-4a93-9b79-072378018f6a"},"vehicle_type_id":"4","last_reported":1752689780,"current_range_meters":7200,"station_id":"ce4bgj12rcd13ifvqbc0","pricing_plan_id":"cebpf4jnsgd1na2vs0mg"},{"bike_id":"3859f018-7b5f-469a-871e-d6832dcfaf8e","system_id":"levelo_inurba_marseille","lat":43.24816,"lon":5.374477,"is_reserved":false,"is_disabled":true,"rental_uris":{"android":"levelo://app?vid=3859f018-7b5f-469a-871e-d6832dcfaf8e","ios":"levelo://app?vid=3859f018-7b5f-469a-871e-d6832dcfaf8e"},"vehicle_type_id":"4","last_reported":1752689780,"current_range_meters":7200,"station_id":"ce4bhgh2rcd13ifvqfb0","pricing_plan_id":"cebpf4jnsgd1na2vs0mg"},{"bike_id":"e5ec4b25-dbcc-42eb-bf86-2cca309a0b15","system_id":"levelo_inurba_marseille","lat":43.264945,"lon":5.395365,"is_reserved":false,"is_disabled":true,"rental_uris":{"android":"levelo://app?vid=e5ec4b25-dbcc-42eb-bf86-2cca309a0b15","ios":"levelo://app?vid=e5ec4b25-dbcc-42eb-bf86-2cca309a0b15"},"vehicle_type_id":"4","last_reported":1752689780,"current_range_meters":7200,"station_id":"","pricing_plan_id":"cebpf4jnsgd1na2vs0mg"},{"bike_id":"a8ce6efe-50ae-4699-a953-570b09452efb","system_id":"levelo_inurba_marseille","lat":43.2502,"lon":5.38897,"is_reserved":false,"is_disabled":true,"rental_uris":{"android":"levelo://app?vid=a8ce6efe-50ae-4699-a953-570b09452efb","ios":"levelo://app?vid=a8ce6efe-50ae-4699-a953-570b09452efb"},"vehicle_type_id":"4","last_reported":1752689780,"current_range_meters":7200,"station_id":"ce4bhgp2rcd13ifvqfd0","pricing_plan_id":"cebpf4jnsgd1na2vs0mg"},{"bike_id":"85c1711b-1a0e-4183-bf74-e54c65d4c446","system_id":"levelo_inurba_marseille","lat":43.25864,"lon":5.39895,"is_reserved":false,"is_disabled":false,"rental_uris":{"android":"levelo://app?vid=85c1711b-1a0e-4183-bf74-e54c65d4c446","ios":"levelo://app?vid=85c1711b-1a0e-4183-bf74-e54c65d4c446"},"vehicle_type_id":"4","last_reported":1752689780,"current_range_meters":8000,"station_id":"ce4bhl92rcd13ifvqghg","pricing_plan_id":"cebpf4jnsgd1na2vs0mg"},{"bike_id":"f4091af9-3620-4810-8b47-da40c80e097a","system_id":"levelo_inurba_marseille","lat":43.28618,"lon":5.35096,"is_reserved":false,"is_disabled":false,"rental_uris":{"android":"levelo://app?vid=f4091af9-3620-4810-8b47-da40c80e097a","ios":"levelo://app?vid=f4091af9-3620-4810-8b47-da40c80e097a"},"vehicle_type_id":"4","last_reported":1752689780,"current_range_meters":8000,"station_id":"ce4bhch2rcd13ifvqeug","pricing_plan_id":"cebpf4jnsgd1na2vs0mg"},{"bike_id":"fdbd926f-2ac3-4f01-8d7a-4ed81c6dce51","system_id":"levelo_inurba_marseille","lat":43.30794,"lon":5.38152,"is_reserved":false,"is_disabled":false,"rental_uris":{"android":"levelo://app?vid=fdbd926f-2ac3-4f01-8d7a-4ed81c6dce51","ios":"levelo://app?vid=fdbd926f-2ac3-4f01-8d7a-4ed81c6dce51"},"vehicle_type_id":"4","last_reported":1752689780,"current_range_meters":8000,"station_id":"ce4bgt12rcd13ifvqce0","pricing_plan_id":"cebpf4jnsgd1na2vs0mg"},{"bike_id":"d0944070-b2f8-4d20-9fa0-d13062d39062","system_id":"levelo_inurba_marseille","lat":43.25089,"lon":5.39519,"is_reserved":false,"is_disabled":false,"rental_uris":{"android":"levelo://app?vid=d0944070-b2f8-4d20-9fa0-d13062d39062","ios":"levelo://app?vid=d0944070-b2f8-4d20-9fa0-d13062d39062"},"vehicle_type_id":"4","last_reported":1752689780,"current_range_meters":7200,"station_id":"ce4bhm12rcd13ifvqgkg","pricing_plan_id":"cebpf4jnsgd1na2vs0mg"},{"bike_id":"fe3de52e-0aec-4e95-94e6-b5c748973a78","system_id":"levelo_inurba_marseille","lat":43.25496,"lon":5.37649,"is_reserved":false,"is_disabled":false,"rental_uris":{"android":"levelo://app?vid=fe3de52e-0aec-4e95-94e6-b5c748973a78","ios":"levelo://app?vid=fe3de52e-0aec-4e95-94e6-b5c748973a78"},"vehicle_type_id":"4","last_reported":1752689780,"current_range_meters":8000,"station_id":"ce4bhh12rcd13ifvqff0","pricing_plan_id":"cebpf4jnsgd1na2vs0mg"},{"bike_id":"a8f0f936-c328-4254-b778-3bf4dc855588","system_id":"levelo_inurba_marseille","lat":43.28623,"lon":5.35093,"is_reserved":false,"is_disabled":false,"rental_uris":{"android":"levelo://app?vid=a8f0f936-c328-4254-b778-3bf4dc855588","ios":"levelo://app?vid=a8f0f936-c328-4254-b778-3bf4dc855588"},"vehicle_type_id":"4","last_reported":1752689780,"current_range_meters":8000,"station_id":"ce4bhch2rcd13ifvqeug","pricing_plan_id":"cebpf4jnsgd1na2vs0mg"},{"bike_id":"48850635-b827-45d3-82ff-6a0908de5e09","system_id":"levelo_inurba_marseille","lat":43.28612,"lon":5.35098,"is_reserved":false,"is_disabled":false,"rental_uris":{"android":"levelo://app?vid=48850635-b827-45d3-82ff-6a0908de5e09","ios":"levelo://app?vid=48850635-b827-45d3-82ff-6a0908de5e09"},"vehicle_type_id":"4","last_reported":1752689780,"current_range_meters":8400,"station_id":"ce4bhch2rcd13ifvqeug","pricing_plan_id":"cebpf4jnsgd1na2vs0mg"},{"bike_id":"da720321-1ce8-4d01-a7cb-c6cc8871d0bb","system_id":"levelo_inurba_marseille","lat":43.28617,"lon":5.35095,"is_reserved":false,"is_disabled":false,"rental_uris":{"android":"levelo://app?vid=da720321-1ce8-4d01-a7cb-c6cc8871d0bb","ios":"levelo://app?vid=da720321-1ce8-4d01-a7cb-c6cc8871d0bb"},"vehicle_type_id":"4","last_reported":1752689780,"current_range_meters":8400,"station_id":"ce4bhch2rcd13ifvqeug","pricing_plan_id":"cebpf4jnsgd1na2vs0mg"},{"bike_id":"1d7e00b9-34e8-4341-809b-0ee67f522075","system_id":"levelo_inurba_marseille","lat":43.29981,"lon":5.37177,"is_reserved":false,"is_disabled":false,"rental_uris":{"android":"levelo://app?vid=1d7e00b9-34e8-4341-809b-0ee67f522075","ios":"levelo://app?vid=1d7e00b9-34e8-4341-809b-0ee67f522075"},"vehicle_type_id":"4","last_reported":1752689780,"current_range_meters":8400,"station_id":"ce4bgr92rcd13ifvqc7g","pricing_plan_id":"cebpf4jnsgd1na2vs0mg"},{"bike_id":"4209de1b-3136-4c4a-9e35-5e1586cb3010","system_id":"levelo_inurba_marseille","lat":43.30946,"lon":5.39027,"is_reserved":false,"is_disabled":false,"rental_uris":{"android":"levelo://app?vid=4209de1b-3136-4c4a-9e35-5e1586cb3010","ios":"levelo://app?vid=4209de1b-3136-4c4a-9e35-5e1586cb3010"},"vehicle_type_id":"4","last_reported":1752689780,"current_range_meters":8000,"station_id":"ce4bgup2rcd13ifvqco0","pricing_plan_id":"cebpf4jnsgd1na2vs0mg"},{"bike_id":"6c4d92a4-e977-4356-b6e3-b6550cf81739","system_id":"levelo_inurba_marseille","lat":43.2306,"lon":5.35491,"is_reserved":false,"is_disabled":false,"rental_uris":{"android":"levelo://app?vid=6c4d92a4-e977-4356-b6e3-b6550cf81739","ios":"levelo://app?vid=6c4d92a4-e977-4356-b6e3-b6550cf81739"},"vehicle_type_id":"4","last_reported":1752689780,"current_range_meters":8400,"station_id":"cpo3342slgdg3j2ifvpg","pricing_plan_id":"cebpf4jnsgd1na2vs0mg"},{"bike_id":"b2691039-7ff6-41ed-9b25-53013cba226e","system_id":"levelo_inurba_marseille","lat":43.34141,"lon":5.40897,"is_reserved":false,"is_disabled":false,"rental_uris":{"android":"levelo://app?vid=b2691039-7ff6-41ed-9b25-53013cba226e","ios":"levelo://app?vid=b2691039-7ff6-41ed-9b25-53013cba226e"},"vehicle_type_id":"4","last_reported":1752689780,"current_range_meters":8400,"station_id":"ce4bhqh2rcd13ifvqhlg","pricing_plan_id":"cebpf4jnsgd1na2vs0mg"},{"bike_id":"3a1340c2-c220-44ac-8f78-3f522a1fee86","system_id":"levelo_inurba_marseille","lat":43.30424,"lon":5.41277,"is_reserved":false,"is_disabled":false,"rental_uris":{"android":"levelo://app?vid=3a1340c2-c220-44ac-8f78-3f522a1fee86","ios":"levelo://app?vid=3a1340c2-c220-44ac-8f78-3f522a1fee86"},"vehicle_type_id":"4","last_reported":1752689780,"current_range_meters":8400,"station_id":"ce4bhop2rcd13ifvqh8g","pricing_plan_id":"cebpf4jnsgd1na2vs0mg"},{"bike_id":"5189a459-a216-46cc-8eca-3202ba735feb","system_id":"levelo_inurba_marseille","lat":43.292452,"lon":5.391883,"is_reserved":false,"is_disabled":false,"rental_uris":{"android":"levelo://app?vid=5189a459-a216-46cc-8eca-3202ba735feb","ios":"levelo://app?vid=5189a459-a216-46cc-8eca-3202ba735feb"},"vehicle_type_id":"4","last_reported":1752689780,"current_range_meters":8000,"station_id":"ce4bh392rcd13ifvqdm0","pricing_plan_id":"cebpf4jnsgd1na2vs0mg"},{"bike_id":"6b91f1b7-be71-476f-a5fb-e2733513cdee","system_id":"levelo_inurba_marseille","lat":43.29197,"lon":5.35804,"is_reserved":false,"is_disabled":false,"rental_uris":{"android":"levelo://app?vid=6b91f1b7-be71-476f-a5fb-e2733513cdee","ios":"levelo://app?vid=6b91f1b7-be71-476f-a5fb-e2733513cdee"},"vehicle_type_id":"4","last_reported":1752689780,"current_range_meters":8400,"station_id":"ce4bhb12rcd13ifvqel0","pricing_plan_id":"cebpf4jnsgd1na2vs0mg"},{"bike_id":"b89dcde7-0b68-44e3-b09c-47b64dbfcf95","system_id":"levelo_inurba_marseille","lat":43.26565,"lon":5.39001,"is_reserved":false,"is_disabled":false,"rental_uris":{"android":"levelo://app?vid=b89dcde7-0b68-44e3-b09c-47b64dbfcf95","ios":"levelo://app?vid=b89dcde7-0b68-44e3-b09c-47b64dbfcf95"},"vehicle_type_id":"4","last_reported":1752689780,"current_range_meters":8400,"station_id":"ce4bhe12rcd13ifvqf30","pricing_plan_id":"cebpf4jnsgd1na2vs0mg"},{"bike_id":"080b0f22-14dd-4044-a18f-ee7f74366cea","system_id":"levelo_inurba_marseille","lat":43.31995,"lon":5.38125,"is_reserved":false,"is_disabled":true,"rental_uris":{"android":"levelo://app?vid=080b0f22-14dd-4044-a18f-ee7f74366cea","ios":"levelo://app?vid=080b0f22-14dd-4044-a18f-ee7f74366cea"},"vehicle_type_id":"4","last_reported":1752689780,"current_range_meters":8400,"station_id":"ce4bhr12rcd13ifvqhpg","pricing_plan_id":"cebpf4jnsgd1na2vs0mg"},{"bike_id":"81feae73-5f45-4837-bc34-2dc71b23b689","system_id":"levelo_inurba_marseille","lat":43.29841,"lon":5.36265,"is_reserved":false,"is_disabled":false,"rental_uris":{"android":"levelo://app?vid=81feae73-5f45-4837-bc34-2dc71b23b689","ios":"levelo://app?vid=81feae73-5f45-4837-bc34-2dc71b23b689"},"vehicle_type_id":"4","last_reported":1752689780,"current_range_meters":8800,"station_id":"ce4bgpp2rcd13ifvqc3g","pricing_plan_id":"cebpf4jnsgd1na2vs0mg"},{"bike_id":"d0d99b62-4f55-41db-a34d-9e24a1bf82f6","system_id":"levelo_inurba_marseille","lat":43.28595,"lon":5.351,"is_reserved":false,"is_disabled":false,"rental_uris":{"android":"levelo://app?vid=d0d99b62-4f55-41db-a34d-9e24a1bf82f6","ios":"levelo://app?vid=d0d99b62-4f55-41db-a34d-9e24a1bf82f6"},"vehicle_type_id":"4","last_reported":1752689780,"current_range_meters":8800,"station_id":"ce4bhch2rcd13ifvqeug","pricing_plan_id":"cebpf4jnsgd1na2vs0mg"},{"bike_id":"5bb4ddbb-f1be-4989-b9f3-33b7466aaf36","system_id":"levelo_inurba_marseille","lat":43.2738,"lon":5.36253,"is_reserved":false,"is_disabled":false,"rental_uris":{"android":"levelo://app?vid=5bb4ddbb-f1be-4989-b9f3-33b7466aaf36","ios":"levelo://app?vid=5bb4ddbb-f1be-4989-b9f3-33b7466aaf36"},"vehicle_type_id":"4","last_reported":1752689780,"current_range_meters":8800,"station_id":"ce4bhbh2rcd13ifvqeo0","pricing_plan_id":"cebpf4jnsgd1na2vs0mg"},{"bike_id":"b12f6de9-c4a3-49f8-b243-8d76e43916f1","system_id":"levelo_inurba_marseille","lat":43.29971,"lon":5.38493,"is_reserved":false,"is_disabled":false,"rental_uris":{"android":"levelo://app?vid=b12f6de9-c4a3-49f8-b243-8d76e43916f1","ios":"levelo://app?vid=b12f6de9-c4a3-49f8-b243-8d76e43916f1"},"vehicle_type_id":"4","last_reported":1752689780,"current_range_meters":8800,"station_id":"ce4bgj92rcd13ifvqbd0","pricing_plan_id":"cebpf4jnsgd1na2vs0mg"},{"bike_id":"c75b77af-6601-450b-9e3e-82768c4db7a1","system_id":"levelo_inurba_marseille","lat":43.29274,"lon":5.38435,"is_reserved":false,"is_disabled":false,"rental_uris":{"android":"levelo://app?vid=c75b77af-6601-450b-9e3e-82768c4db7a1","ios":"levelo://app?vid=c75b77af-6601-450b-9e3e-82768c4db7a1"},"vehicle_type_id":"4","last_reported":1752689780,"current_range_meters":8800,"station_id":"ce4bh692rcd13ifvqea0","pricing_plan_id":"cebpf4jnsgd1na2vs0mg"},{"bike_id":"c5378329-a4df-475c-b431-5ed61a139c4c","system_id":"levelo_inurba_marseille","lat":43.30593,"lon":5.39364,"is_reserved":false,"is_disabled":false,"rental_uris":{"android":"levelo://app?vid=c5378329-a4df-475c-b431-5ed61a139c4c","ios":"levelo://app?vid=c5378329-a4df-475c-b431-5ed61a139c4c"},"vehicle_type_id":"4","last_reported":1752689780,"current_range_meters":8400,"station_id":"ce4bh0p2rcd13ifvqd80","pricing_plan_id":"cebpf4jnsgd1na2vs0mg"},{"bike_id":"d98ef30e-38a0-41ef-a00a-304afa979a1e","system_id":"levelo_inurba_marseille","lat":43.298951,"lon":5.436642,"is_reserved":false,"is_disabled":true,"rental_uris":{"android":"levelo://app?vid=d98ef30e-38a0-41ef-a00a-304afa979a1e","ios":"levelo://app?vid=d98ef30e-38a0-41ef-a00a-304afa979a1e"},"vehicle_type_id":"4","last_reported":1752689780,"current_range_meters":9200,"station_id":"ce4bhpp2rcd13ifvqhfg","pricing_plan_id":"cebpf4jnsgd1na2vs0mg"},{"bike_id":"08078c9e-0927-4e38-8d0a-d16da7848353","system_id":"levelo_inurba_marseille","lat":43.2903,"lon":5.38644,"is_reserved":false,"is_disabled":false,"rental_uris":{"android":"levelo://app?vid=08078c9e-0927-4e38-8d0a-d16da7848353","ios":"levelo://app?vid=08078c9e-0927-4e38-8d0a-d16da7848353"},"vehicle_type_id":"4","last_reported":1752689780,"current_range_meters":9200,"station_id":"ce4bh4p2rcd13ifvqe0g","pricing_plan_id":"cebpf4jnsgd1na2vs0mg"},{"bike_id":"0011a4b6-4016-4ac7-b17d-90bb72ac30b0","system_id":"levelo_inurba_marseille","lat":43.28615,"lon":5.35114,"is_reserved":false,"is_disabled":false,"rental_uris":{"android":"levelo://app?vid=0011a4b6-4016-4ac7-b17d-90bb72ac30b0","ios":"levelo://app?vid=0011a4b6-4016-4ac7-b17d-90bb72ac30b0"},"vehicle_type_id":"4","last_reported":1752689780,"current_range_meters":9200,"station_id":"ce4bhch2rcd13ifvqeug","pricing_plan_id":"cebpf4jnsgd1na2vs0mg"},{"bike_id":"b07f3dc6-c284-43af-9c28-14ec1a79d4d2","system_id":"levelo_inurba_marseille","lat":43.29191,"lon":5.35791,"is_reserved":false,"is_disabled":false,"rental_uris":{"android":"levelo://app?vid=b07f3dc6-c284-43af-9c28-14ec1a79d4d2","ios":"levelo://app?vid=b07f3dc6-c284-43af-9c28-14ec1a79d4d2"},"vehicle_type_id":"4","last_reported":1752689780,"current_range_meters":9200,"station_id":"ce4bhb12rcd13ifvqel0","pricing_plan_id":"cebpf4jnsgd1na2vs0mg"},{"bike_id":"23bea0ab-8703-494d-9c02-d12aed685832","system_id":"levelo_inurba_marseille","lat":43.28619,"lon":5.35088,"is_reserved":false,"is_disabled":false,"rental_uris":{"android":"levelo://app?vid=23bea0ab-8703-494d-9c02-d12aed685832","ios":"levelo://app?vid=23bea0ab-8703-494d-9c02-d12aed685832"},"vehicle_type_id":"4","last_reported":1752689780,"current_range_meters":9200,"station_id":"ce4bhch2rcd13ifvqeug","pricing_plan_id":"cebpf4jnsgd1na2vs0mg"},{"bike_id":"de4f453d-f02b-4514-9757-4314fdcedb1d","system_id":"levelo_inurba_marseille","lat":43.26945,"lon":5.38633,"is_reserved":false,"is_disabled":false,"rental_uris":{"android":"levelo://app?vid=de4f453d-f02b-4514-9757-4314fdcedb1d","ios":"levelo://app?vid=de4f453d-f02b-4514-9757-4314fdcedb1d"},"vehicle_type_id":"4","last_reported":1752689780,"current_range_meters":9200,"station_id":"ce4bhh92rcd13ifvqfh0","pricing_plan_id":"cebpf4jnsgd1na2vs0mg"},{"bike_id":"fd98485d-d049-4777-ad0b-170381c262c9","system_id":"levelo_inurba_marseille","lat":43.29068,"lon":5.37555,"is_reserved":false,"is_disabled":false,"rental_uris":{"android":"levelo://app?vid=fd98485d-d049-4777-ad0b-170381c262c9","ios":"levelo://app?vid=fd98485d-d049-4777-ad0b-170381c262c9"},"vehicle_type_id":"4","last_reported":1752689780,"current_range_meters":9600,"station_id":"ce4bh692rcd13ifvqe90","pricing_plan_id":"cebpf4jnsgd1na2vs0mg"},{"bike_id":"1d7305c6-9a0a-4587-a736-7298e4fb5942","system_id":"levelo_inurba_marseille","lat":43.28815,"lon":5.35878,"is_reserved":false,"is_disabled":true,"rental_uris":{"android":"levelo://app?vid=1d7305c6-9a0a-4587-a736-7298e4fb5942","ios":"levelo://app?vid=1d7305c6-9a0a-4587-a736-7298e4fb5942"},"vehicle_type_id":"4","last_reported":1752689780,"current_range_meters":9600,"station_id":"ce4bhb12rcd13ifvqem0","pricing_plan_id":"cebpf4jnsgd1na2vs0mg"},{"bike_id":"ee21e756-4760-46f9-b60a-7560ab07c371","system_id":"levelo_inurba_marseille","lat":43.28622,"lon":5.35104,"is_reserved":false,"is_disabled":false,"rental_uris":{"android":"levelo://app?vid=ee21e756-4760-46f9-b60a-7560ab07c371","ios":"levelo://app?vid=ee21e756-4760-46f9-b60a-7560ab07c371"},"vehicle_type_id":"4","last_reported":1752689780,"current_range_meters":9600,"station_id":"ce4bhch2rcd13ifvqeug","pricing_plan_id":"cebpf4jnsgd1na2vs0mg"},{"bike_id":"c588f21b-3a83-42a4-9068-2e0425a358b3","system_id":"levelo_inurba_marseille","lat":43.29451,"lon":5.38637,"is_reserved":false,"is_disabled":false,"rental_uris":{"android":"levelo://app?vid=c588f21b-3a83-42a4-9068-2e0425a358b3","ios":"levelo://app?vid=c588f21b-3a83-42a4-9068-2e0425a358b3"},"vehicle_type_id":"4","last_reported":1752689780,"current_range_meters":9600,"station_id":"ce4bh2h2rcd13ifvqdh0","pricing_plan_id":"cebpf4jnsgd1na2vs0mg"},{"bike_id":"b0f534da-8e66-4152-b967-e328e4be2d91","system_id":"levelo_inurba_marseille","lat":43.28957,"lon":5.38367,"is_reserved":false,"is_disabled":false,"rental_uris":{"android":"levelo://app?vid=b0f534da-8e66-4152-b967-e328e4be2d91","ios":"levelo://app?vid=b0f534da-8e66-4152-b967-e328e4be2d91"},"vehicle_type_id":"4","last_reported":1752689780,"current_range_meters":10000,"station_id":"ce4bh612rcd13ifvqe6g","pricing_plan_id":"cebpf4jnsgd1na2vs0mg"},{"bike_id":"74b4390d-0242-429b-b32a-0523a3e24ef3","system_id":"levelo_inurba_marseille","lat":43.254512,"lon":5.375945,"is_reserved":false,"is_disabled":false,"rental_uris":{"android":"levelo://app?vid=74b4390d-0242-429b-b32a-0523a3e24ef3","ios":"levelo://app?vid=74b4390d-0242-429b-b32a-0523a3e24ef3"},"vehicle_type_id":"4","last_reported":1752689780,"current_range_meters":10000,"station_id":"","pricing_plan_id":"cebpf4jnsgd1na2vs0mg"},{"bike_id":"87e6a2f2-e7ef-4dba-aeba-5588e1270124","system_id":"levelo_inurba_marseille","lat":43.229298,"lon":5.353728,"is_reserved":false,"is_disabled":false,"rental_uris":{"android":"levelo://app?vid=87e6a2f2-e7ef-4dba-aeba-5588e1270124","ios":"levelo://app?vid=87e6a2f2-e7ef-4dba-aeba-5588e1270124"},"vehicle_type_id":"4","last_reported":1752689780,"current_range_meters":10000,"station_id":"cpo3532slgdg3j2ikp40","pricing_plan_id":"cebpf4jnsgd1na2vs0mg"},{"bike_id":"5c5183f7-02b4-4738-84b2-076637792d0b","system_id":"levelo_inurba_marseille","lat":43.28695,"lon":5.3739,"is_reserved":false,"is_disabled":false,"rental_uris":{"android":"levelo://app?vid=5c5183f7-02b4-4738-84b2-076637792d0b","ios":"levelo://app?vid=5c5183f7-02b4-4738-84b2-076637792d0b"},"vehicle_type_id":"4","last_reported":1752689780,"current_range_meters":10000,"station_id":"ce4bh3p2rcd13ifvqdq0","pricing_plan_id":"cebpf4jnsgd1na2vs0mg"},{"bike_id":"5d174ef5-e4ba-4b48-88b0-f45a55d3d9dc","system_id":"levelo_inurba_marseille","lat":43.28694,"lon":5.37384,"is_reserved":false,"is_disabled":false,"rental_uris":{"android":"levelo://app?vid=5d174ef5-e4ba-4b48-88b0-f45a55d3d9dc","ios":"levelo://app?vid=5d174ef5-e4ba-4b48-88b0-f45a55d3d9dc"},"vehicle_type_id":"4","last_reported":1752689780,"current_range_meters":10000,"station_id":"ce4bh3p2rcd13ifvqdq0","pricing_plan_id":"cebpf4jnsgd1na2vs0mg"},{"bike_id":"727dc05a-e455-4869-8c20-3c8d556bcb72","system_id":"levelo_inurba_marseille","lat":43.29779,"lon":5.3711,"is_reserved":false,"is_disabled":false,"rental_uris":{"android":"levelo://app?vid=727dc05a-e455-4869-8c20-3c8d556bcb72","ios":"levelo://app?vid=727dc05a-e455-4869-8c20-3c8d556bcb72"},"vehicle_type_id":"4","last_reported":1752689780,"current_range_meters":10000,"station_id":"ce4bgop2rcd13ifvqc1g","pricing_plan_id":"cebpf4jnsgd1na2vs0mg"},{"bike_id":"2bacaccd-1bb2-41bf-ab2e-30b8a5fb7d5d","system_id":"levelo_inurba_marseille","lat":43.27379,"lon":5.36255,"is_reserved":false,"is_disabled":true,"rental_uris":{"android":"levelo://app?vid=2bacaccd-1bb2-41bf-ab2e-30b8a5fb7d5d","ios":"levelo://app?vid=2bacaccd-1bb2-41bf-ab2e-30b8a5fb7d5d"},"vehicle_type_id":"4","last_reported":1752689780,"current_range_meters":10000,"station_id":"ce4bhbh2rcd13ifvqeo0","pricing_plan_id":"cebpf4jnsgd1na2vs0mg"},{"bike_id":"a8fa3032-6b80-4821-a5a5-27332eeffd22","system_id":"levelo_inurba_marseille","lat":43.2842,"lon":5.34984,"is_reserved":false,"is_disabled":false,"rental_uris":{"android":"levelo://app?vid=a8fa3032-6b80-4821-a5a5-27332eeffd22","ios":"levelo://app?vid=a8fa3032-6b80-4821-a5a5-27332eeffd22"},"vehicle_type_id":"4","last_reported":1752689780,"current_range_meters":10000,"station_id":"ce4bhbh2rcd13ifvqepg","pricing_plan_id":"cebpf4jnsgd1na2vs0mg"},{"bike_id":"17fdadd9-d2b3-4bc6-94e4-e9e8ff2a9236","system_id":"levelo_inurba_marseille","lat":43.31709,"lon":5.43708,"is_reserved":false,"is_disabled":false,"rental_uris":{"android":"levelo://app?vid=17fdadd9-d2b3-4bc6-94e4-e9e8ff2a9236","ios":"levelo://app?vid=17fdadd9-d2b3-4bc6-94e4-e9e8ff2a9236"},"vehicle_type_id":"4","last_reported":1752689780,"current_range_meters":10000,"station_id":"ce4bhp92rcd13ifvqhcg","pricing_plan_id":"cebpf4jnsgd1na2vs0mg"},{"bike_id":"26d2d8b7-0619-4f63-9576-a04b511ab1ee","system_id":"levelo_inurba_marseille","lat":43.28263,"lon":5.35062,"is_reserved":false,"is_disabled":false,"rental_uris":{"android":"levelo://app?vid=26d2d8b7-0619-4f63-9576-a04b511ab1ee","ios":"levelo://app?vid=26d2d8b7-0619-4f63-9576-a04b511ab1ee"},"vehicle_type_id":"4","last_reported":1752689780,"current_range_meters":10800,"station_id":"ce4bhbp2rcd13ifvqerg","pricing_plan_id":"cebpf4jnsgd1na2vs0mg"},{"bike_id":"68e9a5d5-0138-42e6-b654-5b1ab09e3fc8","system_id":"levelo_inurba_marseille","lat":43.25723,"lon":5.41115,"is_reserved":false,"is_disabled":false,"rental_uris":{"android":"levelo://app?vid=68e9a5d5-0138-42e6-b654-5b1ab09e3fc8","ios":"levelo://app?vid=68e9a5d5-0138-42e6-b654-5b1ab09e3fc8"},"vehicle_type_id":"4","last_reported":1752689780,"current_range_meters":10800,"station_id":"ce4bhkp2rcd13ifvqgd0","pricing_plan_id":"cebpf4jnsgd1na2vs0mg"},{"bike_id":"a6b95d2a-512b-4928-866a-aa1ea2105b6a","system_id":"levelo_inurba_marseille","lat":43.28853,"lon":5.3584,"is_reserved":false,"is_disabled":false,"rental_uris":{"android":"levelo://app?vid=a6b95d2a-512b-4928-866a-aa1ea2105b6a","ios":"levelo://app?vid=a6b95d2a-512b-4928-866a-aa1ea2105b6a"},"vehicle_type_id":"4","last_reported":1752689780,"current_range_meters":10800,"station_id":"ce4bhb12rcd13ifvqem0","pricing_plan_id":"cebpf4jnsgd1na2vs0mg"},{"bike_id":"1145602c-3b12-4604-b8ff-291284dfc532","system_id":"levelo_inurba_marseille","lat":43.22508,"lon":5.34775,"is_reserved":false,"is_disabled":false,"rental_uris":{"android":"levelo://app?vid=1145602c-3b12-4604-b8ff-291284dfc532","ios":"levelo://app?vid=1145602c-3b12-4604-b8ff-291284dfc532"},"vehicle_type_id":"4","last_reported":1752689780,"current_range_meters":10800,"station_id":"st_cvj5dfep6f1abm77gieg","pricing_plan_id":"cebpf4jnsgd1na2vs0mg"},{"bike_id":"5fc87dab-e080-4be0-bfa6-9ac0f109d883","system_id":"levelo_inurba_marseille","lat":43.30442,"lon":5.38892,"is_reserved":false,"is_disabled":false,"rental_uris":{"android":"levelo://app?vid=5fc87dab-e080-4be0-bfa6-9ac0f109d883","ios":"levelo://app?vid=5fc87dab-e080-4be0-bfa6-9ac0f109d883"},"vehicle_type_id":"4","last_reported":1752689780,"current_range_meters":10800,"station_id":"ce4bgk12rcd13ifvqbi0","pricing_plan_id":"cebpf4jnsgd1na2vs0mg"},{"bike_id":"052dd32a-10fb-44d8-bff0-73bd85be23d4","system_id":"levelo_inurba_marseille","lat":43.23062,"lon":5.3549,"is_reserved":false,"is_disabled":false,"rental_uris":{"android":"levelo://app?vid=052dd32a-10fb-44d8-bff0-73bd85be23d4","ios":"levelo://app?vid=052dd32a-10fb-44d8-bff0-73bd85be23d4"},"vehicle_type_id":"4","last_reported":1752689780,"current_range_meters":10800,"station_id":"cpo3342slgdg3j2ifvpg","pricing_plan_id":"cebpf4jnsgd1na2vs0mg"},{"bike_id":"ac71ea09-fb54-4686-a8ae-3bdaa70b1c2a","system_id":"levelo_inurba_marseille","lat":43.28705,"lon":5.39989,"is_reserved":false,"is_disabled":false,"rental_uris":{"android":"levelo://app?vid=ac71ea09-fb54-4686-a8ae-3bdaa70b1c2a","ios":"levelo://app?vid=ac71ea09-fb54-4686-a8ae-3bdaa70b1c2a"},"vehicle_type_id":"4","last_reported":1752689780,"current_range_meters":10800,"station_id":"ce4bho92rcd13ifvqh3g","pricing_plan_id":"cebpf4jnsgd1na2vs0mg"},{"bike_id":"2c7a0fff-0642-482d-ae1a-2afcfcd06994","system_id":"levelo_inurba_marseille","lat":43.29068,"lon":5.3717,"is_reserved":false,"is_disabled":false,"rental_uris":{"android":"levelo://app?vid=2c7a0fff-0642-482d-ae1a-2afcfcd06994","ios":"levelo://app?vid=2c7a0fff-0642-482d-ae1a-2afcfcd06994"},"vehicle_type_id":"4","last_reported":1752689780,"current_range_meters":10800,"station_id":"ce4bh5p2rcd13ifvqe4g","pricing_plan_id":"cebpf4jnsgd1na2vs0mg"},{"bike_id":"652abf99-a378-42df-8ac6-e6fe6eac2c13","system_id":"levelo_inurba_marseille","lat":43.291943,"lon":5.358005,"is_reserved":false,"is_disabled":false,"rental_uris":{"android":"levelo://app?vid=652abf99-a378-42df-8ac6-e6fe6eac2c13","ios":"levelo://app?vid=652abf99-a378-42df-8ac6-e6fe6eac2c13"},"vehicle_type_id":"4","last_reported":1752689780,"current_range_meters":10800,"station_id":"ce4bhb12rcd13ifvqel0","pricing_plan_id":"cebpf4jnsgd1na2vs0mg"},{"bike_id":"9fe4cc2a-c360-4796-bc0e-a6375c3d8c2c","system_id":"levelo_inurba_marseille","lat":43.307252,"lon":5.382013,"is_reserved":false,"is_disabled":false,"rental_uris":{"android":"levelo://app?vid=9fe4cc2a-c360-4796-bc0e-a6375c3d8c2c","ios":"levelo://app?vid=9fe4cc2a-c360-4796-bc0e-a6375c3d8c2c"},"vehicle_type_id":"4","last_reported":1752689780,"current_range_meters":11200,"station_id":"ce4bgt12rcd13ifvqce0","pricing_plan_id":"cebpf4jnsgd1na2vs0mg"},{"bike_id":"2ed2bfbe-f294-4f5b-bf5f-8df8acee532c","system_id":"levelo_inurba_marseille","lat":43.24813,"lon":5.37461,"is_reserved":false,"is_disabled":false,"rental_uris":{"android":"levelo://app?vid=2ed2bfbe-f294-4f5b-bf5f-8df8acee532c","ios":"levelo://app?vid=2ed2bfbe-f294-4f5b-bf5f-8df8acee532c"},"vehicle_type_id":"4","last_reported":1752689780,"current_range_meters":11200,"station_id":"ce4bhgh2rcd13ifvqfb0","pricing_plan_id":"cebpf4jnsgd1na2vs0mg"},{"bike_id":"dec9a2a3-95c9-410a-93ff-76e3754c1372","system_id":"levelo_inurba_marseille","lat":43.29197,"lon":5.35802,"is_reserved":false,"is_disabled":false,"rental_uris":{"android":"levelo://app?vid=dec9a2a3-95c9-410a-93ff-76e3754c1372","ios":"levelo://app?vid=dec9a2a3-95c9-410a-93ff-76e3754c1372"},"vehicle_type_id":"4","last_reported":1752689780,"current_range_meters":11200,"station_id":"ce4bhb12rcd13ifvqel0","pricing_plan_id":"cebpf4jnsgd1na2vs0mg"},{"bike_id":"130762d2-5e05-474e-8eac-362420abb2d1","system_id":"levelo_inurba_marseille","lat":43.28615,"lon":5.35109,"is_reserved":false,"is_disabled":false,"rental_uris":{"android":"levelo://app?vid=130762d2-5e05-474e-8eac-362420abb2d1","ios":"levelo://app?vid=130762d2-5e05-474e-8eac-362420abb2d1"},"vehicle_type_id":"4","last_reported":1752689780,"current_range_meters":11200,"station_id":"ce4bhch2rcd13ifvqeug","pricing_plan_id":"cebpf4jnsgd1na2vs0mg"},{"bike_id":"aa85db87-45c9-42c8-9f92-c2883729b9fb","system_id":"levelo_inurba_marseille","lat":43.23964,"lon":5.36643,"is_reserved":false,"is_disabled":false,"rental_uris":{"android":"levelo://app?vid=aa85db87-45c9-42c8-9f92-c2883729b9fb","ios":"levelo://app?vid=aa85db87-45c9-42c8-9f92-c2883729b9fb"},"vehicle_type_id":"4","last_reported":1752689780,"current_range_meters":11600,"station_id":"ce4bhi12rcd13ifvqfp0","pricing_plan_id":"cebpf4jnsgd1na2vs0mg"},{"bike_id":"54b283c6-c314-444c-b492-3e78ed7f2d30","system_id":"levelo_inurba_marseille","lat":43.329227,"lon":5.390467,"is_reserved":false,"is_disabled":false,"rental_uris":{"android":"levelo://app?vid=54b283c6-c314-444c-b492-3e78ed7f2d30","ios":"levelo://app?vid=54b283c6-c314-444c-b492-3e78ed7f2d30"},"vehicle_type_id":"4","last_reported":1752689780,"current_range_meters":11600,"station_id":"","pricing_plan_id":"cebpf4jnsgd1na2vs0mg"},{"bike_id":"c3029bf6-643f-4df9-943d-8bf4bd439f63","system_id":"levelo_inurba_marseille","lat":43.295746,"lon":5.375147,"is_reserved":false,"is_disabled":false,"rental_uris":{"android":"levelo://app?vid=c3029bf6-643f-4df9-943d-8bf4bd439f63","ios":"levelo://app?vid=c3029bf6-643f-4df9-943d-8bf4bd439f63"},"vehicle_type_id":"4","last_reported":1752689780,"current_range_meters":11600,"station_id":"","pricing_plan_id":"cebpf4jnsgd1na2vs0mg"},{"bike_id":"3497b8c1-eec3-4bcf-a2a8-074629d1c01b","system_id":"levelo_inurba_marseille","lat":43.305316,"lon":5.367038,"is_reserved":false,"is_disabled":false,"rental_uris":{"android":"levelo://app?vid=3497b8c1-eec3-4bcf-a2a8-074629d1c01b","ios":"levelo://app?vid=3497b8c1-eec3-4bcf-a2a8-074629d1c01b"},"vehicle_type_id":"4","last_reported":1752689780,"current_range_meters":11600,"station_id":"","pricing_plan_id":"cebpf4jnsgd1na2vs0mg"},{"bike_id":"60b7fea8-6141-4b97-ab10-c0d8119a6326","system_id":"levelo_inurba_marseille","lat":43.287,"lon":5.37373,"is_reserved":false,"is_disabled":false,"rental_uris":{"android":"levelo://app?vid=60b7fea8-6141-4b97-ab10-c0d8119a6326","ios":"levelo://app?vid=60b7fea8-6141-4b97-ab10-c0d8119a6326"},"vehicle_type_id":"4","last_reported":1752689780,"current_range_meters":11600,"station_id":"ce4bh3p2rcd13ifvqdq0","pricing_plan_id":"cebpf4jnsgd1na2vs0mg"},{"bike_id":"794b998d-7e45-4d53-b270-ae51136a9420","system_id":"levelo_inurba_marseille","lat":43.31611,"lon":5.38176,"is_reserved":false,"is_disabled":false,"rental_uris":{"android":"levelo://app?vid=794b998d-7e45-4d53-b270-ae51136a9420","ios":"levelo://app?vid=794b998d-7e45-4d53-b270-ae51136a9420"},"vehicle_type_id":"4","last_reported":1752689780,"current_range_meters":11600,"station_id":"","pricing_plan_id":"cebpf4jnsgd1na2vs0mg"},{"bike_id":"26235242-3188-401f-a712-0c7c1a7d1541","system_id":"levelo_inurba_marseille","lat":43.27623,"lon":5.36089,"is_reserved":false,"is_disabled":false,"rental_uris":{"android":"levelo://app?vid=26235242-3188-401f-a712-0c7c1a7d1541","ios":"levelo://app?vid=26235242-3188-401f-a712-0c7c1a7d1541"},"vehicle_type_id":"4","last_reported":1752689780,"current_range_meters":11600,"station_id":"ce4bgj92rcd13ifvqbe0","pricing_plan_id":"cebpf4jnsgd1na2vs0mg"},{"bike_id":"7db26958-1de0-42f0-aa26-5db51b61f785","system_id":"levelo_inurba_marseille","lat":43.26563,"lon":5.3899,"is_reserved":false,"is_disabled":false,"rental_uris":{"android":"levelo://app?vid=7db26958-1de0-42f0-aa26-5db51b61f785","ios":"levelo://app?vid=7db26958-1de0-42f0-aa26-5db51b61f785"},"vehicle_type_id":"4","last_reported":1752689780,"current_range_meters":11600,"station_id":"ce4bhe12rcd13ifvqf30","pricing_plan_id":"cebpf4jnsgd1na2vs0mg"},{"bike_id":"84bfc955-b8be-429c-817e-494bf21f35de","system_id":"levelo_inurba_marseille","lat":43.29601,"lon":5.38085,"is_reserved":false,"is_disabled":true,"rental_uris":{"android":"levelo://app?vid=84bfc955-b8be-429c-817e-494bf21f35de","ios":"levelo://app?vid=84bfc955-b8be-429c-817e-494bf21f35de"},"vehicle_type_id":"4","last_reported":1752689780,"current_range_meters":11600,"station_id":"ce4bgl12rcd13ifvqbo0","pricing_plan_id":"cebpf4jnsgd1na2vs0mg"},{"bike_id":"66a4eaa0-2568-445d-ab8b-c3e2907892a4","system_id":"levelo_inurba_marseille","lat":43.26188,"lon":5.37443,"is_reserved":false,"is_disabled":false,"rental_uris":{"android":"levelo://app?vid=66a4eaa0-2568-445d-ab8b-c3e2907892a4","ios":"levelo://app?vid=66a4eaa0-2568-445d-ab8b-c3e2907892a4"},"vehicle_type_id":"4","last_reported":1752689780,"current_range_meters":12000,"station_id":"ce4bhgp2rcd13ifvqfc0","pricing_plan_id":"cebpf4jnsgd1na2vs0mg"},{"bike_id":"1bd36e8f-9902-44aa-9bd7-fa22c4374576","system_id":"levelo_inurba_marseille","lat":43.29208,"lon":5.35767,"is_reserved":false,"is_disabled":false,"rental_uris":{"android":"levelo://app?vid=1bd36e8f-9902-44aa-9bd7-fa22c4374576","ios":"levelo://app?vid=1bd36e8f-9902-44aa-9bd7-fa22c4374576"},"vehicle_type_id":"4","last_reported":1752689780,"current_range_meters":12000,"station_id":"ce4bhb12rcd13ifvqel0","pricing_plan_id":"cebpf4jnsgd1na2vs0mg"},{"bike_id":"338de1f6-1801-40f5-8252-d637cf4b19c5","system_id":"levelo_inurba_marseille","lat":43.28159,"lon":5.426,"is_reserved":false,"is_disabled":false,"rental_uris":{"android":"levelo://app?vid=338de1f6-1801-40f5-8252-d637cf4b19c5","ios":"levelo://app?vid=338de1f6-1801-40f5-8252-d637cf4b19c5"},"vehicle_type_id":"4","last_reported":1752689780,"current_range_meters":12000,"station_id":"ce4bhnh2rcd13ifvqgug","pricing_plan_id":"cebpf4jnsgd1na2vs0mg"},{"bike_id":"b87b2816-dc18-4192-86e3-6740f7c6517e","system_id":"levelo_inurba_marseille","lat":43.278391,"lon":5.392108,"is_reserved":false,"is_disabled":false,"rental_uris":{"android":"levelo://app?vid=b87b2816-dc18-4192-86e3-6740f7c6517e","ios":"levelo://app?vid=b87b2816-dc18-4192-86e3-6740f7c6517e"},"vehicle_type_id":"4","last_reported":1752689780,"current_range_meters":12000,"station_id":"ce4bhjp2rcd13ifvqga0","pricing_plan_id":"cebpf4jnsgd1na2vs0mg"},{"bike_id":"35681231-d48b-4e8b-a284-c85960c17f30","system_id":"levelo_inurba_marseille","lat":43.28615,"lon":5.35108,"is_reserved":false,"is_disabled":false,"rental_uris":{"android":"levelo://app?vid=35681231-d48b-4e8b-a284-c85960c17f30","ios":"levelo://app?vid=35681231-d48b-4e8b-a284-c85960c17f30"},"vehicle_type_id":"4","last_reported":1752689780,"current_range_meters":12000,"station_id":"ce4bhch2rcd13ifvqeug","pricing_plan_id":"cebpf4jnsgd1na2vs0mg"},{"bike_id":"a01fd606-8679-4e00-97ad-180e403d4717","system_id":"levelo_inurba_marseille","lat":43.29009,"lon":5.35614,"is_reserved":false,"is_disabled":false,"rental_uris":{"android":"levelo://app?vid=a01fd606-8679-4e00-97ad-180e403d4717","ios":"levelo://app?vid=a01fd606-8679-4e00-97ad-180e403d4717"},"vehicle_type_id":"4","last_reported":1752689780,"current_range_meters":12000,"station_id":"ce4bhb92rcd13ifvqen0","pricing_plan_id":"cebpf4jnsgd1na2vs0mg"},{"bike_id":"304c8ed8-ce08-40d1-8073-2fb311ee4530","system_id":"levelo_inurba_marseille","lat":43.30779,"lon":5.37648,"is_reserved":false,"is_disabled":false,"rental_uris":{"android":"levelo://app?vid=304c8ed8-ce08-40d1-8073-2fb311ee4530","ios":"levelo://app?vid=304c8ed8-ce08-40d1-8073-2fb311ee4530"},"vehicle_type_id":"4","last_reported":1752689780,"current_range_meters":12000,"station_id":"ce4bgv92rcd13ifvqcq0","pricing_plan_id":"cebpf4jnsgd1na2vs0mg"},{"bike_id":"f8e88d89-c6a8-409c-b0bc-54943a0331bb","system_id":"levelo_inurba_marseille","lat":43.28411,"lon":5.34982,"is_reserved":false,"is_disabled":false,"rental_uris":{"android":"levelo://app?vid=f8e88d89-c6a8-409c-b0bc-54943a0331bb","ios":"levelo://app?vid=f8e88d89-c6a8-409c-b0bc-54943a0331bb"},"vehicle_type_id":"4","last_reported":1752689780,"current_range_meters":12000,"station_id":"ce4bhbh2rcd13ifvqepg","pricing_plan_id":"cebpf4jnsgd1na2vs0mg"},{"bike_id":"311764a8-c072-4d33-82a4-9274ee956c75","system_id":"levelo_inurba_marseille","lat":43.29032,"lon":5.37577,"is_reserved":false,"is_disabled":false,"rental_uris":{"android":"levelo://app?vid=311764a8-c072-4d33-82a4-9274ee956c75","ios":"levelo://app?vid=311764a8-c072-4d33-82a4-9274ee956c75"},"vehicle_type_id":"4","last_reported":1752689780,"current_range_meters":11600,"station_id":"ce4bh692rcd13ifvqe90","pricing_plan_id":"cebpf4jnsgd1na2vs0mg"},{"bike_id":"6e07a895-a3f6-496f-a8b9-b694cdeb0b48","system_id":"levelo_inurba_marseille","lat":43.29609,"lon":5.37705,"is_reserved":false,"is_disabled":false,"rental_uris":{"android":"levelo://app?vid=6e07a895-a3f6-496f-a8b9-b694cdeb0b48","ios":"levelo://app?vid=6e07a895-a3f6-496f-a8b9-b694cdeb0b48"},"vehicle_type_id":"4","last_reported":1752689780,"current_range_meters":12000,"station_id":"ce4bgi92rcd13ifvqb90","pricing_plan_id":"cebpf4jnsgd1na2vs0mg"},{"bike_id":"372b843a-07d3-4a0c-afe1-74b84b512ac3","system_id":"levelo_inurba_marseille","lat":43.29004,"lon":5.35608,"is_reserved":false,"is_disabled":false,"rental_uris":{"android":"levelo://app?vid=372b843a-07d3-4a0c-afe1-74b84b512ac3","ios":"levelo://app?vid=372b843a-07d3-4a0c-afe1-74b84b512ac3"},"vehicle_type_id":"4","last_reported":1752689780,"current_range_meters":12000,"station_id":"ce4bhb92rcd13ifvqen0","pricing_plan_id":"cebpf4jnsgd1na2vs0mg"},{"bike_id":"22b1649b-0264-465b-88a7-f73c32c713f0","system_id":"levelo_inurba_marseille","lat":43.28369,"lon":5.41865,"is_reserved":false,"is_disabled":false,"rental_uris":{"android":"levelo://app?vid=22b1649b-0264-465b-88a7-f73c32c713f0","ios":"levelo://app?vid=22b1649b-0264-465b-88a7-f73c32c713f0"},"vehicle_type_id":"4","last_reported":1752689780,"current_range_meters":12400,"station_id":"","pricing_plan_id":"cebpf4jnsgd1na2vs0mg"},{"bike_id":"f53ab926-2de1-4f3c-a7d9-6743ca1bfb1f","system_id":"levelo_inurba_marseille","lat":43.2119,"lon":5.35072,"is_reserved":false,"is_disabled":false,"rental_uris":{"android":"levelo://app?vid=f53ab926-2de1-4f3c-a7d9-6743ca1bfb1f","ios":"levelo://app?vid=f53ab926-2de1-4f3c-a7d9-6743ca1bfb1f"},"vehicle_type_id":"4","last_reported":1752689780,"current_range_meters":12400,"station_id":"st_cvj6sg6p6f1abm77japg","pricing_plan_id":"cebpf4jnsgd1na2vs0mg"},{"bike_id":"4dd784f6-6546-4c21-945b-44809730ab1c","system_id":"levelo_inurba_marseille","lat":43.28618,"lon":5.35104,"is_reserved":false,"is_disabled":false,"rental_uris":{"android":"levelo://app?vid=4dd784f6-6546-4c21-945b-44809730ab1c","ios":"levelo://app?vid=4dd784f6-6546-4c21-945b-44809730ab1c"},"vehicle_type_id":"4","last_reported":1752689780,"current_range_meters":12400,"station_id":"ce4bhch2rcd13ifvqeug","pricing_plan_id":"cebpf4jnsgd1na2vs0mg"},{"bike_id":"ceed4b4c-4da3-4850-8b4d-17460dc49cf6","system_id":"levelo_inurba_marseille","lat":43.24164,"lon":5.36397,"is_reserved":false,"is_disabled":false,"rental_uris":{"android":"levelo://app?vid=ceed4b4c-4da3-4850-8b4d-17460dc49cf6","ios":"levelo://app?vid=ceed4b4c-4da3-4850-8b4d-17460dc49cf6"},"vehicle_type_id":"4","last_reported":1752689780,"current_range_meters":12400,"station_id":"cpo36qri1sfpv3e86is0","pricing_plan_id":"cebpf4jnsgd1na2vs0mg"},{"bike_id":"e5bec6b1-43e6-46f2-9810-affd93766dd8","system_id":"levelo_inurba_marseille","lat":43.33766,"lon":5.37482,"is_reserved":false,"is_disabled":true,"rental_uris":{"android":"levelo://app?vid=e5bec6b1-43e6-46f2-9810-affd93766dd8","ios":"levelo://app?vid=e5bec6b1-43e6-46f2-9810-affd93766dd8"},"vehicle_type_id":"4","last_reported":1752689780,"current_range_meters":12800,"station_id":"","pricing_plan_id":"cebpf4jnsgd1na2vs0mg"},{"bike_id":"25525a05-d0a2-4bc7-a84e-7f7cc9489ae6","system_id":"levelo_inurba_marseille","lat":43.29004,"lon":5.3561,"is_reserved":false,"is_disabled":false,"rental_uris":{"android":"levelo://app?vid=25525a05-d0a2-4bc7-a84e-7f7cc9489ae6","ios":"levelo://app?vid=25525a05-d0a2-4bc7-a84e-7f7cc9489ae6"},"vehicle_type_id":"4","last_reported":1752689780,"current_range_meters":12800,"station_id":"ce4bhb92rcd13ifvqen0","pricing_plan_id":"cebpf4jnsgd1na2vs0mg"},{"bike_id":"15dc5a64-b641-4181-bf47-beb46a2d539b","system_id":"levelo_inurba_marseille","lat":43.30271,"lon":5.37697,"is_reserved":false,"is_disabled":false,"rental_uris":{"android":"levelo://app?vid=15dc5a64-b641-4181-bf47-beb46a2d539b","ios":"levelo://app?vid=15dc5a64-b641-4181-bf47-beb46a2d539b"},"vehicle_type_id":"4","last_reported":1752689780,"current_range_meters":12800,"station_id":"ce4bguh2rcd13ifvqcj0","pricing_plan_id":"cebpf4jnsgd1na2vs0mg"},{"bike_id":"38b19586-0e49-4d38-bdec-6f6b0c5cd1fe","system_id":"levelo_inurba_marseille","lat":43.29631,"lon":5.40592,"is_reserved":false,"is_disabled":false,"rental_uris":{"android":"levelo://app?vid=38b19586-0e49-4d38-bdec-6f6b0c5cd1fe","ios":"levelo://app?vid=38b19586-0e49-4d38-bdec-6f6b0c5cd1fe"},"vehicle_type_id":"4","last_reported":1752689780,"current_range_meters":12800,"station_id":"ce4bh0h2rcd13ifvqd60","pricing_plan_id":"cebpf4jnsgd1na2vs0mg"},{"bike_id":"f6387a63-9b0e-4d64-ac4d-055c9141eb8c","system_id":"levelo_inurba_marseille","lat":43.22931,"lon":5.35372,"is_reserved":false,"is_disabled":false,"rental_uris":{"android":"levelo://app?vid=f6387a63-9b0e-4d64-ac4d-055c9141eb8c","ios":"levelo://app?vid=f6387a63-9b0e-4d64-ac4d-055c9141eb8c"},"vehicle_type_id":"4","last_reported":1752689780,"current_range_meters":12800,"station_id":"cpo3532slgdg3j2ikp40","pricing_plan_id":"cebpf4jnsgd1na2vs0mg"},{"bike_id":"9e05f4f9-33b8-4b7f-b82c-75a44a78ec33","system_id":"levelo_inurba_marseille","lat":43.23961,"lon":5.36627,"is_reserved":false,"is_disabled":false,"rental_uris":{"android":"levelo://app?vid=9e05f4f9-33b8-4b7f-b82c-75a44a78ec33","ios":"levelo://app?vid=9e05f4f9-33b8-4b7f-b82c-75a44a78ec33"},"vehicle_type_id":"4","last_reported":1752689780,"current_range_meters":13600,"station_id":"ce4bhi12rcd13ifvqfp0","pricing_plan_id":"cebpf4jnsgd1na2vs0mg"},{"bike_id":"160c694e-ffd7-42b0-b384-3e0640192e0e","system_id":"levelo_inurba_marseille","lat":43.229992,"lon":5.354591,"is_reserved":false,"is_disabled":false,"rental_uris":{"android":"levelo://app?vid=160c694e-ffd7-42b0-b384-3e0640192e0e","ios":"levelo://app?vid=160c694e-ffd7-42b0-b384-3e0640192e0e"},"vehicle_type_id":"4","last_reported":1752689780,"current_range_meters":13600,"station_id":"cpo3532slgdg3j2ikp40","pricing_plan_id":"cebpf4jnsgd1na2vs0mg"},{"bike_id":"b4676ea9-5d2a-45fa-b77e-9ae78fadbbe9","system_id":"levelo_inurba_marseille","lat":43.23075,"lon":5.3548,"is_reserved":false,"is_disabled":false,"rental_uris":{"android":"levelo://app?vid=b4676ea9-5d2a-45fa-b77e-9ae78fadbbe9","ios":"levelo://app?vid=b4676ea9-5d2a-45fa-b77e-9ae78fadbbe9"},"vehicle_type_id":"4","last_reported":1752689780,"current_range_meters":13600,"station_id":"cpo3342slgdg3j2ifvpg","pricing_plan_id":"cebpf4jnsgd1na2vs0mg"},{"bike_id":"61a9e916-b95f-4f2c-8dca-c5b11be80287","system_id":"levelo_inurba_marseille","lat":43.29237,"lon":5.36031,"is_reserved":false,"is_disabled":true,"rental_uris":{"android":"levelo://app?vid=61a9e916-b95f-4f2c-8dca-c5b11be80287","ios":"levelo://app?vid=61a9e916-b95f-4f2c-8dca-c5b11be80287"},"vehicle_type_id":"4","last_reported":1752689780,"current_range_meters":13600,"station_id":"ce4bhbh2rcd13ifvqeqg","pricing_plan_id":"cebpf4jnsgd1na2vs0mg"},{"bike_id":"ed6a5b8b-9e51-4157-9e5b-f3518c096f0d","system_id":"levelo_inurba_marseille","lat":43.295232,"lon":5.394075,"is_reserved":false,"is_disabled":false,"rental_uris":{"android":"levelo://app?vid=ed6a5b8b-9e51-4157-9e5b-f3518c096f0d","ios":"levelo://app?vid=ed6a5b8b-9e51-4157-9e5b-f3518c096f0d"},"vehicle_type_id":"4","last_reported":1752689780,"current_range_meters":13600,"station_id":"","pricing_plan_id":"cebpf4jnsgd1na2vs0mg"},{"bike_id":"7cb436ee-0a7d-4cab-9ac9-7b256e3be257","system_id":"levelo_inurba_marseille","lat":43.28585,"lon":5.35147,"is_reserved":false,"is_disabled":false,"rental_uris":{"android":"levelo://app?vid=7cb436ee-0a7d-4cab-9ac9-7b256e3be257","ios":"levelo://app?vid=7cb436ee-0a7d-4cab-9ac9-7b256e3be257"},"vehicle_type_id":"4","last_reported":1752689780,"current_range_meters":13600,"station_id":"","pricing_plan_id":"cebpf4jnsgd1na2vs0mg"},{"bike_id":"42663a61-0d0c-445d-bdbf-eaf403ccec82","system_id":"levelo_inurba_marseille","lat":43.29308,"lon":5.37166,"is_reserved":false,"is_disabled":false,"rental_uris":{"android":"levelo://app?vid=42663a61-0d0c-445d-bdbf-eaf403ccec82","ios":"levelo://app?vid=42663a61-0d0c-445d-bdbf-eaf403ccec82"},"vehicle_type_id":"4","last_reported":1752689780,"current_range_meters":13600,"station_id":"ce4bgh92rcd13ifvqb40","pricing_plan_id":"cebpf4jnsgd1na2vs0mg"},{"bike_id":"4c20c56f-8430-4db8-bdfe-cd088e65d5a9","system_id":"levelo_inurba_marseille","lat":43.292737,"lon":5.384294,"is_reserved":false,"is_disabled":false,"rental_uris":{"android":"levelo://app?vid=4c20c56f-8430-4db8-bdfe-cd088e65d5a9","ios":"levelo://app?vid=4c20c56f-8430-4db8-bdfe-cd088e65d5a9"},"vehicle_type_id":"4","last_reported":1752689780,"current_range_meters":14000,"station_id":"ce4bh692rcd13ifvqea0","pricing_plan_id":"cebpf4jnsgd1na2vs0mg"},{"bike_id":"2f7d48dc-a90b-412a-ab40-15bfc7de2d41","system_id":"levelo_inurba_marseille","lat":43.28418,"lon":5.34967,"is_reserved":false,"is_disabled":false,"rental_uris":{"android":"levelo://app?vid=2f7d48dc-a90b-412a-ab40-15bfc7de2d41","ios":"levelo://app?vid=2f7d48dc-a90b-412a-ab40-15bfc7de2d41"},"vehicle_type_id":"4","last_reported":1752689780,"current_range_meters":14000,"station_id":"ce4bhbh2rcd13ifvqepg","pricing_plan_id":"cebpf4jnsgd1na2vs0mg"},{"bike_id":"c19deb00-d227-45c5-a6f3-6228d3a364e7","system_id":"levelo_inurba_marseille","lat":43.29103,"lon":5.35736,"is_reserved":false,"is_disabled":false,"rental_uris":{"android":"levelo://app?vid=c19deb00-d227-45c5-a6f3-6228d3a364e7","ios":"levelo://app?vid=c19deb00-d227-45c5-a6f3-6228d3a364e7"},"vehicle_type_id":"4","last_reported":1752689780,"current_range_meters":14000,"station_id":"ce4bhb92rcd13ifvqen0","pricing_plan_id":"cebpf4jnsgd1na2vs0mg"},{"bike_id":"f5817eae-0567-4a50-9665-23663a2ae4f8","system_id":"levelo_inurba_marseille","lat":43.28412,"lon":5.34973,"is_reserved":false,"is_disabled":false,"rental_uris":{"android":"levelo://app?vid=f5817eae-0567-4a50-9665-23663a2ae4f8","ios":"levelo://app?vid=f5817eae-0567-4a50-9665-23663a2ae4f8"},"vehicle_type_id":"4","last_reported":1752689780,"current_range_meters":14000,"station_id":"ce4bhbh2rcd13ifvqepg","pricing_plan_id":"cebpf4jnsgd1na2vs0mg"},{"bike_id":"53d3a051-5f4f-491d-8395-47cab3ad339e","system_id":"levelo_inurba_marseille","lat":43.29581,"lon":5.36733,"is_reserved":false,"is_disabled":false,"rental_uris":{"android":"levelo://app?vid=53d3a051-5f4f-491d-8395-47cab3ad339e","ios":"levelo://app?vid=53d3a051-5f4f-491d-8395-47cab3ad339e"},"vehicle_type_id":"4","last_reported":1752689780,"current_range_meters":14000,"station_id":"ce4bgph2rcd13ifvqc2g","pricing_plan_id":"cebpf4jnsgd1na2vs0mg"},{"bike_id":"d9cac6a6-f876-47d2-8111-1305781d7a00","system_id":"levelo_inurba_marseille","lat":43.26215,"lon":5.37439,"is_reserved":false,"is_disabled":false,"rental_uris":{"android":"levelo://app?vid=d9cac6a6-f876-47d2-8111-1305781d7a00","ios":"levelo://app?vid=d9cac6a6-f876-47d2-8111-1305781d7a00"},"vehicle_type_id":"4","last_reported":1752689780,"current_range_meters":14000,"station_id":"ce4bhgp2rcd13ifvqfc0","pricing_plan_id":"cebpf4jnsgd1na2vs0mg"},{"bike_id":"715a087f-69e8-4015-9ee9-4851c2bfaf56","system_id":"levelo_inurba_marseille","lat":43.262383,"lon":5.374693,"is_reserved":false,"is_disabled":false,"rental_uris":{"android":"levelo://app?vid=715a087f-69e8-4015-9ee9-4851c2bfaf56","ios":"levelo://app?vid=715a087f-69e8-4015-9ee9-4851c2bfaf56"},"vehicle_type_id":"4","last_reported":1752689780,"current_range_meters":14000,"station_id":"ce4bhgp2rcd13ifvqfc0","pricing_plan_id":"cebpf4jnsgd1na2vs0mg"},{"bike_id":"b27b4c8c-f654-418a-88bf-7c1afbf8f2d8","system_id":"levelo_inurba_marseille","lat":43.27075,"lon":5.40274,"is_reserved":false,"is_disabled":false,"rental_uris":{"android":"levelo://app?vid=b27b4c8c-f654-418a-88bf-7c1afbf8f2d8","ios":"levelo://app?vid=b27b4c8c-f654-418a-88bf-7c1afbf8f2d8"},"vehicle_type_id":"4","last_reported":1752689780,"current_range_meters":14000,"station_id":"ce4bhk92rcd13ifvqgc0","pricing_plan_id":"cebpf4jnsgd1na2vs0mg"},{"bike_id":"9eaf072e-fd31-4296-8388-8574f90d4c98","system_id":"levelo_inurba_marseille","lat":43.28606,"lon":5.37065,"is_reserved":false,"is_disabled":false,"rental_uris":{"android":"levelo://app?vid=9eaf072e-fd31-4296-8388-8574f90d4c98","ios":"levelo://app?vid=9eaf072e-fd31-4296-8388-8574f90d4c98"},"vehicle_type_id":"4","last_reported":1752689780,"current_range_meters":14000,"station_id":"ce4bht12rcd13ifvqi60","pricing_plan_id":"cebpf4jnsgd1na2vs0mg"},{"bike_id":"16d1e6ab-e76a-4b95-a0bc-d6c4ee6496e6","system_id":"levelo_inurba_marseille","lat":43.282684,"lon":5.350664,"is_reserved":false,"is_disabled":false,"rental_uris":{"android":"levelo://app?vid=16d1e6ab-e76a-4b95-a0bc-d6c4ee6496e6","ios":"levelo://app?vid=16d1e6ab-e76a-4b95-a0bc-d6c4ee6496e6"},"vehicle_type_id":"4","last_reported":1752689780,"current_range_meters":14400,"station_id":"ce4bhbp2rcd13ifvqerg","pricing_plan_id":"cebpf4jnsgd1na2vs0mg"},{"bike_id":"941f5e0c-adb3-4b4e-bcb7-3588acd87787","system_id":"levelo_inurba_marseille","lat":43.3013,"lon":5.38773,"is_reserved":false,"is_disabled":true,"rental_uris":{"android":"levelo://app?vid=941f5e0c-adb3-4b4e-bcb7-3588acd87787","ios":"levelo://app?vid=941f5e0c-adb3-4b4e-bcb7-3588acd87787"},"vehicle_type_id":"4","last_reported":1752689780,"current_range_meters":14400,"station_id":"ce4bghh2rcd13ifvqb60","pricing_plan_id":"cebpf4jnsgd1na2vs0mg"},{"bike_id":"ea68d6e7-228a-4d5e-96f9-490eb6073b81","system_id":"levelo_inurba_marseille","lat":43.24163,"lon":5.36394,"is_reserved":false,"is_disabled":false,"rental_uris":{"android":"levelo://app?vid=ea68d6e7-228a-4d5e-96f9-490eb6073b81","ios":"levelo://app?vid=ea68d6e7-228a-4d5e-96f9-490eb6073b81"},"vehicle_type_id":"4","last_reported":1752689780,"current_range_meters":14400,"station_id":"cpo36qri1sfpv3e86is0","pricing_plan_id":"cebpf4jnsgd1na2vs0mg"},{"bike_id":"32d1218f-165c-441f-ad46-a226bdc8e1de","system_id":"levelo_inurba_marseille","lat":43.28623,"lon":5.35104,"is_reserved":false,"is_disabled":false,"rental_uris":{"android":"levelo://app?vid=32d1218f-165c-441f-ad46-a226bdc8e1de","ios":"levelo://app?vid=32d1218f-165c-441f-ad46-a226bdc8e1de"},"vehicle_type_id":"4","last_reported":1752689780,"current_range_meters":14400,"station_id":"ce4bhch2rcd13ifvqeug","pricing_plan_id":"cebpf4jnsgd1na2vs0mg"},{"bike_id":"b6ab01fd-a838-4fd6-9390-ef4016410ef6","system_id":"levelo_inurba_marseille","lat":43.28612,"lon":5.35106,"is_reserved":false,"is_disabled":false,"rental_uris":{"android":"levelo://app?vid=b6ab01fd-a838-4fd6-9390-ef4016410ef6","ios":"levelo://app?vid=b6ab01fd-a838-4fd6-9390-ef4016410ef6"},"vehicle_type_id":"4","last_reported":1752689780,"current_range_meters":14400,"station_id":"ce4bhch2rcd13ifvqeug","pricing_plan_id":"cebpf4jnsgd1na2vs0mg"},{"bike_id":"bb91fdfd-e2e6-4861-a682-9985a5c5d97b","system_id":"levelo_inurba_marseille","lat":43.23203,"lon":5.39979,"is_reserved":false,"is_disabled":false,"rental_uris":{"android":"levelo://app?vid=bb91fdfd-e2e6-4861-a682-9985a5c5d97b","ios":"levelo://app?vid=bb91fdfd-e2e6-4861-a682-9985a5c5d97b"},"vehicle_type_id":"4","last_reported":1752689780,"current_range_meters":14400,"station_id":"ce4bhn12rcd13ifvqgqg","pricing_plan_id":"cebpf4jnsgd1na2vs0mg"},{"bike_id":"8eeeb77c-8234-4556-b507-da0594d01e95","system_id":"levelo_inurba_marseille","lat":43.22513,"lon":5.3474,"is_reserved":false,"is_disabled":false,"rental_uris":{"android":"levelo://app?vid=8eeeb77c-8234-4556-b507-da0594d01e95","ios":"levelo://app?vid=8eeeb77c-8234-4556-b507-da0594d01e95"},"vehicle_type_id":"4","last_reported":1752689780,"current_range_meters":14400,"station_id":"st_cvj5dfep6f1abm77gieg","pricing_plan_id":"cebpf4jnsgd1na2vs0mg"},{"bike_id":"7dee92bf-5b07-4927-aa41-9e9493644eeb","system_id":"levelo_inurba_marseille","lat":43.21208,"lon":5.35053,"is_reserved":false,"is_disabled":false,"rental_uris":{"android":"levelo://app?vid=7dee92bf-5b07-4927-aa41-9e9493644eeb","ios":"levelo://app?vid=7dee92bf-5b07-4927-aa41-9e9493644eeb"},"vehicle_type_id":"4","last_reported":1752689780,"current_range_meters":14400,"station_id":"st_cvj6sg6p6f1abm77japg","pricing_plan_id":"cebpf4jnsgd1na2vs0mg"},{"bike_id":"839858db-ce55-4d5d-9571-4c1d872acb6f","system_id":"levelo_inurba_marseille","lat":43.25503,"lon":5.37628,"is_reserved":false,"is_disabled":false,"rental_uris":{"android":"levelo://app?vid=839858db-ce55-4d5d-9571-4c1d872acb6f","ios":"levelo://app?vid=839858db-ce55-4d5d-9571-4c1d872acb6f"},"vehicle_type_id":"4","last_reported":1752689780,"current_range_meters":14400,"station_id":"ce4bhh12rcd13ifvqff0","pricing_plan_id":"cebpf4jnsgd1na2vs0mg"},{"bike_id":"4691d9dc-0f1c-4d22-a1f5-aa8be13b89db","system_id":"levelo_inurba_marseille","lat":43.27613,"lon":5.36107,"is_reserved":false,"is_disabled":false,"rental_uris":{"android":"levelo://app?vid=4691d9dc-0f1c-4d22-a1f5-aa8be13b89db","ios":"levelo://app?vid=4691d9dc-0f1c-4d22-a1f5-aa8be13b89db"},"vehicle_type_id":"4","last_reported":1752689780,"current_range_meters":14800,"station_id":"ce4bgj92rcd13ifvqbe0","pricing_plan_id":"cebpf4jnsgd1na2vs0mg"},{"bike_id":"f88fa424-fab6-48be-ae49-0c91ada455d4","system_id":"levelo_inurba_marseille","lat":43.29196,"lon":5.35798,"is_reserved":false,"is_disabled":false,"rental_uris":{"android":"levelo://app?vid=f88fa424-fab6-48be-ae49-0c91ada455d4","ios":"levelo://app?vid=f88fa424-fab6-48be-ae49-0c91ada455d4"},"vehicle_type_id":"4","last_reported":1752689780,"current_range_meters":14800,"station_id":"ce4bhb12rcd13ifvqel0","pricing_plan_id":"cebpf4jnsgd1na2vs0mg"},{"bike_id":"18ff212c-c321-4b53-9a42-fa7b9b4c0b7c","system_id":"levelo_inurba_marseille","lat":43.31116,"lon":5.37761,"is_reserved":false,"is_disabled":false,"rental_uris":{"android":"levelo://app?vid=18ff212c-c321-4b53-9a42-fa7b9b4c0b7c","ios":"levelo://app?vid=18ff212c-c321-4b53-9a42-fa7b9b4c0b7c"},"vehicle_type_id":"4","last_reported":1752689780,"current_range_meters":14800,"station_id":"ce4bgt92rcd13ifvqcg0","pricing_plan_id":"cebpf4jnsgd1na2vs0mg"},{"bike_id":"f4d50b9f-67c5-4a4e-82cd-5fb34bc9ddef","system_id":"levelo_inurba_marseille","lat":43.25448,"lon":5.38218,"is_reserved":false,"is_disabled":false,"rental_uris":{"android":"levelo://app?vid=f4d50b9f-67c5-4a4e-82cd-5fb34bc9ddef","ios":"levelo://app?vid=f4d50b9f-67c5-4a4e-82cd-5fb34bc9ddef"},"vehicle_type_id":"4","last_reported":1752689780,"current_range_meters":14800,"station_id":"","pricing_plan_id":"cebpf4jnsgd1na2vs0mg"},{"bike_id":"fec9ee64-026c-46c6-a4c8-c66ae693a529","system_id":"levelo_inurba_marseille","lat":43.29299,"lon":5.37164,"is_reserved":false,"is_disabled":true,"rental_uris":{"android":"levelo://app?vid=fec9ee64-026c-46c6-a4c8-c66ae693a529","ios":"levelo://app?vid=fec9ee64-026c-46c6-a4c8-c66ae693a529"},"vehicle_type_id":"4","last_reported":1752689780,"current_range_meters":14800,"station_id":"ce4bgh92rcd13ifvqb40","pricing_plan_id":"cebpf4jnsgd1na2vs0mg"},{"bike_id":"011b79d6-fd4e-4a43-b39a-554909c6320d","system_id":"levelo_inurba_marseille","lat":43.2926,"lon":5.3844,"is_reserved":false,"is_disabled":false,"rental_uris":{"android":"levelo://app?vid=011b79d6-fd4e-4a43-b39a-554909c6320d","ios":"levelo://app?vid=011b79d6-fd4e-4a43-b39a-554909c6320d"},"vehicle_type_id":"4","last_reported":1752689780,"current_range_meters":14800,"station_id":"ce4bh692rcd13ifvqea0","pricing_plan_id":"cebpf4jnsgd1na2vs0mg"},{"bike_id":"499ced62-27e9-4fba-8929-786ef601d20c","system_id":"levelo_inurba_marseille","lat":43.31768,"lon":5.39004,"is_reserved":false,"is_disabled":false,"rental_uris":{"android":"levelo://app?vid=499ced62-27e9-4fba-8929-786ef601d20c","ios":"levelo://app?vid=499ced62-27e9-4fba-8929-786ef601d20c"},"vehicle_type_id":"4","last_reported":1752689780,"current_range_meters":14400,"station_id":"ce4bhqp2rcd13ifvqhng","pricing_plan_id":"cebpf4jnsgd1na2vs0mg"},{"bike_id":"f6329e5c-9898-473e-bc16-9829b844ecdd","system_id":"levelo_inurba_marseille","lat":43.284157,"lon":5.349918,"is_reserved":false,"is_disabled":false,"rental_uris":{"android":"levelo://app?vid=f6329e5c-9898-473e-bc16-9829b844ecdd","ios":"levelo://app?vid=f6329e5c-9898-473e-bc16-9829b844ecdd"},"vehicle_type_id":"4","last_reported":1752689780,"current_range_meters":14800,"station_id":"ce4bhbh2rcd13ifvqepg","pricing_plan_id":"cebpf4jnsgd1na2vs0mg"},{"bike_id":"ea7c20ca-c942-4aa7-b60b-c99c7471aa0f","system_id":"levelo_inurba_marseille","lat":43.26684,"lon":5.38272,"is_reserved":false,"is_disabled":false,"rental_uris":{"android":"levelo://app?vid=ea7c20ca-c942-4aa7-b60b-c99c7471aa0f","ios":"levelo://app?vid=ea7c20ca-c942-4aa7-b60b-c99c7471aa0f"},"vehicle_type_id":"4","last_reported":1752689780,"current_range_meters":14400,"station_id":"ce4bhg92rcd13ifvqf90","pricing_plan_id":"cebpf4jnsgd1na2vs0mg"},{"bike_id":"eb03518d-d2a4-4afc-9970-f438038eee5e","system_id":"levelo_inurba_marseille","lat":43.30794,"lon":5.38145,"is_reserved":false,"is_disabled":false,"rental_uris":{"android":"levelo://app?vid=eb03518d-d2a4-4afc-9970-f438038eee5e","ios":"levelo://app?vid=eb03518d-d2a4-4afc-9970-f438038eee5e"},"vehicle_type_id":"4","last_reported":1752689780,"current_range_meters":14800,"station_id":"ce4bgt12rcd13ifvqce0","pricing_plan_id":"cebpf4jnsgd1na2vs0mg"},{"bike_id":"3a0ee8ad-89b5-4969-962d-98594d37e1d1","system_id":"levelo_inurba_marseille","lat":43.24661,"lon":5.38162,"is_reserved":false,"is_disabled":false,"rental_uris":{"android":"levelo://app?vid=3a0ee8ad-89b5-4969-962d-98594d37e1d1","ios":"levelo://app?vid=3a0ee8ad-89b5-4969-962d-98594d37e1d1"},"vehicle_type_id":"4","last_reported":1752689780,"current_range_meters":15200,"station_id":"ce4bhih2rcd13ifvqfr0","pricing_plan_id":"cebpf4jnsgd1na2vs0mg"},{"bike_id":"229a51b8-d35a-46ef-90d9-099d3d4f556b","system_id":"levelo_inurba_marseille","lat":43.29421,"lon":5.38583,"is_reserved":false,"is_disabled":true,"rental_uris":{"android":"levelo://app?vid=229a51b8-d35a-46ef-90d9-099d3d4f556b","ios":"levelo://app?vid=229a51b8-d35a-46ef-90d9-099d3d4f556b"},"vehicle_type_id":"4","last_reported":1752689780,"current_range_meters":15200,"station_id":"ce4bh2h2rcd13ifvqdh0","pricing_plan_id":"cebpf4jnsgd1na2vs0mg"},{"bike_id":"47e84c87-4631-48fa-8064-ac43c2313bba","system_id":"levelo_inurba_marseille","lat":43.29312,"lon":5.37157,"is_reserved":false,"is_disabled":true,"rental_uris":{"android":"levelo://app?vid=47e84c87-4631-48fa-8064-ac43c2313bba","ios":"levelo://app?vid=47e84c87-4631-48fa-8064-ac43c2313bba"},"vehicle_type_id":"4","last_reported":1752689780,"current_range_meters":15200,"station_id":"ce4bgh92rcd13ifvqb40","pricing_plan_id":"cebpf4jnsgd1na2vs0mg"},{"bike_id":"8c74dc83-f3e1-46a3-8b92-52a29276dea8","system_id":"levelo_inurba_marseille","lat":43.32064,"lon":5.41554,"is_reserved":false,"is_disabled":false,"rental_uris":{"android":"levelo://app?vid=8c74dc83-f3e1-46a3-8b92-52a29276dea8","ios":"levelo://app?vid=8c74dc83-f3e1-46a3-8b92-52a29276dea8"},"vehicle_type_id":"4","last_reported":1752689780,"current_range_meters":14800,"station_id":"ce4bhq92rcd13ifvqhkg","pricing_plan_id":"cebpf4jnsgd1na2vs0mg"},{"bike_id":"b83ebe5b-715a-4e73-9e79-7020d08643a0","system_id":"levelo_inurba_marseille","lat":43.29619,"lon":5.37709,"is_reserved":false,"is_disabled":true,"rental_uris":{"android":"levelo://app?vid=b83ebe5b-715a-4e73-9e79-7020d08643a0","ios":"levelo://app?vid=b83ebe5b-715a-4e73-9e79-7020d08643a0"},"vehicle_type_id":"4","last_reported":1752689780,"current_range_meters":15200,"station_id":"ce4bgi92rcd13ifvqb90","pricing_plan_id":"cebpf4jnsgd1na2vs0mg"},{"bike_id":"101c865c-f474-48aa-ac4d-6cfa4bf4ef3e","system_id":"levelo_inurba_marseille","lat":43.29548,"lon":5.42282,"is_reserved":false,"is_disabled":false,"rental_uris":{"android":"levelo://app?vid=101c865c-f474-48aa-ac4d-6cfa4bf4ef3e","ios":"levelo://app?vid=101c865c-f474-48aa-ac4d-6cfa4bf4ef3e"},"vehicle_type_id":"4","last_reported":1752689780,"current_range_meters":15200,"station_id":"ce4bhph2rcd13ifvqhdg","pricing_plan_id":"cebpf4jnsgd1na2vs0mg"},{"bike_id":"4d04c4e6-6761-4b54-a69b-da04d78687af","system_id":"levelo_inurba_marseille","lat":43.30787,"lon":5.37644,"is_reserved":false,"is_disabled":false,"rental_uris":{"android":"levelo://app?vid=4d04c4e6-6761-4b54-a69b-da04d78687af","ios":"levelo://app?vid=4d04c4e6-6761-4b54-a69b-da04d78687af"},"vehicle_type_id":"4","last_reported":1752689780,"current_range_meters":15200,"station_id":"ce4bgv92rcd13ifvqcq0","pricing_plan_id":"cebpf4jnsgd1na2vs0mg"},{"bike_id":"6d9179b8-5d3a-4101-8bac-5a45ec40171c","system_id":"levelo_inurba_marseille","lat":43.284139,"lon":5.374985,"is_reserved":false,"is_disabled":false,"rental_uris":{"android":"levelo://app?vid=6d9179b8-5d3a-4101-8bac-5a45ec40171c","ios":"levelo://app?vid=6d9179b8-5d3a-4101-8bac-5a45ec40171c"},"vehicle_type_id":"4","last_reported":1752689780,"current_range_meters":15200,"station_id":"ce4bh412rcd13ifvqds0","pricing_plan_id":"cebpf4jnsgd1na2vs0mg"},{"bike_id":"bb184bfe-3961-4b2a-a7bd-ef13e455c7cb","system_id":"levelo_inurba_marseille","lat":43.29035,"lon":5.37544,"is_reserved":false,"is_disabled":false,"rental_uris":{"android":"levelo://app?vid=bb184bfe-3961-4b2a-a7bd-ef13e455c7cb","ios":"levelo://app?vid=bb184bfe-3961-4b2a-a7bd-ef13e455c7cb"},"vehicle_type_id":"4","last_reported":1752689780,"current_range_meters":15200,"station_id":"ce4bh692rcd13ifvqe90","pricing_plan_id":"cebpf4jnsgd1na2vs0mg"},{"bike_id":"4faf0eff-90e6-484a-aaf9-fcf17855dd49","system_id":"levelo_inurba_marseille","lat":43.30786,"lon":5.37642,"is_reserved":false,"is_disabled":false,"rental_uris":{"android":"levelo://app?vid=4faf0eff-90e6-484a-aaf9-fcf17855dd49","ios":"levelo://app?vid=4faf0eff-90e6-484a-aaf9-fcf17855dd49"},"vehicle_type_id":"4","last_reported":1752689780,"current_range_meters":16000,"station_id":"ce4bgv92rcd13ifvqcq0","pricing_plan_id":"cebpf4jnsgd1na2vs0mg"},{"bike_id":"a65a1f4d-9de6-4fa3-9efc-83e97f2ee55f","system_id":"levelo_inurba_marseille","lat":43.31885,"lon":5.4073,"is_reserved":false,"is_disabled":false,"rental_uris":{"android":"levelo://app?vid=a65a1f4d-9de6-4fa3-9efc-83e97f2ee55f","ios":"levelo://app?vid=a65a1f4d-9de6-4fa3-9efc-83e97f2ee55f"},"vehicle_type_id":"4","last_reported":1752689780,"current_range_meters":16000,"station_id":"ce4bhq12rcd13ifvqhig","pricing_plan_id":"cebpf4jnsgd1na2vs0mg"},{"bike_id":"7425af41-f939-4fb5-81a7-e1169ccaa6d8","system_id":"levelo_inurba_marseille","lat":43.24697,"lon":5.38154,"is_reserved":false,"is_disabled":true,"rental_uris":{"android":"levelo://app?vid=7425af41-f939-4fb5-81a7-e1169ccaa6d8","ios":"levelo://app?vid=7425af41-f939-4fb5-81a7-e1169ccaa6d8"},"vehicle_type_id":"4","last_reported":1752689780,"current_range_meters":16000,"station_id":"ce4bhih2rcd13ifvqfr0","pricing_plan_id":"cebpf4jnsgd1na2vs0mg"},{"bike_id":"2b751b92-c0f8-4447-a98b-dce05636b436","system_id":"levelo_inurba_marseille","lat":43.29536,"lon":5.38538,"is_reserved":false,"is_disabled":false,"rental_uris":{"android":"levelo://app?vid=2b751b92-c0f8-4447-a98b-dce05636b436","ios":"levelo://app?vid=2b751b92-c0f8-4447-a98b-dce05636b436"},"vehicle_type_id":"4","last_reported":1752689780,"current_range_meters":16000,"station_id":"ce4bgih2rcd13ifvqba0","pricing_plan_id":"cebpf4jnsgd1na2vs0mg"},{"bike_id":"2c6ecd26-9177-46df-ac47-7c097589df40","system_id":"levelo_inurba_marseille","lat":43.280354,"lon":5.40053,"is_reserved":false,"is_disabled":false,"rental_uris":{"android":"levelo://app?vid=2c6ecd26-9177-46df-ac47-7c097589df40","ios":"levelo://app?vid=2c6ecd26-9177-46df-ac47-7c097589df40"},"vehicle_type_id":"4","last_reported":1752689780,"current_range_meters":15200,"station_id":"ce4bho92rcd13ifvqh4g","pricing_plan_id":"cebpf4jnsgd1na2vs0mg"},{"bike_id":"35aad019-9b7e-4b0d-8610-5e2ad620a08e","system_id":"levelo_inurba_marseille","lat":43.24802,"lon":5.37452,"is_reserved":false,"is_disabled":false,"rental_uris":{"android":"levelo://app?vid=35aad019-9b7e-4b0d-8610-5e2ad620a08e","ios":"levelo://app?vid=35aad019-9b7e-4b0d-8610-5e2ad620a08e"},"vehicle_type_id":"4","last_reported":1752689780,"current_range_meters":15200,"station_id":"ce4bhgh2rcd13ifvqfb0","pricing_plan_id":"cebpf4jnsgd1na2vs0mg"},{"bike_id":"1f10401f-b7cc-4ad8-b16a-62268da07c88","system_id":"levelo_inurba_marseille","lat":43.21192,"lon":5.35066,"is_reserved":false,"is_disabled":false,"rental_uris":{"android":"levelo://app?vid=1f10401f-b7cc-4ad8-b16a-62268da07c88","ios":"levelo://app?vid=1f10401f-b7cc-4ad8-b16a-62268da07c88"},"vehicle_type_id":"4","last_reported":1752689780,"current_range_meters":16000,"station_id":"st_cvj6sg6p6f1abm77japg","pricing_plan_id":"cebpf4jnsgd1na2vs0mg"},{"bike_id":"9c5f4a1a-b323-4daf-9e2f-4408ae6c6b17","system_id":"levelo_inurba_marseille","lat":43.29221,"lon":5.36075,"is_reserved":false,"is_disabled":false,"rental_uris":{"android":"levelo://app?vid=9c5f4a1a-b323-4daf-9e2f-4408ae6c6b17","ios":"levelo://app?vid=9c5f4a1a-b323-4daf-9e2f-4408ae6c6b17"},"vehicle_type_id":"4","last_reported":1752689780,"current_range_meters":16000,"station_id":"ce4bhbh2rcd13ifvqeqg","pricing_plan_id":"cebpf4jnsgd1na2vs0mg"},{"bike_id":"0398468c-6c0f-49fd-b525-08c45b6a4cd9","system_id":"levelo_inurba_marseille","lat":43.22516,"lon":5.34764,"is_reserved":false,"is_disabled":false,"rental_uris":{"android":"levelo://app?vid=0398468c-6c0f-49fd-b525-08c45b6a4cd9","ios":"levelo://app?vid=0398468c-6c0f-49fd-b525-08c45b6a4cd9"},"vehicle_type_id":"4","last_reported":1752689780,"current_range_meters":16400,"station_id":"st_cvj5dfep6f1abm77gieg","pricing_plan_id":"cebpf4jnsgd1na2vs0mg"},{"bike_id":"57c5cb18-5bd1-4bb2-a03f-cdbd2ebc5642","system_id":"levelo_inurba_marseille","lat":43.28416,"lon":5.3498,"is_reserved":false,"is_disabled":false,"rental_uris":{"android":"levelo://app?vid=57c5cb18-5bd1-4bb2-a03f-cdbd2ebc5642","ios":"levelo://app?vid=57c5cb18-5bd1-4bb2-a03f-cdbd2ebc5642"},"vehicle_type_id":"4","last_reported":1752689780,"current_range_meters":16400,"station_id":"ce4bhbh2rcd13ifvqepg","pricing_plan_id":"cebpf4jnsgd1na2vs0mg"},{"bike_id":"baf819d3-69cc-4e2f-8cc3-261bef54b3b9","system_id":"levelo_inurba_marseille","lat":43.28413,"lon":5.34997,"is_reserved":false,"is_disabled":false,"rental_uris":{"android":"levelo://app?vid=baf819d3-69cc-4e2f-8cc3-261bef54b3b9","ios":"levelo://app?vid=baf819d3-69cc-4e2f-8cc3-261bef54b3b9"},"vehicle_type_id":"4","last_reported":1752689780,"current_range_meters":16400,"station_id":"ce4bhbh2rcd13ifvqepg","pricing_plan_id":"cebpf4jnsgd1na2vs0mg"},{"bike_id":"fd0df05c-7af5-451f-9d58-a8a2a5f445e9","system_id":"levelo_inurba_marseille","lat":43.26938,"lon":5.40258,"is_reserved":false,"is_disabled":false,"rental_uris":{"android":"levelo://app?vid=fd0df05c-7af5-451f-9d58-a8a2a5f445e9","ios":"levelo://app?vid=fd0df05c-7af5-451f-9d58-a8a2a5f445e9"},"vehicle_type_id":"4","last_reported":1752689780,"current_range_meters":16400,"station_id":"cjm6bp8fraef2m0cb0m0","pricing_plan_id":"cebpf4jnsgd1na2vs0mg"},{"bike_id":"e1743385-ddb2-4747-9d95-d8deb095911a","system_id":"levelo_inurba_marseille","lat":43.296223,"lon":5.377025,"is_reserved":false,"is_disabled":false,"rental_uris":{"android":"levelo://app?vid=e1743385-ddb2-4747-9d95-d8deb095911a","ios":"levelo://app?vid=e1743385-ddb2-4747-9d95-d8deb095911a"},"vehicle_type_id":"4","last_reported":1752689780,"current_range_meters":16400,"station_id":"","pricing_plan_id":"cebpf4jnsgd1na2vs0mg"},{"bike_id":"ab33960e-a579-41d7-9fb1-ea9088544886","system_id":"levelo_inurba_marseille","lat":43.295212,"lon":5.390343,"is_reserved":false,"is_disabled":false,"rental_uris":{"android":"levelo://app?vid=ab33960e-a579-41d7-9fb1-ea9088544886","ios":"levelo://app?vid=ab33960e-a579-41d7-9fb1-ea9088544886"},"vehicle_type_id":"4","last_reported":1752689780,"current_range_meters":16000,"station_id":"ce4bh3p2rcd13ifvqdp0","pricing_plan_id":"cebpf4jnsgd1na2vs0mg"},{"bike_id":"fb7e57c1-17d0-4211-9eff-ffe253e5ff01","system_id":"levelo_inurba_marseille","lat":43.28149,"lon":5.42647,"is_reserved":false,"is_disabled":false,"rental_uris":{"android":"levelo://app?vid=fb7e57c1-17d0-4211-9eff-ffe253e5ff01","ios":"levelo://app?vid=fb7e57c1-17d0-4211-9eff-ffe253e5ff01"},"vehicle_type_id":"4","last_reported":1752689780,"current_range_meters":16400,"station_id":"ce4bhnh2rcd13ifvqgug","pricing_plan_id":"cebpf4jnsgd1na2vs0mg"},{"bike_id":"f9fbac16-b0d2-41ee-a305-6c8a5a8258e8","system_id":"levelo_inurba_marseille","lat":43.29005,"lon":5.356,"is_reserved":false,"is_disabled":false,"rental_uris":{"android":"levelo://app?vid=f9fbac16-b0d2-41ee-a305-6c8a5a8258e8","ios":"levelo://app?vid=f9fbac16-b0d2-41ee-a305-6c8a5a8258e8"},"vehicle_type_id":"4","last_reported":1752689780,"current_range_meters":16400,"station_id":"ce4bhb92rcd13ifvqen0","pricing_plan_id":"cebpf4jnsgd1na2vs0mg"},{"bike_id":"f1e9e722-d054-490d-b0eb-fa2dfdb4ffa3","system_id":"levelo_inurba_marseille","lat":43.28618,"lon":5.35096,"is_reserved":false,"is_disabled":false,"rental_uris":{"android":"levelo://app?vid=f1e9e722-d054-490d-b0eb-fa2dfdb4ffa3","ios":"levelo://app?vid=f1e9e722-d054-490d-b0eb-fa2dfdb4ffa3"},"vehicle_type_id":"4","last_reported":1752689780,"current_range_meters":16400,"station_id":"ce4bhch2rcd13ifvqeug","pricing_plan_id":"cebpf4jnsgd1na2vs0mg"},{"bike_id":"9090e647-a713-44ba-b392-5ac73cd154dd","system_id":"levelo_inurba_marseille","lat":43.23068,"lon":5.3548,"is_reserved":false,"is_disabled":false,"rental_uris":{"android":"levelo://app?vid=9090e647-a713-44ba-b392-5ac73cd154dd","ios":"levelo://app?vid=9090e647-a713-44ba-b392-5ac73cd154dd"},"vehicle_type_id":"4","last_reported":1752689780,"current_range_meters":16400,"station_id":"cpo3342slgdg3j2ifvpg","pricing_plan_id":"cebpf4jnsgd1na2vs0mg"},{"bike_id":"555bc53e-5286-4fb6-9154-af42b3fd9792","system_id":"levelo_inurba_marseille","lat":43.30074,"lon":5.37279,"is_reserved":false,"is_disabled":false,"rental_uris":{"android":"levelo://app?vid=555bc53e-5286-4fb6-9154-af42b3fd9792","ios":"levelo://app?vid=555bc53e-5286-4fb6-9154-af42b3fd9792"},"vehicle_type_id":"4","last_reported":1752689780,"current_range_meters":16400,"station_id":"","pricing_plan_id":"cebpf4jnsgd1na2vs0mg"},{"bike_id":"c0117119-7431-419b-82ad-32c16f997116","system_id":"levelo_inurba_marseille","lat":43.27608,"lon":5.36079,"is_reserved":false,"is_disabled":false,"rental_uris":{"android":"levelo://app?vid=c0117119-7431-419b-82ad-32c16f997116","ios":"levelo://app?vid=c0117119-7431-419b-82ad-32c16f997116"},"vehicle_type_id":"4","last_reported":1752689780,"current_range_meters":16400,"station_id":"ce4bgj92rcd13ifvqbe0","pricing_plan_id":"cebpf4jnsgd1na2vs0mg"},{"bike_id":"fd5d87fa-2c8d-486a-b79f-bd125f2d59df","system_id":"levelo_inurba_marseille","lat":43.29982,"lon":5.38498,"is_reserved":false,"is_disabled":false,"rental_uris":{"android":"levelo://app?vid=fd5d87fa-2c8d-486a-b79f-bd125f2d59df","ios":"levelo://app?vid=fd5d87fa-2c8d-486a-b79f-bd125f2d59df"},"vehicle_type_id":"4","last_reported":1752689780,"current_range_meters":16400,"station_id":"ce4bgj92rcd13ifvqbd0","pricing_plan_id":"cebpf4jnsgd1na2vs0mg"},{"bike_id":"285aaa26-07be-4c4a-9be9-3c0873597bc5","system_id":"levelo_inurba_marseille","lat":43.296,"lon":5.36728,"is_reserved":false,"is_disabled":false,"rental_uris":{"android":"levelo://app?vid=285aaa26-07be-4c4a-9be9-3c0873597bc5","ios":"levelo://app?vid=285aaa26-07be-4c4a-9be9-3c0873597bc5"},"vehicle_type_id":"4","last_reported":1752689780,"current_range_meters":16400,"station_id":"ce4bgph2rcd13ifvqc2g","pricing_plan_id":"cebpf4jnsgd1na2vs0mg"},{"bike_id":"b399da78-cf63-4de2-b505-0740a1d1e170","system_id":"levelo_inurba_marseille","lat":43.22516,"lon":5.34766,"is_reserved":false,"is_disabled":false,"rental_uris":{"android":"levelo://app?vid=b399da78-cf63-4de2-b505-0740a1d1e170","ios":"levelo://app?vid=b399da78-cf63-4de2-b505-0740a1d1e170"},"vehicle_type_id":"4","last_reported":1752689780,"current_range_meters":16400,"station_id":"st_cvj5dfep6f1abm77gieg","pricing_plan_id":"cebpf4jnsgd1na2vs0mg"},{"bike_id":"39c6203f-25ee-487c-9399-b36ef495fc6b","system_id":"levelo_inurba_marseille","lat":43.24071,"lon":5.37694,"is_reserved":false,"is_disabled":false,"rental_uris":{"android":"levelo://app?vid=39c6203f-25ee-487c-9399-b36ef495fc6b","ios":"levelo://app?vid=39c6203f-25ee-487c-9399-b36ef495fc6b"},"vehicle_type_id":"4","last_reported":1752689780,"current_range_meters":16400,"station_id":"ce4bhnp2rcd13ifvqgvg","pricing_plan_id":"cebpf4jnsgd1na2vs0mg"},{"bike_id":"23aea49e-3be5-46af-b900-481df4dbf21f","system_id":"levelo_inurba_marseille","lat":43.29201,"lon":5.39308,"is_reserved":false,"is_disabled":false,"rental_uris":{"android":"levelo://app?vid=23aea49e-3be5-46af-b900-481df4dbf21f","ios":"levelo://app?vid=23aea49e-3be5-46af-b900-481df4dbf21f"},"vehicle_type_id":"4","last_reported":1752689780,"current_range_meters":16400,"station_id":"ce4bh192rcd13ifvqdd0","pricing_plan_id":"cebpf4jnsgd1na2vs0mg"},{"bike_id":"243ff24d-c224-4f6c-8766-a9a443123038","system_id":"levelo_inurba_marseille","lat":43.239611,"lon":5.366283,"is_reserved":false,"is_disabled":false,"rental_uris":{"android":"levelo://app?vid=243ff24d-c224-4f6c-8766-a9a443123038","ios":"levelo://app?vid=243ff24d-c224-4f6c-8766-a9a443123038"},"vehicle_type_id":"4","last_reported":1752689780,"current_range_meters":16400,"station_id":"ce4bhi12rcd13ifvqfp0","pricing_plan_id":"cebpf4jnsgd1na2vs0mg"},{"bike_id":"50e152cf-edc9-4bc9-8232-19cb41a00858","system_id":"levelo_inurba_marseille","lat":43.28425,"lon":5.34983,"is_reserved":false,"is_disabled":false,"rental_uris":{"android":"levelo://app?vid=50e152cf-edc9-4bc9-8232-19cb41a00858","ios":"levelo://app?vid=50e152cf-edc9-4bc9-8232-19cb41a00858"},"vehicle_type_id":"4","last_reported":1752689780,"current_range_meters":16800,"station_id":"ce4bhbh2rcd13ifvqepg","pricing_plan_id":"cebpf4jnsgd1na2vs0mg"},{"bike_id":"4585d3d9-927c-4e53-b40f-af14d32f9bdc","system_id":"levelo_inurba_marseille","lat":43.28157,"lon":5.42647,"is_reserved":false,"is_disabled":false,"rental_uris":{"android":"levelo://app?vid=4585d3d9-927c-4e53-b40f-af14d32f9bdc","ios":"levelo://app?vid=4585d3d9-927c-4e53-b40f-af14d32f9bdc"},"vehicle_type_id":"4","last_reported":1752689780,"current_range_meters":16800,"station_id":"ce4bhnh2rcd13ifvqgug","pricing_plan_id":"cebpf4jnsgd1na2vs0mg"},{"bike_id":"00715fa3-6b5a-405a-a682-545cb9c42fa3","system_id":"levelo_inurba_marseille","lat":43.2907,"lon":5.37128,"is_reserved":false,"is_disabled":false,"rental_uris":{"android":"levelo://app?vid=00715fa3-6b5a-405a-a682-545cb9c42fa3","ios":"levelo://app?vid=00715fa3-6b5a-405a-a682-545cb9c42fa3"},"vehicle_type_id":"4","last_reported":1752689780,"current_range_meters":16800,"station_id":"ce4bh5p2rcd13ifvqe4g","pricing_plan_id":"cebpf4jnsgd1na2vs0mg"},{"bike_id":"3444bdc6-514a-4ba6-9650-f9073305e33d","system_id":"levelo_inurba_marseille","lat":43.29682,"lon":5.3698,"is_reserved":false,"is_disabled":false,"rental_uris":{"android":"levelo://app?vid=3444bdc6-514a-4ba6-9650-f9073305e33d","ios":"levelo://app?vid=3444bdc6-514a-4ba6-9650-f9073305e33d"},"vehicle_type_id":"4","last_reported":1752689780,"current_range_meters":16800,"station_id":"","pricing_plan_id":"cebpf4jnsgd1na2vs0mg"},{"bike_id":"34e62ee5-3131-428c-842a-9ad03de94ba5","system_id":"levelo_inurba_marseille","lat":43.22504,"lon":5.34731,"is_reserved":false,"is_disabled":false,"rental_uris":{"android":"levelo://app?vid=34e62ee5-3131-428c-842a-9ad03de94ba5","ios":"levelo://app?vid=34e62ee5-3131-428c-842a-9ad03de94ba5"},"vehicle_type_id":"4","last_reported":1752689780,"current_range_meters":16800,"station_id":"st_cvj5dfep6f1abm77gieg","pricing_plan_id":"cebpf4jnsgd1na2vs0mg"},{"bike_id":"bcde9883-e98f-4a92-909e-e5fd6f77c809","system_id":"levelo_inurba_marseille","lat":43.29904,"lon":5.43645,"is_reserved":false,"is_disabled":false,"rental_uris":{"android":"levelo://app?vid=bcde9883-e98f-4a92-909e-e5fd6f77c809","ios":"levelo://app?vid=bcde9883-e98f-4a92-909e-e5fd6f77c809"},"vehicle_type_id":"4","last_reported":1752689780,"current_range_meters":16800,"station_id":"ce4bhpp2rcd13ifvqhfg","pricing_plan_id":"cebpf4jnsgd1na2vs0mg"},{"bike_id":"d11a1a1c-dbfd-4300-b234-e689d8c0a077","system_id":"levelo_inurba_marseille","lat":43.22929,"lon":5.35372,"is_reserved":false,"is_disabled":false,"rental_uris":{"android":"levelo://app?vid=d11a1a1c-dbfd-4300-b234-e689d8c0a077","ios":"levelo://app?vid=d11a1a1c-dbfd-4300-b234-e689d8c0a077"},"vehicle_type_id":"4","last_reported":1752689780,"current_range_meters":16800,"station_id":"cpo3532slgdg3j2ikp40","pricing_plan_id":"cebpf4jnsgd1na2vs0mg"},{"bike_id":"e10c15d0-ff1d-4bed-9079-c96f7968c0b7","system_id":"levelo_inurba_marseille","lat":43.2893,"lon":5.38371,"is_reserved":false,"is_disabled":false,"rental_uris":{"android":"levelo://app?vid=e10c15d0-ff1d-4bed-9079-c96f7968c0b7","ios":"levelo://app?vid=e10c15d0-ff1d-4bed-9079-c96f7968c0b7"},"vehicle_type_id":"4","last_reported":1752689780,"current_range_meters":16800,"station_id":"ce4bh612rcd13ifvqe6g","pricing_plan_id":"cebpf4jnsgd1na2vs0mg"},{"bike_id":"761350d9-0dac-46b7-a5f9-176d5ba9b822","system_id":"levelo_inurba_marseille","lat":43.28411,"lon":5.34987,"is_reserved":false,"is_disabled":false,"rental_uris":{"android":"levelo://app?vid=761350d9-0dac-46b7-a5f9-176d5ba9b822","ios":"levelo://app?vid=761350d9-0dac-46b7-a5f9-176d5ba9b822"},"vehicle_type_id":"4","last_reported":1752689780,"current_range_meters":16800,"station_id":"ce4bhbh2rcd13ifvqepg","pricing_plan_id":"cebpf4jnsgd1na2vs0mg"},{"bike_id":"7f960582-ee2a-4bf8-8405-9463c57ea834","system_id":"levelo_inurba_marseille","lat":43.298676,"lon":5.397399,"is_reserved":false,"is_disabled":false,"rental_uris":{"android":"levelo://app?vid=7f960582-ee2a-4bf8-8405-9463c57ea834","ios":"levelo://app?vid=7f960582-ee2a-4bf8-8405-9463c57ea834"},"vehicle_type_id":"4","last_reported":1752689780,"current_range_meters":16800,"station_id":"ce4bh0h2rcd13ifvqd50","pricing_plan_id":"cebpf4jnsgd1na2vs0mg"},{"bike_id":"07f5ae19-0925-43ef-aab4-48ec58bc62b9","system_id":"levelo_inurba_marseille","lat":43.31459,"lon":5.37441,"is_reserved":false,"is_disabled":false,"rental_uris":{"android":"levelo://app?vid=07f5ae19-0925-43ef-aab4-48ec58bc62b9","ios":"levelo://app?vid=07f5ae19-0925-43ef-aab4-48ec58bc62b9"},"vehicle_type_id":"4","last_reported":1752689780,"current_range_meters":16800,"station_id":"","pricing_plan_id":"cebpf4jnsgd1na2vs0mg"},{"bike_id":"8417ad62-2136-4647-b89c-f46e0aabae59","system_id":"levelo_inurba_marseille","lat":43.22935,"lon":5.35348,"is_reserved":false,"is_disabled":false,"rental_uris":{"android":"levelo://app?vid=8417ad62-2136-4647-b89c-f46e0aabae59","ios":"levelo://app?vid=8417ad62-2136-4647-b89c-f46e0aabae59"},"vehicle_type_id":"4","last_reported":1752689780,"current_range_meters":16800,"station_id":"cpo3532slgdg3j2ikp40","pricing_plan_id":"cebpf4jnsgd1na2vs0mg"},{"bike_id":"b0913f93-a684-4140-9689-82edfbc4235d","system_id":"levelo_inurba_marseille","lat":43.21195,"lon":5.35068,"is_reserved":false,"is_disabled":false,"rental_uris":{"android":"levelo://app?vid=b0913f93-a684-4140-9689-82edfbc4235d","ios":"levelo://app?vid=b0913f93-a684-4140-9689-82edfbc4235d"},"vehicle_type_id":"4","last_reported":1752689780,"current_range_meters":17200,"station_id":"st_cvj6sg6p6f1abm77japg","pricing_plan_id":"cebpf4jnsgd1na2vs0mg"},{"bike_id":"46270db4-21bc-4a8e-907f-6963856f4406","system_id":"levelo_inurba_marseille","lat":43.29013,"lon":5.35604,"is_reserved":false,"is_disabled":false,"rental_uris":{"android":"levelo://app?vid=46270db4-21bc-4a8e-907f-6963856f4406","ios":"levelo://app?vid=46270db4-21bc-4a8e-907f-6963856f4406"},"vehicle_type_id":"4","last_reported":1752689780,"current_range_meters":17200,"station_id":"ce4bhb92rcd13ifvqen0","pricing_plan_id":"cebpf4jnsgd1na2vs0mg"},{"bike_id":"44dffcb4-a9c3-49da-8c1e-239cb8704fa7","system_id":"levelo_inurba_marseille","lat":43.29195,"lon":5.35811,"is_reserved":false,"is_disabled":false,"rental_uris":{"android":"levelo://app?vid=44dffcb4-a9c3-49da-8c1e-239cb8704fa7","ios":"levelo://app?vid=44dffcb4-a9c3-49da-8c1e-239cb8704fa7"},"vehicle_type_id":"4","last_reported":1752689780,"current_range_meters":17200,"station_id":"ce4bhb12rcd13ifvqel0","pricing_plan_id":"cebpf4jnsgd1na2vs0mg"},{"bike_id":"8acdf02c-787e-4a1e-956a-5c94a3dff06a","system_id":"levelo_inurba_marseille","lat":43.28509,"lon":5.40561,"is_reserved":false,"is_disabled":false,"rental_uris":{"android":"levelo://app?vid=8acdf02c-787e-4a1e-956a-5c94a3dff06a","ios":"levelo://app?vid=8acdf02c-787e-4a1e-956a-5c94a3dff06a"},"vehicle_type_id":"4","last_reported":1752689780,"current_range_meters":17200,"station_id":"","pricing_plan_id":"cebpf4jnsgd1na2vs0mg"},{"bike_id":"cde34f09-c0fd-42cd-818c-167e586dec6a","system_id":"levelo_inurba_marseille","lat":43.25496,"lon":5.37641,"is_reserved":false,"is_disabled":false,"rental_uris":{"android":"levelo://app?vid=cde34f09-c0fd-42cd-818c-167e586dec6a","ios":"levelo://app?vid=cde34f09-c0fd-42cd-818c-167e586dec6a"},"vehicle_type_id":"4","last_reported":1752689780,"current_range_meters":17200,"station_id":"ce4bhh12rcd13ifvqff0","pricing_plan_id":"cebpf4jnsgd1na2vs0mg"},{"bike_id":"ff5c8968-3975-479f-9d7b-125d882ea4b6","system_id":"levelo_inurba_marseille","lat":43.28411,"lon":5.3499,"is_reserved":false,"is_disabled":false,"rental_uris":{"android":"levelo://app?vid=ff5c8968-3975-479f-9d7b-125d882ea4b6","ios":"levelo://app?vid=ff5c8968-3975-479f-9d7b-125d882ea4b6"},"vehicle_type_id":"4","last_reported":1752689780,"current_range_meters":17200,"station_id":"ce4bhbh2rcd13ifvqepg","pricing_plan_id":"cebpf4jnsgd1na2vs0mg"},{"bike_id":"f16fd62d-3486-4255-92cb-51edd8ca3be7","system_id":"levelo_inurba_marseille","lat":43.29004,"lon":5.35614,"is_reserved":false,"is_disabled":false,"rental_uris":{"android":"levelo://app?vid=f16fd62d-3486-4255-92cb-51edd8ca3be7","ios":"levelo://app?vid=f16fd62d-3486-4255-92cb-51edd8ca3be7"},"vehicle_type_id":"4","last_reported":1752689780,"current_range_meters":17200,"station_id":"ce4bhb92rcd13ifvqen0","pricing_plan_id":"cebpf4jnsgd1na2vs0mg"},{"bike_id":"0113d280-522b-4679-bde9-135a6a8591f2","system_id":"levelo_inurba_marseille","lat":43.21201,"lon":5.35053,"is_reserved":false,"is_disabled":false,"rental_uris":{"android":"levelo://app?vid=0113d280-522b-4679-bde9-135a6a8591f2","ios":"levelo://app?vid=0113d280-522b-4679-bde9-135a6a8591f2"},"vehicle_type_id":"4","last_reported":1752689780,"current_range_meters":17200,"station_id":"st_cvj6sg6p6f1abm77japg","pricing_plan_id":"cebpf4jnsgd1na2vs0mg"},{"bike_id":"9ea21a78-1f21-408c-8ad4-839883b517a9","system_id":"levelo_inurba_marseille","lat":43.29708,"lon":5.37692,"is_reserved":false,"is_disabled":false,"rental_uris":{"android":"levelo://app?vid=9ea21a78-1f21-408c-8ad4-839883b517a9","ios":"levelo://app?vid=9ea21a78-1f21-408c-8ad4-839883b517a9"},"vehicle_type_id":"4","last_reported":1752689780,"current_range_meters":17200,"station_id":"ce4bgkh2rcd13ifvqbl0","pricing_plan_id":"cebpf4jnsgd1na2vs0mg"},{"bike_id":"960c76e2-61c0-4d8e-8ec3-d8045e8c0f1d","system_id":"levelo_inurba_marseille","lat":43.29035,"lon":5.39968,"is_reserved":false,"is_disabled":false,"rental_uris":{"android":"levelo://app?vid=960c76e2-61c0-4d8e-8ec3-d8045e8c0f1d","ios":"levelo://app?vid=960c76e2-61c0-4d8e-8ec3-d8045e8c0f1d"},"vehicle_type_id":"4","last_reported":1752689780,"current_range_meters":17200,"station_id":"ce4bh392rcd13ifvqdm0","pricing_plan_id":"cebpf4jnsgd1na2vs0mg"},{"bike_id":"15e281ac-ac0d-4b6f-b426-fa5c002bd7ee","system_id":"levelo_inurba_marseille","lat":43.27681,"lon":5.38903,"is_reserved":false,"is_disabled":true,"rental_uris":{"android":"levelo://app?vid=15e281ac-ac0d-4b6f-b426-fa5c002bd7ee","ios":"levelo://app?vid=15e281ac-ac0d-4b6f-b426-fa5c002bd7ee"},"vehicle_type_id":"4","last_reported":1752689780,"current_range_meters":17600,"station_id":"ce4bhi12rcd13ifvqfo0","pricing_plan_id":"cebpf4jnsgd1na2vs0mg"},{"bike_id":"f6e67167-3686-4cae-82da-4610049996dc","system_id":"levelo_inurba_marseille","lat":43.26932,"lon":5.38525,"is_reserved":false,"is_disabled":false,"rental_uris":{"android":"levelo://app?vid=f6e67167-3686-4cae-82da-4610049996dc","ios":"levelo://app?vid=f6e67167-3686-4cae-82da-4610049996dc"},