{"last_updated":1706036753,"ttl":30,"version":"2.2","data":{"bikes":[{"bike_id":"e21ab596-aeff-49f4-98bc-51eb59d27d6b","system_id":"levelo_inurba_marseille","lat":43.309076,"lon":5.368465,"is_reserved":false,"is_disabled":false,"rental_uris":{"android":"levelo://app?vid=e21ab596-aeff-49f4-98bc-51eb59d27d6b","ios":"levelo://app?vid=e21ab596-aeff-49f4-98bc-51eb59d27d6b"},"vehicle_type_id":"4","last_reported":1706036753,"current_range_meters":6800,"station_id":"ce4bgn92rcd13ifvqbvg","pricing_plan_id":"free"},{"bike_id":"e26226f3-d81d-44df-8ff2-73876a6b93d8","system_id":"levelo_inurba_marseille","lat":43.314811,"lon":5.373103,"is_reserved":false,"is_disabled":false,"rental_uris":{"android":"levelo://app?vid=e26226f3-d81d-44df-8ff2-73876a6b93d8","ios":"levelo://app?vid=e26226f3-d81d-44df-8ff2-73876a6b93d8"},"vehicle_type_id":"4","last_reported":1706036753,"current_range_meters":20000,"station_id":"ce4bgt12rcd13ifvqcd0","pricing_plan_id":"free"},{"bike_id":"dac9df68-8fcb-4eb1-aa58-8e4dd2bd8f0f","system_id":"levelo_inurba_marseille","lat":43.309034,"lon":5.371783,"is_reserved":false,"is_disabled":false,"rental_uris":{"android":"levelo://app?vid=dac9df68-8fcb-4eb1-aa58-8e4dd2bd8f0f","ios":"levelo://app?vid=dac9df68-8fcb-4eb1-aa58-8e4dd2bd8f0f"},"vehicle_type_id":"4","last_reported":1706036753,"current_range_meters":15600,"station_id":"ce4bguh2rcd13ifvqckg","pricing_plan_id":"free"},{"bike_id":"7f96e3f3-ab65-4c76-8a0f-7495c187655a","system_id":"levelo_inurba_marseille","lat":43.30893,"lon":5.37204,"is_reserved":false,"is_disabled":false,"rental_uris":{"android":"levelo://app?vid=7f96e3f3-ab65-4c76-8a0f-7495c187655a","ios":"levelo://app?vid=7f96e3f3-ab65-4c76-8a0f-7495c187655a"},"vehicle_type_id":"4","last_reported":1706036753,"current_range_meters":25200,"station_id":"ce4bguh2rcd13ifvqckg","pricing_plan_id":"free"},{"bike_id":"a8d77321-966f-4bf9-aff0-a21047dc58fd","system_id":"levelo_inurba_marseille","lat":43.30891,"lon":5.37202,"is_reserved":false,"is_disabled":false,"rental_uris":{"android":"levelo://app?vid=a8d77321-966f-4bf9-aff0-a21047dc58fd","ios":"levelo://app?vid=a8d77321-966f-4bf9-aff0-a21047dc58fd"},"vehicle_type_id":"4","last_reported":1706036753,"current_range_meters":28000,"station_id":"ce4bguh2rcd13ifvqckg","pricing_plan_id":"free"},{"bike_id":"5a7e5407-1aea-4cab-82e3-d8be5338198f","system_id":"levelo_inurba_marseille","lat":43.30615,"lon":5.36683,"is_reserved":false,"is_disabled":false,"rental_uris":{"android":"levelo://app?vid=5a7e5407-1aea-4cab-82e3-d8be5338198f","ios":"levelo://app?vid=5a7e5407-1aea-4cab-82e3-d8be5338198f"},"vehicle_type_id":"4","last_reported":1706036753,"current_range_meters":0,"station_id":"","pricing_plan_id":"free"},{"bike_id":"6dc6ec3e-2dc5-4c3c-a8d8-885729987551","system_id":"levelo_inurba_marseille","lat":43.305989,"lon":5.37225,"is_reserved":false,"is_disabled":false,"rental_uris":{"android":"levelo://app?vid=6dc6ec3e-2dc5-4c3c-a8d8-885729987551","ios":"levelo://app?vid=6dc6ec3e-2dc5-4c3c-a8d8-885729987551"},"vehicle_type_id":"4","last_reported":1706036753,"current_range_meters":6000,"station_id":"ce4bgqh2rcd13ifvqc4g","pricing_plan_id":"free"},{"bike_id":"65dee7cd-5ce2-4341-9d6d-f622f49e8a47","system_id":"levelo_inurba_marseille","lat":43.307945,"lon":5.376487,"is_reserved":false,"is_disabled":false,"rental_uris":{"android":"levelo://app?vid=65dee7cd-5ce2-4341-9d6d-f622f49e8a47","ios":"levelo://app?vid=65dee7cd-5ce2-4341-9d6d-f622f49e8a47"},"vehicle_type_id":"4","last_reported":1706036753,"current_range_meters":2000,"station_id":"ce4bgv92rcd13ifvqcq0","pricing_plan_id":"free"},{"bike_id":"e62af578-95ff-4753-a5fc-0e812bb2f6d3","system_id":"levelo_inurba_marseille","lat":43.307945,"lon":5.376487,"is_reserved":false,"is_disabled":false,"rental_uris":{"android":"levelo://app?vid=e62af578-95ff-4753-a5fc-0e812bb2f6d3","ios":"levelo://app?vid=e62af578-95ff-4753-a5fc-0e812bb2f6d3"},"vehicle_type_id":"4","last_reported":1706036753,"current_range_meters":15200,"station_id":"ce4bgv92rcd13ifvqcq0","pricing_plan_id":"free"},{"bike_id":"d7854f2c-e25b-4567-9ca1-100b79dde627","system_id":"levelo_inurba_marseille","lat":43.31713,"lon":5.37692,"is_reserved":false,"is_disabled":false,"rental_uris":{"android":"levelo://app?vid=d7854f2c-e25b-4567-9ca1-100b79dde627","ios":"levelo://app?vid=d7854f2c-e25b-4567-9ca1-100b79dde627"},"vehicle_type_id":"4","last_reported":1706036753,"current_range_meters":13600,"station_id":"ce4bgth2rcd13ifvqch0","pricing_plan_id":"free"},{"bike_id":"5119c2b5-71d4-4438-a425-3796bf01944a","system_id":"levelo_inurba_marseille","lat":43.317075,"lon":5.377367,"is_reserved":false,"is_disabled":false,"rental_uris":{"android":"levelo://app?vid=5119c2b5-71d4-4438-a425-3796bf01944a","ios":"levelo://app?vid=5119c2b5-71d4-4438-a425-3796bf01944a"},"vehicle_type_id":"4","last_reported":1706036753,"current_range_meters":26000,"station_id":"ce4bgth2rcd13ifvqch0","pricing_plan_id":"free"},{"bike_id":"4ab61cc9-1949-4ab5-bcf1-8f07c54632b5","system_id":"levelo_inurba_marseille","lat":43.310558,"lon":5.3816,"is_reserved":false,"is_disabled":false,"rental_uris":{"android":"levelo://app?vid=4ab61cc9-1949-4ab5-bcf1-8f07c54632b5","ios":"levelo://app?vid=4ab61cc9-1949-4ab5-bcf1-8f07c54632b5"},"vehicle_type_id":"4","last_reported":1706036753,"current_range_meters":20000,"station_id":"","pricing_plan_id":"free"},{"bike_id":"87adad9b-1fc8-4f7e-97de-ba3598268ab3","system_id":"levelo_inurba_marseille","lat":43.308012,"lon":5.381511,"is_reserved":false,"is_disabled":false,"rental_uris":{"android":"levelo://app?vid=87adad9b-1fc8-4f7e-97de-ba3598268ab3","ios":"levelo://app?vid=87adad9b-1fc8-4f7e-97de-ba3598268ab3"},"vehicle_type_id":"4","last_reported":1706036753,"current_range_meters":3600,"station_id":"ce4bgt12rcd13ifvqce0","pricing_plan_id":"free"},{"bike_id":"961fbd83-8340-4c95-b29b-908c620ba050","system_id":"levelo_inurba_marseille","lat":43.308012,"lon":5.381511,"is_reserved":false,"is_disabled":false,"rental_uris":{"android":"levelo://app?vid=961fbd83-8340-4c95-b29b-908c620ba050","ios":"levelo://app?vid=961fbd83-8340-4c95-b29b-908c620ba050"},"vehicle_type_id":"4","last_reported":1706036753,"current_range_meters":13600,"station_id":"ce4bgt12rcd13ifvqce0","pricing_plan_id":"free"},{"bike_id":"da54d21b-68ea-4673-8cc5-be1c6d17975d","system_id":"levelo_inurba_marseille","lat":43.308012,"lon":5.381511,"is_reserved":false,"is_disabled":false,"rental_uris":{"android":"levelo://app?vid=da54d21b-68ea-4673-8cc5-be1c6d17975d","ios":"levelo://app?vid=da54d21b-68ea-4673-8cc5-be1c6d17975d"},"vehicle_type_id":"4","last_reported":1706036753,"current_range_meters":22400,"station_id":"ce4bgt12rcd13ifvqce0","pricing_plan_id":"free"},{"bike_id":"026dd225-3632-43ad-82a0-cc07dee5f5f8","system_id":"levelo_inurba_marseille","lat":43.308012,"lon":5.381511,"is_reserved":false,"is_disabled":false,"rental_uris":{"android":"levelo://app?vid=026dd225-3632-43ad-82a0-cc07dee5f5f8","ios":"levelo://app?vid=026dd225-3632-43ad-82a0-cc07dee5f5f8"},"vehicle_type_id":"4","last_reported":1706036753,"current_range_meters":9600,"station_id":"ce4bgt12rcd13ifvqce0","pricing_plan_id":"free"},{"bike_id":"7eedcb35-c30c-4f22-8ac8-e8053092deb1","system_id":"levelo_inurba_marseille","lat":43.308012,"lon":5.381511,"is_reserved":false,"is_disabled":false,"rental_uris":{"android":"levelo://app?vid=7eedcb35-c30c-4f22-8ac8-e8053092deb1","ios":"levelo://app?vid=7eedcb35-c30c-4f22-8ac8-e8053092deb1"},"vehicle_type_id":"4","last_reported":1706036753,"current_range_meters":14000,"station_id":"ce4bgt12rcd13ifvqce0","pricing_plan_id":"free"},{"bike_id":"5eb89afe-c51f-4ff8-8e66-71558e6cd7e3","system_id":"levelo_inurba_marseille","lat":43.324771,"lon":5.36557,"is_reserved":false,"is_disabled":false,"rental_uris":{"android":"levelo://app?vid=5eb89afe-c51f-4ff8-8e66-71558e6cd7e3","ios":"levelo://app?vid=5eb89afe-c51f-4ff8-8e66-71558e6cd7e3"},"vehicle_type_id":"4","last_reported":1706036753,"current_range_meters":8400,"station_id":"ce4bhs12rcd13ifvqhvg","pricing_plan_id":"free"},{"bike_id":"f4d43637-748a-42ca-b475-983a409d336b","system_id":"levelo_inurba_marseille","lat":43.324771,"lon":5.36557,"is_reserved":false,"is_disabled":false,"rental_uris":{"android":"levelo://app?vid=f4d43637-748a-42ca-b475-983a409d336b","ios":"levelo://app?vid=f4d43637-748a-42ca-b475-983a409d336b"},"vehicle_type_id":"4","last_reported":1706036753,"current_range_meters":16800,"station_id":"ce4bhs12rcd13ifvqhvg","pricing_plan_id":"free"},{"bike_id":"de38129a-14a5-4972-8c33-cab29d9b0864","system_id":"levelo_inurba_marseille","lat":43.302698,"lon":5.377026,"is_reserved":false,"is_disabled":false,"rental_uris":{"android":"levelo://app?vid=de38129a-14a5-4972-8c33-cab29d9b0864","ios":"levelo://app?vid=de38129a-14a5-4972-8c33-cab29d9b0864"},"vehicle_type_id":"4","last_reported":1706036753,"current_range_meters":26800,"station_id":"ce4bguh2rcd13ifvqcj0","pricing_plan_id":"free"},{"bike_id":"74a504c3-d39a-463b-b094-e41b3a8d118e","system_id":"levelo_inurba_marseille","lat":43.301429,"lon":5.37413,"is_reserved":false,"is_disabled":false,"rental_uris":{"android":"levelo://app?vid=74a504c3-d39a-463b-b094-e41b3a8d118e","ios":"levelo://app?vid=74a504c3-d39a-463b-b094-e41b3a8d118e"},"vehicle_type_id":"4","last_reported":1706036753,"current_range_meters":31200,"station_id":"ce4bgs92rcd13ifvqcc0","pricing_plan_id":"free"},{"bike_id":"dc49a2bc-c54f-43f8-bdaf-bfb9096d0275","system_id":"levelo_inurba_marseille","lat":43.319935,"lon":5.381699,"is_reserved":false,"is_disabled":false,"rental_uris":{"android":"levelo://app?vid=dc49a2bc-c54f-43f8-bdaf-bfb9096d0275","ios":"levelo://app?vid=dc49a2bc-c54f-43f8-bdaf-bfb9096d0275"},"vehicle_type_id":"4","last_reported":1706036753,"current_range_meters":6400,"station_id":"ce4bhr12rcd13ifvqhpg","pricing_plan_id":"free"},{"bike_id":"db5640b8-520d-4779-8ec1-4a4bc253b2f8","system_id":"levelo_inurba_marseille","lat":43.319935,"lon":5.381699,"is_reserved":false,"is_disabled":false,"rental_uris":{"android":"levelo://app?vid=db5640b8-520d-4779-8ec1-4a4bc253b2f8","ios":"levelo://app?vid=db5640b8-520d-4779-8ec1-4a4bc253b2f8"},"vehicle_type_id":"4","last_reported":1706036753,"current_range_meters":10000,"station_id":"ce4bhr12rcd13ifvqhpg","pricing_plan_id":"free"},{"bike_id":"3ce3e68d-0313-40cb-afa9-858c717ce4c9","system_id":"levelo_inurba_marseille","lat":43.319935,"lon":5.381699,"is_reserved":false,"is_disabled":false,"rental_uris":{"android":"levelo://app?vid=3ce3e68d-0313-40cb-afa9-858c717ce4c9","ios":"levelo://app?vid=3ce3e68d-0313-40cb-afa9-858c717ce4c9"},"vehicle_type_id":"4","last_reported":1706036753,"current_range_meters":22400,"station_id":"ce4bhr12rcd13ifvqhpg","pricing_plan_id":"free"},{"bike_id":"88483b5e-a393-4bfe-9800-1971f45b7e52","system_id":"levelo_inurba_marseille","lat":43.319935,"lon":5.381699,"is_reserved":false,"is_disabled":false,"rental_uris":{"android":"levelo://app?vid=88483b5e-a393-4bfe-9800-1971f45b7e52","ios":"levelo://app?vid=88483b5e-a393-4bfe-9800-1971f45b7e52"},"vehicle_type_id":"4","last_reported":1706036753,"current_range_meters":20000,"station_id":"ce4bhr12rcd13ifvqhpg","pricing_plan_id":"free"},{"bike_id":"4c2d4969-44b3-4b99-ac08-166dc554d101","system_id":"levelo_inurba_marseille","lat":43.319935,"lon":5.381699,"is_reserved":false,"is_disabled":false,"rental_uris":{"android":"levelo://app?vid=4c2d4969-44b3-4b99-ac08-166dc554d101","ios":"levelo://app?vid=4c2d4969-44b3-4b99-ac08-166dc554d101"},"vehicle_type_id":"4","last_reported":1706036753,"current_range_meters":3200,"station_id":"ce4bhr12rcd13ifvqhpg","pricing_plan_id":"free"},{"bike_id":"00646b3f-5cf3-4e84-bfb8-47e4dcf2da8c","system_id":"levelo_inurba_marseille","lat":43.319935,"lon":5.381699,"is_reserved":false,"is_disabled":false,"rental_uris":{"android":"levelo://app?vid=00646b3f-5cf3-4e84-bfb8-47e4dcf2da8c","ios":"levelo://app?vid=00646b3f-5cf3-4e84-bfb8-47e4dcf2da8c"},"vehicle_type_id":"4","last_reported":1706036753,"current_range_meters":4000,"station_id":"ce4bhr12rcd13ifvqhpg","pricing_plan_id":"free"},{"bike_id":"fd388e30-6c90-4fbf-abdf-dd15ef425659","system_id":"levelo_inurba_marseille","lat":43.319967,"lon":5.381565,"is_reserved":false,"is_disabled":false,"rental_uris":{"android":"levelo://app?vid=fd388e30-6c90-4fbf-abdf-dd15ef425659","ios":"levelo://app?vid=fd388e30-6c90-4fbf-abdf-dd15ef425659"},"vehicle_type_id":"4","last_reported":1706036753,"current_range_meters":20800,"station_id":"ce4bhr12rcd13ifvqhpg","pricing_plan_id":"free"},{"bike_id":"cc49fb07-820d-4047-984c-6077647af278","system_id":"levelo_inurba_marseille","lat":43.319935,"lon":5.381699,"is_reserved":false,"is_disabled":false,"rental_uris":{"android":"levelo://app?vid=cc49fb07-820d-4047-984c-6077647af278","ios":"levelo://app?vid=cc49fb07-820d-4047-984c-6077647af278"},"vehicle_type_id":"4","last_reported":1706036753,"current_range_meters":22000,"station_id":"ce4bhr12rcd13ifvqhpg","pricing_plan_id":"free"},{"bike_id":"a39cfb70-5717-4ecb-bf2d-a36c3cafa75b","system_id":"levelo_inurba_marseille","lat":43.313571,"lon":5.384829,"is_reserved":false,"is_disabled":false,"rental_uris":{"android":"levelo://app?vid=a39cfb70-5717-4ecb-bf2d-a36c3cafa75b","ios":"levelo://app?vid=a39cfb70-5717-4ecb-bf2d-a36c3cafa75b"},"vehicle_type_id":"4","last_reported":1706036753,"current_range_meters":11600,"station_id":"ce4bgt92rcd13ifvqcf0","pricing_plan_id":"free"},{"bike_id":"26473e6c-6aa5-4477-be16-b83b681d1fa5","system_id":"levelo_inurba_marseille","lat":43.319935,"lon":5.381699,"is_reserved":false,"is_disabled":false,"rental_uris":{"android":"levelo://app?vid=26473e6c-6aa5-4477-be16-b83b681d1fa5","ios":"levelo://app?vid=26473e6c-6aa5-4477-be16-b83b681d1fa5"},"vehicle_type_id":"4","last_reported":1706036753,"current_range_meters":17600,"station_id":"ce4bhr12rcd13ifvqhpg","pricing_plan_id":"free"},{"bike_id":"35982c45-77a1-4628-8f1a-6c09a93aaa22","system_id":"levelo_inurba_marseille","lat":43.313571,"lon":5.384829,"is_reserved":false,"is_disabled":false,"rental_uris":{"android":"levelo://app?vid=35982c45-77a1-4628-8f1a-6c09a93aaa22","ios":"levelo://app?vid=35982c45-77a1-4628-8f1a-6c09a93aaa22"},"vehicle_type_id":"4","last_reported":1706036753,"current_range_meters":23200,"station_id":"ce4bgt92rcd13ifvqcf0","pricing_plan_id":"free"},{"bike_id":"d87078bd-be56-40a8-a9a5-b622c33fa043","system_id":"levelo_inurba_marseille","lat":43.313571,"lon":5.384829,"is_reserved":false,"is_disabled":false,"rental_uris":{"android":"levelo://app?vid=d87078bd-be56-40a8-a9a5-b622c33fa043","ios":"levelo://app?vid=d87078bd-be56-40a8-a9a5-b622c33fa043"},"vehicle_type_id":"4","last_reported":1706036753,"current_range_meters":5600,"station_id":"ce4bgt92rcd13ifvqcf0","pricing_plan_id":"free"},{"bike_id":"b50399c3-1af2-47ab-b44a-262d7c001484","system_id":"levelo_inurba_marseille","lat":43.313571,"lon":5.384829,"is_reserved":false,"is_disabled":false,"rental_uris":{"android":"levelo://app?vid=b50399c3-1af2-47ab-b44a-262d7c001484","ios":"levelo://app?vid=b50399c3-1af2-47ab-b44a-262d7c001484"},"vehicle_type_id":"4","last_reported":1706036753,"current_range_meters":400,"station_id":"ce4bgt92rcd13ifvqcf0","pricing_plan_id":"free"},{"bike_id":"491b487f-a0ac-4eb3-8964-d75faf8ee422","system_id":"levelo_inurba_marseille","lat":43.313571,"lon":5.384829,"is_reserved":false,"is_disabled":false,"rental_uris":{"android":"levelo://app?vid=491b487f-a0ac-4eb3-8964-d75faf8ee422","ios":"levelo://app?vid=491b487f-a0ac-4eb3-8964-d75faf8ee422"},"vehicle_type_id":"4","last_reported":1706036753,"current_range_meters":20000,"station_id":"ce4bgt92rcd13ifvqcf0","pricing_plan_id":"free"},{"bike_id":"9186a8af-d83c-43ee-b333-fa0e3abc90b4","system_id":"levelo_inurba_marseille","lat":43.313571,"lon":5.384829,"is_reserved":false,"is_disabled":false,"rental_uris":{"android":"levelo://app?vid=9186a8af-d83c-43ee-b333-fa0e3abc90b4","ios":"levelo://app?vid=9186a8af-d83c-43ee-b333-fa0e3abc90b4"},"vehicle_type_id":"4","last_reported":1706036753,"current_range_meters":6800,"station_id":"ce4bgt92rcd13ifvqcf0","pricing_plan_id":"free"},{"bike_id":"607838c4-b050-4fc8-a8bd-c3c1c3ca3b28","system_id":"levelo_inurba_marseille","lat":43.313571,"lon":5.384829,"is_reserved":false,"is_disabled":false,"rental_uris":{"android":"levelo://app?vid=607838c4-b050-4fc8-a8bd-c3c1c3ca3b28","ios":"levelo://app?vid=607838c4-b050-4fc8-a8bd-c3c1c3ca3b28"},"vehicle_type_id":"4","last_reported":1706036753,"current_range_meters":15200,"station_id":"ce4bgt92rcd13ifvqcf0","pricing_plan_id":"free"},{"bike_id":"8a638abf-daa0-48f0-badb-d7723266567b","system_id":"levelo_inurba_marseille","lat":43.313571,"lon":5.384829,"is_reserved":false,"is_disabled":false,"rental_uris":{"android":"levelo://app?vid=8a638abf-daa0-48f0-badb-d7723266567b","ios":"levelo://app?vid=8a638abf-daa0-48f0-badb-d7723266567b"},"vehicle_type_id":"4","last_reported":1706036753,"current_range_meters":16800,"station_id":"ce4bgt92rcd13ifvqcf0","pricing_plan_id":"free"},{"bike_id":"2b46f170-a0a9-4dce-a6d7-49f6e8654fe6","system_id":"levelo_inurba_marseille","lat":43.299222,"lon":5.365554,"is_reserved":false,"is_disabled":false,"rental_uris":{"android":"levelo://app?vid=2b46f170-a0a9-4dce-a6d7-49f6e8654fe6","ios":"levelo://app?vid=2b46f170-a0a9-4dce-a6d7-49f6e8654fe6"},"vehicle_type_id":"4","last_reported":1706036753,"current_range_meters":22000,"station_id":"ce4bgm92rcd13ifvqbr0","pricing_plan_id":"free"},{"bike_id":"4bccf8ba-e4cb-4153-a40a-43a9e236f9fe","system_id":"levelo_inurba_marseille","lat":43.311722,"lon":5.387247,"is_reserved":false,"is_disabled":false,"rental_uris":{"android":"levelo://app?vid=4bccf8ba-e4cb-4153-a40a-43a9e236f9fe","ios":"levelo://app?vid=4bccf8ba-e4cb-4153-a40a-43a9e236f9fe"},"vehicle_type_id":"4","last_reported":1706036753,"current_range_meters":800,"station_id":"ce4bgv12rcd13ifvqcp0","pricing_plan_id":"free"},{"bike_id":"82111cc0-128e-43cb-a4c3-c0a66daa394d","system_id":"levelo_inurba_marseille","lat":43.311722,"lon":5.387247,"is_reserved":false,"is_disabled":false,"rental_uris":{"android":"levelo://app?vid=82111cc0-128e-43cb-a4c3-c0a66daa394d","ios":"levelo://app?vid=82111cc0-128e-43cb-a4c3-c0a66daa394d"},"vehicle_type_id":"4","last_reported":1706036753,"current_range_meters":15600,"station_id":"ce4bgv12rcd13ifvqcp0","pricing_plan_id":"free"},{"bike_id":"a5eab93a-98fb-47fc-9252-cb341c71bc75","system_id":"levelo_inurba_marseille","lat":43.29779,"lon":5.37089,"is_reserved":false,"is_disabled":false,"rental_uris":{"android":"levelo://app?vid=a5eab93a-98fb-47fc-9252-cb341c71bc75","ios":"levelo://app?vid=a5eab93a-98fb-47fc-9252-cb341c71bc75"},"vehicle_type_id":"4","last_reported":1706036753,"current_range_meters":0,"station_id":"ce4bgop2rcd13ifvqc1g","pricing_plan_id":"free"},{"bike_id":"171d2d26-404a-4d95-bf44-3dcfca9fe8aa","system_id":"levelo_inurba_marseille","lat":43.322872,"lon":5.382756,"is_reserved":false,"is_disabled":false,"rental_uris":{"android":"levelo://app?vid=171d2d26-404a-4d95-bf44-3dcfca9fe8aa","ios":"levelo://app?vid=171d2d26-404a-4d95-bf44-3dcfca9fe8aa"},"vehicle_type_id":"4","last_reported":1706036753,"current_range_meters":21600,"station_id":"ce4bhr12rcd13ifvqhqg","pricing_plan_id":"free"},{"bike_id":"455aa212-be06-4400-9478-d2f1e827f201","system_id":"levelo_inurba_marseille","lat":43.322872,"lon":5.382756,"is_reserved":false,"is_disabled":false,"rental_uris":{"android":"levelo://app?vid=455aa212-be06-4400-9478-d2f1e827f201","ios":"levelo://app?vid=455aa212-be06-4400-9478-d2f1e827f201"},"vehicle_type_id":"4","last_reported":1706036753,"current_range_meters":22400,"station_id":"ce4bhr12rcd13ifvqhqg","pricing_plan_id":"free"},{"bike_id":"e654f202-6c69-4242-8f59-efc7b661b26a","system_id":"levelo_inurba_marseille","lat":43.322872,"lon":5.382756,"is_reserved":false,"is_disabled":false,"rental_uris":{"android":"levelo://app?vid=e654f202-6c69-4242-8f59-efc7b661b26a","ios":"levelo://app?vid=e654f202-6c69-4242-8f59-efc7b661b26a"},"vehicle_type_id":"4","last_reported":1706036753,"current_range_meters":20400,"station_id":"ce4bhr12rcd13ifvqhqg","pricing_plan_id":"free"},{"bike_id":"89789d60-57f9-4669-bae1-bd74942c359c","system_id":"levelo_inurba_marseille","lat":43.322872,"lon":5.382756,"is_reserved":false,"is_disabled":false,"rental_uris":{"android":"levelo://app?vid=89789d60-57f9-4669-bae1-bd74942c359c","ios":"levelo://app?vid=89789d60-57f9-4669-bae1-bd74942c359c"},"vehicle_type_id":"4","last_reported":1706036753,"current_range_meters":18000,"station_id":"ce4bhr12rcd13ifvqhqg","pricing_plan_id":"free"},{"bike_id":"73755ba0-1381-4d5d-8750-d3a07d3f4c75","system_id":"levelo_inurba_marseille","lat":43.32824,"lon":5.36679,"is_reserved":false,"is_disabled":false,"rental_uris":{"android":"levelo://app?vid=73755ba0-1381-4d5d-8750-d3a07d3f4c75","ios":"levelo://app?vid=73755ba0-1381-4d5d-8750-d3a07d3f4c75"},"vehicle_type_id":"4","last_reported":1706036753,"current_range_meters":10000,"station_id":"ce4bhs92rcd13ifvqi0g","pricing_plan_id":"free"},{"bike_id":"6da9db5a-42ba-4fa8-afc9-4fdbb45498c1","system_id":"levelo_inurba_marseille","lat":43.328259,"lon":5.366784,"is_reserved":false,"is_disabled":false,"rental_uris":{"android":"levelo://app?vid=6da9db5a-42ba-4fa8-afc9-4fdbb45498c1","ios":"levelo://app?vid=6da9db5a-42ba-4fa8-afc9-4fdbb45498c1"},"vehicle_type_id":"4","last_reported":1706036753,"current_range_meters":18400,"station_id":"ce4bhs92rcd13ifvqi0g","pricing_plan_id":"free"},{"bike_id":"447532c0-56ca-46ac-9000-fea47d81b433","system_id":"levelo_inurba_marseille","lat":43.32826,"lon":5.36678,"is_reserved":false,"is_disabled":false,"rental_uris":{"android":"levelo://app?vid=447532c0-56ca-46ac-9000-fea47d81b433","ios":"levelo://app?vid=447532c0-56ca-46ac-9000-fea47d81b433"},"vehicle_type_id":"4","last_reported":1706036753,"current_range_meters":26400,"station_id":"ce4bhs92rcd13ifvqi0g","pricing_plan_id":"free"},{"bike_id":"572c30ca-2698-4ebb-9720-28d9ee8291d9","system_id":"levelo_inurba_marseille","lat":43.328261,"lon":5.366856,"is_reserved":false,"is_disabled":false,"rental_uris":{"android":"levelo://app?vid=572c30ca-2698-4ebb-9720-28d9ee8291d9","ios":"levelo://app?vid=572c30ca-2698-4ebb-9720-28d9ee8291d9"},"vehicle_type_id":"4","last_reported":1706036753,"current_range_meters":18000,"station_id":"ce4bhs92rcd13ifvqi0g","pricing_plan_id":"free"},{"bike_id":"e92d083a-dfb9-464f-a2d7-ffc480709cb3","system_id":"levelo_inurba_marseille","lat":43.328371,"lon":5.366912,"is_reserved":false,"is_disabled":false,"rental_uris":{"android":"levelo://app?vid=e92d083a-dfb9-464f-a2d7-ffc480709cb3","ios":"levelo://app?vid=e92d083a-dfb9-464f-a2d7-ffc480709cb3"},"vehicle_type_id":"4","last_reported":1706036753,"current_range_meters":13200,"station_id":"ce4bhs92rcd13ifvqi0g","pricing_plan_id":"free"},{"bike_id":"6851d2e7-d28c-47d0-964c-c2c15e7e3afe","system_id":"levelo_inurba_marseille","lat":43.328371,"lon":5.366909,"is_reserved":false,"is_disabled":false,"rental_uris":{"android":"levelo://app?vid=6851d2e7-d28c-47d0-964c-c2c15e7e3afe","ios":"levelo://app?vid=6851d2e7-d28c-47d0-964c-c2c15e7e3afe"},"vehicle_type_id":"4","last_reported":1706036753,"current_range_meters":4400,"station_id":"ce4bhs92rcd13ifvqi0g","pricing_plan_id":"free"},{"bike_id":"ea0178f3-2c6b-4af6-b062-91b0b8dde1df","system_id":"levelo_inurba_marseille","lat":43.32827,"lon":5.36687,"is_reserved":false,"is_disabled":false,"rental_uris":{"android":"levelo://app?vid=ea0178f3-2c6b-4af6-b062-91b0b8dde1df","ios":"levelo://app?vid=ea0178f3-2c6b-4af6-b062-91b0b8dde1df"},"vehicle_type_id":"4","last_reported":1706036753,"current_range_meters":9200,"station_id":"ce4bhs92rcd13ifvqi0g","pricing_plan_id":"free"},{"bike_id":"32a039db-eef1-4a0a-8c6a-17ab6d5d4eda","system_id":"levelo_inurba_marseille","lat":43.32827,"lon":5.36683,"is_reserved":false,"is_disabled":false,"rental_uris":{"android":"levelo://app?vid=32a039db-eef1-4a0a-8c6a-17ab6d5d4eda","ios":"levelo://app?vid=32a039db-eef1-4a0a-8c6a-17ab6d5d4eda"},"vehicle_type_id":"4","last_reported":1706036753,"current_range_meters":4800,"station_id":"ce4bhs92rcd13ifvqi0g","pricing_plan_id":"free"},{"bike_id":"6721428b-c74b-45c6-886b-c2d04f1acc8c","system_id":"levelo_inurba_marseille","lat":43.328276,"lon":5.3669,"is_reserved":false,"is_disabled":false,"rental_uris":{"android":"levelo://app?vid=6721428b-c74b-45c6-886b-c2d04f1acc8c","ios":"levelo://app?vid=6721428b-c74b-45c6-886b-c2d04f1acc8c"},"vehicle_type_id":"4","last_reported":1706036753,"current_range_meters":12800,"station_id":"ce4bhs92rcd13ifvqi0g","pricing_plan_id":"free"},{"bike_id":"204738f6-469d-4db3-bd14-c2b38ef5e726","system_id":"levelo_inurba_marseille","lat":43.328371,"lon":5.366912,"is_reserved":false,"is_disabled":false,"rental_uris":{"android":"levelo://app?vid=204738f6-469d-4db3-bd14-c2b38ef5e726","ios":"levelo://app?vid=204738f6-469d-4db3-bd14-c2b38ef5e726"},"vehicle_type_id":"4","last_reported":1706036753,"current_range_meters":23600,"station_id":"ce4bhs92rcd13ifvqi0g","pricing_plan_id":"free"},{"bike_id":"38d4b3c6-c1c4-4ada-b0ed-8e6826ac2770","system_id":"levelo_inurba_marseille","lat":43.328371,"lon":5.366912,"is_reserved":false,"is_disabled":false,"rental_uris":{"android":"levelo://app?vid=38d4b3c6-c1c4-4ada-b0ed-8e6826ac2770","ios":"levelo://app?vid=38d4b3c6-c1c4-4ada-b0ed-8e6826ac2770"},"vehicle_type_id":"4","last_reported":1706036753,"current_range_meters":17200,"station_id":"ce4bhs92rcd13ifvqi0g","pricing_plan_id":"free"},{"bike_id":"85cedcff-9e9a-415d-8415-195178ea3cb7","system_id":"levelo_inurba_marseille","lat":43.328285,"lon":5.366743,"is_reserved":false,"is_disabled":false,"rental_uris":{"android":"levelo://app?vid=85cedcff-9e9a-415d-8415-195178ea3cb7","ios":"levelo://app?vid=85cedcff-9e9a-415d-8415-195178ea3cb7"},"vehicle_type_id":"4","last_reported":1706036753,"current_range_meters":11200,"station_id":"ce4bhs92rcd13ifvqi0g","pricing_plan_id":"free"},{"bike_id":"d8b5260c-205c-4300-9784-22ead2fde86f","system_id":"levelo_inurba_marseille","lat":43.328371,"lon":5.366909,"is_reserved":false,"is_disabled":false,"rental_uris":{"android":"levelo://app?vid=d8b5260c-205c-4300-9784-22ead2fde86f","ios":"levelo://app?vid=d8b5260c-205c-4300-9784-22ead2fde86f"},"vehicle_type_id":"4","last_reported":1706036753,"current_range_meters":18400,"station_id":"ce4bhs92rcd13ifvqi0g","pricing_plan_id":"free"},{"bike_id":"5b7aaccd-f0dd-4bc4-a5b7-1581df3aca1d","system_id":"levelo_inurba_marseille","lat":43.328371,"lon":5.366909,"is_reserved":false,"is_disabled":false,"rental_uris":{"android":"levelo://app?vid=5b7aaccd-f0dd-4bc4-a5b7-1581df3aca1d","ios":"levelo://app?vid=5b7aaccd-f0dd-4bc4-a5b7-1581df3aca1d"},"vehicle_type_id":"4","last_reported":1706036753,"current_range_meters":14800,"station_id":"ce4bhs92rcd13ifvqi0g","pricing_plan_id":"free"},{"bike_id":"c28774a6-9066-49b2-8f94-7ce64e5a8a12","system_id":"levelo_inurba_marseille","lat":43.328371,"lon":5.366909,"is_reserved":false,"is_disabled":false,"rental_uris":{"android":"levelo://app?vid=c28774a6-9066-49b2-8f94-7ce64e5a8a12","ios":"levelo://app?vid=c28774a6-9066-49b2-8f94-7ce64e5a8a12"},"vehicle_type_id":"4","last_reported":1706036753,"current_range_meters":14000,"station_id":"ce4bhs92rcd13ifvqi0g","pricing_plan_id":"free"},{"bike_id":"f529af8b-6eb5-4dad-b929-2be8fdbdd47b","system_id":"levelo_inurba_marseille","lat":43.328371,"lon":5.366909,"is_reserved":false,"is_disabled":false,"rental_uris":{"android":"levelo://app?vid=f529af8b-6eb5-4dad-b929-2be8fdbdd47b","ios":"levelo://app?vid=f529af8b-6eb5-4dad-b929-2be8fdbdd47b"},"vehicle_type_id":"4","last_reported":1706036753,"current_range_meters":29600,"station_id":"ce4bhs92rcd13ifvqi0g","pricing_plan_id":"free"},{"bike_id":"8e2e258c-9f25-408c-8291-bf6e5ba33180","system_id":"levelo_inurba_marseille","lat":43.328371,"lon":5.366909,"is_reserved":false,"is_disabled":false,"rental_uris":{"android":"levelo://app?vid=8e2e258c-9f25-408c-8291-bf6e5ba33180","ios":"levelo://app?vid=8e2e258c-9f25-408c-8291-bf6e5ba33180"},"vehicle_type_id":"4","last_reported":1706036753,"current_range_meters":28800,"station_id":"ce4bhs92rcd13ifvqi0g","pricing_plan_id":"free"},{"bike_id":"fb5c81e7-2e43-4803-b381-527ab4102689","system_id":"levelo_inurba_marseille","lat":43.328371,"lon":5.366909,"is_reserved":false,"is_disabled":false,"rental_uris":{"android":"levelo://app?vid=fb5c81e7-2e43-4803-b381-527ab4102689","ios":"levelo://app?vid=fb5c81e7-2e43-4803-b381-527ab4102689"},"vehicle_type_id":"4","last_reported":1706036753,"current_range_meters":31200,"station_id":"ce4bhs92rcd13ifvqi0g","pricing_plan_id":"free"},{"bike_id":"21cafbb6-7b4b-47d6-b374-eb670bdee3d1","system_id":"levelo_inurba_marseille","lat":43.328371,"lon":5.366909,"is_reserved":false,"is_disabled":false,"rental_uris":{"android":"levelo://app?vid=21cafbb6-7b4b-47d6-b374-eb670bdee3d1","ios":"levelo://app?vid=21cafbb6-7b4b-47d6-b374-eb670bdee3d1"},"vehicle_type_id":"4","last_reported":1706036753,"current_range_meters":23600,"station_id":"ce4bhs92rcd13ifvqi0g","pricing_plan_id":"free"},{"bike_id":"79d2d98a-29f2-4ffd-ae01-bfd8a1fa05d5","system_id":"levelo_inurba_marseille","lat":43.328371,"lon":5.366912,"is_reserved":false,"is_disabled":false,"rental_uris":{"android":"levelo://app?vid=79d2d98a-29f2-4ffd-ae01-bfd8a1fa05d5","ios":"levelo://app?vid=79d2d98a-29f2-4ffd-ae01-bfd8a1fa05d5"},"vehicle_type_id":"4","last_reported":1706036753,"current_range_meters":30000,"station_id":"ce4bhs92rcd13ifvqi0g","pricing_plan_id":"free"},{"bike_id":"80b8cc97-33c9-40d9-9a3c-6356fac99859","system_id":"levelo_inurba_marseille","lat":43.297163,"lon":5.365866,"is_reserved":false,"is_disabled":false,"rental_uris":{"android":"levelo://app?vid=80b8cc97-33c9-40d9-9a3c-6356fac99859","ios":"levelo://app?vid=80b8cc97-33c9-40d9-9a3c-6356fac99859"},"vehicle_type_id":"4","last_reported":1706036753,"current_range_meters":23600,"station_id":"ce4bgn12rcd13ifvqbt0","pricing_plan_id":"free"},{"bike_id":"ad32d1c0-0a4c-4152-8c29-fea173cfe935","system_id":"levelo_inurba_marseille","lat":43.295923,"lon":5.367913,"is_reserved":false,"is_disabled":false,"rental_uris":{"android":"levelo://app?vid=ad32d1c0-0a4c-4152-8c29-fea173cfe935","ios":"levelo://app?vid=ad32d1c0-0a4c-4152-8c29-fea173cfe935"},"vehicle_type_id":"4","last_reported":1706036753,"current_range_meters":17600,"station_id":"","pricing_plan_id":"free"},{"bike_id":"96cfce48-6233-4382-995e-ab2fa54c8cd9","system_id":"levelo_inurba_marseille","lat":43.29573,"lon":5.367355,"is_reserved":false,"is_disabled":false,"rental_uris":{"android":"levelo://app?vid=96cfce48-6233-4382-995e-ab2fa54c8cd9","ios":"levelo://app?vid=96cfce48-6233-4382-995e-ab2fa54c8cd9"},"vehicle_type_id":"4","last_reported":1706036753,"current_range_meters":27600,"station_id":"ce4bgph2rcd13ifvqc2g","pricing_plan_id":"free"},{"bike_id":"6af10fdd-fd7e-41d1-8acc-3bf86fa0bbcf","system_id":"levelo_inurba_marseille","lat":43.296131,"lon":5.370791,"is_reserved":false,"is_disabled":false,"rental_uris":{"android":"levelo://app?vid=6af10fdd-fd7e-41d1-8acc-3bf86fa0bbcf","ios":"levelo://app?vid=6af10fdd-fd7e-41d1-8acc-3bf86fa0bbcf"},"vehicle_type_id":"4","last_reported":1706036753,"current_range_meters":18000,"station_id":"ce4bgnh2rcd13ifvqc0g","pricing_plan_id":"free"},{"bike_id":"23033842-655e-427b-a949-eb219499da45","system_id":"levelo_inurba_marseille","lat":43.29573,"lon":5.367355,"is_reserved":false,"is_disabled":false,"rental_uris":{"android":"levelo://app?vid=23033842-655e-427b-a949-eb219499da45","ios":"levelo://app?vid=23033842-655e-427b-a949-eb219499da45"},"vehicle_type_id":"4","last_reported":1706036753,"current_range_meters":2800,"station_id":"ce4bgph2rcd13ifvqc2g","pricing_plan_id":"free"},{"bike_id":"d33a190b-2e89-43a5-af23-5afccab646a9","system_id":"levelo_inurba_marseille","lat":43.299028,"lon":5.381509,"is_reserved":false,"is_disabled":false,"rental_uris":{"android":"levelo://app?vid=d33a190b-2e89-43a5-af23-5afccab646a9","ios":"levelo://app?vid=d33a190b-2e89-43a5-af23-5afccab646a9"},"vehicle_type_id":"4","last_reported":1706036753,"current_range_meters":24400,"station_id":"ce4bgj12rcd13ifvqbc0","pricing_plan_id":"free"},{"bike_id":"d5991bdd-af27-4cd8-b756-4741384173d8","system_id":"levelo_inurba_marseille","lat":43.317557,"lon":5.390173,"is_reserved":false,"is_disabled":false,"rental_uris":{"android":"levelo://app?vid=d5991bdd-af27-4cd8-b756-4741384173d8","ios":"levelo://app?vid=d5991bdd-af27-4cd8-b756-4741384173d8"},"vehicle_type_id":"4","last_reported":1706036753,"current_range_meters":6400,"station_id":"ce4bhqp2rcd13ifvqhng","pricing_plan_id":"free"},{"bike_id":"5e58bc89-a83f-4a2c-a8ad-50952a28d6e5","system_id":"levelo_inurba_marseille","lat":43.317557,"lon":5.390173,"is_reserved":false,"is_disabled":false,"rental_uris":{"android":"levelo://app?vid=5e58bc89-a83f-4a2c-a8ad-50952a28d6e5","ios":"levelo://app?vid=5e58bc89-a83f-4a2c-a8ad-50952a28d6e5"},"vehicle_type_id":"4","last_reported":1706036753,"current_range_meters":31600,"station_id":"ce4bhqp2rcd13ifvqhng","pricing_plan_id":"free"},{"bike_id":"a8ee9d30-40b0-4853-b58c-0e424c6eee67","system_id":"levelo_inurba_marseille","lat":43.317557,"lon":5.390173,"is_reserved":false,"is_disabled":false,"rental_uris":{"android":"levelo://app?vid=a8ee9d30-40b0-4853-b58c-0e424c6eee67","ios":"levelo://app?vid=a8ee9d30-40b0-4853-b58c-0e424c6eee67"},"vehicle_type_id":"4","last_reported":1706036753,"current_range_meters":0,"station_id":"ce4bhqp2rcd13ifvqhng","pricing_plan_id":"free"},{"bike_id":"7565a2be-b8a3-4c5d-9e60-7ec614fecda9","system_id":"levelo_inurba_marseille","lat":43.298037,"lon":5.381066,"is_reserved":false,"is_disabled":false,"rental_uris":{"android":"levelo://app?vid=7565a2be-b8a3-4c5d-9e60-7ec614fecda9","ios":"levelo://app?vid=7565a2be-b8a3-4c5d-9e60-7ec614fecda9"},"vehicle_type_id":"4","last_reported":1706036753,"current_range_meters":18400,"station_id":"ce4bgip2rcd13ifvqbb0","pricing_plan_id":"free"},{"bike_id":"b8557979-1cd1-4699-8b61-239daf002a70","system_id":"levelo_inurba_marseille","lat":43.298037,"lon":5.381066,"is_reserved":false,"is_disabled":false,"rental_uris":{"android":"levelo://app?vid=b8557979-1cd1-4699-8b61-239daf002a70","ios":"levelo://app?vid=b8557979-1cd1-4699-8b61-239daf002a70"},"vehicle_type_id":"4","last_reported":1706036753,"current_range_meters":15200,"station_id":"ce4bgip2rcd13ifvqbb0","pricing_plan_id":"free"},{"bike_id":"67bfd07a-d316-4305-80cd-71096016d0eb","system_id":"levelo_inurba_marseille","lat":43.298037,"lon":5.381066,"is_reserved":false,"is_disabled":false,"rental_uris":{"android":"levelo://app?vid=67bfd07a-d316-4305-80cd-71096016d0eb","ios":"levelo://app?vid=67bfd07a-d316-4305-80cd-71096016d0eb"},"vehicle_type_id":"4","last_reported":1706036753,"current_range_meters":2400,"station_id":"ce4bgip2rcd13ifvqbb0","pricing_plan_id":"free"},{"bike_id":"9742af36-229c-4c4c-9171-ef946773fcf0","system_id":"levelo_inurba_marseille","lat":43.304274,"lon":5.388873,"is_reserved":false,"is_disabled":false,"rental_uris":{"android":"levelo://app?vid=9742af36-229c-4c4c-9171-ef946773fcf0","ios":"levelo://app?vid=9742af36-229c-4c4c-9171-ef946773fcf0"},"vehicle_type_id":"4","last_reported":1706036753,"current_range_meters":4400,"station_id":"ce4bgk12rcd13ifvqbi0","pricing_plan_id":"free"},{"bike_id":"7ad9057d-6a5b-4dbd-be75-ccbcc97dc409","system_id":"levelo_inurba_marseille","lat":43.304278,"lon":5.388868,"is_reserved":false,"is_disabled":false,"rental_uris":{"android":"levelo://app?vid=7ad9057d-6a5b-4dbd-be75-ccbcc97dc409","ios":"levelo://app?vid=7ad9057d-6a5b-4dbd-be75-ccbcc97dc409"},"vehicle_type_id":"4","last_reported":1706036753,"current_range_meters":0,"station_id":"ce4bgk12rcd13ifvqbi0","pricing_plan_id":"free"},{"bike_id":"0445d1a9-e719-4b06-9390-673b6beb59ee","system_id":"levelo_inurba_marseille","lat":43.296277,"lon":5.377108,"is_reserved":false,"is_disabled":false,"rental_uris":{"android":"levelo://app?vid=0445d1a9-e719-4b06-9390-673b6beb59ee","ios":"levelo://app?vid=0445d1a9-e719-4b06-9390-673b6beb59ee"},"vehicle_type_id":"4","last_reported":1706036753,"current_range_meters":0,"station_id":"ce4bgi92rcd13ifvqb90","pricing_plan_id":"free"},{"bike_id":"9d47ea0a-f3f1-404f-93b2-c7ab852294c5","system_id":"levelo_inurba_marseille","lat":43.299724,"lon":5.384848,"is_reserved":false,"is_disabled":false,"rental_uris":{"android":"levelo://app?vid=9d47ea0a-f3f1-404f-93b2-c7ab852294c5","ios":"levelo://app?vid=9d47ea0a-f3f1-404f-93b2-c7ab852294c5"},"vehicle_type_id":"4","last_reported":1706036753,"current_range_meters":4400,"station_id":"ce4bgj92rcd13ifvqbd0","pricing_plan_id":"free"},{"bike_id":"2b5cb4cb-7e5b-4e62-b4e3-913ffafce94f","system_id":"levelo_inurba_marseille","lat":43.299724,"lon":5.384848,"is_reserved":false,"is_disabled":false,"rental_uris":{"android":"levelo://app?vid=2b5cb4cb-7e5b-4e62-b4e3-913ffafce94f","ios":"levelo://app?vid=2b5cb4cb-7e5b-4e62-b4e3-913ffafce94f"},"vehicle_type_id":"4","last_reported":1706036753,"current_range_meters":18000,"station_id":"ce4bgj92rcd13ifvqbd0","pricing_plan_id":"free"},{"bike_id":"c9eea976-792b-4f7b-96e7-dbd24d46abb5","system_id":"levelo_inurba_marseille","lat":43.299724,"lon":5.384848,"is_reserved":false,"is_disabled":false,"rental_uris":{"android":"levelo://app?vid=c9eea976-792b-4f7b-96e7-dbd24d46abb5","ios":"levelo://app?vid=c9eea976-792b-4f7b-96e7-dbd24d46abb5"},"vehicle_type_id":"4","last_reported":1706036753,"current_range_meters":12800,"station_id":"ce4bgj92rcd13ifvqbd0","pricing_plan_id":"free"},{"bike_id":"64313539-a8ac-46f3-9999-f136c9c5e68f","system_id":"levelo_inurba_marseille","lat":43.32367,"lon":5.388836,"is_reserved":false,"is_disabled":false,"rental_uris":{"android":"levelo://app?vid=64313539-a8ac-46f3-9999-f136c9c5e68f","ios":"levelo://app?vid=64313539-a8ac-46f3-9999-f136c9c5e68f"},"vehicle_type_id":"4","last_reported":1706036753,"current_range_meters":25600,"station_id":"ce4bhqp2rcd13ifvqhog","pricing_plan_id":"free"},{"bike_id":"777ab60e-ad89-4210-83a6-d09c5d5af88d","system_id":"levelo_inurba_marseille","lat":43.32367,"lon":5.388836,"is_reserved":false,"is_disabled":false,"rental_uris":{"android":"levelo://app?vid=777ab60e-ad89-4210-83a6-d09c5d5af88d","ios":"levelo://app?vid=777ab60e-ad89-4210-83a6-d09c5d5af88d"},"vehicle_type_id":"4","last_reported":1706036753,"current_range_meters":18400,"station_id":"ce4bhqp2rcd13ifvqhog","pricing_plan_id":"free"},{"bike_id":"b3ae146c-2436-4afb-b45a-3899af5aa2de","system_id":"levelo_inurba_marseille","lat":43.32367,"lon":5.388836,"is_reserved":false,"is_disabled":false,"rental_uris":{"android":"levelo://app?vid=b3ae146c-2436-4afb-b45a-3899af5aa2de","ios":"levelo://app?vid=b3ae146c-2436-4afb-b45a-3899af5aa2de"},"vehicle_type_id":"4","last_reported":1706036753,"current_range_meters":20800,"station_id":"ce4bhqp2rcd13ifvqhog","pricing_plan_id":"free"},{"bike_id":"0815fd59-50f6-4c3c-ba2b-b69db64db9bd","system_id":"levelo_inurba_marseille","lat":43.29315,"lon":5.37177,"is_reserved":false,"is_disabled":false,"rental_uris":{"android":"levelo://app?vid=0815fd59-50f6-4c3c-ba2b-b69db64db9bd","ios":"levelo://app?vid=0815fd59-50f6-4c3c-ba2b-b69db64db9bd"},"vehicle_type_id":"4","last_reported":1706036753,"current_range_meters":12800,"station_id":"ce4bgh92rcd13ifvqb40","pricing_plan_id":"free"},{"bike_id":"67f5060f-c83b-46fd-a0be-e3fe3fd14d0f","system_id":"levelo_inurba_marseille","lat":43.292749,"lon":5.368402,"is_reserved":false,"is_disabled":false,"rental_uris":{"android":"levelo://app?vid=67f5060f-c83b-46fd-a0be-e3fe3fd14d0f","ios":"levelo://app?vid=67f5060f-c83b-46fd-a0be-e3fe3fd14d0f"},"vehicle_type_id":"4","last_reported":1706036753,"current_range_meters":28400,"station_id":"ce4bhbp2rcd13ifvqesg","pricing_plan_id":"free"},{"bike_id":"c715ead0-0fd2-44a2-9149-86a23a126bfc","system_id":"levelo_inurba_marseille","lat":43.292749,"lon":5.368402,"is_reserved":false,"is_disabled":false,"rental_uris":{"android":"levelo://app?vid=c715ead0-0fd2-44a2-9149-86a23a126bfc","ios":"levelo://app?vid=c715ead0-0fd2-44a2-9149-86a23a126bfc"},"vehicle_type_id":"4","last_reported":1706036753,"current_range_meters":18400,"station_id":"ce4bhbp2rcd13ifvqesg","pricing_plan_id":"free"},{"bike_id":"978dd1ff-e906-49a4-a825-27992c9d1d44","system_id":"levelo_inurba_marseille","lat":43.292749,"lon":5.368402,"is_reserved":false,"is_disabled":false,"rental_uris":{"android":"levelo://app?vid=978dd1ff-e906-49a4-a825-27992c9d1d44","ios":"levelo://app?vid=978dd1ff-e906-49a4-a825-27992c9d1d44"},"vehicle_type_id":"4","last_reported":1706036753,"current_range_meters":2800,"station_id":"ce4bhbp2rcd13ifvqesg","pricing_plan_id":"free"},{"bike_id":"0bbd673b-c311-4443-8b46-1149b40bf851","system_id":"levelo_inurba_marseille","lat":43.29281,"lon":5.3684,"is_reserved":false,"is_disabled":false,"rental_uris":{"android":"levelo://app?vid=0bbd673b-c311-4443-8b46-1149b40bf851","ios":"levelo://app?vid=0bbd673b-c311-4443-8b46-1149b40bf851"},"vehicle_type_id":"4","last_reported":1706036753,"current_range_meters":13600,"station_id":"ce4bhbp2rcd13ifvqesg","pricing_plan_id":"free"},{"bike_id":"fe65d864-95e6-498c-9d55-ee9848d974b2","system_id":"levelo_inurba_marseille","lat":43.29308,"lon":5.37172,"is_reserved":false,"is_disabled":false,"rental_uris":{"android":"levelo://app?vid=fe65d864-95e6-498c-9d55-ee9848d974b2","ios":"levelo://app?vid=fe65d864-95e6-498c-9d55-ee9848d974b2"},"vehicle_type_id":"4","last_reported":1706036753,"current_range_meters":5600,"station_id":"ce4bgh92rcd13ifvqb40","pricing_plan_id":"free"},{"bike_id":"33874c0f-7144-4b53-a206-2ca9f306727d","system_id":"levelo_inurba_marseille","lat":43.29308,"lon":5.371785,"is_reserved":false,"is_disabled":false,"rental_uris":{"android":"levelo://app?vid=33874c0f-7144-4b53-a206-2ca9f306727d","ios":"levelo://app?vid=33874c0f-7144-4b53-a206-2ca9f306727d"},"vehicle_type_id":"4","last_reported":1706036753,"current_range_meters":15600,"station_id":"ce4bgh92rcd13ifvqb40","pricing_plan_id":"free"},{"bike_id":"aae46e62-189b-4518-bda6-4e7c2626fdea","system_id":"levelo_inurba_marseille","lat":43.293249,"lon":5.371578,"is_reserved":false,"is_disabled":false,"rental_uris":{"android":"levelo://app?vid=aae46e62-189b-4518-bda6-4e7c2626fdea","ios":"levelo://app?vid=aae46e62-189b-4518-bda6-4e7c2626fdea"},"vehicle_type_id":"4","last_reported":1706036753,"current_range_meters":16000,"station_id":"ce4bgh92rcd13ifvqb40","pricing_plan_id":"free"},{"bike_id":"9d667fee-5d72-4de8-88ab-6a5c9ff269b1","system_id":"levelo_inurba_marseille","lat":43.29306,"lon":5.37175,"is_reserved":false,"is_disabled":false,"rental_uris":{"android":"levelo://app?vid=9d667fee-5d72-4de8-88ab-6a5c9ff269b1","ios":"levelo://app?vid=9d667fee-5d72-4de8-88ab-6a5c9ff269b1"},"vehicle_type_id":"4","last_reported":1706036753,"current_range_meters":31200,"station_id":"ce4bgh92rcd13ifvqb40","pricing_plan_id":"free"},{"bike_id":"276f0358-9d82-4110-a6f5-2906bcf0670a","system_id":"levelo_inurba_marseille","lat":43.29305,"lon":5.37172,"is_reserved":false,"is_disabled":false,"rental_uris":{"android":"levelo://app?vid=276f0358-9d82-4110-a6f5-2906bcf0670a","ios":"levelo://app?vid=276f0358-9d82-4110-a6f5-2906bcf0670a"},"vehicle_type_id":"4","last_reported":1706036753,"current_range_meters":3200,"station_id":"ce4bgh92rcd13ifvqb40","pricing_plan_id":"free"},{"bike_id":"cc277ac8-082b-4150-afb3-7b070e00c78b","system_id":"levelo_inurba_marseille","lat":43.29304,"lon":5.37167,"is_reserved":false,"is_disabled":false,"rental_uris":{"android":"levelo://app?vid=cc277ac8-082b-4150-afb3-7b070e00c78b","ios":"levelo://app?vid=cc277ac8-082b-4150-afb3-7b070e00c78b"},"vehicle_type_id":"4","last_reported":1706036753,"current_range_meters":9600,"station_id":"ce4bgh92rcd13ifvqb40","pricing_plan_id":"free"},{"bike_id":"aa2c6c35-a968-4dbc-8354-1a571f50afac","system_id":"levelo_inurba_marseille","lat":43.292749,"lon":5.368402,"is_reserved":false,"is_disabled":false,"rental_uris":{"android":"levelo://app?vid=aa2c6c35-a968-4dbc-8354-1a571f50afac","ios":"levelo://app?vid=aa2c6c35-a968-4dbc-8354-1a571f50afac"},"vehicle_type_id":"4","last_reported":1706036753,"current_range_meters":14400,"station_id":"ce4bhbp2rcd13ifvqesg","pricing_plan_id":"free"},{"bike_id":"00d9cb6a-d3cc-431e-bab7-272d7690ca96","system_id":"levelo_inurba_marseille","lat":43.29303,"lon":5.37167,"is_reserved":false,"is_disabled":false,"rental_uris":{"android":"levelo://app?vid=00d9cb6a-d3cc-431e-bab7-272d7690ca96","ios":"levelo://app?vid=00d9cb6a-d3cc-431e-bab7-272d7690ca96"},"vehicle_type_id":"4","last_reported":1706036753,"current_range_meters":28400,"station_id":"ce4bgh92rcd13ifvqb40","pricing_plan_id":"free"},{"bike_id":"76289218-9439-43b2-a2a8-62149917f17d","system_id":"levelo_inurba_marseille","lat":43.292749,"lon":5.368402,"is_reserved":false,"is_disabled":false,"rental_uris":{"android":"levelo://app?vid=76289218-9439-43b2-a2a8-62149917f17d","ios":"levelo://app?vid=76289218-9439-43b2-a2a8-62149917f17d"},"vehicle_type_id":"4","last_reported":1706036753,"current_range_meters":9200,"station_id":"ce4bhbp2rcd13ifvqesg","pricing_plan_id":"free"},{"bike_id":"f9267e3e-e010-4c5d-be29-e0fb1e76912a","system_id":"levelo_inurba_marseille","lat":43.292749,"lon":5.368402,"is_reserved":false,"is_disabled":false,"rental_uris":{"android":"levelo://app?vid=f9267e3e-e010-4c5d-be29-e0fb1e76912a","ios":"levelo://app?vid=f9267e3e-e010-4c5d-be29-e0fb1e76912a"},"vehicle_type_id":"4","last_reported":1706036753,"current_range_meters":14000,"station_id":"ce4bhbp2rcd13ifvqesg","pricing_plan_id":"free"},{"bike_id":"3aa7afa9-31c9-412e-b41c-5eb00ac6866d","system_id":"levelo_inurba_marseille","lat":43.306353,"lon":5.393077,"is_reserved":false,"is_disabled":false,"rental_uris":{"android":"levelo://app?vid=3aa7afa9-31c9-412e-b41c-5eb00ac6866d","ios":"levelo://app?vid=3aa7afa9-31c9-412e-b41c-5eb00ac6866d"},"vehicle_type_id":"4","last_reported":1706036753,"current_range_meters":22400,"station_id":"","pricing_plan_id":"free"},{"bike_id":"36cfa10c-2e44-4b7b-94b5-03b52b9a9b82","system_id":"levelo_inurba_marseille","lat":43.292749,"lon":5.368402,"is_reserved":false,"is_disabled":false,"rental_uris":{"android":"levelo://app?vid=36cfa10c-2e44-4b7b-94b5-03b52b9a9b82","ios":"levelo://app?vid=36cfa10c-2e44-4b7b-94b5-03b52b9a9b82"},"vehicle_type_id":"4","last_reported":1706036753,"current_range_meters":16400,"station_id":"ce4bhbp2rcd13ifvqesg","pricing_plan_id":"free"},{"bike_id":"abdac075-a8ae-43c5-89ca-5df3f0feb10f","system_id":"levelo_inurba_marseille","lat":43.293009,"lon":5.374584,"is_reserved":false,"is_disabled":false,"rental_uris":{"android":"levelo://app?vid=abdac075-a8ae-43c5-89ca-5df3f0feb10f","ios":"levelo://app?vid=abdac075-a8ae-43c5-89ca-5df3f0feb10f"},"vehicle_type_id":"4","last_reported":1706036753,"current_range_meters":17200,"station_id":"ce4bgi12rcd13ifvqb70","pricing_plan_id":"free"},{"bike_id":"9d79aeb1-993d-4684-b995-08508d0ac6ad","system_id":"levelo_inurba_marseille","lat":43.293009,"lon":5.374584,"is_reserved":false,"is_disabled":false,"rental_uris":{"android":"levelo://app?vid=9d79aeb1-993d-4684-b995-08508d0ac6ad","ios":"levelo://app?vid=9d79aeb1-993d-4684-b995-08508d0ac6ad"},"vehicle_type_id":"4","last_reported":1706036753,"current_range_meters":8400,"station_id":"ce4bgi12rcd13ifvqb70","pricing_plan_id":"free"},{"bike_id":"6eb148cd-9a98-4a08-9833-146ccf58065f","system_id":"levelo_inurba_marseille","lat":43.305994,"lon":5.393687,"is_reserved":false,"is_disabled":false,"rental_uris":{"android":"levelo://app?vid=6eb148cd-9a98-4a08-9833-146ccf58065f","ios":"levelo://app?vid=6eb148cd-9a98-4a08-9833-146ccf58065f"},"vehicle_type_id":"4","last_reported":1706036753,"current_range_meters":23600,"station_id":"ce4bh0p2rcd13ifvqd80","pricing_plan_id":"free"},{"bike_id":"77207433-070c-488b-9266-26f9529cf742","system_id":"levelo_inurba_marseille","lat":43.297134,"lon":5.385456,"is_reserved":false,"is_disabled":false,"rental_uris":{"android":"levelo://app?vid=77207433-070c-488b-9266-26f9529cf742","ios":"levelo://app?vid=77207433-070c-488b-9266-26f9529cf742"},"vehicle_type_id":"4","last_reported":1706036753,"current_range_meters":0,"station_id":"","pricing_plan_id":"free"},{"bike_id":"108559eb-0086-4b88-8a12-331a614a5a79","system_id":"levelo_inurba_marseille","lat":43.294395,"lon":5.380315,"is_reserved":false,"is_disabled":false,"rental_uris":{"android":"levelo://app?vid=108559eb-0086-4b88-8a12-331a614a5a79","ios":"levelo://app?vid=108559eb-0086-4b88-8a12-331a614a5a79"},"vehicle_type_id":"4","last_reported":1706036753,"current_range_meters":13200,"station_id":"","pricing_plan_id":"free"},{"bike_id":"0fde3f99-e2ca-4f06-87be-3e008952a7f9","system_id":"levelo_inurba_marseille","lat":43.2936,"lon":5.37835,"is_reserved":false,"is_disabled":false,"rental_uris":{"android":"levelo://app?vid=0fde3f99-e2ca-4f06-87be-3e008952a7f9","ios":"levelo://app?vid=0fde3f99-e2ca-4f06-87be-3e008952a7f9"},"vehicle_type_id":"4","last_reported":1706036753,"current_range_meters":0,"station_id":"ce4bgjh2rcd13ifvqbf0","pricing_plan_id":"free"},{"bike_id":"68cc2d5f-e473-42b8-9aa2-b15aeb5bf2f4","system_id":"levelo_inurba_marseille","lat":43.300852,"lon":5.390859,"is_reserved":false,"is_disabled":false,"rental_uris":{"android":"levelo://app?vid=68cc2d5f-e473-42b8-9aa2-b15aeb5bf2f4","ios":"levelo://app?vid=68cc2d5f-e473-42b8-9aa2-b15aeb5bf2f4"},"vehicle_type_id":"4","last_reported":1706036753,"current_range_meters":25200,"station_id":"ce4bh192rcd13ifvqdb0","pricing_plan_id":"free"},{"bike_id":"7a9b78a0-68c8-4470-8dd4-31b715e9d5b2","system_id":"levelo_inurba_marseille","lat":43.292311,"lon":5.360731,"is_reserved":false,"is_disabled":false,"rental_uris":{"android":"levelo://app?vid=7a9b78a0-68c8-4470-8dd4-31b715e9d5b2","ios":"levelo://app?vid=7a9b78a0-68c8-4470-8dd4-31b715e9d5b2"},"vehicle_type_id":"4","last_reported":1706036753,"current_range_meters":4800,"station_id":"ce4bhbh2rcd13ifvqeqg","pricing_plan_id":"free"},{"bike_id":"43f89ca0-4197-43fa-9169-be7d95335002","system_id":"levelo_inurba_marseille","lat":43.298764,"lon":5.388973,"is_reserved":false,"is_disabled":false,"rental_uris":{"android":"levelo://app?vid=43f89ca0-4197-43fa-9169-be7d95335002","ios":"levelo://app?vid=43f89ca0-4197-43fa-9169-be7d95335002"},"vehicle_type_id":"4","last_reported":1706036753,"current_range_meters":14400,"station_id":"ce4bh392rcd13ifvqdl0","pricing_plan_id":"free"},{"bike_id":"9e184aff-7e24-4c1c-9dc6-879f33088cbb","system_id":"levelo_inurba_marseille","lat":43.298764,"lon":5.388973,"is_reserved":false,"is_disabled":false,"rental_uris":{"android":"levelo://app?vid=9e184aff-7e24-4c1c-9dc6-879f33088cbb","ios":"levelo://app?vid=9e184aff-7e24-4c1c-9dc6-879f33088cbb"},"vehicle_type_id":"4","last_reported":1706036753,"current_range_meters":15600,"station_id":"ce4bh392rcd13ifvqdl0","pricing_plan_id":"free"},{"bike_id":"dc0ad329-5138-4926-9ef1-118c963d7380","system_id":"levelo_inurba_marseille","lat":43.291671,"lon":5.371575,"is_reserved":false,"is_disabled":false,"rental_uris":{"android":"levelo://app?vid=dc0ad329-5138-4926-9ef1-118c963d7380","ios":"levelo://app?vid=dc0ad329-5138-4926-9ef1-118c963d7380"},"vehicle_type_id":"4","last_reported":1706036753,"current_range_meters":25200,"station_id":"ce4bha92rcd13ifvqeh0","pricing_plan_id":"free"},{"bike_id":"9116cf09-9fba-4069-a605-79a5f28ac432","system_id":"levelo_inurba_marseille","lat":43.291675,"lon":5.371583,"is_reserved":false,"is_disabled":false,"rental_uris":{"android":"levelo://app?vid=9116cf09-9fba-4069-a605-79a5f28ac432","ios":"levelo://app?vid=9116cf09-9fba-4069-a605-79a5f28ac432"},"vehicle_type_id":"4","last_reported":1706036753,"current_range_meters":1200,"station_id":"ce4bha92rcd13ifvqeh0","pricing_plan_id":"free"},{"bike_id":"80be8dc2-b2d4-45e9-a58a-607ce69f1450","system_id":"levelo_inurba_marseille","lat":43.298764,"lon":5.388973,"is_reserved":false,"is_disabled":false,"rental_uris":{"android":"levelo://app?vid=80be8dc2-b2d4-45e9-a58a-607ce69f1450","ios":"levelo://app?vid=80be8dc2-b2d4-45e9-a58a-607ce69f1450"},"vehicle_type_id":"4","last_reported":1706036753,"current_range_meters":0,"station_id":"ce4bh392rcd13ifvqdl0","pricing_plan_id":"free"},{"bike_id":"4c15e65c-1ba5-41d2-83d3-93f389df8282","system_id":"levelo_inurba_marseille","lat":43.291671,"lon":5.371575,"is_reserved":false,"is_disabled":false,"rental_uris":{"android":"levelo://app?vid=4c15e65c-1ba5-41d2-83d3-93f389df8282","ios":"levelo://app?vid=4c15e65c-1ba5-41d2-83d3-93f389df8282"},"vehicle_type_id":"4","last_reported":1706036753,"current_range_meters":800,"station_id":"ce4bha92rcd13ifvqeh0","pricing_plan_id":"free"},{"bike_id":"1c3684a5-4e4c-4929-9460-3d99be34492e","system_id":"levelo_inurba_marseille","lat":43.29871,"lon":5.38916,"is_reserved":false,"is_disabled":false,"rental_uris":{"android":"levelo://app?vid=1c3684a5-4e4c-4929-9460-3d99be34492e","ios":"levelo://app?vid=1c3684a5-4e4c-4929-9460-3d99be34492e"},"vehicle_type_id":"4","last_reported":1706036753,"current_range_meters":0,"station_id":"ce4bh392rcd13ifvqdl0","pricing_plan_id":"free"},{"bike_id":"1437198d-c291-4e07-b22b-defce5ee8e4d","system_id":"levelo_inurba_marseille","lat":43.29207,"lon":5.35793,"is_reserved":false,"is_disabled":false,"rental_uris":{"android":"levelo://app?vid=1437198d-c291-4e07-b22b-defce5ee8e4d","ios":"levelo://app?vid=1437198d-c291-4e07-b22b-defce5ee8e4d"},"vehicle_type_id":"4","last_reported":1706036753,"current_range_meters":0,"station_id":"ce4bhb12rcd13ifvqel0","pricing_plan_id":"free"},{"bike_id":"2378141d-6fe9-4791-9657-29fcf004c61d","system_id":"levelo_inurba_marseille","lat":43.29195,"lon":5.35801,"is_reserved":false,"is_disabled":false,"rental_uris":{"android":"levelo://app?vid=2378141d-6fe9-4791-9657-29fcf004c61d","ios":"levelo://app?vid=2378141d-6fe9-4791-9657-29fcf004c61d"},"vehicle_type_id":"4","last_reported":1706036753,"current_range_meters":400,"station_id":"ce4bhb12rcd13ifvqel0","pricing_plan_id":"free"},{"bike_id":"ee570c37-7e5b-4f34-854d-9f0e3f694527","system_id":"levelo_inurba_marseille","lat":43.313291,"lon":5.396838,"is_reserved":false,"is_disabled":false,"rental_uris":{"android":"levelo://app?vid=ee570c37-7e5b-4f34-854d-9f0e3f694527","ios":"levelo://app?vid=ee570c37-7e5b-4f34-854d-9f0e3f694527"},"vehicle_type_id":"4","last_reported":1706036753,"current_range_meters":15600,"station_id":"ce4bgvp2rcd13ifvqcu0","pricing_plan_id":"free"},{"bike_id":"5b490bd9-0499-493a-a2ec-f45059cbe722","system_id":"levelo_inurba_marseille","lat":43.313291,"lon":5.396838,"is_reserved":false,"is_disabled":false,"rental_uris":{"android":"levelo://app?vid=5b490bd9-0499-493a-a2ec-f45059cbe722","ios":"levelo://app?vid=5b490bd9-0499-493a-a2ec-f45059cbe722"},"vehicle_type_id":"4","last_reported":1706036753,"current_range_meters":10800,"station_id":"ce4bgvp2rcd13ifvqcu0","pricing_plan_id":"free"},{"bike_id":"86f516b8-f84c-4efe-9cdc-1ce35f94c9a7","system_id":"levelo_inurba_marseille","lat":43.313291,"lon":5.396838,"is_reserved":false,"is_disabled":false,"rental_uris":{"android":"levelo://app?vid=86f516b8-f84c-4efe-9cdc-1ce35f94c9a7","ios":"levelo://app?vid=86f516b8-f84c-4efe-9cdc-1ce35f94c9a7"},"vehicle_type_id":"4","last_reported":1706036753,"current_range_meters":29200,"station_id":"ce4bgvp2rcd13ifvqcu0","pricing_plan_id":"free"},{"bike_id":"ff875ee0-73df-4939-8475-9ffd332fd686","system_id":"levelo_inurba_marseille","lat":43.313291,"lon":5.396838,"is_reserved":false,"is_disabled":false,"rental_uris":{"android":"levelo://app?vid=ff875ee0-73df-4939-8475-9ffd332fd686","ios":"levelo://app?vid=ff875ee0-73df-4939-8475-9ffd332fd686"},"vehicle_type_id":"4","last_reported":1706036753,"current_range_meters":0,"station_id":"ce4bgvp2rcd13ifvqcu0","pricing_plan_id":"free"},{"bike_id":"0c778e07-043f-466b-9dca-1d3798620bf4","system_id":"levelo_inurba_marseille","lat":43.313291,"lon":5.396838,"is_reserved":false,"is_disabled":false,"rental_uris":{"android":"levelo://app?vid=0c778e07-043f-466b-9dca-1d3798620bf4","ios":"levelo://app?vid=0c778e07-043f-466b-9dca-1d3798620bf4"},"vehicle_type_id":"4","last_reported":1706036753,"current_range_meters":16400,"station_id":"ce4bgvp2rcd13ifvqcu0","pricing_plan_id":"free"},{"bike_id":"af2d124a-7840-4dfc-9937-692ad675833f","system_id":"levelo_inurba_marseille","lat":43.29529,"lon":5.385581,"is_reserved":false,"is_disabled":false,"rental_uris":{"android":"levelo://app?vid=af2d124a-7840-4dfc-9937-692ad675833f","ios":"levelo://app?vid=af2d124a-7840-4dfc-9937-692ad675833f"},"vehicle_type_id":"4","last_reported":1706036753,"current_range_meters":25200,"station_id":"ce4bgih2rcd13ifvqba0","pricing_plan_id":"free"},{"bike_id":"0ba7fdb6-238d-4215-b5d5-1fe0ab269387","system_id":"levelo_inurba_marseille","lat":43.29529,"lon":5.385581,"is_reserved":false,"is_disabled":false,"rental_uris":{"android":"levelo://app?vid=0ba7fdb6-238d-4215-b5d5-1fe0ab269387","ios":"levelo://app?vid=0ba7fdb6-238d-4215-b5d5-1fe0ab269387"},"vehicle_type_id":"4","last_reported":1706036753,"current_range_meters":800,"station_id":"ce4bgih2rcd13ifvqba0","pricing_plan_id":"free"},{"bike_id":"8f4ebd29-0c6d-455b-9c9c-3493f5773f90","system_id":"levelo_inurba_marseille","lat":43.308428,"lon":5.396786,"is_reserved":false,"is_disabled":false,"rental_uris":{"android":"levelo://app?vid=8f4ebd29-0c6d-455b-9c9c-3493f5773f90","ios":"levelo://app?vid=8f4ebd29-0c6d-455b-9c9c-3493f5773f90"},"vehicle_type_id":"4","last_reported":1706036753,"current_range_meters":23200,"station_id":"","pricing_plan_id":"free"},{"bike_id":"7393910a-c5d7-4454-bc3c-8e8a2cfadd91","system_id":"levelo_inurba_marseille","lat":43.290779,"lon":5.371482,"is_reserved":false,"is_disabled":false,"rental_uris":{"android":"levelo://app?vid=7393910a-c5d7-4454-bc3c-8e8a2cfadd91","ios":"levelo://app?vid=7393910a-c5d7-4454-bc3c-8e8a2cfadd91"},"vehicle_type_id":"4","last_reported":1706036753,"current_range_meters":12800,"station_id":"ce4bh5p2rcd13ifvqe4g","pricing_plan_id":"free"},{"bike_id":"0b1a97ec-61cb-42fe-ae1a-cc656fcd67df","system_id":"levelo_inurba_marseille","lat":43.290779,"lon":5.371482,"is_reserved":false,"is_disabled":false,"rental_uris":{"android":"levelo://app?vid=0b1a97ec-61cb-42fe-ae1a-cc656fcd67df","ios":"levelo://app?vid=0b1a97ec-61cb-42fe-ae1a-cc656fcd67df"},"vehicle_type_id":"4","last_reported":1706036753,"current_range_meters":16800,"station_id":"ce4bh5p2rcd13ifvqe4g","pricing_plan_id":"free"},{"bike_id":"4ccf35b3-18c5-44dc-9670-0942a5a14211","system_id":"levelo_inurba_marseille","lat":43.290779,"lon":5.371482,"is_reserved":false,"is_disabled":false,"rental_uris":{"android":"levelo://app?vid=4ccf35b3-18c5-44dc-9670-0942a5a14211","ios":"levelo://app?vid=4ccf35b3-18c5-44dc-9670-0942a5a14211"},"vehicle_type_id":"4","last_reported":1706036753,"current_range_meters":18800,"station_id":"ce4bh5p2rcd13ifvqe4g","pricing_plan_id":"free"},{"bike_id":"0d7f12ca-5a0e-42cb-b855-80678d2f7d5f","system_id":"levelo_inurba_marseille","lat":43.302008,"lon":5.394694,"is_reserved":false,"is_disabled":false,"rental_uris":{"android":"levelo://app?vid=0d7f12ca-5a0e-42cb-b855-80678d2f7d5f","ios":"levelo://app?vid=0d7f12ca-5a0e-42cb-b855-80678d2f7d5f"},"vehicle_type_id":"4","last_reported":1706036753,"current_range_meters":12000,"station_id":"ce4bh0p2rcd13ifvqd70","pricing_plan_id":"free"},{"bike_id":"b6cea5c4-3fd8-4b9f-b7c0-7c072005de33","system_id":"levelo_inurba_marseille","lat":43.290631,"lon":5.359244,"is_reserved":false,"is_disabled":false,"rental_uris":{"android":"levelo://app?vid=b6cea5c4-3fd8-4b9f-b7c0-7c072005de33","ios":"levelo://app?vid=b6cea5c4-3fd8-4b9f-b7c0-7c072005de33"},"vehicle_type_id":"4","last_reported":1706036753,"current_range_meters":21200,"station_id":"ce4bha92rcd13ifvqeg0","pricing_plan_id":"free"},{"bike_id":"171aed89-bb20-488d-b386-bf6dd91e4300","system_id":"levelo_inurba_marseille","lat":43.290631,"lon":5.359244,"is_reserved":false,"is_disabled":false,"rental_uris":{"android":"levelo://app?vid=171aed89-bb20-488d-b386-bf6dd91e4300","ios":"levelo://app?vid=171aed89-bb20-488d-b386-bf6dd91e4300"},"vehicle_type_id":"4","last_reported":1706036753,"current_range_meters":0,"station_id":"ce4bha92rcd13ifvqeg0","pricing_plan_id":"free"},{"bike_id":"cc1c437f-405f-4652-8849-0445ea9ba0d2","system_id":"levelo_inurba_marseille","lat":43.294153,"lon":5.386305,"is_reserved":false,"is_disabled":false,"rental_uris":{"android":"levelo://app?vid=cc1c437f-405f-4652-8849-0445ea9ba0d2","ios":"levelo://app?vid=cc1c437f-405f-4652-8849-0445ea9ba0d2"},"vehicle_type_id":"4","last_reported":1706036753,"current_range_meters":12400,"station_id":"ce4bh2h2rcd13ifvqdh0","pricing_plan_id":"free"},{"bike_id":"4c61685e-d7f7-4acf-85fd-db5757960980","system_id":"levelo_inurba_marseille","lat":43.294162,"lon":5.386292,"is_reserved":false,"is_disabled":false,"rental_uris":{"android":"levelo://app?vid=4c61685e-d7f7-4acf-85fd-db5757960980","ios":"levelo://app?vid=4c61685e-d7f7-4acf-85fd-db5757960980"},"vehicle_type_id":"4","last_reported":1706036753,"current_range_meters":12400,"station_id":"ce4bh2h2rcd13ifvqdh0","pricing_plan_id":"free"},{"bike_id":"fbe70264-ec64-4011-9e1e-b6d171749c49","system_id":"levelo_inurba_marseille","lat":43.294162,"lon":5.386292,"is_reserved":false,"is_disabled":false,"rental_uris":{"android":"levelo://app?vid=fbe70264-ec64-4011-9e1e-b6d171749c49","ios":"levelo://app?vid=fbe70264-ec64-4011-9e1e-b6d171749c49"},"vehicle_type_id":"4","last_reported":1706036753,"current_range_meters":11600,"station_id":"ce4bh2h2rcd13ifvqdh0","pricing_plan_id":"free"},{"bike_id":"f0a0277f-a2ac-4db8-8b98-f672afdc1c26","system_id":"levelo_inurba_marseille","lat":43.289184,"lon":5.366408,"is_reserved":false,"is_disabled":false,"rental_uris":{"android":"levelo://app?vid=f0a0277f-a2ac-4db8-8b98-f672afdc1c26","ios":"levelo://app?vid=f0a0277f-a2ac-4db8-8b98-f672afdc1c26"},"vehicle_type_id":"4","last_reported":1706036753,"current_range_meters":22800,"station_id":"ce4bhap2rcd13ifvqek0","pricing_plan_id":"free"},{"bike_id":"cfca06c8-7e6f-415f-abae-cb0ba2a70443","system_id":"levelo_inurba_marseille","lat":43.289184,"lon":5.366408,"is_reserved":false,"is_disabled":false,"rental_uris":{"android":"levelo://app?vid=cfca06c8-7e6f-415f-abae-cb0ba2a70443","ios":"levelo://app?vid=cfca06c8-7e6f-415f-abae-cb0ba2a70443"},"vehicle_type_id":"4","last_reported":1706036753,"current_range_meters":4400,"station_id":"ce4bhap2rcd13ifvqek0","pricing_plan_id":"free"},{"bike_id":"37255525-1597-4ee3-ba49-9b83c7fa1a76","system_id":"levelo_inurba_marseille","lat":43.289184,"lon":5.366408,"is_reserved":false,"is_disabled":false,"rental_uris":{"android":"levelo://app?vid=37255525-1597-4ee3-ba49-9b83c7fa1a76","ios":"levelo://app?vid=37255525-1597-4ee3-ba49-9b83c7fa1a76"},"vehicle_type_id":"4","last_reported":1706036753,"current_range_meters":30800,"station_id":"ce4bhap2rcd13ifvqek0","pricing_plan_id":"free"},{"bike_id":"2dd6f75d-c82e-4a49-85ba-cfe2dc8b9967","system_id":"levelo_inurba_marseille","lat":43.289184,"lon":5.366408,"is_reserved":false,"is_disabled":false,"rental_uris":{"android":"levelo://app?vid=2dd6f75d-c82e-4a49-85ba-cfe2dc8b9967","ios":"levelo://app?vid=2dd6f75d-c82e-4a49-85ba-cfe2dc8b9967"},"vehicle_type_id":"4","last_reported":1706036753,"current_range_meters":22400,"station_id":"ce4bhap2rcd13ifvqek0","pricing_plan_id":"free"},{"bike_id":"96f19ab9-4bd1-4f1f-bc0e-e57439af67f6","system_id":"levelo_inurba_marseille","lat":43.30292,"lon":5.39643,"is_reserved":false,"is_disabled":false,"rental_uris":{"android":"levelo://app?vid=96f19ab9-4bd1-4f1f-bc0e-e57439af67f6","ios":"levelo://app?vid=96f19ab9-4bd1-4f1f-bc0e-e57439af67f6"},"vehicle_type_id":"4","last_reported":1706036753,"current_range_meters":14400,"station_id":"ce4bh0h2rcd13ifvqd40","pricing_plan_id":"free"},{"bike_id":"d91b90fe-0353-4c62-9ad6-c244803c9d6b","system_id":"levelo_inurba_marseille","lat":43.292644,"lon":5.384257,"is_reserved":false,"is_disabled":false,"rental_uris":{"android":"levelo://app?vid=d91b90fe-0353-4c62-9ad6-c244803c9d6b","ios":"levelo://app?vid=d91b90fe-0353-4c62-9ad6-c244803c9d6b"},"vehicle_type_id":"4","last_reported":1706036753,"current_range_meters":16000,"station_id":"ce4bh692rcd13ifvqea0","pricing_plan_id":"free"},{"bike_id":"c0485b0b-71df-4a4d-8f69-e3ab0436ab3c","system_id":"levelo_inurba_marseille","lat":43.292642,"lon":5.384254,"is_reserved":false,"is_disabled":false,"rental_uris":{"android":"levelo://app?vid=c0485b0b-71df-4a4d-8f69-e3ab0436ab3c","ios":"levelo://app?vid=c0485b0b-71df-4a4d-8f69-e3ab0436ab3c"},"vehicle_type_id":"4","last_reported":1706036753,"current_range_meters":4000,"station_id":"ce4bh692rcd13ifvqea0","pricing_plan_id":"free"},{"bike_id":"cda24d23-2445-4858-9333-3f5d3639344f","system_id":"levelo_inurba_marseille","lat":43.292642,"lon":5.384254,"is_reserved":false,"is_disabled":false,"rental_uris":{"android":"levelo://app?vid=cda24d23-2445-4858-9333-3f5d3639344f","ios":"levelo://app?vid=cda24d23-2445-4858-9333-3f5d3639344f"},"vehicle_type_id":"4","last_reported":1706036753,"current_range_meters":400,"station_id":"ce4bh692rcd13ifvqea0","pricing_plan_id":"free"},{"bike_id":"3199662a-07b3-4a13-86b6-01d6484936da","system_id":"levelo_inurba_marseille","lat":43.292642,"lon":5.384254,"is_reserved":false,"is_disabled":false,"rental_uris":{"android":"levelo://app?vid=3199662a-07b3-4a13-86b6-01d6484936da","ios":"levelo://app?vid=3199662a-07b3-4a13-86b6-01d6484936da"},"vehicle_type_id":"4","last_reported":1706036753,"current_range_meters":8800,"station_id":"ce4bh692rcd13ifvqea0","pricing_plan_id":"free"},{"bike_id":"a24f991d-5e38-4ac0-9f57-5652bb92dcf0","system_id":"levelo_inurba_marseille","lat":43.292644,"lon":5.384257,"is_reserved":false,"is_disabled":false,"rental_uris":{"android":"levelo://app?vid=a24f991d-5e38-4ac0-9f57-5652bb92dcf0","ios":"levelo://app?vid=a24f991d-5e38-4ac0-9f57-5652bb92dcf0"},"vehicle_type_id":"4","last_reported":1706036753,"current_range_meters":0,"station_id":"ce4bh692rcd13ifvqea0","pricing_plan_id":"free"},{"bike_id":"dd29ee12-7104-49a8-819b-6a0a6daf4789","system_id":"levelo_inurba_marseille","lat":43.292644,"lon":5.384257,"is_reserved":false,"is_disabled":false,"rental_uris":{"android":"levelo://app?vid=dd29ee12-7104-49a8-819b-6a0a6daf4789","ios":"levelo://app?vid=dd29ee12-7104-49a8-819b-6a0a6daf4789"},"vehicle_type_id":"4","last_reported":1706036753,"current_range_meters":24400,"station_id":"ce4bh692rcd13ifvqea0","pricing_plan_id":"free"},{"bike_id":"05fcc10b-3400-48e5-94cb-7c64f29381c3","system_id":"levelo_inurba_marseille","lat":43.304296,"lon":5.397513,"is_reserved":false,"is_disabled":false,"rental_uris":{"android":"levelo://app?vid=05fcc10b-3400-48e5-94cb-7c64f29381c3","ios":"levelo://app?vid=05fcc10b-3400-48e5-94cb-7c64f29381c3"},"vehicle_type_id":"4","last_reported":1706036753,"current_range_meters":9600,"station_id":"ce4bh092rcd13ifvqd20","pricing_plan_id":"free"},{"bike_id":"78482097-0d7a-4e5e-ab65-74299371abc7","system_id":"levelo_inurba_marseille","lat":43.290104,"lon":5.356111,"is_reserved":false,"is_disabled":false,"rental_uris":{"android":"levelo://app?vid=78482097-0d7a-4e5e-ab65-74299371abc7","ios":"levelo://app?vid=78482097-0d7a-4e5e-ab65-74299371abc7"},"vehicle_type_id":"4","last_reported":1706036753,"current_range_meters":30000,"station_id":"ce4bhb92rcd13ifvqen0","pricing_plan_id":"free"},{"bike_id":"5a65282b-351f-4d86-949e-07559a67dd71","system_id":"levelo_inurba_marseille","lat":43.29009,"lon":5.3562,"is_reserved":false,"is_disabled":false,"rental_uris":{"android":"levelo://app?vid=5a65282b-351f-4d86-949e-07559a67dd71","ios":"levelo://app?vid=5a65282b-351f-4d86-949e-07559a67dd71"},"vehicle_type_id":"4","last_reported":1706036753,"current_range_meters":18000,"station_id":"ce4bhb92rcd13ifvqen0","pricing_plan_id":"free"},{"bike_id":"ae7160bd-ce53-4c80-82c2-c61d2415a7c9","system_id":"levelo_inurba_marseille","lat":43.29008,"lon":5.35614,"is_reserved":false,"is_disabled":false,"rental_uris":{"android":"levelo://app?vid=ae7160bd-ce53-4c80-82c2-c61d2415a7c9","ios":"levelo://app?vid=ae7160bd-ce53-4c80-82c2-c61d2415a7c9"},"vehicle_type_id":"4","last_reported":1706036753,"current_range_meters":0,"station_id":"ce4bhb92rcd13ifvqen0","pricing_plan_id":"free"},{"bike_id":"df298e74-86c0-4ab0-affb-b4662b90f99c","system_id":"levelo_inurba_marseille","lat":43.29007,"lon":5.35607,"is_reserved":false,"is_disabled":false,"rental_uris":{"android":"levelo://app?vid=df298e74-86c0-4ab0-affb-b4662b90f99c","ios":"levelo://app?vid=df298e74-86c0-4ab0-affb-b4662b90f99c"},"vehicle_type_id":"4","last_reported":1706036753,"current_range_meters":0,"station_id":"ce4bhb92rcd13ifvqen0","pricing_plan_id":"free"},{"bike_id":"2e198b84-6549-4f33-95fc-f476cd8e0e2d","system_id":"levelo_inurba_marseille","lat":43.290995,"lon":5.381361,"is_reserved":false,"is_disabled":false,"rental_uris":{"android":"levelo://app?vid=2e198b84-6549-4f33-95fc-f476cd8e0e2d","ios":"levelo://app?vid=2e198b84-6549-4f33-95fc-f476cd8e0e2d"},"vehicle_type_id":"4","last_reported":1706036753,"current_range_meters":26800,"station_id":"ce4bh512rcd13ifvqe2g","pricing_plan_id":"free"},{"bike_id":"7e3b44a0-6518-4173-8fd1-e575b28a3580","system_id":"levelo_inurba_marseille","lat":43.29789,"lon":5.39333,"is_reserved":false,"is_disabled":false,"rental_uris":{"android":"levelo://app?vid=7e3b44a0-6518-4173-8fd1-e575b28a3580","ios":"levelo://app?vid=7e3b44a0-6518-4173-8fd1-e575b28a3580"},"vehicle_type_id":"4","last_reported":1706036753,"current_range_meters":15600,"station_id":"chh1huq6cuj3fo74tm60","pricing_plan_id":"free"},{"bike_id":"d52baf28-50ef-4220-9c27-8a655062a064","system_id":"levelo_inurba_marseille","lat":43.29776,"lon":5.39333,"is_reserved":false,"is_disabled":false,"rental_uris":{"android":"levelo://app?vid=d52baf28-50ef-4220-9c27-8a655062a064","ios":"levelo://app?vid=d52baf28-50ef-4220-9c27-8a655062a064"},"vehicle_type_id":"4","last_reported":1706036753,"current_range_meters":14400,"station_id":"chh1huq6cuj3fo74tm60","pricing_plan_id":"free"},{"bike_id":"a0316c91-2a99-47d0-91ef-5fa4f22dd772","system_id":"levelo_inurba_marseille","lat":43.330442,"lon":5.389148,"is_reserved":false,"is_disabled":false,"rental_uris":{"android":"levelo://app?vid=a0316c91-2a99-47d0-91ef-5fa4f22dd772","ios":"levelo://app?vid=a0316c91-2a99-47d0-91ef-5fa4f22dd772"},"vehicle_type_id":"4","last_reported":1706036753,"current_range_meters":17200,"station_id":"ce4bhr92rcd13ifvqhrg","pricing_plan_id":"free"},{"bike_id":"8beb18ab-307a-4d80-9564-4648ffd8d475","system_id":"levelo_inurba_marseille","lat":43.330442,"lon":5.389148,"is_reserved":false,"is_disabled":false,"rental_uris":{"android":"levelo://app?vid=8beb18ab-307a-4d80-9564-4648ffd8d475","ios":"levelo://app?vid=8beb18ab-307a-4d80-9564-4648ffd8d475"},"vehicle_type_id":"4","last_reported":1706036753,"current_range_meters":18400,"station_id":"ce4bhr92rcd13ifvqhrg","pricing_plan_id":"free"},{"bike_id":"67c380de-ab9c-4162-b94f-c63800b63578","system_id":"levelo_inurba_marseille","lat":43.330255,"lon":5.390402,"is_reserved":false,"is_disabled":false,"rental_uris":{"android":"levelo://app?vid=67c380de-ab9c-4162-b94f-c63800b63578","ios":"levelo://app?vid=67c380de-ab9c-4162-b94f-c63800b63578"},"vehicle_type_id":"4","last_reported":1706036753,"current_range_meters":9200,"station_id":"","pricing_plan_id":"free"},{"bike_id":"908b9c4e-f5db-4e90-b96e-26984e3f721c","system_id":"levelo_inurba_marseille","lat":43.28856,"lon":5.358371,"is_reserved":false,"is_disabled":false,"rental_uris":{"android":"levelo://app?vid=908b9c4e-f5db-4e90-b96e-26984e3f721c","ios":"levelo://app?vid=908b9c4e-f5db-4e90-b96e-26984e3f721c"},"vehicle_type_id":"4","last_reported":1706036753,"current_range_meters":9200,"station_id":"ce4bhb12rcd13ifvqem0","pricing_plan_id":"free"},{"bike_id":"3ba72526-bf2a-4abd-86db-a31bef2386f6","system_id":"levelo_inurba_marseille","lat":43.28856,"lon":5.358371,"is_reserved":false,"is_disabled":false,"rental_uris":{"android":"levelo://app?vid=3ba72526-bf2a-4abd-86db-a31bef2386f6","ios":"levelo://app?vid=3ba72526-bf2a-4abd-86db-a31bef2386f6"},"vehicle_type_id":"4","last_reported":1706036753,"current_range_meters":13600,"station_id":"ce4bhb12rcd13ifvqem0","pricing_plan_id":"free"},{"bike_id":"7e350033-17c9-42c2-b62f-617a96d712ca","system_id":"levelo_inurba_marseille","lat":43.28856,"lon":5.358371,"is_reserved":false,"is_disabled":false,"rental_uris":{"android":"levelo://app?vid=7e350033-17c9-42c2-b62f-617a96d712ca","ios":"levelo://app?vid=7e350033-17c9-42c2-b62f-617a96d712ca"},"vehicle_type_id":"4","last_reported":1706036753,"current_range_meters":5600,"station_id":"ce4bhb12rcd13ifvqem0","pricing_plan_id":"free"},{"bike_id":"66fff7a6-b42c-43ed-a95e-2a6313453dfe","system_id":"levelo_inurba_marseille","lat":43.312609,"lon":5.401662,"is_reserved":false,"is_disabled":false,"rental_uris":{"android":"levelo://app?vid=66fff7a6-b42c-43ed-a95e-2a6313453dfe","ios":"levelo://app?vid=66fff7a6-b42c-43ed-a95e-2a6313453dfe"},"vehicle_type_id":"4","last_reported":1706036753,"current_range_meters":31600,"station_id":"ce4bh092rcd13ifvqd30","pricing_plan_id":"free"},{"bike_id":"22ebb342-e9b1-472d-9bc6-674213140877","system_id":"levelo_inurba_marseille","lat":43.31279,"lon":5.4017,"is_reserved":false,"is_disabled":false,"rental_uris":{"android":"levelo://app?vid=22ebb342-e9b1-472d-9bc6-674213140877","ios":"levelo://app?vid=22ebb342-e9b1-472d-9bc6-674213140877"},"vehicle_type_id":"4","last_reported":1706036753,"current_range_meters":0,"station_id":"ce4bh092rcd13ifvqd30","pricing_plan_id":"free"},{"bike_id":"1f8dff7a-291a-4552-8703-18b2aa0e5697","system_id":"levelo_inurba_marseille","lat":43.312609,"lon":5.401662,"is_reserved":false,"is_disabled":false,"rental_uris":{"android":"levelo://app?vid=1f8dff7a-291a-4552-8703-18b2aa0e5697","ios":"levelo://app?vid=1f8dff7a-291a-4552-8703-18b2aa0e5697"},"vehicle_type_id":"4","last_reported":1706036753,"current_range_meters":6400,"station_id":"ce4bh092rcd13ifvqd30","pricing_plan_id":"free"},{"bike_id":"e0b1f52d-62de-49ab-98a6-03db78831238","system_id":"levelo_inurba_marseille","lat":43.33744,"lon":5.37455,"is_reserved":false,"is_disabled":false,"rental_uris":{"android":"levelo://app?vid=e0b1f52d-62de-49ab-98a6-03db78831238","ios":"levelo://app?vid=e0b1f52d-62de-49ab-98a6-03db78831238"},"vehicle_type_id":"4","last_reported":1706036753,"current_range_meters":25200,"station_id":"","pricing_plan_id":"free"},{"bike_id":"37dad68e-b345-4e83-b18e-e1bcafca61b9","system_id":"levelo_inurba_marseille","lat":43.312609,"lon":5.401662,"is_reserved":false,"is_disabled":false,"rental_uris":{"android":"levelo://app?vid=37dad68e-b345-4e83-b18e-e1bcafca61b9","ios":"levelo://app?vid=37dad68e-b345-4e83-b18e-e1bcafca61b9"},"vehicle_type_id":"4","last_reported":1706036753,"current_range_meters":24000,"station_id":"ce4bh092rcd13ifvqd30","pricing_plan_id":"free"},{"bike_id":"087479e6-11c1-4cd1-af77-ca430d8ca68c","system_id":"levelo_inurba_marseille","lat":43.278399,"lon":5.392139,"is_reserved":false,"is_disabled":false,"rental_uris":{"android":"levelo://app?vid=087479e6-11c1-4cd1-af77-ca430d8ca68c","ios":"levelo://app?vid=087479e6-11c1-4cd1-af77-ca430d8ca68c"},"vehicle_type_id":"4","last_reported":1706036753,"current_range_meters":23600,"station_id":"ce4bhjp2rcd13ifvqga0","pricing_plan_id":"free"},{"bike_id":"141c287e-f256-4263-9034-3fc50612ac8f","system_id":"levelo_inurba_marseille","lat":43.312609,"lon":5.401662,"is_reserved":false,"is_disabled":false,"rental_uris":{"android":"levelo://app?vid=141c287e-f256-4263-9034-3fc50612ac8f","ios":"levelo://app?vid=141c287e-f256-4263-9034-3fc50612ac8f"},"vehicle_type_id":"4","last_reported":1706036753,"current_range_meters":4000,"station_id":"ce4bh092rcd13ifvqd30","pricing_plan_id":"free"},{"bike_id":"8b894521-1a30-4078-ab48-f86b65b9874e","system_id":"levelo_inurba_marseille","lat":43.337468,"lon":5.374693,"is_reserved":false,"is_disabled":false,"rental_uris":{"android":"levelo://app?vid=8b894521-1a30-4078-ab48-f86b65b9874e","ios":"levelo://app?vid=8b894521-1a30-4078-ab48-f86b65b9874e"},"vehicle_type_id":"4","last_reported":1706036753,"current_range_meters":24000,"station_id":"","pricing_plan_id":"free"},{"bike_id":"d13ed38d-1338-4715-b3a8-e7cc2cbae523","system_id":"levelo_inurba_marseille","lat":43.337488,"lon":5.374596,"is_reserved":false,"is_disabled":false,"rental_uris":{"android":"levelo://app?vid=d13ed38d-1338-4715-b3a8-e7cc2cbae523","ios":"levelo://app?vid=d13ed38d-1338-4715-b3a8-e7cc2cbae523"},"vehicle_type_id":"4","last_reported":1706036753,"current_range_meters":26800,"station_id":"","pricing_plan_id":"free"},{"bike_id":"0cf670e4-4116-45f5-b47b-bf5543f073ff","system_id":"levelo_inurba_marseille","lat":43.312609,"lon":5.401662,"is_reserved":false,"is_disabled":false,"rental_uris":{"android":"levelo://app?vid=0cf670e4-4116-45f5-b47b-bf5543f073ff","ios":"levelo://app?vid=0cf670e4-4116-45f5-b47b-bf5543f073ff"},"vehicle_type_id":"4","last_reported":1706036753,"current_range_meters":8800,"station_id":"ce4bh092rcd13ifvqd30","pricing_plan_id":"free"},{"bike_id":"18a9991b-1e0b-4e2a-a84e-1238c68034ec","system_id":"levelo_inurba_marseille","lat":43.337588,"lon":5.37458,"is_reserved":false,"is_disabled":false,"rental_uris":{"android":"levelo://app?vid=18a9991b-1e0b-4e2a-a84e-1238c68034ec","ios":"levelo://app?vid=18a9991b-1e0b-4e2a-a84e-1238c68034ec"},"vehicle_type_id":"4","last_reported":1706036753,"current_range_meters":27200,"station_id":"","pricing_plan_id":"free"},{"bike_id":"17081a1f-9f97-4e9d-a26c-47c34541bc95","system_id":"levelo_inurba_marseille","lat":43.30642,"lon":5.401031,"is_reserved":false,"is_disabled":false,"rental_uris":{"android":"levelo://app?vid=17081a1f-9f97-4e9d-a26c-47c34541bc95","ios":"levelo://app?vid=17081a1f-9f97-4e9d-a26c-47c34541bc95"},"vehicle_type_id":"4","last_reported":1706036753,"current_range_meters":1200,"station_id":"ce4bh112rcd13ifvqda0","pricing_plan_id":"free"},{"bike_id":"6bba64e4-7a41-49b3-88ef-e0daea3f3248","system_id":"levelo_inurba_marseille","lat":43.301117,"lon":5.398795,"is_reserved":false,"is_disabled":false,"rental_uris":{"android":"levelo://app?vid=6bba64e4-7a41-49b3-88ef-e0daea3f3248","ios":"levelo://app?vid=6bba64e4-7a41-49b3-88ef-e0daea3f3248"},"vehicle_type_id":"4","last_reported":1706036753,"current_range_meters":14400,"station_id":"ce4bh0h2rcd13ifvqd40","pricing_plan_id":"free"},{"bike_id":"79bc59da-ac90-4c1b-b165-79d37aa288b2","system_id":"levelo_inurba_marseille","lat":43.30145,"lon":5.39873,"is_reserved":false,"is_disabled":false,"rental_uris":{"android":"levelo://app?vid=79bc59da-ac90-4c1b-b165-79d37aa288b2","ios":"levelo://app?vid=79bc59da-ac90-4c1b-b165-79d37aa288b2"},"vehicle_type_id":"4","last_reported":1706036753,"current_range_meters":22400,"station_id":"ce4bh0h2rcd13ifvqd40","pricing_plan_id":"free"},{"bike_id":"87b8016f-a0ad-48b0-a8c6-c08c05362fb2","system_id":"levelo_inurba_marseille","lat":43.301374,"lon":5.398696,"is_reserved":false,"is_disabled":false,"rental_uris":{"android":"levelo://app?vid=87b8016f-a0ad-48b0-a8c6-c08c05362fb2","ios":"levelo://app?vid=87b8016f-a0ad-48b0-a8c6-c08c05362fb2"},"vehicle_type_id":"4","last_reported":1706036753,"current_range_meters":9200,"station_id":"ce4bh0h2rcd13ifvqd40","pricing_plan_id":"free"},{"bike_id":"175e816c-e99c-4355-bfbb-b427329428ce","system_id":"levelo_inurba_marseille","lat":43.30131,"lon":5.39866,"is_reserved":false,"is_disabled":false,"rental_uris":{"android":"levelo://app?vid=175e816c-e99c-4355-bfbb-b427329428ce","ios":"levelo://app?vid=175e816c-e99c-4355-bfbb-b427329428ce"},"vehicle_type_id":"4","last_reported":1706036753,"current_range_meters":10000,"station_id":"ce4bh0h2rcd13ifvqd40","pricing_plan_id":"free"},{"bike_id":"c0826c06-002c-4390-9f82-cf174a3bed05","system_id":"levelo_inurba_marseille","lat":43.28727,"lon":5.36078,"is_reserved":false,"is_disabled":false,"rental_uris":{"android":"levelo://app?vid=c0826c06-002c-4390-9f82-cf174a3bed05","ios":"levelo://app?vid=c0826c06-002c-4390-9f82-cf174a3bed05"},"vehicle_type_id":"4","last_reported":1706036753,"current_range_meters":2800,"station_id":"cki0cbj6b192h4jlfktg","pricing_plan_id":"free"},{"bike_id":"98278856-d083-43fc-a3dc-b34347b41bda","system_id":"levelo_inurba_marseille","lat":43.28727,"lon":5.36078,"is_reserved":false,"is_disabled":false,"rental_uris":{"android":"levelo://app?vid=98278856-d083-43fc-a3dc-b34347b41bda","ios":"levelo://app?vid=98278856-d083-43fc-a3dc-b34347b41bda"},"vehicle_type_id":"4","last_reported":1706036753,"current_range_meters":7600,"station_id":"cki0cbj6b192h4jlfktg","pricing_plan_id":"free"},{"bike_id":"0c8ea0d4-8699-45e8-9f5b-6d299875192f","system_id":"levelo_inurba_marseille","lat":43.28727,"lon":5.36078,"is_reserved":false,"is_disabled":false,"rental_uris":{"android":"levelo://app?vid=0c8ea0d4-8699-45e8-9f5b-6d299875192f","ios":"levelo://app?vid=0c8ea0d4-8699-45e8-9f5b-6d299875192f"},"vehicle_type_id":"4","last_reported":1706036753,"current_range_meters":5200,"station_id":"cki0cbj6b192h4jlfktg","pricing_plan_id":"free"},{"bike_id":"38344fa7-f60d-4904-88e1-73eaf3e53887","system_id":"levelo_inurba_marseille","lat":43.28727,"lon":5.36078,"is_reserved":false,"is_disabled":false,"rental_uris":{"android":"levelo://app?vid=38344fa7-f60d-4904-88e1-73eaf3e53887","ios":"levelo://app?vid=38344fa7-f60d-4904-88e1-73eaf3e53887"},"vehicle_type_id":"4","last_reported":1706036753,"current_range_meters":9200,"station_id":"cki0cbj6b192h4jlfktg","pricing_plan_id":"free"},{"bike_id":"5d5e716e-af5c-476e-a250-c81d170c08b4","system_id":"levelo_inurba_marseille","lat":43.301117,"lon":5.398795,"is_reserved":false,"is_disabled":false,"rental_uris":{"android":"levelo://app?vid=5d5e716e-af5c-476e-a250-c81d170c08b4","ios":"levelo://app?vid=5d5e716e-af5c-476e-a250-c81d170c08b4"},"vehicle_type_id":"4","last_reported":1706036753,"current_range_meters":0,"station_id":"ce4bh0h2rcd13ifvqd40","pricing_plan_id":"free"},{"bike_id":"94c51eae-a55d-41cc-a11f-0610a5c25685","system_id":"levelo_inurba_marseille","lat":43.28723,"lon":5.36079,"is_reserved":false,"is_disabled":false,"rental_uris":{"android":"levelo://app?vid=94c51eae-a55d-41cc-a11f-0610a5c25685","ios":"levelo://app?vid=94c51eae-a55d-41cc-a11f-0610a5c25685"},"vehicle_type_id":"4","last_reported":1706036753,"current_range_meters":0,"station_id":"cki0cbj6b192h4jlfktg","pricing_plan_id":"free"},{"bike_id":"cb00a1a8-2274-48fe-ab1c-d71d9e89889e","system_id":"levelo_inurba_marseille","lat":43.286591,"lon":5.363346,"is_reserved":false,"is_disabled":false,"rental_uris":{"android":"levelo://app?vid=cb00a1a8-2274-48fe-ab1c-d71d9e89889e","ios":"levelo://app?vid=cb00a1a8-2274-48fe-ab1c-d71d9e89889e"},"vehicle_type_id":"4","last_reported":1706036753,"current_range_meters":2000,"station_id":"ce4bhah2rcd13ifvqej0","pricing_plan_id":"free"},{"bike_id":"1ca4ae02-789e-4877-8988-8b4228c58335","system_id":"levelo_inurba_marseille","lat":43.286593,"lon":5.363346,"is_reserved":false,"is_disabled":false,"rental_uris":{"android":"levelo://app?vid=1ca4ae02-789e-4877-8988-8b4228c58335","ios":"levelo://app?vid=1ca4ae02-789e-4877-8988-8b4228c58335"},"vehicle_type_id":"4","last_reported":1706036753,"current_range_meters":18400,"station_id":"ce4bhah2rcd13ifvqej0","pricing_plan_id":"free"},{"bike_id":"51573c6e-d598-4584-be99-6187578a54ed","system_id":"levelo_inurba_marseille","lat":43.286591,"lon":5.363346,"is_reserved":false,"is_disabled":false,"rental_uris":{"android":"levelo://app?vid=51573c6e-d598-4584-be99-6187578a54ed","ios":"levelo://app?vid=51573c6e-d598-4584-be99-6187578a54ed"},"vehicle_type_id":"4","last_reported":1706036753,"current_range_meters":10400,"station_id":"ce4bhah2rcd13ifvqej0","pricing_plan_id":"free"},{"bike_id":"77652749-cfc0-4093-8bf5-bb41a3ff390e","system_id":"levelo_inurba_marseille","lat":43.298681,"lon":5.397225,"is_reserved":false,"is_disabled":false,"rental_uris":{"android":"levelo://app?vid=77652749-cfc0-4093-8bf5-bb41a3ff390e","ios":"levelo://app?vid=77652749-cfc0-4093-8bf5-bb41a3ff390e"},"vehicle_type_id":"4","last_reported":1706036753,"current_range_meters":13200,"station_id":"ce4bh0h2rcd13ifvqd50","pricing_plan_id":"free"},{"bike_id":"19ffc743-5767-458d-a1ec-a7c46f57abc1","system_id":"levelo_inurba_marseille","lat":43.286591,"lon":5.363346,"is_reserved":false,"is_disabled":false,"rental_uris":{"android":"levelo://app?vid=19ffc743-5767-458d-a1ec-a7c46f57abc1","ios":"levelo://app?vid=19ffc743-5767-458d-a1ec-a7c46f57abc1"},"vehicle_type_id":"4","last_reported":1706036753,"current_range_meters":16800,"station_id":"ce4bhah2rcd13ifvqej0","pricing_plan_id":"free"},{"bike_id":"f3dcd3e1-b91a-4be7-a6ea-b0f2a4ae0175","system_id":"levelo_inurba_marseille","lat":43.29878,"lon":5.397357,"is_reserved":false,"is_disabled":false,"rental_uris":{"android":"levelo://app?vid=f3dcd3e1-b91a-4be7-a6ea-b0f2a4ae0175","ios":"levelo://app?vid=f3dcd3e1-b91a-4be7-a6ea-b0f2a4ae0175"},"vehicle_type_id":"4","last_reported":1706036753,"current_range_meters":800,"station_id":"ce4bh0h2rcd13ifvqd50","pricing_plan_id":"free"},{"bike_id":"1dcc87b0-b1a6-4ffe-845f-937b8f493392","system_id":"levelo_inurba_marseille","lat":43.286591,"lon":5.363346,"is_reserved":false,"is_disabled":false,"rental_uris":{"android":"levelo://app?vid=1dcc87b0-b1a6-4ffe-845f-937b8f493392","ios":"levelo://app?vid=1dcc87b0-b1a6-4ffe-845f-937b8f493392"},"vehicle_type_id":"4","last_reported":1706036753,"current_range_meters":9200,"station_id":"ce4bhah2rcd13ifvqej0","pricing_plan_id":"free"},{"bike_id":"9102473f-9c79-41f0-b318-80d31a6a4425","system_id":"levelo_inurba_marseille","lat":43.286593,"lon":5.363346,"is_reserved":false,"is_disabled":false,"rental_uris":{"android":"levelo://app?vid=9102473f-9c79-41f0-b318-80d31a6a4425","ios":"levelo://app?vid=9102473f-9c79-41f0-b318-80d31a6a4425"},"vehicle_type_id":"4","last_reported":1706036753,"current_range_meters":8000,"station_id":"ce4bhah2rcd13ifvqej0","pricing_plan_id":"free"},{"bike_id":"9a282c19-3edd-4d53-871d-57a2fe8cabd4","system_id":"levelo_inurba_marseille","lat":43.298681,"lon":5.397225,"is_reserved":false,"is_disabled":false,"rental_uris":{"android":"levelo://app?vid=9a282c19-3edd-4d53-871d-57a2fe8cabd4","ios":"levelo://app?vid=9a282c19-3edd-4d53-871d-57a2fe8cabd4"},"vehicle_type_id":"4","last_reported":1706036753,"current_range_meters":8400,"station_id":"ce4bh0h2rcd13ifvqd50","pricing_plan_id":"free"},{"bike_id":"badd1cb2-1cf5-4513-b016-6b69513340c1","system_id":"levelo_inurba_marseille","lat":43.298681,"lon":5.397225,"is_reserved":false,"is_disabled":false,"rental_uris":{"android":"levelo://app?vid=badd1cb2-1cf5-4513-b016-6b69513340c1","ios":"levelo://app?vid=badd1cb2-1cf5-4513-b016-6b69513340c1"},"vehicle_type_id":"4","last_reported":1706036753,"current_range_meters":16400,"station_id":"ce4bh0h2rcd13ifvqd50","pricing_plan_id":"free"},{"bike_id":"01b1abc8-f36d-40ec-bf9e-5fcb48ae868a","system_id":"levelo_inurba_marseille","lat":43.298681,"lon":5.397225,"is_reserved":false,"is_disabled":false,"rental_uris":{"android":"levelo://app?vid=01b1abc8-f36d-40ec-bf9e-5fcb48ae868a","ios":"levelo://app?vid=01b1abc8-f36d-40ec-bf9e-5fcb48ae868a"},"vehicle_type_id":"4","last_reported":1706036753,"current_range_meters":14000,"station_id":"ce4bh0h2rcd13ifvqd50","pricing_plan_id":"free"},{"bike_id":"fa676bb5-1431-406f-9c11-f6f188441b35","system_id":"levelo_inurba_marseille","lat":43.295196,"lon":5.39397,"is_reserved":false,"is_disabled":false,"rental_uris":{"android":"levelo://app?vid=fa676bb5-1431-406f-9c11-f6f188441b35","ios":"levelo://app?vid=fa676bb5-1431-406f-9c11-f6f188441b35"},"vehicle_type_id":"4","last_reported":1706036753,"current_range_meters":2000,"station_id":"ce4bh292rcd13ifvqdf0","pricing_plan_id":"free"},{"bike_id":"4ff0019a-17d2-4c5d-b9e0-701b63e93346","system_id":"levelo_inurba_marseille","lat":43.286591,"lon":5.363346,"is_reserved":false,"is_disabled":false,"rental_uris":{"android":"levelo://app?vid=4ff0019a-17d2-4c5d-b9e0-701b63e93346","ios":"levelo://app?vid=4ff0019a-17d2-4c5d-b9e0-701b63e93346"},"vehicle_type_id":"4","last_reported":1706036753,"current_range_meters":4800,"station_id":"ce4bhah2rcd13ifvqej0","pricing_plan_id":"free"},{"bike_id":"69c32e18-571c-4b95-b5de-2f94894e4be9","system_id":"levelo_inurba_marseille","lat":43.298681,"lon":5.397225,"is_reserved":false,"is_disabled":false,"rental_uris":{"android":"levelo://app?vid=69c32e18-571c-4b95-b5de-2f94894e4be9","ios":"levelo://app?vid=69c32e18-571c-4b95-b5de-2f94894e4be9"},"vehicle_type_id":"4","last_reported":1706036753,"current_range_meters":27200,"station_id":"ce4bh0h2rcd13ifvqd50","pricing_plan_id":"free"},{"bike_id":"2238f2a8-372a-4eb9-af3d-904a8d87f07b","system_id":"levelo_inurba_marseille","lat":43.29521,"lon":5.39397,"is_reserved":false,"is_disabled":false,"rental_uris":{"android":"levelo://app?vid=2238f2a8-372a-4eb9-af3d-904a8d87f07b","ios":"levelo://app?vid=2238f2a8-372a-4eb9-af3d-904a8d87f07b"},"vehicle_type_id":"4","last_reported":1706036753,"current_range_meters":0,"station_id":"","pricing_plan_id":"free"},{"bike_id":"29b9b779-a96d-470c-8d85-727bfe9000ef","system_id":"levelo_inurba_marseille","lat":43.295196,"lon":5.39397,"is_reserved":false,"is_disabled":false,"rental_uris":{"android":"levelo://app?vid=29b9b779-a96d-470c-8d85-727bfe9000ef","ios":"levelo://app?vid=29b9b779-a96d-470c-8d85-727bfe9000ef"},"vehicle_type_id":"4","last_reported":1706036753,"current_range_meters":14800,"station_id":"ce4bh292rcd13ifvqdf0","pricing_plan_id":"free"},{"bike_id":"83ec5584-03dc-4fa9-bbca-162f71ee1e0c","system_id":"levelo_inurba_marseille","lat":43.295196,"lon":5.39397,"is_reserved":false,"is_disabled":false,"rental_uris":{"android":"levelo://app?vid=83ec5584-03dc-4fa9-bbca-162f71ee1e0c","ios":"levelo://app?vid=83ec5584-03dc-4fa9-bbca-162f71ee1e0c"},"vehicle_type_id":"4","last_reported":1706036753,"current_range_meters":9600,"station_id":"ce4bh292rcd13ifvqdf0","pricing_plan_id":"free"},{"bike_id":"8896b579-125e-4cb7-ba4b-959135e72a39","system_id":"levelo_inurba_marseille","lat":43.295196,"lon":5.39397,"is_reserved":false,"is_disabled":false,"rental_uris":{"android":"levelo://app?vid=8896b579-125e-4cb7-ba4b-959135e72a39","ios":"levelo://app?vid=8896b579-125e-4cb7-ba4b-959135e72a39"},"vehicle_type_id":"4","last_reported":1706036753,"current_range_meters":8000,"station_id":"ce4bh292rcd13ifvqdf0","pricing_plan_id":"free"},{"bike_id":"62334620-a44a-4231-ac9d-7f741adce2c0","system_id":"levelo_inurba_marseille","lat":43.290398,"lon":5.386431,"is_reserved":false,"is_disabled":false,"rental_uris":{"android":"levelo://app?vid=62334620-a44a-4231-ac9d-7f741adce2c0","ios":"levelo://app?vid=62334620-a44a-4231-ac9d-7f741adce2c0"},"vehicle_type_id":"4","last_reported":1706036753,"current_range_meters":8800,"station_id":"ce4bh4p2rcd13ifvqe0g","pricing_plan_id":"free"},{"bike_id":"566df9e2-9bc9-4771-a943-91af09abb504","system_id":"levelo_inurba_marseille","lat":43.290336,"lon":5.386425,"is_reserved":false,"is_disabled":false,"rental_uris":{"android":"levelo://app?vid=566df9e2-9bc9-4771-a943-91af09abb504","ios":"levelo://app?vid=566df9e2-9bc9-4771-a943-91af09abb504"},"vehicle_type_id":"4","last_reported":1706036753,"current_range_meters":11600,"station_id":"ce4bh4p2rcd13ifvqe0g","pricing_plan_id":"free"},{"bike_id":"51cb0144-e378-4030-a91a-90d41fc54f20","system_id":"levelo_inurba_marseille","lat":43.290336,"lon":5.386425,"is_reserved":false,"is_disabled":false,"rental_uris":{"android":"levelo://app?vid=51cb0144-e378-4030-a91a-90d41fc54f20","ios":"levelo://app?vid=51cb0144-e378-4030-a91a-90d41fc54f20"},"vehicle_type_id":"4","last_reported":1706036753,"current_range_meters":8400,"station_id":"ce4bh4p2rcd13ifvqe0g","pricing_plan_id":"free"},{"bike_id":"5c972b78-a7b8-48da-80af-900bc3575b1d","system_id":"levelo_inurba_marseille","lat":43.290336,"lon":5.386425,"is_reserved":false,"is_disabled":false,"rental_uris":{"android":"levelo://app?vid=5c972b78-a7b8-48da-80af-900bc3575b1d","ios":"levelo://app?vid=5c972b78-a7b8-48da-80af-900bc3575b1d"},"vehicle_type_id":"4","last_reported":1706036753,"current_range_meters":26400,"station_id":"ce4bh4p2rcd13ifvqe0g","pricing_plan_id":"free"},{"bike_id":"11cfb8cc-6b5b-42eb-9d6a-adf2316be259","system_id":"levelo_inurba_marseille","lat":43.290336,"lon":5.386425,"is_reserved":false,"is_disabled":false,"rental_uris":{"android":"levelo://app?vid=11cfb8cc-6b5b-42eb-9d6a-adf2316be259","ios":"levelo://app?vid=11cfb8cc-6b5b-42eb-9d6a-adf2316be259"},"vehicle_type_id":"4","last_reported":1706036753,"current_range_meters":5200,"station_id":"ce4bh4p2rcd13ifvqe0g","pricing_plan_id":"free"},{"bike_id":"6b408f0e-4475-4e0b-a46a-29e054adbf4f","system_id":"levelo_inurba_marseille","lat":43.290336,"lon":5.386425,"is_reserved":false,"is_disabled":false,"rental_uris":{"android":"levelo://app?vid=6b408f0e-4475-4e0b-a46a-29e054adbf4f","ios":"levelo://app?vid=6b408f0e-4475-4e0b-a46a-29e054adbf4f"},"vehicle_type_id":"4","last_reported":1706036753,"current_range_meters":0,"station_id":"ce4bh4p2rcd13ifvqe0g","pricing_plan_id":"free"},{"bike_id":"a660ca89-c1ec-4f6e-9d23-282f6cdb470c","system_id":"levelo_inurba_marseille","lat":43.302759,"lon":5.400793,"is_reserved":false,"is_disabled":false,"rental_uris":{"android":"levelo://app?vid=a660ca89-c1ec-4f6e-9d23-282f6cdb470c","ios":"levelo://app?vid=a660ca89-c1ec-4f6e-9d23-282f6cdb470c"},"vehicle_type_id":"4","last_reported":1706036753,"current_range_meters":21200,"station_id":"ce4bgvh2rcd13ifvqcs0","pricing_plan_id":"free"},{"bike_id":"9926118d-a1c6-459d-bf57-a6d4eaaa41f5","system_id":"levelo_inurba_marseille","lat":43.290336,"lon":5.386425,"is_reserved":false,"is_disabled":false,"rental_uris":{"android":"levelo://app?vid=9926118d-a1c6-459d-bf57-a6d4eaaa41f5","ios":"levelo://app?vid=9926118d-a1c6-459d-bf57-a6d4eaaa41f5"},"vehicle_type_id":"4","last_reported":1706036753,"current_range_meters":9600,"station_id":"ce4bh4p2rcd13ifvqe0g","pricing_plan_id":"free"},{"bike_id":"d104f3b4-c3f7-46b5-8b4c-df93c3365b43","system_id":"levelo_inurba_marseille","lat":43.286039,"lon":5.370679,"is_reserved":false,"is_disabled":false,"rental_uris":{"android":"levelo://app?vid=d104f3b4-c3f7-46b5-8b4c-df93c3365b43","ios":"levelo://app?vid=d104f3b4-c3f7-46b5-8b4c-df93c3365b43"},"vehicle_type_id":"4","last_reported":1706036753,"current_range_meters":18800,"station_id":"ce4bht12rcd13ifvqi60","pricing_plan_id":"free"},{"bike_id":"4b8292d5-1ef8-48e8-a9fe-938c15e38956","system_id":"levelo_inurba_marseille","lat":43.286039,"lon":5.370679,"is_reserved":false,"is_disabled":false,"rental_uris":{"android":"levelo://app?vid=4b8292d5-1ef8-48e8-a9fe-938c15e38956","ios":"levelo://app?vid=4b8292d5-1ef8-48e8-a9fe-938c15e38956"},"vehicle_type_id":"4","last_reported":1706036753,"current_range_meters":17600,"station_id":"ce4bht12rcd13ifvqi60","pricing_plan_id":"free"},{"bike_id":"3655f821-97f2-43b0-8583-eb8a32af0530","system_id":"levelo_inurba_marseille","lat":43.286039,"lon":5.370679,"is_reserved":false,"is_disabled":false,"rental_uris":{"android":"levelo://app?vid=3655f821-97f2-43b0-8583-eb8a32af0530","ios":"levelo://app?vid=3655f821-97f2-43b0-8583-eb8a32af0530"},"vehicle_type_id":"4","last_reported":1706036753,"current_range_meters":13600,"station_id":"ce4bht12rcd13ifvqi60","pricing_plan_id":"free"},{"bike_id":"29dc1180-7dfa-4bbc-85a1-1e79184c13a3","system_id":"levelo_inurba_marseille","lat":43.287184,"lon":5.37937,"is_reserved":false,"is_disabled":false,"rental_uris":{"android":"levelo://app?vid=29dc1180-7dfa-4bbc-85a1-1e79184c13a3","ios":"levelo://app?vid=29dc1180-7dfa-4bbc-85a1-1e79184c13a3"},"vehicle_type_id":"4","last_reported":1706036753,"current_range_meters":0,"station_id":"ce4bh9p2rcd13ifvqec0","pricing_plan_id":"free"},{"bike_id":"18ee6559-7127-4669-9216-d31137098814","system_id":"levelo_inurba_marseille","lat":43.290336,"lon":5.386425,"is_reserved":false,"is_disabled":false,"rental_uris":{"android":"levelo://app?vid=18ee6559-7127-4669-9216-d31137098814","ios":"levelo://app?vid=18ee6559-7127-4669-9216-d31137098814"},"vehicle_type_id":"4","last_reported":1706036753,"current_range_meters":4800,"station_id":"ce4bh4p2rcd13ifvqe0g","pricing_plan_id":"free"},{"bike_id":"ddcf175c-9fe6-4ad7-a1e3-acbbc7e7cdba","system_id":"levelo_inurba_marseille","lat":43.290791,"lon":5.390219,"is_reserved":false,"is_disabled":false,"rental_uris":{"android":"levelo://app?vid=ddcf175c-9fe6-4ad7-a1e3-acbbc7e7cdba","ios":"levelo://app?vid=ddcf175c-9fe6-4ad7-a1e3-acbbc7e7cdba"},"vehicle_type_id":"4","last_reported":1706036753,"current_range_meters":6000,"station_id":"","pricing_plan_id":"free"},{"bike_id":"46f656e7-7094-4ca4-84aa-d96e8f080c38","system_id":"levelo_inurba_marseille","lat":43.287184,"lon":5.37937,"is_reserved":false,"is_disabled":false,"rental_uris":{"android":"levelo://app?vid=46f656e7-7094-4ca4-84aa-d96e8f080c38","ios":"levelo://app?vid=46f656e7-7094-4ca4-84aa-d96e8f080c38"},"vehicle_type_id":"4","last_reported":1706036753,"current_range_meters":15600,"station_id":"ce4bh9p2rcd13ifvqec0","pricing_plan_id":"free"},{"bike_id":"f0930ad0-c7af-47ed-b709-5930ac874dd0","system_id":"levelo_inurba_marseille","lat":43.29199,"lon":5.39307,"is_reserved":false,"is_disabled":false,"rental_uris":{"android":"levelo://app?vid=f0930ad0-c7af-47ed-b709-5930ac874dd0","ios":"levelo://app?vid=f0930ad0-c7af-47ed-b709-5930ac874dd0"},"vehicle_type_id":"4","last_reported":1706036753,"current_range_meters":12000,"station_id":"ce4bh192rcd13ifvqdd0","pricing_plan_id":"free"},{"bike_id":"70948f58-0c20-4cf4-9409-38f435a8fe8c","system_id":"levelo_inurba_marseille","lat":43.291994,"lon":5.392907,"is_reserved":false,"is_disabled":false,"rental_uris":{"android":"levelo://app?vid=70948f58-0c20-4cf4-9409-38f435a8fe8c","ios":"levelo://app?vid=70948f58-0c20-4cf4-9409-38f435a8fe8c"},"vehicle_type_id":"4","last_reported":1706036753,"current_range_meters":2000,"station_id":"ce4bh192rcd13ifvqdd0","pricing_plan_id":"free"},{"bike_id":"1372a274-f72b-41d3-a0b9-b741a687307d","system_id":"levelo_inurba_marseille","lat":43.291994,"lon":5.392907,"is_reserved":false,"is_disabled":false,"rental_uris":{"android":"levelo://app?vid=1372a274-f72b-41d3-a0b9-b741a687307d","ios":"levelo://app?vid=1372a274-f72b-41d3-a0b9-b741a687307d"},"vehicle_type_id":"4","last_reported":1706036753,"current_range_meters":19200,"station_id":"ce4bh192rcd13ifvqdd0","pricing_plan_id":"free"},{"bike_id":"6e93c2b9-4080-4cff-a85d-1f143d588969","system_id":"levelo_inurba_marseille","lat":43.291994,"lon":5.392907,"is_reserved":false,"is_disabled":false,"rental_uris":{"android":"levelo://app?vid=6e93c2b9-4080-4cff-a85d-1f143d588969","ios":"levelo://app?vid=6e93c2b9-4080-4cff-a85d-1f143d588969"},"vehicle_type_id":"4","last_reported":1706036753,"current_range_meters":10000,"station_id":"ce4bh192rcd13ifvqdd0","pricing_plan_id":"free"},{"bike_id":"fa89d402-f3ea-4b64-8fe4-7b9edadbc1c2","system_id":"levelo_inurba_marseille","lat":43.291994,"lon":5.392907,"is_reserved":false,"is_disabled":false,"rental_uris":{"android":"levelo://app?vid=fa89d402-f3ea-4b64-8fe4-7b9edadbc1c2","ios":"levelo://app?vid=fa89d402-f3ea-4b64-8fe4-7b9edadbc1c2"},"vehicle_type_id":"4","last_reported":1706036753,"current_range_meters":19600,"station_id":"ce4bh192rcd13ifvqdd0","pricing_plan_id":"free"},{"bike_id":"e89c46d0-56c5-4e25-8ae9-1e4b1bff0351","system_id":"levelo_inurba_marseille","lat":43.291994,"lon":5.392907,"is_reserved":false,"is_disabled":false,"rental_uris":{"android":"levelo://app?vid=e89c46d0-56c5-4e25-8ae9-1e4b1bff0351","ios":"levelo://app?vid=e89c46d0-56c5-4e25-8ae9-1e4b1bff0351"},"vehicle_type_id":"4","last_reported":1706036753,"current_range_meters":5200,"station_id":"ce4bh192rcd13ifvqdd0","pricing_plan_id":"free"},{"bike_id":"d2314da2-5448-4468-b395-5a3e39354626","system_id":"levelo_inurba_marseille","lat":43.284538,"lon":5.358657,"is_reserved":false,"is_disabled":false,"rental_uris":{"android":"levelo://app?vid=d2314da2-5448-4468-b395-5a3e39354626","ios":"levelo://app?vid=d2314da2-5448-4468-b395-5a3e39354626"},"vehicle_type_id":"4","last_reported":1706036753,"current_range_meters":12800,"station_id":"ce4bhah2rcd13ifvqei0","pricing_plan_id":"free"},{"bike_id":"130298ee-4ae2-4d1d-bb03-bb608ab3f6ff","system_id":"levelo_inurba_marseille","lat":43.284534,"lon":5.358662,"is_reserved":false,"is_disabled":false,"rental_uris":{"android":"levelo://app?vid=130298ee-4ae2-4d1d-bb03-bb608ab3f6ff","ios":"levelo://app?vid=130298ee-4ae2-4d1d-bb03-bb608ab3f6ff"},"vehicle_type_id":"4","last_reported":1706036753,"current_range_meters":17600,"station_id":"ce4bhah2rcd13ifvqei0","pricing_plan_id":"free"},{"bike_id":"957c2bba-3f7e-46cc-9780-8d07200366ad","system_id":"levelo_inurba_marseille","lat":43.284538,"lon":5.358657,"is_reserved":false,"is_disabled":false,"rental_uris":{"android":"levelo://app?vid=957c2bba-3f7e-46cc-9780-8d07200366ad","ios":"levelo://app?vid=957c2bba-3f7e-46cc-9780-8d07200366ad"},