{"last_updated":1773153589,"ttl":60,"version":"2.2","data":{"bikes":[{"bike_id":"d836b3f9-d22b-4e36-9788-587fa8497bc6","system_id":"levelo_inurba_marseille","lat":43.24171,"lon":5.36388,"is_reserved":false,"is_disabled":false,"rental_uris":{"android":"levelo://app?vid=d836b3f9-d22b-4e36-9788-587fa8497bc6","ios":"levelo://app?vid=d836b3f9-d22b-4e36-9788-587fa8497bc6"},"vehicle_type_id":"4","last_reported":1773153590,"current_range_meters":10000,"station_id":"cpo36qri1sfpv3e86is0","pricing_plan_id":"cebpf4jnsgd1na2vs0mg"},{"bike_id":"550f0157-9dee-4681-8f50-3896b766742f","system_id":"levelo_inurba_marseille","lat":43.25859,"lon":5.399,"is_reserved":false,"is_disabled":false,"rental_uris":{"android":"levelo://app?vid=550f0157-9dee-4681-8f50-3896b766742f","ios":"levelo://app?vid=550f0157-9dee-4681-8f50-3896b766742f"},"vehicle_type_id":"4","last_reported":1773153590,"current_range_meters":40000,"station_id":"ce4bhl92rcd13ifvqghg","pricing_plan_id":"cebpf4jnsgd1na2vs0mg"},{"bike_id":"4452580a-05ad-45ee-bb8c-e69d0760027b","system_id":"levelo_inurba_marseille","lat":43.30142,"lon":5.38116,"is_reserved":false,"is_disabled":false,"rental_uris":{"android":"levelo://app?vid=4452580a-05ad-45ee-bb8c-e69d0760027b","ios":"levelo://app?vid=4452580a-05ad-45ee-bb8c-e69d0760027b"},"vehicle_type_id":"4","last_reported":1773153590,"current_range_meters":32000,"station_id":"ce4bgjp2rcd13ifvqbh0","pricing_plan_id":"cebpf4jnsgd1na2vs0mg"},{"bike_id":"dcb476bc-523e-425a-9356-29a2d8b88b51","system_id":"levelo_inurba_marseille","lat":43.29034,"lon":5.38644,"is_reserved":false,"is_disabled":false,"rental_uris":{"android":"levelo://app?vid=dcb476bc-523e-425a-9356-29a2d8b88b51","ios":"levelo://app?vid=dcb476bc-523e-425a-9356-29a2d8b88b51"},"vehicle_type_id":"4","last_reported":1773153590,"current_range_meters":20400,"station_id":"ce4bh4p2rcd13ifvqe0g","pricing_plan_id":"cebpf4jnsgd1na2vs0mg"},{"bike_id":"aaa57c9c-a5dc-480c-97b9-d3c8d31e41e6","system_id":"levelo_inurba_marseille","lat":43.30448,"lon":5.36526,"is_reserved":false,"is_disabled":false,"rental_uris":{"android":"levelo://app?vid=aaa57c9c-a5dc-480c-97b9-d3c8d31e41e6","ios":"levelo://app?vid=aaa57c9c-a5dc-480c-97b9-d3c8d31e41e6"},"vehicle_type_id":"4","last_reported":1773153590,"current_range_meters":38000,"station_id":"","pricing_plan_id":"cebpf4jnsgd1na2vs0mg"},{"bike_id":"ec2fd004-5e6a-4378-b889-ecc25a28039f","system_id":"levelo_inurba_marseille","lat":43.28144,"lon":5.42645,"is_reserved":false,"is_disabled":false,"rental_uris":{"android":"levelo://app?vid=ec2fd004-5e6a-4378-b889-ecc25a28039f","ios":"levelo://app?vid=ec2fd004-5e6a-4378-b889-ecc25a28039f"},"vehicle_type_id":"4","last_reported":1773153590,"current_range_meters":34800,"station_id":"ce4bhnh2rcd13ifvqgug","pricing_plan_id":"cebpf4jnsgd1na2vs0mg"},{"bike_id":"957d5153-e7e5-4874-9557-99dd830de934","system_id":"levelo_inurba_marseille","lat":43.3464,"lon":5.36722,"is_reserved":false,"is_disabled":false,"rental_uris":{"android":"levelo://app?vid=957d5153-e7e5-4874-9557-99dd830de934","ios":"levelo://app?vid=957d5153-e7e5-4874-9557-99dd830de934"},"vehicle_type_id":"4","last_reported":1773153590,"current_range_meters":33600,"station_id":"","pricing_plan_id":"cebpf4jnsgd1na2vs0mg"},{"bike_id":"18f1c463-f6d6-4fd3-b57c-9bff424cb238","system_id":"levelo_inurba_marseille","lat":43.29265,"lon":5.37625,"is_reserved":false,"is_disabled":false,"rental_uris":{"android":"levelo://app?vid=18f1c463-f6d6-4fd3-b57c-9bff424cb238","ios":"levelo://app?vid=18f1c463-f6d6-4fd3-b57c-9bff424cb238"},"vehicle_type_id":"4","last_reported":1773153590,"current_range_meters":37600,"station_id":"ce4bgi12rcd13ifvqb80","pricing_plan_id":"cebpf4jnsgd1na2vs0mg"},{"bike_id":"4b816d63-fc3c-45dd-aea6-96b4203fe4c8","system_id":"levelo_inurba_marseille","lat":43.28468,"lon":5.48397,"is_reserved":false,"is_disabled":false,"rental_uris":{"android":"levelo://app?vid=4b816d63-fc3c-45dd-aea6-96b4203fe4c8","ios":"levelo://app?vid=4b816d63-fc3c-45dd-aea6-96b4203fe4c8"},"vehicle_type_id":"4","last_reported":1773153590,"current_range_meters":38000,"station_id":"st_d3svhcjqgbts73a3dn0g","pricing_plan_id":"cebpf4jnsgd1na2vs0mg"},{"bike_id":"b04c95e5-19af-4111-9487-4220ad05e117","system_id":"levelo_inurba_marseille","lat":43.31881,"lon":5.4074,"is_reserved":false,"is_disabled":false,"rental_uris":{"android":"levelo://app?vid=b04c95e5-19af-4111-9487-4220ad05e117","ios":"levelo://app?vid=b04c95e5-19af-4111-9487-4220ad05e117"},"vehicle_type_id":"4","last_reported":1773153590,"current_range_meters":35200,"station_id":"ce4bhq12rcd13ifvqhig","pricing_plan_id":"cebpf4jnsgd1na2vs0mg"},{"bike_id":"9548c5b7-5eac-46d1-8ff7-8823f888763f","system_id":"levelo_inurba_marseille","lat":43.33192,"lon":5.37759,"is_reserved":false,"is_disabled":false,"rental_uris":{"android":"levelo://app?vid=9548c5b7-5eac-46d1-8ff7-8823f888763f","ios":"levelo://app?vid=9548c5b7-5eac-46d1-8ff7-8823f888763f"},"vehicle_type_id":"4","last_reported":1773153590,"current_range_meters":34800,"station_id":"","pricing_plan_id":"cebpf4jnsgd1na2vs0mg"},{"bike_id":"7f4a5dc3-3d0c-42cb-90e4-9c2d478919d0","system_id":"levelo_inurba_marseille","lat":43.29632,"lon":5.37135,"is_reserved":false,"is_disabled":false,"rental_uris":{"android":"levelo://app?vid=7f4a5dc3-3d0c-42cb-90e4-9c2d478919d0","ios":"levelo://app?vid=7f4a5dc3-3d0c-42cb-90e4-9c2d478919d0"},"vehicle_type_id":"4","last_reported":1773153590,"current_range_meters":36800,"station_id":"ce4bgnh2rcd13ifvqc0g","pricing_plan_id":"cebpf4jnsgd1na2vs0mg"},{"bike_id":"1ee08fee-017d-4804-9294-89d045f096b0","system_id":"levelo_inurba_marseille","lat":43.279905,"lon":5.4001,"is_reserved":false,"is_disabled":false,"rental_uris":{"android":"levelo://app?vid=1ee08fee-017d-4804-9294-89d045f096b0","ios":"levelo://app?vid=1ee08fee-017d-4804-9294-89d045f096b0"},"vehicle_type_id":"4","last_reported":1773153590,"current_range_meters":21600,"station_id":"ce4bho92rcd13ifvqh4g","pricing_plan_id":"cebpf4jnsgd1na2vs0mg"},{"bike_id":"24797630-66e6-48ac-9e2f-402e12f91c0a","system_id":"levelo_inurba_marseille","lat":43.27993,"lon":5.41648,"is_reserved":false,"is_disabled":false,"rental_uris":{"android":"levelo://app?vid=24797630-66e6-48ac-9e2f-402e12f91c0a","ios":"levelo://app?vid=24797630-66e6-48ac-9e2f-402e12f91c0a"},"vehicle_type_id":"4","last_reported":1773153590,"current_range_meters":3200,"station_id":"ce4bho12rcd13ifvqh1g","pricing_plan_id":"cebpf4jnsgd1na2vs0mg"},{"bike_id":"f6b03d6a-96a8-4994-9cb3-1eb5a5aaf338","system_id":"levelo_inurba_marseille","lat":43.27581,"lon":5.38407,"is_reserved":false,"is_disabled":false,"rental_uris":{"android":"levelo://app?vid=f6b03d6a-96a8-4994-9cb3-1eb5a5aaf338","ios":"levelo://app?vid=f6b03d6a-96a8-4994-9cb3-1eb5a5aaf338"},"vehicle_type_id":"4","last_reported":1773153590,"current_range_meters":35200,"station_id":"ce4bhh92rcd13ifvqfi0","pricing_plan_id":"cebpf4jnsgd1na2vs0mg"},{"bike_id":"2e3bdd21-d806-4d6a-9aef-090b2353cdc7","system_id":"levelo_inurba_marseille","lat":43.29063,"lon":5.37138,"is_reserved":false,"is_disabled":false,"rental_uris":{"android":"levelo://app?vid=2e3bdd21-d806-4d6a-9aef-090b2353cdc7","ios":"levelo://app?vid=2e3bdd21-d806-4d6a-9aef-090b2353cdc7"},"vehicle_type_id":"4","last_reported":1773153590,"current_range_meters":32400,"station_id":"ce4bh5p2rcd13ifvqe4g","pricing_plan_id":"cebpf4jnsgd1na2vs0mg"},{"bike_id":"4a58236a-bfdd-4080-905c-95d2f2c8d0d2","system_id":"levelo_inurba_marseille","lat":43.28209,"lon":5.39065,"is_reserved":false,"is_disabled":false,"rental_uris":{"android":"levelo://app?vid=4a58236a-bfdd-4080-905c-95d2f2c8d0d2","ios":"levelo://app?vid=4a58236a-bfdd-4080-905c-95d2f2c8d0d2"},"vehicle_type_id":"4","last_reported":1773153590,"current_range_meters":27200,"station_id":"ce4bhn92rcd13ifvqgsg","pricing_plan_id":"cebpf4jnsgd1na2vs0mg"},{"bike_id":"b32e1fec-13ae-4c1f-b583-73be3e302a01","system_id":"levelo_inurba_marseille","lat":43.24811,"lon":5.37464,"is_reserved":false,"is_disabled":false,"rental_uris":{"android":"levelo://app?vid=b32e1fec-13ae-4c1f-b583-73be3e302a01","ios":"levelo://app?vid=b32e1fec-13ae-4c1f-b583-73be3e302a01"},"vehicle_type_id":"4","last_reported":1773153590,"current_range_meters":35600,"station_id":"ce4bhgh2rcd13ifvqfb0","pricing_plan_id":"cebpf4jnsgd1na2vs0mg"},{"bike_id":"864c6078-41af-4bee-945c-48c82002f112","system_id":"levelo_inurba_marseille","lat":43.32484,"lon":5.36597,"is_reserved":false,"is_disabled":false,"rental_uris":{"android":"levelo://app?vid=864c6078-41af-4bee-945c-48c82002f112","ios":"levelo://app?vid=864c6078-41af-4bee-945c-48c82002f112"},"vehicle_type_id":"4","last_reported":1773153590,"current_range_meters":24800,"station_id":"ce4bhs12rcd13ifvqhvg","pricing_plan_id":"cebpf4jnsgd1na2vs0mg"},{"bike_id":"a60534b3-9ee9-4333-a7c1-1f4c68d62ab0","system_id":"levelo_inurba_marseille","lat":43.2597,"lon":5.40887,"is_reserved":false,"is_disabled":false,"rental_uris":{"android":"levelo://app?vid=a60534b3-9ee9-4333-a7c1-1f4c68d62ab0","ios":"levelo://app?vid=a60534b3-9ee9-4333-a7c1-1f4c68d62ab0"},"vehicle_type_id":"4","last_reported":1773153590,"current_range_meters":32400,"station_id":"ce4bhm92rcd13ifvqglg","pricing_plan_id":"cebpf4jnsgd1na2vs0mg"},{"bike_id":"37f283b3-f4c9-46a8-b061-23abb822cfa9","system_id":"levelo_inurba_marseille","lat":43.30906,"lon":5.36841,"is_reserved":false,"is_disabled":false,"rental_uris":{"android":"levelo://app?vid=37f283b3-f4c9-46a8-b061-23abb822cfa9","ios":"levelo://app?vid=37f283b3-f4c9-46a8-b061-23abb822cfa9"},"vehicle_type_id":"4","last_reported":1773153590,"current_range_meters":23200,"station_id":"ce4bgn92rcd13ifvqbvg","pricing_plan_id":"cebpf4jnsgd1na2vs0mg"},{"bike_id":"abd13d01-d3b3-4b8f-a3f9-05a8c130dea1","system_id":"levelo_inurba_marseille","lat":43.28089,"lon":5.39612,"is_reserved":false,"is_disabled":false,"rental_uris":{"android":"levelo://app?vid=abd13d01-d3b3-4b8f-a3f9-05a8c130dea1","ios":"levelo://app?vid=abd13d01-d3b3-4b8f-a3f9-05a8c130dea1"},"vehicle_type_id":"4","last_reported":1773153590,"current_range_meters":38000,"station_id":"ce4bho12rcd13ifvqh2g","pricing_plan_id":"cebpf4jnsgd1na2vs0mg"},{"bike_id":"bcd27a1d-25c8-40a5-b9e7-b0f8934b6110","system_id":"levelo_inurba_marseille","lat":43.28924,"lon":5.38386,"is_reserved":false,"is_disabled":false,"rental_uris":{"android":"levelo://app?vid=bcd27a1d-25c8-40a5-b9e7-b0f8934b6110","ios":"levelo://app?vid=bcd27a1d-25c8-40a5-b9e7-b0f8934b6110"},"vehicle_type_id":"4","last_reported":1773153590,"current_range_meters":32800,"station_id":"ce4bh612rcd13ifvqe6g","pricing_plan_id":"cebpf4jnsgd1na2vs0mg"},{"bike_id":"9cc09629-76f8-46a4-a76a-172ee2993776","system_id":"levelo_inurba_marseille","lat":43.32122,"lon":5.36762,"is_reserved":false,"is_disabled":false,"rental_uris":{"android":"levelo://app?vid=9cc09629-76f8-46a4-a76a-172ee2993776","ios":"levelo://app?vid=9cc09629-76f8-46a4-a76a-172ee2993776"},"vehicle_type_id":"4","last_reported":1773153590,"current_range_meters":32000,"station_id":"ce4bhrh2rcd13ifvqhug","pricing_plan_id":"cebpf4jnsgd1na2vs0mg"},{"bike_id":"8b0f1346-6330-4238-948b-5b6886eebaf3","system_id":"levelo_inurba_marseille","lat":43.32248,"lon":5.38397,"is_reserved":false,"is_disabled":false,"rental_uris":{"android":"levelo://app?vid=8b0f1346-6330-4238-948b-5b6886eebaf3","ios":"levelo://app?vid=8b0f1346-6330-4238-948b-5b6886eebaf3"},"vehicle_type_id":"4","last_reported":1773153590,"current_range_meters":38000,"station_id":"ce4bhr12rcd13ifvqhqg","pricing_plan_id":"cebpf4jnsgd1na2vs0mg"},{"bike_id":"8ae944a9-73e4-40dd-b559-5de5fadd517a","system_id":"levelo_inurba_marseille","lat":43.26231,"lon":5.3741,"is_reserved":false,"is_disabled":false,"rental_uris":{"android":"levelo://app?vid=8ae944a9-73e4-40dd-b559-5de5fadd517a","ios":"levelo://app?vid=8ae944a9-73e4-40dd-b559-5de5fadd517a"},"vehicle_type_id":"4","last_reported":1773153590,"current_range_meters":19200,"station_id":"","pricing_plan_id":"cebpf4jnsgd1na2vs0mg"},{"bike_id":"576e366b-db98-4a43-9f0d-8f232b08834a","system_id":"levelo_inurba_marseille","lat":43.27827,"lon":5.39176,"is_reserved":false,"is_disabled":false,"rental_uris":{"android":"levelo://app?vid=576e366b-db98-4a43-9f0d-8f232b08834a","ios":"levelo://app?vid=576e366b-db98-4a43-9f0d-8f232b08834a"},"vehicle_type_id":"4","last_reported":1773153590,"current_range_meters":9200,"station_id":"ce4bhjp2rcd13ifvqga0","pricing_plan_id":"cebpf4jnsgd1na2vs0mg"},{"bike_id":"a47dc76b-3839-499b-be0e-88a6b6a03a8c","system_id":"levelo_inurba_marseille","lat":43.29264,"lon":5.38434,"is_reserved":false,"is_disabled":false,"rental_uris":{"android":"levelo://app?vid=a47dc76b-3839-499b-be0e-88a6b6a03a8c","ios":"levelo://app?vid=a47dc76b-3839-499b-be0e-88a6b6a03a8c"},"vehicle_type_id":"4","last_reported":1773153590,"current_range_meters":18000,"station_id":"ce4bh692rcd13ifvqea0","pricing_plan_id":"cebpf4jnsgd1na2vs0mg"},{"bike_id":"b5369474-d595-42d6-ba6e-c39f04602da0","system_id":"levelo_inurba_marseille","lat":43.22555,"lon":5.41656,"is_reserved":false,"is_disabled":false,"rental_uris":{"android":"levelo://app?vid=b5369474-d595-42d6-ba6e-c39f04602da0","ios":"levelo://app?vid=b5369474-d595-42d6-ba6e-c39f04602da0"},"vehicle_type_id":"4","last_reported":1773153590,"current_range_meters":39200,"station_id":"st_d2o4gvlbi1j2169b742g","pricing_plan_id":"cebpf4jnsgd1na2vs0mg"},{"bike_id":"5c75f21b-7e95-43b6-a338-699ae6c6da3a","system_id":"levelo_inurba_marseille","lat":43.25832,"lon":5.39422,"is_reserved":false,"is_disabled":false,"rental_uris":{"android":"levelo://app?vid=5c75f21b-7e95-43b6-a338-699ae6c6da3a","ios":"levelo://app?vid=5c75f21b-7e95-43b6-a338-699ae6c6da3a"},"vehicle_type_id":"4","last_reported":1773153590,"current_range_meters":11200,"station_id":"ce4bhip2rcd13ifvqft0","pricing_plan_id":"cebpf4jnsgd1na2vs0mg"},{"bike_id":"defb3785-ffdb-45c6-b37a-b3aa30aa857c","system_id":"levelo_inurba_marseille","lat":43.24184,"lon":5.39726,"is_reserved":false,"is_disabled":false,"rental_uris":{"android":"levelo://app?vid=defb3785-ffdb-45c6-b37a-b3aa30aa857c","ios":"levelo://app?vid=defb3785-ffdb-45c6-b37a-b3aa30aa857c"},"vehicle_type_id":"4","last_reported":1773153590,"current_range_meters":38000,"station_id":"ce4bhn12rcd13ifvqgpg","pricing_plan_id":"cebpf4jnsgd1na2vs0mg"},{"bike_id":"12e5d657-ddd9-4ff5-af0b-09795a36ed4a","system_id":"levelo_inurba_marseille","lat":43.28932,"lon":5.36643,"is_reserved":false,"is_disabled":false,"rental_uris":{"android":"levelo://app?vid=12e5d657-ddd9-4ff5-af0b-09795a36ed4a","ios":"levelo://app?vid=12e5d657-ddd9-4ff5-af0b-09795a36ed4a"},"vehicle_type_id":"4","last_reported":1773153590,"current_range_meters":6400,"station_id":"ce4bhap2rcd13ifvqek0","pricing_plan_id":"cebpf4jnsgd1na2vs0mg"},{"bike_id":"ffca8b48-6a41-4c14-bbf9-9d4227cddf8b","system_id":"levelo_inurba_marseille","lat":43.31699,"lon":5.4047,"is_reserved":false,"is_disabled":false,"rental_uris":{"android":"levelo://app?vid=ffca8b48-6a41-4c14-bbf9-9d4227cddf8b","ios":"levelo://app?vid=ffca8b48-6a41-4c14-bbf9-9d4227cddf8b"},"vehicle_type_id":"4","last_reported":1773153590,"current_range_meters":40000,"station_id":"ce4bh012rcd13ifvqd00","pricing_plan_id":"cebpf4jnsgd1na2vs0mg"},{"bike_id":"26aa5a84-7c56-4e4b-b67f-4e70084d4713","system_id":"levelo_inurba_marseille","lat":43.29264,"lon":5.36848,"is_reserved":false,"is_disabled":false,"rental_uris":{"android":"levelo://app?vid=26aa5a84-7c56-4e4b-b67f-4e70084d4713","ios":"levelo://app?vid=26aa5a84-7c56-4e4b-b67f-4e70084d4713"},"vehicle_type_id":"4","last_reported":1773153590,"current_range_meters":10800,"station_id":"ce4bhbp2rcd13ifvqesg","pricing_plan_id":"cebpf4jnsgd1na2vs0mg"},{"bike_id":"57be604b-33d9-4634-bc58-ddcff506a976","system_id":"levelo_inurba_marseille","lat":43.24069,"lon":5.37756,"is_reserved":false,"is_disabled":false,"rental_uris":{"android":"levelo://app?vid=57be604b-33d9-4634-bc58-ddcff506a976","ios":"levelo://app?vid=57be604b-33d9-4634-bc58-ddcff506a976"},"vehicle_type_id":"4","last_reported":1773153590,"current_range_meters":39200,"station_id":"ce4bhnp2rcd13ifvqgvg","pricing_plan_id":"cebpf4jnsgd1na2vs0mg"},{"bike_id":"92301597-bcc6-49d5-8a31-734ed133a3a0","system_id":"levelo_inurba_marseille","lat":43.28929,"lon":5.39648,"is_reserved":false,"is_disabled":false,"rental_uris":{"android":"levelo://app?vid=92301597-bcc6-49d5-8a31-734ed133a3a0","ios":"levelo://app?vid=92301597-bcc6-49d5-8a31-734ed133a3a0"},"vehicle_type_id":"4","last_reported":1773153590,"current_range_meters":40000,"station_id":"ce4bh3h2rcd13ifvqdn0","pricing_plan_id":"cebpf4jnsgd1na2vs0mg"},{"bike_id":"c3a6abe6-c2fe-4a0d-bd39-b1c9edd3f158","system_id":"levelo_inurba_marseille","lat":43.2952,"lon":5.37493,"is_reserved":false,"is_disabled":false,"rental_uris":{"android":"levelo://app?vid=c3a6abe6-c2fe-4a0d-bd39-b1c9edd3f158","ios":"levelo://app?vid=c3a6abe6-c2fe-4a0d-bd39-b1c9edd3f158"},"vehicle_type_id":"4","last_reported":1773153590,"current_range_meters":39200,"station_id":"ce4bgkp2rcd13ifvqbmg","pricing_plan_id":"cebpf4jnsgd1na2vs0mg"},{"bike_id":"4879d3c3-e3b5-42ca-ab65-740f4f2a8681","system_id":"levelo_inurba_marseille","lat":43.24165,"lon":5.36409,"is_reserved":false,"is_disabled":false,"rental_uris":{"android":"levelo://app?vid=4879d3c3-e3b5-42ca-ab65-740f4f2a8681","ios":"levelo://app?vid=4879d3c3-e3b5-42ca-ab65-740f4f2a8681"},"vehicle_type_id":"4","last_reported":1773153590,"current_range_meters":16400,"station_id":"cpo36qri1sfpv3e86is0","pricing_plan_id":"cebpf4jnsgd1na2vs0mg"},{"bike_id":"406dc9a2-14d2-43f3-b09a-1270cddb760c","system_id":"levelo_inurba_marseille","lat":43.2989,"lon":5.3743,"is_reserved":false,"is_disabled":false,"rental_uris":{"android":"levelo://app?vid=406dc9a2-14d2-43f3-b09a-1270cddb760c","ios":"levelo://app?vid=406dc9a2-14d2-43f3-b09a-1270cddb760c"},"vehicle_type_id":"4","last_reported":1773153590,"current_range_meters":39200,"station_id":"","pricing_plan_id":"cebpf4jnsgd1na2vs0mg"},{"bike_id":"6cfb7bd9-f8d6-449b-b9ee-b500434706d4","system_id":"levelo_inurba_marseille","lat":43.32459,"lon":5.36556,"is_reserved":false,"is_disabled":false,"rental_uris":{"android":"levelo://app?vid=6cfb7bd9-f8d6-449b-b9ee-b500434706d4","ios":"levelo://app?vid=6cfb7bd9-f8d6-449b-b9ee-b500434706d4"},"vehicle_type_id":"4","last_reported":1773153590,"current_range_meters":37600,"station_id":"ce4bhs12rcd13ifvqhvg","pricing_plan_id":"cebpf4jnsgd1na2vs0mg"},{"bike_id":"05681e4e-87b0-4520-8776-5b1952252019","system_id":"levelo_inurba_marseille","lat":43.30315,"lon":5.36892,"is_reserved":false,"is_disabled":false,"rental_uris":{"android":"levelo://app?vid=05681e4e-87b0-4520-8776-5b1952252019","ios":"levelo://app?vid=05681e4e-87b0-4520-8776-5b1952252019"},"vehicle_type_id":"4","last_reported":1773153590,"current_range_meters":32400,"station_id":"ce4bgqh2rcd13ifvqc5g","pricing_plan_id":"cebpf4jnsgd1na2vs0mg"},{"bike_id":"2c836b03-51a7-4097-96f7-8a0f0d0e719d","system_id":"levelo_inurba_marseille","lat":43.2482,"lon":5.37445,"is_reserved":false,"is_disabled":false,"rental_uris":{"android":"levelo://app?vid=2c836b03-51a7-4097-96f7-8a0f0d0e719d","ios":"levelo://app?vid=2c836b03-51a7-4097-96f7-8a0f0d0e719d"},"vehicle_type_id":"4","last_reported":1773153590,"current_range_meters":37600,"station_id":"ce4bhgh2rcd13ifvqfb0","pricing_plan_id":"cebpf4jnsgd1na2vs0mg"},{"bike_id":"5e98cd14-31b8-4319-a3f9-4020968dfdec","system_id":"levelo_inurba_marseille","lat":43.29571,"lon":5.3675,"is_reserved":false,"is_disabled":false,"rental_uris":{"android":"levelo://app?vid=5e98cd14-31b8-4319-a3f9-4020968dfdec","ios":"levelo://app?vid=5e98cd14-31b8-4319-a3f9-4020968dfdec"},"vehicle_type_id":"4","last_reported":1773153590,"current_range_meters":36400,"station_id":"ce4bgph2rcd13ifvqc2g","pricing_plan_id":"cebpf4jnsgd1na2vs0mg"},{"bike_id":"ddda36d3-10b6-466a-8e64-034094ae395a","system_id":"levelo_inurba_marseille","lat":43.33768,"lon":5.37485,"is_reserved":false,"is_disabled":true,"rental_uris":{"android":"levelo://app?vid=ddda36d3-10b6-466a-8e64-034094ae395a","ios":"levelo://app?vid=ddda36d3-10b6-466a-8e64-034094ae395a"},"vehicle_type_id":"4","last_reported":1773153590,"current_range_meters":0,"station_id":"","pricing_plan_id":"cebpf4jnsgd1na2vs0mg"},{"bike_id":"842e27a6-5d76-45f6-9bcb-6e4a753be90c","system_id":"levelo_inurba_marseille","lat":43.296,"lon":5.37707,"is_reserved":false,"is_disabled":false,"rental_uris":{"android":"levelo://app?vid=842e27a6-5d76-45f6-9bcb-6e4a753be90c","ios":"levelo://app?vid=842e27a6-5d76-45f6-9bcb-6e4a753be90c"},"vehicle_type_id":"4","last_reported":1773153590,"current_range_meters":8000,"station_id":"ce4bgi92rcd13ifvqb90","pricing_plan_id":"cebpf4jnsgd1na2vs0mg"},{"bike_id":"8c7782e1-107f-434e-a211-e451e78368f1","system_id":"levelo_inurba_marseille","lat":43.25853,"lon":5.39902,"is_reserved":false,"is_disabled":false,"rental_uris":{"android":"levelo://app?vid=8c7782e1-107f-434e-a211-e451e78368f1","ios":"levelo://app?vid=8c7782e1-107f-434e-a211-e451e78368f1"},"vehicle_type_id":"4","last_reported":1773153590,"current_range_meters":27600,"station_id":"ce4bhl92rcd13ifvqghg","pricing_plan_id":"cebpf4jnsgd1na2vs0mg"},{"bike_id":"6073a47f-518c-413d-af8e-2cd2ccfbc29d","system_id":"levelo_inurba_marseille","lat":43.25581,"lon":5.38232,"is_reserved":false,"is_disabled":false,"rental_uris":{"android":"levelo://app?vid=6073a47f-518c-413d-af8e-2cd2ccfbc29d","ios":"levelo://app?vid=6073a47f-518c-413d-af8e-2cd2ccfbc29d"},"vehicle_type_id":"4","last_reported":1773153590,"current_range_meters":38400,"station_id":"ce4bhih2rcd13ifvqfs0","pricing_plan_id":"cebpf4jnsgd1na2vs0mg"},{"bike_id":"05a6aeb6-8ecc-444c-a68d-cdb267f43480","system_id":"levelo_inurba_marseille","lat":43.24649,"lon":5.38886,"is_reserved":false,"is_disabled":false,"rental_uris":{"android":"levelo://app?vid=05a6aeb6-8ecc-444c-a68d-cdb267f43480","ios":"levelo://app?vid=05a6aeb6-8ecc-444c-a68d-cdb267f43480"},"vehicle_type_id":"4","last_reported":1773153590,"current_range_meters":38800,"station_id":"ce4bhg12rcd13ifvqf60","pricing_plan_id":"cebpf4jnsgd1na2vs0mg"},{"bike_id":"4d918a95-6ede-4f0d-8771-87f15900f998","system_id":"levelo_inurba_marseille","lat":43.30342,"lon":5.41935,"is_reserved":false,"is_disabled":true,"rental_uris":{"android":"levelo://app?vid=4d918a95-6ede-4f0d-8771-87f15900f998","ios":"levelo://app?vid=4d918a95-6ede-4f0d-8771-87f15900f998"},"vehicle_type_id":"4","last_reported":1773153590,"current_range_meters":30800,"station_id":"","pricing_plan_id":"cebpf4jnsgd1na2vs0mg"},{"bike_id":"941ec6ae-979a-4205-b2af-d407a3814e27","system_id":"levelo_inurba_marseille","lat":43.29042,"lon":5.37566,"is_reserved":false,"is_disabled":false,"rental_uris":{"android":"levelo://app?vid=941ec6ae-979a-4205-b2af-d407a3814e27","ios":"levelo://app?vid=941ec6ae-979a-4205-b2af-d407a3814e27"},"vehicle_type_id":"4","last_reported":1773153590,"current_range_meters":30400,"station_id":"ce4bh692rcd13ifvqe90","pricing_plan_id":"cebpf4jnsgd1na2vs0mg"},{"bike_id":"a5642da5-590f-492f-89f9-0fbe17148ab4","system_id":"levelo_inurba_marseille","lat":43.23782,"lon":5.36617,"is_reserved":false,"is_disabled":false,"rental_uris":{"android":"levelo://app?vid=a5642da5-590f-492f-89f9-0fbe17148ab4","ios":"levelo://app?vid=a5642da5-590f-492f-89f9-0fbe17148ab4"},"vehicle_type_id":"4","last_reported":1773153590,"current_range_meters":17600,"station_id":"st_d3nk18o9ro0c73en2l3g","pricing_plan_id":"cebpf4jnsgd1na2vs0mg"},{"bike_id":"ed8dec86-aa91-45f9-93c0-8464f27d0f2d","system_id":"levelo_inurba_marseille","lat":43.29522,"lon":5.38526,"is_reserved":false,"is_disabled":false,"rental_uris":{"android":"levelo://app?vid=ed8dec86-aa91-45f9-93c0-8464f27d0f2d","ios":"levelo://app?vid=ed8dec86-aa91-45f9-93c0-8464f27d0f2d"},"vehicle_type_id":"4","last_reported":1773153590,"current_range_meters":24800,"station_id":"ce4bgih2rcd13ifvqba0","pricing_plan_id":"cebpf4jnsgd1na2vs0mg"},{"bike_id":"69f2ffbf-585f-43a8-8001-70d9c4e50d2f","system_id":"levelo_inurba_marseille","lat":43.31337,"lon":5.36715,"is_reserved":false,"is_disabled":false,"rental_uris":{"android":"levelo://app?vid=69f2ffbf-585f-43a8-8001-70d9c4e50d2f","ios":"levelo://app?vid=69f2ffbf-585f-43a8-8001-70d9c4e50d2f"},"vehicle_type_id":"4","last_reported":1773153590,"current_range_meters":21600,"station_id":"ce4bgr92rcd13ifvqc6g","pricing_plan_id":"cebpf4jnsgd1na2vs0mg"},{"bike_id":"6bb31f69-0bdf-4e9e-b5c9-87ead37cf657","system_id":"levelo_inurba_marseille","lat":43.26546,"lon":5.37286,"is_reserved":false,"is_disabled":false,"rental_uris":{"android":"levelo://app?vid=6bb31f69-0bdf-4e9e-b5c9-87ead37cf657","ios":"levelo://app?vid=6bb31f69-0bdf-4e9e-b5c9-87ead37cf657"},"vehicle_type_id":"4","last_reported":1773153590,"current_range_meters":39200,"station_id":"ce4bhg12rcd13ifvqf70","pricing_plan_id":"cebpf4jnsgd1na2vs0mg"},{"bike_id":"525d593e-e5ab-4f9b-a084-f494d61aa115","system_id":"levelo_inurba_marseille","lat":43.30389,"lon":5.41846,"is_reserved":false,"is_disabled":false,"rental_uris":{"android":"levelo://app?vid=525d593e-e5ab-4f9b-a084-f494d61aa115","ios":"levelo://app?vid=525d593e-e5ab-4f9b-a084-f494d61aa115"},"vehicle_type_id":"4","last_reported":1773153590,"current_range_meters":38800,"station_id":"ce4bhop2rcd13ifvqh7g","pricing_plan_id":"cebpf4jnsgd1na2vs0mg"},{"bike_id":"cd5219ce-6d17-43ae-82cc-5f6bbb52f573","system_id":"levelo_inurba_marseille","lat":43.29804,"lon":5.3809,"is_reserved":false,"is_disabled":false,"rental_uris":{"android":"levelo://app?vid=cd5219ce-6d17-43ae-82cc-5f6bbb52f573","ios":"levelo://app?vid=cd5219ce-6d17-43ae-82cc-5f6bbb52f573"},"vehicle_type_id":"4","last_reported":1773153590,"current_range_meters":15200,"station_id":"ce4bgip2rcd13ifvqbb0","pricing_plan_id":"cebpf4jnsgd1na2vs0mg"},{"bike_id":"19978875-9c6e-45ef-ae36-aa9c375e7262","system_id":"levelo_inurba_marseille","lat":43.26557,"lon":5.37279,"is_reserved":false,"is_disabled":false,"rental_uris":{"android":"levelo://app?vid=19978875-9c6e-45ef-ae36-aa9c375e7262","ios":"levelo://app?vid=19978875-9c6e-45ef-ae36-aa9c375e7262"},"vehicle_type_id":"4","last_reported":1773153590,"current_range_meters":18800,"station_id":"ce4bhg12rcd13ifvqf70","pricing_plan_id":"cebpf4jnsgd1na2vs0mg"},{"bike_id":"584f94a8-9738-4289-81b1-d1bf00e66289","system_id":"levelo_inurba_marseille","lat":43.29804,"lon":5.42119,"is_reserved":false,"is_disabled":false,"rental_uris":{"android":"levelo://app?vid=584f94a8-9738-4289-81b1-d1bf00e66289","ios":"levelo://app?vid=584f94a8-9738-4289-81b1-d1bf00e66289"},"vehicle_type_id":"4","last_reported":1773153590,"current_range_meters":38800,"station_id":"","pricing_plan_id":"cebpf4jnsgd1na2vs0mg"},{"bike_id":"1dddf214-da8a-4b2e-a101-7925bc045082","system_id":"levelo_inurba_marseille","lat":43.27448,"lon":5.4161,"is_reserved":false,"is_disabled":false,"rental_uris":{"android":"levelo://app?vid=1dddf214-da8a-4b2e-a101-7925bc045082","ios":"levelo://app?vid=1dddf214-da8a-4b2e-a101-7925bc045082"},"vehicle_type_id":"4","last_reported":1773153590,"current_range_meters":23200,"station_id":"","pricing_plan_id":"cebpf4jnsgd1na2vs0mg"},{"bike_id":"c7ebcb10-e005-458a-b417-1dde5e562ec0","system_id":"levelo_inurba_marseille","lat":43.29547,"lon":5.37403,"is_reserved":false,"is_disabled":false,"rental_uris":{"android":"levelo://app?vid=c7ebcb10-e005-458a-b417-1dde5e562ec0","ios":"levelo://app?vid=c7ebcb10-e005-458a-b417-1dde5e562ec0"},"vehicle_type_id":"4","last_reported":1773153590,"current_range_meters":28400,"station_id":"","pricing_plan_id":"cebpf4jnsgd1na2vs0mg"},{"bike_id":"f3711349-3e20-461a-bd4e-fc3af2d6debc","system_id":"levelo_inurba_marseille","lat":43.28534,"lon":5.44094,"is_reserved":false,"is_disabled":false,"rental_uris":{"android":"levelo://app?vid=f3711349-3e20-461a-bd4e-fc3af2d6debc","ios":"levelo://app?vid=f3711349-3e20-461a-bd4e-fc3af2d6debc"},"vehicle_type_id":"4","last_reported":1773153590,"current_range_meters":9200,"station_id":"st_d3j3df2ikq2c7380ej80","pricing_plan_id":"cebpf4jnsgd1na2vs0mg"},{"bike_id":"146fdbe8-7e75-426c-9732-45b5ee14bcc0","system_id":"levelo_inurba_marseille","lat":43.23182,"lon":5.39987,"is_reserved":false,"is_disabled":false,"rental_uris":{"android":"levelo://app?vid=146fdbe8-7e75-426c-9732-45b5ee14bcc0","ios":"levelo://app?vid=146fdbe8-7e75-426c-9732-45b5ee14bcc0"},"vehicle_type_id":"4","last_reported":1773153590,"current_range_meters":40000,"station_id":"ce4bhn12rcd13ifvqgqg","pricing_plan_id":"cebpf4jnsgd1na2vs0mg"},{"bike_id":"622e5860-5704-4572-9f37-ca7b41d86075","system_id":"levelo_inurba_marseille","lat":43.32114,"lon":5.36779,"is_reserved":false,"is_disabled":false,"rental_uris":{"android":"levelo://app?vid=622e5860-5704-4572-9f37-ca7b41d86075","ios":"levelo://app?vid=622e5860-5704-4572-9f37-ca7b41d86075"},"vehicle_type_id":"4","last_reported":1773153590,"current_range_meters":39200,"station_id":"ce4bhrh2rcd13ifvqhug","pricing_plan_id":"cebpf4jnsgd1na2vs0mg"},{"bike_id":"df54282d-462c-4c9d-8e19-ace663d2371a","system_id":"levelo_inurba_marseille","lat":43.30207,"lon":5.39438,"is_reserved":false,"is_disabled":false,"rental_uris":{"android":"levelo://app?vid=df54282d-462c-4c9d-8e19-ace663d2371a","ios":"levelo://app?vid=df54282d-462c-4c9d-8e19-ace663d2371a"},"vehicle_type_id":"4","last_reported":1773153590,"current_range_meters":28400,"station_id":"ce4bh0p2rcd13ifvqd70","pricing_plan_id":"cebpf4jnsgd1na2vs0mg"},{"bike_id":"50f5dd10-198d-4bca-9bd8-0b5f78f3555f","system_id":"levelo_inurba_marseille","lat":43.30544,"lon":5.36696,"is_reserved":false,"is_disabled":false,"rental_uris":{"android":"levelo://app?vid=50f5dd10-198d-4bca-9bd8-0b5f78f3555f","ios":"levelo://app?vid=50f5dd10-198d-4bca-9bd8-0b5f78f3555f"},"vehicle_type_id":"4","last_reported":1773153590,"current_range_meters":39200,"station_id":"ce4bgrp2rcd13ifvqc9g","pricing_plan_id":"cebpf4jnsgd1na2vs0mg"},{"bike_id":"ba73a012-feeb-47aa-a729-e6a647324b84","system_id":"levelo_inurba_marseille","lat":43.29265,"lon":5.36835,"is_reserved":false,"is_disabled":false,"rental_uris":{"android":"levelo://app?vid=ba73a012-feeb-47aa-a729-e6a647324b84","ios":"levelo://app?vid=ba73a012-feeb-47aa-a729-e6a647324b84"},"vehicle_type_id":"4","last_reported":1773153590,"current_range_meters":38800,"station_id":"ce4bhbp2rcd13ifvqesg","pricing_plan_id":"cebpf4jnsgd1na2vs0mg"},{"bike_id":"48fdecad-937e-4d35-9d6d-13e2ebad536c","system_id":"levelo_inurba_marseille","lat":43.27204,"lon":5.39192,"is_reserved":false,"is_disabled":false,"rental_uris":{"android":"levelo://app?vid=48fdecad-937e-4d35-9d6d-13e2ebad536c","ios":"levelo://app?vid=48fdecad-937e-4d35-9d6d-13e2ebad536c"},"vehicle_type_id":"4","last_reported":1773153590,"current_range_meters":38400,"station_id":"ce4bhhp2rcd13ifvqfm0","pricing_plan_id":"cebpf4jnsgd1na2vs0mg"},{"bike_id":"026b6d39-1708-4c13-bb32-68f3e9bd9d47","system_id":"levelo_inurba_marseille","lat":43.2593,"lon":5.40914,"is_reserved":false,"is_disabled":false,"rental_uris":{"android":"levelo://app?vid=026b6d39-1708-4c13-bb32-68f3e9bd9d47","ios":"levelo://app?vid=026b6d39-1708-4c13-bb32-68f3e9bd9d47"},"vehicle_type_id":"4","last_reported":1773153590,"current_range_meters":18800,"station_id":"ce4bhm92rcd13ifvqglg","pricing_plan_id":"cebpf4jnsgd1na2vs0mg"},{"bike_id":"f42d357d-43c9-4859-93ae-7f9812f807cf","system_id":"levelo_inurba_marseille","lat":43.31703,"lon":5.37787,"is_reserved":false,"is_disabled":false,"rental_uris":{"android":"levelo://app?vid=f42d357d-43c9-4859-93ae-7f9812f807cf","ios":"levelo://app?vid=f42d357d-43c9-4859-93ae-7f9812f807cf"},"vehicle_type_id":"4","last_reported":1773153590,"current_range_meters":37600,"station_id":"ce4bgth2rcd13ifvqch0","pricing_plan_id":"cebpf4jnsgd1na2vs0mg"},{"bike_id":"eee948e3-4c9f-4db5-ac11-b6948fa1e03c","system_id":"levelo_inurba_marseille","lat":43.23192,"lon":5.35556,"is_reserved":false,"is_disabled":false,"rental_uris":{"android":"levelo://app?vid=eee948e3-4c9f-4db5-ac11-b6948fa1e03c","ios":"levelo://app?vid=eee948e3-4c9f-4db5-ac11-b6948fa1e03c"},"vehicle_type_id":"4","last_reported":1773153590,"current_range_meters":38400,"station_id":"ce4bhu92rcd13ifvqi70","pricing_plan_id":"cebpf4jnsgd1na2vs0mg"},{"bike_id":"531e89df-7d89-4282-92a7-19804985cdf6","system_id":"levelo_inurba_marseille","lat":43.24804,"lon":5.37456,"is_reserved":false,"is_disabled":false,"rental_uris":{"android":"levelo://app?vid=531e89df-7d89-4282-92a7-19804985cdf6","ios":"levelo://app?vid=531e89df-7d89-4282-92a7-19804985cdf6"},"vehicle_type_id":"4","last_reported":1773153590,"current_range_meters":39200,"station_id":"ce4bhgh2rcd13ifvqfb0","pricing_plan_id":"cebpf4jnsgd1na2vs0mg"},{"bike_id":"9b48402e-3ef0-4e83-aa48-db41cf0891a9","system_id":"levelo_inurba_marseille","lat":43.27067,"lon":5.38304,"is_reserved":false,"is_disabled":false,"rental_uris":{"android":"levelo://app?vid=9b48402e-3ef0-4e83-aa48-db41cf0891a9","ios":"levelo://app?vid=9b48402e-3ef0-4e83-aa48-db41cf0891a9"},"vehicle_type_id":"4","last_reported":1773153590,"current_range_meters":23200,"station_id":"st_d3n2fo6cfp8s73cte1j0","pricing_plan_id":"cebpf4jnsgd1na2vs0mg"},{"bike_id":"b60e7979-d245-4589-aeff-feb5d374d842","system_id":"levelo_inurba_marseille","lat":43.29913,"lon":5.37449,"is_reserved":false,"is_disabled":false,"rental_uris":{"android":"levelo://app?vid=b60e7979-d245-4589-aeff-feb5d374d842","ios":"levelo://app?vid=b60e7979-d245-4589-aeff-feb5d374d842"},"vehicle_type_id":"4","last_reported":1773153590,"current_range_meters":26800,"station_id":"ce4bgjh2rcd13ifvqbg0","pricing_plan_id":"cebpf4jnsgd1na2vs0mg"},{"bike_id":"4b5116e0-5a5c-4dc0-9155-ccbc69c13cef","system_id":"levelo_inurba_marseille","lat":43.27057,"lon":5.42262,"is_reserved":false,"is_disabled":false,"rental_uris":{"android":"levelo://app?vid=4b5116e0-5a5c-4dc0-9155-ccbc69c13cef","ios":"levelo://app?vid=4b5116e0-5a5c-4dc0-9155-ccbc69c13cef"},"vehicle_type_id":"4","last_reported":1773153590,"current_range_meters":40000,"station_id":"ce4bhk92rcd13ifvqgb0","pricing_plan_id":"cebpf4jnsgd1na2vs0mg"},{"bike_id":"83d7f33c-d1db-4292-9262-93ff1da802eb","system_id":"levelo_inurba_marseille","lat":43.32547,"lon":5.41446,"is_reserved":false,"is_disabled":false,"rental_uris":{"android":"levelo://app?vid=83d7f33c-d1db-4292-9262-93ff1da802eb","ios":"levelo://app?vid=83d7f33c-d1db-4292-9262-93ff1da802eb"},"vehicle_type_id":"4","last_reported":1773153590,"current_range_meters":36400,"station_id":"ce4bhq12rcd13ifvqhhg","pricing_plan_id":"cebpf4jnsgd1na2vs0mg"},{"bike_id":"93610280-3e40-40c2-8a0c-0a8ce5075865","system_id":"levelo_inurba_marseille","lat":43.29727,"lon":5.41059,"is_reserved":false,"is_disabled":false,"rental_uris":{"android":"levelo://app?vid=93610280-3e40-40c2-8a0c-0a8ce5075865","ios":"levelo://app?vid=93610280-3e40-40c2-8a0c-0a8ce5075865"},"vehicle_type_id":"4","last_reported":1773153590,"current_range_meters":33200,"station_id":"","pricing_plan_id":"cebpf4jnsgd1na2vs0mg"},{"bike_id":"06edd7c5-c7ad-4e6c-91a3-4778c8412447","system_id":"levelo_inurba_marseille","lat":43.24057,"lon":5.37719,"is_reserved":false,"is_disabled":false,"rental_uris":{"android":"levelo://app?vid=06edd7c5-c7ad-4e6c-91a3-4778c8412447","ios":"levelo://app?vid=06edd7c5-c7ad-4e6c-91a3-4778c8412447"},"vehicle_type_id":"4","last_reported":1773153590,"current_range_meters":39200,"station_id":"ce4bhnp2rcd13ifvqgvg","pricing_plan_id":"cebpf4jnsgd1na2vs0mg"},{"bike_id":"8bc805ca-bcac-46ab-b9b9-1126461e799c","system_id":"levelo_inurba_marseille","lat":43.31077,"lon":5.42436,"is_reserved":false,"is_disabled":false,"rental_uris":{"android":"levelo://app?vid=8bc805ca-bcac-46ab-b9b9-1126461e799c","ios":"levelo://app?vid=8bc805ca-bcac-46ab-b9b9-1126461e799c"},"vehicle_type_id":"4","last_reported":1773153590,"current_range_meters":33200,"station_id":"ce4bhp92rcd13ifvqhag","pricing_plan_id":"cebpf4jnsgd1na2vs0mg"},{"bike_id":"646ab3a5-3de5-4d44-9559-225187a6ec10","system_id":"levelo_inurba_marseille","lat":43.29634,"lon":5.406,"is_reserved":false,"is_disabled":false,"rental_uris":{"android":"levelo://app?vid=646ab3a5-3de5-4d44-9559-225187a6ec10","ios":"levelo://app?vid=646ab3a5-3de5-4d44-9559-225187a6ec10"},"vehicle_type_id":"4","last_reported":1773153590,"current_range_meters":38800,"station_id":"ce4bh0h2rcd13ifvqd60","pricing_plan_id":"cebpf4jnsgd1na2vs0mg"},{"bike_id":"b5f247d8-3934-4f5f-88d5-1ed966db082c","system_id":"levelo_inurba_marseille","lat":43.30547,"lon":5.36535,"is_reserved":false,"is_disabled":false,"rental_uris":{"android":"levelo://app?vid=b5f247d8-3934-4f5f-88d5-1ed966db082c","ios":"levelo://app?vid=b5f247d8-3934-4f5f-88d5-1ed966db082c"},"vehicle_type_id":"4","last_reported":1773153590,"current_range_meters":35200,"station_id":"ce4bgs12rcd13ifvqcag","pricing_plan_id":"cebpf4jnsgd1na2vs0mg"},{"bike_id":"905cd94e-2347-4c21-891c-949be2f37f85","system_id":"levelo_inurba_marseille","lat":43.29811,"lon":5.4188,"is_reserved":false,"is_disabled":false,"rental_uris":{"android":"levelo://app?vid=905cd94e-2347-4c21-891c-949be2f37f85","ios":"levelo://app?vid=905cd94e-2347-4c21-891c-949be2f37f85"},"vehicle_type_id":"4","last_reported":1773153590,"current_range_meters":32800,"station_id":"","pricing_plan_id":"cebpf4jnsgd1na2vs0mg"},{"bike_id":"f4c2c458-3357-4fa4-993e-2866374e35fc","system_id":"levelo_inurba_marseille","lat":43.2906,"lon":5.37555,"is_reserved":false,"is_disabled":false,"rental_uris":{"android":"levelo://app?vid=f4c2c458-3357-4fa4-993e-2866374e35fc","ios":"levelo://app?vid=f4c2c458-3357-4fa4-993e-2866374e35fc"},"vehicle_type_id":"4","last_reported":1773153590,"current_range_meters":15200,"station_id":"ce4bh692rcd13ifvqe90","pricing_plan_id":"cebpf4jnsgd1na2vs0mg"},{"bike_id":"e0dc69a6-751b-446d-8ea4-e240757d48e0","system_id":"levelo_inurba_marseille","lat":43.29597,"lon":5.37491,"is_reserved":false,"is_disabled":false,"rental_uris":{"android":"levelo://app?vid=e0dc69a6-751b-446d-8ea4-e240757d48e0","ios":"levelo://app?vid=e0dc69a6-751b-446d-8ea4-e240757d48e0"},"vehicle_type_id":"4","last_reported":1773153590,"current_range_meters":12400,"station_id":"ce4bgh92rcd13ifvqb50","pricing_plan_id":"cebpf4jnsgd1na2vs0mg"},{"bike_id":"850bdc54-848d-464a-b4a1-89c1f6dd7ade","system_id":"levelo_inurba_marseille","lat":43.2841,"lon":5.37526,"is_reserved":false,"is_disabled":false,"rental_uris":{"android":"levelo://app?vid=850bdc54-848d-464a-b4a1-89c1f6dd7ade","ios":"levelo://app?vid=850bdc54-848d-464a-b4a1-89c1f6dd7ade"},"vehicle_type_id":"4","last_reported":1773153590,"current_range_meters":30800,"station_id":"ce4bh412rcd13ifvqds0","pricing_plan_id":"cebpf4jnsgd1na2vs0mg"},{"bike_id":"fc29e4c6-afe9-4050-85b4-e55d43b26322","system_id":"levelo_inurba_marseille","lat":43.29799,"lon":5.3809,"is_reserved":false,"is_disabled":false,"rental_uris":{"android":"levelo://app?vid=fc29e4c6-afe9-4050-85b4-e55d43b26322","ios":"levelo://app?vid=fc29e4c6-afe9-4050-85b4-e55d43b26322"},"vehicle_type_id":"4","last_reported":1773153590,"current_range_meters":29600,"station_id":"ce4bgip2rcd13ifvqbb0","pricing_plan_id":"cebpf4jnsgd1na2vs0mg"},{"bike_id":"94ca7e3b-72f8-4e3c-9410-a4cf84138933","system_id":"levelo_inurba_marseille","lat":43.24651,"lon":5.38887,"is_reserved":false,"is_disabled":false,"rental_uris":{"android":"levelo://app?vid=94ca7e3b-72f8-4e3c-9410-a4cf84138933","ios":"levelo://app?vid=94ca7e3b-72f8-4e3c-9410-a4cf84138933"},"vehicle_type_id":"4","last_reported":1773153590,"current_range_meters":16000,"station_id":"ce4bhg12rcd13ifvqf60","pricing_plan_id":"cebpf4jnsgd1na2vs0mg"},{"bike_id":"9dcd69a8-245d-4121-a0fa-05057d3d8876","system_id":"levelo_inurba_marseille","lat":43.28161,"lon":5.42605,"is_reserved":false,"is_disabled":false,"rental_uris":{"android":"levelo://app?vid=9dcd69a8-245d-4121-a0fa-05057d3d8876","ios":"levelo://app?vid=9dcd69a8-245d-4121-a0fa-05057d3d8876"},"vehicle_type_id":"4","last_reported":1773153590,"current_range_meters":25600,"station_id":"ce4bhnh2rcd13ifvqgug","pricing_plan_id":"cebpf4jnsgd1na2vs0mg"},{"bike_id":"60e5c394-4cfd-4c08-9eb8-91e2aebe0948","system_id":"levelo_inurba_marseille","lat":43.28257,"lon":5.35061,"is_reserved":false,"is_disabled":false,"rental_uris":{"android":"levelo://app?vid=60e5c394-4cfd-4c08-9eb8-91e2aebe0948","ios":"levelo://app?vid=60e5c394-4cfd-4c08-9eb8-91e2aebe0948"},"vehicle_type_id":"4","last_reported":1773153590,"current_range_meters":28800,"station_id":"ce4bhbp2rcd13ifvqerg","pricing_plan_id":"cebpf4jnsgd1na2vs0mg"},{"bike_id":"c8ae8f92-ada1-4b1f-8c4e-64bca36eb94b","system_id":"levelo_inurba_marseille","lat":43.24943,"lon":5.40482,"is_reserved":false,"is_disabled":false,"rental_uris":{"android":"levelo://app?vid=c8ae8f92-ada1-4b1f-8c4e-64bca36eb94b","ios":"levelo://app?vid=c8ae8f92-ada1-4b1f-8c4e-64bca36eb94b"},"vehicle_type_id":"4","last_reported":1773153590,"current_range_meters":3600,"station_id":"st_d2ngiaodas8pm72gd1h0","pricing_plan_id":"cebpf4jnsgd1na2vs0mg"},{"bike_id":"413c5488-8e0c-42a5-9c2a-f5011c038966","system_id":"levelo_inurba_marseille","lat":43.25582,"lon":5.38224,"is_reserved":false,"is_disabled":false,"rental_uris":{"android":"levelo://app?vid=413c5488-8e0c-42a5-9c2a-f5011c038966","ios":"levelo://app?vid=413c5488-8e0c-42a5-9c2a-f5011c038966"},"vehicle_type_id":"4","last_reported":1773153590,"current_range_meters":39200,"station_id":"ce4bhih2rcd13ifvqfs0","pricing_plan_id":"cebpf4jnsgd1na2vs0mg"},{"bike_id":"cae74034-86e4-4564-8d5b-c52b7b65526d","system_id":"levelo_inurba_marseille","lat":43.25003,"lon":5.38933,"is_reserved":false,"is_disabled":false,"rental_uris":{"android":"levelo://app?vid=cae74034-86e4-4564-8d5b-c52b7b65526d","ios":"levelo://app?vid=cae74034-86e4-4564-8d5b-c52b7b65526d"},"vehicle_type_id":"4","last_reported":1773153590,"current_range_meters":16000,"station_id":"ce4bhgp2rcd13ifvqfd0","pricing_plan_id":"cebpf4jnsgd1na2vs0mg"},{"bike_id":"d4ab5560-384a-462e-a6f9-dabc338f5057","system_id":"levelo_inurba_marseille","lat":43.29174,"lon":5.37152,"is_reserved":false,"is_disabled":false,"rental_uris":{"android":"levelo://app?vid=d4ab5560-384a-462e-a6f9-dabc338f5057","ios":"levelo://app?vid=d4ab5560-384a-462e-a6f9-dabc338f5057"},"vehicle_type_id":"4","last_reported":1773153590,"current_range_meters":29600,"station_id":"ce4bha92rcd13ifvqeh0","pricing_plan_id":"cebpf4jnsgd1na2vs0mg"},{"bike_id":"d9084fab-d9aa-4edd-8989-c2edf4959f5d","system_id":"levelo_inurba_marseille","lat":43.26678,"lon":5.38269,"is_reserved":false,"is_disabled":false,"rental_uris":{"android":"levelo://app?vid=d9084fab-d9aa-4edd-8989-c2edf4959f5d","ios":"levelo://app?vid=d9084fab-d9aa-4edd-8989-c2edf4959f5d"},"vehicle_type_id":"4","last_reported":1773153590,"current_range_meters":39200,"station_id":"ce4bhg92rcd13ifvqf90","pricing_plan_id":"cebpf4jnsgd1na2vs0mg"},{"bike_id":"d600fe0a-56d2-4a7b-8c97-cc5010c8cd24","system_id":"levelo_inurba_marseille","lat":43.29308,"lon":5.37522,"is_reserved":false,"is_disabled":true,"rental_uris":{"android":"levelo://app?vid=d600fe0a-56d2-4a7b-8c97-cc5010c8cd24","ios":"levelo://app?vid=d600fe0a-56d2-4a7b-8c97-cc5010c8cd24"},"vehicle_type_id":"4","last_reported":1773153590,"current_range_meters":39200,"station_id":"","pricing_plan_id":"cebpf4jnsgd1na2vs0mg"},{"bike_id":"6896d8eb-6c9e-4011-bd7c-c8043863197c","system_id":"levelo_inurba_marseille","lat":43.24823,"lon":5.3747,"is_reserved":false,"is_disabled":false,"rental_uris":{"android":"levelo://app?vid=6896d8eb-6c9e-4011-bd7c-c8043863197c","ios":"levelo://app?vid=6896d8eb-6c9e-4011-bd7c-c8043863197c"},"vehicle_type_id":"4","last_reported":1773153590,"current_range_meters":24400,"station_id":"ce4bhgh2rcd13ifvqfb0","pricing_plan_id":"cebpf4jnsgd1na2vs0mg"},{"bike_id":"5c62e568-d02b-4a90-93ef-f8e3b6ced1b9","system_id":"levelo_inurba_marseille","lat":43.3186,"lon":5.39991,"is_reserved":false,"is_disabled":false,"rental_uris":{"android":"levelo://app?vid=5c62e568-d02b-4a90-93ef-f8e3b6ced1b9","ios":"levelo://app?vid=5c62e568-d02b-4a90-93ef-f8e3b6ced1b9"},"vehicle_type_id":"4","last_reported":1773153590,"current_range_meters":4000,"station_id":"","pricing_plan_id":"cebpf4jnsgd1na2vs0mg"},{"bike_id":"edff2cc4-a071-4a15-bf25-7895bd87b49e","system_id":"levelo_inurba_marseille","lat":43.22563,"lon":5.41644,"is_reserved":false,"is_disabled":false,"rental_uris":{"android":"levelo://app?vid=edff2cc4-a071-4a15-bf25-7895bd87b49e","ios":"levelo://app?vid=edff2cc4-a071-4a15-bf25-7895bd87b49e"},"vehicle_type_id":"4","last_reported":1773153590,"current_range_meters":39200,"station_id":"st_d2o4gvlbi1j2169b742g","pricing_plan_id":"cebpf4jnsgd1na2vs0mg"},{"bike_id":"e4897773-fef9-446d-a205-6ea4308f3d60","system_id":"levelo_inurba_marseille","lat":43.22565,"lon":5.41622,"is_reserved":false,"is_disabled":false,"rental_uris":{"android":"levelo://app?vid=e4897773-fef9-446d-a205-6ea4308f3d60","ios":"levelo://app?vid=e4897773-fef9-446d-a205-6ea4308f3d60"},"vehicle_type_id":"4","last_reported":1773153590,"current_range_meters":6000,"station_id":"st_d2o4gvlbi1j2169b742g","pricing_plan_id":"cebpf4jnsgd1na2vs0mg"},{"bike_id":"33eb8fb3-603e-4c84-a933-cc95f133c3af","system_id":"levelo_inurba_marseille","lat":43.29593,"lon":5.37579,"is_reserved":false,"is_disabled":false,"rental_uris":{"android":"levelo://app?vid=33eb8fb3-603e-4c84-a933-cc95f133c3af","ios":"levelo://app?vid=33eb8fb3-603e-4c84-a933-cc95f133c3af"},"vehicle_type_id":"4","last_reported":1773153590,"current_range_meters":24000,"station_id":"","pricing_plan_id":"cebpf4jnsgd1na2vs0mg"},{"bike_id":"ef43e318-c00c-44b5-9fb0-7afc200a5f51","system_id":"levelo_inurba_marseille","lat":43.29831,"lon":5.41404,"is_reserved":false,"is_disabled":false,"rental_uris":{"android":"levelo://app?vid=ef43e318-c00c-44b5-9fb0-7afc200a5f51","ios":"levelo://app?vid=ef43e318-c00c-44b5-9fb0-7afc200a5f51"},"vehicle_type_id":"4","last_reported":1773153590,"current_range_meters":38800,"station_id":"","pricing_plan_id":"cebpf4jnsgd1na2vs0mg"},{"bike_id":"6068ad9c-a515-4320-b8b3-c547a9ae79e6","system_id":"levelo_inurba_marseille","lat":43.29698,"lon":5.37291,"is_reserved":false,"is_disabled":false,"rental_uris":{"android":"levelo://app?vid=6068ad9c-a515-4320-b8b3-c547a9ae79e6","ios":"levelo://app?vid=6068ad9c-a515-4320-b8b3-c547a9ae79e6"},"vehicle_type_id":"4","last_reported":1773153590,"current_range_meters":38400,"station_id":"ce4bgk12rcd13ifvqbj0","pricing_plan_id":"cebpf4jnsgd1na2vs0mg"},{"bike_id":"616f491c-e223-4356-9301-075ecb9eb28b","system_id":"levelo_inurba_marseille","lat":43.26216,"lon":5.40403,"is_reserved":false,"is_disabled":false,"rental_uris":{"android":"levelo://app?vid=616f491c-e223-4356-9301-075ecb9eb28b","ios":"levelo://app?vid=616f491c-e223-4356-9301-075ecb9eb28b"},"vehicle_type_id":"4","last_reported":1773153590,"current_range_meters":30800,"station_id":"ce4bhmh2rcd13ifvqgmg","pricing_plan_id":"cebpf4jnsgd1na2vs0mg"},{"bike_id":"e594ab4f-99d7-486f-a0b3-3cdbb6a3f196","system_id":"levelo_inurba_marseille","lat":43.28472,"lon":5.48414,"is_reserved":false,"is_disabled":false,"rental_uris":{"android":"levelo://app?vid=e594ab4f-99d7-486f-a0b3-3cdbb6a3f196","ios":"levelo://app?vid=e594ab4f-99d7-486f-a0b3-3cdbb6a3f196"},"vehicle_type_id":"4","last_reported":1773153590,"current_range_meters":33200,"station_id":"","pricing_plan_id":"cebpf4jnsgd1na2vs0mg"},{"bike_id":"cedac31f-b079-4e16-8fab-d7e72b3dd7b5","system_id":"levelo_inurba_marseille","lat":43.23145,"lon":5.43719,"is_reserved":false,"is_disabled":false,"rental_uris":{"android":"levelo://app?vid=cedac31f-b079-4e16-8fab-d7e72b3dd7b5","ios":"levelo://app?vid=cedac31f-b079-4e16-8fab-d7e72b3dd7b5"},"vehicle_type_id":"4","last_reported":1773153590,"current_range_meters":18000,"station_id":"ce4bhmp2rcd13ifvqgog","pricing_plan_id":"cebpf4jnsgd1na2vs0mg"},{"bike_id":"37686e6b-47d7-4425-9d76-29b3793ef589","system_id":"levelo_inurba_marseille","lat":43.31243,"lon":5.3683,"is_reserved":false,"is_disabled":false,"rental_uris":{"android":"levelo://app?vid=37686e6b-47d7-4425-9d76-29b3793ef589","ios":"levelo://app?vid=37686e6b-47d7-4425-9d76-29b3793ef589"},"vehicle_type_id":"4","last_reported":1773153590,"current_range_meters":36800,"station_id":"ce4bgl92rcd13ifvqbq0","pricing_plan_id":"cebpf4jnsgd1na2vs0mg"},{"bike_id":"11f1fdce-9987-446d-9ecb-d09d969f4ba8","system_id":"levelo_inurba_marseille","lat":43.28479,"lon":5.48394,"is_reserved":false,"is_disabled":false,"rental_uris":{"android":"levelo://app?vid=11f1fdce-9987-446d-9ecb-d09d969f4ba8","ios":"levelo://app?vid=11f1fdce-9987-446d-9ecb-d09d969f4ba8"},"vehicle_type_id":"4","last_reported":1773153590,"current_range_meters":36000,"station_id":"","pricing_plan_id":"cebpf4jnsgd1na2vs0mg"},{"bike_id":"3a8bc26a-5c68-4d97-8c2d-58027ad4c04e","system_id":"levelo_inurba_marseille","lat":43.29172,"lon":5.37143,"is_reserved":false,"is_disabled":false,"rental_uris":{"android":"levelo://app?vid=3a8bc26a-5c68-4d97-8c2d-58027ad4c04e","ios":"levelo://app?vid=3a8bc26a-5c68-4d97-8c2d-58027ad4c04e"},"vehicle_type_id":"4","last_reported":1773153590,"current_range_meters":36800,"station_id":"ce4bha92rcd13ifvqeh0","pricing_plan_id":"cebpf4jnsgd1na2vs0mg"},{"bike_id":"08c4662f-b8a6-4676-a2aa-27498ff34122","system_id":"levelo_inurba_marseille","lat":43.32104,"lon":5.36758,"is_reserved":false,"is_disabled":false,"rental_uris":{"android":"levelo://app?vid=08c4662f-b8a6-4676-a2aa-27498ff34122","ios":"levelo://app?vid=08c4662f-b8a6-4676-a2aa-27498ff34122"},"vehicle_type_id":"4","last_reported":1773153590,"current_range_meters":25200,"station_id":"ce4bhrh2rcd13ifvqhug","pricing_plan_id":"cebpf4jnsgd1na2vs0mg"},{"bike_id":"9a0031d7-25bf-4e8c-94ff-4784503d9cac","system_id":"levelo_inurba_marseille","lat":43.24359,"lon":5.44091,"is_reserved":false,"is_disabled":false,"rental_uris":{"android":"levelo://app?vid=9a0031d7-25bf-4e8c-94ff-4784503d9cac","ios":"levelo://app?vid=9a0031d7-25bf-4e8c-94ff-4784503d9cac"},"vehicle_type_id":"4","last_reported":1773153590,"current_range_meters":12400,"station_id":"","pricing_plan_id":"cebpf4jnsgd1na2vs0mg"},{"bike_id":"5e654f36-b9c7-448e-824d-57a1ae3d329d","system_id":"levelo_inurba_marseille","lat":43.27515,"lon":5.42456,"is_reserved":false,"is_disabled":false,"rental_uris":{"android":"levelo://app?vid=5e654f36-b9c7-448e-824d-57a1ae3d329d","ios":"levelo://app?vid=5e654f36-b9c7-448e-824d-57a1ae3d329d"},"vehicle_type_id":"4","last_reported":1773153590,"current_range_meters":24800,"station_id":"ce4bhn92rcd13ifvqgrg","pricing_plan_id":"cebpf4jnsgd1na2vs0mg"},{"bike_id":"a089d132-4ca7-4e22-b487-b543c4acdb4e","system_id":"levelo_inurba_marseille","lat":43.2559,"lon":5.38243,"is_reserved":false,"is_disabled":false,"rental_uris":{"android":"levelo://app?vid=a089d132-4ca7-4e22-b487-b543c4acdb4e","ios":"levelo://app?vid=a089d132-4ca7-4e22-b487-b543c4acdb4e"},"vehicle_type_id":"4","last_reported":1773153590,"current_range_meters":39200,"station_id":"ce4bhih2rcd13ifvqfs0","pricing_plan_id":"cebpf4jnsgd1na2vs0mg"},{"bike_id":"cad85399-ce9b-4502-a9d5-67d50bad52cc","system_id":"levelo_inurba_marseille","lat":43.22947,"lon":5.35378,"is_reserved":false,"is_disabled":false,"rental_uris":{"android":"levelo://app?vid=cad85399-ce9b-4502-a9d5-67d50bad52cc","ios":"levelo://app?vid=cad85399-ce9b-4502-a9d5-67d50bad52cc"},"vehicle_type_id":"4","last_reported":1773153590,"current_range_meters":19200,"station_id":"cpo3532slgdg3j2ikp40","pricing_plan_id":"cebpf4jnsgd1na2vs0mg"},{"bike_id":"c59c0bfc-c0a8-4710-a91c-e8d958367fd4","system_id":"levelo_inurba_marseille","lat":43.28465,"lon":5.38427,"is_reserved":false,"is_disabled":false,"rental_uris":{"android":"levelo://app?vid=c59c0bfc-c0a8-4710-a91c-e8d958367fd4","ios":"levelo://app?vid=c59c0bfc-c0a8-4710-a91c-e8d958367fd4"},"vehicle_type_id":"4","last_reported":1773153590,"current_range_meters":34800,"station_id":"ce4bh512rcd13ifvqe3g","pricing_plan_id":"cebpf4jnsgd1na2vs0mg"},{"bike_id":"aee5635f-19c8-46c3-95d5-b087e8decb9c","system_id":"levelo_inurba_marseille","lat":43.2552,"lon":5.37668,"is_reserved":false,"is_disabled":false,"rental_uris":{"android":"levelo://app?vid=aee5635f-19c8-46c3-95d5-b087e8decb9c","ios":"levelo://app?vid=aee5635f-19c8-46c3-95d5-b087e8decb9c"},"vehicle_type_id":"4","last_reported":1773153590,"current_range_meters":16800,"station_id":"ce4bhh12rcd13ifvqff0","pricing_plan_id":"cebpf4jnsgd1na2vs0mg"},{"bike_id":"ea21537d-918a-492c-a00d-aa6c3e5c9df0","system_id":"levelo_inurba_marseille","lat":43.22572,"lon":5.41613,"is_reserved":false,"is_disabled":false,"rental_uris":{"android":"levelo://app?vid=ea21537d-918a-492c-a00d-aa6c3e5c9df0","ios":"levelo://app?vid=ea21537d-918a-492c-a00d-aa6c3e5c9df0"},"vehicle_type_id":"4","last_reported":1773153590,"current_range_meters":22400,"station_id":"st_d2o4gvlbi1j2169b742g","pricing_plan_id":"cebpf4jnsgd1na2vs0mg"},{"bike_id":"f3db9b7c-2b10-49c3-ba53-fc7aefcbeb46","system_id":"levelo_inurba_marseille","lat":43.27677,"lon":5.38913,"is_reserved":false,"is_disabled":false,"rental_uris":{"android":"levelo://app?vid=f3db9b7c-2b10-49c3-ba53-fc7aefcbeb46","ios":"levelo://app?vid=f3db9b7c-2b10-49c3-ba53-fc7aefcbeb46"},"vehicle_type_id":"4","last_reported":1773153590,"current_range_meters":32800,"station_id":"ce4bhi12rcd13ifvqfo0","pricing_plan_id":"cebpf4jnsgd1na2vs0mg"},{"bike_id":"04d68502-e0df-44ef-98ff-8751e9131415","system_id":"levelo_inurba_marseille","lat":43.24165,"lon":5.36391,"is_reserved":false,"is_disabled":false,"rental_uris":{"android":"levelo://app?vid=04d68502-e0df-44ef-98ff-8751e9131415","ios":"levelo://app?vid=04d68502-e0df-44ef-98ff-8751e9131415"},"vehicle_type_id":"4","last_reported":1773153590,"current_range_meters":19600,"station_id":"cpo36qri1sfpv3e86is0","pricing_plan_id":"cebpf4jnsgd1na2vs0mg"},{"bike_id":"53c3c43d-a8df-40a0-a9b7-1df58d7e3850","system_id":"levelo_inurba_marseille","lat":43.2953,"lon":5.39039,"is_reserved":false,"is_disabled":false,"rental_uris":{"android":"levelo://app?vid=53c3c43d-a8df-40a0-a9b7-1df58d7e3850","ios":"levelo://app?vid=53c3c43d-a8df-40a0-a9b7-1df58d7e3850"},"vehicle_type_id":"4","last_reported":1773153590,"current_range_meters":35200,"station_id":"ce4bh3p2rcd13ifvqdp0","pricing_plan_id":"cebpf4jnsgd1na2vs0mg"},{"bike_id":"47889510-0f60-433d-9edc-1ef475f40ffe","system_id":"levelo_inurba_marseille","lat":43.28489,"lon":5.38548,"is_reserved":false,"is_disabled":false,"rental_uris":{"android":"levelo://app?vid=47889510-0f60-433d-9edc-1ef475f40ffe","ios":"levelo://app?vid=47889510-0f60-433d-9edc-1ef475f40ffe"},"vehicle_type_id":"4","last_reported":1773153590,"current_range_meters":35200,"station_id":"ce4bh8p2rcd13ifvqeb0","pricing_plan_id":"cebpf4jnsgd1na2vs0mg"},{"bike_id":"75fdfb90-ee0d-47d3-af9a-0975dd074a09","system_id":"levelo_inurba_marseille","lat":43.23157,"lon":5.43698,"is_reserved":false,"is_disabled":false,"rental_uris":{"android":"levelo://app?vid=75fdfb90-ee0d-47d3-af9a-0975dd074a09","ios":"levelo://app?vid=75fdfb90-ee0d-47d3-af9a-0975dd074a09"},"vehicle_type_id":"4","last_reported":1773153590,"current_range_meters":25600,"station_id":"ce4bhmp2rcd13ifvqgog","pricing_plan_id":"cebpf4jnsgd1na2vs0mg"},{"bike_id":"a7986b89-cfcc-41ec-8e0e-a75228e40442","system_id":"levelo_inurba_marseille","lat":43.31036,"lon":5.37144,"is_reserved":false,"is_disabled":false,"rental_uris":{"android":"levelo://app?vid=a7986b89-cfcc-41ec-8e0e-a75228e40442","ios":"levelo://app?vid=a7986b89-cfcc-41ec-8e0e-a75228e40442"},"vehicle_type_id":"4","last_reported":1773153590,"current_range_meters":31200,"station_id":"st_d4kl2rp97mjs73e7tdfg","pricing_plan_id":"cebpf4jnsgd1na2vs0mg"},{"bike_id":"072f5be3-e2d3-4243-a280-aa67dfb573ae","system_id":"levelo_inurba_marseille","lat":43.31189,"lon":5.37679,"is_reserved":false,"is_disabled":false,"rental_uris":{"android":"levelo://app?vid=072f5be3-e2d3-4243-a280-aa67dfb573ae","ios":"levelo://app?vid=072f5be3-e2d3-4243-a280-aa67dfb573ae"},"vehicle_type_id":"4","last_reported":1773153590,"current_range_meters":34800,"station_id":"","pricing_plan_id":"cebpf4jnsgd1na2vs0mg"},{"bike_id":"f069985b-4c79-4175-9e28-889f5d37f2db","system_id":"levelo_inurba_marseille","lat":43.2665,"lon":5.38275,"is_reserved":false,"is_disabled":false,"rental_uris":{"android":"levelo://app?vid=f069985b-4c79-4175-9e28-889f5d37f2db","ios":"levelo://app?vid=f069985b-4c79-4175-9e28-889f5d37f2db"},"vehicle_type_id":"4","last_reported":1773153590,"current_range_meters":22000,"station_id":"ce4bhg92rcd13ifvqf90","pricing_plan_id":"cebpf4jnsgd1na2vs0mg"},{"bike_id":"e9fd6972-e022-4385-80c1-64b318e81f36","system_id":"levelo_inurba_marseille","lat":43.25493,"lon":5.37645,"is_reserved":false,"is_disabled":false,"rental_uris":{"android":"levelo://app?vid=e9fd6972-e022-4385-80c1-64b318e81f36","ios":"levelo://app?vid=e9fd6972-e022-4385-80c1-64b318e81f36"},"vehicle_type_id":"4","last_reported":1773153590,"current_range_meters":36400,"station_id":"ce4bhh12rcd13ifvqff0","pricing_plan_id":"cebpf4jnsgd1na2vs0mg"},{"bike_id":"03d352bd-ec67-4b02-814e-5c1d4431092f","system_id":"levelo_inurba_marseille","lat":43.27566,"lon":5.38412,"is_reserved":false,"is_disabled":false,"rental_uris":{"android":"levelo://app?vid=03d352bd-ec67-4b02-814e-5c1d4431092f","ios":"levelo://app?vid=03d352bd-ec67-4b02-814e-5c1d4431092f"},"vehicle_type_id":"4","last_reported":1773153590,"current_range_meters":36400,"station_id":"ce4bhh92rcd13ifvqfi0","pricing_plan_id":"cebpf4jnsgd1na2vs0mg"},{"bike_id":"7e3bb1c1-f504-4b29-b169-7e546daec31f","system_id":"levelo_inurba_marseille","lat":43.24803,"lon":5.37464,"is_reserved":false,"is_disabled":false,"rental_uris":{"android":"levelo://app?vid=7e3bb1c1-f504-4b29-b169-7e546daec31f","ios":"levelo://app?vid=7e3bb1c1-f504-4b29-b169-7e546daec31f"},"vehicle_type_id":"4","last_reported":1773153590,"current_range_meters":36400,"station_id":"ce4bhgh2rcd13ifvqfb0","pricing_plan_id":"cebpf4jnsgd1na2vs0mg"},{"bike_id":"79ce6a44-61dd-477c-aa0b-1a849bd10fcb","system_id":"levelo_inurba_marseille","lat":43.28483,"lon":5.4839,"is_reserved":false,"is_disabled":false,"rental_uris":{"android":"levelo://app?vid=79ce6a44-61dd-477c-aa0b-1a849bd10fcb","ios":"levelo://app?vid=79ce6a44-61dd-477c-aa0b-1a849bd10fcb"},"vehicle_type_id":"4","last_reported":1773153590,"current_range_meters":26000,"station_id":"","pricing_plan_id":"cebpf4jnsgd1na2vs0mg"},{"bike_id":"d42cebad-c3aa-4be8-b33f-c44cf02b01f4","system_id":"levelo_inurba_marseille","lat":43.30318,"lon":5.36895,"is_reserved":false,"is_disabled":false,"rental_uris":{"android":"levelo://app?vid=d42cebad-c3aa-4be8-b33f-c44cf02b01f4","ios":"levelo://app?vid=d42cebad-c3aa-4be8-b33f-c44cf02b01f4"},"vehicle_type_id":"4","last_reported":1773153590,"current_range_meters":22400,"station_id":"ce4bgqh2rcd13ifvqc5g","pricing_plan_id":"cebpf4jnsgd1na2vs0mg"},{"bike_id":"ac8308a4-f739-4875-98d8-249fe4c0d891","system_id":"levelo_inurba_marseille","lat":43.32496,"lon":5.36517,"is_reserved":false,"is_disabled":false,"rental_uris":{"android":"levelo://app?vid=ac8308a4-f739-4875-98d8-249fe4c0d891","ios":"levelo://app?vid=ac8308a4-f739-4875-98d8-249fe4c0d891"},"vehicle_type_id":"4","last_reported":1773153590,"current_range_meters":39200,"station_id":"ce4bhs12rcd13ifvqhvg","pricing_plan_id":"cebpf4jnsgd1na2vs0mg"},{"bike_id":"63839d01-be07-406c-b01e-08930e985ea6","system_id":"levelo_inurba_marseille","lat":43.29035,"lon":5.38086,"is_reserved":false,"is_disabled":false,"rental_uris":{"android":"levelo://app?vid=63839d01-be07-406c-b01e-08930e985ea6","ios":"levelo://app?vid=63839d01-be07-406c-b01e-08930e985ea6"},"vehicle_type_id":"4","last_reported":1773153590,"current_range_meters":27200,"station_id":"ce4bh4p2rcd13ifvqe1g","pricing_plan_id":"cebpf4jnsgd1na2vs0mg"},{"bike_id":"dd11b5db-7b35-4df3-8a3a-d7161b3ca943","system_id":"levelo_inurba_marseille","lat":43.30582,"lon":5.37215,"is_reserved":false,"is_disabled":false,"rental_uris":{"android":"levelo://app?vid=dd11b5db-7b35-4df3-8a3a-d7161b3ca943","ios":"levelo://app?vid=dd11b5db-7b35-4df3-8a3a-d7161b3ca943"},"vehicle_type_id":"4","last_reported":1773153590,"current_range_meters":30000,"station_id":"ce4bgqh2rcd13ifvqc4g","pricing_plan_id":"cebpf4jnsgd1na2vs0mg"},{"bike_id":"6966191e-2a59-4d90-83f5-9dbb328087a0","system_id":"levelo_inurba_marseille","lat":43.28479,"lon":5.48393,"is_reserved":false,"is_disabled":false,"rental_uris":{"android":"levelo://app?vid=6966191e-2a59-4d90-83f5-9dbb328087a0","ios":"levelo://app?vid=6966191e-2a59-4d90-83f5-9dbb328087a0"},"vehicle_type_id":"4","last_reported":1773153590,"current_range_meters":4800,"station_id":"","pricing_plan_id":"cebpf4jnsgd1na2vs0mg"},{"bike_id":"d9d28d2b-cd5c-4b4a-8a10-e0fa96bdc2db","system_id":"levelo_inurba_marseille","lat":43.29399,"lon":5.3781,"is_reserved":false,"is_disabled":false,"rental_uris":{"android":"levelo://app?vid=d9d28d2b-cd5c-4b4a-8a10-e0fa96bdc2db","ios":"levelo://app?vid=d9d28d2b-cd5c-4b4a-8a10-e0fa96bdc2db"},"vehicle_type_id":"4","last_reported":1773153590,"current_range_meters":40000,"station_id":"ce4bgjh2rcd13ifvqbf0","pricing_plan_id":"cebpf4jnsgd1na2vs0mg"},{"bike_id":"95da7507-96c5-432d-b46f-d21b553028f3","system_id":"levelo_inurba_marseille","lat":43.29364,"lon":5.37854,"is_reserved":false,"is_disabled":false,"rental_uris":{"android":"levelo://app?vid=95da7507-96c5-432d-b46f-d21b553028f3","ios":"levelo://app?vid=95da7507-96c5-432d-b46f-d21b553028f3"},"vehicle_type_id":"4","last_reported":1773153590,"current_range_meters":17200,"station_id":"ce4bgjh2rcd13ifvqbf0","pricing_plan_id":"cebpf4jnsgd1na2vs0mg"},{"bike_id":"c67245cb-2170-4bce-8da2-b23385e30ee9","system_id":"levelo_inurba_marseille","lat":43.29761,"lon":5.4254,"is_reserved":false,"is_disabled":false,"rental_uris":{"android":"levelo://app?vid=c67245cb-2170-4bce-8da2-b23385e30ee9","ios":"levelo://app?vid=c67245cb-2170-4bce-8da2-b23385e30ee9"},"vehicle_type_id":"4","last_reported":1773153590,"current_range_meters":16000,"station_id":"","pricing_plan_id":"cebpf4jnsgd1na2vs0mg"},{"bike_id":"230684f5-ca8a-4bef-8f26-953b1777592b","system_id":"levelo_inurba_marseille","lat":43.30528,"lon":5.36551,"is_reserved":false,"is_disabled":false,"rental_uris":{"android":"levelo://app?vid=230684f5-ca8a-4bef-8f26-953b1777592b","ios":"levelo://app?vid=230684f5-ca8a-4bef-8f26-953b1777592b"},"vehicle_type_id":"4","last_reported":1773153590,"current_range_meters":17600,"station_id":"ce4bgs12rcd13ifvqcag","pricing_plan_id":"cebpf4jnsgd1na2vs0mg"},{"bike_id":"7efcf4c7-49f4-4be3-9e95-91715385053b","system_id":"levelo_inurba_marseille","lat":43.30309,"lon":5.36868,"is_reserved":false,"is_disabled":false,"rental_uris":{"android":"levelo://app?vid=7efcf4c7-49f4-4be3-9e95-91715385053b","ios":"levelo://app?vid=7efcf4c7-49f4-4be3-9e95-91715385053b"},"vehicle_type_id":"4","last_reported":1773153590,"current_range_meters":17600,"station_id":"ce4bgqh2rcd13ifvqc5g","pricing_plan_id":"cebpf4jnsgd1na2vs0mg"},{"bike_id":"b7e35d72-969e-4bf5-a3a7-5c6489e97a1a","system_id":"levelo_inurba_marseille","lat":43.23199,"lon":5.35533,"is_reserved":false,"is_disabled":false,"rental_uris":{"android":"levelo://app?vid=b7e35d72-969e-4bf5-a3a7-5c6489e97a1a","ios":"levelo://app?vid=b7e35d72-969e-4bf5-a3a7-5c6489e97a1a"},"vehicle_type_id":"4","last_reported":1773153590,"current_range_meters":38400,"station_id":"ce4bhu92rcd13ifvqi70","pricing_plan_id":"cebpf4jnsgd1na2vs0mg"},{"bike_id":"481d7f35-e3b3-4df8-80f2-d627e15bc73b","system_id":"levelo_inurba_marseille","lat":43.26204,"lon":5.37442,"is_reserved":false,"is_disabled":false,"rental_uris":{"android":"levelo://app?vid=481d7f35-e3b3-4df8-80f2-d627e15bc73b","ios":"levelo://app?vid=481d7f35-e3b3-4df8-80f2-d627e15bc73b"},"vehicle_type_id":"4","last_reported":1773153590,"current_range_meters":30800,"station_id":"ce4bhgp2rcd13ifvqfc0","pricing_plan_id":"cebpf4jnsgd1na2vs0mg"},{"bike_id":"d216debe-13ad-497c-9809-383a47cc5ef9","system_id":"levelo_inurba_marseille","lat":43.32347,"lon":5.36733,"is_reserved":false,"is_disabled":false,"rental_uris":{"android":"levelo://app?vid=d216debe-13ad-497c-9809-383a47cc5ef9","ios":"levelo://app?vid=d216debe-13ad-497c-9809-383a47cc5ef9"},"vehicle_type_id":"4","last_reported":1773153590,"current_range_meters":38000,"station_id":"ce4bhsh2rcd13ifvqi2g","pricing_plan_id":"cebpf4jnsgd1na2vs0mg"},{"bike_id":"32c4f1f7-17c8-4a03-b0d8-54ddb0b13de5","system_id":"levelo_inurba_marseille","lat":43.3354,"lon":5.37455,"is_reserved":false,"is_disabled":false,"rental_uris":{"android":"levelo://app?vid=32c4f1f7-17c8-4a03-b0d8-54ddb0b13de5","ios":"levelo://app?vid=32c4f1f7-17c8-4a03-b0d8-54ddb0b13de5"},"vehicle_type_id":"4","last_reported":1773153590,"current_range_meters":33600,"station_id":"st_d46tts09ee8s73dlu43g","pricing_plan_id":"cebpf4jnsgd1na2vs0mg"},{"bike_id":"e93e4b05-492f-4c51-865b-dc3c2bd2e4bd","system_id":"levelo_inurba_marseille","lat":43.2533,"lon":5.42189,"is_reserved":false,"is_disabled":false,"rental_uris":{"android":"levelo://app?vid=e93e4b05-492f-4c51-865b-dc3c2bd2e4bd","ios":"levelo://app?vid=e93e4b05-492f-4c51-865b-dc3c2bd2e4bd"},"vehicle_type_id":"4","last_reported":1773153590,"current_range_meters":31200,"station_id":"st_d2m65c5bi1j21697t3ng","pricing_plan_id":"cebpf4jnsgd1na2vs0mg"},{"bike_id":"77cce443-3f90-4239-836a-70a21471f733","system_id":"levelo_inurba_marseille","lat":43.27071,"lon":5.38304,"is_reserved":false,"is_disabled":false,"rental_uris":{"android":"levelo://app?vid=77cce443-3f90-4239-836a-70a21471f733","ios":"levelo://app?vid=77cce443-3f90-4239-836a-70a21471f733"},"vehicle_type_id":"4","last_reported":1773153590,"current_range_meters":34000,"station_id":"st_d3n2fo6cfp8s73cte1j0","pricing_plan_id":"cebpf4jnsgd1na2vs0mg"},{"bike_id":"5dc10d3b-d152-4b43-a148-8bf3d9e14a39","system_id":"levelo_inurba_marseille","lat":43.24156,"lon":5.36478,"is_reserved":false,"is_disabled":false,"rental_uris":{"android":"levelo://app?vid=5dc10d3b-d152-4b43-a148-8bf3d9e14a39","ios":"levelo://app?vid=5dc10d3b-d152-4b43-a148-8bf3d9e14a39"},"vehicle_type_id":"4","last_reported":1773153590,"current_range_meters":20800,"station_id":"","pricing_plan_id":"cebpf4jnsgd1na2vs0mg"},{"bike_id":"b1b72e65-4541-4aa5-9464-619c22b58492","system_id":"levelo_inurba_marseille","lat":43.27579,"lon":5.39633,"is_reserved":false,"is_disabled":false,"rental_uris":{"android":"levelo://app?vid=b1b72e65-4541-4aa5-9464-619c22b58492","ios":"levelo://app?vid=b1b72e65-4541-4aa5-9464-619c22b58492"},"vehicle_type_id":"4","last_reported":1773153590,"current_range_meters":27600,"station_id":"","pricing_plan_id":"cebpf4jnsgd1na2vs0mg"},{"bike_id":"2882ff64-4b69-4646-94c7-860d0be78035","system_id":"levelo_inurba_marseille","lat":43.29288,"lon":5.37427,"is_reserved":false,"is_disabled":false,"rental_uris":{"android":"levelo://app?vid=2882ff64-4b69-4646-94c7-860d0be78035","ios":"levelo://app?vid=2882ff64-4b69-4646-94c7-860d0be78035"},"vehicle_type_id":"4","last_reported":1773153590,"current_range_meters":29600,"station_id":"ce4bgi12rcd13ifvqb70","pricing_plan_id":"cebpf4jnsgd1na2vs0mg"},{"bike_id":"beae6932-1cb2-42f4-a0be-e7fa4a6e5cad","system_id":"levelo_inurba_marseille","lat":43.25001,"lon":5.38935,"is_reserved":false,"is_disabled":false,"rental_uris":{"android":"levelo://app?vid=beae6932-1cb2-42f4-a0be-e7fa4a6e5cad","ios":"levelo://app?vid=beae6932-1cb2-42f4-a0be-e7fa4a6e5cad"},"vehicle_type_id":"4","last_reported":1773153590,"current_range_meters":37600,"station_id":"ce4bhgp2rcd13ifvqfd0","pricing_plan_id":"cebpf4jnsgd1na2vs0mg"},{"bike_id":"cbef5c0b-d109-4c17-ab0b-db0d45f1dcb1","system_id":"levelo_inurba_marseille","lat":43.30548,"lon":5.36711,"is_reserved":false,"is_disabled":false,"rental_uris":{"android":"levelo://app?vid=cbef5c0b-d109-4c17-ab0b-db0d45f1dcb1","ios":"levelo://app?vid=cbef5c0b-d109-4c17-ab0b-db0d45f1dcb1"},"vehicle_type_id":"4","last_reported":1773153590,"current_range_meters":12800,"station_id":"ce4bgrp2rcd13ifvqc9g","pricing_plan_id":"cebpf4jnsgd1na2vs0mg"},{"bike_id":"0976d995-0bd5-4a37-a12f-7573097cdbbf","system_id":"levelo_inurba_marseille","lat":43.24398,"lon":5.36991,"is_reserved":false,"is_disabled":false,"rental_uris":{"android":"levelo://app?vid=0976d995-0bd5-4a37-a12f-7573097cdbbf","ios":"levelo://app?vid=0976d995-0bd5-4a37-a12f-7573097cdbbf"},"vehicle_type_id":"4","last_reported":1773153590,"current_range_meters":37600,"station_id":"","pricing_plan_id":"cebpf4jnsgd1na2vs0mg"},{"bike_id":"d3b471e2-eaea-40d6-b207-95b0d07845f0","system_id":"levelo_inurba_marseille","lat":43.2794,"lon":5.41051,"is_reserved":false,"is_disabled":false,"rental_uris":{"android":"levelo://app?vid=d3b471e2-eaea-40d6-b207-95b0d07845f0","ios":"levelo://app?vid=d3b471e2-eaea-40d6-b207-95b0d07845f0"},"vehicle_type_id":"4","last_reported":1773153590,"current_range_meters":6400,"station_id":"ce4bhnp2rcd13ifvqh0g","pricing_plan_id":"cebpf4jnsgd1na2vs0mg"},{"bike_id":"6adc31c4-5cfa-4d5b-a4ca-9f1f649c5b2c","system_id":"levelo_inurba_marseille","lat":43.29816,"lon":5.42742,"is_reserved":false,"is_disabled":false,"rental_uris":{"android":"levelo://app?vid=6adc31c4-5cfa-4d5b-a4ca-9f1f649c5b2c","ios":"levelo://app?vid=6adc31c4-5cfa-4d5b-a4ca-9f1f649c5b2c"},"vehicle_type_id":"4","last_reported":1773153590,"current_range_meters":4000,"station_id":"","pricing_plan_id":"cebpf4jnsgd1na2vs0mg"},{"bike_id":"e1cada09-0f6f-4e0e-80bd-ce03940a1372","system_id":"levelo_inurba_marseille","lat":43.29251,"lon":5.36847,"is_reserved":false,"is_disabled":false,"rental_uris":{"android":"levelo://app?vid=e1cada09-0f6f-4e0e-80bd-ce03940a1372","ios":"levelo://app?vid=e1cada09-0f6f-4e0e-80bd-ce03940a1372"},"vehicle_type_id":"4","last_reported":1773153590,"current_range_meters":9600,"station_id":"ce4bhbp2rcd13ifvqesg","pricing_plan_id":"cebpf4jnsgd1na2vs0mg"},{"bike_id":"f6bf9564-52b6-4a7a-a275-e35fdff422de","system_id":"levelo_inurba_marseille","lat":43.32319,"lon":5.36734,"is_reserved":false,"is_disabled":false,"rental_uris":{"android":"levelo://app?vid=f6bf9564-52b6-4a7a-a275-e35fdff422de","ios":"levelo://app?vid=f6bf9564-52b6-4a7a-a275-e35fdff422de"},"vehicle_type_id":"4","last_reported":1773153590,"current_range_meters":4400,"station_id":"ce4bhsh2rcd13ifvqi2g","pricing_plan_id":"cebpf4jnsgd1na2vs0mg"},{"bike_id":"2564c1c9-01d0-4cc8-af33-cb04d53dfb74","system_id":"levelo_inurba_marseille","lat":43.27069,"lon":5.42283,"is_reserved":false,"is_disabled":false,"rental_uris":{"android":"levelo://app?vid=2564c1c9-01d0-4cc8-af33-cb04d53dfb74","ios":"levelo://app?vid=2564c1c9-01d0-4cc8-af33-cb04d53dfb74"},"vehicle_type_id":"4","last_reported":1773153590,"current_range_meters":11200,"station_id":"ce4bhk92rcd13ifvqgb0","pricing_plan_id":"cebpf4jnsgd1na2vs0mg"},{"bike_id":"c7150512-6318-4da5-8ac7-a283c4917351","system_id":"levelo_inurba_marseille","lat":43.29271,"lon":5.38444,"is_reserved":false,"is_disabled":false,"rental_uris":{"android":"levelo://app?vid=c7150512-6318-4da5-8ac7-a283c4917351","ios":"levelo://app?vid=c7150512-6318-4da5-8ac7-a283c4917351"},"vehicle_type_id":"4","last_reported":1773153590,"current_range_meters":37600,"station_id":"ce4bh692rcd13ifvqea0","pricing_plan_id":"cebpf4jnsgd1na2vs0mg"},{"bike_id":"70eb5991-e6a2-48a6-9096-34883bd6e6d6","system_id":"levelo_inurba_marseille","lat":43.30114,"lon":5.37423,"is_reserved":false,"is_disabled":false,"rental_uris":{"android":"levelo://app?vid=70eb5991-e6a2-48a6-9096-34883bd6e6d6","ios":"levelo://app?vid=70eb5991-e6a2-48a6-9096-34883bd6e6d6"},"vehicle_type_id":"4","last_reported":1773153590,"current_range_meters":12000,"station_id":"ce4bgs92rcd13ifvqcc0","pricing_plan_id":"cebpf4jnsgd1na2vs0mg"},{"bike_id":"1ed78316-1378-4cf1-89dc-82486992174d","system_id":"levelo_inurba_marseille","lat":43.279694,"lon":5.387333,"is_reserved":false,"is_disabled":false,"rental_uris":{"android":"levelo://app?vid=1ed78316-1378-4cf1-89dc-82486992174d","ios":"levelo://app?vid=1ed78316-1378-4cf1-89dc-82486992174d"},"vehicle_type_id":"4","last_reported":1773153590,"current_range_meters":18000,"station_id":"ce4bhg12rcd13ifvqf80","pricing_plan_id":"cebpf4jnsgd1na2vs0mg"},{"bike_id":"d11c2b21-3699-4e7d-a1d0-26a0401e2028","system_id":"levelo_inurba_marseille","lat":43.29249,"lon":5.3686,"is_reserved":false,"is_disabled":false,"rental_uris":{"android":"levelo://app?vid=d11c2b21-3699-4e7d-a1d0-26a0401e2028","ios":"levelo://app?vid=d11c2b21-3699-4e7d-a1d0-26a0401e2028"},"vehicle_type_id":"4","last_reported":1773153590,"current_range_meters":16400,"station_id":"ce4bhbp2rcd13ifvqesg","pricing_plan_id":"cebpf4jnsgd1na2vs0mg"},{"bike_id":"3d600a05-20cf-4ea5-8fcf-30e05db03093","system_id":"levelo_inurba_marseille","lat":43.2549,"lon":5.37642,"is_reserved":false,"is_disabled":false,"rental_uris":{"android":"levelo://app?vid=3d600a05-20cf-4ea5-8fcf-30e05db03093","ios":"levelo://app?vid=3d600a05-20cf-4ea5-8fcf-30e05db03093"},"vehicle_type_id":"4","last_reported":1773153590,"current_range_meters":39200,"station_id":"ce4bhh12rcd13ifvqff0","pricing_plan_id":"cebpf4jnsgd1na2vs0mg"},{"bike_id":"775d120e-5cac-4afc-bb85-c2f79036a25b","system_id":"levelo_inurba_marseille","lat":43.29177,"lon":5.40189,"is_reserved":false,"is_disabled":false,"rental_uris":{"android":"levelo://app?vid=775d120e-5cac-4afc-bb85-c2f79036a25b","ios":"levelo://app?vid=775d120e-5cac-4afc-bb85-c2f79036a25b"},"vehicle_type_id":"4","last_reported":1773153590,"current_range_meters":34800,"station_id":"","pricing_plan_id":"cebpf4jnsgd1na2vs0mg"},{"bike_id":"7492f64a-feec-4475-a8ac-d4bd70e8ae1e","system_id":"levelo_inurba_marseille","lat":43.23144,"lon":5.43714,"is_reserved":false,"is_disabled":false,"rental_uris":{"android":"levelo://app?vid=7492f64a-feec-4475-a8ac-d4bd70e8ae1e","ios":"levelo://app?vid=7492f64a-feec-4475-a8ac-d4bd70e8ae1e"},"vehicle_type_id":"4","last_reported":1773153590,"current_range_meters":21600,"station_id":"ce4bhmp2rcd13ifvqgog","pricing_plan_id":"cebpf4jnsgd1na2vs0mg"},{"bike_id":"7097e5f0-1617-4563-a11d-e981377cafbc","system_id":"levelo_inurba_marseille","lat":43.31353,"lon":5.36715,"is_reserved":false,"is_disabled":false,"rental_uris":{"android":"levelo://app?vid=7097e5f0-1617-4563-a11d-e981377cafbc","ios":"levelo://app?vid=7097e5f0-1617-4563-a11d-e981377cafbc"},"vehicle_type_id":"4","last_reported":1773153590,"current_range_meters":28400,"station_id":"ce4bgr92rcd13ifvqc6g","pricing_plan_id":"cebpf4jnsgd1na2vs0mg"},{"bike_id":"afa20618-0d5e-4dda-934c-d6c0b2a9d26b","system_id":"levelo_inurba_marseille","lat":43.30494,"lon":5.3785,"is_reserved":false,"is_disabled":false,"rental_uris":{"android":"levelo://app?vid=afa20618-0d5e-4dda-934c-d6c0b2a9d26b","ios":"levelo://app?vid=afa20618-0d5e-4dda-934c-d6c0b2a9d26b"},"vehicle_type_id":"4","last_reported":1773153590,"current_range_meters":30000,"station_id":"","pricing_plan_id":"cebpf4jnsgd1na2vs0mg"},{"bike_id":"ad63f338-9d60-4d58-a187-141e1b1176eb","system_id":"levelo_inurba_marseille","lat":43.26915,"lon":5.38926,"is_reserved":false,"is_disabled":false,"rental_uris":{"android":"levelo://app?vid=ad63f338-9d60-4d58-a187-141e1b1176eb","ios":"levelo://app?vid=ad63f338-9d60-4d58-a187-141e1b1176eb"},"vehicle_type_id":"4","last_reported":1773153590,"current_range_meters":36400,"station_id":"ce4bhhh2rcd13ifvqfl0","pricing_plan_id":"cebpf4jnsgd1na2vs0mg"},{"bike_id":"7739e670-6ad1-4986-90c8-e0074ab83683","system_id":"levelo_inurba_marseille","lat":43.26554,"lon":5.3728,"is_reserved":false,"is_disabled":false,"rental_uris":{"android":"levelo://app?vid=7739e670-6ad1-4986-90c8-e0074ab83683","ios":"levelo://app?vid=7739e670-6ad1-4986-90c8-e0074ab83683"},"vehicle_type_id":"4","last_reported":1773153590,"current_range_meters":28000,"station_id":"ce4bhg12rcd13ifvqf70","pricing_plan_id":"cebpf4jnsgd1na2vs0mg"},{"bike_id":"6292764a-36d3-4177-868b-8d28df16d07a","system_id":"levelo_inurba_marseille","lat":43.25076,"lon":5.39483,"is_reserved":false,"is_disabled":false,"rental_uris":{"android":"levelo://app?vid=6292764a-36d3-4177-868b-8d28df16d07a","ios":"levelo://app?vid=6292764a-36d3-4177-868b-8d28df16d07a"},"vehicle_type_id":"4","last_reported":1773153590,"current_range_meters":39200,"station_id":"ce4bhm12rcd13ifvqgkg","pricing_plan_id":"cebpf4jnsgd1na2vs0mg"},{"bike_id":"a6152a37-0e0f-4342-85ea-20dd708f93ee","system_id":"levelo_inurba_marseille","lat":43.23145,"lon":5.43707,"is_reserved":false,"is_disabled":false,"rental_uris":{"android":"levelo://app?vid=a6152a37-0e0f-4342-85ea-20dd708f93ee","ios":"levelo://app?vid=a6152a37-0e0f-4342-85ea-20dd708f93ee"},"vehicle_type_id":"4","last_reported":1773153590,"current_range_meters":36400,"station_id":"ce4bhmp2rcd13ifvqgog","pricing_plan_id":"cebpf4jnsgd1na2vs0mg"},{"bike_id":"fd7a85fe-04b7-4fdc-aa9d-9f4f30848aea","system_id":"levelo_inurba_marseille","lat":43.24037,"lon":5.37751,"is_reserved":false,"is_disabled":false,"rental_uris":{"android":"levelo://app?vid=fd7a85fe-04b7-4fdc-aa9d-9f4f30848aea","ios":"levelo://app?vid=fd7a85fe-04b7-4fdc-aa9d-9f4f30848aea"},"vehicle_type_id":"4","last_reported":1773153590,"current_range_meters":22400,"station_id":"ce4bhnp2rcd13ifvqgvg","pricing_plan_id":"cebpf4jnsgd1na2vs0mg"},{"bike_id":"155701bd-eb61-4942-8b53-e5cd5b347b9a","system_id":"levelo_inurba_marseille","lat":43.23786,"lon":5.36624,"is_reserved":false,"is_disabled":false,"rental_uris":{"android":"levelo://app?vid=155701bd-eb61-4942-8b53-e5cd5b347b9a","ios":"levelo://app?vid=155701bd-eb61-4942-8b53-e5cd5b347b9a"},"vehicle_type_id":"4","last_reported":1773153590,"current_range_meters":32400,"station_id":"st_d3nk18o9ro0c73en2l3g","pricing_plan_id":"cebpf4jnsgd1na2vs0mg"},{"bike_id":"eb6311ab-4de2-4622-ba3b-6e336388a7f5","system_id":"levelo_inurba_marseille","lat":43.29633,"lon":5.40586,"is_reserved":false,"is_disabled":false,"rental_uris":{"android":"levelo://app?vid=eb6311ab-4de2-4622-ba3b-6e336388a7f5","ios":"levelo://app?vid=eb6311ab-4de2-4622-ba3b-6e336388a7f5"},"vehicle_type_id":"4","last_reported":1773153590,"current_range_meters":37600,"station_id":"ce4bh0h2rcd13ifvqd60","pricing_plan_id":"cebpf4jnsgd1na2vs0mg"},{"bike_id":"3f813cae-35f7-4984-9f1c-a6e1c5afe8e2","system_id":"levelo_inurba_marseille","lat":43.249883,"lon":5.389348,"is_reserved":false,"is_disabled":false,"rental_uris":{"android":"levelo://app?vid=3f813cae-35f7-4984-9f1c-a6e1c5afe8e2","ios":"levelo://app?vid=3f813cae-35f7-4984-9f1c-a6e1c5afe8e2"},"vehicle_type_id":"4","last_reported":1773153590,"current_range_meters":29600,"station_id":"ce4bhgp2rcd13ifvqfd0","pricing_plan_id":"cebpf4jnsgd1na2vs0mg"},{"bike_id":"3ed9dacd-47d5-473e-a4ab-a372d8e4176a","system_id":"levelo_inurba_marseille","lat":43.30147,"lon":5.39891,"is_reserved":false,"is_disabled":true,"rental_uris":{"android":"levelo://app?vid=3ed9dacd-47d5-473e-a4ab-a372d8e4176a","ios":"levelo://app?vid=3ed9dacd-47d5-473e-a4ab-a372d8e4176a"},"vehicle_type_id":"4","last_reported":1773153590,"current_range_meters":25200,"station_id":"ce4bh0h2rcd13ifvqd40","pricing_plan_id":"cebpf4jnsgd1na2vs0mg"},{"bike_id":"aa69a35b-1f9c-4e40-9b72-5cbf6dcd27c1","system_id":"levelo_inurba_marseille","lat":43.30919,"lon":5.4015,"is_reserved":false,"is_disabled":false,"rental_uris":{"android":"levelo://app?vid=aa69a35b-1f9c-4e40-9b72-5cbf6dcd27c1","ios":"levelo://app?vid=aa69a35b-1f9c-4e40-9b72-5cbf6dcd27c1"},"vehicle_type_id":"4","last_reported":1773153590,"current_range_meters":37600,"station_id":"ce4bgvp2rcd13ifvqct0","pricing_plan_id":"cebpf4jnsgd1na2vs0mg"},{"bike_id":"dfae5a88-49a8-4074-a086-8f0a7c6162a7","system_id":"levelo_inurba_marseille","lat":43.30466,"lon":5.37906,"is_reserved":false,"is_disabled":false,"rental_uris":{"android":"levelo://app?vid=dfae5a88-49a8-4074-a086-8f0a7c6162a7","ios":"levelo://app?vid=dfae5a88-49a8-4074-a086-8f0a7c6162a7"},"vehicle_type_id":"4","last_reported":1773153590,"current_range_meters":30800,"station_id":"ce4bgup2rcd13ifvqcn0","pricing_plan_id":"cebpf4jnsgd1na2vs0mg"},{"bike_id":"d44d6705-8b07-4c99-8be2-a9a0fdc34e2f","system_id":"levelo_inurba_marseille","lat":43.32104,"lon":5.36794,"is_reserved":false,"is_disabled":false,"rental_uris":{"android":"levelo://app?vid=d44d6705-8b07-4c99-8be2-a9a0fdc34e2f","ios":"levelo://app?vid=d44d6705-8b07-4c99-8be2-a9a0fdc34e2f"},"vehicle_type_id":"4","last_reported":1773153590,"current_range_meters":39200,"station_id":"ce4bhrh2rcd13ifvqhug","pricing_plan_id":"cebpf4jnsgd1na2vs0mg"},{"bike_id":"4e13cebf-e3bd-4977-8d80-663fe93eec9a","system_id":"levelo_inurba_marseille","lat":43.31365,"lon":5.36704,"is_reserved":false,"is_disabled":false,"rental_uris":{"android":"levelo://app?vid=4e13cebf-e3bd-4977-8d80-663fe93eec9a","ios":"levelo://app?vid=4e13cebf-e3bd-4977-8d80-663fe93eec9a"},"vehicle_type_id":"4","last_reported":1773153590,"current_range_meters":6000,"station_id":"ce4bgr92rcd13ifvqc6g","pricing_plan_id":"cebpf4jnsgd1na2vs0mg"},{"bike_id":"93bf2a7c-9ad3-4472-83b5-852d4fca6a38","system_id":"levelo_inurba_marseille","lat":43.29315,"lon":5.37197,"is_reserved":false,"is_disabled":false,"rental_uris":{"android":"levelo://app?vid=93bf2a7c-9ad3-4472-83b5-852d4fca6a38","ios":"levelo://app?vid=93bf2a7c-9ad3-4472-83b5-852d4fca6a38"},"vehicle_type_id":"4","last_reported":1773153590,"current_range_meters":35200,"station_id":"ce4bgh92rcd13ifvqb40","pricing_plan_id":"cebpf4jnsgd1na2vs0mg"},{"bike_id":"28e65bbe-3424-401b-a04b-0a4c3f7dbfbd","system_id":"levelo_inurba_marseille","lat":43.26057,"lon":5.39389,"is_reserved":false,"is_disabled":false,"rental_uris":{"android":"levelo://app?vid=28e65bbe-3424-401b-a04b-0a4c3f7dbfbd","ios":"levelo://app?vid=28e65bbe-3424-401b-a04b-0a4c3f7dbfbd"},"vehicle_type_id":"4","last_reported":1773153590,"current_range_meters":39200,"station_id":"ce4bhh92rcd13ifvqfj0","pricing_plan_id":"cebpf4jnsgd1na2vs0mg"},{"bike_id":"18344d13-5ad9-4a90-bbbb-38ed6af181bc","system_id":"levelo_inurba_marseille","lat":43.25918,"lon":5.4079,"is_reserved":false,"is_disabled":false,"rental_uris":{"android":"levelo://app?vid=18344d13-5ad9-4a90-bbbb-38ed6af181bc","ios":"levelo://app?vid=18344d13-5ad9-4a90-bbbb-38ed6af181bc"},"vehicle_type_id":"4","last_reported":1773153590,"current_range_meters":27600,"station_id":"","pricing_plan_id":"cebpf4jnsgd1na2vs0mg"},{"bike_id":"04de8dcc-0321-4f32-90c3-23836608afd6","system_id":"levelo_inurba_marseille","lat":43.2737,"lon":5.36257,"is_reserved":false,"is_disabled":false,"rental_uris":{"android":"levelo://app?vid=04de8dcc-0321-4f32-90c3-23836608afd6","ios":"levelo://app?vid=04de8dcc-0321-4f32-90c3-23836608afd6"},"vehicle_type_id":"4","last_reported":1773153590,"current_range_meters":26000,"station_id":"ce4bhbh2rcd13ifvqeo0","pricing_plan_id":"cebpf4jnsgd1na2vs0mg"},{"bike_id":"f780a682-e0f8-417c-aace-a2c147eaf4c1","system_id":"levelo_inurba_marseille","lat":43.25821,"lon":5.39424,"is_reserved":false,"is_disabled":false,"rental_uris":{"android":"levelo://app?vid=f780a682-e0f8-417c-aace-a2c147eaf4c1","ios":"levelo://app?vid=f780a682-e0f8-417c-aace-a2c147eaf4c1"},"vehicle_type_id":"4","last_reported":1773153590,"current_range_meters":39200,"station_id":"ce4bhip2rcd13ifvqft0","pricing_plan_id":"cebpf4jnsgd1na2vs0mg"},{"bike_id":"204d42a9-563d-4c76-915f-f87f91c21570","system_id":"levelo_inurba_marseille","lat":43.31541,"lon":5.37306,"is_reserved":false,"is_disabled":false,"rental_uris":{"android":"levelo://app?vid=204d42a9-563d-4c76-915f-f87f91c21570","ios":"levelo://app?vid=204d42a9-563d-4c76-915f-f87f91c21570"},"vehicle_type_id":"4","last_reported":1773153590,"current_range_meters":31200,"station_id":"","pricing_plan_id":"cebpf4jnsgd1na2vs0mg"},{"bike_id":"b708976c-2a36-497f-8637-f1523d59ea21","system_id":"levelo_inurba_marseille","lat":43.26685,"lon":5.38242,"is_reserved":false,"is_disabled":false,"rental_uris":{"android":"levelo://app?vid=b708976c-2a36-497f-8637-f1523d59ea21","ios":"levelo://app?vid=b708976c-2a36-497f-8637-f1523d59ea21"},"vehicle_type_id":"4","last_reported":1773153590,"current_range_meters":20000,"station_id":"ce4bhg92rcd13ifvqf90","pricing_plan_id":"cebpf4jnsgd1na2vs0mg"},{"bike_id":"537006e1-fd4b-45b8-8484-2ca3ec778900","system_id":"levelo_inurba_marseille","lat":43.30557,"lon":5.36516,"is_reserved":false,"is_disabled":false,"rental_uris":{"android":"levelo://app?vid=537006e1-fd4b-45b8-8484-2ca3ec778900","ios":"levelo://app?vid=537006e1-fd4b-45b8-8484-2ca3ec778900"},"vehicle_type_id":"4","last_reported":1773153590,"current_range_meters":34000,"station_id":"ce4bgs12rcd13ifvqcag","pricing_plan_id":"cebpf4jnsgd1na2vs0mg"},{"bike_id":"23fc598d-f808-4287-a2fb-dcbe6bd11524","system_id":"levelo_inurba_marseille","lat":43.28475,"lon":5.48398,"is_reserved":false,"is_disabled":false,"rental_uris":{"android":"levelo://app?vid=23fc598d-f808-4287-a2fb-dcbe6bd11524","ios":"levelo://app?vid=23fc598d-f808-4287-a2fb-dcbe6bd11524"},"vehicle_type_id":"4","last_reported":1773153590,"current_range_meters":38800,"station_id":"","pricing_plan_id":"cebpf4jnsgd1na2vs0mg"},{"bike_id":"f0d85e77-c78a-4899-b931-126b1bdccc38","system_id":"levelo_inurba_marseille","lat":43.22569,"lon":5.4162,"is_reserved":false,"is_disabled":false,"rental_uris":{"android":"levelo://app?vid=f0d85e77-c78a-4899-b931-126b1bdccc38","ios":"levelo://app?vid=f0d85e77-c78a-4899-b931-126b1bdccc38"},"vehicle_type_id":"4","last_reported":1773153590,"current_range_meters":10800,"station_id":"st_d2o4gvlbi1j2169b742g","pricing_plan_id":"cebpf4jnsgd1na2vs0mg"},{"bike_id":"f14da83c-03e6-475b-b61b-eb7b1e569cc6","system_id":"levelo_inurba_marseille","lat":43.29687,"lon":5.37684,"is_reserved":false,"is_disabled":false,"rental_uris":{"android":"levelo://app?vid=f14da83c-03e6-475b-b61b-eb7b1e569cc6","ios":"levelo://app?vid=f14da83c-03e6-475b-b61b-eb7b1e569cc6"},"vehicle_type_id":"4","last_reported":1773153590,"current_range_meters":12000,"station_id":"ce4bgkh2rcd13ifvqbl0","pricing_plan_id":"cebpf4jnsgd1na2vs0mg"},{"bike_id":"3afa846a-3499-402e-8576-cc13bd78fadf","system_id":"levelo_inurba_marseille","lat":43.29586,"lon":5.38085,"is_reserved":false,"is_disabled":true,"rental_uris":{"android":"levelo://app?vid=3afa846a-3499-402e-8576-cc13bd78fadf","ios":"levelo://app?vid=3afa846a-3499-402e-8576-cc13bd78fadf"},"vehicle_type_id":"4","last_reported":1773153590,"current_range_meters":9200,"station_id":"ce4bgl12rcd13ifvqbo0","pricing_plan_id":"cebpf4jnsgd1na2vs0mg"},{"bike_id":"37a2ee09-c3bf-40d9-8c57-ee78bd848724","system_id":"levelo_inurba_marseille","lat":43.29713,"lon":5.37704,"is_reserved":false,"is_disabled":false,"rental_uris":{"android":"levelo://app?vid=37a2ee09-c3bf-40d9-8c57-ee78bd848724","ios":"levelo://app?vid=37a2ee09-c3bf-40d9-8c57-ee78bd848724"},"vehicle_type_id":"4","last_reported":1773153590,"current_range_meters":36400,"station_id":"ce4bgkh2rcd13ifvqbl0","pricing_plan_id":"cebpf4jnsgd1na2vs0mg"},{"bike_id":"41f5cbc8-3931-4343-9d0c-20d53996ae1f","system_id":"levelo_inurba_marseille","lat":43.26781,"lon":5.39413,"is_reserved":false,"is_disabled":false,"rental_uris":{"android":"levelo://app?vid=41f5cbc8-3931-4343-9d0c-20d53996ae1f","ios":"levelo://app?vid=41f5cbc8-3931-4343-9d0c-20d53996ae1f"},"vehicle_type_id":"4","last_reported":1773153590,"current_range_meters":38400,"station_id":"ce4bhh12rcd13ifvqfg0","pricing_plan_id":"cebpf4jnsgd1na2vs0mg"},{"bike_id":"d847e106-f4a4-4ad9-a368-60f92acf97c7","system_id":"levelo_inurba_marseille","lat":43.28686,"lon":5.38674,"is_reserved":false,"is_disabled":false,"rental_uris":{"android":"levelo://app?vid=d847e106-f4a4-4ad9-a368-60f92acf97c7","ios":"levelo://app?vid=d847e106-f4a4-4ad9-a368-60f92acf97c7"},"vehicle_type_id":"4","last_reported":1773153590,"current_range_meters":38000,"station_id":"ce4bh492rcd13ifvqdug","pricing_plan_id":"cebpf4jnsgd1na2vs0mg"},{"bike_id":"0be1578d-7b76-4f05-919a-fbdc689d3564","system_id":"levelo_inurba_marseille","lat":43.27729,"lon":5.40842,"is_reserved":false,"is_disabled":false,"rental_uris":{"android":"levelo://app?vid=0be1578d-7b76-4f05-919a-fbdc689d3564","ios":"levelo://app?vid=0be1578d-7b76-4f05-919a-fbdc689d3564"},"vehicle_type_id":"4","last_reported":1773153590,"current_range_meters":39200,"station_id":"","pricing_plan_id":"cebpf4jnsgd1na2vs0mg"},{"bike_id":"5d71f78f-b103-4ed8-bff3-5f5ae9cbdf3b","system_id":"levelo_inurba_marseille","lat":43.29253,"lon":5.36846,"is_reserved":false,"is_disabled":false,"rental_uris":{"android":"levelo://app?vid=5d71f78f-b103-4ed8-bff3-5f5ae9cbdf3b","ios":"levelo://app?vid=5d71f78f-b103-4ed8-bff3-5f5ae9cbdf3b"},"vehicle_type_id":"4","last_reported":1773153590,"current_range_meters":22400,"station_id":"ce4bhbp2rcd13ifvqesg","pricing_plan_id":"cebpf4jnsgd1na2vs0mg"},{"bike_id":"00e57cd1-f83a-443f-b2c6-8a02ed9af0a1","system_id":"levelo_inurba_marseille","lat":43.30555,"lon":5.36699,"is_reserved":false,"is_disabled":false,"rental_uris":{"android":"levelo://app?vid=00e57cd1-f83a-443f-b2c6-8a02ed9af0a1","ios":"levelo://app?vid=00e57cd1-f83a-443f-b2c6-8a02ed9af0a1"},"vehicle_type_id":"4","last_reported":1773153590,"current_range_meters":30800,"station_id":"ce4bgrp2rcd13ifvqc9g","pricing_plan_id":"cebpf4jnsgd1na2vs0mg"},{"bike_id":"d59f6bda-e40b-42f3-90c3-d9ad1181f0c5","system_id":"levelo_inurba_marseille","lat":43.2465,"lon":5.38889,"is_reserved":false,"is_disabled":false,"rental_uris":{"android":"levelo://app?vid=d59f6bda-e40b-42f3-90c3-d9ad1181f0c5","ios":"levelo://app?vid=d59f6bda-e40b-42f3-90c3-d9ad1181f0c5"},"vehicle_type_id":"4","last_reported":1773153590,"current_range_meters":17600,"station_id":"ce4bhg12rcd13ifvqf60","pricing_plan_id":"cebpf4jnsgd1na2vs0mg"},{"bike_id":"0dc7d051-af04-437a-b2fa-8ebd74a906d3","system_id":"levelo_inurba_marseille","lat":43.29635,"lon":5.40593,"is_reserved":false,"is_disabled":false,"rental_uris":{"android":"levelo://app?vid=0dc7d051-af04-437a-b2fa-8ebd74a906d3","ios":"levelo://app?vid=0dc7d051-af04-437a-b2fa-8ebd74a906d3"},"vehicle_type_id":"4","last_reported":1773153590,"current_range_meters":27200,"station_id":"ce4bh0h2rcd13ifvqd60","pricing_plan_id":"cebpf4jnsgd1na2vs0mg"},{"bike_id":"5bab29ae-c4bc-4a09-9205-2680625e98ce","system_id":"levelo_inurba_marseille","lat":43.31478,"lon":5.37285,"is_reserved":false,"is_disabled":false,"rental_uris":{"android":"levelo://app?vid=5bab29ae-c4bc-4a09-9205-2680625e98ce","ios":"levelo://app?vid=5bab29ae-c4bc-4a09-9205-2680625e98ce"},"vehicle_type_id":"4","last_reported":1773153590,"current_range_meters":16400,"station_id":"ce4bgt12rcd13ifvqcd0","pricing_plan_id":"cebpf4jnsgd1na2vs0mg"},{"bike_id":"f9e9b065-2bea-4b87-a17e-af8e646f9e7a","system_id":"levelo_inurba_marseille","lat":43.26796,"lon":5.39412,"is_reserved":false,"is_disabled":false,"rental_uris":{"android":"levelo://app?vid=f9e9b065-2bea-4b87-a17e-af8e646f9e7a","ios":"levelo://app?vid=f9e9b065-2bea-4b87-a17e-af8e646f9e7a"},"vehicle_type_id":"4","last_reported":1773153590,"current_range_meters":39200,"station_id":"ce4bhh12rcd13ifvqfg0","pricing_plan_id":"cebpf4jnsgd1na2vs0mg"},{"bike_id":"9a4c9fe6-93e6-431c-8db6-1a67b0134b2c","system_id":"levelo_inurba_marseille","lat":43.2654,"lon":5.37285,"is_reserved":false,"is_disabled":false,"rental_uris":{"android":"levelo://app?vid=9a4c9fe6-93e6-431c-8db6-1a67b0134b2c","ios":"levelo://app?vid=9a4c9fe6-93e6-431c-8db6-1a67b0134b2c"},"vehicle_type_id":"4","last_reported":1773153590,"current_range_meters":38400,"station_id":"ce4bhg12rcd13ifvqf70","pricing_plan_id":"cebpf4jnsgd1na2vs0mg"},{"bike_id":"54aa5aea-6018-471a-96e1-3c75b95f3618","system_id":"levelo_inurba_marseille","lat":43.29912,"lon":5.38615,"is_reserved":false,"is_disabled":false,"rental_uris":{"android":"levelo://app?vid=54aa5aea-6018-471a-96e1-3c75b95f3618","ios":"levelo://app?vid=54aa5aea-6018-471a-96e1-3c75b95f3618"},"vehicle_type_id":"4","last_reported":1773153590,"current_range_meters":30400,"station_id":"","pricing_plan_id":"cebpf4jnsgd1na2vs0mg"},{"bike_id":"4d650b84-4c87-42d2-8dd7-e4c822bb0148","system_id":"levelo_inurba_marseille","lat":43.29564,"lon":5.37535,"is_reserved":false,"is_disabled":false,"rental_uris":{"android":"levelo://app?vid=4d650b84-4c87-42d2-8dd7-e4c822bb0148","ios":"levelo://app?vid=4d650b84-4c87-42d2-8dd7-e4c822bb0148"},"vehicle_type_id":"4","last_reported":1773153590,"current_range_meters":28000,"station_id":"ce4bgh92rcd13ifvqb50","pricing_plan_id":"cebpf4jnsgd1na2vs0mg"},{"bike_id":"477b9980-2920-43dd-98ab-3feb7a99ec00","system_id":"levelo_inurba_marseille","lat":43.30147,"lon":5.381,"is_reserved":false,"is_disabled":false,"rental_uris":{"android":"levelo://app?vid=477b9980-2920-43dd-98ab-3feb7a99ec00","ios":"levelo://app?vid=477b9980-2920-43dd-98ab-3feb7a99ec00"},"vehicle_type_id":"4","last_reported":1773153590,"current_range_meters":38000,"station_id":"ce4bgjp2rcd13ifvqbh0","pricing_plan_id":"cebpf4jnsgd1na2vs0mg"},{"bike_id":"9ef7f3d5-85bc-4352-a5fd-1870a90d8113","system_id":"levelo_inurba_marseille","lat":43.30904,"lon":5.36841,"is_reserved":false,"is_disabled":false,"rental_uris":{"android":"levelo://app?vid=9ef7f3d5-85bc-4352-a5fd-1870a90d8113","ios":"levelo://app?vid=9ef7f3d5-85bc-4352-a5fd-1870a90d8113"},"vehicle_type_id":"4","last_reported":1773153590,"current_range_meters":7200,"station_id":"ce4bgn92rcd13ifvqbvg","pricing_plan_id":"cebpf4jnsgd1na2vs0mg"},{"bike_id":"c5cdab7c-aafa-4e8f-8c31-ceb6dc72417e","system_id":"levelo_inurba_marseille","lat":43.32648,"lon":5.41,"is_reserved":false,"is_disabled":false,"rental_uris":{"android":"levelo://app?vid=c5cdab7c-aafa-4e8f-8c31-ceb6dc72417e","ios":"levelo://app?vid=c5cdab7c-aafa-4e8f-8c31-ceb6dc72417e"},"vehicle_type_id":"4","last_reported":1773153590,"current_range_meters":27200,"station_id":"ce4bhpp2rcd13ifvqhgg","pricing_plan_id":"cebpf4jnsgd1na2vs0mg"},{"bike_id":"bc1dac9a-1be4-4cc2-a3b8-abe8b16b9f30","system_id":"levelo_inurba_marseille","lat":43.29269,"lon":5.36846,"is_reserved":false,"is_disabled":false,"rental_uris":{"android":"levelo://app?vid=bc1dac9a-1be4-4cc2-a3b8-abe8b16b9f30","ios":"levelo://app?vid=bc1dac9a-1be4-4cc2-a3b8-abe8b16b9f30"},"vehicle_type_id":"4","last_reported":1773153590,"current_range_meters":39200,"station_id":"ce4bhbp2rcd13ifvqesg","pricing_plan_id":"cebpf4jnsgd1na2vs0mg"},{"bike_id":"86a27d56-a425-48ed-be8d-deb254057217","system_id":"levelo_inurba_marseille","lat":43.29302,"lon":5.37446,"is_reserved":false,"is_disabled":false,"rental_uris":{"android":"levelo://app?vid=86a27d56-a425-48ed-be8d-deb254057217","ios":"levelo://app?vid=86a27d56-a425-48ed-be8d-deb254057217"},"vehicle_type_id":"4","last_reported":1773153590,"current_range_meters":12400,"station_id":"ce4bgi12rcd13ifvqb70","pricing_plan_id":"cebpf4jnsgd1na2vs0mg"},{"bike_id":"f0f4b525-6d6b-47b7-a59e-0c3f385496dd","system_id":"levelo_inurba_marseille","lat":43.24052,"lon":5.37729,"is_reserved":false,"is_disabled":false,"rental_uris":{"android":"levelo://app?vid=f0f4b525-6d6b-47b7-a59e-0c3f385496dd","ios":"levelo://app?vid=f0f4b525-6d6b-47b7-a59e-0c3f385496dd"},"vehicle_type_id":"4","last_reported":1773153590,"current_range_meters":40000,"station_id":"ce4bhnp2rcd13ifvqgvg","pricing_plan_id":"cebpf4jnsgd1na2vs0mg"},{"bike_id":"7a3b5875-f1e8-4acd-acbf-c2a29528e4b7","system_id":"levelo_inurba_marseille","lat":43.28477,"lon":5.48387,"is_reserved":false,"is_disabled":false,"rental_uris":{"android":"levelo://app?vid=7a3b5875-f1e8-4acd-acbf-c2a29528e4b7","ios":"levelo://app?vid=7a3b5875-f1e8-4acd-acbf-c2a29528e4b7"},"vehicle_type_id":"4","last_reported":1773153590,"current_range_meters":11200,"station_id":"st_d3svhcjqgbts73a3dn0g","pricing_plan_id":"cebpf4jnsgd1na2vs0mg"},{"bike_id":"9cd21b4f-5b91-47c4-9f59-c7c5557c0e8a","system_id":"levelo_inurba_marseille","lat":43.31248,"lon":5.36876,"is_reserved":false,"is_disabled":false,"rental_uris":{"android":"levelo://app?vid=9cd21b4f-5b91-47c4-9f59-c7c5557c0e8a","ios":"levelo://app?vid=9cd21b4f-5b91-47c4-9f59-c7c5557c0e8a"},"vehicle_type_id":"4","last_reported":1773153590,"current_range_meters":39200,"station_id":"ce4bgl92rcd13ifvqbq0","pricing_plan_id":"cebpf4jnsgd1na2vs0mg"},{"bike_id":"ae4181aa-8dc8-4249-8735-32d22936bfd0","system_id":"levelo_inurba_marseille","lat":43.23191,"lon":5.35545,"is_reserved":false,"is_disabled":false,"rental_uris":{"android":"levelo://app?vid=ae4181aa-8dc8-4249-8735-32d22936bfd0","ios":"levelo://app?vid=ae4181aa-8dc8-4249-8735-32d22936bfd0"},"vehicle_type_id":"4","last_reported":1773153590,"current_range_meters":28000,"station_id":"ce4bhu92rcd13ifvqi70","pricing_plan_id":"cebpf4jnsgd1na2vs0mg"},{"bike_id":"e7b6972b-117e-47e0-9f41-cbcc9b6a3781","system_id":"levelo_inurba_marseille","lat":43.3211,"lon":5.36771,"is_reserved":false,"is_disabled":false,"rental_uris":{"android":"levelo://app?vid=e7b6972b-117e-47e0-9f41-cbcc9b6a3781","ios":"levelo://app?vid=e7b6972b-117e-47e0-9f41-cbcc9b6a3781"},"vehicle_type_id":"4","last_reported":1773153590,"current_range_meters":6000,"station_id":"ce4bhrh2rcd13ifvqhug","pricing_plan_id":"cebpf4jnsgd1na2vs0mg"},{"bike_id":"2ac8c83d-8e9d-468b-8fe3-cd4ce35925b7","system_id":"levelo_inurba_marseille","lat":43.27414,"lon":5.3938,"is_reserved":false,"is_disabled":false,"rental_uris":{"android":"levelo://app?vid=2ac8c83d-8e9d-468b-8fe3-cd4ce35925b7","ios":"levelo://app?vid=2ac8c83d-8e9d-468b-8fe3-cd4ce35925b7"},"vehicle_type_id":"4","last_reported":1773153590,"current_range_meters":39200,"station_id":"ce4bhdp2rcd13ifvqf20","pricing_plan_id":"cebpf4jnsgd1na2vs0mg"},{"bike_id":"48000cab-41de-4600-a63e-0b6cccd6d62b","system_id":"levelo_inurba_marseille","lat":43.28155,"lon":5.42628,"is_reserved":false,"is_disabled":false,"rental_uris":{"android":"levelo://app?vid=48000cab-41de-4600-a63e-0b6cccd6d62b","ios":"levelo://app?vid=48000cab-41de-4600-a63e-0b6cccd6d62b"},"vehicle_type_id":"4","last_reported":1773153590,"current_range_meters":39200,"station_id":"ce4bhnh2rcd13ifvqgug","pricing_plan_id":"cebpf4jnsgd1na2vs0mg"},{"bike_id":"4b5b71ea-e60c-42f9-bfb2-792d940d3176","system_id":"levelo_inurba_marseille","lat":43.23054,"lon":5.35487,"is_reserved":false,"is_disabled":false,"rental_uris":{"android":"levelo://app?vid=4b5b71ea-e60c-42f9-bfb2-792d940d3176","ios":"levelo://app?vid=4b5b71ea-e60c-42f9-bfb2-792d940d3176"},"vehicle_type_id":"4","last_reported":1773153590,"current_range_meters":40000,"station_id":"cpo3342slgdg3j2ifvpg","pricing_plan_id":"cebpf4jnsgd1na2vs0mg"},{"bike_id":"a031aaf9-dd3e-4170-b0c4-fc24faaf012c","system_id":"levelo_inurba_marseille","lat":43.30156,"lon":5.38109,"is_reserved":false,"is_disabled":false,"rental_uris":{"android":"levelo://app?vid=a031aaf9-dd3e-4170-b0c4-fc24faaf012c","ios":"levelo://app?vid=a031aaf9-dd3e-4170-b0c4-fc24faaf012c"},"vehicle_type_id":"4","last_reported":1773153590,"current_range_meters":32400,"station_id":"ce4bgjp2rcd13ifvqbh0","pricing_plan_id":"cebpf4jnsgd1na2vs0mg"},{"bike_id":"d3611ff2-55b3-42cc-9920-0abd14ff4bd3","system_id":"levelo_inurba_marseille","lat":43.31209,"lon":5.36807,"is_reserved":false,"is_disabled":false,"rental_uris":{"android":"levelo://app?vid=d3611ff2-55b3-42cc-9920-0abd14ff4bd3","ios":"levelo://app?vid=d3611ff2-55b3-42cc-9920-0abd14ff4bd3"},"vehicle_type_id":"4","last_reported":1773153590,"current_range_meters":39200,"station_id":"ce4bgl92rcd13ifvqbq0","pricing_plan_id":"cebpf4jnsgd1na2vs0mg"},{"bike_id":"169d6968-b5c0-4a65-84a7-660d5c5a7612","system_id":"levelo_inurba_marseille","lat":43.24057,"lon":5.37753,"is_reserved":false,"is_disabled":false,"rental_uris":{"android":"levelo://app?vid=169d6968-b5c0-4a65-84a7-660d5c5a7612","ios":"levelo://app?vid=169d6968-b5c0-4a65-84a7-660d5c5a7612"},"vehicle_type_id":"4","last_reported":1773153590,"current_range_meters":27600,"station_id":"ce4bhnp2rcd13ifvqgvg","pricing_plan_id":"cebpf4jnsgd1na2vs0mg"},{"bike_id":"dff627b8-e846-4bdc-9ada-a335ec273009","system_id":"levelo_inurba_marseille","lat":43.30519,"lon":5.36713,"is_reserved":false,"is_disabled":false,"rental_uris":{"android":"levelo://app?vid=dff627b8-e846-4bdc-9ada-a335ec273009","ios":"levelo://app?vid=dff627b8-e846-4bdc-9ada-a335ec273009"},"vehicle_type_id":"4","last_reported":1773153590,"current_range_meters":28000,"station_id":"ce4bgrp2rcd13ifvqc9g","pricing_plan_id":"cebpf4jnsgd1na2vs0mg"},{"bike_id":"95c838b6-559a-4f36-bfca-f3c07c27cd05","system_id":"levelo_inurba_marseille","lat":43.31187,"lon":5.36817,"is_reserved":false,"is_disabled":false,"rental_uris":{"android":"levelo://app?vid=95c838b6-559a-4f36-bfca-f3c07c27cd05","ios":"levelo://app?vid=95c838b6-559a-4f36-bfca-f3c07c27cd05"},"vehicle_type_id":"4","last_reported":1773153590,"current_range_meters":38000,"station_id":"ce4bgl92rcd13ifvqbq0","pricing_plan_id":"cebpf4jnsgd1na2vs0mg"},{"bike_id":"6ed774aa-58ca-468f-a182-875ede51e8eb","system_id":"levelo_inurba_marseille","lat":43.23782,"lon":5.36652,"is_reserved":false,"is_disabled":false,"rental_uris":{"android":"levelo://app?vid=6ed774aa-58ca-468f-a182-875ede51e8eb","ios":"levelo://app?vid=6ed774aa-58ca-468f-a182-875ede51e8eb"},"vehicle_type_id":"4","last_reported":1773153590,"current_range_meters":27600,"station_id":"st_d3nk18o9ro0c73en2l3g","pricing_plan_id":"cebpf4jnsgd1na2vs0mg"},