{"last_updated":1743555088,"ttl":60,"version":"2.2","data":{"bikes":[{"bike_id":"3df664a5-ca9e-4e57-8cb9-ad7af6d9bc21","system_id":"levelo_inurba_marseille","lat":43.280351,"lon":5.369351,"is_reserved":false,"is_disabled":false,"rental_uris":{"android":"levelo://app?vid=3df664a5-ca9e-4e57-8cb9-ad7af6d9bc21","ios":"levelo://app?vid=3df664a5-ca9e-4e57-8cb9-ad7af6d9bc21"},"vehicle_type_id":"4","last_reported":1743555088,"current_range_meters":2800,"station_id":"ce4bha12rcd13ifvqef0","pricing_plan_id":"cebpf4jnsgd1na2vs0mg"},{"bike_id":"1b167083-12b7-424b-b082-ddc2382f2cdc","system_id":"levelo_inurba_marseille","lat":43.285986,"lon":5.35095,"is_reserved":false,"is_disabled":true,"rental_uris":{"android":"levelo://app?vid=1b167083-12b7-424b-b082-ddc2382f2cdc","ios":"levelo://app?vid=1b167083-12b7-424b-b082-ddc2382f2cdc"},"vehicle_type_id":"4","last_reported":1743555088,"current_range_meters":3200,"station_id":"","pricing_plan_id":"cebpf4jnsgd1na2vs0mg"},{"bike_id":"786231c7-d82f-41d8-9945-e16e54924493","system_id":"levelo_inurba_marseille","lat":43.27968,"lon":5.38743,"is_reserved":false,"is_disabled":false,"rental_uris":{"android":"levelo://app?vid=786231c7-d82f-41d8-9945-e16e54924493","ios":"levelo://app?vid=786231c7-d82f-41d8-9945-e16e54924493"},"vehicle_type_id":"4","last_reported":1743555088,"current_range_meters":3600,"station_id":"ce4bhg12rcd13ifvqf80","pricing_plan_id":"cebpf4jnsgd1na2vs0mg"},{"bike_id":"4f6db61e-8293-4a0d-bb9c-f9aae02e4996","system_id":"levelo_inurba_marseille","lat":43.25088,"lon":5.39518,"is_reserved":false,"is_disabled":true,"rental_uris":{"android":"levelo://app?vid=4f6db61e-8293-4a0d-bb9c-f9aae02e4996","ios":"levelo://app?vid=4f6db61e-8293-4a0d-bb9c-f9aae02e4996"},"vehicle_type_id":"4","last_reported":1743555088,"current_range_meters":3600,"station_id":"ce4bhm12rcd13ifvqgkg","pricing_plan_id":"cebpf4jnsgd1na2vs0mg"},{"bike_id":"acd20690-d96c-48bc-b672-d3c6c6c77404","system_id":"levelo_inurba_marseille","lat":43.308887,"lon":5.396505,"is_reserved":false,"is_disabled":true,"rental_uris":{"android":"levelo://app?vid=acd20690-d96c-48bc-b672-d3c6c6c77404","ios":"levelo://app?vid=acd20690-d96c-48bc-b672-d3c6c6c77404"},"vehicle_type_id":"4","last_reported":1743555088,"current_range_meters":4000,"station_id":"ce4bh012rcd13ifvqcv0","pricing_plan_id":"cebpf4jnsgd1na2vs0mg"},{"bike_id":"c6438c46-204d-4a79-9a65-1f7b29c6cbc4","system_id":"levelo_inurba_marseille","lat":43.28432,"lon":5.39189,"is_reserved":false,"is_disabled":true,"rental_uris":{"android":"levelo://app?vid=c6438c46-204d-4a79-9a65-1f7b29c6cbc4","ios":"levelo://app?vid=c6438c46-204d-4a79-9a65-1f7b29c6cbc4"},"vehicle_type_id":"4","last_reported":1743555088,"current_range_meters":4000,"station_id":"ce4bhoh2rcd13ifvqh5g","pricing_plan_id":"cebpf4jnsgd1na2vs0mg"},{"bike_id":"07f21796-10e5-401c-b1d2-7284537d6f26","system_id":"levelo_inurba_marseille","lat":43.29434,"lon":5.39767,"is_reserved":false,"is_disabled":false,"rental_uris":{"android":"levelo://app?vid=07f21796-10e5-401c-b1d2-7284537d6f26","ios":"levelo://app?vid=07f21796-10e5-401c-b1d2-7284537d6f26"},"vehicle_type_id":"4","last_reported":1743555088,"current_range_meters":4000,"station_id":"ce4bh3h2rcd13ifvqdo0","pricing_plan_id":"cebpf4jnsgd1na2vs0mg"},{"bike_id":"23a2997f-acca-44d1-a72c-cccdd94a796c","system_id":"levelo_inurba_marseille","lat":43.30955,"lon":5.4019,"is_reserved":false,"is_disabled":true,"rental_uris":{"android":"levelo://app?vid=23a2997f-acca-44d1-a72c-cccdd94a796c","ios":"levelo://app?vid=23a2997f-acca-44d1-a72c-cccdd94a796c"},"vehicle_type_id":"4","last_reported":1743555088,"current_range_meters":4800,"station_id":"ce4bgvp2rcd13ifvqct0","pricing_plan_id":"cebpf4jnsgd1na2vs0mg"},{"bike_id":"9bab9577-f0a6-4162-bef5-85b5a79a8e57","system_id":"levelo_inurba_marseille","lat":43.290423,"lon":5.39977,"is_reserved":false,"is_disabled":true,"rental_uris":{"android":"levelo://app?vid=9bab9577-f0a6-4162-bef5-85b5a79a8e57","ios":"levelo://app?vid=9bab9577-f0a6-4162-bef5-85b5a79a8e57"},"vehicle_type_id":"4","last_reported":1743555088,"current_range_meters":4800,"station_id":"ce4bh392rcd13ifvqdm0","pricing_plan_id":"cebpf4jnsgd1na2vs0mg"},{"bike_id":"3159a373-26dc-43aa-8a81-81890d794247","system_id":"levelo_inurba_marseille","lat":43.29289,"lon":5.37483,"is_reserved":false,"is_disabled":true,"rental_uris":{"android":"levelo://app?vid=3159a373-26dc-43aa-8a81-81890d794247","ios":"levelo://app?vid=3159a373-26dc-43aa-8a81-81890d794247"},"vehicle_type_id":"4","last_reported":1743555088,"current_range_meters":4800,"station_id":"ce4bgi12rcd13ifvqb70","pricing_plan_id":"cebpf4jnsgd1na2vs0mg"},{"bike_id":"eebf72b5-e3ef-4e3f-8181-c82b2045fd37","system_id":"levelo_inurba_marseille","lat":43.26569,"lon":5.3729,"is_reserved":false,"is_disabled":false,"rental_uris":{"android":"levelo://app?vid=eebf72b5-e3ef-4e3f-8181-c82b2045fd37","ios":"levelo://app?vid=eebf72b5-e3ef-4e3f-8181-c82b2045fd37"},"vehicle_type_id":"4","last_reported":1743555088,"current_range_meters":5600,"station_id":"ce4bhg12rcd13ifvqf70","pricing_plan_id":"cebpf4jnsgd1na2vs0mg"},{"bike_id":"02a25f28-67d1-4aa1-aa41-7bde5309c86e","system_id":"levelo_inurba_marseille","lat":43.306,"lon":5.37219,"is_reserved":false,"is_disabled":false,"rental_uris":{"android":"levelo://app?vid=02a25f28-67d1-4aa1-aa41-7bde5309c86e","ios":"levelo://app?vid=02a25f28-67d1-4aa1-aa41-7bde5309c86e"},"vehicle_type_id":"4","last_reported":1743555088,"current_range_meters":5600,"station_id":"ce4bgqh2rcd13ifvqc4g","pricing_plan_id":"cebpf4jnsgd1na2vs0mg"},{"bike_id":"1b7879b7-bf13-49eb-97a4-50916b33bf0b","system_id":"levelo_inurba_marseille","lat":43.27992,"lon":5.41654,"is_reserved":false,"is_disabled":false,"rental_uris":{"android":"levelo://app?vid=1b7879b7-bf13-49eb-97a4-50916b33bf0b","ios":"levelo://app?vid=1b7879b7-bf13-49eb-97a4-50916b33bf0b"},"vehicle_type_id":"4","last_reported":1743555088,"current_range_meters":5600,"station_id":"ce4bho12rcd13ifvqh1g","pricing_plan_id":"cebpf4jnsgd1na2vs0mg"},{"bike_id":"fa36f309-6b39-4046-9bcf-4e553f3ec51d","system_id":"levelo_inurba_marseille","lat":43.25579,"lon":5.38232,"is_reserved":false,"is_disabled":false,"rental_uris":{"android":"levelo://app?vid=fa36f309-6b39-4046-9bcf-4e553f3ec51d","ios":"levelo://app?vid=fa36f309-6b39-4046-9bcf-4e553f3ec51d"},"vehicle_type_id":"4","last_reported":1743555088,"current_range_meters":6000,"station_id":"ce4bhih2rcd13ifvqfs0","pricing_plan_id":"cebpf4jnsgd1na2vs0mg"},{"bike_id":"889c4013-740f-4bce-87b7-e986dabab5d1","system_id":"levelo_inurba_marseille","lat":43.30868,"lon":5.37185,"is_reserved":false,"is_disabled":false,"rental_uris":{"android":"levelo://app?vid=889c4013-740f-4bce-87b7-e986dabab5d1","ios":"levelo://app?vid=889c4013-740f-4bce-87b7-e986dabab5d1"},"vehicle_type_id":"4","last_reported":1743555088,"current_range_meters":6000,"station_id":"ce4bguh2rcd13ifvqckg","pricing_plan_id":"cebpf4jnsgd1na2vs0mg"},{"bike_id":"791f8b6d-c7b8-43a3-af53-554de4edbd8b","system_id":"levelo_inurba_marseille","lat":43.27047,"lon":5.40002,"is_reserved":false,"is_disabled":true,"rental_uris":{"android":"levelo://app?vid=791f8b6d-c7b8-43a3-af53-554de4edbd8b","ios":"levelo://app?vid=791f8b6d-c7b8-43a3-af53-554de4edbd8b"},"vehicle_type_id":"4","last_reported":1743555088,"current_range_meters":6400,"station_id":"","pricing_plan_id":"cebpf4jnsgd1na2vs0mg"},{"bike_id":"d662608d-504d-43ae-8d4a-6ba237d6c000","system_id":"levelo_inurba_marseille","lat":43.27852,"lon":5.38496,"is_reserved":false,"is_disabled":false,"rental_uris":{"android":"levelo://app?vid=d662608d-504d-43ae-8d4a-6ba237d6c000","ios":"levelo://app?vid=d662608d-504d-43ae-8d4a-6ba237d6c000"},"vehicle_type_id":"4","last_reported":1743555088,"current_range_meters":6400,"station_id":"","pricing_plan_id":"cebpf4jnsgd1na2vs0mg"},{"bike_id":"ab150c86-a818-4fd2-9923-471f33edb0ea","system_id":"levelo_inurba_marseille","lat":43.31982,"lon":5.3813,"is_reserved":false,"is_disabled":false,"rental_uris":{"android":"levelo://app?vid=ab150c86-a818-4fd2-9923-471f33edb0ea","ios":"levelo://app?vid=ab150c86-a818-4fd2-9923-471f33edb0ea"},"vehicle_type_id":"4","last_reported":1743555088,"current_range_meters":6800,"station_id":"ce4bhr12rcd13ifvqhpg","pricing_plan_id":"cebpf4jnsgd1na2vs0mg"},{"bike_id":"d00b3fbb-efdd-4f9b-a2ac-dda21d0f0379","system_id":"levelo_inurba_marseille","lat":43.28446,"lon":5.35884,"is_reserved":false,"is_disabled":false,"rental_uris":{"android":"levelo://app?vid=d00b3fbb-efdd-4f9b-a2ac-dda21d0f0379","ios":"levelo://app?vid=d00b3fbb-efdd-4f9b-a2ac-dda21d0f0379"},"vehicle_type_id":"4","last_reported":1743555088,"current_range_meters":6800,"station_id":"ce4bhah2rcd13ifvqei0","pricing_plan_id":"cebpf4jnsgd1na2vs0mg"},{"bike_id":"a68d1e0c-ebf1-43f7-b495-004c4eacbc35","system_id":"levelo_inurba_marseille","lat":43.32174,"lon":5.40674,"is_reserved":false,"is_disabled":false,"rental_uris":{"android":"levelo://app?vid=a68d1e0c-ebf1-43f7-b495-004c4eacbc35","ios":"levelo://app?vid=a68d1e0c-ebf1-43f7-b495-004c4eacbc35"},"vehicle_type_id":"4","last_reported":1743555088,"current_range_meters":6800,"station_id":"","pricing_plan_id":"cebpf4jnsgd1na2vs0mg"},{"bike_id":"08ae11e8-8e1a-4ce4-96e3-dcb9366b42de","system_id":"levelo_inurba_marseille","lat":43.2797,"lon":5.38728,"is_reserved":false,"is_disabled":false,"rental_uris":{"android":"levelo://app?vid=08ae11e8-8e1a-4ce4-96e3-dcb9366b42de","ios":"levelo://app?vid=08ae11e8-8e1a-4ce4-96e3-dcb9366b42de"},"vehicle_type_id":"4","last_reported":1743555088,"current_range_meters":6800,"station_id":"ce4bhg12rcd13ifvqf80","pricing_plan_id":"cebpf4jnsgd1na2vs0mg"},{"bike_id":"ab917714-e47d-4ed7-b902-4c1637c1701e","system_id":"levelo_inurba_marseille","lat":43.28873,"lon":5.35836,"is_reserved":false,"is_disabled":false,"rental_uris":{"android":"levelo://app?vid=ab917714-e47d-4ed7-b902-4c1637c1701e","ios":"levelo://app?vid=ab917714-e47d-4ed7-b902-4c1637c1701e"},"vehicle_type_id":"4","last_reported":1743555088,"current_range_meters":6800,"station_id":"ce4bhb12rcd13ifvqem0","pricing_plan_id":"cebpf4jnsgd1na2vs0mg"},{"bike_id":"c14978d9-9d03-4d9d-a076-ff174b162145","system_id":"levelo_inurba_marseille","lat":43.28383,"lon":5.37477,"is_reserved":false,"is_disabled":false,"rental_uris":{"android":"levelo://app?vid=c14978d9-9d03-4d9d-a076-ff174b162145","ios":"levelo://app?vid=c14978d9-9d03-4d9d-a076-ff174b162145"},"vehicle_type_id":"4","last_reported":1743555088,"current_range_meters":7200,"station_id":"ce4bh412rcd13ifvqds0","pricing_plan_id":"cebpf4jnsgd1na2vs0mg"},{"bike_id":"fef1d547-feef-4239-90b2-e0f3b60672f8","system_id":"levelo_inurba_marseille","lat":43.29587,"lon":5.39979,"is_reserved":false,"is_disabled":true,"rental_uris":{"android":"levelo://app?vid=fef1d547-feef-4239-90b2-e0f3b60672f8","ios":"levelo://app?vid=fef1d547-feef-4239-90b2-e0f3b60672f8"},"vehicle_type_id":"4","last_reported":1743555088,"current_range_meters":7200,"station_id":"ce4bh312rcd13ifvqdj0","pricing_plan_id":"cebpf4jnsgd1na2vs0mg"},{"bike_id":"d10bd936-2fca-4607-82d0-6e154162cbfd","system_id":"levelo_inurba_marseille","lat":43.3089,"lon":5.39625,"is_reserved":false,"is_disabled":true,"rental_uris":{"android":"levelo://app?vid=d10bd936-2fca-4607-82d0-6e154162cbfd","ios":"levelo://app?vid=d10bd936-2fca-4607-82d0-6e154162cbfd"},"vehicle_type_id":"4","last_reported":1743555088,"current_range_meters":7200,"station_id":"ce4bh012rcd13ifvqcv0","pricing_plan_id":"cebpf4jnsgd1na2vs0mg"},{"bike_id":"3a21b672-7501-4151-b579-3c3525dcd7c3","system_id":"levelo_inurba_marseille","lat":43.26549,"lon":5.37322,"is_reserved":false,"is_disabled":false,"rental_uris":{"android":"levelo://app?vid=3a21b672-7501-4151-b579-3c3525dcd7c3","ios":"levelo://app?vid=3a21b672-7501-4151-b579-3c3525dcd7c3"},"vehicle_type_id":"4","last_reported":1743555088,"current_range_meters":7200,"station_id":"ce4bhg12rcd13ifvqf70","pricing_plan_id":"cebpf4jnsgd1na2vs0mg"},{"bike_id":"28b6a25f-1d3c-4a54-b29e-afa1b303d4b2","system_id":"levelo_inurba_marseille","lat":43.313279,"lon":5.396882,"is_reserved":false,"is_disabled":false,"rental_uris":{"android":"levelo://app?vid=28b6a25f-1d3c-4a54-b29e-afa1b303d4b2","ios":"levelo://app?vid=28b6a25f-1d3c-4a54-b29e-afa1b303d4b2"},"vehicle_type_id":"4","last_reported":1743555088,"current_range_meters":7200,"station_id":"ce4bgvp2rcd13ifvqcu0","pricing_plan_id":"cebpf4jnsgd1na2vs0mg"},{"bike_id":"a87d6856-cd93-4bee-b622-8a1afe843210","system_id":"levelo_inurba_marseille","lat":43.302549,"lon":5.400565,"is_reserved":false,"is_disabled":false,"rental_uris":{"android":"levelo://app?vid=a87d6856-cd93-4bee-b622-8a1afe843210","ios":"levelo://app?vid=a87d6856-cd93-4bee-b622-8a1afe843210"},"vehicle_type_id":"4","last_reported":1743555088,"current_range_meters":7200,"station_id":"ce4bh2p2rcd13ifvqdi0","pricing_plan_id":"cebpf4jnsgd1na2vs0mg"},{"bike_id":"33b8dd29-56e2-488c-9bb6-7f788906afe5","system_id":"levelo_inurba_marseille","lat":43.30772,"lon":5.37262,"is_reserved":false,"is_disabled":false,"rental_uris":{"android":"levelo://app?vid=33b8dd29-56e2-488c-9bb6-7f788906afe5","ios":"levelo://app?vid=33b8dd29-56e2-488c-9bb6-7f788906afe5"},"vehicle_type_id":"4","last_reported":1743555088,"current_range_meters":7200,"station_id":"","pricing_plan_id":"cebpf4jnsgd1na2vs0mg"},{"bike_id":"4ad73676-975d-4eb4-8ab0-34916f3a4594","system_id":"levelo_inurba_marseille","lat":43.30651,"lon":5.37129,"is_reserved":false,"is_disabled":false,"rental_uris":{"android":"levelo://app?vid=4ad73676-975d-4eb4-8ab0-34916f3a4594","ios":"levelo://app?vid=4ad73676-975d-4eb4-8ab0-34916f3a4594"},"vehicle_type_id":"4","last_reported":1743555088,"current_range_meters":7200,"station_id":"","pricing_plan_id":"cebpf4jnsgd1na2vs0mg"},{"bike_id":"8f188c1f-e79b-4d9c-bdf0-db34efe70778","system_id":"levelo_inurba_marseille","lat":43.23191,"lon":5.35547,"is_reserved":false,"is_disabled":false,"rental_uris":{"android":"levelo://app?vid=8f188c1f-e79b-4d9c-bdf0-db34efe70778","ios":"levelo://app?vid=8f188c1f-e79b-4d9c-bdf0-db34efe70778"},"vehicle_type_id":"4","last_reported":1743555088,"current_range_meters":7200,"station_id":"ce4bhu92rcd13ifvqi70","pricing_plan_id":"cebpf4jnsgd1na2vs0mg"},{"bike_id":"11fb0821-8afa-433a-9d88-19545526da74","system_id":"levelo_inurba_marseille","lat":43.27931,"lon":5.38011,"is_reserved":false,"is_disabled":true,"rental_uris":{"android":"levelo://app?vid=11fb0821-8afa-433a-9d88-19545526da74","ios":"levelo://app?vid=11fb0821-8afa-433a-9d88-19545526da74"},"vehicle_type_id":"4","last_reported":1743555088,"current_range_meters":7200,"station_id":"ce4bhf92rcd13ifvqf50","pricing_plan_id":"cebpf4jnsgd1na2vs0mg"},{"bike_id":"0f209207-f64b-4e6d-bd4b-33268b09c2cf","system_id":"levelo_inurba_marseille","lat":43.262068,"lon":5.37442,"is_reserved":false,"is_disabled":false,"rental_uris":{"android":"levelo://app?vid=0f209207-f64b-4e6d-bd4b-33268b09c2cf","ios":"levelo://app?vid=0f209207-f64b-4e6d-bd4b-33268b09c2cf"},"vehicle_type_id":"4","last_reported":1743555088,"current_range_meters":7200,"station_id":"ce4bhgp2rcd13ifvqfc0","pricing_plan_id":"cebpf4jnsgd1na2vs0mg"},{"bike_id":"91d48793-5dd7-45b0-b672-d2eea9be4411","system_id":"levelo_inurba_marseille","lat":43.24988,"lon":5.38899,"is_reserved":false,"is_disabled":false,"rental_uris":{"android":"levelo://app?vid=91d48793-5dd7-45b0-b672-d2eea9be4411","ios":"levelo://app?vid=91d48793-5dd7-45b0-b672-d2eea9be4411"},"vehicle_type_id":"4","last_reported":1743555088,"current_range_meters":7200,"station_id":"ce4bhgp2rcd13ifvqfd0","pricing_plan_id":"cebpf4jnsgd1na2vs0mg"},{"bike_id":"0e3fd0f2-1256-4fcb-b5b6-2d498eed0785","system_id":"levelo_inurba_marseille","lat":43.24405,"lon":5.38527,"is_reserved":false,"is_disabled":false,"rental_uris":{"android":"levelo://app?vid=0e3fd0f2-1256-4fcb-b5b6-2d498eed0785","ios":"levelo://app?vid=0e3fd0f2-1256-4fcb-b5b6-2d498eed0785"},"vehicle_type_id":"4","last_reported":1743555088,"current_range_meters":7200,"station_id":"","pricing_plan_id":"cebpf4jnsgd1na2vs0mg"},{"bike_id":"8075b667-14a1-4a2e-bae6-b0affeb897b1","system_id":"levelo_inurba_marseille","lat":43.31089,"lon":5.42437,"is_reserved":false,"is_disabled":false,"rental_uris":{"android":"levelo://app?vid=8075b667-14a1-4a2e-bae6-b0affeb897b1","ios":"levelo://app?vid=8075b667-14a1-4a2e-bae6-b0affeb897b1"},"vehicle_type_id":"4","last_reported":1743555088,"current_range_meters":8000,"station_id":"ce4bhp92rcd13ifvqhag","pricing_plan_id":"cebpf4jnsgd1na2vs0mg"},{"bike_id":"1167d76f-0701-42ca-9566-e6b8288b4501","system_id":"levelo_inurba_marseille","lat":43.282775,"lon":5.378622,"is_reserved":false,"is_disabled":false,"rental_uris":{"android":"levelo://app?vid=1167d76f-0701-42ca-9566-e6b8288b4501","ios":"levelo://app?vid=1167d76f-0701-42ca-9566-e6b8288b4501"},"vehicle_type_id":"4","last_reported":1743555088,"current_range_meters":8000,"station_id":"","pricing_plan_id":"cebpf4jnsgd1na2vs0mg"},{"bike_id":"7549bd43-15b2-4001-a4c7-d590c7fffdef","system_id":"levelo_inurba_marseille","lat":43.32119,"lon":5.36794,"is_reserved":false,"is_disabled":false,"rental_uris":{"android":"levelo://app?vid=7549bd43-15b2-4001-a4c7-d590c7fffdef","ios":"levelo://app?vid=7549bd43-15b2-4001-a4c7-d590c7fffdef"},"vehicle_type_id":"4","last_reported":1743555088,"current_range_meters":8000,"station_id":"ce4bhrh2rcd13ifvqhug","pricing_plan_id":"cebpf4jnsgd1na2vs0mg"},{"bike_id":"06b1d6c7-37b4-4959-bca4-885ccac8901f","system_id":"levelo_inurba_marseille","lat":43.31066,"lon":5.38346,"is_reserved":false,"is_disabled":false,"rental_uris":{"android":"levelo://app?vid=06b1d6c7-37b4-4959-bca4-885ccac8901f","ios":"levelo://app?vid=06b1d6c7-37b4-4959-bca4-885ccac8901f"},"vehicle_type_id":"4","last_reported":1743555088,"current_range_meters":8000,"station_id":"ce4bgv92rcd13ifvqcr0","pricing_plan_id":"cebpf4jnsgd1na2vs0mg"},{"bike_id":"c6c438e8-d3ab-4770-968b-7a1a93e8a8c6","system_id":"levelo_inurba_marseille","lat":43.289,"lon":5.45855,"is_reserved":false,"is_disabled":false,"rental_uris":{"android":"levelo://app?vid=c6c438e8-d3ab-4770-968b-7a1a93e8a8c6","ios":"levelo://app?vid=c6c438e8-d3ab-4770-968b-7a1a93e8a8c6"},"vehicle_type_id":"4","last_reported":1743555088,"current_range_meters":8000,"station_id":"","pricing_plan_id":"cebpf4jnsgd1na2vs0mg"},{"bike_id":"a98ca414-5a9d-44e4-9fe8-4c3a59245923","system_id":"levelo_inurba_marseille","lat":43.30821,"lon":5.43574,"is_reserved":false,"is_disabled":false,"rental_uris":{"android":"levelo://app?vid=a98ca414-5a9d-44e4-9fe8-4c3a59245923","ios":"levelo://app?vid=a98ca414-5a9d-44e4-9fe8-4c3a59245923"},"vehicle_type_id":"4","last_reported":1743555088,"current_range_meters":8400,"station_id":"ce4bhph2rcd13ifvqheg","pricing_plan_id":"cebpf4jnsgd1na2vs0mg"},{"bike_id":"721bcc92-6b82-4aac-988d-3c86699ef60a","system_id":"levelo_inurba_marseille","lat":43.27836,"lon":5.39198,"is_reserved":false,"is_disabled":true,"rental_uris":{"android":"levelo://app?vid=721bcc92-6b82-4aac-988d-3c86699ef60a","ios":"levelo://app?vid=721bcc92-6b82-4aac-988d-3c86699ef60a"},"vehicle_type_id":"4","last_reported":1743555088,"current_range_meters":8400,"station_id":"ce4bhjp2rcd13ifvqga0","pricing_plan_id":"cebpf4jnsgd1na2vs0mg"},{"bike_id":"4e4db323-8d71-4a71-9b96-f8b28200dea8","system_id":"levelo_inurba_marseille","lat":43.31085,"lon":5.38354,"is_reserved":false,"is_disabled":false,"rental_uris":{"android":"levelo://app?vid=4e4db323-8d71-4a71-9b96-f8b28200dea8","ios":"levelo://app?vid=4e4db323-8d71-4a71-9b96-f8b28200dea8"},"vehicle_type_id":"4","last_reported":1743555088,"current_range_meters":8400,"station_id":"ce4bgv92rcd13ifvqcr0","pricing_plan_id":"cebpf4jnsgd1na2vs0mg"},{"bike_id":"8fc84e5d-a782-4374-b0cd-d3d9e7c82d43","system_id":"levelo_inurba_marseille","lat":43.29429,"lon":5.3977,"is_reserved":false,"is_disabled":false,"rental_uris":{"android":"levelo://app?vid=8fc84e5d-a782-4374-b0cd-d3d9e7c82d43","ios":"levelo://app?vid=8fc84e5d-a782-4374-b0cd-d3d9e7c82d43"},"vehicle_type_id":"4","last_reported":1743555088,"current_range_meters":8400,"station_id":"ce4bh3h2rcd13ifvqdo0","pricing_plan_id":"cebpf4jnsgd1na2vs0mg"},{"bike_id":"1945ebeb-6ec8-4a0c-9d89-2d8219042cad","system_id":"levelo_inurba_marseille","lat":43.28101,"lon":5.37857,"is_reserved":false,"is_disabled":false,"rental_uris":{"android":"levelo://app?vid=1945ebeb-6ec8-4a0c-9d89-2d8219042cad","ios":"levelo://app?vid=1945ebeb-6ec8-4a0c-9d89-2d8219042cad"},"vehicle_type_id":"4","last_reported":1743555088,"current_range_meters":8400,"station_id":"ce4bha12rcd13ifvqee0","pricing_plan_id":"cebpf4jnsgd1na2vs0mg"},{"bike_id":"4e731b01-8520-49d5-a2ac-5d6dcf51d952","system_id":"levelo_inurba_marseille","lat":43.25112,"lon":5.40317,"is_reserved":false,"is_disabled":false,"rental_uris":{"android":"levelo://app?vid=4e731b01-8520-49d5-a2ac-5d6dcf51d952","ios":"levelo://app?vid=4e731b01-8520-49d5-a2ac-5d6dcf51d952"},"vehicle_type_id":"4","last_reported":1743555088,"current_range_meters":8400,"station_id":"ce4bhlh2rcd13ifvqgig","pricing_plan_id":"cebpf4jnsgd1na2vs0mg"},{"bike_id":"4a48f963-6e5f-4777-9bcd-540f020d49d5","system_id":"levelo_inurba_marseille","lat":43.27821,"lon":5.39212,"is_reserved":false,"is_disabled":true,"rental_uris":{"android":"levelo://app?vid=4a48f963-6e5f-4777-9bcd-540f020d49d5","ios":"levelo://app?vid=4a48f963-6e5f-4777-9bcd-540f020d49d5"},"vehicle_type_id":"4","last_reported":1743555088,"current_range_meters":8400,"station_id":"ce4bhjp2rcd13ifvqga0","pricing_plan_id":"cebpf4jnsgd1na2vs0mg"},{"bike_id":"66a6759f-f104-404f-ba35-7dd5d87e6d0b","system_id":"levelo_inurba_marseille","lat":43.3021,"lon":5.37744,"is_reserved":false,"is_disabled":false,"rental_uris":{"android":"levelo://app?vid=66a6759f-f104-404f-ba35-7dd5d87e6d0b","ios":"levelo://app?vid=66a6759f-f104-404f-ba35-7dd5d87e6d0b"},"vehicle_type_id":"4","last_reported":1743555088,"current_range_meters":8400,"station_id":"","pricing_plan_id":"cebpf4jnsgd1na2vs0mg"},{"bike_id":"63ad75c2-f94f-484c-8169-335db4f0df4f","system_id":"levelo_inurba_marseille","lat":43.29274,"lon":5.401138,"is_reserved":false,"is_disabled":false,"rental_uris":{"android":"levelo://app?vid=63ad75c2-f94f-484c-8169-335db4f0df4f","ios":"levelo://app?vid=63ad75c2-f94f-484c-8169-335db4f0df4f"},"vehicle_type_id":"4","last_reported":1743555088,"current_range_meters":8800,"station_id":"ce4bh312rcd13ifvqdk0","pricing_plan_id":"cebpf4jnsgd1na2vs0mg"},{"bike_id":"4c0c38f8-da28-4ee1-b8a2-67c72aa5965d","system_id":"levelo_inurba_marseille","lat":43.23152,"lon":5.43718,"is_reserved":false,"is_disabled":false,"rental_uris":{"android":"levelo://app?vid=4c0c38f8-da28-4ee1-b8a2-67c72aa5965d","ios":"levelo://app?vid=4c0c38f8-da28-4ee1-b8a2-67c72aa5965d"},"vehicle_type_id":"4","last_reported":1743555088,"current_range_meters":8800,"station_id":"ce4bhmp2rcd13ifvqgog","pricing_plan_id":"cebpf4jnsgd1na2vs0mg"},{"bike_id":"dfca37a9-cfd4-401c-b5ce-c9c4d656bffe","system_id":"levelo_inurba_marseille","lat":43.28457,"lon":5.35886,"is_reserved":false,"is_disabled":false,"rental_uris":{"android":"levelo://app?vid=dfca37a9-cfd4-401c-b5ce-c9c4d656bffe","ios":"levelo://app?vid=dfca37a9-cfd4-401c-b5ce-c9c4d656bffe"},"vehicle_type_id":"4","last_reported":1743555088,"current_range_meters":8800,"station_id":"ce4bhah2rcd13ifvqei0","pricing_plan_id":"cebpf4jnsgd1na2vs0mg"},{"bike_id":"878f9e7d-25c6-4abc-95a4-555c77068785","system_id":"levelo_inurba_marseille","lat":43.30321,"lon":5.404418,"is_reserved":false,"is_disabled":false,"rental_uris":{"android":"levelo://app?vid=878f9e7d-25c6-4abc-95a4-555c77068785","ios":"levelo://app?vid=878f9e7d-25c6-4abc-95a4-555c77068785"},"vehicle_type_id":"4","last_reported":1743555088,"current_range_meters":8800,"station_id":"ce4bh012rcd13ifvqd10","pricing_plan_id":"cebpf4jnsgd1na2vs0mg"},{"bike_id":"49423b93-28c3-4afa-893a-d3004cba0328","system_id":"levelo_inurba_marseille","lat":43.27832,"lon":5.39196,"is_reserved":false,"is_disabled":false,"rental_uris":{"android":"levelo://app?vid=49423b93-28c3-4afa-893a-d3004cba0328","ios":"levelo://app?vid=49423b93-28c3-4afa-893a-d3004cba0328"},"vehicle_type_id":"4","last_reported":1743555088,"current_range_meters":8800,"station_id":"ce4bhjp2rcd13ifvqga0","pricing_plan_id":"cebpf4jnsgd1na2vs0mg"},{"bike_id":"a495ab47-72d1-4f9e-8b95-72d772792f33","system_id":"levelo_inurba_marseille","lat":43.30425,"lon":5.36826,"is_reserved":false,"is_disabled":false,"rental_uris":{"android":"levelo://app?vid=a495ab47-72d1-4f9e-8b95-72d772792f33","ios":"levelo://app?vid=a495ab47-72d1-4f9e-8b95-72d772792f33"},"vehicle_type_id":"4","last_reported":1743555088,"current_range_meters":8800,"station_id":"","pricing_plan_id":"cebpf4jnsgd1na2vs0mg"},{"bike_id":"e47bc61d-df2d-41b3-b26b-dd94e6e5e301","system_id":"levelo_inurba_marseille","lat":43.26242,"lon":5.42118,"is_reserved":false,"is_disabled":false,"rental_uris":{"android":"levelo://app?vid=e47bc61d-df2d-41b3-b26b-dd94e6e5e301","ios":"levelo://app?vid=e47bc61d-df2d-41b3-b26b-dd94e6e5e301"},"vehicle_type_id":"4","last_reported":1743555088,"current_range_meters":8800,"station_id":"","pricing_plan_id":"cebpf4jnsgd1na2vs0mg"},{"bike_id":"7bdf0d60-3026-4723-ac07-ebb25b9cf79f","system_id":"levelo_inurba_marseille","lat":43.2879,"lon":5.38666,"is_reserved":false,"is_disabled":false,"rental_uris":{"android":"levelo://app?vid=7bdf0d60-3026-4723-ac07-ebb25b9cf79f","ios":"levelo://app?vid=7bdf0d60-3026-4723-ac07-ebb25b9cf79f"},"vehicle_type_id":"4","last_reported":1743555088,"current_range_meters":8800,"station_id":"","pricing_plan_id":"cebpf4jnsgd1na2vs0mg"},{"bike_id":"7a73ad00-bae3-4a4a-8a9a-8e116857b680","system_id":"levelo_inurba_marseille","lat":43.24671,"lon":5.38153,"is_reserved":false,"is_disabled":false,"rental_uris":{"android":"levelo://app?vid=7a73ad00-bae3-4a4a-8a9a-8e116857b680","ios":"levelo://app?vid=7a73ad00-bae3-4a4a-8a9a-8e116857b680"},"vehicle_type_id":"4","last_reported":1743555088,"current_range_meters":8800,"station_id":"ce4bhih2rcd13ifvqfr0","pricing_plan_id":"cebpf4jnsgd1na2vs0mg"},{"bike_id":"517f170b-3b70-4a91-bbc1-e2feedbce1b4","system_id":"levelo_inurba_marseille","lat":43.28341,"lon":5.3813,"is_reserved":false,"is_disabled":false,"rental_uris":{"android":"levelo://app?vid=517f170b-3b70-4a91-bbc1-e2feedbce1b4","ios":"levelo://app?vid=517f170b-3b70-4a91-bbc1-e2feedbce1b4"},"vehicle_type_id":"4","last_reported":1743555088,"current_range_meters":8800,"station_id":"ce4bh412rcd13ifvqdr0","pricing_plan_id":"cebpf4jnsgd1na2vs0mg"},{"bike_id":"2c567be4-626d-4614-8796-6c92d09d2fa1","system_id":"levelo_inurba_marseille","lat":43.29699,"lon":5.37908,"is_reserved":false,"is_disabled":false,"rental_uris":{"android":"levelo://app?vid=2c567be4-626d-4614-8796-6c92d09d2fa1","ios":"levelo://app?vid=2c567be4-626d-4614-8796-6c92d09d2fa1"},"vehicle_type_id":"4","last_reported":1743555088,"current_range_meters":9200,"station_id":"","pricing_plan_id":"cebpf4jnsgd1na2vs0mg"},{"bike_id":"67e02190-fe32-43d4-8320-0b46d4310805","system_id":"levelo_inurba_marseille","lat":43.232,"lon":5.39993,"is_reserved":false,"is_disabled":false,"rental_uris":{"android":"levelo://app?vid=67e02190-fe32-43d4-8320-0b46d4310805","ios":"levelo://app?vid=67e02190-fe32-43d4-8320-0b46d4310805"},"vehicle_type_id":"4","last_reported":1743555088,"current_range_meters":9200,"station_id":"ce4bhn12rcd13ifvqgqg","pricing_plan_id":"cebpf4jnsgd1na2vs0mg"},{"bike_id":"d04d7a09-0442-42f8-9092-04e6a53a0d27","system_id":"levelo_inurba_marseille","lat":43.30335,"lon":5.36894,"is_reserved":false,"is_disabled":false,"rental_uris":{"android":"levelo://app?vid=d04d7a09-0442-42f8-9092-04e6a53a0d27","ios":"levelo://app?vid=d04d7a09-0442-42f8-9092-04e6a53a0d27"},"vehicle_type_id":"4","last_reported":1743555088,"current_range_meters":9200,"station_id":"ce4bgqh2rcd13ifvqc5g","pricing_plan_id":"cebpf4jnsgd1na2vs0mg"},{"bike_id":"6fe50303-3adc-422d-9b31-96597a73342b","system_id":"levelo_inurba_marseille","lat":43.23188,"lon":5.39993,"is_reserved":false,"is_disabled":false,"rental_uris":{"android":"levelo://app?vid=6fe50303-3adc-422d-9b31-96597a73342b","ios":"levelo://app?vid=6fe50303-3adc-422d-9b31-96597a73342b"},"vehicle_type_id":"4","last_reported":1743555088,"current_range_meters":9200,"station_id":"ce4bhn12rcd13ifvqgqg","pricing_plan_id":"cebpf4jnsgd1na2vs0mg"},{"bike_id":"34ead93f-0548-429e-a369-3703fc242f80","system_id":"levelo_inurba_marseille","lat":43.25591,"lon":5.3824,"is_reserved":false,"is_disabled":false,"rental_uris":{"android":"levelo://app?vid=34ead93f-0548-429e-a369-3703fc242f80","ios":"levelo://app?vid=34ead93f-0548-429e-a369-3703fc242f80"},"vehicle_type_id":"4","last_reported":1743555088,"current_range_meters":9200,"station_id":"ce4bhih2rcd13ifvqfs0","pricing_plan_id":"cebpf4jnsgd1na2vs0mg"},{"bike_id":"515665b8-e5fc-4dbc-b90f-05d42ba5c9a9","system_id":"levelo_inurba_marseille","lat":43.30137,"lon":5.39873,"is_reserved":false,"is_disabled":true,"rental_uris":{"android":"levelo://app?vid=515665b8-e5fc-4dbc-b90f-05d42ba5c9a9","ios":"levelo://app?vid=515665b8-e5fc-4dbc-b90f-05d42ba5c9a9"},"vehicle_type_id":"4","last_reported":1743555088,"current_range_meters":9200,"station_id":"ce4bh0h2rcd13ifvqd40","pricing_plan_id":"cebpf4jnsgd1na2vs0mg"},{"bike_id":"b3cc6af8-4e04-47ee-b7ed-e72bfdc8a57b","system_id":"levelo_inurba_marseille","lat":43.31735,"lon":5.39015,"is_reserved":false,"is_disabled":false,"rental_uris":{"android":"levelo://app?vid=b3cc6af8-4e04-47ee-b7ed-e72bfdc8a57b","ios":"levelo://app?vid=b3cc6af8-4e04-47ee-b7ed-e72bfdc8a57b"},"vehicle_type_id":"4","last_reported":1743555088,"current_range_meters":9200,"station_id":"ce4bhqp2rcd13ifvqhng","pricing_plan_id":"cebpf4jnsgd1na2vs0mg"},{"bike_id":"e6928b84-bc47-4de0-8a23-14baa6be129c","system_id":"levelo_inurba_marseille","lat":43.301019,"lon":5.399135,"is_reserved":false,"is_disabled":true,"rental_uris":{"android":"levelo://app?vid=e6928b84-bc47-4de0-8a23-14baa6be129c","ios":"levelo://app?vid=e6928b84-bc47-4de0-8a23-14baa6be129c"},"vehicle_type_id":"4","last_reported":1743555088,"current_range_meters":9200,"station_id":"ce4bh0h2rcd13ifvqd40","pricing_plan_id":"cebpf4jnsgd1na2vs0mg"},{"bike_id":"7af49adf-a82e-48dc-90ce-8f8adc353b59","system_id":"levelo_inurba_marseille","lat":43.34239,"lon":5.38512,"is_reserved":false,"is_disabled":false,"rental_uris":{"android":"levelo://app?vid=7af49adf-a82e-48dc-90ce-8f8adc353b59","ios":"levelo://app?vid=7af49adf-a82e-48dc-90ce-8f8adc353b59"},"vehicle_type_id":"4","last_reported":1743555088,"current_range_meters":9200,"station_id":"","pricing_plan_id":"cebpf4jnsgd1na2vs0mg"},{"bike_id":"a9ca1a38-8dbc-440c-bf4c-dd3a56d2465a","system_id":"levelo_inurba_marseille","lat":43.2872,"lon":5.3794,"is_reserved":false,"is_disabled":false,"rental_uris":{"android":"levelo://app?vid=a9ca1a38-8dbc-440c-bf4c-dd3a56d2465a","ios":"levelo://app?vid=a9ca1a38-8dbc-440c-bf4c-dd3a56d2465a"},"vehicle_type_id":"4","last_reported":1743555088,"current_range_meters":9200,"station_id":"ce4bh9p2rcd13ifvqec0","pricing_plan_id":"cebpf4jnsgd1na2vs0mg"},{"bike_id":"3e5329f3-c0cd-422c-afb1-2f46242590da","system_id":"levelo_inurba_marseille","lat":43.319186,"lon":5.375592,"is_reserved":false,"is_disabled":false,"rental_uris":{"android":"levelo://app?vid=3e5329f3-c0cd-422c-afb1-2f46242590da","ios":"levelo://app?vid=3e5329f3-c0cd-422c-afb1-2f46242590da"},"vehicle_type_id":"4","last_reported":1743555088,"current_range_meters":9200,"station_id":"","pricing_plan_id":"cebpf4jnsgd1na2vs0mg"},{"bike_id":"5ecafc64-86c4-4df5-818d-7b60b3345ce1","system_id":"levelo_inurba_marseille","lat":43.28618,"lon":5.35101,"is_reserved":false,"is_disabled":false,"rental_uris":{"android":"levelo://app?vid=5ecafc64-86c4-4df5-818d-7b60b3345ce1","ios":"levelo://app?vid=5ecafc64-86c4-4df5-818d-7b60b3345ce1"},"vehicle_type_id":"4","last_reported":1743555088,"current_range_meters":9200,"station_id":"ce4bhch2rcd13ifvqeug","pricing_plan_id":"cebpf4jnsgd1na2vs0mg"},{"bike_id":"27773214-4312-4127-aa54-e74cba3d6d07","system_id":"levelo_inurba_marseille","lat":43.27782,"lon":5.40727,"is_reserved":false,"is_disabled":false,"rental_uris":{"android":"levelo://app?vid=27773214-4312-4127-aa54-e74cba3d6d07","ios":"levelo://app?vid=27773214-4312-4127-aa54-e74cba3d6d07"},"vehicle_type_id":"4","last_reported":1743555088,"current_range_meters":9200,"station_id":"ce4bhnh2rcd13ifvqgtg","pricing_plan_id":"cebpf4jnsgd1na2vs0mg"},{"bike_id":"5fa5d7e5-05ea-4278-a98b-a43064d3ec2a","system_id":"levelo_inurba_marseille","lat":43.28457,"lon":5.37577,"is_reserved":false,"is_disabled":true,"rental_uris":{"android":"levelo://app?vid=5fa5d7e5-05ea-4278-a98b-a43064d3ec2a","ios":"levelo://app?vid=5fa5d7e5-05ea-4278-a98b-a43064d3ec2a"},"vehicle_type_id":"4","last_reported":1743555088,"current_range_meters":9200,"station_id":"","pricing_plan_id":"cebpf4jnsgd1na2vs0mg"},{"bike_id":"eb7da56b-5c69-49ae-a682-c31364575d55","system_id":"levelo_inurba_marseille","lat":43.25729,"lon":5.41097,"is_reserved":false,"is_disabled":false,"rental_uris":{"android":"levelo://app?vid=eb7da56b-5c69-49ae-a682-c31364575d55","ios":"levelo://app?vid=eb7da56b-5c69-49ae-a682-c31364575d55"},"vehicle_type_id":"4","last_reported":1743555088,"current_range_meters":9600,"station_id":"ce4bhkp2rcd13ifvqgd0","pricing_plan_id":"cebpf4jnsgd1na2vs0mg"},{"bike_id":"2e8d8654-23f7-434b-a09e-ae1e8d2abb71","system_id":"levelo_inurba_marseille","lat":43.25079,"lon":5.39508,"is_reserved":false,"is_disabled":false,"rental_uris":{"android":"levelo://app?vid=2e8d8654-23f7-434b-a09e-ae1e8d2abb71","ios":"levelo://app?vid=2e8d8654-23f7-434b-a09e-ae1e8d2abb71"},"vehicle_type_id":"4","last_reported":1743555088,"current_range_meters":9600,"station_id":"ce4bhm12rcd13ifvqgkg","pricing_plan_id":"cebpf4jnsgd1na2vs0mg"},{"bike_id":"d1319251-b1e3-4059-8116-8418ade3d3d9","system_id":"levelo_inurba_marseille","lat":43.25835,"lon":5.3944,"is_reserved":false,"is_disabled":false,"rental_uris":{"android":"levelo://app?vid=d1319251-b1e3-4059-8116-8418ade3d3d9","ios":"levelo://app?vid=d1319251-b1e3-4059-8116-8418ade3d3d9"},"vehicle_type_id":"4","last_reported":1743555088,"current_range_meters":9600,"station_id":"ce4bhip2rcd13ifvqft0","pricing_plan_id":"cebpf4jnsgd1na2vs0mg"},{"bike_id":"a6dcb119-06c7-4ddf-8dd4-d841276950c7","system_id":"levelo_inurba_marseille","lat":43.29644,"lon":5.40612,"is_reserved":false,"is_disabled":false,"rental_uris":{"android":"levelo://app?vid=a6dcb119-06c7-4ddf-8dd4-d841276950c7","ios":"levelo://app?vid=a6dcb119-06c7-4ddf-8dd4-d841276950c7"},"vehicle_type_id":"4","last_reported":1743555088,"current_range_meters":9600,"station_id":"ce4bh0h2rcd13ifvqd60","pricing_plan_id":"cebpf4jnsgd1na2vs0mg"},{"bike_id":"693a6c20-3e8f-40ba-985f-e72f8969ee75","system_id":"levelo_inurba_marseille","lat":43.28719,"lon":5.39962,"is_reserved":false,"is_disabled":false,"rental_uris":{"android":"levelo://app?vid=693a6c20-3e8f-40ba-985f-e72f8969ee75","ios":"levelo://app?vid=693a6c20-3e8f-40ba-985f-e72f8969ee75"},"vehicle_type_id":"4","last_reported":1743555088,"current_range_meters":9600,"station_id":"ce4bho92rcd13ifvqh3g","pricing_plan_id":"cebpf4jnsgd1na2vs0mg"},{"bike_id":"f2dfd2a0-5846-4c43-9aae-f5b5157fea3b","system_id":"levelo_inurba_marseille","lat":43.28613,"lon":5.35109,"is_reserved":false,"is_disabled":false,"rental_uris":{"android":"levelo://app?vid=f2dfd2a0-5846-4c43-9aae-f5b5157fea3b","ios":"levelo://app?vid=f2dfd2a0-5846-4c43-9aae-f5b5157fea3b"},"vehicle_type_id":"4","last_reported":1743555088,"current_range_meters":9600,"station_id":"ce4bhch2rcd13ifvqeug","pricing_plan_id":"cebpf4jnsgd1na2vs0mg"},{"bike_id":"56cfda8b-2674-4efc-8ad1-c51e28d4f008","system_id":"levelo_inurba_marseille","lat":43.28027,"lon":5.36942,"is_reserved":false,"is_disabled":false,"rental_uris":{"android":"levelo://app?vid=56cfda8b-2674-4efc-8ad1-c51e28d4f008","ios":"levelo://app?vid=56cfda8b-2674-4efc-8ad1-c51e28d4f008"},"vehicle_type_id":"4","last_reported":1743555088,"current_range_meters":10000,"station_id":"ce4bha12rcd13ifvqef0","pricing_plan_id":"cebpf4jnsgd1na2vs0mg"},{"bike_id":"60129d40-45b0-48c5-8fe5-8766c358d773","system_id":"levelo_inurba_marseille","lat":43.25088,"lon":5.39502,"is_reserved":false,"is_disabled":false,"rental_uris":{"android":"levelo://app?vid=60129d40-45b0-48c5-8fe5-8766c358d773","ios":"levelo://app?vid=60129d40-45b0-48c5-8fe5-8766c358d773"},"vehicle_type_id":"4","last_reported":1743555088,"current_range_meters":10000,"station_id":"ce4bhm12rcd13ifvqgkg","pricing_plan_id":"cebpf4jnsgd1na2vs0mg"},{"bike_id":"6cbd8faa-ab2b-482d-9f08-169f36426a75","system_id":"levelo_inurba_marseille","lat":43.28697,"lon":5.37389,"is_reserved":false,"is_disabled":false,"rental_uris":{"android":"levelo://app?vid=6cbd8faa-ab2b-482d-9f08-169f36426a75","ios":"levelo://app?vid=6cbd8faa-ab2b-482d-9f08-169f36426a75"},"vehicle_type_id":"4","last_reported":1743555088,"current_range_meters":10000,"station_id":"ce4bh3p2rcd13ifvqdq0","pricing_plan_id":"cebpf4jnsgd1na2vs0mg"},{"bike_id":"c3742909-8ac1-45e8-bbc0-0a14494abaa8","system_id":"levelo_inurba_marseille","lat":43.2464,"lon":5.38893,"is_reserved":false,"is_disabled":false,"rental_uris":{"android":"levelo://app?vid=c3742909-8ac1-45e8-bbc0-0a14494abaa8","ios":"levelo://app?vid=c3742909-8ac1-45e8-bbc0-0a14494abaa8"},"vehicle_type_id":"4","last_reported":1743555088,"current_range_meters":10000,"station_id":"ce4bhg12rcd13ifvqf60","pricing_plan_id":"cebpf4jnsgd1na2vs0mg"},{"bike_id":"7d24f7f3-5a91-46ae-971d-a7a715309919","system_id":"levelo_inurba_marseille","lat":43.23199,"lon":5.39959,"is_reserved":false,"is_disabled":false,"rental_uris":{"android":"levelo://app?vid=7d24f7f3-5a91-46ae-971d-a7a715309919","ios":"levelo://app?vid=7d24f7f3-5a91-46ae-971d-a7a715309919"},"vehicle_type_id":"4","last_reported":1743555088,"current_range_meters":10000,"station_id":"ce4bhn12rcd13ifvqgqg","pricing_plan_id":"cebpf4jnsgd1na2vs0mg"},{"bike_id":"8f3bcfa2-2b91-40a6-9e03-5127a49831c2","system_id":"levelo_inurba_marseille","lat":43.27946,"lon":5.38706,"is_reserved":false,"is_disabled":false,"rental_uris":{"android":"levelo://app?vid=8f3bcfa2-2b91-40a6-9e03-5127a49831c2","ios":"levelo://app?vid=8f3bcfa2-2b91-40a6-9e03-5127a49831c2"},"vehicle_type_id":"4","last_reported":1743555088,"current_range_meters":10000,"station_id":"ce4bhg12rcd13ifvqf80","pricing_plan_id":"cebpf4jnsgd1na2vs0mg"},{"bike_id":"fa8c30fd-1a18-42df-bec5-552f041972d5","system_id":"levelo_inurba_marseille","lat":43.27945,"lon":5.38727,"is_reserved":false,"is_disabled":false,"rental_uris":{"android":"levelo://app?vid=fa8c30fd-1a18-42df-bec5-552f041972d5","ios":"levelo://app?vid=fa8c30fd-1a18-42df-bec5-552f041972d5"},"vehicle_type_id":"4","last_reported":1743555088,"current_range_meters":10000,"station_id":"ce4bhg12rcd13ifvqf80","pricing_plan_id":"cebpf4jnsgd1na2vs0mg"},{"bike_id":"041c6bb4-25e5-4d13-ad6c-53bcd18cf89f","system_id":"levelo_inurba_marseille","lat":43.25097,"lon":5.39525,"is_reserved":false,"is_disabled":false,"rental_uris":{"android":"levelo://app?vid=041c6bb4-25e5-4d13-ad6c-53bcd18cf89f","ios":"levelo://app?vid=041c6bb4-25e5-4d13-ad6c-53bcd18cf89f"},"vehicle_type_id":"4","last_reported":1743555088,"current_range_meters":10000,"station_id":"ce4bhm12rcd13ifvqgkg","pricing_plan_id":"cebpf4jnsgd1na2vs0mg"},{"bike_id":"92cbddfd-edd3-44c1-afe8-ef504697d896","system_id":"levelo_inurba_marseille","lat":43.31176,"lon":5.38721,"is_reserved":false,"is_disabled":false,"rental_uris":{"android":"levelo://app?vid=92cbddfd-edd3-44c1-afe8-ef504697d896","ios":"levelo://app?vid=92cbddfd-edd3-44c1-afe8-ef504697d896"},"vehicle_type_id":"4","last_reported":1743555088,"current_range_meters":10000,"station_id":"ce4bgv12rcd13ifvqcp0","pricing_plan_id":"cebpf4jnsgd1na2vs0mg"},{"bike_id":"3ba6ccff-1eda-46d4-acbd-01dbdd65bb76","system_id":"levelo_inurba_marseille","lat":43.298954,"lon":5.436698,"is_reserved":false,"is_disabled":false,"rental_uris":{"android":"levelo://app?vid=3ba6ccff-1eda-46d4-acbd-01dbdd65bb76","ios":"levelo://app?vid=3ba6ccff-1eda-46d4-acbd-01dbdd65bb76"},"vehicle_type_id":"4","last_reported":1743555088,"current_range_meters":10000,"station_id":"ce4bhpp2rcd13ifvqhfg","pricing_plan_id":"cebpf4jnsgd1na2vs0mg"},{"bike_id":"0d41bc29-3be7-4125-9d5d-5bd61565dc0d","system_id":"levelo_inurba_marseille","lat":43.31322,"lon":5.39692,"is_reserved":false,"is_disabled":false,"rental_uris":{"android":"levelo://app?vid=0d41bc29-3be7-4125-9d5d-5bd61565dc0d","ios":"levelo://app?vid=0d41bc29-3be7-4125-9d5d-5bd61565dc0d"},"vehicle_type_id":"4","last_reported":1743555088,"current_range_meters":10000,"station_id":"ce4bgvp2rcd13ifvqcu0","pricing_plan_id":"cebpf4jnsgd1na2vs0mg"},{"bike_id":"a87c03f6-1e0b-496a-ba35-8cae889bb9b4","system_id":"levelo_inurba_marseille","lat":43.26801,"lon":5.4025,"is_reserved":false,"is_disabled":false,"rental_uris":{"android":"levelo://app?vid=a87c03f6-1e0b-496a-ba35-8cae889bb9b4","ios":"levelo://app?vid=a87c03f6-1e0b-496a-ba35-8cae889bb9b4"},"vehicle_type_id":"4","last_reported":1743555088,"current_range_meters":10800,"station_id":"ce501612rcd8frsf0b60","pricing_plan_id":"cebpf4jnsgd1na2vs0mg"},{"bike_id":"0955bcb1-f8dc-47f4-a135-54218809acb7","system_id":"levelo_inurba_marseille","lat":43.26544,"lon":5.37269,"is_reserved":false,"is_disabled":true,"rental_uris":{"android":"levelo://app?vid=0955bcb1-f8dc-47f4-a135-54218809acb7","ios":"levelo://app?vid=0955bcb1-f8dc-47f4-a135-54218809acb7"},"vehicle_type_id":"4","last_reported":1743555088,"current_range_meters":10800,"station_id":"ce4bhg12rcd13ifvqf70","pricing_plan_id":"cebpf4jnsgd1na2vs0mg"},{"bike_id":"b0497066-241b-4e4f-b570-35c79fa0b46a","system_id":"levelo_inurba_marseille","lat":43.31077,"lon":5.38349,"is_reserved":false,"is_disabled":false,"rental_uris":{"android":"levelo://app?vid=b0497066-241b-4e4f-b570-35c79fa0b46a","ios":"levelo://app?vid=b0497066-241b-4e4f-b570-35c79fa0b46a"},"vehicle_type_id":"4","last_reported":1743555088,"current_range_meters":10800,"station_id":"ce4bgv92rcd13ifvqcr0","pricing_plan_id":"cebpf4jnsgd1na2vs0mg"},{"bike_id":"8f65cf44-a162-441c-a7f7-23db3fe93296","system_id":"levelo_inurba_marseille","lat":43.28108,"lon":5.37835,"is_reserved":false,"is_disabled":false,"rental_uris":{"android":"levelo://app?vid=8f65cf44-a162-441c-a7f7-23db3fe93296","ios":"levelo://app?vid=8f65cf44-a162-441c-a7f7-23db3fe93296"},"vehicle_type_id":"4","last_reported":1743555088,"current_range_meters":10800,"station_id":"ce4bha12rcd13ifvqee0","pricing_plan_id":"cebpf4jnsgd1na2vs0mg"},{"bike_id":"e055ff70-1e02-469e-8b20-efb9a9753d96","system_id":"levelo_inurba_marseille","lat":43.28458,"lon":5.3588,"is_reserved":false,"is_disabled":false,"rental_uris":{"android":"levelo://app?vid=e055ff70-1e02-469e-8b20-efb9a9753d96","ios":"levelo://app?vid=e055ff70-1e02-469e-8b20-efb9a9753d96"},"vehicle_type_id":"4","last_reported":1743555088,"current_range_meters":10800,"station_id":"ce4bhah2rcd13ifvqei0","pricing_plan_id":"cebpf4jnsgd1na2vs0mg"},{"bike_id":"9e87d8e6-7d87-4853-81e0-a9b8308d82de","system_id":"levelo_inurba_marseille","lat":43.28411,"lon":5.37522,"is_reserved":false,"is_disabled":false,"rental_uris":{"android":"levelo://app?vid=9e87d8e6-7d87-4853-81e0-a9b8308d82de","ios":"levelo://app?vid=9e87d8e6-7d87-4853-81e0-a9b8308d82de"},"vehicle_type_id":"4","last_reported":1743555088,"current_range_meters":11200,"station_id":"ce4bh412rcd13ifvqds0","pricing_plan_id":"cebpf4jnsgd1na2vs0mg"},{"bike_id":"6e6a66e5-58ca-4db1-9695-b46ed5c28827","system_id":"levelo_inurba_marseille","lat":43.31802,"lon":5.36822,"is_reserved":false,"is_disabled":false,"rental_uris":{"android":"levelo://app?vid=6e6a66e5-58ca-4db1-9695-b46ed5c28827","ios":"levelo://app?vid=6e6a66e5-58ca-4db1-9695-b46ed5c28827"},"vehicle_type_id":"4","last_reported":1743555088,"current_range_meters":11200,"station_id":"","pricing_plan_id":"cebpf4jnsgd1na2vs0mg"},{"bike_id":"c7a56d6b-aa3b-4d96-9423-49ffd9b57bfa","system_id":"levelo_inurba_marseille","lat":43.32359,"lon":5.38884,"is_reserved":false,"is_disabled":false,"rental_uris":{"android":"levelo://app?vid=c7a56d6b-aa3b-4d96-9423-49ffd9b57bfa","ios":"levelo://app?vid=c7a56d6b-aa3b-4d96-9423-49ffd9b57bfa"},"vehicle_type_id":"4","last_reported":1743555088,"current_range_meters":11200,"station_id":"ce4bhqp2rcd13ifvqhog","pricing_plan_id":"cebpf4jnsgd1na2vs0mg"},{"bike_id":"50b2e74c-a7bd-4c62-9bd2-b5e8d27179dd","system_id":"levelo_inurba_marseille","lat":43.30945,"lon":5.39047,"is_reserved":false,"is_disabled":false,"rental_uris":{"android":"levelo://app?vid=50b2e74c-a7bd-4c62-9bd2-b5e8d27179dd","ios":"levelo://app?vid=50b2e74c-a7bd-4c62-9bd2-b5e8d27179dd"},"vehicle_type_id":"4","last_reported":1743555088,"current_range_meters":11200,"station_id":"ce4bgup2rcd13ifvqco0","pricing_plan_id":"cebpf4jnsgd1na2vs0mg"},{"bike_id":"8e9118c1-2907-46a2-b63b-5db47d7da80b","system_id":"levelo_inurba_marseille","lat":43.28697,"lon":5.37398,"is_reserved":false,"is_disabled":false,"rental_uris":{"android":"levelo://app?vid=8e9118c1-2907-46a2-b63b-5db47d7da80b","ios":"levelo://app?vid=8e9118c1-2907-46a2-b63b-5db47d7da80b"},"vehicle_type_id":"4","last_reported":1743555088,"current_range_meters":11200,"station_id":"ce4bh3p2rcd13ifvqdq0","pricing_plan_id":"cebpf4jnsgd1na2vs0mg"},{"bike_id":"7725e19b-5945-40a0-870f-785dc9ebfbed","system_id":"levelo_inurba_marseille","lat":43.32265,"lon":5.38288,"is_reserved":false,"is_disabled":false,"rental_uris":{"android":"levelo://app?vid=7725e19b-5945-40a0-870f-785dc9ebfbed","ios":"levelo://app?vid=7725e19b-5945-40a0-870f-785dc9ebfbed"},"vehicle_type_id":"4","last_reported":1743555088,"current_range_meters":11200,"station_id":"ce4bhr12rcd13ifvqhqg","pricing_plan_id":"cebpf4jnsgd1na2vs0mg"},{"bike_id":"673cd2fb-9a5c-412d-a385-2a1c87de78c8","system_id":"levelo_inurba_marseille","lat":43.28608,"lon":5.37064,"is_reserved":false,"is_disabled":false,"rental_uris":{"android":"levelo://app?vid=673cd2fb-9a5c-412d-a385-2a1c87de78c8","ios":"levelo://app?vid=673cd2fb-9a5c-412d-a385-2a1c87de78c8"},"vehicle_type_id":"4","last_reported":1743555088,"current_range_meters":11200,"station_id":"ce4bht12rcd13ifvqi60","pricing_plan_id":"cebpf4jnsgd1na2vs0mg"},{"bike_id":"f616f89a-6b5f-47f2-be4a-c1252268f5f4","system_id":"levelo_inurba_marseille","lat":43.29418,"lon":5.38594,"is_reserved":false,"is_disabled":true,"rental_uris":{"android":"levelo://app?vid=f616f89a-6b5f-47f2-be4a-c1252268f5f4","ios":"levelo://app?vid=f616f89a-6b5f-47f2-be4a-c1252268f5f4"},"vehicle_type_id":"4","last_reported":1743555088,"current_range_meters":11600,"station_id":"ce4bh2h2rcd13ifvqdh0","pricing_plan_id":"cebpf4jnsgd1na2vs0mg"},{"bike_id":"e3d01a26-5542-45dc-8373-1b19a6bf2880","system_id":"levelo_inurba_marseille","lat":43.23157,"lon":5.43701,"is_reserved":false,"is_disabled":true,"rental_uris":{"android":"levelo://app?vid=e3d01a26-5542-45dc-8373-1b19a6bf2880","ios":"levelo://app?vid=e3d01a26-5542-45dc-8373-1b19a6bf2880"},"vehicle_type_id":"4","last_reported":1743555088,"current_range_meters":11600,"station_id":"ce4bhmp2rcd13ifvqgog","pricing_plan_id":"cebpf4jnsgd1na2vs0mg"},{"bike_id":"1b672112-1a49-4518-8828-abbf42b6ebac","system_id":"levelo_inurba_marseille","lat":43.28876,"lon":5.35835,"is_reserved":false,"is_disabled":false,"rental_uris":{"android":"levelo://app?vid=1b672112-1a49-4518-8828-abbf42b6ebac","ios":"levelo://app?vid=1b672112-1a49-4518-8828-abbf42b6ebac"},"vehicle_type_id":"4","last_reported":1743555088,"current_range_meters":11600,"station_id":"ce4bhb12rcd13ifvqem0","pricing_plan_id":"cebpf4jnsgd1na2vs0mg"},{"bike_id":"9498370b-0fc6-40fc-9177-8b95d4297642","system_id":"levelo_inurba_marseille","lat":43.28623,"lon":5.35109,"is_reserved":false,"is_disabled":false,"rental_uris":{"android":"levelo://app?vid=9498370b-0fc6-40fc-9177-8b95d4297642","ios":"levelo://app?vid=9498370b-0fc6-40fc-9177-8b95d4297642"},"vehicle_type_id":"4","last_reported":1743555088,"current_range_meters":11600,"station_id":"ce4bhch2rcd13ifvqeug","pricing_plan_id":"cebpf4jnsgd1na2vs0mg"},{"bike_id":"17011927-5eb5-4a38-a132-35a6858ea1fb","system_id":"levelo_inurba_marseille","lat":43.303002,"lon":5.392086,"is_reserved":false,"is_disabled":true,"rental_uris":{"android":"levelo://app?vid=17011927-5eb5-4a38-a132-35a6858ea1fb","ios":"levelo://app?vid=17011927-5eb5-4a38-a132-35a6858ea1fb"},"vehicle_type_id":"4","last_reported":1743555088,"current_range_meters":11600,"station_id":"ce4bgkh2rcd13ifvqbk0","pricing_plan_id":"cebpf4jnsgd1na2vs0mg"},{"bike_id":"062f662a-fdc3-4404-96a7-532a807a62a2","system_id":"levelo_inurba_marseille","lat":43.2872,"lon":5.37931,"is_reserved":false,"is_disabled":true,"rental_uris":{"android":"levelo://app?vid=062f662a-fdc3-4404-96a7-532a807a62a2","ios":"levelo://app?vid=062f662a-fdc3-4404-96a7-532a807a62a2"},"vehicle_type_id":"4","last_reported":1743555088,"current_range_meters":12000,"station_id":"ce4bh9p2rcd13ifvqec0","pricing_plan_id":"cebpf4jnsgd1na2vs0mg"},{"bike_id":"96beedf3-89ef-47ff-8635-645b01a83140","system_id":"levelo_inurba_marseille","lat":43.29659,"lon":5.37367,"is_reserved":false,"is_disabled":false,"rental_uris":{"android":"levelo://app?vid=96beedf3-89ef-47ff-8635-645b01a83140","ios":"levelo://app?vid=96beedf3-89ef-47ff-8635-645b01a83140"},"vehicle_type_id":"4","last_reported":1743555088,"current_range_meters":12000,"station_id":"ce4bgkp2rcd13ifvqbmg","pricing_plan_id":"cebpf4jnsgd1na2vs0mg"},{"bike_id":"7e016232-e275-46b2-9007-3a933cc654b1","system_id":"levelo_inurba_marseille","lat":43.231861,"lon":5.399893,"is_reserved":false,"is_disabled":false,"rental_uris":{"android":"levelo://app?vid=7e016232-e275-46b2-9007-3a933cc654b1","ios":"levelo://app?vid=7e016232-e275-46b2-9007-3a933cc654b1"},"vehicle_type_id":"4","last_reported":1743555088,"current_range_meters":12400,"station_id":"ce4bhn12rcd13ifvqgqg","pricing_plan_id":"cebpf4jnsgd1na2vs0mg"},{"bike_id":"9c8eecec-e70a-4826-9811-8377457bfbb4","system_id":"levelo_inurba_marseille","lat":43.31175,"lon":5.38708,"is_reserved":false,"is_disabled":false,"rental_uris":{"android":"levelo://app?vid=9c8eecec-e70a-4826-9811-8377457bfbb4","ios":"levelo://app?vid=9c8eecec-e70a-4826-9811-8377457bfbb4"},"vehicle_type_id":"4","last_reported":1743555088,"current_range_meters":12400,"station_id":"ce4bgv12rcd13ifvqcp0","pricing_plan_id":"cebpf4jnsgd1na2vs0mg"},{"bike_id":"b80ee275-2592-4659-b2e9-175feb839700","system_id":"levelo_inurba_marseille","lat":43.2321,"lon":5.35543,"is_reserved":false,"is_disabled":false,"rental_uris":{"android":"levelo://app?vid=b80ee275-2592-4659-b2e9-175feb839700","ios":"levelo://app?vid=b80ee275-2592-4659-b2e9-175feb839700"},"vehicle_type_id":"4","last_reported":1743555088,"current_range_meters":12400,"station_id":"ce4bhu92rcd13ifvqi70","pricing_plan_id":"cebpf4jnsgd1na2vs0mg"},{"bike_id":"7cace08d-6193-4805-82b0-cd09b5c05eae","system_id":"levelo_inurba_marseille","lat":43.31517,"lon":5.38914,"is_reserved":false,"is_disabled":false,"rental_uris":{"android":"levelo://app?vid=7cace08d-6193-4805-82b0-cd09b5c05eae","ios":"levelo://app?vid=7cace08d-6193-4805-82b0-cd09b5c05eae"},"vehicle_type_id":"4","last_reported":1743555088,"current_range_meters":12400,"station_id":"","pricing_plan_id":"cebpf4jnsgd1na2vs0mg"},{"bike_id":"dd3db03f-0f43-4986-9ec8-2a76818fb28c","system_id":"levelo_inurba_marseille","lat":43.23187,"lon":5.35511,"is_reserved":false,"is_disabled":false,"rental_uris":{"android":"levelo://app?vid=dd3db03f-0f43-4986-9ec8-2a76818fb28c","ios":"levelo://app?vid=dd3db03f-0f43-4986-9ec8-2a76818fb28c"},"vehicle_type_id":"4","last_reported":1743555088,"current_range_meters":12400,"station_id":"ce4bhu92rcd13ifvqi70","pricing_plan_id":"cebpf4jnsgd1na2vs0mg"},{"bike_id":"1b1f7340-6171-418f-a826-7c8c5b344429","system_id":"levelo_inurba_marseille","lat":43.26795,"lon":5.40187,"is_reserved":false,"is_disabled":false,"rental_uris":{"android":"levelo://app?vid=1b1f7340-6171-418f-a826-7c8c5b344429","ios":"levelo://app?vid=1b1f7340-6171-418f-a826-7c8c5b344429"},"vehicle_type_id":"4","last_reported":1743555088,"current_range_meters":12400,"station_id":"","pricing_plan_id":"cebpf4jnsgd1na2vs0mg"},{"bike_id":"f55695a6-b65f-4a30-99ab-94b2bfa63268","system_id":"levelo_inurba_marseille","lat":43.23202,"lon":5.35545,"is_reserved":false,"is_disabled":false,"rental_uris":{"android":"levelo://app?vid=f55695a6-b65f-4a30-99ab-94b2bfa63268","ios":"levelo://app?vid=f55695a6-b65f-4a30-99ab-94b2bfa63268"},"vehicle_type_id":"4","last_reported":1743555088,"current_range_meters":12400,"station_id":"ce4bhu92rcd13ifvqi70","pricing_plan_id":"cebpf4jnsgd1na2vs0mg"},{"bike_id":"49428efe-bbd8-4963-9aaf-ed822fd5c61b","system_id":"levelo_inurba_marseille","lat":43.291696,"lon":5.443635,"is_reserved":false,"is_disabled":false,"rental_uris":{"android":"levelo://app?vid=49428efe-bbd8-4963-9aaf-ed822fd5c61b","ios":"levelo://app?vid=49428efe-bbd8-4963-9aaf-ed822fd5c61b"},"vehicle_type_id":"4","last_reported":1743555088,"current_range_meters":12400,"station_id":"","pricing_plan_id":"cebpf4jnsgd1na2vs0mg"},{"bike_id":"0ed80ee8-56b7-4580-8a94-56be39e58fa3","system_id":"levelo_inurba_marseille","lat":43.25567,"lon":5.382355,"is_reserved":false,"is_disabled":false,"rental_uris":{"android":"levelo://app?vid=0ed80ee8-56b7-4580-8a94-56be39e58fa3","ios":"levelo://app?vid=0ed80ee8-56b7-4580-8a94-56be39e58fa3"},"vehicle_type_id":"4","last_reported":1743555088,"current_range_meters":12400,"station_id":"ce4bhih2rcd13ifvqfs0","pricing_plan_id":"cebpf4jnsgd1na2vs0mg"},{"bike_id":"8c8c904f-4688-4edc-8d5e-ac5ec4c04aa2","system_id":"levelo_inurba_marseille","lat":43.26099,"lon":5.39441,"is_reserved":false,"is_disabled":true,"rental_uris":{"android":"levelo://app?vid=8c8c904f-4688-4edc-8d5e-ac5ec4c04aa2","ios":"levelo://app?vid=8c8c904f-4688-4edc-8d5e-ac5ec4c04aa2"},"vehicle_type_id":"4","last_reported":1743555088,"current_range_meters":12800,"station_id":"ce4bhh92rcd13ifvqfj0","pricing_plan_id":"cebpf4jnsgd1na2vs0mg"},{"bike_id":"7b869cea-1d61-42d2-b04b-29df5bd7497f","system_id":"levelo_inurba_marseille","lat":43.3213,"lon":5.36786,"is_reserved":false,"is_disabled":false,"rental_uris":{"android":"levelo://app?vid=7b869cea-1d61-42d2-b04b-29df5bd7497f","ios":"levelo://app?vid=7b869cea-1d61-42d2-b04b-29df5bd7497f"},"vehicle_type_id":"4","last_reported":1743555088,"current_range_meters":12800,"station_id":"ce4bhrh2rcd13ifvqhug","pricing_plan_id":"cebpf4jnsgd1na2vs0mg"},{"bike_id":"55e226fc-2cde-47d8-a439-a82e54a265c7","system_id":"levelo_inurba_marseille","lat":43.28705,"lon":5.37911,"is_reserved":false,"is_disabled":false,"rental_uris":{"android":"levelo://app?vid=55e226fc-2cde-47d8-a439-a82e54a265c7","ios":"levelo://app?vid=55e226fc-2cde-47d8-a439-a82e54a265c7"},"vehicle_type_id":"4","last_reported":1743555088,"current_range_meters":12800,"station_id":"ce4bh9p2rcd13ifvqec0","pricing_plan_id":"cebpf4jnsgd1na2vs0mg"},{"bike_id":"2517116c-1ad5-4417-92dd-e7fbeaafe2ff","system_id":"levelo_inurba_marseille","lat":43.28013,"lon":5.40941,"is_reserved":false,"is_disabled":false,"rental_uris":{"android":"levelo://app?vid=2517116c-1ad5-4417-92dd-e7fbeaafe2ff","ios":"levelo://app?vid=2517116c-1ad5-4417-92dd-e7fbeaafe2ff"},"vehicle_type_id":"4","last_reported":1743555088,"current_range_meters":12800,"station_id":"ce4bhnp2rcd13ifvqh0g","pricing_plan_id":"cebpf4jnsgd1na2vs0mg"},{"bike_id":"949b69c8-8858-4e4b-bb04-58215f5b8af9","system_id":"levelo_inurba_marseille","lat":43.30527,"lon":5.38442,"is_reserved":false,"is_disabled":false,"rental_uris":{"android":"levelo://app?vid=949b69c8-8858-4e4b-bb04-58215f5b8af9","ios":"levelo://app?vid=949b69c8-8858-4e4b-bb04-58215f5b8af9"},"vehicle_type_id":"4","last_reported":1743555088,"current_range_meters":12800,"station_id":"ce4bgg92rcd13ifvqb30","pricing_plan_id":"cebpf4jnsgd1na2vs0mg"},{"bike_id":"75dae32f-059a-4b5b-a5e8-963c6eda2f66","system_id":"levelo_inurba_marseille","lat":43.27512,"lon":5.41026,"is_reserved":false,"is_disabled":false,"rental_uris":{"android":"levelo://app?vid=75dae32f-059a-4b5b-a5e8-963c6eda2f66","ios":"levelo://app?vid=75dae32f-059a-4b5b-a5e8-963c6eda2f66"},"vehicle_type_id":"4","last_reported":1743555088,"current_range_meters":12800,"station_id":"","pricing_plan_id":"cebpf4jnsgd1na2vs0mg"},{"bike_id":"32cc7bc2-9399-48c4-b763-b71322e8ec21","system_id":"levelo_inurba_marseille","lat":43.23153,"lon":5.43724,"is_reserved":false,"is_disabled":false,"rental_uris":{"android":"levelo://app?vid=32cc7bc2-9399-48c4-b763-b71322e8ec21","ios":"levelo://app?vid=32cc7bc2-9399-48c4-b763-b71322e8ec21"},"vehicle_type_id":"4","last_reported":1743555088,"current_range_meters":13600,"station_id":"ce4bhmp2rcd13ifvqgog","pricing_plan_id":"cebpf4jnsgd1na2vs0mg"},{"bike_id":"64e153bf-2796-40c3-9214-6801d0fa35ba","system_id":"levelo_inurba_marseille","lat":43.28456,"lon":5.3588,"is_reserved":false,"is_disabled":false,"rental_uris":{"android":"levelo://app?vid=64e153bf-2796-40c3-9214-6801d0fa35ba","ios":"levelo://app?vid=64e153bf-2796-40c3-9214-6801d0fa35ba"},"vehicle_type_id":"4","last_reported":1743555088,"current_range_meters":13600,"station_id":"ce4bhah2rcd13ifvqei0","pricing_plan_id":"cebpf4jnsgd1na2vs0mg"},{"bike_id":"18572b7c-f66b-455d-85c9-83fcd5860c94","system_id":"levelo_inurba_marseille","lat":43.28845,"lon":5.3585,"is_reserved":false,"is_disabled":false,"rental_uris":{"android":"levelo://app?vid=18572b7c-f66b-455d-85c9-83fcd5860c94","ios":"levelo://app?vid=18572b7c-f66b-455d-85c9-83fcd5860c94"},"vehicle_type_id":"4","last_reported":1743555088,"current_range_meters":13600,"station_id":"ce4bhb12rcd13ifvqem0","pricing_plan_id":"cebpf4jnsgd1na2vs0mg"},{"bike_id":"facaca46-7e62-4a2e-ab17-cc09f773590c","system_id":"levelo_inurba_marseille","lat":43.276205,"lon":5.361133,"is_reserved":false,"is_disabled":false,"rental_uris":{"android":"levelo://app?vid=facaca46-7e62-4a2e-ab17-cc09f773590c","ios":"levelo://app?vid=facaca46-7e62-4a2e-ab17-cc09f773590c"},"vehicle_type_id":"4","last_reported":1743555088,"current_range_meters":13600,"station_id":"ce4bgj92rcd13ifvqbe0","pricing_plan_id":"cebpf4jnsgd1na2vs0mg"},{"bike_id":"d1d152b9-8f83-4dfd-819d-90885ae33fbf","system_id":"levelo_inurba_marseille","lat":43.29901,"lon":5.43655,"is_reserved":false,"is_disabled":false,"rental_uris":{"android":"levelo://app?vid=d1d152b9-8f83-4dfd-819d-90885ae33fbf","ios":"levelo://app?vid=d1d152b9-8f83-4dfd-819d-90885ae33fbf"},"vehicle_type_id":"4","last_reported":1743555088,"current_range_meters":13600,"station_id":"ce4bhpp2rcd13ifvqhfg","pricing_plan_id":"cebpf4jnsgd1na2vs0mg"},{"bike_id":"7be06644-e888-41f2-9c08-173a9a3965bc","system_id":"levelo_inurba_marseille","lat":43.23174,"lon":5.39999,"is_reserved":false,"is_disabled":false,"rental_uris":{"android":"levelo://app?vid=7be06644-e888-41f2-9c08-173a9a3965bc","ios":"levelo://app?vid=7be06644-e888-41f2-9c08-173a9a3965bc"},"vehicle_type_id":"4","last_reported":1743555088,"current_range_meters":13600,"station_id":"ce4bhn12rcd13ifvqgqg","pricing_plan_id":"cebpf4jnsgd1na2vs0mg"},{"bike_id":"d239b0b5-a2d0-4e84-945d-fd7291dce43c","system_id":"levelo_inurba_marseille","lat":43.28684,"lon":5.3744,"is_reserved":false,"is_disabled":false,"rental_uris":{"android":"levelo://app?vid=d239b0b5-a2d0-4e84-945d-fd7291dce43c","ios":"levelo://app?vid=d239b0b5-a2d0-4e84-945d-fd7291dce43c"},"vehicle_type_id":"4","last_reported":1743555088,"current_range_meters":13600,"station_id":"","pricing_plan_id":"cebpf4jnsgd1na2vs0mg"},{"bike_id":"b2cabdca-6be8-4efa-8903-8b392db9b9f2","system_id":"levelo_inurba_marseille","lat":43.29791,"lon":5.39344,"is_reserved":false,"is_disabled":false,"rental_uris":{"android":"levelo://app?vid=b2cabdca-6be8-4efa-8903-8b392db9b9f2","ios":"levelo://app?vid=b2cabdca-6be8-4efa-8903-8b392db9b9f2"},"vehicle_type_id":"4","last_reported":1743555088,"current_range_meters":13600,"station_id":"chh1huq6cuj3fo74tm60","pricing_plan_id":"cebpf4jnsgd1na2vs0mg"},{"bike_id":"88dbd027-7b05-4c40-9cde-ac00a9fed7b0","system_id":"levelo_inurba_marseille","lat":43.308,"lon":5.43525,"is_reserved":false,"is_disabled":false,"rental_uris":{"android":"levelo://app?vid=88dbd027-7b05-4c40-9cde-ac00a9fed7b0","ios":"levelo://app?vid=88dbd027-7b05-4c40-9cde-ac00a9fed7b0"},"vehicle_type_id":"4","last_reported":1743555088,"current_range_meters":13600,"station_id":"ce4bhph2rcd13ifvqheg","pricing_plan_id":"cebpf4jnsgd1na2vs0mg"},{"bike_id":"e371411f-48e4-4de0-9373-4c9b6bf9290c","system_id":"levelo_inurba_marseille","lat":43.27925,"lon":5.39575,"is_reserved":false,"is_disabled":false,"rental_uris":{"android":"levelo://app?vid=e371411f-48e4-4de0-9373-4c9b6bf9290c","ios":"levelo://app?vid=e371411f-48e4-4de0-9373-4c9b6bf9290c"},"vehicle_type_id":"4","last_reported":1743555088,"current_range_meters":14000,"station_id":"ce4bhf92rcd13ifvqf40","pricing_plan_id":"cebpf4jnsgd1na2vs0mg"},{"bike_id":"d157a8ac-f1ea-480a-a1ee-9ac00962bb01","system_id":"levelo_inurba_marseille","lat":43.295475,"lon":5.422876,"is_reserved":false,"is_disabled":false,"rental_uris":{"android":"levelo://app?vid=d157a8ac-f1ea-480a-a1ee-9ac00962bb01","ios":"levelo://app?vid=d157a8ac-f1ea-480a-a1ee-9ac00962bb01"},"vehicle_type_id":"4","last_reported":1743555088,"current_range_meters":14000,"station_id":"ce4bhph2rcd13ifvqhdg","pricing_plan_id":"cebpf4jnsgd1na2vs0mg"},{"bike_id":"414b1618-8907-418c-9232-e3993fbc4299","system_id":"levelo_inurba_marseille","lat":43.319858,"lon":5.381405,"is_reserved":false,"is_disabled":false,"rental_uris":{"android":"levelo://app?vid=414b1618-8907-418c-9232-e3993fbc4299","ios":"levelo://app?vid=414b1618-8907-418c-9232-e3993fbc4299"},"vehicle_type_id":"4","last_reported":1743555088,"current_range_meters":14000,"station_id":"ce4bhr12rcd13ifvqhpg","pricing_plan_id":"cebpf4jnsgd1na2vs0mg"},{"bike_id":"8cb59195-b173-4dee-b543-e398f163ad6e","system_id":"levelo_inurba_marseille","lat":43.27942,"lon":5.4103,"is_reserved":false,"is_disabled":false,"rental_uris":{"android":"levelo://app?vid=8cb59195-b173-4dee-b543-e398f163ad6e","ios":"levelo://app?vid=8cb59195-b173-4dee-b543-e398f163ad6e"},"vehicle_type_id":"4","last_reported":1743555088,"current_range_meters":14000,"station_id":"ce4bhnp2rcd13ifvqh0g","pricing_plan_id":"cebpf4jnsgd1na2vs0mg"},{"bike_id":"a680fcef-3560-458d-9c46-af5039ad5317","system_id":"levelo_inurba_marseille","lat":43.26504,"lon":5.37216,"is_reserved":false,"is_disabled":false,"rental_uris":{"android":"levelo://app?vid=a680fcef-3560-458d-9c46-af5039ad5317","ios":"levelo://app?vid=a680fcef-3560-458d-9c46-af5039ad5317"},"vehicle_type_id":"4","last_reported":1743555088,"current_range_meters":14000,"station_id":"ce4bhg12rcd13ifvqf70","pricing_plan_id":"cebpf4jnsgd1na2vs0mg"},{"bike_id":"c1e09bd1-135e-46c4-a253-43b9efe61c0f","system_id":"levelo_inurba_marseille","lat":43.30302,"lon":5.36911,"is_reserved":false,"is_disabled":true,"rental_uris":{"android":"levelo://app?vid=c1e09bd1-135e-46c4-a253-43b9efe61c0f","ios":"levelo://app?vid=c1e09bd1-135e-46c4-a253-43b9efe61c0f"},"vehicle_type_id":"4","last_reported":1743555088,"current_range_meters":14000,"station_id":"ce4bgqh2rcd13ifvqc5g","pricing_plan_id":"cebpf4jnsgd1na2vs0mg"},{"bike_id":"79a43b3b-6f2e-4e5a-a5a1-5c1998f67a64","system_id":"levelo_inurba_marseille","lat":43.28067,"lon":5.39639,"is_reserved":false,"is_disabled":false,"rental_uris":{"android":"levelo://app?vid=79a43b3b-6f2e-4e5a-a5a1-5c1998f67a64","ios":"levelo://app?vid=79a43b3b-6f2e-4e5a-a5a1-5c1998f67a64"},"vehicle_type_id":"4","last_reported":1743555088,"current_range_meters":14000,"station_id":"ce4bho12rcd13ifvqh2g","pricing_plan_id":"cebpf4jnsgd1na2vs0mg"},{"bike_id":"967365c0-325a-46d1-b88b-eb8c45f6b02c","system_id":"levelo_inurba_marseille","lat":43.29274,"lon":5.40115,"is_reserved":false,"is_disabled":false,"rental_uris":{"android":"levelo://app?vid=967365c0-325a-46d1-b88b-eb8c45f6b02c","ios":"levelo://app?vid=967365c0-325a-46d1-b88b-eb8c45f6b02c"},"vehicle_type_id":"4","last_reported":1743555088,"current_range_meters":14000,"station_id":"ce4bh312rcd13ifvqdk0","pricing_plan_id":"cebpf4jnsgd1na2vs0mg"},{"bike_id":"d7045921-f1e9-4f00-924b-59a57bde6ed8","system_id":"levelo_inurba_marseille","lat":43.31303,"lon":5.39705,"is_reserved":false,"is_disabled":false,"rental_uris":{"android":"levelo://app?vid=d7045921-f1e9-4f00-924b-59a57bde6ed8","ios":"levelo://app?vid=d7045921-f1e9-4f00-924b-59a57bde6ed8"},"vehicle_type_id":"4","last_reported":1743555088,"current_range_meters":14000,"station_id":"ce4bgvp2rcd13ifvqcu0","pricing_plan_id":"cebpf4jnsgd1na2vs0mg"},{"bike_id":"e5584f6d-d18b-45e9-87ed-f7ff94ac558c","system_id":"levelo_inurba_marseille","lat":43.28634,"lon":5.3509,"is_reserved":false,"is_disabled":false,"rental_uris":{"android":"levelo://app?vid=e5584f6d-d18b-45e9-87ed-f7ff94ac558c","ios":"levelo://app?vid=e5584f6d-d18b-45e9-87ed-f7ff94ac558c"},"vehicle_type_id":"4","last_reported":1743555088,"current_range_meters":14400,"station_id":"ce4bhch2rcd13ifvqeug","pricing_plan_id":"cebpf4jnsgd1na2vs0mg"},{"bike_id":"f589c491-61bb-4ca1-aa3e-7e3bb3446950","system_id":"levelo_inurba_marseille","lat":43.2319,"lon":5.35547,"is_reserved":false,"is_disabled":false,"rental_uris":{"android":"levelo://app?vid=f589c491-61bb-4ca1-aa3e-7e3bb3446950","ios":"levelo://app?vid=f589c491-61bb-4ca1-aa3e-7e3bb3446950"},"vehicle_type_id":"4","last_reported":1743555088,"current_range_meters":14400,"station_id":"ce4bhu92rcd13ifvqi70","pricing_plan_id":"cebpf4jnsgd1na2vs0mg"},{"bike_id":"dd351c20-2273-414e-8b8c-94efdde7d1a0","system_id":"levelo_inurba_marseille","lat":43.290448,"lon":5.35923,"is_reserved":false,"is_disabled":false,"rental_uris":{"android":"levelo://app?vid=dd351c20-2273-414e-8b8c-94efdde7d1a0","ios":"levelo://app?vid=dd351c20-2273-414e-8b8c-94efdde7d1a0"},"vehicle_type_id":"4","last_reported":1743555088,"current_range_meters":14400,"station_id":"ce4bha92rcd13ifvqeg0","pricing_plan_id":"cebpf4jnsgd1na2vs0mg"},{"bike_id":"b6144d09-6dd1-4ca4-97f5-4ec37918d3dd","system_id":"levelo_inurba_marseille","lat":43.26702,"lon":5.38291,"is_reserved":false,"is_disabled":true,"rental_uris":{"android":"levelo://app?vid=b6144d09-6dd1-4ca4-97f5-4ec37918d3dd","ios":"levelo://app?vid=b6144d09-6dd1-4ca4-97f5-4ec37918d3dd"},"vehicle_type_id":"4","last_reported":1743555088,"current_range_meters":14400,"station_id":"ce4bhg92rcd13ifvqf90","pricing_plan_id":"cebpf4jnsgd1na2vs0mg"},{"bike_id":"7408871e-c525-4dcf-9189-15a12bf2355d","system_id":"levelo_inurba_marseille","lat":43.265531,"lon":5.372899,"is_reserved":false,"is_disabled":false,"rental_uris":{"android":"levelo://app?vid=7408871e-c525-4dcf-9189-15a12bf2355d","ios":"levelo://app?vid=7408871e-c525-4dcf-9189-15a12bf2355d"},"vehicle_type_id":"4","last_reported":1743555088,"current_range_meters":14400,"station_id":"ce4bhg12rcd13ifvqf70","pricing_plan_id":"cebpf4jnsgd1na2vs0mg"},{"bike_id":"9083a6ee-5c0b-4067-8b44-17f863c33e0c","system_id":"levelo_inurba_marseille","lat":43.30319,"lon":5.40452,"is_reserved":false,"is_disabled":false,"rental_uris":{"android":"levelo://app?vid=9083a6ee-5c0b-4067-8b44-17f863c33e0c","ios":"levelo://app?vid=9083a6ee-5c0b-4067-8b44-17f863c33e0c"},"vehicle_type_id":"4","last_reported":1743555088,"current_range_meters":14800,"station_id":"ce4bh012rcd13ifvqd10","pricing_plan_id":"cebpf4jnsgd1na2vs0mg"},{"bike_id":"065dd062-73c8-4d8f-ab77-348b5d1cda2d","system_id":"levelo_inurba_marseille","lat":43.28057,"lon":5.44006,"is_reserved":false,"is_disabled":false,"rental_uris":{"android":"levelo://app?vid=065dd062-73c8-4d8f-ab77-348b5d1cda2d","ios":"levelo://app?vid=065dd062-73c8-4d8f-ab77-348b5d1cda2d"},"vehicle_type_id":"4","last_reported":1743555088,"current_range_meters":14800,"station_id":"","pricing_plan_id":"cebpf4jnsgd1na2vs0mg"},{"bike_id":"6b354774-faed-4518-9b4f-cb27508d52d9","system_id":"levelo_inurba_marseille","lat":43.28697,"lon":5.37389,"is_reserved":false,"is_disabled":false,"rental_uris":{"android":"levelo://app?vid=6b354774-faed-4518-9b4f-cb27508d52d9","ios":"levelo://app?vid=6b354774-faed-4518-9b4f-cb27508d52d9"},"vehicle_type_id":"4","last_reported":1743555088,"current_range_meters":14800,"station_id":"ce4bh3p2rcd13ifvqdq0","pricing_plan_id":"cebpf4jnsgd1na2vs0mg"},{"bike_id":"1a346cc6-dc71-4bf1-9b80-dea4b47b07ad","system_id":"levelo_inurba_marseille","lat":43.27679,"lon":5.38884,"is_reserved":false,"is_disabled":true,"rental_uris":{"android":"levelo://app?vid=1a346cc6-dc71-4bf1-9b80-dea4b47b07ad","ios":"levelo://app?vid=1a346cc6-dc71-4bf1-9b80-dea4b47b07ad"},"vehicle_type_id":"4","last_reported":1743555088,"current_range_meters":14800,"station_id":"ce4bhi12rcd13ifvqfo0","pricing_plan_id":"cebpf4jnsgd1na2vs0mg"},{"bike_id":"c5d59ee9-7502-4fae-aa22-15acd54456b1","system_id":"levelo_inurba_marseille","lat":43.31185,"lon":5.38709,"is_reserved":false,"is_disabled":false,"rental_uris":{"android":"levelo://app?vid=c5d59ee9-7502-4fae-aa22-15acd54456b1","ios":"levelo://app?vid=c5d59ee9-7502-4fae-aa22-15acd54456b1"},"vehicle_type_id":"4","last_reported":1743555088,"current_range_meters":14800,"station_id":"ce4bgv12rcd13ifvqcp0","pricing_plan_id":"cebpf4jnsgd1na2vs0mg"},{"bike_id":"352e2f30-1c52-4033-a43a-dc92205d76f3","system_id":"levelo_inurba_marseille","lat":43.29958,"lon":5.41325,"is_reserved":false,"is_disabled":false,"rental_uris":{"android":"levelo://app?vid=352e2f30-1c52-4033-a43a-dc92205d76f3","ios":"levelo://app?vid=352e2f30-1c52-4033-a43a-dc92205d76f3"},"vehicle_type_id":"4","last_reported":1743555088,"current_range_meters":14800,"station_id":"ce4bhp12rcd13ifvqh9g","pricing_plan_id":"cebpf4jnsgd1na2vs0mg"},{"bike_id":"abd16f10-e2f6-4aa8-933b-8debd6835752","system_id":"levelo_inurba_marseille","lat":43.26563,"lon":5.3906,"is_reserved":false,"is_disabled":false,"rental_uris":{"android":"levelo://app?vid=abd16f10-e2f6-4aa8-933b-8debd6835752","ios":"levelo://app?vid=abd16f10-e2f6-4aa8-933b-8debd6835752"},"vehicle_type_id":"4","last_reported":1743555088,"current_range_meters":14800,"station_id":"ce4bhe12rcd13ifvqf30","pricing_plan_id":"cebpf4jnsgd1na2vs0mg"},{"bike_id":"ee8a8693-214b-4d74-9b65-a3d3107de8c7","system_id":"levelo_inurba_marseille","lat":43.2901,"lon":5.36374,"is_reserved":false,"is_disabled":false,"rental_uris":{"android":"levelo://app?vid=ee8a8693-214b-4d74-9b65-a3d3107de8c7","ios":"levelo://app?vid=ee8a8693-214b-4d74-9b65-a3d3107de8c7"},"vehicle_type_id":"4","last_reported":1743555088,"current_range_meters":14800,"station_id":"","pricing_plan_id":"cebpf4jnsgd1na2vs0mg"},{"bike_id":"76364081-d08b-4369-9753-35a646a67b38","system_id":"levelo_inurba_marseille","lat":43.28683,"lon":5.36314,"is_reserved":false,"is_disabled":false,"rental_uris":{"android":"levelo://app?vid=76364081-d08b-4369-9753-35a646a67b38","ios":"levelo://app?vid=76364081-d08b-4369-9753-35a646a67b38"},"vehicle_type_id":"4","last_reported":1743555088,"current_range_meters":14800,"station_id":"ce4bhah2rcd13ifvqej0","pricing_plan_id":"cebpf4jnsgd1na2vs0mg"},{"bike_id":"b60dc90d-40fe-49eb-a0d3-e2916bea852c","system_id":"levelo_inurba_marseille","lat":43.30443,"lon":5.388827,"is_reserved":false,"is_disabled":false,"rental_uris":{"android":"levelo://app?vid=b60dc90d-40fe-49eb-a0d3-e2916bea852c","ios":"levelo://app?vid=b60dc90d-40fe-49eb-a0d3-e2916bea852c"},"vehicle_type_id":"4","last_reported":1743555088,"current_range_meters":14800,"station_id":"ce4bgk12rcd13ifvqbi0","pricing_plan_id":"cebpf4jnsgd1na2vs0mg"},{"bike_id":"5e2027b8-221f-4b34-8432-61e79e87550f","system_id":"levelo_inurba_marseille","lat":43.290479,"lon":5.359345,"is_reserved":false,"is_disabled":false,"rental_uris":{"android":"levelo://app?vid=5e2027b8-221f-4b34-8432-61e79e87550f","ios":"levelo://app?vid=5e2027b8-221f-4b34-8432-61e79e87550f"},"vehicle_type_id":"4","last_reported":1743555088,"current_range_meters":14800,"station_id":"ce4bha92rcd13ifvqeg0","pricing_plan_id":"cebpf4jnsgd1na2vs0mg"},{"bike_id":"bf377d5e-6736-429c-8f7e-c6c7517393f7","system_id":"levelo_inurba_marseille","lat":43.31086,"lon":5.42435,"is_reserved":false,"is_disabled":false,"rental_uris":{"android":"levelo://app?vid=bf377d5e-6736-429c-8f7e-c6c7517393f7","ios":"levelo://app?vid=bf377d5e-6736-429c-8f7e-c6c7517393f7"},"vehicle_type_id":"4","last_reported":1743555088,"current_range_meters":14800,"station_id":"ce4bhp92rcd13ifvqhag","pricing_plan_id":"cebpf4jnsgd1na2vs0mg"},{"bike_id":"4e03cd8f-595f-4da6-b751-38ed2c7d3d6b","system_id":"levelo_inurba_marseille","lat":43.314431,"lon":5.373835,"is_reserved":false,"is_disabled":false,"rental_uris":{"android":"levelo://app?vid=4e03cd8f-595f-4da6-b751-38ed2c7d3d6b","ios":"levelo://app?vid=4e03cd8f-595f-4da6-b751-38ed2c7d3d6b"},"vehicle_type_id":"4","last_reported":1743555088,"current_range_meters":14800,"station_id":"","pricing_plan_id":"cebpf4jnsgd1na2vs0mg"},{"bike_id":"4645db37-b43f-4218-9c5b-d0586a28f4f3","system_id":"levelo_inurba_marseille","lat":43.28851,"lon":5.35861,"is_reserved":false,"is_disabled":false,"rental_uris":{"android":"levelo://app?vid=4645db37-b43f-4218-9c5b-d0586a28f4f3","ios":"levelo://app?vid=4645db37-b43f-4218-9c5b-d0586a28f4f3"},"vehicle_type_id":"4","last_reported":1743555088,"current_range_meters":14800,"station_id":"ce4bhb12rcd13ifvqem0","pricing_plan_id":"cebpf4jnsgd1na2vs0mg"},{"bike_id":"7a5cc168-8f6c-4d8f-86cb-7de15764bd5c","system_id":"levelo_inurba_marseille","lat":43.265677,"lon":5.390221,"is_reserved":false,"is_disabled":false,"rental_uris":{"android":"levelo://app?vid=7a5cc168-8f6c-4d8f-86cb-7de15764bd5c","ios":"levelo://app?vid=7a5cc168-8f6c-4d8f-86cb-7de15764bd5c"},"vehicle_type_id":"4","last_reported":1743555088,"current_range_meters":14800,"station_id":"ce4bhe12rcd13ifvqf30","pricing_plan_id":"cebpf4jnsgd1na2vs0mg"},{"bike_id":"4a60d82a-6972-439f-ad55-36575230fa50","system_id":"levelo_inurba_marseille","lat":43.28723,"lon":5.37377,"is_reserved":false,"is_disabled":false,"rental_uris":{"android":"levelo://app?vid=4a60d82a-6972-439f-ad55-36575230fa50","ios":"levelo://app?vid=4a60d82a-6972-439f-ad55-36575230fa50"},"vehicle_type_id":"4","last_reported":1743555088,"current_range_meters":15200,"station_id":"ce4bh3p2rcd13ifvqdq0","pricing_plan_id":"cebpf4jnsgd1na2vs0mg"},{"bike_id":"8f4c73f8-1c17-489a-bfae-2c6f102fd4d6","system_id":"levelo_inurba_marseille","lat":43.25733,"lon":5.41111,"is_reserved":false,"is_disabled":false,"rental_uris":{"android":"levelo://app?vid=8f4c73f8-1c17-489a-bfae-2c6f102fd4d6","ios":"levelo://app?vid=8f4c73f8-1c17-489a-bfae-2c6f102fd4d6"},"vehicle_type_id":"4","last_reported":1743555088,"current_range_meters":15200,"station_id":"ce4bhkp2rcd13ifvqgd0","pricing_plan_id":"cebpf4jnsgd1na2vs0mg"},{"bike_id":"d0169d66-eade-4216-9038-75d1fa6bdf93","system_id":"levelo_inurba_marseille","lat":43.28458,"lon":5.35888,"is_reserved":false,"is_disabled":false,"rental_uris":{"android":"levelo://app?vid=d0169d66-eade-4216-9038-75d1fa6bdf93","ios":"levelo://app?vid=d0169d66-eade-4216-9038-75d1fa6bdf93"},"vehicle_type_id":"4","last_reported":1743555088,"current_range_meters":15200,"station_id":"ce4bhah2rcd13ifvqei0","pricing_plan_id":"cebpf4jnsgd1na2vs0mg"},{"bike_id":"70e5b39f-29e3-4ea9-aa83-5a60a8eec6f8","system_id":"levelo_inurba_marseille","lat":43.25746,"lon":5.41092,"is_reserved":false,"is_disabled":false,"rental_uris":{"android":"levelo://app?vid=70e5b39f-29e3-4ea9-aa83-5a60a8eec6f8","ios":"levelo://app?vid=70e5b39f-29e3-4ea9-aa83-5a60a8eec6f8"},"vehicle_type_id":"4","last_reported":1743555088,"current_range_meters":15200,"station_id":"ce4bhkp2rcd13ifvqgd0","pricing_plan_id":"cebpf4jnsgd1na2vs0mg"},{"bike_id":"f3f4145c-28be-46c7-b604-e8f83a47e6c6","system_id":"levelo_inurba_marseille","lat":43.28463,"lon":5.35869,"is_reserved":false,"is_disabled":false,"rental_uris":{"android":"levelo://app?vid=f3f4145c-28be-46c7-b604-e8f83a47e6c6","ios":"levelo://app?vid=f3f4145c-28be-46c7-b604-e8f83a47e6c6"},"vehicle_type_id":"4","last_reported":1743555088,"current_range_meters":16000,"station_id":"ce4bhah2rcd13ifvqei0","pricing_plan_id":"cebpf4jnsgd1na2vs0mg"},{"bike_id":"c2e6881a-04a3-4a38-9cc0-75cacf165e78","system_id":"levelo_inurba_marseille","lat":43.28832,"lon":5.364645,"is_reserved":false,"is_disabled":false,"rental_uris":{"android":"levelo://app?vid=c2e6881a-04a3-4a38-9cc0-75cacf165e78","ios":"levelo://app?vid=c2e6881a-04a3-4a38-9cc0-75cacf165e78"},"vehicle_type_id":"4","last_reported":1743555088,"current_range_meters":16000,"station_id":"","pricing_plan_id":"cebpf4jnsgd1na2vs0mg"},{"bike_id":"135ffc3a-60e2-4771-a298-33f9016f196d","system_id":"levelo_inurba_marseille","lat":43.30396,"lon":5.42477,"is_reserved":false,"is_disabled":false,"rental_uris":{"android":"levelo://app?vid=135ffc3a-60e2-4771-a298-33f9016f196d","ios":"levelo://app?vid=135ffc3a-60e2-4771-a298-33f9016f196d"},"vehicle_type_id":"4","last_reported":1743555088,"current_range_meters":16000,"station_id":"ce4bghh2rcd13ifvqb60","pricing_plan_id":"cebpf4jnsgd1na2vs0mg"},{"bike_id":"c87dfbca-94ac-4e34-ad01-a0fbfbff32de","system_id":"levelo_inurba_marseille","lat":43.28041,"lon":5.3693,"is_reserved":false,"is_disabled":false,"rental_uris":{"android":"levelo://app?vid=c87dfbca-94ac-4e34-ad01-a0fbfbff32de","ios":"levelo://app?vid=c87dfbca-94ac-4e34-ad01-a0fbfbff32de"},"vehicle_type_id":"4","last_reported":1743555088,"current_range_meters":16000,"station_id":"ce4bha12rcd13ifvqef0","pricing_plan_id":"cebpf4jnsgd1na2vs0mg"},{"bike_id":"c81287e3-19fe-4e50-b480-ea383988e9c8","system_id":"levelo_inurba_marseille","lat":43.25784,"lon":5.39462,"is_reserved":false,"is_disabled":false,"rental_uris":{"android":"levelo://app?vid=c81287e3-19fe-4e50-b480-ea383988e9c8","ios":"levelo://app?vid=c81287e3-19fe-4e50-b480-ea383988e9c8"},"vehicle_type_id":"4","last_reported":1743555088,"current_range_meters":16000,"station_id":"ce4bhip2rcd13ifvqft0","pricing_plan_id":"cebpf4jnsgd1na2vs0mg"},{"bike_id":"7d49898d-4c6e-4131-9fdb-37de62f2c79c","system_id":"levelo_inurba_marseille","lat":43.286097,"lon":5.370659,"is_reserved":false,"is_disabled":false,"rental_uris":{"android":"levelo://app?vid=7d49898d-4c6e-4131-9fdb-37de62f2c79c","ios":"levelo://app?vid=7d49898d-4c6e-4131-9fdb-37de62f2c79c"},"vehicle_type_id":"4","last_reported":1743555088,"current_range_meters":16000,"station_id":"ce4bht12rcd13ifvqi60","pricing_plan_id":"cebpf4jnsgd1na2vs0mg"},{"bike_id":"9f7881a2-23f0-42de-9fcb-11b05fec9217","system_id":"levelo_inurba_marseille","lat":43.23151,"lon":5.43725,"is_reserved":false,"is_disabled":false,"rental_uris":{"android":"levelo://app?vid=9f7881a2-23f0-42de-9fcb-11b05fec9217","ios":"levelo://app?vid=9f7881a2-23f0-42de-9fcb-11b05fec9217"},"vehicle_type_id":"4","last_reported":1743555088,"current_range_meters":16000,"station_id":"ce4bhmp2rcd13ifvqgog","pricing_plan_id":"cebpf4jnsgd1na2vs0mg"},{"bike_id":"f445c01c-5a14-424c-9491-1c64b5d700ba","system_id":"levelo_inurba_marseille","lat":43.23183,"lon":5.39989,"is_reserved":false,"is_disabled":false,"rental_uris":{"android":"levelo://app?vid=f445c01c-5a14-424c-9491-1c64b5d700ba","ios":"levelo://app?vid=f445c01c-5a14-424c-9491-1c64b5d700ba"},"vehicle_type_id":"4","last_reported":1743555088,"current_range_meters":16000,"station_id":"ce4bhn12rcd13ifvqgqg","pricing_plan_id":"cebpf4jnsgd1na2vs0mg"},{"bike_id":"8ae9a0aa-eba4-4b51-8418-5d3278519c36","system_id":"levelo_inurba_marseille","lat":43.26123,"lon":5.41462,"is_reserved":false,"is_disabled":false,"rental_uris":{"android":"levelo://app?vid=8ae9a0aa-eba4-4b51-8418-5d3278519c36","ios":"levelo://app?vid=8ae9a0aa-eba4-4b51-8418-5d3278519c36"},"vehicle_type_id":"4","last_reported":1743555088,"current_range_meters":16000,"station_id":"","pricing_plan_id":"cebpf4jnsgd1na2vs0mg"},{"bike_id":"cd83c8ac-ed09-4369-9279-b6f36f2bbd3c","system_id":"levelo_inurba_marseille","lat":43.30777,"lon":5.38267,"is_reserved":false,"is_disabled":false,"rental_uris":{"android":"levelo://app?vid=cd83c8ac-ed09-4369-9279-b6f36f2bbd3c","ios":"levelo://app?vid=cd83c8ac-ed09-4369-9279-b6f36f2bbd3c"},"vehicle_type_id":"4","last_reported":1743555088,"current_range_meters":16400,"station_id":"","pricing_plan_id":"cebpf4jnsgd1na2vs0mg"},{"bike_id":"455c26fb-a61b-4576-9afc-e510cc8c6aa5","system_id":"levelo_inurba_marseille","lat":43.29054,"lon":5.35932,"is_reserved":false,"is_disabled":false,"rental_uris":{"android":"levelo://app?vid=455c26fb-a61b-4576-9afc-e510cc8c6aa5","ios":"levelo://app?vid=455c26fb-a61b-4576-9afc-e510cc8c6aa5"},"vehicle_type_id":"4","last_reported":1743555088,"current_range_meters":16400,"station_id":"ce4bha92rcd13ifvqeg0","pricing_plan_id":"cebpf4jnsgd1na2vs0mg"},{"bike_id":"02648e18-ed60-4641-bf60-71eba0e9337b","system_id":"levelo_inurba_marseille","lat":43.29269,"lon":5.38432,"is_reserved":false,"is_disabled":true,"rental_uris":{"android":"levelo://app?vid=02648e18-ed60-4641-bf60-71eba0e9337b","ios":"levelo://app?vid=02648e18-ed60-4641-bf60-71eba0e9337b"},"vehicle_type_id":"4","last_reported":1743555088,"current_range_meters":16400,"station_id":"ce4bh692rcd13ifvqea0","pricing_plan_id":"cebpf4jnsgd1na2vs0mg"},{"bike_id":"ddf4f7bc-b429-4ca6-98cc-3ac180d0ed5f","system_id":"levelo_inurba_marseille","lat":43.231982,"lon":5.355632,"is_reserved":false,"is_disabled":false,"rental_uris":{"android":"levelo://app?vid=ddf4f7bc-b429-4ca6-98cc-3ac180d0ed5f","ios":"levelo://app?vid=ddf4f7bc-b429-4ca6-98cc-3ac180d0ed5f"},"vehicle_type_id":"4","last_reported":1743555088,"current_range_meters":16400,"station_id":"ce4bhu92rcd13ifvqi70","pricing_plan_id":"cebpf4jnsgd1na2vs0mg"},{"bike_id":"171d892b-face-4f92-beee-b1367bb94c95","system_id":"levelo_inurba_marseille","lat":43.2782,"lon":5.40703,"is_reserved":false,"is_disabled":false,"rental_uris":{"android":"levelo://app?vid=171d892b-face-4f92-beee-b1367bb94c95","ios":"levelo://app?vid=171d892b-face-4f92-beee-b1367bb94c95"},"vehicle_type_id":"4","last_reported":1743555088,"current_range_meters":16400,"station_id":"ce4bhnh2rcd13ifvqgtg","pricing_plan_id":"cebpf4jnsgd1na2vs0mg"},{"bike_id":"18b33a43-8113-4d0f-b40c-6a7201a04dd5","system_id":"levelo_inurba_marseille","lat":43.32353,"lon":5.36742,"is_reserved":false,"is_disabled":false,"rental_uris":{"android":"levelo://app?vid=18b33a43-8113-4d0f-b40c-6a7201a04dd5","ios":"levelo://app?vid=18b33a43-8113-4d0f-b40c-6a7201a04dd5"},"vehicle_type_id":"4","last_reported":1743555088,"current_range_meters":16400,"station_id":"ce4bhsh2rcd13ifvqi2g","pricing_plan_id":"cebpf4jnsgd1na2vs0mg"},{"bike_id":"65d044fd-adec-4556-8f67-6b2b83224e61","system_id":"levelo_inurba_marseille","lat":43.310727,"lon":5.383449,"is_reserved":false,"is_disabled":false,"rental_uris":{"android":"levelo://app?vid=65d044fd-adec-4556-8f67-6b2b83224e61","ios":"levelo://app?vid=65d044fd-adec-4556-8f67-6b2b83224e61"},"vehicle_type_id":"4","last_reported":1743555088,"current_range_meters":16800,"station_id":"ce4bgv92rcd13ifvqcr0","pricing_plan_id":"cebpf4jnsgd1na2vs0mg"},{"bike_id":"98b075ec-204c-4e1c-bc94-123a4aded46f","system_id":"levelo_inurba_marseille","lat":43.28861,"lon":5.35834,"is_reserved":false,"is_disabled":false,"rental_uris":{"android":"levelo://app?vid=98b075ec-204c-4e1c-bc94-123a4aded46f","ios":"levelo://app?vid=98b075ec-204c-4e1c-bc94-123a4aded46f"},"vehicle_type_id":"4","last_reported":1743555088,"current_range_meters":16800,"station_id":"ce4bhb12rcd13ifvqem0","pricing_plan_id":"cebpf4jnsgd1na2vs0mg"},{"bike_id":"8b22119f-8e4e-402a-8d97-b4352e829e1a","system_id":"levelo_inurba_marseille","lat":43.28456,"lon":5.3589,"is_reserved":false,"is_disabled":false,"rental_uris":{"android":"levelo://app?vid=8b22119f-8e4e-402a-8d97-b4352e829e1a","ios":"levelo://app?vid=8b22119f-8e4e-402a-8d97-b4352e829e1a"},"vehicle_type_id":"4","last_reported":1743555088,"current_range_meters":16800,"station_id":"ce4bhah2rcd13ifvqei0","pricing_plan_id":"cebpf4jnsgd1na2vs0mg"},{"bike_id":"348f5979-3b99-4908-9bd8-d48c4cfadc7e","system_id":"levelo_inurba_marseille","lat":43.31326,"lon":5.3968,"is_reserved":false,"is_disabled":false,"rental_uris":{"android":"levelo://app?vid=348f5979-3b99-4908-9bd8-d48c4cfadc7e","ios":"levelo://app?vid=348f5979-3b99-4908-9bd8-d48c4cfadc7e"},"vehicle_type_id":"4","last_reported":1743555088,"current_range_meters":16800,"station_id":"ce4bgvp2rcd13ifvqcu0","pricing_plan_id":"cebpf4jnsgd1na2vs0mg"},{"bike_id":"843d73be-9cf6-4228-9245-7196ee09ffef","system_id":"levelo_inurba_marseille","lat":43.28419,"lon":5.37507,"is_reserved":false,"is_disabled":false,"rental_uris":{"android":"levelo://app?vid=843d73be-9cf6-4228-9245-7196ee09ffef","ios":"levelo://app?vid=843d73be-9cf6-4228-9245-7196ee09ffef"},"vehicle_type_id":"4","last_reported":1743555088,"current_range_meters":16800,"station_id":"ce4bh412rcd13ifvqds0","pricing_plan_id":"cebpf4jnsgd1na2vs0mg"},{"bike_id":"be3850b9-71b6-44f6-b8a4-473cbd56eb48","system_id":"levelo_inurba_marseille","lat":43.28626,"lon":5.35101,"is_reserved":false,"is_disabled":false,"rental_uris":{"android":"levelo://app?vid=be3850b9-71b6-44f6-b8a4-473cbd56eb48","ios":"levelo://app?vid=be3850b9-71b6-44f6-b8a4-473cbd56eb48"},"vehicle_type_id":"4","last_reported":1743555088,"current_range_meters":16800,"station_id":"ce4bhch2rcd13ifvqeug","pricing_plan_id":"cebpf4jnsgd1na2vs0mg"},{"bike_id":"a055d53f-aa6f-46a9-bb94-2f72dce97937","system_id":"levelo_inurba_marseille","lat":43.31079,"lon":5.38345,"is_reserved":false,"is_disabled":false,"rental_uris":{"android":"levelo://app?vid=a055d53f-aa6f-46a9-bb94-2f72dce97937","ios":"levelo://app?vid=a055d53f-aa6f-46a9-bb94-2f72dce97937"},"vehicle_type_id":"4","last_reported":1743555088,"current_range_meters":16800,"station_id":"ce4bgv92rcd13ifvqcr0","pricing_plan_id":"cebpf4jnsgd1na2vs0mg"},{"bike_id":"85258546-9d03-4726-932d-b4b18fba58b2","system_id":"levelo_inurba_marseille","lat":43.29317,"lon":5.37137,"is_reserved":false,"is_disabled":false,"rental_uris":{"android":"levelo://app?vid=85258546-9d03-4726-932d-b4b18fba58b2","ios":"levelo://app?vid=85258546-9d03-4726-932d-b4b18fba58b2"},"vehicle_type_id":"4","last_reported":1743555088,"current_range_meters":16800,"station_id":"ce4bgh92rcd13ifvqb40","pricing_plan_id":"cebpf4jnsgd1na2vs0mg"},{"bike_id":"3026be77-df9c-4a4a-83d6-132b5a38a0dc","system_id":"levelo_inurba_marseille","lat":43.23195,"lon":5.39983,"is_reserved":false,"is_disabled":false,"rental_uris":{"android":"levelo://app?vid=3026be77-df9c-4a4a-83d6-132b5a38a0dc","ios":"levelo://app?vid=3026be77-df9c-4a4a-83d6-132b5a38a0dc"},"vehicle_type_id":"4","last_reported":1743555088,"current_range_meters":16800,"station_id":"ce4bhn12rcd13ifvqgqg","pricing_plan_id":"cebpf4jnsgd1na2vs0mg"},{"bike_id":"9f62f29e-b083-4314-9e82-a49e79ecd17d","system_id":"levelo_inurba_marseille","lat":43.24079,"lon":5.37762,"is_reserved":false,"is_disabled":false,"rental_uris":{"android":"levelo://app?vid=9f62f29e-b083-4314-9e82-a49e79ecd17d","ios":"levelo://app?vid=9f62f29e-b083-4314-9e82-a49e79ecd17d"},"vehicle_type_id":"4","last_reported":1743555088,"current_range_meters":16800,"station_id":"ce4bhnp2rcd13ifvqgvg","pricing_plan_id":"cebpf4jnsgd1na2vs0mg"},{"bike_id":"34051169-cfab-409d-99d5-42cb798e6b23","system_id":"levelo_inurba_marseille","lat":43.25822,"lon":5.39429,"is_reserved":false,"is_disabled":false,"rental_uris":{"android":"levelo://app?vid=34051169-cfab-409d-99d5-42cb798e6b23","ios":"levelo://app?vid=34051169-cfab-409d-99d5-42cb798e6b23"},"vehicle_type_id":"4","last_reported":1743555088,"current_range_meters":16800,"station_id":"ce4bhip2rcd13ifvqft0","pricing_plan_id":"cebpf4jnsgd1na2vs0mg"},{"bike_id":"ee3d8f09-9d97-42cb-bab6-551cf2598517","system_id":"levelo_inurba_marseille","lat":43.28341,"lon":5.38106,"is_reserved":false,"is_disabled":true,"rental_uris":{"android":"levelo://app?vid=ee3d8f09-9d97-42cb-bab6-551cf2598517","ios":"levelo://app?vid=ee3d8f09-9d97-42cb-bab6-551cf2598517"},"vehicle_type_id":"4","last_reported":1743555088,"current_range_meters":17200,"station_id":"ce4bh412rcd13ifvqdr0","pricing_plan_id":"cebpf4jnsgd1na2vs0mg"},{"bike_id":"a1566f65-7974-4adb-bc5b-c64d03a44f23","system_id":"levelo_inurba_marseille","lat":43.24999,"lon":5.38919,"is_reserved":false,"is_disabled":false,"rental_uris":{"android":"levelo://app?vid=a1566f65-7974-4adb-bc5b-c64d03a44f23","ios":"levelo://app?vid=a1566f65-7974-4adb-bc5b-c64d03a44f23"},"vehicle_type_id":"4","last_reported":1743555088,"current_range_meters":17200,"station_id":"ce4bhgp2rcd13ifvqfd0","pricing_plan_id":"cebpf4jnsgd1na2vs0mg"},{"bike_id":"43786293-7498-4552-bc83-09d2945d150c","system_id":"levelo_inurba_marseille","lat":43.31389,"lon":5.38494,"is_reserved":false,"is_disabled":false,"rental_uris":{"android":"levelo://app?vid=43786293-7498-4552-bc83-09d2945d150c","ios":"levelo://app?vid=43786293-7498-4552-bc83-09d2945d150c"},"vehicle_type_id":"4","last_reported":1743555088,"current_range_meters":17200,"station_id":"ce4bgt92rcd13ifvqcf0","pricing_plan_id":"cebpf4jnsgd1na2vs0mg"},{"bike_id":"6e05811e-06e7-4304-8ce9-6c25e6bc01dd","system_id":"levelo_inurba_marseille","lat":43.321026,"lon":5.367709,"is_reserved":false,"is_disabled":false,"rental_uris":{"android":"levelo://app?vid=6e05811e-06e7-4304-8ce9-6c25e6bc01dd","ios":"levelo://app?vid=6e05811e-06e7-4304-8ce9-6c25e6bc01dd"},"vehicle_type_id":"4","last_reported":1743555088,"current_range_meters":17200,"station_id":"ce4bhrh2rcd13ifvqhug","pricing_plan_id":"cebpf4jnsgd1na2vs0mg"},{"bike_id":"541d36d3-9e19-46be-ad00-c5a01f41e156","system_id":"levelo_inurba_marseille","lat":43.28114,"lon":5.37838,"is_reserved":false,"is_disabled":true,"rental_uris":{"android":"levelo://app?vid=541d36d3-9e19-46be-ad00-c5a01f41e156","ios":"levelo://app?vid=541d36d3-9e19-46be-ad00-c5a01f41e156"},"vehicle_type_id":"4","last_reported":1743555088,"current_range_meters":17200,"station_id":"ce4bha12rcd13ifvqee0","pricing_plan_id":"cebpf4jnsgd1na2vs0mg"},{"bike_id":"da322db6-cf58-4326-9446-efb75e21ccd0","system_id":"levelo_inurba_marseille","lat":43.32275,"lon":5.38275,"is_reserved":false,"is_disabled":false,"rental_uris":{"android":"levelo://app?vid=da322db6-cf58-4326-9446-efb75e21ccd0","ios":"levelo://app?vid=da322db6-cf58-4326-9446-efb75e21ccd0"},"vehicle_type_id":"4","last_reported":1743555088,"current_range_meters":17200,"station_id":"ce4bhr12rcd13ifvqhqg","pricing_plan_id":"cebpf4jnsgd1na2vs0mg"},{"bike_id":"61b5b365-7f5e-4b3a-b5e1-99287a9378e6","system_id":"levelo_inurba_marseille","lat":43.24538,"lon":5.39504,"is_reserved":false,"is_disabled":false,"rental_uris":{"android":"levelo://app?vid=61b5b365-7f5e-4b3a-b5e1-99287a9378e6","ios":"levelo://app?vid=61b5b365-7f5e-4b3a-b5e1-99287a9378e6"},"vehicle_type_id":"4","last_reported":1743555088,"current_range_meters":17200,"station_id":"ce4bhlp2rcd13ifvqgjg","pricing_plan_id":"cebpf4jnsgd1na2vs0mg"},{"bike_id":"8b6d5071-7177-4272-8ae1-92127127365e","system_id":"levelo_inurba_marseille","lat":43.27054,"lon":5.42234,"is_reserved":false,"is_disabled":true,"rental_uris":{"android":"levelo://app?vid=8b6d5071-7177-4272-8ae1-92127127365e","ios":"levelo://app?vid=8b6d5071-7177-4272-8ae1-92127127365e"},"vehicle_type_id":"4","last_reported":1743555088,"current_range_meters":17200,"station_id":"ce4bhk92rcd13ifvqgb0","pricing_plan_id":"cebpf4jnsgd1na2vs0mg"},{"bike_id":"79afadc5-4328-4af5-b396-23550de959d8","system_id":"levelo_inurba_marseille","lat":43.274134,"lon":5.394122,"is_reserved":false,"is_disabled":true,"rental_uris":{"android":"levelo://app?vid=79afadc5-4328-4af5-b396-23550de959d8","ios":"levelo://app?vid=79afadc5-4328-4af5-b396-23550de959d8"},"vehicle_type_id":"4","last_reported":1743555088,"current_range_meters":17200,"station_id":"ce4bhdp2rcd13ifvqf20","pricing_plan_id":"cebpf4jnsgd1na2vs0mg"},{"bike_id":"4dea5646-32a2-4b7c-963e-9c420add6254","system_id":"levelo_inurba_marseille","lat":43.2296,"lon":5.35389,"is_reserved":false,"is_disabled":false,"rental_uris":{"android":"levelo://app?vid=4dea5646-32a2-4b7c-963e-9c420add6254","ios":"levelo://app?vid=4dea5646-32a2-4b7c-963e-9c420add6254"},"vehicle_type_id":"4","last_reported":1743555088,"current_range_meters":17200,"station_id":"cpo3532slgdg3j2ikp40","pricing_plan_id":"cebpf4jnsgd1na2vs0mg"},{"bike_id":"78c313d2-6669-400d-83b8-ba784ccc9a33","system_id":"levelo_inurba_marseille","lat":43.23194,"lon":5.35554,"is_reserved":false,"is_disabled":false,"rental_uris":{"android":"levelo://app?vid=78c313d2-6669-400d-83b8-ba784ccc9a33","ios":"levelo://app?vid=78c313d2-6669-400d-83b8-ba784ccc9a33"},"vehicle_type_id":"4","last_reported":1743555088,"current_range_meters":17600,"station_id":"ce4bhu92rcd13ifvqi70","pricing_plan_id":"cebpf4jnsgd1na2vs0mg"},{"bike_id":"bb23d217-1b71-4a37-89ad-e1647bedf7e3","system_id":"levelo_inurba_marseille","lat":43.287182,"lon":5.36091,"is_reserved":false,"is_disabled":false,"rental_uris":{"android":"levelo://app?vid=bb23d217-1b71-4a37-89ad-e1647bedf7e3","ios":"levelo://app?vid=bb23d217-1b71-4a37-89ad-e1647bedf7e3"},"vehicle_type_id":"4","last_reported":1743555088,"current_range_meters":17600,"station_id":"cki0cbj6b192h4jlfktg","pricing_plan_id":"cebpf4jnsgd1na2vs0mg"},{"bike_id":"2d727b4d-96e7-4d65-ade3-017b94644bd9","system_id":"levelo_inurba_marseille","lat":43.313357,"lon":5.388343,"is_reserved":false,"is_disabled":false,"rental_uris":{"android":"levelo://app?vid=2d727b4d-96e7-4d65-ade3-017b94644bd9","ios":"levelo://app?vid=2d727b4d-96e7-4d65-ade3-017b94644bd9"},"vehicle_type_id":"4","last_reported":1743555088,"current_range_meters":17600,"station_id":"","pricing_plan_id":"cebpf4jnsgd1na2vs0mg"},{"bike_id":"59ffdbad-74d4-4146-8913-35084ea2807a","system_id":"levelo_inurba_marseille","lat":43.28362,"lon":5.3863,"is_reserved":false,"is_disabled":true,"rental_uris":{"android":"levelo://app?vid=59ffdbad-74d4-4146-8913-35084ea2807a","ios":"levelo://app?vid=59ffdbad-74d4-4146-8913-35084ea2807a"},"vehicle_type_id":"4","last_reported":1743555088,"current_range_meters":17600,"station_id":"ce4bh492rcd13ifvqdvg","pricing_plan_id":"cebpf4jnsgd1na2vs0mg"},{"bike_id":"78ca934a-98c9-4dbc-b5b6-c2ca906050d2","system_id":"levelo_inurba_marseille","lat":43.29742,"lon":5.38934,"is_reserved":false,"is_disabled":false,"rental_uris":{"android":"levelo://app?vid=78ca934a-98c9-4dbc-b5b6-c2ca906050d2","ios":"levelo://app?vid=78ca934a-98c9-4dbc-b5b6-c2ca906050d2"},"vehicle_type_id":"4","last_reported":1743555088,"current_range_meters":17600,"station_id":"","pricing_plan_id":"cebpf4jnsgd1na2vs0mg"},{"bike_id":"4a77eb2e-8fbe-40d7-afa5-ff17dc4da8bf","system_id":"levelo_inurba_marseille","lat":43.30187,"lon":5.36616,"is_reserved":false,"is_disabled":false,"rental_uris":{"android":"levelo://app?vid=4a77eb2e-8fbe-40d7-afa5-ff17dc4da8bf","ios":"levelo://app?vid=4a77eb2e-8fbe-40d7-afa5-ff17dc4da8bf"},"vehicle_type_id":"4","last_reported":1743555088,"current_range_meters":18000,"station_id":"ce4bgrh2rcd13ifvqc8g","pricing_plan_id":"cebpf4jnsgd1na2vs0mg"},{"bike_id":"aa09248e-6432-472c-abdd-3e0d8f74f5f6","system_id":"levelo_inurba_marseille","lat":43.26805,"lon":5.40268,"is_reserved":false,"is_disabled":false,"rental_uris":{"android":"levelo://app?vid=aa09248e-6432-472c-abdd-3e0d8f74f5f6","ios":"levelo://app?vid=aa09248e-6432-472c-abdd-3e0d8f74f5f6"},"vehicle_type_id":"4","last_reported":1743555088,"current_range_meters":18000,"station_id":"ce501612rcd8frsf0b60","pricing_plan_id":"cebpf4jnsgd1na2vs0mg"},{"bike_id":"22d47046-8bb1-41ae-9bb4-96eb088b2e63","system_id":"levelo_inurba_marseille","lat":43.32044,"lon":5.36773,"is_reserved":false,"is_disabled":false,"rental_uris":{"android":"levelo://app?vid=22d47046-8bb1-41ae-9bb4-96eb088b2e63","ios":"levelo://app?vid=22d47046-8bb1-41ae-9bb4-96eb088b2e63"},"vehicle_type_id":"4","last_reported":1743555088,"current_range_meters":18000,"station_id":"","pricing_plan_id":"cebpf4jnsgd1na2vs0mg"},{"bike_id":"6fd15896-5697-470b-8f07-45b11106795c","system_id":"levelo_inurba_marseille","lat":43.320578,"lon":5.36788,"is_reserved":false,"is_disabled":false,"rental_uris":{"android":"levelo://app?vid=6fd15896-5697-470b-8f07-45b11106795c","ios":"levelo://app?vid=6fd15896-5697-470b-8f07-45b11106795c"},"vehicle_type_id":"4","last_reported":1743555088,"current_range_meters":18000,"station_id":"ce4bhrh2rcd13ifvqhug","pricing_plan_id":"cebpf4jnsgd1na2vs0mg"},{"bike_id":"97aa5e6f-e45b-4e21-a47e-52761ee9cdb1","system_id":"levelo_inurba_marseille","lat":43.32094,"lon":5.36772,"is_reserved":false,"is_disabled":false,"rental_uris":{"android":"levelo://app?vid=97aa5e6f-e45b-4e21-a47e-52761ee9cdb1","ios":"levelo://app?vid=97aa5e6f-e45b-4e21-a47e-52761ee9cdb1"},"vehicle_type_id":"4","last_reported":1743555088,"current_range_meters":18000,"station_id":"ce4bhrh2rcd13ifvqhug","pricing_plan_id":"cebpf4jnsgd1na2vs0mg"},{"bike_id":"b7e7726f-2dec-4226-bd2e-cfa742ec8721","system_id":"levelo_inurba_marseille","lat":43.28458,"lon":5.35873,"is_reserved":false,"is_disabled":false,"rental_uris":{"android":"levelo://app?vid=b7e7726f-2dec-4226-bd2e-cfa742ec8721","ios":"levelo://app?vid=b7e7726f-2dec-4226-bd2e-cfa742ec8721"},"vehicle_type_id":"4","last_reported":1743555088,"current_range_meters":18000,"station_id":"ce4bhah2rcd13ifvqei0","pricing_plan_id":"cebpf4jnsgd1na2vs0mg"},{"bike_id":"cec113c5-9291-4ce2-9dbe-57e16b43118b","system_id":"levelo_inurba_marseille","lat":43.26569,"lon":5.3901,"is_reserved":false,"is_disabled":true,"rental_uris":{"android":"levelo://app?vid=cec113c5-9291-4ce2-9dbe-57e16b43118b","ios":"levelo://app?vid=cec113c5-9291-4ce2-9dbe-57e16b43118b"},"vehicle_type_id":"4","last_reported":1743555088,"current_range_meters":18000,"station_id":"ce4bhe12rcd13ifvqf30","pricing_plan_id":"cebpf4jnsgd1na2vs0mg"},{"bike_id":"834806ef-7b76-4136-afd7-ebbaf101b442","system_id":"levelo_inurba_marseille","lat":43.297883,"lon":5.393446,"is_reserved":false,"is_disabled":false,"rental_uris":{"android":"levelo://app?vid=834806ef-7b76-4136-afd7-ebbaf101b442","ios":"levelo://app?vid=834806ef-7b76-4136-afd7-ebbaf101b442"},"vehicle_type_id":"4","last_reported":1743555088,"current_range_meters":18000,"station_id":"chh1huq6cuj3fo74tm60","pricing_plan_id":"cebpf4jnsgd1na2vs0mg"},{"bike_id":"f804941e-598e-4a42-8011-e4d2cc56a704","system_id":"levelo_inurba_marseille","lat":43.31072,"lon":5.38353,"is_reserved":false,"is_disabled":false,"rental_uris":{"android":"levelo://app?vid=f804941e-598e-4a42-8011-e4d2cc56a704","ios":"levelo://app?vid=f804941e-598e-4a42-8011-e4d2cc56a704"},"vehicle_type_id":"4","last_reported":1743555088,"current_range_meters":18000,"station_id":"ce4bgv92rcd13ifvqcr0","pricing_plan_id":"cebpf4jnsgd1na2vs0mg"},{"bike_id":"41383731-7094-4106-9f78-817dd4fc2811","system_id":"levelo_inurba_marseille","lat":43.28706,"lon":5.39976,"is_reserved":false,"is_disabled":false,"rental_uris":{"android":"levelo://app?vid=41383731-7094-4106-9f78-817dd4fc2811","ios":"levelo://app?vid=41383731-7094-4106-9f78-817dd4fc2811"},"vehicle_type_id":"4","last_reported":1743555088,"current_range_meters":18000,"station_id":"ce4bho92rcd13ifvqh3g","pricing_plan_id":"cebpf4jnsgd1na2vs0mg"},{"bike_id":"885b6cdf-5604-493e-928e-ff7c8e15d4be","system_id":"levelo_inurba_marseille","lat":43.27834,"lon":5.40719,"is_reserved":false,"is_disabled":false,"rental_uris":{"android":"levelo://app?vid=885b6cdf-5604-493e-928e-ff7c8e15d4be","ios":"levelo://app?vid=885b6cdf-5604-493e-928e-ff7c8e15d4be"},"vehicle_type_id":"4","last_reported":1743555088,"current_range_meters":18000,"station_id":"ce4bhnh2rcd13ifvqgtg","pricing_plan_id":"cebpf4jnsgd1na2vs0mg"},{"bike_id":"2810734b-aad4-4dbf-bc6c-1c32e80bb9f4","system_id":"levelo_inurba_marseille","lat":43.23187,"lon":5.39976,"is_reserved":false,"is_disabled":false,"rental_uris":{"android":"levelo://app?vid=2810734b-aad4-4dbf-bc6c-1c32e80bb9f4","ios":"levelo://app?vid=2810734b-aad4-4dbf-bc6c-1c32e80bb9f4"},"vehicle_type_id":"4","last_reported":1743555088,"current_range_meters":18000,"station_id":"ce4bhn12rcd13ifvqgqg","pricing_plan_id":"cebpf4jnsgd1na2vs0mg"},{"bike_id":"4c75d857-6ad0-47d5-876e-eab0f9551847","system_id":"levelo_inurba_marseille","lat":43.28459,"lon":5.35882,"is_reserved":false,"is_disabled":false,"rental_uris":{"android":"levelo://app?vid=4c75d857-6ad0-47d5-876e-eab0f9551847","ios":"levelo://app?vid=4c75d857-6ad0-47d5-876e-eab0f9551847"},"vehicle_type_id":"4","last_reported":1743555088,"current_range_meters":18000,"station_id":"ce4bhah2rcd13ifvqei0","pricing_plan_id":"cebpf4jnsgd1na2vs0mg"},{"bike_id":"96429753-a9c4-4f4d-aebc-bebf46bc9a60","system_id":"levelo_inurba_marseille","lat":43.28456,"lon":5.35878,"is_reserved":false,"is_disabled":false,"rental_uris":{"android":"levelo://app?vid=96429753-a9c4-4f4d-aebc-bebf46bc9a60","ios":"levelo://app?vid=96429753-a9c4-4f4d-aebc-bebf46bc9a60"},"vehicle_type_id":"4","last_reported":1743555088,"current_range_meters":18000,"station_id":"ce4bhah2rcd13ifvqei0","pricing_plan_id":"cebpf4jnsgd1na2vs0mg"},