{"last_updated":1685639161,"ttl":30,"version":"2.2","data":{"bikes":[{"bike_id":"efb523b8-28bb-4d6d-a593-40d0fb54226a","system_id":"levelo_inurba_marseille","lat":43.312126,"lon":5.368478,"is_reserved":false,"is_disabled":false,"rental_uris":{"android":"levelo://app?vid=efb523b8-28bb-4d6d-a593-40d0fb54226a","ios":"levelo://app?vid=efb523b8-28bb-4d6d-a593-40d0fb54226a"},"vehicle_type_id":"4","last_reported":1685639161,"current_range_meters":11600,"station_id":"ce4bgqh2rcd13ifvqc4g","pricing_plan_id":"free"},{"bike_id":"fc6540b6-2be2-4440-9f14-86bfe46f3b05","system_id":"levelo_inurba_marseille","lat":43.314811,"lon":5.373103,"is_reserved":false,"is_disabled":false,"rental_uris":{"android":"levelo://app?vid=fc6540b6-2be2-4440-9f14-86bfe46f3b05","ios":"levelo://app?vid=fc6540b6-2be2-4440-9f14-86bfe46f3b05"},"vehicle_type_id":"4","last_reported":1685639161,"current_range_meters":20400,"station_id":"ce4bgt12rcd13ifvqcd0","pricing_plan_id":"free"},{"bike_id":"4d43e892-ec90-4fce-8475-f727fed3851f","system_id":"levelo_inurba_marseille","lat":43.31724,"lon":5.37092,"is_reserved":false,"is_disabled":false,"rental_uris":{"android":"levelo://app?vid=4d43e892-ec90-4fce-8475-f727fed3851f","ios":"levelo://app?vid=4d43e892-ec90-4fce-8475-f727fed3851f"},"vehicle_type_id":"4","last_reported":1685639161,"current_range_meters":12800,"station_id":"","pricing_plan_id":"free"},{"bike_id":"e388b596-3d79-4222-8611-38f89e4dd701","system_id":"levelo_inurba_marseille","lat":43.30541,"lon":5.36713,"is_reserved":false,"is_disabled":false,"rental_uris":{"android":"levelo://app?vid=e388b596-3d79-4222-8611-38f89e4dd701","ios":"levelo://app?vid=e388b596-3d79-4222-8611-38f89e4dd701"},"vehicle_type_id":"4","last_reported":1685639161,"current_range_meters":0,"station_id":"ce4bgrp2rcd13ifvqc9g","pricing_plan_id":"free"},{"bike_id":"879de7e0-7be4-486b-b819-e698e42c0c8d","system_id":"levelo_inurba_marseille","lat":43.305714,"lon":5.365633,"is_reserved":false,"is_disabled":false,"rental_uris":{"android":"levelo://app?vid=879de7e0-7be4-486b-b819-e698e42c0c8d","ios":"levelo://app?vid=879de7e0-7be4-486b-b819-e698e42c0c8d"},"vehicle_type_id":"4","last_reported":1685639161,"current_range_meters":21200,"station_id":"ce4bgs12rcd13ifvqcag","pricing_plan_id":"free"},{"bike_id":"c63e1220-be5c-428e-b332-dde539697786","system_id":"levelo_inurba_marseille","lat":43.30604,"lon":5.37213,"is_reserved":false,"is_disabled":false,"rental_uris":{"android":"levelo://app?vid=c63e1220-be5c-428e-b332-dde539697786","ios":"levelo://app?vid=c63e1220-be5c-428e-b332-dde539697786"},"vehicle_type_id":"4","last_reported":1685639161,"current_range_meters":17600,"station_id":"ce4bgqh2rcd13ifvqc4g","pricing_plan_id":"free"},{"bike_id":"7d677053-c75f-4358-8557-e35bf3b14196","system_id":"levelo_inurba_marseille","lat":43.305989,"lon":5.37225,"is_reserved":false,"is_disabled":false,"rental_uris":{"android":"levelo://app?vid=7d677053-c75f-4358-8557-e35bf3b14196","ios":"levelo://app?vid=7d677053-c75f-4358-8557-e35bf3b14196"},"vehicle_type_id":"4","last_reported":1685639161,"current_range_meters":29600,"station_id":"ce4bgqh2rcd13ifvqc4g","pricing_plan_id":"free"},{"bike_id":"b62a971b-b992-475f-a5b2-c79ebf92a3d0","system_id":"levelo_inurba_marseille","lat":43.305989,"lon":5.37225,"is_reserved":false,"is_disabled":false,"rental_uris":{"android":"levelo://app?vid=b62a971b-b992-475f-a5b2-c79ebf92a3d0","ios":"levelo://app?vid=b62a971b-b992-475f-a5b2-c79ebf92a3d0"},"vehicle_type_id":"4","last_reported":1685639161,"current_range_meters":27200,"station_id":"ce4bgqh2rcd13ifvqc4g","pricing_plan_id":"free"},{"bike_id":"1a71092a-9782-4238-8a1d-b83f9cb0aa1a","system_id":"levelo_inurba_marseille","lat":43.311131,"lon":5.377651,"is_reserved":false,"is_disabled":false,"rental_uris":{"android":"levelo://app?vid=1a71092a-9782-4238-8a1d-b83f9cb0aa1a","ios":"levelo://app?vid=1a71092a-9782-4238-8a1d-b83f9cb0aa1a"},"vehicle_type_id":"4","last_reported":1685639161,"current_range_meters":17600,"station_id":"ce4bgt92rcd13ifvqcg0","pricing_plan_id":"free"},{"bike_id":"1cd4d85a-37f8-4f09-9f99-5da46c1eb541","system_id":"levelo_inurba_marseille","lat":43.311125,"lon":5.377624,"is_reserved":false,"is_disabled":false,"rental_uris":{"android":"levelo://app?vid=1cd4d85a-37f8-4f09-9f99-5da46c1eb541","ios":"levelo://app?vid=1cd4d85a-37f8-4f09-9f99-5da46c1eb541"},"vehicle_type_id":"4","last_reported":1685639161,"current_range_meters":30800,"station_id":"ce4bgt92rcd13ifvqcg0","pricing_plan_id":"free"},{"bike_id":"513458df-cff3-44d2-899b-350f0b5a6525","system_id":"levelo_inurba_marseille","lat":43.311125,"lon":5.377624,"is_reserved":false,"is_disabled":false,"rental_uris":{"android":"levelo://app?vid=513458df-cff3-44d2-899b-350f0b5a6525","ios":"levelo://app?vid=513458df-cff3-44d2-899b-350f0b5a6525"},"vehicle_type_id":"4","last_reported":1685639161,"current_range_meters":20800,"station_id":"ce4bgt92rcd13ifvqcg0","pricing_plan_id":"free"},{"bike_id":"5e1bb8ea-30d0-4f66-973a-e7ba089ceff0","system_id":"levelo_inurba_marseille","lat":43.311125,"lon":5.377624,"is_reserved":false,"is_disabled":false,"rental_uris":{"android":"levelo://app?vid=5e1bb8ea-30d0-4f66-973a-e7ba089ceff0","ios":"levelo://app?vid=5e1bb8ea-30d0-4f66-973a-e7ba089ceff0"},"vehicle_type_id":"4","last_reported":1685639161,"current_range_meters":14800,"station_id":"ce4bgt92rcd13ifvqcg0","pricing_plan_id":"free"},{"bike_id":"64668d62-2c56-40da-9e4a-cb84a2c2ea4d","system_id":"levelo_inurba_marseille","lat":43.31002,"lon":5.38021,"is_reserved":false,"is_disabled":false,"rental_uris":{"android":"levelo://app?vid=64668d62-2c56-40da-9e4a-cb84a2c2ea4d","ios":"levelo://app?vid=64668d62-2c56-40da-9e4a-cb84a2c2ea4d"},"vehicle_type_id":"4","last_reported":1685639161,"current_range_meters":4400,"station_id":"","pricing_plan_id":"free"},{"bike_id":"791409cf-5c37-4120-a0b8-eea051fd3da5","system_id":"levelo_inurba_marseille","lat":43.315293,"lon":5.380349,"is_reserved":false,"is_disabled":false,"rental_uris":{"android":"levelo://app?vid=791409cf-5c37-4120-a0b8-eea051fd3da5","ios":"levelo://app?vid=791409cf-5c37-4120-a0b8-eea051fd3da5"},"vehicle_type_id":"4","last_reported":1685639161,"current_range_meters":21600,"station_id":"ce4bhsp2rcd13ifvqi50","pricing_plan_id":"free"},{"bike_id":"f8309795-c2f1-4ec5-b69d-7b015ef6d142","system_id":"levelo_inurba_marseille","lat":43.32367,"lon":5.36926,"is_reserved":false,"is_disabled":false,"rental_uris":{"android":"levelo://app?vid=f8309795-c2f1-4ec5-b69d-7b015ef6d142","ios":"levelo://app?vid=f8309795-c2f1-4ec5-b69d-7b015ef6d142"},"vehicle_type_id":"4","last_reported":1685639161,"current_range_meters":18400,"station_id":"","pricing_plan_id":"free"},{"bike_id":"094a4734-fba6-4928-be60-f125da88e5f0","system_id":"levelo_inurba_marseille","lat":43.30796,"lon":5.38144,"is_reserved":false,"is_disabled":false,"rental_uris":{"android":"levelo://app?vid=094a4734-fba6-4928-be60-f125da88e5f0","ios":"levelo://app?vid=094a4734-fba6-4928-be60-f125da88e5f0"},"vehicle_type_id":"4","last_reported":1685639161,"current_range_meters":5600,"station_id":"ce4bgt12rcd13ifvqce0","pricing_plan_id":"free"},{"bike_id":"b9314a51-3bca-4de2-a0e3-93907e604f59","system_id":"levelo_inurba_marseille","lat":43.30804,"lon":5.38151,"is_reserved":false,"is_disabled":false,"rental_uris":{"android":"levelo://app?vid=b9314a51-3bca-4de2-a0e3-93907e604f59","ios":"levelo://app?vid=b9314a51-3bca-4de2-a0e3-93907e604f59"},"vehicle_type_id":"4","last_reported":1685639161,"current_range_meters":5600,"station_id":"ce4bgt12rcd13ifvqce0","pricing_plan_id":"free"},{"bike_id":"6e681bb5-8f64-4957-8459-716a1b29ad50","system_id":"levelo_inurba_marseille","lat":43.30797,"lon":5.38147,"is_reserved":false,"is_disabled":false,"rental_uris":{"android":"levelo://app?vid=6e681bb5-8f64-4957-8459-716a1b29ad50","ios":"levelo://app?vid=6e681bb5-8f64-4957-8459-716a1b29ad50"},"vehicle_type_id":"4","last_reported":1685639161,"current_range_meters":8800,"station_id":"ce4bgt12rcd13ifvqce0","pricing_plan_id":"free"},{"bike_id":"1ca1bb7a-29e8-4643-9d2a-dc40125d1914","system_id":"levelo_inurba_marseille","lat":43.308012,"lon":5.381511,"is_reserved":false,"is_disabled":false,"rental_uris":{"android":"levelo://app?vid=1ca1bb7a-29e8-4643-9d2a-dc40125d1914","ios":"levelo://app?vid=1ca1bb7a-29e8-4643-9d2a-dc40125d1914"},"vehicle_type_id":"4","last_reported":1685639161,"current_range_meters":14800,"station_id":"ce4bgt12rcd13ifvqce0","pricing_plan_id":"free"},{"bike_id":"1cf7f88b-e603-4f33-91c8-ce9d13a5e106","system_id":"levelo_inurba_marseille","lat":43.308012,"lon":5.381511,"is_reserved":false,"is_disabled":false,"rental_uris":{"android":"levelo://app?vid=1cf7f88b-e603-4f33-91c8-ce9d13a5e106","ios":"levelo://app?vid=1cf7f88b-e603-4f33-91c8-ce9d13a5e106"},"vehicle_type_id":"4","last_reported":1685639161,"current_range_meters":0,"station_id":"ce4bgt12rcd13ifvqce0","pricing_plan_id":"free"},{"bike_id":"a243ce1a-9b8e-44b3-b576-f133339bc316","system_id":"levelo_inurba_marseille","lat":43.31801,"lon":5.38161,"is_reserved":false,"is_disabled":false,"rental_uris":{"android":"levelo://app?vid=a243ce1a-9b8e-44b3-b576-f133339bc316","ios":"levelo://app?vid=a243ce1a-9b8e-44b3-b576-f133339bc316"},"vehicle_type_id":"4","last_reported":1685639161,"current_range_meters":400,"station_id":"","pricing_plan_id":"free"},{"bike_id":"d7b415db-40f4-4f57-85d7-3e1a32ba7cce","system_id":"levelo_inurba_marseille","lat":43.304606,"lon":5.379026,"is_reserved":false,"is_disabled":false,"rental_uris":{"android":"levelo://app?vid=d7b415db-40f4-4f57-85d7-3e1a32ba7cce","ios":"levelo://app?vid=d7b415db-40f4-4f57-85d7-3e1a32ba7cce"},"vehicle_type_id":"4","last_reported":1685639161,"current_range_meters":24800,"station_id":"ce4bgup2rcd13ifvqcn0","pricing_plan_id":"free"},{"bike_id":"437d74f6-eff2-4a1b-b760-8cb734ad4cee","system_id":"levelo_inurba_marseille","lat":43.304606,"lon":5.379026,"is_reserved":false,"is_disabled":false,"rental_uris":{"android":"levelo://app?vid=437d74f6-eff2-4a1b-b760-8cb734ad4cee","ios":"levelo://app?vid=437d74f6-eff2-4a1b-b760-8cb734ad4cee"},"vehicle_type_id":"4","last_reported":1685639161,"current_range_meters":0,"station_id":"ce4bgup2rcd13ifvqcn0","pricing_plan_id":"free"},{"bike_id":"e7e391c8-6c3d-4d68-bb46-20927e629558","system_id":"levelo_inurba_marseille","lat":43.30144,"lon":5.37412,"is_reserved":false,"is_disabled":false,"rental_uris":{"android":"levelo://app?vid=e7e391c8-6c3d-4d68-bb46-20927e629558","ios":"levelo://app?vid=e7e391c8-6c3d-4d68-bb46-20927e629558"},"vehicle_type_id":"4","last_reported":1685639161,"current_range_meters":13200,"station_id":"","pricing_plan_id":"free"},{"bike_id":"ddf96fc7-0c17-4f06-9590-e6fa6286386c","system_id":"levelo_inurba_marseille","lat":43.30142,"lon":5.37415,"is_reserved":false,"is_disabled":false,"rental_uris":{"android":"levelo://app?vid=ddf96fc7-0c17-4f06-9590-e6fa6286386c","ios":"levelo://app?vid=ddf96fc7-0c17-4f06-9590-e6fa6286386c"},"vehicle_type_id":"4","last_reported":1685639161,"current_range_meters":16800,"station_id":"","pricing_plan_id":"free"},{"bike_id":"3b44541e-50cb-44cc-a9e4-6101bd87a770","system_id":"levelo_inurba_marseille","lat":43.299222,"lon":5.365554,"is_reserved":false,"is_disabled":false,"rental_uris":{"android":"levelo://app?vid=3b44541e-50cb-44cc-a9e4-6101bd87a770","ios":"levelo://app?vid=3b44541e-50cb-44cc-a9e4-6101bd87a770"},"vehicle_type_id":"4","last_reported":1685639161,"current_range_meters":16400,"station_id":"ce4bgm92rcd13ifvqbr0","pricing_plan_id":"free"},{"bike_id":"34c0738c-a6d9-409d-b8f9-8f59d3e9320d","system_id":"levelo_inurba_marseille","lat":43.298433,"lon":5.362774,"is_reserved":false,"is_disabled":false,"rental_uris":{"android":"levelo://app?vid=34c0738c-a6d9-409d-b8f9-8f59d3e9320d","ios":"levelo://app?vid=34c0738c-a6d9-409d-b8f9-8f59d3e9320d"},"vehicle_type_id":"4","last_reported":1685639161,"current_range_meters":2400,"station_id":"ce4bgpp2rcd13ifvqc3g","pricing_plan_id":"free"},{"bike_id":"a3934a43-e0e1-46b9-86cd-2ac2345caf85","system_id":"levelo_inurba_marseille","lat":43.298433,"lon":5.362774,"is_reserved":false,"is_disabled":false,"rental_uris":{"android":"levelo://app?vid=a3934a43-e0e1-46b9-86cd-2ac2345caf85","ios":"levelo://app?vid=a3934a43-e0e1-46b9-86cd-2ac2345caf85"},"vehicle_type_id":"4","last_reported":1685639161,"current_range_meters":8000,"station_id":"ce4bgpp2rcd13ifvqc3g","pricing_plan_id":"free"},{"bike_id":"95c77e70-6a0c-4421-9e70-3561b62fd6df","system_id":"levelo_inurba_marseille","lat":43.29888,"lon":5.37412,"is_reserved":false,"is_disabled":false,"rental_uris":{"android":"levelo://app?vid=95c77e70-6a0c-4421-9e70-3561b62fd6df","ios":"levelo://app?vid=95c77e70-6a0c-4421-9e70-3561b62fd6df"},"vehicle_type_id":"4","last_reported":1685639161,"current_range_meters":5200,"station_id":"","pricing_plan_id":"free"},{"bike_id":"ad2b9d2d-ee77-47fa-9d84-15ff5f24b057","system_id":"levelo_inurba_marseille","lat":43.328371,"lon":5.366909,"is_reserved":false,"is_disabled":false,"rental_uris":{"android":"levelo://app?vid=ad2b9d2d-ee77-47fa-9d84-15ff5f24b057","ios":"levelo://app?vid=ad2b9d2d-ee77-47fa-9d84-15ff5f24b057"},"vehicle_type_id":"4","last_reported":1685639161,"current_range_meters":28000,"station_id":"ce4bhs92rcd13ifvqi0g","pricing_plan_id":"free"},{"bike_id":"0b0d3d39-ad77-4452-a1cc-60bfdf58c9d3","system_id":"levelo_inurba_marseille","lat":43.328371,"lon":5.366909,"is_reserved":false,"is_disabled":false,"rental_uris":{"android":"levelo://app?vid=0b0d3d39-ad77-4452-a1cc-60bfdf58c9d3","ios":"levelo://app?vid=0b0d3d39-ad77-4452-a1cc-60bfdf58c9d3"},"vehicle_type_id":"4","last_reported":1685639161,"current_range_meters":24800,"station_id":"ce4bhs92rcd13ifvqi0g","pricing_plan_id":"free"},{"bike_id":"79d1ff90-732a-4cd9-aaf7-91b1beacb885","system_id":"levelo_inurba_marseille","lat":43.3283,"lon":5.36676,"is_reserved":false,"is_disabled":false,"rental_uris":{"android":"levelo://app?vid=79d1ff90-732a-4cd9-aaf7-91b1beacb885","ios":"levelo://app?vid=79d1ff90-732a-4cd9-aaf7-91b1beacb885"},"vehicle_type_id":"4","last_reported":1685639161,"current_range_meters":23600,"station_id":"ce4bhs92rcd13ifvqi0g","pricing_plan_id":"free"},{"bike_id":"a14cfb38-e645-459b-a14d-e6eb2ab40f77","system_id":"levelo_inurba_marseille","lat":43.2968,"lon":5.37291,"is_reserved":false,"is_disabled":false,"rental_uris":{"android":"levelo://app?vid=a14cfb38-e645-459b-a14d-e6eb2ab40f77","ios":"levelo://app?vid=a14cfb38-e645-459b-a14d-e6eb2ab40f77"},"vehicle_type_id":"4","last_reported":1685639161,"current_range_meters":0,"station_id":"ce4bgk12rcd13ifvqbj0","pricing_plan_id":"free"},{"bike_id":"329f4d25-24a6-433a-a371-2c87393a9e2f","system_id":"levelo_inurba_marseille","lat":43.29573,"lon":5.367355,"is_reserved":false,"is_disabled":false,"rental_uris":{"android":"levelo://app?vid=329f4d25-24a6-433a-a371-2c87393a9e2f","ios":"levelo://app?vid=329f4d25-24a6-433a-a371-2c87393a9e2f"},"vehicle_type_id":"4","last_reported":1685639161,"current_range_meters":8400,"station_id":"ce4bgph2rcd13ifvqc2g","pricing_plan_id":"free"},{"bike_id":"25bdc948-35bd-48a7-a186-4e13acf42df0","system_id":"levelo_inurba_marseille","lat":43.29573,"lon":5.367355,"is_reserved":false,"is_disabled":false,"rental_uris":{"android":"levelo://app?vid=25bdc948-35bd-48a7-a186-4e13acf42df0","ios":"levelo://app?vid=25bdc948-35bd-48a7-a186-4e13acf42df0"},"vehicle_type_id":"4","last_reported":1685639161,"current_range_meters":23200,"station_id":"ce4bgph2rcd13ifvqc2g","pricing_plan_id":"free"},{"bike_id":"d6e8436b-aac3-4de3-bc4b-0bb4af527068","system_id":"levelo_inurba_marseille","lat":43.29573,"lon":5.367355,"is_reserved":false,"is_disabled":false,"rental_uris":{"android":"levelo://app?vid=d6e8436b-aac3-4de3-bc4b-0bb4af527068","ios":"levelo://app?vid=d6e8436b-aac3-4de3-bc4b-0bb4af527068"},"vehicle_type_id":"4","last_reported":1685639161,"current_range_meters":29600,"station_id":"ce4bgph2rcd13ifvqc2g","pricing_plan_id":"free"},{"bike_id":"a634150b-4a86-46a9-a0ea-c6f2122f7c3d","system_id":"levelo_inurba_marseille","lat":43.29573,"lon":5.367355,"is_reserved":false,"is_disabled":false,"rental_uris":{"android":"levelo://app?vid=a634150b-4a86-46a9-a0ea-c6f2122f7c3d","ios":"levelo://app?vid=a634150b-4a86-46a9-a0ea-c6f2122f7c3d"},"vehicle_type_id":"4","last_reported":1685639161,"current_range_meters":30000,"station_id":"ce4bgph2rcd13ifvqc2g","pricing_plan_id":"free"},{"bike_id":"6466ab2b-7909-4d04-97cc-67393d6a78e3","system_id":"levelo_inurba_marseille","lat":43.29573,"lon":5.367355,"is_reserved":false,"is_disabled":false,"rental_uris":{"android":"levelo://app?vid=6466ab2b-7909-4d04-97cc-67393d6a78e3","ios":"levelo://app?vid=6466ab2b-7909-4d04-97cc-67393d6a78e3"},"vehicle_type_id":"4","last_reported":1685639161,"current_range_meters":4800,"station_id":"ce4bgph2rcd13ifvqc2g","pricing_plan_id":"free"},{"bike_id":"1475f680-79f0-43cf-be46-fc3e072749c2","system_id":"levelo_inurba_marseille","lat":43.29577,"lon":5.36752,"is_reserved":false,"is_disabled":false,"rental_uris":{"android":"levelo://app?vid=1475f680-79f0-43cf-be46-fc3e072749c2","ios":"levelo://app?vid=1475f680-79f0-43cf-be46-fc3e072749c2"},"vehicle_type_id":"4","last_reported":1685639161,"current_range_meters":0,"station_id":"ce4bgph2rcd13ifvqc2g","pricing_plan_id":"free"},{"bike_id":"8178d35e-f88b-4632-bd77-1a2579c25731","system_id":"levelo_inurba_marseille","lat":43.29547,"lon":5.36516,"is_reserved":false,"is_disabled":false,"rental_uris":{"android":"levelo://app?vid=8178d35e-f88b-4632-bd77-1a2579c25731","ios":"levelo://app?vid=8178d35e-f88b-4632-bd77-1a2579c25731"},"vehicle_type_id":"4","last_reported":1685639161,"current_range_meters":22400,"station_id":"","pricing_plan_id":"free"},{"bike_id":"29418387-0b15-4fad-9d82-1fa2fc83ff7b","system_id":"levelo_inurba_marseille","lat":43.317442,"lon":5.390134,"is_reserved":false,"is_disabled":false,"rental_uris":{"android":"levelo://app?vid=29418387-0b15-4fad-9d82-1fa2fc83ff7b","ios":"levelo://app?vid=29418387-0b15-4fad-9d82-1fa2fc83ff7b"},"vehicle_type_id":"4","last_reported":1685639161,"current_range_meters":25600,"station_id":"","pricing_plan_id":"free"},{"bike_id":"be50f9be-1755-4ba4-8ebe-ac093a81ee0d","system_id":"levelo_inurba_marseille","lat":43.298037,"lon":5.381066,"is_reserved":false,"is_disabled":false,"rental_uris":{"android":"levelo://app?vid=be50f9be-1755-4ba4-8ebe-ac093a81ee0d","ios":"levelo://app?vid=be50f9be-1755-4ba4-8ebe-ac093a81ee0d"},"vehicle_type_id":"4","last_reported":1685639161,"current_range_meters":0,"station_id":"ce4bgip2rcd13ifvqbb0","pricing_plan_id":"free"},{"bike_id":"9e16ebe8-487d-4aa7-8977-1be999ea2501","system_id":"levelo_inurba_marseille","lat":43.304278,"lon":5.388868,"is_reserved":false,"is_disabled":false,"rental_uris":{"android":"levelo://app?vid=9e16ebe8-487d-4aa7-8977-1be999ea2501","ios":"levelo://app?vid=9e16ebe8-487d-4aa7-8977-1be999ea2501"},"vehicle_type_id":"4","last_reported":1685639161,"current_range_meters":14800,"station_id":"ce4bgk12rcd13ifvqbi0","pricing_plan_id":"free"},{"bike_id":"603d1654-7302-40ee-a3f3-b0405facf1a3","system_id":"levelo_inurba_marseille","lat":43.296277,"lon":5.377108,"is_reserved":false,"is_disabled":false,"rental_uris":{"android":"levelo://app?vid=603d1654-7302-40ee-a3f3-b0405facf1a3","ios":"levelo://app?vid=603d1654-7302-40ee-a3f3-b0405facf1a3"},"vehicle_type_id":"4","last_reported":1685639161,"current_range_meters":12000,"station_id":"ce4bgi92rcd13ifvqb90","pricing_plan_id":"free"},{"bike_id":"974de953-7572-438d-a10a-97e9aaf78d81","system_id":"levelo_inurba_marseille","lat":43.296263,"lon":5.377094,"is_reserved":false,"is_disabled":false,"rental_uris":{"android":"levelo://app?vid=974de953-7572-438d-a10a-97e9aaf78d81","ios":"levelo://app?vid=974de953-7572-438d-a10a-97e9aaf78d81"},"vehicle_type_id":"4","last_reported":1685639161,"current_range_meters":4400,"station_id":"ce4bgi92rcd13ifvqb90","pricing_plan_id":"free"},{"bike_id":"a8bf1f98-9a8e-430a-9f1c-769f8e2c60f7","system_id":"levelo_inurba_marseille","lat":43.296277,"lon":5.377108,"is_reserved":false,"is_disabled":false,"rental_uris":{"android":"levelo://app?vid=a8bf1f98-9a8e-430a-9f1c-769f8e2c60f7","ios":"levelo://app?vid=a8bf1f98-9a8e-430a-9f1c-769f8e2c60f7"},"vehicle_type_id":"4","last_reported":1685639161,"current_range_meters":9600,"station_id":"ce4bgi92rcd13ifvqb90","pricing_plan_id":"free"},{"bike_id":"898d3722-44c3-47fd-9fd1-f7d4ea8cb6c0","system_id":"levelo_inurba_marseille","lat":43.296263,"lon":5.377094,"is_reserved":false,"is_disabled":false,"rental_uris":{"android":"levelo://app?vid=898d3722-44c3-47fd-9fd1-f7d4ea8cb6c0","ios":"levelo://app?vid=898d3722-44c3-47fd-9fd1-f7d4ea8cb6c0"},"vehicle_type_id":"4","last_reported":1685639161,"current_range_meters":23200,"station_id":"ce4bgi92rcd13ifvqb90","pricing_plan_id":"free"},{"bike_id":"5ee0d173-eb8e-4125-882a-48c1eba5aae1","system_id":"levelo_inurba_marseille","lat":43.296263,"lon":5.377094,"is_reserved":false,"is_disabled":false,"rental_uris":{"android":"levelo://app?vid=5ee0d173-eb8e-4125-882a-48c1eba5aae1","ios":"levelo://app?vid=5ee0d173-eb8e-4125-882a-48c1eba5aae1"},"vehicle_type_id":"4","last_reported":1685639161,"current_range_meters":26800,"station_id":"ce4bgi92rcd13ifvqb90","pricing_plan_id":"free"},{"bike_id":"960ec446-b12d-40f0-bd42-689ab5a8971e","system_id":"levelo_inurba_marseille","lat":43.299724,"lon":5.384848,"is_reserved":false,"is_disabled":false,"rental_uris":{"android":"levelo://app?vid=960ec446-b12d-40f0-bd42-689ab5a8971e","ios":"levelo://app?vid=960ec446-b12d-40f0-bd42-689ab5a8971e"},"vehicle_type_id":"4","last_reported":1685639161,"current_range_meters":0,"station_id":"ce4bgj92rcd13ifvqbd0","pricing_plan_id":"free"},{"bike_id":"2b2e558c-7363-4cd5-925f-9ed3c3049134","system_id":"levelo_inurba_marseille","lat":43.299717,"lon":5.384845,"is_reserved":false,"is_disabled":false,"rental_uris":{"android":"levelo://app?vid=2b2e558c-7363-4cd5-925f-9ed3c3049134","ios":"levelo://app?vid=2b2e558c-7363-4cd5-925f-9ed3c3049134"},"vehicle_type_id":"4","last_reported":1685639161,"current_range_meters":8400,"station_id":"ce4bgj92rcd13ifvqbd0","pricing_plan_id":"free"},{"bike_id":"c241bf6f-70e5-46d1-9f5c-63fb687e9a49","system_id":"levelo_inurba_marseille","lat":43.32367,"lon":5.388836,"is_reserved":false,"is_disabled":false,"rental_uris":{"android":"levelo://app?vid=c241bf6f-70e5-46d1-9f5c-63fb687e9a49","ios":"levelo://app?vid=c241bf6f-70e5-46d1-9f5c-63fb687e9a49"},"vehicle_type_id":"4","last_reported":1685639161,"current_range_meters":4800,"station_id":"ce4bhqp2rcd13ifvqhog","pricing_plan_id":"free"},{"bike_id":"3d14c174-a567-4af7-89b1-420525809585","system_id":"levelo_inurba_marseille","lat":43.299717,"lon":5.384845,"is_reserved":false,"is_disabled":false,"rental_uris":{"android":"levelo://app?vid=3d14c174-a567-4af7-89b1-420525809585","ios":"levelo://app?vid=3d14c174-a567-4af7-89b1-420525809585"},"vehicle_type_id":"4","last_reported":1685639161,"current_range_meters":26000,"station_id":"ce4bgj92rcd13ifvqbd0","pricing_plan_id":"free"},{"bike_id":"38b3c665-c74a-45be-9615-72fa132adde3","system_id":"levelo_inurba_marseille","lat":43.293249,"lon":5.371578,"is_reserved":false,"is_disabled":false,"rental_uris":{"android":"levelo://app?vid=38b3c665-c74a-45be-9615-72fa132adde3","ios":"levelo://app?vid=38b3c665-c74a-45be-9615-72fa132adde3"},"vehicle_type_id":"4","last_reported":1685639161,"current_range_meters":16800,"station_id":"ce4bgh92rcd13ifvqb40","pricing_plan_id":"free"},{"bike_id":"02c5a19c-1d1d-48df-ace7-23ccbb1700ea","system_id":"levelo_inurba_marseille","lat":43.292749,"lon":5.368402,"is_reserved":false,"is_disabled":false,"rental_uris":{"android":"levelo://app?vid=02c5a19c-1d1d-48df-ace7-23ccbb1700ea","ios":"levelo://app?vid=02c5a19c-1d1d-48df-ace7-23ccbb1700ea"},"vehicle_type_id":"4","last_reported":1685639161,"current_range_meters":18800,"station_id":"ce4bhbp2rcd13ifvqesg","pricing_plan_id":"free"},{"bike_id":"7efd6f04-8583-4d06-bedf-2ea8614851ff","system_id":"levelo_inurba_marseille","lat":43.299717,"lon":5.384845,"is_reserved":false,"is_disabled":false,"rental_uris":{"android":"levelo://app?vid=7efd6f04-8583-4d06-bedf-2ea8614851ff","ios":"levelo://app?vid=7efd6f04-8583-4d06-bedf-2ea8614851ff"},"vehicle_type_id":"4","last_reported":1685639161,"current_range_meters":24800,"station_id":"ce4bgj92rcd13ifvqbd0","pricing_plan_id":"free"},{"bike_id":"f6fe0cb8-addd-4a43-83ef-bb9b944c3889","system_id":"levelo_inurba_marseille","lat":43.305994,"lon":5.393687,"is_reserved":false,"is_disabled":false,"rental_uris":{"android":"levelo://app?vid=f6fe0cb8-addd-4a43-83ef-bb9b944c3889","ios":"levelo://app?vid=f6fe0cb8-addd-4a43-83ef-bb9b944c3889"},"vehicle_type_id":"4","last_reported":1685639161,"current_range_meters":4000,"station_id":"ce4bh0p2rcd13ifvqd80","pricing_plan_id":"free"},{"bike_id":"221ff105-ca72-4720-bec5-e4e7fe30244c","system_id":"levelo_inurba_marseille","lat":43.302992,"lon":5.392136,"is_reserved":false,"is_disabled":false,"rental_uris":{"android":"levelo://app?vid=221ff105-ca72-4720-bec5-e4e7fe30244c","ios":"levelo://app?vid=221ff105-ca72-4720-bec5-e4e7fe30244c"},"vehicle_type_id":"4","last_reported":1685639161,"current_range_meters":0,"station_id":"ce4bgkh2rcd13ifvqbk0","pricing_plan_id":"free"},{"bike_id":"cd1b1e07-2fb6-4dc4-b6c2-296f1d2082d4","system_id":"levelo_inurba_marseille","lat":43.302992,"lon":5.392136,"is_reserved":false,"is_disabled":false,"rental_uris":{"android":"levelo://app?vid=cd1b1e07-2fb6-4dc4-b6c2-296f1d2082d4","ios":"levelo://app?vid=cd1b1e07-2fb6-4dc4-b6c2-296f1d2082d4"},"vehicle_type_id":"4","last_reported":1685639161,"current_range_meters":0,"station_id":"ce4bgkh2rcd13ifvqbk0","pricing_plan_id":"free"},{"bike_id":"5bac94b6-0ca8-4e49-81fc-43adc697a79e","system_id":"levelo_inurba_marseille","lat":43.29223,"lon":5.36211,"is_reserved":false,"is_disabled":false,"rental_uris":{"android":"levelo://app?vid=5bac94b6-0ca8-4e49-81fc-43adc697a79e","ios":"levelo://app?vid=5bac94b6-0ca8-4e49-81fc-43adc697a79e"},"vehicle_type_id":"4","last_reported":1685639161,"current_range_meters":28400,"station_id":"","pricing_plan_id":"free"},{"bike_id":"b55fde68-ffcd-494e-8e8e-3520b7be8151","system_id":"levelo_inurba_marseille","lat":43.30085,"lon":5.390856,"is_reserved":false,"is_disabled":false,"rental_uris":{"android":"levelo://app?vid=b55fde68-ffcd-494e-8e8e-3520b7be8151","ios":"levelo://app?vid=b55fde68-ffcd-494e-8e8e-3520b7be8151"},"vehicle_type_id":"4","last_reported":1685639161,"current_range_meters":20000,"station_id":"ce4bh192rcd13ifvqdb0","pricing_plan_id":"free"},{"bike_id":"b9f7c3e4-a030-4b68-a342-61ca720876c4","system_id":"levelo_inurba_marseille","lat":43.2936,"lon":5.37835,"is_reserved":false,"is_disabled":false,"rental_uris":{"android":"levelo://app?vid=b9f7c3e4-a030-4b68-a342-61ca720876c4","ios":"levelo://app?vid=b9f7c3e4-a030-4b68-a342-61ca720876c4"},"vehicle_type_id":"4","last_reported":1685639161,"current_range_meters":24000,"station_id":"ce4bgjh2rcd13ifvqbf0","pricing_plan_id":"free"},{"bike_id":"5c7b350a-ed3b-485c-a949-2d21262a5cde","system_id":"levelo_inurba_marseille","lat":43.292311,"lon":5.360731,"is_reserved":false,"is_disabled":false,"rental_uris":{"android":"levelo://app?vid=5c7b350a-ed3b-485c-a949-2d21262a5cde","ios":"levelo://app?vid=5c7b350a-ed3b-485c-a949-2d21262a5cde"},"vehicle_type_id":"4","last_reported":1685639161,"current_range_meters":19200,"station_id":"ce4bhbh2rcd13ifvqeqg","pricing_plan_id":"free"},{"bike_id":"b566a11a-84e3-41a7-9c4a-926f25a77bb1","system_id":"levelo_inurba_marseille","lat":43.29573,"lon":5.367355,"is_reserved":false,"is_disabled":false,"rental_uris":{"android":"levelo://app?vid=b566a11a-84e3-41a7-9c4a-926f25a77bb1","ios":"levelo://app?vid=b566a11a-84e3-41a7-9c4a-926f25a77bb1"},"vehicle_type_id":"4","last_reported":1685639161,"current_range_meters":10800,"station_id":"ce4bgph2rcd13ifvqc2g","pricing_plan_id":"free"},{"bike_id":"d44dfbd0-0b88-41dd-8130-aa944d2de70e","system_id":"levelo_inurba_marseille","lat":43.298764,"lon":5.388973,"is_reserved":false,"is_disabled":false,"rental_uris":{"android":"levelo://app?vid=d44dfbd0-0b88-41dd-8130-aa944d2de70e","ios":"levelo://app?vid=d44dfbd0-0b88-41dd-8130-aa944d2de70e"},"vehicle_type_id":"4","last_reported":1685639161,"current_range_meters":25600,"station_id":"ce4bh392rcd13ifvqdl0","pricing_plan_id":"free"},{"bike_id":"daf30f7b-9f11-44d1-98bf-7efeb659a1c5","system_id":"levelo_inurba_marseille","lat":43.291675,"lon":5.371583,"is_reserved":false,"is_disabled":false,"rental_uris":{"android":"levelo://app?vid=daf30f7b-9f11-44d1-98bf-7efeb659a1c5","ios":"levelo://app?vid=daf30f7b-9f11-44d1-98bf-7efeb659a1c5"},"vehicle_type_id":"4","last_reported":1685639161,"current_range_meters":9200,"station_id":"ce4bha92rcd13ifvqeh0","pricing_plan_id":"free"},{"bike_id":"6fcd5c10-8db4-4712-90fa-64ea1b934b32","system_id":"levelo_inurba_marseille","lat":43.291675,"lon":5.371583,"is_reserved":false,"is_disabled":false,"rental_uris":{"android":"levelo://app?vid=6fcd5c10-8db4-4712-90fa-64ea1b934b32","ios":"levelo://app?vid=6fcd5c10-8db4-4712-90fa-64ea1b934b32"},"vehicle_type_id":"4","last_reported":1685639161,"current_range_meters":8400,"station_id":"ce4bha92rcd13ifvqeh0","pricing_plan_id":"free"},{"bike_id":"5a660338-3281-43aa-affc-986af7b1f5e7","system_id":"levelo_inurba_marseille","lat":43.31916,"lon":5.39546,"is_reserved":false,"is_disabled":false,"rental_uris":{"android":"levelo://app?vid=5a660338-3281-43aa-affc-986af7b1f5e7","ios":"levelo://app?vid=5a660338-3281-43aa-affc-986af7b1f5e7"},"vehicle_type_id":"4","last_reported":1685639161,"current_range_meters":6800,"station_id":"","pricing_plan_id":"free"},{"bike_id":"e3ad1805-17ff-4288-a873-5785ea73c598","system_id":"levelo_inurba_marseille","lat":43.291994,"lon":5.357886,"is_reserved":false,"is_disabled":false,"rental_uris":{"android":"levelo://app?vid=e3ad1805-17ff-4288-a873-5785ea73c598","ios":"levelo://app?vid=e3ad1805-17ff-4288-a873-5785ea73c598"},"vehicle_type_id":"4","last_reported":1685639161,"current_range_meters":6800,"station_id":"ce4bhb12rcd13ifvqel0","pricing_plan_id":"free"},{"bike_id":"f7786558-042b-4297-985d-642f6edc68c9","system_id":"levelo_inurba_marseille","lat":43.313291,"lon":5.396838,"is_reserved":false,"is_disabled":false,"rental_uris":{"android":"levelo://app?vid=f7786558-042b-4297-985d-642f6edc68c9","ios":"levelo://app?vid=f7786558-042b-4297-985d-642f6edc68c9"},"vehicle_type_id":"4","last_reported":1685639161,"current_range_meters":800,"station_id":"ce4bgvp2rcd13ifvqcu0","pricing_plan_id":"free"},{"bike_id":"e61bb5b2-bd54-4dd3-95bd-4efeeb75cff6","system_id":"levelo_inurba_marseille","lat":43.313291,"lon":5.396838,"is_reserved":false,"is_disabled":false,"rental_uris":{"android":"levelo://app?vid=e61bb5b2-bd54-4dd3-95bd-4efeeb75cff6","ios":"levelo://app?vid=e61bb5b2-bd54-4dd3-95bd-4efeeb75cff6"},"vehicle_type_id":"4","last_reported":1685639161,"current_range_meters":10000,"station_id":"ce4bgvp2rcd13ifvqcu0","pricing_plan_id":"free"},{"bike_id":"d5e09981-2015-4422-9713-27d31490b571","system_id":"levelo_inurba_marseille","lat":43.313291,"lon":5.396838,"is_reserved":false,"is_disabled":false,"rental_uris":{"android":"levelo://app?vid=d5e09981-2015-4422-9713-27d31490b571","ios":"levelo://app?vid=d5e09981-2015-4422-9713-27d31490b571"},"vehicle_type_id":"4","last_reported":1685639161,"current_range_meters":800,"station_id":"ce4bgvp2rcd13ifvqcu0","pricing_plan_id":"free"},{"bike_id":"6094b15e-3ceb-4ffc-8f3d-35e71876f647","system_id":"levelo_inurba_marseille","lat":43.309038,"lon":5.396546,"is_reserved":false,"is_disabled":false,"rental_uris":{"android":"levelo://app?vid=6094b15e-3ceb-4ffc-8f3d-35e71876f647","ios":"levelo://app?vid=6094b15e-3ceb-4ffc-8f3d-35e71876f647"},"vehicle_type_id":"4","last_reported":1685639161,"current_range_meters":24000,"station_id":"ce4bh012rcd13ifvqcv0","pricing_plan_id":"free"},{"bike_id":"a7e8d51a-935c-40e7-8321-36aebdd2e0a2","system_id":"levelo_inurba_marseille","lat":43.313291,"lon":5.396838,"is_reserved":false,"is_disabled":false,"rental_uris":{"android":"levelo://app?vid=a7e8d51a-935c-40e7-8321-36aebdd2e0a2","ios":"levelo://app?vid=a7e8d51a-935c-40e7-8321-36aebdd2e0a2"},"vehicle_type_id":"4","last_reported":1685639161,"current_range_meters":19600,"station_id":"ce4bgvp2rcd13ifvqcu0","pricing_plan_id":"free"},{"bike_id":"168be0c8-f75b-4c5c-8dc3-70c6c785c00e","system_id":"levelo_inurba_marseille","lat":43.31318,"lon":5.39692,"is_reserved":false,"is_disabled":false,"rental_uris":{"android":"levelo://app?vid=168be0c8-f75b-4c5c-8dc3-70c6c785c00e","ios":"levelo://app?vid=168be0c8-f75b-4c5c-8dc3-70c6c785c00e"},"vehicle_type_id":"4","last_reported":1685639161,"current_range_meters":16000,"station_id":"ce4bgvp2rcd13ifvqcu0","pricing_plan_id":"free"},{"bike_id":"3871b0dc-3f34-488b-b4c2-db9507548d89","system_id":"levelo_inurba_marseille","lat":43.309038,"lon":5.396546,"is_reserved":false,"is_disabled":false,"rental_uris":{"android":"levelo://app?vid=3871b0dc-3f34-488b-b4c2-db9507548d89","ios":"levelo://app?vid=3871b0dc-3f34-488b-b4c2-db9507548d89"},"vehicle_type_id":"4","last_reported":1685639161,"current_range_meters":10800,"station_id":"ce4bh012rcd13ifvqcv0","pricing_plan_id":"free"},{"bike_id":"869ca85c-098e-499b-8978-4b1e0ef991e1","system_id":"levelo_inurba_marseille","lat":43.313291,"lon":5.396838,"is_reserved":false,"is_disabled":false,"rental_uris":{"android":"levelo://app?vid=869ca85c-098e-499b-8978-4b1e0ef991e1","ios":"levelo://app?vid=869ca85c-098e-499b-8978-4b1e0ef991e1"},"vehicle_type_id":"4","last_reported":1685639161,"current_range_meters":10000,"station_id":"ce4bgvp2rcd13ifvqcu0","pricing_plan_id":"free"},{"bike_id":"37713633-0c35-4f86-af32-61b58117d3c3","system_id":"levelo_inurba_marseille","lat":43.31327,"lon":5.39698,"is_reserved":false,"is_disabled":false,"rental_uris":{"android":"levelo://app?vid=37713633-0c35-4f86-af32-61b58117d3c3","ios":"levelo://app?vid=37713633-0c35-4f86-af32-61b58117d3c3"},"vehicle_type_id":"4","last_reported":1685639161,"current_range_meters":400,"station_id":"ce4bgvp2rcd13ifvqcu0","pricing_plan_id":"free"},{"bike_id":"bd28f4b2-2268-43ef-a941-61bdb4f01a0e","system_id":"levelo_inurba_marseille","lat":43.309038,"lon":5.396546,"is_reserved":false,"is_disabled":false,"rental_uris":{"android":"levelo://app?vid=bd28f4b2-2268-43ef-a941-61bdb4f01a0e","ios":"levelo://app?vid=bd28f4b2-2268-43ef-a941-61bdb4f01a0e"},"vehicle_type_id":"4","last_reported":1685639161,"current_range_meters":1600,"station_id":"ce4bh012rcd13ifvqcv0","pricing_plan_id":"free"},{"bike_id":"d7770e55-3a98-4737-8cd1-2b091a5cb976","system_id":"levelo_inurba_marseille","lat":43.309038,"lon":5.396546,"is_reserved":false,"is_disabled":false,"rental_uris":{"android":"levelo://app?vid=d7770e55-3a98-4737-8cd1-2b091a5cb976","ios":"levelo://app?vid=d7770e55-3a98-4737-8cd1-2b091a5cb976"},"vehicle_type_id":"4","last_reported":1685639161,"current_range_meters":16800,"station_id":"ce4bh012rcd13ifvqcv0","pricing_plan_id":"free"},{"bike_id":"e9278c7e-5eb7-4059-96d6-7aeb978a038e","system_id":"levelo_inurba_marseille","lat":43.309038,"lon":5.396546,"is_reserved":false,"is_disabled":false,"rental_uris":{"android":"levelo://app?vid=e9278c7e-5eb7-4059-96d6-7aeb978a038e","ios":"levelo://app?vid=e9278c7e-5eb7-4059-96d6-7aeb978a038e"},"vehicle_type_id":"4","last_reported":1685639161,"current_range_meters":10800,"station_id":"ce4bh012rcd13ifvqcv0","pricing_plan_id":"free"},{"bike_id":"cbf886a1-2d6f-4d2b-8821-7aea95bc8638","system_id":"levelo_inurba_marseille","lat":43.29529,"lon":5.385581,"is_reserved":false,"is_disabled":false,"rental_uris":{"android":"levelo://app?vid=cbf886a1-2d6f-4d2b-8821-7aea95bc8638","ios":"levelo://app?vid=cbf886a1-2d6f-4d2b-8821-7aea95bc8638"},"vehicle_type_id":"4","last_reported":1685639161,"current_range_meters":19600,"station_id":"ce4bgih2rcd13ifvqba0","pricing_plan_id":"free"},{"bike_id":"9165626a-33ff-4dbe-a505-92c639cd453d","system_id":"levelo_inurba_marseille","lat":43.302008,"lon":5.394694,"is_reserved":false,"is_disabled":false,"rental_uris":{"android":"levelo://app?vid=9165626a-33ff-4dbe-a505-92c639cd453d","ios":"levelo://app?vid=9165626a-33ff-4dbe-a505-92c639cd453d"},"vehicle_type_id":"4","last_reported":1685639161,"current_range_meters":19600,"station_id":"ce4bh0p2rcd13ifvqd70","pricing_plan_id":"free"},{"bike_id":"5a732246-ced9-4f07-8176-6fa88434f888","system_id":"levelo_inurba_marseille","lat":43.302008,"lon":5.394694,"is_reserved":false,"is_disabled":false,"rental_uris":{"android":"levelo://app?vid=5a732246-ced9-4f07-8176-6fa88434f888","ios":"levelo://app?vid=5a732246-ced9-4f07-8176-6fa88434f888"},"vehicle_type_id":"4","last_reported":1685639161,"current_range_meters":15600,"station_id":"ce4bh0p2rcd13ifvqd70","pricing_plan_id":"free"},{"bike_id":"6d2d282d-a941-42da-b918-d796e67899bc","system_id":"levelo_inurba_marseille","lat":43.294208,"lon":5.386211,"is_reserved":false,"is_disabled":false,"rental_uris":{"android":"levelo://app?vid=6d2d282d-a941-42da-b918-d796e67899bc","ios":"levelo://app?vid=6d2d282d-a941-42da-b918-d796e67899bc"},"vehicle_type_id":"4","last_reported":1685639161,"current_range_meters":28000,"station_id":"","pricing_plan_id":"free"},{"bike_id":"8a9f145b-0685-4160-8904-d2cc09b2bbeb","system_id":"levelo_inurba_marseille","lat":43.290327,"lon":5.375711,"is_reserved":false,"is_disabled":false,"rental_uris":{"android":"levelo://app?vid=8a9f145b-0685-4160-8904-d2cc09b2bbeb","ios":"levelo://app?vid=8a9f145b-0685-4160-8904-d2cc09b2bbeb"},"vehicle_type_id":"4","last_reported":1685639161,"current_range_meters":18400,"station_id":"ce4bh692rcd13ifvqe90","pricing_plan_id":"free"},{"bike_id":"4a8ff4b4-d959-46c3-91ab-e1b41c105dfa","system_id":"levelo_inurba_marseille","lat":43.294153,"lon":5.386305,"is_reserved":false,"is_disabled":false,"rental_uris":{"android":"levelo://app?vid=4a8ff4b4-d959-46c3-91ab-e1b41c105dfa","ios":"levelo://app?vid=4a8ff4b4-d959-46c3-91ab-e1b41c105dfa"},"vehicle_type_id":"4","last_reported":1685639161,"current_range_meters":31200,"station_id":"ce4bh2h2rcd13ifvqdh0","pricing_plan_id":"free"},{"bike_id":"233a968f-8c5b-4f25-9771-399492beb67e","system_id":"levelo_inurba_marseille","lat":43.294153,"lon":5.386305,"is_reserved":false,"is_disabled":false,"rental_uris":{"android":"levelo://app?vid=233a968f-8c5b-4f25-9771-399492beb67e","ios":"levelo://app?vid=233a968f-8c5b-4f25-9771-399492beb67e"},"vehicle_type_id":"4","last_reported":1685639161,"current_range_meters":31200,"station_id":"ce4bh2h2rcd13ifvqdh0","pricing_plan_id":"free"},{"bike_id":"d9b20f27-2eb4-4424-83d7-4cbaf761f4d0","system_id":"levelo_inurba_marseille","lat":43.294162,"lon":5.386292,"is_reserved":false,"is_disabled":false,"rental_uris":{"android":"levelo://app?vid=d9b20f27-2eb4-4424-83d7-4cbaf761f4d0","ios":"levelo://app?vid=d9b20f27-2eb4-4424-83d7-4cbaf761f4d0"},"vehicle_type_id":"4","last_reported":1685639161,"current_range_meters":31200,"station_id":"ce4bh2h2rcd13ifvqdh0","pricing_plan_id":"free"},{"bike_id":"48d173ff-26b8-46e9-ae5e-90e5c2abac1d","system_id":"levelo_inurba_marseille","lat":43.294162,"lon":5.386292,"is_reserved":false,"is_disabled":false,"rental_uris":{"android":"levelo://app?vid=48d173ff-26b8-46e9-ae5e-90e5c2abac1d","ios":"levelo://app?vid=48d173ff-26b8-46e9-ae5e-90e5c2abac1d"},"vehicle_type_id":"4","last_reported":1685639161,"current_range_meters":31200,"station_id":"ce4bh2h2rcd13ifvqdh0","pricing_plan_id":"free"},{"bike_id":"74d23ae3-1e1b-45d2-9397-fde86cdfbdd0","system_id":"levelo_inurba_marseille","lat":43.289468,"lon":5.363719,"is_reserved":false,"is_disabled":false,"rental_uris":{"android":"levelo://app?vid=74d23ae3-1e1b-45d2-9397-fde86cdfbdd0","ios":"levelo://app?vid=74d23ae3-1e1b-45d2-9397-fde86cdfbdd0"},"vehicle_type_id":"4","last_reported":1685639161,"current_range_meters":5200,"station_id":"ce4bhc92rcd13ifvqetg","pricing_plan_id":"free"},{"bike_id":"bb9f9126-10e6-4487-bbda-28ca2fbab75c","system_id":"levelo_inurba_marseille","lat":43.292642,"lon":5.384254,"is_reserved":false,"is_disabled":false,"rental_uris":{"android":"levelo://app?vid=bb9f9126-10e6-4487-bbda-28ca2fbab75c","ios":"levelo://app?vid=bb9f9126-10e6-4487-bbda-28ca2fbab75c"},"vehicle_type_id":"4","last_reported":1685639161,"current_range_meters":15200,"station_id":"ce4bh692rcd13ifvqea0","pricing_plan_id":"free"},{"bike_id":"8b633111-bb72-4b44-9f50-b5066a2fed5e","system_id":"levelo_inurba_marseille","lat":43.292644,"lon":5.384257,"is_reserved":false,"is_disabled":false,"rental_uris":{"android":"levelo://app?vid=8b633111-bb72-4b44-9f50-b5066a2fed5e","ios":"levelo://app?vid=8b633111-bb72-4b44-9f50-b5066a2fed5e"},"vehicle_type_id":"4","last_reported":1685639161,"current_range_meters":25600,"station_id":"ce4bh692rcd13ifvqea0","pricing_plan_id":"free"},{"bike_id":"28c97719-0466-4d01-b4fb-73e1983f7773","system_id":"levelo_inurba_marseille","lat":43.292642,"lon":5.384254,"is_reserved":false,"is_disabled":false,"rental_uris":{"android":"levelo://app?vid=28c97719-0466-4d01-b4fb-73e1983f7773","ios":"levelo://app?vid=28c97719-0466-4d01-b4fb-73e1983f7773"},"vehicle_type_id":"4","last_reported":1685639161,"current_range_meters":5600,"station_id":"ce4bh692rcd13ifvqea0","pricing_plan_id":"free"},{"bike_id":"e6d525be-266d-470f-a031-9c387e7a6e93","system_id":"levelo_inurba_marseille","lat":43.29266,"lon":5.38454,"is_reserved":false,"is_disabled":false,"rental_uris":{"android":"levelo://app?vid=e6d525be-266d-470f-a031-9c387e7a6e93","ios":"levelo://app?vid=e6d525be-266d-470f-a031-9c387e7a6e93"},"vehicle_type_id":"4","last_reported":1685639161,"current_range_meters":3200,"station_id":"ce4bh692rcd13ifvqea0","pricing_plan_id":"free"},{"bike_id":"23f89c34-b72c-46d9-88ca-cc3cc66c2925","system_id":"levelo_inurba_marseille","lat":43.29269,"lon":5.38464,"is_reserved":false,"is_disabled":false,"rental_uris":{"android":"levelo://app?vid=23f89c34-b72c-46d9-88ca-cc3cc66c2925","ios":"levelo://app?vid=23f89c34-b72c-46d9-88ca-cc3cc66c2925"},"vehicle_type_id":"4","last_reported":1685639161,"current_range_meters":12400,"station_id":"","pricing_plan_id":"free"},{"bike_id":"bdb25b0d-1bb6-4f0b-96d7-d0acab5aba78","system_id":"levelo_inurba_marseille","lat":43.290104,"lon":5.356111,"is_reserved":false,"is_disabled":false,"rental_uris":{"android":"levelo://app?vid=bdb25b0d-1bb6-4f0b-96d7-d0acab5aba78","ios":"levelo://app?vid=bdb25b0d-1bb6-4f0b-96d7-d0acab5aba78"},"vehicle_type_id":"4","last_reported":1685639161,"current_range_meters":2800,"station_id":"ce4bhb92rcd13ifvqen0","pricing_plan_id":"free"},{"bike_id":"c9bb370f-45ce-4792-8fad-6f313c15f518","system_id":"levelo_inurba_marseille","lat":43.290104,"lon":5.356111,"is_reserved":false,"is_disabled":false,"rental_uris":{"android":"levelo://app?vid=c9bb370f-45ce-4792-8fad-6f313c15f518","ios":"levelo://app?vid=c9bb370f-45ce-4792-8fad-6f313c15f518"},"vehicle_type_id":"4","last_reported":1685639161,"current_range_meters":26800,"station_id":"ce4bhb92rcd13ifvqen0","pricing_plan_id":"free"},{"bike_id":"91ce591a-7961-45d6-8907-9426f35ab131","system_id":"levelo_inurba_marseille","lat":43.33003,"lon":5.39026,"is_reserved":false,"is_disabled":false,"rental_uris":{"android":"levelo://app?vid=91ce591a-7961-45d6-8907-9426f35ab131","ios":"levelo://app?vid=91ce591a-7961-45d6-8907-9426f35ab131"},"vehicle_type_id":"4","last_reported":1685639161,"current_range_meters":24400,"station_id":"ce4bhr92rcd13ifvqhrg","pricing_plan_id":"free"},{"bike_id":"2a288211-1acb-4258-92cb-0ed19fdee627","system_id":"levelo_inurba_marseille","lat":43.295169,"lon":5.390426,"is_reserved":false,"is_disabled":false,"rental_uris":{"android":"levelo://app?vid=2a288211-1acb-4258-92cb-0ed19fdee627","ios":"levelo://app?vid=2a288211-1acb-4258-92cb-0ed19fdee627"},"vehicle_type_id":"4","last_reported":1685639161,"current_range_meters":0,"station_id":"ce4bh3p2rcd13ifvqdp0","pricing_plan_id":"free"},{"bike_id":"ff81665f-f3b8-43e6-9213-f79dddeb67b5","system_id":"levelo_inurba_marseille","lat":43.289743,"lon":5.378304,"is_reserved":false,"is_disabled":false,"rental_uris":{"android":"levelo://app?vid=ff81665f-f3b8-43e6-9213-f79dddeb67b5","ios":"levelo://app?vid=ff81665f-f3b8-43e6-9213-f79dddeb67b5"},"vehicle_type_id":"4","last_reported":1685639161,"current_range_meters":17600,"station_id":"ce4bh9p2rcd13ifvqed0","pricing_plan_id":"free"},{"bike_id":"e112db07-6072-4b87-89eb-25d6797a6643","system_id":"levelo_inurba_marseille","lat":43.295169,"lon":5.390426,"is_reserved":false,"is_disabled":false,"rental_uris":{"android":"levelo://app?vid=e112db07-6072-4b87-89eb-25d6797a6643","ios":"levelo://app?vid=e112db07-6072-4b87-89eb-25d6797a6643"},"vehicle_type_id":"4","last_reported":1685639161,"current_range_meters":7200,"station_id":"ce4bh3p2rcd13ifvqdp0","pricing_plan_id":"free"},{"bike_id":"4e4dd3df-49ae-498a-99e6-641ac79930ee","system_id":"levelo_inurba_marseille","lat":43.295169,"lon":5.390426,"is_reserved":false,"is_disabled":false,"rental_uris":{"android":"levelo://app?vid=4e4dd3df-49ae-498a-99e6-641ac79930ee","ios":"levelo://app?vid=4e4dd3df-49ae-498a-99e6-641ac79930ee"},"vehicle_type_id":"4","last_reported":1685639161,"current_range_meters":16000,"station_id":"ce4bh3p2rcd13ifvqdp0","pricing_plan_id":"free"},{"bike_id":"54c4e56d-5386-4649-92cd-be8f564c4159","system_id":"levelo_inurba_marseille","lat":43.295169,"lon":5.390426,"is_reserved":false,"is_disabled":false,"rental_uris":{"android":"levelo://app?vid=54c4e56d-5386-4649-92cd-be8f564c4159","ios":"levelo://app?vid=54c4e56d-5386-4649-92cd-be8f564c4159"},"vehicle_type_id":"4","last_reported":1685639161,"current_range_meters":800,"station_id":"ce4bh3p2rcd13ifvqdp0","pricing_plan_id":"free"},{"bike_id":"0dc5dc73-67f0-417b-9664-52b0e9a86b4e","system_id":"levelo_inurba_marseille","lat":43.295169,"lon":5.390426,"is_reserved":false,"is_disabled":false,"rental_uris":{"android":"levelo://app?vid=0dc5dc73-67f0-417b-9664-52b0e9a86b4e","ios":"levelo://app?vid=0dc5dc73-67f0-417b-9664-52b0e9a86b4e"},"vehicle_type_id":"4","last_reported":1685639161,"current_range_meters":0,"station_id":"ce4bh3p2rcd13ifvqdp0","pricing_plan_id":"free"},{"bike_id":"bfa492a7-9cc7-4e1c-9b3a-41e093d45bc7","system_id":"levelo_inurba_marseille","lat":43.28856,"lon":5.358371,"is_reserved":false,"is_disabled":false,"rental_uris":{"android":"levelo://app?vid=bfa492a7-9cc7-4e1c-9b3a-41e093d45bc7","ios":"levelo://app?vid=bfa492a7-9cc7-4e1c-9b3a-41e093d45bc7"},"vehicle_type_id":"4","last_reported":1685639161,"current_range_meters":19600,"station_id":"ce4bhb12rcd13ifvqem0","pricing_plan_id":"free"},{"bike_id":"98b254c8-39cd-4244-b714-e83ea38b0768","system_id":"levelo_inurba_marseille","lat":43.28856,"lon":5.358371,"is_reserved":false,"is_disabled":false,"rental_uris":{"android":"levelo://app?vid=98b254c8-39cd-4244-b714-e83ea38b0768","ios":"levelo://app?vid=98b254c8-39cd-4244-b714-e83ea38b0768"},"vehicle_type_id":"4","last_reported":1685639161,"current_range_meters":24000,"station_id":"ce4bhb12rcd13ifvqem0","pricing_plan_id":"free"},{"bike_id":"0bf36780-0b62-445b-8b64-24e12df6f8a5","system_id":"levelo_inurba_marseille","lat":43.33753,"lon":5.37458,"is_reserved":false,"is_disabled":false,"rental_uris":{"android":"levelo://app?vid=0bf36780-0b62-445b-8b64-24e12df6f8a5","ios":"levelo://app?vid=0bf36780-0b62-445b-8b64-24e12df6f8a5"},"vehicle_type_id":"4","last_reported":1685639161,"current_range_meters":31200,"station_id":"","pricing_plan_id":"free"},{"bike_id":"e3055748-2c4d-4c76-b22f-2bbffafdb994","system_id":"levelo_inurba_marseille","lat":43.30649,"lon":5.40084,"is_reserved":false,"is_disabled":false,"rental_uris":{"android":"levelo://app?vid=e3055748-2c4d-4c76-b22f-2bbffafdb994","ios":"levelo://app?vid=e3055748-2c4d-4c76-b22f-2bbffafdb994"},"vehicle_type_id":"4","last_reported":1685639161,"current_range_meters":0,"station_id":"ce4bh112rcd13ifvqda0","pricing_plan_id":"free"},{"bike_id":"178c8f48-bd41-4e96-a8d8-8f6b997a2dd2","system_id":"levelo_inurba_marseille","lat":43.298681,"lon":5.397225,"is_reserved":false,"is_disabled":false,"rental_uris":{"android":"levelo://app?vid=178c8f48-bd41-4e96-a8d8-8f6b997a2dd2","ios":"levelo://app?vid=178c8f48-bd41-4e96-a8d8-8f6b997a2dd2"},"vehicle_type_id":"4","last_reported":1685639161,"current_range_meters":24000,"station_id":"ce4bh0h2rcd13ifvqd50","pricing_plan_id":"free"},{"bike_id":"4620af10-c958-4cb6-bfc4-1f20caab5a6a","system_id":"levelo_inurba_marseille","lat":43.301117,"lon":5.398795,"is_reserved":false,"is_disabled":false,"rental_uris":{"android":"levelo://app?vid=4620af10-c958-4cb6-bfc4-1f20caab5a6a","ios":"levelo://app?vid=4620af10-c958-4cb6-bfc4-1f20caab5a6a"},"vehicle_type_id":"4","last_reported":1685639161,"current_range_meters":8800,"station_id":"ce4bh0h2rcd13ifvqd40","pricing_plan_id":"free"},{"bike_id":"23dbcd58-1bb7-4441-8d8e-b097a65aa122","system_id":"levelo_inurba_marseille","lat":43.298681,"lon":5.397225,"is_reserved":false,"is_disabled":false,"rental_uris":{"android":"levelo://app?vid=23dbcd58-1bb7-4441-8d8e-b097a65aa122","ios":"levelo://app?vid=23dbcd58-1bb7-4441-8d8e-b097a65aa122"},"vehicle_type_id":"4","last_reported":1685639161,"current_range_meters":10000,"station_id":"ce4bh0h2rcd13ifvqd50","pricing_plan_id":"free"},{"bike_id":"1f78b9a6-5f98-4ba4-bdc0-6c9ce0331b5e","system_id":"levelo_inurba_marseille","lat":43.28922,"lon":5.38263,"is_reserved":false,"is_disabled":false,"rental_uris":{"android":"levelo://app?vid=1f78b9a6-5f98-4ba4-bdc0-6c9ce0331b5e","ios":"levelo://app?vid=1f78b9a6-5f98-4ba4-bdc0-6c9ce0331b5e"},"vehicle_type_id":"4","last_reported":1685639161,"current_range_meters":6000,"station_id":"","pricing_plan_id":"free"},{"bike_id":"8b60a683-5c4f-44c3-837c-8d42a2157cfa","system_id":"levelo_inurba_marseille","lat":43.286591,"lon":5.363346,"is_reserved":false,"is_disabled":false,"rental_uris":{"android":"levelo://app?vid=8b60a683-5c4f-44c3-837c-8d42a2157cfa","ios":"levelo://app?vid=8b60a683-5c4f-44c3-837c-8d42a2157cfa"},"vehicle_type_id":"4","last_reported":1685639161,"current_range_meters":0,"station_id":"ce4bhah2rcd13ifvqej0","pricing_plan_id":"free"},{"bike_id":"fc53df01-2e82-425e-a442-dd0e35ed341e","system_id":"levelo_inurba_marseille","lat":43.298681,"lon":5.397225,"is_reserved":false,"is_disabled":false,"rental_uris":{"android":"levelo://app?vid=fc53df01-2e82-425e-a442-dd0e35ed341e","ios":"levelo://app?vid=fc53df01-2e82-425e-a442-dd0e35ed341e"},"vehicle_type_id":"4","last_reported":1685639161,"current_range_meters":24400,"station_id":"ce4bh0h2rcd13ifvqd50","pricing_plan_id":"free"},{"bike_id":"1d488c44-22c5-45ec-aebd-c3e8579c3965","system_id":"levelo_inurba_marseille","lat":43.298681,"lon":5.397225,"is_reserved":false,"is_disabled":false,"rental_uris":{"android":"levelo://app?vid=1d488c44-22c5-45ec-aebd-c3e8579c3965","ios":"levelo://app?vid=1d488c44-22c5-45ec-aebd-c3e8579c3965"},"vehicle_type_id":"4","last_reported":1685639161,"current_range_meters":3600,"station_id":"ce4bh0h2rcd13ifvqd50","pricing_plan_id":"free"},{"bike_id":"28a6540d-424b-4705-838b-dd76f7c269aa","system_id":"levelo_inurba_marseille","lat":43.298681,"lon":5.397225,"is_reserved":false,"is_disabled":false,"rental_uris":{"android":"levelo://app?vid=28a6540d-424b-4705-838b-dd76f7c269aa","ios":"levelo://app?vid=28a6540d-424b-4705-838b-dd76f7c269aa"},"vehicle_type_id":"4","last_reported":1685639161,"current_range_meters":21200,"station_id":"ce4bh0h2rcd13ifvqd50","pricing_plan_id":"free"},{"bike_id":"e4e075ed-be92-489f-8a0b-6d8a9b9b1d2e","system_id":"levelo_inurba_marseille","lat":43.28701,"lon":5.37397,"is_reserved":false,"is_disabled":false,"rental_uris":{"android":"levelo://app?vid=e4e075ed-be92-489f-8a0b-6d8a9b9b1d2e","ios":"levelo://app?vid=e4e075ed-be92-489f-8a0b-6d8a9b9b1d2e"},"vehicle_type_id":"4","last_reported":1685639161,"current_range_meters":16800,"station_id":"","pricing_plan_id":"free"},{"bike_id":"8f188c55-1c47-4fb6-8363-3afb2575398c","system_id":"levelo_inurba_marseille","lat":43.295194,"lon":5.39397,"is_reserved":false,"is_disabled":false,"rental_uris":{"android":"levelo://app?vid=8f188c55-1c47-4fb6-8363-3afb2575398c","ios":"levelo://app?vid=8f188c55-1c47-4fb6-8363-3afb2575398c"},"vehicle_type_id":"4","last_reported":1685639161,"current_range_meters":0,"station_id":"ce4bh292rcd13ifvqdf0","pricing_plan_id":"free"},{"bike_id":"e32f5283-38df-45dc-ae57-d2928a40ff37","system_id":"levelo_inurba_marseille","lat":43.295196,"lon":5.39397,"is_reserved":false,"is_disabled":false,"rental_uris":{"android":"levelo://app?vid=e32f5283-38df-45dc-ae57-d2928a40ff37","ios":"levelo://app?vid=e32f5283-38df-45dc-ae57-d2928a40ff37"},"vehicle_type_id":"4","last_reported":1685639161,"current_range_meters":22800,"station_id":"ce4bh292rcd13ifvqdf0","pricing_plan_id":"free"},{"bike_id":"4be15b90-a9e6-43d4-b55b-e994b0c4bc7b","system_id":"levelo_inurba_marseille","lat":43.29522,"lon":5.39405,"is_reserved":false,"is_disabled":false,"rental_uris":{"android":"levelo://app?vid=4be15b90-a9e6-43d4-b55b-e994b0c4bc7b","ios":"levelo://app?vid=4be15b90-a9e6-43d4-b55b-e994b0c4bc7b"},"vehicle_type_id":"4","last_reported":1685639161,"current_range_meters":1200,"station_id":"ce4bh292rcd13ifvqdf0","pricing_plan_id":"free"},{"bike_id":"ec62f3c7-5557-490c-948f-6327a42129c4","system_id":"levelo_inurba_marseille","lat":43.29515,"lon":5.39399,"is_reserved":false,"is_disabled":false,"rental_uris":{"android":"levelo://app?vid=ec62f3c7-5557-490c-948f-6327a42129c4","ios":"levelo://app?vid=ec62f3c7-5557-490c-948f-6327a42129c4"},"vehicle_type_id":"4","last_reported":1685639161,"current_range_meters":18400,"station_id":"ce4bh292rcd13ifvqdf0","pricing_plan_id":"free"},{"bike_id":"2ae7ef79-5b39-4007-937b-5c1359f8a2cd","system_id":"levelo_inurba_marseille","lat":43.295194,"lon":5.39397,"is_reserved":false,"is_disabled":false,"rental_uris":{"android":"levelo://app?vid=2ae7ef79-5b39-4007-937b-5c1359f8a2cd","ios":"levelo://app?vid=2ae7ef79-5b39-4007-937b-5c1359f8a2cd"},"vehicle_type_id":"4","last_reported":1685639161,"current_range_meters":23200,"station_id":"ce4bh292rcd13ifvqdf0","pricing_plan_id":"free"},{"bike_id":"09991529-b275-472f-bc75-17a7ec5889b5","system_id":"levelo_inurba_marseille","lat":43.29511,"lon":5.39398,"is_reserved":false,"is_disabled":false,"rental_uris":{"android":"levelo://app?vid=09991529-b275-472f-bc75-17a7ec5889b5","ios":"levelo://app?vid=09991529-b275-472f-bc75-17a7ec5889b5"},"vehicle_type_id":"4","last_reported":1685639161,"current_range_meters":21600,"station_id":"ce4bh292rcd13ifvqdf0","pricing_plan_id":"free"},{"bike_id":"5370a79f-f1b7-4191-99a0-437f1ce25495","system_id":"levelo_inurba_marseille","lat":43.29513,"lon":5.39401,"is_reserved":false,"is_disabled":false,"rental_uris":{"android":"levelo://app?vid=5370a79f-f1b7-4191-99a0-437f1ce25495","ios":"levelo://app?vid=5370a79f-f1b7-4191-99a0-437f1ce25495"},"vehicle_type_id":"4","last_reported":1685639161,"current_range_meters":28000,"station_id":"ce4bh292rcd13ifvqdf0","pricing_plan_id":"free"},{"bike_id":"1e11bdbd-0350-44b3-bb5b-160439442b95","system_id":"levelo_inurba_marseille","lat":43.295194,"lon":5.39397,"is_reserved":false,"is_disabled":false,"rental_uris":{"android":"levelo://app?vid=1e11bdbd-0350-44b3-bb5b-160439442b95","ios":"levelo://app?vid=1e11bdbd-0350-44b3-bb5b-160439442b95"},"vehicle_type_id":"4","last_reported":1685639161,"current_range_meters":22000,"station_id":"ce4bh292rcd13ifvqdf0","pricing_plan_id":"free"},{"bike_id":"a0d508c4-49e2-4291-8428-f19e943a8d7b","system_id":"levelo_inurba_marseille","lat":43.302759,"lon":5.400793,"is_reserved":false,"is_disabled":false,"rental_uris":{"android":"levelo://app?vid=a0d508c4-49e2-4291-8428-f19e943a8d7b","ios":"levelo://app?vid=a0d508c4-49e2-4291-8428-f19e943a8d7b"},"vehicle_type_id":"4","last_reported":1685639161,"current_range_meters":2000,"station_id":"ce4bgvh2rcd13ifvqcs0","pricing_plan_id":"free"},{"bike_id":"be3e3271-6228-41c0-baf0-eab5ae60aed5","system_id":"levelo_inurba_marseille","lat":43.302759,"lon":5.400793,"is_reserved":false,"is_disabled":false,"rental_uris":{"android":"levelo://app?vid=be3e3271-6228-41c0-baf0-eab5ae60aed5","ios":"levelo://app?vid=be3e3271-6228-41c0-baf0-eab5ae60aed5"},"vehicle_type_id":"4","last_reported":1685639161,"current_range_meters":16000,"station_id":"ce4bgvh2rcd13ifvqcs0","pricing_plan_id":"free"},{"bike_id":"aed0c987-b38f-4193-a204-80a5b8160886","system_id":"levelo_inurba_marseille","lat":43.302759,"lon":5.400793,"is_reserved":false,"is_disabled":false,"rental_uris":{"android":"levelo://app?vid=aed0c987-b38f-4193-a204-80a5b8160886","ios":"levelo://app?vid=aed0c987-b38f-4193-a204-80a5b8160886"},"vehicle_type_id":"4","last_reported":1685639161,"current_range_meters":0,"station_id":"ce4bgvh2rcd13ifvqcs0","pricing_plan_id":"free"},{"bike_id":"1284ecd2-0c6d-46d2-ad60-8fe205a073f8","system_id":"levelo_inurba_marseille","lat":43.302759,"lon":5.400793,"is_reserved":false,"is_disabled":false,"rental_uris":{"android":"levelo://app?vid=1284ecd2-0c6d-46d2-ad60-8fe205a073f8","ios":"levelo://app?vid=1284ecd2-0c6d-46d2-ad60-8fe205a073f8"},"vehicle_type_id":"4","last_reported":1685639161,"current_range_meters":17600,"station_id":"ce4bgvh2rcd13ifvqcs0","pricing_plan_id":"free"},{"bike_id":"2dc2a962-1027-48a3-bd2b-1e5bdad9f286","system_id":"levelo_inurba_marseille","lat":43.290336,"lon":5.386425,"is_reserved":false,"is_disabled":false,"rental_uris":{"android":"levelo://app?vid=2dc2a962-1027-48a3-bd2b-1e5bdad9f286","ios":"levelo://app?vid=2dc2a962-1027-48a3-bd2b-1e5bdad9f286"},"vehicle_type_id":"4","last_reported":1685639161,"current_range_meters":0,"station_id":"ce4bh4p2rcd13ifvqe0g","pricing_plan_id":"free"},{"bike_id":"f3c34768-0292-4601-adcc-46abe812368d","system_id":"levelo_inurba_marseille","lat":43.290336,"lon":5.386425,"is_reserved":false,"is_disabled":false,"rental_uris":{"android":"levelo://app?vid=f3c34768-0292-4601-adcc-46abe812368d","ios":"levelo://app?vid=f3c34768-0292-4601-adcc-46abe812368d"},"vehicle_type_id":"4","last_reported":1685639161,"current_range_meters":21200,"station_id":"ce4bh4p2rcd13ifvqe0g","pricing_plan_id":"free"},{"bike_id":"f13f3ef3-b030-4d4c-af57-7549ef9f5bbe","system_id":"levelo_inurba_marseille","lat":43.29028,"lon":5.38648,"is_reserved":false,"is_disabled":false,"rental_uris":{"android":"levelo://app?vid=f13f3ef3-b030-4d4c-af57-7549ef9f5bbe","ios":"levelo://app?vid=f13f3ef3-b030-4d4c-af57-7549ef9f5bbe"},"vehicle_type_id":"4","last_reported":1685639161,"current_range_meters":0,"station_id":"ce4bh4p2rcd13ifvqe0g","pricing_plan_id":"free"},{"bike_id":"e97a4713-305e-4c34-b390-dcbd298e92bb","system_id":"levelo_inurba_marseille","lat":43.286039,"lon":5.370679,"is_reserved":false,"is_disabled":false,"rental_uris":{"android":"levelo://app?vid=e97a4713-305e-4c34-b390-dcbd298e92bb","ios":"levelo://app?vid=e97a4713-305e-4c34-b390-dcbd298e92bb"},"vehicle_type_id":"4","last_reported":1685639161,"current_range_meters":11600,"station_id":"ce4bht12rcd13ifvqi60","pricing_plan_id":"free"},{"bike_id":"d863f2ff-13b1-4007-9d31-6c354f301be5","system_id":"levelo_inurba_marseille","lat":43.287184,"lon":5.37937,"is_reserved":false,"is_disabled":false,"rental_uris":{"android":"levelo://app?vid=d863f2ff-13b1-4007-9d31-6c354f301be5","ios":"levelo://app?vid=d863f2ff-13b1-4007-9d31-6c354f301be5"},"vehicle_type_id":"4","last_reported":1685639161,"current_range_meters":18800,"station_id":"ce4bh9p2rcd13ifvqec0","pricing_plan_id":"free"},{"bike_id":"409c8914-5556-44aa-a9c4-5331b63e430e","system_id":"levelo_inurba_marseille","lat":43.287184,"lon":5.37937,"is_reserved":false,"is_disabled":false,"rental_uris":{"android":"levelo://app?vid=409c8914-5556-44aa-a9c4-5331b63e430e","ios":"levelo://app?vid=409c8914-5556-44aa-a9c4-5331b63e430e"},"vehicle_type_id":"4","last_reported":1685639161,"current_range_meters":2800,"station_id":"ce4bh9p2rcd13ifvqec0","pricing_plan_id":"free"},{"bike_id":"78c57fcd-63a7-494c-9931-850687693313","system_id":"levelo_inurba_marseille","lat":43.31648,"lon":5.40436,"is_reserved":false,"is_disabled":false,"rental_uris":{"android":"levelo://app?vid=78c57fcd-63a7-494c-9931-850687693313","ios":"levelo://app?vid=78c57fcd-63a7-494c-9931-850687693313"},"vehicle_type_id":"4","last_reported":1685639161,"current_range_meters":27600,"station_id":"ce4bh012rcd13ifvqd00","pricing_plan_id":"free"},{"bike_id":"e344aceb-74f1-47ee-8303-55ac9bd1f411","system_id":"levelo_inurba_marseille","lat":43.291994,"lon":5.392907,"is_reserved":false,"is_disabled":false,"rental_uris":{"android":"levelo://app?vid=e344aceb-74f1-47ee-8303-55ac9bd1f411","ios":"levelo://app?vid=e344aceb-74f1-47ee-8303-55ac9bd1f411"},"vehicle_type_id":"4","last_reported":1685639161,"current_range_meters":20800,"station_id":"ce4bh192rcd13ifvqdd0","pricing_plan_id":"free"},{"bike_id":"7f87c024-e924-4cc5-9430-ccfd34db011e","system_id":"levelo_inurba_marseille","lat":43.291994,"lon":5.392907,"is_reserved":false,"is_disabled":false,"rental_uris":{"android":"levelo://app?vid=7f87c024-e924-4cc5-9430-ccfd34db011e","ios":"levelo://app?vid=7f87c024-e924-4cc5-9430-ccfd34db011e"},"vehicle_type_id":"4","last_reported":1685639161,"current_range_meters":8400,"station_id":"ce4bh192rcd13ifvqdd0","pricing_plan_id":"free"},{"bike_id":"3e7a6b39-861a-48c5-901a-b31ee9898358","system_id":"levelo_inurba_marseille","lat":43.291994,"lon":5.392907,"is_reserved":false,"is_disabled":false,"rental_uris":{"android":"levelo://app?vid=3e7a6b39-861a-48c5-901a-b31ee9898358","ios":"levelo://app?vid=3e7a6b39-861a-48c5-901a-b31ee9898358"},"vehicle_type_id":"4","last_reported":1685639161,"current_range_meters":30000,"station_id":"ce4bh192rcd13ifvqdd0","pricing_plan_id":"free"},{"bike_id":"b7191066-e714-433d-bcf7-13b937b87895","system_id":"levelo_inurba_marseille","lat":43.291994,"lon":5.392907,"is_reserved":false,"is_disabled":false,"rental_uris":{"android":"levelo://app?vid=b7191066-e714-433d-bcf7-13b937b87895","ios":"levelo://app?vid=b7191066-e714-433d-bcf7-13b937b87895"},"vehicle_type_id":"4","last_reported":1685639161,"current_range_meters":20800,"station_id":"ce4bh192rcd13ifvqdd0","pricing_plan_id":"free"},{"bike_id":"cfa4ba8d-24f3-46fb-9c3a-890048cf3835","system_id":"levelo_inurba_marseille","lat":43.284534,"lon":5.358662,"is_reserved":false,"is_disabled":false,"rental_uris":{"android":"levelo://app?vid=cfa4ba8d-24f3-46fb-9c3a-890048cf3835","ios":"levelo://app?vid=cfa4ba8d-24f3-46fb-9c3a-890048cf3835"},"vehicle_type_id":"4","last_reported":1685639161,"current_range_meters":6400,"station_id":"ce4bhah2rcd13ifvqei0","pricing_plan_id":"free"},{"bike_id":"d64a0415-4728-47eb-8d48-5ceb4225b13f","system_id":"levelo_inurba_marseille","lat":43.284534,"lon":5.358662,"is_reserved":false,"is_disabled":false,"rental_uris":{"android":"levelo://app?vid=d64a0415-4728-47eb-8d48-5ceb4225b13f","ios":"levelo://app?vid=d64a0415-4728-47eb-8d48-5ceb4225b13f"},"vehicle_type_id":"4","last_reported":1685639161,"current_range_meters":14400,"station_id":"ce4bhah2rcd13ifvqei0","pricing_plan_id":"free"},{"bike_id":"2b307dc2-3df4-4a1f-8b35-94ce57242489","system_id":"levelo_inurba_marseille","lat":43.284534,"lon":5.358662,"is_reserved":false,"is_disabled":false,"rental_uris":{"android":"levelo://app?vid=2b307dc2-3df4-4a1f-8b35-94ce57242489","ios":"levelo://app?vid=2b307dc2-3df4-4a1f-8b35-94ce57242489"},"vehicle_type_id":"4","last_reported":1685639161,"current_range_meters":4800,"station_id":"ce4bhah2rcd13ifvqei0","pricing_plan_id":"free"},{"bike_id":"756711bc-f084-4c87-8186-101bfff632f6","system_id":"levelo_inurba_marseille","lat":43.284534,"lon":5.358662,"is_reserved":false,"is_disabled":false,"rental_uris":{"android":"levelo://app?vid=756711bc-f084-4c87-8186-101bfff632f6","ios":"levelo://app?vid=756711bc-f084-4c87-8186-101bfff632f6"},"vehicle_type_id":"4","last_reported":1685639161,"current_range_meters":18800,"station_id":"ce4bhah2rcd13ifvqei0","pricing_plan_id":"free"},{"bike_id":"5bb02964-eccc-4fe2-a540-6e6c8596f4a8","system_id":"levelo_inurba_marseille","lat":43.284534,"lon":5.358662,"is_reserved":false,"is_disabled":false,"rental_uris":{"android":"levelo://app?vid=5bb02964-eccc-4fe2-a540-6e6c8596f4a8","ios":"levelo://app?vid=5bb02964-eccc-4fe2-a540-6e6c8596f4a8"},"vehicle_type_id":"4","last_reported":1685639161,"current_range_meters":0,"station_id":"ce4bhah2rcd13ifvqei0","pricing_plan_id":"free"},{"bike_id":"4bf3636e-3392-4ec8-85fc-15669c0db91c","system_id":"levelo_inurba_marseille","lat":43.284534,"lon":5.358662,"is_reserved":false,"is_disabled":false,"rental_uris":{"android":"levelo://app?vid=4bf3636e-3392-4ec8-85fc-15669c0db91c","ios":"levelo://app?vid=4bf3636e-3392-4ec8-85fc-15669c0db91c"},"vehicle_type_id":"4","last_reported":1685639161,"current_range_meters":29200,"station_id":"ce4bhah2rcd13ifvqei0","pricing_plan_id":"free"},{"bike_id":"7109744a-2e1f-42f2-a51c-3b3af3ac4a55","system_id":"levelo_inurba_marseille","lat":43.284534,"lon":5.358662,"is_reserved":false,"is_disabled":false,"rental_uris":{"android":"levelo://app?vid=7109744a-2e1f-42f2-a51c-3b3af3ac4a55","ios":"levelo://app?vid=7109744a-2e1f-42f2-a51c-3b3af3ac4a55"},"vehicle_type_id":"4","last_reported":1685639161,"current_range_meters":19200,"station_id":"ce4bhah2rcd13ifvqei0","pricing_plan_id":"free"},{"bike_id":"0310da0f-ab08-4a55-85aa-b54c6cee693d","system_id":"levelo_inurba_marseille","lat":43.284534,"lon":5.358662,"is_reserved":false,"is_disabled":false,"rental_uris":{"android":"levelo://app?vid=0310da0f-ab08-4a55-85aa-b54c6cee693d","ios":"levelo://app?vid=0310da0f-ab08-4a55-85aa-b54c6cee693d"},"vehicle_type_id":"4","last_reported":1685639161,"current_range_meters":25600,"station_id":"ce4bhah2rcd13ifvqei0","pricing_plan_id":"free"},{"bike_id":"7481e2dc-776e-4640-b55f-b8f349686acd","system_id":"levelo_inurba_marseille","lat":43.284534,"lon":5.358662,"is_reserved":false,"is_disabled":false,"rental_uris":{"android":"levelo://app?vid=7481e2dc-776e-4640-b55f-b8f349686acd","ios":"levelo://app?vid=7481e2dc-776e-4640-b55f-b8f349686acd"},"vehicle_type_id":"4","last_reported":1685639161,"current_range_meters":15600,"station_id":"ce4bhah2rcd13ifvqei0","pricing_plan_id":"free"},{"bike_id":"005a9805-2787-482b-87b7-6dec77dafd2b","system_id":"levelo_inurba_marseille","lat":43.285856,"lon":5.350771,"is_reserved":false,"is_disabled":false,"rental_uris":{"android":"levelo://app?vid=005a9805-2787-482b-87b7-6dec77dafd2b","ios":"levelo://app?vid=005a9805-2787-482b-87b7-6dec77dafd2b"},"vehicle_type_id":"4","last_reported":1685639161,"current_range_meters":24000,"station_id":"ce4bhch2rcd13ifvqeug","pricing_plan_id":"free"},{"bike_id":"5d562033-c94d-4ceb-8319-82f129f830db","system_id":"levelo_inurba_marseille","lat":43.295713,"lon":5.399639,"is_reserved":false,"is_disabled":false,"rental_uris":{"android":"levelo://app?vid=5d562033-c94d-4ceb-8319-82f129f830db","ios":"levelo://app?vid=5d562033-c94d-4ceb-8319-82f129f830db"},"vehicle_type_id":"4","last_reported":1685639161,"current_range_meters":26400,"station_id":"ce4bh312rcd13ifvqdj0","pricing_plan_id":"free"},{"bike_id":"5199b244-d3c4-409f-85ea-abccad8f1226","system_id":"levelo_inurba_marseille","lat":43.295713,"lon":5.399639,"is_reserved":false,"is_disabled":false,"rental_uris":{"android":"levelo://app?vid=5199b244-d3c4-409f-85ea-abccad8f1226","ios":"levelo://app?vid=5199b244-d3c4-409f-85ea-abccad8f1226"},"vehicle_type_id":"4","last_reported":1685639161,"current_range_meters":8400,"station_id":"ce4bh312rcd13ifvqdj0","pricing_plan_id":"free"},{"bike_id":"b36665cf-cbac-4f8f-9ba3-87f5b1ee2362","system_id":"levelo_inurba_marseille","lat":43.28668,"lon":5.38663,"is_reserved":false,"is_disabled":false,"rental_uris":{"android":"levelo://app?vid=b36665cf-cbac-4f8f-9ba3-87f5b1ee2362","ios":"levelo://app?vid=b36665cf-cbac-4f8f-9ba3-87f5b1ee2362"},"vehicle_type_id":"4","last_reported":1685639161,"current_range_meters":10000,"station_id":"ce4bh492rcd13ifvqdug","pricing_plan_id":"free"},{"bike_id":"b205e703-9cc6-479d-b47b-dcec15459f4d","system_id":"levelo_inurba_marseille","lat":43.32705,"lon":5.40367,"is_reserved":false,"is_disabled":false,"rental_uris":{"android":"levelo://app?vid=b205e703-9cc6-479d-b47b-dcec15459f4d","ios":"levelo://app?vid=b205e703-9cc6-479d-b47b-dcec15459f4d"},"vehicle_type_id":"4","last_reported":1685639161,"current_range_meters":25200,"station_id":"","pricing_plan_id":"free"},{"bike_id":"4ac22067-7624-4818-9791-d452bdb74d16","system_id":"levelo_inurba_marseille","lat":43.32281,"lon":5.40632,"is_reserved":false,"is_disabled":false,"rental_uris":{"android":"levelo://app?vid=4ac22067-7624-4818-9791-d452bdb74d16","ios":"levelo://app?vid=4ac22067-7624-4818-9791-d452bdb74d16"},"vehicle_type_id":"4","last_reported":1685639161,"current_range_meters":25200,"station_id":"","pricing_plan_id":"free"},{"bike_id":"6b6e6550-a570-4017-8c87-39e899e1fe64","system_id":"levelo_inurba_marseille","lat":43.33714,"lon":5.39193,"is_reserved":false,"is_disabled":false,"rental_uris":{"android":"levelo://app?vid=6b6e6550-a570-4017-8c87-39e899e1fe64","ios":"levelo://app?vid=6b6e6550-a570-4017-8c87-39e899e1fe64"},"vehicle_type_id":"4","last_reported":1685639161,"current_range_meters":4400,"station_id":"","pricing_plan_id":"free"},{"bike_id":"11e24285-9fee-4666-bf30-bbcc6d1fd00b","system_id":"levelo_inurba_marseille","lat":43.323464,"lon":5.406297,"is_reserved":false,"is_disabled":false,"rental_uris":{"android":"levelo://app?vid=11e24285-9fee-4666-bf30-bbcc6d1fd00b","ios":"levelo://app?vid=11e24285-9fee-4666-bf30-bbcc6d1fd00b"},"vehicle_type_id":"4","last_reported":1685639161,"current_range_meters":14000,"station_id":"ce4bhq92rcd13ifvqhjg","pricing_plan_id":"free"},{"bike_id":"ad3b4fc5-d39b-480f-b7a2-35fd52f0f794","system_id":"levelo_inurba_marseille","lat":43.323464,"lon":5.406297,"is_reserved":false,"is_disabled":false,"rental_uris":{"android":"levelo://app?vid=ad3b4fc5-d39b-480f-b7a2-35fd52f0f794","ios":"levelo://app?vid=ad3b4fc5-d39b-480f-b7a2-35fd52f0f794"},"vehicle_type_id":"4","last_reported":1685639161,"current_range_meters":2800,"station_id":"ce4bhq92rcd13ifvqhjg","pricing_plan_id":"free"},{"bike_id":"97210e92-8977-49e7-a6a2-8513468b7489","system_id":"levelo_inurba_marseille","lat":43.28472,"lon":5.38415,"is_reserved":false,"is_disabled":false,"rental_uris":{"android":"levelo://app?vid=97210e92-8977-49e7-a6a2-8513468b7489","ios":"levelo://app?vid=97210e92-8977-49e7-a6a2-8513468b7489"},"vehicle_type_id":"4","last_reported":1685639161,"current_range_meters":5200,"station_id":"ce4bh512rcd13ifvqe3g","pricing_plan_id":"free"},{"bike_id":"0b5c72fe-8058-4b47-a995-b0124d72eb1d","system_id":"levelo_inurba_marseille","lat":43.284714,"lon":5.384222,"is_reserved":false,"is_disabled":false,"rental_uris":{"android":"levelo://app?vid=0b5c72fe-8058-4b47-a995-b0124d72eb1d","ios":"levelo://app?vid=0b5c72fe-8058-4b47-a995-b0124d72eb1d"},"vehicle_type_id":"4","last_reported":1685639161,"current_range_meters":0,"station_id":"ce4bh512rcd13ifvqe3g","pricing_plan_id":"free"},{"bike_id":"f87d979a-51cd-419b-8fd0-b1387d131f4f","system_id":"levelo_inurba_marseille","lat":43.284217,"lon":5.349697,"is_reserved":false,"is_disabled":false,"rental_uris":{"android":"levelo://app?vid=f87d979a-51cd-419b-8fd0-b1387d131f4f","ios":"levelo://app?vid=f87d979a-51cd-419b-8fd0-b1387d131f4f"},"vehicle_type_id":"4","last_reported":1685639161,"current_range_meters":30400,"station_id":"ce4bhbh2rcd13ifvqepg","pricing_plan_id":"free"},{"bike_id":"3c2eb3ff-5214-4108-b049-06084eae045f","system_id":"levelo_inurba_marseille","lat":43.284218,"lon":5.349744,"is_reserved":false,"is_disabled":false,"rental_uris":{"android":"levelo://app?vid=3c2eb3ff-5214-4108-b049-06084eae045f","ios":"levelo://app?vid=3c2eb3ff-5214-4108-b049-06084eae045f"},"vehicle_type_id":"4","last_reported":1685639161,"current_range_meters":24400,"station_id":"ce4bhbh2rcd13ifvqepg","pricing_plan_id":"free"},{"bike_id":"d4521fe4-e713-4163-afd6-51bacb891e77","system_id":"levelo_inurba_marseille","lat":43.281044,"lon":5.378308,"is_reserved":false,"is_disabled":false,"rental_uris":{"android":"levelo://app?vid=d4521fe4-e713-4163-afd6-51bacb891e77","ios":"levelo://app?vid=d4521fe4-e713-4163-afd6-51bacb891e77"},"vehicle_type_id":"4","last_reported":1685639161,"current_range_meters":10000,"station_id":"ce4bha12rcd13ifvqee0","pricing_plan_id":"free"},{"bike_id":"2c6a7726-b970-4300-b5bb-079d5131fa00","system_id":"levelo_inurba_marseille","lat":43.28977,"lon":5.39741,"is_reserved":false,"is_disabled":false,"rental_uris":{"android":"levelo://app?vid=2c6a7726-b970-4300-b5bb-079d5131fa00","ios":"levelo://app?vid=2c6a7726-b970-4300-b5bb-079d5131fa00"},"vehicle_type_id":"4","last_reported":1685639161,"current_range_meters":14400,"station_id":"","pricing_plan_id":"free"},{"bike_id":"ebc79a2f-7ce6-49f0-8a05-347eb95ec5be","system_id":"levelo_inurba_marseille","lat":43.283502,"lon":5.386471,"is_reserved":false,"is_disabled":false,"rental_uris":{"android":"levelo://app?vid=ebc79a2f-7ce6-49f0-8a05-347eb95ec5be","ios":"levelo://app?vid=ebc79a2f-7ce6-49f0-8a05-347eb95ec5be"},"vehicle_type_id":"4","last_reported":1685639161,"current_range_meters":6800,"station_id":"ce4bh492rcd13ifvqdvg","pricing_plan_id":"free"},{"bike_id":"9b9fbef6-bdf2-4b69-b674-3839d6cdbc27","system_id":"levelo_inurba_marseille","lat":43.282754,"lon":5.350519,"is_reserved":false,"is_disabled":false,"rental_uris":{"android":"levelo://app?vid=9b9fbef6-bdf2-4b69-b674-3839d6cdbc27","ios":"levelo://app?vid=9b9fbef6-bdf2-4b69-b674-3839d6cdbc27"},"vehicle_type_id":"4","last_reported":1685639161,"current_range_meters":8000,"station_id":"ce4bhbp2rcd13ifvqerg","pricing_plan_id":"free"},{"bike_id":"ba7ce3ce-8431-488f-91bc-04dcb441a1a2","system_id":"levelo_inurba_marseille","lat":43.283502,"lon":5.386471,"is_reserved":false,"is_disabled":false,"rental_uris":{"android":"levelo://app?vid=ba7ce3ce-8431-488f-91bc-04dcb441a1a2","ios":"levelo://app?vid=ba7ce3ce-8431-488f-91bc-04dcb441a1a2"},"vehicle_type_id":"4","last_reported":1685639161,"current_range_meters":4800,"station_id":"ce4bh492rcd13ifvqdvg","pricing_plan_id":"free"},{"bike_id":"a840c439-acf6-4520-8f5b-5a91aea94484","system_id":"levelo_inurba_marseille","lat":43.282754,"lon":5.350519,"is_reserved":false,"is_disabled":false,"rental_uris":{"android":"levelo://app?vid=a840c439-acf6-4520-8f5b-5a91aea94484","ios":"levelo://app?vid=a840c439-acf6-4520-8f5b-5a91aea94484"},"vehicle_type_id":"4","last_reported":1685639161,"current_range_meters":30800,"station_id":"ce4bhbp2rcd13ifvqerg","pricing_plan_id":"free"},{"bike_id":"1073c145-c045-4153-898f-92bfd424a3d3","system_id":"levelo_inurba_marseille","lat":43.282744,"lon":5.350533,"is_reserved":false,"is_disabled":false,"rental_uris":{"android":"levelo://app?vid=1073c145-c045-4153-898f-92bfd424a3d3","ios":"levelo://app?vid=1073c145-c045-4153-898f-92bfd424a3d3"},"vehicle_type_id":"4","last_reported":1685639161,"current_range_meters":25200,"station_id":"ce4bhbp2rcd13ifvqerg","pricing_plan_id":"free"},{"bike_id":"d7eb3147-06fe-4427-b210-6a3fe055b2e9","system_id":"levelo_inurba_marseille","lat":43.29573,"lon":5.367355,"is_reserved":false,"is_disabled":false,"rental_uris":{"android":"levelo://app?vid=d7eb3147-06fe-4427-b210-6a3fe055b2e9","ios":"levelo://app?vid=d7eb3147-06fe-4427-b210-6a3fe055b2e9"},"vehicle_type_id":"4","last_reported":1685639161,"current_range_meters":20000,"station_id":"ce4bgph2rcd13ifvqc2g","pricing_plan_id":"free"},{"bike_id":"763e36b5-b3e4-4216-8e33-dc4e4210fa43","system_id":"levelo_inurba_marseille","lat":43.28267,"lon":5.35054,"is_reserved":false,"is_disabled":false,"rental_uris":{"android":"levelo://app?vid=763e36b5-b3e4-4216-8e33-dc4e4210fa43","ios":"levelo://app?vid=763e36b5-b3e4-4216-8e33-dc4e4210fa43"},"vehicle_type_id":"4","last_reported":1685639161,"current_range_meters":27200,"station_id":"ce4bhbp2rcd13ifvqerg","pricing_plan_id":"free"},{"bike_id":"6a04827c-634e-41a4-97e0-9d53f36e3087","system_id":"levelo_inurba_marseille","lat":43.283502,"lon":5.386471,"is_reserved":false,"is_disabled":false,"rental_uris":{"android":"levelo://app?vid=6a04827c-634e-41a4-97e0-9d53f36e3087","ios":"levelo://app?vid=6a04827c-634e-41a4-97e0-9d53f36e3087"},"vehicle_type_id":"4","last_reported":1685639161,"current_range_meters":8800,"station_id":"ce4bh492rcd13ifvqdvg","pricing_plan_id":"free"},{"bike_id":"dab1a37c-14c0-4c1c-a543-b587c8481f2b","system_id":"levelo_inurba_marseille","lat":43.280382,"lon":5.369291,"is_reserved":false,"is_disabled":false,"rental_uris":{"android":"levelo://app?vid=dab1a37c-14c0-4c1c-a543-b587c8481f2b","ios":"levelo://app?vid=dab1a37c-14c0-4c1c-a543-b587c8481f2b"},"vehicle_type_id":"4","last_reported":1685639161,"current_range_meters":7200,"station_id":"ce4bha12rcd13ifvqef0","pricing_plan_id":"free"},{"bike_id":"c5e554c4-9473-4e20-9a87-6fc3eb03ba5d","system_id":"levelo_inurba_marseille","lat":43.28039,"lon":5.369297,"is_reserved":false,"is_disabled":false,"rental_uris":{"android":"levelo://app?vid=c5e554c4-9473-4e20-9a87-6fc3eb03ba5d","ios":"levelo://app?vid=c5e554c4-9473-4e20-9a87-6fc3eb03ba5d"},"vehicle_type_id":"4","last_reported":1685639161,"current_range_meters":14000,"station_id":"ce4bha12rcd13ifvqef0","pricing_plan_id":"free"},{"bike_id":"57ed41bf-fa39-493c-b77c-b9283898553e","system_id":"levelo_inurba_marseille","lat":43.28039,"lon":5.369297,"is_reserved":false,"is_disabled":false,"rental_uris":{"android":"levelo://app?vid=57ed41bf-fa39-493c-b77c-b9283898553e","ios":"levelo://app?vid=57ed41bf-fa39-493c-b77c-b9283898553e"},"vehicle_type_id":"4","last_reported":1685639161,"current_range_meters":18400,"station_id":"ce4bha12rcd13ifvqef0","pricing_plan_id":"free"},{"bike_id":"79a6599a-a540-42d4-b494-15b4baa94a32","system_id":"levelo_inurba_marseille","lat":43.280382,"lon":5.369291,"is_reserved":false,"is_disabled":false,"rental_uris":{"android":"levelo://app?vid=79a6599a-a540-42d4-b494-15b4baa94a32","ios":"levelo://app?vid=79a6599a-a540-42d4-b494-15b4baa94a32"},"vehicle_type_id":"4","last_reported":1685639161,"current_range_meters":3200,"station_id":"ce4bha12rcd13ifvqef0","pricing_plan_id":"free"},{"bike_id":"1869b417-76c7-4c84-b40d-64625b4dcf30","system_id":"levelo_inurba_marseille","lat":43.28039,"lon":5.369297,"is_reserved":false,"is_disabled":false,"rental_uris":{"android":"levelo://app?vid=1869b417-76c7-4c84-b40d-64625b4dcf30","ios":"levelo://app?vid=1869b417-76c7-4c84-b40d-64625b4dcf30"},"vehicle_type_id":"4","last_reported":1685639161,"current_range_meters":30000,"station_id":"ce4bha12rcd13ifvqef0","pricing_plan_id":"free"},{"bike_id":"6e395557-4cf3-4f46-9607-d6b0498e14b3","system_id":"levelo_inurba_marseille","lat":43.281044,"lon":5.378308,"is_reserved":false,"is_disabled":false,"rental_uris":{"android":"levelo://app?vid=6e395557-4cf3-4f46-9607-d6b0498e14b3","ios":"levelo://app?vid=6e395557-4cf3-4f46-9607-d6b0498e14b3"},"vehicle_type_id":"4","last_reported":1685639161,"current_range_meters":21200,"station_id":"ce4bha12rcd13ifvqee0","pricing_plan_id":"free"},{"bike_id":"60f0189c-8c9e-4b24-ade1-59b29a7c7ef1","system_id":"levelo_inurba_marseille","lat":43.296263,"lon":5.40601,"is_reserved":false,"is_disabled":false,"rental_uris":{"android":"levelo://app?vid=60f0189c-8c9e-4b24-ade1-59b29a7c7ef1","ios":"levelo://app?vid=60f0189c-8c9e-4b24-ade1-59b29a7c7ef1"},"vehicle_type_id":"4","last_reported":1685639161,"current_range_meters":25200,"station_id":"ce4bh0h2rcd13ifvqd60","pricing_plan_id":"free"},{"bike_id":"fed267c0-6ea4-453a-9628-2b74c8a60316","system_id":"levelo_inurba_marseille","lat":43.281044,"lon":5.378308,"is_reserved":false,"is_disabled":false,"rental_uris":{"android":"levelo://app?vid=fed267c0-6ea4-453a-9628-2b74c8a60316","ios":"levelo://app?vid=fed267c0-6ea4-453a-9628-2b74c8a60316"},"vehicle_type_id":"4","last_reported":1685639161,"current_range_meters":15600,"station_id":"ce4bha12rcd13ifvqee0","pricing_plan_id":"free"},{"bike_id":"1e4567cb-e334-452f-b1aa-fc31a1199b75","system_id":"levelo_inurba_marseille","lat":43.296263,"lon":5.40601,"is_reserved":false,"is_disabled":false,"rental_uris":{"android":"levelo://app?vid=1e4567cb-e334-452f-b1aa-fc31a1199b75","ios":"levelo://app?vid=1e4567cb-e334-452f-b1aa-fc31a1199b75"},"vehicle_type_id":"4","last_reported":1685639161,"current_range_meters":10800,"station_id":"ce4bh0h2rcd13ifvqd60","pricing_plan_id":"free"},{"bike_id":"9f5491da-c05d-4c5c-9d11-c176dd57151e","system_id":"levelo_inurba_marseille","lat":43.281044,"lon":5.378308,"is_reserved":false,"is_disabled":false,"rental_uris":{"android":"levelo://app?vid=9f5491da-c05d-4c5c-9d11-c176dd57151e","ios":"levelo://app?vid=9f5491da-c05d-4c5c-9d11-c176dd57151e"},"vehicle_type_id":"4","last_reported":1685639161,"current_range_meters":22400,"station_id":"ce4bha12rcd13ifvqee0","pricing_plan_id":"free"},{"bike_id":"f171b1ae-135d-4fb6-a8cf-6023dfcf2634","system_id":"levelo_inurba_marseille","lat":43.296263,"lon":5.40601,"is_reserved":false,"is_disabled":false,"rental_uris":{"android":"levelo://app?vid=f171b1ae-135d-4fb6-a8cf-6023dfcf2634","ios":"levelo://app?vid=f171b1ae-135d-4fb6-a8cf-6023dfcf2634"},"vehicle_type_id":"4","last_reported":1685639161,"current_range_meters":27200,"station_id":"ce4bh0h2rcd13ifvqd60","pricing_plan_id":"free"},{"bike_id":"d425f048-4a99-4d7d-ab40-f71808cf588a","system_id":"levelo_inurba_marseille","lat":43.296263,"lon":5.40601,"is_reserved":false,"is_disabled":false,"rental_uris":{"android":"levelo://app?vid=d425f048-4a99-4d7d-ab40-f71808cf588a","ios":"levelo://app?vid=d425f048-4a99-4d7d-ab40-f71808cf588a"},"vehicle_type_id":"4","last_reported":1685639161,"current_range_meters":26000,"station_id":"ce4bh0h2rcd13ifvqd60","pricing_plan_id":"free"},{"bike_id":"4a1a593b-15a9-4095-b218-b6991a38c4ee","system_id":"levelo_inurba_marseille","lat":43.281044,"lon":5.378308,"is_reserved":false,"is_disabled":false,"rental_uris":{"android":"levelo://app?vid=4a1a593b-15a9-4095-b218-b6991a38c4ee","ios":"levelo://app?vid=4a1a593b-15a9-4095-b218-b6991a38c4ee"},"vehicle_type_id":"4","last_reported":1685639161,"current_range_meters":24000,"station_id":"ce4bha12rcd13ifvqee0","pricing_plan_id":"free"},{"bike_id":"d0af7941-35d4-4d7d-9b5e-2e501b655232","system_id":"levelo_inurba_marseille","lat":43.296263,"lon":5.40601,"is_reserved":false,"is_disabled":false,"rental_uris":{"android":"levelo://app?vid=d0af7941-35d4-4d7d-9b5e-2e501b655232","ios":"levelo://app?vid=d0af7941-35d4-4d7d-9b5e-2e501b655232"},"vehicle_type_id":"4","last_reported":1685639161,"current_range_meters":10000,"station_id":"ce4bh0h2rcd13ifvqd60","pricing_plan_id":"free"},{"bike_id":"28fa200a-5de9-4dc7-8204-bdb03cd648a6","system_id":"levelo_inurba_marseille","lat":43.284462,"lon":5.392121,"is_reserved":false,"is_disabled":false,"rental_uris":{"android":"levelo://app?vid=28fa200a-5de9-4dc7-8204-bdb03cd648a6","ios":"levelo://app?vid=28fa200a-5de9-4dc7-8204-bdb03cd648a6"},"vehicle_type_id":"4","last_reported":1685639161,"current_range_meters":16000,"station_id":"ce4bhoh2rcd13ifvqh5g","pricing_plan_id":"free"},{"bike_id":"6ca2f8d8-4810-4371-8985-225c1657bbf4","system_id":"levelo_inurba_marseille","lat":43.284462,"lon":5.392121,"is_reserved":false,"is_disabled":false,"rental_uris":{"android":"levelo://app?vid=6ca2f8d8-4810-4371-8985-225c1657bbf4","ios":"levelo://app?vid=6ca2f8d8-4810-4371-8985-225c1657bbf4"},"vehicle_type_id":"4","last_reported":1685639161,"current_range_meters":12000,"station_id":"ce4bhoh2rcd13ifvqh5g","pricing_plan_id":"free"},{"bike_id":"fcc6a73a-5ef9-47ac-a76e-e8665d1977a7","system_id":"levelo_inurba_marseille","lat":43.284462,"lon":5.392121,"is_reserved":false,"is_disabled":false,"rental_uris":{"android":"levelo://app?vid=fcc6a73a-5ef9-47ac-a76e-e8665d1977a7","ios":"levelo://app?vid=fcc6a73a-5ef9-47ac-a76e-e8665d1977a7"},"vehicle_type_id":"4","last_reported":1685639161,"current_range_meters":13200,"station_id":"ce4bhoh2rcd13ifvqh5g","pricing_plan_id":"free"},{"bike_id":"97105519-96b8-4de5-96ac-09ca8d033cfd","system_id":"levelo_inurba_marseille","lat":43.284462,"lon":5.392121,"is_reserved":false,"is_disabled":false,"rental_uris":{"android":"levelo://app?vid=97105519-96b8-4de5-96ac-09ca8d033cfd","ios":"levelo://app?vid=97105519-96b8-4de5-96ac-09ca8d033cfd"},"vehicle_type_id":"4","last_reported":1685639161,"current_range_meters":0,"station_id":"ce4bhoh2rcd13ifvqh5g","pricing_plan_id":"free"},{"bike_id":"6498b85a-a105-45b0-b316-a7c99a34da5c","system_id":"levelo_inurba_marseille","lat":43.32634,"lon":5.40933,"is_reserved":false,"is_disabled":false,"rental_uris":{"android":"levelo://app?vid=6498b85a-a105-45b0-b316-a7c99a34da5c","ios":"levelo://app?vid=6498b85a-a105-45b0-b316-a7c99a34da5c"},"vehicle_type_id":"4","last_reported":1685639161,"current_range_meters":24400,"station_id":"","pricing_plan_id":"free"},{"bike_id":"866ef509-a5c7-40d9-a7e8-d37825607b07","system_id":"levelo_inurba_marseille","lat":43.28438,"lon":5.39204,"is_reserved":false,"is_disabled":false,"rental_uris":{"android":"levelo://app?vid=866ef509-a5c7-40d9-a7e8-d37825607b07","ios":"levelo://app?vid=866ef509-a5c7-40d9-a7e8-d37825607b07"},"vehicle_type_id":"4","last_reported":1685639161,"current_range_meters":6400,"station_id":"ce4bhoh2rcd13ifvqh5g","pricing_plan_id":"free"},{"bike_id":"4bd68942-c2a0-469a-811c-b055504e419c","system_id":"levelo_inurba_marseille","lat":43.284462,"lon":5.392121,"is_reserved":false,"is_disabled":false,"rental_uris":{"android":"levelo://app?vid=4bd68942-c2a0-469a-811c-b055504e419c","ios":"levelo://app?vid=4bd68942-c2a0-469a-811c-b055504e419c"},"vehicle_type_id":"4","last_reported":1685639161,"current_range_meters":18000,"station_id":"ce4bhoh2rcd13ifvqh5g","pricing_plan_id":"free"},{"bike_id":"2cc41981-d788-4162-929f-676e2a47c586","system_id":"levelo_inurba_marseille","lat":43.304188,"lon":5.412904,"is_reserved":false,"is_disabled":false,"rental_uris":{"android":"levelo://app?vid=2cc41981-d788-4162-929f-676e2a47c586","ios":"levelo://app?vid=2cc41981-d788-4162-929f-676e2a47c586"},"vehicle_type_id":"4","last_reported":1685639161,"current_range_meters":7600,"station_id":"ce4bhop2rcd13ifvqh8g","pricing_plan_id":"free"},{"bike_id":"fd8277b3-1c92-4dcd-b947-fea28e8fda5e","system_id":"levelo_inurba_marseille","lat":43.28067,"lon":5.38644,"is_reserved":false,"is_disabled":false,"rental_uris":{"android":"levelo://app?vid=fd8277b3-1c92-4dcd-b947-fea28e8fda5e","ios":"levelo://app?vid=fd8277b3-1c92-4dcd-b947-fea28e8fda5e"},"vehicle_type_id":"4","last_reported":1685639161,"current_range_meters":21200,"station_id":"","pricing_plan_id":"free"},{"bike_id":"f201aaa8-2284-45b1-bfb3-71d06ffaba90","system_id":"levelo_inurba_marseille","lat":43.27895,"lon":5.38002,"is_reserved":false,"is_disabled":false,"rental_uris":{"android":"levelo://app?vid=f201aaa8-2284-45b1-bfb3-71d06ffaba90","ios":"levelo://app?vid=f201aaa8-2284-45b1-bfb3-71d06ffaba90"},"vehicle_type_id":"4","last_reported":1685639161,"current_range_meters":0,"station_id":"","pricing_plan_id":"free"},{"bike_id":"0fb8fce6-a7db-4899-b671-8e4f7afdbd46","system_id":"levelo_inurba_marseille","lat":43.3204,"lon":5.41551,"is_reserved":false,"is_disabled":false,"rental_uris":{"android":"levelo://app?vid=0fb8fce6-a7db-4899-b671-8e4f7afdbd46","ios":"levelo://app?vid=0fb8fce6-a7db-4899-b671-8e4f7afdbd46"},"vehicle_type_id":"4","last_reported":1685639161,"current_range_meters":18800,"station_id":"","pricing_plan_id":"free"},{"bike_id":"2abc063c-9aaa-4664-b028-7b0ef68a22db","system_id":"levelo_inurba_marseille","lat":43.32033,"lon":5.41576,"is_reserved":false,"is_disabled":false,"rental_uris":{"android":"levelo://app?vid=2abc063c-9aaa-4664-b028-7b0ef68a22db","ios":"levelo://app?vid=2abc063c-9aaa-4664-b028-7b0ef68a22db"},"vehicle_type_id":"4","last_reported":1685639161,"current_range_meters":28400,"station_id":"","pricing_plan_id":"free"},{"bike_id":"743c2629-8f1e-4cf6-a4fb-a46fcd67bf93","system_id":"levelo_inurba_marseille","lat":43.278283,"lon":5.383475,"is_reserved":false,"is_disabled":false,"rental_uris":{"android":"levelo://app?vid=743c2629-8f1e-4cf6-a4fb-a46fcd67bf93","ios":"levelo://app?vid=743c2629-8f1e-4cf6-a4fb-a46fcd67bf93"},"vehicle_type_id":"4","last_reported":1685639161,"current_range_meters":23600,"station_id":"","pricing_plan_id":"free"},{"bike_id":"78c519c4-4e4a-46ed-9138-3520abcdb953","system_id":"levelo_inurba_marseille","lat":43.292569,"lon":5.409107,"is_reserved":false,"is_disabled":false,"rental_uris":{"android":"levelo://app?vid=78c519c4-4e4a-46ed-9138-3520abcdb953","ios":"levelo://app?vid=78c519c4-4e4a-46ed-9138-3520abcdb953"},"vehicle_type_id":"4","last_reported":1685639161,"current_range_meters":10400,"station_id":"ce4bh192rcd13ifvqdc0","pricing_plan_id":"free"},{"bike_id":"ca8861e5-0078-4340-a3b2-e872f4bb066e","system_id":"levelo_inurba_marseille","lat":43.292569,"lon":5.409107,"is_reserved":false,"is_disabled":false,"rental_uris":{"android":"levelo://app?vid=ca8861e5-0078-4340-a3b2-e872f4bb066e","ios":"levelo://app?vid=ca8861e5-0078-4340-a3b2-e872f4bb066e"},"vehicle_type_id":"4","last_reported":1685639161,"current_range_meters":28000,"station_id":"ce4bh192rcd13ifvqdc0","pricing_plan_id":"free"},{"bike_id":"32fbd8b1-c421-44d2-9ba2-afff43c61df7","system_id":"levelo_inurba_marseille","lat":43.325243,"lon":5.414326,"is_reserved":false,"is_disabled":false,"rental_uris":{"android":"levelo://app?vid=32fbd8b1-c421-44d2-9ba2-afff43c61df7","ios":"levelo://app?vid=32fbd8b1-c421-44d2-9ba2-afff43c61df7"},"vehicle_type_id":"4","last_reported":1685639161,"current_range_meters":16400,"station_id":"ce4bhq12rcd13ifvqhhg","pricing_plan_id":"free"},{"bike_id":"197fb57f-eb3b-409c-8cef-f000f9d695dd","system_id":"levelo_inurba_marseille","lat":43.325233,"lon":5.414318,"is_reserved":false,"is_disabled":false,"rental_uris":{"android":"levelo://app?vid=197fb57f-eb3b-409c-8cef-f000f9d695dd","ios":"levelo://app?vid=197fb57f-eb3b-409c-8cef-f000f9d695dd"},"vehicle_type_id":"4","last_reported":1685639161,"current_range_meters":13200,"station_id":"ce4bhq12rcd13ifvqhhg","pricing_plan_id":"free"},{"bike_id":"837fb862-ddb8-4453-ac58-32add3e85c09","system_id":"levelo_inurba_marseille","lat":43.292569,"lon":5.409107,"is_reserved":false,"is_disabled":false,"rental_uris":{"android":"levelo://app?vid=837fb862-ddb8-4453-ac58-32add3e85c09","ios":"levelo://app?vid=837fb862-ddb8-4453-ac58-32add3e85c09"},"vehicle_type_id":"4","last_reported":1685639161,"current_range_meters":4000,"station_id":"ce4bh192rcd13ifvqdc0","pricing_plan_id":"free"},{"bike_id":"d3480243-e35b-444a-b934-7c5e7916a5d7","system_id":"levelo_inurba_marseille","lat":43.292569,"lon":5.409107,"is_reserved":false,"is_disabled":false,"rental_uris":{"android":"levelo://app?vid=d3480243-e35b-444a-b934-7c5e7916a5d7","ios":"levelo://app?vid=d3480243-e35b-444a-b934-7c5e7916a5d7"},"vehicle_type_id":"4","last_reported":1685639161,"current_range_meters":18000,"station_id":"ce4bh192rcd13ifvqdc0","pricing_plan_id":"free"},{"bike_id":"a67b5d3b-f8d8-4b65-98fb-20b736cc95a5","system_id":"levelo_inurba_marseille","lat":43.292569,"lon":5.409107,"is_reserved":false,"is_disabled":false,"rental_uris":{"android":"levelo://app?vid=a67b5d3b-f8d8-4b65-98fb-20b736cc95a5","ios":"levelo://app?vid=a67b5d3b-f8d8-4b65-98fb-20b736cc95a5"},"vehicle_type_id":"4","last_reported":1685639161,"current_range_meters":4000,"station_id":"ce4bh192rcd13ifvqdc0","pricing_plan_id":"free"},{"bike_id":"f2b7cba6-34c3-48cc-b82f-4593e023e04a","system_id":"levelo_inurba_marseille","lat":43.27618,"lon":5.361009,"is_reserved":false,"is_disabled":false,"rental_uris":{"android":"levelo://app?vid=f2b7cba6-34c3-48cc-b82f-4593e023e04a","ios":"levelo://app?vid=f2b7cba6-34c3-48cc-b82f-4593e023e04a"},"vehicle_type_id":"4","last_reported":1685639161,"current_range_meters":20000,"station_id":"ce4bgj92rcd13ifvqbe0","pricing_plan_id":"free"},{"bike_id":"64a04445-9070-49d3-b533-416db62729f7","system_id":"levelo_inurba_marseille","lat":43.27618,"lon":5.361009,"is_reserved":false,"is_disabled":false,"rental_uris":{"android":"levelo://app?vid=64a04445-9070-49d3-b533-416db62729f7","ios":"levelo://app?vid=64a04445-9070-49d3-b533-416db62729f7"},"vehicle_type_id":"4","last_reported":1685639161,"current_range_meters":18800,"station_id":"ce4bgj92rcd13ifvqbe0","pricing_plan_id":"free"},{"bike_id":"a3a133a6-ae98-4b08-855e-fad1e41dfc17","system_id":"levelo_inurba_marseille","lat":43.27606,"lon":5.36117,"is_reserved":false,"is_disabled":false,"rental_uris":{"android":"levelo://app?vid=a3a133a6-ae98-4b08-855e-fad1e41dfc17","ios":"levelo://app?vid=a3a133a6-ae98-4b08-855e-fad1e41dfc17"},"vehicle_type_id":"4","last_reported":1685639161,"current_range_meters":21600,"station_id":"ce4bgj92rcd13ifvqbe0","pricing_plan_id":"free"},{"bike_id":"4edfe515-da36-42ca-8c85-6582a45561a9","system_id":"levelo_inurba_marseille","lat":43.280784,"lon":5.396622,"is_reserved":false,"is_disabled":false,"rental_uris":{"android":"levelo://app?vid=4edfe515-da36-42ca-8c85-6582a45561a9","ios":"levelo://app?vid=4edfe515-da36-42ca-8c85-6582a45561a9"},"vehicle_type_id":"4","last_reported":1685639161,"current_range_meters":22800,"station_id":"ce4bho12rcd13ifvqh2g","pricing_plan_id":"free"},{"bike_id":"14d8b6bb-f196-43dd-aba0-c8b915ac1b27","system_id":"levelo_inurba_marseille","lat":43.278401,"lon":5.392152,"is_reserved":false,"is_disabled":false,"rental_uris":{"android":"levelo://app?vid=14d8b6bb-f196-43dd-aba0-c8b915ac1b27","ios":"levelo://app?vid=14d8b6bb-f196-43dd-aba0-c8b915ac1b27"},"vehicle_type_id":"4","last_reported":1685639161,"current_range_meters":29200,"station_id":"ce4bhjp2rcd13ifvqga0","pricing_plan_id":"free"},{"bike_id":"b4aa4832-c1dc-421f-b738-a94e07f752ba","system_id":"levelo_inurba_marseille","lat":43.273613,"lon":5.362705,"is_reserved":false,"is_disabled":false,"rental_uris":{"android":"levelo://app?vid=b4aa4832-c1dc-421f-b738-a94e07f752ba","ios":"levelo://app?vid=b4aa4832-c1dc-421f-b738-a94e07f752ba"},"vehicle_type_id":"4","last_reported":1685639161,"current_range_meters":18400,"station_id":"ce4bhbh2rcd13ifvqeo0","pricing_plan_id":"free"},{"bike_id":"1ccc56d0-ac60-4543-a858-2999d54e993b","system_id":"levelo_inurba_marseille","lat":43.273613,"lon":5.362705,"is_reserved":false,"is_disabled":false,"rental_uris":{"android":"levelo://app?vid=1ccc56d0-ac60-4543-a858-2999d54e993b","ios":"levelo://app?vid=1ccc56d0-ac60-4543-a858-2999d54e993b"},"vehicle_type_id":"4","last_reported":1685639161,"current_range_meters":28800,"station_id":"ce4bhbh2rcd13ifvqeo0","pricing_plan_id":"free"},{"bike_id":"2a16c6d7-4076-4988-9319-62f22ad52d81","system_id":"levelo_inurba_marseille","lat":43.273613,"lon":5.362705,"is_reserved":false,"is_disabled":false,"rental_uris":{"android":"levelo://app?vid=2a16c6d7-4076-4988-9319-62f22ad52d81","ios":"levelo://app?vid=2a16c6d7-4076-4988-9319-62f22ad52d81"},"vehicle_type_id":"4","last_reported":1685639161,"current_range_meters":27200,"station_id":"ce4bhbh2rcd13ifvqeo0","pricing_plan_id":"free"},{"bike_id":"2142b6f8-ab46-4072-9bd4-4fe7cee01d47","system_id":"levelo_inurba_marseille","lat":43.273609,"lon":5.362708,"is_reserved":false,"is_disabled":false,"rental_uris":{"android":"levelo://app?vid=2142b6f8-ab46-4072-9bd4-4fe7cee01d47","ios":"levelo://app?vid=2142b6f8-ab46-4072-9bd4-4fe7cee01d47"},"vehicle_type_id":"4","last_reported":1685639161,"current_range_meters":12000,"station_id":"ce4bhbh2rcd13ifvqeo0","pricing_plan_id":"free"},{"bike_id":"7e0b81ce-9aaa-411d-ba1f-c3d268727126","system_id":"levelo_inurba_marseille","lat":43.273613,"lon":5.362705,"is_reserved":false,"is_disabled":false,"rental_uris":{"android":"levelo://app?vid=7e0b81ce-9aaa-411d-ba1f-c3d268727126","ios":"levelo://app?vid=7e0b81ce-9aaa-411d-ba1f-c3d268727126"},"vehicle_type_id":"4","last_reported":1685639161,"current_range_meters":12400,"station_id":"ce4bhbh2rcd13ifvqeo0","pricing_plan_id":"free"},{"bike_id":"d6f43d3f-465c-452e-bb96-4a301f1978c4","system_id":"levelo_inurba_marseille","lat":43.273613,"lon":5.362705,"is_reserved":false,"is_disabled":false,"rental_uris":{"android":"levelo://app?vid=d6f43d3f-465c-452e-bb96-4a301f1978c4","ios":"levelo://app?vid=d6f43d3f-465c-452e-bb96-4a301f1978c4"},"vehicle_type_id":"4","last_reported":1685639161,"current_range_meters":26400,"station_id":"ce4bhbh2rcd13ifvqeo0","pricing_plan_id":"free"},{"bike_id":"19b6de5d-3d87-4204-b07c-8186fe0ee440","system_id":"levelo_inurba_marseille","lat":43.273609,"lon":5.362708,"is_reserved":false,"is_disabled":false,"rental_uris":{"android":"levelo://app?vid=19b6de5d-3d87-4204-b07c-8186fe0ee440","ios":"levelo://app?vid=19b6de5d-3d87-4204-b07c-8186fe0ee440"},"vehicle_type_id":"4","last_reported":1685639161,"current_range_meters":13200,"station_id":"ce4bhbh2rcd13ifvqeo0","pricing_plan_id":"free"},{"bike_id":"647a12f1-ff86-4bdc-a955-470cd7a60b49","system_id":"levelo_inurba_marseille","lat":43.30605,"lon":5.4224,"is_reserved":false,"is_disabled":false,"rental_uris":{"android":"levelo://app?vid=647a12f1-ff86-4bdc-a955-470cd7a60b49","ios":"levelo://app?vid=647a12f1-ff86-4bdc-a955-470cd7a60b49"},"vehicle_type_id":"4","last_reported":1685639161,"current_range_meters":23600,"station_id":"","pricing_plan_id":"free"},{"bike_id":"d8918244-19ed-49a2-9786-e95bac404da3","system_id":"levelo_inurba_marseille","lat":43.310785,"lon":5.424305,"is_reserved":false,"is_disabled":false,"rental_uris":{"android":"levelo://app?vid=d8918244-19ed-49a2-9786-e95bac404da3","ios":"levelo://app?vid=d8918244-19ed-49a2-9786-e95bac404da3"},"vehicle_type_id":"4","last_reported":1685639161,"current_range_meters":20400,"station_id":"ce4bhp92rcd13ifvqhag","pricing_plan_id":"free"},{"bike_id":"c40317f0-e585-4a26-aa7c-2536b98a056d","system_id":"levelo_inurba_marseille","lat":43.310785,"lon":5.424305,"is_reserved":false,"is_disabled":false,"rental_uris":{"android":"levelo://app?vid=c40317f0-e585-4a26-aa7c-2536b98a056d","ios":"levelo://app?vid=c40317f0-e585-4a26-aa7c-2536b98a056d"},"vehicle_type_id":"4","last_reported":1685639161,"current_range_meters":18000,"station_id":"ce4bhp92rcd13ifvqhag","pricing_plan_id":"free"},{"bike_id":"ef3eb31f-2cd3-43f5-89a1-5b6fb8edf594","system_id":"levelo_inurba_marseille","lat":43.310785,"lon":5.424305,"is_reserved":false,"is_disabled":false,"rental_uris":{"android":"levelo://app?vid=ef3eb31f-2cd3-43f5-89a1-5b6fb8edf594","ios":"levelo://app?vid=ef3eb31f-2cd3-43f5-89a1-5b6fb8edf594"},"vehicle_type_id":"4","last_reported":1685639161,"current_range_meters":14800,"station_id":"ce4bhp92rcd13ifvqhag","pricing_plan_id":"free"},{"bike_id":"38b44b31-7af2-4378-bc3d-bacd8faeab51","system_id":"levelo_inurba_marseille","lat":43.295523,"lon":5.422926,"is_reserved":false,"is_disabled":false,"rental_uris":{"android":"levelo://app?vid=38b44b31-7af2-4378-bc3d-bacd8faeab51","ios":"levelo://app?vid=38b44b31-7af2-4378-bc3d-bacd8faeab51"},"vehicle_type_id":"4","last_reported":1685639161,"current_range_meters":21600,"station_id":"ce4bhph2rcd13ifvqhdg","pricing_plan_id":"free"},{"bike_id":"c265a28b-eafb-42e1-867e-a9bcc5c9ea7e","system_id":"levelo_inurba_marseille","lat":43.295523,"lon":5.422926,"is_reserved":false,"is_disabled":false,"rental_uris":{"android":"levelo://app?vid=c265a28b-eafb-42e1-867e-a9bcc5c9ea7e","ios":"levelo://app?vid=c265a28b-eafb-42e1-867e-a9bcc5c9ea7e"},"vehicle_type_id":"4","last_reported":1685639161,"current_range_meters":28800,"station_id":"ce4bhph2rcd13ifvqhdg","pricing_plan_id":"free"},{"bike_id":"42eba016-5aef-45e0-a581-e5fc8a30c6d6","system_id":"levelo_inurba_marseille","lat":43.295523,"lon":5.422926,"is_reserved":false,"is_disabled":false,"rental_uris":{"android":"levelo://app?vid=42eba016-5aef-45e0-a581-e5fc8a30c6d6","ios":"levelo://app?vid=42eba016-5aef-45e0-a581-e5fc8a30c6d6"},"vehicle_type_id":"4","last_reported":1685639161,"current_range_meters":31200,"station_id":"ce4bhph2rcd13ifvqhdg","pricing_plan_id":"free"},{"bike_id":"6e0325c6-9c5f-462c-95b2-080b3f3b6b1e","system_id":"levelo_inurba_marseille","lat":43.295523,"lon":5.422926,"is_reserved":false,"is_disabled":false,"rental_uris":{"android":"levelo://app?vid=6e0325c6-9c5f-462c-95b2-080b3f3b6b1e","ios":"levelo://app?vid=6e0325c6-9c5f-462c-95b2-080b3f3b6b1e"},"vehicle_type_id":"4","last_reported":1685639161,"current_range_meters":30800,"station_id":"ce4bhph2rcd13ifvqhdg","pricing_plan_id":"free"},{"bike_id":"4bf9a866-5458-4b85-9bda-47d33286f0f0","system_id":"levelo_inurba_marseille","lat":43.295523,"lon":5.422926,"is_reserved":false,"is_disabled":false,"rental_uris":{"android":"levelo://app?vid=4bf9a866-5458-4b85-9bda-47d33286f0f0","ios":"levelo://app?vid=4bf9a866-5458-4b85-9bda-47d33286f0f0"},"vehicle_type_id":"4","last_reported":1685639161,"current_range_meters":30800,"station_id":"ce4bhph2rcd13ifvqhdg","pricing_plan_id":"free"},