{"last_updated":1726863034,"ttl":30,"version":"2.2","data":{"bikes":[{"bike_id":"8051cb18-0ba2-475b-8558-f398a39b8001","system_id":"levelo_inurba_marseille","lat":43.29897,"lon":5.43674,"is_reserved":false,"is_disabled":false,"rental_uris":{"android":"levelo://app?vid=8051cb18-0ba2-475b-8558-f398a39b8001","ios":"levelo://app?vid=8051cb18-0ba2-475b-8558-f398a39b8001"},"vehicle_type_id":"4","last_reported":1726863034,"current_range_meters":8800,"station_id":"ce4bhpp2rcd13ifvqhfg","pricing_plan_id":"cebpf4jnsgd1na2vs0mg"},{"bike_id":"afe159f4-c1bc-4c14-b01d-5fea9b272a4e","system_id":"levelo_inurba_marseille","lat":43.29022,"lon":5.38641,"is_reserved":false,"is_disabled":false,"rental_uris":{"android":"levelo://app?vid=afe159f4-c1bc-4c14-b01d-5fea9b272a4e","ios":"levelo://app?vid=afe159f4-c1bc-4c14-b01d-5fea9b272a4e"},"vehicle_type_id":"4","last_reported":1726863034,"current_range_meters":18000,"station_id":"ce4bh4p2rcd13ifvqe0g","pricing_plan_id":"cebpf4jnsgd1na2vs0mg"},{"bike_id":"29e15032-fcc9-45a9-ab4a-a578c0c32b2e","system_id":"levelo_inurba_marseille","lat":43.28567,"lon":5.39493,"is_reserved":false,"is_disabled":false,"rental_uris":{"android":"levelo://app?vid=29e15032-fcc9-45a9-ab4a-a578c0c32b2e","ios":"levelo://app?vid=29e15032-fcc9-45a9-ab4a-a578c0c32b2e"},"vehicle_type_id":"4","last_reported":1726863034,"current_range_meters":16400,"station_id":"ce4bh292rcd13ifvqdg0","pricing_plan_id":"cebpf4jnsgd1na2vs0mg"},{"bike_id":"32d32e1a-d8de-4aaa-810f-05c70ee5692e","system_id":"levelo_inurba_marseille","lat":43.29418,"lon":5.38631,"is_reserved":false,"is_disabled":false,"rental_uris":{"android":"levelo://app?vid=32d32e1a-d8de-4aaa-810f-05c70ee5692e","ios":"levelo://app?vid=32d32e1a-d8de-4aaa-810f-05c70ee5692e"},"vehicle_type_id":"4","last_reported":1726863034,"current_range_meters":17200,"station_id":"ce4bh2h2rcd13ifvqdh0","pricing_plan_id":"cebpf4jnsgd1na2vs0mg"},{"bike_id":"caeb01e1-f6ca-4785-8d66-d5a031a43aa7","system_id":"levelo_inurba_marseille","lat":43.25087,"lon":5.39512,"is_reserved":false,"is_disabled":false,"rental_uris":{"android":"levelo://app?vid=caeb01e1-f6ca-4785-8d66-d5a031a43aa7","ios":"levelo://app?vid=caeb01e1-f6ca-4785-8d66-d5a031a43aa7"},"vehicle_type_id":"4","last_reported":1726863034,"current_range_meters":36000,"station_id":"ce4bhm12rcd13ifvqgkg","pricing_plan_id":"cebpf4jnsgd1na2vs0mg"},{"bike_id":"45dc8a01-21ab-454e-82ef-5c8e7911372d","system_id":"levelo_inurba_marseille","lat":43.32368,"lon":5.38886,"is_reserved":false,"is_disabled":false,"rental_uris":{"android":"levelo://app?vid=45dc8a01-21ab-454e-82ef-5c8e7911372d","ios":"levelo://app?vid=45dc8a01-21ab-454e-82ef-5c8e7911372d"},"vehicle_type_id":"4","last_reported":1726863034,"current_range_meters":26800,"station_id":"ce4bhqp2rcd13ifvqhog","pricing_plan_id":"cebpf4jnsgd1na2vs0mg"},{"bike_id":"d4d370f9-9dc0-4c3d-8ac7-32b242113a77","system_id":"levelo_inurba_marseille","lat":43.2957,"lon":5.38562,"is_reserved":false,"is_disabled":false,"rental_uris":{"android":"levelo://app?vid=d4d370f9-9dc0-4c3d-8ac7-32b242113a77","ios":"levelo://app?vid=d4d370f9-9dc0-4c3d-8ac7-32b242113a77"},"vehicle_type_id":"4","last_reported":1726863034,"current_range_meters":37600,"station_id":"ce4bgih2rcd13ifvqba0","pricing_plan_id":"cebpf4jnsgd1na2vs0mg"},{"bike_id":"435d6bfe-c735-4601-8d44-4aa1753d002d","system_id":"levelo_inurba_marseille","lat":43.25577,"lon":5.38241,"is_reserved":false,"is_disabled":false,"rental_uris":{"android":"levelo://app?vid=435d6bfe-c735-4601-8d44-4aa1753d002d","ios":"levelo://app?vid=435d6bfe-c735-4601-8d44-4aa1753d002d"},"vehicle_type_id":"4","last_reported":1726863034,"current_range_meters":38800,"station_id":"ce4bhih2rcd13ifvqfs0","pricing_plan_id":"cebpf4jnsgd1na2vs0mg"},{"bike_id":"898010b2-a398-4436-beb2-86f1532ee4de","system_id":"levelo_inurba_marseille","lat":43.29028,"lon":5.38631,"is_reserved":false,"is_disabled":false,"rental_uris":{"android":"levelo://app?vid=898010b2-a398-4436-beb2-86f1532ee4de","ios":"levelo://app?vid=898010b2-a398-4436-beb2-86f1532ee4de"},"vehicle_type_id":"4","last_reported":1726863034,"current_range_meters":40000,"station_id":"ce4bh4p2rcd13ifvqe0g","pricing_plan_id":"cebpf4jnsgd1na2vs0mg"},{"bike_id":"87c1c8a5-e765-4be9-857a-0376ae47acce","system_id":"levelo_inurba_marseille","lat":43.29296,"lon":5.37465,"is_reserved":false,"is_disabled":false,"rental_uris":{"android":"levelo://app?vid=87c1c8a5-e765-4be9-857a-0376ae47acce","ios":"levelo://app?vid=87c1c8a5-e765-4be9-857a-0376ae47acce"},"vehicle_type_id":"4","last_reported":1726863034,"current_range_meters":32800,"station_id":"ce4bgi12rcd13ifvqb70","pricing_plan_id":"cebpf4jnsgd1na2vs0mg"},{"bike_id":"85536a6a-72a9-4c44-bb9c-19833e0aa525","system_id":"levelo_inurba_marseille","lat":43.27374,"lon":5.36267,"is_reserved":false,"is_disabled":false,"rental_uris":{"android":"levelo://app?vid=85536a6a-72a9-4c44-bb9c-19833e0aa525","ios":"levelo://app?vid=85536a6a-72a9-4c44-bb9c-19833e0aa525"},"vehicle_type_id":"4","last_reported":1726863034,"current_range_meters":24400,"station_id":"ce4bhbh2rcd13ifvqeo0","pricing_plan_id":"cebpf4jnsgd1na2vs0mg"},{"bike_id":"de7ad653-fe7b-4e32-922f-014491626942","system_id":"levelo_inurba_marseille","lat":43.28439,"lon":5.39189,"is_reserved":false,"is_disabled":false,"rental_uris":{"android":"levelo://app?vid=de7ad653-fe7b-4e32-922f-014491626942","ios":"levelo://app?vid=de7ad653-fe7b-4e32-922f-014491626942"},"vehicle_type_id":"4","last_reported":1726863034,"current_range_meters":11200,"station_id":"ce4bhoh2rcd13ifvqh5g","pricing_plan_id":"cebpf4jnsgd1na2vs0mg"},{"bike_id":"388238be-48fd-4a88-999c-90603b8e9b4d","system_id":"levelo_inurba_marseille","lat":43.28364,"lon":5.38644,"is_reserved":false,"is_disabled":false,"rental_uris":{"android":"levelo://app?vid=388238be-48fd-4a88-999c-90603b8e9b4d","ios":"levelo://app?vid=388238be-48fd-4a88-999c-90603b8e9b4d"},"vehicle_type_id":"4","last_reported":1726863034,"current_range_meters":27600,"station_id":"ce4bh492rcd13ifvqdvg","pricing_plan_id":"cebpf4jnsgd1na2vs0mg"},{"bike_id":"7c481c56-ec22-4574-8c12-f65adf62583b","system_id":"levelo_inurba_marseille","lat":43.29419,"lon":5.38626,"is_reserved":false,"is_disabled":false,"rental_uris":{"android":"levelo://app?vid=7c481c56-ec22-4574-8c12-f65adf62583b","ios":"levelo://app?vid=7c481c56-ec22-4574-8c12-f65adf62583b"},"vehicle_type_id":"4","last_reported":1726863034,"current_range_meters":22400,"station_id":"ce4bh2h2rcd13ifvqdh0","pricing_plan_id":"cebpf4jnsgd1na2vs0mg"},{"bike_id":"b51e3526-eb9b-4bdb-86eb-0c8247e11b5c","system_id":"levelo_inurba_marseille","lat":43.32542,"lon":5.41428,"is_reserved":false,"is_disabled":false,"rental_uris":{"android":"levelo://app?vid=b51e3526-eb9b-4bdb-86eb-0c8247e11b5c","ios":"levelo://app?vid=b51e3526-eb9b-4bdb-86eb-0c8247e11b5c"},"vehicle_type_id":"4","last_reported":1726863034,"current_range_meters":3200,"station_id":"ce4bhq12rcd13ifvqhhg","pricing_plan_id":"cebpf4jnsgd1na2vs0mg"},{"bike_id":"7adb6a9c-fc7c-4226-a40a-fdb37f7e5bd8","system_id":"levelo_inurba_marseille","lat":43.24661,"lon":5.3816,"is_reserved":false,"is_disabled":false,"rental_uris":{"android":"levelo://app?vid=7adb6a9c-fc7c-4226-a40a-fdb37f7e5bd8","ios":"levelo://app?vid=7adb6a9c-fc7c-4226-a40a-fdb37f7e5bd8"},"vehicle_type_id":"4","last_reported":1726863034,"current_range_meters":38800,"station_id":"ce4bhih2rcd13ifvqfr0","pricing_plan_id":"cebpf4jnsgd1na2vs0mg"},{"bike_id":"3672b918-ec7e-45dc-bdf8-b9cc28cd9157","system_id":"levelo_inurba_marseille","lat":43.273132,"lon":5.390631,"is_reserved":false,"is_disabled":false,"rental_uris":{"android":"levelo://app?vid=3672b918-ec7e-45dc-bdf8-b9cc28cd9157","ios":"levelo://app?vid=3672b918-ec7e-45dc-bdf8-b9cc28cd9157"},"vehicle_type_id":"4","last_reported":1726863034,"current_range_meters":11600,"station_id":"ce4bhgp2rcd13ifvqfe0","pricing_plan_id":"cebpf4jnsgd1na2vs0mg"},{"bike_id":"548ff5e8-4be6-4fa2-b210-beb1ef8053de","system_id":"levelo_inurba_marseille","lat":43.33031,"lon":5.39046,"is_reserved":false,"is_disabled":false,"rental_uris":{"android":"levelo://app?vid=548ff5e8-4be6-4fa2-b210-beb1ef8053de","ios":"levelo://app?vid=548ff5e8-4be6-4fa2-b210-beb1ef8053de"},"vehicle_type_id":"4","last_reported":1726863034,"current_range_meters":20400,"station_id":"ce4bhr92rcd13ifvqhrg","pricing_plan_id":"cebpf4jnsgd1na2vs0mg"},{"bike_id":"a43fec02-3e3b-4e0b-a016-9ac7fcfaacdc","system_id":"levelo_inurba_marseille","lat":43.294365,"lon":5.397441,"is_reserved":false,"is_disabled":false,"rental_uris":{"android":"levelo://app?vid=a43fec02-3e3b-4e0b-a016-9ac7fcfaacdc","ios":"levelo://app?vid=a43fec02-3e3b-4e0b-a016-9ac7fcfaacdc"},"vehicle_type_id":"4","last_reported":1726863034,"current_range_meters":29600,"station_id":"ce4bh3h2rcd13ifvqdo0","pricing_plan_id":"cebpf4jnsgd1na2vs0mg"},{"bike_id":"3a51ea8c-fe0f-4727-bb46-4bcf23ecbb83","system_id":"levelo_inurba_marseille","lat":43.26563,"lon":5.39005,"is_reserved":false,"is_disabled":false,"rental_uris":{"android":"levelo://app?vid=3a51ea8c-fe0f-4727-bb46-4bcf23ecbb83","ios":"levelo://app?vid=3a51ea8c-fe0f-4727-bb46-4bcf23ecbb83"},"vehicle_type_id":"4","last_reported":1726863034,"current_range_meters":38800,"station_id":"ce4bhe12rcd13ifvqf30","pricing_plan_id":"cebpf4jnsgd1na2vs0mg"},{"bike_id":"5ed89ead-c126-4b31-be6f-4d3ba6e66bb5","system_id":"levelo_inurba_marseille","lat":43.28457,"lon":5.35886,"is_reserved":false,"is_disabled":false,"rental_uris":{"android":"levelo://app?vid=5ed89ead-c126-4b31-be6f-4d3ba6e66bb5","ios":"levelo://app?vid=5ed89ead-c126-4b31-be6f-4d3ba6e66bb5"},"vehicle_type_id":"4","last_reported":1726863034,"current_range_meters":6800,"station_id":"ce4bhah2rcd13ifvqei0","pricing_plan_id":"cebpf4jnsgd1na2vs0mg"},{"bike_id":"da30903d-945e-4048-9931-f370d4c6279e","system_id":"levelo_inurba_marseille","lat":43.23153,"lon":5.43728,"is_reserved":false,"is_disabled":false,"rental_uris":{"android":"levelo://app?vid=da30903d-945e-4048-9931-f370d4c6279e","ios":"levelo://app?vid=da30903d-945e-4048-9931-f370d4c6279e"},"vehicle_type_id":"4","last_reported":1726863034,"current_range_meters":36800,"station_id":"ce4bhmp2rcd13ifvqgog","pricing_plan_id":"cebpf4jnsgd1na2vs0mg"},{"bike_id":"acfd38db-e93b-4b83-9afa-11e828273dc3","system_id":"levelo_inurba_marseille","lat":43.33022,"lon":5.39038,"is_reserved":false,"is_disabled":false,"rental_uris":{"android":"levelo://app?vid=acfd38db-e93b-4b83-9afa-11e828273dc3","ios":"levelo://app?vid=acfd38db-e93b-4b83-9afa-11e828273dc3"},"vehicle_type_id":"4","last_reported":1726863034,"current_range_meters":6000,"station_id":"ce4bhr92rcd13ifvqhrg","pricing_plan_id":"cebpf4jnsgd1na2vs0mg"},{"bike_id":"91d3179b-f594-478d-88ef-0e7917da756a","system_id":"levelo_inurba_marseille","lat":43.31329,"lon":5.39704,"is_reserved":false,"is_disabled":false,"rental_uris":{"android":"levelo://app?vid=91d3179b-f594-478d-88ef-0e7917da756a","ios":"levelo://app?vid=91d3179b-f594-478d-88ef-0e7917da756a"},"vehicle_type_id":"4","last_reported":1726863034,"current_range_meters":12400,"station_id":"ce4bgvp2rcd13ifvqcu0","pricing_plan_id":"cebpf4jnsgd1na2vs0mg"},{"bike_id":"bf6a0df4-e95b-4dae-8389-1b46575b78e1","system_id":"levelo_inurba_marseille","lat":43.2925,"lon":5.38449,"is_reserved":false,"is_disabled":false,"rental_uris":{"android":"levelo://app?vid=bf6a0df4-e95b-4dae-8389-1b46575b78e1","ios":"levelo://app?vid=bf6a0df4-e95b-4dae-8389-1b46575b78e1"},"vehicle_type_id":"4","last_reported":1726863034,"current_range_meters":39200,"station_id":"ce4bh692rcd13ifvqea0","pricing_plan_id":"cebpf4jnsgd1na2vs0mg"},{"bike_id":"f55f80c0-457e-49df-adbf-3206062f3643","system_id":"levelo_inurba_marseille","lat":43.29265,"lon":5.38443,"is_reserved":false,"is_disabled":false,"rental_uris":{"android":"levelo://app?vid=f55f80c0-457e-49df-adbf-3206062f3643","ios":"levelo://app?vid=f55f80c0-457e-49df-adbf-3206062f3643"},"vehicle_type_id":"4","last_reported":1726863034,"current_range_meters":5600,"station_id":"ce4bh692rcd13ifvqea0","pricing_plan_id":"cebpf4jnsgd1na2vs0mg"},{"bike_id":"abf935c5-7318-4f2d-a490-e6519bd242b9","system_id":"levelo_inurba_marseille","lat":43.28697,"lon":5.37394,"is_reserved":false,"is_disabled":false,"rental_uris":{"android":"levelo://app?vid=abf935c5-7318-4f2d-a490-e6519bd242b9","ios":"levelo://app?vid=abf935c5-7318-4f2d-a490-e6519bd242b9"},"vehicle_type_id":"4","last_reported":1726863034,"current_range_meters":38800,"station_id":"ce4bh3p2rcd13ifvqdq0","pricing_plan_id":"cebpf4jnsgd1na2vs0mg"},{"bike_id":"2e500453-4f8f-49e2-8bf2-b2eee74029b8","system_id":"levelo_inurba_marseille","lat":43.29274,"lon":5.40123,"is_reserved":false,"is_disabled":false,"rental_uris":{"android":"levelo://app?vid=2e500453-4f8f-49e2-8bf2-b2eee74029b8","ios":"levelo://app?vid=2e500453-4f8f-49e2-8bf2-b2eee74029b8"},"vehicle_type_id":"4","last_reported":1726863034,"current_range_meters":36800,"station_id":"ce4bh312rcd13ifvqdk0","pricing_plan_id":"cebpf4jnsgd1na2vs0mg"},{"bike_id":"8599327e-7a38-42cc-bae8-5460e681ba0a","system_id":"levelo_inurba_marseille","lat":43.31752,"lon":5.39026,"is_reserved":false,"is_disabled":false,"rental_uris":{"android":"levelo://app?vid=8599327e-7a38-42cc-bae8-5460e681ba0a","ios":"levelo://app?vid=8599327e-7a38-42cc-bae8-5460e681ba0a"},"vehicle_type_id":"4","last_reported":1726863034,"current_range_meters":38800,"station_id":"ce4bhqp2rcd13ifvqhng","pricing_plan_id":"cebpf4jnsgd1na2vs0mg"},{"bike_id":"5d6144dd-b2d3-4794-9e70-c1cec4d01784","system_id":"levelo_inurba_marseille","lat":43.29368,"lon":5.37865,"is_reserved":false,"is_disabled":false,"rental_uris":{"android":"levelo://app?vid=5d6144dd-b2d3-4794-9e70-c1cec4d01784","ios":"levelo://app?vid=5d6144dd-b2d3-4794-9e70-c1cec4d01784"},"vehicle_type_id":"4","last_reported":1726863034,"current_range_meters":30000,"station_id":"ce4bgjh2rcd13ifvqbf0","pricing_plan_id":"cebpf4jnsgd1na2vs0mg"},{"bike_id":"2a7db943-6265-4479-9604-043d344eb7a6","system_id":"levelo_inurba_marseille","lat":43.30281,"lon":5.38395,"is_reserved":false,"is_disabled":false,"rental_uris":{"android":"levelo://app?vid=2a7db943-6265-4479-9604-043d344eb7a6","ios":"levelo://app?vid=2a7db943-6265-4479-9604-043d344eb7a6"},"vehicle_type_id":"4","last_reported":1726863034,"current_range_meters":26800,"station_id":"","pricing_plan_id":"cebpf4jnsgd1na2vs0mg"},{"bike_id":"b8afe22f-c0f3-483c-bb5f-6071483e5e25","system_id":"levelo_inurba_marseille","lat":43.25937,"lon":5.40906,"is_reserved":false,"is_disabled":false,"rental_uris":{"android":"levelo://app?vid=b8afe22f-c0f3-483c-bb5f-6071483e5e25","ios":"levelo://app?vid=b8afe22f-c0f3-483c-bb5f-6071483e5e25"},"vehicle_type_id":"4","last_reported":1726863034,"current_range_meters":35600,"station_id":"ce4bhm92rcd13ifvqglg","pricing_plan_id":"cebpf4jnsgd1na2vs0mg"},{"bike_id":"46862c90-ad7b-4238-91d7-b35c9aee5955","system_id":"levelo_inurba_marseille","lat":43.29268,"lon":5.38437,"is_reserved":false,"is_disabled":false,"rental_uris":{"android":"levelo://app?vid=46862c90-ad7b-4238-91d7-b35c9aee5955","ios":"levelo://app?vid=46862c90-ad7b-4238-91d7-b35c9aee5955"},"vehicle_type_id":"4","last_reported":1726863034,"current_range_meters":36000,"station_id":"ce4bh692rcd13ifvqea0","pricing_plan_id":"cebpf4jnsgd1na2vs0mg"},{"bike_id":"b8c4fb30-143a-40da-a94d-ac106aff7dd4","system_id":"levelo_inurba_marseille","lat":43.31268,"lon":5.40175,"is_reserved":false,"is_disabled":false,"rental_uris":{"android":"levelo://app?vid=b8c4fb30-143a-40da-a94d-ac106aff7dd4","ios":"levelo://app?vid=b8c4fb30-143a-40da-a94d-ac106aff7dd4"},"vehicle_type_id":"4","last_reported":1726863034,"current_range_meters":8400,"station_id":"ce4bh092rcd13ifvqd30","pricing_plan_id":"cebpf4jnsgd1na2vs0mg"},{"bike_id":"edfb1ff5-b81b-4225-8da9-100a9115b1e3","system_id":"levelo_inurba_marseille","lat":43.29735,"lon":5.36561,"is_reserved":false,"is_disabled":false,"rental_uris":{"android":"levelo://app?vid=edfb1ff5-b81b-4225-8da9-100a9115b1e3","ios":"levelo://app?vid=edfb1ff5-b81b-4225-8da9-100a9115b1e3"},"vehicle_type_id":"4","last_reported":1726863034,"current_range_meters":11600,"station_id":"","pricing_plan_id":"cebpf4jnsgd1na2vs0mg"},{"bike_id":"0df805ca-5348-4169-979d-f0b036f1fe02","system_id":"levelo_inurba_marseille","lat":43.31998,"lon":5.38168,"is_reserved":false,"is_disabled":false,"rental_uris":{"android":"levelo://app?vid=0df805ca-5348-4169-979d-f0b036f1fe02","ios":"levelo://app?vid=0df805ca-5348-4169-979d-f0b036f1fe02"},"vehicle_type_id":"4","last_reported":1726863034,"current_range_meters":23200,"station_id":"ce4bhr12rcd13ifvqhpg","pricing_plan_id":"cebpf4jnsgd1na2vs0mg"},{"bike_id":"15e3060d-1cfb-481c-9f48-257a94bd2c2a","system_id":"levelo_inurba_marseille","lat":43.32427,"lon":5.40881,"is_reserved":false,"is_disabled":false,"rental_uris":{"android":"levelo://app?vid=15e3060d-1cfb-481c-9f48-257a94bd2c2a","ios":"levelo://app?vid=15e3060d-1cfb-481c-9f48-257a94bd2c2a"},"vehicle_type_id":"4","last_reported":1726863034,"current_range_meters":35200,"station_id":"","pricing_plan_id":"cebpf4jnsgd1na2vs0mg"},{"bike_id":"9b593e1a-bf66-49e3-9157-adba3e02bd78","system_id":"levelo_inurba_marseille","lat":43.30169,"lon":5.39791,"is_reserved":false,"is_disabled":false,"rental_uris":{"android":"levelo://app?vid=9b593e1a-bf66-49e3-9157-adba3e02bd78","ios":"levelo://app?vid=9b593e1a-bf66-49e3-9157-adba3e02bd78"},"vehicle_type_id":"4","last_reported":1726863034,"current_range_meters":24800,"station_id":"","pricing_plan_id":"cebpf4jnsgd1na2vs0mg"},{"bike_id":"9a7554e7-fe85-4852-a448-30d3e7fd07d7","system_id":"levelo_inurba_marseille","lat":43.23149,"lon":5.43716,"is_reserved":false,"is_disabled":false,"rental_uris":{"android":"levelo://app?vid=9a7554e7-fe85-4852-a448-30d3e7fd07d7","ios":"levelo://app?vid=9a7554e7-fe85-4852-a448-30d3e7fd07d7"},"vehicle_type_id":"4","last_reported":1726863034,"current_range_meters":38400,"station_id":"ce4bhmp2rcd13ifvqgog","pricing_plan_id":"cebpf4jnsgd1na2vs0mg"},{"bike_id":"7a432638-6fd6-4274-96d7-f403174703fc","system_id":"levelo_inurba_marseille","lat":43.24804,"lon":5.37454,"is_reserved":false,"is_disabled":false,"rental_uris":{"android":"levelo://app?vid=7a432638-6fd6-4274-96d7-f403174703fc","ios":"levelo://app?vid=7a432638-6fd6-4274-96d7-f403174703fc"},"vehicle_type_id":"4","last_reported":1726863034,"current_range_meters":2800,"station_id":"ce4bhgh2rcd13ifvqfb0","pricing_plan_id":"cebpf4jnsgd1na2vs0mg"},{"bike_id":"6585c6a5-d40a-4b62-9c5d-90daf6bfaae1","system_id":"levelo_inurba_marseille","lat":43.29528,"lon":5.38551,"is_reserved":false,"is_disabled":false,"rental_uris":{"android":"levelo://app?vid=6585c6a5-d40a-4b62-9c5d-90daf6bfaae1","ios":"levelo://app?vid=6585c6a5-d40a-4b62-9c5d-90daf6bfaae1"},"vehicle_type_id":"4","last_reported":1726863034,"current_range_meters":2800,"station_id":"ce4bgih2rcd13ifvqba0","pricing_plan_id":"cebpf4jnsgd1na2vs0mg"},{"bike_id":"e4cd288b-58e9-4c73-81ff-0e54d332441e","system_id":"levelo_inurba_marseille","lat":43.33021,"lon":5.39045,"is_reserved":false,"is_disabled":false,"rental_uris":{"android":"levelo://app?vid=e4cd288b-58e9-4c73-81ff-0e54d332441e","ios":"levelo://app?vid=e4cd288b-58e9-4c73-81ff-0e54d332441e"},"vehicle_type_id":"4","last_reported":1726863034,"current_range_meters":20000,"station_id":"ce4bhr92rcd13ifvqhrg","pricing_plan_id":"cebpf4jnsgd1na2vs0mg"},{"bike_id":"b4d8cc2f-08fa-447c-98aa-3fb508700768","system_id":"levelo_inurba_marseille","lat":43.28941,"lon":5.35779,"is_reserved":false,"is_disabled":false,"rental_uris":{"android":"levelo://app?vid=b4d8cc2f-08fa-447c-98aa-3fb508700768","ios":"levelo://app?vid=b4d8cc2f-08fa-447c-98aa-3fb508700768"},"vehicle_type_id":"4","last_reported":1726863034,"current_range_meters":7200,"station_id":"","pricing_plan_id":"cebpf4jnsgd1na2vs0mg"},{"bike_id":"53b0d88c-3ddb-4e2e-a1d5-9ea3b0a5c6d1","system_id":"levelo_inurba_marseille","lat":43.31328,"lon":5.39702,"is_reserved":false,"is_disabled":false,"rental_uris":{"android":"levelo://app?vid=53b0d88c-3ddb-4e2e-a1d5-9ea3b0a5c6d1","ios":"levelo://app?vid=53b0d88c-3ddb-4e2e-a1d5-9ea3b0a5c6d1"},"vehicle_type_id":"4","last_reported":1726863034,"current_range_meters":29600,"station_id":"ce4bgvp2rcd13ifvqcu0","pricing_plan_id":"cebpf4jnsgd1na2vs0mg"},{"bike_id":"e0f3cafc-89e1-4dbf-8cbf-7d6e1a9aa756","system_id":"levelo_inurba_marseille","lat":43.26806,"lon":5.40272,"is_reserved":false,"is_disabled":false,"rental_uris":{"android":"levelo://app?vid=e0f3cafc-89e1-4dbf-8cbf-7d6e1a9aa756","ios":"levelo://app?vid=e0f3cafc-89e1-4dbf-8cbf-7d6e1a9aa756"},"vehicle_type_id":"4","last_reported":1726863034,"current_range_meters":3200,"station_id":"ce501612rcd8frsf0b60","pricing_plan_id":"cebpf4jnsgd1na2vs0mg"},{"bike_id":"ab57df10-3f51-4851-82c1-425fbb54c3aa","system_id":"levelo_inurba_marseille","lat":43.29267,"lon":5.36859,"is_reserved":false,"is_disabled":false,"rental_uris":{"android":"levelo://app?vid=ab57df10-3f51-4851-82c1-425fbb54c3aa","ios":"levelo://app?vid=ab57df10-3f51-4851-82c1-425fbb54c3aa"},"vehicle_type_id":"4","last_reported":1726863034,"current_range_meters":9200,"station_id":"ce4bhbp2rcd13ifvqesg","pricing_plan_id":"cebpf4jnsgd1na2vs0mg"},{"bike_id":"bcd9d067-b093-4910-baae-4106d4c6d258","system_id":"levelo_inurba_marseille","lat":43.292,"lon":5.36073,"is_reserved":false,"is_disabled":false,"rental_uris":{"android":"levelo://app?vid=bcd9d067-b093-4910-baae-4106d4c6d258","ios":"levelo://app?vid=bcd9d067-b093-4910-baae-4106d4c6d258"},"vehicle_type_id":"4","last_reported":1726863034,"current_range_meters":38800,"station_id":"ce4bhbh2rcd13ifvqeqg","pricing_plan_id":"cebpf4jnsgd1na2vs0mg"},{"bike_id":"0ba4b233-11fa-48b7-bea7-8939a83460e1","system_id":"levelo_inurba_marseille","lat":43.30602,"lon":5.37224,"is_reserved":false,"is_disabled":false,"rental_uris":{"android":"levelo://app?vid=0ba4b233-11fa-48b7-bea7-8939a83460e1","ios":"levelo://app?vid=0ba4b233-11fa-48b7-bea7-8939a83460e1"},"vehicle_type_id":"4","last_reported":1726863034,"current_range_meters":21600,"station_id":"ce4bgqh2rcd13ifvqc4g","pricing_plan_id":"cebpf4jnsgd1na2vs0mg"},{"bike_id":"78bfbeea-3a57-4b59-af6e-46e215166e0d","system_id":"levelo_inurba_marseille","lat":43.2961,"lon":5.38109,"is_reserved":false,"is_disabled":false,"rental_uris":{"android":"levelo://app?vid=78bfbeea-3a57-4b59-af6e-46e215166e0d","ios":"levelo://app?vid=78bfbeea-3a57-4b59-af6e-46e215166e0d"},"vehicle_type_id":"4","last_reported":1726863034,"current_range_meters":8400,"station_id":"ce4bgl12rcd13ifvqbo0","pricing_plan_id":"cebpf4jnsgd1na2vs0mg"},{"bike_id":"50d45c49-ddbe-4619-815e-666ce607b69b","system_id":"levelo_inurba_marseille","lat":43.297955,"lon":5.380996,"is_reserved":false,"is_disabled":false,"rental_uris":{"android":"levelo://app?vid=50d45c49-ddbe-4619-815e-666ce607b69b","ios":"levelo://app?vid=50d45c49-ddbe-4619-815e-666ce607b69b"},"vehicle_type_id":"4","last_reported":1726863034,"current_range_meters":16400,"station_id":"ce4bgip2rcd13ifvqbb0","pricing_plan_id":"cebpf4jnsgd1na2vs0mg"},{"bike_id":"c233e8dd-3568-4742-b185-4db76ce73584","system_id":"levelo_inurba_marseille","lat":43.29234,"lon":5.41943,"is_reserved":false,"is_disabled":false,"rental_uris":{"android":"levelo://app?vid=c233e8dd-3568-4742-b185-4db76ce73584","ios":"levelo://app?vid=c233e8dd-3568-4742-b185-4db76ce73584"},"vehicle_type_id":"4","last_reported":1726863034,"current_range_meters":24000,"station_id":"","pricing_plan_id":"cebpf4jnsgd1na2vs0mg"},{"bike_id":"6a4481fd-e633-46aa-bd46-0e99bbb63529","system_id":"levelo_inurba_marseille","lat":43.29588,"lon":5.38106,"is_reserved":false,"is_disabled":false,"rental_uris":{"android":"levelo://app?vid=6a4481fd-e633-46aa-bd46-0e99bbb63529","ios":"levelo://app?vid=6a4481fd-e633-46aa-bd46-0e99bbb63529"},"vehicle_type_id":"4","last_reported":1726863034,"current_range_meters":8800,"station_id":"ce4bgl12rcd13ifvqbo0","pricing_plan_id":"cebpf4jnsgd1na2vs0mg"},{"bike_id":"f1fe27d9-8d63-4fd9-9128-e84c509f3f6e","system_id":"levelo_inurba_marseille","lat":43.27841,"lon":5.39213,"is_reserved":false,"is_disabled":false,"rental_uris":{"android":"levelo://app?vid=f1fe27d9-8d63-4fd9-9128-e84c509f3f6e","ios":"levelo://app?vid=f1fe27d9-8d63-4fd9-9128-e84c509f3f6e"},"vehicle_type_id":"4","last_reported":1726863034,"current_range_meters":24800,"station_id":"ce4bhjp2rcd13ifvqga0","pricing_plan_id":"cebpf4jnsgd1na2vs0mg"},{"bike_id":"c99f33cf-8412-4227-908f-aaedcf799ae0","system_id":"levelo_inurba_marseille","lat":43.30148,"lon":5.3808,"is_reserved":false,"is_disabled":false,"rental_uris":{"android":"levelo://app?vid=c99f33cf-8412-4227-908f-aaedcf799ae0","ios":"levelo://app?vid=c99f33cf-8412-4227-908f-aaedcf799ae0"},"vehicle_type_id":"4","last_reported":1726863034,"current_range_meters":10800,"station_id":"ce4bgjp2rcd13ifvqbh0","pricing_plan_id":"cebpf4jnsgd1na2vs0mg"},{"bike_id":"5840a821-7b4a-4179-8856-92a74917e83c","system_id":"levelo_inurba_marseille","lat":43.25004,"lon":5.38932,"is_reserved":false,"is_disabled":false,"rental_uris":{"android":"levelo://app?vid=5840a821-7b4a-4179-8856-92a74917e83c","ios":"levelo://app?vid=5840a821-7b4a-4179-8856-92a74917e83c"},"vehicle_type_id":"4","last_reported":1726863034,"current_range_meters":39200,"station_id":"ce4bhgp2rcd13ifvqfd0","pricing_plan_id":"cebpf4jnsgd1na2vs0mg"},{"bike_id":"d4642f17-1257-4932-99eb-07162a326286","system_id":"levelo_inurba_marseille","lat":43.2926,"lon":5.38446,"is_reserved":false,"is_disabled":false,"rental_uris":{"android":"levelo://app?vid=d4642f17-1257-4932-99eb-07162a326286","ios":"levelo://app?vid=d4642f17-1257-4932-99eb-07162a326286"},"vehicle_type_id":"4","last_reported":1726863034,"current_range_meters":10000,"station_id":"ce4bh692rcd13ifvqea0","pricing_plan_id":"cebpf4jnsgd1na2vs0mg"},{"bike_id":"1d50b34d-e41e-407e-93f9-1ab0f089d397","system_id":"levelo_inurba_marseille","lat":43.27371,"lon":5.36263,"is_reserved":false,"is_disabled":false,"rental_uris":{"android":"levelo://app?vid=1d50b34d-e41e-407e-93f9-1ab0f089d397","ios":"levelo://app?vid=1d50b34d-e41e-407e-93f9-1ab0f089d397"},"vehicle_type_id":"4","last_reported":1726863034,"current_range_meters":22400,"station_id":"ce4bhbh2rcd13ifvqeo0","pricing_plan_id":"cebpf4jnsgd1na2vs0mg"},{"bike_id":"5419b1bf-d37c-4076-a34c-52ede101758e","system_id":"levelo_inurba_marseille","lat":43.337444,"lon":5.374475,"is_reserved":false,"is_disabled":false,"rental_uris":{"android":"levelo://app?vid=5419b1bf-d37c-4076-a34c-52ede101758e","ios":"levelo://app?vid=5419b1bf-d37c-4076-a34c-52ede101758e"},"vehicle_type_id":"4","last_reported":1726863034,"current_range_meters":35600,"station_id":"","pricing_plan_id":"cebpf4jnsgd1na2vs0mg"},{"bike_id":"5c003c29-6dbe-413e-99d4-3b30a1fddbc2","system_id":"levelo_inurba_marseille","lat":43.27374,"lon":5.36257,"is_reserved":false,"is_disabled":false,"rental_uris":{"android":"levelo://app?vid=5c003c29-6dbe-413e-99d4-3b30a1fddbc2","ios":"levelo://app?vid=5c003c29-6dbe-413e-99d4-3b30a1fddbc2"},"vehicle_type_id":"4","last_reported":1726863034,"current_range_meters":37600,"station_id":"ce4bhbh2rcd13ifvqeo0","pricing_plan_id":"cebpf4jnsgd1na2vs0mg"},{"bike_id":"b840ee73-31a3-4fe1-a3ab-8f1ddfad7cde","system_id":"levelo_inurba_marseille","lat":43.31685,"lon":5.40474,"is_reserved":false,"is_disabled":false,"rental_uris":{"android":"levelo://app?vid=b840ee73-31a3-4fe1-a3ab-8f1ddfad7cde","ios":"levelo://app?vid=b840ee73-31a3-4fe1-a3ab-8f1ddfad7cde"},"vehicle_type_id":"4","last_reported":1726863034,"current_range_meters":9200,"station_id":"ce4bh012rcd13ifvqd00","pricing_plan_id":"cebpf4jnsgd1na2vs0mg"},{"bike_id":"f7575c27-994c-406f-8323-578b38c16d91","system_id":"levelo_inurba_marseille","lat":43.28742,"lon":5.36531,"is_reserved":false,"is_disabled":false,"rental_uris":{"android":"levelo://app?vid=f7575c27-994c-406f-8323-578b38c16d91","ios":"levelo://app?vid=f7575c27-994c-406f-8323-578b38c16d91"},"vehicle_type_id":"4","last_reported":1726863034,"current_range_meters":34000,"station_id":"","pricing_plan_id":"cebpf4jnsgd1na2vs0mg"},{"bike_id":"1fe2ad47-089f-4a47-95f0-bda455743701","system_id":"levelo_inurba_marseille","lat":43.29282,"lon":5.36849,"is_reserved":false,"is_disabled":false,"rental_uris":{"android":"levelo://app?vid=1fe2ad47-089f-4a47-95f0-bda455743701","ios":"levelo://app?vid=1fe2ad47-089f-4a47-95f0-bda455743701"},"vehicle_type_id":"4","last_reported":1726863034,"current_range_meters":22000,"station_id":"ce4bhbp2rcd13ifvqesg","pricing_plan_id":"cebpf4jnsgd1na2vs0mg"},{"bike_id":"598304d3-f8d3-448e-8a71-06db80bfb9e1","system_id":"levelo_inurba_marseille","lat":43.30455,"lon":5.36621,"is_reserved":false,"is_disabled":false,"rental_uris":{"android":"levelo://app?vid=598304d3-f8d3-448e-8a71-06db80bfb9e1","ios":"levelo://app?vid=598304d3-f8d3-448e-8a71-06db80bfb9e1"},"vehicle_type_id":"4","last_reported":1726863034,"current_range_meters":8400,"station_id":"","pricing_plan_id":"cebpf4jnsgd1na2vs0mg"},{"bike_id":"4bd9df89-5d63-4a26-9aed-94afaccd5554","system_id":"levelo_inurba_marseille","lat":43.28485,"lon":5.38564,"is_reserved":false,"is_disabled":false,"rental_uris":{"android":"levelo://app?vid=4bd9df89-5d63-4a26-9aed-94afaccd5554","ios":"levelo://app?vid=4bd9df89-5d63-4a26-9aed-94afaccd5554"},"vehicle_type_id":"4","last_reported":1726863034,"current_range_meters":7200,"station_id":"ce4bh8p2rcd13ifvqeb0","pricing_plan_id":"cebpf4jnsgd1na2vs0mg"},{"bike_id":"742a3543-343d-45b9-b876-36b8d248039c","system_id":"levelo_inurba_marseille","lat":43.28103,"lon":5.37842,"is_reserved":false,"is_disabled":false,"rental_uris":{"android":"levelo://app?vid=742a3543-343d-45b9-b876-36b8d248039c","ios":"levelo://app?vid=742a3543-343d-45b9-b876-36b8d248039c"},"vehicle_type_id":"4","last_reported":1726863034,"current_range_meters":36800,"station_id":"ce4bha12rcd13ifvqee0","pricing_plan_id":"cebpf4jnsgd1na2vs0mg"},{"bike_id":"5899dc76-4576-41fc-91db-67e269faacc4","system_id":"levelo_inurba_marseille","lat":43.31757,"lon":5.39018,"is_reserved":false,"is_disabled":false,"rental_uris":{"android":"levelo://app?vid=5899dc76-4576-41fc-91db-67e269faacc4","ios":"levelo://app?vid=5899dc76-4576-41fc-91db-67e269faacc4"},"vehicle_type_id":"4","last_reported":1726863034,"current_range_meters":39200,"station_id":"ce4bhqp2rcd13ifvqhng","pricing_plan_id":"cebpf4jnsgd1na2vs0mg"},{"bike_id":"9203739a-774a-4b9c-832c-d982cfd4c7c1","system_id":"levelo_inurba_marseille","lat":43.31625,"lon":5.38597,"is_reserved":false,"is_disabled":false,"rental_uris":{"android":"levelo://app?vid=9203739a-774a-4b9c-832c-d982cfd4c7c1","ios":"levelo://app?vid=9203739a-774a-4b9c-832c-d982cfd4c7c1"},"vehicle_type_id":"4","last_reported":1726863034,"current_range_meters":9200,"station_id":"","pricing_plan_id":"cebpf4jnsgd1na2vs0mg"},{"bike_id":"6e2fd8fb-799c-468d-a60b-38d2bf81aa37","system_id":"levelo_inurba_marseille","lat":43.23957,"lon":5.36635,"is_reserved":false,"is_disabled":false,"rental_uris":{"android":"levelo://app?vid=6e2fd8fb-799c-468d-a60b-38d2bf81aa37","ios":"levelo://app?vid=6e2fd8fb-799c-468d-a60b-38d2bf81aa37"},"vehicle_type_id":"4","last_reported":1726863034,"current_range_meters":6800,"station_id":"ce4bhi12rcd13ifvqfp0","pricing_plan_id":"cebpf4jnsgd1na2vs0mg"},{"bike_id":"fb730c85-cef2-43fb-877c-de273059500e","system_id":"levelo_inurba_marseille","lat":43.31753,"lon":5.39015,"is_reserved":false,"is_disabled":false,"rental_uris":{"android":"levelo://app?vid=fb730c85-cef2-43fb-877c-de273059500e","ios":"levelo://app?vid=fb730c85-cef2-43fb-877c-de273059500e"},"vehicle_type_id":"4","last_reported":1726863034,"current_range_meters":33200,"station_id":"ce4bhqp2rcd13ifvqhng","pricing_plan_id":"cebpf4jnsgd1na2vs0mg"},{"bike_id":"5bf617b6-2eea-40a9-9576-9b6f0fdecd15","system_id":"levelo_inurba_marseille","lat":43.32371,"lon":5.38884,"is_reserved":false,"is_disabled":false,"rental_uris":{"android":"levelo://app?vid=5bf617b6-2eea-40a9-9576-9b6f0fdecd15","ios":"levelo://app?vid=5bf617b6-2eea-40a9-9576-9b6f0fdecd15"},"vehicle_type_id":"4","last_reported":1726863034,"current_range_meters":20400,"station_id":"ce4bhqp2rcd13ifvqhog","pricing_plan_id":"cebpf4jnsgd1na2vs0mg"},{"bike_id":"4ef451ac-8a34-4f5e-b676-5410454fd6b7","system_id":"levelo_inurba_marseille","lat":43.29528,"lon":5.38549,"is_reserved":false,"is_disabled":false,"rental_uris":{"android":"levelo://app?vid=4ef451ac-8a34-4f5e-b676-5410454fd6b7","ios":"levelo://app?vid=4ef451ac-8a34-4f5e-b676-5410454fd6b7"},"vehicle_type_id":"4","last_reported":1726863034,"current_range_meters":31200,"station_id":"ce4bgih2rcd13ifvqba0","pricing_plan_id":"cebpf4jnsgd1na2vs0mg"},{"bike_id":"f61ddcc9-09c6-4f25-9e9a-74c41104105c","system_id":"levelo_inurba_marseille","lat":43.28383,"lon":5.35898,"is_reserved":false,"is_disabled":false,"rental_uris":{"android":"levelo://app?vid=f61ddcc9-09c6-4f25-9e9a-74c41104105c","ios":"levelo://app?vid=f61ddcc9-09c6-4f25-9e9a-74c41104105c"},"vehicle_type_id":"4","last_reported":1726863034,"current_range_meters":38800,"station_id":"","pricing_plan_id":"cebpf4jnsgd1na2vs0mg"},{"bike_id":"cf5c8e33-1c97-4a0e-90b7-e0e79148ee82","system_id":"levelo_inurba_marseille","lat":43.25869,"lon":5.39905,"is_reserved":false,"is_disabled":false,"rental_uris":{"android":"levelo://app?vid=cf5c8e33-1c97-4a0e-90b7-e0e79148ee82","ios":"levelo://app?vid=cf5c8e33-1c97-4a0e-90b7-e0e79148ee82"},"vehicle_type_id":"4","last_reported":1726863034,"current_range_meters":9600,"station_id":"ce4bhl92rcd13ifvqghg","pricing_plan_id":"cebpf4jnsgd1na2vs0mg"},{"bike_id":"e3eb8467-28bb-4683-9c36-6a099cb5558f","system_id":"levelo_inurba_marseille","lat":43.28938,"lon":5.36638,"is_reserved":false,"is_disabled":false,"rental_uris":{"android":"levelo://app?vid=e3eb8467-28bb-4683-9c36-6a099cb5558f","ios":"levelo://app?vid=e3eb8467-28bb-4683-9c36-6a099cb5558f"},"vehicle_type_id":"4","last_reported":1726863034,"current_range_meters":25200,"station_id":"ce4bhap2rcd13ifvqek0","pricing_plan_id":"cebpf4jnsgd1na2vs0mg"},{"bike_id":"40b30bf1-df0a-47fd-bf93-8f163c982ffe","system_id":"levelo_inurba_marseille","lat":43.32294,"lon":5.38266,"is_reserved":false,"is_disabled":false,"rental_uris":{"android":"levelo://app?vid=40b30bf1-df0a-47fd-bf93-8f163c982ffe","ios":"levelo://app?vid=40b30bf1-df0a-47fd-bf93-8f163c982ffe"},"vehicle_type_id":"4","last_reported":1726863034,"current_range_meters":37600,"station_id":"ce4bhr12rcd13ifvqhqg","pricing_plan_id":"cebpf4jnsgd1na2vs0mg"},{"bike_id":"bd248bc7-a1a6-4c83-92d3-231a636890e1","system_id":"levelo_inurba_marseille","lat":43.30798,"lon":5.4353,"is_reserved":false,"is_disabled":false,"rental_uris":{"android":"levelo://app?vid=bd248bc7-a1a6-4c83-92d3-231a636890e1","ios":"levelo://app?vid=bd248bc7-a1a6-4c83-92d3-231a636890e1"},"vehicle_type_id":"4","last_reported":1726863034,"current_range_meters":36800,"station_id":"ce4bhph2rcd13ifvqheg","pricing_plan_id":"cebpf4jnsgd1na2vs0mg"},{"bike_id":"68253a4b-0721-43d8-b0af-837ac944a07e","system_id":"levelo_inurba_marseille","lat":43.25583,"lon":5.3823,"is_reserved":false,"is_disabled":false,"rental_uris":{"android":"levelo://app?vid=68253a4b-0721-43d8-b0af-837ac944a07e","ios":"levelo://app?vid=68253a4b-0721-43d8-b0af-837ac944a07e"},"vehicle_type_id":"4","last_reported":1726863034,"current_range_meters":38800,"station_id":"ce4bhih2rcd13ifvqfs0","pricing_plan_id":"cebpf4jnsgd1na2vs0mg"},{"bike_id":"0f553bf6-5bd8-489c-8936-d8a44872e4b3","system_id":"levelo_inurba_marseille","lat":43.28279,"lon":5.35065,"is_reserved":false,"is_disabled":false,"rental_uris":{"android":"levelo://app?vid=0f553bf6-5bd8-489c-8936-d8a44872e4b3","ios":"levelo://app?vid=0f553bf6-5bd8-489c-8936-d8a44872e4b3"},"vehicle_type_id":"4","last_reported":1726863034,"current_range_meters":25600,"station_id":"ce4bhbp2rcd13ifvqerg","pricing_plan_id":"cebpf4jnsgd1na2vs0mg"},{"bike_id":"95b7c43d-20e5-4f21-956f-9ecb3a12aa45","system_id":"levelo_inurba_marseille","lat":43.28657,"lon":5.36361,"is_reserved":false,"is_disabled":false,"rental_uris":{"android":"levelo://app?vid=95b7c43d-20e5-4f21-956f-9ecb3a12aa45","ios":"levelo://app?vid=95b7c43d-20e5-4f21-956f-9ecb3a12aa45"},"vehicle_type_id":"4","last_reported":1726863034,"current_range_meters":38800,"station_id":"ce4bhah2rcd13ifvqej0","pricing_plan_id":"cebpf4jnsgd1na2vs0mg"},{"bike_id":"ce71b222-3800-4b05-9883-f54231895913","system_id":"levelo_inurba_marseille","lat":43.31138,"lon":5.37778,"is_reserved":false,"is_disabled":false,"rental_uris":{"android":"levelo://app?vid=ce71b222-3800-4b05-9883-f54231895913","ios":"levelo://app?vid=ce71b222-3800-4b05-9883-f54231895913"},"vehicle_type_id":"4","last_reported":1726863034,"current_range_meters":37600,"station_id":"ce4bgt92rcd13ifvqcg0","pricing_plan_id":"cebpf4jnsgd1na2vs0mg"},{"bike_id":"0818b416-22f4-41f8-872d-85a552f5dbbe","system_id":"levelo_inurba_marseille","lat":43.26782,"lon":5.39419,"is_reserved":false,"is_disabled":false,"rental_uris":{"android":"levelo://app?vid=0818b416-22f4-41f8-872d-85a552f5dbbe","ios":"levelo://app?vid=0818b416-22f4-41f8-872d-85a552f5dbbe"},"vehicle_type_id":"4","last_reported":1726863034,"current_range_meters":4000,"station_id":"ce4bhh12rcd13ifvqfg0","pricing_plan_id":"cebpf4jnsgd1na2vs0mg"},{"bike_id":"604c9531-be4f-4974-bfe2-bd7828d7386f","system_id":"levelo_inurba_marseille","lat":43.29893,"lon":5.43685,"is_reserved":false,"is_disabled":false,"rental_uris":{"android":"levelo://app?vid=604c9531-be4f-4974-bfe2-bd7828d7386f","ios":"levelo://app?vid=604c9531-be4f-4974-bfe2-bd7828d7386f"},"vehicle_type_id":"4","last_reported":1726863034,"current_range_meters":27200,"station_id":"ce4bhpp2rcd13ifvqhfg","pricing_plan_id":"cebpf4jnsgd1na2vs0mg"},{"bike_id":"c1310b37-dd83-4623-a074-f471af25c7d1","system_id":"levelo_inurba_marseille","lat":43.28445,"lon":5.39189,"is_reserved":false,"is_disabled":false,"rental_uris":{"android":"levelo://app?vid=c1310b37-dd83-4623-a074-f471af25c7d1","ios":"levelo://app?vid=c1310b37-dd83-4623-a074-f471af25c7d1"},"vehicle_type_id":"4","last_reported":1726863034,"current_range_meters":6400,"station_id":"ce4bhoh2rcd13ifvqh5g","pricing_plan_id":"cebpf4jnsgd1na2vs0mg"},{"bike_id":"4e17f22a-2726-4dcd-b80c-19ada51c3a26","system_id":"levelo_inurba_marseille","lat":43.28703,"lon":5.3999,"is_reserved":false,"is_disabled":false,"rental_uris":{"android":"levelo://app?vid=4e17f22a-2726-4dcd-b80c-19ada51c3a26","ios":"levelo://app?vid=4e17f22a-2726-4dcd-b80c-19ada51c3a26"},"vehicle_type_id":"4","last_reported":1726863034,"current_range_meters":35200,"station_id":"ce4bho92rcd13ifvqh3g","pricing_plan_id":"cebpf4jnsgd1na2vs0mg"},{"bike_id":"67698836-92a3-45e6-84b9-6609ae2856e6","system_id":"levelo_inurba_marseille","lat":43.24802,"lon":5.37459,"is_reserved":false,"is_disabled":false,"rental_uris":{"android":"levelo://app?vid=67698836-92a3-45e6-84b9-6609ae2856e6","ios":"levelo://app?vid=67698836-92a3-45e6-84b9-6609ae2856e6"},"vehicle_type_id":"4","last_reported":1726863034,"current_range_meters":7200,"station_id":"ce4bhgh2rcd13ifvqfb0","pricing_plan_id":"cebpf4jnsgd1na2vs0mg"},{"bike_id":"e5b107f6-bfca-4c71-b7f0-138f6abcbd25","system_id":"levelo_inurba_marseille","lat":43.27371,"lon":5.36262,"is_reserved":false,"is_disabled":false,"rental_uris":{"android":"levelo://app?vid=e5b107f6-bfca-4c71-b7f0-138f6abcbd25","ios":"levelo://app?vid=e5b107f6-bfca-4c71-b7f0-138f6abcbd25"},"vehicle_type_id":"4","last_reported":1726863034,"current_range_meters":21600,"station_id":"ce4bhbh2rcd13ifvqeo0","pricing_plan_id":"cebpf4jnsgd1na2vs0mg"},{"bike_id":"5c48e6b5-512d-441e-9c67-e1754091d5d0","system_id":"levelo_inurba_marseille","lat":43.25003,"lon":5.38934,"is_reserved":false,"is_disabled":false,"rental_uris":{"android":"levelo://app?vid=5c48e6b5-512d-441e-9c67-e1754091d5d0","ios":"levelo://app?vid=5c48e6b5-512d-441e-9c67-e1754091d5d0"},"vehicle_type_id":"4","last_reported":1726863034,"current_range_meters":20400,"station_id":"ce4bhgp2rcd13ifvqfd0","pricing_plan_id":"cebpf4jnsgd1na2vs0mg"},{"bike_id":"26bd23e7-0bd3-4acf-90df-d0d657e51cb8","system_id":"levelo_inurba_marseille","lat":43.25122,"lon":5.40321,"is_reserved":false,"is_disabled":false,"rental_uris":{"android":"levelo://app?vid=26bd23e7-0bd3-4acf-90df-d0d657e51cb8","ios":"levelo://app?vid=26bd23e7-0bd3-4acf-90df-d0d657e51cb8"},"vehicle_type_id":"4","last_reported":1726863034,"current_range_meters":38800,"station_id":"ce4bhlh2rcd13ifvqgig","pricing_plan_id":"cebpf4jnsgd1na2vs0mg"},{"bike_id":"702590b7-e39d-4709-bbd7-f9672d725e73","system_id":"levelo_inurba_marseille","lat":43.29534,"lon":5.38552,"is_reserved":false,"is_disabled":false,"rental_uris":{"android":"levelo://app?vid=702590b7-e39d-4709-bbd7-f9672d725e73","ios":"levelo://app?vid=702590b7-e39d-4709-bbd7-f9672d725e73"},"vehicle_type_id":"4","last_reported":1726863034,"current_range_meters":23200,"station_id":"ce4bgih2rcd13ifvqba0","pricing_plan_id":"cebpf4jnsgd1na2vs0mg"},{"bike_id":"f9c9be8e-ea20-4727-9516-26ff2df08de7","system_id":"levelo_inurba_marseille","lat":43.29959,"lon":5.41318,"is_reserved":false,"is_disabled":false,"rental_uris":{"android":"levelo://app?vid=f9c9be8e-ea20-4727-9516-26ff2df08de7","ios":"levelo://app?vid=f9c9be8e-ea20-4727-9516-26ff2df08de7"},"vehicle_type_id":"4","last_reported":1726863034,"current_range_meters":38800,"station_id":"ce4bhp12rcd13ifvqh9g","pricing_plan_id":"cebpf4jnsgd1na2vs0mg"},{"bike_id":"75d930f5-3aca-4dcb-932d-45017803551f","system_id":"levelo_inurba_marseille","lat":43.28924,"lon":5.38406,"is_reserved":false,"is_disabled":false,"rental_uris":{"android":"levelo://app?vid=75d930f5-3aca-4dcb-932d-45017803551f","ios":"levelo://app?vid=75d930f5-3aca-4dcb-932d-45017803551f"},"vehicle_type_id":"4","last_reported":1726863034,"current_range_meters":38800,"station_id":"ce4bh612rcd13ifvqe6g","pricing_plan_id":"cebpf4jnsgd1na2vs0mg"},{"bike_id":"8273c267-5219-4186-8f32-c3e55203a7ac","system_id":"levelo_inurba_marseille","lat":43.23967,"lon":5.39701,"is_reserved":false,"is_disabled":false,"rental_uris":{"android":"levelo://app?vid=8273c267-5219-4186-8f32-c3e55203a7ac","ios":"levelo://app?vid=8273c267-5219-4186-8f32-c3e55203a7ac"},"vehicle_type_id":"4","last_reported":1726863034,"current_range_meters":8400,"station_id":"","pricing_plan_id":"cebpf4jnsgd1na2vs0mg"},{"bike_id":"79ae80ec-ee51-41e3-8d81-35eef174ac0d","system_id":"levelo_inurba_marseille","lat":43.29035,"lon":5.36974,"is_reserved":false,"is_disabled":false,"rental_uris":{"android":"levelo://app?vid=79ae80ec-ee51-41e3-8d81-35eef174ac0d","ios":"levelo://app?vid=79ae80ec-ee51-41e3-8d81-35eef174ac0d"},"vehicle_type_id":"4","last_reported":1726863034,"current_range_meters":14000,"station_id":"","pricing_plan_id":"cebpf4jnsgd1na2vs0mg"},{"bike_id":"ecf8cc6a-bc91-4999-8cac-1bcb77c169b6","system_id":"levelo_inurba_marseille","lat":43.30783,"lon":5.37648,"is_reserved":false,"is_disabled":false,"rental_uris":{"android":"levelo://app?vid=ecf8cc6a-bc91-4999-8cac-1bcb77c169b6","ios":"levelo://app?vid=ecf8cc6a-bc91-4999-8cac-1bcb77c169b6"},"vehicle_type_id":"4","last_reported":1726863034,"current_range_meters":18000,"station_id":"ce4bgv92rcd13ifvqcq0","pricing_plan_id":"cebpf4jnsgd1na2vs0mg"},{"bike_id":"fe9ace40-aed0-4f2c-89f9-d5f740e6c7bf","system_id":"levelo_inurba_marseille","lat":43.26547,"lon":5.37287,"is_reserved":false,"is_disabled":false,"rental_uris":{"android":"levelo://app?vid=fe9ace40-aed0-4f2c-89f9-d5f740e6c7bf","ios":"levelo://app?vid=fe9ace40-aed0-4f2c-89f9-d5f740e6c7bf"},"vehicle_type_id":"4","last_reported":1726863034,"current_range_meters":38800,"station_id":"ce4bhg12rcd13ifvqf70","pricing_plan_id":"cebpf4jnsgd1na2vs0mg"},{"bike_id":"26bcda71-b863-42e6-adfb-5ef28c4fe4e5","system_id":"levelo_inurba_marseille","lat":43.30428,"lon":5.36754,"is_reserved":false,"is_disabled":false,"rental_uris":{"android":"levelo://app?vid=26bcda71-b863-42e6-adfb-5ef28c4fe4e5","ios":"levelo://app?vid=26bcda71-b863-42e6-adfb-5ef28c4fe4e5"},"vehicle_type_id":"4","last_reported":1726863034,"current_range_meters":3200,"station_id":"","pricing_plan_id":"cebpf4jnsgd1na2vs0mg"},{"bike_id":"af135eb6-084e-4310-8f38-5fdea9dc1740","system_id":"levelo_inurba_marseille","lat":43.29526,"lon":5.38546,"is_reserved":false,"is_disabled":false,"rental_uris":{"android":"levelo://app?vid=af135eb6-084e-4310-8f38-5fdea9dc1740","ios":"levelo://app?vid=af135eb6-084e-4310-8f38-5fdea9dc1740"},"vehicle_type_id":"4","last_reported":1726863034,"current_range_meters":32000,"station_id":"ce4bgih2rcd13ifvqba0","pricing_plan_id":"cebpf4jnsgd1na2vs0mg"},{"bike_id":"1c66debe-96f3-457e-b122-034f166ce4eb","system_id":"levelo_inurba_marseille","lat":43.290975,"lon":5.381312,"is_reserved":false,"is_disabled":false,"rental_uris":{"android":"levelo://app?vid=1c66debe-96f3-457e-b122-034f166ce4eb","ios":"levelo://app?vid=1c66debe-96f3-457e-b122-034f166ce4eb"},"vehicle_type_id":"4","last_reported":1726863034,"current_range_meters":29600,"station_id":"ce4bh512rcd13ifvqe2g","pricing_plan_id":"cebpf4jnsgd1na2vs0mg"},{"bike_id":"5c27109f-1912-4735-961c-8b264d2a8216","system_id":"levelo_inurba_marseille","lat":43.3211,"lon":5.36769,"is_reserved":false,"is_disabled":false,"rental_uris":{"android":"levelo://app?vid=5c27109f-1912-4735-961c-8b264d2a8216","ios":"levelo://app?vid=5c27109f-1912-4735-961c-8b264d2a8216"},"vehicle_type_id":"4","last_reported":1726863034,"current_range_meters":13600,"station_id":"","pricing_plan_id":"cebpf4jnsgd1na2vs0mg"},{"bike_id":"f01033de-d045-4b2a-8814-384ec1701f60","system_id":"levelo_inurba_marseille","lat":43.296228,"lon":5.37155,"is_reserved":false,"is_disabled":false,"rental_uris":{"android":"levelo://app?vid=f01033de-d045-4b2a-8814-384ec1701f60","ios":"levelo://app?vid=f01033de-d045-4b2a-8814-384ec1701f60"},"vehicle_type_id":"4","last_reported":1726863034,"current_range_meters":38800,"station_id":"ce4bgnh2rcd13ifvqc0g","pricing_plan_id":"cebpf4jnsgd1na2vs0mg"},{"bike_id":"7f512f0c-fff3-4c01-96fd-df5195dbc57f","system_id":"levelo_inurba_marseille","lat":43.29526,"lon":5.38546,"is_reserved":false,"is_disabled":false,"rental_uris":{"android":"levelo://app?vid=7f512f0c-fff3-4c01-96fd-df5195dbc57f","ios":"levelo://app?vid=7f512f0c-fff3-4c01-96fd-df5195dbc57f"},"vehicle_type_id":"4","last_reported":1726863034,"current_range_meters":30000,"station_id":"ce4bgih2rcd13ifvqba0","pricing_plan_id":"cebpf4jnsgd1na2vs0mg"},{"bike_id":"6c34ccae-402e-40b8-9c0d-2e7f312c8354","system_id":"levelo_inurba_marseille","lat":43.25493,"lon":5.3765,"is_reserved":false,"is_disabled":false,"rental_uris":{"android":"levelo://app?vid=6c34ccae-402e-40b8-9c0d-2e7f312c8354","ios":"levelo://app?vid=6c34ccae-402e-40b8-9c0d-2e7f312c8354"},"vehicle_type_id":"4","last_reported":1726863034,"current_range_meters":30400,"station_id":"ce4bhh12rcd13ifvqff0","pricing_plan_id":"cebpf4jnsgd1na2vs0mg"},{"bike_id":"2c4d5dd6-b3fc-4e99-ae10-37420ed7722b","system_id":"levelo_inurba_marseille","lat":43.31996,"lon":5.3816,"is_reserved":false,"is_disabled":false,"rental_uris":{"android":"levelo://app?vid=2c4d5dd6-b3fc-4e99-ae10-37420ed7722b","ios":"levelo://app?vid=2c4d5dd6-b3fc-4e99-ae10-37420ed7722b"},"vehicle_type_id":"4","last_reported":1726863034,"current_range_meters":38800,"station_id":"ce4bhr12rcd13ifvqhpg","pricing_plan_id":"cebpf4jnsgd1na2vs0mg"},{"bike_id":"d7ac30e9-9e18-4f1c-9c84-b4e522e2a349","system_id":"levelo_inurba_marseille","lat":43.292,"lon":5.35808,"is_reserved":false,"is_disabled":false,"rental_uris":{"android":"levelo://app?vid=d7ac30e9-9e18-4f1c-9c84-b4e522e2a349","ios":"levelo://app?vid=d7ac30e9-9e18-4f1c-9c84-b4e522e2a349"},"vehicle_type_id":"4","last_reported":1726863034,"current_range_meters":31200,"station_id":"ce4bhb12rcd13ifvqel0","pricing_plan_id":"cebpf4jnsgd1na2vs0mg"},{"bike_id":"76b7353e-a7db-430d-99ec-f1938083a85d","system_id":"levelo_inurba_marseille","lat":43.29418,"lon":5.38628,"is_reserved":false,"is_disabled":false,"rental_uris":{"android":"levelo://app?vid=76b7353e-a7db-430d-99ec-f1938083a85d","ios":"levelo://app?vid=76b7353e-a7db-430d-99ec-f1938083a85d"},"vehicle_type_id":"4","last_reported":1726863034,"current_range_meters":8000,"station_id":"ce4bh2h2rcd13ifvqdh0","pricing_plan_id":"cebpf4jnsgd1na2vs0mg"},{"bike_id":"9e46f0df-6ad2-467a-ab3e-b290f22ab629","system_id":"levelo_inurba_marseille","lat":43.28263,"lon":5.35066,"is_reserved":false,"is_disabled":false,"rental_uris":{"android":"levelo://app?vid=9e46f0df-6ad2-467a-ab3e-b290f22ab629","ios":"levelo://app?vid=9e46f0df-6ad2-467a-ab3e-b290f22ab629"},"vehicle_type_id":"4","last_reported":1726863034,"current_range_meters":36400,"station_id":"ce4bhbp2rcd13ifvqerg","pricing_plan_id":"cebpf4jnsgd1na2vs0mg"},{"bike_id":"7b9dd459-340b-4978-bfb0-6c163a5263e8","system_id":"levelo_inurba_marseille","lat":43.23193,"lon":5.35554,"is_reserved":false,"is_disabled":false,"rental_uris":{"android":"levelo://app?vid=7b9dd459-340b-4978-bfb0-6c163a5263e8","ios":"levelo://app?vid=7b9dd459-340b-4978-bfb0-6c163a5263e8"},"vehicle_type_id":"4","last_reported":1726863034,"current_range_meters":38800,"station_id":"ce4bhu92rcd13ifvqi70","pricing_plan_id":"cebpf4jnsgd1na2vs0mg"},{"bike_id":"b747647d-47e2-4602-9e42-58bf28423e87","system_id":"levelo_inurba_marseille","lat":43.30193,"lon":5.36625,"is_reserved":false,"is_disabled":false,"rental_uris":{"android":"levelo://app?vid=b747647d-47e2-4602-9e42-58bf28423e87","ios":"levelo://app?vid=b747647d-47e2-4602-9e42-58bf28423e87"},"vehicle_type_id":"4","last_reported":1726863034,"current_range_meters":21600,"station_id":"ce4bgrh2rcd13ifvqc8g","pricing_plan_id":"cebpf4jnsgd1na2vs0mg"},{"bike_id":"1c12f58a-a2a8-4805-9b1b-d874c3745c38","system_id":"levelo_inurba_marseille","lat":43.3031,"lon":5.36894,"is_reserved":false,"is_disabled":false,"rental_uris":{"android":"levelo://app?vid=1c12f58a-a2a8-4805-9b1b-d874c3745c38","ios":"levelo://app?vid=1c12f58a-a2a8-4805-9b1b-d874c3745c38"},"vehicle_type_id":"4","last_reported":1726863034,"current_range_meters":38800,"station_id":"ce4bgqh2rcd13ifvqc5g","pricing_plan_id":"cebpf4jnsgd1na2vs0mg"},{"bike_id":"ec1f20ef-fc53-4d67-96dd-bca5d58cbcfd","system_id":"levelo_inurba_marseille","lat":43.26575,"lon":5.39009,"is_reserved":false,"is_disabled":false,"rental_uris":{"android":"levelo://app?vid=ec1f20ef-fc53-4d67-96dd-bca5d58cbcfd","ios":"levelo://app?vid=ec1f20ef-fc53-4d67-96dd-bca5d58cbcfd"},"vehicle_type_id":"4","last_reported":1726863034,"current_range_meters":19200,"station_id":"ce4bhe12rcd13ifvqf30","pricing_plan_id":"cebpf4jnsgd1na2vs0mg"},{"bike_id":"a709b02f-a200-431f-a082-86bf3a330f64","system_id":"levelo_inurba_marseille","lat":43.255829,"lon":5.382294,"is_reserved":false,"is_disabled":false,"rental_uris":{"android":"levelo://app?vid=a709b02f-a200-431f-a082-86bf3a330f64","ios":"levelo://app?vid=a709b02f-a200-431f-a082-86bf3a330f64"},"vehicle_type_id":"4","last_reported":1726863034,"current_range_meters":15200,"station_id":"ce4bhbh2rcd13ifvqeo0","pricing_plan_id":"cebpf4jnsgd1na2vs0mg"},{"bike_id":"e9b8e590-3bc0-4c22-b946-0db314d5083d","system_id":"levelo_inurba_marseille","lat":43.25855,"lon":5.39903,"is_reserved":false,"is_disabled":false,"rental_uris":{"android":"levelo://app?vid=e9b8e590-3bc0-4c22-b946-0db314d5083d","ios":"levelo://app?vid=e9b8e590-3bc0-4c22-b946-0db314d5083d"},"vehicle_type_id":"4","last_reported":1726863034,"current_range_meters":8400,"station_id":"ce4bhl92rcd13ifvqghg","pricing_plan_id":"cebpf4jnsgd1na2vs0mg"},{"bike_id":"829fbe0b-a5c6-4122-8d70-48ad1e68e20f","system_id":"levelo_inurba_marseille","lat":43.293731,"lon":5.378491,"is_reserved":false,"is_disabled":false,"rental_uris":{"android":"levelo://app?vid=829fbe0b-a5c6-4122-8d70-48ad1e68e20f","ios":"levelo://app?vid=829fbe0b-a5c6-4122-8d70-48ad1e68e20f"},"vehicle_type_id":"4","last_reported":1726863034,"current_range_meters":19600,"station_id":"ce4bgjh2rcd13ifvqbf0","pricing_plan_id":"cebpf4jnsgd1na2vs0mg"},{"bike_id":"3740c6df-06cd-419b-9ae6-b8d9e5eff548","system_id":"levelo_inurba_marseille","lat":43.2753,"lon":5.40935,"is_reserved":false,"is_disabled":false,"rental_uris":{"android":"levelo://app?vid=3740c6df-06cd-419b-9ae6-b8d9e5eff548","ios":"levelo://app?vid=3740c6df-06cd-419b-9ae6-b8d9e5eff548"},"vehicle_type_id":"4","last_reported":1726863034,"current_range_meters":20800,"station_id":"","pricing_plan_id":"cebpf4jnsgd1na2vs0mg"},{"bike_id":"51f5754a-5fa4-496b-92aa-8db5fb5c04c9","system_id":"levelo_inurba_marseille","lat":43.32334,"lon":5.40621,"is_reserved":false,"is_disabled":false,"rental_uris":{"android":"levelo://app?vid=51f5754a-5fa4-496b-92aa-8db5fb5c04c9","ios":"levelo://app?vid=51f5754a-5fa4-496b-92aa-8db5fb5c04c9"},"vehicle_type_id":"4","last_reported":1726863034,"current_range_meters":16800,"station_id":"ce4bhq92rcd13ifvqhjg","pricing_plan_id":"cebpf4jnsgd1na2vs0mg"},{"bike_id":"2ce703b4-f868-4226-bdab-b34d4cd84ef6","system_id":"levelo_inurba_marseille","lat":43.33022,"lon":5.39042,"is_reserved":false,"is_disabled":false,"rental_uris":{"android":"levelo://app?vid=2ce703b4-f868-4226-bdab-b34d4cd84ef6","ios":"levelo://app?vid=2ce703b4-f868-4226-bdab-b34d4cd84ef6"},"vehicle_type_id":"4","last_reported":1726863034,"current_range_meters":9600,"station_id":"ce4bhr92rcd13ifvqhrg","pricing_plan_id":"cebpf4jnsgd1na2vs0mg"},{"bike_id":"3b093dc8-0a1d-44ee-af32-e714ee7b4d65","system_id":"levelo_inurba_marseille","lat":43.295715,"lon":5.399728,"is_reserved":false,"is_disabled":false,"rental_uris":{"android":"levelo://app?vid=3b093dc8-0a1d-44ee-af32-e714ee7b4d65","ios":"levelo://app?vid=3b093dc8-0a1d-44ee-af32-e714ee7b4d65"},"vehicle_type_id":"4","last_reported":1726863034,"current_range_meters":12800,"station_id":"ce4bh312rcd13ifvqdj0","pricing_plan_id":"cebpf4jnsgd1na2vs0mg"},{"bike_id":"acccd772-66eb-41fd-b647-e7a933f6eb2c","system_id":"levelo_inurba_marseille","lat":43.30306,"lon":5.36904,"is_reserved":false,"is_disabled":false,"rental_uris":{"android":"levelo://app?vid=acccd772-66eb-41fd-b647-e7a933f6eb2c","ios":"levelo://app?vid=acccd772-66eb-41fd-b647-e7a933f6eb2c"},"vehicle_type_id":"4","last_reported":1726863034,"current_range_meters":38800,"station_id":"ce4bgqh2rcd13ifvqc5g","pricing_plan_id":"cebpf4jnsgd1na2vs0mg"},{"bike_id":"d766c9eb-3ef0-40c0-bd1f-0ee80e0bfc9a","system_id":"levelo_inurba_marseille","lat":43.29936,"lon":5.36552,"is_reserved":false,"is_disabled":false,"rental_uris":{"android":"levelo://app?vid=d766c9eb-3ef0-40c0-bd1f-0ee80e0bfc9a","ios":"levelo://app?vid=d766c9eb-3ef0-40c0-bd1f-0ee80e0bfc9a"},"vehicle_type_id":"4","last_reported":1726863034,"current_range_meters":4400,"station_id":"ce4bgm92rcd13ifvqbr0","pricing_plan_id":"cebpf4jnsgd1na2vs0mg"},{"bike_id":"59882401-3864-48cc-b72f-063424b08269","system_id":"levelo_inurba_marseille","lat":43.28401,"lon":5.37511,"is_reserved":false,"is_disabled":false,"rental_uris":{"android":"levelo://app?vid=59882401-3864-48cc-b72f-063424b08269","ios":"levelo://app?vid=59882401-3864-48cc-b72f-063424b08269"},"vehicle_type_id":"4","last_reported":1726863034,"current_range_meters":38800,"station_id":"ce4bh412rcd13ifvqds0","pricing_plan_id":"cebpf4jnsgd1na2vs0mg"},{"bike_id":"60460f01-4fc1-4471-a1cc-fd64c0c52430","system_id":"levelo_inurba_marseille","lat":43.313202,"lon":5.396878,"is_reserved":false,"is_disabled":false,"rental_uris":{"android":"levelo://app?vid=60460f01-4fc1-4471-a1cc-fd64c0c52430","ios":"levelo://app?vid=60460f01-4fc1-4471-a1cc-fd64c0c52430"},"vehicle_type_id":"4","last_reported":1726863034,"current_range_meters":36000,"station_id":"ce4bgvp2rcd13ifvqcu0","pricing_plan_id":"cebpf4jnsgd1na2vs0mg"},{"bike_id":"3871b06a-e3ad-4fc6-b2b1-621017ff7990","system_id":"levelo_inurba_marseille","lat":43.29791,"lon":5.38105,"is_reserved":false,"is_disabled":false,"rental_uris":{"android":"levelo://app?vid=3871b06a-e3ad-4fc6-b2b1-621017ff7990","ios":"levelo://app?vid=3871b06a-e3ad-4fc6-b2b1-621017ff7990"},"vehicle_type_id":"4","last_reported":1726863034,"current_range_meters":38800,"station_id":"ce4bgip2rcd13ifvqbb0","pricing_plan_id":"cebpf4jnsgd1na2vs0mg"},{"bike_id":"2bbc2802-cc9f-415c-b48a-240f6f9828de","system_id":"levelo_inurba_marseille","lat":43.24808,"lon":5.37458,"is_reserved":false,"is_disabled":false,"rental_uris":{"android":"levelo://app?vid=2bbc2802-cc9f-415c-b48a-240f6f9828de","ios":"levelo://app?vid=2bbc2802-cc9f-415c-b48a-240f6f9828de"},"vehicle_type_id":"4","last_reported":1726863034,"current_range_meters":37600,"station_id":"ce4bhgh2rcd13ifvqfb0","pricing_plan_id":"cebpf4jnsgd1na2vs0mg"},{"bike_id":"cd422d42-c84b-4929-af38-be453e6e690e","system_id":"levelo_inurba_marseille","lat":43.29091,"lon":5.38137,"is_reserved":false,"is_disabled":false,"rental_uris":{"android":"levelo://app?vid=cd422d42-c84b-4929-af38-be453e6e690e","ios":"levelo://app?vid=cd422d42-c84b-4929-af38-be453e6e690e"},"vehicle_type_id":"4","last_reported":1726863034,"current_range_meters":7200,"station_id":"ce4bh512rcd13ifvqe2g","pricing_plan_id":"cebpf4jnsgd1na2vs0mg"},{"bike_id":"e6692a3a-2a66-4c49-bd42-63aeebd5ffd2","system_id":"levelo_inurba_marseille","lat":43.29529,"lon":5.38545,"is_reserved":false,"is_disabled":false,"rental_uris":{"android":"levelo://app?vid=e6692a3a-2a66-4c49-bd42-63aeebd5ffd2","ios":"levelo://app?vid=e6692a3a-2a66-4c49-bd42-63aeebd5ffd2"},"vehicle_type_id":"4","last_reported":1726863034,"current_range_meters":38800,"station_id":"ce4bgih2rcd13ifvqba0","pricing_plan_id":"cebpf4jnsgd1na2vs0mg"},{"bike_id":"b4ea877f-e8bd-4ebc-b318-5ca882458b5a","system_id":"levelo_inurba_marseille","lat":43.29422,"lon":5.3862,"is_reserved":false,"is_disabled":false,"rental_uris":{"android":"levelo://app?vid=b4ea877f-e8bd-4ebc-b318-5ca882458b5a","ios":"levelo://app?vid=b4ea877f-e8bd-4ebc-b318-5ca882458b5a"},"vehicle_type_id":"4","last_reported":1726863034,"current_range_meters":38800,"station_id":"ce4bh2h2rcd13ifvqdh0","pricing_plan_id":"cebpf4jnsgd1na2vs0mg"},{"bike_id":"3261e81d-6f13-45a4-ba96-33ed382e28e0","system_id":"levelo_inurba_marseille","lat":43.28074,"lon":5.39661,"is_reserved":false,"is_disabled":false,"rental_uris":{"android":"levelo://app?vid=3261e81d-6f13-45a4-ba96-33ed382e28e0","ios":"levelo://app?vid=3261e81d-6f13-45a4-ba96-33ed382e28e0"},"vehicle_type_id":"4","last_reported":1726863034,"current_range_meters":37600,"station_id":"ce4bho12rcd13ifvqh2g","pricing_plan_id":"cebpf4jnsgd1na2vs0mg"},{"bike_id":"13bb80a5-7bdd-494b-ab61-ee1a5d50e2dd","system_id":"levelo_inurba_marseille","lat":43.28941,"lon":5.36638,"is_reserved":false,"is_disabled":false,"rental_uris":{"android":"levelo://app?vid=13bb80a5-7bdd-494b-ab61-ee1a5d50e2dd","ios":"levelo://app?vid=13bb80a5-7bdd-494b-ab61-ee1a5d50e2dd"},"vehicle_type_id":"4","last_reported":1726863034,"current_range_meters":38800,"station_id":"ce4bhap2rcd13ifvqek0","pricing_plan_id":"cebpf4jnsgd1na2vs0mg"},{"bike_id":"24b23e32-d315-4474-9449-ae7615e0d021","system_id":"levelo_inurba_marseille","lat":43.29274,"lon":5.36844,"is_reserved":false,"is_disabled":false,"rental_uris":{"android":"levelo://app?vid=24b23e32-d315-4474-9449-ae7615e0d021","ios":"levelo://app?vid=24b23e32-d315-4474-9449-ae7615e0d021"},"vehicle_type_id":"4","last_reported":1726863034,"current_range_meters":27600,"station_id":"ce4bhbp2rcd13ifvqesg","pricing_plan_id":"cebpf4jnsgd1na2vs0mg"},{"bike_id":"7b0f6396-f6bf-4400-8203-896f7d4134f2","system_id":"levelo_inurba_marseille","lat":43.32745,"lon":5.391,"is_reserved":false,"is_disabled":false,"rental_uris":{"android":"levelo://app?vid=7b0f6396-f6bf-4400-8203-896f7d4134f2","ios":"levelo://app?vid=7b0f6396-f6bf-4400-8203-896f7d4134f2"},"vehicle_type_id":"4","last_reported":1726863034,"current_range_meters":24400,"station_id":"","pricing_plan_id":"cebpf4jnsgd1na2vs0mg"},{"bike_id":"acd8cd3f-cbd3-4d3f-a901-0e7f26403371","system_id":"levelo_inurba_marseille","lat":43.29056,"lon":5.37166,"is_reserved":false,"is_disabled":false,"rental_uris":{"android":"levelo://app?vid=acd8cd3f-cbd3-4d3f-a901-0e7f26403371","ios":"levelo://app?vid=acd8cd3f-cbd3-4d3f-a901-0e7f26403371"},"vehicle_type_id":"4","last_reported":1726863034,"current_range_meters":38800,"station_id":"ce4bh5p2rcd13ifvqe4g","pricing_plan_id":"cebpf4jnsgd1na2vs0mg"},{"bike_id":"da96044f-bf1a-4a4c-8858-645001419850","system_id":"levelo_inurba_marseille","lat":43.306061,"lon":5.372341,"is_reserved":false,"is_disabled":false,"rental_uris":{"android":"levelo://app?vid=da96044f-bf1a-4a4c-8858-645001419850","ios":"levelo://app?vid=da96044f-bf1a-4a4c-8858-645001419850"},"vehicle_type_id":"4","last_reported":1726863034,"current_range_meters":38800,"station_id":"ce4bgqh2rcd13ifvqc4g","pricing_plan_id":"cebpf4jnsgd1na2vs0mg"},{"bike_id":"a43b8f3b-4bb7-4568-abee-9cea69745b3c","system_id":"levelo_inurba_marseille","lat":43.28044,"lon":5.36958,"is_reserved":false,"is_disabled":false,"rental_uris":{"android":"levelo://app?vid=a43b8f3b-4bb7-4568-abee-9cea69745b3c","ios":"levelo://app?vid=a43b8f3b-4bb7-4568-abee-9cea69745b3c"},"vehicle_type_id":"4","last_reported":1726863034,"current_range_meters":19600,"station_id":"ce4bha12rcd13ifvqef0","pricing_plan_id":"cebpf4jnsgd1na2vs0mg"},{"bike_id":"4f6cd953-65f5-4d4f-a052-70118d864e1d","system_id":"levelo_inurba_marseille","lat":43.29893,"lon":5.43669,"is_reserved":false,"is_disabled":false,"rental_uris":{"android":"levelo://app?vid=4f6cd953-65f5-4d4f-a052-70118d864e1d","ios":"levelo://app?vid=4f6cd953-65f5-4d4f-a052-70118d864e1d"},"vehicle_type_id":"4","last_reported":1726863034,"current_range_meters":11600,"station_id":"ce4bhpp2rcd13ifvqhfg","pricing_plan_id":"cebpf4jnsgd1na2vs0mg"},{"bike_id":"66f2d387-a45a-44b4-8ec1-434af0742bec","system_id":"levelo_inurba_marseille","lat":43.30293,"lon":5.39226,"is_reserved":false,"is_disabled":false,"rental_uris":{"android":"levelo://app?vid=66f2d387-a45a-44b4-8ec1-434af0742bec","ios":"levelo://app?vid=66f2d387-a45a-44b4-8ec1-434af0742bec"},"vehicle_type_id":"4","last_reported":1726863034,"current_range_meters":16800,"station_id":"ce4bgkh2rcd13ifvqbk0","pricing_plan_id":"cebpf4jnsgd1na2vs0mg"},{"bike_id":"c2464cd2-2627-4620-bc4e-d8fe3096cf61","system_id":"levelo_inurba_marseille","lat":43.3055,"lon":5.38432,"is_reserved":false,"is_disabled":false,"rental_uris":{"android":"levelo://app?vid=c2464cd2-2627-4620-bc4e-d8fe3096cf61","ios":"levelo://app?vid=c2464cd2-2627-4620-bc4e-d8fe3096cf61"},"vehicle_type_id":"4","last_reported":1726863034,"current_range_meters":20800,"station_id":"ce4bgg92rcd13ifvqb30","pricing_plan_id":"cebpf4jnsgd1na2vs0mg"},{"bike_id":"610ae2bc-1ce0-4157-8b8a-62d460f1da9c","system_id":"levelo_inurba_marseille","lat":43.22922,"lon":5.35376,"is_reserved":false,"is_disabled":false,"rental_uris":{"android":"levelo://app?vid=610ae2bc-1ce0-4157-8b8a-62d460f1da9c","ios":"levelo://app?vid=610ae2bc-1ce0-4157-8b8a-62d460f1da9c"},"vehicle_type_id":"4","last_reported":1726863034,"current_range_meters":9200,"station_id":"cpo3532slgdg3j2ikp40","pricing_plan_id":"cebpf4jnsgd1na2vs0mg"},{"bike_id":"c42f3432-473f-499d-8c32-f4113b171b0b","system_id":"levelo_inurba_marseille","lat":43.29782,"lon":5.39335,"is_reserved":false,"is_disabled":false,"rental_uris":{"android":"levelo://app?vid=c42f3432-473f-499d-8c32-f4113b171b0b","ios":"levelo://app?vid=c42f3432-473f-499d-8c32-f4113b171b0b"},"vehicle_type_id":"4","last_reported":1726863034,"current_range_meters":19200,"station_id":"chh1huq6cuj3fo74tm60","pricing_plan_id":"cebpf4jnsgd1na2vs0mg"},{"bike_id":"8910d5be-6f51-44d3-b22e-6f6ed568fcf8","system_id":"levelo_inurba_marseille","lat":43.29425,"lon":5.38625,"is_reserved":false,"is_disabled":false,"rental_uris":{"android":"levelo://app?vid=8910d5be-6f51-44d3-b22e-6f6ed568fcf8","ios":"levelo://app?vid=8910d5be-6f51-44d3-b22e-6f6ed568fcf8"},"vehicle_type_id":"4","last_reported":1726863034,"current_range_meters":30000,"station_id":"ce4bh2h2rcd13ifvqdh0","pricing_plan_id":"cebpf4jnsgd1na2vs0mg"},{"bike_id":"2e0ad234-46bd-4aa7-aed9-b44f50fc5c66","system_id":"levelo_inurba_marseille","lat":43.28083,"lon":5.39657,"is_reserved":false,"is_disabled":false,"rental_uris":{"android":"levelo://app?vid=2e0ad234-46bd-4aa7-aed9-b44f50fc5c66","ios":"levelo://app?vid=2e0ad234-46bd-4aa7-aed9-b44f50fc5c66"},"vehicle_type_id":"4","last_reported":1726863034,"current_range_meters":38000,"station_id":"ce4bho12rcd13ifvqh2g","pricing_plan_id":"cebpf4jnsgd1na2vs0mg"},{"bike_id":"04c8ef51-acee-4d35-8ce9-768320f9cbc9","system_id":"levelo_inurba_marseille","lat":43.29602,"lon":5.38102,"is_reserved":false,"is_disabled":false,"rental_uris":{"android":"levelo://app?vid=04c8ef51-acee-4d35-8ce9-768320f9cbc9","ios":"levelo://app?vid=04c8ef51-acee-4d35-8ce9-768320f9cbc9"},"vehicle_type_id":"4","last_reported":1726863034,"current_range_meters":38800,"station_id":"ce4bgl12rcd13ifvqbo0","pricing_plan_id":"cebpf4jnsgd1na2vs0mg"},{"bike_id":"071d99e1-dbf0-4bb1-ac7e-325d03a68ff1","system_id":"levelo_inurba_marseille","lat":43.27497,"lon":5.42453,"is_reserved":false,"is_disabled":false,"rental_uris":{"android":"levelo://app?vid=071d99e1-dbf0-4bb1-ac7e-325d03a68ff1","ios":"levelo://app?vid=071d99e1-dbf0-4bb1-ac7e-325d03a68ff1"},"vehicle_type_id":"4","last_reported":1726863034,"current_range_meters":14800,"station_id":"ce4bhn92rcd13ifvqgrg","pricing_plan_id":"cebpf4jnsgd1na2vs0mg"},{"bike_id":"58014cc6-4f39-4119-a8a0-cdc0e2507820","system_id":"levelo_inurba_marseille","lat":43.32287,"lon":5.38277,"is_reserved":false,"is_disabled":false,"rental_uris":{"android":"levelo://app?vid=58014cc6-4f39-4119-a8a0-cdc0e2507820","ios":"levelo://app?vid=58014cc6-4f39-4119-a8a0-cdc0e2507820"},"vehicle_type_id":"4","last_reported":1726863034,"current_range_meters":39200,"station_id":"ce4bhr12rcd13ifvqhqg","pricing_plan_id":"cebpf4jnsgd1na2vs0mg"},{"bike_id":"3e6437eb-3d34-4b5f-b169-98bc62fcc1ce","system_id":"levelo_inurba_marseille","lat":43.2927,"lon":5.3684,"is_reserved":false,"is_disabled":false,"rental_uris":{"android":"levelo://app?vid=3e6437eb-3d34-4b5f-b169-98bc62fcc1ce","ios":"levelo://app?vid=3e6437eb-3d34-4b5f-b169-98bc62fcc1ce"},"vehicle_type_id":"4","last_reported":1726863034,"current_range_meters":38800,"station_id":"ce4bhbp2rcd13ifvqesg","pricing_plan_id":"cebpf4jnsgd1na2vs0mg"},{"bike_id":"64e79484-97e5-4ba5-b180-557cc92ad669","system_id":"levelo_inurba_marseille","lat":43.28363,"lon":5.38647,"is_reserved":false,"is_disabled":false,"rental_uris":{"android":"levelo://app?vid=64e79484-97e5-4ba5-b180-557cc92ad669","ios":"levelo://app?vid=64e79484-97e5-4ba5-b180-557cc92ad669"},"vehicle_type_id":"4","last_reported":1726863034,"current_range_meters":11600,"station_id":"ce4bh492rcd13ifvqdvg","pricing_plan_id":"cebpf4jnsgd1na2vs0mg"},{"bike_id":"95c82e46-8236-45de-9b1f-abaf9755941b","system_id":"levelo_inurba_marseille","lat":43.290201,"lon":5.386451,"is_reserved":false,"is_disabled":false,"rental_uris":{"android":"levelo://app?vid=95c82e46-8236-45de-9b1f-abaf9755941b","ios":"levelo://app?vid=95c82e46-8236-45de-9b1f-abaf9755941b"},"vehicle_type_id":"4","last_reported":1726863034,"current_range_meters":24000,"station_id":"ce4bh4p2rcd13ifvqe0g","pricing_plan_id":"cebpf4jnsgd1na2vs0mg"},{"bike_id":"bce83964-771d-421d-a795-c2b376c5b9dc","system_id":"levelo_inurba_marseille","lat":43.23193,"lon":5.35559,"is_reserved":false,"is_disabled":false,"rental_uris":{"android":"levelo://app?vid=bce83964-771d-421d-a795-c2b376c5b9dc","ios":"levelo://app?vid=bce83964-771d-421d-a795-c2b376c5b9dc"},"vehicle_type_id":"4","last_reported":1726863034,"current_range_meters":18800,"station_id":"ce4bhu92rcd13ifvqi70","pricing_plan_id":"cebpf4jnsgd1na2vs0mg"},{"bike_id":"a97cb894-569c-482a-a5be-24e1e69cc4a4","system_id":"levelo_inurba_marseille","lat":43.28849,"lon":5.35848,"is_reserved":false,"is_disabled":false,"rental_uris":{"android":"levelo://app?vid=a97cb894-569c-482a-a5be-24e1e69cc4a4","ios":"levelo://app?vid=a97cb894-569c-482a-a5be-24e1e69cc4a4"},"vehicle_type_id":"4","last_reported":1726863034,"current_range_meters":20800,"station_id":"ce4bhb12rcd13ifvqem0","pricing_plan_id":"cebpf4jnsgd1na2vs0mg"},{"bike_id":"19e4049d-a189-4fa1-8bd7-bc0db85fa566","system_id":"levelo_inurba_marseille","lat":43.29418,"lon":5.3863,"is_reserved":false,"is_disabled":false,"rental_uris":{"android":"levelo://app?vid=19e4049d-a189-4fa1-8bd7-bc0db85fa566","ios":"levelo://app?vid=19e4049d-a189-4fa1-8bd7-bc0db85fa566"},"vehicle_type_id":"4","last_reported":1726863034,"current_range_meters":2800,"station_id":"ce4bh2h2rcd13ifvqdh0","pricing_plan_id":"cebpf4jnsgd1na2vs0mg"},{"bike_id":"16d37c8f-5fa8-4434-82e8-aaa03d300914","system_id":"levelo_inurba_marseille","lat":43.28922,"lon":5.38394,"is_reserved":false,"is_disabled":false,"rental_uris":{"android":"levelo://app?vid=16d37c8f-5fa8-4434-82e8-aaa03d300914","ios":"levelo://app?vid=16d37c8f-5fa8-4434-82e8-aaa03d300914"},"vehicle_type_id":"4","last_reported":1726863034,"current_range_meters":9600,"station_id":"ce4bh612rcd13ifvqe6g","pricing_plan_id":"cebpf4jnsgd1na2vs0mg"},{"bike_id":"5c4bffed-0019-4b39-a45e-d1fccf257ffb","system_id":"levelo_inurba_marseille","lat":43.3133,"lon":5.397,"is_reserved":false,"is_disabled":false,"rental_uris":{"android":"levelo://app?vid=5c4bffed-0019-4b39-a45e-d1fccf257ffb","ios":"levelo://app?vid=5c4bffed-0019-4b39-a45e-d1fccf257ffb"},"vehicle_type_id":"4","last_reported":1726863034,"current_range_meters":30000,"station_id":"ce4bgvp2rcd13ifvqcu0","pricing_plan_id":"cebpf4jnsgd1na2vs0mg"},{"bike_id":"e507479c-2507-4658-8ab0-944af417b0d0","system_id":"levelo_inurba_marseille","lat":43.28099,"lon":5.37832,"is_reserved":false,"is_disabled":false,"rental_uris":{"android":"levelo://app?vid=e507479c-2507-4658-8ab0-944af417b0d0","ios":"levelo://app?vid=e507479c-2507-4658-8ab0-944af417b0d0"},"vehicle_type_id":"4","last_reported":1726863034,"current_range_meters":3200,"station_id":"ce4bha12rcd13ifvqee0","pricing_plan_id":"cebpf4jnsgd1na2vs0mg"},{"bike_id":"99cd03d9-f961-49a3-ba27-937343d02a5c","system_id":"levelo_inurba_marseille","lat":43.29269,"lon":5.36843,"is_reserved":false,"is_disabled":false,"rental_uris":{"android":"levelo://app?vid=99cd03d9-f961-49a3-ba27-937343d02a5c","ios":"levelo://app?vid=99cd03d9-f961-49a3-ba27-937343d02a5c"},"vehicle_type_id":"4","last_reported":1726863034,"current_range_meters":38800,"station_id":"ce4bhbp2rcd13ifvqesg","pricing_plan_id":"cebpf4jnsgd1na2vs0mg"},{"bike_id":"e1cb5f88-7763-442c-952f-2a93a72c2c06","system_id":"levelo_inurba_marseille","lat":43.29797,"lon":5.381,"is_reserved":false,"is_disabled":false,"rental_uris":{"android":"levelo://app?vid=e1cb5f88-7763-442c-952f-2a93a72c2c06","ios":"levelo://app?vid=e1cb5f88-7763-442c-952f-2a93a72c2c06"},"vehicle_type_id":"4","last_reported":1726863034,"current_range_meters":29600,"station_id":"ce4bgip2rcd13ifvqbb0","pricing_plan_id":"cebpf4jnsgd1na2vs0mg"},{"bike_id":"eb802d1c-7681-4634-b40b-bc7a86dce53e","system_id":"levelo_inurba_marseille","lat":43.25123,"lon":5.40321,"is_reserved":false,"is_disabled":false,"rental_uris":{"android":"levelo://app?vid=eb802d1c-7681-4634-b40b-bc7a86dce53e","ios":"levelo://app?vid=eb802d1c-7681-4634-b40b-bc7a86dce53e"},"vehicle_type_id":"4","last_reported":1726863034,"current_range_meters":38000,"station_id":"ce4bhlh2rcd13ifvqgig","pricing_plan_id":"cebpf4jnsgd1na2vs0mg"},{"bike_id":"43b64646-5f2a-4977-a157-995dfc416fd9","system_id":"levelo_inurba_marseille","lat":43.26784,"lon":5.39415,"is_reserved":false,"is_disabled":false,"rental_uris":{"android":"levelo://app?vid=43b64646-5f2a-4977-a157-995dfc416fd9","ios":"levelo://app?vid=43b64646-5f2a-4977-a157-995dfc416fd9"},"vehicle_type_id":"4","last_reported":1726863034,"current_range_meters":28400,"station_id":"ce4bhh12rcd13ifvqfg0","pricing_plan_id":"cebpf4jnsgd1na2vs0mg"},{"bike_id":"1ad3c514-ff41-4c1e-8353-64b83c7e797c","system_id":"levelo_inurba_marseille","lat":43.29026,"lon":5.38647,"is_reserved":false,"is_disabled":false,"rental_uris":{"android":"levelo://app?vid=1ad3c514-ff41-4c1e-8353-64b83c7e797c","ios":"levelo://app?vid=1ad3c514-ff41-4c1e-8353-64b83c7e797c"},"vehicle_type_id":"4","last_reported":1726863034,"current_range_meters":18800,"station_id":"ce4bh4p2rcd13ifvqe0g","pricing_plan_id":"cebpf4jnsgd1na2vs0mg"},{"bike_id":"fa2e946d-01fe-4bb4-a2b0-55af60a0bcec","system_id":"levelo_inurba_marseille","lat":43.3373,"lon":5.39189,"is_reserved":false,"is_disabled":false,"rental_uris":{"android":"levelo://app?vid=fa2e946d-01fe-4bb4-a2b0-55af60a0bcec","ios":"levelo://app?vid=fa2e946d-01fe-4bb4-a2b0-55af60a0bcec"},"vehicle_type_id":"4","last_reported":1726863034,"current_range_meters":35200,"station_id":"ce4bhr92rcd13ifvqhsg","pricing_plan_id":"cebpf4jnsgd1na2vs0mg"},{"bike_id":"96f9a91d-428e-493e-b8c0-fcd22d3c14f4","system_id":"levelo_inurba_marseille","lat":43.23174,"lon":5.39996,"is_reserved":false,"is_disabled":false,"rental_uris":{"android":"levelo://app?vid=96f9a91d-428e-493e-b8c0-fcd22d3c14f4","ios":"levelo://app?vid=96f9a91d-428e-493e-b8c0-fcd22d3c14f4"},"vehicle_type_id":"4","last_reported":1726863034,"current_range_meters":16400,"station_id":"ce4bhn12rcd13ifvqgqg","pricing_plan_id":"cebpf4jnsgd1na2vs0mg"},{"bike_id":"2ef67813-a758-480d-aa16-31b614fb276f","system_id":"levelo_inurba_marseille","lat":43.246643,"lon":5.381634,"is_reserved":false,"is_disabled":false,"rental_uris":{"android":"levelo://app?vid=2ef67813-a758-480d-aa16-31b614fb276f","ios":"levelo://app?vid=2ef67813-a758-480d-aa16-31b614fb276f"},"vehicle_type_id":"4","last_reported":1726863034,"current_range_meters":4800,"station_id":"ce4bhih2rcd13ifvqfr0","pricing_plan_id":"cebpf4jnsgd1na2vs0mg"},{"bike_id":"b9b686a7-3257-4d0b-8a82-75ee0d22ab68","system_id":"levelo_inurba_marseille","lat":43.33024,"lon":5.39045,"is_reserved":false,"is_disabled":false,"rental_uris":{"android":"levelo://app?vid=b9b686a7-3257-4d0b-8a82-75ee0d22ab68","ios":"levelo://app?vid=b9b686a7-3257-4d0b-8a82-75ee0d22ab68"},"vehicle_type_id":"4","last_reported":1726863034,"current_range_meters":16400,"station_id":"ce4bhr92rcd13ifvqhrg","pricing_plan_id":"cebpf4jnsgd1na2vs0mg"},{"bike_id":"56617c14-3468-44d9-a1b6-0042bae2849a","system_id":"levelo_inurba_marseille","lat":43.293385,"lon":5.371482,"is_reserved":false,"is_disabled":false,"rental_uris":{"android":"levelo://app?vid=56617c14-3468-44d9-a1b6-0042bae2849a","ios":"levelo://app?vid=56617c14-3468-44d9-a1b6-0042bae2849a"},"vehicle_type_id":"4","last_reported":1726863034,"current_range_meters":38800,"station_id":"ce4bgh92rcd13ifvqb40","pricing_plan_id":"cebpf4jnsgd1na2vs0mg"},{"bike_id":"8e5a8f68-1357-4780-ad32-bf264bef5562","system_id":"levelo_inurba_marseille","lat":43.30086,"lon":5.39081,"is_reserved":false,"is_disabled":false,"rental_uris":{"android":"levelo://app?vid=8e5a8f68-1357-4780-ad32-bf264bef5562","ios":"levelo://app?vid=8e5a8f68-1357-4780-ad32-bf264bef5562"},"vehicle_type_id":"4","last_reported":1726863034,"current_range_meters":3600,"station_id":"ce4bh192rcd13ifvqdb0","pricing_plan_id":"cebpf4jnsgd1na2vs0mg"},{"bike_id":"69f2259f-2b49-4a52-a96f-6d2ca2aaec61","system_id":"levelo_inurba_marseille","lat":43.29425,"lon":5.38628,"is_reserved":false,"is_disabled":false,"rental_uris":{"android":"levelo://app?vid=69f2259f-2b49-4a52-a96f-6d2ca2aaec61","ios":"levelo://app?vid=69f2259f-2b49-4a52-a96f-6d2ca2aaec61"},"vehicle_type_id":"4","last_reported":1726863034,"current_range_meters":36800,"station_id":"ce4bh2h2rcd13ifvqdh0","pricing_plan_id":"cebpf4jnsgd1na2vs0mg"},{"bike_id":"4ae848c8-7617-4c50-aea2-70d15b367c57","system_id":"levelo_inurba_marseille","lat":43.29803,"lon":5.38104,"is_reserved":false,"is_disabled":false,"rental_uris":{"android":"levelo://app?vid=4ae848c8-7617-4c50-aea2-70d15b367c57","ios":"levelo://app?vid=4ae848c8-7617-4c50-aea2-70d15b367c57"},"vehicle_type_id":"4","last_reported":1726863034,"current_range_meters":6400,"station_id":"ce4bgip2rcd13ifvqbb0","pricing_plan_id":"cebpf4jnsgd1na2vs0mg"},{"bike_id":"3a759a8c-af9a-402f-85e4-e99028699123","system_id":"levelo_inurba_marseille","lat":43.29415,"lon":5.38626,"is_reserved":false,"is_disabled":false,"rental_uris":{"android":"levelo://app?vid=3a759a8c-af9a-402f-85e4-e99028699123","ios":"levelo://app?vid=3a759a8c-af9a-402f-85e4-e99028699123"},"vehicle_type_id":"4","last_reported":1726863034,"current_range_meters":14000,"station_id":"ce4bh2h2rcd13ifvqdh0","pricing_plan_id":"cebpf4jnsgd1na2vs0mg"},{"bike_id":"fa690805-233a-4a70-a9f3-33f1b67cdb1f","system_id":"levelo_inurba_marseille","lat":43.32298,"lon":5.3826,"is_reserved":false,"is_disabled":false,"rental_uris":{"android":"levelo://app?vid=fa690805-233a-4a70-a9f3-33f1b67cdb1f","ios":"levelo://app?vid=fa690805-233a-4a70-a9f3-33f1b67cdb1f"},"vehicle_type_id":"4","last_reported":1726863034,"current_range_meters":16400,"station_id":"ce4bhr12rcd13ifvqhqg","pricing_plan_id":"cebpf4jnsgd1na2vs0mg"},{"bike_id":"48a4a4be-b75e-49ed-a80f-7ad492e0570b","system_id":"levelo_inurba_marseille","lat":43.29264,"lon":5.38428,"is_reserved":false,"is_disabled":false,"rental_uris":{"android":"levelo://app?vid=48a4a4be-b75e-49ed-a80f-7ad492e0570b","ios":"levelo://app?vid=48a4a4be-b75e-49ed-a80f-7ad492e0570b"},"vehicle_type_id":"4","last_reported":1726863034,"current_range_meters":10000,"station_id":"ce4bh692rcd13ifvqea0","pricing_plan_id":"cebpf4jnsgd1na2vs0mg"},{"bike_id":"65911a05-b4e1-4150-ba50-39a7a20ce2a3","system_id":"levelo_inurba_marseille","lat":43.24998,"lon":5.38934,"is_reserved":false,"is_disabled":false,"rental_uris":{"android":"levelo://app?vid=65911a05-b4e1-4150-ba50-39a7a20ce2a3","ios":"levelo://app?vid=65911a05-b4e1-4150-ba50-39a7a20ce2a3"},"vehicle_type_id":"4","last_reported":1726863034,"current_range_meters":3600,"station_id":"ce4bhgp2rcd13ifvqfd0","pricing_plan_id":"cebpf4jnsgd1na2vs0mg"},{"bike_id":"89496093-5d19-4d2d-af92-b4327367eb09","system_id":"levelo_inurba_marseille","lat":43.25863,"lon":5.39904,"is_reserved":false,"is_disabled":false,"rental_uris":{"android":"levelo://app?vid=89496093-5d19-4d2d-af92-b4327367eb09","ios":"levelo://app?vid=89496093-5d19-4d2d-af92-b4327367eb09"},"vehicle_type_id":"4","last_reported":1726863034,"current_range_meters":7200,"station_id":"ce4bhl92rcd13ifvqghg","pricing_plan_id":"cebpf4jnsgd1na2vs0mg"},{"bike_id":"2c2ab3cc-bed4-4bd2-87af-a64b8b6a6d8b","system_id":"levelo_inurba_marseille","lat":43.29266,"lon":5.3844,"is_reserved":false,"is_disabled":false,"rental_uris":{"android":"levelo://app?vid=2c2ab3cc-bed4-4bd2-87af-a64b8b6a6d8b","ios":"levelo://app?vid=2c2ab3cc-bed4-4bd2-87af-a64b8b6a6d8b"},"vehicle_type_id":"4","last_reported":1726863034,"current_range_meters":18800,"station_id":"ce4bh692rcd13ifvqea0","pricing_plan_id":"cebpf4jnsgd1na2vs0mg"},{"bike_id":"2d0ee38b-8976-4914-a5e6-11c7463d708c","system_id":"levelo_inurba_marseille","lat":43.26198,"lon":5.37932,"is_reserved":false,"is_disabled":false,"rental_uris":{"android":"levelo://app?vid=2d0ee38b-8976-4914-a5e6-11c7463d708c","ios":"levelo://app?vid=2d0ee38b-8976-4914-a5e6-11c7463d708c"},"vehicle_type_id":"4","last_reported":1726863034,"current_range_meters":28800,"station_id":"ce4bhjp2rcd13ifvqg90","pricing_plan_id":"cebpf4jnsgd1na2vs0mg"},{"bike_id":"b2763354-ec6c-4733-8de6-6c4493759ae9","system_id":"levelo_inurba_marseille","lat":43.2904,"lon":5.40178,"is_reserved":false,"is_disabled":false,"rental_uris":{"android":"levelo://app?vid=b2763354-ec6c-4733-8de6-6c4493759ae9","ios":"levelo://app?vid=b2763354-ec6c-4733-8de6-6c4493759ae9"},"vehicle_type_id":"4","last_reported":1726863034,"current_range_meters":18800,"station_id":"","pricing_plan_id":"cebpf4jnsgd1na2vs0mg"},{"bike_id":"facc34bd-0c11-48d2-aa3e-e28ba7f6f9b2","system_id":"levelo_inurba_marseille","lat":43.28454,"lon":5.35889,"is_reserved":false,"is_disabled":false,"rental_uris":{"android":"levelo://app?vid=facc34bd-0c11-48d2-aa3e-e28ba7f6f9b2","ios":"levelo://app?vid=facc34bd-0c11-48d2-aa3e-e28ba7f6f9b2"},"vehicle_type_id":"4","last_reported":1726863034,"current_range_meters":0,"station_id":"ce4bhah2rcd13ifvqei0","pricing_plan_id":"cebpf4jnsgd1na2vs0mg"},{"bike_id":"bc23264b-2abf-4ffe-9bac-a192ebaccbb3","system_id":"levelo_inurba_marseille","lat":43.30149,"lon":5.38079,"is_reserved":false,"is_disabled":false,"rental_uris":{"android":"levelo://app?vid=bc23264b-2abf-4ffe-9bac-a192ebaccbb3","ios":"levelo://app?vid=bc23264b-2abf-4ffe-9bac-a192ebaccbb3"},"vehicle_type_id":"4","last_reported":1726863034,"current_range_meters":20800,"station_id":"ce4bgjp2rcd13ifvqbh0","pricing_plan_id":"cebpf4jnsgd1na2vs0mg"},{"bike_id":"bcbaf299-4592-4491-bdb7-419538711645","system_id":"levelo_inurba_marseille","lat":43.24387,"lon":5.37062,"is_reserved":false,"is_disabled":false,"rental_uris":{"android":"levelo://app?vid=bcbaf299-4592-4491-bdb7-419538711645","ios":"levelo://app?vid=bcbaf299-4592-4491-bdb7-419538711645"},"vehicle_type_id":"4","last_reported":1726863034,"current_range_meters":38000,"station_id":"ce4bhhh2rcd13ifvqfk0","pricing_plan_id":"cebpf4jnsgd1na2vs0mg"},{"bike_id":"612a3dd2-cabf-466d-9328-b50b670be008","system_id":"levelo_inurba_marseille","lat":43.29286,"lon":5.40124,"is_reserved":false,"is_disabled":false,"rental_uris":{"android":"levelo://app?vid=612a3dd2-cabf-466d-9328-b50b670be008","ios":"levelo://app?vid=612a3dd2-cabf-466d-9328-b50b670be008"},"vehicle_type_id":"4","last_reported":1726863034,"current_range_meters":2000,"station_id":"ce4bh312rcd13ifvqdk0","pricing_plan_id":"cebpf4jnsgd1na2vs0mg"},{"bike_id":"0653cb10-c12e-4c27-af75-8f3495a98f89","system_id":"levelo_inurba_marseille","lat":43.32289,"lon":5.38268,"is_reserved":false,"is_disabled":false,"rental_uris":{"android":"levelo://app?vid=0653cb10-c12e-4c27-af75-8f3495a98f89","ios":"levelo://app?vid=0653cb10-c12e-4c27-af75-8f3495a98f89"},"vehicle_type_id":"4","last_reported":1726863034,"current_range_meters":38800,"station_id":"ce4bhr12rcd13ifvqhqg","pricing_plan_id":"cebpf4jnsgd1na2vs0mg"},{"bike_id":"17885b12-8626-4cad-9450-bc59d81f3207","system_id":"levelo_inurba_marseille","lat":43.29418,"lon":5.38632,"is_reserved":false,"is_disabled":false,"rental_uris":{"android":"levelo://app?vid=17885b12-8626-4cad-9450-bc59d81f3207","ios":"levelo://app?vid=17885b12-8626-4cad-9450-bc59d81f3207"},"vehicle_type_id":"4","last_reported":1726863034,"current_range_meters":38800,"station_id":"ce4bh2h2rcd13ifvqdh0","pricing_plan_id":"cebpf4jnsgd1na2vs0mg"},{"bike_id":"3cadc5c2-c53f-4b66-aa31-e88fe357df4f","system_id":"levelo_inurba_marseille","lat":43.30548,"lon":5.38429,"is_reserved":false,"is_disabled":false,"rental_uris":{"android":"levelo://app?vid=3cadc5c2-c53f-4b66-aa31-e88fe357df4f","ios":"levelo://app?vid=3cadc5c2-c53f-4b66-aa31-e88fe357df4f"},"vehicle_type_id":"4","last_reported":1726863034,"current_range_meters":10000,"station_id":"ce4bgg92rcd13ifvqb30","pricing_plan_id":"cebpf4jnsgd1na2vs0mg"},{"bike_id":"950e1eb5-bdae-4612-8792-0cf944005500","system_id":"levelo_inurba_marseille","lat":43.24083,"lon":5.37749,"is_reserved":false,"is_disabled":false,"rental_uris":{"android":"levelo://app?vid=950e1eb5-bdae-4612-8792-0cf944005500","ios":"levelo://app?vid=950e1eb5-bdae-4612-8792-0cf944005500"},"vehicle_type_id":"4","last_reported":1726863034,"current_range_meters":2800,"station_id":"ce4bhnp2rcd13ifvqgvg","pricing_plan_id":"cebpf4jnsgd1na2vs0mg"},{"bike_id":"0af8d02d-bce3-46ec-8e4a-4b3fdee132a3","system_id":"levelo_inurba_marseille","lat":43.30887,"lon":5.37196,"is_reserved":false,"is_disabled":false,"rental_uris":{"android":"levelo://app?vid=0af8d02d-bce3-46ec-8e4a-4b3fdee132a3","ios":"levelo://app?vid=0af8d02d-bce3-46ec-8e4a-4b3fdee132a3"},"vehicle_type_id":"4","last_reported":1726863034,"current_range_meters":38800,"station_id":"ce4bguh2rcd13ifvqckg","pricing_plan_id":"cebpf4jnsgd1na2vs0mg"},{"bike_id":"c2c9a555-6ec8-4b92-b33e-073571605c93","system_id":"levelo_inurba_marseille","lat":43.23196,"lon":5.35551,"is_reserved":false,"is_disabled":false,"rental_uris":{"android":"levelo://app?vid=c2c9a555-6ec8-4b92-b33e-073571605c93","ios":"levelo://app?vid=c2c9a555-6ec8-4b92-b33e-073571605c93"},"vehicle_type_id":"4","last_reported":1726863034,"current_range_meters":25600,"station_id":"ce4bhu92rcd13ifvqi70","pricing_plan_id":"cebpf4jnsgd1na2vs0mg"},{"bike_id":"64be93d0-07c8-40b6-b937-df67d64dba59","system_id":"levelo_inurba_marseille","lat":43.29526,"lon":5.38537,"is_reserved":false,"is_disabled":false,"rental_uris":{"android":"levelo://app?vid=64be93d0-07c8-40b6-b937-df67d64dba59","ios":"levelo://app?vid=64be93d0-07c8-40b6-b937-df67d64dba59"},"vehicle_type_id":"4","last_reported":1726863034,"current_range_meters":38800,"station_id":"ce4bgih2rcd13ifvqba0","pricing_plan_id":"cebpf4jnsgd1na2vs0mg"},{"bike_id":"4c2c2f04-5972-45ee-8199-7e046d5e3093","system_id":"levelo_inurba_marseille","lat":43.28466,"lon":5.35897,"is_reserved":false,"is_disabled":false,"rental_uris":{"android":"levelo://app?vid=4c2c2f04-5972-45ee-8199-7e046d5e3093","ios":"levelo://app?vid=4c2c2f04-5972-45ee-8199-7e046d5e3093"},"vehicle_type_id":"4","last_reported":1726863034,"current_range_meters":32400,"station_id":"ce4bhah2rcd13ifvqei0","pricing_plan_id":"cebpf4jnsgd1na2vs0mg"},{"bike_id":"41486f00-63d7-4aef-b287-2c86b64e845e","system_id":"levelo_inurba_marseille","lat":43.280451,"lon":5.36913,"is_reserved":false,"is_disabled":false,"rental_uris":{"android":"levelo://app?vid=41486f00-63d7-4aef-b287-2c86b64e845e","ios":"levelo://app?vid=41486f00-63d7-4aef-b287-2c86b64e845e"},"vehicle_type_id":"4","last_reported":1726863034,"current_range_meters":30400,"station_id":"ce4bha12rcd13ifvqef0","pricing_plan_id":"cebpf4jnsgd1na2vs0mg"},{"bike_id":"1e333403-2737-49d9-815e-7a64ba942f2b","system_id":"levelo_inurba_marseille","lat":43.32107,"lon":5.36768,"is_reserved":false,"is_disabled":false,"rental_uris":{"android":"levelo://app?vid=1e333403-2737-49d9-815e-7a64ba942f2b","ios":"levelo://app?vid=1e333403-2737-49d9-815e-7a64ba942f2b"},"vehicle_type_id":"4","last_reported":1726863034,"current_range_meters":11200,"station_id":"","pricing_plan_id":"cebpf4jnsgd1na2vs0mg"},{"bike_id":"61c81ea7-5b83-4314-9cb9-e2af21317ec7","system_id":"levelo_inurba_marseille","lat":43.30634,"lon":5.38321,"is_reserved":false,"is_disabled":false,"rental_uris":{"android":"levelo://app?vid=61c81ea7-5b83-4314-9cb9-e2af21317ec7","ios":"levelo://app?vid=61c81ea7-5b83-4314-9cb9-e2af21317ec7"},"vehicle_type_id":"4","last_reported":1726863034,"current_range_meters":16800,"station_id":"","pricing_plan_id":"cebpf4jnsgd1na2vs0mg"},{"bike_id":"bd3bd1d8-4162-49e1-bdfd-8cf4ccb3a4f8","system_id":"levelo_inurba_marseille","lat":43.29201,"lon":5.39327,"is_reserved":false,"is_disabled":false,"rental_uris":{"android":"levelo://app?vid=bd3bd1d8-4162-49e1-bdfd-8cf4ccb3a4f8","ios":"levelo://app?vid=bd3bd1d8-4162-49e1-bdfd-8cf4ccb3a4f8"},"vehicle_type_id":"4","last_reported":1726863034,"current_range_meters":13600,"station_id":"ce4bh192rcd13ifvqdd0","pricing_plan_id":"cebpf4jnsgd1na2vs0mg"},{"bike_id":"698f683a-292d-4019-b96c-2c3047867806","system_id":"levelo_inurba_marseille","lat":43.30875,"lon":5.37204,"is_reserved":false,"is_disabled":false,"rental_uris":{"android":"levelo://app?vid=698f683a-292d-4019-b96c-2c3047867806","ios":"levelo://app?vid=698f683a-292d-4019-b96c-2c3047867806"},"vehicle_type_id":"4","last_reported":1726863034,"current_range_meters":38800,"station_id":"ce4bguh2rcd13ifvqckg","pricing_plan_id":"cebpf4jnsgd1na2vs0mg"},{"bike_id":"5dbf763e-c0f2-452b-8768-19f29c48a9f7","system_id":"levelo_inurba_marseille","lat":43.2718,"lon":5.41002,"is_reserved":false,"is_disabled":false,"rental_uris":{"android":"levelo://app?vid=5dbf763e-c0f2-452b-8768-19f29c48a9f7","ios":"levelo://app?vid=5dbf763e-c0f2-452b-8768-19f29c48a9f7"},"vehicle_type_id":"4","last_reported":1726863034,"current_range_meters":33600,"station_id":"ce4bhl12rcd13ifvqgf0","pricing_plan_id":"cebpf4jnsgd1na2vs0mg"},{"bike_id":"350ebb58-e45d-4fe8-ba32-04d252e6bc07","system_id":"levelo_inurba_marseille","lat":43.29645,"lon":5.37437,"is_reserved":false,"is_disabled":false,"rental_uris":{"android":"levelo://app?vid=350ebb58-e45d-4fe8-ba32-04d252e6bc07","ios":"levelo://app?vid=350ebb58-e45d-4fe8-ba32-04d252e6bc07"},"vehicle_type_id":"4","last_reported":1726863034,"current_range_meters":28000,"station_id":"","pricing_plan_id":"cebpf4jnsgd1na2vs0mg"},{"bike_id":"69879942-b85a-433f-a562-fc751d5a5549","system_id":"levelo_inurba_marseille","lat":43.330338,"lon":5.390393,"is_reserved":false,"is_disabled":false,"rental_uris":{"android":"levelo://app?vid=69879942-b85a-433f-a562-fc751d5a5549","ios":"levelo://app?vid=69879942-b85a-433f-a562-fc751d5a5549"},"vehicle_type_id":"4","last_reported":1726863034,"current_range_meters":38800,"station_id":"ce4bhr92rcd13ifvqhrg","pricing_plan_id":"cebpf4jnsgd1na2vs0mg"},{"bike_id":"68159eba-e301-4077-943e-46befe1273f0","system_id":"levelo_inurba_marseille","lat":43.23191,"lon":5.35556,"is_reserved":false,"is_disabled":false,"rental_uris":{"android":"levelo://app?vid=68159eba-e301-4077-943e-46befe1273f0","ios":"levelo://app?vid=68159eba-e301-4077-943e-46befe1273f0"},"vehicle_type_id":"4","last_reported":1726863034,"current_range_meters":31200,"station_id":"ce4bhu92rcd13ifvqi70","pricing_plan_id":"cebpf4jnsgd1na2vs0mg"},{"bike_id":"7d66f339-e9a1-4deb-8e88-576eebb910a0","system_id":"levelo_inurba_marseille","lat":43.317561,"lon":5.390166,"is_reserved":false,"is_disabled":false,"rental_uris":{"android":"levelo://app?vid=7d66f339-e9a1-4deb-8e88-576eebb910a0","ios":"levelo://app?vid=7d66f339-e9a1-4deb-8e88-576eebb910a0"},"vehicle_type_id":"4","last_reported":1726863034,"current_range_meters":38800,"station_id":"ce4bhqp2rcd13ifvqhng","pricing_plan_id":"cebpf4jnsgd1na2vs0mg"},{"bike_id":"860cf6a6-fdae-46be-960a-8654ce456f58","system_id":"levelo_inurba_marseille","lat":43.2953,"lon":5.38542,"is_reserved":false,"is_disabled":false,"rental_uris":{"android":"levelo://app?vid=860cf6a6-fdae-46be-960a-8654ce456f58","ios":"levelo://app?vid=860cf6a6-fdae-46be-960a-8654ce456f58"},"vehicle_type_id":"4","last_reported":1726863034,"current_range_meters":38000,"station_id":"ce4bgih2rcd13ifvqba0","pricing_plan_id":"cebpf4jnsgd1na2vs0mg"},{"bike_id":"31444d97-ada7-4c14-9ccc-e8d8f546def7","system_id":"levelo_inurba_marseille","lat":43.26929,"lon":5.36659,"is_reserved":false,"is_disabled":false,"rental_uris":{"android":"levelo://app?vid=31444d97-ada7-4c14-9ccc-e8d8f546def7","ios":"levelo://app?vid=31444d97-ada7-4c14-9ccc-e8d8f546def7"},"vehicle_type_id":"4","last_reported":1726863034,"current_range_meters":13600,"station_id":"","pricing_plan_id":"cebpf4jnsgd1na2vs0mg"},{"bike_id":"aa8a4e30-4efd-4ffb-bd7e-33f454523ad7","system_id":"levelo_inurba_marseille","lat":43.28929,"lon":5.38401,"is_reserved":false,"is_disabled":false,"rental_uris":{"android":"levelo://app?vid=aa8a4e30-4efd-4ffb-bd7e-33f454523ad7","ios":"levelo://app?vid=aa8a4e30-4efd-4ffb-bd7e-33f454523ad7"},"vehicle_type_id":"4","last_reported":1726863034,"current_range_meters":31200,"station_id":"ce4bh612rcd13ifvqe6g","pricing_plan_id":"cebpf4jnsgd1na2vs0mg"},{"bike_id":"a0903dde-8cc1-4c01-bc77-d6c05a0d2108","system_id":"levelo_inurba_marseille","lat":43.24661,"lon":5.38165,"is_reserved":false,"is_disabled":false,"rental_uris":{"android":"levelo://app?vid=a0903dde-8cc1-4c01-bc77-d6c05a0d2108","ios":"levelo://app?vid=a0903dde-8cc1-4c01-bc77-d6c05a0d2108"},"vehicle_type_id":"4","last_reported":1726863034,"current_range_meters":18000,"station_id":"ce4bhih2rcd13ifvqfr0","pricing_plan_id":"cebpf4jnsgd1na2vs0mg"},{"bike_id":"6555de99-f530-4c2d-961f-b8cf69dbd424","system_id":"levelo_inurba_marseille","lat":43.31756,"lon":5.39024,"is_reserved":false,"is_disabled":false,"rental_uris":{"android":"levelo://app?vid=6555de99-f530-4c2d-961f-b8cf69dbd424","ios":"levelo://app?vid=6555de99-f530-4c2d-961f-b8cf69dbd424"},"vehicle_type_id":"4","last_reported":1726863034,"current_range_meters":38800,"station_id":"ce4bhqp2rcd13ifvqhng","pricing_plan_id":"cebpf4jnsgd1na2vs0mg"},{"bike_id":"acc0e2ce-bff3-4a32-bc1e-5698617d465f","system_id":"levelo_inurba_marseille","lat":43.26971,"lon":5.39337,"is_reserved":false,"is_disabled":false,"rental_uris":{"android":"levelo://app?vid=acc0e2ce-bff3-4a32-bc1e-5698617d465f","ios":"levelo://app?vid=acc0e2ce-bff3-4a32-bc1e-5698617d465f"},"vehicle_type_id":"4","last_reported":1726863034,"current_range_meters":24000,"station_id":"ce4bhh12rcd13ifvqfg0","pricing_plan_id":"cebpf4jnsgd1na2vs0mg"},{"bike_id":"e092d784-dd73-4d3d-b98d-73c29037fb1a","system_id":"levelo_inurba_marseille","lat":43.24672,"lon":5.3817,"is_reserved":false,"is_disabled":false,"rental_uris":{"android":"levelo://app?vid=e092d784-dd73-4d3d-b98d-73c29037fb1a","ios":"levelo://app?vid=e092d784-dd73-4d3d-b98d-73c29037fb1a"},"vehicle_type_id":"4","last_reported":1726863034,"current_range_meters":3600,"station_id":"ce4bhih2rcd13ifvqfr0","pricing_plan_id":"cebpf4jnsgd1na2vs0mg"},{"bike_id":"23002ff8-227a-45b0-ab88-660b39a2f31e","system_id":"levelo_inurba_marseille","lat":43.30143,"lon":5.37415,"is_reserved":false,"is_disabled":false,"rental_uris":{"android":"levelo://app?vid=23002ff8-227a-45b0-ab88-660b39a2f31e","ios":"levelo://app?vid=23002ff8-227a-45b0-ab88-660b39a2f31e"},"vehicle_type_id":"4","last_reported":1726863034,"current_range_meters":36000,"station_id":"ce4bgs92rcd13ifvqcc0","pricing_plan_id":"cebpf4jnsgd1na2vs0mg"},{"bike_id":"d323bc23-4105-4d98-87ab-fb3899c88f8a","system_id":"levelo_inurba_marseille","lat":43.2319,"lon":5.35556,"is_reserved":false,"is_disabled":false,"rental_uris":{"android":"levelo://app?vid=d323bc23-4105-4d98-87ab-fb3899c88f8a","ios":"levelo://app?vid=d323bc23-4105-4d98-87ab-fb3899c88f8a"},"vehicle_type_id":"4","last_reported":1726863034,"current_range_meters":38800,"station_id":"ce4bhu92rcd13ifvqi70","pricing_plan_id":"cebpf4jnsgd1na2vs0mg"},{"bike_id":"4fe8f3a4-a462-4f91-8ae4-78ac141fae82","system_id":"levelo_inurba_marseille","lat":43.31753,"lon":5.39026,"is_reserved":false,"is_disabled":false,"rental_uris":{"android":"levelo://app?vid=4fe8f3a4-a462-4f91-8ae4-78ac141fae82","ios":"levelo://app?vid=4fe8f3a4-a462-4f91-8ae4-78ac141fae82"},"vehicle_type_id":"4","last_reported":1726863034,"current_range_meters":8800,"station_id":"ce4bhqp2rcd13ifvqhng","pricing_plan_id":"cebpf4jnsgd1na2vs0mg"},{"bike_id":"282a033c-76af-4560-b635-6e6343d551ca","system_id":"levelo_inurba_marseille","lat":43.31889,"lon":5.40745,"is_reserved":false,"is_disabled":false,"rental_uris":{"android":"levelo://app?vid=282a033c-76af-4560-b635-6e6343d551ca","ios":"levelo://app?vid=282a033c-76af-4560-b635-6e6343d551ca"},"vehicle_type_id":"4","last_reported":1726863034,"current_range_meters":36400,"station_id":"ce4bhq12rcd13ifvqhig","pricing_plan_id":"cebpf4jnsgd1na2vs0mg"},{"bike_id":"d757b5f4-bdd2-453d-acac-37c1aef1d4a9","system_id":"levelo_inurba_marseille","lat":43.304749,"lon":5.36648,"is_reserved":false,"is_disabled":false,"rental_uris":{"android":"levelo://app?vid=d757b5f4-bdd2-453d-acac-37c1aef1d4a9","ios":"levelo://app?vid=d757b5f4-bdd2-453d-acac-37c1aef1d4a9"},"vehicle_type_id":"4","last_reported":1726863034,"current_range_meters":8400,"station_id":"ce4bgs12rcd13ifvqcag","pricing_plan_id":"cebpf4jnsgd1na2vs0mg"},{"bike_id":"26fbdc58-3fc0-4120-9128-2aab67b0496a","system_id":"levelo_inurba_marseille","lat":43.29265,"lon":5.38446,"is_reserved":false,"is_disabled":false,"rental_uris":{"android":"levelo://app?vid=26fbdc58-3fc0-4120-9128-2aab67b0496a","ios":"levelo://app?vid=26fbdc58-3fc0-4120-9128-2aab67b0496a"},"vehicle_type_id":"4","last_reported":1726863034,"current_range_meters":4400,"station_id":"ce4bh692rcd13ifvqea0","pricing_plan_id":"cebpf4jnsgd1na2vs0mg"},{"bike_id":"e01c2637-7021-4cbf-a9f9-2ebe1c70831e","system_id":"levelo_inurba_marseille","lat":43.29276,"lon":5.38358,"is_reserved":false,"is_disabled":false,"rental_uris":{"android":"levelo://app?vid=e01c2637-7021-4cbf-a9f9-2ebe1c70831e","ios":"levelo://app?vid=e01c2637-7021-4cbf-a9f9-2ebe1c70831e"},"vehicle_type_id":"4","last_reported":1726863034,"current_range_meters":24000,"station_id":"","pricing_plan_id":"cebpf4jnsgd1na2vs0mg"},{"bike_id":"9a1d7481-1655-40b5-b526-545b7bdd0ba3","system_id":"levelo_inurba_marseille","lat":43.29529,"lon":5.3855,"is_reserved":false,"is_disabled":false,"rental_uris":{"android":"levelo://app?vid=9a1d7481-1655-40b5-b526-545b7bdd0ba3","ios":"levelo://app?vid=9a1d7481-1655-40b5-b526-545b7bdd0ba3"},"vehicle_type_id":"4","last_reported":1726863034,"current_range_meters":21600,"station_id":"ce4bgih2rcd13ifvqba0","pricing_plan_id":"cebpf4jnsgd1na2vs0mg"},{"bike_id":"2a86eb23-d193-4de9-a2f9-474809e15de3","system_id":"levelo_inurba_marseille","lat":43.2871,"lon":5.39997,"is_reserved":false,"is_disabled":false,"rental_uris":{"android":"levelo://app?vid=2a86eb23-d193-4de9-a2f9-474809e15de3","ios":"levelo://app?vid=2a86eb23-d193-4de9-a2f9-474809e15de3"},"vehicle_type_id":"4","last_reported":1726863034,"current_range_meters":36400,"station_id":"ce4bho92rcd13ifvqh3g","pricing_plan_id":"cebpf4jnsgd1na2vs0mg"},{"bike_id":"7473a6b8-6784-472a-b6d3-15339175ee9a","system_id":"levelo_inurba_marseille","lat":43.31755,"lon":5.39022,"is_reserved":false,"is_disabled":false,"rental_uris":{"android":"levelo://app?vid=7473a6b8-6784-472a-b6d3-15339175ee9a","ios":"levelo://app?vid=7473a6b8-6784-472a-b6d3-15339175ee9a"},"vehicle_type_id":"4","last_reported":1726863034,"current_range_meters":39200,"station_id":"ce4bhqp2rcd13ifvqhng","pricing_plan_id":"cebpf4jnsgd1na2vs0mg"},{"bike_id":"681e4157-7434-4d6e-b7bc-9e8b501742e6","system_id":"levelo_inurba_marseille","lat":43.265625,"lon":5.390254,"is_reserved":false,"is_disabled":false,"rental_uris":{"android":"levelo://app?vid=681e4157-7434-4d6e-b7bc-9e8b501742e6","ios":"levelo://app?vid=681e4157-7434-4d6e-b7bc-9e8b501742e6"},"vehicle_type_id":"4","last_reported":1726863034,"current_range_meters":28000,"station_id":"ce4bh192rcd13ifvqdd0","pricing_plan_id":"cebpf4jnsgd1na2vs0mg"},{"bike_id":"f09a782d-780c-45b2-a339-dc825d270942","system_id":"levelo_inurba_marseille","lat":43.28935,"lon":5.36633,"is_reserved":false,"is_disabled":false,"rental_uris":{"android":"levelo://app?vid=f09a782d-780c-45b2-a339-dc825d270942","ios":"levelo://app?vid=f09a782d-780c-45b2-a339-dc825d270942"},"vehicle_type_id":"4","last_reported":1726863034,"current_range_meters":38800,"station_id":"ce4bhap2rcd13ifvqek0","pricing_plan_id":"cebpf4jnsgd1na2vs0mg"},{"bike_id":"a3f5e890-bf7b-44ae-9e50-e653b258dfff","system_id":"levelo_inurba_marseille","lat":43.25585,"lon":5.38225,"is_reserved":false,"is_disabled":false,"rental_uris":{"android":"levelo://app?vid=a3f5e890-bf7b-44ae-9e50-e653b258dfff","ios":"levelo://app?vid=a3f5e890-bf7b-44ae-9e50-e653b258dfff"},"vehicle_type_id":"4","last_reported":1726863034,"current_range_meters":2800,"station_id":"ce4bhih2rcd13ifvqfs0","pricing_plan_id":"cebpf4jnsgd1na2vs0mg"},{"bike_id":"26e826c4-27d0-4c51-b7a0-577163ed1bf1","system_id":"levelo_inurba_marseille","lat":43.29171,"lon":5.37154,"is_reserved":false,"is_disabled":false,"rental_uris":{"android":"levelo://app?vid=26e826c4-27d0-4c51-b7a0-577163ed1bf1","ios":"levelo://app?vid=26e826c4-27d0-4c51-b7a0-577163ed1bf1"},"vehicle_type_id":"4","last_reported":1726863034,"current_range_meters":38800,"station_id":"ce4bha92rcd13ifvqeh0","pricing_plan_id":"cebpf4jnsgd1na2vs0mg"},{"bike_id":"90062973-8785-4de0-b036-36209a53c225","system_id":"levelo_inurba_marseille","lat":43.26561,"lon":5.39014,"is_reserved":false,"is_disabled":false,"rental_uris":{"android":"levelo://app?vid=90062973-8785-4de0-b036-36209a53c225","ios":"levelo://app?vid=90062973-8785-4de0-b036-36209a53c225"},"vehicle_type_id":"4","last_reported":1726863034,"current_range_meters":38800,"station_id":"ce4bhe12rcd13ifvqf30","pricing_plan_id":"cebpf4jnsgd1na2vs0mg"},{"bike_id":"7d31bd96-8ac7-470f-85eb-4851f6ddd0a3","system_id":"levelo_inurba_marseille","lat":43.2707,"lon":5.42283,"is_reserved":false,"is_disabled":false,"rental_uris":{"android":"levelo://app?vid=7d31bd96-8ac7-470f-85eb-4851f6ddd0a3","ios":"levelo://app?vid=7d31bd96-8ac7-470f-85eb-4851f6ddd0a3"},"vehicle_type_id":"4","last_reported":1726863034,"current_range_meters":20000,"station_id":"ce4bhk92rcd13ifvqgb0","pricing_plan_id":"cebpf4jnsgd1na2vs0mg"},{"bike_id":"67948aad-b623-46b0-8dd8-6e25f6a39420","system_id":"levelo_inurba_marseille","lat":43.287842,"lon":5.375752,"is_reserved":false,"is_disabled":false,"rental_uris":{"android":"levelo://app?vid=67948aad-b623-46b0-8dd8-6e25f6a39420","ios":"levelo://app?vid=67948aad-b623-46b0-8dd8-6e25f6a39420"},"vehicle_type_id":"4","last_reported":1726863034,"current_range_meters":16800,"station_id":"ce4bh3p2rcd13ifvqdp0","pricing_plan_id":"cebpf4jnsgd1na2vs0mg"},{"bike_id":"a08c16d2-99a0-4fbd-b970-795e60419327","system_id":"levelo_inurba_marseille","lat":43.2955,"lon":5.42285,"is_reserved":false,"is_disabled":false,"rental_uris":{"android":"levelo://app?vid=a08c16d2-99a0-4fbd-b970-795e60419327","ios":"levelo://app?vid=a08c16d2-99a0-4fbd-b970-795e60419327"},