{"last_updated":1770363526,"ttl":60,"version":"2.2","data":{"bikes":[{"bike_id":"b88ca08c-66c2-495c-a43a-08063258e8a0","system_id":"levelo_inurba_marseille","lat":43.26187,"lon":5.37455,"is_reserved":false,"is_disabled":false,"rental_uris":{"android":"levelo://app?vid=b88ca08c-66c2-495c-a43a-08063258e8a0","ios":"levelo://app?vid=b88ca08c-66c2-495c-a43a-08063258e8a0"},"vehicle_type_id":"4","last_reported":1770363527,"current_range_meters":2800,"station_id":"ce4bhgp2rcd13ifvqfc0","pricing_plan_id":"cebpf4jnsgd1na2vs0mg"},{"bike_id":"2d963270-be30-4be4-8e1f-07885cdef137","system_id":"levelo_inurba_marseille","lat":43.269565,"lon":5.386495,"is_reserved":false,"is_disabled":false,"rental_uris":{"android":"levelo://app?vid=2d963270-be30-4be4-8e1f-07885cdef137","ios":"levelo://app?vid=2d963270-be30-4be4-8e1f-07885cdef137"},"vehicle_type_id":"4","last_reported":1770363527,"current_range_meters":2800,"station_id":"ce4bhh92rcd13ifvqfh0","pricing_plan_id":"cebpf4jnsgd1na2vs0mg"},{"bike_id":"d54d1be8-869f-4c63-b314-8eb80f9babad","system_id":"levelo_inurba_marseille","lat":43.2292,"lon":5.35382,"is_reserved":false,"is_disabled":false,"rental_uris":{"android":"levelo://app?vid=d54d1be8-869f-4c63-b314-8eb80f9babad","ios":"levelo://app?vid=d54d1be8-869f-4c63-b314-8eb80f9babad"},"vehicle_type_id":"4","last_reported":1770363527,"current_range_meters":2800,"station_id":"cpo3532slgdg3j2ikp40","pricing_plan_id":"cebpf4jnsgd1na2vs0mg"},{"bike_id":"bf0b7d00-0741-403e-9b41-d44cd83fcd1f","system_id":"levelo_inurba_marseille","lat":43.313377,"lon":5.367154,"is_reserved":false,"is_disabled":false,"rental_uris":{"android":"levelo://app?vid=bf0b7d00-0741-403e-9b41-d44cd83fcd1f","ios":"levelo://app?vid=bf0b7d00-0741-403e-9b41-d44cd83fcd1f"},"vehicle_type_id":"4","last_reported":1770363527,"current_range_meters":2800,"station_id":"ce4bgr92rcd13ifvqc6g","pricing_plan_id":"cebpf4jnsgd1na2vs0mg"},{"bike_id":"10768ff7-b7ff-4a80-b73c-8f2888dc0eed","system_id":"levelo_inurba_marseille","lat":43.23192,"lon":5.3555,"is_reserved":false,"is_disabled":false,"rental_uris":{"android":"levelo://app?vid=10768ff7-b7ff-4a80-b73c-8f2888dc0eed","ios":"levelo://app?vid=10768ff7-b7ff-4a80-b73c-8f2888dc0eed"},"vehicle_type_id":"4","last_reported":1770363527,"current_range_meters":3200,"station_id":"ce4bhu92rcd13ifvqi70","pricing_plan_id":"cebpf4jnsgd1na2vs0mg"},{"bike_id":"2556d51f-39eb-4221-ba5c-737cb02f1919","system_id":"levelo_inurba_marseille","lat":43.24791,"lon":5.37459,"is_reserved":false,"is_disabled":false,"rental_uris":{"android":"levelo://app?vid=2556d51f-39eb-4221-ba5c-737cb02f1919","ios":"levelo://app?vid=2556d51f-39eb-4221-ba5c-737cb02f1919"},"vehicle_type_id":"4","last_reported":1770363527,"current_range_meters":3200,"station_id":"ce4bhgh2rcd13ifvqfb0","pricing_plan_id":"cebpf4jnsgd1na2vs0mg"},{"bike_id":"1cdc428a-e54b-4a6b-8e8a-dcb4a49f3e26","system_id":"levelo_inurba_marseille","lat":43.28686,"lon":5.38658,"is_reserved":false,"is_disabled":false,"rental_uris":{"android":"levelo://app?vid=1cdc428a-e54b-4a6b-8e8a-dcb4a49f3e26","ios":"levelo://app?vid=1cdc428a-e54b-4a6b-8e8a-dcb4a49f3e26"},"vehicle_type_id":"4","last_reported":1770363527,"current_range_meters":3200,"station_id":"ce4bh492rcd13ifvqdug","pricing_plan_id":"cebpf4jnsgd1na2vs0mg"},{"bike_id":"46429ed6-de95-4cb6-ad28-a6fd5bf1ee7c","system_id":"levelo_inurba_marseille","lat":43.2887,"lon":5.42528,"is_reserved":false,"is_disabled":false,"rental_uris":{"android":"levelo://app?vid=46429ed6-de95-4cb6-ad28-a6fd5bf1ee7c","ios":"levelo://app?vid=46429ed6-de95-4cb6-ad28-a6fd5bf1ee7c"},"vehicle_type_id":"4","last_reported":1770363527,"current_range_meters":3200,"station_id":"st_d3b462108ojc7389ooeg","pricing_plan_id":"cebpf4jnsgd1na2vs0mg"},{"bike_id":"1be79b39-519d-4004-8fc8-79c55282c459","system_id":"levelo_inurba_marseille","lat":43.2416,"lon":5.36404,"is_reserved":false,"is_disabled":false,"rental_uris":{"android":"levelo://app?vid=1be79b39-519d-4004-8fc8-79c55282c459","ios":"levelo://app?vid=1be79b39-519d-4004-8fc8-79c55282c459"},"vehicle_type_id":"4","last_reported":1770363527,"current_range_meters":3200,"station_id":"cpo36qri1sfpv3e86is0","pricing_plan_id":"cebpf4jnsgd1na2vs0mg"},{"bike_id":"453579d7-6663-41ac-8c92-337a0b82bafa","system_id":"levelo_inurba_marseille","lat":43.24006,"lon":5.37844,"is_reserved":false,"is_disabled":false,"rental_uris":{"android":"levelo://app?vid=453579d7-6663-41ac-8c92-337a0b82bafa","ios":"levelo://app?vid=453579d7-6663-41ac-8c92-337a0b82bafa"},"vehicle_type_id":"4","last_reported":1770363527,"current_range_meters":3200,"station_id":"","pricing_plan_id":"cebpf4jnsgd1na2vs0mg"},{"bike_id":"2d36a833-9c1e-4986-b296-52f4e681367f","system_id":"levelo_inurba_marseille","lat":43.2314,"lon":5.43726,"is_reserved":false,"is_disabled":false,"rental_uris":{"android":"levelo://app?vid=2d36a833-9c1e-4986-b296-52f4e681367f","ios":"levelo://app?vid=2d36a833-9c1e-4986-b296-52f4e681367f"},"vehicle_type_id":"4","last_reported":1770363527,"current_range_meters":3600,"station_id":"ce4bhmp2rcd13ifvqgog","pricing_plan_id":"cebpf4jnsgd1na2vs0mg"},{"bike_id":"80cf3519-4a22-4599-9106-cf86f10f6320","system_id":"levelo_inurba_marseille","lat":43.216357,"lon":5.346536,"is_reserved":false,"is_disabled":false,"rental_uris":{"android":"levelo://app?vid=80cf3519-4a22-4599-9106-cf86f10f6320","ios":"levelo://app?vid=80cf3519-4a22-4599-9106-cf86f10f6320"},"vehicle_type_id":"4","last_reported":1770363527,"current_range_meters":3600,"station_id":"","pricing_plan_id":"cebpf4jnsgd1na2vs0mg"},{"bike_id":"0f89d917-71ef-437b-ba7e-068f36a3eb29","system_id":"levelo_inurba_marseille","lat":43.26559,"lon":5.37303,"is_reserved":false,"is_disabled":false,"rental_uris":{"android":"levelo://app?vid=0f89d917-71ef-437b-ba7e-068f36a3eb29","ios":"levelo://app?vid=0f89d917-71ef-437b-ba7e-068f36a3eb29"},"vehicle_type_id":"4","last_reported":1770363527,"current_range_meters":3600,"station_id":"ce4bhg12rcd13ifvqf70","pricing_plan_id":"cebpf4jnsgd1na2vs0mg"},{"bike_id":"d3bc02b6-a140-4989-acaf-9f7582c73d4a","system_id":"levelo_inurba_marseille","lat":43.22553,"lon":5.41631,"is_reserved":false,"is_disabled":false,"rental_uris":{"android":"levelo://app?vid=d3bc02b6-a140-4989-acaf-9f7582c73d4a","ios":"levelo://app?vid=d3bc02b6-a140-4989-acaf-9f7582c73d4a"},"vehicle_type_id":"4","last_reported":1770363527,"current_range_meters":3600,"station_id":"st_d2o4gvlbi1j2169b742g","pricing_plan_id":"cebpf4jnsgd1na2vs0mg"},{"bike_id":"38712b4b-754b-41b9-9f4d-8f2f4069c5f1","system_id":"levelo_inurba_marseille","lat":43.29922,"lon":5.37459,"is_reserved":false,"is_disabled":false,"rental_uris":{"android":"levelo://app?vid=38712b4b-754b-41b9-9f4d-8f2f4069c5f1","ios":"levelo://app?vid=38712b4b-754b-41b9-9f4d-8f2f4069c5f1"},"vehicle_type_id":"4","last_reported":1770363527,"current_range_meters":3600,"station_id":"ce4bgjh2rcd13ifvqbg0","pricing_plan_id":"cebpf4jnsgd1na2vs0mg"},{"bike_id":"d2c14433-6ee8-4acf-8c27-13116ae17eed","system_id":"levelo_inurba_marseille","lat":43.229274,"lon":5.353751,"is_reserved":false,"is_disabled":false,"rental_uris":{"android":"levelo://app?vid=d2c14433-6ee8-4acf-8c27-13116ae17eed","ios":"levelo://app?vid=d2c14433-6ee8-4acf-8c27-13116ae17eed"},"vehicle_type_id":"4","last_reported":1770363527,"current_range_meters":3600,"station_id":"cpo3532slgdg3j2ikp40","pricing_plan_id":"cebpf4jnsgd1na2vs0mg"},{"bike_id":"b53f497c-0cdf-42a8-ab5a-d6dc45b07b09","system_id":"levelo_inurba_marseille","lat":43.24138,"lon":5.36412,"is_reserved":false,"is_disabled":false,"rental_uris":{"android":"levelo://app?vid=b53f497c-0cdf-42a8-ab5a-d6dc45b07b09","ios":"levelo://app?vid=b53f497c-0cdf-42a8-ab5a-d6dc45b07b09"},"vehicle_type_id":"4","last_reported":1770363527,"current_range_meters":4000,"station_id":"cpo36qri1sfpv3e86is0","pricing_plan_id":"cebpf4jnsgd1na2vs0mg"},{"bike_id":"b7fceb7d-5c94-4236-913d-205150a917a2","system_id":"levelo_inurba_marseille","lat":43.24472,"lon":5.42535,"is_reserved":false,"is_disabled":false,"rental_uris":{"android":"levelo://app?vid=b7fceb7d-5c94-4236-913d-205150a917a2","ios":"levelo://app?vid=b7fceb7d-5c94-4236-913d-205150a917a2"},"vehicle_type_id":"4","last_reported":1770363527,"current_range_meters":4000,"station_id":"st_d4a3vfp97mjs738cd8kg","pricing_plan_id":"cebpf4jnsgd1na2vs0mg"},{"bike_id":"e3818fee-bf5a-4fee-b7f1-bb17fc6a2b0a","system_id":"levelo_inurba_marseille","lat":43.29819,"lon":5.38096,"is_reserved":false,"is_disabled":false,"rental_uris":{"android":"levelo://app?vid=e3818fee-bf5a-4fee-b7f1-bb17fc6a2b0a","ios":"levelo://app?vid=e3818fee-bf5a-4fee-b7f1-bb17fc6a2b0a"},"vehicle_type_id":"4","last_reported":1770363527,"current_range_meters":4000,"station_id":"ce4bgip2rcd13ifvqbb0","pricing_plan_id":"cebpf4jnsgd1na2vs0mg"},{"bike_id":"6dbd8d18-67c6-4193-b351-f04487cb28ca","system_id":"levelo_inurba_marseille","lat":43.287368,"lon":5.400061,"is_reserved":false,"is_disabled":false,"rental_uris":{"android":"levelo://app?vid=6dbd8d18-67c6-4193-b351-f04487cb28ca","ios":"levelo://app?vid=6dbd8d18-67c6-4193-b351-f04487cb28ca"},"vehicle_type_id":"4","last_reported":1770363527,"current_range_meters":4000,"station_id":"ce4bho92rcd13ifvqh3g","pricing_plan_id":"cebpf4jnsgd1na2vs0mg"},{"bike_id":"e9548fb4-97ea-468e-9d62-57a2c5404926","system_id":"levelo_inurba_marseille","lat":43.24064,"lon":5.3775,"is_reserved":false,"is_disabled":false,"rental_uris":{"android":"levelo://app?vid=e9548fb4-97ea-468e-9d62-57a2c5404926","ios":"levelo://app?vid=e9548fb4-97ea-468e-9d62-57a2c5404926"},"vehicle_type_id":"4","last_reported":1770363527,"current_range_meters":4000,"station_id":"ce4bhnp2rcd13ifvqgvg","pricing_plan_id":"cebpf4jnsgd1na2vs0mg"},{"bike_id":"c3f43aa2-1ae1-41b3-a072-0f15c8d488c0","system_id":"levelo_inurba_marseille","lat":43.28478,"lon":5.43743,"is_reserved":false,"is_disabled":false,"rental_uris":{"android":"levelo://app?vid=c3f43aa2-1ae1-41b3-a072-0f15c8d488c0","ios":"levelo://app?vid=c3f43aa2-1ae1-41b3-a072-0f15c8d488c0"},"vehicle_type_id":"4","last_reported":1770363527,"current_range_meters":4000,"station_id":"","pricing_plan_id":"cebpf4jnsgd1na2vs0mg"},{"bike_id":"a03a0587-26a0-4743-94df-85cf192becc0","system_id":"levelo_inurba_marseille","lat":43.3354,"lon":5.3747,"is_reserved":false,"is_disabled":false,"rental_uris":{"android":"levelo://app?vid=a03a0587-26a0-4743-94df-85cf192becc0","ios":"levelo://app?vid=a03a0587-26a0-4743-94df-85cf192becc0"},"vehicle_type_id":"4","last_reported":1770363527,"current_range_meters":4000,"station_id":"st_d46tts09ee8s73dlu43g","pricing_plan_id":"cebpf4jnsgd1na2vs0mg"},{"bike_id":"b8f84804-3c6a-46e2-933b-865abf78412e","system_id":"levelo_inurba_marseille","lat":43.284759,"lon":5.483944,"is_reserved":false,"is_disabled":false,"rental_uris":{"android":"levelo://app?vid=b8f84804-3c6a-46e2-933b-865abf78412e","ios":"levelo://app?vid=b8f84804-3c6a-46e2-933b-865abf78412e"},"vehicle_type_id":"4","last_reported":1770363527,"current_range_meters":4000,"station_id":"st_d3svhcjqgbts73a3dn0g","pricing_plan_id":"cebpf4jnsgd1na2vs0mg"},{"bike_id":"c269eff6-7414-4fb8-b35a-8132e5c63b79","system_id":"levelo_inurba_marseille","lat":43.25011,"lon":5.38916,"is_reserved":false,"is_disabled":false,"rental_uris":{"android":"levelo://app?vid=c269eff6-7414-4fb8-b35a-8132e5c63b79","ios":"levelo://app?vid=c269eff6-7414-4fb8-b35a-8132e5c63b79"},"vehicle_type_id":"4","last_reported":1770363527,"current_range_meters":4000,"station_id":"ce4bhgp2rcd13ifvqfd0","pricing_plan_id":"cebpf4jnsgd1na2vs0mg"},{"bike_id":"6b57bf3b-8c0e-4c20-ac17-97c4a9b3eefe","system_id":"levelo_inurba_marseille","lat":43.2315,"lon":5.43712,"is_reserved":false,"is_disabled":false,"rental_uris":{"android":"levelo://app?vid=6b57bf3b-8c0e-4c20-ac17-97c4a9b3eefe","ios":"levelo://app?vid=6b57bf3b-8c0e-4c20-ac17-97c4a9b3eefe"},"vehicle_type_id":"4","last_reported":1770363527,"current_range_meters":4000,"station_id":"ce4bhmp2rcd13ifvqgog","pricing_plan_id":"cebpf4jnsgd1na2vs0mg"},{"bike_id":"49bc0ac4-ec4c-46b4-bcba-c5b87d948aa1","system_id":"levelo_inurba_marseille","lat":43.239625,"lon":5.366175,"is_reserved":false,"is_disabled":false,"rental_uris":{"android":"levelo://app?vid=49bc0ac4-ec4c-46b4-bcba-c5b87d948aa1","ios":"levelo://app?vid=49bc0ac4-ec4c-46b4-bcba-c5b87d948aa1"},"vehicle_type_id":"4","last_reported":1770363527,"current_range_meters":4400,"station_id":"ce4bhi12rcd13ifvqfp0","pricing_plan_id":"cebpf4jnsgd1na2vs0mg"},{"bike_id":"c54292e3-065f-4936-9d5e-2b6c416dceb3","system_id":"levelo_inurba_marseille","lat":43.2314,"lon":5.43727,"is_reserved":false,"is_disabled":false,"rental_uris":{"android":"levelo://app?vid=c54292e3-065f-4936-9d5e-2b6c416dceb3","ios":"levelo://app?vid=c54292e3-065f-4936-9d5e-2b6c416dceb3"},"vehicle_type_id":"4","last_reported":1770363527,"current_range_meters":4400,"station_id":"ce4bhmp2rcd13ifvqgog","pricing_plan_id":"cebpf4jnsgd1na2vs0mg"},{"bike_id":"6655b68c-34d5-4976-9b6b-2354fa7ac20f","system_id":"levelo_inurba_marseille","lat":43.28864,"lon":5.42523,"is_reserved":false,"is_disabled":false,"rental_uris":{"android":"levelo://app?vid=6655b68c-34d5-4976-9b6b-2354fa7ac20f","ios":"levelo://app?vid=6655b68c-34d5-4976-9b6b-2354fa7ac20f"},"vehicle_type_id":"4","last_reported":1770363527,"current_range_meters":4400,"station_id":"st_d3b462108ojc7389ooeg","pricing_plan_id":"cebpf4jnsgd1na2vs0mg"},{"bike_id":"4b43b3f1-a693-4e27-ba29-56dbfc45fc77","system_id":"levelo_inurba_marseille","lat":43.2486,"lon":5.37482,"is_reserved":false,"is_disabled":false,"rental_uris":{"android":"levelo://app?vid=4b43b3f1-a693-4e27-ba29-56dbfc45fc77","ios":"levelo://app?vid=4b43b3f1-a693-4e27-ba29-56dbfc45fc77"},"vehicle_type_id":"4","last_reported":1770363527,"current_range_meters":4400,"station_id":"","pricing_plan_id":"cebpf4jnsgd1na2vs0mg"},{"bike_id":"6bf13c7b-58cc-40cf-ba04-3d8e54df3528","system_id":"levelo_inurba_marseille","lat":43.310631,"lon":5.37172,"is_reserved":false,"is_disabled":false,"rental_uris":{"android":"levelo://app?vid=6bf13c7b-58cc-40cf-ba04-3d8e54df3528","ios":"levelo://app?vid=6bf13c7b-58cc-40cf-ba04-3d8e54df3528"},"vehicle_type_id":"4","last_reported":1770363527,"current_range_meters":4400,"station_id":"st_d4kl2rp97mjs73e7tdfg","pricing_plan_id":"cebpf4jnsgd1na2vs0mg"},{"bike_id":"c59be42f-0772-451e-a452-b56e08719067","system_id":"levelo_inurba_marseille","lat":43.23945,"lon":5.36634,"is_reserved":false,"is_disabled":false,"rental_uris":{"android":"levelo://app?vid=c59be42f-0772-451e-a452-b56e08719067","ios":"levelo://app?vid=c59be42f-0772-451e-a452-b56e08719067"},"vehicle_type_id":"4","last_reported":1770363527,"current_range_meters":4400,"station_id":"ce4bhi12rcd13ifvqfp0","pricing_plan_id":"cebpf4jnsgd1na2vs0mg"},{"bike_id":"b5d4a021-0bb0-42cf-bd44-43afe8841e01","system_id":"levelo_inurba_marseille","lat":43.32353,"lon":5.36728,"is_reserved":false,"is_disabled":false,"rental_uris":{"android":"levelo://app?vid=b5d4a021-0bb0-42cf-bd44-43afe8841e01","ios":"levelo://app?vid=b5d4a021-0bb0-42cf-bd44-43afe8841e01"},"vehicle_type_id":"4","last_reported":1770363527,"current_range_meters":4400,"station_id":"ce4bhsh2rcd13ifvqi2g","pricing_plan_id":"cebpf4jnsgd1na2vs0mg"},{"bike_id":"d72ec66a-db3f-41c7-8ed5-45387a7e4906","system_id":"levelo_inurba_marseille","lat":43.31711,"lon":5.42422,"is_reserved":false,"is_disabled":false,"rental_uris":{"android":"levelo://app?vid=d72ec66a-db3f-41c7-8ed5-45387a7e4906","ios":"levelo://app?vid=d72ec66a-db3f-41c7-8ed5-45387a7e4906"},"vehicle_type_id":"4","last_reported":1770363527,"current_range_meters":4800,"station_id":"ce4bhp92rcd13ifvqhbg","pricing_plan_id":"cebpf4jnsgd1na2vs0mg"},{"bike_id":"d80d92c0-e8c3-4bd2-9272-a00aefbf4d79","system_id":"levelo_inurba_marseille","lat":43.23762,"lon":5.36591,"is_reserved":false,"is_disabled":false,"rental_uris":{"android":"levelo://app?vid=d80d92c0-e8c3-4bd2-9272-a00aefbf4d79","ios":"levelo://app?vid=d80d92c0-e8c3-4bd2-9272-a00aefbf4d79"},"vehicle_type_id":"4","last_reported":1770363527,"current_range_meters":4800,"station_id":"st_d3nk18o9ro0c73en2l3g","pricing_plan_id":"cebpf4jnsgd1na2vs0mg"},{"bike_id":"e0cba40c-ab67-41b5-a742-3a0c77adbcad","system_id":"levelo_inurba_marseille","lat":43.287165,"lon":5.379392,"is_reserved":false,"is_disabled":false,"rental_uris":{"android":"levelo://app?vid=e0cba40c-ab67-41b5-a742-3a0c77adbcad","ios":"levelo://app?vid=e0cba40c-ab67-41b5-a742-3a0c77adbcad"},"vehicle_type_id":"4","last_reported":1770363527,"current_range_meters":4800,"station_id":"st_d4e5ca6na9uc73bfl5fg","pricing_plan_id":"cebpf4jnsgd1na2vs0mg"},{"bike_id":"f1b1055e-06bd-4540-b5fe-11d8d0f72076","system_id":"levelo_inurba_marseille","lat":43.245523,"lon":5.395245,"is_reserved":false,"is_disabled":false,"rental_uris":{"android":"levelo://app?vid=f1b1055e-06bd-4540-b5fe-11d8d0f72076","ios":"levelo://app?vid=f1b1055e-06bd-4540-b5fe-11d8d0f72076"},"vehicle_type_id":"4","last_reported":1770363527,"current_range_meters":4800,"station_id":"ce4bhlp2rcd13ifvqgjg","pricing_plan_id":"cebpf4jnsgd1na2vs0mg"},{"bike_id":"523eb44b-649e-4c8f-8f3d-01f6b03f6507","system_id":"levelo_inurba_marseille","lat":43.28172,"lon":5.42656,"is_reserved":false,"is_disabled":false,"rental_uris":{"android":"levelo://app?vid=523eb44b-649e-4c8f-8f3d-01f6b03f6507","ios":"levelo://app?vid=523eb44b-649e-4c8f-8f3d-01f6b03f6507"},"vehicle_type_id":"4","last_reported":1770363527,"current_range_meters":4800,"station_id":"ce4bhnh2rcd13ifvqgug","pricing_plan_id":"cebpf4jnsgd1na2vs0mg"},{"bike_id":"34c50a61-22ac-4ed2-981f-46c8654fa2b9","system_id":"levelo_inurba_marseille","lat":43.33547,"lon":5.37476,"is_reserved":false,"is_disabled":false,"rental_uris":{"android":"levelo://app?vid=34c50a61-22ac-4ed2-981f-46c8654fa2b9","ios":"levelo://app?vid=34c50a61-22ac-4ed2-981f-46c8654fa2b9"},"vehicle_type_id":"4","last_reported":1770363527,"current_range_meters":4800,"station_id":"","pricing_plan_id":"cebpf4jnsgd1na2vs0mg"},{"bike_id":"b4511b2b-b40d-4489-aaec-8193a17f80e9","system_id":"levelo_inurba_marseille","lat":43.33557,"lon":5.37499,"is_reserved":false,"is_disabled":false,"rental_uris":{"android":"levelo://app?vid=b4511b2b-b40d-4489-aaec-8193a17f80e9","ios":"levelo://app?vid=b4511b2b-b40d-4489-aaec-8193a17f80e9"},"vehicle_type_id":"4","last_reported":1770363527,"current_range_meters":4800,"station_id":"","pricing_plan_id":"cebpf4jnsgd1na2vs0mg"},{"bike_id":"93598d91-2b4e-493b-9a7e-38a40e7c4861","system_id":"levelo_inurba_marseille","lat":43.288572,"lon":5.358488,"is_reserved":false,"is_disabled":false,"rental_uris":{"android":"levelo://app?vid=93598d91-2b4e-493b-9a7e-38a40e7c4861","ios":"levelo://app?vid=93598d91-2b4e-493b-9a7e-38a40e7c4861"},"vehicle_type_id":"4","last_reported":1770363527,"current_range_meters":5600,"station_id":"ce4bhb12rcd13ifvqem0","pricing_plan_id":"cebpf4jnsgd1na2vs0mg"},{"bike_id":"4784e26d-96af-4ccc-a956-0e1565dd44fa","system_id":"levelo_inurba_marseille","lat":43.29015,"lon":5.35607,"is_reserved":false,"is_disabled":false,"rental_uris":{"android":"levelo://app?vid=4784e26d-96af-4ccc-a956-0e1565dd44fa","ios":"levelo://app?vid=4784e26d-96af-4ccc-a956-0e1565dd44fa"},"vehicle_type_id":"4","last_reported":1770363527,"current_range_meters":5600,"station_id":"ce4bhb92rcd13ifvqen0","pricing_plan_id":"cebpf4jnsgd1na2vs0mg"},{"bike_id":"da76f900-b17d-4248-b9ba-2a8067b473bd","system_id":"levelo_inurba_marseille","lat":43.31721,"lon":5.42399,"is_reserved":false,"is_disabled":false,"rental_uris":{"android":"levelo://app?vid=da76f900-b17d-4248-b9ba-2a8067b473bd","ios":"levelo://app?vid=da76f900-b17d-4248-b9ba-2a8067b473bd"},"vehicle_type_id":"4","last_reported":1770363527,"current_range_meters":5600,"station_id":"ce4bhp92rcd13ifvqhbg","pricing_plan_id":"cebpf4jnsgd1na2vs0mg"},{"bike_id":"b01f3914-e4b4-4a5c-9215-2f671b4636c4","system_id":"levelo_inurba_marseille","lat":43.29172,"lon":5.40716,"is_reserved":false,"is_disabled":false,"rental_uris":{"android":"levelo://app?vid=b01f3914-e4b4-4a5c-9215-2f671b4636c4","ios":"levelo://app?vid=b01f3914-e4b4-4a5c-9215-2f671b4636c4"},"vehicle_type_id":"4","last_reported":1770363527,"current_range_meters":5600,"station_id":"","pricing_plan_id":"cebpf4jnsgd1na2vs0mg"},{"bike_id":"117def50-876b-4a77-bc7f-3e901c787b6b","system_id":"levelo_inurba_marseille","lat":43.231528,"lon":5.437119,"is_reserved":false,"is_disabled":false,"rental_uris":{"android":"levelo://app?vid=117def50-876b-4a77-bc7f-3e901c787b6b","ios":"levelo://app?vid=117def50-876b-4a77-bc7f-3e901c787b6b"},"vehicle_type_id":"4","last_reported":1770363527,"current_range_meters":5600,"station_id":"","pricing_plan_id":"cebpf4jnsgd1na2vs0mg"},{"bike_id":"fee0750a-8d27-43e0-94f7-17675fd554cc","system_id":"levelo_inurba_marseille","lat":43.231931,"lon":5.355534,"is_reserved":false,"is_disabled":false,"rental_uris":{"android":"levelo://app?vid=fee0750a-8d27-43e0-94f7-17675fd554cc","ios":"levelo://app?vid=fee0750a-8d27-43e0-94f7-17675fd554cc"},"vehicle_type_id":"4","last_reported":1770363527,"current_range_meters":5600,"station_id":"ce4bhu92rcd13ifvqi70","pricing_plan_id":"cebpf4jnsgd1na2vs0mg"},{"bike_id":"16c072db-a755-48f7-99d4-19db5a203d81","system_id":"levelo_inurba_marseille","lat":43.286127,"lon":5.350994,"is_reserved":false,"is_disabled":false,"rental_uris":{"android":"levelo://app?vid=16c072db-a755-48f7-99d4-19db5a203d81","ios":"levelo://app?vid=16c072db-a755-48f7-99d4-19db5a203d81"},"vehicle_type_id":"4","last_reported":1770363527,"current_range_meters":5600,"station_id":"ce4bhch2rcd13ifvqeug","pricing_plan_id":"cebpf4jnsgd1na2vs0mg"},{"bike_id":"e1762550-d407-45ee-8a36-024cd444b5b8","system_id":"levelo_inurba_marseille","lat":43.27978,"lon":5.3873,"is_reserved":false,"is_disabled":false,"rental_uris":{"android":"levelo://app?vid=e1762550-d407-45ee-8a36-024cd444b5b8","ios":"levelo://app?vid=e1762550-d407-45ee-8a36-024cd444b5b8"},"vehicle_type_id":"4","last_reported":1770363527,"current_range_meters":6000,"station_id":"ce4bhg12rcd13ifvqf80","pricing_plan_id":"cebpf4jnsgd1na2vs0mg"},{"bike_id":"e6960217-3980-48bf-9c37-36816acc575b","system_id":"levelo_inurba_marseille","lat":43.29886,"lon":5.38167,"is_reserved":false,"is_disabled":false,"rental_uris":{"android":"levelo://app?vid=e6960217-3980-48bf-9c37-36816acc575b","ios":"levelo://app?vid=e6960217-3980-48bf-9c37-36816acc575b"},"vehicle_type_id":"4","last_reported":1770363527,"current_range_meters":6000,"station_id":"ce4bgj12rcd13ifvqbc0","pricing_plan_id":"cebpf4jnsgd1na2vs0mg"},{"bike_id":"c1141524-5343-4555-9ca5-2692a3456421","system_id":"levelo_inurba_marseille","lat":43.22921,"lon":5.3539,"is_reserved":false,"is_disabled":false,"rental_uris":{"android":"levelo://app?vid=c1141524-5343-4555-9ca5-2692a3456421","ios":"levelo://app?vid=c1141524-5343-4555-9ca5-2692a3456421"},"vehicle_type_id":"4","last_reported":1770363527,"current_range_meters":6000,"station_id":"cpo3532slgdg3j2ikp40","pricing_plan_id":"cebpf4jnsgd1na2vs0mg"},{"bike_id":"d78c5275-a079-45c4-9ae1-fc3831abcbf7","system_id":"levelo_inurba_marseille","lat":43.2455,"lon":5.43175,"is_reserved":false,"is_disabled":false,"rental_uris":{"android":"levelo://app?vid=d78c5275-a079-45c4-9ae1-fc3831abcbf7","ios":"levelo://app?vid=d78c5275-a079-45c4-9ae1-fc3831abcbf7"},"vehicle_type_id":"4","last_reported":1770363527,"current_range_meters":6000,"station_id":"st_d2m6c4gdas8pm72e190g","pricing_plan_id":"cebpf4jnsgd1na2vs0mg"},{"bike_id":"66843164-e6dd-46fc-8743-26489dd47f53","system_id":"levelo_inurba_marseille","lat":43.31577,"lon":5.36654,"is_reserved":false,"is_disabled":false,"rental_uris":{"android":"levelo://app?vid=66843164-e6dd-46fc-8743-26489dd47f53","ios":"levelo://app?vid=66843164-e6dd-46fc-8743-26489dd47f53"},"vehicle_type_id":"4","last_reported":1770363527,"current_range_meters":6000,"station_id":"ce4bgr92rcd13ifvqc6g","pricing_plan_id":"cebpf4jnsgd1na2vs0mg"},{"bike_id":"f19552e5-b8be-4ac0-bab3-b1e24771cb0c","system_id":"levelo_inurba_marseille","lat":43.32098,"lon":5.36819,"is_reserved":false,"is_disabled":false,"rental_uris":{"android":"levelo://app?vid=f19552e5-b8be-4ac0-bab3-b1e24771cb0c","ios":"levelo://app?vid=f19552e5-b8be-4ac0-bab3-b1e24771cb0c"},"vehicle_type_id":"4","last_reported":1770363527,"current_range_meters":6000,"station_id":"ce4bhrh2rcd13ifvqhug","pricing_plan_id":"cebpf4jnsgd1na2vs0mg"},{"bike_id":"f032e3f9-5399-4635-8e00-5e4d3179bb75","system_id":"levelo_inurba_marseille","lat":43.24433,"lon":5.42549,"is_reserved":false,"is_disabled":false,"rental_uris":{"android":"levelo://app?vid=f032e3f9-5399-4635-8e00-5e4d3179bb75","ios":"levelo://app?vid=f032e3f9-5399-4635-8e00-5e4d3179bb75"},"vehicle_type_id":"4","last_reported":1770363527,"current_range_meters":6000,"station_id":"st_d4a3vfp97mjs738cd8kg","pricing_plan_id":"cebpf4jnsgd1na2vs0mg"},{"bike_id":"d4e0e754-c71b-44db-b350-d85e9675dd8d","system_id":"levelo_inurba_marseille","lat":43.26385,"lon":5.41061,"is_reserved":false,"is_disabled":true,"rental_uris":{"android":"levelo://app?vid=d4e0e754-c71b-44db-b350-d85e9675dd8d","ios":"levelo://app?vid=d4e0e754-c71b-44db-b350-d85e9675dd8d"},"vehicle_type_id":"4","last_reported":1770363527,"current_range_meters":6000,"station_id":"st_d4e5ca6na9uc73bfl5fg","pricing_plan_id":"cebpf4jnsgd1na2vs0mg"},{"bike_id":"841c7a25-c169-4bb4-adcd-1be759a62c45","system_id":"levelo_inurba_marseille","lat":43.2798,"lon":5.41674,"is_reserved":false,"is_disabled":false,"rental_uris":{"android":"levelo://app?vid=841c7a25-c169-4bb4-adcd-1be759a62c45","ios":"levelo://app?vid=841c7a25-c169-4bb4-adcd-1be759a62c45"},"vehicle_type_id":"4","last_reported":1770363527,"current_range_meters":6000,"station_id":"ce4bho12rcd13ifvqh1g","pricing_plan_id":"cebpf4jnsgd1na2vs0mg"},{"bike_id":"b49b4216-4eb9-404f-8a9b-f497315b3360","system_id":"levelo_inurba_marseille","lat":43.33542,"lon":5.37442,"is_reserved":false,"is_disabled":false,"rental_uris":{"android":"levelo://app?vid=b49b4216-4eb9-404f-8a9b-f497315b3360","ios":"levelo://app?vid=b49b4216-4eb9-404f-8a9b-f497315b3360"},"vehicle_type_id":"4","last_reported":1770363527,"current_range_meters":6000,"station_id":"st_d46tts09ee8s73dlu43g","pricing_plan_id":"cebpf4jnsgd1na2vs0mg"},{"bike_id":"d90ad92a-480c-45ba-91af-83ba1be4179d","system_id":"levelo_inurba_marseille","lat":43.31205,"lon":5.36873,"is_reserved":false,"is_disabled":false,"rental_uris":{"android":"levelo://app?vid=d90ad92a-480c-45ba-91af-83ba1be4179d","ios":"levelo://app?vid=d90ad92a-480c-45ba-91af-83ba1be4179d"},"vehicle_type_id":"4","last_reported":1770363527,"current_range_meters":6000,"station_id":"ce4bgl92rcd13ifvqbq0","pricing_plan_id":"cebpf4jnsgd1na2vs0mg"},{"bike_id":"5309610c-bf76-4542-a232-389bbf17cbff","system_id":"levelo_inurba_marseille","lat":43.33535,"lon":5.37461,"is_reserved":false,"is_disabled":false,"rental_uris":{"android":"levelo://app?vid=5309610c-bf76-4542-a232-389bbf17cbff","ios":"levelo://app?vid=5309610c-bf76-4542-a232-389bbf17cbff"},"vehicle_type_id":"4","last_reported":1770363527,"current_range_meters":6400,"station_id":"","pricing_plan_id":"cebpf4jnsgd1na2vs0mg"},{"bike_id":"e6aca556-ada4-4207-9528-35f8d7906ed0","system_id":"levelo_inurba_marseille","lat":43.270683,"lon":5.422817,"is_reserved":false,"is_disabled":false,"rental_uris":{"android":"levelo://app?vid=e6aca556-ada4-4207-9528-35f8d7906ed0","ios":"levelo://app?vid=e6aca556-ada4-4207-9528-35f8d7906ed0"},"vehicle_type_id":"4","last_reported":1770363527,"current_range_meters":6400,"station_id":"ce4bhk92rcd13ifvqgb0","pricing_plan_id":"cebpf4jnsgd1na2vs0mg"},{"bike_id":"bf716aa5-5db6-4f44-aa24-9167a51e58ca","system_id":"levelo_inurba_marseille","lat":43.317161,"lon":5.424039,"is_reserved":false,"is_disabled":false,"rental_uris":{"android":"levelo://app?vid=bf716aa5-5db6-4f44-aa24-9167a51e58ca","ios":"levelo://app?vid=bf716aa5-5db6-4f44-aa24-9167a51e58ca"},"vehicle_type_id":"4","last_reported":1770363527,"current_range_meters":6400,"station_id":"ce4bhp92rcd13ifvqhbg","pricing_plan_id":"cebpf4jnsgd1na2vs0mg"},{"bike_id":"0ad61100-8c1e-4683-9cc6-748f02a03fec","system_id":"levelo_inurba_marseille","lat":43.29897,"lon":5.436652,"is_reserved":false,"is_disabled":false,"rental_uris":{"android":"levelo://app?vid=0ad61100-8c1e-4683-9cc6-748f02a03fec","ios":"levelo://app?vid=0ad61100-8c1e-4683-9cc6-748f02a03fec"},"vehicle_type_id":"4","last_reported":1770363527,"current_range_meters":6400,"station_id":"ce4bhpp2rcd13ifvqhfg","pricing_plan_id":"cebpf4jnsgd1na2vs0mg"},{"bike_id":"8ac864bf-49b5-4ef2-bd0c-e2ca684e782b","system_id":"levelo_inurba_marseille","lat":43.2815,"lon":5.42652,"is_reserved":false,"is_disabled":false,"rental_uris":{"android":"levelo://app?vid=8ac864bf-49b5-4ef2-bd0c-e2ca684e782b","ios":"levelo://app?vid=8ac864bf-49b5-4ef2-bd0c-e2ca684e782b"},"vehicle_type_id":"4","last_reported":1770363527,"current_range_meters":6400,"station_id":"ce4bhnh2rcd13ifvqgug","pricing_plan_id":"cebpf4jnsgd1na2vs0mg"},{"bike_id":"b62bd3bf-3a8f-4a59-b001-afd3a67d5841","system_id":"levelo_inurba_marseille","lat":43.26223,"lon":5.40479,"is_reserved":false,"is_disabled":false,"rental_uris":{"android":"levelo://app?vid=b62bd3bf-3a8f-4a59-b001-afd3a67d5841","ios":"levelo://app?vid=b62bd3bf-3a8f-4a59-b001-afd3a67d5841"},"vehicle_type_id":"4","last_reported":1770363527,"current_range_meters":6400,"station_id":"ce4bhmh2rcd13ifvqgmg","pricing_plan_id":"cebpf4jnsgd1na2vs0mg"},{"bike_id":"8f6d4248-09a7-4281-8810-e268fbb5b06d","system_id":"levelo_inurba_marseille","lat":43.27324,"lon":5.39098,"is_reserved":false,"is_disabled":false,"rental_uris":{"android":"levelo://app?vid=8f6d4248-09a7-4281-8810-e268fbb5b06d","ios":"levelo://app?vid=8f6d4248-09a7-4281-8810-e268fbb5b06d"},"vehicle_type_id":"4","last_reported":1770363527,"current_range_meters":6400,"station_id":"ce4bhgp2rcd13ifvqfe0","pricing_plan_id":"cebpf4jnsgd1na2vs0mg"},{"bike_id":"b53c6c98-8c8f-43b4-8753-1f27fa4df19b","system_id":"levelo_inurba_marseille","lat":43.27247,"lon":5.40084,"is_reserved":false,"is_disabled":false,"rental_uris":{"android":"levelo://app?vid=b53c6c98-8c8f-43b4-8753-1f27fa4df19b","ios":"levelo://app?vid=b53c6c98-8c8f-43b4-8753-1f27fa4df19b"},"vehicle_type_id":"4","last_reported":1770363527,"current_range_meters":6400,"station_id":"","pricing_plan_id":"cebpf4jnsgd1na2vs0mg"},{"bike_id":"fffb0867-6a4f-47de-9eba-00eaf2810d28","system_id":"levelo_inurba_marseille","lat":43.30147,"lon":5.38096,"is_reserved":false,"is_disabled":false,"rental_uris":{"android":"levelo://app?vid=fffb0867-6a4f-47de-9eba-00eaf2810d28","ios":"levelo://app?vid=fffb0867-6a4f-47de-9eba-00eaf2810d28"},"vehicle_type_id":"4","last_reported":1770363527,"current_range_meters":6400,"station_id":"ce4bgjp2rcd13ifvqbh0","pricing_plan_id":"cebpf4jnsgd1na2vs0mg"},{"bike_id":"c9beec65-77ad-4b5b-9ac6-037515454e3d","system_id":"levelo_inurba_marseille","lat":43.27368,"lon":5.36233,"is_reserved":false,"is_disabled":false,"rental_uris":{"android":"levelo://app?vid=c9beec65-77ad-4b5b-9ac6-037515454e3d","ios":"levelo://app?vid=c9beec65-77ad-4b5b-9ac6-037515454e3d"},"vehicle_type_id":"4","last_reported":1770363527,"current_range_meters":6400,"station_id":"ce4bhbh2rcd13ifvqeo0","pricing_plan_id":"cebpf4jnsgd1na2vs0mg"},{"bike_id":"7646115c-16ae-46bb-b03c-df2955877c47","system_id":"levelo_inurba_marseille","lat":43.2652,"lon":5.37346,"is_reserved":false,"is_disabled":false,"rental_uris":{"android":"levelo://app?vid=7646115c-16ae-46bb-b03c-df2955877c47","ios":"levelo://app?vid=7646115c-16ae-46bb-b03c-df2955877c47"},"vehicle_type_id":"4","last_reported":1770363527,"current_range_meters":6400,"station_id":"ce4bhg12rcd13ifvqf70","pricing_plan_id":"cebpf4jnsgd1na2vs0mg"},{"bike_id":"7d70eb5b-0c68-4c6b-845a-56956d2aa148","system_id":"levelo_inurba_marseille","lat":43.23784,"lon":5.36634,"is_reserved":false,"is_disabled":false,"rental_uris":{"android":"levelo://app?vid=7d70eb5b-0c68-4c6b-845a-56956d2aa148","ios":"levelo://app?vid=7d70eb5b-0c68-4c6b-845a-56956d2aa148"},"vehicle_type_id":"4","last_reported":1770363527,"current_range_meters":6400,"station_id":"st_d3nk18o9ro0c73en2l3g","pricing_plan_id":"cebpf4jnsgd1na2vs0mg"},{"bike_id":"8611c215-56fe-4c61-9499-c1967e643144","system_id":"levelo_inurba_marseille","lat":43.30532,"lon":5.3844,"is_reserved":false,"is_disabled":false,"rental_uris":{"android":"levelo://app?vid=8611c215-56fe-4c61-9499-c1967e643144","ios":"levelo://app?vid=8611c215-56fe-4c61-9499-c1967e643144"},"vehicle_type_id":"4","last_reported":1770363527,"current_range_meters":6400,"station_id":"ce4bgg92rcd13ifvqb30","pricing_plan_id":"cebpf4jnsgd1na2vs0mg"},{"bike_id":"618c560c-d600-4a11-a120-02980090c8d7","system_id":"levelo_inurba_marseille","lat":43.24061,"lon":5.37755,"is_reserved":false,"is_disabled":false,"rental_uris":{"android":"levelo://app?vid=618c560c-d600-4a11-a120-02980090c8d7","ios":"levelo://app?vid=618c560c-d600-4a11-a120-02980090c8d7"},"vehicle_type_id":"4","last_reported":1770363527,"current_range_meters":6800,"station_id":"ce4bhnp2rcd13ifvqgvg","pricing_plan_id":"cebpf4jnsgd1na2vs0mg"},{"bike_id":"2019aed1-4c5c-46a1-8cfd-39406ce16be5","system_id":"levelo_inurba_marseille","lat":43.32029,"lon":5.41631,"is_reserved":false,"is_disabled":true,"rental_uris":{"android":"levelo://app?vid=2019aed1-4c5c-46a1-8cfd-39406ce16be5","ios":"levelo://app?vid=2019aed1-4c5c-46a1-8cfd-39406ce16be5"},"vehicle_type_id":"4","last_reported":1770363527,"current_range_meters":6800,"station_id":"","pricing_plan_id":"cebpf4jnsgd1na2vs0mg"},{"bike_id":"812a467d-02aa-4dbc-80ff-32b04a94236b","system_id":"levelo_inurba_marseille","lat":43.28608,"lon":5.39916,"is_reserved":false,"is_disabled":false,"rental_uris":{"android":"levelo://app?vid=812a467d-02aa-4dbc-80ff-32b04a94236b","ios":"levelo://app?vid=812a467d-02aa-4dbc-80ff-32b04a94236b"},"vehicle_type_id":"4","last_reported":1770363527,"current_range_meters":6800,"station_id":"st_d4a7ka997mjs738ck50g","pricing_plan_id":"cebpf4jnsgd1na2vs0mg"},{"bike_id":"6c706595-1835-4ddf-8d94-5e35d4a0f5cb","system_id":"levelo_inurba_marseille","lat":43.312221,"lon":5.368523,"is_reserved":false,"is_disabled":false,"rental_uris":{"android":"levelo://app?vid=6c706595-1835-4ddf-8d94-5e35d4a0f5cb","ios":"levelo://app?vid=6c706595-1835-4ddf-8d94-5e35d4a0f5cb"},"vehicle_type_id":"4","last_reported":1770363527,"current_range_meters":6800,"station_id":"ce4bgl92rcd13ifvqbq0","pricing_plan_id":"cebpf4jnsgd1na2vs0mg"},{"bike_id":"7a9437dc-9620-4e4d-ac55-f97780f81760","system_id":"levelo_inurba_marseille","lat":43.2481,"lon":5.3745,"is_reserved":false,"is_disabled":false,"rental_uris":{"android":"levelo://app?vid=7a9437dc-9620-4e4d-ac55-f97780f81760","ios":"levelo://app?vid=7a9437dc-9620-4e4d-ac55-f97780f81760"},"vehicle_type_id":"4","last_reported":1770363527,"current_range_meters":6800,"station_id":"ce4bhgh2rcd13ifvqfb0","pricing_plan_id":"cebpf4jnsgd1na2vs0mg"},{"bike_id":"7ce3271c-9e28-4d5e-b3b1-77311e5df5d7","system_id":"levelo_inurba_marseille","lat":43.31488,"lon":5.38089,"is_reserved":false,"is_disabled":false,"rental_uris":{"android":"levelo://app?vid=7ce3271c-9e28-4d5e-b3b1-77311e5df5d7","ios":"levelo://app?vid=7ce3271c-9e28-4d5e-b3b1-77311e5df5d7"},"vehicle_type_id":"4","last_reported":1770363527,"current_range_meters":6800,"station_id":"","pricing_plan_id":"cebpf4jnsgd1na2vs0mg"},{"bike_id":"1a2b4f09-f18b-4d24-9f58-193947bc2618","system_id":"levelo_inurba_marseille","lat":43.28859,"lon":5.35859,"is_reserved":false,"is_disabled":false,"rental_uris":{"android":"levelo://app?vid=1a2b4f09-f18b-4d24-9f58-193947bc2618","ios":"levelo://app?vid=1a2b4f09-f18b-4d24-9f58-193947bc2618"},"vehicle_type_id":"4","last_reported":1770363527,"current_range_meters":6800,"station_id":"ce4bhb12rcd13ifvqem0","pricing_plan_id":"cebpf4jnsgd1na2vs0mg"},{"bike_id":"40819fca-9f18-4e89-b31c-5ad4505052c8","system_id":"levelo_inurba_marseille","lat":43.23208,"lon":5.35549,"is_reserved":false,"is_disabled":false,"rental_uris":{"android":"levelo://app?vid=40819fca-9f18-4e89-b31c-5ad4505052c8","ios":"levelo://app?vid=40819fca-9f18-4e89-b31c-5ad4505052c8"},"vehicle_type_id":"4","last_reported":1770363527,"current_range_meters":6800,"station_id":"ce4bhu92rcd13ifvqi70","pricing_plan_id":"cebpf4jnsgd1na2vs0mg"},{"bike_id":"dc741656-66c5-4ad6-8a4c-5f9259655f62","system_id":"levelo_inurba_marseille","lat":43.29898,"lon":5.43674,"is_reserved":false,"is_disabled":false,"rental_uris":{"android":"levelo://app?vid=dc741656-66c5-4ad6-8a4c-5f9259655f62","ios":"levelo://app?vid=dc741656-66c5-4ad6-8a4c-5f9259655f62"},"vehicle_type_id":"4","last_reported":1770363527,"current_range_meters":6800,"station_id":"ce4bhpp2rcd13ifvqhfg","pricing_plan_id":"cebpf4jnsgd1na2vs0mg"},{"bike_id":"7f008dd4-321d-4908-b320-1af04984864b","system_id":"levelo_inurba_marseille","lat":43.29787,"lon":5.38073,"is_reserved":false,"is_disabled":true,"rental_uris":{"android":"levelo://app?vid=7f008dd4-321d-4908-b320-1af04984864b","ios":"levelo://app?vid=7f008dd4-321d-4908-b320-1af04984864b"},"vehicle_type_id":"4","last_reported":1770363527,"current_range_meters":6800,"station_id":"ce4bgip2rcd13ifvqbb0","pricing_plan_id":"cebpf4jnsgd1na2vs0mg"},{"bike_id":"ed0b7b07-9c38-4fb9-bc30-93ba90939795","system_id":"levelo_inurba_marseille","lat":43.3316,"lon":5.37692,"is_reserved":false,"is_disabled":false,"rental_uris":{"android":"levelo://app?vid=ed0b7b07-9c38-4fb9-bc30-93ba90939795","ios":"levelo://app?vid=ed0b7b07-9c38-4fb9-bc30-93ba90939795"},"vehicle_type_id":"4","last_reported":1770363527,"current_range_meters":6800,"station_id":"st_d46cu089ee8s73dldbu0","pricing_plan_id":"cebpf4jnsgd1na2vs0mg"},{"bike_id":"9fbb1ed4-cd1c-47dc-bb03-fe90f5b306e3","system_id":"levelo_inurba_marseille","lat":43.279554,"lon":5.386999,"is_reserved":false,"is_disabled":false,"rental_uris":{"android":"levelo://app?vid=9fbb1ed4-cd1c-47dc-bb03-fe90f5b306e3","ios":"levelo://app?vid=9fbb1ed4-cd1c-47dc-bb03-fe90f5b306e3"},"vehicle_type_id":"4","last_reported":1770363527,"current_range_meters":6800,"station_id":"ce4bhg12rcd13ifvqf80","pricing_plan_id":"cebpf4jnsgd1na2vs0mg"},{"bike_id":"0c0204e9-2e2c-4854-9498-c261c0135345","system_id":"levelo_inurba_marseille","lat":43.237861,"lon":5.366328,"is_reserved":false,"is_disabled":false,"rental_uris":{"android":"levelo://app?vid=0c0204e9-2e2c-4854-9498-c261c0135345","ios":"levelo://app?vid=0c0204e9-2e2c-4854-9498-c261c0135345"},"vehicle_type_id":"4","last_reported":1770363527,"current_range_meters":6800,"station_id":"st_d3nk18o9ro0c73en2l3g","pricing_plan_id":"cebpf4jnsgd1na2vs0mg"},{"bike_id":"ac551100-dc22-4913-9a52-4829a5f95f35","system_id":"levelo_inurba_marseille","lat":43.28616,"lon":5.39885,"is_reserved":false,"is_disabled":true,"rental_uris":{"android":"levelo://app?vid=ac551100-dc22-4913-9a52-4829a5f95f35","ios":"levelo://app?vid=ac551100-dc22-4913-9a52-4829a5f95f35"},"vehicle_type_id":"4","last_reported":1770363527,"current_range_meters":6800,"station_id":"st_d4a7ka997mjs738ck50g","pricing_plan_id":"cebpf4jnsgd1na2vs0mg"},{"bike_id":"d50ed714-4b61-4b7f-87c7-00ad2dd18f53","system_id":"levelo_inurba_marseille","lat":43.30155,"lon":5.38077,"is_reserved":false,"is_disabled":false,"rental_uris":{"android":"levelo://app?vid=d50ed714-4b61-4b7f-87c7-00ad2dd18f53","ios":"levelo://app?vid=d50ed714-4b61-4b7f-87c7-00ad2dd18f53"},"vehicle_type_id":"4","last_reported":1770363527,"current_range_meters":6800,"station_id":"ce4bgjp2rcd13ifvqbh0","pricing_plan_id":"cebpf4jnsgd1na2vs0mg"},{"bike_id":"d16821f4-20ae-4d85-9661-f3df8aca14ab","system_id":"levelo_inurba_marseille","lat":43.24812,"lon":5.37454,"is_reserved":false,"is_disabled":false,"rental_uris":{"android":"levelo://app?vid=d16821f4-20ae-4d85-9661-f3df8aca14ab","ios":"levelo://app?vid=d16821f4-20ae-4d85-9661-f3df8aca14ab"},"vehicle_type_id":"4","last_reported":1770363527,"current_range_meters":6800,"station_id":"ce4bhgh2rcd13ifvqfb0","pricing_plan_id":"cebpf4jnsgd1na2vs0mg"},{"bike_id":"0ff7d1fc-c942-4e04-bb24-6b30b880d197","system_id":"levelo_inurba_marseille","lat":43.315417,"lon":5.368843,"is_reserved":false,"is_disabled":false,"rental_uris":{"android":"levelo://app?vid=0ff7d1fc-c942-4e04-bb24-6b30b880d197","ios":"levelo://app?vid=0ff7d1fc-c942-4e04-bb24-6b30b880d197"},"vehicle_type_id":"4","last_reported":1770363527,"current_range_meters":6800,"station_id":"","pricing_plan_id":"cebpf4jnsgd1na2vs0mg"},{"bike_id":"375e9bcb-b945-4768-82d3-b05471dcf5fd","system_id":"levelo_inurba_marseille","lat":43.289201,"lon":5.460296,"is_reserved":false,"is_disabled":false,"rental_uris":{"android":"levelo://app?vid=375e9bcb-b945-4768-82d3-b05471dcf5fd","ios":"levelo://app?vid=375e9bcb-b945-4768-82d3-b05471dcf5fd"},"vehicle_type_id":"4","last_reported":1770363527,"current_range_meters":7200,"station_id":"","pricing_plan_id":"cebpf4jnsgd1na2vs0mg"},{"bike_id":"86ef6d29-a1ae-4ad3-85ee-72ede19038e6","system_id":"levelo_inurba_marseille","lat":43.32124,"lon":5.36789,"is_reserved":false,"is_disabled":false,"rental_uris":{"android":"levelo://app?vid=86ef6d29-a1ae-4ad3-85ee-72ede19038e6","ios":"levelo://app?vid=86ef6d29-a1ae-4ad3-85ee-72ede19038e6"},"vehicle_type_id":"4","last_reported":1770363527,"current_range_meters":7200,"station_id":"ce4bhrh2rcd13ifvqhug","pricing_plan_id":"cebpf4jnsgd1na2vs0mg"},{"bike_id":"81105a24-281c-41d4-9cb4-6f41e46300e9","system_id":"levelo_inurba_marseille","lat":43.29802,"lon":5.38116,"is_reserved":false,"is_disabled":false,"rental_uris":{"android":"levelo://app?vid=81105a24-281c-41d4-9cb4-6f41e46300e9","ios":"levelo://app?vid=81105a24-281c-41d4-9cb4-6f41e46300e9"},"vehicle_type_id":"4","last_reported":1770363527,"current_range_meters":7200,"station_id":"ce4bgip2rcd13ifvqbb0","pricing_plan_id":"cebpf4jnsgd1na2vs0mg"},{"bike_id":"ef79007e-ef6d-4e7f-a3ae-3ed5ead69e87","system_id":"levelo_inurba_marseille","lat":43.23183,"lon":5.35582,"is_reserved":false,"is_disabled":false,"rental_uris":{"android":"levelo://app?vid=ef79007e-ef6d-4e7f-a3ae-3ed5ead69e87","ios":"levelo://app?vid=ef79007e-ef6d-4e7f-a3ae-3ed5ead69e87"},"vehicle_type_id":"4","last_reported":1770363527,"current_range_meters":7200,"station_id":"ce4bhu92rcd13ifvqi70","pricing_plan_id":"cebpf4jnsgd1na2vs0mg"},{"bike_id":"ce42e7f7-46f5-4db3-9bac-ce86f1010cc5","system_id":"levelo_inurba_marseille","lat":43.23389,"lon":5.41236,"is_reserved":false,"is_disabled":false,"rental_uris":{"android":"levelo://app?vid=ce42e7f7-46f5-4db3-9bac-ce86f1010cc5","ios":"levelo://app?vid=ce42e7f7-46f5-4db3-9bac-ce86f1010cc5"},"vehicle_type_id":"4","last_reported":1770363527,"current_range_meters":7200,"station_id":"","pricing_plan_id":"cebpf4jnsgd1na2vs0mg"},{"bike_id":"881844a0-e0f8-4e2f-bfef-4a27f22a176f","system_id":"levelo_inurba_marseille","lat":43.3016,"lon":5.38084,"is_reserved":false,"is_disabled":false,"rental_uris":{"android":"levelo://app?vid=881844a0-e0f8-4e2f-bfef-4a27f22a176f","ios":"levelo://app?vid=881844a0-e0f8-4e2f-bfef-4a27f22a176f"},"vehicle_type_id":"4","last_reported":1770363527,"current_range_meters":7200,"station_id":"ce4bgjp2rcd13ifvqbh0","pricing_plan_id":"cebpf4jnsgd1na2vs0mg"},{"bike_id":"63b5e7ff-784a-44cb-b53d-dd43a84f5930","system_id":"levelo_inurba_marseille","lat":43.24166,"lon":5.36396,"is_reserved":false,"is_disabled":false,"rental_uris":{"android":"levelo://app?vid=63b5e7ff-784a-44cb-b53d-dd43a84f5930","ios":"levelo://app?vid=63b5e7ff-784a-44cb-b53d-dd43a84f5930"},"vehicle_type_id":"4","last_reported":1770363527,"current_range_meters":7200,"station_id":"cpo36qri1sfpv3e86is0","pricing_plan_id":"cebpf4jnsgd1na2vs0mg"},{"bike_id":"b02fbb60-e23e-4658-8f76-7a7c1172a579","system_id":"levelo_inurba_marseille","lat":43.26541,"lon":5.37275,"is_reserved":false,"is_disabled":false,"rental_uris":{"android":"levelo://app?vid=b02fbb60-e23e-4658-8f76-7a7c1172a579","ios":"levelo://app?vid=b02fbb60-e23e-4658-8f76-7a7c1172a579"},"vehicle_type_id":"4","last_reported":1770363527,"current_range_meters":7200,"station_id":"ce4bhg12rcd13ifvqf70","pricing_plan_id":"cebpf4jnsgd1na2vs0mg"},{"bike_id":"0388f24a-b566-45b1-a38a-12fb5d338f89","system_id":"levelo_inurba_marseille","lat":43.31652,"lon":5.37647,"is_reserved":false,"is_disabled":false,"rental_uris":{"android":"levelo://app?vid=0388f24a-b566-45b1-a38a-12fb5d338f89","ios":"levelo://app?vid=0388f24a-b566-45b1-a38a-12fb5d338f89"},"vehicle_type_id":"4","last_reported":1770363527,"current_range_meters":7200,"station_id":"","pricing_plan_id":"cebpf4jnsgd1na2vs0mg"},{"bike_id":"5c3d031a-a771-44bc-8903-4ef356b4460b","system_id":"levelo_inurba_marseille","lat":43.24791,"lon":5.37458,"is_reserved":false,"is_disabled":false,"rental_uris":{"android":"levelo://app?vid=5c3d031a-a771-44bc-8903-4ef356b4460b","ios":"levelo://app?vid=5c3d031a-a771-44bc-8903-4ef356b4460b"},"vehicle_type_id":"4","last_reported":1770363527,"current_range_meters":7200,"station_id":"ce4bhgh2rcd13ifvqfb0","pricing_plan_id":"cebpf4jnsgd1na2vs0mg"},{"bike_id":"ddc87509-ae20-4d3a-aba3-5f2d7c91e914","system_id":"levelo_inurba_marseille","lat":43.231478,"lon":5.437218,"is_reserved":false,"is_disabled":false,"rental_uris":{"android":"levelo://app?vid=ddc87509-ae20-4d3a-aba3-5f2d7c91e914","ios":"levelo://app?vid=ddc87509-ae20-4d3a-aba3-5f2d7c91e914"},"vehicle_type_id":"4","last_reported":1770363527,"current_range_meters":7200,"station_id":"ce4bhmp2rcd13ifvqgog","pricing_plan_id":"cebpf4jnsgd1na2vs0mg"},{"bike_id":"e0c6a05b-eb02-486c-b185-09b703cc70a3","system_id":"levelo_inurba_marseille","lat":43.2826,"lon":5.40621,"is_reserved":false,"is_disabled":false,"rental_uris":{"android":"levelo://app?vid=e0c6a05b-eb02-486c-b185-09b703cc70a3","ios":"levelo://app?vid=e0c6a05b-eb02-486c-b185-09b703cc70a3"},"vehicle_type_id":"4","last_reported":1770363527,"current_range_meters":7200,"station_id":"","pricing_plan_id":"cebpf4jnsgd1na2vs0mg"},{"bike_id":"6cb1bd54-f649-4fd4-9f9b-3f2f641a3b75","system_id":"levelo_inurba_marseille","lat":43.29164,"lon":5.37148,"is_reserved":false,"is_disabled":false,"rental_uris":{"android":"levelo://app?vid=6cb1bd54-f649-4fd4-9f9b-3f2f641a3b75","ios":"levelo://app?vid=6cb1bd54-f649-4fd4-9f9b-3f2f641a3b75"},"vehicle_type_id":"4","last_reported":1770363527,"current_range_meters":8000,"station_id":"ce4bha92rcd13ifvqeh0","pricing_plan_id":"cebpf4jnsgd1na2vs0mg"},{"bike_id":"f2251f8f-476c-490a-a2da-0d724c30184f","system_id":"levelo_inurba_marseille","lat":43.3124,"lon":5.36871,"is_reserved":false,"is_disabled":false,"rental_uris":{"android":"levelo://app?vid=f2251f8f-476c-490a-a2da-0d724c30184f","ios":"levelo://app?vid=f2251f8f-476c-490a-a2da-0d724c30184f"},"vehicle_type_id":"4","last_reported":1770363527,"current_range_meters":8000,"station_id":"ce4bgl92rcd13ifvqbq0","pricing_plan_id":"cebpf4jnsgd1na2vs0mg"},{"bike_id":"69c3a4fd-6abf-495d-aca1-26b778e6bd90","system_id":"levelo_inurba_marseille","lat":43.30134,"lon":5.37416,"is_reserved":false,"is_disabled":false,"rental_uris":{"android":"levelo://app?vid=69c3a4fd-6abf-495d-aca1-26b778e6bd90","ios":"levelo://app?vid=69c3a4fd-6abf-495d-aca1-26b778e6bd90"},"vehicle_type_id":"4","last_reported":1770363527,"current_range_meters":8000,"station_id":"ce4bgs92rcd13ifvqcc0","pricing_plan_id":"cebpf4jnsgd1na2vs0mg"},{"bike_id":"410680da-fea3-4fcd-968b-52d26f99d922","system_id":"levelo_inurba_marseille","lat":43.27499,"lon":5.42449,"is_reserved":false,"is_disabled":false,"rental_uris":{"android":"levelo://app?vid=410680da-fea3-4fcd-968b-52d26f99d922","ios":"levelo://app?vid=410680da-fea3-4fcd-968b-52d26f99d922"},"vehicle_type_id":"4","last_reported":1770363527,"current_range_meters":8000,"station_id":"ce4bhn92rcd13ifvqgrg","pricing_plan_id":"cebpf4jnsgd1na2vs0mg"},{"bike_id":"471dbee0-7eb5-4379-a985-295b8036e0e2","system_id":"levelo_inurba_marseille","lat":43.22928,"lon":5.35375,"is_reserved":false,"is_disabled":false,"rental_uris":{"android":"levelo://app?vid=471dbee0-7eb5-4379-a985-295b8036e0e2","ios":"levelo://app?vid=471dbee0-7eb5-4379-a985-295b8036e0e2"},"vehicle_type_id":"4","last_reported":1770363527,"current_range_meters":8000,"station_id":"cpo3532slgdg3j2ikp40","pricing_plan_id":"cebpf4jnsgd1na2vs0mg"},{"bike_id":"ea394ce4-561e-40c3-b5d8-13958e8a40d6","system_id":"levelo_inurba_marseille","lat":43.23186,"lon":5.35563,"is_reserved":false,"is_disabled":false,"rental_uris":{"android":"levelo://app?vid=ea394ce4-561e-40c3-b5d8-13958e8a40d6","ios":"levelo://app?vid=ea394ce4-561e-40c3-b5d8-13958e8a40d6"},"vehicle_type_id":"4","last_reported":1770363527,"current_range_meters":8000,"station_id":"ce4bhu92rcd13ifvqi70","pricing_plan_id":"cebpf4jnsgd1na2vs0mg"},{"bike_id":"8018bfcd-8623-4252-9771-08b802ae9561","system_id":"levelo_inurba_marseille","lat":43.29659,"lon":5.37166,"is_reserved":false,"is_disabled":false,"rental_uris":{"android":"levelo://app?vid=8018bfcd-8623-4252-9771-08b802ae9561","ios":"levelo://app?vid=8018bfcd-8623-4252-9771-08b802ae9561"},"vehicle_type_id":"4","last_reported":1770363527,"current_range_meters":8000,"station_id":"ce4bgnh2rcd13ifvqc0g","pricing_plan_id":"cebpf4jnsgd1na2vs0mg"},{"bike_id":"90e59ac1-cd46-446b-b3a8-2b22481380d2","system_id":"levelo_inurba_marseille","lat":43.30887,"lon":5.37193,"is_reserved":false,"is_disabled":false,"rental_uris":{"android":"levelo://app?vid=90e59ac1-cd46-446b-b3a8-2b22481380d2","ios":"levelo://app?vid=90e59ac1-cd46-446b-b3a8-2b22481380d2"},"vehicle_type_id":"4","last_reported":1770363527,"current_range_meters":8000,"station_id":"ce4bguh2rcd13ifvqckg","pricing_plan_id":"cebpf4jnsgd1na2vs0mg"},{"bike_id":"c6782d87-e485-4a2c-b62b-9a52105fb0ef","system_id":"levelo_inurba_marseille","lat":43.24983,"lon":5.38972,"is_reserved":false,"is_disabled":false,"rental_uris":{"android":"levelo://app?vid=c6782d87-e485-4a2c-b62b-9a52105fb0ef","ios":"levelo://app?vid=c6782d87-e485-4a2c-b62b-9a52105fb0ef"},"vehicle_type_id":"4","last_reported":1770363527,"current_range_meters":8000,"station_id":"ce4bhgp2rcd13ifvqfd0","pricing_plan_id":"cebpf4jnsgd1na2vs0mg"},{"bike_id":"88de999f-78fd-498c-86b8-c0b83e9a1087","system_id":"levelo_inurba_marseille","lat":43.25938,"lon":5.40903,"is_reserved":false,"is_disabled":false,"rental_uris":{"android":"levelo://app?vid=88de999f-78fd-498c-86b8-c0b83e9a1087","ios":"levelo://app?vid=88de999f-78fd-498c-86b8-c0b83e9a1087"},"vehicle_type_id":"4","last_reported":1770363527,"current_range_meters":8000,"station_id":"ce4bhm92rcd13ifvqglg","pricing_plan_id":"cebpf4jnsgd1na2vs0mg"},{"bike_id":"36af6b9c-3b6f-432b-8541-51b5e2f4a92f","system_id":"levelo_inurba_marseille","lat":43.25006,"lon":5.38916,"is_reserved":false,"is_disabled":false,"rental_uris":{"android":"levelo://app?vid=36af6b9c-3b6f-432b-8541-51b5e2f4a92f","ios":"levelo://app?vid=36af6b9c-3b6f-432b-8541-51b5e2f4a92f"},"vehicle_type_id":"4","last_reported":1770363527,"current_range_meters":8000,"station_id":"ce4bhgp2rcd13ifvqfd0","pricing_plan_id":"cebpf4jnsgd1na2vs0mg"},{"bike_id":"b3ed2cd6-8e81-4348-923e-b3375b5b0d86","system_id":"levelo_inurba_marseille","lat":43.26493,"lon":5.39545,"is_reserved":false,"is_disabled":false,"rental_uris":{"android":"levelo://app?vid=b3ed2cd6-8e81-4348-923e-b3375b5b0d86","ios":"levelo://app?vid=b3ed2cd6-8e81-4348-923e-b3375b5b0d86"},"vehicle_type_id":"4","last_reported":1770363527,"current_range_meters":8000,"station_id":"ce4bhi12rcd13ifvqfq0","pricing_plan_id":"cebpf4jnsgd1na2vs0mg"},{"bike_id":"7bd3a36b-547a-4cb1-b790-0ede370247c1","system_id":"levelo_inurba_marseille","lat":43.296259,"lon":5.37718,"is_reserved":false,"is_disabled":false,"rental_uris":{"android":"levelo://app?vid=7bd3a36b-547a-4cb1-b790-0ede370247c1","ios":"levelo://app?vid=7bd3a36b-547a-4cb1-b790-0ede370247c1"},"vehicle_type_id":"4","last_reported":1770363527,"current_range_meters":8000,"station_id":"ce4bgi92rcd13ifvqb90","pricing_plan_id":"cebpf4jnsgd1na2vs0mg"},{"bike_id":"3b986d99-7b42-471f-993a-11fde28f3c51","system_id":"levelo_inurba_marseille","lat":43.22556,"lon":5.41613,"is_reserved":false,"is_disabled":false,"rental_uris":{"android":"levelo://app?vid=3b986d99-7b42-471f-993a-11fde28f3c51","ios":"levelo://app?vid=3b986d99-7b42-471f-993a-11fde28f3c51"},"vehicle_type_id":"4","last_reported":1770363527,"current_range_meters":8000,"station_id":"st_d2o4gvlbi1j2169b742g","pricing_plan_id":"cebpf4jnsgd1na2vs0mg"},{"bike_id":"ec7b4699-bc25-4ddf-aeee-4269527be0b7","system_id":"levelo_inurba_marseille","lat":43.30168,"lon":5.38092,"is_reserved":false,"is_disabled":false,"rental_uris":{"android":"levelo://app?vid=ec7b4699-bc25-4ddf-aeee-4269527be0b7","ios":"levelo://app?vid=ec7b4699-bc25-4ddf-aeee-4269527be0b7"},"vehicle_type_id":"4","last_reported":1770363527,"current_range_meters":8000,"station_id":"ce4bgjp2rcd13ifvqbh0","pricing_plan_id":"cebpf4jnsgd1na2vs0mg"},{"bike_id":"2b358923-c030-4481-a0eb-830aa62ff249","system_id":"levelo_inurba_marseille","lat":43.27376,"lon":5.36258,"is_reserved":false,"is_disabled":false,"rental_uris":{"android":"levelo://app?vid=2b358923-c030-4481-a0eb-830aa62ff249","ios":"levelo://app?vid=2b358923-c030-4481-a0eb-830aa62ff249"},"vehicle_type_id":"4","last_reported":1770363527,"current_range_meters":8000,"station_id":"ce4bhbh2rcd13ifvqeo0","pricing_plan_id":"cebpf4jnsgd1na2vs0mg"},{"bike_id":"29568cb5-48e1-4afd-96a8-69d8393592fe","system_id":"levelo_inurba_marseille","lat":43.28493,"lon":5.48415,"is_reserved":false,"is_disabled":false,"rental_uris":{"android":"levelo://app?vid=29568cb5-48e1-4afd-96a8-69d8393592fe","ios":"levelo://app?vid=29568cb5-48e1-4afd-96a8-69d8393592fe"},"vehicle_type_id":"4","last_reported":1770363527,"current_range_meters":8000,"station_id":"","pricing_plan_id":"cebpf4jnsgd1na2vs0mg"},{"bike_id":"6fa79e9f-a61e-4d89-85cb-5e03635ed25f","system_id":"levelo_inurba_marseille","lat":43.33549,"lon":5.37472,"is_reserved":false,"is_disabled":false,"rental_uris":{"android":"levelo://app?vid=6fa79e9f-a61e-4d89-85cb-5e03635ed25f","ios":"levelo://app?vid=6fa79e9f-a61e-4d89-85cb-5e03635ed25f"},"vehicle_type_id":"4","last_reported":1770363527,"current_range_meters":8000,"station_id":"st_d46tts09ee8s73dlu43g","pricing_plan_id":"cebpf4jnsgd1na2vs0mg"},{"bike_id":"6ffebb8f-410b-4131-aa9e-23edaed9a187","system_id":"levelo_inurba_marseille","lat":43.317987,"lon":5.401487,"is_reserved":false,"is_disabled":false,"rental_uris":{"android":"levelo://app?vid=6ffebb8f-410b-4131-aa9e-23edaed9a187","ios":"levelo://app?vid=6ffebb8f-410b-4131-aa9e-23edaed9a187"},"vehicle_type_id":"4","last_reported":1770363527,"current_range_meters":8400,"station_id":"","pricing_plan_id":"cebpf4jnsgd1na2vs0mg"},{"bike_id":"7bba0fc1-7327-4998-9512-94bac0f622f8","system_id":"levelo_inurba_marseille","lat":43.27497,"lon":5.42461,"is_reserved":false,"is_disabled":false,"rental_uris":{"android":"levelo://app?vid=7bba0fc1-7327-4998-9512-94bac0f622f8","ios":"levelo://app?vid=7bba0fc1-7327-4998-9512-94bac0f622f8"},"vehicle_type_id":"4","last_reported":1770363527,"current_range_meters":8400,"station_id":"ce4bhn92rcd13ifvqgrg","pricing_plan_id":"cebpf4jnsgd1na2vs0mg"},{"bike_id":"ae394a66-d1ad-4f44-82fe-b9fa153bb39a","system_id":"levelo_inurba_marseille","lat":43.335435,"lon":5.374701,"is_reserved":false,"is_disabled":false,"rental_uris":{"android":"levelo://app?vid=ae394a66-d1ad-4f44-82fe-b9fa153bb39a","ios":"levelo://app?vid=ae394a66-d1ad-4f44-82fe-b9fa153bb39a"},"vehicle_type_id":"4","last_reported":1770363527,"current_range_meters":8400,"station_id":"","pricing_plan_id":"cebpf4jnsgd1na2vs0mg"},{"bike_id":"142a21c2-9a29-466a-92f6-5ab3ecc5b60d","system_id":"levelo_inurba_marseille","lat":43.23775,"lon":5.36632,"is_reserved":false,"is_disabled":false,"rental_uris":{"android":"levelo://app?vid=142a21c2-9a29-466a-92f6-5ab3ecc5b60d","ios":"levelo://app?vid=142a21c2-9a29-466a-92f6-5ab3ecc5b60d"},"vehicle_type_id":"4","last_reported":1770363527,"current_range_meters":8400,"station_id":"st_d3nk18o9ro0c73en2l3g","pricing_plan_id":"cebpf4jnsgd1na2vs0mg"},{"bike_id":"5b51c4ea-ebad-4648-a4a1-56b9e8ab1de9","system_id":"levelo_inurba_marseille","lat":43.28472,"lon":5.4841,"is_reserved":false,"is_disabled":false,"rental_uris":{"android":"levelo://app?vid=5b51c4ea-ebad-4648-a4a1-56b9e8ab1de9","ios":"levelo://app?vid=5b51c4ea-ebad-4648-a4a1-56b9e8ab1de9"},"vehicle_type_id":"4","last_reported":1770363527,"current_range_meters":8400,"station_id":"st_d3svhcjqgbts73a3dn0g","pricing_plan_id":"cebpf4jnsgd1na2vs0mg"},{"bike_id":"998e019e-ad96-4e1e-9f66-d6df4682911f","system_id":"levelo_inurba_marseille","lat":43.290373,"lon":5.399572,"is_reserved":false,"is_disabled":true,"rental_uris":{"android":"levelo://app?vid=998e019e-ad96-4e1e-9f66-d6df4682911f","ios":"levelo://app?vid=998e019e-ad96-4e1e-9f66-d6df4682911f"},"vehicle_type_id":"4","last_reported":1770363527,"current_range_meters":8400,"station_id":"ce4bh392rcd13ifvqdm0","pricing_plan_id":"cebpf4jnsgd1na2vs0mg"},{"bike_id":"e6f11cd6-3531-4096-9079-debdff2f85fd","system_id":"levelo_inurba_marseille","lat":43.22894,"lon":5.35371,"is_reserved":false,"is_disabled":false,"rental_uris":{"android":"levelo://app?vid=e6f11cd6-3531-4096-9079-debdff2f85fd","ios":"levelo://app?vid=e6f11cd6-3531-4096-9079-debdff2f85fd"},"vehicle_type_id":"4","last_reported":1770363527,"current_range_meters":8400,"station_id":"cpo3532slgdg3j2ikp40","pricing_plan_id":"cebpf4jnsgd1na2vs0mg"},{"bike_id":"251429a0-5225-404e-a2c3-13f499b83151","system_id":"levelo_inurba_marseille","lat":43.30485,"lon":5.37895,"is_reserved":false,"is_disabled":false,"rental_uris":{"android":"levelo://app?vid=251429a0-5225-404e-a2c3-13f499b83151","ios":"levelo://app?vid=251429a0-5225-404e-a2c3-13f499b83151"},"vehicle_type_id":"4","last_reported":1770363527,"current_range_meters":8800,"station_id":"ce4bgup2rcd13ifvqcn0","pricing_plan_id":"cebpf4jnsgd1na2vs0mg"},{"bike_id":"b50718b1-4f47-4866-8738-5a2978ca6909","system_id":"levelo_inurba_marseille","lat":43.31402,"lon":5.36679,"is_reserved":false,"is_disabled":false,"rental_uris":{"android":"levelo://app?vid=b50718b1-4f47-4866-8738-5a2978ca6909","ios":"levelo://app?vid=b50718b1-4f47-4866-8738-5a2978ca6909"},"vehicle_type_id":"4","last_reported":1770363527,"current_range_meters":8800,"station_id":"","pricing_plan_id":"cebpf4jnsgd1na2vs0mg"},{"bike_id":"6c826141-83c8-450c-bb51-8b69baba0bf3","system_id":"levelo_inurba_marseille","lat":43.26687,"lon":5.40812,"is_reserved":false,"is_disabled":false,"rental_uris":{"android":"levelo://app?vid=6c826141-83c8-450c-bb51-8b69baba0bf3","ios":"levelo://app?vid=6c826141-83c8-450c-bb51-8b69baba0bf3"},"vehicle_type_id":"4","last_reported":1770363527,"current_range_meters":8800,"station_id":"","pricing_plan_id":"cebpf4jnsgd1na2vs0mg"},{"bike_id":"1759d144-092d-46b1-83ef-774d37423722","system_id":"levelo_inurba_marseille","lat":43.26284,"lon":5.40455,"is_reserved":false,"is_disabled":false,"rental_uris":{"android":"levelo://app?vid=1759d144-092d-46b1-83ef-774d37423722","ios":"levelo://app?vid=1759d144-092d-46b1-83ef-774d37423722"},"vehicle_type_id":"4","last_reported":1770363527,"current_range_meters":8800,"station_id":"","pricing_plan_id":"cebpf4jnsgd1na2vs0mg"},{"bike_id":"b8930ff7-8ce5-4f8d-9e8d-e85cd2415d7d","system_id":"levelo_inurba_marseille","lat":43.31383,"lon":5.3667,"is_reserved":false,"is_disabled":false,"rental_uris":{"android":"levelo://app?vid=b8930ff7-8ce5-4f8d-9e8d-e85cd2415d7d","ios":"levelo://app?vid=b8930ff7-8ce5-4f8d-9e8d-e85cd2415d7d"},"vehicle_type_id":"4","last_reported":1770363527,"current_range_meters":8800,"station_id":"","pricing_plan_id":"cebpf4jnsgd1na2vs0mg"},{"bike_id":"14a0bfe2-9ad8-41a2-8100-306572082be4","system_id":"levelo_inurba_marseille","lat":43.24654,"lon":5.38924,"is_reserved":false,"is_disabled":false,"rental_uris":{"android":"levelo://app?vid=14a0bfe2-9ad8-41a2-8100-306572082be4","ios":"levelo://app?vid=14a0bfe2-9ad8-41a2-8100-306572082be4"},"vehicle_type_id":"4","last_reported":1770363527,"current_range_meters":8800,"station_id":"ce4bhg12rcd13ifvqf60","pricing_plan_id":"cebpf4jnsgd1na2vs0mg"},{"bike_id":"98b89a63-b3c9-4748-8f93-0ccb5ab9560d","system_id":"levelo_inurba_marseille","lat":43.26543,"lon":5.37294,"is_reserved":false,"is_disabled":false,"rental_uris":{"android":"levelo://app?vid=98b89a63-b3c9-4748-8f93-0ccb5ab9560d","ios":"levelo://app?vid=98b89a63-b3c9-4748-8f93-0ccb5ab9560d"},"vehicle_type_id":"4","last_reported":1770363527,"current_range_meters":8800,"station_id":"ce4bhg12rcd13ifvqf70","pricing_plan_id":"cebpf4jnsgd1na2vs0mg"},{"bike_id":"bd830301-856a-4947-bbd9-0c9aae46f8c5","system_id":"levelo_inurba_marseille","lat":43.28854,"lon":5.42528,"is_reserved":false,"is_disabled":false,"rental_uris":{"android":"levelo://app?vid=bd830301-856a-4947-bbd9-0c9aae46f8c5","ios":"levelo://app?vid=bd830301-856a-4947-bbd9-0c9aae46f8c5"},"vehicle_type_id":"4","last_reported":1770363527,"current_range_meters":8800,"station_id":"st_d3b462108ojc7389ooeg","pricing_plan_id":"cebpf4jnsgd1na2vs0mg"},{"bike_id":"1937492d-117f-487c-8c08-5e82e3f3720b","system_id":"levelo_inurba_marseille","lat":43.31382,"lon":5.36694,"is_reserved":false,"is_disabled":false,"rental_uris":{"android":"levelo://app?vid=1937492d-117f-487c-8c08-5e82e3f3720b","ios":"levelo://app?vid=1937492d-117f-487c-8c08-5e82e3f3720b"},"vehicle_type_id":"4","last_reported":1770363527,"current_range_meters":8800,"station_id":"ce4bgr92rcd13ifvqc6g","pricing_plan_id":"cebpf4jnsgd1na2vs0mg"},{"bike_id":"855fc5fe-6c5f-46e5-afd9-e53782d8eed3","system_id":"levelo_inurba_marseille","lat":43.243842,"lon":5.370764,"is_reserved":false,"is_disabled":false,"rental_uris":{"android":"levelo://app?vid=855fc5fe-6c5f-46e5-afd9-e53782d8eed3","ios":"levelo://app?vid=855fc5fe-6c5f-46e5-afd9-e53782d8eed3"},"vehicle_type_id":"4","last_reported":1770363527,"current_range_meters":8800,"station_id":"ce4bhhh2rcd13ifvqfk0","pricing_plan_id":"cebpf4jnsgd1na2vs0mg"},{"bike_id":"33e6b01d-cadc-4668-ba29-d6b917e280b4","system_id":"levelo_inurba_marseille","lat":43.24392,"lon":5.37073,"is_reserved":false,"is_disabled":false,"rental_uris":{"android":"levelo://app?vid=33e6b01d-cadc-4668-ba29-d6b917e280b4","ios":"levelo://app?vid=33e6b01d-cadc-4668-ba29-d6b917e280b4"},"vehicle_type_id":"4","last_reported":1770363527,"current_range_meters":8800,"station_id":"ce4bhhh2rcd13ifvqfk0","pricing_plan_id":"cebpf4jnsgd1na2vs0mg"},{"bike_id":"c064f420-d69b-4408-b72e-4f419648b653","system_id":"levelo_inurba_marseille","lat":43.24554,"lon":5.39545,"is_reserved":false,"is_disabled":false,"rental_uris":{"android":"levelo://app?vid=c064f420-d69b-4408-b72e-4f419648b653","ios":"levelo://app?vid=c064f420-d69b-4408-b72e-4f419648b653"},"vehicle_type_id":"4","last_reported":1770363527,"current_range_meters":8800,"station_id":"ce4bhlp2rcd13ifvqgjg","pricing_plan_id":"cebpf4jnsgd1na2vs0mg"},{"bike_id":"165eebd5-17ea-4cb2-bc49-f3b37590248d","system_id":"levelo_inurba_marseille","lat":43.29048,"lon":5.39961,"is_reserved":false,"is_disabled":false,"rental_uris":{"android":"levelo://app?vid=165eebd5-17ea-4cb2-bc49-f3b37590248d","ios":"levelo://app?vid=165eebd5-17ea-4cb2-bc49-f3b37590248d"},"vehicle_type_id":"4","last_reported":1770363527,"current_range_meters":8800,"station_id":"ce4bh392rcd13ifvqdm0","pricing_plan_id":"cebpf4jnsgd1na2vs0mg"},{"bike_id":"66ac484a-7a0c-4d64-bcea-4a863811aeba","system_id":"levelo_inurba_marseille","lat":43.298914,"lon":5.436791,"is_reserved":false,"is_disabled":false,"rental_uris":{"android":"levelo://app?vid=66ac484a-7a0c-4d64-bcea-4a863811aeba","ios":"levelo://app?vid=66ac484a-7a0c-4d64-bcea-4a863811aeba"},"vehicle_type_id":"4","last_reported":1770363527,"current_range_meters":8800,"station_id":"ce4bhpp2rcd13ifvqhfg","pricing_plan_id":"cebpf4jnsgd1na2vs0mg"},{"bike_id":"6fa18caa-a316-4827-87d7-253fb339fee3","system_id":"levelo_inurba_marseille","lat":43.2792,"lon":5.38707,"is_reserved":false,"is_disabled":false,"rental_uris":{"android":"levelo://app?vid=6fa18caa-a316-4827-87d7-253fb339fee3","ios":"levelo://app?vid=6fa18caa-a316-4827-87d7-253fb339fee3"},"vehicle_type_id":"4","last_reported":1770363527,"current_range_meters":9200,"station_id":"ce4bhg12rcd13ifvqf80","pricing_plan_id":"cebpf4jnsgd1na2vs0mg"},{"bike_id":"6ebe0a22-3110-41de-af8c-3cc2431badbf","system_id":"levelo_inurba_marseille","lat":43.29685,"lon":5.37367,"is_reserved":false,"is_disabled":true,"rental_uris":{"android":"levelo://app?vid=6ebe0a22-3110-41de-af8c-3cc2431badbf","ios":"levelo://app?vid=6ebe0a22-3110-41de-af8c-3cc2431badbf"},"vehicle_type_id":"4","last_reported":1770363527,"current_range_meters":9200,"station_id":"","pricing_plan_id":"cebpf4jnsgd1na2vs0mg"},{"bike_id":"ca1b8c55-f3e6-4c1d-955f-827b81e09c3d","system_id":"levelo_inurba_marseille","lat":43.29543,"lon":5.42281,"is_reserved":false,"is_disabled":false,"rental_uris":{"android":"levelo://app?vid=ca1b8c55-f3e6-4c1d-955f-827b81e09c3d","ios":"levelo://app?vid=ca1b8c55-f3e6-4c1d-955f-827b81e09c3d"},"vehicle_type_id":"4","last_reported":1770363527,"current_range_meters":9200,"station_id":"ce4bhph2rcd13ifvqhdg","pricing_plan_id":"cebpf4jnsgd1na2vs0mg"},{"bike_id":"071937d3-6d39-428f-88a6-e135b0e61119","system_id":"levelo_inurba_marseille","lat":43.31051,"lon":5.3716,"is_reserved":false,"is_disabled":false,"rental_uris":{"android":"levelo://app?vid=071937d3-6d39-428f-88a6-e135b0e61119","ios":"levelo://app?vid=071937d3-6d39-428f-88a6-e135b0e61119"},"vehicle_type_id":"4","last_reported":1770363527,"current_range_meters":9200,"station_id":"st_d4kl2rp97mjs73e7tdfg","pricing_plan_id":"cebpf4jnsgd1na2vs0mg"},{"bike_id":"357e0761-0001-4df4-9647-5ddac10b57dd","system_id":"levelo_inurba_marseille","lat":43.324937,"lon":5.382998,"is_reserved":false,"is_disabled":false,"rental_uris":{"android":"levelo://app?vid=357e0761-0001-4df4-9647-5ddac10b57dd","ios":"levelo://app?vid=357e0761-0001-4df4-9647-5ddac10b57dd"},"vehicle_type_id":"4","last_reported":1770363527,"current_range_meters":9200,"station_id":"st_d4asgbiv49dc73anf9m0","pricing_plan_id":"cebpf4jnsgd1na2vs0mg"},{"bike_id":"675ec433-caf3-4517-83f9-75769cd57605","system_id":"levelo_inurba_marseille","lat":43.32134,"lon":5.36667,"is_reserved":false,"is_disabled":false,"rental_uris":{"android":"levelo://app?vid=675ec433-caf3-4517-83f9-75769cd57605","ios":"levelo://app?vid=675ec433-caf3-4517-83f9-75769cd57605"},"vehicle_type_id":"4","last_reported":1770363527,"current_range_meters":9200,"station_id":"ce4bhrh2rcd13ifvqhug","pricing_plan_id":"cebpf4jnsgd1na2vs0mg"},{"bike_id":"b791635a-812f-47a8-915d-eebf23d399b2","system_id":"levelo_inurba_marseille","lat":43.24321,"lon":5.36781,"is_reserved":false,"is_disabled":false,"rental_uris":{"android":"levelo://app?vid=b791635a-812f-47a8-915d-eebf23d399b2","ios":"levelo://app?vid=b791635a-812f-47a8-915d-eebf23d399b2"},"vehicle_type_id":"4","last_reported":1770363527,"current_range_meters":9200,"station_id":"","pricing_plan_id":"cebpf4jnsgd1na2vs0mg"},{"bike_id":"bb3e1da0-2f26-4195-b84f-5b9f38a7b867","system_id":"levelo_inurba_marseille","lat":43.246518,"lon":5.388904,"is_reserved":false,"is_disabled":false,"rental_uris":{"android":"levelo://app?vid=bb3e1da0-2f26-4195-b84f-5b9f38a7b867","ios":"levelo://app?vid=bb3e1da0-2f26-4195-b84f-5b9f38a7b867"},"vehicle_type_id":"4","last_reported":1770363527,"current_range_meters":9200,"station_id":"ce4bhg12rcd13ifvqf60","pricing_plan_id":"cebpf4jnsgd1na2vs0mg"},{"bike_id":"817bc8af-b796-4208-819d-410ea45944cb","system_id":"levelo_inurba_marseille","lat":43.29671,"lon":5.36612,"is_reserved":false,"is_disabled":false,"rental_uris":{"android":"levelo://app?vid=817bc8af-b796-4208-819d-410ea45944cb","ios":"levelo://app?vid=817bc8af-b796-4208-819d-410ea45944cb"},"vehicle_type_id":"4","last_reported":1770363527,"current_range_meters":9200,"station_id":"ce4bgn12rcd13ifvqbt0","pricing_plan_id":"cebpf4jnsgd1na2vs0mg"},{"bike_id":"ed5a6305-c007-43f0-adf5-7790aba01a34","system_id":"levelo_inurba_marseille","lat":43.27963,"lon":5.38748,"is_reserved":false,"is_disabled":false,"rental_uris":{"android":"levelo://app?vid=ed5a6305-c007-43f0-adf5-7790aba01a34","ios":"levelo://app?vid=ed5a6305-c007-43f0-adf5-7790aba01a34"},"vehicle_type_id":"4","last_reported":1770363527,"current_range_meters":9200,"station_id":"ce4bhg12rcd13ifvqf80","pricing_plan_id":"cebpf4jnsgd1na2vs0mg"},{"bike_id":"f5924402-42d0-41ef-b167-ea2ef6913a1e","system_id":"levelo_inurba_marseille","lat":43.265461,"lon":5.372907,"is_reserved":false,"is_disabled":false,"rental_uris":{"android":"levelo://app?vid=f5924402-42d0-41ef-b167-ea2ef6913a1e","ios":"levelo://app?vid=f5924402-42d0-41ef-b167-ea2ef6913a1e"},"vehicle_type_id":"4","last_reported":1770363527,"current_range_meters":9200,"station_id":"ce4bhg12rcd13ifvqf70","pricing_plan_id":"cebpf4jnsgd1na2vs0mg"},{"bike_id":"08370162-070c-4011-b89a-49205651b67b","system_id":"levelo_inurba_marseille","lat":43.26193,"lon":5.3795,"is_reserved":false,"is_disabled":false,"rental_uris":{"android":"levelo://app?vid=08370162-070c-4011-b89a-49205651b67b","ios":"levelo://app?vid=08370162-070c-4011-b89a-49205651b67b"},"vehicle_type_id":"4","last_reported":1770363527,"current_range_meters":9200,"station_id":"ce4bhjp2rcd13ifvqg90","pricing_plan_id":"cebpf4jnsgd1na2vs0mg"},{"bike_id":"346787f4-b208-43b3-a13c-6d535139ef57","system_id":"levelo_inurba_marseille","lat":43.29902,"lon":5.43671,"is_reserved":false,"is_disabled":false,"rental_uris":{"android":"levelo://app?vid=346787f4-b208-43b3-a13c-6d535139ef57","ios":"levelo://app?vid=346787f4-b208-43b3-a13c-6d535139ef57"},"vehicle_type_id":"4","last_reported":1770363527,"current_range_meters":9600,"station_id":"ce4bhpp2rcd13ifvqhfg","pricing_plan_id":"cebpf4jnsgd1na2vs0mg"},{"bike_id":"b08519b5-e79f-45b1-bc8a-4c74d1751abf","system_id":"levelo_inurba_marseille","lat":43.26184,"lon":5.37449,"is_reserved":false,"is_disabled":false,"rental_uris":{"android":"levelo://app?vid=b08519b5-e79f-45b1-bc8a-4c74d1751abf","ios":"levelo://app?vid=b08519b5-e79f-45b1-bc8a-4c74d1751abf"},"vehicle_type_id":"4","last_reported":1770363527,"current_range_meters":9600,"station_id":"ce4bhgp2rcd13ifvqfc0","pricing_plan_id":"cebpf4jnsgd1na2vs0mg"},{"bike_id":"5e9d7b89-ee8f-42bc-87df-a5a05a1d1db8","system_id":"levelo_inurba_marseille","lat":43.24256,"lon":5.3968,"is_reserved":false,"is_disabled":false,"rental_uris":{"android":"levelo://app?vid=5e9d7b89-ee8f-42bc-87df-a5a05a1d1db8","ios":"levelo://app?vid=5e9d7b89-ee8f-42bc-87df-a5a05a1d1db8"},"vehicle_type_id":"4","last_reported":1770363527,"current_range_meters":9600,"station_id":"","pricing_plan_id":"cebpf4jnsgd1na2vs0mg"},{"bike_id":"a2e99883-83b1-4d3c-bc4e-f757932971f4","system_id":"levelo_inurba_marseille","lat":43.298454,"lon":5.362715,"is_reserved":false,"is_disabled":false,"rental_uris":{"android":"levelo://app?vid=a2e99883-83b1-4d3c-bc4e-f757932971f4","ios":"levelo://app?vid=a2e99883-83b1-4d3c-bc4e-f757932971f4"},"vehicle_type_id":"4","last_reported":1770363527,"current_range_meters":9600,"station_id":"ce4bgpp2rcd13ifvqc3g","pricing_plan_id":"cebpf4jnsgd1na2vs0mg"},{"bike_id":"c6e25874-c646-4223-9fb1-4a2c71cb2059","system_id":"levelo_inurba_marseille","lat":43.31191,"lon":5.36886,"is_reserved":false,"is_disabled":false,"rental_uris":{"android":"levelo://app?vid=c6e25874-c646-4223-9fb1-4a2c71cb2059","ios":"levelo://app?vid=c6e25874-c646-4223-9fb1-4a2c71cb2059"},"vehicle_type_id":"4","last_reported":1770363527,"current_range_meters":9600,"station_id":"ce4bgl92rcd13ifvqbq0","pricing_plan_id":"cebpf4jnsgd1na2vs0mg"},{"bike_id":"379685d2-9e90-4f9b-bb24-a80a4545550e","system_id":"levelo_inurba_marseille","lat":43.29817,"lon":5.44068,"is_reserved":false,"is_disabled":false,"rental_uris":{"android":"levelo://app?vid=379685d2-9e90-4f9b-bb24-a80a4545550e","ios":"levelo://app?vid=379685d2-9e90-4f9b-bb24-a80a4545550e"},"vehicle_type_id":"4","last_reported":1770363527,"current_range_meters":9600,"station_id":"st_d3jp68qikq2c7381ktn0","pricing_plan_id":"cebpf4jnsgd1na2vs0mg"},{"bike_id":"9d9ada7e-8bfb-4948-82e1-5314689a8b39","system_id":"levelo_inurba_marseille","lat":43.33539,"lon":5.37467,"is_reserved":false,"is_disabled":false,"rental_uris":{"android":"levelo://app?vid=9d9ada7e-8bfb-4948-82e1-5314689a8b39","ios":"levelo://app?vid=9d9ada7e-8bfb-4948-82e1-5314689a8b39"},"vehicle_type_id":"4","last_reported":1770363527,"current_range_meters":9600,"station_id":"st_d46tts09ee8s73dlu43g","pricing_plan_id":"cebpf4jnsgd1na2vs0mg"},{"bike_id":"a5faf7a6-7f2f-419a-b628-e8f939b70083","system_id":"levelo_inurba_marseille","lat":43.28533,"lon":5.44092,"is_reserved":false,"is_disabled":false,"rental_uris":{"android":"levelo://app?vid=a5faf7a6-7f2f-419a-b628-e8f939b70083","ios":"levelo://app?vid=a5faf7a6-7f2f-419a-b628-e8f939b70083"},"vehicle_type_id":"4","last_reported":1770363527,"current_range_meters":9600,"station_id":"st_d3j3df2ikq2c7380ej80","pricing_plan_id":"cebpf4jnsgd1na2vs0mg"},{"bike_id":"b0c3d441-fa9a-4312-858a-e0f5eaf46fd5","system_id":"levelo_inurba_marseille","lat":43.32109,"lon":5.36789,"is_reserved":false,"is_disabled":false,"rental_uris":{"android":"levelo://app?vid=b0c3d441-fa9a-4312-858a-e0f5eaf46fd5","ios":"levelo://app?vid=b0c3d441-fa9a-4312-858a-e0f5eaf46fd5"},"vehicle_type_id":"4","last_reported":1770363527,"current_range_meters":9600,"station_id":"ce4bhrh2rcd13ifvqhug","pricing_plan_id":"cebpf4jnsgd1na2vs0mg"},{"bike_id":"cb6bc406-744f-4a0c-a49f-a4b4b660d1b2","system_id":"levelo_inurba_marseille","lat":43.263698,"lon":5.410846,"is_reserved":false,"is_disabled":false,"rental_uris":{"android":"levelo://app?vid=cb6bc406-744f-4a0c-a49f-a4b4b660d1b2","ios":"levelo://app?vid=cb6bc406-744f-4a0c-a49f-a4b4b660d1b2"},"vehicle_type_id":"4","last_reported":1770363527,"current_range_meters":9600,"station_id":"st_d4e5ca6na9uc73bfl5fg","pricing_plan_id":"cebpf4jnsgd1na2vs0mg"},{"bike_id":"29554745-e0e5-4276-b587-71d331cae345","system_id":"levelo_inurba_marseille","lat":43.29523,"lon":5.39017,"is_reserved":false,"is_disabled":true,"rental_uris":{"android":"levelo://app?vid=29554745-e0e5-4276-b587-71d331cae345","ios":"levelo://app?vid=29554745-e0e5-4276-b587-71d331cae345"},"vehicle_type_id":"4","last_reported":1770363527,"current_range_meters":9600,"station_id":"ce4bh3p2rcd13ifvqdp0","pricing_plan_id":"cebpf4jnsgd1na2vs0mg"},{"bike_id":"3ee6cb84-5a6e-4d17-9ae2-dddd1d28d2d4","system_id":"levelo_inurba_marseille","lat":43.25568,"lon":5.3828,"is_reserved":false,"is_disabled":false,"rental_uris":{"android":"levelo://app?vid=3ee6cb84-5a6e-4d17-9ae2-dddd1d28d2d4","ios":"levelo://app?vid=3ee6cb84-5a6e-4d17-9ae2-dddd1d28d2d4"},"vehicle_type_id":"4","last_reported":1770363527,"current_range_meters":9600,"station_id":"ce4bhih2rcd13ifvqfs0","pricing_plan_id":"cebpf4jnsgd1na2vs0mg"},{"bike_id":"bed083b8-51d1-4e08-ba5c-698a97cb688a","system_id":"levelo_inurba_marseille","lat":43.27292,"lon":5.39076,"is_reserved":false,"is_disabled":false,"rental_uris":{"android":"levelo://app?vid=bed083b8-51d1-4e08-ba5c-698a97cb688a","ios":"levelo://app?vid=bed083b8-51d1-4e08-ba5c-698a97cb688a"},"vehicle_type_id":"4","last_reported":1770363527,"current_range_meters":10000,"station_id":"ce4bhgp2rcd13ifvqfe0","pricing_plan_id":"cebpf4jnsgd1na2vs0mg"},{"bike_id":"7ce9f68c-df3f-4c06-90bc-5b722c547725","system_id":"levelo_inurba_marseille","lat":43.31503,"lon":5.37285,"is_reserved":false,"is_disabled":false,"rental_uris":{"android":"levelo://app?vid=7ce9f68c-df3f-4c06-90bc-5b722c547725","ios":"levelo://app?vid=7ce9f68c-df3f-4c06-90bc-5b722c547725"},"vehicle_type_id":"4","last_reported":1770363527,"current_range_meters":10000,"station_id":"ce4bgt12rcd13ifvqcd0","pricing_plan_id":"cebpf4jnsgd1na2vs0mg"},{"bike_id":"27fefdbd-4292-4c5c-834e-0124b181c451","system_id":"levelo_inurba_marseille","lat":43.29268,"lon":5.38453,"is_reserved":false,"is_disabled":false,"rental_uris":{"android":"levelo://app?vid=27fefdbd-4292-4c5c-834e-0124b181c451","ios":"levelo://app?vid=27fefdbd-4292-4c5c-834e-0124b181c451"},"vehicle_type_id":"4","last_reported":1770363527,"current_range_meters":10000,"station_id":"ce4bh692rcd13ifvqea0","pricing_plan_id":"cebpf4jnsgd1na2vs0mg"},{"bike_id":"1d0ef12e-4bb8-4d8d-9509-0260b1aa5347","system_id":"levelo_inurba_marseille","lat":43.24387,"lon":5.37073,"is_reserved":false,"is_disabled":false,"rental_uris":{"android":"levelo://app?vid=1d0ef12e-4bb8-4d8d-9509-0260b1aa5347","ios":"levelo://app?vid=1d0ef12e-4bb8-4d8d-9509-0260b1aa5347"},"vehicle_type_id":"4","last_reported":1770363527,"current_range_meters":10000,"station_id":"ce4bhhh2rcd13ifvqfk0","pricing_plan_id":"cebpf4jnsgd1na2vs0mg"},{"bike_id":"4553b9ae-95be-4d03-9d86-2a4c79a4ffcc","system_id":"levelo_inurba_marseille","lat":43.28911,"lon":5.39844,"is_reserved":false,"is_disabled":false,"rental_uris":{"android":"levelo://app?vid=4553b9ae-95be-4d03-9d86-2a4c79a4ffcc","ios":"levelo://app?vid=4553b9ae-95be-4d03-9d86-2a4c79a4ffcc"},"vehicle_type_id":"4","last_reported":1770363527,"current_range_meters":10000,"station_id":"","pricing_plan_id":"cebpf4jnsgd1na2vs0mg"},{"bike_id":"a2a422a4-17b1-4a0a-a9e4-f37eb0e03278","system_id":"levelo_inurba_marseille","lat":43.2959,"lon":5.38109,"is_reserved":false,"is_disabled":false,"rental_uris":{"android":"levelo://app?vid=a2a422a4-17b1-4a0a-a9e4-f37eb0e03278","ios":"levelo://app?vid=a2a422a4-17b1-4a0a-a9e4-f37eb0e03278"},"vehicle_type_id":"4","last_reported":1770363527,"current_range_meters":10000,"station_id":"ce4bgl12rcd13ifvqbo0","pricing_plan_id":"cebpf4jnsgd1na2vs0mg"},{"bike_id":"8337b65d-17c0-4b57-8442-e6d360aa1c7d","system_id":"levelo_inurba_marseille","lat":43.23373,"lon":5.4125,"is_reserved":false,"is_disabled":false,"rental_uris":{"android":"levelo://app?vid=8337b65d-17c0-4b57-8442-e6d360aa1c7d","ios":"levelo://app?vid=8337b65d-17c0-4b57-8442-e6d360aa1c7d"},"vehicle_type_id":"4","last_reported":1770363527,"current_range_meters":10000,"station_id":"","pricing_plan_id":"cebpf4jnsgd1na2vs0mg"},{"bike_id":"0e051342-fefa-46d0-b872-02742b59815b","system_id":"levelo_inurba_marseille","lat":43.24671,"lon":5.3816,"is_reserved":false,"is_disabled":false,"rental_uris":{"android":"levelo://app?vid=0e051342-fefa-46d0-b872-02742b59815b","ios":"levelo://app?vid=0e051342-fefa-46d0-b872-02742b59815b"},"vehicle_type_id":"4","last_reported":1770363527,"current_range_meters":10000,"station_id":"ce4bhih2rcd13ifvqfr0","pricing_plan_id":"cebpf4jnsgd1na2vs0mg"},{"bike_id":"0f2838ce-1ad9-4238-85af-fb7dd2afb259","system_id":"levelo_inurba_marseille","lat":43.27489,"lon":5.42466,"is_reserved":false,"is_disabled":false,"rental_uris":{"android":"levelo://app?vid=0f2838ce-1ad9-4238-85af-fb7dd2afb259","ios":"levelo://app?vid=0f2838ce-1ad9-4238-85af-fb7dd2afb259"},"vehicle_type_id":"4","last_reported":1770363527,"current_range_meters":10000,"station_id":"ce4bhn92rcd13ifvqgrg","pricing_plan_id":"cebpf4jnsgd1na2vs0mg"},{"bike_id":"9f292d7f-494c-4a08-b86d-9bc0d360acfb","system_id":"levelo_inurba_marseille","lat":43.31687,"lon":5.40475,"is_reserved":false,"is_disabled":false,"rental_uris":{"android":"levelo://app?vid=9f292d7f-494c-4a08-b86d-9bc0d360acfb","ios":"levelo://app?vid=9f292d7f-494c-4a08-b86d-9bc0d360acfb"},"vehicle_type_id":"4","last_reported":1770363527,"current_range_meters":10000,"station_id":"ce4bh012rcd13ifvqd00","pricing_plan_id":"cebpf4jnsgd1na2vs0mg"},{"bike_id":"819ebd6a-07e4-4e35-a4cd-b602da5d9ab3","system_id":"levelo_inurba_marseille","lat":43.25931,"lon":5.40913,"is_reserved":false,"is_disabled":false,"rental_uris":{"android":"levelo://app?vid=819ebd6a-07e4-4e35-a4cd-b602da5d9ab3","ios":"levelo://app?vid=819ebd6a-07e4-4e35-a4cd-b602da5d9ab3"},"vehicle_type_id":"4","last_reported":1770363527,"current_range_meters":10000,"station_id":"ce4bhm92rcd13ifvqglg","pricing_plan_id":"cebpf4jnsgd1na2vs0mg"},{"bike_id":"041b55eb-1955-4acc-9086-a670f7f43fe1","system_id":"levelo_inurba_marseille","lat":43.30551,"lon":5.36543,"is_reserved":false,"is_disabled":false,"rental_uris":{"android":"levelo://app?vid=041b55eb-1955-4acc-9086-a670f7f43fe1","ios":"levelo://app?vid=041b55eb-1955-4acc-9086-a670f7f43fe1"},"vehicle_type_id":"4","last_reported":1770363527,"current_range_meters":10000,"station_id":"ce4bgs12rcd13ifvqcag","pricing_plan_id":"cebpf4jnsgd1na2vs0mg"},{"bike_id":"762d17af-af27-45ae-8011-3c290ff80fd9","system_id":"levelo_inurba_marseille","lat":43.24171,"lon":5.36392,"is_reserved":false,"is_disabled":false,"rental_uris":{"android":"levelo://app?vid=762d17af-af27-45ae-8011-3c290ff80fd9","ios":"levelo://app?vid=762d17af-af27-45ae-8011-3c290ff80fd9"},"vehicle_type_id":"4","last_reported":1770363527,"current_range_meters":10000,"station_id":"cpo36qri1sfpv3e86is0","pricing_plan_id":"cebpf4jnsgd1na2vs0mg"},{"bike_id":"d097778a-1352-4de3-822f-f5ccbb96523d","system_id":"levelo_inurba_marseille","lat":43.299938,"lon":5.371909,"is_reserved":false,"is_disabled":false,"rental_uris":{"android":"levelo://app?vid=d097778a-1352-4de3-822f-f5ccbb96523d","ios":"levelo://app?vid=d097778a-1352-4de3-822f-f5ccbb96523d"},"vehicle_type_id":"4","last_reported":1770363527,"current_range_meters":10800,"station_id":"ce4bgr92rcd13ifvqc7g","pricing_plan_id":"cebpf4jnsgd1na2vs0mg"},{"bike_id":"ac764263-5e38-4caa-9162-389d1fa0c124","system_id":"levelo_inurba_marseille","lat":43.298949,"lon":5.43667,"is_reserved":false,"is_disabled":false,"rental_uris":{"android":"levelo://app?vid=ac764263-5e38-4caa-9162-389d1fa0c124","ios":"levelo://app?vid=ac764263-5e38-4caa-9162-389d1fa0c124"},"vehicle_type_id":"4","last_reported":1770363527,"current_range_meters":10800,"station_id":"ce4bhpp2rcd13ifvqhfg","pricing_plan_id":"cebpf4jnsgd1na2vs0mg"},{"bike_id":"2d6e70de-e3cf-4b81-95cc-217dbbb15eed","system_id":"levelo_inurba_marseille","lat":43.30307,"lon":5.36916,"is_reserved":false,"is_disabled":false,"rental_uris":{"android":"levelo://app?vid=2d6e70de-e3cf-4b81-95cc-217dbbb15eed","ios":"levelo://app?vid=2d6e70de-e3cf-4b81-95cc-217dbbb15eed"},"vehicle_type_id":"4","last_reported":1770363527,"current_range_meters":10800,"station_id":"ce4bgqh2rcd13ifvqc5g","pricing_plan_id":"cebpf4jnsgd1na2vs0mg"},{"bike_id":"4940192c-cd9e-43b0-a8dd-fd4c04e7805e","system_id":"levelo_inurba_marseille","lat":43.22563,"lon":5.41664,"is_reserved":false,"is_disabled":false,"rental_uris":{"android":"levelo://app?vid=4940192c-cd9e-43b0-a8dd-fd4c04e7805e","ios":"levelo://app?vid=4940192c-cd9e-43b0-a8dd-fd4c04e7805e"},"vehicle_type_id":"4","last_reported":1770363527,"current_range_meters":10800,"station_id":"st_d2o4gvlbi1j2169b742g","pricing_plan_id":"cebpf4jnsgd1na2vs0mg"},{"bike_id":"322d60b6-341c-4379-b608-246efe5c2191","system_id":"levelo_inurba_marseille","lat":43.29561,"lon":5.42285,"is_reserved":false,"is_disabled":false,"rental_uris":{"android":"levelo://app?vid=322d60b6-341c-4379-b608-246efe5c2191","ios":"levelo://app?vid=322d60b6-341c-4379-b608-246efe5c2191"},"vehicle_type_id":"4","last_reported":1770363527,"current_range_meters":10800,"station_id":"ce4bhph2rcd13ifvqhdg","pricing_plan_id":"cebpf4jnsgd1na2vs0mg"},{"bike_id":"222bad96-b12e-4dd0-a7f8-28c766b24b5c","system_id":"levelo_inurba_marseille","lat":43.26688,"lon":5.38265,"is_reserved":false,"is_disabled":false,"rental_uris":{"android":"levelo://app?vid=222bad96-b12e-4dd0-a7f8-28c766b24b5c","ios":"levelo://app?vid=222bad96-b12e-4dd0-a7f8-28c766b24b5c"},"vehicle_type_id":"4","last_reported":1770363527,"current_range_meters":10800,"station_id":"ce4bhg92rcd13ifvqf90","pricing_plan_id":"cebpf4jnsgd1na2vs0mg"},{"bike_id":"19d3d993-b5fa-47cd-b0f1-1e8255e68bf3","system_id":"levelo_inurba_marseille","lat":43.26563,"lon":5.39029,"is_reserved":false,"is_disabled":false,"rental_uris":{"android":"levelo://app?vid=19d3d993-b5fa-47cd-b0f1-1e8255e68bf3","ios":"levelo://app?vid=19d3d993-b5fa-47cd-b0f1-1e8255e68bf3"},"vehicle_type_id":"4","last_reported":1770363527,"current_range_meters":10800,"station_id":"ce4bhe12rcd13ifvqf30","pricing_plan_id":"cebpf4jnsgd1na2vs0mg"},{"bike_id":"6c61d627-4941-4728-9291-abc75ae3caa7","system_id":"levelo_inurba_marseille","lat":43.30898,"lon":5.37222,"is_reserved":false,"is_disabled":false,"rental_uris":{"android":"levelo://app?vid=6c61d627-4941-4728-9291-abc75ae3caa7","ios":"levelo://app?vid=6c61d627-4941-4728-9291-abc75ae3caa7"},"vehicle_type_id":"4","last_reported":1770363527,"current_range_meters":10800,"station_id":"ce4bguh2rcd13ifvqckg","pricing_plan_id":"cebpf4jnsgd1na2vs0mg"},{"bike_id":"24cd1a4b-7a84-4a50-9621-641e383999f5","system_id":"levelo_inurba_marseille","lat":43.21194,"lon":5.35077,"is_reserved":false,"is_disabled":false,"rental_uris":{"android":"levelo://app?vid=24cd1a4b-7a84-4a50-9621-641e383999f5","ios":"levelo://app?vid=24cd1a4b-7a84-4a50-9621-641e383999f5"},"vehicle_type_id":"4","last_reported":1770363527,"current_range_meters":10800,"station_id":"st_cvj6sg6p6f1abm77japg","pricing_plan_id":"cebpf4jnsgd1na2vs0mg"},{"bike_id":"f7b6c8a3-90a3-499f-8e66-c48de84a1a28","system_id":"levelo_inurba_marseille","lat":43.30481,"lon":5.37911,"is_reserved":false,"is_disabled":false,"rental_uris":{"android":"levelo://app?vid=f7b6c8a3-90a3-499f-8e66-c48de84a1a28","ios":"levelo://app?vid=f7b6c8a3-90a3-499f-8e66-c48de84a1a28"},"vehicle_type_id":"4","last_reported":1770363527,"current_range_meters":10800,"station_id":"ce4bgup2rcd13ifvqcn0","pricing_plan_id":"cebpf4jnsgd1na2vs0mg"},{"bike_id":"a1095aac-67aa-45dd-b364-aca02eaf60d1","system_id":"levelo_inurba_marseille","lat":43.31339,"lon":5.36714,"is_reserved":false,"is_disabled":false,"rental_uris":{"android":"levelo://app?vid=a1095aac-67aa-45dd-b364-aca02eaf60d1","ios":"levelo://app?vid=a1095aac-67aa-45dd-b364-aca02eaf60d1"},"vehicle_type_id":"4","last_reported":1770363527,"current_range_meters":11200,"station_id":"ce4bgr92rcd13ifvqc6g","pricing_plan_id":"cebpf4jnsgd1na2vs0mg"},{"bike_id":"5f455ded-8c2b-44e1-bbda-8ed09925c7d0","system_id":"levelo_inurba_marseille","lat":43.28927,"lon":5.36632,"is_reserved":false,"is_disabled":false,"rental_uris":{"android":"levelo://app?vid=5f455ded-8c2b-44e1-bbda-8ed09925c7d0","ios":"levelo://app?vid=5f455ded-8c2b-44e1-bbda-8ed09925c7d0"},"vehicle_type_id":"4","last_reported":1770363527,"current_range_meters":11200,"station_id":"ce4bhap2rcd13ifvqek0","pricing_plan_id":"cebpf4jnsgd1na2vs0mg"},{"bike_id":"1b89ccda-afd3-4459-8e83-e2364f2a8f70","system_id":"levelo_inurba_marseille","lat":43.24151,"lon":5.39732,"is_reserved":false,"is_disabled":false,"rental_uris":{"android":"levelo://app?vid=1b89ccda-afd3-4459-8e83-e2364f2a8f70","ios":"levelo://app?vid=1b89ccda-afd3-4459-8e83-e2364f2a8f70"},"vehicle_type_id":"4","last_reported":1770363527,"current_range_meters":11200,"station_id":"ce4bhn12rcd13ifvqgpg","pricing_plan_id":"cebpf4jnsgd1na2vs0mg"},{"bike_id":"55701a05-0afd-44f2-b5ec-65dd45bfe15c","system_id":"levelo_inurba_marseille","lat":43.23968,"lon":5.36609,"is_reserved":false,"is_disabled":false,"rental_uris":{"android":"levelo://app?vid=55701a05-0afd-44f2-b5ec-65dd45bfe15c","ios":"levelo://app?vid=55701a05-0afd-44f2-b5ec-65dd45bfe15c"},"vehicle_type_id":"4","last_reported":1770363527,"current_range_meters":11200,"station_id":"ce4bhi12rcd13ifvqfp0","pricing_plan_id":"cebpf4jnsgd1na2vs0mg"},{"bike_id":"806558ca-074e-45f9-b3bd-a78668f9fdf6","system_id":"levelo_inurba_marseille","lat":43.25852,"lon":5.40942,"is_reserved":false,"is_disabled":false,"rental_uris":{"android":"levelo://app?vid=806558ca-074e-45f9-b3bd-a78668f9fdf6","ios":"levelo://app?vid=806558ca-074e-45f9-b3bd-a78668f9fdf6"},"vehicle_type_id":"4","last_reported":1770363527,"current_range_meters":11200,"station_id":"","pricing_plan_id":"cebpf4jnsgd1na2vs0mg"},{"bike_id":"c2adbe0e-3b75-4c1f-aa68-6a962f7c17a3","system_id":"levelo_inurba_marseille","lat":43.30171,"lon":5.38065,"is_reserved":false,"is_disabled":false,"rental_uris":{"android":"levelo://app?vid=c2adbe0e-3b75-4c1f-aa68-6a962f7c17a3","ios":"levelo://app?vid=c2adbe0e-3b75-4c1f-aa68-6a962f7c17a3"},"vehicle_type_id":"4","last_reported":1770363527,"current_range_meters":11200,"station_id":"ce4bgjp2rcd13ifvqbh0","pricing_plan_id":"cebpf4jnsgd1na2vs0mg"},{"bike_id":"006f45de-433c-4fe3-81a6-3dac1db63eac","system_id":"levelo_inurba_marseille","lat":43.24458,"lon":5.42538,"is_reserved":false,"is_disabled":false,"rental_uris":{"android":"levelo://app?vid=006f45de-433c-4fe3-81a6-3dac1db63eac","ios":"levelo://app?vid=006f45de-433c-4fe3-81a6-3dac1db63eac"},"vehicle_type_id":"4","last_reported":1770363527,"current_range_meters":11200,"station_id":"st_d4a3vfp97mjs738cd8kg","pricing_plan_id":"cebpf4jnsgd1na2vs0mg"},{"bike_id":"b647999a-4d4e-4999-93f7-7f7a0cf7097f","system_id":"levelo_inurba_marseille","lat":43.30589,"lon":5.43007,"is_reserved":false,"is_disabled":false,"rental_uris":{"android":"levelo://app?vid=b647999a-4d4e-4999-93f7-7f7a0cf7097f","ios":"levelo://app?vid=b647999a-4d4e-4999-93f7-7f7a0cf7097f"},"vehicle_type_id":"4","last_reported":1770363527,"current_range_meters":11200,"station_id":"","pricing_plan_id":"cebpf4jnsgd1na2vs0mg"},{"bike_id":"a3d8f230-fabf-4853-b4e7-30c4e012aa5e","system_id":"levelo_inurba_marseille","lat":43.2594,"lon":5.40904,"is_reserved":false,"is_disabled":false,"rental_uris":{"android":"levelo://app?vid=a3d8f230-fabf-4853-b4e7-30c4e012aa5e","ios":"levelo://app?vid=a3d8f230-fabf-4853-b4e7-30c4e012aa5e"},"vehicle_type_id":"4","last_reported":1770363527,"current_range_meters":11200,"station_id":"ce4bhm92rcd13ifvqglg","pricing_plan_id":"cebpf4jnsgd1na2vs0mg"},{"bike_id":"4352a832-dd68-4db8-bcdd-73cf72426c5d","system_id":"levelo_inurba_marseille","lat":43.23147,"lon":5.43717,"is_reserved":false,"is_disabled":false,"rental_uris":{"android":"levelo://app?vid=4352a832-dd68-4db8-bcdd-73cf72426c5d","ios":"levelo://app?vid=4352a832-dd68-4db8-bcdd-73cf72426c5d"},"vehicle_type_id":"4","last_reported":1770363527,"current_range_meters":11200,"station_id":"ce4bhmp2rcd13ifvqgog","pricing_plan_id":"cebpf4jnsgd1na2vs0mg"},{"bike_id":"d98c506f-10ff-411e-a6c0-5d36220462d2","system_id":"levelo_inurba_marseille","lat":43.30872,"lon":5.3721,"is_reserved":false,"is_disabled":false,"rental_uris":{"android":"levelo://app?vid=d98c506f-10ff-411e-a6c0-5d36220462d2","ios":"levelo://app?vid=d98c506f-10ff-411e-a6c0-5d36220462d2"},"vehicle_type_id":"4","last_reported":1770363527,"current_range_meters":11200,"station_id":"ce4bguh2rcd13ifvqckg","pricing_plan_id":"cebpf4jnsgd1na2vs0mg"},{"bike_id":"ce444334-f919-404c-b08e-187ac8a98fe1","system_id":"levelo_inurba_marseille","lat":43.24646,"lon":5.38906,"is_reserved":false,"is_disabled":false,"rental_uris":{"android":"levelo://app?vid=ce444334-f919-404c-b08e-187ac8a98fe1","ios":"levelo://app?vid=ce444334-f919-404c-b08e-187ac8a98fe1"},"vehicle_type_id":"4","last_reported":1770363527,"current_range_meters":11200,"station_id":"ce4bhg12rcd13ifvqf60","pricing_plan_id":"cebpf4jnsgd1na2vs0mg"},{"bike_id":"e79d2e27-ea44-4187-bdae-19c5d8e9e875","system_id":"levelo_inurba_marseille","lat":43.299192,"lon":5.37478,"is_reserved":false,"is_disabled":false,"rental_uris":{"android":"levelo://app?vid=e79d2e27-ea44-4187-bdae-19c5d8e9e875","ios":"levelo://app?vid=e79d2e27-ea44-4187-bdae-19c5d8e9e875"},"vehicle_type_id":"4","last_reported":1770363527,"current_range_meters":11200,"station_id":"ce4bgjh2rcd13ifvqbg0","pricing_plan_id":"cebpf4jnsgd1na2vs0mg"},{"bike_id":"4c1d817c-2311-4829-b074-c35d06d3a077","system_id":"levelo_inurba_marseille","lat":43.22928,"lon":5.35381,"is_reserved":false,"is_disabled":false,"rental_uris":{"android":"levelo://app?vid=4c1d817c-2311-4829-b074-c35d06d3a077","ios":"levelo://app?vid=4c1d817c-2311-4829-b074-c35d06d3a077"},"vehicle_type_id":"4","last_reported":1770363527,"current_range_meters":11200,"station_id":"cpo3532slgdg3j2ikp40","pricing_plan_id":"cebpf4jnsgd1na2vs0mg"},{"bike_id":"97576ab2-cd48-43b4-8e86-6bb5ab103ffa","system_id":"levelo_inurba_marseille","lat":43.30305,"lon":5.36907,"is_reserved":false,"is_disabled":false,"rental_uris":{"android":"levelo://app?vid=97576ab2-cd48-43b4-8e86-6bb5ab103ffa","ios":"levelo://app?vid=97576ab2-cd48-43b4-8e86-6bb5ab103ffa"},"vehicle_type_id":"4","last_reported":1770363527,"current_range_meters":11600,"station_id":"ce4bgqh2rcd13ifvqc5g","pricing_plan_id":"cebpf4jnsgd1na2vs0mg"},{"bike_id":"48f33234-7638-4a95-818e-ae1de346a57e","system_id":"levelo_inurba_marseille","lat":43.25521,"lon":5.37653,"is_reserved":false,"is_disabled":false,"rental_uris":{"android":"levelo://app?vid=48f33234-7638-4a95-818e-ae1de346a57e","ios":"levelo://app?vid=48f33234-7638-4a95-818e-ae1de346a57e"},"vehicle_type_id":"4","last_reported":1770363527,"current_range_meters":11600,"station_id":"ce4bhh12rcd13ifvqff0","pricing_plan_id":"cebpf4jnsgd1na2vs0mg"},{"bike_id":"cd9f8add-0a64-4b52-ba76-208ecfbdcbc9","system_id":"levelo_inurba_marseille","lat":43.28438,"lon":5.39203,"is_reserved":false,"is_disabled":false,"rental_uris":{"android":"levelo://app?vid=cd9f8add-0a64-4b52-ba76-208ecfbdcbc9","ios":"levelo://app?vid=cd9f8add-0a64-4b52-ba76-208ecfbdcbc9"},"vehicle_type_id":"4","last_reported":1770363527,"current_range_meters":11600,"station_id":"ce4bhoh2rcd13ifvqh5g","pricing_plan_id":"cebpf4jnsgd1na2vs0mg"},{"bike_id":"10afdf3c-3e7b-4af9-a0f2-5741d7b09ee4","system_id":"levelo_inurba_marseille","lat":43.24654,"lon":5.4314,"is_reserved":false,"is_disabled":false,"rental_uris":{"android":"levelo://app?vid=10afdf3c-3e7b-4af9-a0f2-5741d7b09ee4","ios":"levelo://app?vid=10afdf3c-3e7b-4af9-a0f2-5741d7b09ee4"},"vehicle_type_id":"4","last_reported":1770363527,"current_range_meters":11600,"station_id":"st_d2m6c4gdas8pm72e190g","pricing_plan_id":"cebpf4jnsgd1na2vs0mg"},{"bike_id":"53b11862-72ad-4ea2-b4fc-4748554b43a0","system_id":"levelo_inurba_marseille","lat":43.23777,"lon":5.36632,"is_reserved":false,"is_disabled":false,"rental_uris":{"android":"levelo://app?vid=53b11862-72ad-4ea2-b4fc-4748554b43a0","ios":"levelo://app?vid=53b11862-72ad-4ea2-b4fc-4748554b43a0"},"vehicle_type_id":"4","last_reported":1770363527,"current_range_meters":11600,"station_id":"st_d3nk18o9ro0c73en2l3g","pricing_plan_id":"cebpf4jnsgd1na2vs0mg"},{"bike_id":"2cf69e8c-24ab-43ad-b932-c53e7a56c84b","system_id":"levelo_inurba_marseille","lat":43.28338,"lon":5.38109,"is_reserved":false,"is_disabled":false,"rental_uris":{"android":"levelo://app?vid=2cf69e8c-24ab-43ad-b932-c53e7a56c84b","ios":"levelo://app?vid=2cf69e8c-24ab-43ad-b932-c53e7a56c84b"},"vehicle_type_id":"4","last_reported":1770363527,"current_range_meters":11600,"station_id":"ce4bh412rcd13ifvqdr0","pricing_plan_id":"cebpf4jnsgd1na2vs0mg"},{"bike_id":"2e03d4d7-88ca-4991-bee2-f08d03270792","system_id":"levelo_inurba_marseille","lat":43.24539,"lon":5.43127,"is_reserved":false,"is_disabled":false,"rental_uris":{"android":"levelo://app?vid=2e03d4d7-88ca-4991-bee2-f08d03270792","ios":"levelo://app?vid=2e03d4d7-88ca-4991-bee2-f08d03270792"},"vehicle_type_id":"4","last_reported":1770363527,"current_range_meters":12000,"station_id":"st_d2m6c4gdas8pm72e190g","pricing_plan_id":"cebpf4jnsgd1na2vs0mg"},{"bike_id":"41af9e90-a753-4f1d-9659-bfacb1a35c15","system_id":"levelo_inurba_marseille","lat":43.30138,"lon":5.43093,"is_reserved":false,"is_disabled":false,"rental_uris":{"android":"levelo://app?vid=41af9e90-a753-4f1d-9659-bfacb1a35c15","ios":"levelo://app?vid=41af9e90-a753-4f1d-9659-bfacb1a35c15"},"vehicle_type_id":"4","last_reported":1770363527,"current_range_meters":12000,"station_id":"st_d3js3co5814s73ftftug","pricing_plan_id":"cebpf4jnsgd1na2vs0mg"},{"bike_id":"c560fbe4-1e52-48ad-8598-5093d292aded","system_id":"levelo_inurba_marseille","lat":43.23193,"lon":5.3557,"is_reserved":false,"is_disabled":false,"rental_uris":{"android":"levelo://app?vid=c560fbe4-1e52-48ad-8598-5093d292aded","ios":"levelo://app?vid=c560fbe4-1e52-48ad-8598-5093d292aded"},"vehicle_type_id":"4","last_reported":1770363527,"current_range_meters":12000,"station_id":"ce4bhu92rcd13ifvqi70","pricing_plan_id":"cebpf4jnsgd1na2vs0mg"},{"bike_id":"07de96da-2389-4879-8a29-232d7828a001","system_id":"levelo_inurba_marseille","lat":43.24076,"lon":5.37758,"is_reserved":false,"is_disabled":false,"rental_uris":{"android":"levelo://app?vid=07de96da-2389-4879-8a29-232d7828a001","ios":"levelo://app?vid=07de96da-2389-4879-8a29-232d7828a001"},"vehicle_type_id":"4","last_reported":1770363527,"current_range_meters":12000,"station_id":"ce4bhnp2rcd13ifvqgvg","pricing_plan_id":"cebpf4jnsgd1na2vs0mg"},{"bike_id":"f5b3c0bc-b0db-4532-8e2f-eae93141d573","system_id":"levelo_inurba_marseille","lat":43.335439,"lon":5.374573,"is_reserved":false,"is_disabled":false,"rental_uris":{"android":"levelo://app?vid=f5b3c0bc-b0db-4532-8e2f-eae93141d573","ios":"levelo://app?vid=f5b3c0bc-b0db-4532-8e2f-eae93141d573"},"vehicle_type_id":"4","last_reported":1770363527,"current_range_meters":12000,"station_id":"st_d46tts09ee8s73dlu43g","pricing_plan_id":"cebpf4jnsgd1na2vs0mg"},{"bike_id":"b22598d3-edd4-4cca-9d6c-4ea3a08e69bb","system_id":"levelo_inurba_marseille","lat":43.29767,"lon":5.42807,"is_reserved":false,"is_disabled":false,"rental_uris":{"android":"levelo://app?vid=b22598d3-edd4-4cca-9d6c-4ea3a08e69bb","ios":"levelo://app?vid=b22598d3-edd4-4cca-9d6c-4ea3a08e69bb"},"vehicle_type_id":"4","last_reported":1770363527,"current_range_meters":12000,"station_id":"st_d3md5207bmas73dh9klg","pricing_plan_id":"cebpf4jnsgd1na2vs0mg"},{"bike_id":"1b01249e-dab6-4304-8f5a-71480dc3dc0b","system_id":"levelo_inurba_marseille","lat":43.27067,"lon":5.38307,"is_reserved":false,"is_disabled":false,"rental_uris":{"android":"levelo://app?vid=1b01249e-dab6-4304-8f5a-71480dc3dc0b","ios":"levelo://app?vid=1b01249e-dab6-4304-8f5a-71480dc3dc0b"},"vehicle_type_id":"4","last_reported":1770363527,"current_range_meters":12000,"station_id":"st_d3n2fo6cfp8s73cte1j0","pricing_plan_id":"cebpf4jnsgd1na2vs0mg"},{"bike_id":"69058da0-26ae-496d-a831-36496e6706f0","system_id":"levelo_inurba_marseille","lat":43.28863,"lon":5.42515,"is_reserved":false,"is_disabled":false,"rental_uris":{"android":"levelo://app?vid=69058da0-26ae-496d-a831-36496e6706f0","ios":"levelo://app?vid=69058da0-26ae-496d-a831-36496e6706f0"},"vehicle_type_id":"4","last_reported":1770363527,"current_range_meters":12000,"station_id":"st_d3b462108ojc7389ooeg","pricing_plan_id":"cebpf4jnsgd1na2vs0mg"},{"bike_id":"c0d1ae43-cfc5-4d06-bbf6-7e07c0ba2885","system_id":"levelo_inurba_marseille","lat":43.30156,"lon":5.38085,"is_reserved":false,"is_disabled":false,"rental_uris":{"android":"levelo://app?vid=c0d1ae43-cfc5-4d06-bbf6-7e07c0ba2885","ios":"levelo://app?vid=c0d1ae43-cfc5-4d06-bbf6-7e07c0ba2885"},"vehicle_type_id":"4","last_reported":1770363527,"current_range_meters":12000,"station_id":"ce4bgjp2rcd13ifvqbh0","pricing_plan_id":"cebpf4jnsgd1na2vs0mg"},{"bike_id":"67a8f92c-d33a-4da1-a048-8e09c3aa40ff","system_id":"levelo_inurba_marseille","lat":43.30593,"lon":5.39369,"is_reserved":false,"is_disabled":false,"rental_uris":{"android":"levelo://app?vid=67a8f92c-d33a-4da1-a048-8e09c3aa40ff","ios":"levelo://app?vid=67a8f92c-d33a-4da1-a048-8e09c3aa40ff"},"vehicle_type_id":"4","last_reported":1770363527,"current_range_meters":12400,"station_id":"ce4bh0p2rcd13ifvqd80","pricing_plan_id":"cebpf4jnsgd1na2vs0mg"},{"bike_id":"95f0bf6d-a9ec-4195-a3a8-ea28649a639c","system_id":"levelo_inurba_marseille","lat":43.28167,"lon":5.42641,"is_reserved":false,"is_disabled":false,"rental_uris":{"android":"levelo://app?vid=95f0bf6d-a9ec-4195-a3a8-ea28649a639c","ios":"levelo://app?vid=95f0bf6d-a9ec-4195-a3a8-ea28649a639c"},"vehicle_type_id":"4","last_reported":1770363527,"current_range_meters":12400,"station_id":"ce4bhnh2rcd13ifvqgug","pricing_plan_id":"cebpf4jnsgd1na2vs0mg"},{"bike_id":"ec530521-2795-4ff9-af45-352d2124398c","system_id":"levelo_inurba_marseille","lat":43.31368,"lon":5.36685,"is_reserved":false,"is_disabled":false,"rental_uris":{"android":"levelo://app?vid=ec530521-2795-4ff9-af45-352d2124398c","ios":"levelo://app?vid=ec530521-2795-4ff9-af45-352d2124398c"},"vehicle_type_id":"4","last_reported":1770363527,"current_range_meters":12400,"station_id":"ce4bgr92rcd13ifvqc6g","pricing_plan_id":"cebpf4jnsgd1na2vs0mg"},{"bike_id":"620983b4-dee8-4344-a3cb-09fe9b36084b","system_id":"levelo_inurba_marseille","lat":43.30899,"lon":5.37197,"is_reserved":false,"is_disabled":false,"rental_uris":{"android":"levelo://app?vid=620983b4-dee8-4344-a3cb-09fe9b36084b","ios":"levelo://app?vid=620983b4-dee8-4344-a3cb-09fe9b36084b"},"vehicle_type_id":"4","last_reported":1770363527,"current_range_meters":12400,"station_id":"ce4bguh2rcd13ifvqckg","pricing_plan_id":"cebpf4jnsgd1na2vs0mg"},{"bike_id":"29f80af0-94b2-4300-8cbb-f9bb2bbccc9b","system_id":"levelo_inurba_marseille","lat":43.29937,"lon":5.36538,"is_reserved":false,"is_disabled":false,"rental_uris":{"android":"levelo://app?vid=29f80af0-94b2-4300-8cbb-f9bb2bbccc9b","ios":"levelo://app?vid=29f80af0-94b2-4300-8cbb-f9bb2bbccc9b"},"vehicle_type_id":"4","last_reported":1770363527,"current_range_meters":12400,"station_id":"ce4bgm92rcd13ifvqbr0","pricing_plan_id":"cebpf4jnsgd1na2vs0mg"},