{"last_updated":1749949296,"ttl":60,"version":"2.2","data":{"bikes":[{"bike_id":"b31f0139-170f-4194-984f-4386218a1e9d","system_id":"levelo_inurba_marseille","lat":43.33771,"lon":5.37424,"is_reserved":false,"is_disabled":true,"rental_uris":{"android":"levelo://app?vid=b31f0139-170f-4194-984f-4386218a1e9d","ios":"levelo://app?vid=b31f0139-170f-4194-984f-4386218a1e9d"},"vehicle_type_id":"4","last_reported":1749949297,"current_range_meters":0,"station_id":"","pricing_plan_id":"cebpf4jnsgd1na2vs0mg"},{"bike_id":"1acfb620-cad7-48c0-8901-d7a5b74a5b65","system_id":"levelo_inurba_marseille","lat":43.33751,"lon":5.37456,"is_reserved":false,"is_disabled":true,"rental_uris":{"android":"levelo://app?vid=1acfb620-cad7-48c0-8901-d7a5b74a5b65","ios":"levelo://app?vid=1acfb620-cad7-48c0-8901-d7a5b74a5b65"},"vehicle_type_id":"4","last_reported":1749949297,"current_range_meters":0,"station_id":"","pricing_plan_id":"cebpf4jnsgd1na2vs0mg"},{"bike_id":"bf89d78c-eb96-40d5-beb0-f402ef102cc1","system_id":"levelo_inurba_marseille","lat":43.337444,"lon":5.374475,"is_reserved":false,"is_disabled":true,"rental_uris":{"android":"levelo://app?vid=bf89d78c-eb96-40d5-beb0-f402ef102cc1","ios":"levelo://app?vid=bf89d78c-eb96-40d5-beb0-f402ef102cc1"},"vehicle_type_id":"4","last_reported":1749949297,"current_range_meters":0,"station_id":"","pricing_plan_id":"cebpf4jnsgd1na2vs0mg"},{"bike_id":"5077581b-cebb-46fc-ba69-4fa8272d4810","system_id":"levelo_inurba_marseille","lat":43.21357,"lon":5.35538,"is_reserved":false,"is_disabled":true,"rental_uris":{"android":"levelo://app?vid=5077581b-cebb-46fc-ba69-4fa8272d4810","ios":"levelo://app?vid=5077581b-cebb-46fc-ba69-4fa8272d4810"},"vehicle_type_id":"4","last_reported":1749949297,"current_range_meters":0,"station_id":"","pricing_plan_id":"cebpf4jnsgd1na2vs0mg"},{"bike_id":"b700b739-d84e-40eb-a0b6-5cbfa9485ee2","system_id":"levelo_inurba_marseille","lat":43.27854,"lon":5.42194,"is_reserved":false,"is_disabled":true,"rental_uris":{"android":"levelo://app?vid=b700b739-d84e-40eb-a0b6-5cbfa9485ee2","ios":"levelo://app?vid=b700b739-d84e-40eb-a0b6-5cbfa9485ee2"},"vehicle_type_id":"4","last_reported":1749949297,"current_range_meters":0,"station_id":"","pricing_plan_id":"cebpf4jnsgd1na2vs0mg"},{"bike_id":"ba4161ee-da08-48ee-beb8-6e827a95a697","system_id":"levelo_inurba_marseille","lat":43.25881,"lon":5.3989,"is_reserved":false,"is_disabled":true,"rental_uris":{"android":"levelo://app?vid=ba4161ee-da08-48ee-beb8-6e827a95a697","ios":"levelo://app?vid=ba4161ee-da08-48ee-beb8-6e827a95a697"},"vehicle_type_id":"4","last_reported":1749949297,"current_range_meters":0,"station_id":"","pricing_plan_id":"cebpf4jnsgd1na2vs0mg"},{"bike_id":"ebf89cec-3e1a-4275-9cd0-a3d19d69b5cf","system_id":"levelo_inurba_marseille","lat":43.279736,"lon":5.384915,"is_reserved":false,"is_disabled":true,"rental_uris":{"android":"levelo://app?vid=ebf89cec-3e1a-4275-9cd0-a3d19d69b5cf","ios":"levelo://app?vid=ebf89cec-3e1a-4275-9cd0-a3d19d69b5cf"},"vehicle_type_id":"4","last_reported":1749949297,"current_range_meters":0,"station_id":"","pricing_plan_id":"cebpf4jnsgd1na2vs0mg"},{"bike_id":"8d60347d-541c-40fb-90ca-203bf6bd520a","system_id":"levelo_inurba_marseille","lat":43.271317,"lon":5.364175,"is_reserved":false,"is_disabled":true,"rental_uris":{"android":"levelo://app?vid=8d60347d-541c-40fb-90ca-203bf6bd520a","ios":"levelo://app?vid=8d60347d-541c-40fb-90ca-203bf6bd520a"},"vehicle_type_id":"4","last_reported":1749949297,"current_range_meters":0,"station_id":"","pricing_plan_id":"cebpf4jnsgd1na2vs0mg"},{"bike_id":"492f4bbd-1190-4ef2-b66a-479ffe91b09b","system_id":"levelo_inurba_marseille","lat":43.337444,"lon":5.374475,"is_reserved":false,"is_disabled":true,"rental_uris":{"android":"levelo://app?vid=492f4bbd-1190-4ef2-b66a-479ffe91b09b","ios":"levelo://app?vid=492f4bbd-1190-4ef2-b66a-479ffe91b09b"},"vehicle_type_id":"4","last_reported":1749949297,"current_range_meters":0,"station_id":"","pricing_plan_id":"cebpf4jnsgd1na2vs0mg"},{"bike_id":"a9b6bf99-4070-4437-bb20-72962ae30b90","system_id":"levelo_inurba_marseille","lat":43.2746,"lon":5.3641,"is_reserved":false,"is_disabled":true,"rental_uris":{"android":"levelo://app?vid=a9b6bf99-4070-4437-bb20-72962ae30b90","ios":"levelo://app?vid=a9b6bf99-4070-4437-bb20-72962ae30b90"},"vehicle_type_id":"4","last_reported":1749949297,"current_range_meters":0,"station_id":"","pricing_plan_id":"cebpf4jnsgd1na2vs0mg"},{"bike_id":"015ad6ee-29b0-4f56-b775-6c955c7d0bb0","system_id":"levelo_inurba_marseille","lat":43.30887,"lon":5.396462,"is_reserved":false,"is_disabled":false,"rental_uris":{"android":"levelo://app?vid=015ad6ee-29b0-4f56-b775-6c955c7d0bb0","ios":"levelo://app?vid=015ad6ee-29b0-4f56-b775-6c955c7d0bb0"},"vehicle_type_id":"4","last_reported":1749949297,"current_range_meters":0,"station_id":"ce4bh012rcd13ifvqcv0","pricing_plan_id":"cebpf4jnsgd1na2vs0mg"},{"bike_id":"bdc443e3-a983-4ff3-969f-bd3c39794476","system_id":"levelo_inurba_marseille","lat":43.29263,"lon":5.40144,"is_reserved":false,"is_disabled":true,"rental_uris":{"android":"levelo://app?vid=bdc443e3-a983-4ff3-969f-bd3c39794476","ios":"levelo://app?vid=bdc443e3-a983-4ff3-969f-bd3c39794476"},"vehicle_type_id":"4","last_reported":1749949297,"current_range_meters":0,"station_id":"ce4bh312rcd13ifvqdk0","pricing_plan_id":"cebpf4jnsgd1na2vs0mg"},{"bike_id":"149f9723-41e5-45f7-bdd6-df5160a33b85","system_id":"levelo_inurba_marseille","lat":43.29042,"lon":5.39967,"is_reserved":false,"is_disabled":true,"rental_uris":{"android":"levelo://app?vid=149f9723-41e5-45f7-bdd6-df5160a33b85","ios":"levelo://app?vid=149f9723-41e5-45f7-bdd6-df5160a33b85"},"vehicle_type_id":"4","last_reported":1749949297,"current_range_meters":0,"station_id":"ce4bh392rcd13ifvqdm0","pricing_plan_id":"cebpf4jnsgd1na2vs0mg"},{"bike_id":"1e9901eb-7efb-4988-a52a-c3d747dd71a0","system_id":"levelo_inurba_marseille","lat":43.29555,"lon":5.42284,"is_reserved":false,"is_disabled":true,"rental_uris":{"android":"levelo://app?vid=1e9901eb-7efb-4988-a52a-c3d747dd71a0","ios":"levelo://app?vid=1e9901eb-7efb-4988-a52a-c3d747dd71a0"},"vehicle_type_id":"4","last_reported":1749949297,"current_range_meters":0,"station_id":"ce4bhph2rcd13ifvqhdg","pricing_plan_id":"cebpf4jnsgd1na2vs0mg"},{"bike_id":"04005531-52ef-4a8c-a6d8-546a39325ee5","system_id":"levelo_inurba_marseille","lat":43.22509,"lon":5.34785,"is_reserved":false,"is_disabled":true,"rental_uris":{"android":"levelo://app?vid=04005531-52ef-4a8c-a6d8-546a39325ee5","ios":"levelo://app?vid=04005531-52ef-4a8c-a6d8-546a39325ee5"},"vehicle_type_id":"4","last_reported":1749949297,"current_range_meters":0,"station_id":"st_cvj5dfep6f1abm77gieg","pricing_plan_id":"cebpf4jnsgd1na2vs0mg"},{"bike_id":"0f50c2eb-d288-4d90-a9a3-cd0743222590","system_id":"levelo_inurba_marseille","lat":43.22475,"lon":5.34751,"is_reserved":false,"is_disabled":true,"rental_uris":{"android":"levelo://app?vid=0f50c2eb-d288-4d90-a9a3-cd0743222590","ios":"levelo://app?vid=0f50c2eb-d288-4d90-a9a3-cd0743222590"},"vehicle_type_id":"4","last_reported":1749949297,"current_range_meters":0,"station_id":"st_cvj5dfep6f1abm77gieg","pricing_plan_id":"cebpf4jnsgd1na2vs0mg"},{"bike_id":"77e1b72a-e412-4bf7-b26d-9074f78abf68","system_id":"levelo_inurba_marseille","lat":43.22488,"lon":5.3481,"is_reserved":false,"is_disabled":true,"rental_uris":{"android":"levelo://app?vid=77e1b72a-e412-4bf7-b26d-9074f78abf68","ios":"levelo://app?vid=77e1b72a-e412-4bf7-b26d-9074f78abf68"},"vehicle_type_id":"4","last_reported":1749949297,"current_range_meters":0,"station_id":"st_cvj5dfep6f1abm77gieg","pricing_plan_id":"cebpf4jnsgd1na2vs0mg"},{"bike_id":"c59f710e-a568-48ee-b718-470006db13cd","system_id":"levelo_inurba_marseille","lat":43.2175,"lon":5.34611,"is_reserved":false,"is_disabled":true,"rental_uris":{"android":"levelo://app?vid=c59f710e-a568-48ee-b718-470006db13cd","ios":"levelo://app?vid=c59f710e-a568-48ee-b718-470006db13cd"},"vehicle_type_id":"4","last_reported":1749949297,"current_range_meters":0,"station_id":"st_cvj6r9ubvosntc0bgbag","pricing_plan_id":"cebpf4jnsgd1na2vs0mg"},{"bike_id":"fe5a9aaf-2d36-4b9d-abdd-dc360a59de38","system_id":"levelo_inurba_marseille","lat":43.217446,"lon":5.34598,"is_reserved":false,"is_disabled":true,"rental_uris":{"android":"levelo://app?vid=fe5a9aaf-2d36-4b9d-abdd-dc360a59de38","ios":"levelo://app?vid=fe5a9aaf-2d36-4b9d-abdd-dc360a59de38"},"vehicle_type_id":"4","last_reported":1749949297,"current_range_meters":0,"station_id":"st_cvj6r9ubvosntc0bgbag","pricing_plan_id":"cebpf4jnsgd1na2vs0mg"},{"bike_id":"ceed8e49-424f-4eba-95a3-d0aed3600067","system_id":"levelo_inurba_marseille","lat":43.21245,"lon":5.35079,"is_reserved":false,"is_disabled":true,"rental_uris":{"android":"levelo://app?vid=ceed8e49-424f-4eba-95a3-d0aed3600067","ios":"levelo://app?vid=ceed8e49-424f-4eba-95a3-d0aed3600067"},"vehicle_type_id":"4","last_reported":1749949297,"current_range_meters":0,"station_id":"st_cvj6sg6p6f1abm77japg","pricing_plan_id":"cebpf4jnsgd1na2vs0mg"},{"bike_id":"043b1987-2877-4c74-aa93-182a457bc683","system_id":"levelo_inurba_marseille","lat":43.2909,"lon":5.38126,"is_reserved":false,"is_disabled":true,"rental_uris":{"android":"levelo://app?vid=043b1987-2877-4c74-aa93-182a457bc683","ios":"levelo://app?vid=043b1987-2877-4c74-aa93-182a457bc683"},"vehicle_type_id":"4","last_reported":1749949297,"current_range_meters":800,"station_id":"ce4bh512rcd13ifvqe2g","pricing_plan_id":"cebpf4jnsgd1na2vs0mg"},{"bike_id":"05be4d55-79c4-4041-9bfa-07752692e32c","system_id":"levelo_inurba_marseille","lat":43.29736,"lon":5.35951,"is_reserved":false,"is_disabled":true,"rental_uris":{"android":"levelo://app?vid=05be4d55-79c4-4041-9bfa-07752692e32c","ios":"levelo://app?vid=05be4d55-79c4-4041-9bfa-07752692e32c"},"vehicle_type_id":"4","last_reported":1749949297,"current_range_meters":1200,"station_id":"","pricing_plan_id":"cebpf4jnsgd1na2vs0mg"},{"bike_id":"97421c04-2630-4fc1-9da9-b17d88602c5f","system_id":"levelo_inurba_marseille","lat":43.337682,"lon":5.374519,"is_reserved":false,"is_disabled":true,"rental_uris":{"android":"levelo://app?vid=97421c04-2630-4fc1-9da9-b17d88602c5f","ios":"levelo://app?vid=97421c04-2630-4fc1-9da9-b17d88602c5f"},"vehicle_type_id":"4","last_reported":1749949297,"current_range_meters":1600,"station_id":"","pricing_plan_id":"cebpf4jnsgd1na2vs0mg"},{"bike_id":"98afa141-26c5-45c8-a0a6-15fd54ac73ab","system_id":"levelo_inurba_marseille","lat":43.21519,"lon":5.34795,"is_reserved":false,"is_disabled":true,"rental_uris":{"android":"levelo://app?vid=98afa141-26c5-45c8-a0a6-15fd54ac73ab","ios":"levelo://app?vid=98afa141-26c5-45c8-a0a6-15fd54ac73ab"},"vehicle_type_id":"4","last_reported":1749949297,"current_range_meters":1600,"station_id":"","pricing_plan_id":"cebpf4jnsgd1na2vs0mg"},{"bike_id":"3d6ef34c-1ec6-4ed3-88e4-07359f729c42","system_id":"levelo_inurba_marseille","lat":43.27581,"lon":5.43413,"is_reserved":false,"is_disabled":true,"rental_uris":{"android":"levelo://app?vid=3d6ef34c-1ec6-4ed3-88e4-07359f729c42","ios":"levelo://app?vid=3d6ef34c-1ec6-4ed3-88e4-07359f729c42"},"vehicle_type_id":"4","last_reported":1749949297,"current_range_meters":2000,"station_id":"","pricing_plan_id":"cebpf4jnsgd1na2vs0mg"},{"bike_id":"cd948620-239a-475b-87d0-135bd6592169","system_id":"levelo_inurba_marseille","lat":43.31184,"lon":5.38713,"is_reserved":false,"is_disabled":true,"rental_uris":{"android":"levelo://app?vid=cd948620-239a-475b-87d0-135bd6592169","ios":"levelo://app?vid=cd948620-239a-475b-87d0-135bd6592169"},"vehicle_type_id":"4","last_reported":1749949297,"current_range_meters":2000,"station_id":"ce4bgv12rcd13ifvqcp0","pricing_plan_id":"cebpf4jnsgd1na2vs0mg"},{"bike_id":"242313e4-92e6-4b2b-bdd8-6202659558ab","system_id":"levelo_inurba_marseille","lat":43.28563,"lon":5.39497,"is_reserved":false,"is_disabled":true,"rental_uris":{"android":"levelo://app?vid=242313e4-92e6-4b2b-bdd8-6202659558ab","ios":"levelo://app?vid=242313e4-92e6-4b2b-bdd8-6202659558ab"},"vehicle_type_id":"4","last_reported":1749949297,"current_range_meters":2000,"station_id":"ce4bh292rcd13ifvqdg0","pricing_plan_id":"cebpf4jnsgd1na2vs0mg"},{"bike_id":"7ed60dd9-d069-46b7-b0ca-fc1be6180c87","system_id":"levelo_inurba_marseille","lat":43.28155,"lon":5.42646,"is_reserved":false,"is_disabled":false,"rental_uris":{"android":"levelo://app?vid=7ed60dd9-d069-46b7-b0ca-fc1be6180c87","ios":"levelo://app?vid=7ed60dd9-d069-46b7-b0ca-fc1be6180c87"},"vehicle_type_id":"4","last_reported":1749949297,"current_range_meters":3600,"station_id":"ce4bhnh2rcd13ifvqgug","pricing_plan_id":"cebpf4jnsgd1na2vs0mg"},{"bike_id":"f053ee2f-b0a9-4944-9983-ac7f640159db","system_id":"levelo_inurba_marseille","lat":43.267356,"lon":5.427523,"is_reserved":false,"is_disabled":false,"rental_uris":{"android":"levelo://app?vid=f053ee2f-b0a9-4944-9983-ac7f640159db","ios":"levelo://app?vid=f053ee2f-b0a9-4944-9983-ac7f640159db"},"vehicle_type_id":"4","last_reported":1749949297,"current_range_meters":4000,"station_id":"","pricing_plan_id":"cebpf4jnsgd1na2vs0mg"},{"bike_id":"2f9ff268-52d1-4b0d-9639-78d5a64762a3","system_id":"levelo_inurba_marseille","lat":43.29495,"lon":5.37514,"is_reserved":false,"is_disabled":false,"rental_uris":{"android":"levelo://app?vid=2f9ff268-52d1-4b0d-9639-78d5a64762a3","ios":"levelo://app?vid=2f9ff268-52d1-4b0d-9639-78d5a64762a3"},"vehicle_type_id":"4","last_reported":1749949297,"current_range_meters":4000,"station_id":"ce4bgkp2rcd13ifvqbmg","pricing_plan_id":"cebpf4jnsgd1na2vs0mg"},{"bike_id":"9358016d-890e-42ca-b176-6a5d4517b074","system_id":"levelo_inurba_marseille","lat":43.29615,"lon":5.37256,"is_reserved":false,"is_disabled":false,"rental_uris":{"android":"levelo://app?vid=9358016d-890e-42ca-b176-6a5d4517b074","ios":"levelo://app?vid=9358016d-890e-42ca-b176-6a5d4517b074"},"vehicle_type_id":"4","last_reported":1749949297,"current_range_meters":4800,"station_id":"","pricing_plan_id":"cebpf4jnsgd1na2vs0mg"},{"bike_id":"0f34806d-c940-462d-aedf-6c4edce102eb","system_id":"levelo_inurba_marseille","lat":43.27892,"lon":5.38006,"is_reserved":false,"is_disabled":false,"rental_uris":{"android":"levelo://app?vid=0f34806d-c940-462d-aedf-6c4edce102eb","ios":"levelo://app?vid=0f34806d-c940-462d-aedf-6c4edce102eb"},"vehicle_type_id":"4","last_reported":1749949297,"current_range_meters":4800,"station_id":"ce4bhf92rcd13ifvqf50","pricing_plan_id":"cebpf4jnsgd1na2vs0mg"},{"bike_id":"ad713908-6bf7-48e9-b91f-0f8c596fea86","system_id":"levelo_inurba_marseille","lat":43.30589,"lon":5.37235,"is_reserved":false,"is_disabled":false,"rental_uris":{"android":"levelo://app?vid=ad713908-6bf7-48e9-b91f-0f8c596fea86","ios":"levelo://app?vid=ad713908-6bf7-48e9-b91f-0f8c596fea86"},"vehicle_type_id":"4","last_reported":1749949297,"current_range_meters":5600,"station_id":"ce4bgqh2rcd13ifvqc4g","pricing_plan_id":"cebpf4jnsgd1na2vs0mg"},{"bike_id":"c6192e50-9df3-4555-95f5-ca469b25e358","system_id":"levelo_inurba_marseille","lat":43.27058,"lon":5.40269,"is_reserved":false,"is_disabled":false,"rental_uris":{"android":"levelo://app?vid=c6192e50-9df3-4555-95f5-ca469b25e358","ios":"levelo://app?vid=c6192e50-9df3-4555-95f5-ca469b25e358"},"vehicle_type_id":"4","last_reported":1749949297,"current_range_meters":5600,"station_id":"ce4bhk92rcd13ifvqgc0","pricing_plan_id":"cebpf4jnsgd1na2vs0mg"},{"bike_id":"8f93c185-9fac-44a3-a8da-2f2f3c765466","system_id":"levelo_inurba_marseille","lat":43.31125,"lon":5.37767,"is_reserved":false,"is_disabled":false,"rental_uris":{"android":"levelo://app?vid=8f93c185-9fac-44a3-a8da-2f2f3c765466","ios":"levelo://app?vid=8f93c185-9fac-44a3-a8da-2f2f3c765466"},"vehicle_type_id":"4","last_reported":1749949297,"current_range_meters":6000,"station_id":"ce4bgt92rcd13ifvqcg0","pricing_plan_id":"cebpf4jnsgd1na2vs0mg"},{"bike_id":"f0d1c6d2-55cb-4192-91be-03477d604b89","system_id":"levelo_inurba_marseille","lat":43.28097,"lon":5.37855,"is_reserved":false,"is_disabled":false,"rental_uris":{"android":"levelo://app?vid=f0d1c6d2-55cb-4192-91be-03477d604b89","ios":"levelo://app?vid=f0d1c6d2-55cb-4192-91be-03477d604b89"},"vehicle_type_id":"4","last_reported":1749949297,"current_range_meters":6000,"station_id":"ce4bha12rcd13ifvqee0","pricing_plan_id":"cebpf4jnsgd1na2vs0mg"},{"bike_id":"1dfd4a2e-66e9-4d4d-abaa-14bd20fe8a7c","system_id":"levelo_inurba_marseille","lat":43.2707,"lon":5.42284,"is_reserved":false,"is_disabled":false,"rental_uris":{"android":"levelo://app?vid=1dfd4a2e-66e9-4d4d-abaa-14bd20fe8a7c","ios":"levelo://app?vid=1dfd4a2e-66e9-4d4d-abaa-14bd20fe8a7c"},"vehicle_type_id":"4","last_reported":1749949297,"current_range_meters":6400,"station_id":"ce4bhk92rcd13ifvqgb0","pricing_plan_id":"cebpf4jnsgd1na2vs0mg"},{"bike_id":"29f22ffc-9b36-426c-b99d-60998f17d7a6","system_id":"levelo_inurba_marseille","lat":43.324808,"lon":5.36572,"is_reserved":false,"is_disabled":false,"rental_uris":{"android":"levelo://app?vid=29f22ffc-9b36-426c-b99d-60998f17d7a6","ios":"levelo://app?vid=29f22ffc-9b36-426c-b99d-60998f17d7a6"},"vehicle_type_id":"4","last_reported":1749949297,"current_range_meters":6400,"station_id":"ce4bhs12rcd13ifvqhvg","pricing_plan_id":"cebpf4jnsgd1na2vs0mg"},{"bike_id":"8b3c2db1-663a-42c4-b83c-6621bb1b3fc4","system_id":"levelo_inurba_marseille","lat":43.29949,"lon":5.37877,"is_reserved":false,"is_disabled":false,"rental_uris":{"android":"levelo://app?vid=8b3c2db1-663a-42c4-b83c-6621bb1b3fc4","ios":"levelo://app?vid=8b3c2db1-663a-42c4-b83c-6621bb1b3fc4"},"vehicle_type_id":"4","last_reported":1749949297,"current_range_meters":6800,"station_id":"","pricing_plan_id":"cebpf4jnsgd1na2vs0mg"},{"bike_id":"8412a9e5-495c-4e7e-aee4-97aadcc6e241","system_id":"levelo_inurba_marseille","lat":43.29561,"lon":5.40029,"is_reserved":false,"is_disabled":false,"rental_uris":{"android":"levelo://app?vid=8412a9e5-495c-4e7e-aee4-97aadcc6e241","ios":"levelo://app?vid=8412a9e5-495c-4e7e-aee4-97aadcc6e241"},"vehicle_type_id":"4","last_reported":1749949297,"current_range_meters":6800,"station_id":"","pricing_plan_id":"cebpf4jnsgd1na2vs0mg"},{"bike_id":"89f0a3d3-3c0e-4927-a823-ebd71fc3ff01","system_id":"levelo_inurba_marseille","lat":43.29273,"lon":5.40138,"is_reserved":false,"is_disabled":false,"rental_uris":{"android":"levelo://app?vid=89f0a3d3-3c0e-4927-a823-ebd71fc3ff01","ios":"levelo://app?vid=89f0a3d3-3c0e-4927-a823-ebd71fc3ff01"},"vehicle_type_id":"4","last_reported":1749949297,"current_range_meters":6800,"station_id":"ce4bh312rcd13ifvqdk0","pricing_plan_id":"cebpf4jnsgd1na2vs0mg"},{"bike_id":"58e595c7-22e9-41c1-8f7d-624bd2d765b7","system_id":"levelo_inurba_marseille","lat":43.30275,"lon":5.37712,"is_reserved":false,"is_disabled":false,"rental_uris":{"android":"levelo://app?vid=58e595c7-22e9-41c1-8f7d-624bd2d765b7","ios":"levelo://app?vid=58e595c7-22e9-41c1-8f7d-624bd2d765b7"},"vehicle_type_id":"4","last_reported":1749949297,"current_range_meters":7200,"station_id":"ce4bguh2rcd13ifvqcj0","pricing_plan_id":"cebpf4jnsgd1na2vs0mg"},{"bike_id":"d52beed2-9841-40cc-8cc9-6cca856c9770","system_id":"levelo_inurba_marseille","lat":43.29024,"lon":5.39982,"is_reserved":false,"is_disabled":false,"rental_uris":{"android":"levelo://app?vid=d52beed2-9841-40cc-8cc9-6cca856c9770","ios":"levelo://app?vid=d52beed2-9841-40cc-8cc9-6cca856c9770"},"vehicle_type_id":"4","last_reported":1749949297,"current_range_meters":7200,"station_id":"ce4bh392rcd13ifvqdm0","pricing_plan_id":"cebpf4jnsgd1na2vs0mg"},{"bike_id":"f3ae88b3-cc30-46eb-a70b-ca40315ca933","system_id":"levelo_inurba_marseille","lat":43.27939,"lon":5.41044,"is_reserved":false,"is_disabled":false,"rental_uris":{"android":"levelo://app?vid=f3ae88b3-cc30-46eb-a70b-ca40315ca933","ios":"levelo://app?vid=f3ae88b3-cc30-46eb-a70b-ca40315ca933"},"vehicle_type_id":"4","last_reported":1749949297,"current_range_meters":7200,"station_id":"ce4bhnp2rcd13ifvqh0g","pricing_plan_id":"cebpf4jnsgd1na2vs0mg"},{"bike_id":"2df691cc-de57-4119-867c-4c1d40948c65","system_id":"levelo_inurba_marseille","lat":43.29546,"lon":5.422826,"is_reserved":false,"is_disabled":false,"rental_uris":{"android":"levelo://app?vid=2df691cc-de57-4119-867c-4c1d40948c65","ios":"levelo://app?vid=2df691cc-de57-4119-867c-4c1d40948c65"},"vehicle_type_id":"4","last_reported":1749949297,"current_range_meters":7200,"station_id":"ce4bhph2rcd13ifvqhdg","pricing_plan_id":"cebpf4jnsgd1na2vs0mg"},{"bike_id":"45618421-fdec-439b-84dc-8f4c3f5f9858","system_id":"levelo_inurba_marseille","lat":43.30882,"lon":5.39645,"is_reserved":false,"is_disabled":false,"rental_uris":{"android":"levelo://app?vid=45618421-fdec-439b-84dc-8f4c3f5f9858","ios":"levelo://app?vid=45618421-fdec-439b-84dc-8f4c3f5f9858"},"vehicle_type_id":"4","last_reported":1749949297,"current_range_meters":8000,"station_id":"ce4bh012rcd13ifvqcv0","pricing_plan_id":"cebpf4jnsgd1na2vs0mg"},{"bike_id":"99363504-0213-47d9-b4b4-1301ed078885","system_id":"levelo_inurba_marseille","lat":43.24385,"lon":5.37059,"is_reserved":false,"is_disabled":false,"rental_uris":{"android":"levelo://app?vid=99363504-0213-47d9-b4b4-1301ed078885","ios":"levelo://app?vid=99363504-0213-47d9-b4b4-1301ed078885"},"vehicle_type_id":"4","last_reported":1749949297,"current_range_meters":8000,"station_id":"ce4bhhh2rcd13ifvqfk0","pricing_plan_id":"cebpf4jnsgd1na2vs0mg"},{"bike_id":"ac9daff0-9141-4550-bfcf-52b4a421181e","system_id":"levelo_inurba_marseille","lat":43.32319,"lon":5.40623,"is_reserved":false,"is_disabled":false,"rental_uris":{"android":"levelo://app?vid=ac9daff0-9141-4550-bfcf-52b4a421181e","ios":"levelo://app?vid=ac9daff0-9141-4550-bfcf-52b4a421181e"},"vehicle_type_id":"4","last_reported":1749949297,"current_range_meters":8000,"station_id":"ce4bhq92rcd13ifvqhjg","pricing_plan_id":"cebpf4jnsgd1na2vs0mg"},{"bike_id":"2ab31527-f915-4286-b3a0-0beafd2cdd50","system_id":"levelo_inurba_marseille","lat":43.3,"lon":5.37037,"is_reserved":false,"is_disabled":false,"rental_uris":{"android":"levelo://app?vid=2ab31527-f915-4286-b3a0-0beafd2cdd50","ios":"levelo://app?vid=2ab31527-f915-4286-b3a0-0beafd2cdd50"},"vehicle_type_id":"4","last_reported":1749949297,"current_range_meters":8400,"station_id":"","pricing_plan_id":"cebpf4jnsgd1na2vs0mg"},{"bike_id":"87c270dc-4fcf-4263-8f57-a07ca944f869","system_id":"levelo_inurba_marseille","lat":43.3126,"lon":5.39482,"is_reserved":false,"is_disabled":false,"rental_uris":{"android":"levelo://app?vid=87c270dc-4fcf-4263-8f57-a07ca944f869","ios":"levelo://app?vid=87c270dc-4fcf-4263-8f57-a07ca944f869"},"vehicle_type_id":"4","last_reported":1749949297,"current_range_meters":8800,"station_id":"","pricing_plan_id":"cebpf4jnsgd1na2vs0mg"},{"bike_id":"aa1c0bf0-62de-4738-ad2c-1768a495b061","system_id":"levelo_inurba_marseille","lat":43.284014,"lon":5.375152,"is_reserved":false,"is_disabled":false,"rental_uris":{"android":"levelo://app?vid=aa1c0bf0-62de-4738-ad2c-1768a495b061","ios":"levelo://app?vid=aa1c0bf0-62de-4738-ad2c-1768a495b061"},"vehicle_type_id":"4","last_reported":1749949297,"current_range_meters":8800,"station_id":"ce4bh412rcd13ifvqds0","pricing_plan_id":"cebpf4jnsgd1na2vs0mg"},{"bike_id":"7d5a4f4b-35e0-4d96-9ba9-dd34b2574ca2","system_id":"levelo_inurba_marseille","lat":43.31707,"lon":5.40455,"is_reserved":false,"is_disabled":false,"rental_uris":{"android":"levelo://app?vid=7d5a4f4b-35e0-4d96-9ba9-dd34b2574ca2","ios":"levelo://app?vid=7d5a4f4b-35e0-4d96-9ba9-dd34b2574ca2"},"vehicle_type_id":"4","last_reported":1749949297,"current_range_meters":9200,"station_id":"ce4bh012rcd13ifvqd00","pricing_plan_id":"cebpf4jnsgd1na2vs0mg"},{"bike_id":"7f3a60c0-0971-4538-9b06-fb77d68a29f7","system_id":"levelo_inurba_marseille","lat":43.292584,"lon":5.409069,"is_reserved":false,"is_disabled":false,"rental_uris":{"android":"levelo://app?vid=7f3a60c0-0971-4538-9b06-fb77d68a29f7","ios":"levelo://app?vid=7f3a60c0-0971-4538-9b06-fb77d68a29f7"},"vehicle_type_id":"4","last_reported":1749949297,"current_range_meters":9200,"station_id":"ce4bh192rcd13ifvqdc0","pricing_plan_id":"cebpf4jnsgd1na2vs0mg"},{"bike_id":"4848fab6-1e68-4295-8e27-9c424dfb6f51","system_id":"levelo_inurba_marseille","lat":43.28573,"lon":5.39503,"is_reserved":false,"is_disabled":false,"rental_uris":{"android":"levelo://app?vid=4848fab6-1e68-4295-8e27-9c424dfb6f51","ios":"levelo://app?vid=4848fab6-1e68-4295-8e27-9c424dfb6f51"},"vehicle_type_id":"4","last_reported":1749949297,"current_range_meters":9200,"station_id":"ce4bh292rcd13ifvqdg0","pricing_plan_id":"cebpf4jnsgd1na2vs0mg"},{"bike_id":"7a537d98-1b02-4ff5-8391-57eb2d6c9e36","system_id":"levelo_inurba_marseille","lat":43.29562,"lon":5.42255,"is_reserved":false,"is_disabled":false,"rental_uris":{"android":"levelo://app?vid=7a537d98-1b02-4ff5-8391-57eb2d6c9e36","ios":"levelo://app?vid=7a537d98-1b02-4ff5-8391-57eb2d6c9e36"},"vehicle_type_id":"4","last_reported":1749949297,"current_range_meters":9200,"station_id":"ce4bhph2rcd13ifvqhdg","pricing_plan_id":"cebpf4jnsgd1na2vs0mg"},{"bike_id":"f5164c47-9914-4652-8255-fd51245e3177","system_id":"levelo_inurba_marseille","lat":43.29152,"lon":5.40036,"is_reserved":false,"is_disabled":false,"rental_uris":{"android":"levelo://app?vid=f5164c47-9914-4652-8255-fd51245e3177","ios":"levelo://app?vid=f5164c47-9914-4652-8255-fd51245e3177"},"vehicle_type_id":"4","last_reported":1749949297,"current_range_meters":9600,"station_id":"ce4bh392rcd13ifvqdm0","pricing_plan_id":"cebpf4jnsgd1na2vs0mg"},{"bike_id":"530789d8-dd00-4c05-9e60-d98c9988abe1","system_id":"levelo_inurba_marseille","lat":43.26501,"lon":5.39539,"is_reserved":false,"is_disabled":false,"rental_uris":{"android":"levelo://app?vid=530789d8-dd00-4c05-9e60-d98c9988abe1","ios":"levelo://app?vid=530789d8-dd00-4c05-9e60-d98c9988abe1"},"vehicle_type_id":"4","last_reported":1749949297,"current_range_meters":9600,"station_id":"ce4bhi12rcd13ifvqfq0","pricing_plan_id":"cebpf4jnsgd1na2vs0mg"},{"bike_id":"9ae45298-c4ba-40b8-999e-4dfbaa268abc","system_id":"levelo_inurba_marseille","lat":43.23149,"lon":5.43723,"is_reserved":false,"is_disabled":false,"rental_uris":{"android":"levelo://app?vid=9ae45298-c4ba-40b8-999e-4dfbaa268abc","ios":"levelo://app?vid=9ae45298-c4ba-40b8-999e-4dfbaa268abc"},"vehicle_type_id":"4","last_reported":1749949297,"current_range_meters":9600,"station_id":"ce4bhmp2rcd13ifvqgog","pricing_plan_id":"cebpf4jnsgd1na2vs0mg"},{"bike_id":"a266b98f-6a9c-48e6-b09c-ab2f353cf718","system_id":"levelo_inurba_marseille","lat":43.3171,"lon":5.43706,"is_reserved":false,"is_disabled":false,"rental_uris":{"android":"levelo://app?vid=a266b98f-6a9c-48e6-b09c-ab2f353cf718","ios":"levelo://app?vid=a266b98f-6a9c-48e6-b09c-ab2f353cf718"},"vehicle_type_id":"4","last_reported":1749949297,"current_range_meters":9600,"station_id":"ce4bhp92rcd13ifvqhcg","pricing_plan_id":"cebpf4jnsgd1na2vs0mg"},{"bike_id":"6a51cc1a-2c44-46ae-b060-578ee8d4b50b","system_id":"levelo_inurba_marseille","lat":43.30931,"lon":5.40146,"is_reserved":false,"is_disabled":false,"rental_uris":{"android":"levelo://app?vid=6a51cc1a-2c44-46ae-b060-578ee8d4b50b","ios":"levelo://app?vid=6a51cc1a-2c44-46ae-b060-578ee8d4b50b"},"vehicle_type_id":"4","last_reported":1749949297,"current_range_meters":10000,"station_id":"ce4bgvp2rcd13ifvqct0","pricing_plan_id":"cebpf4jnsgd1na2vs0mg"},{"bike_id":"7f8eda5f-bb88-436a-b31e-c347870c7c42","system_id":"levelo_inurba_marseille","lat":43.29884,"lon":5.39722,"is_reserved":false,"is_disabled":false,"rental_uris":{"android":"levelo://app?vid=7f8eda5f-bb88-436a-b31e-c347870c7c42","ios":"levelo://app?vid=7f8eda5f-bb88-436a-b31e-c347870c7c42"},"vehicle_type_id":"4","last_reported":1749949297,"current_range_meters":10000,"station_id":"ce4bh0h2rcd13ifvqd50","pricing_plan_id":"cebpf4jnsgd1na2vs0mg"},{"bike_id":"44da766d-db36-422b-9e2f-08ffbc910442","system_id":"levelo_inurba_marseille","lat":43.27943,"lon":5.41049,"is_reserved":false,"is_disabled":false,"rental_uris":{"android":"levelo://app?vid=44da766d-db36-422b-9e2f-08ffbc910442","ios":"levelo://app?vid=44da766d-db36-422b-9e2f-08ffbc910442"},"vehicle_type_id":"4","last_reported":1749949297,"current_range_meters":10000,"station_id":"ce4bhnp2rcd13ifvqh0g","pricing_plan_id":"cebpf4jnsgd1na2vs0mg"},{"bike_id":"2eb2516b-5f9f-4f58-8493-07049b393727","system_id":"levelo_inurba_marseille","lat":43.33724,"lon":5.39181,"is_reserved":false,"is_disabled":false,"rental_uris":{"android":"levelo://app?vid=2eb2516b-5f9f-4f58-8493-07049b393727","ios":"levelo://app?vid=2eb2516b-5f9f-4f58-8493-07049b393727"},"vehicle_type_id":"4","last_reported":1749949297,"current_range_meters":10000,"station_id":"ce4bhr92rcd13ifvqhsg","pricing_plan_id":"cebpf4jnsgd1na2vs0mg"},{"bike_id":"125fd246-65af-4200-bfac-573557c617be","system_id":"levelo_inurba_marseille","lat":43.29254,"lon":5.37624,"is_reserved":false,"is_disabled":false,"rental_uris":{"android":"levelo://app?vid=125fd246-65af-4200-bfac-573557c617be","ios":"levelo://app?vid=125fd246-65af-4200-bfac-573557c617be"},"vehicle_type_id":"4","last_reported":1749949297,"current_range_meters":10800,"station_id":"ce4bgi12rcd13ifvqb80","pricing_plan_id":"cebpf4jnsgd1na2vs0mg"},{"bike_id":"c0690f94-165c-4d98-86ca-1ff351e9c901","system_id":"levelo_inurba_marseille","lat":43.30608,"lon":5.37227,"is_reserved":false,"is_disabled":false,"rental_uris":{"android":"levelo://app?vid=c0690f94-165c-4d98-86ca-1ff351e9c901","ios":"levelo://app?vid=c0690f94-165c-4d98-86ca-1ff351e9c901"},"vehicle_type_id":"4","last_reported":1749949297,"current_range_meters":10800,"station_id":"ce4bgqh2rcd13ifvqc4g","pricing_plan_id":"cebpf4jnsgd1na2vs0mg"},{"bike_id":"7a11dc11-7c4a-4f9f-b03d-16b4bbec9039","system_id":"levelo_inurba_marseille","lat":43.29868,"lon":5.39747,"is_reserved":false,"is_disabled":false,"rental_uris":{"android":"levelo://app?vid=7a11dc11-7c4a-4f9f-b03d-16b4bbec9039","ios":"levelo://app?vid=7a11dc11-7c4a-4f9f-b03d-16b4bbec9039"},"vehicle_type_id":"4","last_reported":1749949297,"current_range_meters":10800,"station_id":"ce4bh0h2rcd13ifvqd50","pricing_plan_id":"cebpf4jnsgd1na2vs0mg"},{"bike_id":"9eafa8bc-a1bd-4682-9c85-cdd4765075c9","system_id":"levelo_inurba_marseille","lat":43.29874,"lon":5.39741,"is_reserved":false,"is_disabled":false,"rental_uris":{"android":"levelo://app?vid=9eafa8bc-a1bd-4682-9c85-cdd4765075c9","ios":"levelo://app?vid=9eafa8bc-a1bd-4682-9c85-cdd4765075c9"},"vehicle_type_id":"4","last_reported":1749949297,"current_range_meters":10800,"station_id":"ce4bh0h2rcd13ifvqd50","pricing_plan_id":"cebpf4jnsgd1na2vs0mg"},{"bike_id":"1f1db22c-bfab-4ce8-8eeb-78ef73344a58","system_id":"levelo_inurba_marseille","lat":43.29033,"lon":5.39961,"is_reserved":false,"is_disabled":false,"rental_uris":{"android":"levelo://app?vid=1f1db22c-bfab-4ce8-8eeb-78ef73344a58","ios":"levelo://app?vid=1f1db22c-bfab-4ce8-8eeb-78ef73344a58"},"vehicle_type_id":"4","last_reported":1749949297,"current_range_meters":10800,"station_id":"ce4bh392rcd13ifvqdm0","pricing_plan_id":"cebpf4jnsgd1na2vs0mg"},{"bike_id":"a1e3c796-d0ce-44fb-957a-cff5ec21e82d","system_id":"levelo_inurba_marseille","lat":43.29027,"lon":5.37545,"is_reserved":false,"is_disabled":false,"rental_uris":{"android":"levelo://app?vid=a1e3c796-d0ce-44fb-957a-cff5ec21e82d","ios":"levelo://app?vid=a1e3c796-d0ce-44fb-957a-cff5ec21e82d"},"vehicle_type_id":"4","last_reported":1749949297,"current_range_meters":10800,"station_id":"ce4bh692rcd13ifvqe90","pricing_plan_id":"cebpf4jnsgd1na2vs0mg"},{"bike_id":"e7a714f9-a4c1-473b-8d06-e453b1439474","system_id":"levelo_inurba_marseille","lat":43.31724,"lon":5.43692,"is_reserved":false,"is_disabled":false,"rental_uris":{"android":"levelo://app?vid=e7a714f9-a4c1-473b-8d06-e453b1439474","ios":"levelo://app?vid=e7a714f9-a4c1-473b-8d06-e453b1439474"},"vehicle_type_id":"4","last_reported":1749949297,"current_range_meters":10800,"station_id":"ce4bhp92rcd13ifvqhcg","pricing_plan_id":"cebpf4jnsgd1na2vs0mg"},{"bike_id":"507c5d85-77a4-4cbc-a02c-82380c8bfef1","system_id":"levelo_inurba_marseille","lat":43.31121,"lon":5.37767,"is_reserved":false,"is_disabled":false,"rental_uris":{"android":"levelo://app?vid=507c5d85-77a4-4cbc-a02c-82380c8bfef1","ios":"levelo://app?vid=507c5d85-77a4-4cbc-a02c-82380c8bfef1"},"vehicle_type_id":"4","last_reported":1749949297,"current_range_meters":11200,"station_id":"ce4bgt92rcd13ifvqcg0","pricing_plan_id":"cebpf4jnsgd1na2vs0mg"},{"bike_id":"3c89b4c1-d962-4ac8-a459-b4ef2d09e4ef","system_id":"levelo_inurba_marseille","lat":43.30665,"lon":5.40066,"is_reserved":false,"is_disabled":false,"rental_uris":{"android":"levelo://app?vid=3c89b4c1-d962-4ac8-a459-b4ef2d09e4ef","ios":"levelo://app?vid=3c89b4c1-d962-4ac8-a459-b4ef2d09e4ef"},"vehicle_type_id":"4","last_reported":1749949297,"current_range_meters":11200,"station_id":"ce4bh112rcd13ifvqda0","pricing_plan_id":"cebpf4jnsgd1na2vs0mg"},{"bike_id":"7540981b-5d6e-41a2-bba7-246ee5f05e68","system_id":"levelo_inurba_marseille","lat":43.28702,"lon":5.37399,"is_reserved":false,"is_disabled":false,"rental_uris":{"android":"levelo://app?vid=7540981b-5d6e-41a2-bba7-246ee5f05e68","ios":"levelo://app?vid=7540981b-5d6e-41a2-bba7-246ee5f05e68"},"vehicle_type_id":"4","last_reported":1749949297,"current_range_meters":11200,"station_id":"ce4bh3p2rcd13ifvqdq0","pricing_plan_id":"cebpf4jnsgd1na2vs0mg"},{"bike_id":"a47d0232-dff5-45d9-85fc-26077ef6d9a6","system_id":"levelo_inurba_marseille","lat":43.25121,"lon":5.40327,"is_reserved":false,"is_disabled":false,"rental_uris":{"android":"levelo://app?vid=a47d0232-dff5-45d9-85fc-26077ef6d9a6","ios":"levelo://app?vid=a47d0232-dff5-45d9-85fc-26077ef6d9a6"},"vehicle_type_id":"4","last_reported":1749949297,"current_range_meters":11200,"station_id":"ce4bhlh2rcd13ifvqgig","pricing_plan_id":"cebpf4jnsgd1na2vs0mg"},{"bike_id":"d551144f-e146-4843-928a-0c9d2a4e26d5","system_id":"levelo_inurba_marseille","lat":43.28702,"lon":5.39979,"is_reserved":false,"is_disabled":false,"rental_uris":{"android":"levelo://app?vid=d551144f-e146-4843-928a-0c9d2a4e26d5","ios":"levelo://app?vid=d551144f-e146-4843-928a-0c9d2a4e26d5"},"vehicle_type_id":"4","last_reported":1749949297,"current_range_meters":11200,"station_id":"ce4bho92rcd13ifvqh3g","pricing_plan_id":"cebpf4jnsgd1na2vs0mg"},{"bike_id":"95147544-c26a-4310-a105-e9299bb0f59a","system_id":"levelo_inurba_marseille","lat":43.2953,"lon":5.40021,"is_reserved":false,"is_disabled":false,"rental_uris":{"android":"levelo://app?vid=95147544-c26a-4310-a105-e9299bb0f59a","ios":"levelo://app?vid=95147544-c26a-4310-a105-e9299bb0f59a"},"vehicle_type_id":"4","last_reported":1749949297,"current_range_meters":11600,"station_id":"","pricing_plan_id":"cebpf4jnsgd1na2vs0mg"},{"bike_id":"df1254ac-0833-4d4e-87e1-bdd09ea2bd36","system_id":"levelo_inurba_marseille","lat":43.29532,"lon":5.38437,"is_reserved":false,"is_disabled":false,"rental_uris":{"android":"levelo://app?vid=df1254ac-0833-4d4e-87e1-bdd09ea2bd36","ios":"levelo://app?vid=df1254ac-0833-4d4e-87e1-bdd09ea2bd36"},"vehicle_type_id":"4","last_reported":1749949297,"current_range_meters":11600,"station_id":"","pricing_plan_id":"cebpf4jnsgd1na2vs0mg"},{"bike_id":"d2729172-f4bf-4eb8-9964-c217269a3492","system_id":"levelo_inurba_marseille","lat":43.21228,"lon":5.35094,"is_reserved":false,"is_disabled":false,"rental_uris":{"android":"levelo://app?vid=d2729172-f4bf-4eb8-9964-c217269a3492","ios":"levelo://app?vid=d2729172-f4bf-4eb8-9964-c217269a3492"},"vehicle_type_id":"4","last_reported":1749949297,"current_range_meters":11600,"station_id":"","pricing_plan_id":"cebpf4jnsgd1na2vs0mg"},{"bike_id":"dbe1ca70-dcc2-44ca-825e-8088b4f52fb9","system_id":"levelo_inurba_marseille","lat":43.29272,"lon":5.40899,"is_reserved":false,"is_disabled":false,"rental_uris":{"android":"levelo://app?vid=dbe1ca70-dcc2-44ca-825e-8088b4f52fb9","ios":"levelo://app?vid=dbe1ca70-dcc2-44ca-825e-8088b4f52fb9"},"vehicle_type_id":"4","last_reported":1749949297,"current_range_meters":11600,"station_id":"ce4bh192rcd13ifvqdc0","pricing_plan_id":"cebpf4jnsgd1na2vs0mg"},{"bike_id":"9c76f206-28ee-441c-bb61-11a6329ac7d3","system_id":"levelo_inurba_marseille","lat":43.29281,"lon":5.40134,"is_reserved":false,"is_disabled":false,"rental_uris":{"android":"levelo://app?vid=9c76f206-28ee-441c-bb61-11a6329ac7d3","ios":"levelo://app?vid=9c76f206-28ee-441c-bb61-11a6329ac7d3"},"vehicle_type_id":"4","last_reported":1749949297,"current_range_meters":11600,"station_id":"ce4bh312rcd13ifvqdk0","pricing_plan_id":"cebpf4jnsgd1na2vs0mg"},{"bike_id":"ea625ec6-b745-4aa8-8194-9c73c74d4fed","system_id":"levelo_inurba_marseille","lat":43.25106,"lon":5.40346,"is_reserved":false,"is_disabled":false,"rental_uris":{"android":"levelo://app?vid=ea625ec6-b745-4aa8-8194-9c73c74d4fed","ios":"levelo://app?vid=ea625ec6-b745-4aa8-8194-9c73c74d4fed"},"vehicle_type_id":"4","last_reported":1749949297,"current_range_meters":11600,"station_id":"ce4bhlh2rcd13ifvqgig","pricing_plan_id":"cebpf4jnsgd1na2vs0mg"},{"bike_id":"bd081d41-5eed-4495-82ed-9e27cd112239","system_id":"levelo_inurba_marseille","lat":43.249488,"lon":5.396613,"is_reserved":false,"is_disabled":false,"rental_uris":{"android":"levelo://app?vid=bd081d41-5eed-4495-82ed-9e27cd112239","ios":"levelo://app?vid=bd081d41-5eed-4495-82ed-9e27cd112239"},"vehicle_type_id":"4","last_reported":1749949297,"current_range_meters":12000,"station_id":"","pricing_plan_id":"cebpf4jnsgd1na2vs0mg"},{"bike_id":"61ddc884-606a-4cf1-a29a-a150c490ec86","system_id":"levelo_inurba_marseille","lat":43.231824,"lon":5.436349,"is_reserved":false,"is_disabled":false,"rental_uris":{"android":"levelo://app?vid=61ddc884-606a-4cf1-a29a-a150c490ec86","ios":"levelo://app?vid=61ddc884-606a-4cf1-a29a-a150c490ec86"},"vehicle_type_id":"4","last_reported":1749949297,"current_range_meters":12400,"station_id":"ce4bhmp2rcd13ifvqgog","pricing_plan_id":"cebpf4jnsgd1na2vs0mg"},{"bike_id":"9c6eec8e-430e-486c-bebf-d49f1c8d2dfd","system_id":"levelo_inurba_marseille","lat":43.27495,"lon":5.42449,"is_reserved":false,"is_disabled":false,"rental_uris":{"android":"levelo://app?vid=9c6eec8e-430e-486c-bebf-d49f1c8d2dfd","ios":"levelo://app?vid=9c6eec8e-430e-486c-bebf-d49f1c8d2dfd"},"vehicle_type_id":"4","last_reported":1749949297,"current_range_meters":12400,"station_id":"ce4bhn92rcd13ifvqgrg","pricing_plan_id":"cebpf4jnsgd1na2vs0mg"},{"bike_id":"e572338c-06db-4b9a-bde9-0f72543928e0","system_id":"levelo_inurba_marseille","lat":43.28709,"lon":5.39992,"is_reserved":false,"is_disabled":false,"rental_uris":{"android":"levelo://app?vid=e572338c-06db-4b9a-bde9-0f72543928e0","ios":"levelo://app?vid=e572338c-06db-4b9a-bde9-0f72543928e0"},"vehicle_type_id":"4","last_reported":1749949297,"current_range_meters":12400,"station_id":"ce4bho92rcd13ifvqh3g","pricing_plan_id":"cebpf4jnsgd1na2vs0mg"},{"bike_id":"00caa925-4ae6-4edc-8f78-c05a0c6d4cdd","system_id":"levelo_inurba_marseille","lat":43.2956,"lon":5.42316,"is_reserved":false,"is_disabled":false,"rental_uris":{"android":"levelo://app?vid=00caa925-4ae6-4edc-8f78-c05a0c6d4cdd","ios":"levelo://app?vid=00caa925-4ae6-4edc-8f78-c05a0c6d4cdd"},"vehicle_type_id":"4","last_reported":1749949297,"current_range_meters":12400,"station_id":"ce4bhph2rcd13ifvqhdg","pricing_plan_id":"cebpf4jnsgd1na2vs0mg"},{"bike_id":"13900630-84d4-4155-b155-5c1e9ce2fce9","system_id":"levelo_inurba_marseille","lat":43.29549,"lon":5.42287,"is_reserved":false,"is_disabled":false,"rental_uris":{"android":"levelo://app?vid=13900630-84d4-4155-b155-5c1e9ce2fce9","ios":"levelo://app?vid=13900630-84d4-4155-b155-5c1e9ce2fce9"},"vehicle_type_id":"4","last_reported":1749949297,"current_range_meters":12400,"station_id":"ce4bhph2rcd13ifvqhdg","pricing_plan_id":"cebpf4jnsgd1na2vs0mg"},{"bike_id":"3ba53083-f560-4fb5-b3cc-01a71156c6ba","system_id":"levelo_inurba_marseille","lat":43.23196,"lon":5.35547,"is_reserved":false,"is_disabled":false,"rental_uris":{"android":"levelo://app?vid=3ba53083-f560-4fb5-b3cc-01a71156c6ba","ios":"levelo://app?vid=3ba53083-f560-4fb5-b3cc-01a71156c6ba"},"vehicle_type_id":"4","last_reported":1749949297,"current_range_meters":12400,"station_id":"ce4bhu92rcd13ifvqi70","pricing_plan_id":"cebpf4jnsgd1na2vs0mg"},{"bike_id":"2f69de0e-b761-418b-a0cf-f35c2fe7133f","system_id":"levelo_inurba_marseille","lat":43.30246,"lon":5.40064,"is_reserved":false,"is_disabled":false,"rental_uris":{"android":"levelo://app?vid=2f69de0e-b761-418b-a0cf-f35c2fe7133f","ios":"levelo://app?vid=2f69de0e-b761-418b-a0cf-f35c2fe7133f"},"vehicle_type_id":"4","last_reported":1749949297,"current_range_meters":12800,"station_id":"ce4bgvh2rcd13ifvqcs0","pricing_plan_id":"cebpf4jnsgd1na2vs0mg"},{"bike_id":"b0c793c7-5773-474f-b103-f0d033f923ec","system_id":"levelo_inurba_marseille","lat":43.3025,"lon":5.40092,"is_reserved":false,"is_disabled":false,"rental_uris":{"android":"levelo://app?vid=b0c793c7-5773-474f-b103-f0d033f923ec","ios":"levelo://app?vid=b0c793c7-5773-474f-b103-f0d033f923ec"},"vehicle_type_id":"4","last_reported":1749949297,"current_range_meters":12800,"station_id":"ce4bgvh2rcd13ifvqcs0","pricing_plan_id":"cebpf4jnsgd1na2vs0mg"},{"bike_id":"17a55d39-ff85-46ee-8e50-ad575e65b847","system_id":"levelo_inurba_marseille","lat":43.3027,"lon":5.4004,"is_reserved":false,"is_disabled":false,"rental_uris":{"android":"levelo://app?vid=17a55d39-ff85-46ee-8e50-ad575e65b847","ios":"levelo://app?vid=17a55d39-ff85-46ee-8e50-ad575e65b847"},"vehicle_type_id":"4","last_reported":1749949297,"current_range_meters":12800,"station_id":"ce4bgvh2rcd13ifvqcs0","pricing_plan_id":"cebpf4jnsgd1na2vs0mg"},{"bike_id":"09d449c9-989d-41d1-ab97-3cdf6e42e59f","system_id":"levelo_inurba_marseille","lat":43.3091,"lon":5.40159,"is_reserved":false,"is_disabled":false,"rental_uris":{"android":"levelo://app?vid=09d449c9-989d-41d1-ab97-3cdf6e42e59f","ios":"levelo://app?vid=09d449c9-989d-41d1-ab97-3cdf6e42e59f"},"vehicle_type_id":"4","last_reported":1749949297,"current_range_meters":12800,"station_id":"ce4bgvp2rcd13ifvqct0","pricing_plan_id":"cebpf4jnsgd1na2vs0mg"},{"bike_id":"6f8a8381-5d0c-4077-85b3-67a419035d44","system_id":"levelo_inurba_marseille","lat":43.2987,"lon":5.39777,"is_reserved":false,"is_disabled":false,"rental_uris":{"android":"levelo://app?vid=6f8a8381-5d0c-4077-85b3-67a419035d44","ios":"levelo://app?vid=6f8a8381-5d0c-4077-85b3-67a419035d44"},"vehicle_type_id":"4","last_reported":1749949297,"current_range_meters":12800,"station_id":"ce4bh0h2rcd13ifvqd50","pricing_plan_id":"cebpf4jnsgd1na2vs0mg"},{"bike_id":"7f5bbc91-45ca-4fae-aecf-411214e75abf","system_id":"levelo_inurba_marseille","lat":43.30649,"lon":5.40084,"is_reserved":false,"is_disabled":false,"rental_uris":{"android":"levelo://app?vid=7f5bbc91-45ca-4fae-aecf-411214e75abf","ios":"levelo://app?vid=7f5bbc91-45ca-4fae-aecf-411214e75abf"},"vehicle_type_id":"4","last_reported":1749949297,"current_range_meters":12800,"station_id":"ce4bh112rcd13ifvqda0","pricing_plan_id":"cebpf4jnsgd1na2vs0mg"},{"bike_id":"58d98299-8de2-4acd-a9bb-ff16be875867","system_id":"levelo_inurba_marseille","lat":43.25111,"lon":5.40324,"is_reserved":false,"is_disabled":false,"rental_uris":{"android":"levelo://app?vid=58d98299-8de2-4acd-a9bb-ff16be875867","ios":"levelo://app?vid=58d98299-8de2-4acd-a9bb-ff16be875867"},"vehicle_type_id":"4","last_reported":1749949297,"current_range_meters":12800,"station_id":"ce4bhlh2rcd13ifvqgig","pricing_plan_id":"cebpf4jnsgd1na2vs0mg"},{"bike_id":"b3f8d6a0-7082-4c22-9f20-414b32dd61c5","system_id":"levelo_inurba_marseille","lat":43.24952,"lon":5.38966,"is_reserved":false,"is_disabled":false,"rental_uris":{"android":"levelo://app?vid=b3f8d6a0-7082-4c22-9f20-414b32dd61c5","ios":"levelo://app?vid=b3f8d6a0-7082-4c22-9f20-414b32dd61c5"},"vehicle_type_id":"4","last_reported":1749949297,"current_range_meters":13600,"station_id":"","pricing_plan_id":"cebpf4jnsgd1na2vs0mg"},{"bike_id":"03c0b009-0c20-416f-b016-e7652975e303","system_id":"levelo_inurba_marseille","lat":43.31159,"lon":5.38725,"is_reserved":false,"is_disabled":false,"rental_uris":{"android":"levelo://app?vid=03c0b009-0c20-416f-b016-e7652975e303","ios":"levelo://app?vid=03c0b009-0c20-416f-b016-e7652975e303"},"vehicle_type_id":"4","last_reported":1749949297,"current_range_meters":13600,"station_id":"ce4bgv12rcd13ifvqcp0","pricing_plan_id":"cebpf4jnsgd1na2vs0mg"},{"bike_id":"5c21e5b2-da0b-4690-b93f-46bdbdfa01b9","system_id":"levelo_inurba_marseille","lat":43.30253,"lon":5.40103,"is_reserved":false,"is_disabled":false,"rental_uris":{"android":"levelo://app?vid=5c21e5b2-da0b-4690-b93f-46bdbdfa01b9","ios":"levelo://app?vid=5c21e5b2-da0b-4690-b93f-46bdbdfa01b9"},"vehicle_type_id":"4","last_reported":1749949297,"current_range_meters":13600,"station_id":"ce4bgvh2rcd13ifvqcs0","pricing_plan_id":"cebpf4jnsgd1na2vs0mg"},{"bike_id":"7db4c3e7-8cae-44b2-ae41-6be5b0622aa6","system_id":"levelo_inurba_marseille","lat":43.301239,"lon":5.39855,"is_reserved":false,"is_disabled":false,"rental_uris":{"android":"levelo://app?vid=7db4c3e7-8cae-44b2-ae41-6be5b0622aa6","ios":"levelo://app?vid=7db4c3e7-8cae-44b2-ae41-6be5b0622aa6"},"vehicle_type_id":"4","last_reported":1749949297,"current_range_meters":13600,"station_id":"ce4bh0h2rcd13ifvqd40","pricing_plan_id":"cebpf4jnsgd1na2vs0mg"},{"bike_id":"f8e1da3d-81aa-4f22-834f-caefbb30291b","system_id":"levelo_inurba_marseille","lat":43.29557,"lon":5.42295,"is_reserved":false,"is_disabled":false,"rental_uris":{"android":"levelo://app?vid=f8e1da3d-81aa-4f22-834f-caefbb30291b","ios":"levelo://app?vid=f8e1da3d-81aa-4f22-834f-caefbb30291b"},"vehicle_type_id":"4","last_reported":1749949297,"current_range_meters":13600,"station_id":"ce4bhph2rcd13ifvqhdg","pricing_plan_id":"cebpf4jnsgd1na2vs0mg"},{"bike_id":"7ef51ec5-c79d-472f-993e-127ecf00557d","system_id":"levelo_inurba_marseille","lat":43.29532,"lon":5.38549,"is_reserved":false,"is_disabled":false,"rental_uris":{"android":"levelo://app?vid=7ef51ec5-c79d-472f-993e-127ecf00557d","ios":"levelo://app?vid=7ef51ec5-c79d-472f-993e-127ecf00557d"},"vehicle_type_id":"4","last_reported":1749949297,"current_range_meters":14000,"station_id":"ce4bgih2rcd13ifvqba0","pricing_plan_id":"cebpf4jnsgd1na2vs0mg"},{"bike_id":"f84f3504-4b0e-49ff-ac98-1faa050246c4","system_id":"levelo_inurba_marseille","lat":43.30904,"lon":5.40172,"is_reserved":false,"is_disabled":false,"rental_uris":{"android":"levelo://app?vid=f84f3504-4b0e-49ff-ac98-1faa050246c4","ios":"levelo://app?vid=f84f3504-4b0e-49ff-ac98-1faa050246c4"},"vehicle_type_id":"4","last_reported":1749949297,"current_range_meters":14000,"station_id":"ce4bgvp2rcd13ifvqct0","pricing_plan_id":"cebpf4jnsgd1na2vs0mg"},{"bike_id":"a8248c50-4a15-4972-9767-e48099f65181","system_id":"levelo_inurba_marseille","lat":43.31326,"lon":5.39694,"is_reserved":false,"is_disabled":false,"rental_uris":{"android":"levelo://app?vid=a8248c50-4a15-4972-9767-e48099f65181","ios":"levelo://app?vid=a8248c50-4a15-4972-9767-e48099f65181"},"vehicle_type_id":"4","last_reported":1749949297,"current_range_meters":14000,"station_id":"ce4bgvp2rcd13ifvqcu0","pricing_plan_id":"cebpf4jnsgd1na2vs0mg"},{"bike_id":"6665630c-26b4-423c-8b6e-94e5a2ae2912","system_id":"levelo_inurba_marseille","lat":43.3066,"lon":5.40066,"is_reserved":false,"is_disabled":false,"rental_uris":{"android":"levelo://app?vid=6665630c-26b4-423c-8b6e-94e5a2ae2912","ios":"levelo://app?vid=6665630c-26b4-423c-8b6e-94e5a2ae2912"},"vehicle_type_id":"4","last_reported":1749949297,"current_range_meters":14000,"station_id":"ce4bh112rcd13ifvqda0","pricing_plan_id":"cebpf4jnsgd1na2vs0mg"},{"bike_id":"9137e496-b1b2-4e17-af66-a72384857ce9","system_id":"levelo_inurba_marseille","lat":43.28129,"lon":5.37842,"is_reserved":false,"is_disabled":false,"rental_uris":{"android":"levelo://app?vid=9137e496-b1b2-4e17-af66-a72384857ce9","ios":"levelo://app?vid=9137e496-b1b2-4e17-af66-a72384857ce9"},"vehicle_type_id":"4","last_reported":1749949297,"current_range_meters":14000,"station_id":"ce4bha12rcd13ifvqee0","pricing_plan_id":"cebpf4jnsgd1na2vs0mg"},{"bike_id":"a8283606-6fdf-49b2-991a-62bc6fc9988a","system_id":"levelo_inurba_marseille","lat":43.22511,"lon":5.34758,"is_reserved":false,"is_disabled":false,"rental_uris":{"android":"levelo://app?vid=a8283606-6fdf-49b2-991a-62bc6fc9988a","ios":"levelo://app?vid=a8283606-6fdf-49b2-991a-62bc6fc9988a"},"vehicle_type_id":"4","last_reported":1749949297,"current_range_meters":14000,"station_id":"st_cvj5dfep6f1abm77gieg","pricing_plan_id":"cebpf4jnsgd1na2vs0mg"},{"bike_id":"82e60a7c-618f-42a6-88ba-e5bdb42b1470","system_id":"levelo_inurba_marseille","lat":43.26527,"lon":5.3908,"is_reserved":false,"is_disabled":false,"rental_uris":{"android":"levelo://app?vid=82e60a7c-618f-42a6-88ba-e5bdb42b1470","ios":"levelo://app?vid=82e60a7c-618f-42a6-88ba-e5bdb42b1470"},"vehicle_type_id":"4","last_reported":1749949297,"current_range_meters":14400,"station_id":"","pricing_plan_id":"cebpf4jnsgd1na2vs0mg"},{"bike_id":"a5ee4afe-a8c2-43ea-a8c6-a0a152038509","system_id":"levelo_inurba_marseille","lat":43.24997,"lon":5.38946,"is_reserved":false,"is_disabled":false,"rental_uris":{"android":"levelo://app?vid=a5ee4afe-a8c2-43ea-a8c6-a0a152038509","ios":"levelo://app?vid=a5ee4afe-a8c2-43ea-a8c6-a0a152038509"},"vehicle_type_id":"4","last_reported":1749949297,"current_range_meters":14400,"station_id":"ce4bhgp2rcd13ifvqfd0","pricing_plan_id":"cebpf4jnsgd1na2vs0mg"},{"bike_id":"88f784f9-c126-49d9-b85b-752a9ff0714a","system_id":"levelo_inurba_marseille","lat":43.25102,"lon":5.40326,"is_reserved":false,"is_disabled":false,"rental_uris":{"android":"levelo://app?vid=88f784f9-c126-49d9-b85b-752a9ff0714a","ios":"levelo://app?vid=88f784f9-c126-49d9-b85b-752a9ff0714a"},"vehicle_type_id":"4","last_reported":1749949297,"current_range_meters":14400,"station_id":"ce4bhlh2rcd13ifvqgig","pricing_plan_id":"cebpf4jnsgd1na2vs0mg"},{"bike_id":"dc1e1319-b0f9-4bfb-9dd0-07f4d0186ec2","system_id":"levelo_inurba_marseille","lat":43.26235,"lon":5.40442,"is_reserved":false,"is_disabled":false,"rental_uris":{"android":"levelo://app?vid=dc1e1319-b0f9-4bfb-9dd0-07f4d0186ec2","ios":"levelo://app?vid=dc1e1319-b0f9-4bfb-9dd0-07f4d0186ec2"},"vehicle_type_id":"4","last_reported":1749949297,"current_range_meters":14400,"station_id":"ce4bhmh2rcd13ifvqgmg","pricing_plan_id":"cebpf4jnsgd1na2vs0mg"},{"bike_id":"72cce7ed-e32c-46a8-9f74-6047336278e8","system_id":"levelo_inurba_marseille","lat":43.23148,"lon":5.43697,"is_reserved":false,"is_disabled":false,"rental_uris":{"android":"levelo://app?vid=72cce7ed-e32c-46a8-9f74-6047336278e8","ios":"levelo://app?vid=72cce7ed-e32c-46a8-9f74-6047336278e8"},"vehicle_type_id":"4","last_reported":1749949297,"current_range_meters":14400,"station_id":"ce4bhmp2rcd13ifvqgog","pricing_plan_id":"cebpf4jnsgd1na2vs0mg"},{"bike_id":"af086f0a-5ec9-4485-aade-1cf21264795d","system_id":"levelo_inurba_marseille","lat":43.31491,"lon":5.37306,"is_reserved":false,"is_disabled":false,"rental_uris":{"android":"levelo://app?vid=af086f0a-5ec9-4485-aade-1cf21264795d","ios":"levelo://app?vid=af086f0a-5ec9-4485-aade-1cf21264795d"},"vehicle_type_id":"4","last_reported":1749949297,"current_range_meters":14800,"station_id":"ce4bgt12rcd13ifvqcd0","pricing_plan_id":"cebpf4jnsgd1na2vs0mg"},{"bike_id":"4b3ab980-02f8-4ecd-8145-98c44c67c489","system_id":"levelo_inurba_marseille","lat":43.31478,"lon":5.37325,"is_reserved":false,"is_disabled":false,"rental_uris":{"android":"levelo://app?vid=4b3ab980-02f8-4ecd-8145-98c44c67c489","ios":"levelo://app?vid=4b3ab980-02f8-4ecd-8145-98c44c67c489"},"vehicle_type_id":"4","last_reported":1749949297,"current_range_meters":14800,"station_id":"ce4bgt12rcd13ifvqcd0","pricing_plan_id":"cebpf4jnsgd1na2vs0mg"},{"bike_id":"e3008594-55a4-4864-abf4-7e223aba72be","system_id":"levelo_inurba_marseille","lat":43.30925,"lon":5.40142,"is_reserved":false,"is_disabled":false,"rental_uris":{"android":"levelo://app?vid=e3008594-55a4-4864-abf4-7e223aba72be","ios":"levelo://app?vid=e3008594-55a4-4864-abf4-7e223aba72be"},"vehicle_type_id":"4","last_reported":1749949297,"current_range_meters":14800,"station_id":"ce4bgvp2rcd13ifvqct0","pricing_plan_id":"cebpf4jnsgd1na2vs0mg"},{"bike_id":"bf6bade5-0038-4574-8c74-9878c82da13e","system_id":"levelo_inurba_marseille","lat":43.30649,"lon":5.40096,"is_reserved":false,"is_disabled":false,"rental_uris":{"android":"levelo://app?vid=bf6bade5-0038-4574-8c74-9878c82da13e","ios":"levelo://app?vid=bf6bade5-0038-4574-8c74-9878c82da13e"},"vehicle_type_id":"4","last_reported":1749949297,"current_range_meters":14800,"station_id":"ce4bh112rcd13ifvqda0","pricing_plan_id":"cebpf4jnsgd1na2vs0mg"},{"bike_id":"3a95f8e3-09c1-4acd-b275-cd2e9d48d424","system_id":"levelo_inurba_marseille","lat":43.27932,"lon":5.39589,"is_reserved":false,"is_disabled":false,"rental_uris":{"android":"levelo://app?vid=3a95f8e3-09c1-4acd-b275-cd2e9d48d424","ios":"levelo://app?vid=3a95f8e3-09c1-4acd-b275-cd2e9d48d424"},"vehicle_type_id":"4","last_reported":1749949297,"current_range_meters":14800,"station_id":"ce4bhf92rcd13ifvqf40","pricing_plan_id":"cebpf4jnsgd1na2vs0mg"},{"bike_id":"923c0d10-0896-4292-b996-ed13cd7a062d","system_id":"levelo_inurba_marseille","lat":43.26223,"lon":5.40469,"is_reserved":false,"is_disabled":false,"rental_uris":{"android":"levelo://app?vid=923c0d10-0896-4292-b996-ed13cd7a062d","ios":"levelo://app?vid=923c0d10-0896-4292-b996-ed13cd7a062d"},"vehicle_type_id":"4","last_reported":1749949297,"current_range_meters":14800,"station_id":"ce4bhmh2rcd13ifvqgmg","pricing_plan_id":"cebpf4jnsgd1na2vs0mg"},{"bike_id":"41cf0859-0b29-4294-86bf-90b28cccd1bc","system_id":"levelo_inurba_marseille","lat":43.30932,"lon":5.40138,"is_reserved":false,"is_disabled":false,"rental_uris":{"android":"levelo://app?vid=41cf0859-0b29-4294-86bf-90b28cccd1bc","ios":"levelo://app?vid=41cf0859-0b29-4294-86bf-90b28cccd1bc"},"vehicle_type_id":"4","last_reported":1749949297,"current_range_meters":15200,"station_id":"ce4bgvp2rcd13ifvqct0","pricing_plan_id":"cebpf4jnsgd1na2vs0mg"},{"bike_id":"518fe7e4-0a30-458d-b964-8f3d68f0aa02","system_id":"levelo_inurba_marseille","lat":43.30434,"lon":5.39751,"is_reserved":false,"is_disabled":false,"rental_uris":{"android":"levelo://app?vid=518fe7e4-0a30-458d-b964-8f3d68f0aa02","ios":"levelo://app?vid=518fe7e4-0a30-458d-b964-8f3d68f0aa02"},"vehicle_type_id":"4","last_reported":1749949297,"current_range_meters":15200,"station_id":"ce4bh092rcd13ifvqd20","pricing_plan_id":"cebpf4jnsgd1na2vs0mg"},{"bike_id":"2f05ea43-b517-4110-aca3-2134ff7b3b66","system_id":"levelo_inurba_marseille","lat":43.30084,"lon":5.3907,"is_reserved":false,"is_disabled":false,"rental_uris":{"android":"levelo://app?vid=2f05ea43-b517-4110-aca3-2134ff7b3b66","ios":"levelo://app?vid=2f05ea43-b517-4110-aca3-2134ff7b3b66"},"vehicle_type_id":"4","last_reported":1749949297,"current_range_meters":15200,"station_id":"ce4bh192rcd13ifvqdb0","pricing_plan_id":"cebpf4jnsgd1na2vs0mg"},{"bike_id":"c6228c1a-1951-41b0-9fb5-a65f4dc8bda1","system_id":"levelo_inurba_marseille","lat":43.292742,"lon":5.401235,"is_reserved":false,"is_disabled":false,"rental_uris":{"android":"levelo://app?vid=c6228c1a-1951-41b0-9fb5-a65f4dc8bda1","ios":"levelo://app?vid=c6228c1a-1951-41b0-9fb5-a65f4dc8bda1"},"vehicle_type_id":"4","last_reported":1749949297,"current_range_meters":15200,"station_id":"ce4bh312rcd13ifvqdk0","pricing_plan_id":"cebpf4jnsgd1na2vs0mg"},{"bike_id":"4fdbd593-f828-4f83-a15a-d5f42967868b","system_id":"levelo_inurba_marseille","lat":43.28656,"lon":5.36351,"is_reserved":false,"is_disabled":false,"rental_uris":{"android":"levelo://app?vid=4fdbd593-f828-4f83-a15a-d5f42967868b","ios":"levelo://app?vid=4fdbd593-f828-4f83-a15a-d5f42967868b"},"vehicle_type_id":"4","last_reported":1749949297,"current_range_meters":15200,"station_id":"ce4bhah2rcd13ifvqej0","pricing_plan_id":"cebpf4jnsgd1na2vs0mg"},{"bike_id":"a6f695ce-2d0b-4026-bdb7-d3404f6e251e","system_id":"levelo_inurba_marseille","lat":43.29563,"lon":5.42279,"is_reserved":false,"is_disabled":false,"rental_uris":{"android":"levelo://app?vid=a6f695ce-2d0b-4026-bdb7-d3404f6e251e","ios":"levelo://app?vid=a6f695ce-2d0b-4026-bdb7-d3404f6e251e"},"vehicle_type_id":"4","last_reported":1749949297,"current_range_meters":15200,"station_id":"ce4bhph2rcd13ifvqhdg","pricing_plan_id":"cebpf4jnsgd1na2vs0mg"},{"bike_id":"e5b62466-ff9e-49e2-bd3e-be88bf15cda8","system_id":"levelo_inurba_marseille","lat":43.21185,"lon":5.35096,"is_reserved":false,"is_disabled":false,"rental_uris":{"android":"levelo://app?vid=e5b62466-ff9e-49e2-bd3e-be88bf15cda8","ios":"levelo://app?vid=e5b62466-ff9e-49e2-bd3e-be88bf15cda8"},"vehicle_type_id":"4","last_reported":1749949297,"current_range_meters":15200,"station_id":"st_cvj6sg6p6f1abm77japg","pricing_plan_id":"cebpf4jnsgd1na2vs0mg"},{"bike_id":"79c85394-a2c0-44ab-800c-98408d922c35","system_id":"levelo_inurba_marseille","lat":43.3118,"lon":5.38704,"is_reserved":false,"is_disabled":false,"rental_uris":{"android":"levelo://app?vid=79c85394-a2c0-44ab-800c-98408d922c35","ios":"levelo://app?vid=79c85394-a2c0-44ab-800c-98408d922c35"},"vehicle_type_id":"4","last_reported":1749949297,"current_range_meters":16000,"station_id":"ce4bgv12rcd13ifvqcp0","pricing_plan_id":"cebpf4jnsgd1na2vs0mg"},{"bike_id":"bfc7e323-870b-4776-881e-03a67f21d550","system_id":"levelo_inurba_marseille","lat":43.28412,"lon":5.37527,"is_reserved":false,"is_disabled":false,"rental_uris":{"android":"levelo://app?vid=bfc7e323-870b-4776-881e-03a67f21d550","ios":"levelo://app?vid=bfc7e323-870b-4776-881e-03a67f21d550"},"vehicle_type_id":"4","last_reported":1749949297,"current_range_meters":16000,"station_id":"ce4bh412rcd13ifvqds0","pricing_plan_id":"cebpf4jnsgd1na2vs0mg"},{"bike_id":"4aea0af7-bf24-4e87-b71f-3bf5a4e07cb0","system_id":"levelo_inurba_marseille","lat":43.25189,"lon":5.42209,"is_reserved":false,"is_disabled":false,"rental_uris":{"android":"levelo://app?vid=4aea0af7-bf24-4e87-b71f-3bf5a4e07cb0","ios":"levelo://app?vid=4aea0af7-bf24-4e87-b71f-3bf5a4e07cb0"},"vehicle_type_id":"4","last_reported":1749949297,"current_range_meters":16400,"station_id":"","pricing_plan_id":"cebpf4jnsgd1na2vs0mg"},{"bike_id":"6a9b7a23-0b3b-4503-b16f-b8e7322c49be","system_id":"levelo_inurba_marseille","lat":43.29288,"lon":5.40123,"is_reserved":false,"is_disabled":false,"rental_uris":{"android":"levelo://app?vid=6a9b7a23-0b3b-4503-b16f-b8e7322c49be","ios":"levelo://app?vid=6a9b7a23-0b3b-4503-b16f-b8e7322c49be"},"vehicle_type_id":"4","last_reported":1749949297,"current_range_meters":16400,"station_id":"ce4bh312rcd13ifvqdk0","pricing_plan_id":"cebpf4jnsgd1na2vs0mg"},{"bike_id":"b67d1563-654c-4a12-a671-4605ba07067f","system_id":"levelo_inurba_marseille","lat":43.28851,"lon":5.35848,"is_reserved":false,"is_disabled":false,"rental_uris":{"android":"levelo://app?vid=b67d1563-654c-4a12-a671-4605ba07067f","ios":"levelo://app?vid=b67d1563-654c-4a12-a671-4605ba07067f"},"vehicle_type_id":"4","last_reported":1749949297,"current_range_meters":16400,"station_id":"ce4bhb12rcd13ifvqem0","pricing_plan_id":"cebpf4jnsgd1na2vs0mg"},{"bike_id":"27eddf77-dba9-4f20-b3bc-173c467b07d6","system_id":"levelo_inurba_marseille","lat":43.26799,"lon":5.40258,"is_reserved":false,"is_disabled":false,"rental_uris":{"android":"levelo://app?vid=27eddf77-dba9-4f20-b3bc-173c467b07d6","ios":"levelo://app?vid=27eddf77-dba9-4f20-b3bc-173c467b07d6"},"vehicle_type_id":"4","last_reported":1749949297,"current_range_meters":16400,"station_id":"ce501612rcd8frsf0b60","pricing_plan_id":"cebpf4jnsgd1na2vs0mg"},{"bike_id":"b0baf91b-5b01-48b4-9e9d-290f99b36983","system_id":"levelo_inurba_marseille","lat":43.26926,"lon":5.40274,"is_reserved":false,"is_disabled":false,"rental_uris":{"android":"levelo://app?vid=b0baf91b-5b01-48b4-9e9d-290f99b36983","ios":"levelo://app?vid=b0baf91b-5b01-48b4-9e9d-290f99b36983"},"vehicle_type_id":"4","last_reported":1749949297,"current_range_meters":16400,"station_id":"cjm6bp8fraef2m0cb0m0","pricing_plan_id":"cebpf4jnsgd1na2vs0mg"},{"bike_id":"eb1f9d44-bc44-48c8-9994-b8634d2b18ef","system_id":"levelo_inurba_marseille","lat":43.31098,"lon":5.38691,"is_reserved":false,"is_disabled":false,"rental_uris":{"android":"levelo://app?vid=eb1f9d44-bc44-48c8-9994-b8634d2b18ef","ios":"levelo://app?vid=eb1f9d44-bc44-48c8-9994-b8634d2b18ef"},"vehicle_type_id":"4","last_reported":1749949297,"current_range_meters":16800,"station_id":"","pricing_plan_id":"cebpf4jnsgd1na2vs0mg"},{"bike_id":"25c9057c-7442-46f8-803f-3ed89779c37b","system_id":"levelo_inurba_marseille","lat":43.298492,"lon":5.362848,"is_reserved":false,"is_disabled":false,"rental_uris":{"android":"levelo://app?vid=25c9057c-7442-46f8-803f-3ed89779c37b","ios":"levelo://app?vid=25c9057c-7442-46f8-803f-3ed89779c37b"},"vehicle_type_id":"4","last_reported":1749949297,"current_range_meters":16800,"station_id":"","pricing_plan_id":"cebpf4jnsgd1na2vs0mg"},{"bike_id":"2319ce10-a51c-42ad-ad50-827b68e4f300","system_id":"levelo_inurba_marseille","lat":43.29713,"lon":5.38055,"is_reserved":false,"is_disabled":false,"rental_uris":{"android":"levelo://app?vid=2319ce10-a51c-42ad-ad50-827b68e4f300","ios":"levelo://app?vid=2319ce10-a51c-42ad-ad50-827b68e4f300"},"vehicle_type_id":"4","last_reported":1749949297,"current_range_meters":16800,"station_id":"","pricing_plan_id":"cebpf4jnsgd1na2vs0mg"},{"bike_id":"f531a7aa-3896-4e1c-9e28-288fce0b6ca8","system_id":"levelo_inurba_marseille","lat":43.28697,"lon":5.37388,"is_reserved":false,"is_disabled":false,"rental_uris":{"android":"levelo://app?vid=f531a7aa-3896-4e1c-9e28-288fce0b6ca8","ios":"levelo://app?vid=f531a7aa-3896-4e1c-9e28-288fce0b6ca8"},"vehicle_type_id":"4","last_reported":1749949297,"current_range_meters":16800,"station_id":"ce4bh3p2rcd13ifvqdq0","pricing_plan_id":"cebpf4jnsgd1na2vs0mg"},{"bike_id":"9e6d838f-f8e6-4902-8cdd-7c766c7443fa","system_id":"levelo_inurba_marseille","lat":43.24995,"lon":5.38934,"is_reserved":false,"is_disabled":false,"rental_uris":{"android":"levelo://app?vid=9e6d838f-f8e6-4902-8cdd-7c766c7443fa","ios":"levelo://app?vid=9e6d838f-f8e6-4902-8cdd-7c766c7443fa"},"vehicle_type_id":"4","last_reported":1749949297,"current_range_meters":16800,"station_id":"ce4bhgp2rcd13ifvqfd0","pricing_plan_id":"cebpf4jnsgd1na2vs0mg"},{"bike_id":"9e75bc5e-db17-4007-b40e-5d3705fc540b","system_id":"levelo_inurba_marseille","lat":43.30635,"lon":5.40125,"is_reserved":false,"is_disabled":false,"rental_uris":{"android":"levelo://app?vid=9e75bc5e-db17-4007-b40e-5d3705fc540b","ios":"levelo://app?vid=9e75bc5e-db17-4007-b40e-5d3705fc540b"},"vehicle_type_id":"4","last_reported":1749949297,"current_range_meters":17200,"station_id":"ce4bh112rcd13ifvqda0","pricing_plan_id":"cebpf4jnsgd1na2vs0mg"},{"bike_id":"bfbc50fd-996e-428a-8e17-5efb2cb18647","system_id":"levelo_inurba_marseille","lat":43.28101,"lon":5.37835,"is_reserved":false,"is_disabled":false,"rental_uris":{"android":"levelo://app?vid=bfbc50fd-996e-428a-8e17-5efb2cb18647","ios":"levelo://app?vid=bfbc50fd-996e-428a-8e17-5efb2cb18647"},"vehicle_type_id":"4","last_reported":1749949297,"current_range_meters":17200,"station_id":"ce4bha12rcd13ifvqee0","pricing_plan_id":"cebpf4jnsgd1na2vs0mg"},{"bike_id":"71477fea-4e69-4d4b-85fa-c584ab07ae4f","system_id":"levelo_inurba_marseille","lat":43.27493,"lon":5.42449,"is_reserved":false,"is_disabled":false,"rental_uris":{"android":"levelo://app?vid=71477fea-4e69-4d4b-85fa-c584ab07ae4f","ios":"levelo://app?vid=71477fea-4e69-4d4b-85fa-c584ab07ae4f"},"vehicle_type_id":"4","last_reported":1749949297,"current_range_meters":17200,"station_id":"ce4bhn92rcd13ifvqgrg","pricing_plan_id":"cebpf4jnsgd1na2vs0mg"},{"bike_id":"efb971b9-12e8-413c-a6eb-96a5da00fff8","system_id":"levelo_inurba_marseille","lat":43.31719,"lon":5.42395,"is_reserved":false,"is_disabled":false,"rental_uris":{"android":"levelo://app?vid=efb971b9-12e8-413c-a6eb-96a5da00fff8","ios":"levelo://app?vid=efb971b9-12e8-413c-a6eb-96a5da00fff8"},"vehicle_type_id":"4","last_reported":1749949297,"current_range_meters":17200,"station_id":"ce4bhp92rcd13ifvqhbg","pricing_plan_id":"cebpf4jnsgd1na2vs0mg"},{"bike_id":"15ca4f83-8df1-4b73-bad2-b0f1f9fd9e02","system_id":"levelo_inurba_marseille","lat":43.23056,"lon":5.35503,"is_reserved":false,"is_disabled":false,"rental_uris":{"android":"levelo://app?vid=15ca4f83-8df1-4b73-bad2-b0f1f9fd9e02","ios":"levelo://app?vid=15ca4f83-8df1-4b73-bad2-b0f1f9fd9e02"},"vehicle_type_id":"4","last_reported":1749949297,"current_range_meters":17200,"station_id":"cpo3342slgdg3j2ifvpg","pricing_plan_id":"cebpf4jnsgd1na2vs0mg"},{"bike_id":"9a7d0435-8192-45a1-a100-e840d18be92a","system_id":"levelo_inurba_marseille","lat":43.3137,"lon":5.3849,"is_reserved":false,"is_disabled":false,"rental_uris":{"android":"levelo://app?vid=9a7d0435-8192-45a1-a100-e840d18be92a","ios":"levelo://app?vid=9a7d0435-8192-45a1-a100-e840d18be92a"},"vehicle_type_id":"4","last_reported":1749949297,"current_range_meters":17600,"station_id":"ce4bgt92rcd13ifvqcf0","pricing_plan_id":"cebpf4jnsgd1na2vs0mg"},{"bike_id":"cb2cd33c-a3fa-42d7-8089-fa160fb317fd","system_id":"levelo_inurba_marseille","lat":43.24706,"lon":5.38135,"is_reserved":false,"is_disabled":false,"rental_uris":{"android":"levelo://app?vid=cb2cd33c-a3fa-42d7-8089-fa160fb317fd","ios":"levelo://app?vid=cb2cd33c-a3fa-42d7-8089-fa160fb317fd"},"vehicle_type_id":"4","last_reported":1749949297,"current_range_meters":17600,"station_id":"ce4bhih2rcd13ifvqfr0","pricing_plan_id":"cebpf4jnsgd1na2vs0mg"},{"bike_id":"97bb7578-c267-4640-a98d-31ca8e7d75f4","system_id":"levelo_inurba_marseille","lat":43.271786,"lon":5.409887,"is_reserved":false,"is_disabled":false,"rental_uris":{"android":"levelo://app?vid=97bb7578-c267-4640-a98d-31ca8e7d75f4","ios":"levelo://app?vid=97bb7578-c267-4640-a98d-31ca8e7d75f4"},"vehicle_type_id":"4","last_reported":1749949297,"current_range_meters":17600,"station_id":"ce4bhl12rcd13ifvqgf0","pricing_plan_id":"cebpf4jnsgd1na2vs0mg"},{"bike_id":"82be02d3-a337-4d9d-991f-6ea69d1c2798","system_id":"levelo_inurba_marseille","lat":43.25863,"lon":5.39902,"is_reserved":false,"is_disabled":false,"rental_uris":{"android":"levelo://app?vid=82be02d3-a337-4d9d-991f-6ea69d1c2798","ios":"levelo://app?vid=82be02d3-a337-4d9d-991f-6ea69d1c2798"},"vehicle_type_id":"4","last_reported":1749949297,"current_range_meters":17600,"station_id":"ce4bhl92rcd13ifvqghg","pricing_plan_id":"cebpf4jnsgd1na2vs0mg"},{"bike_id":"0fe8d47d-0db3-437d-9239-f712b4736eb4","system_id":"levelo_inurba_marseille","lat":43.3206,"lon":5.36817,"is_reserved":false,"is_disabled":false,"rental_uris":{"android":"levelo://app?vid=0fe8d47d-0db3-437d-9239-f712b4736eb4","ios":"levelo://app?vid=0fe8d47d-0db3-437d-9239-f712b4736eb4"},"vehicle_type_id":"4","last_reported":1749949297,"current_range_meters":17600,"station_id":"ce4bhrh2rcd13ifvqhug","pricing_plan_id":"cebpf4jnsgd1na2vs0mg"},{"bike_id":"c544f41c-f54d-4fcd-a8b6-97ab98a672c6","system_id":"levelo_inurba_marseille","lat":43.33016,"lon":5.42751,"is_reserved":false,"is_disabled":false,"rental_uris":{"android":"levelo://app?vid=c544f41c-f54d-4fcd-a8b6-97ab98a672c6","ios":"levelo://app?vid=c544f41c-f54d-4fcd-a8b6-97ab98a672c6"},"vehicle_type_id":"4","last_reported":1749949297,"current_range_meters":18000,"station_id":"","pricing_plan_id":"cebpf4jnsgd1na2vs0mg"},{"bike_id":"51c5e4a5-dcff-45b1-b7f9-5daefba3310a","system_id":"levelo_inurba_marseille","lat":43.33655,"lon":5.40943,"is_reserved":false,"is_disabled":false,"rental_uris":{"android":"levelo://app?vid=51c5e4a5-dcff-45b1-b7f9-5daefba3310a","ios":"levelo://app?vid=51c5e4a5-dcff-45b1-b7f9-5daefba3310a"},"vehicle_type_id":"4","last_reported":1749949297,"current_range_meters":18000,"station_id":"","pricing_plan_id":"cebpf4jnsgd1na2vs0mg"},{"bike_id":"bd01ac2e-87fe-4d71-8fe7-6414332f36eb","system_id":"levelo_inurba_marseille","lat":43.30797,"lon":5.38161,"is_reserved":false,"is_disabled":false,"rental_uris":{"android":"levelo://app?vid=bd01ac2e-87fe-4d71-8fe7-6414332f36eb","ios":"levelo://app?vid=bd01ac2e-87fe-4d71-8fe7-6414332f36eb"},"vehicle_type_id":"4","last_reported":1749949297,"current_range_meters":18000,"station_id":"ce4bgt12rcd13ifvqce0","pricing_plan_id":"cebpf4jnsgd1na2vs0mg"},{"bike_id":"be2d3750-b555-45bc-b659-68989d46a854","system_id":"levelo_inurba_marseille","lat":43.31388,"lon":5.38483,"is_reserved":false,"is_disabled":false,"rental_uris":{"android":"levelo://app?vid=be2d3750-b555-45bc-b659-68989d46a854","ios":"levelo://app?vid=be2d3750-b555-45bc-b659-68989d46a854"},"vehicle_type_id":"4","last_reported":1749949297,"current_range_meters":18000,"station_id":"ce4bgt92rcd13ifvqcf0","pricing_plan_id":"cebpf4jnsgd1na2vs0mg"},{"bike_id":"7b71b28e-da3b-4577-a1dd-9c2656fe2f24","system_id":"levelo_inurba_marseille","lat":43.31362,"lon":5.38504,"is_reserved":false,"is_disabled":false,"rental_uris":{"android":"levelo://app?vid=7b71b28e-da3b-4577-a1dd-9c2656fe2f24","ios":"levelo://app?vid=7b71b28e-da3b-4577-a1dd-9c2656fe2f24"},"vehicle_type_id":"4","last_reported":1749949297,"current_range_meters":18000,"station_id":"ce4bgt92rcd13ifvqcf0","pricing_plan_id":"cebpf4jnsgd1na2vs0mg"},{"bike_id":"97211875-0d87-41a2-bf94-ae907469bda5","system_id":"levelo_inurba_marseille","lat":43.29045,"lon":5.39934,"is_reserved":false,"is_disabled":false,"rental_uris":{"android":"levelo://app?vid=97211875-0d87-41a2-bf94-ae907469bda5","ios":"levelo://app?vid=97211875-0d87-41a2-bf94-ae907469bda5"},"vehicle_type_id":"4","last_reported":1749949297,"current_range_meters":18000,"station_id":"ce4bh392rcd13ifvqdm0","pricing_plan_id":"cebpf4jnsgd1na2vs0mg"},{"bike_id":"39bd2a97-fa26-44cc-80c6-77260f16427e","system_id":"levelo_inurba_marseille","lat":43.28705,"lon":5.373866,"is_reserved":false,"is_disabled":false,"rental_uris":{"android":"levelo://app?vid=39bd2a97-fa26-44cc-80c6-77260f16427e","ios":"levelo://app?vid=39bd2a97-fa26-44cc-80c6-77260f16427e"},"vehicle_type_id":"4","last_reported":1749949297,"current_range_meters":18000,"station_id":"ce4bh3p2rcd13ifvqdq0","pricing_plan_id":"cebpf4jnsgd1na2vs0mg"},{"bike_id":"2fb8bde0-3041-4420-82f5-d8a3e9394c5c","system_id":"levelo_inurba_marseille","lat":43.27915,"lon":5.39598,"is_reserved":false,"is_disabled":false,"rental_uris":{"android":"levelo://app?vid=2fb8bde0-3041-4420-82f5-d8a3e9394c5c","ios":"levelo://app?vid=2fb8bde0-3041-4420-82f5-d8a3e9394c5c"},"vehicle_type_id":"4","last_reported":1749949297,"current_range_meters":18000,"station_id":"ce4bhf92rcd13ifvqf40","pricing_plan_id":"cebpf4jnsgd1na2vs0mg"},{"bike_id":"1b95dd9b-6f52-44a4-af3a-7d6a65e50199","system_id":"levelo_inurba_marseille","lat":43.27896,"lon":5.38001,"is_reserved":false,"is_disabled":false,"rental_uris":{"android":"levelo://app?vid=1b95dd9b-6f52-44a4-af3a-7d6a65e50199","ios":"levelo://app?vid=1b95dd9b-6f52-44a4-af3a-7d6a65e50199"},"vehicle_type_id":"4","last_reported":1749949297,"current_range_meters":18000,"station_id":"ce4bhf92rcd13ifvqf50","pricing_plan_id":"cebpf4jnsgd1na2vs0mg"},{"bike_id":"b22dcd4b-4623-4a81-9141-29f7bbace68a","system_id":"levelo_inurba_marseille","lat":43.24661,"lon":5.38166,"is_reserved":false,"is_disabled":false,"rental_uris":{"android":"levelo://app?vid=b22dcd4b-4623-4a81-9141-29f7bbace68a","ios":"levelo://app?vid=b22dcd4b-4623-4a81-9141-29f7bbace68a"},"vehicle_type_id":"4","last_reported":1749949297,"current_range_meters":18000,"station_id":"ce4bhih2rcd13ifvqfr0","pricing_plan_id":"cebpf4jnsgd1na2vs0mg"},{"bike_id":"cae08f8a-9511-476d-9ad2-fc5efb61a8eb","system_id":"levelo_inurba_marseille","lat":43.21552,"lon":5.34743,"is_reserved":false,"is_disabled":false,"rental_uris":{"android":"levelo://app?vid=cae08f8a-9511-476d-9ad2-fc5efb61a8eb","ios":"levelo://app?vid=cae08f8a-9511-476d-9ad2-fc5efb61a8eb"},"vehicle_type_id":"4","last_reported":1749949297,"current_range_meters":18800,"station_id":"","pricing_plan_id":"cebpf4jnsgd1na2vs0mg"},{"bike_id":"684f4e0c-56e1-4f68-9d5c-52873241ab72","system_id":"levelo_inurba_marseille","lat":43.3152,"lon":5.3729,"is_reserved":false,"is_disabled":false,"rental_uris":{"android":"levelo://app?vid=684f4e0c-56e1-4f68-9d5c-52873241ab72","ios":"levelo://app?vid=684f4e0c-56e1-4f68-9d5c-52873241ab72"},"vehicle_type_id":"4","last_reported":1749949297,"current_range_meters":18800,"station_id":"ce4bgt12rcd13ifvqcd0","pricing_plan_id":"cebpf4jnsgd1na2vs0mg"},{"bike_id":"36538ebf-cbf1-4cbd-a6a2-67cd6c76a6f2","system_id":"levelo_inurba_marseille","lat":43.30246,"lon":5.40071,"is_reserved":false,"is_disabled":false,"rental_uris":{"android":"levelo://app?vid=36538ebf-cbf1-4cbd-a6a2-67cd6c76a6f2","ios":"levelo://app?vid=36538ebf-cbf1-4cbd-a6a2-67cd6c76a6f2"},"vehicle_type_id":"4","last_reported":1749949297,"current_range_meters":18800,"station_id":"ce4bgvh2rcd13ifvqcs0","pricing_plan_id":"cebpf4jnsgd1na2vs0mg"},{"bike_id":"8068a00a-ba9d-49be-8f83-6e4474f8708b","system_id":"levelo_inurba_marseille","lat":43.27941,"lon":5.41055,"is_reserved":false,"is_disabled":false,"rental_uris":{"android":"levelo://app?vid=8068a00a-ba9d-49be-8f83-6e4474f8708b","ios":"levelo://app?vid=8068a00a-ba9d-49be-8f83-6e4474f8708b"},"vehicle_type_id":"4","last_reported":1749949297,"current_range_meters":18800,"station_id":"ce4bhnp2rcd13ifvqh0g","pricing_plan_id":"cebpf4jnsgd1na2vs0mg"},{"bike_id":"cb1c0c28-8bb6-4c12-b06d-ee70e3db587c","system_id":"levelo_inurba_marseille","lat":43.3043,"lon":5.41283,"is_reserved":false,"is_disabled":false,"rental_uris":{"android":"levelo://app?vid=cb1c0c28-8bb6-4c12-b06d-ee70e3db587c","ios":"levelo://app?vid=cb1c0c28-8bb6-4c12-b06d-ee70e3db587c"},"vehicle_type_id":"4","last_reported":1749949297,"current_range_meters":18800,"station_id":"ce4bhop2rcd13ifvqh8g","pricing_plan_id":"cebpf4jnsgd1na2vs0mg"},{"bike_id":"45d2c284-b7ec-49dd-9fa6-c7d9673086f1","system_id":"levelo_inurba_marseille","lat":43.29545,"lon":5.42265,"is_reserved":false,"is_disabled":false,"rental_uris":{"android":"levelo://app?vid=45d2c284-b7ec-49dd-9fa6-c7d9673086f1","ios":"levelo://app?vid=45d2c284-b7ec-49dd-9fa6-c7d9673086f1"},"vehicle_type_id":"4","last_reported":1749949297,"current_range_meters":18800,"station_id":"ce4bhph2rcd13ifvqhdg","pricing_plan_id":"cebpf4jnsgd1na2vs0mg"},{"bike_id":"97f8851e-21a3-4c6a-8d82-1c239c500fcb","system_id":"levelo_inurba_marseille","lat":43.273777,"lon":5.362576,"is_reserved":false,"is_disabled":false,"rental_uris":{"android":"levelo://app?vid=97f8851e-21a3-4c6a-8d82-1c239c500fcb","ios":"levelo://app?vid=97f8851e-21a3-4c6a-8d82-1c239c500fcb"},"vehicle_type_id":"4","last_reported":1749949297,"current_range_meters":19200,"station_id":"","pricing_plan_id":"cebpf4jnsgd1na2vs0mg"},{"bike_id":"877ec881-e120-45bd-8e7d-bf2b52475d78","system_id":"levelo_inurba_marseille","lat":43.27678,"lon":5.35728,"is_reserved":false,"is_disabled":false,"rental_uris":{"android":"levelo://app?vid=877ec881-e120-45bd-8e7d-bf2b52475d78","ios":"levelo://app?vid=877ec881-e120-45bd-8e7d-bf2b52475d78"},"vehicle_type_id":"4","last_reported":1749949297,"current_range_meters":19200,"station_id":"","pricing_plan_id":"cebpf4jnsgd1na2vs0mg"},{"bike_id":"38e08ec6-738b-4a04-a092-dec10c6891d3","system_id":"levelo_inurba_marseille","lat":43.26883,"lon":5.40668,"is_reserved":false,"is_disabled":false,"rental_uris":{"android":"levelo://app?vid=38e08ec6-738b-4a04-a092-dec10c6891d3","ios":"levelo://app?vid=38e08ec6-738b-4a04-a092-dec10c6891d3"},"vehicle_type_id":"4","last_reported":1749949297,"current_range_meters":19200,"station_id":"","pricing_plan_id":"cebpf4jnsgd1na2vs0mg"},{"bike_id":"adb4df12-c0f3-4374-8032-69a781207c7f","system_id":"levelo_inurba_marseille","lat":43.30784,"lon":5.3765,"is_reserved":false,"is_disabled":false,"rental_uris":{"android":"levelo://app?vid=adb4df12-c0f3-4374-8032-69a781207c7f","ios":"levelo://app?vid=adb4df12-c0f3-4374-8032-69a781207c7f"},"vehicle_type_id":"4","last_reported":1749949297,"current_range_meters":19200,"station_id":"ce4bgv92rcd13ifvqcq0","pricing_plan_id":"cebpf4jnsgd1na2vs0mg"},{"bike_id":"793aff16-17a3-4144-9b63-d89900475286","system_id":"levelo_inurba_marseille","lat":43.30932,"lon":5.4015,"is_reserved":false,"is_disabled":false,"rental_uris":{"android":"levelo://app?vid=793aff16-17a3-4144-9b63-d89900475286","ios":"levelo://app?vid=793aff16-17a3-4144-9b63-d89900475286"},"vehicle_type_id":"4","last_reported":1749949297,"current_range_meters":19200,"station_id":"ce4bgvp2rcd13ifvqct0","pricing_plan_id":"cebpf4jnsgd1na2vs0mg"},{"bike_id":"9f15a372-129d-4b38-9575-e5dcd339707c","system_id":"levelo_inurba_marseille","lat":43.28697,"lon":5.37385,"is_reserved":false,"is_disabled":false,"rental_uris":{"android":"levelo://app?vid=9f15a372-129d-4b38-9575-e5dcd339707c","ios":"levelo://app?vid=9f15a372-129d-4b38-9575-e5dcd339707c"},"vehicle_type_id":"4","last_reported":1749949297,"current_range_meters":19200,"station_id":"ce4bh3p2rcd13ifvqdq0","pricing_plan_id":"cebpf4jnsgd1na2vs0mg"},{"bike_id":"6a33b0e4-9016-44c9-8397-db2face82c00","system_id":"levelo_inurba_marseille","lat":43.2653,"lon":5.39024,"is_reserved":false,"is_disabled":false,"rental_uris":{"android":"levelo://app?vid=6a33b0e4-9016-44c9-8397-db2face82c00","ios":"levelo://app?vid=6a33b0e4-9016-44c9-8397-db2face82c00"},"vehicle_type_id":"4","last_reported":1749949297,"current_range_meters":19200,"station_id":"ce4bhe12rcd13ifvqf30","pricing_plan_id":"cebpf4jnsgd1na2vs0mg"},{"bike_id":"7a610786-1920-49be-9d62-553dc1fcfe54","system_id":"levelo_inurba_marseille","lat":43.27947,"lon":5.41047,"is_reserved":false,"is_disabled":false,"rental_uris":{"android":"levelo://app?vid=7a610786-1920-49be-9d62-553dc1fcfe54","ios":"levelo://app?vid=7a610786-1920-49be-9d62-553dc1fcfe54"},"vehicle_type_id":"4","last_reported":1749949297,"current_range_meters":19200,"station_id":"ce4bhnp2rcd13ifvqh0g","pricing_plan_id":"cebpf4jnsgd1na2vs0mg"},{"bike_id":"e5dd82eb-bcac-4e65-89d7-6b8121087bd4","system_id":"levelo_inurba_marseille","lat":43.292974,"lon":5.374197,"is_reserved":false,"is_disabled":false,"rental_uris":{"android":"levelo://app?vid=e5dd82eb-bcac-4e65-89d7-6b8121087bd4","ios":"levelo://app?vid=e5dd82eb-bcac-4e65-89d7-6b8121087bd4"},"vehicle_type_id":"4","last_reported":1749949297,"current_range_meters":19600,"station_id":"ce4bgi12rcd13ifvqb70","pricing_plan_id":"cebpf4jnsgd1na2vs0mg"},{"bike_id":"1cedd5be-1535-42b7-a882-9a36f02bbb65","system_id":"levelo_inurba_marseille","lat":43.31227,"lon":5.36853,"is_reserved":false,"is_disabled":false,"rental_uris":{"android":"levelo://app?vid=1cedd5be-1535-42b7-a882-9a36f02bbb65","ios":"levelo://app?vid=1cedd5be-1535-42b7-a882-9a36f02bbb65"},"vehicle_type_id":"4","last_reported":1749949297,"current_range_meters":19600,"station_id":"ce4bgl92rcd13ifvqbq0","pricing_plan_id":"cebpf4jnsgd1na2vs0mg"},{"bike_id":"c97104d2-e5d6-47c3-afd0-bebd57865cf9","system_id":"levelo_inurba_marseille","lat":43.31165,"lon":5.38712,"is_reserved":false,"is_disabled":false,"rental_uris":{"android":"levelo://app?vid=c97104d2-e5d6-47c3-afd0-bebd57865cf9","ios":"levelo://app?vid=c97104d2-e5d6-47c3-afd0-bebd57865cf9"},"vehicle_type_id":"4","last_reported":1749949297,"current_range_meters":19600,"station_id":"ce4bgv12rcd13ifvqcp0","pricing_plan_id":"cebpf4jnsgd1na2vs0mg"},{"bike_id":"556edb25-299c-4302-9c88-4989c5ecd762","system_id":"levelo_inurba_marseille","lat":43.3092,"lon":5.40179,"is_reserved":false,"is_disabled":false,"rental_uris":{"android":"levelo://app?vid=556edb25-299c-4302-9c88-4989c5ecd762","ios":"levelo://app?vid=556edb25-299c-4302-9c88-4989c5ecd762"},"vehicle_type_id":"4","last_reported":1749949297,"current_range_meters":19600,"station_id":"ce4bgvp2rcd13ifvqct0","pricing_plan_id":"cebpf4jnsgd1na2vs0mg"},{"bike_id":"ffe7072a-d600-4398-b8e6-555f40cac3d4","system_id":"levelo_inurba_marseille","lat":43.27981,"lon":5.38735,"is_reserved":false,"is_disabled":false,"rental_uris":{"android":"levelo://app?vid=ffe7072a-d600-4398-b8e6-555f40cac3d4","ios":"levelo://app?vid=ffe7072a-d600-4398-b8e6-555f40cac3d4"},"vehicle_type_id":"4","last_reported":1749949297,"current_range_meters":19600,"station_id":"ce4bhg12rcd13ifvqf80","pricing_plan_id":"cebpf4jnsgd1na2vs0mg"},{"bike_id":"91753df6-b383-4702-8414-24237e81fab8","system_id":"levelo_inurba_marseille","lat":43.24805,"lon":5.37448,"is_reserved":false,"is_disabled":false,"rental_uris":{"android":"levelo://app?vid=91753df6-b383-4702-8414-24237e81fab8","ios":"levelo://app?vid=91753df6-b383-4702-8414-24237e81fab8"},"vehicle_type_id":"4","last_reported":1749949297,"current_range_meters":19600,"station_id":"ce4bhgh2rcd13ifvqfb0","pricing_plan_id":"cebpf4jnsgd1na2vs0mg"},{"bike_id":"86b9d729-d0a1-4afb-83ad-3eacec7c5d0d","system_id":"levelo_inurba_marseille","lat":43.25013,"lon":5.3893,"is_reserved":false,"is_disabled":false,"rental_uris":{"android":"levelo://app?vid=86b9d729-d0a1-4afb-83ad-3eacec7c5d0d","ios":"levelo://app?vid=86b9d729-d0a1-4afb-83ad-3eacec7c5d0d"},"vehicle_type_id":"4","last_reported":1749949297,"current_range_meters":19600,"station_id":"ce4bhgp2rcd13ifvqfd0","pricing_plan_id":"cebpf4jnsgd1na2vs0mg"},{"bike_id":"ff5248ff-3c95-43e2-b614-80d426984170","system_id":"levelo_inurba_marseille","lat":43.30411,"lon":5.4129,"is_reserved":false,"is_disabled":false,"rental_uris":{"android":"levelo://app?vid=ff5248ff-3c95-43e2-b614-80d426984170","ios":"levelo://app?vid=ff5248ff-3c95-43e2-b614-80d426984170"},"vehicle_type_id":"4","last_reported":1749949297,"current_range_meters":19600,"station_id":"ce4bhop2rcd13ifvqh8g","pricing_plan_id":"cebpf4jnsgd1na2vs0mg"},{"bike_id":"826f0ca3-e5fc-4cf8-8696-cb1fe62172b3","system_id":"levelo_inurba_marseille","lat":43.21182,"lon":5.35092,"is_reserved":false,"is_disabled":false,"rental_uris":{"android":"levelo://app?vid=826f0ca3-e5fc-4cf8-8696-cb1fe62172b3","ios":"levelo://app?vid=826f0ca3-e5fc-4cf8-8696-cb1fe62172b3"},"vehicle_type_id":"4","last_reported":1749949297,"current_range_meters":20000,"station_id":"","pricing_plan_id":"cebpf4jnsgd1na2vs0mg"},{"bike_id":"7718955c-c804-4d00-84fb-333760318051","system_id":"levelo_inurba_marseille","lat":43.29275,"lon":5.4089,"is_reserved":false,"is_disabled":false,"rental_uris":{"android":"levelo://app?vid=7718955c-c804-4d00-84fb-333760318051","ios":"levelo://app?vid=7718955c-c804-4d00-84fb-333760318051"},"vehicle_type_id":"4","last_reported":1749949297,"current_range_meters":20000,"station_id":"ce4bh192rcd13ifvqdc0","pricing_plan_id":"cebpf4jnsgd1na2vs0mg"},{"bike_id":"3f86d889-1780-4b2e-8a9c-289a7fe2b855","system_id":"levelo_inurba_marseille","lat":43.32335,"lon":5.40623,"is_reserved":false,"is_disabled":false,"rental_uris":{"android":"levelo://app?vid=3f86d889-1780-4b2e-8a9c-289a7fe2b855","ios":"levelo://app?vid=3f86d889-1780-4b2e-8a9c-289a7fe2b855"},"vehicle_type_id":"4","last_reported":1749949297,"current_range_meters":20000,"station_id":"ce4bhq92rcd13ifvqhjg","pricing_plan_id":"cebpf4jnsgd1na2vs0mg"},{"bike_id":"f4960cb7-92f3-48e4-a1cc-a2b8a605a4b3","system_id":"levelo_inurba_marseille","lat":43.33791,"lon":5.37425,"is_reserved":false,"is_disabled":false,"rental_uris":{"android":"levelo://app?vid=f4960cb7-92f3-48e4-a1cc-a2b8a605a4b3","ios":"levelo://app?vid=f4960cb7-92f3-48e4-a1cc-a2b8a605a4b3"},"vehicle_type_id":"4","last_reported":1749949297,"current_range_meters":20400,"station_id":"","pricing_plan_id":"cebpf4jnsgd1na2vs0mg"},{"bike_id":"a9fda4f4-b328-47ec-ae9e-3d481b33bf01","system_id":"levelo_inurba_marseille","lat":43.2991,"lon":5.39754,"is_reserved":false,"is_disabled":false,"rental_uris":{"android":"levelo://app?vid=a9fda4f4-b328-47ec-ae9e-3d481b33bf01","ios":"levelo://app?vid=a9fda4f4-b328-47ec-ae9e-3d481b33bf01"},"vehicle_type_id":"4","last_reported":1749949297,"current_range_meters":20400,"station_id":"","pricing_plan_id":"cebpf4jnsgd1na2vs0mg"},{"bike_id":"3dd7e2aa-c3e1-4d4b-8901-ae6c62b7e73f","system_id":"levelo_inurba_marseille","lat":43.30957,"lon":5.39025,"is_reserved":false,"is_disabled":false,"rental_uris":{"android":"levelo://app?vid=3dd7e2aa-c3e1-4d4b-8901-ae6c62b7e73f","ios":"levelo://app?vid=3dd7e2aa-c3e1-4d4b-8901-ae6c62b7e73f"},"vehicle_type_id":"4","last_reported":1749949297,"current_range_meters":20400,"station_id":"ce4bgup2rcd13ifvqco0","pricing_plan_id":"cebpf4jnsgd1na2vs0mg"},{"bike_id":"f1ad7ffd-1e06-40a4-83f0-73caf256337c","system_id":"levelo_inurba_marseille","lat":43.31325,"lon":5.39704,"is_reserved":false,"is_disabled":false,"rental_uris":{"android":"levelo://app?vid=f1ad7ffd-1e06-40a4-83f0-73caf256337c","ios":"levelo://app?vid=f1ad7ffd-1e06-40a4-83f0-73caf256337c"},"vehicle_type_id":"4","last_reported":1749949297,"current_range_meters":20400,"station_id":"ce4bgvp2rcd13ifvqcu0","pricing_plan_id":"cebpf4jnsgd1na2vs0mg"},{"bike_id":"5119c1c4-3a3f-4aa0-a67a-782cd696795c","system_id":"levelo_inurba_marseille","lat":43.301623,"lon":5.395988,"is_reserved":false,"is_disabled":false,"rental_uris":{"android":"levelo://app?vid=5119c1c4-3a3f-4aa0-a67a-782cd696795c","ios":"levelo://app?vid=5119c1c4-3a3f-4aa0-a67a-782cd696795c"},"vehicle_type_id":"4","last_reported":1749949297,"current_range_meters":20400,"station_id":"ce4bh0h2rcd13ifvqd40","pricing_plan_id":"cebpf4jnsgd1na2vs0mg"},{"bike_id":"cb6673be-8a15-41c0-a417-47e3b81d0d9c","system_id":"levelo_inurba_marseille","lat":43.29033,"lon":5.399545,"is_reserved":false,"is_disabled":false,"rental_uris":{"android":"levelo://app?vid=cb6673be-8a15-41c0-a417-47e3b81d0d9c","ios":"levelo://app?vid=cb6673be-8a15-41c0-a417-47e3b81d0d9c"},"vehicle_type_id":"4","last_reported":1749949297,"current_range_meters":20400,"station_id":"ce4bh392rcd13ifvqdm0","pricing_plan_id":"cebpf4jnsgd1na2vs0mg"},{"bike_id":"4b57ef6f-427e-4435-8f8b-8fdd243759a4","system_id":"levelo_inurba_marseille","lat":43.2318,"lon":5.39996,"is_reserved":false,"is_disabled":false,"rental_uris":{"android":"levelo://app?vid=4b57ef6f-427e-4435-8f8b-8fdd243759a4","ios":"levelo://app?vid=4b57ef6f-427e-4435-8f8b-8fdd243759a4"},"vehicle_type_id":"4","last_reported":1749949297,"current_range_meters":20400,"station_id":"ce4bhn12rcd13ifvqgqg","pricing_plan_id":"cebpf4jnsgd1na2vs0mg"},{"bike_id":"e399792a-b175-4abe-a326-f646cde83812","system_id":"levelo_inurba_marseille","lat":43.275,"lon":5.42443,"is_reserved":false,"is_disabled":false,"rental_uris":{"android":"levelo://app?vid=e399792a-b175-4abe-a326-f646cde83812","ios":"levelo://app?vid=e399792a-b175-4abe-a326-f646cde83812"},"vehicle_type_id":"4","last_reported":1749949297,"current_range_meters":20400,"station_id":"ce4bhn92rcd13ifvqgrg","pricing_plan_id":"cebpf4jnsgd1na2vs0mg"},{"bike_id":"f0c262a8-327f-41b2-b761-15a4d9f10b4c","system_id":"levelo_inurba_marseille","lat":43.29556,"lon":5.42296,"is_reserved":false,"is_disabled":false,"rental_uris":{"android":"levelo://app?vid=f0c262a8-327f-41b2-b761-15a4d9f10b4c","ios":"levelo://app?vid=f0c262a8-327f-41b2-b761-15a4d9f10b4c"},"vehicle_type_id":"4","last_reported":1749949297,"current_range_meters":20400,"station_id":"ce4bhph2rcd13ifvqhdg","pricing_plan_id":"cebpf4jnsgd1na2vs0mg"},{"bike_id":"fc7b21c8-0f5d-4631-bcab-bd35a4a72cd6","system_id":"levelo_inurba_marseille","lat":43.29545,"lon":5.42278,"is_reserved":false,"is_disabled":false,"rental_uris":{"android":"levelo://app?vid=fc7b21c8-0f5d-4631-bcab-bd35a4a72cd6","ios":"levelo://app?vid=fc7b21c8-0f5d-4631-bcab-bd35a4a72cd6"},"vehicle_type_id":"4","last_reported":1749949297,"current_range_meters":20400,"station_id":"ce4bhph2rcd13ifvqhdg","pricing_plan_id":"cebpf4jnsgd1na2vs0mg"},{"bike_id":"9e283fb6-bee4-4345-8fe7-67d40d54cbd3","system_id":"levelo_inurba_marseille","lat":43.32348,"lon":5.40623,"is_reserved":false,"is_disabled":false,"rental_uris":{"android":"levelo://app?vid=9e283fb6-bee4-4345-8fe7-67d40d54cbd3","ios":"levelo://app?vid=9e283fb6-bee4-4345-8fe7-67d40d54cbd3"},"vehicle_type_id":"4","last_reported":1749949297,"current_range_meters":20400,"station_id":"ce4bhq92rcd13ifvqhjg","pricing_plan_id":"cebpf4jnsgd1na2vs0mg"},{"bike_id":"b42b9d95-2fdb-47a3-9ae1-45a1f3f1e97f","system_id":"levelo_inurba_marseille","lat":43.21186,"lon":5.35078,"is_reserved":false,"is_disabled":false,"rental_uris":{"android":"levelo://app?vid=b42b9d95-2fdb-47a3-9ae1-45a1f3f1e97f","ios":"levelo://app?vid=b42b9d95-2fdb-47a3-9ae1-45a1f3f1e97f"},"vehicle_type_id":"4","last_reported":1749949297,"current_range_meters":20400,"station_id":"st_cvj6sg6p6f1abm77japg","pricing_plan_id":"cebpf4jnsgd1na2vs0mg"},{"bike_id":"40003f6b-daf8-4fae-ac3e-5e2a1bf981c8","system_id":"levelo_inurba_marseille","lat":43.25873,"lon":5.39885,"is_reserved":false,"is_disabled":false,"rental_uris":{"android":"levelo://app?vid=40003f6b-daf8-4fae-ac3e-5e2a1bf981c8","ios":"levelo://app?vid=40003f6b-daf8-4fae-ac3e-5e2a1bf981c8"},"vehicle_type_id":"4","last_reported":1749949297,"current_range_meters":20800,"station_id":"","pricing_plan_id":"cebpf4jnsgd1na2vs0mg"},{"bike_id":"f7654a1e-3545-4b22-9a3a-25b2229e6577","system_id":"levelo_inurba_marseille","lat":43.30931,"lon":5.40156,"is_reserved":false,"is_disabled":false,"rental_uris":{"android":"levelo://app?vid=f7654a1e-3545-4b22-9a3a-25b2229e6577","ios":"levelo://app?vid=f7654a1e-3545-4b22-9a3a-25b2229e6577"},"vehicle_type_id":"4","last_reported":1749949297,"current_range_meters":20800,"station_id":"ce4bgvp2rcd13ifvqct0","pricing_plan_id":"cebpf4jnsgd1na2vs0mg"},{"bike_id":"d0093847-f585-48b3-9087-92bc1efaad95","system_id":"levelo_inurba_marseille","lat":43.30595,"lon":5.39363,"is_reserved":false,"is_disabled":false,"rental_uris":{"android":"levelo://app?vid=d0093847-f585-48b3-9087-92bc1efaad95","ios":"levelo://app?vid=d0093847-f585-48b3-9087-92bc1efaad95"},"vehicle_type_id":"4","last_reported":1749949297,"current_range_meters":20800,"station_id":"ce4bh0p2rcd13ifvqd80","pricing_plan_id":"cebpf4jnsgd1na2vs0mg"},{"bike_id":"dc7b5cec-79da-4053-83dc-33decaaafb85","system_id":"levelo_inurba_marseille","lat":43.29449,"lon":5.3974,"is_reserved":false,"is_disabled":false,"rental_uris":{"android":"levelo://app?vid=dc7b5cec-79da-4053-83dc-33decaaafb85","ios":"levelo://app?vid=dc7b5cec-79da-4053-83dc-33decaaafb85"},"vehicle_type_id":"4","last_reported":1749949297,"current_range_meters":20800,"station_id":"ce4bh3h2rcd13ifvqdo0","pricing_plan_id":"cebpf4jnsgd1na2vs0mg"},{"bike_id":"233880bb-bfc5-4a0c-ae03-0a7c7a0e9093","system_id":"levelo_inurba_marseille","lat":43.29033,"lon":5.35915,"is_reserved":false,"is_disabled":false,"rental_uris":{"android":"levelo://app?vid=233880bb-bfc5-4a0c-ae03-0a7c7a0e9093","ios":"levelo://app?vid=233880bb-bfc5-4a0c-ae03-0a7c7a0e9093"},"vehicle_type_id":"4","last_reported":1749949297,"current_range_meters":20800,"station_id":"ce4bha92rcd13ifvqeg0","pricing_plan_id":"cebpf4jnsgd1na2vs0mg"},{"bike_id":"b9169d22-30e7-47eb-92dd-8d09fdc7ff64","system_id":"levelo_inurba_marseille","lat":43.25721,"lon":5.41109,"is_reserved":false,"is_disabled":false,"rental_uris":{"android":"levelo://app?vid=b9169d22-30e7-47eb-92dd-8d09fdc7ff64","ios":"levelo://app?vid=b9169d22-30e7-47eb-92dd-8d09fdc7ff64"},"vehicle_type_id":"4","last_reported":1749949297,"current_range_meters":20800,"station_id":"ce4bhkp2rcd13ifvqgd0","pricing_plan_id":"cebpf4jnsgd1na2vs0mg"},{"bike_id":"37dcf10e-aa78-4d52-bd34-5417e8c6cc62","system_id":"levelo_inurba_marseille","lat":43.232,"lon":5.39965,"is_reserved":false,"is_disabled":false,"rental_uris":{"android":"levelo://app?vid=37dcf10e-aa78-4d52-bd34-5417e8c6cc62","ios":"levelo://app?vid=37dcf10e-aa78-4d52-bd34-5417e8c6cc62"},"vehicle_type_id":"4","last_reported":1749949297,"current_range_meters":20800,"station_id":"ce4bhn12rcd13ifvqgqg","pricing_plan_id":"cebpf4jnsgd1na2vs0mg"},{"bike_id":"43fb2830-cf9b-43af-ad4e-2df7e068ccf6","system_id":"levelo_inurba_marseille","lat":43.30416,"lon":5.41291,"is_reserved":false,"is_disabled":false,"rental_uris":{"android":"levelo://app?vid=43fb2830-cf9b-43af-ad4e-2df7e068ccf6","ios":"levelo://app?vid=43fb2830-cf9b-43af-ad4e-2df7e068ccf6"},"vehicle_type_id":"4","last_reported":1749949297,"current_range_meters":20800,"station_id":"ce4bhop2rcd13ifvqh8g","pricing_plan_id":"cebpf4jnsgd1na2vs0mg"},{"bike_id":"feb60b42-f337-4a92-8c5b-7645c2a9b995","system_id":"levelo_inurba_marseille","lat":43.30791,"lon":5.38162,"is_reserved":false,"is_disabled":false,"rental_uris":{"android":"levelo://app?vid=feb60b42-f337-4a92-8c5b-7645c2a9b995","ios":"levelo://app?vid=feb60b42-f337-4a92-8c5b-7645c2a9b995"},"vehicle_type_id":"4","last_reported":1749949297,"current_range_meters":21600,"station_id":"ce4bgt12rcd13ifvqce0","pricing_plan_id":"cebpf4jnsgd1na2vs0mg"},{"bike_id":"ed3e4296-c96c-4ddd-a83c-7c92964bcbdc","system_id":"levelo_inurba_marseille","lat":43.26224,"lon":5.40449,"is_reserved":false,"is_disabled":false,"rental_uris":{"android":"levelo://app?vid=ed3e4296-c96c-4ddd-a83c-7c92964bcbdc","ios":"levelo://app?vid=ed3e4296-c96c-4ddd-a83c-7c92964bcbdc"},"vehicle_type_id":"4","last_reported":1749949297,"current_range_meters":21600,"station_id":"ce4bhmh2rcd13ifvqgmg","pricing_plan_id":"cebpf4jnsgd1na2vs0mg"},{"bike_id":"51714c70-050c-4af6-9127-79efb864baa1","system_id":"levelo_inurba_marseille","lat":43.32471,"lon":5.3656,"is_reserved":false,"is_disabled":false,"rental_uris":{"android":"levelo://app?vid=51714c70-050c-4af6-9127-79efb864baa1","ios":"levelo://app?vid=51714c70-050c-4af6-9127-79efb864baa1"},"vehicle_type_id":"4","last_reported":1749949297,"current_range_meters":21600,"station_id":"ce4bhs12rcd13ifvqhvg","pricing_plan_id":"cebpf4jnsgd1na2vs0mg"},{"bike_id":"bd7bc889-0ace-44ba-adc2-5e336bdf27e2","system_id":"levelo_inurba_marseille","lat":43.3097,"lon":5.37478,"is_reserved":false,"is_disabled":false,"rental_uris":{"android":"levelo://app?vid=bd7bc889-0ace-44ba-adc2-5e336bdf27e2","ios":"levelo://app?vid=bd7bc889-0ace-44ba-adc2-5e336bdf27e2"},"vehicle_type_id":"4","last_reported":1749949297,"current_range_meters":22000,"station_id":"","pricing_plan_id":"cebpf4jnsgd1na2vs0mg"},{"bike_id":"1897afd2-4711-4c4d-aa4c-ee25d5adefd9","system_id":"levelo_inurba_marseille","lat":43.29963,"lon":5.38508,"is_reserved":false,"is_disabled":false,"rental_uris":{"android":"levelo://app?vid=1897afd2-4711-4c4d-aa4c-ee25d5adefd9","ios":"levelo://app?vid=1897afd2-4711-4c4d-aa4c-ee25d5adefd9"},"vehicle_type_id":"4","last_reported":1749949297,"current_range_meters":22000,"station_id":"ce4bgj92rcd13ifvqbd0","pricing_plan_id":"cebpf4jnsgd1na2vs0mg"},{"bike_id":"b4ae9921-a7c0-4df1-ad25-6df1b58e5df0","system_id":"levelo_inurba_marseille","lat":43.31488,"lon":5.37307,"is_reserved":false,"is_disabled":false,"rental_uris":{"android":"levelo://app?vid=b4ae9921-a7c0-4df1-ad25-6df1b58e5df0","ios":"levelo://app?vid=b4ae9921-a7c0-4df1-ad25-6df1b58e5df0"},"vehicle_type_id":"4","last_reported":1749949297,"current_range_meters":22000,"station_id":"ce4bgt12rcd13ifvqcd0","pricing_plan_id":"cebpf4jnsgd1na2vs0mg"},{"bike_id":"4ec18ca3-48e4-4983-a048-825e57e3490f","system_id":"levelo_inurba_marseille","lat":43.29561,"lon":5.39988,"is_reserved":false,"is_disabled":false,"rental_uris":{"android":"levelo://app?vid=4ec18ca3-48e4-4983-a048-825e57e3490f","ios":"levelo://app?vid=4ec18ca3-48e4-4983-a048-825e57e3490f"},"vehicle_type_id":"4","last_reported":1749949297,"current_range_meters":22000,"station_id":"ce4bh312rcd13ifvqdj0","pricing_plan_id":"cebpf4jnsgd1na2vs0mg"},{"bike_id":"232df87f-cb03-462f-a471-99d8e495bd09","system_id":"levelo_inurba_marseille","lat":43.29042,"lon":5.39982,"is_reserved":false,"is_disabled":false,"rental_uris":{"android":"levelo://app?vid=232df87f-cb03-462f-a471-99d8e495bd09","ios":"levelo://app?vid=232df87f-cb03-462f-a471-99d8e495bd09"},"vehicle_type_id":"4","last_reported":1749949297,"current_range_meters":22000,"station_id":"ce4bh392rcd13ifvqdm0","pricing_plan_id":"cebpf4jnsgd1na2vs0mg"},{"bike_id":"e928255d-0f39-4f6a-a7ee-72584fd843d3","system_id":"levelo_inurba_marseille","lat":43.281059,"lon":5.378345,"is_reserved":false,"is_disabled":false,"rental_uris":{"android":"levelo://app?vid=e928255d-0f39-4f6a-a7ee-72584fd843d3","ios":"levelo://app?vid=e928255d-0f39-4f6a-a7ee-72584fd843d3"},"vehicle_type_id":"4","last_reported":1749949297,"current_range_meters":22000,"station_id":"ce4bha12rcd13ifvqee0","pricing_plan_id":"cebpf4jnsgd1na2vs0mg"},{"bike_id":"f4671957-0f8a-4a0a-8f9c-e6c969ba90c9","system_id":"levelo_inurba_marseille","lat":43.28163,"lon":5.42631,"is_reserved":false,"is_disabled":false,"rental_uris":{"android":"levelo://app?vid=f4671957-0f8a-4a0a-8f9c-e6c969ba90c9","ios":"levelo://app?vid=f4671957-0f8a-4a0a-8f9c-e6c969ba90c9"},"vehicle_type_id":"4","last_reported":1749949297,"current_range_meters":22000,"station_id":"ce4bhnh2rcd13ifvqgug","pricing_plan_id":"cebpf4jnsgd1na2vs0mg"},{"bike_id":"9d19f104-5110-4ea2-a431-335b6ec31cfa","system_id":"levelo_inurba_marseille","lat":43.30795,"lon":5.43528,"is_reserved":false,"is_disabled":false,"rental_uris":{"android":"levelo://app?vid=9d19f104-5110-4ea2-a431-335b6ec31cfa","ios":"levelo://app?vid=9d19f104-5110-4ea2-a431-335b6ec31cfa"},"vehicle_type_id":"4","last_reported":1749949297,"current_range_meters":22000,"station_id":"ce4bhph2rcd13ifvqheg","pricing_plan_id":"cebpf4jnsgd1na2vs0mg"},{"bike_id":"4d888f10-97c2-48bc-98ff-598712936b88","system_id":"levelo_inurba_marseille","lat":43.31578,"lon":5.38884,"is_reserved":false,"is_disabled":false,"rental_uris":{"android":"levelo://app?vid=4d888f10-97c2-48bc-98ff-598712936b88","ios":"levelo://app?vid=4d888f10-97c2-48bc-98ff-598712936b88"},"vehicle_type_id":"4","last_reported":1749949297,"current_range_meters":22400,"station_id":"","pricing_plan_id":"cebpf4jnsgd1na2vs0mg"},{"bike_id":"8791d0f9-2199-4514-9573-1e99fcd56a20","system_id":"levelo_inurba_marseille","lat":43.30257,"lon":5.40085,"is_reserved":false,"is_disabled":false,"rental_uris":{"android":"levelo://app?vid=8791d0f9-2199-4514-9573-1e99fcd56a20","ios":"levelo://app?vid=8791d0f9-2199-4514-9573-1e99fcd56a20"},"vehicle_type_id":"4","last_reported":1749949297,"current_range_meters":22400,"station_id":"ce4bgvh2rcd13ifvqcs0","pricing_plan_id":"cebpf4jnsgd1na2vs0mg"},{"bike_id":"77e03269-82d7-4cca-b9c9-3a49108e5d07","system_id":"levelo_inurba_marseille","lat":43.30922,"lon":5.40152,"is_reserved":false,"is_disabled":false,"rental_uris":{"android":"levelo://app?vid=77e03269-82d7-4cca-b9c9-3a49108e5d07","ios":"levelo://app?vid=77e03269-82d7-4cca-b9c9-3a49108e5d07"},"vehicle_type_id":"4","last_reported":1749949297,"current_range_meters":22400,"station_id":"ce4bgvp2rcd13ifvqct0","pricing_plan_id":"cebpf4jnsgd1na2vs0mg"},{"bike_id":"fbd7f3bf-98ec-454c-86a5-e1c046ae4f5f","system_id":"levelo_inurba_marseille","lat":43.28409,"lon":5.37538,"is_reserved":false,"is_disabled":false,"rental_uris":{"android":"levelo://app?vid=fbd7f3bf-98ec-454c-86a5-e1c046ae4f5f","ios":"levelo://app?vid=fbd7f3bf-98ec-454c-86a5-e1c046ae4f5f"},"vehicle_type_id":"4","last_reported":1749949297,"current_range_meters":22400,"station_id":"ce4bh412rcd13ifvqds0","pricing_plan_id":"cebpf4jnsgd1na2vs0mg"},{"bike_id":"403f2c90-38d1-4521-9c89-c7514d1c463e","system_id":"levelo_inurba_marseille","lat":43.28721,"lon":5.39988,"is_reserved":false,"is_disabled":false,"rental_uris":{"android":"levelo://app?vid=403f2c90-38d1-4521-9c89-c7514d1c463e","ios":"levelo://app?vid=403f2c90-38d1-4521-9c89-c7514d1c463e"},"vehicle_type_id":"4","last_reported":1749949297,"current_range_meters":22400,"station_id":"ce4bho92rcd13ifvqh3g","pricing_plan_id":"cebpf4jnsgd1na2vs0mg"},{"bike_id":"6f904e79-074e-44f7-a4ee-8b0cd00a4a95","system_id":"levelo_inurba_marseille","lat":43.2124,"lon":5.35067,"is_reserved":false,"is_disabled":false,"rental_uris":{"android":"levelo://app?vid=6f904e79-074e-44f7-a4ee-8b0cd00a4a95","ios":"levelo://app?vid=6f904e79-074e-44f7-a4ee-8b0cd00a4a95"},"vehicle_type_id":"4","last_reported":1749949297,"current_range_meters":22400,"station_id":"st_cvj6sg6p6f1abm77japg","pricing_plan_id":"cebpf4jnsgd1na2vs0mg"},{"bike_id":"c3b2eb0a-3e16-4a1d-a81f-862504abe4b7","system_id":"levelo_inurba_marseille","lat":43.268027,"lon":5.402692,"is_reserved":false,"is_disabled":false,"rental_uris":{"android":"levelo://app?vid=c3b2eb0a-3e16-4a1d-a81f-862504abe4b7","ios":"levelo://app?vid=c3b2eb0a-3e16-4a1d-a81f-862504abe4b7"},"vehicle_type_id":"4","last_reported":1749949297,"current_range_meters":22800,"station_id":"","pricing_plan_id":"cebpf4jnsgd1na2vs0mg"},{"bike_id":"a48a4ff4-5d95-4742-81ee-90316fbe34c7","system_id":"levelo_inurba_marseille","lat":43.3093,"lon":5.40149,"is_reserved":false,"is_disabled":false,"rental_uris":{"android":"levelo://app?vid=a48a4ff4-5d95-4742-81ee-90316fbe34c7","ios":"levelo://app?vid=a48a4ff4-5d95-4742-81ee-90316fbe34c7"},"vehicle_type_id":"4","last_reported":1749949297,"current_range_meters":22800,"station_id":"ce4bgvp2rcd13ifvqct0","pricing_plan_id":"cebpf4jnsgd1na2vs0mg"},{"bike_id":"dd8b1906-e790-4ffb-b947-070216260c8b","system_id":"levelo_inurba_marseille","lat":43.29869,"lon":5.39727,"is_reserved":false,"is_disabled":false,"rental_uris":{"android":"levelo://app?vid=dd8b1906-e790-4ffb-b947-070216260c8b","ios":"levelo://app?vid=dd8b1906-e790-4ffb-b947-070216260c8b"},