{"last_updated":1751951569,"ttl":60,"version":"2.2","data":{"bikes":[{"bike_id":"3da29fb8-fc97-44c6-b9ac-31dd456b2fd4","system_id":"levelo_inurba_marseille","lat":43.33771,"lon":5.37424,"is_reserved":false,"is_disabled":true,"rental_uris":{"android":"levelo://app?vid=3da29fb8-fc97-44c6-b9ac-31dd456b2fd4","ios":"levelo://app?vid=3da29fb8-fc97-44c6-b9ac-31dd456b2fd4"},"vehicle_type_id":"4","last_reported":1751951569,"current_range_meters":0,"station_id":"","pricing_plan_id":"cebpf4jnsgd1na2vs0mg"},{"bike_id":"01861ad8-a8d7-4be6-816e-651927c87584","system_id":"levelo_inurba_marseille","lat":43.33751,"lon":5.37456,"is_reserved":false,"is_disabled":true,"rental_uris":{"android":"levelo://app?vid=01861ad8-a8d7-4be6-816e-651927c87584","ios":"levelo://app?vid=01861ad8-a8d7-4be6-816e-651927c87584"},"vehicle_type_id":"4","last_reported":1751951569,"current_range_meters":0,"station_id":"","pricing_plan_id":"cebpf4jnsgd1na2vs0mg"},{"bike_id":"95c194a9-5cae-4867-bc56-f8781828dc70","system_id":"levelo_inurba_marseille","lat":43.337444,"lon":5.374475,"is_reserved":false,"is_disabled":true,"rental_uris":{"android":"levelo://app?vid=95c194a9-5cae-4867-bc56-f8781828dc70","ios":"levelo://app?vid=95c194a9-5cae-4867-bc56-f8781828dc70"},"vehicle_type_id":"4","last_reported":1751951569,"current_range_meters":0,"station_id":"","pricing_plan_id":"cebpf4jnsgd1na2vs0mg"},{"bike_id":"f0a19a9e-f150-4c1e-bcc6-db3195370cac","system_id":"levelo_inurba_marseille","lat":43.32668,"lon":5.43053,"is_reserved":false,"is_disabled":true,"rental_uris":{"android":"levelo://app?vid=f0a19a9e-f150-4c1e-bcc6-db3195370cac","ios":"levelo://app?vid=f0a19a9e-f150-4c1e-bcc6-db3195370cac"},"vehicle_type_id":"4","last_reported":1751951569,"current_range_meters":0,"station_id":"","pricing_plan_id":"cebpf4jnsgd1na2vs0mg"},{"bike_id":"36fc43ff-930e-421b-9c9a-ac8fb9d1625b","system_id":"levelo_inurba_marseille","lat":43.29214,"lon":5.40575,"is_reserved":false,"is_disabled":true,"rental_uris":{"android":"levelo://app?vid=36fc43ff-930e-421b-9c9a-ac8fb9d1625b","ios":"levelo://app?vid=36fc43ff-930e-421b-9c9a-ac8fb9d1625b"},"vehicle_type_id":"4","last_reported":1751951569,"current_range_meters":0,"station_id":"","pricing_plan_id":"cebpf4jnsgd1na2vs0mg"},{"bike_id":"03cdc2e2-ed85-4049-8fed-320ebf4cba49","system_id":"levelo_inurba_marseille","lat":43.29274,"lon":5.38433,"is_reserved":false,"is_disabled":true,"rental_uris":{"android":"levelo://app?vid=03cdc2e2-ed85-4049-8fed-320ebf4cba49","ios":"levelo://app?vid=03cdc2e2-ed85-4049-8fed-320ebf4cba49"},"vehicle_type_id":"4","last_reported":1751951569,"current_range_meters":0,"station_id":"ce4bh692rcd13ifvqea0","pricing_plan_id":"cebpf4jnsgd1na2vs0mg"},{"bike_id":"3d508917-55ee-42b6-894b-89c2a444dc06","system_id":"levelo_inurba_marseille","lat":43.22515,"lon":5.34763,"is_reserved":false,"is_disabled":true,"rental_uris":{"android":"levelo://app?vid=3d508917-55ee-42b6-894b-89c2a444dc06","ios":"levelo://app?vid=3d508917-55ee-42b6-894b-89c2a444dc06"},"vehicle_type_id":"4","last_reported":1751951569,"current_range_meters":0,"station_id":"st_cvj5dfep6f1abm77gieg","pricing_plan_id":"cebpf4jnsgd1na2vs0mg"},{"bike_id":"c32a44ab-b078-4729-9be5-e0735978229d","system_id":"levelo_inurba_marseille","lat":43.21211,"lon":5.35063,"is_reserved":false,"is_disabled":true,"rental_uris":{"android":"levelo://app?vid=c32a44ab-b078-4729-9be5-e0735978229d","ios":"levelo://app?vid=c32a44ab-b078-4729-9be5-e0735978229d"},"vehicle_type_id":"4","last_reported":1751951569,"current_range_meters":0,"station_id":"st_cvj6sg6p6f1abm77japg","pricing_plan_id":"cebpf4jnsgd1na2vs0mg"},{"bike_id":"e86ba8c9-208d-482c-a826-4c100938472a","system_id":"levelo_inurba_marseille","lat":43.211883,"lon":5.350723,"is_reserved":false,"is_disabled":true,"rental_uris":{"android":"levelo://app?vid=e86ba8c9-208d-482c-a826-4c100938472a","ios":"levelo://app?vid=e86ba8c9-208d-482c-a826-4c100938472a"},"vehicle_type_id":"4","last_reported":1751951569,"current_range_meters":0,"station_id":"st_cvj6sg6p6f1abm77japg","pricing_plan_id":"cebpf4jnsgd1na2vs0mg"},{"bike_id":"4d2426fd-ed83-4b3b-9946-e5d612afc6f9","system_id":"levelo_inurba_marseille","lat":43.306372,"lon":5.400675,"is_reserved":false,"is_disabled":true,"rental_uris":{"android":"levelo://app?vid=4d2426fd-ed83-4b3b-9946-e5d612afc6f9","ios":"levelo://app?vid=4d2426fd-ed83-4b3b-9946-e5d612afc6f9"},"vehicle_type_id":"4","last_reported":1751951569,"current_range_meters":400,"station_id":"ce4bh112rcd13ifvqda0","pricing_plan_id":"cebpf4jnsgd1na2vs0mg"},{"bike_id":"14bb8d1a-37f7-4d86-88b4-064a72ab54d3","system_id":"levelo_inurba_marseille","lat":43.326616,"lon":5.409925,"is_reserved":false,"is_disabled":true,"rental_uris":{"android":"levelo://app?vid=14bb8d1a-37f7-4d86-88b4-064a72ab54d3","ios":"levelo://app?vid=14bb8d1a-37f7-4d86-88b4-064a72ab54d3"},"vehicle_type_id":"4","last_reported":1751951569,"current_range_meters":800,"station_id":"ce4bhpp2rcd13ifvqhgg","pricing_plan_id":"cebpf4jnsgd1na2vs0mg"},{"bike_id":"d2866ccd-e3dd-415c-9c91-4093a42f7191","system_id":"levelo_inurba_marseille","lat":43.323506,"lon":5.36757,"is_reserved":false,"is_disabled":true,"rental_uris":{"android":"levelo://app?vid=d2866ccd-e3dd-415c-9c91-4093a42f7191","ios":"levelo://app?vid=d2866ccd-e3dd-415c-9c91-4093a42f7191"},"vehicle_type_id":"4","last_reported":1751951569,"current_range_meters":800,"station_id":"ce4bhsh2rcd13ifvqi2g","pricing_plan_id":"cebpf4jnsgd1na2vs0mg"},{"bike_id":"d6f4e7bc-0d9e-433a-a3cf-359de038a766","system_id":"levelo_inurba_marseille","lat":43.27176,"lon":5.40998,"is_reserved":false,"is_disabled":true,"rental_uris":{"android":"levelo://app?vid=d6f4e7bc-0d9e-433a-a3cf-359de038a766","ios":"levelo://app?vid=d6f4e7bc-0d9e-433a-a3cf-359de038a766"},"vehicle_type_id":"4","last_reported":1751951569,"current_range_meters":1600,"station_id":"ce4bhl12rcd13ifvqgf0","pricing_plan_id":"cebpf4jnsgd1na2vs0mg"},{"bike_id":"32f0b4a1-eb3b-4764-b87b-72cc56773da8","system_id":"levelo_inurba_marseille","lat":43.26561,"lon":5.38993,"is_reserved":false,"is_disabled":true,"rental_uris":{"android":"levelo://app?vid=32f0b4a1-eb3b-4764-b87b-72cc56773da8","ios":"levelo://app?vid=32f0b4a1-eb3b-4764-b87b-72cc56773da8"},"vehicle_type_id":"4","last_reported":1751951569,"current_range_meters":2000,"station_id":"ce4bhe12rcd13ifvqf30","pricing_plan_id":"cebpf4jnsgd1na2vs0mg"},{"bike_id":"d969e04a-6b2d-4377-91fe-736573bff1c0","system_id":"levelo_inurba_marseille","lat":43.29554,"lon":5.42293,"is_reserved":false,"is_disabled":false,"rental_uris":{"android":"levelo://app?vid=d969e04a-6b2d-4377-91fe-736573bff1c0","ios":"levelo://app?vid=d969e04a-6b2d-4377-91fe-736573bff1c0"},"vehicle_type_id":"4","last_reported":1751951569,"current_range_meters":3200,"station_id":"ce4bhph2rcd13ifvqhdg","pricing_plan_id":"cebpf4jnsgd1na2vs0mg"},{"bike_id":"7391f197-85b4-4631-8b5d-43078a2821af","system_id":"levelo_inurba_marseille","lat":43.279869,"lon":5.416669,"is_reserved":false,"is_disabled":false,"rental_uris":{"android":"levelo://app?vid=7391f197-85b4-4631-8b5d-43078a2821af","ios":"levelo://app?vid=7391f197-85b4-4631-8b5d-43078a2821af"},"vehicle_type_id":"4","last_reported":1751951569,"current_range_meters":3600,"station_id":"ce4bho12rcd13ifvqh1g","pricing_plan_id":"cebpf4jnsgd1na2vs0mg"},{"bike_id":"a7753154-ad7f-4eb5-b7b3-df27edf18a53","system_id":"levelo_inurba_marseille","lat":43.22487,"lon":5.34803,"is_reserved":false,"is_disabled":false,"rental_uris":{"android":"levelo://app?vid=a7753154-ad7f-4eb5-b7b3-df27edf18a53","ios":"levelo://app?vid=a7753154-ad7f-4eb5-b7b3-df27edf18a53"},"vehicle_type_id":"4","last_reported":1751951569,"current_range_meters":3600,"station_id":"st_cvj5dfep6f1abm77gieg","pricing_plan_id":"cebpf4jnsgd1na2vs0mg"},{"bike_id":"ed290504-6948-4f69-8584-2e2b0286febf","system_id":"levelo_inurba_marseille","lat":43.21193,"lon":5.35066,"is_reserved":false,"is_disabled":false,"rental_uris":{"android":"levelo://app?vid=ed290504-6948-4f69-8584-2e2b0286febf","ios":"levelo://app?vid=ed290504-6948-4f69-8584-2e2b0286febf"},"vehicle_type_id":"4","last_reported":1751951569,"current_range_meters":3600,"station_id":"st_cvj6sg6p6f1abm77japg","pricing_plan_id":"cebpf4jnsgd1na2vs0mg"},{"bike_id":"71e58a67-8342-4dd2-84ab-8b7866263f42","system_id":"levelo_inurba_marseille","lat":43.30708,"lon":5.40142,"is_reserved":false,"is_disabled":false,"rental_uris":{"android":"levelo://app?vid=71e58a67-8342-4dd2-84ab-8b7866263f42","ios":"levelo://app?vid=71e58a67-8342-4dd2-84ab-8b7866263f42"},"vehicle_type_id":"4","last_reported":1751951569,"current_range_meters":4800,"station_id":"","pricing_plan_id":"cebpf4jnsgd1na2vs0mg"},{"bike_id":"2a644680-a682-4a1f-8cbd-3d0fb57685b4","system_id":"levelo_inurba_marseille","lat":43.21754,"lon":5.3459,"is_reserved":false,"is_disabled":false,"rental_uris":{"android":"levelo://app?vid=2a644680-a682-4a1f-8cbd-3d0fb57685b4","ios":"levelo://app?vid=2a644680-a682-4a1f-8cbd-3d0fb57685b4"},"vehicle_type_id":"4","last_reported":1751951569,"current_range_meters":4800,"station_id":"st_cvj6r9ubvosntc0bgbag","pricing_plan_id":"cebpf4jnsgd1na2vs0mg"},{"bike_id":"de3c7479-ad03-448f-a78e-88898eddd51a","system_id":"levelo_inurba_marseille","lat":43.329504,"lon":5.39745,"is_reserved":false,"is_disabled":false,"rental_uris":{"android":"levelo://app?vid=de3c7479-ad03-448f-a78e-88898eddd51a","ios":"levelo://app?vid=de3c7479-ad03-448f-a78e-88898eddd51a"},"vehicle_type_id":"4","last_reported":1751951569,"current_range_meters":5600,"station_id":"","pricing_plan_id":"cebpf4jnsgd1na2vs0mg"},{"bike_id":"ff6969fc-5512-4edf-a61d-6936ccb9a278","system_id":"levelo_inurba_marseille","lat":43.330142,"lon":5.36378,"is_reserved":false,"is_disabled":false,"rental_uris":{"android":"levelo://app?vid=ff6969fc-5512-4edf-a61d-6936ccb9a278","ios":"levelo://app?vid=ff6969fc-5512-4edf-a61d-6936ccb9a278"},"vehicle_type_id":"4","last_reported":1751951569,"current_range_meters":5600,"station_id":"","pricing_plan_id":"cebpf4jnsgd1na2vs0mg"},{"bike_id":"4df166d1-9bb1-4398-8cc9-8724a1c69172","system_id":"levelo_inurba_marseille","lat":43.28265,"lon":5.39157,"is_reserved":false,"is_disabled":false,"rental_uris":{"android":"levelo://app?vid=4df166d1-9bb1-4398-8cc9-8724a1c69172","ios":"levelo://app?vid=4df166d1-9bb1-4398-8cc9-8724a1c69172"},"vehicle_type_id":"4","last_reported":1751951569,"current_range_meters":6000,"station_id":"","pricing_plan_id":"cebpf4jnsgd1na2vs0mg"},{"bike_id":"d6bffe1f-2ba2-4014-af91-704ed862a47b","system_id":"levelo_inurba_marseille","lat":43.231545,"lon":5.437131,"is_reserved":false,"is_disabled":false,"rental_uris":{"android":"levelo://app?vid=d6bffe1f-2ba2-4014-af91-704ed862a47b","ios":"levelo://app?vid=d6bffe1f-2ba2-4014-af91-704ed862a47b"},"vehicle_type_id":"4","last_reported":1751951569,"current_range_meters":6000,"station_id":"ce4bhmp2rcd13ifvqgog","pricing_plan_id":"cebpf4jnsgd1na2vs0mg"},{"bike_id":"98b2e04d-5909-45ee-9489-f310dd194fa8","system_id":"levelo_inurba_marseille","lat":43.24184,"lon":5.3974,"is_reserved":false,"is_disabled":false,"rental_uris":{"android":"levelo://app?vid=98b2e04d-5909-45ee-9489-f310dd194fa8","ios":"levelo://app?vid=98b2e04d-5909-45ee-9489-f310dd194fa8"},"vehicle_type_id":"4","last_reported":1751951569,"current_range_meters":6000,"station_id":"ce4bhn12rcd13ifvqgpg","pricing_plan_id":"cebpf4jnsgd1na2vs0mg"},{"bike_id":"dc1af325-cb4d-4be0-9033-f518b4987ec0","system_id":"levelo_inurba_marseille","lat":43.30791,"lon":5.38165,"is_reserved":false,"is_disabled":false,"rental_uris":{"android":"levelo://app?vid=dc1af325-cb4d-4be0-9033-f518b4987ec0","ios":"levelo://app?vid=dc1af325-cb4d-4be0-9033-f518b4987ec0"},"vehicle_type_id":"4","last_reported":1751951569,"current_range_meters":6400,"station_id":"ce4bgt12rcd13ifvqce0","pricing_plan_id":"cebpf4jnsgd1na2vs0mg"},{"bike_id":"bd1874bf-e30a-482e-a165-63d599b3ee06","system_id":"levelo_inurba_marseille","lat":43.31496,"lon":5.3977,"is_reserved":false,"is_disabled":false,"rental_uris":{"android":"levelo://app?vid=bd1874bf-e30a-482e-a165-63d599b3ee06","ios":"levelo://app?vid=bd1874bf-e30a-482e-a165-63d599b3ee06"},"vehicle_type_id":"4","last_reported":1751951569,"current_range_meters":6800,"station_id":"","pricing_plan_id":"cebpf4jnsgd1na2vs0mg"},{"bike_id":"7b527f00-f6ea-4963-b59d-8da04a2feedb","system_id":"levelo_inurba_marseille","lat":43.320849,"lon":5.401209,"is_reserved":false,"is_disabled":false,"rental_uris":{"android":"levelo://app?vid=7b527f00-f6ea-4963-b59d-8da04a2feedb","ios":"levelo://app?vid=7b527f00-f6ea-4963-b59d-8da04a2feedb"},"vehicle_type_id":"4","last_reported":1751951569,"current_range_meters":8000,"station_id":"","pricing_plan_id":"cebpf4jnsgd1na2vs0mg"},{"bike_id":"eb6a4062-20f5-4181-b4bd-bff4bfaa3cb2","system_id":"levelo_inurba_marseille","lat":43.30147,"lon":5.38076,"is_reserved":false,"is_disabled":false,"rental_uris":{"android":"levelo://app?vid=eb6a4062-20f5-4181-b4bd-bff4bfaa3cb2","ios":"levelo://app?vid=eb6a4062-20f5-4181-b4bd-bff4bfaa3cb2"},"vehicle_type_id":"4","last_reported":1751951569,"current_range_meters":8000,"station_id":"ce4bgjp2rcd13ifvqbh0","pricing_plan_id":"cebpf4jnsgd1na2vs0mg"},{"bike_id":"6883b381-1ba7-4e68-92c8-065fa1398dcb","system_id":"levelo_inurba_marseille","lat":43.309371,"lon":5.401508,"is_reserved":false,"is_disabled":false,"rental_uris":{"android":"levelo://app?vid=6883b381-1ba7-4e68-92c8-065fa1398dcb","ios":"levelo://app?vid=6883b381-1ba7-4e68-92c8-065fa1398dcb"},"vehicle_type_id":"4","last_reported":1751951569,"current_range_meters":8000,"station_id":"ce4bgvp2rcd13ifvqct0","pricing_plan_id":"cebpf4jnsgd1na2vs0mg"},{"bike_id":"e7332278-4627-4bba-bc3f-8ba3694aa6aa","system_id":"levelo_inurba_marseille","lat":43.29003,"lon":5.35612,"is_reserved":false,"is_disabled":false,"rental_uris":{"android":"levelo://app?vid=e7332278-4627-4bba-bc3f-8ba3694aa6aa","ios":"levelo://app?vid=e7332278-4627-4bba-bc3f-8ba3694aa6aa"},"vehicle_type_id":"4","last_reported":1751951569,"current_range_meters":8000,"station_id":"ce4bhb92rcd13ifvqen0","pricing_plan_id":"cebpf4jnsgd1na2vs0mg"},{"bike_id":"98f46642-8fdc-43be-8379-a5bf33d8441b","system_id":"levelo_inurba_marseille","lat":43.211897,"lon":5.350726,"is_reserved":false,"is_disabled":false,"rental_uris":{"android":"levelo://app?vid=98f46642-8fdc-43be-8379-a5bf33d8441b","ios":"levelo://app?vid=98f46642-8fdc-43be-8379-a5bf33d8441b"},"vehicle_type_id":"4","last_reported":1751951569,"current_range_meters":8000,"station_id":"st_cvj6sg6p6f1abm77japg","pricing_plan_id":"cebpf4jnsgd1na2vs0mg"},{"bike_id":"88ea42cb-cf0f-4e4a-8442-732645bc4ba5","system_id":"levelo_inurba_marseille","lat":43.310809,"lon":5.367137,"is_reserved":false,"is_disabled":false,"rental_uris":{"android":"levelo://app?vid=88ea42cb-cf0f-4e4a-8442-732645bc4ba5","ios":"levelo://app?vid=88ea42cb-cf0f-4e4a-8442-732645bc4ba5"},"vehicle_type_id":"4","last_reported":1751951569,"current_range_meters":8400,"station_id":"","pricing_plan_id":"cebpf4jnsgd1na2vs0mg"},{"bike_id":"7c048f88-cc3b-4956-b130-9a368e27cb31","system_id":"levelo_inurba_marseille","lat":43.30429,"lon":5.38906,"is_reserved":false,"is_disabled":false,"rental_uris":{"android":"levelo://app?vid=7c048f88-cc3b-4956-b130-9a368e27cb31","ios":"levelo://app?vid=7c048f88-cc3b-4956-b130-9a368e27cb31"},"vehicle_type_id":"4","last_reported":1751951569,"current_range_meters":8400,"station_id":"ce4bgk12rcd13ifvqbi0","pricing_plan_id":"cebpf4jnsgd1na2vs0mg"},{"bike_id":"37cb03b5-a785-44a1-9ef8-ea98a5db9079","system_id":"levelo_inurba_marseille","lat":43.30472,"lon":5.37878,"is_reserved":false,"is_disabled":false,"rental_uris":{"android":"levelo://app?vid=37cb03b5-a785-44a1-9ef8-ea98a5db9079","ios":"levelo://app?vid=37cb03b5-a785-44a1-9ef8-ea98a5db9079"},"vehicle_type_id":"4","last_reported":1751951569,"current_range_meters":8400,"station_id":"ce4bgup2rcd13ifvqcn0","pricing_plan_id":"cebpf4jnsgd1na2vs0mg"},{"bike_id":"6bff5dd0-cbe0-4a6b-b636-68a10a73f715","system_id":"levelo_inurba_marseille","lat":43.30729,"lon":5.40138,"is_reserved":false,"is_disabled":false,"rental_uris":{"android":"levelo://app?vid=6bff5dd0-cbe0-4a6b-b636-68a10a73f715","ios":"levelo://app?vid=6bff5dd0-cbe0-4a6b-b636-68a10a73f715"},"vehicle_type_id":"4","last_reported":1751951569,"current_range_meters":8800,"station_id":"","pricing_plan_id":"cebpf4jnsgd1na2vs0mg"},{"bike_id":"3b22f952-d0bc-4c00-8fd3-7e27b88aea23","system_id":"levelo_inurba_marseille","lat":43.29659,"lon":5.36245,"is_reserved":false,"is_disabled":false,"rental_uris":{"android":"levelo://app?vid=3b22f952-d0bc-4c00-8fd3-7e27b88aea23","ios":"levelo://app?vid=3b22f952-d0bc-4c00-8fd3-7e27b88aea23"},"vehicle_type_id":"4","last_reported":1751951569,"current_range_meters":8800,"station_id":"","pricing_plan_id":"cebpf4jnsgd1na2vs0mg"},{"bike_id":"37f2becd-23f9-4f13-a711-38b8024eeec7","system_id":"levelo_inurba_marseille","lat":43.33768,"lon":5.37516,"is_reserved":false,"is_disabled":false,"rental_uris":{"android":"levelo://app?vid=37f2becd-23f9-4f13-a711-38b8024eeec7","ios":"levelo://app?vid=37f2becd-23f9-4f13-a711-38b8024eeec7"},"vehicle_type_id":"4","last_reported":1751951569,"current_range_meters":9200,"station_id":"","pricing_plan_id":"cebpf4jnsgd1na2vs0mg"},{"bike_id":"a3f02b73-bc13-41f0-9c51-3104a0ca89c5","system_id":"levelo_inurba_marseille","lat":43.30375,"lon":5.42478,"is_reserved":false,"is_disabled":false,"rental_uris":{"android":"levelo://app?vid=a3f02b73-bc13-41f0-9c51-3104a0ca89c5","ios":"levelo://app?vid=a3f02b73-bc13-41f0-9c51-3104a0ca89c5"},"vehicle_type_id":"4","last_reported":1751951569,"current_range_meters":9200,"station_id":"ce4bhoh2rcd13ifvqh6g","pricing_plan_id":"cebpf4jnsgd1na2vs0mg"},{"bike_id":"bff287d5-0c9a-4575-8cd6-c178d6ab245e","system_id":"levelo_inurba_marseille","lat":43.3062,"lon":5.37102,"is_reserved":false,"is_disabled":false,"rental_uris":{"android":"levelo://app?vid=bff287d5-0c9a-4575-8cd6-c178d6ab245e","ios":"levelo://app?vid=bff287d5-0c9a-4575-8cd6-c178d6ab245e"},"vehicle_type_id":"4","last_reported":1751951569,"current_range_meters":9600,"station_id":"","pricing_plan_id":"cebpf4jnsgd1na2vs0mg"},{"bike_id":"357e91cd-3680-4f42-86a8-1f528264694b","system_id":"levelo_inurba_marseille","lat":43.303213,"lon":5.404404,"is_reserved":false,"is_disabled":false,"rental_uris":{"android":"levelo://app?vid=357e91cd-3680-4f42-86a8-1f528264694b","ios":"levelo://app?vid=357e91cd-3680-4f42-86a8-1f528264694b"},"vehicle_type_id":"4","last_reported":1751951569,"current_range_meters":9600,"station_id":"ce4bh012rcd13ifvqd10","pricing_plan_id":"cebpf4jnsgd1na2vs0mg"},{"bike_id":"608bac89-0c16-45d5-9fbe-13e016f70edc","system_id":"levelo_inurba_marseille","lat":43.32104,"lon":5.36783,"is_reserved":false,"is_disabled":false,"rental_uris":{"android":"levelo://app?vid=608bac89-0c16-45d5-9fbe-13e016f70edc","ios":"levelo://app?vid=608bac89-0c16-45d5-9fbe-13e016f70edc"},"vehicle_type_id":"4","last_reported":1751951569,"current_range_meters":9600,"station_id":"ce4bhrh2rcd13ifvqhug","pricing_plan_id":"cebpf4jnsgd1na2vs0mg"},{"bike_id":"2c423baa-ecca-420a-87d7-ad0b7e0b9ebb","system_id":"levelo_inurba_marseille","lat":43.28039,"lon":5.35349,"is_reserved":false,"is_disabled":false,"rental_uris":{"android":"levelo://app?vid=2c423baa-ecca-420a-87d7-ad0b7e0b9ebb","ios":"levelo://app?vid=2c423baa-ecca-420a-87d7-ad0b7e0b9ebb"},"vehicle_type_id":"4","last_reported":1751951569,"current_range_meters":10000,"station_id":"","pricing_plan_id":"cebpf4jnsgd1na2vs0mg"},{"bike_id":"13aeacd5-5f92-40eb-9a02-92e9ec7a5e20","system_id":"levelo_inurba_marseille","lat":43.30541,"lon":5.36703,"is_reserved":false,"is_disabled":false,"rental_uris":{"android":"levelo://app?vid=13aeacd5-5f92-40eb-9a02-92e9ec7a5e20","ios":"levelo://app?vid=13aeacd5-5f92-40eb-9a02-92e9ec7a5e20"},"vehicle_type_id":"4","last_reported":1751951569,"current_range_meters":10000,"station_id":"ce4bgrp2rcd13ifvqc9g","pricing_plan_id":"cebpf4jnsgd1na2vs0mg"},{"bike_id":"1b34fa3f-7455-4d23-bace-0fd86401ac17","system_id":"levelo_inurba_marseille","lat":43.30465,"lon":5.37897,"is_reserved":false,"is_disabled":false,"rental_uris":{"android":"levelo://app?vid=1b34fa3f-7455-4d23-bace-0fd86401ac17","ios":"levelo://app?vid=1b34fa3f-7455-4d23-bace-0fd86401ac17"},"vehicle_type_id":"4","last_reported":1751951569,"current_range_meters":10000,"station_id":"ce4bgup2rcd13ifvqcn0","pricing_plan_id":"cebpf4jnsgd1na2vs0mg"},{"bike_id":"3a3968ed-59d2-440e-b764-49f1eb107bdc","system_id":"levelo_inurba_marseille","lat":43.29391,"lon":5.39769,"is_reserved":false,"is_disabled":false,"rental_uris":{"android":"levelo://app?vid=3a3968ed-59d2-440e-b764-49f1eb107bdc","ios":"levelo://app?vid=3a3968ed-59d2-440e-b764-49f1eb107bdc"},"vehicle_type_id":"4","last_reported":1751951569,"current_range_meters":10000,"station_id":"ce4bh3h2rcd13ifvqdo0","pricing_plan_id":"cebpf4jnsgd1na2vs0mg"},{"bike_id":"be35a21f-4ea0-4cb8-9207-5788dd123425","system_id":"levelo_inurba_marseille","lat":43.25491,"lon":5.37638,"is_reserved":false,"is_disabled":false,"rental_uris":{"android":"levelo://app?vid=be35a21f-4ea0-4cb8-9207-5788dd123425","ios":"levelo://app?vid=be35a21f-4ea0-4cb8-9207-5788dd123425"},"vehicle_type_id":"4","last_reported":1751951569,"current_range_meters":10000,"station_id":"ce4bhh12rcd13ifvqff0","pricing_plan_id":"cebpf4jnsgd1na2vs0mg"},{"bike_id":"942a983a-7094-47d3-97b7-ba4ab853d965","system_id":"levelo_inurba_marseille","lat":43.270728,"lon":5.422756,"is_reserved":false,"is_disabled":false,"rental_uris":{"android":"levelo://app?vid=942a983a-7094-47d3-97b7-ba4ab853d965","ios":"levelo://app?vid=942a983a-7094-47d3-97b7-ba4ab853d965"},"vehicle_type_id":"4","last_reported":1751951569,"current_range_meters":10000,"station_id":"ce4bhk92rcd13ifvqgb0","pricing_plan_id":"cebpf4jnsgd1na2vs0mg"},{"bike_id":"d2abbea5-d25e-4b8f-a9ce-3eaea508c786","system_id":"levelo_inurba_marseille","lat":43.24186,"lon":5.39719,"is_reserved":false,"is_disabled":false,"rental_uris":{"android":"levelo://app?vid=d2abbea5-d25e-4b8f-a9ce-3eaea508c786","ios":"levelo://app?vid=d2abbea5-d25e-4b8f-a9ce-3eaea508c786"},"vehicle_type_id":"4","last_reported":1751951569,"current_range_meters":10000,"station_id":"ce4bhn12rcd13ifvqgpg","pricing_plan_id":"cebpf4jnsgd1na2vs0mg"},{"bike_id":"218d1f16-f8a8-4528-8407-4c84f38a7294","system_id":"levelo_inurba_marseille","lat":43.310825,"lon":5.424411,"is_reserved":false,"is_disabled":false,"rental_uris":{"android":"levelo://app?vid=218d1f16-f8a8-4528-8407-4c84f38a7294","ios":"levelo://app?vid=218d1f16-f8a8-4528-8407-4c84f38a7294"},"vehicle_type_id":"4","last_reported":1751951569,"current_range_meters":10000,"station_id":"ce4bhp92rcd13ifvqhag","pricing_plan_id":"cebpf4jnsgd1na2vs0mg"},{"bike_id":"a31d7b1d-f875-4f27-b8f6-640a4ac62493","system_id":"levelo_inurba_marseille","lat":43.337225,"lon":5.391895,"is_reserved":false,"is_disabled":false,"rental_uris":{"android":"levelo://app?vid=a31d7b1d-f875-4f27-b8f6-640a4ac62493","ios":"levelo://app?vid=a31d7b1d-f875-4f27-b8f6-640a4ac62493"},"vehicle_type_id":"4","last_reported":1751951569,"current_range_meters":10000,"station_id":"ce4bhr92rcd13ifvqhsg","pricing_plan_id":"cebpf4jnsgd1na2vs0mg"},{"bike_id":"29102da4-02a2-4f9c-99ed-89cdef887179","system_id":"levelo_inurba_marseille","lat":43.22503,"lon":5.34761,"is_reserved":false,"is_disabled":false,"rental_uris":{"android":"levelo://app?vid=29102da4-02a2-4f9c-99ed-89cdef887179","ios":"levelo://app?vid=29102da4-02a2-4f9c-99ed-89cdef887179"},"vehicle_type_id":"4","last_reported":1751951569,"current_range_meters":10000,"station_id":"st_cvj5dfep6f1abm77gieg","pricing_plan_id":"cebpf4jnsgd1na2vs0mg"},{"bike_id":"a84a7c3c-b0f6-4dcd-941b-3fd0cb556e2f","system_id":"levelo_inurba_marseille","lat":43.313619,"lon":5.385043,"is_reserved":false,"is_disabled":false,"rental_uris":{"android":"levelo://app?vid=a84a7c3c-b0f6-4dcd-941b-3fd0cb556e2f","ios":"levelo://app?vid=a84a7c3c-b0f6-4dcd-941b-3fd0cb556e2f"},"vehicle_type_id":"4","last_reported":1751951569,"current_range_meters":10800,"station_id":"ce4bgt92rcd13ifvqcf0","pricing_plan_id":"cebpf4jnsgd1na2vs0mg"},{"bike_id":"a70cfab5-f447-4d61-b80a-343a49825360","system_id":"levelo_inurba_marseille","lat":43.31734,"lon":5.37774,"is_reserved":false,"is_disabled":false,"rental_uris":{"android":"levelo://app?vid=a70cfab5-f447-4d61-b80a-343a49825360","ios":"levelo://app?vid=a70cfab5-f447-4d61-b80a-343a49825360"},"vehicle_type_id":"4","last_reported":1751951569,"current_range_meters":10800,"station_id":"ce4bgth2rcd13ifvqch0","pricing_plan_id":"cebpf4jnsgd1na2vs0mg"},{"bike_id":"33f81a93-a2a0-48f8-ac54-078601f4600d","system_id":"levelo_inurba_marseille","lat":43.309367,"lon":5.401655,"is_reserved":false,"is_disabled":false,"rental_uris":{"android":"levelo://app?vid=33f81a93-a2a0-48f8-ac54-078601f4600d","ios":"levelo://app?vid=33f81a93-a2a0-48f8-ac54-078601f4600d"},"vehicle_type_id":"4","last_reported":1751951569,"current_range_meters":10800,"station_id":"ce4bgvp2rcd13ifvqct0","pricing_plan_id":"cebpf4jnsgd1na2vs0mg"},{"bike_id":"2502bbd2-d37b-4b05-8d8c-34d599b2a393","system_id":"levelo_inurba_marseille","lat":43.308867,"lon":5.396351,"is_reserved":false,"is_disabled":false,"rental_uris":{"android":"levelo://app?vid=2502bbd2-d37b-4b05-8d8c-34d599b2a393","ios":"levelo://app?vid=2502bbd2-d37b-4b05-8d8c-34d599b2a393"},"vehicle_type_id":"4","last_reported":1751951569,"current_range_meters":10800,"station_id":"ce4bh012rcd13ifvqcv0","pricing_plan_id":"cebpf4jnsgd1na2vs0mg"},{"bike_id":"a660c8bf-ace8-4a4d-9eae-7c719e0eb61d","system_id":"levelo_inurba_marseille","lat":43.303166,"lon":5.404524,"is_reserved":false,"is_disabled":false,"rental_uris":{"android":"levelo://app?vid=a660c8bf-ace8-4a4d-9eae-7c719e0eb61d","ios":"levelo://app?vid=a660c8bf-ace8-4a4d-9eae-7c719e0eb61d"},"vehicle_type_id":"4","last_reported":1751951569,"current_range_meters":10800,"station_id":"ce4bh012rcd13ifvqd10","pricing_plan_id":"cebpf4jnsgd1na2vs0mg"},{"bike_id":"40a4d41c-4a98-4ff9-8fb7-1c8f7d63aa00","system_id":"levelo_inurba_marseille","lat":43.29455,"lon":5.39746,"is_reserved":false,"is_disabled":false,"rental_uris":{"android":"levelo://app?vid=40a4d41c-4a98-4ff9-8fb7-1c8f7d63aa00","ios":"levelo://app?vid=40a4d41c-4a98-4ff9-8fb7-1c8f7d63aa00"},"vehicle_type_id":"4","last_reported":1751951569,"current_range_meters":10800,"station_id":"ce4bh3h2rcd13ifvqdo0","pricing_plan_id":"cebpf4jnsgd1na2vs0mg"},{"bike_id":"9a835e01-725b-41f5-8a1c-1a4de65a16a4","system_id":"levelo_inurba_marseille","lat":43.28041,"lon":5.36943,"is_reserved":false,"is_disabled":false,"rental_uris":{"android":"levelo://app?vid=9a835e01-725b-41f5-8a1c-1a4de65a16a4","ios":"levelo://app?vid=9a835e01-725b-41f5-8a1c-1a4de65a16a4"},"vehicle_type_id":"4","last_reported":1751951569,"current_range_meters":10800,"station_id":"ce4bha12rcd13ifvqef0","pricing_plan_id":"cebpf4jnsgd1na2vs0mg"},{"bike_id":"20c0674d-b5fd-4e8e-88c4-fe181160a0e2","system_id":"levelo_inurba_marseille","lat":43.21748,"lon":5.34591,"is_reserved":false,"is_disabled":false,"rental_uris":{"android":"levelo://app?vid=20c0674d-b5fd-4e8e-88c4-fe181160a0e2","ios":"levelo://app?vid=20c0674d-b5fd-4e8e-88c4-fe181160a0e2"},"vehicle_type_id":"4","last_reported":1751951569,"current_range_meters":10800,"station_id":"st_cvj6r9ubvosntc0bgbag","pricing_plan_id":"cebpf4jnsgd1na2vs0mg"},{"bike_id":"0df4b5eb-4f2e-4c58-97e0-65639bc25ef0","system_id":"levelo_inurba_marseille","lat":43.31368,"lon":5.384976,"is_reserved":false,"is_disabled":false,"rental_uris":{"android":"levelo://app?vid=0df4b5eb-4f2e-4c58-97e0-65639bc25ef0","ios":"levelo://app?vid=0df4b5eb-4f2e-4c58-97e0-65639bc25ef0"},"vehicle_type_id":"4","last_reported":1751951569,"current_range_meters":11200,"station_id":"ce4bgt92rcd13ifvqcf0","pricing_plan_id":"cebpf4jnsgd1na2vs0mg"},{"bike_id":"520db1de-894b-49d4-b9f4-553feb163659","system_id":"levelo_inurba_marseille","lat":43.323384,"lon":5.406175,"is_reserved":false,"is_disabled":false,"rental_uris":{"android":"levelo://app?vid=520db1de-894b-49d4-b9f4-553feb163659","ios":"levelo://app?vid=520db1de-894b-49d4-b9f4-553feb163659"},"vehicle_type_id":"4","last_reported":1751951569,"current_range_meters":11200,"station_id":"ce4bhq92rcd13ifvqhjg","pricing_plan_id":"cebpf4jnsgd1na2vs0mg"},{"bike_id":"1137e4fc-4f42-49ed-b996-637e815513d0","system_id":"levelo_inurba_marseille","lat":43.305593,"lon":5.385285,"is_reserved":false,"is_disabled":false,"rental_uris":{"android":"levelo://app?vid=1137e4fc-4f42-49ed-b996-637e815513d0","ios":"levelo://app?vid=1137e4fc-4f42-49ed-b996-637e815513d0"},"vehicle_type_id":"4","last_reported":1751951569,"current_range_meters":11600,"station_id":"ce4bgg92rcd13ifvqb30","pricing_plan_id":"cebpf4jnsgd1na2vs0mg"},{"bike_id":"43d12e7f-c3cd-4a6a-a228-c0298712c5ef","system_id":"levelo_inurba_marseille","lat":43.30582,"lon":5.39348,"is_reserved":false,"is_disabled":false,"rental_uris":{"android":"levelo://app?vid=43d12e7f-c3cd-4a6a-a228-c0298712c5ef","ios":"levelo://app?vid=43d12e7f-c3cd-4a6a-a228-c0298712c5ef"},"vehicle_type_id":"4","last_reported":1751951569,"current_range_meters":11600,"station_id":"ce4bh0p2rcd13ifvqd80","pricing_plan_id":"cebpf4jnsgd1na2vs0mg"},{"bike_id":"e79346c8-86fc-4daa-86ef-e1e68b65043e","system_id":"levelo_inurba_marseille","lat":43.24071,"lon":5.37752,"is_reserved":false,"is_disabled":false,"rental_uris":{"android":"levelo://app?vid=e79346c8-86fc-4daa-86ef-e1e68b65043e","ios":"levelo://app?vid=e79346c8-86fc-4daa-86ef-e1e68b65043e"},"vehicle_type_id":"4","last_reported":1751951569,"current_range_meters":11600,"station_id":"ce4bhnp2rcd13ifvqgvg","pricing_plan_id":"cebpf4jnsgd1na2vs0mg"},{"bike_id":"002f2ba8-82ee-4831-bc18-f0b75d723675","system_id":"levelo_inurba_marseille","lat":43.28711,"lon":5.39972,"is_reserved":false,"is_disabled":false,"rental_uris":{"android":"levelo://app?vid=002f2ba8-82ee-4831-bc18-f0b75d723675","ios":"levelo://app?vid=002f2ba8-82ee-4831-bc18-f0b75d723675"},"vehicle_type_id":"4","last_reported":1751951569,"current_range_meters":11600,"station_id":"ce4bho92rcd13ifvqh3g","pricing_plan_id":"cebpf4jnsgd1na2vs0mg"},{"bike_id":"072aef18-8c4c-41ca-9032-1b5fba7539b3","system_id":"levelo_inurba_marseille","lat":43.31992,"lon":5.36752,"is_reserved":false,"is_disabled":false,"rental_uris":{"android":"levelo://app?vid=072aef18-8c4c-41ca-9032-1b5fba7539b3","ios":"levelo://app?vid=072aef18-8c4c-41ca-9032-1b5fba7539b3"},"vehicle_type_id":"4","last_reported":1751951569,"current_range_meters":11600,"station_id":"ce4bhrh2rcd13ifvqhug","pricing_plan_id":"cebpf4jnsgd1na2vs0mg"},{"bike_id":"4cc495d5-e597-4967-9c52-2a54104880ee","system_id":"levelo_inurba_marseille","lat":43.22932,"lon":5.35379,"is_reserved":false,"is_disabled":false,"rental_uris":{"android":"levelo://app?vid=4cc495d5-e597-4967-9c52-2a54104880ee","ios":"levelo://app?vid=4cc495d5-e597-4967-9c52-2a54104880ee"},"vehicle_type_id":"4","last_reported":1751951569,"current_range_meters":11600,"station_id":"cpo3532slgdg3j2ikp40","pricing_plan_id":"cebpf4jnsgd1na2vs0mg"},{"bike_id":"3940df16-67e4-48d2-ba98-0b9c909004b3","system_id":"levelo_inurba_marseille","lat":43.314874,"lon":5.397577,"is_reserved":false,"is_disabled":false,"rental_uris":{"android":"levelo://app?vid=3940df16-67e4-48d2-ba98-0b9c909004b3","ios":"levelo://app?vid=3940df16-67e4-48d2-ba98-0b9c909004b3"},"vehicle_type_id":"4","last_reported":1751951569,"current_range_meters":12000,"station_id":"","pricing_plan_id":"cebpf4jnsgd1na2vs0mg"},{"bike_id":"b260b628-14ee-4f8d-a7bb-2148a7e59e67","system_id":"levelo_inurba_marseille","lat":43.30584,"lon":5.37255,"is_reserved":false,"is_disabled":false,"rental_uris":{"android":"levelo://app?vid=b260b628-14ee-4f8d-a7bb-2148a7e59e67","ios":"levelo://app?vid=b260b628-14ee-4f8d-a7bb-2148a7e59e67"},"vehicle_type_id":"4","last_reported":1751951569,"current_range_meters":12000,"station_id":"ce4bgqh2rcd13ifvqc4g","pricing_plan_id":"cebpf4jnsgd1na2vs0mg"},{"bike_id":"b3d99d2c-0ba9-4b93-ad41-ac4592c5210e","system_id":"levelo_inurba_marseille","lat":43.28352,"lon":5.381147,"is_reserved":false,"is_disabled":false,"rental_uris":{"android":"levelo://app?vid=b3d99d2c-0ba9-4b93-ad41-ac4592c5210e","ios":"levelo://app?vid=b3d99d2c-0ba9-4b93-ad41-ac4592c5210e"},"vehicle_type_id":"4","last_reported":1751951569,"current_range_meters":12000,"station_id":"ce4bh412rcd13ifvqdr0","pricing_plan_id":"cebpf4jnsgd1na2vs0mg"},{"bike_id":"c2ee7d66-374b-44cd-b9d7-9ad64301293b","system_id":"levelo_inurba_marseille","lat":43.22506,"lon":5.34777,"is_reserved":false,"is_disabled":false,"rental_uris":{"android":"levelo://app?vid=c2ee7d66-374b-44cd-b9d7-9ad64301293b","ios":"levelo://app?vid=c2ee7d66-374b-44cd-b9d7-9ad64301293b"},"vehicle_type_id":"4","last_reported":1751951569,"current_range_meters":12000,"station_id":"st_cvj5dfep6f1abm77gieg","pricing_plan_id":"cebpf4jnsgd1na2vs0mg"},{"bike_id":"67f94500-6ad6-40b7-80db-92434fb96541","system_id":"levelo_inurba_marseille","lat":43.30881,"lon":5.396441,"is_reserved":false,"is_disabled":false,"rental_uris":{"android":"levelo://app?vid=67f94500-6ad6-40b7-80db-92434fb96541","ios":"levelo://app?vid=67f94500-6ad6-40b7-80db-92434fb96541"},"vehicle_type_id":"4","last_reported":1751951569,"current_range_meters":12400,"station_id":"ce4bh012rcd13ifvqcv0","pricing_plan_id":"cebpf4jnsgd1na2vs0mg"},{"bike_id":"b842a834-2fa4-472d-835b-013e3f131ad8","system_id":"levelo_inurba_marseille","lat":43.25008,"lon":5.389252,"is_reserved":false,"is_disabled":false,"rental_uris":{"android":"levelo://app?vid=b842a834-2fa4-472d-835b-013e3f131ad8","ios":"levelo://app?vid=b842a834-2fa4-472d-835b-013e3f131ad8"},"vehicle_type_id":"4","last_reported":1751951569,"current_range_meters":12400,"station_id":"ce4bhgp2rcd13ifvqfd0","pricing_plan_id":"cebpf4jnsgd1na2vs0mg"},{"bike_id":"bc6e3149-4a9d-4e0d-a6ae-1da46fa9ab56","system_id":"levelo_inurba_marseille","lat":43.326578,"lon":5.410001,"is_reserved":false,"is_disabled":false,"rental_uris":{"android":"levelo://app?vid=bc6e3149-4a9d-4e0d-a6ae-1da46fa9ab56","ios":"levelo://app?vid=bc6e3149-4a9d-4e0d-a6ae-1da46fa9ab56"},"vehicle_type_id":"4","last_reported":1751951569,"current_range_meters":12400,"station_id":"ce4bhpp2rcd13ifvqhgg","pricing_plan_id":"cebpf4jnsgd1na2vs0mg"},{"bike_id":"9bfc7d3d-4e60-4f8a-9c32-ef3d0e77ec5b","system_id":"levelo_inurba_marseille","lat":43.21232,"lon":5.35061,"is_reserved":false,"is_disabled":false,"rental_uris":{"android":"levelo://app?vid=9bfc7d3d-4e60-4f8a-9c32-ef3d0e77ec5b","ios":"levelo://app?vid=9bfc7d3d-4e60-4f8a-9c32-ef3d0e77ec5b"},"vehicle_type_id":"4","last_reported":1751951569,"current_range_meters":12400,"station_id":"st_cvj6sg6p6f1abm77japg","pricing_plan_id":"cebpf4jnsgd1na2vs0mg"},{"bike_id":"e470cb6e-3a72-4ebe-91f8-d3ecddab280e","system_id":"levelo_inurba_marseille","lat":43.307974,"lon":5.381507,"is_reserved":false,"is_disabled":false,"rental_uris":{"android":"levelo://app?vid=e470cb6e-3a72-4ebe-91f8-d3ecddab280e","ios":"levelo://app?vid=e470cb6e-3a72-4ebe-91f8-d3ecddab280e"},"vehicle_type_id":"4","last_reported":1751951569,"current_range_meters":12800,"station_id":"ce4bgt12rcd13ifvqce0","pricing_plan_id":"cebpf4jnsgd1na2vs0mg"},{"bike_id":"8bc4b403-5e61-4dfc-9fa1-d8a42826b87a","system_id":"levelo_inurba_marseille","lat":43.30326,"lon":5.40438,"is_reserved":false,"is_disabled":false,"rental_uris":{"android":"levelo://app?vid=8bc4b403-5e61-4dfc-9fa1-d8a42826b87a","ios":"levelo://app?vid=8bc4b403-5e61-4dfc-9fa1-d8a42826b87a"},"vehicle_type_id":"4","last_reported":1751951569,"current_range_meters":12800,"station_id":"ce4bh012rcd13ifvqd10","pricing_plan_id":"cebpf4jnsgd1na2vs0mg"},{"bike_id":"4c4d4b94-5832-431b-a6a4-1addce77dff7","system_id":"levelo_inurba_marseille","lat":43.243913,"lon":5.370621,"is_reserved":false,"is_disabled":false,"rental_uris":{"android":"levelo://app?vid=4c4d4b94-5832-431b-a6a4-1addce77dff7","ios":"levelo://app?vid=4c4d4b94-5832-431b-a6a4-1addce77dff7"},"vehicle_type_id":"4","last_reported":1751951569,"current_range_meters":12800,"station_id":"ce4bhhh2rcd13ifvqfk0","pricing_plan_id":"cebpf4jnsgd1na2vs0mg"},{"bike_id":"2090512e-543d-4a55-b888-2423e2f84234","system_id":"levelo_inurba_marseille","lat":43.24049,"lon":5.37722,"is_reserved":false,"is_disabled":false,"rental_uris":{"android":"levelo://app?vid=2090512e-543d-4a55-b888-2423e2f84234","ios":"levelo://app?vid=2090512e-543d-4a55-b888-2423e2f84234"},"vehicle_type_id":"4","last_reported":1751951569,"current_range_meters":12800,"station_id":"ce4bhnp2rcd13ifvqgvg","pricing_plan_id":"cebpf4jnsgd1na2vs0mg"},{"bike_id":"bac13eb2-75b6-43a2-8750-65111fd6394f","system_id":"levelo_inurba_marseille","lat":43.32092,"lon":5.36776,"is_reserved":false,"is_disabled":false,"rental_uris":{"android":"levelo://app?vid=bac13eb2-75b6-43a2-8750-65111fd6394f","ios":"levelo://app?vid=bac13eb2-75b6-43a2-8750-65111fd6394f"},"vehicle_type_id":"4","last_reported":1751951569,"current_range_meters":12800,"station_id":"ce4bhrh2rcd13ifvqhug","pricing_plan_id":"cebpf4jnsgd1na2vs0mg"},{"bike_id":"c7ac2c6f-0af8-4ed6-b7b9-2a662853575a","system_id":"levelo_inurba_marseille","lat":43.30602,"lon":5.37217,"is_reserved":false,"is_disabled":false,"rental_uris":{"android":"levelo://app?vid=c7ac2c6f-0af8-4ed6-b7b9-2a662853575a","ios":"levelo://app?vid=c7ac2c6f-0af8-4ed6-b7b9-2a662853575a"},"vehicle_type_id":"4","last_reported":1751951569,"current_range_meters":13600,"station_id":"ce4bgqh2rcd13ifvqc4g","pricing_plan_id":"cebpf4jnsgd1na2vs0mg"},{"bike_id":"ae063a66-86c8-4dbf-85fb-211b53656a78","system_id":"levelo_inurba_marseille","lat":43.30756,"lon":5.37655,"is_reserved":false,"is_disabled":false,"rental_uris":{"android":"levelo://app?vid=ae063a66-86c8-4dbf-85fb-211b53656a78","ios":"levelo://app?vid=ae063a66-86c8-4dbf-85fb-211b53656a78"},"vehicle_type_id":"4","last_reported":1751951569,"current_range_meters":13600,"station_id":"ce4bgv92rcd13ifvqcq0","pricing_plan_id":"cebpf4jnsgd1na2vs0mg"},{"bike_id":"45bf0661-6be7-469e-ac50-cda1e6dcbb9c","system_id":"levelo_inurba_marseille","lat":43.28399,"lon":5.37501,"is_reserved":false,"is_disabled":false,"rental_uris":{"android":"levelo://app?vid=45bf0661-6be7-469e-ac50-cda1e6dcbb9c","ios":"levelo://app?vid=45bf0661-6be7-469e-ac50-cda1e6dcbb9c"},"vehicle_type_id":"4","last_reported":1751951569,"current_range_meters":13600,"station_id":"ce4bh412rcd13ifvqds0","pricing_plan_id":"cebpf4jnsgd1na2vs0mg"},{"bike_id":"0e28a9ae-26b0-4409-896f-cfa314dde98a","system_id":"levelo_inurba_marseille","lat":43.2467,"lon":5.38148,"is_reserved":false,"is_disabled":false,"rental_uris":{"android":"levelo://app?vid=0e28a9ae-26b0-4409-896f-cfa314dde98a","ios":"levelo://app?vid=0e28a9ae-26b0-4409-896f-cfa314dde98a"},"vehicle_type_id":"4","last_reported":1751951569,"current_range_meters":13600,"station_id":"ce4bhih2rcd13ifvqfr0","pricing_plan_id":"cebpf4jnsgd1na2vs0mg"},{"bike_id":"e54a69bc-634c-4579-91a1-2ea1e7521c68","system_id":"levelo_inurba_marseille","lat":43.300913,"lon":5.372498,"is_reserved":false,"is_disabled":false,"rental_uris":{"android":"levelo://app?vid=e54a69bc-634c-4579-91a1-2ea1e7521c68","ios":"levelo://app?vid=e54a69bc-634c-4579-91a1-2ea1e7521c68"},"vehicle_type_id":"4","last_reported":1751951569,"current_range_meters":14000,"station_id":"","pricing_plan_id":"cebpf4jnsgd1na2vs0mg"},{"bike_id":"6ffc31bf-be63-440b-8353-4ff83386083b","system_id":"levelo_inurba_marseille","lat":43.2984,"lon":5.36424,"is_reserved":false,"is_disabled":false,"rental_uris":{"android":"levelo://app?vid=6ffc31bf-be63-440b-8353-4ff83386083b","ios":"levelo://app?vid=6ffc31bf-be63-440b-8353-4ff83386083b"},"vehicle_type_id":"4","last_reported":1751951569,"current_range_meters":14000,"station_id":"","pricing_plan_id":"cebpf4jnsgd1na2vs0mg"},{"bike_id":"cc6ff4bb-5e7c-4300-b646-1ab807e54573","system_id":"levelo_inurba_marseille","lat":43.25933,"lon":5.40904,"is_reserved":false,"is_disabled":false,"rental_uris":{"android":"levelo://app?vid=cc6ff4bb-5e7c-4300-b646-1ab807e54573","ios":"levelo://app?vid=cc6ff4bb-5e7c-4300-b646-1ab807e54573"},"vehicle_type_id":"4","last_reported":1751951569,"current_range_meters":14000,"station_id":"ce4bhm92rcd13ifvqglg","pricing_plan_id":"cebpf4jnsgd1na2vs0mg"},{"bike_id":"2acdb97e-7ea7-4c87-9236-5d0e97f4bb9f","system_id":"levelo_inurba_marseille","lat":43.28698,"lon":5.39982,"is_reserved":false,"is_disabled":false,"rental_uris":{"android":"levelo://app?vid=2acdb97e-7ea7-4c87-9236-5d0e97f4bb9f","ios":"levelo://app?vid=2acdb97e-7ea7-4c87-9236-5d0e97f4bb9f"},"vehicle_type_id":"4","last_reported":1751951569,"current_range_meters":14000,"station_id":"ce4bho92rcd13ifvqh3g","pricing_plan_id":"cebpf4jnsgd1na2vs0mg"},{"bike_id":"2fe78b45-c18f-4d39-81db-0f452e878cba","system_id":"levelo_inurba_marseille","lat":43.303782,"lon":5.424796,"is_reserved":false,"is_disabled":false,"rental_uris":{"android":"levelo://app?vid=2fe78b45-c18f-4d39-81db-0f452e878cba","ios":"levelo://app?vid=2fe78b45-c18f-4d39-81db-0f452e878cba"},"vehicle_type_id":"4","last_reported":1751951569,"current_range_meters":14400,"station_id":"ce4bhoh2rcd13ifvqh6g","pricing_plan_id":"cebpf4jnsgd1na2vs0mg"},{"bike_id":"64b4fa4f-0779-4ed7-89cb-2e78d143f36e","system_id":"levelo_inurba_marseille","lat":43.217536,"lon":5.345967,"is_reserved":false,"is_disabled":false,"rental_uris":{"android":"levelo://app?vid=64b4fa4f-0779-4ed7-89cb-2e78d143f36e","ios":"levelo://app?vid=64b4fa4f-0779-4ed7-89cb-2e78d143f36e"},"vehicle_type_id":"4","last_reported":1751951569,"current_range_meters":14400,"station_id":"st_cvj6r9ubvosntc0bgbag","pricing_plan_id":"cebpf4jnsgd1na2vs0mg"},{"bike_id":"427cea64-fc3b-46a4-bd25-2bad84cd1642","system_id":"levelo_inurba_marseille","lat":43.211894,"lon":5.350763,"is_reserved":false,"is_disabled":false,"rental_uris":{"android":"levelo://app?vid=427cea64-fc3b-46a4-bd25-2bad84cd1642","ios":"levelo://app?vid=427cea64-fc3b-46a4-bd25-2bad84cd1642"},"vehicle_type_id":"4","last_reported":1751951569,"current_range_meters":14400,"station_id":"st_cvj6sg6p6f1abm77japg","pricing_plan_id":"cebpf4jnsgd1na2vs0mg"},{"bike_id":"6a3a3e65-1839-43d5-b574-3a73e4e32dac","system_id":"levelo_inurba_marseille","lat":43.32321,"lon":5.3887,"is_reserved":false,"is_disabled":false,"rental_uris":{"android":"levelo://app?vid=6a3a3e65-1839-43d5-b574-3a73e4e32dac","ios":"levelo://app?vid=6a3a3e65-1839-43d5-b574-3a73e4e32dac"},"vehicle_type_id":"4","last_reported":1751951569,"current_range_meters":14800,"station_id":"","pricing_plan_id":"cebpf4jnsgd1na2vs0mg"},{"bike_id":"888522e3-39b6-4ff3-ad74-ff6c6f771157","system_id":"levelo_inurba_marseille","lat":43.29504,"lon":5.40301,"is_reserved":false,"is_disabled":false,"rental_uris":{"android":"levelo://app?vid=888522e3-39b6-4ff3-ad74-ff6c6f771157","ios":"levelo://app?vid=888522e3-39b6-4ff3-ad74-ff6c6f771157"},"vehicle_type_id":"4","last_reported":1751951569,"current_range_meters":14800,"station_id":"","pricing_plan_id":"cebpf4jnsgd1na2vs0mg"},{"bike_id":"a11f7711-06b5-48d4-ad64-228f8a05b25d","system_id":"levelo_inurba_marseille","lat":43.26677,"lon":5.38269,"is_reserved":false,"is_disabled":false,"rental_uris":{"android":"levelo://app?vid=a11f7711-06b5-48d4-ad64-228f8a05b25d","ios":"levelo://app?vid=a11f7711-06b5-48d4-ad64-228f8a05b25d"},"vehicle_type_id":"4","last_reported":1751951569,"current_range_meters":14800,"station_id":"ce4bhg92rcd13ifvqf90","pricing_plan_id":"cebpf4jnsgd1na2vs0mg"},{"bike_id":"8c0e056d-abd2-464e-b3a5-fd410fb97ce4","system_id":"levelo_inurba_marseille","lat":43.30371,"lon":5.42502,"is_reserved":false,"is_disabled":false,"rental_uris":{"android":"levelo://app?vid=8c0e056d-abd2-464e-b3a5-fd410fb97ce4","ios":"levelo://app?vid=8c0e056d-abd2-464e-b3a5-fd410fb97ce4"},"vehicle_type_id":"4","last_reported":1751951569,"current_range_meters":14800,"station_id":"ce4bhoh2rcd13ifvqh6g","pricing_plan_id":"cebpf4jnsgd1na2vs0mg"},{"bike_id":"bcbe3056-9c38-4ff8-b15c-86a1f9a52cd9","system_id":"levelo_inurba_marseille","lat":43.31192,"lon":5.40188,"is_reserved":false,"is_disabled":false,"rental_uris":{"android":"levelo://app?vid=bcbe3056-9c38-4ff8-b15c-86a1f9a52cd9","ios":"levelo://app?vid=bcbe3056-9c38-4ff8-b15c-86a1f9a52cd9"},"vehicle_type_id":"4","last_reported":1751951569,"current_range_meters":15200,"station_id":"","pricing_plan_id":"cebpf4jnsgd1na2vs0mg"},{"bike_id":"94bccb9f-38a9-4aed-80ac-34b097a6b507","system_id":"levelo_inurba_marseille","lat":43.28357,"lon":5.38118,"is_reserved":false,"is_disabled":false,"rental_uris":{"android":"levelo://app?vid=94bccb9f-38a9-4aed-80ac-34b097a6b507","ios":"levelo://app?vid=94bccb9f-38a9-4aed-80ac-34b097a6b507"},"vehicle_type_id":"4","last_reported":1751951569,"current_range_meters":15200,"station_id":"ce4bh412rcd13ifvqdr0","pricing_plan_id":"cebpf4jnsgd1na2vs0mg"},{"bike_id":"b33792bd-5c9b-478f-bd39-c7eda6a8502a","system_id":"levelo_inurba_marseille","lat":43.2718,"lon":5.409886,"is_reserved":false,"is_disabled":false,"rental_uris":{"android":"levelo://app?vid=b33792bd-5c9b-478f-bd39-c7eda6a8502a","ios":"levelo://app?vid=b33792bd-5c9b-478f-bd39-c7eda6a8502a"},"vehicle_type_id":"4","last_reported":1751951569,"current_range_meters":15200,"station_id":"ce4bhl12rcd13ifvqgf0","pricing_plan_id":"cebpf4jnsgd1na2vs0mg"},{"bike_id":"d5ef770d-9759-47e3-b3a5-7d2785ef76db","system_id":"levelo_inurba_marseille","lat":43.32929,"lon":5.39031,"is_reserved":false,"is_disabled":false,"rental_uris":{"android":"levelo://app?vid=d5ef770d-9759-47e3-b3a5-7d2785ef76db","ios":"levelo://app?vid=d5ef770d-9759-47e3-b3a5-7d2785ef76db"},"vehicle_type_id":"4","last_reported":1751951569,"current_range_meters":16000,"station_id":"","pricing_plan_id":"cebpf4jnsgd1na2vs0mg"},{"bike_id":"9db15efa-62b5-43dc-beab-14a16c0840b9","system_id":"levelo_inurba_marseille","lat":43.304524,"lon":5.415534,"is_reserved":false,"is_disabled":false,"rental_uris":{"android":"levelo://app?vid=9db15efa-62b5-43dc-beab-14a16c0840b9","ios":"levelo://app?vid=9db15efa-62b5-43dc-beab-14a16c0840b9"},"vehicle_type_id":"4","last_reported":1751951569,"current_range_meters":16000,"station_id":"","pricing_plan_id":"cebpf4jnsgd1na2vs0mg"},{"bike_id":"28b978ee-201b-4a62-b574-ef8a6f201e55","system_id":"levelo_inurba_marseille","lat":43.30547,"lon":5.36552,"is_reserved":false,"is_disabled":false,"rental_uris":{"android":"levelo://app?vid=28b978ee-201b-4a62-b574-ef8a6f201e55","ios":"levelo://app?vid=28b978ee-201b-4a62-b574-ef8a6f201e55"},"vehicle_type_id":"4","last_reported":1751951569,"current_range_meters":16000,"station_id":"ce4bgs12rcd13ifvqcag","pricing_plan_id":"cebpf4jnsgd1na2vs0mg"},{"bike_id":"077fb3da-f68e-464b-b68d-824174483b25","system_id":"levelo_inurba_marseille","lat":43.316955,"lon":5.404374,"is_reserved":false,"is_disabled":false,"rental_uris":{"android":"levelo://app?vid=077fb3da-f68e-464b-b68d-824174483b25","ios":"levelo://app?vid=077fb3da-f68e-464b-b68d-824174483b25"},"vehicle_type_id":"4","last_reported":1751951569,"current_range_meters":16000,"station_id":"ce4bh012rcd13ifvqd00","pricing_plan_id":"cebpf4jnsgd1na2vs0mg"},{"bike_id":"836db0d5-062b-486c-a845-0eb96f259d7c","system_id":"levelo_inurba_marseille","lat":43.28359,"lon":5.38117,"is_reserved":false,"is_disabled":false,"rental_uris":{"android":"levelo://app?vid=836db0d5-062b-486c-a845-0eb96f259d7c","ios":"levelo://app?vid=836db0d5-062b-486c-a845-0eb96f259d7c"},"vehicle_type_id":"4","last_reported":1751951569,"current_range_meters":16000,"station_id":"ce4bh412rcd13ifvqdr0","pricing_plan_id":"cebpf4jnsgd1na2vs0mg"},{"bike_id":"8488af10-92d7-41f0-8176-aa446bff0859","system_id":"levelo_inurba_marseille","lat":43.28465,"lon":5.35871,"is_reserved":false,"is_disabled":false,"rental_uris":{"android":"levelo://app?vid=8488af10-92d7-41f0-8176-aa446bff0859","ios":"levelo://app?vid=8488af10-92d7-41f0-8176-aa446bff0859"},"vehicle_type_id":"4","last_reported":1751951569,"current_range_meters":16000,"station_id":"ce4bhah2rcd13ifvqei0","pricing_plan_id":"cebpf4jnsgd1na2vs0mg"},{"bike_id":"e52bd410-1716-4f7b-a1a0-202abc2c09f8","system_id":"levelo_inurba_marseille","lat":43.24659,"lon":5.38156,"is_reserved":false,"is_disabled":false,"rental_uris":{"android":"levelo://app?vid=e52bd410-1716-4f7b-a1a0-202abc2c09f8","ios":"levelo://app?vid=e52bd410-1716-4f7b-a1a0-202abc2c09f8"},"vehicle_type_id":"4","last_reported":1751951569,"current_range_meters":16000,"station_id":"ce4bhih2rcd13ifvqfr0","pricing_plan_id":"cebpf4jnsgd1na2vs0mg"},{"bike_id":"c5f83647-e0bc-4d1c-96d9-15bff83e5fe0","system_id":"levelo_inurba_marseille","lat":43.2508,"lon":5.39528,"is_reserved":false,"is_disabled":false,"rental_uris":{"android":"levelo://app?vid=c5f83647-e0bc-4d1c-96d9-15bff83e5fe0","ios":"levelo://app?vid=c5f83647-e0bc-4d1c-96d9-15bff83e5fe0"},"vehicle_type_id":"4","last_reported":1751951569,"current_range_meters":16000,"station_id":"ce4bhm12rcd13ifvqgkg","pricing_plan_id":"cebpf4jnsgd1na2vs0mg"},{"bike_id":"51890362-46b0-4ee7-9f02-afbf036d064e","system_id":"levelo_inurba_marseille","lat":43.21191,"lon":5.35071,"is_reserved":false,"is_disabled":false,"rental_uris":{"android":"levelo://app?vid=51890362-46b0-4ee7-9f02-afbf036d064e","ios":"levelo://app?vid=51890362-46b0-4ee7-9f02-afbf036d064e"},"vehicle_type_id":"4","last_reported":1751951569,"current_range_meters":16000,"station_id":"st_cvj6sg6p6f1abm77japg","pricing_plan_id":"cebpf4jnsgd1na2vs0mg"},{"bike_id":"084f14d4-0bc9-446c-902e-a4f3b90135fe","system_id":"levelo_inurba_marseille","lat":43.32438,"lon":5.42887,"is_reserved":false,"is_disabled":false,"rental_uris":{"android":"levelo://app?vid=084f14d4-0bc9-446c-902e-a4f3b90135fe","ios":"levelo://app?vid=084f14d4-0bc9-446c-902e-a4f3b90135fe"},"vehicle_type_id":"4","last_reported":1751951569,"current_range_meters":16400,"station_id":"","pricing_plan_id":"cebpf4jnsgd1na2vs0mg"},{"bike_id":"afd2c671-b274-4716-95f7-9abfdfc6dc55","system_id":"levelo_inurba_marseille","lat":43.31523,"lon":5.37432,"is_reserved":false,"is_disabled":false,"rental_uris":{"android":"levelo://app?vid=afd2c671-b274-4716-95f7-9abfdfc6dc55","ios":"levelo://app?vid=afd2c671-b274-4716-95f7-9abfdfc6dc55"},"vehicle_type_id":"4","last_reported":1751951569,"current_range_meters":16400,"station_id":"","pricing_plan_id":"cebpf4jnsgd1na2vs0mg"},{"bike_id":"13c84df3-55fc-4465-b582-17389625d267","system_id":"levelo_inurba_marseille","lat":43.26024,"lon":5.41763,"is_reserved":false,"is_disabled":false,"rental_uris":{"android":"levelo://app?vid=13c84df3-55fc-4465-b582-17389625d267","ios":"levelo://app?vid=13c84df3-55fc-4465-b582-17389625d267"},"vehicle_type_id":"4","last_reported":1751951569,"current_range_meters":16400,"station_id":"","pricing_plan_id":"cebpf4jnsgd1na2vs0mg"},{"bike_id":"87c2d236-4978-4760-be77-27d7f5a212e4","system_id":"levelo_inurba_marseille","lat":43.29644,"lon":5.36205,"is_reserved":false,"is_disabled":false,"rental_uris":{"android":"levelo://app?vid=87c2d236-4978-4760-be77-27d7f5a212e4","ios":"levelo://app?vid=87c2d236-4978-4760-be77-27d7f5a212e4"},"vehicle_type_id":"4","last_reported":1751951569,"current_range_meters":16400,"station_id":"","pricing_plan_id":"cebpf4jnsgd1na2vs0mg"},{"bike_id":"356fe65c-c3d7-4d21-ba73-ad6b5da3c949","system_id":"levelo_inurba_marseille","lat":43.30147,"lon":5.38103,"is_reserved":false,"is_disabled":false,"rental_uris":{"android":"levelo://app?vid=356fe65c-c3d7-4d21-ba73-ad6b5da3c949","ios":"levelo://app?vid=356fe65c-c3d7-4d21-ba73-ad6b5da3c949"},"vehicle_type_id":"4","last_reported":1751951569,"current_range_meters":16400,"station_id":"ce4bgjp2rcd13ifvqbh0","pricing_plan_id":"cebpf4jnsgd1na2vs0mg"},{"bike_id":"fe656bab-6b4a-410e-93b2-f80d39aa9105","system_id":"levelo_inurba_marseille","lat":43.30138,"lon":5.39868,"is_reserved":false,"is_disabled":false,"rental_uris":{"android":"levelo://app?vid=fe656bab-6b4a-410e-93b2-f80d39aa9105","ios":"levelo://app?vid=fe656bab-6b4a-410e-93b2-f80d39aa9105"},"vehicle_type_id":"4","last_reported":1751951569,"current_range_meters":16400,"station_id":"ce4bh0h2rcd13ifvqd40","pricing_plan_id":"cebpf4jnsgd1na2vs0mg"},{"bike_id":"c1f60715-855e-4c44-99fc-f230041385ee","system_id":"levelo_inurba_marseille","lat":43.30735,"lon":5.42425,"is_reserved":false,"is_disabled":false,"rental_uris":{"android":"levelo://app?vid=c1f60715-855e-4c44-99fc-f230041385ee","ios":"levelo://app?vid=c1f60715-855e-4c44-99fc-f230041385ee"},"vehicle_type_id":"4","last_reported":1751951569,"current_range_meters":16400,"station_id":"st_cvj6ca6bvosntc0bfgr0","pricing_plan_id":"cebpf4jnsgd1na2vs0mg"},{"bike_id":"d78487cb-fa92-4db1-b4fa-56250fd7e81f","system_id":"levelo_inurba_marseille","lat":43.248821,"lon":5.393155,"is_reserved":false,"is_disabled":false,"rental_uris":{"android":"levelo://app?vid=d78487cb-fa92-4db1-b4fa-56250fd7e81f","ios":"levelo://app?vid=d78487cb-fa92-4db1-b4fa-56250fd7e81f"},"vehicle_type_id":"4","last_reported":1751951569,"current_range_meters":16800,"station_id":"","pricing_plan_id":"cebpf4jnsgd1na2vs0mg"},{"bike_id":"4286ff59-2bc5-4090-a86c-8916e2e28188","system_id":"levelo_inurba_marseille","lat":43.289433,"lon":5.396294,"is_reserved":false,"is_disabled":false,"rental_uris":{"android":"levelo://app?vid=4286ff59-2bc5-4090-a86c-8916e2e28188","ios":"levelo://app?vid=4286ff59-2bc5-4090-a86c-8916e2e28188"},"vehicle_type_id":"4","last_reported":1751951569,"current_range_meters":16800,"station_id":"ce4bh3h2rcd13ifvqdn0","pricing_plan_id":"cebpf4jnsgd1na2vs0mg"},{"bike_id":"2182b64b-8dd0-43a0-a448-001e57fc2924","system_id":"levelo_inurba_marseille","lat":43.265704,"lon":5.390191,"is_reserved":false,"is_disabled":false,"rental_uris":{"android":"levelo://app?vid=2182b64b-8dd0-43a0-a448-001e57fc2924","ios":"levelo://app?vid=2182b64b-8dd0-43a0-a448-001e57fc2924"},"vehicle_type_id":"4","last_reported":1751951569,"current_range_meters":16800,"station_id":"ce4bhe12rcd13ifvqf30","pricing_plan_id":"cebpf4jnsgd1na2vs0mg"},{"bike_id":"6649721b-1a91-4e50-b39b-63f5e7e53122","system_id":"levelo_inurba_marseille","lat":43.32332,"lon":5.40615,"is_reserved":false,"is_disabled":false,"rental_uris":{"android":"levelo://app?vid=6649721b-1a91-4e50-b39b-63f5e7e53122","ios":"levelo://app?vid=6649721b-1a91-4e50-b39b-63f5e7e53122"},"vehicle_type_id":"4","last_reported":1751951569,"current_range_meters":16800,"station_id":"ce4bhq92rcd13ifvqhjg","pricing_plan_id":"cebpf4jnsgd1na2vs0mg"},{"bike_id":"9ad7483e-2557-479a-9522-089c3b1a8bfd","system_id":"levelo_inurba_marseille","lat":43.30788,"lon":5.3819,"is_reserved":false,"is_disabled":false,"rental_uris":{"android":"levelo://app?vid=9ad7483e-2557-479a-9522-089c3b1a8bfd","ios":"levelo://app?vid=9ad7483e-2557-479a-9522-089c3b1a8bfd"},"vehicle_type_id":"4","last_reported":1751951569,"current_range_meters":17200,"station_id":"ce4bgt12rcd13ifvqce0","pricing_plan_id":"cebpf4jnsgd1na2vs0mg"},{"bike_id":"72d7b71d-d2fd-4b28-98cf-acdfa50fa372","system_id":"levelo_inurba_marseille","lat":43.30723,"lon":5.42372,"is_reserved":false,"is_disabled":false,"rental_uris":{"android":"levelo://app?vid=72d7b71d-d2fd-4b28-98cf-acdfa50fa372","ios":"levelo://app?vid=72d7b71d-d2fd-4b28-98cf-acdfa50fa372"},"vehicle_type_id":"4","last_reported":1751951569,"current_range_meters":17200,"station_id":"st_cvj6ca6bvosntc0bfgr0","pricing_plan_id":"cebpf4jnsgd1na2vs0mg"},{"bike_id":"128f659f-6c7e-4cb0-9ea1-4684a4b898cc","system_id":"levelo_inurba_marseille","lat":43.3112,"lon":5.3777,"is_reserved":false,"is_disabled":false,"rental_uris":{"android":"levelo://app?vid=128f659f-6c7e-4cb0-9ea1-4684a4b898cc","ios":"levelo://app?vid=128f659f-6c7e-4cb0-9ea1-4684a4b898cc"},"vehicle_type_id":"4","last_reported":1751951569,"current_range_meters":17600,"station_id":"ce4bgt92rcd13ifvqcg0","pricing_plan_id":"cebpf4jnsgd1na2vs0mg"},{"bike_id":"0184a4d1-2dda-4a48-8767-14d4cd757c90","system_id":"levelo_inurba_marseille","lat":43.286979,"lon":5.40008,"is_reserved":false,"is_disabled":false,"rental_uris":{"android":"levelo://app?vid=0184a4d1-2dda-4a48-8767-14d4cd757c90","ios":"levelo://app?vid=0184a4d1-2dda-4a48-8767-14d4cd757c90"},"vehicle_type_id":"4","last_reported":1751951569,"current_range_meters":17600,"station_id":"ce4bho92rcd13ifvqh3g","pricing_plan_id":"cebpf4jnsgd1na2vs0mg"},{"bike_id":"a43b396d-9e6b-4b09-97b6-3bca14469477","system_id":"levelo_inurba_marseille","lat":43.273319,"lon":5.415328,"is_reserved":false,"is_disabled":false,"rental_uris":{"android":"levelo://app?vid=a43b396d-9e6b-4b09-97b6-3bca14469477","ios":"levelo://app?vid=a43b396d-9e6b-4b09-97b6-3bca14469477"},"vehicle_type_id":"4","last_reported":1751951569,"current_range_meters":18000,"station_id":"","pricing_plan_id":"cebpf4jnsgd1na2vs0mg"},{"bike_id":"ea7df389-5dc0-4c58-88fe-80a5af035925","system_id":"levelo_inurba_marseille","lat":43.298403,"lon":5.364291,"is_reserved":false,"is_disabled":false,"rental_uris":{"android":"levelo://app?vid=ea7df389-5dc0-4c58-88fe-80a5af035925","ios":"levelo://app?vid=ea7df389-5dc0-4c58-88fe-80a5af035925"},"vehicle_type_id":"4","last_reported":1751951569,"current_range_meters":18000,"station_id":"","pricing_plan_id":"cebpf4jnsgd1na2vs0mg"},{"bike_id":"92c6a9d9-2b7f-4402-84f4-471caf5ebfd6","system_id":"levelo_inurba_marseille","lat":43.24665,"lon":5.3815,"is_reserved":false,"is_disabled":false,"rental_uris":{"android":"levelo://app?vid=92c6a9d9-2b7f-4402-84f4-471caf5ebfd6","ios":"levelo://app?vid=92c6a9d9-2b7f-4402-84f4-471caf5ebfd6"},"vehicle_type_id":"4","last_reported":1751951569,"current_range_meters":18000,"station_id":"ce4bhih2rcd13ifvqfr0","pricing_plan_id":"cebpf4jnsgd1na2vs0mg"},{"bike_id":"45b31e0b-1887-4def-b5f9-d8cd58c4e399","system_id":"levelo_inurba_marseille","lat":43.323551,"lon":5.388902,"is_reserved":false,"is_disabled":false,"rental_uris":{"android":"levelo://app?vid=45b31e0b-1887-4def-b5f9-d8cd58c4e399","ios":"levelo://app?vid=45b31e0b-1887-4def-b5f9-d8cd58c4e399"},"vehicle_type_id":"4","last_reported":1751951569,"current_range_meters":18000,"station_id":"ce4bhqp2rcd13ifvqhog","pricing_plan_id":"cebpf4jnsgd1na2vs0mg"},{"bike_id":"3af9309d-b0e0-4a4a-901c-85870d8cddc6","system_id":"levelo_inurba_marseille","lat":43.313346,"lon":5.396813,"is_reserved":false,"is_disabled":false,"rental_uris":{"android":"levelo://app?vid=3af9309d-b0e0-4a4a-901c-85870d8cddc6","ios":"levelo://app?vid=3af9309d-b0e0-4a4a-901c-85870d8cddc6"},"vehicle_type_id":"4","last_reported":1751951569,"current_range_meters":18800,"station_id":"ce4bgvp2rcd13ifvqcu0","pricing_plan_id":"cebpf4jnsgd1na2vs0mg"},{"bike_id":"56cb5a5d-cbee-4d6a-979e-4b924ffca4cd","system_id":"levelo_inurba_marseille","lat":43.287097,"lon":5.399816,"is_reserved":false,"is_disabled":false,"rental_uris":{"android":"levelo://app?vid=56cb5a5d-cbee-4d6a-979e-4b924ffca4cd","ios":"levelo://app?vid=56cb5a5d-cbee-4d6a-979e-4b924ffca4cd"},"vehicle_type_id":"4","last_reported":1751951569,"current_range_meters":18800,"station_id":"ce4bho92rcd13ifvqh3g","pricing_plan_id":"cebpf4jnsgd1na2vs0mg"},{"bike_id":"b287377f-3d0b-47ac-86fe-9e0dfc1563de","system_id":"levelo_inurba_marseille","lat":43.22509,"lon":5.34764,"is_reserved":false,"is_disabled":false,"rental_uris":{"android":"levelo://app?vid=b287377f-3d0b-47ac-86fe-9e0dfc1563de","ios":"levelo://app?vid=b287377f-3d0b-47ac-86fe-9e0dfc1563de"},"vehicle_type_id":"4","last_reported":1751951569,"current_range_meters":18800,"station_id":"st_cvj5dfep6f1abm77gieg","pricing_plan_id":"cebpf4jnsgd1na2vs0mg"},{"bike_id":"e35c65f3-3f9e-44ac-9c35-d67050f82774","system_id":"levelo_inurba_marseille","lat":43.30765,"lon":5.43555,"is_reserved":false,"is_disabled":false,"rental_uris":{"android":"levelo://app?vid=e35c65f3-3f9e-44ac-9c35-d67050f82774","ios":"levelo://app?vid=e35c65f3-3f9e-44ac-9c35-d67050f82774"},"vehicle_type_id":"4","last_reported":1751951569,"current_range_meters":19200,"station_id":"","pricing_plan_id":"cebpf4jnsgd1na2vs0mg"},{"bike_id":"a3fdcdf8-b5b2-4037-91ca-fbaa718d041a","system_id":"levelo_inurba_marseille","lat":43.304626,"lon":5.379033,"is_reserved":false,"is_disabled":false,"rental_uris":{"android":"levelo://app?vid=a3fdcdf8-b5b2-4037-91ca-fbaa718d041a","ios":"levelo://app?vid=a3fdcdf8-b5b2-4037-91ca-fbaa718d041a"},"vehicle_type_id":"4","last_reported":1751951569,"current_range_meters":19200,"station_id":"ce4bgt12rcd13ifvqce0","pricing_plan_id":"cebpf4jnsgd1na2vs0mg"},{"bike_id":"80de278f-531e-4d60-b542-60c5a2e4fcc8","system_id":"levelo_inurba_marseille","lat":43.304674,"lon":5.379146,"is_reserved":false,"is_disabled":false,"rental_uris":{"android":"levelo://app?vid=80de278f-531e-4d60-b542-60c5a2e4fcc8","ios":"levelo://app?vid=80de278f-531e-4d60-b542-60c5a2e4fcc8"},"vehicle_type_id":"4","last_reported":1751951569,"current_range_meters":19200,"station_id":"ce4bgup2rcd13ifvqcn0","pricing_plan_id":"cebpf4jnsgd1na2vs0mg"},{"bike_id":"c9e033e9-72ba-4cb7-88e1-1e50fbc3f796","system_id":"levelo_inurba_marseille","lat":43.303175,"lon":5.404459,"is_reserved":false,"is_disabled":false,"rental_uris":{"android":"levelo://app?vid=c9e033e9-72ba-4cb7-88e1-1e50fbc3f796","ios":"levelo://app?vid=c9e033e9-72ba-4cb7-88e1-1e50fbc3f796"},"vehicle_type_id":"4","last_reported":1751951569,"current_range_meters":19200,"station_id":"ce4bh012rcd13ifvqd10","pricing_plan_id":"cebpf4jnsgd1na2vs0mg"},{"bike_id":"eaea6e83-107c-4982-8575-89efeeb166e0","system_id":"levelo_inurba_marseille","lat":43.29038,"lon":5.3996,"is_reserved":false,"is_disabled":false,"rental_uris":{"android":"levelo://app?vid=eaea6e83-107c-4982-8575-89efeeb166e0","ios":"levelo://app?vid=eaea6e83-107c-4982-8575-89efeeb166e0"},"vehicle_type_id":"4","last_reported":1751951569,"current_range_meters":19200,"station_id":"ce4bh392rcd13ifvqdm0","pricing_plan_id":"cebpf4jnsgd1na2vs0mg"},{"bike_id":"6e0cb045-7a78-4a10-92d3-cbf7399a39df","system_id":"levelo_inurba_marseille","lat":43.269498,"lon":5.386421,"is_reserved":false,"is_disabled":false,"rental_uris":{"android":"levelo://app?vid=6e0cb045-7a78-4a10-92d3-cbf7399a39df","ios":"levelo://app?vid=6e0cb045-7a78-4a10-92d3-cbf7399a39df"},"vehicle_type_id":"4","last_reported":1751951569,"current_range_meters":19200,"station_id":"ce4bhh92rcd13ifvqfh0","pricing_plan_id":"cebpf4jnsgd1na2vs0mg"},{"bike_id":"533874ce-3879-4efa-a214-6ba7be8bdc8c","system_id":"levelo_inurba_marseille","lat":43.24179,"lon":5.39736,"is_reserved":false,"is_disabled":false,"rental_uris":{"android":"levelo://app?vid=533874ce-3879-4efa-a214-6ba7be8bdc8c","ios":"levelo://app?vid=533874ce-3879-4efa-a214-6ba7be8bdc8c"},"vehicle_type_id":"4","last_reported":1751951569,"current_range_meters":19200,"station_id":"ce4bhn12rcd13ifvqgpg","pricing_plan_id":"cebpf4jnsgd1na2vs0mg"},{"bike_id":"6f95aa3d-16f6-4202-bc85-2719195ddcb9","system_id":"levelo_inurba_marseille","lat":43.23189,"lon":5.3998,"is_reserved":false,"is_disabled":false,"rental_uris":{"android":"levelo://app?vid=6f95aa3d-16f6-4202-bc85-2719195ddcb9","ios":"levelo://app?vid=6f95aa3d-16f6-4202-bc85-2719195ddcb9"},"vehicle_type_id":"4","last_reported":1751951569,"current_range_meters":19200,"station_id":"ce4bhn12rcd13ifvqgqg","pricing_plan_id":"cebpf4jnsgd1na2vs0mg"},{"bike_id":"e93f552c-5091-41e6-9993-1e46b7c3e8a8","system_id":"levelo_inurba_marseille","lat":43.307342,"lon":5.424414,"is_reserved":false,"is_disabled":false,"rental_uris":{"android":"levelo://app?vid=e93f552c-5091-41e6-9993-1e46b7c3e8a8","ios":"levelo://app?vid=e93f552c-5091-41e6-9993-1e46b7c3e8a8"},"vehicle_type_id":"4","last_reported":1751951569,"current_range_meters":19200,"station_id":"st_cvj6ca6bvosntc0bfgr0","pricing_plan_id":"cebpf4jnsgd1na2vs0mg"},{"bike_id":"f54c5ae9-101b-4a65-ba5b-6f27de8902cc","system_id":"levelo_inurba_marseille","lat":43.296263,"lon":5.406091,"is_reserved":false,"is_disabled":false,"rental_uris":{"android":"levelo://app?vid=f54c5ae9-101b-4a65-ba5b-6f27de8902cc","ios":"levelo://app?vid=f54c5ae9-101b-4a65-ba5b-6f27de8902cc"},"vehicle_type_id":"4","last_reported":1751951569,"current_range_meters":19600,"station_id":"ce4bh0h2rcd13ifvqd60","pricing_plan_id":"cebpf4jnsgd1na2vs0mg"},{"bike_id":"51f0e6bb-8e86-4a89-9f43-3305d7779a76","system_id":"levelo_inurba_marseille","lat":43.28849,"lon":5.39306,"is_reserved":false,"is_disabled":false,"rental_uris":{"android":"levelo://app?vid=51f0e6bb-8e86-4a89-9f43-3305d7779a76","ios":"levelo://app?vid=51f0e6bb-8e86-4a89-9f43-3305d7779a76"},"vehicle_type_id":"4","last_reported":1751951569,"current_range_meters":19600,"station_id":"ce4bh2p2rcd13ifvqdi0","pricing_plan_id":"cebpf4jnsgd1na2vs0mg"},{"bike_id":"8af3bab5-67ca-4001-a1bb-3e99bc14c96c","system_id":"levelo_inurba_marseille","lat":43.229369,"lon":5.353885,"is_reserved":false,"is_disabled":false,"rental_uris":{"android":"levelo://app?vid=8af3bab5-67ca-4001-a1bb-3e99bc14c96c","ios":"levelo://app?vid=8af3bab5-67ca-4001-a1bb-3e99bc14c96c"},"vehicle_type_id":"4","last_reported":1751951569,"current_range_meters":19600,"station_id":"cpo3532slgdg3j2ikp40","pricing_plan_id":"cebpf4jnsgd1na2vs0mg"},{"bike_id":"1e91cee9-7d4a-458c-9805-68ef6c30eb40","system_id":"levelo_inurba_marseille","lat":43.21773,"lon":5.34578,"is_reserved":false,"is_disabled":false,"rental_uris":{"android":"levelo://app?vid=1e91cee9-7d4a-458c-9805-68ef6c30eb40","ios":"levelo://app?vid=1e91cee9-7d4a-458c-9805-68ef6c30eb40"},"vehicle_type_id":"4","last_reported":1751951569,"current_range_meters":19600,"station_id":"st_cvj6r9ubvosntc0bgbag","pricing_plan_id":"cebpf4jnsgd1na2vs0mg"},{"bike_id":"d0f90c24-dd03-411b-9731-55305f76b7c8","system_id":"levelo_inurba_marseille","lat":43.211954,"lon":5.350762,"is_reserved":false,"is_disabled":false,"rental_uris":{"android":"levelo://app?vid=d0f90c24-dd03-411b-9731-55305f76b7c8","ios":"levelo://app?vid=d0f90c24-dd03-411b-9731-55305f76b7c8"},"vehicle_type_id":"4","last_reported":1751951569,"current_range_meters":19600,"station_id":"st_cvj6sg6p6f1abm77japg","pricing_plan_id":"cebpf4jnsgd1na2vs0mg"},{"bike_id":"3f6c4d8d-9ae9-4ac1-96b4-e2b824796435","system_id":"levelo_inurba_marseille","lat":43.26829,"lon":5.40139,"is_reserved":false,"is_disabled":false,"rental_uris":{"android":"levelo://app?vid=3f6c4d8d-9ae9-4ac1-96b4-e2b824796435","ios":"levelo://app?vid=3f6c4d8d-9ae9-4ac1-96b4-e2b824796435"},"vehicle_type_id":"4","last_reported":1751951569,"current_range_meters":20000,"station_id":"","pricing_plan_id":"cebpf4jnsgd1na2vs0mg"},{"bike_id":"e4793d5e-b4cd-4c12-b9d4-446cb97752b9","system_id":"levelo_inurba_marseille","lat":43.292745,"lon":5.39054,"is_reserved":false,"is_disabled":false,"rental_uris":{"android":"levelo://app?vid=e4793d5e-b4cd-4c12-b9d4-446cb97752b9","ios":"levelo://app?vid=e4793d5e-b4cd-4c12-b9d4-446cb97752b9"},"vehicle_type_id":"4","last_reported":1751951569,"current_range_meters":20000,"station_id":"","pricing_plan_id":"cebpf4jnsgd1na2vs0mg"},{"bike_id":"f5c16f07-bc6f-4121-91a7-5ad90eec4f34","system_id":"levelo_inurba_marseille","lat":43.31229,"lon":5.37318,"is_reserved":false,"is_disabled":false,"rental_uris":{"android":"levelo://app?vid=f5c16f07-bc6f-4121-91a7-5ad90eec4f34","ios":"levelo://app?vid=f5c16f07-bc6f-4121-91a7-5ad90eec4f34"},"vehicle_type_id":"4","last_reported":1751951569,"current_range_meters":20000,"station_id":"","pricing_plan_id":"cebpf4jnsgd1na2vs0mg"},{"bike_id":"c2b72fe0-bae6-4c7b-ad48-9e771b203dc8","system_id":"levelo_inurba_marseille","lat":43.313565,"lon":5.384771,"is_reserved":false,"is_disabled":false,"rental_uris":{"android":"levelo://app?vid=c2b72fe0-bae6-4c7b-ad48-9e771b203dc8","ios":"levelo://app?vid=c2b72fe0-bae6-4c7b-ad48-9e771b203dc8"},"vehicle_type_id":"4","last_reported":1751951569,"current_range_meters":20000,"station_id":"ce4bgt92rcd13ifvqcf0","pricing_plan_id":"cebpf4jnsgd1na2vs0mg"},{"bike_id":"e08d045d-0d4b-4fc7-8045-6dac0459fd0a","system_id":"levelo_inurba_marseille","lat":43.285019,"lon":5.385719,"is_reserved":false,"is_disabled":false,"rental_uris":{"android":"levelo://app?vid=e08d045d-0d4b-4fc7-8045-6dac0459fd0a","ios":"levelo://app?vid=e08d045d-0d4b-4fc7-8045-6dac0459fd0a"},"vehicle_type_id":"4","last_reported":1751951569,"current_range_meters":20000,"station_id":"ce4bh8p2rcd13ifvqeb0","pricing_plan_id":"cebpf4jnsgd1na2vs0mg"},{"bike_id":"bb00002b-9dfc-45dc-a4c1-c1f7abbf8458","system_id":"levelo_inurba_marseille","lat":43.29003,"lon":5.35612,"is_reserved":false,"is_disabled":false,"rental_uris":{"android":"levelo://app?vid=bb00002b-9dfc-45dc-a4c1-c1f7abbf8458","ios":"levelo://app?vid=bb00002b-9dfc-45dc-a4c1-c1f7abbf8458"},"vehicle_type_id":"4","last_reported":1751951569,"current_range_meters":20000,"station_id":"ce4bhb92rcd13ifvqen0","pricing_plan_id":"cebpf4jnsgd1na2vs0mg"},{"bike_id":"987972d0-1ebc-4a16-b5fd-c961aa601e57","system_id":"levelo_inurba_marseille","lat":43.29003,"lon":5.35612,"is_reserved":false,"is_disabled":false,"rental_uris":{"android":"levelo://app?vid=987972d0-1ebc-4a16-b5fd-c961aa601e57","ios":"levelo://app?vid=987972d0-1ebc-4a16-b5fd-c961aa601e57"},"vehicle_type_id":"4","last_reported":1751951569,"current_range_meters":20400,"station_id":"ce4bhb92rcd13ifvqen0","pricing_plan_id":"cebpf4jnsgd1na2vs0mg"},{"bike_id":"fb4122cd-0277-4297-8cd5-1b777b465e3e","system_id":"levelo_inurba_marseille","lat":43.240814,"lon":5.377703,"is_reserved":false,"is_disabled":false,"rental_uris":{"android":"levelo://app?vid=fb4122cd-0277-4297-8cd5-1b777b465e3e","ios":"levelo://app?vid=fb4122cd-0277-4297-8cd5-1b777b465e3e"},"vehicle_type_id":"4","last_reported":1751951569,"current_range_meters":20400,"station_id":"ce4bhnp2rcd13ifvqgvg","pricing_plan_id":"cebpf4jnsgd1na2vs0mg"},{"bike_id":"56eb3fdf-ea87-4fcf-85df-3680fa66363e","system_id":"levelo_inurba_marseille","lat":43.22509,"lon":5.34758,"is_reserved":false,"is_disabled":false,"rental_uris":{"android":"levelo://app?vid=56eb3fdf-ea87-4fcf-85df-3680fa66363e","ios":"levelo://app?vid=56eb3fdf-ea87-4fcf-85df-3680fa66363e"},"vehicle_type_id":"4","last_reported":1751951569,"current_range_meters":20400,"station_id":"st_cvj5dfep6f1abm77gieg","pricing_plan_id":"cebpf4jnsgd1na2vs0mg"},{"bike_id":"7f0c405c-cebd-402f-b8ba-98e46b99f50b","system_id":"levelo_inurba_marseille","lat":43.211864,"lon":5.350747,"is_reserved":false,"is_disabled":false,"rental_uris":{"android":"levelo://app?vid=7f0c405c-cebd-402f-b8ba-98e46b99f50b","ios":"levelo://app?vid=7f0c405c-cebd-402f-b8ba-98e46b99f50b"},"vehicle_type_id":"4","last_reported":1751951569,"current_range_meters":20400,"station_id":"st_cvj6sg6p6f1abm77japg","pricing_plan_id":"cebpf4jnsgd1na2vs0mg"},{"bike_id":"b757ffbb-2b71-4330-9f60-5f8a9d46d16e","system_id":"levelo_inurba_marseille","lat":43.29668,"lon":5.37093,"is_reserved":false,"is_disabled":false,"rental_uris":{"android":"levelo://app?vid=b757ffbb-2b71-4330-9f60-5f8a9d46d16e","ios":"levelo://app?vid=b757ffbb-2b71-4330-9f60-5f8a9d46d16e"},"vehicle_type_id":"4","last_reported":1751951569,"current_range_meters":20800,"station_id":"","pricing_plan_id":"cebpf4jnsgd1na2vs0mg"},{"bike_id":"06feb6af-5eb5-49ba-8d41-8d2f4dbe1ee1","system_id":"levelo_inurba_marseille","lat":43.2994,"lon":5.36562,"is_reserved":false,"is_disabled":false,"rental_uris":{"android":"levelo://app?vid=06feb6af-5eb5-49ba-8d41-8d2f4dbe1ee1","ios":"levelo://app?vid=06feb6af-5eb5-49ba-8d41-8d2f4dbe1ee1"},"vehicle_type_id":"4","last_reported":1751951569,"current_range_meters":20800,"station_id":"","pricing_plan_id":"cebpf4jnsgd1na2vs0mg"},{"bike_id":"4d204027-e58f-4770-9c2e-43b395582ed1","system_id":"levelo_inurba_marseille","lat":43.30922,"lon":5.401564,"is_reserved":false,"is_disabled":false,"rental_uris":{"android":"levelo://app?vid=4d204027-e58f-4770-9c2e-43b395582ed1","ios":"levelo://app?vid=4d204027-e58f-4770-9c2e-43b395582ed1"},"vehicle_type_id":"4","last_reported":1751951569,"current_range_meters":20800,"station_id":"ce4bgvp2rcd13ifvqct0","pricing_plan_id":"cebpf4jnsgd1na2vs0mg"},{"bike_id":"38acd522-4cb1-4be8-9617-8c3352b9ea2b","system_id":"levelo_inurba_marseille","lat":43.303179,"lon":5.404481,"is_reserved":false,"is_disabled":false,"rental_uris":{"android":"levelo://app?vid=38acd522-4cb1-4be8-9617-8c3352b9ea2b","ios":"levelo://app?vid=38acd522-4cb1-4be8-9617-8c3352b9ea2b"},"vehicle_type_id":"4","last_reported":1751951569,"current_range_meters":20800,"station_id":"ce4bh012rcd13ifvqd10","pricing_plan_id":"cebpf4jnsgd1na2vs0mg"},{"bike_id":"019a27a3-08e3-4086-b41a-b091bb054a38","system_id":"levelo_inurba_marseille","lat":43.29628,"lon":5.40605,"is_reserved":false,"is_disabled":false,"rental_uris":{"android":"levelo://app?vid=019a27a3-08e3-4086-b41a-b091bb054a38","ios":"levelo://app?vid=019a27a3-08e3-4086-b41a-b091bb054a38"},"vehicle_type_id":"4","last_reported":1751951569,"current_range_meters":20800,"station_id":"ce4bh0h2rcd13ifvqd60","pricing_plan_id":"cebpf4jnsgd1na2vs0mg"},{"bike_id":"f5815830-a3bf-4b38-9cb1-520cd678eb71","system_id":"levelo_inurba_marseille","lat":43.300958,"lon":5.390776,"is_reserved":false,"is_disabled":false,"rental_uris":{"android":"levelo://app?vid=f5815830-a3bf-4b38-9cb1-520cd678eb71","ios":"levelo://app?vid=f5815830-a3bf-4b38-9cb1-520cd678eb71"},"vehicle_type_id":"4","last_reported":1751951569,"current_range_meters":20800,"station_id":"ce4bh192rcd13ifvqdb0","pricing_plan_id":"cebpf4jnsgd1na2vs0mg"},{"bike_id":"d44be792-e4c0-45b1-96b1-d9dfde42e217","system_id":"levelo_inurba_marseille","lat":43.28694,"lon":5.37391,"is_reserved":false,"is_disabled":false,"rental_uris":{"android":"levelo://app?vid=d44be792-e4c0-45b1-96b1-d9dfde42e217","ios":"levelo://app?vid=d44be792-e4c0-45b1-96b1-d9dfde42e217"},"vehicle_type_id":"4","last_reported":1751951569,"current_range_meters":20800,"station_id":"ce4bh3p2rcd13ifvqdq0","pricing_plan_id":"cebpf4jnsgd1na2vs0mg"},{"bike_id":"6f46f84a-b007-442d-a820-0abc1a532207","system_id":"levelo_inurba_marseille","lat":43.24659,"lon":5.38888,"is_reserved":false,"is_disabled":false,"rental_uris":{"android":"levelo://app?vid=6f46f84a-b007-442d-a820-0abc1a532207","ios":"levelo://app?vid=6f46f84a-b007-442d-a820-0abc1a532207"},"vehicle_type_id":"4","last_reported":1751951569,"current_range_meters":20800,"station_id":"ce4bhg12rcd13ifvqf60","pricing_plan_id":"cebpf4jnsgd1na2vs0mg"},{"bike_id":"1d6241b6-88bf-405a-83a9-613804a1ea0b","system_id":"levelo_inurba_marseille","lat":43.241708,"lon":5.397564,"is_reserved":false,"is_disabled":false,"rental_uris":{"android":"levelo://app?vid=1d6241b6-88bf-405a-83a9-613804a1ea0b","ios":"levelo://app?vid=1d6241b6-88bf-405a-83a9-613804a1ea0b"},"vehicle_type_id":"4","last_reported":1751951569,"current_range_meters":20800,"station_id":"ce4bhn12rcd13ifvqgpg","pricing_plan_id":"cebpf4jnsgd1na2vs0mg"},{"bike_id":"b2caa530-bb19-4cc6-a6bd-61e3e1d7432e","system_id":"levelo_inurba_marseille","lat":43.33763,"lon":5.37461,"is_reserved":false,"is_disabled":false,"rental_uris":{"android":"levelo://app?vid=b2caa530-bb19-4cc6-a6bd-61e3e1d7432e","ios":"levelo://app?vid=b2caa530-bb19-4cc6-a6bd-61e3e1d7432e"},"vehicle_type_id":"4","last_reported":1751951569,"current_range_meters":21600,"station_id":"","pricing_plan_id":"cebpf4jnsgd1na2vs0mg"},{"bike_id":"b4a97a51-0113-4ea9-bc38-b7f9c41c48f3","system_id":"levelo_inurba_marseille","lat":43.28689,"lon":5.36276,"is_reserved":false,"is_disabled":false,"rental_uris":{"android":"levelo://app?vid=b4a97a51-0113-4ea9-bc38-b7f9c41c48f3","ios":"levelo://app?vid=b4a97a51-0113-4ea9-bc38-b7f9c41c48f3"},"vehicle_type_id":"4","last_reported":1751951569,"current_range_meters":21600,"station_id":"","pricing_plan_id":"cebpf4jnsgd1na2vs0mg"},{"bike_id":"b6d9b946-f66a-4c6f-96e5-5d23e176360c","system_id":"levelo_inurba_marseille","lat":43.31315,"lon":5.38172,"is_reserved":false,"is_disabled":false,"rental_uris":{"android":"levelo://app?vid=b6d9b946-f66a-4c6f-96e5-5d23e176360c","ios":"levelo://app?vid=b6d9b946-f66a-4c6f-96e5-5d23e176360c"},"vehicle_type_id":"4","last_reported":1751951569,"current_range_meters":22000,"station_id":"","pricing_plan_id":"cebpf4jnsgd1na2vs0mg"},{"bike_id":"3e5ae229-a7f4-4369-b174-15a8529b0b50","system_id":"levelo_inurba_marseille","lat":43.286914,"lon":5.383077,"is_reserved":false,"is_disabled":false,"rental_uris":{"android":"levelo://app?vid=3e5ae229-a7f4-4369-b174-15a8529b0b50","ios":"levelo://app?vid=3e5ae229-a7f4-4369-b174-15a8529b0b50"},"vehicle_type_id":"4","last_reported":1751951569,"current_range_meters":22000,"station_id":"","pricing_plan_id":"cebpf4jnsgd1na2vs0mg"},{"bike_id":"cfadcf42-1dd0-4d71-9c6f-9bfc68f545ae","system_id":"levelo_inurba_marseille","lat":43.25111,"lon":5.40321,"is_reserved":false,"is_disabled":false,"rental_uris":{"android":"levelo://app?vid=cfadcf42-1dd0-4d71-9c6f-9bfc68f545ae","ios":"levelo://app?vid=cfadcf42-1dd0-4d71-9c6f-9bfc68f545ae"},"vehicle_type_id":"4","last_reported":1751951569,"current_range_meters":22000,"station_id":"ce4bhlh2rcd13ifvqgig","pricing_plan_id":"cebpf4jnsgd1na2vs0mg"},{"bike_id":"56c9bd01-00d3-420a-9935-0c6c3a7869e3","system_id":"levelo_inurba_marseille","lat":43.241775,"lon":5.397266,"is_reserved":false,"is_disabled":false,"rental_uris":{"android":"levelo://app?vid=56c9bd01-00d3-420a-9935-0c6c3a7869e3","ios":"levelo://app?vid=56c9bd01-00d3-420a-9935-0c6c3a7869e3"},"vehicle_type_id":"4","last_reported":1751951569,"current_range_meters":22000,"station_id":"ce4bhn12rcd13ifvqgpg","pricing_plan_id":"cebpf4jnsgd1na2vs0mg"},{"bike_id":"697d5fc4-b988-4a4e-8323-c1ce5ed61a61","system_id":"levelo_inurba_marseille","lat":43.211961,"lon":5.350787,"is_reserved":false,"is_disabled":false,"rental_uris":{"android":"levelo://app?vid=697d5fc4-b988-4a4e-8323-c1ce5ed61a61","ios":"levelo://app?vid=697d5fc4-b988-4a4e-8323-c1ce5ed61a61"},"vehicle_type_id":"4","last_reported":1751951569,"current_range_meters":22000,"station_id":"st_cvj6sg6p6f1abm77japg","pricing_plan_id":"cebpf4jnsgd1na2vs0mg"},{"bike_id":"320f2a33-deaa-4e0a-a3d5-c39ce8ad680a","system_id":"levelo_inurba_marseille","lat":43.31541,"lon":5.37472,"is_reserved":false,"is_disabled":false,"rental_uris":{"android":"levelo://app?vid=320f2a33-deaa-4e0a-a3d5-c39ce8ad680a","ios":"levelo://app?vid=320f2a33-deaa-4e0a-a3d5-c39ce8ad680a"},"vehicle_type_id":"4","last_reported":1751951569,"current_range_meters":22400,"station_id":"","pricing_plan_id":"cebpf4jnsgd1na2vs0mg"},{"bike_id":"82831a06-c670-48f5-aed0-740cfceb51ca","system_id":"levelo_inurba_marseille","lat":43.29803,"lon":5.37278,"is_reserved":false,"is_disabled":false,"rental_uris":{"android":"levelo://app?vid=82831a06-c670-48f5-aed0-740cfceb51ca","ios":"levelo://app?vid=82831a06-c670-48f5-aed0-740cfceb51ca"},"vehicle_type_id":"4","last_reported":1751951569,"current_range_meters":22400,"station_id":"","pricing_plan_id":"cebpf4jnsgd1na2vs0mg"},{"bike_id":"5a5872c6-a97c-4e06-96d5-1828b33141df","system_id":"levelo_inurba_marseille","lat":43.31314,"lon":5.36865,"is_reserved":false,"is_disabled":false,"rental_uris":{"android":"levelo://app?vid=5a5872c6-a97c-4e06-96d5-1828b33141df","ios":"levelo://app?vid=5a5872c6-a97c-4e06-96d5-1828b33141df"},"vehicle_type_id":"4","last_reported":1751951569,"current_range_meters":22400,"station_id":"","pricing_plan_id":"cebpf4jnsgd1na2vs0mg"},{"bike_id":"688c9340-f1b0-43e5-aedc-c889c4eb2713","system_id":"levelo_inurba_marseille","lat":43.30409,"lon":5.37929,"is_reserved":false,"is_disabled":false,"rental_uris":{"android":"levelo://app?vid=688c9340-f1b0-43e5-aedc-c889c4eb2713","ios":"levelo://app?vid=688c9340-f1b0-43e5-aedc-c889c4eb2713"},"vehicle_type_id":"4","last_reported":1751951569,"current_range_meters":22400,"station_id":"ce4bgup2rcd13ifvqcn0","pricing_plan_id":"cebpf4jnsgd1na2vs0mg"},{"bike_id":"1f159776-c6ab-4ee5-9cd8-b2185ead58eb","system_id":"levelo_inurba_marseille","lat":43.30594,"lon":5.39353,"is_reserved":false,"is_disabled":false,"rental_uris":{"android":"levelo://app?vid=1f159776-c6ab-4ee5-9cd8-b2185ead58eb","ios":"levelo://app?vid=1f159776-c6ab-4ee5-9cd8-b2185ead58eb"},"vehicle_type_id":"4","last_reported":1751951569,"current_range_meters":22400,"station_id":"ce4bh0p2rcd13ifvqd80","pricing_plan_id":"cebpf4jnsgd1na2vs0mg"},{"bike_id":"f11505bd-9ce4-47b5-8c06-b8df1eb6fcc8","system_id":"levelo_inurba_marseille","lat":43.2811,"lon":5.37856,"is_reserved":false,"is_disabled":false,"rental_uris":{"android":"levelo://app?vid=f11505bd-9ce4-47b5-8c06-b8df1eb6fcc8","ios":"levelo://app?vid=f11505bd-9ce4-47b5-8c06-b8df1eb6fcc8"},"vehicle_type_id":"4","last_reported":1751951569,"current_range_meters":22400,"station_id":"ce4bha12rcd13ifvqee0","pricing_plan_id":"cebpf4jnsgd1na2vs0mg"},{"bike_id":"d947deeb-ac61-498e-9688-1c66dfbeb541","system_id":"levelo_inurba_marseille","lat":43.23185,"lon":5.399883,"is_reserved":false,"is_disabled":false,"rental_uris":{"android":"levelo://app?vid=d947deeb-ac61-498e-9688-1c66dfbeb541","ios":"levelo://app?vid=d947deeb-ac61-498e-9688-1c66dfbeb541"},"vehicle_type_id":"4","last_reported":1751951569,"current_range_meters":22400,"station_id":"ce4bhn12rcd13ifvqgqg","pricing_plan_id":"cebpf4jnsgd1na2vs0mg"},{"bike_id":"04be41ab-3600-4ce7-991b-310dc8bf48de","system_id":"levelo_inurba_marseille","lat":43.28692,"lon":5.37407,"is_reserved":false,"is_disabled":false,"rental_uris":{"android":"levelo://app?vid=04be41ab-3600-4ce7-991b-310dc8bf48de","ios":"levelo://app?vid=04be41ab-3600-4ce7-991b-310dc8bf48de"},"vehicle_type_id":"4","last_reported":1751951569,"current_range_meters":22800,"station_id":"ce4bh3p2rcd13ifvqdq0","pricing_plan_id":"cebpf4jnsgd1na2vs0mg"},{"bike_id":"00a0a075-9022-4a68-a3de-224a910d7064","system_id":"levelo_inurba_marseille","lat":43.28997,"lon":5.35614,"is_reserved":false,"is_disabled":false,"rental_uris":{"android":"levelo://app?vid=00a0a075-9022-4a68-a3de-224a910d7064","ios":"levelo://app?vid=00a0a075-9022-4a68-a3de-224a910d7064"},"vehicle_type_id":"4","last_reported":1751951569,"current_range_meters":22800,"station_id":"ce4bhb92rcd13ifvqen0","pricing_plan_id":"cebpf4jnsgd1na2vs0mg"},{"bike_id":"38b37532-f4c9-43c1-a8fb-9e99f29744c0","system_id":"levelo_inurba_marseille","lat":43.27926,"lon":5.37998,"is_reserved":false,"is_disabled":false,"rental_uris":{"android":"levelo://app?vid=38b37532-f4c9-43c1-a8fb-9e99f29744c0","ios":"levelo://app?vid=38b37532-f4c9-43c1-a8fb-9e99f29744c0"},"vehicle_type_id":"4","last_reported":1751951569,"current_range_meters":22800,"station_id":"ce4bhf92rcd13ifvqf50","pricing_plan_id":"cebpf4jnsgd1na2vs0mg"},{"bike_id":"266df3b8-00d5-4034-a2ae-976152e70090","system_id":"levelo_inurba_marseille","lat":43.240683,"lon":5.377676,"is_reserved":false,"is_disabled":false,"rental_uris":{"android":"levelo://app?vid=266df3b8-00d5-4034-a2ae-976152e70090","ios":"levelo://app?vid=266df3b8-00d5-4034-a2ae-976152e70090"},"vehicle_type_id":"4","last_reported":1751951569,"current_range_meters":22800,"station_id":"ce4bhnp2rcd13ifvqgvg","pricing_plan_id":"cebpf4jnsgd1na2vs0mg"},{"bike_id":"9dba086c-d439-40c2-a2ea-92d5c27553cf","system_id":"levelo_inurba_marseille","lat":43.319907,"lon":5.381553,"is_reserved":false,"is_disabled":false,"rental_uris":{"android":"levelo://app?vid=9dba086c-d439-40c2-a2ea-92d5c27553cf","ios":"levelo://app?vid=9dba086c-d439-40c2-a2ea-92d5c27553cf"},"vehicle_type_id":"4","last_reported":1751951569,"current_range_meters":22800,"station_id":"ce4bhr12rcd13ifvqhpg","pricing_plan_id":"cebpf4jnsgd1na2vs0mg"},{"bike_id":"b28aa0a0-791c-4a08-9a16-c7bf6ea0ed5a","system_id":"levelo_inurba_marseille","lat":43.22483,"lon":5.34747,"is_reserved":false,"is_disabled":false,"rental_uris":{"android":"levelo://app?vid=b28aa0a0-791c-4a08-9a16-c7bf6ea0ed5a","ios":"levelo://app?vid=b28aa0a0-791c-4a08-9a16-c7bf6ea0ed5a"},"vehicle_type_id":"4","last_reported":1751951569,"current_range_meters":22800,"station_id":"st_cvj5dfep6f1abm77gieg","pricing_plan_id":"cebpf4jnsgd1na2vs0mg"},{"bike_id":"999f2a33-af15-4ca0-853a-d2550f2d6574","system_id":"levelo_inurba_marseille","lat":43.234437,"lon":5.359177,"is_reserved":false,"is_disabled":false,"rental_uris":{"android":"levelo://app?vid=999f2a33-af15-4ca0-853a-d2550f2d6574","ios":"levelo://app?vid=999f2a33-af15-4ca0-853a-d2550f2d6574"},"vehicle_type_id":"4","last_reported":1751951569,"current_range_meters":23200,"station_id":"","pricing_plan_id":"cebpf4jnsgd1na2vs0mg"},{"bike_id":"b0b14fd8-78fe-4c71-8173-5876ab3071ba","system_id":"levelo_inurba_marseille","lat":43.26781,"lon":5.42043,"is_reserved":false,"is_disabled":false,"rental_uris":{"android":"levelo://app?vid=b0b14fd8-78fe-4c71-8173-5876ab3071ba","ios":"levelo://app?vid=b0b14fd8-78fe-4c71-8173-5876ab3071ba"},"vehicle_type_id":"4","last_reported":1751951569,"current_range_meters":23200,"station_id":"","pricing_plan_id":"cebpf4jnsgd1na2vs0mg"},{"bike_id":"fd2095ad-cce6-410f-b9a7-c1db2c6b3d52","system_id":"levelo_inurba_marseille","lat":43.276383,"lon":5.365661,"is_reserved":false,"is_disabled":false,"rental_uris":{"android":"levelo://app?vid=fd2095ad-cce6-410f-b9a7-c1db2c6b3d52","ios":"levelo://app?vid=fd2095ad-cce6-410f-b9a7-c1db2c6b3d52"},"vehicle_type_id":"4","last_reported":1751951569,"current_range_meters":23200,"station_id":"","pricing_plan_id":"cebpf4jnsgd1na2vs0mg"},{"bike_id":"24e6a998-c0ce-4663-a8f0-26705af34ead","system_id":"levelo_inurba_marseille","lat":43.231224,"lon":5.363241,"is_reserved":false,"is_disabled":false,"rental_uris":{"android":"levelo://app?vid=24e6a998-c0ce-4663-a8f0-26705af34ead","ios":"levelo://app?vid=24e6a998-c0ce-4663-a8f0-26705af34ead"},"vehicle_type_id":"4","last_reported":1751951569,"current_range_meters":23200,"station_id":"","pricing_plan_id":"cebpf4jnsgd1na2vs0mg"},{"bike_id":"dca0a387-a60e-4174-ad42-08b74ffab9e4","system_id":"levelo_inurba_marseille","lat":43.30932,"lon":5.40106,"is_reserved":false,"is_disabled":false,"rental_uris":{"android":"levelo://app?vid=dca0a387-a60e-4174-ad42-08b74ffab9e4","ios":"levelo://app?vid=dca0a387-a60e-4174-ad42-08b74ffab9e4"},"vehicle_type_id":"4","last_reported":1751951569,"current_range_meters":23200,"station_id":"ce4bgvp2rcd13ifvqct0","pricing_plan_id":"cebpf4jnsgd1na2vs0mg"},{"bike_id":"7da960ef-f775-4474-8386-c98ef0d94de9","system_id":"levelo_inurba_marseille","lat":43.309318,"lon":5.401514,"is_reserved":false,"is_disabled":false,"rental_uris":{"android":"levelo://app?vid=7da960ef-f775-4474-8386-c98ef0d94de9","ios":"levelo://app?vid=7da960ef-f775-4474-8386-c98ef0d94de9"},"vehicle_type_id":"4","last_reported":1751951569,"current_range_meters":23200,"station_id":"ce4bgvp2rcd13ifvqct0","pricing_plan_id":"cebpf4jnsgd1na2vs0mg"},{"bike_id":"6c343f9b-ec3d-4c6e-8768-1ab59098ed29","system_id":"levelo_inurba_marseille","lat":43.301989,"lon":5.394826,"is_reserved":false,"is_disabled":false,"rental_uris":{"android":"levelo://app?vid=6c343f9b-ec3d-4c6e-8768-1ab59098ed29","ios":"levelo://app?vid=6c343f9b-ec3d-4c6e-8768-1ab59098ed29"},"vehicle_type_id":"4","last_reported":1751951569,"current_range_meters":23200,"station_id":"ce4bh0p2rcd13ifvqd70","pricing_plan_id":"cebpf4jnsgd1na2vs0mg"},{"bike_id":"e93005ba-91fd-4607-b7a8-02486945f3e6","system_id":"levelo_inurba_marseille","lat":43.2873,"lon":5.39962,"is_reserved":false,"is_disabled":false,"rental_uris":{"android":"levelo://app?vid=e93005ba-91fd-4607-b7a8-02486945f3e6","ios":"levelo://app?vid=e93005ba-91fd-4607-b7a8-02486945f3e6"},"vehicle_type_id":"4","last_reported":1751951569,"current_range_meters":23200,"station_id":"ce4bho92rcd13ifvqh3g","pricing_plan_id":"cebpf4jnsgd1na2vs0mg"},{"bike_id":"efe3ca83-178b-4ee1-aaef-f0644ff1a0e7","system_id":"levelo_inurba_marseille","lat":43.30492,"lon":5.36671,"is_reserved":false,"is_disabled":false,"rental_uris":{"android":"levelo://app?vid=efe3ca83-178b-4ee1-aaef-f0644ff1a0e7","ios":"levelo://app?vid=efe3ca83-178b-4ee1-aaef-f0644ff1a0e7"},"vehicle_type_id":"4","last_reported":1751951569,"current_range_meters":24000,"station_id":"","pricing_plan_id":"cebpf4jnsgd1na2vs0mg"},{"bike_id":"1f503b47-8a00-46b0-b06c-07c030070d45","system_id":"levelo_inurba_marseille","lat":43.299649,"lon":5.385048,"is_reserved":false,"is_disabled":false,"rental_uris":{"android":"levelo://app?vid=1f503b47-8a00-46b0-b06c-07c030070d45","ios":"levelo://app?vid=1f503b47-8a00-46b0-b06c-07c030070d45"},"vehicle_type_id":"4","last_reported":1751951569,"current_range_meters":24000,"station_id":"ce4bgjp2rcd13ifvqbh0","pricing_plan_id":"cebpf4jnsgd1na2vs0mg"},{"bike_id":"b6b60340-c6d3-4b40-b12e-da9a0f0a7d3d","system_id":"levelo_inurba_marseille","lat":43.310745,"lon":5.38348,"is_reserved":false,"is_disabled":false,"rental_uris":{"android":"levelo://app?vid=b6b60340-c6d3-4b40-b12e-da9a0f0a7d3d","ios":"levelo://app?vid=b6b60340-c6d3-4b40-b12e-da9a0f0a7d3d"},"vehicle_type_id":"4","last_reported":1751951569,"current_range_meters":24000,"station_id":"ce4bgv92rcd13ifvqcr0","pricing_plan_id":"cebpf4jnsgd1na2vs0mg"},{"bike_id":"0a11731c-2527-4290-9921-5d219318a9ee","system_id":"levelo_inurba_marseille","lat":43.28706,"lon":5.39964,"is_reserved":false,"is_disabled":false,"rental_uris":{"android":"levelo://app?vid=0a11731c-2527-4290-9921-5d219318a9ee","ios":"levelo://app?vid=0a11731c-2527-4290-9921-5d219318a9ee"},"vehicle_type_id":"4","last_reported":1751951569,"current_range_meters":24000,"station_id":"ce4bho92rcd13ifvqh3g","pricing_plan_id":"cebpf4jnsgd1na2vs0mg"},{"bike_id":"779e1734-651e-4c56-840c-6d2319b7cadb","system_id":"levelo_inurba_marseille","lat":43.32353,"lon":5.36764,"is_reserved":false,"is_disabled":false,"rental_uris":{"android":"levelo://app?vid=779e1734-651e-4c56-840c-6d2319b7cadb","ios":"levelo://app?vid=779e1734-651e-4c56-840c-6d2319b7cadb"},"vehicle_type_id":"4","last_reported":1751951569,"current_range_meters":24000,"station_id":"ce4bhsh2rcd13ifvqi2g","pricing_plan_id":"cebpf4jnsgd1na2vs0mg"},{"bike_id":"40fa92fc-f934-431e-b290-17833f63b829","system_id":"levelo_inurba_marseille","lat":43.231956,"lon":5.355561,"is_reserved":false,"is_disabled":false,"rental_uris":{"android":"levelo://app?vid=40fa92fc-f934-431e-b290-17833f63b829","ios":"levelo://app?vid=40fa92fc-f934-431e-b290-17833f63b829"},"vehicle_type_id":"4","last_reported":1751951569,"current_range_meters":24000,"station_id":"ce4bhu92rcd13ifvqi70","pricing_plan_id":"cebpf4jnsgd1na2vs0mg"},{"bike_id":"f169daa6-ad72-440a-8743-d7ab929fbbc0","system_id":"levelo_inurba_marseille","lat":43.324185,"lon":5.428479,"is_reserved":false,"is_disabled":false,"rental_uris":{"android":"levelo://app?vid=f169daa6-ad72-440a-8743-d7ab929fbbc0","ios":"levelo://app?vid=f169daa6-ad72-440a-8743-d7ab929fbbc0"},"vehicle_type_id":"4","last_reported":1751951569,"current_range_meters":24400,"station_id":"","pricing_plan_id":"cebpf4jnsgd1na2vs0mg"},{"bike_id":"30af19d1-d354-4617-be61-317adad76cc7","system_id":"levelo_inurba_marseille","lat":43.30792,"lon":5.38172,"is_reserved":false,"is_disabled":false,"rental_uris":{"android":"levelo://app?vid=30af19d1-d354-4617-be61-317adad76cc7","ios":"levelo://app?vid=30af19d1-d354-4617-be61-317adad76cc7"},"vehicle_type_id":"4","last_reported":1751951569,"current_range_meters":24400,"station_id":"ce4bgt12rcd13ifvqce0","pricing_plan_id":"cebpf4jnsgd1na2vs0mg"},{"bike_id":"07d22608-e148-4fcf-82ad-e6751430ce33","system_id":"levelo_inurba_marseille","lat":43.30477,"lon":5.37902,"is_reserved":false,"is_disabled":false,"rental_uris":{"android":"levelo://app?vid=07d22608-e148-4fcf-82ad-e6751430ce33","ios":"levelo://app?vid=07d22608-e148-4fcf-82ad-e6751430ce33"},"vehicle_type_id":"4","last_reported":1751951569,"current_range_meters":24400,"station_id":"ce4bgup2rcd13ifvqcn0","pricing_plan_id":"cebpf4jnsgd1na2vs0mg"},{"bike_id":"c562274f-9597-456e-a76e-09ebf91434f5","system_id":"levelo_inurba_marseille","lat":43.30926,"lon":5.40147,"is_reserved":false,"is_disabled":false,"rental_uris":{"android":"levelo://app?vid=c562274f-9597-456e-a76e-09ebf91434f5","ios":"levelo://app?vid=c562274f-9597-456e-a76e-09ebf91434f5"},"vehicle_type_id":"4","last_reported":1751951569,"current_range_meters":24400,"station_id":"ce4bgvp2rcd13ifvqct0","pricing_plan_id":"cebpf4jnsgd1na2vs0mg"},{"bike_id":"68535caf-1de2-435e-9fcd-2927f5f52bfa","system_id":"levelo_inurba_marseille","lat":43.26229,"lon":5.40454,"is_reserved":false,"is_disabled":false,"rental_uris":{"android":"levelo://app?vid=68535caf-1de2-435e-9fcd-2927f5f52bfa","ios":"levelo://app?vid=68535caf-1de2-435e-9fcd-2927f5f52bfa"},"vehicle_type_id":"4","last_reported":1751951569,"current_range_meters":24400,"station_id":"ce4bhmh2rcd13ifvqgmg","pricing_plan_id":"cebpf4jnsgd1na2vs0mg"},{"bike_id":"03d61af9-6d2c-4ce6-9b6d-23a414558262","system_id":"levelo_inurba_marseille","lat":43.32291,"lon":5.38276,"is_reserved":false,"is_disabled":false,"rental_uris":{"android":"levelo://app?vid=03d61af9-6d2c-4ce6-9b6d-23a414558262","ios":"levelo://app?vid=03d61af9-6d2c-4ce6-9b6d-23a414558262"},"vehicle_type_id":"4","last_reported":1751951569,"current_range_meters":24400,"station_id":"ce4bhr12rcd13ifvqhqg","pricing_plan_id":"cebpf4jnsgd1na2vs0mg"},{"bike_id":"c0735136-e0f1-410b-b7bc-03f3deffba27","system_id":"levelo_inurba_marseille","lat":43.217495,"lon":5.345969,"is_reserved":false,"is_disabled":false,"rental_uris":{"android":"levelo://app?vid=c0735136-e0f1-410b-b7bc-03f3deffba27","ios":"levelo://app?vid=c0735136-e0f1-410b-b7bc-03f3deffba27"},"vehicle_type_id":"4","last_reported":1751951569,"current_range_meters":24800,"station_id":"","pricing_plan_id":"cebpf4jnsgd1na2vs0mg"},{"bike_id":"613755fc-5084-4d30-a7d4-d962551b3561","system_id":"levelo_inurba_marseille","lat":43.30148,"lon":5.38079,"is_reserved":false,"is_disabled":false,"rental_uris":{"android":"levelo://app?vid=613755fc-5084-4d30-a7d4-d962551b3561","ios":"levelo://app?vid=613755fc-5084-4d30-a7d4-d962551b3561"},"vehicle_type_id":"4","last_reported":1751951569,"current_range_meters":24800,"station_id":"ce4bgjp2rcd13ifvqbh0","pricing_plan_id":"cebpf4jnsgd1na2vs0mg"},{"bike_id":"0dfc04d8-9b59-446b-8df7-38c925ae5963","system_id":"levelo_inurba_marseille","lat":43.30592,"lon":5.39362,"is_reserved":false,"is_disabled":false,"rental_uris":{"android":"levelo://app?vid=0dfc04d8-9b59-446b-8df7-38c925ae5963","ios":"levelo://app?vid=0dfc04d8-9b59-446b-8df7-38c925ae5963"},"vehicle_type_id":"4","last_reported":1751951569,"current_range_meters":24800,"station_id":"ce4bh0p2rcd13ifvqd80","pricing_plan_id":"cebpf4jnsgd1na2vs0mg"},{"bike_id":"2cd3e69e-99fb-4338-9c91-b7bc698ec0be","system_id":"levelo_inurba_marseille","lat":43.29252,"lon":5.40895,"is_reserved":false,"is_disabled":false,"rental_uris":{"android":"levelo://app?vid=2cd3e69e-99fb-4338-9c91-b7bc698ec0be","ios":"levelo://app?vid=2cd3e69e-99fb-4338-9c91-b7bc698ec0be"},"vehicle_type_id":"4","last_reported":1751951569,"current_range_meters":24800,"station_id":"ce4bh192rcd13ifvqdc0","pricing_plan_id":"cebpf4jnsgd1na2vs0mg"},{"bike_id":"ed81e586-b287-4ba2-b5e8-eb2cb20c4a51","system_id":"levelo_inurba_marseille","lat":43.2894,"lon":5.36382,"is_reserved":false,"is_disabled":false,"rental_uris":{"android":"levelo://app?vid=ed81e586-b287-4ba2-b5e8-eb2cb20c4a51","ios":"levelo://app?vid=ed81e586-b287-4ba2-b5e8-eb2cb20c4a51"},"vehicle_type_id":"4","last_reported":1751951569,"current_range_meters":24800,"station_id":"ce4bhc92rcd13ifvqetg","pricing_plan_id":"cebpf4jnsgd1na2vs0mg"},{"bike_id":"63a63929-c366-446b-90b1-ff14a38366e1","system_id":"levelo_inurba_marseille","lat":43.240753,"lon":5.377602,"is_reserved":false,"is_disabled":false,"rental_uris":{"android":"levelo://app?vid=63a63929-c366-446b-90b1-ff14a38366e1","ios":"levelo://app?vid=63a63929-c366-446b-90b1-ff14a38366e1"},"vehicle_type_id":"4","last_reported":1751951569,"current_range_meters":24800,"station_id":"ce4bhnp2rcd13ifvqgvg","pricing_plan_id":"cebpf4jnsgd1na2vs0mg"},{"bike_id":"7294da2a-bc2e-4d41-b613-11fc2aa19a50","system_id":"levelo_inurba_marseille","lat":43.30376,"lon":5.4249,"is_reserved":false,"is_disabled":false,"rental_uris":{"android":"levelo://app?vid=7294da2a-bc2e-4d41-b613-11fc2aa19a50","ios":"levelo://app?vid=7294da2a-bc2e-4d41-b613-11fc2aa19a50"},"vehicle_type_id":"4","last_reported":1751951569,"current_range_meters":24800,"station_id":"ce4bhoh2rcd13ifvqh6g","pricing_plan_id":"cebpf4jnsgd1na2vs0mg"},{"bike_id":"6b3ba7ea-e58b-4b79-a383-a0fec23b0f01","system_id":"levelo_inurba_marseille","lat":43.337265,"lon":5.391866,"is_reserved":false,"is_disabled":false,"rental_uris":{"android":"levelo://app?vid=6b3ba7ea-e58b-4b79-a383-a0fec23b0f01","ios":"levelo://app?vid=6b3ba7ea-e58b-4b79-a383-a0fec23b0f01"},"vehicle_type_id":"4","last_reported":1751951569,"current_range_meters":24800,"station_id":"ce4bhr92rcd13ifvqhsg","pricing_plan_id":"cebpf4jnsgd1na2vs0mg"},{"bike_id":"aca47642-4ceb-4a40-bae0-66b7f0d6dee2","system_id":"levelo_inurba_marseille","lat":43.22502,"lon":5.34782,"is_reserved":false,"is_disabled":false,"rental_uris":{"android":"levelo://app?vid=aca47642-4ceb-4a40-bae0-66b7f0d6dee2","ios":"levelo://app?vid=aca47642-4ceb-4a40-bae0-66b7f0d6dee2"},"vehicle_type_id":"4","last_reported":1751951569,"current_range_meters":24800,"station_id":"st_cvj5dfep6f1abm77gieg","pricing_plan_id":"cebpf4jnsgd1na2vs0mg"},{"bike_id":"87d13c3c-9453-4492-8a8f-f2b4c8e828c6","system_id":"levelo_inurba_marseille","lat":43.26177,"lon":5.37049,"is_reserved":false,"is_disabled":false,"rental_uris":{"android":"levelo://app?vid=87d13c3c-9453-4492-8a8f-f2b4c8e828c6","ios":"levelo://app?vid=87d13c3c-9453-4492-8a8f-f2b4c8e828c6"},"vehicle_type_id":"4","last_reported":1751951569,"current_range_meters":25200,"station_id":"","pricing_plan_id":"cebpf4jnsgd1na2vs0mg"},{"bike_id":"9f5e74ce-2459-4c6f-a171-f6d1e8a1ed83","system_id":"levelo_inurba_marseille","lat":43.318456,"lon":5.375415,"is_reserved":false,"is_disabled":false,"rental_uris":{"android":"levelo://app?vid=9f5e74ce-2459-4c6f-a171-f6d1e8a1ed83","ios":"levelo://app?vid=9f5e74ce-2459-4c6f-a171-f6d1e8a1ed83"},"vehicle_type_id":"4","last_reported":1751951569,"current_range_meters":25200,"station_id":"","pricing_plan_id":"cebpf4jnsgd1na2vs0mg"},{"bike_id":"feaa7e3a-cbe4-4489-be11-8a12d7eec173","system_id":"levelo_inurba_marseille","lat":43.251793,"lon":5.424896,"is_reserved":false,"is_disabled":false,"rental_uris":{"android":"levelo://app?vid=feaa7e3a-cbe4-4489-be11-8a12d7eec173","ios":"levelo://app?vid=feaa7e3a-cbe4-4489-be11-8a12d7eec173"},"vehicle_type_id":"4","last_reported":1751951569,"current_range_meters":25200,"station_id":"","pricing_plan_id":"cebpf4jnsgd1na2vs0mg"},{"bike_id":"c9032453-c4c8-4187-a885-afd025da1a22","system_id":"levelo_inurba_marseille","lat":43.28847,"lon":5.39303,"is_reserved":false,"is_disabled":false,"rental_uris":{"android":"levelo://app?vid=c9032453-c4c8-4187-a885-afd025da1a22","ios":"levelo://app?vid=c9032453-c4c8-4187-a885-afd025da1a22"},"vehicle_type_id":"4","last_reported":1751951569,"current_range_meters":25200,"station_id":"ce4bh2p2rcd13ifvqdi0","pricing_plan_id":"cebpf4jnsgd1na2vs0mg"},{"bike_id":"2695436c-cf18-4b8e-95eb-ebdee09a1218","system_id":"levelo_inurba_marseille","lat":43.25112,"lon":5.40305,"is_reserved":false,"is_disabled":false,"rental_uris":{"android":"levelo://app?vid=2695436c-cf18-4b8e-95eb-ebdee09a1218","ios":"levelo://app?vid=2695436c-cf18-4b8e-95eb-ebdee09a1218"},"vehicle_type_id":"4","last_reported":1751951569,"current_range_meters":25200,"station_id":"ce4bhlh2rcd13ifvqgig","pricing_plan_id":"cebpf4jnsgd1na2vs0mg"},{"bike_id":"51534a8f-5721-4e09-87db-07b6124c4b40","system_id":"levelo_inurba_marseille","lat":43.241744,"lon":5.397267,"is_reserved":false,"is_disabled":false,"rental_uris":{"android":"levelo://app?vid=51534a8f-5721-4e09-87db-07b6124c4b40","ios":"levelo://app?vid=51534a8f-5721-4e09-87db-07b6124c4b40"},"vehicle_type_id":"4","last_reported":1751951569,"current_range_meters":25200,"station_id":"ce4bhn12rcd13ifvqgpg","pricing_plan_id":"cebpf4jnsgd1na2vs0mg"},{"bike_id":"783662ed-2ba9-4eda-9090-a020639ca68a","system_id":"levelo_inurba_marseille","lat":43.30927,"lon":5.4012,"is_reserved":false,"is_disabled":false,"rental_uris":{"android":"levelo://app?vid=783662ed-2ba9-4eda-9090-a020639ca68a","ios":"levelo://app?vid=783662ed-2ba9-4eda-9090-a020639ca68a"},"vehicle_type_id":"4","last_reported":1751951569,"current_range_meters":25600,"station_id":"ce4bgvp2rcd13ifvqct0","pricing_plan_id":"cebpf4jnsgd1na2vs0mg"},{"bike_id":"54884a3f-8fd9-40af-bf18-e08f7dde6a3d","system_id":"levelo_inurba_marseille","lat":43.29882,"lon":5.38893,"is_reserved":false,"is_disabled":false,"rental_uris":{"android":"levelo://app?vid=54884a3f-8fd9-40af-bf18-e08f7dde6a3d","ios":"levelo://app?vid=54884a3f-8fd9-40af-bf18-e08f7dde6a3d"},"vehicle_type_id":"4","last_reported":1751951569,"current_range_meters":25600,"station_id":"ce4bh392rcd13ifvqdl0","pricing_plan_id":"cebpf4jnsgd1na2vs0mg"},{"bike_id":"09274ed3-ffab-4dc3-8a65-e79da0a169ad","system_id":"levelo_inurba_marseille","lat":43.27318,"lon":5.39076,"is_reserved":false,"is_disabled":false,"rental_uris":{"android":"levelo://app?vid=09274ed3-ffab-4dc3-8a65-e79da0a169ad","ios":"levelo://app?vid=09274ed3-ffab-4dc3-8a65-e79da0a169ad"},