{"last_updated":1727957803,"ttl":60,"version":"2.2","data":{"bikes":[{"bike_id":"00e10aca-6a54-466d-98d2-736a20deb55c","system_id":"levelo_inurba_marseille","lat":43.24785,"lon":5.38395,"is_reserved":false,"is_disabled":false,"rental_uris":{"android":"levelo://app?vid=00e10aca-6a54-466d-98d2-736a20deb55c","ios":"levelo://app?vid=00e10aca-6a54-466d-98d2-736a20deb55c"},"vehicle_type_id":"4","last_reported":1727957803,"current_range_meters":11200,"station_id":"","pricing_plan_id":"cebpf4jnsgd1na2vs0mg"},{"bike_id":"8bc0aa01-1d61-49ab-973d-784704f64634","system_id":"levelo_inurba_marseille","lat":43.29935,"lon":5.3654,"is_reserved":false,"is_disabled":false,"rental_uris":{"android":"levelo://app?vid=8bc0aa01-1d61-49ab-973d-784704f64634","ios":"levelo://app?vid=8bc0aa01-1d61-49ab-973d-784704f64634"},"vehicle_type_id":"4","last_reported":1727957803,"current_range_meters":38800,"station_id":"ce4bgm92rcd13ifvqbr0","pricing_plan_id":"cebpf4jnsgd1na2vs0mg"},{"bike_id":"7efcfb98-aa13-4df5-b57a-16c7e98f9447","system_id":"levelo_inurba_marseille","lat":43.27673,"lon":5.38899,"is_reserved":false,"is_disabled":false,"rental_uris":{"android":"levelo://app?vid=7efcfb98-aa13-4df5-b57a-16c7e98f9447","ios":"levelo://app?vid=7efcfb98-aa13-4df5-b57a-16c7e98f9447"},"vehicle_type_id":"4","last_reported":1727957803,"current_range_meters":6400,"station_id":"ce4bhi12rcd13ifvqfo0","pricing_plan_id":"cebpf4jnsgd1na2vs0mg"},{"bike_id":"a834c68a-6b11-4784-9755-0728191cad9f","system_id":"levelo_inurba_marseille","lat":43.23146,"lon":5.43714,"is_reserved":false,"is_disabled":false,"rental_uris":{"android":"levelo://app?vid=a834c68a-6b11-4784-9755-0728191cad9f","ios":"levelo://app?vid=a834c68a-6b11-4784-9755-0728191cad9f"},"vehicle_type_id":"4","last_reported":1727957803,"current_range_meters":36800,"station_id":"ce4bhmp2rcd13ifvqgog","pricing_plan_id":"cebpf4jnsgd1na2vs0mg"},{"bike_id":"02922251-a357-47e9-b1c5-0ba8f445ecde","system_id":"levelo_inurba_marseille","lat":43.34146,"lon":5.40904,"is_reserved":false,"is_disabled":false,"rental_uris":{"android":"levelo://app?vid=02922251-a357-47e9-b1c5-0ba8f445ecde","ios":"levelo://app?vid=02922251-a357-47e9-b1c5-0ba8f445ecde"},"vehicle_type_id":"4","last_reported":1727957803,"current_range_meters":13600,"station_id":"ce4bhqh2rcd13ifvqhlg","pricing_plan_id":"cebpf4jnsgd1na2vs0mg"},{"bike_id":"629c9e6b-15c5-45ca-8eda-87d62cbcc87f","system_id":"levelo_inurba_marseille","lat":43.27496,"lon":5.42446,"is_reserved":false,"is_disabled":false,"rental_uris":{"android":"levelo://app?vid=629c9e6b-15c5-45ca-8eda-87d62cbcc87f","ios":"levelo://app?vid=629c9e6b-15c5-45ca-8eda-87d62cbcc87f"},"vehicle_type_id":"4","last_reported":1727957803,"current_range_meters":16400,"station_id":"ce4bhn92rcd13ifvqgrg","pricing_plan_id":"cebpf4jnsgd1na2vs0mg"},{"bike_id":"dec9cf91-1893-44a4-b993-bca92ef53f36","system_id":"levelo_inurba_marseille","lat":43.29793,"lon":5.39342,"is_reserved":false,"is_disabled":false,"rental_uris":{"android":"levelo://app?vid=dec9cf91-1893-44a4-b993-bca92ef53f36","ios":"levelo://app?vid=dec9cf91-1893-44a4-b993-bca92ef53f36"},"vehicle_type_id":"4","last_reported":1727957803,"current_range_meters":9600,"station_id":"chh1huq6cuj3fo74tm60","pricing_plan_id":"cebpf4jnsgd1na2vs0mg"},{"bike_id":"b04b902d-cf45-4f56-90cf-1075be9c1367","system_id":"levelo_inurba_marseille","lat":43.27493,"lon":5.4245,"is_reserved":false,"is_disabled":false,"rental_uris":{"android":"levelo://app?vid=b04b902d-cf45-4f56-90cf-1075be9c1367","ios":"levelo://app?vid=b04b902d-cf45-4f56-90cf-1075be9c1367"},"vehicle_type_id":"4","last_reported":1727957803,"current_range_meters":22400,"station_id":"ce4bhn92rcd13ifvqgrg","pricing_plan_id":"cebpf4jnsgd1na2vs0mg"},{"bike_id":"d73772b5-d9cb-413f-80ef-df4ee9369cea","system_id":"levelo_inurba_marseille","lat":43.30162,"lon":5.3808,"is_reserved":false,"is_disabled":false,"rental_uris":{"android":"levelo://app?vid=d73772b5-d9cb-413f-80ef-df4ee9369cea","ios":"levelo://app?vid=d73772b5-d9cb-413f-80ef-df4ee9369cea"},"vehicle_type_id":"4","last_reported":1727957803,"current_range_meters":36400,"station_id":"ce4bgjp2rcd13ifvqbh0","pricing_plan_id":"cebpf4jnsgd1na2vs0mg"},{"bike_id":"dfa316ed-31fe-4eb7-ae98-3312a562d760","system_id":"levelo_inurba_marseille","lat":43.27186,"lon":5.40996,"is_reserved":false,"is_disabled":false,"rental_uris":{"android":"levelo://app?vid=dfa316ed-31fe-4eb7-ae98-3312a562d760","ios":"levelo://app?vid=dfa316ed-31fe-4eb7-ae98-3312a562d760"},"vehicle_type_id":"4","last_reported":1727957803,"current_range_meters":35600,"station_id":"ce4bhl12rcd13ifvqgf0","pricing_plan_id":"cebpf4jnsgd1na2vs0mg"},{"bike_id":"31b7f732-5eb8-43e4-b26d-d0d6a02fcf7f","system_id":"levelo_inurba_marseille","lat":43.25575,"lon":5.38232,"is_reserved":false,"is_disabled":false,"rental_uris":{"android":"levelo://app?vid=31b7f732-5eb8-43e4-b26d-d0d6a02fcf7f","ios":"levelo://app?vid=31b7f732-5eb8-43e4-b26d-d0d6a02fcf7f"},"vehicle_type_id":"4","last_reported":1727957803,"current_range_meters":8400,"station_id":"ce4bhih2rcd13ifvqfs0","pricing_plan_id":"cebpf4jnsgd1na2vs0mg"},{"bike_id":"756088e4-bd38-4606-aa6f-cbbf1461af00","system_id":"levelo_inurba_marseille","lat":43.22934,"lon":5.35376,"is_reserved":false,"is_disabled":false,"rental_uris":{"android":"levelo://app?vid=756088e4-bd38-4606-aa6f-cbbf1461af00","ios":"levelo://app?vid=756088e4-bd38-4606-aa6f-cbbf1461af00"},"vehicle_type_id":"4","last_reported":1727957803,"current_range_meters":19200,"station_id":"cpo3532slgdg3j2ikp40","pricing_plan_id":"cebpf4jnsgd1na2vs0mg"},{"bike_id":"08acd780-e9dd-481b-bb70-8456db7ef26f","system_id":"levelo_inurba_marseille","lat":43.30691,"lon":5.39506,"is_reserved":false,"is_disabled":false,"rental_uris":{"android":"levelo://app?vid=08acd780-e9dd-481b-bb70-8456db7ef26f","ios":"levelo://app?vid=08acd780-e9dd-481b-bb70-8456db7ef26f"},"vehicle_type_id":"4","last_reported":1727957803,"current_range_meters":22000,"station_id":"ce4bh092rcd13ifvqd20","pricing_plan_id":"cebpf4jnsgd1na2vs0mg"},{"bike_id":"55284b84-83c5-4b2c-928e-9a74cd123c12","system_id":"levelo_inurba_marseille","lat":43.28082,"lon":5.39662,"is_reserved":false,"is_disabled":false,"rental_uris":{"android":"levelo://app?vid=55284b84-83c5-4b2c-928e-9a74cd123c12","ios":"levelo://app?vid=55284b84-83c5-4b2c-928e-9a74cd123c12"},"vehicle_type_id":"4","last_reported":1727957803,"current_range_meters":39200,"station_id":"ce4bho12rcd13ifvqh2g","pricing_plan_id":"cebpf4jnsgd1na2vs0mg"},{"bike_id":"91dd8c22-d1e9-4d71-ae55-5dd7e65d7d5a","system_id":"levelo_inurba_marseille","lat":43.23148,"lon":5.43714,"is_reserved":false,"is_disabled":false,"rental_uris":{"android":"levelo://app?vid=91dd8c22-d1e9-4d71-ae55-5dd7e65d7d5a","ios":"levelo://app?vid=91dd8c22-d1e9-4d71-ae55-5dd7e65d7d5a"},"vehicle_type_id":"4","last_reported":1727957803,"current_range_meters":20000,"station_id":"ce4bhmp2rcd13ifvqgog","pricing_plan_id":"cebpf4jnsgd1na2vs0mg"},{"bike_id":"ff89b7e6-8dbb-4502-ae6b-954b46feae02","system_id":"levelo_inurba_marseille","lat":43.25005,"lon":5.38914,"is_reserved":false,"is_disabled":false,"rental_uris":{"android":"levelo://app?vid=ff89b7e6-8dbb-4502-ae6b-954b46feae02","ios":"levelo://app?vid=ff89b7e6-8dbb-4502-ae6b-954b46feae02"},"vehicle_type_id":"4","last_reported":1727957803,"current_range_meters":37600,"station_id":"ce4bhgp2rcd13ifvqfd0","pricing_plan_id":"cebpf4jnsgd1na2vs0mg"},{"bike_id":"bc41810d-3fc6-4e9c-bcc1-3b1d7bce3ce2","system_id":"levelo_inurba_marseille","lat":43.23192,"lon":5.39983,"is_reserved":false,"is_disabled":false,"rental_uris":{"android":"levelo://app?vid=bc41810d-3fc6-4e9c-bcc1-3b1d7bce3ce2","ios":"levelo://app?vid=bc41810d-3fc6-4e9c-bcc1-3b1d7bce3ce2"},"vehicle_type_id":"4","last_reported":1727957803,"current_range_meters":24400,"station_id":"ce4bhn12rcd13ifvqgqg","pricing_plan_id":"cebpf4jnsgd1na2vs0mg"},{"bike_id":"4b6721b8-1a28-4ce5-a9fa-1b893f7f0ac0","system_id":"levelo_inurba_marseille","lat":43.32494,"lon":5.3655,"is_reserved":false,"is_disabled":false,"rental_uris":{"android":"levelo://app?vid=4b6721b8-1a28-4ce5-a9fa-1b893f7f0ac0","ios":"levelo://app?vid=4b6721b8-1a28-4ce5-a9fa-1b893f7f0ac0"},"vehicle_type_id":"4","last_reported":1727957803,"current_range_meters":39200,"station_id":"ce4bhs12rcd13ifvqhvg","pricing_plan_id":"cebpf4jnsgd1na2vs0mg"},{"bike_id":"ee78a534-94a4-4683-833d-7487cf689360","system_id":"levelo_inurba_marseille","lat":43.30604,"lon":5.39359,"is_reserved":false,"is_disabled":false,"rental_uris":{"android":"levelo://app?vid=ee78a534-94a4-4683-833d-7487cf689360","ios":"levelo://app?vid=ee78a534-94a4-4683-833d-7487cf689360"},"vehicle_type_id":"4","last_reported":1727957803,"current_range_meters":37600,"station_id":"ce4bh0p2rcd13ifvqd80","pricing_plan_id":"cebpf4jnsgd1na2vs0mg"},{"bike_id":"db5cb7d6-4407-48db-b091-8d66691a9349","system_id":"levelo_inurba_marseille","lat":43.33758,"lon":5.37432,"is_reserved":false,"is_disabled":false,"rental_uris":{"android":"levelo://app?vid=db5cb7d6-4407-48db-b091-8d66691a9349","ios":"levelo://app?vid=db5cb7d6-4407-48db-b091-8d66691a9349"},"vehicle_type_id":"4","last_reported":1727957803,"current_range_meters":9200,"station_id":"","pricing_plan_id":"cebpf4jnsgd1na2vs0mg"},{"bike_id":"fb1a6790-be2f-4f21-bae3-0d6fbd09da35","system_id":"levelo_inurba_marseille","lat":43.29008,"lon":5.35608,"is_reserved":false,"is_disabled":false,"rental_uris":{"android":"levelo://app?vid=fb1a6790-be2f-4f21-bae3-0d6fbd09da35","ios":"levelo://app?vid=fb1a6790-be2f-4f21-bae3-0d6fbd09da35"},"vehicle_type_id":"4","last_reported":1727957803,"current_range_meters":16800,"station_id":"ce4bhb92rcd13ifvqen0","pricing_plan_id":"cebpf4jnsgd1na2vs0mg"},{"bike_id":"0a9918d7-41e5-40b7-a2f3-9509ab8baede","system_id":"levelo_inurba_marseille","lat":43.283416,"lon":5.412768,"is_reserved":false,"is_disabled":false,"rental_uris":{"android":"levelo://app?vid=0a9918d7-41e5-40b7-a2f3-9509ab8baede","ios":"levelo://app?vid=0a9918d7-41e5-40b7-a2f3-9509ab8baede"},"vehicle_type_id":"4","last_reported":1727957803,"current_range_meters":18000,"station_id":"","pricing_plan_id":"cebpf4jnsgd1na2vs0mg"},{"bike_id":"fd802ec6-87e9-40f7-8a8b-86140cac3ad3","system_id":"levelo_inurba_marseille","lat":43.29586,"lon":5.36739,"is_reserved":false,"is_disabled":false,"rental_uris":{"android":"levelo://app?vid=fd802ec6-87e9-40f7-8a8b-86140cac3ad3","ios":"levelo://app?vid=fd802ec6-87e9-40f7-8a8b-86140cac3ad3"},"vehicle_type_id":"4","last_reported":1727957803,"current_range_meters":39200,"station_id":"ce4bgph2rcd13ifvqc2g","pricing_plan_id":"cebpf4jnsgd1na2vs0mg"},{"bike_id":"847b5f29-9921-4ec5-b320-25044e7544ac","system_id":"levelo_inurba_marseille","lat":43.25102,"lon":5.40326,"is_reserved":false,"is_disabled":false,"rental_uris":{"android":"levelo://app?vid=847b5f29-9921-4ec5-b320-25044e7544ac","ios":"levelo://app?vid=847b5f29-9921-4ec5-b320-25044e7544ac"},"vehicle_type_id":"4","last_reported":1727957803,"current_range_meters":23200,"station_id":"ce4bhlh2rcd13ifvqgig","pricing_plan_id":"cebpf4jnsgd1na2vs0mg"},{"bike_id":"c86382ac-a52c-44c4-ae21-a21b0f63f107","system_id":"levelo_inurba_marseille","lat":43.29254,"lon":5.40902,"is_reserved":false,"is_disabled":false,"rental_uris":{"android":"levelo://app?vid=c86382ac-a52c-44c4-ae21-a21b0f63f107","ios":"levelo://app?vid=c86382ac-a52c-44c4-ae21-a21b0f63f107"},"vehicle_type_id":"4","last_reported":1727957803,"current_range_meters":29600,"station_id":"ce4bh192rcd13ifvqdc0","pricing_plan_id":"cebpf4jnsgd1na2vs0mg"},{"bike_id":"891c4784-04bb-4064-8da0-9170f878a0d7","system_id":"levelo_inurba_marseille","lat":43.30141,"lon":5.39867,"is_reserved":false,"is_disabled":false,"rental_uris":{"android":"levelo://app?vid=891c4784-04bb-4064-8da0-9170f878a0d7","ios":"levelo://app?vid=891c4784-04bb-4064-8da0-9170f878a0d7"},"vehicle_type_id":"4","last_reported":1727957803,"current_range_meters":24800,"station_id":"ce4bh0h2rcd13ifvqd40","pricing_plan_id":"cebpf4jnsgd1na2vs0mg"},{"bike_id":"ed3d3e2f-f07a-4e7f-b46c-ae6a1aee5d45","system_id":"levelo_inurba_marseille","lat":43.29022,"lon":5.38637,"is_reserved":false,"is_disabled":false,"rental_uris":{"android":"levelo://app?vid=ed3d3e2f-f07a-4e7f-b46c-ae6a1aee5d45","ios":"levelo://app?vid=ed3d3e2f-f07a-4e7f-b46c-ae6a1aee5d45"},"vehicle_type_id":"4","last_reported":1727957803,"current_range_meters":2800,"station_id":"ce4bh4p2rcd13ifvqe0g","pricing_plan_id":"cebpf4jnsgd1na2vs0mg"},{"bike_id":"1ba5208c-573b-4492-aa1d-13e2ac1f8483","system_id":"levelo_inurba_marseille","lat":43.29275,"lon":5.36851,"is_reserved":false,"is_disabled":false,"rental_uris":{"android":"levelo://app?vid=1ba5208c-573b-4492-aa1d-13e2ac1f8483","ios":"levelo://app?vid=1ba5208c-573b-4492-aa1d-13e2ac1f8483"},"vehicle_type_id":"4","last_reported":1727957803,"current_range_meters":3200,"station_id":"ce4bhbp2rcd13ifvqesg","pricing_plan_id":"cebpf4jnsgd1na2vs0mg"},{"bike_id":"e5f6c9ea-1eed-41e5-bcfd-4414e7a849cb","system_id":"levelo_inurba_marseille","lat":43.28719,"lon":5.37928,"is_reserved":false,"is_disabled":false,"rental_uris":{"android":"levelo://app?vid=e5f6c9ea-1eed-41e5-bcfd-4414e7a849cb","ios":"levelo://app?vid=e5f6c9ea-1eed-41e5-bcfd-4414e7a849cb"},"vehicle_type_id":"4","last_reported":1727957803,"current_range_meters":7200,"station_id":"ce4bh9p2rcd13ifvqec0","pricing_plan_id":"cebpf4jnsgd1na2vs0mg"},{"bike_id":"6bfe54fe-1499-444d-a91b-2d956cde5a99","system_id":"levelo_inurba_marseille","lat":43.28356,"lon":5.3811,"is_reserved":false,"is_disabled":false,"rental_uris":{"android":"levelo://app?vid=6bfe54fe-1499-444d-a91b-2d956cde5a99","ios":"levelo://app?vid=6bfe54fe-1499-444d-a91b-2d956cde5a99"},"vehicle_type_id":"4","last_reported":1727957803,"current_range_meters":28000,"station_id":"ce4bh412rcd13ifvqdr0","pricing_plan_id":"cebpf4jnsgd1na2vs0mg"},{"bike_id":"00411a3f-977b-4a5e-a064-0b34d5d1c69d","system_id":"levelo_inurba_marseille","lat":43.25871,"lon":5.39898,"is_reserved":false,"is_disabled":false,"rental_uris":{"android":"levelo://app?vid=00411a3f-977b-4a5e-a064-0b34d5d1c69d","ios":"levelo://app?vid=00411a3f-977b-4a5e-a064-0b34d5d1c69d"},"vehicle_type_id":"4","last_reported":1727957803,"current_range_meters":32800,"station_id":"ce4bhl92rcd13ifvqghg","pricing_plan_id":"cebpf4jnsgd1na2vs0mg"},{"bike_id":"0d85dad1-cd4b-43e6-bec7-f20cb70cbe4f","system_id":"levelo_inurba_marseille","lat":43.25581,"lon":5.38231,"is_reserved":false,"is_disabled":false,"rental_uris":{"android":"levelo://app?vid=0d85dad1-cd4b-43e6-bec7-f20cb70cbe4f","ios":"levelo://app?vid=0d85dad1-cd4b-43e6-bec7-f20cb70cbe4f"},"vehicle_type_id":"4","last_reported":1727957803,"current_range_meters":22000,"station_id":"ce4bhih2rcd13ifvqfs0","pricing_plan_id":"cebpf4jnsgd1na2vs0mg"},{"bike_id":"89f432c5-7161-4a6b-9029-4b77b3dc64b5","system_id":"levelo_inurba_marseille","lat":43.25723,"lon":5.41114,"is_reserved":false,"is_disabled":false,"rental_uris":{"android":"levelo://app?vid=89f432c5-7161-4a6b-9029-4b77b3dc64b5","ios":"levelo://app?vid=89f432c5-7161-4a6b-9029-4b77b3dc64b5"},"vehicle_type_id":"4","last_reported":1727957803,"current_range_meters":4800,"station_id":"ce4bhkp2rcd13ifvqgd0","pricing_plan_id":"cebpf4jnsgd1na2vs0mg"},{"bike_id":"97c413f0-0499-425d-bfab-2f45162826bf","system_id":"levelo_inurba_marseille","lat":43.25495,"lon":5.3765,"is_reserved":false,"is_disabled":false,"rental_uris":{"android":"levelo://app?vid=97c413f0-0499-425d-bfab-2f45162826bf","ios":"levelo://app?vid=97c413f0-0499-425d-bfab-2f45162826bf"},"vehicle_type_id":"4","last_reported":1727957803,"current_range_meters":36400,"station_id":"ce4bhh12rcd13ifvqff0","pricing_plan_id":"cebpf4jnsgd1na2vs0mg"},{"bike_id":"348571c2-5d32-4f15-9980-7c837c202b3f","system_id":"levelo_inurba_marseille","lat":43.24645,"lon":5.38894,"is_reserved":false,"is_disabled":false,"rental_uris":{"android":"levelo://app?vid=348571c2-5d32-4f15-9980-7c837c202b3f","ios":"levelo://app?vid=348571c2-5d32-4f15-9980-7c837c202b3f"},"vehicle_type_id":"4","last_reported":1727957803,"current_range_meters":36400,"station_id":"ce4bhg12rcd13ifvqf60","pricing_plan_id":"cebpf4jnsgd1na2vs0mg"},{"bike_id":"62e5f888-7e6d-4e7f-bbf2-e279246da4b8","system_id":"levelo_inurba_marseille","lat":43.30246,"lon":5.40074,"is_reserved":false,"is_disabled":false,"rental_uris":{"android":"levelo://app?vid=62e5f888-7e6d-4e7f-bbf2-e279246da4b8","ios":"levelo://app?vid=62e5f888-7e6d-4e7f-bbf2-e279246da4b8"},"vehicle_type_id":"4","last_reported":1727957803,"current_range_meters":37600,"station_id":"ce4bgvh2rcd13ifvqcs0","pricing_plan_id":"cebpf4jnsgd1na2vs0mg"},{"bike_id":"0626ef49-1c3b-479e-b037-7ceaafc3606b","system_id":"levelo_inurba_marseille","lat":43.30454,"lon":5.37906,"is_reserved":false,"is_disabled":false,"rental_uris":{"android":"levelo://app?vid=0626ef49-1c3b-479e-b037-7ceaafc3606b","ios":"levelo://app?vid=0626ef49-1c3b-479e-b037-7ceaafc3606b"},"vehicle_type_id":"4","last_reported":1727957803,"current_range_meters":27200,"station_id":"ce4bgup2rcd13ifvqcn0","pricing_plan_id":"cebpf4jnsgd1na2vs0mg"},{"bike_id":"bc8e430a-4441-42a3-85b3-53e1b2cb0e0e","system_id":"levelo_inurba_marseille","lat":43.31755,"lon":5.39017,"is_reserved":false,"is_disabled":false,"rental_uris":{"android":"levelo://app?vid=bc8e430a-4441-42a3-85b3-53e1b2cb0e0e","ios":"levelo://app?vid=bc8e430a-4441-42a3-85b3-53e1b2cb0e0e"},"vehicle_type_id":"4","last_reported":1727957803,"current_range_meters":17200,"station_id":"ce4bhqp2rcd13ifvqhng","pricing_plan_id":"cebpf4jnsgd1na2vs0mg"},{"bike_id":"797ce8dc-e20c-4580-b4fe-1d62071126fc","system_id":"levelo_inurba_marseille","lat":43.26955,"lon":5.38623,"is_reserved":false,"is_disabled":false,"rental_uris":{"android":"levelo://app?vid=797ce8dc-e20c-4580-b4fe-1d62071126fc","ios":"levelo://app?vid=797ce8dc-e20c-4580-b4fe-1d62071126fc"},"vehicle_type_id":"4","last_reported":1727957803,"current_range_meters":26000,"station_id":"ce4bhh92rcd13ifvqfh0","pricing_plan_id":"cebpf4jnsgd1na2vs0mg"},{"bike_id":"24c98704-a72f-4136-b091-895885dbb2c8","system_id":"levelo_inurba_marseille","lat":43.24083,"lon":5.37751,"is_reserved":false,"is_disabled":false,"rental_uris":{"android":"levelo://app?vid=24c98704-a72f-4136-b091-895885dbb2c8","ios":"levelo://app?vid=24c98704-a72f-4136-b091-895885dbb2c8"},"vehicle_type_id":"4","last_reported":1727957803,"current_range_meters":28000,"station_id":"ce4bhnp2rcd13ifvqgvg","pricing_plan_id":"cebpf4jnsgd1na2vs0mg"},{"bike_id":"a2105016-831b-4430-8e5a-d92ad4b3c953","system_id":"levelo_inurba_marseille","lat":43.32537,"lon":5.41437,"is_reserved":false,"is_disabled":false,"rental_uris":{"android":"levelo://app?vid=a2105016-831b-4430-8e5a-d92ad4b3c953","ios":"levelo://app?vid=a2105016-831b-4430-8e5a-d92ad4b3c953"},"vehicle_type_id":"4","last_reported":1727957803,"current_range_meters":8800,"station_id":"ce4bhq12rcd13ifvqhhg","pricing_plan_id":"cebpf4jnsgd1na2vs0mg"},{"bike_id":"e1bcc177-08e1-4a20-b1b7-81beeec2304b","system_id":"levelo_inurba_marseille","lat":43.28352,"lon":5.38098,"is_reserved":false,"is_disabled":false,"rental_uris":{"android":"levelo://app?vid=e1bcc177-08e1-4a20-b1b7-81beeec2304b","ios":"levelo://app?vid=e1bcc177-08e1-4a20-b1b7-81beeec2304b"},"vehicle_type_id":"4","last_reported":1727957803,"current_range_meters":39200,"station_id":"ce4bh412rcd13ifvqdr0","pricing_plan_id":"cebpf4jnsgd1na2vs0mg"},{"bike_id":"0254b970-14d7-4dfc-8d38-0171ca9ae025","system_id":"levelo_inurba_marseille","lat":43.266821,"lon":5.382677,"is_reserved":false,"is_disabled":false,"rental_uris":{"android":"levelo://app?vid=0254b970-14d7-4dfc-8d38-0171ca9ae025","ios":"levelo://app?vid=0254b970-14d7-4dfc-8d38-0171ca9ae025"},"vehicle_type_id":"4","last_reported":1727957803,"current_range_meters":19600,"station_id":"ce4bhg92rcd13ifvqf90","pricing_plan_id":"cebpf4jnsgd1na2vs0mg"},{"bike_id":"1e38f173-6613-47a6-a1ad-cac6b421d993","system_id":"levelo_inurba_marseille","lat":43.32544,"lon":5.41437,"is_reserved":false,"is_disabled":false,"rental_uris":{"android":"levelo://app?vid=1e38f173-6613-47a6-a1ad-cac6b421d993","ios":"levelo://app?vid=1e38f173-6613-47a6-a1ad-cac6b421d993"},"vehicle_type_id":"4","last_reported":1727957803,"current_range_meters":14000,"station_id":"ce4bhq12rcd13ifvqhhg","pricing_plan_id":"cebpf4jnsgd1na2vs0mg"},{"bike_id":"22094e14-fe04-4f6d-940c-3e57c3ad82a9","system_id":"levelo_inurba_marseille","lat":43.23151,"lon":5.43704,"is_reserved":false,"is_disabled":false,"rental_uris":{"android":"levelo://app?vid=22094e14-fe04-4f6d-940c-3e57c3ad82a9","ios":"levelo://app?vid=22094e14-fe04-4f6d-940c-3e57c3ad82a9"},"vehicle_type_id":"4","last_reported":1727957803,"current_range_meters":25200,"station_id":"ce4bhmp2rcd13ifvqgog","pricing_plan_id":"cebpf4jnsgd1na2vs0mg"},{"bike_id":"f838fa6f-31c6-44d2-88b3-8ea363a1d95f","system_id":"levelo_inurba_marseille","lat":43.27839,"lon":5.39202,"is_reserved":false,"is_disabled":false,"rental_uris":{"android":"levelo://app?vid=f838fa6f-31c6-44d2-88b3-8ea363a1d95f","ios":"levelo://app?vid=f838fa6f-31c6-44d2-88b3-8ea363a1d95f"},"vehicle_type_id":"4","last_reported":1727957803,"current_range_meters":38400,"station_id":"ce4bhjp2rcd13ifvqga0","pricing_plan_id":"cebpf4jnsgd1na2vs0mg"},{"bike_id":"f8b9251e-a818-4b62-9a03-ad5c02250b87","system_id":"levelo_inurba_marseille","lat":43.30267,"lon":5.37728,"is_reserved":false,"is_disabled":false,"rental_uris":{"android":"levelo://app?vid=f8b9251e-a818-4b62-9a03-ad5c02250b87","ios":"levelo://app?vid=f8b9251e-a818-4b62-9a03-ad5c02250b87"},"vehicle_type_id":"4","last_reported":1727957803,"current_range_meters":21600,"station_id":"ce4bh0h2rcd13ifvqd50","pricing_plan_id":"cebpf4jnsgd1na2vs0mg"},{"bike_id":"a0feab16-2f1f-4214-9058-21d8b9b7774f","system_id":"levelo_inurba_marseille","lat":43.28003,"lon":5.40958,"is_reserved":false,"is_disabled":false,"rental_uris":{"android":"levelo://app?vid=a0feab16-2f1f-4214-9058-21d8b9b7774f","ios":"levelo://app?vid=a0feab16-2f1f-4214-9058-21d8b9b7774f"},"vehicle_type_id":"4","last_reported":1727957803,"current_range_meters":16400,"station_id":"","pricing_plan_id":"cebpf4jnsgd1na2vs0mg"},{"bike_id":"0d38caac-4e1b-4bc6-8634-fba8549655ca","system_id":"levelo_inurba_marseille","lat":43.32112,"lon":5.36771,"is_reserved":false,"is_disabled":false,"rental_uris":{"android":"levelo://app?vid=0d38caac-4e1b-4bc6-8634-fba8549655ca","ios":"levelo://app?vid=0d38caac-4e1b-4bc6-8634-fba8549655ca"},"vehicle_type_id":"4","last_reported":1727957803,"current_range_meters":36400,"station_id":"ce4bhrh2rcd13ifvqhug","pricing_plan_id":"cebpf4jnsgd1na2vs0mg"},{"bike_id":"bbb27d72-0252-43c1-8bee-677ba4f1e987","system_id":"levelo_inurba_marseille","lat":43.23149,"lon":5.43716,"is_reserved":false,"is_disabled":false,"rental_uris":{"android":"levelo://app?vid=bbb27d72-0252-43c1-8bee-677ba4f1e987","ios":"levelo://app?vid=bbb27d72-0252-43c1-8bee-677ba4f1e987"},"vehicle_type_id":"4","last_reported":1727957803,"current_range_meters":11200,"station_id":"ce4bhmp2rcd13ifvqgog","pricing_plan_id":"cebpf4jnsgd1na2vs0mg"},{"bike_id":"28942cf4-5bb7-4042-a68c-b1e26671ef0c","system_id":"levelo_inurba_marseille","lat":43.28471,"lon":5.38425,"is_reserved":false,"is_disabled":false,"rental_uris":{"android":"levelo://app?vid=28942cf4-5bb7-4042-a68c-b1e26671ef0c","ios":"levelo://app?vid=28942cf4-5bb7-4042-a68c-b1e26671ef0c"},"vehicle_type_id":"4","last_reported":1727957803,"current_range_meters":11200,"station_id":"ce4bh512rcd13ifvqe3g","pricing_plan_id":"cebpf4jnsgd1na2vs0mg"},{"bike_id":"0c486ab5-3217-4997-8e62-08ba6082ea68","system_id":"levelo_inurba_marseille","lat":43.25932,"lon":5.40911,"is_reserved":false,"is_disabled":false,"rental_uris":{"android":"levelo://app?vid=0c486ab5-3217-4997-8e62-08ba6082ea68","ios":"levelo://app?vid=0c486ab5-3217-4997-8e62-08ba6082ea68"},"vehicle_type_id":"4","last_reported":1727957803,"current_range_meters":3600,"station_id":"ce4bhm92rcd13ifvqglg","pricing_plan_id":"cebpf4jnsgd1na2vs0mg"},{"bike_id":"f46f2165-8a57-4d1e-a40a-64e8dee44968","system_id":"levelo_inurba_marseille","lat":43.30602,"lon":5.37221,"is_reserved":false,"is_disabled":false,"rental_uris":{"android":"levelo://app?vid=f46f2165-8a57-4d1e-a40a-64e8dee44968","ios":"levelo://app?vid=f46f2165-8a57-4d1e-a40a-64e8dee44968"},"vehicle_type_id":"4","last_reported":1727957803,"current_range_meters":13600,"station_id":"ce4bgqh2rcd13ifvqc4g","pricing_plan_id":"cebpf4jnsgd1na2vs0mg"},{"bike_id":"c1cd5965-ecae-48c4-9bc7-ff28a85fc3e2","system_id":"levelo_inurba_marseille","lat":43.27948,"lon":5.41048,"is_reserved":false,"is_disabled":false,"rental_uris":{"android":"levelo://app?vid=c1cd5965-ecae-48c4-9bc7-ff28a85fc3e2","ios":"levelo://app?vid=c1cd5965-ecae-48c4-9bc7-ff28a85fc3e2"},"vehicle_type_id":"4","last_reported":1727957803,"current_range_meters":2800,"station_id":"ce4bhnp2rcd13ifvqh0g","pricing_plan_id":"cebpf4jnsgd1na2vs0mg"},{"bike_id":"13b88368-26b8-4ac3-bc2a-3e5f60b8ee64","system_id":"levelo_inurba_marseille","lat":43.29833,"lon":5.38075,"is_reserved":false,"is_disabled":false,"rental_uris":{"android":"levelo://app?vid=13b88368-26b8-4ac3-bc2a-3e5f60b8ee64","ios":"levelo://app?vid=13b88368-26b8-4ac3-bc2a-3e5f60b8ee64"},"vehicle_type_id":"4","last_reported":1727957803,"current_range_meters":34800,"station_id":"ce4bgip2rcd13ifvqbb0","pricing_plan_id":"cebpf4jnsgd1na2vs0mg"},{"bike_id":"5ebca78e-16b5-4f19-a72e-4c6fbb77d0fd","system_id":"levelo_inurba_marseille","lat":43.30209,"lon":5.39467,"is_reserved":false,"is_disabled":false,"rental_uris":{"android":"levelo://app?vid=5ebca78e-16b5-4f19-a72e-4c6fbb77d0fd","ios":"levelo://app?vid=5ebca78e-16b5-4f19-a72e-4c6fbb77d0fd"},"vehicle_type_id":"4","last_reported":1727957803,"current_range_meters":36400,"station_id":"ce4bh0p2rcd13ifvqd70","pricing_plan_id":"cebpf4jnsgd1na2vs0mg"},{"bike_id":"499cb64c-6fb8-4407-89d8-a118e3c5c28d","system_id":"levelo_inurba_marseille","lat":43.28004,"lon":5.39995,"is_reserved":false,"is_disabled":false,"rental_uris":{"android":"levelo://app?vid=499cb64c-6fb8-4407-89d8-a118e3c5c28d","ios":"levelo://app?vid=499cb64c-6fb8-4407-89d8-a118e3c5c28d"},"vehicle_type_id":"4","last_reported":1727957803,"current_range_meters":20000,"station_id":"ce4bho92rcd13ifvqh4g","pricing_plan_id":"cebpf4jnsgd1na2vs0mg"},{"bike_id":"8317e1f5-dc5e-4f0c-9d8d-d4cd8f358703","system_id":"levelo_inurba_marseille","lat":43.27563,"lon":5.38425,"is_reserved":false,"is_disabled":false,"rental_uris":{"android":"levelo://app?vid=8317e1f5-dc5e-4f0c-9d8d-d4cd8f358703","ios":"levelo://app?vid=8317e1f5-dc5e-4f0c-9d8d-d4cd8f358703"},"vehicle_type_id":"4","last_reported":1727957803,"current_range_meters":18800,"station_id":"ce4bhh92rcd13ifvqfi0","pricing_plan_id":"cebpf4jnsgd1na2vs0mg"},{"bike_id":"73f66102-21cd-4be5-9fb3-258e3aabfc34","system_id":"levelo_inurba_marseille","lat":43.31216,"lon":5.36858,"is_reserved":false,"is_disabled":false,"rental_uris":{"android":"levelo://app?vid=73f66102-21cd-4be5-9fb3-258e3aabfc34","ios":"levelo://app?vid=73f66102-21cd-4be5-9fb3-258e3aabfc34"},"vehicle_type_id":"4","last_reported":1727957803,"current_range_meters":39200,"station_id":"ce4bgl92rcd13ifvqbq0","pricing_plan_id":"cebpf4jnsgd1na2vs0mg"},{"bike_id":"a43ee84d-7539-401b-926c-a46a3cd8ece1","system_id":"levelo_inurba_marseille","lat":43.311218,"lon":5.377948,"is_reserved":false,"is_disabled":false,"rental_uris":{"android":"levelo://app?vid=a43ee84d-7539-401b-926c-a46a3cd8ece1","ios":"levelo://app?vid=a43ee84d-7539-401b-926c-a46a3cd8ece1"},"vehicle_type_id":"4","last_reported":1727957803,"current_range_meters":31200,"station_id":"ce4bgt92rcd13ifvqcg0","pricing_plan_id":"cebpf4jnsgd1na2vs0mg"},{"bike_id":"0ef612cc-2a4c-4efc-be29-113e1471189b","system_id":"levelo_inurba_marseille","lat":43.28848,"lon":5.35835,"is_reserved":false,"is_disabled":false,"rental_uris":{"android":"levelo://app?vid=0ef612cc-2a4c-4efc-be29-113e1471189b","ios":"levelo://app?vid=0ef612cc-2a4c-4efc-be29-113e1471189b"},"vehicle_type_id":"4","last_reported":1727957803,"current_range_meters":38800,"station_id":"ce4bhb12rcd13ifvqem0","pricing_plan_id":"cebpf4jnsgd1na2vs0mg"},{"bike_id":"3e2daf70-0524-4e71-8de4-0ed4b5df5a53","system_id":"levelo_inurba_marseille","lat":43.25499,"lon":5.37645,"is_reserved":false,"is_disabled":false,"rental_uris":{"android":"levelo://app?vid=3e2daf70-0524-4e71-8de4-0ed4b5df5a53","ios":"levelo://app?vid=3e2daf70-0524-4e71-8de4-0ed4b5df5a53"},"vehicle_type_id":"4","last_reported":1727957803,"current_range_meters":23200,"station_id":"ce4bhh12rcd13ifvqff0","pricing_plan_id":"cebpf4jnsgd1na2vs0mg"},{"bike_id":"69c69e84-1664-4848-9fb9-3be968a90010","system_id":"levelo_inurba_marseille","lat":43.28269,"lon":5.35063,"is_reserved":false,"is_disabled":false,"rental_uris":{"android":"levelo://app?vid=69c69e84-1664-4848-9fb9-3be968a90010","ios":"levelo://app?vid=69c69e84-1664-4848-9fb9-3be968a90010"},"vehicle_type_id":"4","last_reported":1727957803,"current_range_meters":30000,"station_id":"ce4bhbp2rcd13ifvqerg","pricing_plan_id":"cebpf4jnsgd1na2vs0mg"},{"bike_id":"529979a7-067a-4819-b0ac-ae3e3753cb84","system_id":"levelo_inurba_marseille","lat":43.2558,"lon":5.38241,"is_reserved":false,"is_disabled":false,"rental_uris":{"android":"levelo://app?vid=529979a7-067a-4819-b0ac-ae3e3753cb84","ios":"levelo://app?vid=529979a7-067a-4819-b0ac-ae3e3753cb84"},"vehicle_type_id":"4","last_reported":1727957803,"current_range_meters":36000,"station_id":"ce4bhih2rcd13ifvqfs0","pricing_plan_id":"cebpf4jnsgd1na2vs0mg"},{"bike_id":"dccc5c87-f90c-4827-938b-0914fa5feddb","system_id":"levelo_inurba_marseille","lat":43.267942,"lon":5.394101,"is_reserved":false,"is_disabled":false,"rental_uris":{"android":"levelo://app?vid=dccc5c87-f90c-4827-938b-0914fa5feddb","ios":"levelo://app?vid=dccc5c87-f90c-4827-938b-0914fa5feddb"},"vehicle_type_id":"4","last_reported":1727957803,"current_range_meters":32400,"station_id":"ce4bhh12rcd13ifvqfg0","pricing_plan_id":"cebpf4jnsgd1na2vs0mg"},{"bike_id":"c75a55b0-7a2f-4b27-bb36-85b9bce54e40","system_id":"levelo_inurba_marseille","lat":43.26683,"lon":5.3827,"is_reserved":false,"is_disabled":false,"rental_uris":{"android":"levelo://app?vid=c75a55b0-7a2f-4b27-bb36-85b9bce54e40","ios":"levelo://app?vid=c75a55b0-7a2f-4b27-bb36-85b9bce54e40"},"vehicle_type_id":"4","last_reported":1727957803,"current_range_meters":9600,"station_id":"ce4bhg92rcd13ifvqf90","pricing_plan_id":"cebpf4jnsgd1na2vs0mg"},{"bike_id":"76f567d4-1967-4cea-af8b-fd617ffaec8d","system_id":"levelo_inurba_marseille","lat":43.282815,"lon":5.350735,"is_reserved":false,"is_disabled":false,"rental_uris":{"android":"levelo://app?vid=76f567d4-1967-4cea-af8b-fd617ffaec8d","ios":"levelo://app?vid=76f567d4-1967-4cea-af8b-fd617ffaec8d"},"vehicle_type_id":"4","last_reported":1727957803,"current_range_meters":27600,"station_id":"ce4bhbp2rcd13ifvqerg","pricing_plan_id":"cebpf4jnsgd1na2vs0mg"},{"bike_id":"4c7e7e42-3ac9-4774-890e-b02edda9992a","system_id":"levelo_inurba_marseille","lat":43.28352,"lon":5.38097,"is_reserved":false,"is_disabled":false,"rental_uris":{"android":"levelo://app?vid=4c7e7e42-3ac9-4774-890e-b02edda9992a","ios":"levelo://app?vid=4c7e7e42-3ac9-4774-890e-b02edda9992a"},"vehicle_type_id":"4","last_reported":1727957803,"current_range_meters":38800,"station_id":"ce4bh412rcd13ifvqdr0","pricing_plan_id":"cebpf4jnsgd1na2vs0mg"},{"bike_id":"7bfb5721-baf3-4893-bbf9-7c8112a113a1","system_id":"levelo_inurba_marseille","lat":43.27992,"lon":5.40006,"is_reserved":false,"is_disabled":false,"rental_uris":{"android":"levelo://app?vid=7bfb5721-baf3-4893-bbf9-7c8112a113a1","ios":"levelo://app?vid=7bfb5721-baf3-4893-bbf9-7c8112a113a1"},"vehicle_type_id":"4","last_reported":1727957803,"current_range_meters":34000,"station_id":"ce4bho92rcd13ifvqh4g","pricing_plan_id":"cebpf4jnsgd1na2vs0mg"},{"bike_id":"2e4b02b7-0de5-45ad-86c6-a94f2241b839","system_id":"levelo_inurba_marseille","lat":43.30287,"lon":5.37714,"is_reserved":false,"is_disabled":false,"rental_uris":{"android":"levelo://app?vid=2e4b02b7-0de5-45ad-86c6-a94f2241b839","ios":"levelo://app?vid=2e4b02b7-0de5-45ad-86c6-a94f2241b839"},"vehicle_type_id":"4","last_reported":1727957803,"current_range_meters":29600,"station_id":"ce4bguh2rcd13ifvqcj0","pricing_plan_id":"cebpf4jnsgd1na2vs0mg"},{"bike_id":"a689a59b-c5bf-43fa-85ec-6f4efa9591ad","system_id":"levelo_inurba_marseille","lat":43.32544,"lon":5.41434,"is_reserved":false,"is_disabled":false,"rental_uris":{"android":"levelo://app?vid=a689a59b-c5bf-43fa-85ec-6f4efa9591ad","ios":"levelo://app?vid=a689a59b-c5bf-43fa-85ec-6f4efa9591ad"},"vehicle_type_id":"4","last_reported":1727957803,"current_range_meters":38800,"station_id":"ce4bhq12rcd13ifvqhhg","pricing_plan_id":"cebpf4jnsgd1na2vs0mg"},{"bike_id":"4491ad8d-0f5f-4170-a2b4-2cbe70bb99c0","system_id":"levelo_inurba_marseille","lat":43.29987,"lon":5.37175,"is_reserved":false,"is_disabled":false,"rental_uris":{"android":"levelo://app?vid=4491ad8d-0f5f-4170-a2b4-2cbe70bb99c0","ios":"levelo://app?vid=4491ad8d-0f5f-4170-a2b4-2cbe70bb99c0"},"vehicle_type_id":"4","last_reported":1727957803,"current_range_meters":38800,"station_id":"ce4bgr92rcd13ifvqc7g","pricing_plan_id":"cebpf4jnsgd1na2vs0mg"},{"bike_id":"6adcd580-631e-4f1a-a246-38075e9709ec","system_id":"levelo_inurba_marseille","lat":43.32046,"lon":5.41544,"is_reserved":false,"is_disabled":false,"rental_uris":{"android":"levelo://app?vid=6adcd580-631e-4f1a-a246-38075e9709ec","ios":"levelo://app?vid=6adcd580-631e-4f1a-a246-38075e9709ec"},"vehicle_type_id":"4","last_reported":1727957803,"current_range_meters":17600,"station_id":"ce4bhq92rcd13ifvqhkg","pricing_plan_id":"cebpf4jnsgd1na2vs0mg"},{"bike_id":"71df8d68-d681-474c-bc91-c17849864970","system_id":"levelo_inurba_marseille","lat":43.31227,"lon":5.36854,"is_reserved":false,"is_disabled":false,"rental_uris":{"android":"levelo://app?vid=71df8d68-d681-474c-bc91-c17849864970","ios":"levelo://app?vid=71df8d68-d681-474c-bc91-c17849864970"},"vehicle_type_id":"4","last_reported":1727957803,"current_range_meters":22000,"station_id":"ce4bgl92rcd13ifvqbq0","pricing_plan_id":"cebpf4jnsgd1na2vs0mg"},{"bike_id":"273a6a35-de3b-4f1d-a728-6c16911626b6","system_id":"levelo_inurba_marseille","lat":43.24081,"lon":5.37749,"is_reserved":false,"is_disabled":false,"rental_uris":{"android":"levelo://app?vid=273a6a35-de3b-4f1d-a728-6c16911626b6","ios":"levelo://app?vid=273a6a35-de3b-4f1d-a728-6c16911626b6"},"vehicle_type_id":"4","last_reported":1727957803,"current_range_meters":3600,"station_id":"ce4bhnp2rcd13ifvqgvg","pricing_plan_id":"cebpf4jnsgd1na2vs0mg"},{"bike_id":"34a0ea9d-ee33-4584-885d-bef1888c013d","system_id":"levelo_inurba_marseille","lat":43.31356,"lon":5.36688,"is_reserved":false,"is_disabled":false,"rental_uris":{"android":"levelo://app?vid=34a0ea9d-ee33-4584-885d-bef1888c013d","ios":"levelo://app?vid=34a0ea9d-ee33-4584-885d-bef1888c013d"},"vehicle_type_id":"4","last_reported":1727957803,"current_range_meters":19200,"station_id":"ce4bgr92rcd13ifvqc6g","pricing_plan_id":"cebpf4jnsgd1na2vs0mg"},{"bike_id":"6b3ad59e-4e49-4779-ad59-c5b871f82181","system_id":"levelo_inurba_marseille","lat":43.29796,"lon":5.38095,"is_reserved":false,"is_disabled":false,"rental_uris":{"android":"levelo://app?vid=6b3ad59e-4e49-4779-ad59-c5b871f82181","ios":"levelo://app?vid=6b3ad59e-4e49-4779-ad59-c5b871f82181"},"vehicle_type_id":"4","last_reported":1727957803,"current_range_meters":19200,"station_id":"ce4bgip2rcd13ifvqbb0","pricing_plan_id":"cebpf4jnsgd1na2vs0mg"},{"bike_id":"199fa060-a556-4f8c-b315-91dd9dd732bc","system_id":"levelo_inurba_marseille","lat":43.29018,"lon":5.3862,"is_reserved":false,"is_disabled":false,"rental_uris":{"android":"levelo://app?vid=199fa060-a556-4f8c-b315-91dd9dd732bc","ios":"levelo://app?vid=199fa060-a556-4f8c-b315-91dd9dd732bc"},"vehicle_type_id":"4","last_reported":1727957803,"current_range_meters":33200,"station_id":"ce4bh4p2rcd13ifvqe0g","pricing_plan_id":"cebpf4jnsgd1na2vs0mg"},{"bike_id":"18c94768-6c13-4979-9078-5c030a047685","system_id":"levelo_inurba_marseille","lat":43.29897,"lon":5.43671,"is_reserved":false,"is_disabled":false,"rental_uris":{"android":"levelo://app?vid=18c94768-6c13-4979-9078-5c030a047685","ios":"levelo://app?vid=18c94768-6c13-4979-9078-5c030a047685"},"vehicle_type_id":"4","last_reported":1727957803,"current_range_meters":29600,"station_id":"ce4bhpp2rcd13ifvqhfg","pricing_plan_id":"cebpf4jnsgd1na2vs0mg"},{"bike_id":"8b426252-90ee-4cb1-a2a0-ac5baa109860","system_id":"levelo_inurba_marseille","lat":43.2927,"lon":5.36843,"is_reserved":false,"is_disabled":false,"rental_uris":{"android":"levelo://app?vid=8b426252-90ee-4cb1-a2a0-ac5baa109860","ios":"levelo://app?vid=8b426252-90ee-4cb1-a2a0-ac5baa109860"},"vehicle_type_id":"4","last_reported":1727957803,"current_range_meters":23200,"station_id":"ce4bhbp2rcd13ifvqesg","pricing_plan_id":"cebpf4jnsgd1na2vs0mg"},{"bike_id":"8bcbaa96-cbe2-477f-8aaf-c55fe51c73b2","system_id":"levelo_inurba_marseille","lat":43.27565,"lon":5.38431,"is_reserved":false,"is_disabled":false,"rental_uris":{"android":"levelo://app?vid=8bcbaa96-cbe2-477f-8aaf-c55fe51c73b2","ios":"levelo://app?vid=8bcbaa96-cbe2-477f-8aaf-c55fe51c73b2"},"vehicle_type_id":"4","last_reported":1727957803,"current_range_meters":29600,"station_id":"ce4bhh92rcd13ifvqfi0","pricing_plan_id":"cebpf4jnsgd1na2vs0mg"},{"bike_id":"b3926858-a41b-495a-bbc1-06ce82f46ee8","system_id":"levelo_inurba_marseille","lat":43.2315,"lon":5.43707,"is_reserved":false,"is_disabled":false,"rental_uris":{"android":"levelo://app?vid=b3926858-a41b-495a-bbc1-06ce82f46ee8","ios":"levelo://app?vid=b3926858-a41b-495a-bbc1-06ce82f46ee8"},"vehicle_type_id":"4","last_reported":1727957803,"current_range_meters":38400,"station_id":"ce4bhmp2rcd13ifvqgog","pricing_plan_id":"cebpf4jnsgd1na2vs0mg"},{"bike_id":"d47cf0fb-02cc-45ad-8800-32fb71474b1f","system_id":"levelo_inurba_marseille","lat":43.300113,"lon":5.385877,"is_reserved":false,"is_disabled":false,"rental_uris":{"android":"levelo://app?vid=d47cf0fb-02cc-45ad-8800-32fb71474b1f","ios":"levelo://app?vid=d47cf0fb-02cc-45ad-8800-32fb71474b1f"},"vehicle_type_id":"4","last_reported":1727957803,"current_range_meters":38000,"station_id":"","pricing_plan_id":"cebpf4jnsgd1na2vs0mg"},{"bike_id":"66b44820-5377-4af7-b832-ab419ca48374","system_id":"levelo_inurba_marseille","lat":43.29776,"lon":5.37121,"is_reserved":false,"is_disabled":false,"rental_uris":{"android":"levelo://app?vid=66b44820-5377-4af7-b832-ab419ca48374","ios":"levelo://app?vid=66b44820-5377-4af7-b832-ab419ca48374"},"vehicle_type_id":"4","last_reported":1727957803,"current_range_meters":20400,"station_id":"ce4bgop2rcd13ifvqc1g","pricing_plan_id":"cebpf4jnsgd1na2vs0mg"},{"bike_id":"422a7c4b-04a2-4d7a-bb60-e21896c982e3","system_id":"levelo_inurba_marseille","lat":43.26676,"lon":5.38258,"is_reserved":false,"is_disabled":false,"rental_uris":{"android":"levelo://app?vid=422a7c4b-04a2-4d7a-bb60-e21896c982e3","ios":"levelo://app?vid=422a7c4b-04a2-4d7a-bb60-e21896c982e3"},"vehicle_type_id":"4","last_reported":1727957803,"current_range_meters":8400,"station_id":"ce4bhg92rcd13ifvqf90","pricing_plan_id":"cebpf4jnsgd1na2vs0mg"},{"bike_id":"f405a66a-fe0c-4c0e-bca5-17665a8e7617","system_id":"levelo_inurba_marseille","lat":43.25498,"lon":5.37647,"is_reserved":false,"is_disabled":false,"rental_uris":{"android":"levelo://app?vid=f405a66a-fe0c-4c0e-bca5-17665a8e7617","ios":"levelo://app?vid=f405a66a-fe0c-4c0e-bca5-17665a8e7617"},"vehicle_type_id":"4","last_reported":1727957803,"current_range_meters":24000,"station_id":"ce4bhh12rcd13ifvqff0","pricing_plan_id":"cebpf4jnsgd1na2vs0mg"},{"bike_id":"8dbe3dae-8285-44fb-9ca9-ed8317c5dd96","system_id":"levelo_inurba_marseille","lat":43.30533,"lon":5.36701,"is_reserved":false,"is_disabled":false,"rental_uris":{"android":"levelo://app?vid=8dbe3dae-8285-44fb-9ca9-ed8317c5dd96","ios":"levelo://app?vid=8dbe3dae-8285-44fb-9ca9-ed8317c5dd96"},"vehicle_type_id":"4","last_reported":1727957803,"current_range_meters":26800,"station_id":"ce4bgrp2rcd13ifvqc9g","pricing_plan_id":"cebpf4jnsgd1na2vs0mg"},{"bike_id":"7cfe92b3-4c96-41a9-bad3-f1e9911d0aed","system_id":"levelo_inurba_marseille","lat":43.27949,"lon":5.41051,"is_reserved":false,"is_disabled":false,"rental_uris":{"android":"levelo://app?vid=7cfe92b3-4c96-41a9-bad3-f1e9911d0aed","ios":"levelo://app?vid=7cfe92b3-4c96-41a9-bad3-f1e9911d0aed"},"vehicle_type_id":"4","last_reported":1727957803,"current_range_meters":26800,"station_id":"ce4bhnp2rcd13ifvqh0g","pricing_plan_id":"cebpf4jnsgd1na2vs0mg"},{"bike_id":"72515a86-b52e-460a-b28a-089639cb0a8c","system_id":"levelo_inurba_marseille","lat":43.28153,"lon":5.4265,"is_reserved":false,"is_disabled":false,"rental_uris":{"android":"levelo://app?vid=72515a86-b52e-460a-b28a-089639cb0a8c","ios":"levelo://app?vid=72515a86-b52e-460a-b28a-089639cb0a8c"},"vehicle_type_id":"4","last_reported":1727957803,"current_range_meters":7200,"station_id":"ce4bhnh2rcd13ifvqgug","pricing_plan_id":"cebpf4jnsgd1na2vs0mg"},{"bike_id":"80e10b6b-b930-4216-a26e-cfd3b6068366","system_id":"levelo_inurba_marseille","lat":43.30538,"lon":5.36707,"is_reserved":false,"is_disabled":false,"rental_uris":{"android":"levelo://app?vid=80e10b6b-b930-4216-a26e-cfd3b6068366","ios":"levelo://app?vid=80e10b6b-b930-4216-a26e-cfd3b6068366"},"vehicle_type_id":"4","last_reported":1727957803,"current_range_meters":31200,"station_id":"ce4bgrp2rcd13ifvqc9g","pricing_plan_id":"cebpf4jnsgd1na2vs0mg"},{"bike_id":"c10088d7-b116-4e89-861b-aaea5b563ec9","system_id":"levelo_inurba_marseille","lat":43.2803,"lon":5.36955,"is_reserved":false,"is_disabled":false,"rental_uris":{"android":"levelo://app?vid=c10088d7-b116-4e89-861b-aaea5b563ec9","ios":"levelo://app?vid=c10088d7-b116-4e89-861b-aaea5b563ec9"},"vehicle_type_id":"4","last_reported":1727957803,"current_range_meters":28400,"station_id":"ce4bha12rcd13ifvqef0","pricing_plan_id":"cebpf4jnsgd1na2vs0mg"},{"bike_id":"a292cc6b-0b15-4b33-8f09-f41be692a4eb","system_id":"levelo_inurba_marseille","lat":43.24392,"lon":5.37058,"is_reserved":false,"is_disabled":false,"rental_uris":{"android":"levelo://app?vid=a292cc6b-0b15-4b33-8f09-f41be692a4eb","ios":"levelo://app?vid=a292cc6b-0b15-4b33-8f09-f41be692a4eb"},"vehicle_type_id":"4","last_reported":1727957803,"current_range_meters":38000,"station_id":"ce4bhhh2rcd13ifvqfk0","pricing_plan_id":"cebpf4jnsgd1na2vs0mg"},{"bike_id":"4bb3440c-c45f-4f71-a551-9acd4b11d853","system_id":"levelo_inurba_marseille","lat":43.29252,"lon":5.40909,"is_reserved":false,"is_disabled":false,"rental_uris":{"android":"levelo://app?vid=4bb3440c-c45f-4f71-a551-9acd4b11d853","ios":"levelo://app?vid=4bb3440c-c45f-4f71-a551-9acd4b11d853"},"vehicle_type_id":"4","last_reported":1727957803,"current_range_meters":15200,"station_id":"ce4bh192rcd13ifvqdc0","pricing_plan_id":"cebpf4jnsgd1na2vs0mg"},{"bike_id":"3588a4a2-a796-4c0a-9096-b29b668d4cea","system_id":"levelo_inurba_marseille","lat":43.28486,"lon":5.3855,"is_reserved":false,"is_disabled":false,"rental_uris":{"android":"levelo://app?vid=3588a4a2-a796-4c0a-9096-b29b668d4cea","ios":"levelo://app?vid=3588a4a2-a796-4c0a-9096-b29b668d4cea"},"vehicle_type_id":"4","last_reported":1727957803,"current_range_meters":8000,"station_id":"ce4bh8p2rcd13ifvqeb0","pricing_plan_id":"cebpf4jnsgd1na2vs0mg"},{"bike_id":"57c70b37-5907-4ddb-8187-528c392943d9","system_id":"levelo_inurba_marseille","lat":43.26561,"lon":5.3901,"is_reserved":false,"is_disabled":false,"rental_uris":{"android":"levelo://app?vid=57c70b37-5907-4ddb-8187-528c392943d9","ios":"levelo://app?vid=57c70b37-5907-4ddb-8187-528c392943d9"},"vehicle_type_id":"4","last_reported":1727957803,"current_range_meters":20400,"station_id":"ce4bhe12rcd13ifvqf30","pricing_plan_id":"cebpf4jnsgd1na2vs0mg"},{"bike_id":"15d6d025-3c88-45cc-943b-e5a6ed6ada92","system_id":"levelo_inurba_marseille","lat":43.256578,"lon":5.394357,"is_reserved":false,"is_disabled":false,"rental_uris":{"android":"levelo://app?vid=15d6d025-3c88-45cc-943b-e5a6ed6ada92","ios":"levelo://app?vid=15d6d025-3c88-45cc-943b-e5a6ed6ada92"},"vehicle_type_id":"4","last_reported":1727957803,"current_range_meters":27200,"station_id":"ce4bh4p2rcd13ifvqe1g","pricing_plan_id":"cebpf4jnsgd1na2vs0mg"},{"bike_id":"38fd5db4-1b25-4898-a353-ab04854accab","system_id":"levelo_inurba_marseille","lat":43.25122,"lon":5.403437,"is_reserved":false,"is_disabled":false,"rental_uris":{"android":"levelo://app?vid=38fd5db4-1b25-4898-a353-ab04854accab","ios":"levelo://app?vid=38fd5db4-1b25-4898-a353-ab04854accab"},"vehicle_type_id":"4","last_reported":1727957803,"current_range_meters":24400,"station_id":"ce4bhm12rcd13ifvqgkg","pricing_plan_id":"cebpf4jnsgd1na2vs0mg"},{"bike_id":"4d9b6634-2bf6-4345-ab38-8c9ee9422c8a","system_id":"levelo_inurba_marseille","lat":43.30141,"lon":5.37425,"is_reserved":false,"is_disabled":false,"rental_uris":{"android":"levelo://app?vid=4d9b6634-2bf6-4345-ab38-8c9ee9422c8a","ios":"levelo://app?vid=4d9b6634-2bf6-4345-ab38-8c9ee9422c8a"},"vehicle_type_id":"4","last_reported":1727957803,"current_range_meters":14800,"station_id":"ce4bgs92rcd13ifvqcc0","pricing_plan_id":"cebpf4jnsgd1na2vs0mg"},{"bike_id":"de302269-fdda-4ef3-9935-87f4834e17d5","system_id":"levelo_inurba_marseille","lat":43.25932,"lon":5.40908,"is_reserved":false,"is_disabled":false,"rental_uris":{"android":"levelo://app?vid=de302269-fdda-4ef3-9935-87f4834e17d5","ios":"levelo://app?vid=de302269-fdda-4ef3-9935-87f4834e17d5"},"vehicle_type_id":"4","last_reported":1727957803,"current_range_meters":9200,"station_id":"ce4bhm92rcd13ifvqglg","pricing_plan_id":"cebpf4jnsgd1na2vs0mg"},{"bike_id":"cc330ff8-0b34-4768-9586-5006e70906ab","system_id":"levelo_inurba_marseille","lat":43.30142,"lon":5.39857,"is_reserved":false,"is_disabled":false,"rental_uris":{"android":"levelo://app?vid=cc330ff8-0b34-4768-9586-5006e70906ab","ios":"levelo://app?vid=cc330ff8-0b34-4768-9586-5006e70906ab"},"vehicle_type_id":"4","last_reported":1727957803,"current_range_meters":32400,"station_id":"ce4bh0h2rcd13ifvqd40","pricing_plan_id":"cebpf4jnsgd1na2vs0mg"},{"bike_id":"e29eec06-ee2f-4e4a-8ccc-0c6727773c98","system_id":"levelo_inurba_marseille","lat":43.32052,"lon":5.41551,"is_reserved":false,"is_disabled":false,"rental_uris":{"android":"levelo://app?vid=e29eec06-ee2f-4e4a-8ccc-0c6727773c98","ios":"levelo://app?vid=e29eec06-ee2f-4e4a-8ccc-0c6727773c98"},"vehicle_type_id":"4","last_reported":1727957803,"current_range_meters":17600,"station_id":"ce4bhq92rcd13ifvqhkg","pricing_plan_id":"cebpf4jnsgd1na2vs0mg"},{"bike_id":"0f090a5a-99a0-4f11-ab85-ac0f07447c8e","system_id":"levelo_inurba_marseille","lat":43.30587,"lon":5.3936,"is_reserved":false,"is_disabled":false,"rental_uris":{"android":"levelo://app?vid=0f090a5a-99a0-4f11-ab85-ac0f07447c8e","ios":"levelo://app?vid=0f090a5a-99a0-4f11-ab85-ac0f07447c8e"},"vehicle_type_id":"4","last_reported":1727957803,"current_range_meters":27600,"station_id":"ce4bh0p2rcd13ifvqd80","pricing_plan_id":"cebpf4jnsgd1na2vs0mg"},{"bike_id":"0f53c290-ccde-436e-93da-5e6799c490b6","system_id":"levelo_inurba_marseille","lat":43.31764,"lon":5.39005,"is_reserved":false,"is_disabled":false,"rental_uris":{"android":"levelo://app?vid=0f53c290-ccde-436e-93da-5e6799c490b6","ios":"levelo://app?vid=0f53c290-ccde-436e-93da-5e6799c490b6"},"vehicle_type_id":"4","last_reported":1727957803,"current_range_meters":17600,"station_id":"ce4bhqp2rcd13ifvqhng","pricing_plan_id":"cebpf4jnsgd1na2vs0mg"},{"bike_id":"086469e0-3a4c-449b-823f-3ab025193336","system_id":"levelo_inurba_marseille","lat":43.30157,"lon":5.38096,"is_reserved":false,"is_disabled":false,"rental_uris":{"android":"levelo://app?vid=086469e0-3a4c-449b-823f-3ab025193336","ios":"levelo://app?vid=086469e0-3a4c-449b-823f-3ab025193336"},"vehicle_type_id":"4","last_reported":1727957803,"current_range_meters":27600,"station_id":"ce4bgjp2rcd13ifvqbh0","pricing_plan_id":"cebpf4jnsgd1na2vs0mg"},{"bike_id":"0d0f48be-fc36-475a-a22e-fb68ff541206","system_id":"levelo_inurba_marseille","lat":43.30116,"lon":5.38796,"is_reserved":false,"is_disabled":false,"rental_uris":{"android":"levelo://app?vid=0d0f48be-fc36-475a-a22e-fb68ff541206","ios":"levelo://app?vid=0d0f48be-fc36-475a-a22e-fb68ff541206"},"vehicle_type_id":"4","last_reported":1727957803,"current_range_meters":37600,"station_id":"ce4bghh2rcd13ifvqb60","pricing_plan_id":"cebpf4jnsgd1na2vs0mg"},{"bike_id":"2b58fe52-cecf-4d77-847f-b40d2ae6cb7d","system_id":"levelo_inurba_marseille","lat":43.31328,"lon":5.36711,"is_reserved":false,"is_disabled":false,"rental_uris":{"android":"levelo://app?vid=2b58fe52-cecf-4d77-847f-b40d2ae6cb7d","ios":"levelo://app?vid=2b58fe52-cecf-4d77-847f-b40d2ae6cb7d"},"vehicle_type_id":"4","last_reported":1727957803,"current_range_meters":4400,"station_id":"ce4bgr92rcd13ifvqc6g","pricing_plan_id":"cebpf4jnsgd1na2vs0mg"},{"bike_id":"c2f5f578-a20b-4f47-bf3f-1ad5b785aa5b","system_id":"levelo_inurba_marseille","lat":43.2315,"lon":5.43722,"is_reserved":false,"is_disabled":false,"rental_uris":{"android":"levelo://app?vid=c2f5f578-a20b-4f47-bf3f-1ad5b785aa5b","ios":"levelo://app?vid=c2f5f578-a20b-4f47-bf3f-1ad5b785aa5b"},"vehicle_type_id":"4","last_reported":1727957803,"current_range_meters":14000,"station_id":"ce4bhmp2rcd13ifvqgog","pricing_plan_id":"cebpf4jnsgd1na2vs0mg"},{"bike_id":"efcf964a-28ef-4eae-9342-3b86cfe57d18","system_id":"levelo_inurba_marseille","lat":43.31219,"lon":5.36847,"is_reserved":false,"is_disabled":false,"rental_uris":{"android":"levelo://app?vid=efcf964a-28ef-4eae-9342-3b86cfe57d18","ios":"levelo://app?vid=efcf964a-28ef-4eae-9342-3b86cfe57d18"},"vehicle_type_id":"4","last_reported":1727957803,"current_range_meters":36400,"station_id":"ce4bgl92rcd13ifvqbq0","pricing_plan_id":"cebpf4jnsgd1na2vs0mg"},{"bike_id":"5e3cb495-fe4a-436f-88ef-2bec405fa4c6","system_id":"levelo_inurba_marseille","lat":43.27671,"lon":5.388743,"is_reserved":false,"is_disabled":false,"rental_uris":{"android":"levelo://app?vid=5e3cb495-fe4a-436f-88ef-2bec405fa4c6","ios":"levelo://app?vid=5e3cb495-fe4a-436f-88ef-2bec405fa4c6"},"vehicle_type_id":"4","last_reported":1727957803,"current_range_meters":19200,"station_id":"","pricing_plan_id":"cebpf4jnsgd1na2vs0mg"},{"bike_id":"fc03d24b-d917-4d5d-a01b-7980fdda8afa","system_id":"levelo_inurba_marseille","lat":43.27608,"lon":5.36119,"is_reserved":false,"is_disabled":false,"rental_uris":{"android":"levelo://app?vid=fc03d24b-d917-4d5d-a01b-7980fdda8afa","ios":"levelo://app?vid=fc03d24b-d917-4d5d-a01b-7980fdda8afa"},"vehicle_type_id":"4","last_reported":1727957803,"current_range_meters":39200,"station_id":"ce4bgj92rcd13ifvqbe0","pricing_plan_id":"cebpf4jnsgd1na2vs0mg"},{"bike_id":"a4ba1db5-53d7-4fea-b174-7d628649af60","system_id":"levelo_inurba_marseille","lat":43.31337,"lon":5.36726,"is_reserved":false,"is_disabled":false,"rental_uris":{"android":"levelo://app?vid=a4ba1db5-53d7-4fea-b174-7d628649af60","ios":"levelo://app?vid=a4ba1db5-53d7-4fea-b174-7d628649af60"},"vehicle_type_id":"4","last_reported":1727957803,"current_range_meters":28000,"station_id":"ce4bgr92rcd13ifvqc6g","pricing_plan_id":"cebpf4jnsgd1na2vs0mg"},{"bike_id":"137d56b1-cdc7-4f99-ba23-c424b109461a","system_id":"levelo_inurba_marseille","lat":43.30137,"lon":5.3742,"is_reserved":false,"is_disabled":false,"rental_uris":{"android":"levelo://app?vid=137d56b1-cdc7-4f99-ba23-c424b109461a","ios":"levelo://app?vid=137d56b1-cdc7-4f99-ba23-c424b109461a"},"vehicle_type_id":"4","last_reported":1727957803,"current_range_meters":21600,"station_id":"ce4bgs92rcd13ifvqcc0","pricing_plan_id":"cebpf4jnsgd1na2vs0mg"},{"bike_id":"81196784-c9fc-4439-895e-496dc1decbc7","system_id":"levelo_inurba_marseille","lat":43.27069,"lon":5.42279,"is_reserved":false,"is_disabled":false,"rental_uris":{"android":"levelo://app?vid=81196784-c9fc-4439-895e-496dc1decbc7","ios":"levelo://app?vid=81196784-c9fc-4439-895e-496dc1decbc7"},"vehicle_type_id":"4","last_reported":1727957803,"current_range_meters":12800,"station_id":"","pricing_plan_id":"cebpf4jnsgd1na2vs0mg"},{"bike_id":"306c64fa-f507-4bbe-b154-7c24d178c43c","system_id":"levelo_inurba_marseille","lat":43.30603,"lon":5.39352,"is_reserved":false,"is_disabled":false,"rental_uris":{"android":"levelo://app?vid=306c64fa-f507-4bbe-b154-7c24d178c43c","ios":"levelo://app?vid=306c64fa-f507-4bbe-b154-7c24d178c43c"},"vehicle_type_id":"4","last_reported":1727957803,"current_range_meters":30000,"station_id":"ce4bh0p2rcd13ifvqd80","pricing_plan_id":"cebpf4jnsgd1na2vs0mg"},{"bike_id":"835b4f4c-2acd-4891-aebd-74530c23f91f","system_id":"levelo_inurba_marseille","lat":43.3091,"lon":5.368551,"is_reserved":false,"is_disabled":false,"rental_uris":{"android":"levelo://app?vid=835b4f4c-2acd-4891-aebd-74530c23f91f","ios":"levelo://app?vid=835b4f4c-2acd-4891-aebd-74530c23f91f"},"vehicle_type_id":"4","last_reported":1727957803,"current_range_meters":24400,"station_id":"ce4bgn92rcd13ifvqbvg","pricing_plan_id":"cebpf4jnsgd1na2vs0mg"},{"bike_id":"71e310a8-6681-4c4d-8824-b34cab5b48f5","system_id":"levelo_inurba_marseille","lat":43.32658,"lon":5.40991,"is_reserved":false,"is_disabled":false,"rental_uris":{"android":"levelo://app?vid=71e310a8-6681-4c4d-8824-b34cab5b48f5","ios":"levelo://app?vid=71e310a8-6681-4c4d-8824-b34cab5b48f5"},"vehicle_type_id":"4","last_reported":1727957803,"current_range_meters":7200,"station_id":"ce4bhpp2rcd13ifvqhgg","pricing_plan_id":"cebpf4jnsgd1na2vs0mg"},{"bike_id":"3137bcb0-acbd-40ab-b5a6-e4658f0b9dc7","system_id":"levelo_inurba_marseille","lat":43.28094,"lon":5.37842,"is_reserved":false,"is_disabled":false,"rental_uris":{"android":"levelo://app?vid=3137bcb0-acbd-40ab-b5a6-e4658f0b9dc7","ios":"levelo://app?vid=3137bcb0-acbd-40ab-b5a6-e4658f0b9dc7"},"vehicle_type_id":"4","last_reported":1727957803,"current_range_meters":4400,"station_id":"ce4bha12rcd13ifvqee0","pricing_plan_id":"cebpf4jnsgd1na2vs0mg"},{"bike_id":"f9d70636-cbf5-4b6c-943e-9f457732f566","system_id":"levelo_inurba_marseille","lat":43.29912,"lon":5.37473,"is_reserved":false,"is_disabled":false,"rental_uris":{"android":"levelo://app?vid=f9d70636-cbf5-4b6c-943e-9f457732f566","ios":"levelo://app?vid=f9d70636-cbf5-4b6c-943e-9f457732f566"},"vehicle_type_id":"4","last_reported":1727957803,"current_range_meters":22000,"station_id":"ce4bgjh2rcd13ifvqbg0","pricing_plan_id":"cebpf4jnsgd1na2vs0mg"},{"bike_id":"53c6fe7a-c5f0-4c29-bdb6-08c6c7db5c71","system_id":"levelo_inurba_marseille","lat":43.32115,"lon":5.36766,"is_reserved":false,"is_disabled":false,"rental_uris":{"android":"levelo://app?vid=53c6fe7a-c5f0-4c29-bdb6-08c6c7db5c71","ios":"levelo://app?vid=53c6fe7a-c5f0-4c29-bdb6-08c6c7db5c71"},"vehicle_type_id":"4","last_reported":1727957803,"current_range_meters":10000,"station_id":"ce4bhrh2rcd13ifvqhug","pricing_plan_id":"cebpf4jnsgd1na2vs0mg"},{"bike_id":"ebc0c02c-38ba-42ff-8441-d12aa14ad935","system_id":"levelo_inurba_marseille","lat":43.30271,"lon":5.37717,"is_reserved":false,"is_disabled":false,"rental_uris":{"android":"levelo://app?vid=ebc0c02c-38ba-42ff-8441-d12aa14ad935","ios":"levelo://app?vid=ebc0c02c-38ba-42ff-8441-d12aa14ad935"},"vehicle_type_id":"4","last_reported":1727957803,"current_range_meters":39200,"station_id":"ce4bguh2rcd13ifvqcj0","pricing_plan_id":"cebpf4jnsgd1na2vs0mg"},{"bike_id":"8cd4967a-5c3b-494d-8d94-4caf3da84f74","system_id":"levelo_inurba_marseille","lat":43.25933,"lon":5.40911,"is_reserved":false,"is_disabled":false,"rental_uris":{"android":"levelo://app?vid=8cd4967a-5c3b-494d-8d94-4caf3da84f74","ios":"levelo://app?vid=8cd4967a-5c3b-494d-8d94-4caf3da84f74"},"vehicle_type_id":"4","last_reported":1727957803,"current_range_meters":8000,"station_id":"ce4bhm92rcd13ifvqglg","pricing_plan_id":"cebpf4jnsgd1na2vs0mg"},{"bike_id":"6ce60676-3f86-4aaa-a5df-572436c32ad4","system_id":"levelo_inurba_marseille","lat":43.23193,"lon":5.35543,"is_reserved":false,"is_disabled":false,"rental_uris":{"android":"levelo://app?vid=6ce60676-3f86-4aaa-a5df-572436c32ad4","ios":"levelo://app?vid=6ce60676-3f86-4aaa-a5df-572436c32ad4"},"vehicle_type_id":"4","last_reported":1727957803,"current_range_meters":20000,"station_id":"ce4bhu92rcd13ifvqi70","pricing_plan_id":"cebpf4jnsgd1na2vs0mg"},{"bike_id":"db529dbd-a157-4db6-ab56-5a5e47145cac","system_id":"levelo_inurba_marseille","lat":43.25502,"lon":5.37646,"is_reserved":false,"is_disabled":false,"rental_uris":{"android":"levelo://app?vid=db529dbd-a157-4db6-ab56-5a5e47145cac","ios":"levelo://app?vid=db529dbd-a157-4db6-ab56-5a5e47145cac"},"vehicle_type_id":"4","last_reported":1727957803,"current_range_meters":39200,"station_id":"ce4bhh12rcd13ifvqff0","pricing_plan_id":"cebpf4jnsgd1na2vs0mg"},{"bike_id":"dee6229e-26d0-4d7e-9236-92ea7c2f2755","system_id":"levelo_inurba_marseille","lat":43.29624,"lon":5.37152,"is_reserved":false,"is_disabled":false,"rental_uris":{"android":"levelo://app?vid=dee6229e-26d0-4d7e-9236-92ea7c2f2755","ios":"levelo://app?vid=dee6229e-26d0-4d7e-9236-92ea7c2f2755"},"vehicle_type_id":"4","last_reported":1727957803,"current_range_meters":38800,"station_id":"ce4bgnh2rcd13ifvqc0g","pricing_plan_id":"cebpf4jnsgd1na2vs0mg"},{"bike_id":"f0eaa882-b6fc-47fe-a6fd-20eb7152acaf","system_id":"levelo_inurba_marseille","lat":43.303772,"lon":5.386565,"is_reserved":false,"is_disabled":false,"rental_uris":{"android":"levelo://app?vid=f0eaa882-b6fc-47fe-a6fd-20eb7152acaf","ios":"levelo://app?vid=f0eaa882-b6fc-47fe-a6fd-20eb7152acaf"},"vehicle_type_id":"4","last_reported":1727957803,"current_range_meters":27600,"station_id":"ce4bgg92rcd13ifvqb30","pricing_plan_id":"cebpf4jnsgd1na2vs0mg"},{"bike_id":"cc4b1f4d-55d4-4d25-9f2f-41b78be3bbea","system_id":"levelo_inurba_marseille","lat":43.28077,"lon":5.39661,"is_reserved":false,"is_disabled":false,"rental_uris":{"android":"levelo://app?vid=cc4b1f4d-55d4-4d25-9f2f-41b78be3bbea","ios":"levelo://app?vid=cc4b1f4d-55d4-4d25-9f2f-41b78be3bbea"},"vehicle_type_id":"4","last_reported":1727957803,"current_range_meters":32000,"station_id":"ce4bho12rcd13ifvqh2g","pricing_plan_id":"cebpf4jnsgd1na2vs0mg"},{"bike_id":"670aa51b-991b-4c23-aa78-826c742d74fb","system_id":"levelo_inurba_marseille","lat":43.25872,"lon":5.39894,"is_reserved":false,"is_disabled":false,"rental_uris":{"android":"levelo://app?vid=670aa51b-991b-4c23-aa78-826c742d74fb","ios":"levelo://app?vid=670aa51b-991b-4c23-aa78-826c742d74fb"},"vehicle_type_id":"4","last_reported":1727957803,"current_range_meters":3200,"station_id":"ce4bhl92rcd13ifvqghg","pricing_plan_id":"cebpf4jnsgd1na2vs0mg"},{"bike_id":"9802b7f7-e4a8-40ba-ae60-2f21b748dac8","system_id":"levelo_inurba_marseille","lat":43.28844,"lon":5.35853,"is_reserved":false,"is_disabled":false,"rental_uris":{"android":"levelo://app?vid=9802b7f7-e4a8-40ba-ae60-2f21b748dac8","ios":"levelo://app?vid=9802b7f7-e4a8-40ba-ae60-2f21b748dac8"},"vehicle_type_id":"4","last_reported":1727957803,"current_range_meters":38800,"station_id":"ce4bhb12rcd13ifvqem0","pricing_plan_id":"cebpf4jnsgd1na2vs0mg"},{"bike_id":"c1ee04fe-b9d5-4b78-8f81-33bd158835b3","system_id":"levelo_inurba_marseille","lat":43.29803,"lon":5.38103,"is_reserved":false,"is_disabled":false,"rental_uris":{"android":"levelo://app?vid=c1ee04fe-b9d5-4b78-8f81-33bd158835b3","ios":"levelo://app?vid=c1ee04fe-b9d5-4b78-8f81-33bd158835b3"},"vehicle_type_id":"4","last_reported":1727957803,"current_range_meters":28400,"station_id":"ce4bgip2rcd13ifvqbb0","pricing_plan_id":"cebpf4jnsgd1na2vs0mg"},{"bike_id":"2bd41e8f-595a-48d8-87d1-c39e3b02765b","system_id":"levelo_inurba_marseille","lat":43.33758,"lon":5.37477,"is_reserved":false,"is_disabled":false,"rental_uris":{"android":"levelo://app?vid=2bd41e8f-595a-48d8-87d1-c39e3b02765b","ios":"levelo://app?vid=2bd41e8f-595a-48d8-87d1-c39e3b02765b"},"vehicle_type_id":"4","last_reported":1727957803,"current_range_meters":35600,"station_id":"","pricing_plan_id":"cebpf4jnsgd1na2vs0mg"},{"bike_id":"a02cdd14-d9d7-408c-bc26-e6b9f2863dc1","system_id":"levelo_inurba_marseille","lat":43.29422,"lon":5.38617,"is_reserved":false,"is_disabled":false,"rental_uris":{"android":"levelo://app?vid=a02cdd14-d9d7-408c-bc26-e6b9f2863dc1","ios":"levelo://app?vid=a02cdd14-d9d7-408c-bc26-e6b9f2863dc1"},"vehicle_type_id":"4","last_reported":1727957803,"current_range_meters":22400,"station_id":"ce4bh2h2rcd13ifvqdh0","pricing_plan_id":"cebpf4jnsgd1na2vs0mg"},{"bike_id":"e9ceba96-efa6-4a0c-a2ff-94f627a909d5","system_id":"levelo_inurba_marseille","lat":43.29276,"lon":5.3684,"is_reserved":false,"is_disabled":false,"rental_uris":{"android":"levelo://app?vid=e9ceba96-efa6-4a0c-a2ff-94f627a909d5","ios":"levelo://app?vid=e9ceba96-efa6-4a0c-a2ff-94f627a909d5"},"vehicle_type_id":"4","last_reported":1727957803,"current_range_meters":19600,"station_id":"ce4bhbp2rcd13ifvqesg","pricing_plan_id":"cebpf4jnsgd1na2vs0mg"},{"bike_id":"ecbb9d56-c688-45d8-9b40-cb9ed36f029c","system_id":"levelo_inurba_marseille","lat":43.30427,"lon":5.39749,"is_reserved":false,"is_disabled":false,"rental_uris":{"android":"levelo://app?vid=ecbb9d56-c688-45d8-9b40-cb9ed36f029c","ios":"levelo://app?vid=ecbb9d56-c688-45d8-9b40-cb9ed36f029c"},"vehicle_type_id":"4","last_reported":1727957803,"current_range_meters":11200,"station_id":"ce4bh092rcd13ifvqd20","pricing_plan_id":"cebpf4jnsgd1na2vs0mg"},{"bike_id":"ff23f5f0-f9af-4724-82e5-3f68d5b2dbaf","system_id":"levelo_inurba_marseille","lat":43.30461,"lon":5.37907,"is_reserved":false,"is_disabled":false,"rental_uris":{"android":"levelo://app?vid=ff23f5f0-f9af-4724-82e5-3f68d5b2dbaf","ios":"levelo://app?vid=ff23f5f0-f9af-4724-82e5-3f68d5b2dbaf"},"vehicle_type_id":"4","last_reported":1727957803,"current_range_meters":16400,"station_id":"ce4bgup2rcd13ifvqcn0","pricing_plan_id":"cebpf4jnsgd1na2vs0mg"},{"bike_id":"7a7dee93-6c29-407e-bcf5-949befcd0be2","system_id":"levelo_inurba_marseille","lat":43.26959,"lon":5.3862,"is_reserved":false,"is_disabled":false,"rental_uris":{"android":"levelo://app?vid=7a7dee93-6c29-407e-bcf5-949befcd0be2","ios":"levelo://app?vid=7a7dee93-6c29-407e-bcf5-949befcd0be2"},"vehicle_type_id":"4","last_reported":1727957803,"current_range_meters":29600,"station_id":"ce4bhh92rcd13ifvqfh0","pricing_plan_id":"cebpf4jnsgd1na2vs0mg"},{"bike_id":"a5c2be21-98ce-43e8-a6ae-63d7febce4a2","system_id":"levelo_inurba_marseille","lat":43.28478,"lon":5.38418,"is_reserved":false,"is_disabled":false,"rental_uris":{"android":"levelo://app?vid=a5c2be21-98ce-43e8-a6ae-63d7febce4a2","ios":"levelo://app?vid=a5c2be21-98ce-43e8-a6ae-63d7febce4a2"},"vehicle_type_id":"4","last_reported":1727957803,"current_range_meters":26000,"station_id":"ce4bh512rcd13ifvqe3g","pricing_plan_id":"cebpf4jnsgd1na2vs0mg"},{"bike_id":"97da7c7f-f10d-4cb7-8679-6296d5c83e95","system_id":"levelo_inurba_marseille","lat":43.32538,"lon":5.41453,"is_reserved":false,"is_disabled":false,"rental_uris":{"android":"levelo://app?vid=97da7c7f-f10d-4cb7-8679-6296d5c83e95","ios":"levelo://app?vid=97da7c7f-f10d-4cb7-8679-6296d5c83e95"},"vehicle_type_id":"4","last_reported":1727957803,"current_range_meters":26000,"station_id":"ce4bhq12rcd13ifvqhhg","pricing_plan_id":"cebpf4jnsgd1na2vs0mg"},{"bike_id":"713b8eaa-6753-4deb-8123-31fef052d3de","system_id":"levelo_inurba_marseille","lat":43.2657,"lon":5.39019,"is_reserved":false,"is_disabled":false,"rental_uris":{"android":"levelo://app?vid=713b8eaa-6753-4deb-8123-31fef052d3de","ios":"levelo://app?vid=713b8eaa-6753-4deb-8123-31fef052d3de"},"vehicle_type_id":"4","last_reported":1727957803,"current_range_meters":32000,"station_id":"ce4bhe12rcd13ifvqf30","pricing_plan_id":"cebpf4jnsgd1na2vs0mg"},{"bike_id":"6c87a30e-9822-4f18-8c60-1b5e3f466249","system_id":"levelo_inurba_marseille","lat":43.29618,"lon":5.38109,"is_reserved":false,"is_disabled":false,"rental_uris":{"android":"levelo://app?vid=6c87a30e-9822-4f18-8c60-1b5e3f466249","ios":"levelo://app?vid=6c87a30e-9822-4f18-8c60-1b5e3f466249"},"vehicle_type_id":"4","last_reported":1727957803,"current_range_meters":36000,"station_id":"ce4bgl12rcd13ifvqbo0","pricing_plan_id":"cebpf4jnsgd1na2vs0mg"},{"bike_id":"b101aa68-0be1-4fa3-8d66-644e2e205781","system_id":"levelo_inurba_marseille","lat":43.26214,"lon":5.37442,"is_reserved":false,"is_disabled":false,"rental_uris":{"android":"levelo://app?vid=b101aa68-0be1-4fa3-8d66-644e2e205781","ios":"levelo://app?vid=b101aa68-0be1-4fa3-8d66-644e2e205781"},"vehicle_type_id":"4","last_reported":1727957803,"current_range_meters":7200,"station_id":"ce4bhgp2rcd13ifvqfc0","pricing_plan_id":"cebpf4jnsgd1na2vs0mg"},{"bike_id":"0066c6b0-1057-4400-85b9-4677ce2f8905","system_id":"levelo_inurba_marseille","lat":43.29842,"lon":5.36261,"is_reserved":false,"is_disabled":false,"rental_uris":{"android":"levelo://app?vid=0066c6b0-1057-4400-85b9-4677ce2f8905","ios":"levelo://app?vid=0066c6b0-1057-4400-85b9-4677ce2f8905"},"vehicle_type_id":"4","last_reported":1727957803,"current_range_meters":16400,"station_id":"ce4bgpp2rcd13ifvqc3g","pricing_plan_id":"cebpf4jnsgd1na2vs0mg"},{"bike_id":"abfa74ce-ac56-4bd7-af8d-9fbafd2dc3d5","system_id":"levelo_inurba_marseille","lat":43.2397,"lon":5.36627,"is_reserved":false,"is_disabled":false,"rental_uris":{"android":"levelo://app?vid=abfa74ce-ac56-4bd7-af8d-9fbafd2dc3d5","ios":"levelo://app?vid=abfa74ce-ac56-4bd7-af8d-9fbafd2dc3d5"},"vehicle_type_id":"4","last_reported":1727957803,"current_range_meters":34800,"station_id":"ce4bhi12rcd13ifvqfp0","pricing_plan_id":"cebpf4jnsgd1na2vs0mg"},{"bike_id":"34f3ab9d-65a1-4246-8fb7-85628e1336cf","system_id":"levelo_inurba_marseille","lat":43.30542,"lon":5.3841,"is_reserved":false,"is_disabled":false,"rental_uris":{"android":"levelo://app?vid=34f3ab9d-65a1-4246-8fb7-85628e1336cf","ios":"levelo://app?vid=34f3ab9d-65a1-4246-8fb7-85628e1336cf"},"vehicle_type_id":"4","last_reported":1727957803,"current_range_meters":22800,"station_id":"ce4bgg92rcd13ifvqb30","pricing_plan_id":"cebpf4jnsgd1na2vs0mg"},{"bike_id":"e85a3ddb-58f6-4dca-a921-74684e685e01","system_id":"levelo_inurba_marseille","lat":43.29278,"lon":5.36849,"is_reserved":false,"is_disabled":false,"rental_uris":{"android":"levelo://app?vid=e85a3ddb-58f6-4dca-a921-74684e685e01","ios":"levelo://app?vid=e85a3ddb-58f6-4dca-a921-74684e685e01"},"vehicle_type_id":"4","last_reported":1727957803,"current_range_meters":8400,"station_id":"ce4bhbp2rcd13ifvqesg","pricing_plan_id":"cebpf4jnsgd1na2vs0mg"},{"bike_id":"abbddb8a-cbdf-4be6-8e62-60fbee2d4805","system_id":"levelo_inurba_marseille","lat":43.28026,"lon":5.36945,"is_reserved":false,"is_disabled":false,"rental_uris":{"android":"levelo://app?vid=abbddb8a-cbdf-4be6-8e62-60fbee2d4805","ios":"levelo://app?vid=abbddb8a-cbdf-4be6-8e62-60fbee2d4805"},"vehicle_type_id":"4","last_reported":1727957803,"current_range_meters":9200,"station_id":"ce4bha12rcd13ifvqef0","pricing_plan_id":"cebpf4jnsgd1na2vs0mg"},{"bike_id":"5ee7ca17-4ed3-4361-90e4-eb798bc2d571","system_id":"levelo_inurba_marseille","lat":43.29609,"lon":5.38103,"is_reserved":false,"is_disabled":false,"rental_uris":{"android":"levelo://app?vid=5ee7ca17-4ed3-4361-90e4-eb798bc2d571","ios":"levelo://app?vid=5ee7ca17-4ed3-4361-90e4-eb798bc2d571"},"vehicle_type_id":"4","last_reported":1727957803,"current_range_meters":27200,"station_id":"ce4bgl12rcd13ifvqbo0","pricing_plan_id":"cebpf4jnsgd1na2vs0mg"},{"bike_id":"e6324d82-a00d-4ac7-b4d3-567315cd04e5","system_id":"levelo_inurba_marseille","lat":43.24982,"lon":5.38807,"is_reserved":false,"is_disabled":false,"rental_uris":{"android":"levelo://app?vid=e6324d82-a00d-4ac7-b4d3-567315cd04e5","ios":"levelo://app?vid=e6324d82-a00d-4ac7-b4d3-567315cd04e5"},"vehicle_type_id":"4","last_reported":1727957803,"current_range_meters":25600,"station_id":"","pricing_plan_id":"cebpf4jnsgd1na2vs0mg"},{"bike_id":"8e3dd6e7-7042-480e-ae98-f70ef7720e59","system_id":"levelo_inurba_marseille","lat":43.29913,"lon":5.3746,"is_reserved":false,"is_disabled":false,"rental_uris":{"android":"levelo://app?vid=8e3dd6e7-7042-480e-ae98-f70ef7720e59","ios":"levelo://app?vid=8e3dd6e7-7042-480e-ae98-f70ef7720e59"},"vehicle_type_id":"4","last_reported":1727957803,"current_range_meters":30800,"station_id":"ce4bgjh2rcd13ifvqbg0","pricing_plan_id":"cebpf4jnsgd1na2vs0mg"},{"bike_id":"6c5a26eb-ee07-4d34-9b92-1ad63d0731a1","system_id":"levelo_inurba_marseille","lat":43.30286,"lon":5.37695,"is_reserved":false,"is_disabled":false,"rental_uris":{"android":"levelo://app?vid=6c5a26eb-ee07-4d34-9b92-1ad63d0731a1","ios":"levelo://app?vid=6c5a26eb-ee07-4d34-9b92-1ad63d0731a1"},"vehicle_type_id":"4","last_reported":1727957803,"current_range_meters":34800,"station_id":"ce4bguh2rcd13ifvqcj0","pricing_plan_id":"cebpf4jnsgd1na2vs0mg"},{"bike_id":"8976b32e-fda0-4c2f-9a7a-81035a3b03bb","system_id":"levelo_inurba_marseille","lat":43.2872,"lon":5.37936,"is_reserved":false,"is_disabled":false,"rental_uris":{"android":"levelo://app?vid=8976b32e-fda0-4c2f-9a7a-81035a3b03bb","ios":"levelo://app?vid=8976b32e-fda0-4c2f-9a7a-81035a3b03bb"},"vehicle_type_id":"4","last_reported":1727957803,"current_range_meters":22400,"station_id":"ce4bh9p2rcd13ifvqec0","pricing_plan_id":"cebpf4jnsgd1na2vs0mg"},{"bike_id":"2756f9ac-d5a9-4aff-bbd7-a127d22b2220","system_id":"levelo_inurba_marseille","lat":43.30462,"lon":5.37908,"is_reserved":false,"is_disabled":false,"rental_uris":{"android":"levelo://app?vid=2756f9ac-d5a9-4aff-bbd7-a127d22b2220","ios":"levelo://app?vid=2756f9ac-d5a9-4aff-bbd7-a127d22b2220"},"vehicle_type_id":"4","last_reported":1727957803,"current_range_meters":8000,"station_id":"ce4bgup2rcd13ifvqcn0","pricing_plan_id":"cebpf4jnsgd1na2vs0mg"},{"bike_id":"ed182f46-8ba0-4418-b11f-188c4f703938","system_id":"levelo_inurba_marseille","lat":43.28722,"lon":5.37935,"is_reserved":false,"is_disabled":false,"rental_uris":{"android":"levelo://app?vid=ed182f46-8ba0-4418-b11f-188c4f703938","ios":"levelo://app?vid=ed182f46-8ba0-4418-b11f-188c4f703938"},"vehicle_type_id":"4","last_reported":1727957803,"current_range_meters":24800,"station_id":"ce4bh9p2rcd13ifvqec0","pricing_plan_id":"cebpf4jnsgd1na2vs0mg"},{"bike_id":"c8e4ff73-620c-4248-92f7-758d5098242c","system_id":"levelo_inurba_marseille","lat":43.22928,"lon":5.35376,"is_reserved":false,"is_disabled":false,"rental_uris":{"android":"levelo://app?vid=c8e4ff73-620c-4248-92f7-758d5098242c","ios":"levelo://app?vid=c8e4ff73-620c-4248-92f7-758d5098242c"},"vehicle_type_id":"4","last_reported":1727957803,"current_range_meters":27600,"station_id":"cpo3532slgdg3j2ikp40","pricing_plan_id":"cebpf4jnsgd1na2vs0mg"},{"bike_id":"da902bad-86bb-4239-9b68-6f5a7a44ed03","system_id":"levelo_inurba_marseille","lat":43.28615,"lon":5.35104,"is_reserved":false,"is_disabled":false,"rental_uris":{"android":"levelo://app?vid=da902bad-86bb-4239-9b68-6f5a7a44ed03","ios":"levelo://app?vid=da902bad-86bb-4239-9b68-6f5a7a44ed03"},"vehicle_type_id":"4","last_reported":1727957803,"current_range_meters":20800,"station_id":"ce4bhch2rcd13ifvqeug","pricing_plan_id":"cebpf4jnsgd1na2vs0mg"},{"bike_id":"f482c2cf-ba02-4c58-a5f7-4a140a15281f","system_id":"levelo_inurba_marseille","lat":43.31689,"lon":5.37748,"is_reserved":false,"is_disabled":false,"rental_uris":{"android":"levelo://app?vid=f482c2cf-ba02-4c58-a5f7-4a140a15281f","ios":"levelo://app?vid=f482c2cf-ba02-4c58-a5f7-4a140a15281f"},"vehicle_type_id":"4","last_reported":1727957803,"current_range_meters":19200,"station_id":"ce4bgth2rcd13ifvqch0","pricing_plan_id":"cebpf4jnsgd1na2vs0mg"},{"bike_id":"5fd74767-be89-4d70-934d-0d640f37cdd6","system_id":"levelo_inurba_marseille","lat":43.23148,"lon":5.43708,"is_reserved":false,"is_disabled":false,"rental_uris":{"android":"levelo://app?vid=5fd74767-be89-4d70-934d-0d640f37cdd6","ios":"levelo://app?vid=5fd74767-be89-4d70-934d-0d640f37cdd6"},"vehicle_type_id":"4","last_reported":1727957803,"current_range_meters":17200,"station_id":"ce4bhmp2rcd13ifvqgog","pricing_plan_id":"cebpf4jnsgd1na2vs0mg"},{"bike_id":"eea02000-c069-4533-af9e-a32a1e59b69d","system_id":"levelo_inurba_marseille","lat":43.26959,"lon":5.38632,"is_reserved":false,"is_disabled":false,"rental_uris":{"android":"levelo://app?vid=eea02000-c069-4533-af9e-a32a1e59b69d","ios":"levelo://app?vid=eea02000-c069-4533-af9e-a32a1e59b69d"},"vehicle_type_id":"4","last_reported":1727957803,"current_range_meters":19600,"station_id":"ce4bhh92rcd13ifvqfh0","pricing_plan_id":"cebpf4jnsgd1na2vs0mg"},{"bike_id":"34d8fa81-94a5-49f7-98da-128d2edbe4c1","system_id":"levelo_inurba_marseille","lat":43.23192,"lon":5.35553,"is_reserved":false,"is_disabled":false,"rental_uris":{"android":"levelo://app?vid=34d8fa81-94a5-49f7-98da-128d2edbe4c1","ios":"levelo://app?vid=34d8fa81-94a5-49f7-98da-128d2edbe4c1"},"vehicle_type_id":"4","last_reported":1727957803,"current_range_meters":8400,"station_id":"ce4bhu92rcd13ifvqi70","pricing_plan_id":"cebpf4jnsgd1na2vs0mg"},{"bike_id":"92a62d9d-fa90-41e6-b194-580e013b26a2","system_id":"levelo_inurba_marseille","lat":43.28728,"lon":5.37943,"is_reserved":false,"is_disabled":false,"rental_uris":{"android":"levelo://app?vid=92a62d9d-fa90-41e6-b194-580e013b26a2","ios":"levelo://app?vid=92a62d9d-fa90-41e6-b194-580e013b26a2"},"vehicle_type_id":"4","last_reported":1727957803,"current_range_meters":28800,"station_id":"ce4bh9p2rcd13ifvqec0","pricing_plan_id":"cebpf4jnsgd1na2vs0mg"},{"bike_id":"96e09bbf-80bf-4b4a-8c1c-bc174ee515fe","system_id":"levelo_inurba_marseille","lat":43.30466,"lon":5.37909,"is_reserved":false,"is_disabled":false,"rental_uris":{"android":"levelo://app?vid=96e09bbf-80bf-4b4a-8c1c-bc174ee515fe","ios":"levelo://app?vid=96e09bbf-80bf-4b4a-8c1c-bc174ee515fe"},"vehicle_type_id":"4","last_reported":1727957803,"current_range_meters":39200,"station_id":"ce4bgup2rcd13ifvqcn0","pricing_plan_id":"cebpf4jnsgd1na2vs0mg"},{"bike_id":"08e76dab-7956-403c-a619-19ef2aeae07f","system_id":"levelo_inurba_marseille","lat":43.27978,"lon":5.38719,"is_reserved":false,"is_disabled":false,"rental_uris":{"android":"levelo://app?vid=08e76dab-7956-403c-a619-19ef2aeae07f","ios":"levelo://app?vid=08e76dab-7956-403c-a619-19ef2aeae07f"},"vehicle_type_id":"4","last_reported":1727957803,"current_range_meters":38800,"station_id":"ce4bhg12rcd13ifvqf80","pricing_plan_id":"cebpf4jnsgd1na2vs0mg"},{"bike_id":"dbf66c04-a155-49c8-884d-e33cb954e957","system_id":"levelo_inurba_marseille","lat":43.2315,"lon":5.4372,"is_reserved":false,"is_disabled":false,"rental_uris":{"android":"levelo://app?vid=dbf66c04-a155-49c8-884d-e33cb954e957","ios":"levelo://app?vid=dbf66c04-a155-49c8-884d-e33cb954e957"},"vehicle_type_id":"4","last_reported":1727957803,"current_range_meters":9200,"station_id":"ce4bhmp2rcd13ifvqgog","pricing_plan_id":"cebpf4jnsgd1na2vs0mg"},{"bike_id":"3a0fc9fd-e162-42e9-95a6-8d20c9272e90","system_id":"levelo_inurba_marseille","lat":43.30211,"lon":5.39461,"is_reserved":false,"is_disabled":false,"rental_uris":{"android":"levelo://app?vid=3a0fc9fd-e162-42e9-95a6-8d20c9272e90","ios":"levelo://app?vid=3a0fc9fd-e162-42e9-95a6-8d20c9272e90"},"vehicle_type_id":"4","last_reported":1727957803,"current_range_meters":10000,"station_id":"ce4bh0p2rcd13ifvqd70","pricing_plan_id":"cebpf4jnsgd1na2vs0mg"},{"bike_id":"d5b0d861-b4b1-493e-b705-5a0fb68b3b99","system_id":"levelo_inurba_marseille","lat":43.24804,"lon":5.37463,"is_reserved":false,"is_disabled":false,"rental_uris":{"android":"levelo://app?vid=d5b0d861-b4b1-493e-b705-5a0fb68b3b99","ios":"levelo://app?vid=d5b0d861-b4b1-493e-b705-5a0fb68b3b99"},"vehicle_type_id":"4","last_reported":1727957803,"current_range_meters":36400,"station_id":"ce4bhgh2rcd13ifvqfb0","pricing_plan_id":"cebpf4jnsgd1na2vs0mg"},{"bike_id":"279deea5-d960-4cac-a348-cfd072a8fdd8","system_id":"levelo_inurba_marseille","lat":43.30906,"lon":5.36855,"is_reserved":false,"is_disabled":false,"rental_uris":{"android":"levelo://app?vid=279deea5-d960-4cac-a348-cfd072a8fdd8","ios":"levelo://app?vid=279deea5-d960-4cac-a348-cfd072a8fdd8"},"vehicle_type_id":"4","last_reported":1727957803,"current_range_meters":30400,"station_id":"ce4bgn92rcd13ifvqbvg","pricing_plan_id":"cebpf4jnsgd1na2vs0mg"},{"bike_id":"279905d2-31cb-4375-9057-1a2156283393","system_id":"levelo_inurba_marseille","lat":43.28447,"lon":5.35002,"is_reserved":false,"is_disabled":false,"rental_uris":{"android":"levelo://app?vid=279905d2-31cb-4375-9057-1a2156283393","ios":"levelo://app?vid=279905d2-31cb-4375-9057-1a2156283393"},"vehicle_type_id":"4","last_reported":1727957803,"current_range_meters":12800,"station_id":"ce4bhbh2rcd13ifvqepg","pricing_plan_id":"cebpf4jnsgd1na2vs0mg"},{"bike_id":"d0c21067-7efd-40c1-8e8d-98d6c6430d97","system_id":"levelo_inurba_marseille","lat":43.28414,"lon":5.34986,"is_reserved":false,"is_disabled":false,"rental_uris":{"android":"levelo://app?vid=d0c21067-7efd-40c1-8e8d-98d6c6430d97","ios":"levelo://app?vid=d0c21067-7efd-40c1-8e8d-98d6c6430d97"},"vehicle_type_id":"4","last_reported":1727957803,"current_range_meters":16000,"station_id":"ce4bhbh2rcd13ifvqepg","pricing_plan_id":"cebpf4jnsgd1na2vs0mg"},{"bike_id":"1e92032b-1e00-4776-82f5-bd6e3b57f288","system_id":"levelo_inurba_marseille","lat":43.29586,"lon":5.36744,"is_reserved":false,"is_disabled":false,"rental_uris":{"android":"levelo://app?vid=1e92032b-1e00-4776-82f5-bd6e3b57f288","ios":"levelo://app?vid=1e92032b-1e00-4776-82f5-bd6e3b57f288"},"vehicle_type_id":"4","last_reported":1727957803,"current_range_meters":37600,"station_id":"ce4bgph2rcd13ifvqc2g","pricing_plan_id":"cebpf4jnsgd1na2vs0mg"},{"bike_id":"75b6d23c-8e6a-4f18-bb07-ff063c93e683","system_id":"levelo_inurba_marseille","lat":43.30905,"lon":5.36841,"is_reserved":false,"is_disabled":false,"rental_uris":{"android":"levelo://app?vid=75b6d23c-8e6a-4f18-bb07-ff063c93e683","ios":"levelo://app?vid=75b6d23c-8e6a-4f18-bb07-ff063c93e683"},"vehicle_type_id":"4","last_reported":1727957803,"current_range_meters":38400,"station_id":"ce4bgn92rcd13ifvqbvg","pricing_plan_id":"cebpf4jnsgd1na2vs0mg"},{"bike_id":"b2430e46-57a5-4215-8478-44af06148722","system_id":"levelo_inurba_marseille","lat":43.23152,"lon":5.43714,"is_reserved":false,"is_disabled":false,"rental_uris":{"android":"levelo://app?vid=b2430e46-57a5-4215-8478-44af06148722","ios":"levelo://app?vid=b2430e46-57a5-4215-8478-44af06148722"},"vehicle_type_id":"4","last_reported":1727957803,"current_range_meters":23200,"station_id":"ce4bhmp2rcd13ifvqgog","pricing_plan_id":"cebpf4jnsgd1na2vs0mg"},{"bike_id":"4a18e28e-9bad-4e5c-9538-59a77d5e7b0c","system_id":"levelo_inurba_marseille","lat":43.23147,"lon":5.43718,"is_reserved":false,"is_disabled":false,"rental_uris":{"android":"levelo://app?vid=4a18e28e-9bad-4e5c-9538-59a77d5e7b0c","ios":"levelo://app?vid=4a18e28e-9bad-4e5c-9538-59a77d5e7b0c"},"vehicle_type_id":"4","last_reported":1727957803,"current_range_meters":8000,"station_id":"ce4bhmp2rcd13ifvqgog","pricing_plan_id":"cebpf4jnsgd1na2vs0mg"},{"bike_id":"52676766-b5ed-41a9-b8e6-b6b1d139433a","system_id":"levelo_inurba_marseille","lat":43.288523,"lon":5.393092,"is_reserved":false,"is_disabled":false,"rental_uris":{"android":"levelo://app?vid=52676766-b5ed-41a9-b8e6-b6b1d139433a","ios":"levelo://app?vid=52676766-b5ed-41a9-b8e6-b6b1d139433a"},"vehicle_type_id":"4","last_reported":1727957803,"current_range_meters":2800,"station_id":"ce4bh2p2rcd13ifvqdi0","pricing_plan_id":"cebpf4jnsgd1na2vs0mg"},{"bike_id":"1fcc61db-bd9e-4cf9-93f2-be13c5766c35","system_id":"levelo_inurba_marseille","lat":43.29074,"lon":5.37171,"is_reserved":false,"is_disabled":false,"rental_uris":{"android":"levelo://app?vid=1fcc61db-bd9e-4cf9-93f2-be13c5766c35","ios":"levelo://app?vid=1fcc61db-bd9e-4cf9-93f2-be13c5766c35"},"vehicle_type_id":"4","last_reported":1727957803,"current_range_meters":19200,"station_id":"ce4bh5p2rcd13ifvqe4g","pricing_plan_id":"cebpf4jnsgd1na2vs0mg"},{"bike_id":"4f69c4e4-4aab-4ccb-88ff-64579ae1a72c","system_id":"levelo_inurba_marseille","lat":43.24178,"lon":5.39712,"is_reserved":false,"is_disabled":false,"rental_uris":{"android":"levelo://app?vid=4f69c4e4-4aab-4ccb-88ff-64579ae1a72c","ios":"levelo://app?vid=4f69c4e4-4aab-4ccb-88ff-64579ae1a72c"},"vehicle_type_id":"4","last_reported":1727957803,"current_range_meters":12800,"station_id":"ce4bhn12rcd13ifvqgpg","pricing_plan_id":"cebpf4jnsgd1na2vs0mg"},{"bike_id":"9fec9171-ecc3-4458-a490-f5c3b2300c5d","system_id":"levelo_inurba_marseille","lat":43.29248,"lon":5.40911,"is_reserved":false,"is_disabled":false,"rental_uris":{"android":"levelo://app?vid=9fec9171-ecc3-4458-a490-f5c3b2300c5d","ios":"levelo://app?vid=9fec9171-ecc3-4458-a490-f5c3b2300c5d"},"vehicle_type_id":"4","last_reported":1727957803,"current_range_meters":39200,"station_id":"ce4bh192rcd13ifvqdc0","pricing_plan_id":"cebpf4jnsgd1na2vs0mg"},{"bike_id":"cd0feddc-106d-4910-8736-fe45a82f33ee","system_id":"levelo_inurba_marseille","lat":43.31268,"lon":5.36843,"is_reserved":false,"is_disabled":false,"rental_uris":{"android":"levelo://app?vid=cd0feddc-106d-4910-8736-fe45a82f33ee","ios":"levelo://app?vid=cd0feddc-106d-4910-8736-fe45a82f33ee"},"vehicle_type_id":"4","last_reported":1727957803,"current_range_meters":27200,"station_id":"ce4bgl92rcd13ifvqbq0","pricing_plan_id":"cebpf4jnsgd1na2vs0mg"},{"bike_id":"e690ed13-32d4-4cc3-821d-4783773c830f","system_id":"levelo_inurba_marseille","lat":43.29926,"lon":5.3654,"is_reserved":false,"is_disabled":false,"rental_uris":{"android":"levelo://app?vid=e690ed13-32d4-4cc3-821d-4783773c830f","ios":"levelo://app?vid=e690ed13-32d4-4cc3-821d-4783773c830f"},"vehicle_type_id":"4","last_reported":1727957803,"current_range_meters":24400,"station_id":"ce4bgm92rcd13ifvqbr0","pricing_plan_id":"cebpf4jnsgd1na2vs0mg"},{"bike_id":"23fcd5dc-52e3-40b6-b601-8da82c35b64a","system_id":"levelo_inurba_marseille","lat":43.23198,"lon":5.35546,"is_reserved":false,"is_disabled":false,"rental_uris":{"android":"levelo://app?vid=23fcd5dc-52e3-40b6-b601-8da82c35b64a","ios":"levelo://app?vid=23fcd5dc-52e3-40b6-b601-8da82c35b64a"},"vehicle_type_id":"4","last_reported":1727957803,"current_range_meters":38000,"station_id":"ce4bhu92rcd13ifvqi70","pricing_plan_id":"cebpf4jnsgd1na2vs0mg"},{"bike_id":"4e96f5e5-51ad-40c7-a3fb-c7bccd283bdd","system_id":"levelo_inurba_marseille","lat":43.24547,"lon":5.39526,"is_reserved":false,"is_disabled":false,"rental_uris":{"android":"levelo://app?vid=4e96f5e5-51ad-40c7-a3fb-c7bccd283bdd","ios":"levelo://app?vid=4e96f5e5-51ad-40c7-a3fb-c7bccd283bdd"},"vehicle_type_id":"4","last_reported":1727957803,"current_range_meters":37600,"station_id":"ce4bhlp2rcd13ifvqgjg","pricing_plan_id":"cebpf4jnsgd1na2vs0mg"},{"bike_id":"62f19d79-47dc-43fc-bb5c-5ca6716720e2","system_id":"levelo_inurba_marseille","lat":43.28714,"lon":5.37939,"is_reserved":false,"is_disabled":false,"rental_uris":{"android":"levelo://app?vid=62f19d79-47dc-43fc-bb5c-5ca6716720e2","ios":"levelo://app?vid=62f19d79-47dc-43fc-bb5c-5ca6716720e2"},"vehicle_type_id":"4","last_reported":1727957803,"current_range_meters":38000,"station_id":"ce4bh9p2rcd13ifvqec0","pricing_plan_id":"cebpf4jnsgd1na2vs0mg"},{"bike_id":"432b8504-fdca-4bd0-b52e-14e1670f4d47","system_id":"levelo_inurba_marseille","lat":43.29046,"lon":5.39985,"is_reserved":false,"is_disabled":false,"rental_uris":{"android":"levelo://app?vid=432b8504-fdca-4bd0-b52e-14e1670f4d47","ios":"levelo://app?vid=432b8504-fdca-4bd0-b52e-14e1670f4d47"},"vehicle_type_id":"4","last_reported":1727957803,"current_range_meters":18800,"station_id":"ce4bh392rcd13ifvqdm0","pricing_plan_id":"cebpf4jnsgd1na2vs0mg"},{"bike_id":"5c099b0d-a750-4b91-86e7-2abb5b1fed68","system_id":"levelo_inurba_marseille","lat":43.25945,"lon":5.40897,"is_reserved":false,"is_disabled":false,"rental_uris":{"android":"levelo://app?vid=5c099b0d-a750-4b91-86e7-2abb5b1fed68","ios":"levelo://app?vid=5c099b0d-a750-4b91-86e7-2abb5b1fed68"},"vehicle_type_id":"4","last_reported":1727957803,"current_range_meters":7200,"station_id":"ce4bhm92rcd13ifvqglg","pricing_plan_id":"cebpf4jnsgd1na2vs0mg"},{"bike_id":"7d3e0c4d-ca7c-4de4-b417-1505937c7044","system_id":"levelo_inurba_marseille","lat":43.24394,"lon":5.3706,"is_reserved":false,"is_disabled":false,"rental_uris":{"android":"levelo://app?vid=7d3e0c4d-ca7c-4de4-b417-1505937c7044","ios":"levelo://app?vid=7d3e0c4d-ca7c-4de4-b417-1505937c7044"},"vehicle_type_id":"4","last_reported":1727957803,"current_range_meters":24000,"station_id":"ce4bhhh2rcd13ifvqfk0","pricing_plan_id":"cebpf4jnsgd1na2vs0mg"},{"bike_id":"064d03c0-c181-4d25-bede-34b814163b7b","system_id":"levelo_inurba_marseille","lat":43.27979,"lon":5.3874,"is_reserved":false,"is_disabled":false,"rental_uris":{"android":"levelo://app?vid=064d03c0-c181-4d25-bede-34b814163b7b","ios":"levelo://app?vid=064d03c0-c181-4d25-bede-34b814163b7b"},"vehicle_type_id":"4","last_reported":1727957803,"current_range_meters":8000,"station_id":"ce4bhg12rcd13ifvqf80","pricing_plan_id":"cebpf4jnsgd1na2vs0mg"},{"bike_id":"5a2c50b3-8fb4-4378-9e71-353356fa688e","system_id":"levelo_inurba_marseille","lat":43.29633,"lon":5.40594,"is_reserved":false,"is_disabled":false,"rental_uris":{"android":"levelo://app?vid=5a2c50b3-8fb4-4378-9e71-353356fa688e","ios":"levelo://app?vid=5a2c50b3-8fb4-4378-9e71-353356fa688e"},"vehicle_type_id":"4","last_reported":1727957803,"current_range_meters":8000,"station_id":"ce4bh0h2rcd13ifvqd60","pricing_plan_id":"cebpf4jnsgd1na2vs0mg"},{"bike_id":"ac227b21-f556-437d-af40-4ba7b3f17c56","system_id":"levelo_inurba_marseille","lat":43.27815,"lon":5.40711,"is_reserved":false,"is_disabled":false,"rental_uris":{"android":"levelo://app?vid=ac227b21-f556-437d-af40-4ba7b3f17c56","ios":"levelo://app?vid=ac227b21-f556-437d-af40-4ba7b3f17c56"},"vehicle_type_id":"4","last_reported":1727957803,"current_range_meters":16800,"station_id":"ce4bhnh2rcd13ifvqgtg","pricing_plan_id":"cebpf4jnsgd1na2vs0mg"},{"bike_id":"ce054c01-b1f0-487c-a386-bc92bcbf9739","system_id":"levelo_inurba_marseille","lat":43.28075,"lon":5.39641,"is_reserved":false,"is_disabled":false,"rental_uris":{"android":"levelo://app?vid=ce054c01-b1f0-487c-a386-bc92bcbf9739","ios":"levelo://app?vid=ce054c01-b1f0-487c-a386-bc92bcbf9739"},"vehicle_type_id":"4","last_reported":1727957803,"current_range_meters":34800,"station_id":"ce4bho12rcd13ifvqh2g","pricing_plan_id":"cebpf4jnsgd1na2vs0mg"},{"bike_id":"97eb5edc-36e5-49cb-80b9-7628fc0c7cdd","system_id":"levelo_inurba_marseille","lat":43.23967,"lon":5.36628,"is_reserved":false,"is_disabled":false,"rental_uris":{"android":"levelo://app?vid=97eb5edc-36e5-49cb-80b9-7628fc0c7cdd","ios":"levelo://app?vid=97eb5edc-36e5-49cb-80b9-7628fc0c7cdd"},"vehicle_type_id":"4","last_reported":1727957803,"current_range_meters":24400,"station_id":"ce4bhi12rcd13ifvqfp0","pricing_plan_id":"cebpf4jnsgd1na2vs0mg"},{"bike_id":"4567f085-8ffe-4449-a071-f48f04bf64a8","system_id":"levelo_inurba_marseille","lat":43.26953,"lon":5.3863,"is_reserved":false,"is_disabled":false,"rental_uris":{"android":"levelo://app?vid=4567f085-8ffe-4449-a071-f48f04bf64a8","ios":"levelo://app?vid=4567f085-8ffe-4449-a071-f48f04bf64a8"},"vehicle_type_id":"4","last_reported":1727957803,"current_range_meters":30400,"station_id":"ce4bhh92rcd13ifvqfh0","pricing_plan_id":"cebpf4jnsgd1na2vs0mg"},{"bike_id":"7c70aca1-ac70-4ac8-9df0-5eaae65cd8a4","system_id":"levelo_inurba_marseille","lat":43.2749,"lon":5.42454,"is_reserved":false,"is_disabled":false,"rental_uris":{"android":"levelo://app?vid=7c70aca1-ac70-4ac8-9df0-5eaae65cd8a4","ios":"levelo://app?vid=7c70aca1-ac70-4ac8-9df0-5eaae65cd8a4"},"vehicle_type_id":"4","last_reported":1727957803,"current_range_meters":6000,"station_id":"ce4bhn92rcd13ifvqgrg","pricing_plan_id":"cebpf4jnsgd1na2vs0mg"},{"bike_id":"b074aba7-6016-4bd6-968d-61e6fe872681","system_id":"levelo_inurba_marseille","lat":43.32495,"lon":5.36552,"is_reserved":false,"is_disabled":false,"rental_uris":{"android":"levelo://app?vid=b074aba7-6016-4bd6-968d-61e6fe872681","ios":"levelo://app?vid=b074aba7-6016-4bd6-968d-61e6fe872681"},"vehicle_type_id":"4","last_reported":1727957803,"current_range_meters":24000,"station_id":"ce4bhs12rcd13ifvqhvg","pricing_plan_id":"cebpf4jnsgd1na2vs0mg"},{"bike_id":"d9513a24-3235-43a7-b9a5-1c5cfe37603f","system_id":"levelo_inurba_marseille","lat":43.23059,"lon":5.3549,"is_reserved":false,"is_disabled":false,"rental_uris":{"android":"levelo://app?vid=d9513a24-3235-43a7-b9a5-1c5cfe37603f","ios":"levelo://app?vid=d9513a24-3235-43a7-b9a5-1c5cfe37603f"},"vehicle_type_id":"4","last_reported":1727957803,"current_range_meters":30000,"station_id":"cpo3342slgdg3j2ifvpg","pricing_plan_id":"cebpf4jnsgd1na2vs0mg"},{"bike_id":"b94f53fb-aa1d-4bd5-a1f3-b111bbe71dd8","system_id":"levelo_inurba_marseille","lat":43.30458,"lon":5.37907,"is_reserved":false,"is_disabled":false,"rental_uris":{"android":"levelo://app?vid=b94f53fb-aa1d-4bd5-a1f3-b111bbe71dd8","ios":"levelo://app?vid=b94f53fb-aa1d-4bd5-a1f3-b111bbe71dd8"},"vehicle_type_id":"4","last_reported":1727957803,"current_range_meters":35200,"station_id":"ce4bgup2rcd13ifvqcn0","pricing_plan_id":"cebpf4jnsgd1na2vs0mg"},{"bike_id":"616a6f43-33f3-43f3-b0e2-a8d6aaadadd5","system_id":"levelo_inurba_marseille","lat":43.30429,"lon":5.3711,"is_reserved":false,"is_disabled":false,"rental_uris":{"android":"levelo://app?vid=616a6f43-33f3-43f3-b0e2-a8d6aaadadd5","ios":"levelo://app?vid=616a6f43-33f3-43f3-b0e2-a8d6aaadadd5"},"vehicle_type_id":"4","last_reported":1727957803,"current_range_meters":38800,"station_id":"ce4bgup2rcd13ifvqco0","pricing_plan_id":"cebpf4jnsgd1na2vs0mg"},{"bike_id":"ac091767-a753-42e0-bf5f-f1801206657f","system_id":"levelo_inurba_marseille","lat":43.30471,"lon":5.37902,"is_reserved":false,"is_disabled":false,"rental_uris":{"android":"levelo://app?vid=ac091767-a753-42e0-bf5f-f1801206657f","ios":"levelo://app?vid=ac091767-a753-42e0-bf5f-f1801206657f"},"vehicle_type_id":"4","last_reported":1727957803,"current_range_meters":23200,"station_id":"ce4bgup2rcd13ifvqcn0","pricing_plan_id":"cebpf4jnsgd1na2vs0mg"},{"bike_id":"9caba502-e9a7-41b8-a9ee-1c3cbbfd400c","system_id":"levelo_inurba_marseille","lat":43.3254,"lon":5.41432,"is_reserved":false,"is_disabled":false,"rental_uris":{"android":"levelo://app?vid=9caba502-e9a7-41b8-a9ee-1c3cbbfd400c","ios":"levelo://app?vid=9caba502-e9a7-41b8-a9ee-1c3cbbfd400c"},"vehicle_type_id":"4","last_reported":1727957803,"current_range_meters":22400,"station_id":"ce4bhq12rcd13ifvqhhg","pricing_plan_id":"cebpf4jnsgd1na2vs0mg"},{"bike_id":"9430c2de-7e25-4d11-9b8e-d67b33563f6e","system_id":"levelo_inurba_marseille","lat":43.29207,"lon":5.39322,"is_reserved":false,"is_disabled":false,"rental_uris":{"android":"levelo://app?vid=9430c2de-7e25-4d11-9b8e-d67b33563f6e","ios":"levelo://app?vid=9430c2de-7e25-4d11-9b8e-d67b33563f6e"},"vehicle_type_id":"4","last_reported":1727957803,"current_range_meters":18800,"station_id":"ce4bh192rcd13ifvqdd0","pricing_plan_id":"cebpf4jnsgd1na2vs0mg"},{"bike_id":"9bf124ee-5cc5-4a86-aaf0-0555a3177f69","system_id":"levelo_inurba_marseille","lat":43.30552,"lon":5.36526,"is_reserved":false,"is_disabled":false,"rental_uris":{"android":"levelo://app?vid=9bf124ee-5cc5-4a86-aaf0-0555a3177f69","ios":"levelo://app?vid=9bf124ee-5cc5-4a86-aaf0-0555a3177f69"},"vehicle_type_id":"4","last_reported":1727957803,"current_range_meters":9600,"station_id":"ce4bgs12rcd13ifvqcag","pricing_plan_id":"cebpf4jnsgd1na2vs0mg"},{"bike_id":"c11e4bd0-e2c3-48ea-a4b3-91464161cb45","system_id":"levelo_inurba_marseille","lat":43.23972,"lon":5.36622,"is_reserved":false,"is_disabled":false,"rental_uris":{"android":"levelo://app?vid=c11e4bd0-e2c3-48ea-a4b3-91464161cb45","ios":"levelo://app?vid=c11e4bd0-e2c3-48ea-a4b3-91464161cb45"},"vehicle_type_id":"4","last_reported":1727957803,"current_range_meters":38000,"station_id":"ce4bhi12rcd13ifvqfp0","pricing_plan_id":"cebpf4jnsgd1na2vs0mg"},{"bike_id":"d1b19411-4566-47f6-aa66-8f704d1b81b5","system_id":"levelo_inurba_marseille","lat":43.24545,"lon":5.39523,"is_reserved":false,"is_disabled":false,"rental_uris":{"android":"levelo://app?vid=d1b19411-4566-47f6-aa66-8f704d1b81b5","ios":"levelo://app?vid=d1b19411-4566-47f6-aa66-8f704d1b81b5"},"vehicle_type_id":"4","last_reported":1727957803,"current_range_meters":19600,"station_id":"ce4bhlp2rcd13ifvqgjg","pricing_plan_id":"cebpf4jnsgd1na2vs0mg"},{"bike_id":"38ce2261-4ce5-465a-8c4f-aa5a8595620a","system_id":"levelo_inurba_marseille","lat":43.27896,"lon":5.38724,"is_reserved":false,"is_disabled":false,"rental_uris":{"android":"levelo://app?vid=38ce2261-4ce5-465a-8c4f-aa5a8595620a","ios":"levelo://app?vid=38ce2261-4ce5-465a-8c4f-aa5a8595620a"},"vehicle_type_id":"4","last_reported":1727957803,"current_range_meters":38400,"station_id":"ce4bhi12rcd13ifvqfo0","pricing_plan_id":"cebpf4jnsgd1na2vs0mg"},{"bike_id":"1430add3-d4f9-4c53-8101-19290ecfc468","system_id":"levelo_inurba_marseille","lat":43.29837,"lon":5.36266,"is_reserved":false,"is_disabled":false,"rental_uris":{"android":"levelo://app?vid=1430add3-d4f9-4c53-8101-19290ecfc468","ios":"levelo://app?vid=1430add3-d4f9-4c53-8101-19290ecfc468"},"vehicle_type_id":"4","last_reported":1727957803,"current_range_meters":15200,"station_id":"ce4bgpp2rcd13ifvqc3g","pricing_plan_id":"cebpf4jnsgd1na2vs0mg"},{"bike_id":"47d6a757-4a7a-41f8-8ec1-01bc93a10302","system_id":"levelo_inurba_marseille","lat":43.255,"lon":5.37652,"is_reserved":false,"is_disabled":false,"rental_uris":{"android":"levelo://app?vid=47d6a757-4a7a-41f8-8ec1-01bc93a10302","ios":"levelo://app?vid=47d6a757-4a7a-41f8-8ec1-01bc93a10302"},"vehicle_type_id":"4","last_reported":1727957803,"current_range_meters":26000,"station_id":"ce4bhh12rcd13ifvqff0","pricing_plan_id":"cebpf4jnsgd1na2vs0mg"},{"bike_id":"c77732fc-6f69-43d9-b2d0-1630ada65ad7","system_id":"levelo_inurba_marseille","lat":43.24168,"lon":5.36392,"is_reserved":false,"is_disabled":false,"rental_uris":{"android":"levelo://app?vid=c77732fc-6f69-43d9-b2d0-1630ada65ad7","ios":"levelo://app?vid=c77732fc-6f69-43d9-b2d0-1630ada65ad7"},"vehicle_type_id":"4","last_reported":1727957803,"current_range_meters":35600,"station_id":"cpo36qri1sfpv3e86is0","pricing_plan_id":"cebpf4jnsgd1na2vs0mg"},{"bike_id":"e52c7158-7944-4268-89aa-ed5cf215cd5b","system_id":"levelo_inurba_marseille","lat":43.32534,"lon":5.41434,"is_reserved":false,"is_disabled":false,"rental_uris":{"android":"levelo://app?vid=e52c7158-7944-4268-89aa-ed5cf215cd5b","ios":"levelo://app?vid=e52c7158-7944-4268-89aa-ed5cf215cd5b"},"vehicle_type_id":"4","last_reported":1727957803,"current_range_meters":7200,"station_id":"ce4bhq12rcd13ifvqhhg","pricing_plan_id":"cebpf4jnsgd1na2vs0mg"},{"bike_id":"fec9bc80-4a5a-4ddf-a4cb-b0c3d964fe4a","system_id":"levelo_inurba_marseille","lat":43.28855,"lon":5.393,"is_reserved":false,"is_disabled":false,"rental_uris":{"android":"levelo://app?vid=fec9bc80-4a5a-4ddf-a4cb-b0c3d964fe4a","ios":"levelo://app?vid=fec9bc80-4a5a-4ddf-a4cb-b0c3d964fe4a"},"vehicle_type_id":"4","last_reported":1727957803,"current_range_meters":28400,"station_id":"ce4bh2p2rcd13ifvqdi0","pricing_plan_id":"cebpf4jnsgd1na2vs0mg"},{"bike_id":"b7b5ced6-790e-47d0-b971-a84b1a727ce7","system_id":"levelo_inurba_marseille","lat":43.278114,"lon":5.40715,"is_reserved":false,"is_disabled":false,"rental_uris":{"android":"levelo://app?vid=b7b5ced6-790e-47d0-b971-a84b1a727ce7","ios":"levelo://app?vid=b7b5ced6-790e-47d0-b971-a84b1a727ce7"},"vehicle_type_id":"4","last_reported":1727957803,"current_range_meters":30000,"station_id":"ce4bhnh2rcd13ifvqgtg","pricing_plan_id":"cebpf4jnsgd1na2vs0mg"},{"bike_id":"0811ded8-fd60-4667-9a23-68a38f060872","system_id":"levelo_inurba_marseille","lat":43.26955,"lon":5.3864,"is_reserved":false,"is_disabled":false,"rental_uris":{"android":"levelo://app?vid=0811ded8-fd60-4667-9a23-68a38f060872","ios":"levelo://app?vid=0811ded8-fd60-4667-9a23-68a38f060872"},"vehicle_type_id":"4","last_reported":1727957803,"current_range_meters":18800,"station_id":"ce4bhh92rcd13ifvqfh0","pricing_plan_id":"cebpf4jnsgd1na2vs0mg"},{"bike_id":"eb3d774c-9505-416f-bc8b-a4432d24511b","system_id":"levelo_inurba_marseille","lat":43.26568,"lon":5.39005,"is_reserved":false,"is_disabled":false,"rental_uris":{"android":"levelo://app?vid=eb3d774c-9505-416f-bc8b-a4432d24511b","ios":"levelo://app?vid=eb3d774c-9505-416f-bc8b-a4432d24511b"},"vehicle_type_id":"4","last_reported":1727957803,"current_range_meters":36400,"station_id":"ce4bhe12rcd13ifvqf30","pricing_plan_id":"cebpf4jnsgd1na2vs0mg"},{"bike_id":"30ccc7d8-7236-4008-8fc0-63f4c223205c","system_id":"levelo_inurba_marseille","lat":43.2979,"lon":5.39338,"is_reserved":false,"is_disabled":false,"rental_uris":{"android":"levelo://app?vid=30ccc7d8-7236-4008-8fc0-63f4c223205c","ios":"levelo://app?vid=30ccc7d8-7236-4008-8fc0-63f4c223205c"},"vehicle_type_id":"4","last_reported":1727957803,"current_range_meters":8000,"station_id":"chh1huq6cuj3fo74tm60","pricing_plan_id":"cebpf4jnsgd1na2vs0mg"},{"bike_id":"d4ca3cb7-3285-4e3b-9f6a-2440127c81f8","system_id":"levelo_inurba_marseille","lat":43.31716,"lon":5.37753,"is_reserved":false,"is_disabled":false,"rental_uris":{"android":"levelo://app?vid=d4ca3cb7-3285-4e3b-9f6a-2440127c81f8","ios":"levelo://app?vid=d4ca3cb7-3285-4e3b-9f6a-2440127c81f8"},"vehicle_type_id":"4","last_reported":1727957803,"current_range_meters":38000,"station_id":"ce4bgth2rcd13ifvqch0","pricing_plan_id":"cebpf4jnsgd1na2vs0mg"},{"bike_id":"26903d9f-6c2a-469f-9c43-0929503812c8","system_id":"levelo_inurba_marseille","lat":43.265,"lon":5.39536,"is_reserved":false,"is_disabled":false,"rental_uris":{"android":"levelo://app?vid=26903d9f-6c2a-469f-9c43-0929503812c8","ios":"levelo://app?vid=26903d9f-6c2a-469f-9c43-0929503812c8"},"vehicle_type_id":"4","last_reported":1727957803,"current_range_meters":36800,"station_id":"ce4bhi12rcd13ifvqfq0","pricing_plan_id":"cebpf4jnsgd1na2vs0mg"},{"bike_id":"0c78b637-e915-4f42-831d-430311b82b4c","system_id":"levelo_inurba_marseille","lat":43.28342,"lon":5.381,"is_reserved":false,"is_disabled":false,"rental_uris":{"android":"levelo://app?vid=0c78b637-e915-4f42-831d-430311b82b4c","ios":"levelo://app?vid=0c78b637-e915-4f42-831d-430311b82b4c"},"vehicle_type_id":"4","last_reported":1727957803,"current_range_meters":20800,"station_id":"ce4bh412rcd13ifvqdr0","pricing_plan_id":"cebpf4jnsgd1na2vs0mg"},{"bike_id":"51ffc7cd-ebfb-4313-bb31-50d62858af3e","system_id":"levelo_inurba_marseille","lat":43.29035,"lon":5.35919,"is_reserved":false,"is_disabled":false,"rental_uris":{"android":"levelo://app?vid=51ffc7cd-ebfb-4313-bb31-50d62858af3e","ios":"levelo://app?vid=51ffc7cd-ebfb-4313-bb31-50d62858af3e"},"vehicle_type_id":"4","last_reported":1727957803,"current_range_meters":38800,"station_id":"ce4bha92rcd13ifvqeg0","pricing_plan_id":"cebpf4jnsgd1na2vs0mg"},{"bike_id":"6f239231-5594-45aa-abc9-aa64c98a50b0","system_id":"levelo_inurba_marseille","lat":43.23974,"lon":5.36614,"is_reserved":false,"is_disabled":false,"rental_uris":{"android":"levelo://app?vid=6f239231-5594-45aa-abc9-aa64c98a50b0","ios":"levelo://app?vid=6f239231-5594-45aa-abc9-aa64c98a50b0"},"vehicle_type_id":"4","last_reported":1727957803,"current_range_meters":38800,"station_id":"ce4bhi12rcd13ifvqfp0","pricing_plan_id":"cebpf4jnsgd1na2vs0mg"},{"bike_id":"48a51266-fe80-4a9b-9728-c9b1597f25f0","system_id":"levelo_inurba_marseille","lat":43.32551,"lon":5.41444,"is_reserved":false,"is_disabled":false,"rental_uris":{"android":"levelo://app?vid=48a51266-fe80-4a9b-9728-c9b1597f25f0","ios":"levelo://app?vid=48a51266-fe80-4a9b-9728-c9b1597f25f0"},"vehicle_type_id":"4","last_reported":1727957803,"current_range_meters":23200,"station_id":"ce4bhq12rcd13ifvqhhg","pricing_plan_id":"cebpf4jnsgd1na2vs0mg"},{"bike_id":"59bac38e-83f4-4a64-808e-ed288ed84a0e","system_id":"levelo_inurba_marseille","lat":43.29975,"lon":5.37179,"is_reserved":false,"is_disabled":false,"rental_uris":{"android":"levelo://app?vid=59bac38e-83f4-4a64-808e-ed288ed84a0e","ios":"levelo://app?vid=59bac38e-83f4-4a64-808e-ed288ed84a0e"},"vehicle_type_id":"4","last_reported":1727957803,"current_range_meters":14000,"station_id":"ce4bgr92rcd13ifvqc7g","pricing_plan_id":"cebpf4jnsgd1na2vs0mg"},{"bike_id":"0ba25c9b-fca3-45dd-b364-f0d6a9f77ae9","system_id":"levelo_inurba_marseille","lat":43.28436,"lon":5.39185,"is_reserved":false,"is_disabled":false,"rental_uris":{"android":"levelo://app?vid=0ba25c9b-fca3-45dd-b364-f0d6a9f77ae9","ios":"levelo://app?vid=0ba25c9b-fca3-45dd-b364-f0d6a9f77ae9"},"vehicle_type_id":"4","last_reported":1727957803,"current_range_meters":22000,"station_id":"ce4bhoh2rcd13ifvqh5g","pricing_plan_id":"cebpf4jnsgd1na2vs0mg"},{"bike_id":"fc5707ae-e28b-42af-867e-4d47cf49d55a","system_id":"levelo_inurba_marseille","lat":43.30414,"lon":5.36783,"is_reserved":false,"is_disabled":false,"rental_uris":{"android":"levelo://app?vid=fc5707ae-e28b-42af-867e-4d47cf49d55a","ios":"levelo://app?vid=fc5707ae-e28b-42af-867e-4d47cf49d55a"},"vehicle_type_id":"4","last_reported":1727957803,"current_range_meters":20400,"station_id":"ce4bgrp2rcd13ifvqc9g","pricing_plan_id":"cebpf4jnsgd1na2vs0mg"},