{"last_updated":1748358714,"ttl":60,"version":"2.2","data":{"bikes":[{"bike_id":"4ddde26d-4389-441d-b1d6-3bc0658787f5","system_id":"levelo_inurba_marseille","lat":43.229293,"lon":5.353771,"is_reserved":false,"is_disabled":false,"rental_uris":{"android":"levelo://app?vid=4ddde26d-4389-441d-b1d6-3bc0658787f5","ios":"levelo://app?vid=4ddde26d-4389-441d-b1d6-3bc0658787f5"},"vehicle_type_id":"4","last_reported":1748358714,"current_range_meters":2800,"station_id":"","pricing_plan_id":"cebpf4jnsgd1na2vs0mg"},{"bike_id":"d828965c-04fc-4c26-aad4-f979be5c505d","system_id":"levelo_inurba_marseille","lat":43.313266,"lon":5.396884,"is_reserved":false,"is_disabled":false,"rental_uris":{"android":"levelo://app?vid=d828965c-04fc-4c26-aad4-f979be5c505d","ios":"levelo://app?vid=d828965c-04fc-4c26-aad4-f979be5c505d"},"vehicle_type_id":"4","last_reported":1748358714,"current_range_meters":2800,"station_id":"ce4bgvp2rcd13ifvqcu0","pricing_plan_id":"cebpf4jnsgd1na2vs0mg"},{"bike_id":"ab485184-dee6-4278-8ed8-78cb97c31dd5","system_id":"levelo_inurba_marseille","lat":43.2921,"lon":5.35824,"is_reserved":false,"is_disabled":false,"rental_uris":{"android":"levelo://app?vid=ab485184-dee6-4278-8ed8-78cb97c31dd5","ios":"levelo://app?vid=ab485184-dee6-4278-8ed8-78cb97c31dd5"},"vehicle_type_id":"4","last_reported":1748358714,"current_range_meters":3200,"station_id":"","pricing_plan_id":"cebpf4jnsgd1na2vs0mg"},{"bike_id":"7bd5bad4-5f6c-4c1b-bf2b-471cc6d72042","system_id":"levelo_inurba_marseille","lat":43.33022,"lon":5.39045,"is_reserved":false,"is_disabled":false,"rental_uris":{"android":"levelo://app?vid=7bd5bad4-5f6c-4c1b-bf2b-471cc6d72042","ios":"levelo://app?vid=7bd5bad4-5f6c-4c1b-bf2b-471cc6d72042"},"vehicle_type_id":"4","last_reported":1748358714,"current_range_meters":3200,"station_id":"ce4bhr92rcd13ifvqhrg","pricing_plan_id":"cebpf4jnsgd1na2vs0mg"},{"bike_id":"228ecb55-90f3-435b-b596-472b09dffb9d","system_id":"levelo_inurba_marseille","lat":43.29773,"lon":5.37111,"is_reserved":false,"is_disabled":false,"rental_uris":{"android":"levelo://app?vid=228ecb55-90f3-435b-b596-472b09dffb9d","ios":"levelo://app?vid=228ecb55-90f3-435b-b596-472b09dffb9d"},"vehicle_type_id":"4","last_reported":1748358714,"current_range_meters":3200,"station_id":"ce4bgop2rcd13ifvqc1g","pricing_plan_id":"cebpf4jnsgd1na2vs0mg"},{"bike_id":"e9496718-b841-4999-823d-28c5bee5d6f1","system_id":"levelo_inurba_marseille","lat":43.26532,"lon":5.39011,"is_reserved":false,"is_disabled":false,"rental_uris":{"android":"levelo://app?vid=e9496718-b841-4999-823d-28c5bee5d6f1","ios":"levelo://app?vid=e9496718-b841-4999-823d-28c5bee5d6f1"},"vehicle_type_id":"4","last_reported":1748358714,"current_range_meters":3600,"station_id":"ce4bhe12rcd13ifvqf30","pricing_plan_id":"cebpf4jnsgd1na2vs0mg"},{"bike_id":"986d3de5-81f9-4790-b6af-88b205c53401","system_id":"levelo_inurba_marseille","lat":43.27939,"lon":5.4105,"is_reserved":false,"is_disabled":false,"rental_uris":{"android":"levelo://app?vid=986d3de5-81f9-4790-b6af-88b205c53401","ios":"levelo://app?vid=986d3de5-81f9-4790-b6af-88b205c53401"},"vehicle_type_id":"4","last_reported":1748358714,"current_range_meters":3600,"station_id":"ce4bhnp2rcd13ifvqh0g","pricing_plan_id":"cebpf4jnsgd1na2vs0mg"},{"bike_id":"013b29b5-910d-4547-b953-a122dcc791ff","system_id":"levelo_inurba_marseille","lat":43.24685,"lon":5.38172,"is_reserved":false,"is_disabled":false,"rental_uris":{"android":"levelo://app?vid=013b29b5-910d-4547-b953-a122dcc791ff","ios":"levelo://app?vid=013b29b5-910d-4547-b953-a122dcc791ff"},"vehicle_type_id":"4","last_reported":1748358714,"current_range_meters":3600,"station_id":"ce4bhih2rcd13ifvqfr0","pricing_plan_id":"cebpf4jnsgd1na2vs0mg"},{"bike_id":"70fdfa1d-7865-409e-a0f9-1e2b02f87e6b","system_id":"levelo_inurba_marseille","lat":43.292648,"lon":5.38437,"is_reserved":false,"is_disabled":false,"rental_uris":{"android":"levelo://app?vid=70fdfa1d-7865-409e-a0f9-1e2b02f87e6b","ios":"levelo://app?vid=70fdfa1d-7865-409e-a0f9-1e2b02f87e6b"},"vehicle_type_id":"4","last_reported":1748358714,"current_range_meters":3600,"station_id":"ce4bh692rcd13ifvqea0","pricing_plan_id":"cebpf4jnsgd1na2vs0mg"},{"bike_id":"2746f225-7cef-4ccf-a1ec-fbadec200960","system_id":"levelo_inurba_marseille","lat":43.28267,"lon":5.3506,"is_reserved":false,"is_disabled":false,"rental_uris":{"android":"levelo://app?vid=2746f225-7cef-4ccf-a1ec-fbadec200960","ios":"levelo://app?vid=2746f225-7cef-4ccf-a1ec-fbadec200960"},"vehicle_type_id":"4","last_reported":1748358714,"current_range_meters":3600,"station_id":"ce4bhbp2rcd13ifvqerg","pricing_plan_id":"cebpf4jnsgd1na2vs0mg"},{"bike_id":"73114dc1-8226-4db2-b9db-8a6e564156af","system_id":"levelo_inurba_marseille","lat":43.24074,"lon":5.37761,"is_reserved":false,"is_disabled":false,"rental_uris":{"android":"levelo://app?vid=73114dc1-8226-4db2-b9db-8a6e564156af","ios":"levelo://app?vid=73114dc1-8226-4db2-b9db-8a6e564156af"},"vehicle_type_id":"4","last_reported":1748358714,"current_range_meters":3600,"station_id":"ce4bhnp2rcd13ifvqgvg","pricing_plan_id":"cebpf4jnsgd1na2vs0mg"},{"bike_id":"0f960004-7611-4a26-9c64-2ec73503d0aa","system_id":"levelo_inurba_marseille","lat":43.28072,"lon":5.39667,"is_reserved":false,"is_disabled":false,"rental_uris":{"android":"levelo://app?vid=0f960004-7611-4a26-9c64-2ec73503d0aa","ios":"levelo://app?vid=0f960004-7611-4a26-9c64-2ec73503d0aa"},"vehicle_type_id":"4","last_reported":1748358714,"current_range_meters":3600,"station_id":"ce4bho12rcd13ifvqh2g","pricing_plan_id":"cebpf4jnsgd1na2vs0mg"},{"bike_id":"01ed0d41-d6d0-4ed5-af35-c25919c09ee6","system_id":"levelo_inurba_marseille","lat":43.26558,"lon":5.40325,"is_reserved":false,"is_disabled":false,"rental_uris":{"android":"levelo://app?vid=01ed0d41-d6d0-4ed5-af35-c25919c09ee6","ios":"levelo://app?vid=01ed0d41-d6d0-4ed5-af35-c25919c09ee6"},"vehicle_type_id":"4","last_reported":1748358714,"current_range_meters":4000,"station_id":"","pricing_plan_id":"cebpf4jnsgd1na2vs0mg"},{"bike_id":"e066e7ad-347f-4037-908a-aa18da210859","system_id":"levelo_inurba_marseille","lat":43.27893,"lon":5.37999,"is_reserved":false,"is_disabled":false,"rental_uris":{"android":"levelo://app?vid=e066e7ad-347f-4037-908a-aa18da210859","ios":"levelo://app?vid=e066e7ad-347f-4037-908a-aa18da210859"},"vehicle_type_id":"4","last_reported":1748358714,"current_range_meters":4000,"station_id":"ce4bhf92rcd13ifvqf50","pricing_plan_id":"cebpf4jnsgd1na2vs0mg"},{"bike_id":"65c336d5-0fd3-4cde-877e-473df303e999","system_id":"levelo_inurba_marseille","lat":43.28608,"lon":5.37062,"is_reserved":false,"is_disabled":false,"rental_uris":{"android":"levelo://app?vid=65c336d5-0fd3-4cde-877e-473df303e999","ios":"levelo://app?vid=65c336d5-0fd3-4cde-877e-473df303e999"},"vehicle_type_id":"4","last_reported":1748358714,"current_range_meters":4000,"station_id":"ce4bht12rcd13ifvqi60","pricing_plan_id":"cebpf4jnsgd1na2vs0mg"},{"bike_id":"2b6a7037-8cef-4d2d-a099-22df4ff71809","system_id":"levelo_inurba_marseille","lat":43.24812,"lon":5.37459,"is_reserved":false,"is_disabled":false,"rental_uris":{"android":"levelo://app?vid=2b6a7037-8cef-4d2d-a099-22df4ff71809","ios":"levelo://app?vid=2b6a7037-8cef-4d2d-a099-22df4ff71809"},"vehicle_type_id":"4","last_reported":1748358714,"current_range_meters":4000,"station_id":"ce4bhgh2rcd13ifvqfb0","pricing_plan_id":"cebpf4jnsgd1na2vs0mg"},{"bike_id":"86d8b762-9568-49e7-965c-2dcd6a374df9","system_id":"levelo_inurba_marseille","lat":43.2842,"lon":5.34981,"is_reserved":false,"is_disabled":false,"rental_uris":{"android":"levelo://app?vid=86d8b762-9568-49e7-965c-2dcd6a374df9","ios":"levelo://app?vid=86d8b762-9568-49e7-965c-2dcd6a374df9"},"vehicle_type_id":"4","last_reported":1748358714,"current_range_meters":4000,"station_id":"ce4bhbh2rcd13ifvqepg","pricing_plan_id":"cebpf4jnsgd1na2vs0mg"},{"bike_id":"4ba6a2fc-1d0b-4aa6-8fa5-49331b1e75f0","system_id":"levelo_inurba_marseille","lat":43.23185,"lon":5.39981,"is_reserved":false,"is_disabled":false,"rental_uris":{"android":"levelo://app?vid=4ba6a2fc-1d0b-4aa6-8fa5-49331b1e75f0","ios":"levelo://app?vid=4ba6a2fc-1d0b-4aa6-8fa5-49331b1e75f0"},"vehicle_type_id":"4","last_reported":1748358714,"current_range_meters":4000,"station_id":"ce4bhn12rcd13ifvqgqg","pricing_plan_id":"cebpf4jnsgd1na2vs0mg"},{"bike_id":"e7e34ae5-27e8-4343-8300-418542530317","system_id":"levelo_inurba_marseille","lat":43.31076,"lon":5.38362,"is_reserved":false,"is_disabled":false,"rental_uris":{"android":"levelo://app?vid=e7e34ae5-27e8-4343-8300-418542530317","ios":"levelo://app?vid=e7e34ae5-27e8-4343-8300-418542530317"},"vehicle_type_id":"4","last_reported":1748358714,"current_range_meters":4000,"station_id":"ce4bgv92rcd13ifvqcr0","pricing_plan_id":"cebpf4jnsgd1na2vs0mg"},{"bike_id":"7d8ca51f-8c6e-4271-a625-9ab13a1a3a0d","system_id":"levelo_inurba_marseille","lat":43.28408,"lon":5.37527,"is_reserved":false,"is_disabled":false,"rental_uris":{"android":"levelo://app?vid=7d8ca51f-8c6e-4271-a625-9ab13a1a3a0d","ios":"levelo://app?vid=7d8ca51f-8c6e-4271-a625-9ab13a1a3a0d"},"vehicle_type_id":"4","last_reported":1748358714,"current_range_meters":4000,"station_id":"ce4bh412rcd13ifvqds0","pricing_plan_id":"cebpf4jnsgd1na2vs0mg"},{"bike_id":"06c15bc9-e4cd-466b-bec4-235e4a5943db","system_id":"levelo_inurba_marseille","lat":43.28101,"lon":5.3783,"is_reserved":false,"is_disabled":false,"rental_uris":{"android":"levelo://app?vid=06c15bc9-e4cd-466b-bec4-235e4a5943db","ios":"levelo://app?vid=06c15bc9-e4cd-466b-bec4-235e4a5943db"},"vehicle_type_id":"4","last_reported":1748358714,"current_range_meters":4000,"station_id":"ce4bha12rcd13ifvqee0","pricing_plan_id":"cebpf4jnsgd1na2vs0mg"},{"bike_id":"8f092fde-5b49-40f3-9dd3-3aa240f94e65","system_id":"levelo_inurba_marseille","lat":43.29804,"lon":5.38088,"is_reserved":false,"is_disabled":false,"rental_uris":{"android":"levelo://app?vid=8f092fde-5b49-40f3-9dd3-3aa240f94e65","ios":"levelo://app?vid=8f092fde-5b49-40f3-9dd3-3aa240f94e65"},"vehicle_type_id":"4","last_reported":1748358714,"current_range_meters":3600,"station_id":"ce4bgip2rcd13ifvqbb0","pricing_plan_id":"cebpf4jnsgd1na2vs0mg"},{"bike_id":"2abe0ceb-be8e-471e-b5ff-76be6ee12e3f","system_id":"levelo_inurba_marseille","lat":43.32346,"lon":5.40571,"is_reserved":false,"is_disabled":false,"rental_uris":{"android":"levelo://app?vid=2abe0ceb-be8e-471e-b5ff-76be6ee12e3f","ios":"levelo://app?vid=2abe0ceb-be8e-471e-b5ff-76be6ee12e3f"},"vehicle_type_id":"4","last_reported":1748358714,"current_range_meters":4000,"station_id":"ce4bhq92rcd13ifvqhjg","pricing_plan_id":"cebpf4jnsgd1na2vs0mg"},{"bike_id":"9f4dbcfb-14b2-4ec9-be8a-6f345c345c5c","system_id":"levelo_inurba_marseille","lat":43.26607,"lon":5.40338,"is_reserved":false,"is_disabled":false,"rental_uris":{"android":"levelo://app?vid=9f4dbcfb-14b2-4ec9-be8a-6f345c345c5c","ios":"levelo://app?vid=9f4dbcfb-14b2-4ec9-be8a-6f345c345c5c"},"vehicle_type_id":"4","last_reported":1748358714,"current_range_meters":4400,"station_id":"","pricing_plan_id":"cebpf4jnsgd1na2vs0mg"},{"bike_id":"b44fa102-fdfb-451d-89da-b00255e608bf","system_id":"levelo_inurba_marseille","lat":43.28357,"lon":5.38625,"is_reserved":false,"is_disabled":false,"rental_uris":{"android":"levelo://app?vid=b44fa102-fdfb-451d-89da-b00255e608bf","ios":"levelo://app?vid=b44fa102-fdfb-451d-89da-b00255e608bf"},"vehicle_type_id":"4","last_reported":1748358714,"current_range_meters":4400,"station_id":"ce4bh492rcd13ifvqdvg","pricing_plan_id":"cebpf4jnsgd1na2vs0mg"},{"bike_id":"fd908bdf-5d81-4122-b313-442572d15912","system_id":"levelo_inurba_marseille","lat":43.295135,"lon":5.394032,"is_reserved":false,"is_disabled":true,"rental_uris":{"android":"levelo://app?vid=fd908bdf-5d81-4122-b313-442572d15912","ios":"levelo://app?vid=fd908bdf-5d81-4122-b313-442572d15912"},"vehicle_type_id":"4","last_reported":1748358714,"current_range_meters":4800,"station_id":"ce4bh292rcd13ifvqdf0","pricing_plan_id":"cebpf4jnsgd1na2vs0mg"},{"bike_id":"a4aef2b9-b7e8-4e2d-8340-592d28bc6c85","system_id":"levelo_inurba_marseille","lat":43.337654,"lon":5.37434,"is_reserved":false,"is_disabled":false,"rental_uris":{"android":"levelo://app?vid=a4aef2b9-b7e8-4e2d-8340-592d28bc6c85","ios":"levelo://app?vid=a4aef2b9-b7e8-4e2d-8340-592d28bc6c85"},"vehicle_type_id":"4","last_reported":1748358714,"current_range_meters":4800,"station_id":"","pricing_plan_id":"cebpf4jnsgd1na2vs0mg"},{"bike_id":"7d2fca87-7ac2-4b41-a301-112c11e0d236","system_id":"levelo_inurba_marseille","lat":43.27378,"lon":5.36252,"is_reserved":false,"is_disabled":false,"rental_uris":{"android":"levelo://app?vid=7d2fca87-7ac2-4b41-a301-112c11e0d236","ios":"levelo://app?vid=7d2fca87-7ac2-4b41-a301-112c11e0d236"},"vehicle_type_id":"4","last_reported":1748358714,"current_range_meters":4800,"station_id":"ce4bhbh2rcd13ifvqeo0","pricing_plan_id":"cebpf4jnsgd1na2vs0mg"},{"bike_id":"593ba5cc-3fbc-44df-abee-cb00f2197acf","system_id":"levelo_inurba_marseille","lat":43.29521,"lon":5.39033,"is_reserved":false,"is_disabled":false,"rental_uris":{"android":"levelo://app?vid=593ba5cc-3fbc-44df-abee-cb00f2197acf","ios":"levelo://app?vid=593ba5cc-3fbc-44df-abee-cb00f2197acf"},"vehicle_type_id":"4","last_reported":1748358714,"current_range_meters":4800,"station_id":"ce4bh3p2rcd13ifvqdp0","pricing_plan_id":"cebpf4jnsgd1na2vs0mg"},{"bike_id":"9c030421-b0a1-4dac-aa7b-6631716d1d0f","system_id":"levelo_inurba_marseille","lat":43.28407,"lon":5.37512,"is_reserved":false,"is_disabled":false,"rental_uris":{"android":"levelo://app?vid=9c030421-b0a1-4dac-aa7b-6631716d1d0f","ios":"levelo://app?vid=9c030421-b0a1-4dac-aa7b-6631716d1d0f"},"vehicle_type_id":"4","last_reported":1748358714,"current_range_meters":4400,"station_id":"ce4bh412rcd13ifvqds0","pricing_plan_id":"cebpf4jnsgd1na2vs0mg"},{"bike_id":"43274263-a41b-4f5a-9174-f286fbde555d","system_id":"levelo_inurba_marseille","lat":43.28991,"lon":5.37839,"is_reserved":false,"is_disabled":false,"rental_uris":{"android":"levelo://app?vid=43274263-a41b-4f5a-9174-f286fbde555d","ios":"levelo://app?vid=43274263-a41b-4f5a-9174-f286fbde555d"},"vehicle_type_id":"4","last_reported":1748358714,"current_range_meters":4800,"station_id":"ce4bh9p2rcd13ifvqed0","pricing_plan_id":"cebpf4jnsgd1na2vs0mg"},{"bike_id":"9a4d42f6-4569-4be8-97b7-0f1f38980293","system_id":"levelo_inurba_marseille","lat":43.23963,"lon":5.366391,"is_reserved":false,"is_disabled":false,"rental_uris":{"android":"levelo://app?vid=9a4d42f6-4569-4be8-97b7-0f1f38980293","ios":"levelo://app?vid=9a4d42f6-4569-4be8-97b7-0f1f38980293"},"vehicle_type_id":"4","last_reported":1748358714,"current_range_meters":4800,"station_id":"ce4bhi12rcd13ifvqfp0","pricing_plan_id":"cebpf4jnsgd1na2vs0mg"},{"bike_id":"13043175-e0e8-46b1-97d2-d85786e8f233","system_id":"levelo_inurba_marseille","lat":43.24801,"lon":5.37452,"is_reserved":false,"is_disabled":false,"rental_uris":{"android":"levelo://app?vid=13043175-e0e8-46b1-97d2-d85786e8f233","ios":"levelo://app?vid=13043175-e0e8-46b1-97d2-d85786e8f233"},"vehicle_type_id":"4","last_reported":1748358714,"current_range_meters":4800,"station_id":"ce4bhgh2rcd13ifvqfb0","pricing_plan_id":"cebpf4jnsgd1na2vs0mg"},{"bike_id":"fc56555b-396d-4667-b896-0ad86036e39e","system_id":"levelo_inurba_marseille","lat":43.25953,"lon":5.38034,"is_reserved":false,"is_disabled":false,"rental_uris":{"android":"levelo://app?vid=fc56555b-396d-4667-b896-0ad86036e39e","ios":"levelo://app?vid=fc56555b-396d-4667-b896-0ad86036e39e"},"vehicle_type_id":"4","last_reported":1748358714,"current_range_meters":5600,"station_id":"","pricing_plan_id":"cebpf4jnsgd1na2vs0mg"},{"bike_id":"d5e07e7e-9fce-45c7-9a5e-5d9cffac486c","system_id":"levelo_inurba_marseille","lat":43.28723,"lon":5.37932,"is_reserved":false,"is_disabled":false,"rental_uris":{"android":"levelo://app?vid=d5e07e7e-9fce-45c7-9a5e-5d9cffac486c","ios":"levelo://app?vid=d5e07e7e-9fce-45c7-9a5e-5d9cffac486c"},"vehicle_type_id":"4","last_reported":1748358714,"current_range_meters":5600,"station_id":"ce4bh9p2rcd13ifvqec0","pricing_plan_id":"cebpf4jnsgd1na2vs0mg"},{"bike_id":"cca23434-1324-4d3a-aaa0-82b1c7cdb067","system_id":"levelo_inurba_marseille","lat":43.273129,"lon":5.39075,"is_reserved":false,"is_disabled":false,"rental_uris":{"android":"levelo://app?vid=cca23434-1324-4d3a-aaa0-82b1c7cdb067","ios":"levelo://app?vid=cca23434-1324-4d3a-aaa0-82b1c7cdb067"},"vehicle_type_id":"4","last_reported":1748358714,"current_range_meters":5600,"station_id":"ce4bhi12rcd13ifvqfo0","pricing_plan_id":"cebpf4jnsgd1na2vs0mg"},{"bike_id":"a3fdfab4-cb8b-4639-a8f9-ac99f398c758","system_id":"levelo_inurba_marseille","lat":43.24168,"lon":5.36396,"is_reserved":false,"is_disabled":false,"rental_uris":{"android":"levelo://app?vid=a3fdfab4-cb8b-4639-a8f9-ac99f398c758","ios":"levelo://app?vid=a3fdfab4-cb8b-4639-a8f9-ac99f398c758"},"vehicle_type_id":"4","last_reported":1748358714,"current_range_meters":5600,"station_id":"cpo36qri1sfpv3e86is0","pricing_plan_id":"cebpf4jnsgd1na2vs0mg"},{"bike_id":"b744080c-dd77-486d-9609-00c9cf60c1ad","system_id":"levelo_inurba_marseille","lat":43.23631,"lon":5.39205,"is_reserved":false,"is_disabled":false,"rental_uris":{"android":"levelo://app?vid=b744080c-dd77-486d-9609-00c9cf60c1ad","ios":"levelo://app?vid=b744080c-dd77-486d-9609-00c9cf60c1ad"},"vehicle_type_id":"4","last_reported":1748358714,"current_range_meters":5600,"station_id":"","pricing_plan_id":"cebpf4jnsgd1na2vs0mg"},{"bike_id":"63c7ecb0-fbc9-40c3-82c3-21b2a0cd4c1a","system_id":"levelo_inurba_marseille","lat":43.28407,"lon":5.34987,"is_reserved":false,"is_disabled":false,"rental_uris":{"android":"levelo://app?vid=63c7ecb0-fbc9-40c3-82c3-21b2a0cd4c1a","ios":"levelo://app?vid=63c7ecb0-fbc9-40c3-82c3-21b2a0cd4c1a"},"vehicle_type_id":"4","last_reported":1748358714,"current_range_meters":4800,"station_id":"ce4bhbh2rcd13ifvqepg","pricing_plan_id":"cebpf4jnsgd1na2vs0mg"},{"bike_id":"8385589e-fd78-4131-9913-fe48cccb6a67","system_id":"levelo_inurba_marseille","lat":43.23193,"lon":5.35549,"is_reserved":false,"is_disabled":false,"rental_uris":{"android":"levelo://app?vid=8385589e-fd78-4131-9913-fe48cccb6a67","ios":"levelo://app?vid=8385589e-fd78-4131-9913-fe48cccb6a67"},"vehicle_type_id":"4","last_reported":1748358714,"current_range_meters":5600,"station_id":"ce4bhu92rcd13ifvqi70","pricing_plan_id":"cebpf4jnsgd1na2vs0mg"},{"bike_id":"a85e04a7-04c8-4621-904a-e120c071373a","system_id":"levelo_inurba_marseille","lat":43.27675,"lon":5.38898,"is_reserved":false,"is_disabled":false,"rental_uris":{"android":"levelo://app?vid=a85e04a7-04c8-4621-904a-e120c071373a","ios":"levelo://app?vid=a85e04a7-04c8-4621-904a-e120c071373a"},"vehicle_type_id":"4","last_reported":1748358714,"current_range_meters":6000,"station_id":"ce4bhi12rcd13ifvqfo0","pricing_plan_id":"cebpf4jnsgd1na2vs0mg"},{"bike_id":"5261db34-4801-4413-9e0e-32b78eefdd43","system_id":"levelo_inurba_marseille","lat":43.26559,"lon":5.3731,"is_reserved":false,"is_disabled":false,"rental_uris":{"android":"levelo://app?vid=5261db34-4801-4413-9e0e-32b78eefdd43","ios":"levelo://app?vid=5261db34-4801-4413-9e0e-32b78eefdd43"},"vehicle_type_id":"4","last_reported":1748358714,"current_range_meters":6000,"station_id":"ce4bhg12rcd13ifvqf70","pricing_plan_id":"cebpf4jnsgd1na2vs0mg"},{"bike_id":"7df9762c-542c-4f0d-acaa-ce6e3c7964aa","system_id":"levelo_inurba_marseille","lat":43.29716,"lon":5.37691,"is_reserved":false,"is_disabled":false,"rental_uris":{"android":"levelo://app?vid=7df9762c-542c-4f0d-acaa-ce6e3c7964aa","ios":"levelo://app?vid=7df9762c-542c-4f0d-acaa-ce6e3c7964aa"},"vehicle_type_id":"4","last_reported":1748358714,"current_range_meters":6000,"station_id":"ce4bgkh2rcd13ifvqbl0","pricing_plan_id":"cebpf4jnsgd1na2vs0mg"},{"bike_id":"b4f61781-2bad-463b-8d6c-f70f99a4a15d","system_id":"levelo_inurba_marseille","lat":43.30461,"lon":5.37901,"is_reserved":false,"is_disabled":false,"rental_uris":{"android":"levelo://app?vid=b4f61781-2bad-463b-8d6c-f70f99a4a15d","ios":"levelo://app?vid=b4f61781-2bad-463b-8d6c-f70f99a4a15d"},"vehicle_type_id":"4","last_reported":1748358714,"current_range_meters":6000,"station_id":"ce4bgup2rcd13ifvqcn0","pricing_plan_id":"cebpf4jnsgd1na2vs0mg"},{"bike_id":"ad0fd1aa-c804-438c-9251-a5058f125ac5","system_id":"levelo_inurba_marseille","lat":43.281543,"lon":5.426398,"is_reserved":false,"is_disabled":false,"rental_uris":{"android":"levelo://app?vid=ad0fd1aa-c804-438c-9251-a5058f125ac5","ios":"levelo://app?vid=ad0fd1aa-c804-438c-9251-a5058f125ac5"},"vehicle_type_id":"4","last_reported":1748358714,"current_range_meters":6000,"station_id":"ce4bhnh2rcd13ifvqgug","pricing_plan_id":"cebpf4jnsgd1na2vs0mg"},{"bike_id":"2b73315a-ee87-4d8e-8a09-44cb343862e1","system_id":"levelo_inurba_marseille","lat":43.28004,"lon":5.4167,"is_reserved":false,"is_disabled":false,"rental_uris":{"android":"levelo://app?vid=2b73315a-ee87-4d8e-8a09-44cb343862e1","ios":"levelo://app?vid=2b73315a-ee87-4d8e-8a09-44cb343862e1"},"vehicle_type_id":"4","last_reported":1748358714,"current_range_meters":6400,"station_id":"ce4bho12rcd13ifvqh1g","pricing_plan_id":"cebpf4jnsgd1na2vs0mg"},{"bike_id":"b715949c-351e-4b30-8ddf-050933368972","system_id":"levelo_inurba_marseille","lat":43.31722,"lon":5.42401,"is_reserved":false,"is_disabled":false,"rental_uris":{"android":"levelo://app?vid=b715949c-351e-4b30-8ddf-050933368972","ios":"levelo://app?vid=b715949c-351e-4b30-8ddf-050933368972"},"vehicle_type_id":"4","last_reported":1748358714,"current_range_meters":6400,"station_id":"ce4bhp92rcd13ifvqhbg","pricing_plan_id":"cebpf4jnsgd1na2vs0mg"},{"bike_id":"3c10c523-5ba5-48f2-a8e0-39c8d3b5fbba","system_id":"levelo_inurba_marseille","lat":43.29016,"lon":5.38129,"is_reserved":false,"is_disabled":false,"rental_uris":{"android":"levelo://app?vid=3c10c523-5ba5-48f2-a8e0-39c8d3b5fbba","ios":"levelo://app?vid=3c10c523-5ba5-48f2-a8e0-39c8d3b5fbba"},"vehicle_type_id":"4","last_reported":1748358714,"current_range_meters":6400,"station_id":"ce4bh4p2rcd13ifvqe1g","pricing_plan_id":"cebpf4jnsgd1na2vs0mg"},{"bike_id":"15895a4c-6504-4c01-aecb-996f77f1a3b5","system_id":"levelo_inurba_marseille","lat":43.32124,"lon":5.36753,"is_reserved":false,"is_disabled":false,"rental_uris":{"android":"levelo://app?vid=15895a4c-6504-4c01-aecb-996f77f1a3b5","ios":"levelo://app?vid=15895a4c-6504-4c01-aecb-996f77f1a3b5"},"vehicle_type_id":"4","last_reported":1748358714,"current_range_meters":6400,"station_id":"ce4bhrh2rcd13ifvqhug","pricing_plan_id":"cebpf4jnsgd1na2vs0mg"},{"bike_id":"aed03d0a-eaa6-4d76-b5c9-e69467d8c7a2","system_id":"levelo_inurba_marseille","lat":43.25518,"lon":5.37649,"is_reserved":false,"is_disabled":false,"rental_uris":{"android":"levelo://app?vid=aed03d0a-eaa6-4d76-b5c9-e69467d8c7a2","ios":"levelo://app?vid=aed03d0a-eaa6-4d76-b5c9-e69467d8c7a2"},"vehicle_type_id":"4","last_reported":1748358714,"current_range_meters":6400,"station_id":"ce4bhh12rcd13ifvqff0","pricing_plan_id":"cebpf4jnsgd1na2vs0mg"},{"bike_id":"fbc20eb8-0751-49ee-8266-25182ef956ba","system_id":"levelo_inurba_marseille","lat":43.23064,"lon":5.35508,"is_reserved":false,"is_disabled":false,"rental_uris":{"android":"levelo://app?vid=fbc20eb8-0751-49ee-8266-25182ef956ba","ios":"levelo://app?vid=fbc20eb8-0751-49ee-8266-25182ef956ba"},"vehicle_type_id":"4","last_reported":1748358714,"current_range_meters":6800,"station_id":"cpo3342slgdg3j2ifvpg","pricing_plan_id":"cebpf4jnsgd1na2vs0mg"},{"bike_id":"38b9833d-5ca2-4112-9ecd-81d446f283da","system_id":"levelo_inurba_marseille","lat":43.306,"lon":5.37222,"is_reserved":false,"is_disabled":false,"rental_uris":{"android":"levelo://app?vid=38b9833d-5ca2-4112-9ecd-81d446f283da","ios":"levelo://app?vid=38b9833d-5ca2-4112-9ecd-81d446f283da"},"vehicle_type_id":"4","last_reported":1748358714,"current_range_meters":6800,"station_id":"ce4bgqh2rcd13ifvqc4g","pricing_plan_id":"cebpf4jnsgd1na2vs0mg"},{"bike_id":"b51f1e55-2ff5-45c7-bda2-6e4fe333ad5e","system_id":"levelo_inurba_marseille","lat":43.28148,"lon":5.42675,"is_reserved":false,"is_disabled":false,"rental_uris":{"android":"levelo://app?vid=b51f1e55-2ff5-45c7-bda2-6e4fe333ad5e","ios":"levelo://app?vid=b51f1e55-2ff5-45c7-bda2-6e4fe333ad5e"},"vehicle_type_id":"4","last_reported":1748358714,"current_range_meters":7200,"station_id":"ce4bhnh2rcd13ifvqgug","pricing_plan_id":"cebpf4jnsgd1na2vs0mg"},{"bike_id":"26994055-b999-4c1f-b335-590b653fcce3","system_id":"levelo_inurba_marseille","lat":43.29001,"lon":5.35636,"is_reserved":false,"is_disabled":true,"rental_uris":{"android":"levelo://app?vid=26994055-b999-4c1f-b335-590b653fcce3","ios":"levelo://app?vid=26994055-b999-4c1f-b335-590b653fcce3"},"vehicle_type_id":"4","last_reported":1748358714,"current_range_meters":7200,"station_id":"ce4bhb92rcd13ifvqen0","pricing_plan_id":"cebpf4jnsgd1na2vs0mg"},{"bike_id":"a56cc5c8-9d3b-4872-a224-2a6a7b6e5459","system_id":"levelo_inurba_marseille","lat":43.30641,"lon":5.40097,"is_reserved":false,"is_disabled":false,"rental_uris":{"android":"levelo://app?vid=a56cc5c8-9d3b-4872-a224-2a6a7b6e5459","ios":"levelo://app?vid=a56cc5c8-9d3b-4872-a224-2a6a7b6e5459"},"vehicle_type_id":"4","last_reported":1748358714,"current_range_meters":6800,"station_id":"ce4bh112rcd13ifvqda0","pricing_plan_id":"cebpf4jnsgd1na2vs0mg"},{"bike_id":"4de9b7e5-eeb0-4157-a33c-ea0bec568ecd","system_id":"levelo_inurba_marseille","lat":43.26215,"lon":5.37923,"is_reserved":false,"is_disabled":false,"rental_uris":{"android":"levelo://app?vid=4de9b7e5-eeb0-4157-a33c-ea0bec568ecd","ios":"levelo://app?vid=4de9b7e5-eeb0-4157-a33c-ea0bec568ecd"},"vehicle_type_id":"4","last_reported":1748358714,"current_range_meters":7200,"station_id":"ce4bhjp2rcd13ifvqg90","pricing_plan_id":"cebpf4jnsgd1na2vs0mg"},{"bike_id":"4248354b-b595-479b-85c9-c37041ee95d7","system_id":"levelo_inurba_marseille","lat":43.24805,"lon":5.37459,"is_reserved":false,"is_disabled":false,"rental_uris":{"android":"levelo://app?vid=4248354b-b595-479b-85c9-c37041ee95d7","ios":"levelo://app?vid=4248354b-b595-479b-85c9-c37041ee95d7"},"vehicle_type_id":"4","last_reported":1748358714,"current_range_meters":6800,"station_id":"ce4bhgh2rcd13ifvqfb0","pricing_plan_id":"cebpf4jnsgd1na2vs0mg"},{"bike_id":"d7856b08-f389-43aa-b6bf-e150a34681d9","system_id":"levelo_inurba_marseille","lat":43.31368,"lon":5.36734,"is_reserved":false,"is_disabled":false,"rental_uris":{"android":"levelo://app?vid=d7856b08-f389-43aa-b6bf-e150a34681d9","ios":"levelo://app?vid=d7856b08-f389-43aa-b6bf-e150a34681d9"},"vehicle_type_id":"4","last_reported":1748358714,"current_range_meters":7200,"station_id":"ce4bgr92rcd13ifvqc6g","pricing_plan_id":"cebpf4jnsgd1na2vs0mg"},{"bike_id":"776b74f2-72b3-42d3-bde6-0bd3718ba1d8","system_id":"levelo_inurba_marseille","lat":43.30642,"lon":5.40089,"is_reserved":false,"is_disabled":false,"rental_uris":{"android":"levelo://app?vid=776b74f2-72b3-42d3-bde6-0bd3718ba1d8","ios":"levelo://app?vid=776b74f2-72b3-42d3-bde6-0bd3718ba1d8"},"vehicle_type_id":"4","last_reported":1748358714,"current_range_meters":6800,"station_id":"ce4bh112rcd13ifvqda0","pricing_plan_id":"cebpf4jnsgd1na2vs0mg"},{"bike_id":"75ed2a97-999e-439b-8e91-ba375a825d71","system_id":"levelo_inurba_marseille","lat":43.298783,"lon":5.397236,"is_reserved":false,"is_disabled":false,"rental_uris":{"android":"levelo://app?vid=75ed2a97-999e-439b-8e91-ba375a825d71","ios":"levelo://app?vid=75ed2a97-999e-439b-8e91-ba375a825d71"},"vehicle_type_id":"4","last_reported":1748358714,"current_range_meters":8000,"station_id":"ce4bh0h2rcd13ifvqd50","pricing_plan_id":"cebpf4jnsgd1na2vs0mg"},{"bike_id":"179f87c5-653e-4929-8615-1f36854f464c","system_id":"levelo_inurba_marseille","lat":43.28148,"lon":5.42659,"is_reserved":false,"is_disabled":false,"rental_uris":{"android":"levelo://app?vid=179f87c5-653e-4929-8615-1f36854f464c","ios":"levelo://app?vid=179f87c5-653e-4929-8615-1f36854f464c"},"vehicle_type_id":"4","last_reported":1748358714,"current_range_meters":8000,"station_id":"ce4bhnh2rcd13ifvqgug","pricing_plan_id":"cebpf4jnsgd1na2vs0mg"},{"bike_id":"3df0a723-70f1-45cf-bff9-5628e9d27574","system_id":"levelo_inurba_marseille","lat":43.22927,"lon":5.35389,"is_reserved":false,"is_disabled":false,"rental_uris":{"android":"levelo://app?vid=3df0a723-70f1-45cf-bff9-5628e9d27574","ios":"levelo://app?vid=3df0a723-70f1-45cf-bff9-5628e9d27574"},"vehicle_type_id":"4","last_reported":1748358714,"current_range_meters":8000,"station_id":"cpo3532slgdg3j2ikp40","pricing_plan_id":"cebpf4jnsgd1na2vs0mg"},{"bike_id":"1aaab4b4-1dfd-4d15-b176-c1775a8c2529","system_id":"levelo_inurba_marseille","lat":43.28716,"lon":5.37402,"is_reserved":false,"is_disabled":false,"rental_uris":{"android":"levelo://app?vid=1aaab4b4-1dfd-4d15-b176-c1775a8c2529","ios":"levelo://app?vid=1aaab4b4-1dfd-4d15-b176-c1775a8c2529"},"vehicle_type_id":"4","last_reported":1748358714,"current_range_meters":8000,"station_id":"ce4bh3p2rcd13ifvqdq0","pricing_plan_id":"cebpf4jnsgd1na2vs0mg"},{"bike_id":"1e4477a7-fc10-4bde-b463-138ce526f197","system_id":"levelo_inurba_marseille","lat":43.254969,"lon":5.37649,"is_reserved":false,"is_disabled":false,"rental_uris":{"android":"levelo://app?vid=1e4477a7-fc10-4bde-b463-138ce526f197","ios":"levelo://app?vid=1e4477a7-fc10-4bde-b463-138ce526f197"},"vehicle_type_id":"4","last_reported":1748358714,"current_range_meters":8000,"station_id":"","pricing_plan_id":"cebpf4jnsgd1na2vs0mg"},{"bike_id":"39b933cb-7c85-452e-a412-d5ade7671c3f","system_id":"levelo_inurba_marseille","lat":43.27911,"lon":5.38011,"is_reserved":false,"is_disabled":false,"rental_uris":{"android":"levelo://app?vid=39b933cb-7c85-452e-a412-d5ade7671c3f","ios":"levelo://app?vid=39b933cb-7c85-452e-a412-d5ade7671c3f"},"vehicle_type_id":"4","last_reported":1748358714,"current_range_meters":8000,"station_id":"ce4bhf92rcd13ifvqf50","pricing_plan_id":"cebpf4jnsgd1na2vs0mg"},{"bike_id":"cc65ad4d-5718-4383-afca-9c928467e44c","system_id":"levelo_inurba_marseille","lat":43.26555,"lon":5.37285,"is_reserved":false,"is_disabled":false,"rental_uris":{"android":"levelo://app?vid=cc65ad4d-5718-4383-afca-9c928467e44c","ios":"levelo://app?vid=cc65ad4d-5718-4383-afca-9c928467e44c"},"vehicle_type_id":"4","last_reported":1748358714,"current_range_meters":8000,"station_id":"ce4bhg12rcd13ifvqf70","pricing_plan_id":"cebpf4jnsgd1na2vs0mg"},{"bike_id":"59fdd529-a8a9-49af-8c59-bd7c34de141c","system_id":"levelo_inurba_marseille","lat":43.30472,"lon":5.37905,"is_reserved":false,"is_disabled":false,"rental_uris":{"android":"levelo://app?vid=59fdd529-a8a9-49af-8c59-bd7c34de141c","ios":"levelo://app?vid=59fdd529-a8a9-49af-8c59-bd7c34de141c"},"vehicle_type_id":"4","last_reported":1748358714,"current_range_meters":8000,"station_id":"ce4bgup2rcd13ifvqcn0","pricing_plan_id":"cebpf4jnsgd1na2vs0mg"},{"bike_id":"ec0819bd-28e2-469e-914b-0c87b23bb2d7","system_id":"levelo_inurba_marseille","lat":43.30131,"lon":5.39852,"is_reserved":false,"is_disabled":false,"rental_uris":{"android":"levelo://app?vid=ec0819bd-28e2-469e-914b-0c87b23bb2d7","ios":"levelo://app?vid=ec0819bd-28e2-469e-914b-0c87b23bb2d7"},"vehicle_type_id":"4","last_reported":1748358714,"current_range_meters":8000,"station_id":"ce4bh0h2rcd13ifvqd40","pricing_plan_id":"cebpf4jnsgd1na2vs0mg"},{"bike_id":"ae6e6868-2635-4f49-b7c1-b03759c58ec7","system_id":"levelo_inurba_marseille","lat":43.27277,"lon":5.416,"is_reserved":false,"is_disabled":false,"rental_uris":{"android":"levelo://app?vid=ae6e6868-2635-4f49-b7c1-b03759c58ec7","ios":"levelo://app?vid=ae6e6868-2635-4f49-b7c1-b03759c58ec7"},"vehicle_type_id":"4","last_reported":1748358714,"current_range_meters":8400,"station_id":"","pricing_plan_id":"cebpf4jnsgd1na2vs0mg"},{"bike_id":"0f688b03-51da-4b8b-99b6-a136f0b9188f","system_id":"levelo_inurba_marseille","lat":43.26936,"lon":5.40245,"is_reserved":false,"is_disabled":false,"rental_uris":{"android":"levelo://app?vid=0f688b03-51da-4b8b-99b6-a136f0b9188f","ios":"levelo://app?vid=0f688b03-51da-4b8b-99b6-a136f0b9188f"},"vehicle_type_id":"4","last_reported":1748358714,"current_range_meters":8000,"station_id":"cjm6bp8fraef2m0cb0m0","pricing_plan_id":"cebpf4jnsgd1na2vs0mg"},{"bike_id":"a29a2708-797f-4e9a-9f1a-17352bf6f3db","system_id":"levelo_inurba_marseille","lat":43.273235,"lon":5.39102,"is_reserved":false,"is_disabled":true,"rental_uris":{"android":"levelo://app?vid=a29a2708-797f-4e9a-9f1a-17352bf6f3db","ios":"levelo://app?vid=a29a2708-797f-4e9a-9f1a-17352bf6f3db"},"vehicle_type_id":"4","last_reported":1748358714,"current_range_meters":8800,"station_id":"ce4bhgp2rcd13ifvqfe0","pricing_plan_id":"cebpf4jnsgd1na2vs0mg"},{"bike_id":"92c20333-f1be-4048-8f1a-30fdeff2a990","system_id":"levelo_inurba_marseille","lat":43.330247,"lon":5.390427,"is_reserved":false,"is_disabled":false,"rental_uris":{"android":"levelo://app?vid=92c20333-f1be-4048-8f1a-30fdeff2a990","ios":"levelo://app?vid=92c20333-f1be-4048-8f1a-30fdeff2a990"},"vehicle_type_id":"4","last_reported":1748358714,"current_range_meters":8000,"station_id":"ce4bhr92rcd13ifvqhrg","pricing_plan_id":"cebpf4jnsgd1na2vs0mg"},{"bike_id":"1e5c2ac8-c150-4070-b086-912321c197fc","system_id":"levelo_inurba_marseille","lat":43.29224,"lon":5.36088,"is_reserved":false,"is_disabled":false,"rental_uris":{"android":"levelo://app?vid=1e5c2ac8-c150-4070-b086-912321c197fc","ios":"levelo://app?vid=1e5c2ac8-c150-4070-b086-912321c197fc"},"vehicle_type_id":"4","last_reported":1748358714,"current_range_meters":8400,"station_id":"ce4bhbh2rcd13ifvqeqg","pricing_plan_id":"cebpf4jnsgd1na2vs0mg"},{"bike_id":"ee617531-7300-4958-baa3-db4f90ad5721","system_id":"levelo_inurba_marseille","lat":43.25822,"lon":5.39437,"is_reserved":false,"is_disabled":false,"rental_uris":{"android":"levelo://app?vid=ee617531-7300-4958-baa3-db4f90ad5721","ios":"levelo://app?vid=ee617531-7300-4958-baa3-db4f90ad5721"},"vehicle_type_id":"4","last_reported":1748358714,"current_range_meters":8000,"station_id":"ce4bhip2rcd13ifvqft0","pricing_plan_id":"cebpf4jnsgd1na2vs0mg"},{"bike_id":"f6a291c8-009c-4799-858f-3d0684b35fea","system_id":"levelo_inurba_marseille","lat":43.23186,"lon":5.43746,"is_reserved":false,"is_disabled":false,"rental_uris":{"android":"levelo://app?vid=f6a291c8-009c-4799-858f-3d0684b35fea","ios":"levelo://app?vid=f6a291c8-009c-4799-858f-3d0684b35fea"},"vehicle_type_id":"4","last_reported":1748358714,"current_range_meters":8800,"station_id":"ce4bhmp2rcd13ifvqgog","pricing_plan_id":"cebpf4jnsgd1na2vs0mg"},{"bike_id":"93bae3fe-9007-4845-9a5c-60dbd4d0c9d6","system_id":"levelo_inurba_marseille","lat":43.24187,"lon":5.39748,"is_reserved":false,"is_disabled":false,"rental_uris":{"android":"levelo://app?vid=93bae3fe-9007-4845-9a5c-60dbd4d0c9d6","ios":"levelo://app?vid=93bae3fe-9007-4845-9a5c-60dbd4d0c9d6"},"vehicle_type_id":"4","last_reported":1748358714,"current_range_meters":8800,"station_id":"ce4bhn12rcd13ifvqgpg","pricing_plan_id":"cebpf4jnsgd1na2vs0mg"},{"bike_id":"1a0998e5-8bb9-474f-a827-53cad24c9e8f","system_id":"levelo_inurba_marseille","lat":43.320346,"lon":5.449503,"is_reserved":false,"is_disabled":false,"rental_uris":{"android":"levelo://app?vid=1a0998e5-8bb9-474f-a827-53cad24c9e8f","ios":"levelo://app?vid=1a0998e5-8bb9-474f-a827-53cad24c9e8f"},"vehicle_type_id":"4","last_reported":1748358714,"current_range_meters":9200,"station_id":"","pricing_plan_id":"cebpf4jnsgd1na2vs0mg"},{"bike_id":"e2e78e86-f1c5-4ed2-af67-191d8117a17e","system_id":"levelo_inurba_marseille","lat":43.2396,"lon":5.36633,"is_reserved":false,"is_disabled":false,"rental_uris":{"android":"levelo://app?vid=e2e78e86-f1c5-4ed2-af67-191d8117a17e","ios":"levelo://app?vid=e2e78e86-f1c5-4ed2-af67-191d8117a17e"},"vehicle_type_id":"4","last_reported":1748358714,"current_range_meters":9200,"station_id":"ce4bhi12rcd13ifvqfp0","pricing_plan_id":"cebpf4jnsgd1na2vs0mg"},{"bike_id":"da16b075-df17-409a-8e37-48a23884cb90","system_id":"levelo_inurba_marseille","lat":43.27973,"lon":5.38736,"is_reserved":false,"is_disabled":false,"rental_uris":{"android":"levelo://app?vid=da16b075-df17-409a-8e37-48a23884cb90","ios":"levelo://app?vid=da16b075-df17-409a-8e37-48a23884cb90"},"vehicle_type_id":"4","last_reported":1748358714,"current_range_meters":9200,"station_id":"ce4bhg12rcd13ifvqf80","pricing_plan_id":"cebpf4jnsgd1na2vs0mg"},{"bike_id":"ecec0dbe-0ccb-470d-bc6b-7e71f374730a","system_id":"levelo_inurba_marseille","lat":43.23958,"lon":5.36646,"is_reserved":false,"is_disabled":false,"rental_uris":{"android":"levelo://app?vid=ecec0dbe-0ccb-470d-bc6b-7e71f374730a","ios":"levelo://app?vid=ecec0dbe-0ccb-470d-bc6b-7e71f374730a"},"vehicle_type_id":"4","last_reported":1748358714,"current_range_meters":9200,"station_id":"ce4bhi12rcd13ifvqfp0","pricing_plan_id":"cebpf4jnsgd1na2vs0mg"},{"bike_id":"7e823e3b-1b92-4735-8533-dc1341b80eaf","system_id":"levelo_inurba_marseille","lat":43.230567,"lon":5.354877,"is_reserved":false,"is_disabled":true,"rental_uris":{"android":"levelo://app?vid=7e823e3b-1b92-4735-8533-dc1341b80eaf","ios":"levelo://app?vid=7e823e3b-1b92-4735-8533-dc1341b80eaf"},"vehicle_type_id":"4","last_reported":1748358714,"current_range_meters":9200,"station_id":"cpo3342slgdg3j2ifvpg","pricing_plan_id":"cebpf4jnsgd1na2vs0mg"},{"bike_id":"1ba3c726-2241-45f2-9397-0519c9f9ddc7","system_id":"levelo_inurba_marseille","lat":43.27371,"lon":5.36249,"is_reserved":false,"is_disabled":false,"rental_uris":{"android":"levelo://app?vid=1ba3c726-2241-45f2-9397-0519c9f9ddc7","ios":"levelo://app?vid=1ba3c726-2241-45f2-9397-0519c9f9ddc7"},"vehicle_type_id":"4","last_reported":1748358714,"current_range_meters":9200,"station_id":"ce4bhbh2rcd13ifvqeo0","pricing_plan_id":"cebpf4jnsgd1na2vs0mg"},{"bike_id":"3167a83b-57b3-40cb-acc2-cb1e50af88be","system_id":"levelo_inurba_marseille","lat":43.27062,"lon":5.40264,"is_reserved":false,"is_disabled":false,"rental_uris":{"android":"levelo://app?vid=3167a83b-57b3-40cb-acc2-cb1e50af88be","ios":"levelo://app?vid=3167a83b-57b3-40cb-acc2-cb1e50af88be"},"vehicle_type_id":"4","last_reported":1748358714,"current_range_meters":9600,"station_id":"ce4bhk92rcd13ifvqgc0","pricing_plan_id":"cebpf4jnsgd1na2vs0mg"},{"bike_id":"be0ebbba-bb7c-4b57-9b6b-f8e338b4e433","system_id":"levelo_inurba_marseille","lat":43.28663,"lon":5.38675,"is_reserved":false,"is_disabled":false,"rental_uris":{"android":"levelo://app?vid=be0ebbba-bb7c-4b57-9b6b-f8e338b4e433","ios":"levelo://app?vid=be0ebbba-bb7c-4b57-9b6b-f8e338b4e433"},"vehicle_type_id":"4","last_reported":1748358714,"current_range_meters":9600,"station_id":"ce4bh492rcd13ifvqdug","pricing_plan_id":"cebpf4jnsgd1na2vs0mg"},{"bike_id":"fc1f1489-b2dd-4483-aeec-4c64c3677c5e","system_id":"levelo_inurba_marseille","lat":43.25107,"lon":5.40315,"is_reserved":false,"is_disabled":false,"rental_uris":{"android":"levelo://app?vid=fc1f1489-b2dd-4483-aeec-4c64c3677c5e","ios":"levelo://app?vid=fc1f1489-b2dd-4483-aeec-4c64c3677c5e"},"vehicle_type_id":"4","last_reported":1748358714,"current_range_meters":9600,"station_id":"ce4bhlh2rcd13ifvqgig","pricing_plan_id":"cebpf4jnsgd1na2vs0mg"},{"bike_id":"3189a836-3bc1-4d00-96e7-6180f7019e10","system_id":"levelo_inurba_marseille","lat":43.32335,"lon":5.40624,"is_reserved":false,"is_disabled":false,"rental_uris":{"android":"levelo://app?vid=3189a836-3bc1-4d00-96e7-6180f7019e10","ios":"levelo://app?vid=3189a836-3bc1-4d00-96e7-6180f7019e10"},"vehicle_type_id":"4","last_reported":1748358714,"current_range_meters":9600,"station_id":"ce4bhq92rcd13ifvqhjg","pricing_plan_id":"cebpf4jnsgd1na2vs0mg"},{"bike_id":"ca8df38b-d820-4f0c-b36b-f80ef4b994f3","system_id":"levelo_inurba_marseille","lat":43.27917,"lon":5.39589,"is_reserved":false,"is_disabled":false,"rental_uris":{"android":"levelo://app?vid=ca8df38b-d820-4f0c-b36b-f80ef4b994f3","ios":"levelo://app?vid=ca8df38b-d820-4f0c-b36b-f80ef4b994f3"},"vehicle_type_id":"4","last_reported":1748358714,"current_range_meters":10000,"station_id":"ce4bhf92rcd13ifvqf40","pricing_plan_id":"cebpf4jnsgd1na2vs0mg"},{"bike_id":"de49cf55-16e3-4c24-8170-8d6d2db4d876","system_id":"levelo_inurba_marseille","lat":43.28405,"lon":5.34995,"is_reserved":false,"is_disabled":false,"rental_uris":{"android":"levelo://app?vid=de49cf55-16e3-4c24-8170-8d6d2db4d876","ios":"levelo://app?vid=de49cf55-16e3-4c24-8170-8d6d2db4d876"},"vehicle_type_id":"4","last_reported":1748358714,"current_range_meters":10000,"station_id":"ce4bhbh2rcd13ifvqepg","pricing_plan_id":"cebpf4jnsgd1na2vs0mg"},{"bike_id":"7dd85e95-ee5f-43ea-a9fe-4259e05a5795","system_id":"levelo_inurba_marseille","lat":43.28261,"lon":5.3508,"is_reserved":false,"is_disabled":false,"rental_uris":{"android":"levelo://app?vid=7dd85e95-ee5f-43ea-a9fe-4259e05a5795","ios":"levelo://app?vid=7dd85e95-ee5f-43ea-a9fe-4259e05a5795"},"vehicle_type_id":"4","last_reported":1748358714,"current_range_meters":10000,"station_id":"ce4bhbp2rcd13ifvqerg","pricing_plan_id":"cebpf4jnsgd1na2vs0mg"},{"bike_id":"6ef27e84-462a-46f9-afe5-e09b209cc7f0","system_id":"levelo_inurba_marseille","lat":43.3311,"lon":5.36207,"is_reserved":false,"is_disabled":false,"rental_uris":{"android":"levelo://app?vid=6ef27e84-462a-46f9-afe5-e09b209cc7f0","ios":"levelo://app?vid=6ef27e84-462a-46f9-afe5-e09b209cc7f0"},"vehicle_type_id":"4","last_reported":1748358714,"current_range_meters":10000,"station_id":"","pricing_plan_id":"cebpf4jnsgd1na2vs0mg"},{"bike_id":"cf334fda-687d-40c6-8ac7-d45fc63f8e38","system_id":"levelo_inurba_marseille","lat":43.30132,"lon":5.37394,"is_reserved":false,"is_disabled":false,"rental_uris":{"android":"levelo://app?vid=cf334fda-687d-40c6-8ac7-d45fc63f8e38","ios":"levelo://app?vid=cf334fda-687d-40c6-8ac7-d45fc63f8e38"},"vehicle_type_id":"4","last_reported":1748358714,"current_range_meters":10000,"station_id":"","pricing_plan_id":"cebpf4jnsgd1na2vs0mg"},{"bike_id":"cd431521-2266-4f45-ac9a-95e56b6903c9","system_id":"levelo_inurba_marseille","lat":43.24172,"lon":5.39725,"is_reserved":false,"is_disabled":false,"rental_uris":{"android":"levelo://app?vid=cd431521-2266-4f45-ac9a-95e56b6903c9","ios":"levelo://app?vid=cd431521-2266-4f45-ac9a-95e56b6903c9"},"vehicle_type_id":"4","last_reported":1748358714,"current_range_meters":10000,"station_id":"ce4bhn12rcd13ifvqgpg","pricing_plan_id":"cebpf4jnsgd1na2vs0mg"},{"bike_id":"4b764d62-5035-42bb-ada7-7817db7fa65c","system_id":"levelo_inurba_marseille","lat":43.28638,"lon":5.35119,"is_reserved":false,"is_disabled":false,"rental_uris":{"android":"levelo://app?vid=4b764d62-5035-42bb-ada7-7817db7fa65c","ios":"levelo://app?vid=4b764d62-5035-42bb-ada7-7817db7fa65c"},"vehicle_type_id":"4","last_reported":1748358714,"current_range_meters":10000,"station_id":"ce4bhch2rcd13ifvqeug","pricing_plan_id":"cebpf4jnsgd1na2vs0mg"},{"bike_id":"c7d8e3f3-38ce-44db-8098-d0d8598dcd0e","system_id":"levelo_inurba_marseille","lat":43.248,"lon":5.37452,"is_reserved":false,"is_disabled":false,"rental_uris":{"android":"levelo://app?vid=c7d8e3f3-38ce-44db-8098-d0d8598dcd0e","ios":"levelo://app?vid=c7d8e3f3-38ce-44db-8098-d0d8598dcd0e"},"vehicle_type_id":"4","last_reported":1748358714,"current_range_meters":10000,"station_id":"ce4bhgh2rcd13ifvqfb0","pricing_plan_id":"cebpf4jnsgd1na2vs0mg"},{"bike_id":"089acf69-04a2-4f11-9aec-12f1fccc7f92","system_id":"levelo_inurba_marseille","lat":43.27372,"lon":5.36258,"is_reserved":false,"is_disabled":false,"rental_uris":{"android":"levelo://app?vid=089acf69-04a2-4f11-9aec-12f1fccc7f92","ios":"levelo://app?vid=089acf69-04a2-4f11-9aec-12f1fccc7f92"},"vehicle_type_id":"4","last_reported":1748358714,"current_range_meters":10000,"station_id":"ce4bhbh2rcd13ifvqeo0","pricing_plan_id":"cebpf4jnsgd1na2vs0mg"},{"bike_id":"3b5b06f9-482d-466f-90d2-929f5713480d","system_id":"levelo_inurba_marseille","lat":43.24176,"lon":5.39726,"is_reserved":false,"is_disabled":false,"rental_uris":{"android":"levelo://app?vid=3b5b06f9-482d-466f-90d2-929f5713480d","ios":"levelo://app?vid=3b5b06f9-482d-466f-90d2-929f5713480d"},"vehicle_type_id":"4","last_reported":1748358714,"current_range_meters":10000,"station_id":"ce4bhn12rcd13ifvqgpg","pricing_plan_id":"cebpf4jnsgd1na2vs0mg"},{"bike_id":"c3d3f451-f554-4b6e-b042-5c4ad5935bea","system_id":"levelo_inurba_marseille","lat":43.28568,"lon":5.395,"is_reserved":false,"is_disabled":false,"rental_uris":{"android":"levelo://app?vid=c3d3f451-f554-4b6e-b042-5c4ad5935bea","ios":"levelo://app?vid=c3d3f451-f554-4b6e-b042-5c4ad5935bea"},"vehicle_type_id":"4","last_reported":1748358714,"current_range_meters":9600,"station_id":"ce4bh292rcd13ifvqdg0","pricing_plan_id":"cebpf4jnsgd1na2vs0mg"},{"bike_id":"52b5b118-122f-4853-96dc-c2da0a1b15ff","system_id":"levelo_inurba_marseille","lat":43.30545,"lon":5.36538,"is_reserved":false,"is_disabled":false,"rental_uris":{"android":"levelo://app?vid=52b5b118-122f-4853-96dc-c2da0a1b15ff","ios":"levelo://app?vid=52b5b118-122f-4853-96dc-c2da0a1b15ff"},"vehicle_type_id":"4","last_reported":1748358714,"current_range_meters":10800,"station_id":"ce4bgs12rcd13ifvqcag","pricing_plan_id":"cebpf4jnsgd1na2vs0mg"},{"bike_id":"e6c65de3-7d92-4979-809c-6677188473c0","system_id":"levelo_inurba_marseille","lat":43.337598,"lon":5.374632,"is_reserved":false,"is_disabled":false,"rental_uris":{"android":"levelo://app?vid=e6c65de3-7d92-4979-809c-6677188473c0","ios":"levelo://app?vid=e6c65de3-7d92-4979-809c-6677188473c0"},"vehicle_type_id":"4","last_reported":1748358714,"current_range_meters":10800,"station_id":"","pricing_plan_id":"cebpf4jnsgd1na2vs0mg"},{"bike_id":"4fb131b8-02e4-4b43-bdb1-b9d7cc2fe34d","system_id":"levelo_inurba_marseille","lat":43.28353,"lon":5.38096,"is_reserved":false,"is_disabled":false,"rental_uris":{"android":"levelo://app?vid=4fb131b8-02e4-4b43-bdb1-b9d7cc2fe34d","ios":"levelo://app?vid=4fb131b8-02e4-4b43-bdb1-b9d7cc2fe34d"},"vehicle_type_id":"4","last_reported":1748358714,"current_range_meters":10800,"station_id":"ce4bh412rcd13ifvqdr0","pricing_plan_id":"cebpf4jnsgd1na2vs0mg"},{"bike_id":"df4117c0-9f6f-452a-ac57-62defae140ef","system_id":"levelo_inurba_marseille","lat":43.24179,"lon":5.39721,"is_reserved":false,"is_disabled":false,"rental_uris":{"android":"levelo://app?vid=df4117c0-9f6f-452a-ac57-62defae140ef","ios":"levelo://app?vid=df4117c0-9f6f-452a-ac57-62defae140ef"},"vehicle_type_id":"4","last_reported":1748358714,"current_range_meters":10800,"station_id":"ce4bhn12rcd13ifvqgpg","pricing_plan_id":"cebpf4jnsgd1na2vs0mg"},{"bike_id":"5f9391d7-2924-464d-abdc-d40ada4b1c07","system_id":"levelo_inurba_marseille","lat":43.30168,"lon":5.37418,"is_reserved":false,"is_disabled":false,"rental_uris":{"android":"levelo://app?vid=5f9391d7-2924-464d-abdc-d40ada4b1c07","ios":"levelo://app?vid=5f9391d7-2924-464d-abdc-d40ada4b1c07"},"vehicle_type_id":"4","last_reported":1748358714,"current_range_meters":10800,"station_id":"ce4bgs92rcd13ifvqcc0","pricing_plan_id":"cebpf4jnsgd1na2vs0mg"},{"bike_id":"e70b1954-13a5-4922-98cb-41c8a20ba157","system_id":"levelo_inurba_marseille","lat":43.29633,"lon":5.40596,"is_reserved":false,"is_disabled":false,"rental_uris":{"android":"levelo://app?vid=e70b1954-13a5-4922-98cb-41c8a20ba157","ios":"levelo://app?vid=e70b1954-13a5-4922-98cb-41c8a20ba157"},"vehicle_type_id":"4","last_reported":1748358714,"current_range_meters":10800,"station_id":"ce4bh0h2rcd13ifvqd60","pricing_plan_id":"cebpf4jnsgd1na2vs0mg"},{"bike_id":"35657823-8cda-44f5-a555-1f769cf1fe31","system_id":"levelo_inurba_marseille","lat":43.2719,"lon":5.40997,"is_reserved":false,"is_disabled":false,"rental_uris":{"android":"levelo://app?vid=35657823-8cda-44f5-a555-1f769cf1fe31","ios":"levelo://app?vid=35657823-8cda-44f5-a555-1f769cf1fe31"},"vehicle_type_id":"4","last_reported":1748358714,"current_range_meters":10800,"station_id":"ce4bhl12rcd13ifvqgf0","pricing_plan_id":"cebpf4jnsgd1na2vs0mg"},{"bike_id":"43596d06-9071-4e93-bf85-3637b8a1ec58","system_id":"levelo_inurba_marseille","lat":43.27812,"lon":5.40714,"is_reserved":false,"is_disabled":false,"rental_uris":{"android":"levelo://app?vid=43596d06-9071-4e93-bf85-3637b8a1ec58","ios":"levelo://app?vid=43596d06-9071-4e93-bf85-3637b8a1ec58"},"vehicle_type_id":"4","last_reported":1748358714,"current_range_meters":10800,"station_id":"ce4bhnh2rcd13ifvqgtg","pricing_plan_id":"cebpf4jnsgd1na2vs0mg"},{"bike_id":"796f3588-fc14-4444-a8e5-bd17db1bce1c","system_id":"levelo_inurba_marseille","lat":43.28412,"lon":5.34993,"is_reserved":false,"is_disabled":false,"rental_uris":{"android":"levelo://app?vid=796f3588-fc14-4444-a8e5-bd17db1bce1c","ios":"levelo://app?vid=796f3588-fc14-4444-a8e5-bd17db1bce1c"},"vehicle_type_id":"4","last_reported":1748358714,"current_range_meters":10800,"station_id":"ce4bhbh2rcd13ifvqepg","pricing_plan_id":"cebpf4jnsgd1na2vs0mg"},{"bike_id":"2a046dee-b3af-48c9-9659-b7d30ba20af5","system_id":"levelo_inurba_marseille","lat":43.243356,"lon":5.379966,"is_reserved":false,"is_disabled":false,"rental_uris":{"android":"levelo://app?vid=2a046dee-b3af-48c9-9659-b7d30ba20af5","ios":"levelo://app?vid=2a046dee-b3af-48c9-9659-b7d30ba20af5"},"vehicle_type_id":"4","last_reported":1748358714,"current_range_meters":10800,"station_id":"","pricing_plan_id":"cebpf4jnsgd1na2vs0mg"},{"bike_id":"3f855aa9-a03a-4d28-bbc8-2f3b26d07315","system_id":"levelo_inurba_marseille","lat":43.22944,"lon":5.35399,"is_reserved":false,"is_disabled":false,"rental_uris":{"android":"levelo://app?vid=3f855aa9-a03a-4d28-bbc8-2f3b26d07315","ios":"levelo://app?vid=3f855aa9-a03a-4d28-bbc8-2f3b26d07315"},"vehicle_type_id":"4","last_reported":1748358714,"current_range_meters":10800,"station_id":"cpo3532slgdg3j2ikp40","pricing_plan_id":"cebpf4jnsgd1na2vs0mg"},{"bike_id":"c62f438c-d59c-4ce6-bbed-e885a7bedf22","system_id":"levelo_inurba_marseille","lat":43.289459,"lon":5.364021,"is_reserved":false,"is_disabled":false,"rental_uris":{"android":"levelo://app?vid=c62f438c-d59c-4ce6-bbed-e885a7bedf22","ios":"levelo://app?vid=c62f438c-d59c-4ce6-bbed-e885a7bedf22"},"vehicle_type_id":"4","last_reported":1748358714,"current_range_meters":10800,"station_id":"ce4bhc92rcd13ifvqetg","pricing_plan_id":"cebpf4jnsgd1na2vs0mg"},{"bike_id":"e7e47eb1-9bf4-4dd6-bda4-6b767bec30cc","system_id":"levelo_inurba_marseille","lat":43.28156,"lon":5.42642,"is_reserved":false,"is_disabled":false,"rental_uris":{"android":"levelo://app?vid=e7e47eb1-9bf4-4dd6-bda4-6b767bec30cc","ios":"levelo://app?vid=e7e47eb1-9bf4-4dd6-bda4-6b767bec30cc"},"vehicle_type_id":"4","last_reported":1748358714,"current_range_meters":11200,"station_id":"ce4bhnh2rcd13ifvqgug","pricing_plan_id":"cebpf4jnsgd1na2vs0mg"},{"bike_id":"5615b101-90ed-4de2-b74a-350a7d9f55cb","system_id":"levelo_inurba_marseille","lat":43.28854,"lon":5.3585,"is_reserved":false,"is_disabled":false,"rental_uris":{"android":"levelo://app?vid=5615b101-90ed-4de2-b74a-350a7d9f55cb","ios":"levelo://app?vid=5615b101-90ed-4de2-b74a-350a7d9f55cb"},"vehicle_type_id":"4","last_reported":1748358714,"current_range_meters":11200,"station_id":"ce4bhb12rcd13ifvqem0","pricing_plan_id":"cebpf4jnsgd1na2vs0mg"},{"bike_id":"0e7229b8-5e5c-43bd-a234-7ec46790bc01","system_id":"levelo_inurba_marseille","lat":43.28698,"lon":5.39985,"is_reserved":false,"is_disabled":false,"rental_uris":{"android":"levelo://app?vid=0e7229b8-5e5c-43bd-a234-7ec46790bc01","ios":"levelo://app?vid=0e7229b8-5e5c-43bd-a234-7ec46790bc01"},"vehicle_type_id":"4","last_reported":1748358714,"current_range_meters":11200,"station_id":"ce4bho92rcd13ifvqh3g","pricing_plan_id":"cebpf4jnsgd1na2vs0mg"},{"bike_id":"6ef97e20-8618-477d-a728-51282fd80a1a","system_id":"levelo_inurba_marseille","lat":43.261937,"lon":5.374577,"is_reserved":false,"is_disabled":false,"rental_uris":{"android":"levelo://app?vid=6ef97e20-8618-477d-a728-51282fd80a1a","ios":"levelo://app?vid=6ef97e20-8618-477d-a728-51282fd80a1a"},"vehicle_type_id":"4","last_reported":1748358714,"current_range_meters":11600,"station_id":"ce4bhgp2rcd13ifvqfc0","pricing_plan_id":"cebpf4jnsgd1na2vs0mg"},{"bike_id":"ad8fd623-ed22-4ca6-9e71-3fb6461cc546","system_id":"levelo_inurba_marseille","lat":43.27386,"lon":5.36263,"is_reserved":false,"is_disabled":false,"rental_uris":{"android":"levelo://app?vid=ad8fd623-ed22-4ca6-9e71-3fb6461cc546","ios":"levelo://app?vid=ad8fd623-ed22-4ca6-9e71-3fb6461cc546"},"vehicle_type_id":"4","last_reported":1748358714,"current_range_meters":11200,"station_id":"ce4bhbh2rcd13ifvqeo0","pricing_plan_id":"cebpf4jnsgd1na2vs0mg"},{"bike_id":"3bbda512-0b45-4bd4-8066-378a1a610c9e","system_id":"levelo_inurba_marseille","lat":43.29578,"lon":5.36748,"is_reserved":false,"is_disabled":false,"rental_uris":{"android":"levelo://app?vid=3bbda512-0b45-4bd4-8066-378a1a610c9e","ios":"levelo://app?vid=3bbda512-0b45-4bd4-8066-378a1a610c9e"},"vehicle_type_id":"4","last_reported":1748358714,"current_range_meters":10800,"station_id":"ce4bgph2rcd13ifvqc2g","pricing_plan_id":"cebpf4jnsgd1na2vs0mg"},{"bike_id":"17b0d8ff-aa28-408b-9628-4a545be2c769","system_id":"levelo_inurba_marseille","lat":43.31917,"lon":5.38032,"is_reserved":false,"is_disabled":false,"rental_uris":{"android":"levelo://app?vid=17b0d8ff-aa28-408b-9628-4a545be2c769","ios":"levelo://app?vid=17b0d8ff-aa28-408b-9628-4a545be2c769"},"vehicle_type_id":"4","last_reported":1748358714,"current_range_meters":11200,"station_id":"","pricing_plan_id":"cebpf4jnsgd1na2vs0mg"},{"bike_id":"aa87cc0f-64a9-4f96-84be-db8771013c53","system_id":"levelo_inurba_marseille","lat":43.29873,"lon":5.39725,"is_reserved":false,"is_disabled":false,"rental_uris":{"android":"levelo://app?vid=aa87cc0f-64a9-4f96-84be-db8771013c53","ios":"levelo://app?vid=aa87cc0f-64a9-4f96-84be-db8771013c53"},"vehicle_type_id":"4","last_reported":1748358714,"current_range_meters":11200,"station_id":"ce4bh0h2rcd13ifvqd50","pricing_plan_id":"cebpf4jnsgd1na2vs0mg"},{"bike_id":"dae3fc33-4b95-47d2-a716-b028de3acbc1","system_id":"levelo_inurba_marseille","lat":43.28622,"lon":5.35102,"is_reserved":false,"is_disabled":false,"rental_uris":{"android":"levelo://app?vid=dae3fc33-4b95-47d2-a716-b028de3acbc1","ios":"levelo://app?vid=dae3fc33-4b95-47d2-a716-b028de3acbc1"},"vehicle_type_id":"4","last_reported":1748358714,"current_range_meters":11600,"station_id":"ce4bhch2rcd13ifvqeug","pricing_plan_id":"cebpf4jnsgd1na2vs0mg"},{"bike_id":"a5614989-17af-4858-b461-0ee1b33129b8","system_id":"levelo_inurba_marseille","lat":43.28934,"lon":5.36647,"is_reserved":false,"is_disabled":false,"rental_uris":{"android":"levelo://app?vid=a5614989-17af-4858-b461-0ee1b33129b8","ios":"levelo://app?vid=a5614989-17af-4858-b461-0ee1b33129b8"},"vehicle_type_id":"4","last_reported":1748358714,"current_range_meters":11600,"station_id":"ce4bhap2rcd13ifvqek0","pricing_plan_id":"cebpf4jnsgd1na2vs0mg"},{"bike_id":"f689d449-d0ec-464c-9319-de295e0a037a","system_id":"levelo_inurba_marseille","lat":43.239675,"lon":5.366308,"is_reserved":false,"is_disabled":true,"rental_uris":{"android":"levelo://app?vid=f689d449-d0ec-464c-9319-de295e0a037a","ios":"levelo://app?vid=f689d449-d0ec-464c-9319-de295e0a037a"},"vehicle_type_id":"4","last_reported":1748358714,"current_range_meters":11600,"station_id":"","pricing_plan_id":"cebpf4jnsgd1na2vs0mg"},{"bike_id":"4a2dbe82-d714-4998-850d-b5bae31c19ec","system_id":"levelo_inurba_marseille","lat":43.27377,"lon":5.362507,"is_reserved":false,"is_disabled":false,"rental_uris":{"android":"levelo://app?vid=4a2dbe82-d714-4998-850d-b5bae31c19ec","ios":"levelo://app?vid=4a2dbe82-d714-4998-850d-b5bae31c19ec"},"vehicle_type_id":"4","last_reported":1748358714,"current_range_meters":11600,"station_id":"ce4bhbh2rcd13ifvqeo0","pricing_plan_id":"cebpf4jnsgd1na2vs0mg"},{"bike_id":"a3a1e2f8-c082-4657-9cf8-ceb282e14a71","system_id":"levelo_inurba_marseille","lat":43.23183,"lon":5.39993,"is_reserved":false,"is_disabled":false,"rental_uris":{"android":"levelo://app?vid=a3a1e2f8-c082-4657-9cf8-ceb282e14a71","ios":"levelo://app?vid=a3a1e2f8-c082-4657-9cf8-ceb282e14a71"},"vehicle_type_id":"4","last_reported":1748358714,"current_range_meters":11600,"station_id":"ce4bhn12rcd13ifvqgqg","pricing_plan_id":"cebpf4jnsgd1na2vs0mg"},{"bike_id":"ebf02660-fe91-4425-b244-c87b5e959b86","system_id":"levelo_inurba_marseille","lat":43.30543,"lon":5.36533,"is_reserved":false,"is_disabled":false,"rental_uris":{"android":"levelo://app?vid=ebf02660-fe91-4425-b244-c87b5e959b86","ios":"levelo://app?vid=ebf02660-fe91-4425-b244-c87b5e959b86"},"vehicle_type_id":"4","last_reported":1748358714,"current_range_meters":11600,"station_id":"ce4bgs12rcd13ifvqcag","pricing_plan_id":"cebpf4jnsgd1na2vs0mg"},{"bike_id":"ceb81090-b40e-47dd-bc35-8598d269ef58","system_id":"levelo_inurba_marseille","lat":43.26663,"lon":5.38431,"is_reserved":false,"is_disabled":false,"rental_uris":{"android":"levelo://app?vid=ceb81090-b40e-47dd-bc35-8598d269ef58","ios":"levelo://app?vid=ceb81090-b40e-47dd-bc35-8598d269ef58"},"vehicle_type_id":"4","last_reported":1748358714,"current_range_meters":12000,"station_id":"","pricing_plan_id":"cebpf4jnsgd1na2vs0mg"},{"bike_id":"400be29c-158f-4ae5-8a01-670fe68dbf7b","system_id":"levelo_inurba_marseille","lat":43.24162,"lon":5.36415,"is_reserved":false,"is_disabled":false,"rental_uris":{"android":"levelo://app?vid=400be29c-158f-4ae5-8a01-670fe68dbf7b","ios":"levelo://app?vid=400be29c-158f-4ae5-8a01-670fe68dbf7b"},"vehicle_type_id":"4","last_reported":1748358714,"current_range_meters":12000,"station_id":"cpo36qri1sfpv3e86is0","pricing_plan_id":"cebpf4jnsgd1na2vs0mg"},{"bike_id":"e5c82b4c-e30f-487a-ae65-76f66da567ea","system_id":"levelo_inurba_marseille","lat":43.32395,"lon":5.36752,"is_reserved":false,"is_disabled":false,"rental_uris":{"android":"levelo://app?vid=e5c82b4c-e30f-487a-ae65-76f66da567ea","ios":"levelo://app?vid=e5c82b4c-e30f-487a-ae65-76f66da567ea"},"vehicle_type_id":"4","last_reported":1748358714,"current_range_meters":12000,"station_id":"ce4bhsh2rcd13ifvqi2g","pricing_plan_id":"cebpf4jnsgd1na2vs0mg"},{"bike_id":"7213fe9c-f794-49b8-b148-ee14e6977c30","system_id":"levelo_inurba_marseille","lat":43.24188,"lon":5.39727,"is_reserved":false,"is_disabled":false,"rental_uris":{"android":"levelo://app?vid=7213fe9c-f794-49b8-b148-ee14e6977c30","ios":"levelo://app?vid=7213fe9c-f794-49b8-b148-ee14e6977c30"},"vehicle_type_id":"4","last_reported":1748358714,"current_range_meters":12000,"station_id":"ce4bhn12rcd13ifvqgpg","pricing_plan_id":"cebpf4jnsgd1na2vs0mg"},{"bike_id":"f492556c-f7c9-49ef-879b-6b9889cadb77","system_id":"levelo_inurba_marseille","lat":43.31717,"lon":5.43709,"is_reserved":false,"is_disabled":false,"rental_uris":{"android":"levelo://app?vid=f492556c-f7c9-49ef-879b-6b9889cadb77","ios":"levelo://app?vid=f492556c-f7c9-49ef-879b-6b9889cadb77"},"vehicle_type_id":"4","last_reported":1748358714,"current_range_meters":12400,"station_id":"ce4bhp92rcd13ifvqhcg","pricing_plan_id":"cebpf4jnsgd1na2vs0mg"},{"bike_id":"6d2977b8-b405-496c-bf31-3eacba5c9601","system_id":"levelo_inurba_marseille","lat":43.28436,"lon":5.34999,"is_reserved":false,"is_disabled":false,"rental_uris":{"android":"levelo://app?vid=6d2977b8-b405-496c-bf31-3eacba5c9601","ios":"levelo://app?vid=6d2977b8-b405-496c-bf31-3eacba5c9601"},"vehicle_type_id":"4","last_reported":1748358714,"current_range_meters":12400,"station_id":"ce4bhbh2rcd13ifvqepg","pricing_plan_id":"cebpf4jnsgd1na2vs0mg"},{"bike_id":"03a878d5-7464-43c2-bb12-8804355fff55","system_id":"levelo_inurba_marseille","lat":43.25573,"lon":5.38261,"is_reserved":false,"is_disabled":false,"rental_uris":{"android":"levelo://app?vid=03a878d5-7464-43c2-bb12-8804355fff55","ios":"levelo://app?vid=03a878d5-7464-43c2-bb12-8804355fff55"},"vehicle_type_id":"4","last_reported":1748358714,"current_range_meters":12400,"station_id":"ce4bhih2rcd13ifvqfs0","pricing_plan_id":"cebpf4jnsgd1na2vs0mg"},{"bike_id":"d210ed15-0cab-4985-be76-61173c3a81e4","system_id":"levelo_inurba_marseille","lat":43.28739,"lon":5.3612,"is_reserved":false,"is_disabled":true,"rental_uris":{"android":"levelo://app?vid=d210ed15-0cab-4985-be76-61173c3a81e4","ios":"levelo://app?vid=d210ed15-0cab-4985-be76-61173c3a81e4"},"vehicle_type_id":"4","last_reported":1748358714,"current_range_meters":12400,"station_id":"cki0cbj6b192h4jlfktg","pricing_plan_id":"cebpf4jnsgd1na2vs0mg"},{"bike_id":"52a21e19-dfc1-4dd4-b15c-94693d747324","system_id":"levelo_inurba_marseille","lat":43.30123,"lon":5.39866,"is_reserved":false,"is_disabled":false,"rental_uris":{"android":"levelo://app?vid=52a21e19-dfc1-4dd4-b15c-94693d747324","ios":"levelo://app?vid=52a21e19-dfc1-4dd4-b15c-94693d747324"},"vehicle_type_id":"4","last_reported":1748358714,"current_range_meters":12400,"station_id":"ce4bh0h2rcd13ifvqd40","pricing_plan_id":"cebpf4jnsgd1na2vs0mg"},{"bike_id":"ed050a15-b493-4dfd-b4c6-f3d7edc4c14f","system_id":"levelo_inurba_marseille","lat":43.33474,"lon":5.40084,"is_reserved":false,"is_disabled":false,"rental_uris":{"android":"levelo://app?vid=ed050a15-b493-4dfd-b4c6-f3d7edc4c14f","ios":"levelo://app?vid=ed050a15-b493-4dfd-b4c6-f3d7edc4c14f"},"vehicle_type_id":"4","last_reported":1748358714,"current_range_meters":12400,"station_id":"","pricing_plan_id":"cebpf4jnsgd1na2vs0mg"},{"bike_id":"fd9dfc07-934e-4488-b917-6cbeeee6ac1e","system_id":"levelo_inurba_marseille","lat":43.24668,"lon":5.38923,"is_reserved":false,"is_disabled":false,"rental_uris":{"android":"levelo://app?vid=fd9dfc07-934e-4488-b917-6cbeeee6ac1e","ios":"levelo://app?vid=fd9dfc07-934e-4488-b917-6cbeeee6ac1e"},"vehicle_type_id":"4","last_reported":1748358714,"current_range_meters":12800,"station_id":"ce4bhg12rcd13ifvqf60","pricing_plan_id":"cebpf4jnsgd1na2vs0mg"},{"bike_id":"863f0e97-1d8c-4cfb-b24c-a9eee16e94d6","system_id":"levelo_inurba_marseille","lat":43.29264,"lon":5.38434,"is_reserved":false,"is_disabled":false,"rental_uris":{"android":"levelo://app?vid=863f0e97-1d8c-4cfb-b24c-a9eee16e94d6","ios":"levelo://app?vid=863f0e97-1d8c-4cfb-b24c-a9eee16e94d6"},"vehicle_type_id":"4","last_reported":1748358714,"current_range_meters":12800,"station_id":"ce4bh692rcd13ifvqea0","pricing_plan_id":"cebpf4jnsgd1na2vs0mg"},{"bike_id":"0f74df06-4d02-44f6-8ef2-49c13186f916","system_id":"levelo_inurba_marseille","lat":43.27997,"lon":5.41663,"is_reserved":false,"is_disabled":false,"rental_uris":{"android":"levelo://app?vid=0f74df06-4d02-44f6-8ef2-49c13186f916","ios":"levelo://app?vid=0f74df06-4d02-44f6-8ef2-49c13186f916"},"vehicle_type_id":"4","last_reported":1748358714,"current_range_meters":12800,"station_id":"ce4bho12rcd13ifvqh1g","pricing_plan_id":"cebpf4jnsgd1na2vs0mg"},{"bike_id":"1fbd130b-cb94-49d6-9bd3-bb418fe725b4","system_id":"levelo_inurba_marseille","lat":43.28421,"lon":5.34981,"is_reserved":false,"is_disabled":false,"rental_uris":{"android":"levelo://app?vid=1fbd130b-cb94-49d6-9bd3-bb418fe725b4","ios":"levelo://app?vid=1fbd130b-cb94-49d6-9bd3-bb418fe725b4"},"vehicle_type_id":"4","last_reported":1748358714,"current_range_meters":12800,"station_id":"ce4bhbh2rcd13ifvqepg","pricing_plan_id":"cebpf4jnsgd1na2vs0mg"},{"bike_id":"47c3ed46-8e13-40f8-85a1-113fc5f3c66a","system_id":"levelo_inurba_marseille","lat":43.281603,"lon":5.425779,"is_reserved":false,"is_disabled":false,"rental_uris":{"android":"levelo://app?vid=47c3ed46-8e13-40f8-85a1-113fc5f3c66a","ios":"levelo://app?vid=47c3ed46-8e13-40f8-85a1-113fc5f3c66a"},"vehicle_type_id":"4","last_reported":1748358714,"current_range_meters":12800,"station_id":"","pricing_plan_id":"cebpf4jnsgd1na2vs0mg"},{"bike_id":"a40588ee-00f9-4620-a7e7-03b577ebbb6e","system_id":"levelo_inurba_marseille","lat":43.23204,"lon":5.39999,"is_reserved":false,"is_disabled":false,"rental_uris":{"android":"levelo://app?vid=a40588ee-00f9-4620-a7e7-03b577ebbb6e","ios":"levelo://app?vid=a40588ee-00f9-4620-a7e7-03b577ebbb6e"},"vehicle_type_id":"4","last_reported":1748358714,"current_range_meters":12800,"station_id":"ce4bhn12rcd13ifvqgqg","pricing_plan_id":"cebpf4jnsgd1na2vs0mg"},{"bike_id":"064e6fa0-0d7c-4ec8-b1ad-7f69178c75b7","system_id":"levelo_inurba_marseille","lat":43.298981,"lon":5.436644,"is_reserved":false,"is_disabled":false,"rental_uris":{"android":"levelo://app?vid=064e6fa0-0d7c-4ec8-b1ad-7f69178c75b7","ios":"levelo://app?vid=064e6fa0-0d7c-4ec8-b1ad-7f69178c75b7"},"vehicle_type_id":"4","last_reported":1748358714,"current_range_meters":12800,"station_id":"ce4bhpp2rcd13ifvqhfg","pricing_plan_id":"cebpf4jnsgd1na2vs0mg"},{"bike_id":"0ec433e5-135e-4004-9e64-66773878e6e4","system_id":"levelo_inurba_marseille","lat":43.30201,"lon":5.3663,"is_reserved":false,"is_disabled":false,"rental_uris":{"android":"levelo://app?vid=0ec433e5-135e-4004-9e64-66773878e6e4","ios":"levelo://app?vid=0ec433e5-135e-4004-9e64-66773878e6e4"},"vehicle_type_id":"4","last_reported":1748358714,"current_range_meters":13600,"station_id":"ce4bgrh2rcd13ifvqc8g","pricing_plan_id":"cebpf4jnsgd1na2vs0mg"},{"bike_id":"1d246cd2-4853-4135-b0b3-1972e3b5c2b5","system_id":"levelo_inurba_marseille","lat":43.24383,"lon":5.37067,"is_reserved":false,"is_disabled":false,"rental_uris":{"android":"levelo://app?vid=1d246cd2-4853-4135-b0b3-1972e3b5c2b5","ios":"levelo://app?vid=1d246cd2-4853-4135-b0b3-1972e3b5c2b5"},"vehicle_type_id":"4","last_reported":1748358714,"current_range_meters":12800,"station_id":"ce4bhhh2rcd13ifvqfk0","pricing_plan_id":"cebpf4jnsgd1na2vs0mg"},{"bike_id":"61519cfe-90df-4ed9-b13a-8b8a751d7762","system_id":"levelo_inurba_marseille","lat":43.27826,"lon":5.39197,"is_reserved":false,"is_disabled":false,"rental_uris":{"android":"levelo://app?vid=61519cfe-90df-4ed9-b13a-8b8a751d7762","ios":"levelo://app?vid=61519cfe-90df-4ed9-b13a-8b8a751d7762"},"vehicle_type_id":"4","last_reported":1748358714,"current_range_meters":12800,"station_id":"ce4bhjp2rcd13ifvqga0","pricing_plan_id":"cebpf4jnsgd1na2vs0mg"},{"bike_id":"c359ce31-503c-4864-81a4-8b7ff30ded70","system_id":"levelo_inurba_marseille","lat":43.3248,"lon":5.36562,"is_reserved":false,"is_disabled":false,"rental_uris":{"android":"levelo://app?vid=c359ce31-503c-4864-81a4-8b7ff30ded70","ios":"levelo://app?vid=c359ce31-503c-4864-81a4-8b7ff30ded70"},"vehicle_type_id":"4","last_reported":1748358714,"current_range_meters":13600,"station_id":"ce4bhs12rcd13ifvqhvg","pricing_plan_id":"cebpf4jnsgd1na2vs0mg"},{"bike_id":"56303e41-2b27-4d35-8ea7-4c7f6f219c1a","system_id":"levelo_inurba_marseille","lat":43.21774,"lon":5.34609,"is_reserved":false,"is_disabled":false,"rental_uris":{"android":"levelo://app?vid=56303e41-2b27-4d35-8ea7-4c7f6f219c1a","ios":"levelo://app?vid=56303e41-2b27-4d35-8ea7-4c7f6f219c1a"},"vehicle_type_id":"4","last_reported":1748358714,"current_range_meters":13600,"station_id":"","pricing_plan_id":"cebpf4jnsgd1na2vs0mg"},{"bike_id":"2447e726-02f2-4707-a232-a209224dd9ad","system_id":"levelo_inurba_marseille","lat":43.33053,"lon":5.39065,"is_reserved":false,"is_disabled":false,"rental_uris":{"android":"levelo://app?vid=2447e726-02f2-4707-a232-a209224dd9ad","ios":"levelo://app?vid=2447e726-02f2-4707-a232-a209224dd9ad"},"vehicle_type_id":"4","last_reported":1748358714,"current_range_meters":13600,"station_id":"ce4bhr92rcd13ifvqhrg","pricing_plan_id":"cebpf4jnsgd1na2vs0mg"},{"bike_id":"84f20522-6fe9-4131-aa99-7e652947bcde","system_id":"levelo_inurba_marseille","lat":43.28428,"lon":5.35029,"is_reserved":false,"is_disabled":false,"rental_uris":{"android":"levelo://app?vid=84f20522-6fe9-4131-aa99-7e652947bcde","ios":"levelo://app?vid=84f20522-6fe9-4131-aa99-7e652947bcde"},"vehicle_type_id":"4","last_reported":1748358714,"current_range_meters":13600,"station_id":"ce4bhbh2rcd13ifvqepg","pricing_plan_id":"cebpf4jnsgd1na2vs0mg"},{"bike_id":"0e9036cf-6310-47e0-94cd-9ea309fd4658","system_id":"levelo_inurba_marseille","lat":43.284578,"lon":5.392187,"is_reserved":false,"is_disabled":false,"rental_uris":{"android":"levelo://app?vid=0e9036cf-6310-47e0-94cd-9ea309fd4658","ios":"levelo://app?vid=0e9036cf-6310-47e0-94cd-9ea309fd4658"},"vehicle_type_id":"4","last_reported":1748358714,"current_range_meters":16000,"station_id":"ce4bhoh2rcd13ifvqh5g","pricing_plan_id":"cebpf4jnsgd1na2vs0mg"},{"bike_id":"705c20e7-5c04-4461-b97f-cb383b15bb20","system_id":"levelo_inurba_marseille","lat":43.27316,"lon":5.3908,"is_reserved":false,"is_disabled":false,"rental_uris":{"android":"levelo://app?vid=705c20e7-5c04-4461-b97f-cb383b15bb20","ios":"levelo://app?vid=705c20e7-5c04-4461-b97f-cb383b15bb20"},"vehicle_type_id":"4","last_reported":1748358714,"current_range_meters":13600,"station_id":"ce4bhgp2rcd13ifvqfe0","pricing_plan_id":"cebpf4jnsgd1na2vs0mg"},{"bike_id":"daa8a49f-122c-4d26-bdef-9f4f3e827bca","system_id":"levelo_inurba_marseille","lat":43.28408,"lon":5.35001,"is_reserved":false,"is_disabled":false,"rental_uris":{"android":"levelo://app?vid=daa8a49f-122c-4d26-bdef-9f4f3e827bca","ios":"levelo://app?vid=daa8a49f-122c-4d26-bdef-9f4f3e827bca"},"vehicle_type_id":"4","last_reported":1748358714,"current_range_meters":14000,"station_id":"ce4bhbh2rcd13ifvqepg","pricing_plan_id":"cebpf4jnsgd1na2vs0mg"},{"bike_id":"e572f301-b2c7-42f5-af5c-379ca5457f2b","system_id":"levelo_inurba_marseille","lat":43.22964,"lon":5.35386,"is_reserved":false,"is_disabled":false,"rental_uris":{"android":"levelo://app?vid=e572f301-b2c7-42f5-af5c-379ca5457f2b","ios":"levelo://app?vid=e572f301-b2c7-42f5-af5c-379ca5457f2b"},"vehicle_type_id":"4","last_reported":1748358714,"current_range_meters":14400,"station_id":"cpo3532slgdg3j2ikp40","pricing_plan_id":"cebpf4jnsgd1na2vs0mg"},{"bike_id":"ec645909-9b19-40c5-b098-5cf5b712fbb0","system_id":"levelo_inurba_marseille","lat":43.29064,"lon":5.37159,"is_reserved":false,"is_disabled":false,"rental_uris":{"android":"levelo://app?vid=ec645909-9b19-40c5-b098-5cf5b712fbb0","ios":"levelo://app?vid=ec645909-9b19-40c5-b098-5cf5b712fbb0"},"vehicle_type_id":"4","last_reported":1748358714,"current_range_meters":14400,"station_id":"ce4bh5p2rcd13ifvqe4g","pricing_plan_id":"cebpf4jnsgd1na2vs0mg"},{"bike_id":"f4f5e5ff-3a97-43b4-8355-6ed5a833beb9","system_id":"levelo_inurba_marseille","lat":43.29016,"lon":5.38128,"is_reserved":false,"is_disabled":false,"rental_uris":{"android":"levelo://app?vid=f4f5e5ff-3a97-43b4-8355-6ed5a833beb9","ios":"levelo://app?vid=f4f5e5ff-3a97-43b4-8355-6ed5a833beb9"},"vehicle_type_id":"4","last_reported":1748358714,"current_range_meters":14400,"station_id":"ce4bh4p2rcd13ifvqe1g","pricing_plan_id":"cebpf4jnsgd1na2vs0mg"},{"bike_id":"1d763b1b-89c2-4e2e-8dc7-43ef2a963ccf","system_id":"levelo_inurba_marseille","lat":43.28263,"lon":5.35072,"is_reserved":false,"is_disabled":false,"rental_uris":{"android":"levelo://app?vid=1d763b1b-89c2-4e2e-8dc7-43ef2a963ccf","ios":"levelo://app?vid=1d763b1b-89c2-4e2e-8dc7-43ef2a963ccf"},"vehicle_type_id":"4","last_reported":1748358714,"current_range_meters":14400,"station_id":"ce4bhbp2rcd13ifvqerg","pricing_plan_id":"cebpf4jnsgd1na2vs0mg"},{"bike_id":"8b8f4ddc-5f2d-41ad-9613-91a528fd4361","system_id":"levelo_inurba_marseille","lat":43.22954,"lon":5.35388,"is_reserved":false,"is_disabled":false,"rental_uris":{"android":"levelo://app?vid=8b8f4ddc-5f2d-41ad-9613-91a528fd4361","ios":"levelo://app?vid=8b8f4ddc-5f2d-41ad-9613-91a528fd4361"},"vehicle_type_id":"4","last_reported":1748358714,"current_range_meters":14400,"station_id":"cpo3532slgdg3j2ikp40","pricing_plan_id":"cebpf4jnsgd1na2vs0mg"},{"bike_id":"b294dae3-da1f-442e-af34-3c338c9366fe","system_id":"levelo_inurba_marseille","lat":43.31486,"lon":5.37305,"is_reserved":false,"is_disabled":false,"rental_uris":{"android":"levelo://app?vid=b294dae3-da1f-442e-af34-3c338c9366fe","ios":"levelo://app?vid=b294dae3-da1f-442e-af34-3c338c9366fe"},"vehicle_type_id":"4","last_reported":1748358714,"current_range_meters":14400,"station_id":"ce4bgt12rcd13ifvqcd0","pricing_plan_id":"cebpf4jnsgd1na2vs0mg"},{"bike_id":"4a2c2589-110e-4284-bf24-35c60fb94be5","system_id":"levelo_inurba_marseille","lat":43.301079,"lon":5.387558,"is_reserved":false,"is_disabled":false,"rental_uris":{"android":"levelo://app?vid=4a2c2589-110e-4284-bf24-35c60fb94be5","ios":"levelo://app?vid=4a2c2589-110e-4284-bf24-35c60fb94be5"},"vehicle_type_id":"4","last_reported":1748358714,"current_range_meters":14000,"station_id":"ce4bgkh2rcd13ifvqbk0","pricing_plan_id":"cebpf4jnsgd1na2vs0mg"},{"bike_id":"1283d5d0-9e0d-4850-8b72-ab85b9059004","system_id":"levelo_inurba_marseille","lat":43.281525,"lon":5.42644,"is_reserved":false,"is_disabled":false,"rental_uris":{"android":"levelo://app?vid=1283d5d0-9e0d-4850-8b72-ab85b9059004","ios":"levelo://app?vid=1283d5d0-9e0d-4850-8b72-ab85b9059004"},"vehicle_type_id":"4","last_reported":1748358714,"current_range_meters":14400,"station_id":"ce4bhnh2rcd13ifvqgug","pricing_plan_id":"cebpf4jnsgd1na2vs0mg"},{"bike_id":"a84b7f4f-5334-4e26-a49d-24c8c3e6ca69","system_id":"levelo_inurba_marseille","lat":43.284712,"lon":5.391623,"is_reserved":false,"is_disabled":false,"rental_uris":{"android":"levelo://app?vid=a84b7f4f-5334-4e26-a49d-24c8c3e6ca69","ios":"levelo://app?vid=a84b7f4f-5334-4e26-a49d-24c8c3e6ca69"},"vehicle_type_id":"4","last_reported":1748358714,"current_range_meters":14800,"station_id":"ce4bhoh2rcd13ifvqh5g","pricing_plan_id":"cebpf4jnsgd1na2vs0mg"},{"bike_id":"cc391400-7d4c-4261-8004-e9968eddac7e","system_id":"levelo_inurba_marseille","lat":43.29032,"lon":5.37556,"is_reserved":false,"is_disabled":true,"rental_uris":{"android":"levelo://app?vid=cc391400-7d4c-4261-8004-e9968eddac7e","ios":"levelo://app?vid=cc391400-7d4c-4261-8004-e9968eddac7e"},"vehicle_type_id":"4","last_reported":1748358714,"current_range_meters":14800,"station_id":"ce4bh692rcd13ifvqe90","pricing_plan_id":"cebpf4jnsgd1na2vs0mg"},{"bike_id":"b2e6a5cb-5d25-49c7-83fc-64039b941072","system_id":"levelo_inurba_marseille","lat":43.28622,"lon":5.35102,"is_reserved":false,"is_disabled":false,"rental_uris":{"android":"levelo://app?vid=b2e6a5cb-5d25-49c7-83fc-64039b941072","ios":"levelo://app?vid=b2e6a5cb-5d25-49c7-83fc-64039b941072"},"vehicle_type_id":"4","last_reported":1748358714,"current_range_meters":14800,"station_id":"ce4bhch2rcd13ifvqeug","pricing_plan_id":"cebpf4jnsgd1na2vs0mg"},{"bike_id":"6aa2dc5e-d7c6-47b6-a9e4-61c53ff881c4","system_id":"levelo_inurba_marseille","lat":43.27972,"lon":5.38748,"is_reserved":false,"is_disabled":false,"rental_uris":{"android":"levelo://app?vid=6aa2dc5e-d7c6-47b6-a9e4-61c53ff881c4","ios":"levelo://app?vid=6aa2dc5e-d7c6-47b6-a9e4-61c53ff881c4"},"vehicle_type_id":"4","last_reported":1748358714,"current_range_meters":14800,"station_id":"ce4bhg12rcd13ifvqf80","pricing_plan_id":"cebpf4jnsgd1na2vs0mg"},{"bike_id":"69ac8acb-6816-4e3d-b61e-e01a1548e4df","system_id":"levelo_inurba_marseille","lat":43.231594,"lon":5.437542,"is_reserved":false,"is_disabled":false,"rental_uris":{"android":"levelo://app?vid=69ac8acb-6816-4e3d-b61e-e01a1548e4df","ios":"levelo://app?vid=69ac8acb-6816-4e3d-b61e-e01a1548e4df"},"vehicle_type_id":"4","last_reported":1748358714,"current_range_meters":14800,"station_id":"ce4bhmp2rcd13ifvqgog","pricing_plan_id":"cebpf4jnsgd1na2vs0mg"},{"bike_id":"98612e91-e5f4-4e0f-880a-a4a35bda7ea1","system_id":"levelo_inurba_marseille","lat":43.31482,"lon":5.3731,"is_reserved":false,"is_disabled":false,"rental_uris":{"android":"levelo://app?vid=98612e91-e5f4-4e0f-880a-a4a35bda7ea1","ios":"levelo://app?vid=98612e91-e5f4-4e0f-880a-a4a35bda7ea1"},"vehicle_type_id":"4","last_reported":1748358714,"current_range_meters":14800,"station_id":"ce4bgt12rcd13ifvqcd0","pricing_plan_id":"cebpf4jnsgd1na2vs0mg"},{"bike_id":"fe885166-e704-4450-ad4d-cb7b1b3aa6c7","system_id":"levelo_inurba_marseille","lat":43.2842,"lon":5.35005,"is_reserved":false,"is_disabled":false,"rental_uris":{"android":"levelo://app?vid=fe885166-e704-4450-ad4d-cb7b1b3aa6c7","ios":"levelo://app?vid=fe885166-e704-4450-ad4d-cb7b1b3aa6c7"},"vehicle_type_id":"4","last_reported":1748358714,"current_range_meters":14800,"station_id":"ce4bhbh2rcd13ifvqepg","pricing_plan_id":"cebpf4jnsgd1na2vs0mg"},{"bike_id":"b9feece3-8db7-4d9c-b5c4-3d592ac61b90","system_id":"levelo_inurba_marseille","lat":43.291848,"lon":5.358085,"is_reserved":false,"is_disabled":false,"rental_uris":{"android":"levelo://app?vid=b9feece3-8db7-4d9c-b5c4-3d592ac61b90","ios":"levelo://app?vid=b9feece3-8db7-4d9c-b5c4-3d592ac61b90"},"vehicle_type_id":"4","last_reported":1748358714,"current_range_meters":14800,"station_id":"","pricing_plan_id":"cebpf4jnsgd1na2vs0mg"},{"bike_id":"027996d9-c458-4fe9-9def-7a537508c67a","system_id":"levelo_inurba_marseille","lat":43.26543,"lon":5.373,"is_reserved":false,"is_disabled":false,"rental_uris":{"android":"levelo://app?vid=027996d9-c458-4fe9-9def-7a537508c67a","ios":"levelo://app?vid=027996d9-c458-4fe9-9def-7a537508c67a"},"vehicle_type_id":"4","last_reported":1748358714,"current_range_meters":15200,"station_id":"ce4bhg12rcd13ifvqf70","pricing_plan_id":"cebpf4jnsgd1na2vs0mg"},{"bike_id":"123c932d-d4ea-49b0-b7f4-21f61550f411","system_id":"levelo_inurba_marseille","lat":43.24645,"lon":5.38891,"is_reserved":false,"is_disabled":false,"rental_uris":{"android":"levelo://app?vid=123c932d-d4ea-49b0-b7f4-21f61550f411","ios":"levelo://app?vid=123c932d-d4ea-49b0-b7f4-21f61550f411"},"vehicle_type_id":"4","last_reported":1748358714,"current_range_meters":14000,"station_id":"ce4bhg12rcd13ifvqf60","pricing_plan_id":"cebpf4jnsgd1na2vs0mg"},{"bike_id":"e823f0aa-87c8-42b6-807e-fdea56928c8e","system_id":"levelo_inurba_marseille","lat":43.31225,"lon":5.36863,"is_reserved":false,"is_disabled":false,"rental_uris":{"android":"levelo://app?vid=e823f0aa-87c8-42b6-807e-fdea56928c8e","ios":"levelo://app?vid=e823f0aa-87c8-42b6-807e-fdea56928c8e"},"vehicle_type_id":"4","last_reported":1748358714,"current_range_meters":15200,"station_id":"ce4bgl92rcd13ifvqbq0","pricing_plan_id":"cebpf4jnsgd1na2vs0mg"},{"bike_id":"3c73aa17-48bd-49a5-921a-9cae87e51845","system_id":"levelo_inurba_marseille","lat":43.29023,"lon":5.38141,"is_reserved":false,"is_disabled":false,"rental_uris":{"android":"levelo://app?vid=3c73aa17-48bd-49a5-921a-9cae87e51845","ios":"levelo://app?vid=3c73aa17-48bd-49a5-921a-9cae87e51845"},"vehicle_type_id":"4","last_reported":1748358714,"current_range_meters":12400,"station_id":"ce4bh4p2rcd13ifvqe1g","pricing_plan_id":"cebpf4jnsgd1na2vs0mg"},{"bike_id":"69c0fd55-cd72-4f90-a33e-0ecbe62d3f06","system_id":"levelo_inurba_marseille","lat":43.28398,"lon":5.34988,"is_reserved":false,"is_disabled":false,"rental_uris":{"android":"levelo://app?vid=69c0fd55-cd72-4f90-a33e-0ecbe62d3f06","ios":"levelo://app?vid=69c0fd55-cd72-4f90-a33e-0ecbe62d3f06"},"vehicle_type_id":"4","last_reported":1748358714,"current_range_meters":16000,"station_id":"ce4bhbh2rcd13ifvqepg","pricing_plan_id":"cebpf4jnsgd1na2vs0mg"},{"bike_id":"5a621852-4b0d-47fa-9514-efb82e08741c","system_id":"levelo_inurba_marseille","lat":43.2119,"lon":5.3509,"is_reserved":false,"is_disabled":true,"rental_uris":{"android":"levelo://app?vid=5a621852-4b0d-47fa-9514-efb82e08741c","ios":"levelo://app?vid=5a621852-4b0d-47fa-9514-efb82e08741c"},"vehicle_type_id":"4","last_reported":1748358714,"current_range_meters":16000,"station_id":"","pricing_plan_id":"cebpf4jnsgd1na2vs0mg"},{"bike_id":"7418faf9-7bcd-4f11-a2e7-958064c6eb67","system_id":"levelo_inurba_marseille","lat":43.30157,"lon":5.37418,"is_reserved":false,"is_disabled":false,"rental_uris":{"android":"levelo://app?vid=7418faf9-7bcd-4f11-a2e7-958064c6eb67","ios":"levelo://app?vid=7418faf9-7bcd-4f11-a2e7-958064c6eb67"},"vehicle_type_id":"4","last_reported":1748358714,"current_range_meters":16000,"station_id":"ce4bgs92rcd13ifvqcc0","pricing_plan_id":"cebpf4jnsgd1na2vs0mg"},{"bike_id":"91b31cdb-c9d6-44d8-b1d9-19aac280757d","system_id":"levelo_inurba_marseille","lat":43.297277,"lon":5.376853,"is_reserved":false,"is_disabled":false,"rental_uris":{"android":"levelo://app?vid=91b31cdb-c9d6-44d8-b1d9-19aac280757d","ios":"levelo://app?vid=91b31cdb-c9d6-44d8-b1d9-19aac280757d"},"vehicle_type_id":"4","last_reported":1748358714,"current_range_meters":16000,"station_id":"ce4bgh92rcd13ifvqb50","pricing_plan_id":"cebpf4jnsgd1na2vs0mg"},{"bike_id":"42d53f6c-06bb-429f-b0b0-1252e0903514","system_id":"levelo_inurba_marseille","lat":43.28254,"lon":5.35074,"is_reserved":false,"is_disabled":false,"rental_uris":{"android":"levelo://app?vid=42d53f6c-06bb-429f-b0b0-1252e0903514","ios":"levelo://app?vid=42d53f6c-06bb-429f-b0b0-1252e0903514"},"vehicle_type_id":"4","last_reported":1748358714,"current_range_meters":16000,"station_id":"ce4bhbp2rcd13ifvqerg","pricing_plan_id":"cebpf4jnsgd1na2vs0mg"},{"bike_id":"008ae3c2-2ed7-4244-bd17-353b0b923514","system_id":"levelo_inurba_marseille","lat":43.30579,"lon":5.37187,"is_reserved":false,"is_disabled":false,"rental_uris":{"android":"levelo://app?vid=008ae3c2-2ed7-4244-bd17-353b0b923514","ios":"levelo://app?vid=008ae3c2-2ed7-4244-bd17-353b0b923514"},"vehicle_type_id":"4","last_reported":1748358714,"current_range_meters":16000,"station_id":"ce4bgqh2rcd13ifvqc4g","pricing_plan_id":"cebpf4jnsgd1na2vs0mg"},{"bike_id":"46f1e1a2-421d-4288-9b19-22918bc7cc7f","system_id":"levelo_inurba_marseille","lat":43.231948,"lon":5.355533,"is_reserved":false,"is_disabled":false,"rental_uris":{"android":"levelo://app?vid=46f1e1a2-421d-4288-9b19-22918bc7cc7f","ios":"levelo://app?vid=46f1e1a2-421d-4288-9b19-22918bc7cc7f"},"vehicle_type_id":"4","last_reported":1748358714,"current_range_meters":16000,"station_id":"ce4bhu92rcd13ifvqi70","pricing_plan_id":"cebpf4jnsgd1na2vs0mg"},{"bike_id":"6ebb6dd7-e028-471a-a254-2363923c0cd9","system_id":"levelo_inurba_marseille","lat":43.32102,"lon":5.36763,"is_reserved":false,"is_disabled":false,"rental_uris":{"android":"levelo://app?vid=6ebb6dd7-e028-471a-a254-2363923c0cd9","ios":"levelo://app?vid=6ebb6dd7-e028-471a-a254-2363923c0cd9"},"vehicle_type_id":"4","last_reported":1748358714,"current_range_meters":16000,"station_id":"ce4bhrh2rcd13ifvqhug","pricing_plan_id":"cebpf4jnsgd1na2vs0mg"},{"bike_id":"0f790c29-6cd2-4800-9ba7-13fbe6d8d442","system_id":"levelo_inurba_marseille","lat":43.32366,"lon":5.38887,"is_reserved":false,"is_disabled":false,"rental_uris":{"android":"levelo://app?vid=0f790c29-6cd2-4800-9ba7-13fbe6d8d442","ios":"levelo://app?vid=0f790c29-6cd2-4800-9ba7-13fbe6d8d442"},"vehicle_type_id":"4","last_reported":1748358714,"current_range_meters":16000,"station_id":"ce4bhqp2rcd13ifvqhog","pricing_plan_id":"cebpf4jnsgd1na2vs0mg"},{"bike_id":"b87aac56-5d07-4480-a589-3b33f7758cbc","system_id":"levelo_inurba_marseille","lat":43.28613,"lon":5.35087,"is_reserved":false,"is_disabled":false,"rental_uris":{"android":"levelo://app?vid=b87aac56-5d07-4480-a589-3b33f7758cbc","ios":"levelo://app?vid=b87aac56-5d07-4480-a589-3b33f7758cbc"},"vehicle_type_id":"4","last_reported":1748358714,"current_range_meters":16000,"station_id":"ce4bhch2rcd13ifvqeug","pricing_plan_id":"cebpf4jnsgd1na2vs0mg"},{"bike_id":"83c16b89-5ad5-491c-adc7-735bf60ad651","system_id":"levelo_inurba_marseille","lat":43.22928,"lon":5.35377,"is_reserved":false,"is_disabled":false,"rental_uris":{"android":"levelo://app?vid=83c16b89-5ad5-491c-adc7-735bf60ad651","ios":"levelo://app?vid=83c16b89-5ad5-491c-adc7-735bf60ad651"},"vehicle_type_id":"4","last_reported":1748358714,"current_range_meters":16000,"station_id":"cpo3532slgdg3j2ikp40","pricing_plan_id":"cebpf4jnsgd1na2vs0mg"},{"bike_id":"7d644362-2701-4137-aac7-822704820d27","system_id":"levelo_inurba_marseille","lat":43.31752,"lon":5.39023,"is_reserved":false,"is_disabled":true,"rental_uris":{"android":"levelo://app?vid=7d644362-2701-4137-aac7-822704820d27","ios":"levelo://app?vid=7d644362-2701-4137-aac7-822704820d27"},"vehicle_type_id":"4","last_reported":1748358714,"current_range_meters":16000,"station_id":"ce4bhqp2rcd13ifvqhng","pricing_plan_id":"cebpf4jnsgd1na2vs0mg"},{"bike_id":"88c335cf-bfd1-491d-b3bc-89dd2eec37b1","system_id":"levelo_inurba_marseille","lat":43.28613,"lon":5.35103,"is_reserved":false,"is_disabled":false,"rental_uris":{"android":"levelo://app?vid=88c335cf-bfd1-491d-b3bc-89dd2eec37b1","ios":"levelo://app?vid=88c335cf-bfd1-491d-b3bc-89dd2eec37b1"},"vehicle_type_id":"4","last_reported":1748358714,"current_range_meters":12000,"station_id":"ce4bhch2rcd13ifvqeug","pricing_plan_id":"cebpf4jnsgd1na2vs0mg"},{"bike_id":"a199a483-40d4-4321-a5cf-52c860074d36","system_id":"levelo_inurba_marseille","lat":43.23185,"lon":5.39987,"is_reserved":false,"is_disabled":false,"rental_uris":{"android":"levelo://app?vid=a199a483-40d4-4321-a5cf-52c860074d36","ios":"levelo://app?vid=a199a483-40d4-4321-a5cf-52c860074d36"},"vehicle_type_id":"4","last_reported":1748358714,"current_range_meters":16400,"station_id":"ce4bhn12rcd13ifvqgqg","pricing_plan_id":"cebpf4jnsgd1na2vs0mg"},{"bike_id":"d78c6a91-5004-4eb9-a96f-e0d2672ae9fb","system_id":"levelo_inurba_marseille","lat":43.28411,"lon":5.34986,"is_reserved":false,"is_disabled":false,"rental_uris":{"android":"levelo://app?vid=d78c6a91-5004-4eb9-a96f-e0d2672ae9fb","ios":"levelo://app?vid=d78c6a91-5004-4eb9-a96f-e0d2672ae9fb"},"vehicle_type_id":"4","last_reported":1748358714,"current_range_meters":16400,"station_id":"ce4bhbh2rcd13ifvqepg","pricing_plan_id":"cebpf4jnsgd1na2vs0mg"},{"bike_id":"74bc4511-97e4-4ec9-89f3-585df783af93","system_id":"levelo_inurba_marseille","lat":43.2841,"lon":5.34982,"is_reserved":false,"is_disabled":false,"rental_uris":{"android":"levelo://app?vid=74bc4511-97e4-4ec9-89f3-585df783af93","ios":"levelo://app?vid=74bc4511-97e4-4ec9-89f3-585df783af93"},"vehicle_type_id":"4","last_reported":1748358714,"current_range_meters":16400,"station_id":"ce4bhbh2rcd13ifvqepg","pricing_plan_id":"cebpf4jnsgd1na2vs0mg"},{"bike_id":"4eb67d38-fc5c-4252-b077-a80464f0020a","system_id":"levelo_inurba_marseille","lat":43.30556,"lon":5.36527,"is_reserved":false,"is_disabled":false,"rental_uris":{"android":"levelo://app?vid=4eb67d38-fc5c-4252-b077-a80464f0020a","ios":"levelo://app?vid=4eb67d38-fc5c-4252-b077-a80464f0020a"},"vehicle_type_id":"4","last_reported":1748358714,"current_range_meters":16400,"station_id":"ce4bgs12rcd13ifvqcag","pricing_plan_id":"cebpf4jnsgd1na2vs0mg"},{"bike_id":"1041dd6a-42dd-4b2d-a6f1-6f4ba3e50753","system_id":"levelo_inurba_marseille","lat":43.24081,"lon":5.37752,"is_reserved":false,"is_disabled":false,"rental_uris":{"android":"levelo://app?vid=1041dd6a-42dd-4b2d-a6f1-6f4ba3e50753","ios":"levelo://app?vid=1041dd6a-42dd-4b2d-a6f1-6f4ba3e50753"},"vehicle_type_id":"4","last_reported":1748358714,"current_range_meters":16400,"station_id":"ce4bhnp2rcd13ifvqgvg","pricing_plan_id":"cebpf4jnsgd1na2vs0mg"},{"bike_id":"e8264270-6e82-48a0-9de5-a3f73f59db95","system_id":"levelo_inurba_marseille","lat":43.23199,"lon":5.40027,"is_reserved":false,"is_disabled":false,"rental_uris":{"android":"levelo://app?vid=e8264270-6e82-48a0-9de5-a3f73f59db95","ios":"levelo://app?vid=e8264270-6e82-48a0-9de5-a3f73f59db95"},"vehicle_type_id":"4","last_reported":1748358714,"current_range_meters":16400,"station_id":"ce4bhn12rcd13ifvqgqg","pricing_plan_id":"cebpf4jnsgd1na2vs0mg"},{"bike_id":"134c70cc-46f1-414c-ba60-b99ba2b4a992","system_id":"levelo_inurba_marseille","lat":43.348152,"lon":5.35114,"is_reserved":false,"is_disabled":false,"rental_uris":{"android":"levelo://app?vid=134c70cc-46f1-414c-ba60-b99ba2b4a992","ios":"levelo://app?vid=134c70cc-46f1-414c-ba60-b99ba2b4a992"},"vehicle_type_id":"4","last_reported":1748358714,"current_range_meters":16400,"station_id":"","pricing_plan_id":"cebpf4jnsgd1na2vs0mg"},{"bike_id":"57b93429-ead7-474a-9118-46311b07448d","system_id":"levelo_inurba_marseille","lat":43.307748,"lon":5.36859,"is_reserved":false,"is_disabled":false,"rental_uris":{"android":"levelo://app?vid=57b93429-ead7-474a-9118-46311b07448d","ios":"levelo://app?vid=57b93429-ead7-474a-9118-46311b07448d"},"vehicle_type_id":"4","last_reported":1748358714,"current_range_meters":16800,"station_id":"","pricing_plan_id":"cebpf4jnsgd1na2vs0mg"},{"bike_id":"53b5a3f4-731c-4f3e-ae19-9a2d7c970ad3","system_id":"levelo_inurba_marseille","lat":43.312306,"lon":5.368606,"is_reserved":false,"is_disabled":false,"rental_uris":{"android":"levelo://app?vid=53b5a3f4-731c-4f3e-ae19-9a2d7c970ad3","ios":"levelo://app?vid=53b5a3f4-731c-4f3e-ae19-9a2d7c970ad3"},"vehicle_type_id":"4","last_reported":1748358714,"current_range_meters":17200,"station_id":"ce4bgl92rcd13ifvqbq0","pricing_plan_id":"cebpf4jnsgd1na2vs0mg"},{"bike_id":"1dafdf51-656d-4975-819b-79ae74d93918","system_id":"levelo_inurba_marseille","lat":43.231581,"lon":5.436906,"is_reserved":false,"is_disabled":false,"rental_uris":{"android":"levelo://app?vid=1dafdf51-656d-4975-819b-79ae74d93918","ios":"levelo://app?vid=1dafdf51-656d-4975-819b-79ae74d93918"},"vehicle_type_id":"4","last_reported":1748358714,"current_range_meters":16800,"station_id":"ce4bhmp2rcd13ifvqgog","pricing_plan_id":"cebpf4jnsgd1na2vs0mg"},{"bike_id":"ced453e5-b753-4976-93c6-86d0102c9c75","system_id":"levelo_inurba_marseille","lat":43.30608,"lon":5.37225,"is_reserved":false,"is_disabled":false,"rental_uris":{"android":"levelo://app?vid=ced453e5-b753-4976-93c6-86d0102c9c75","ios":"levelo://app?vid=ced453e5-b753-4976-93c6-86d0102c9c75"},"vehicle_type_id":"4","last_reported":1748358714,"current_range_meters":16800,"station_id":"ce4bgqh2rcd13ifvqc4g","pricing_plan_id":"cebpf4jnsgd1na2vs0mg"},{"bike_id":"3f2c7110-8b4b-44cc-b182-ca6e2f6a2ede","system_id":"levelo_inurba_marseille","lat":43.28403,"lon":5.37514,"is_reserved":false,"is_disabled":false,"rental_uris":{"android":"levelo://app?vid=3f2c7110-8b4b-44cc-b182-ca6e2f6a2ede","ios":"levelo://app?vid=3f2c7110-8b4b-44cc-b182-ca6e2f6a2ede"},"vehicle_type_id":"4","last_reported":1748358714,"current_range_meters":16800,"station_id":"ce4bh412rcd13ifvqds0","pricing_plan_id":"cebpf4jnsgd1na2vs0mg"},{"bike_id":"98cbf70d-d9f6-4b71-bf03-63425172bed7","system_id":"levelo_inurba_marseille","lat":43.231481,"lon":5.437184,"is_reserved":false,"is_disabled":false,"rental_uris":{"android":"levelo://app?vid=98cbf70d-d9f6-4b71-bf03-63425172bed7","ios":"levelo://app?vid=98cbf70d-d9f6-4b71-bf03-63425172bed7"},"vehicle_type_id":"4","last_reported":1748358714,"current_range_meters":16800,"station_id":"ce4bhmp2rcd13ifvqgog","pricing_plan_id":"cebpf4jnsgd1na2vs0mg"},{"bike_id":"201cf2e0-3ad7-434e-ae9d-4b54c875f13b","system_id":"levelo_inurba_marseille","lat":43.29873,"lon":5.38903,"is_reserved":false,"is_disabled":false,"rental_uris":{"android":"levelo://app?vid=201cf2e0-3ad7-434e-ae9d-4b54c875f13b","ios":"levelo://app?vid=201cf2e0-3ad7-434e-ae9d-4b54c875f13b"},"vehicle_type_id":"4","last_reported":1748358714,"current_range_meters":16800,"station_id":"ce4bh392rcd13ifvqdl0","pricing_plan_id":"cebpf4jnsgd1na2vs0mg"},{"bike_id":"be37863b-0147-401e-8469-1e478957546d","system_id":"levelo_inurba_marseille","lat":43.27838,"lon":5.39214,"is_reserved":false,"is_disabled":false,"rental_uris":{"android":"levelo://app?vid=be37863b-0147-401e-8469-1e478957546d","ios":"levelo://app?vid=be37863b-0147-401e-8469-1e478957546d"},"vehicle_type_id":"4","last_reported":1748358714,"current_range_meters":16800,"station_id":"ce4bhjp2rcd13ifvqga0","pricing_plan_id":"cebpf4jnsgd1na2vs0mg"},{"bike_id":"745ce825-e64d-4083-b00d-727882fc7390","system_id":"levelo_inurba_marseille","lat":43.26205,"lon":5.37449,"is_reserved":false,"is_disabled":false,"rental_uris":{"android":"levelo://app?vid=745ce825-e64d-4083-b00d-727882fc7390","ios":"levelo://app?vid=745ce825-e64d-4083-b00d-727882fc7390"},"vehicle_type_id":"4","last_reported":1748358714,"current_range_meters":17200,"station_id":"ce4bhgp2rcd13ifvqfc0","pricing_plan_id":"cebpf4jnsgd1na2vs0mg"},{"bike_id":"329a6f0a-1f73-4e11-92f5-cd0525da8dd9","system_id":"levelo_inurba_marseille","lat":43.30156,"lon":5.37467,"is_reserved":false,"is_disabled":false,"rental_uris":{"android":"levelo://app?vid=329a6f0a-1f73-4e11-92f5-cd0525da8dd9","ios":"levelo://app?vid=329a6f0a-1f73-4e11-92f5-cd0525da8dd9"},"vehicle_type_id":"4","last_reported":1748358714,"current_range_meters":17200,"station_id":"ce4bgs92rcd13ifvqcc0","pricing_plan_id":"cebpf4jnsgd1na2vs0mg"},{"bike_id":"a0db8c74-13bb-40ab-8372-c15237e06a6e","system_id":"levelo_inurba_marseille","lat":43.29266,"lon":5.38432,"is_reserved":false,"is_disabled":false,"rental_uris":{"android":"levelo://app?vid=a0db8c74-13bb-40ab-8372-c15237e06a6e","ios":"levelo://app?vid=a0db8c74-13bb-40ab-8372-c15237e06a6e"},"vehicle_type_id":"4","last_reported":1748358714,"current_range_meters":17200,"station_id":"ce4bh692rcd13ifvqea0","pricing_plan_id":"cebpf4jnsgd1na2vs0mg"},{"bike_id":"81cf4efc-adba-4107-8061-1f7786f57dd3","system_id":"levelo_inurba_marseille","lat":43.28265,"lon":5.35074,"is_reserved":false,"is_disabled":false,"rental_uris":{"android":"levelo://app?vid=81cf4efc-adba-4107-8061-1f7786f57dd3","ios":"levelo://app?vid=81cf4efc-adba-4107-8061-1f7786f57dd3"},"vehicle_type_id":"4","last_reported":1748358714,"current_range_meters":17200,"station_id":"ce4bhbp2rcd13ifvqerg","pricing_plan_id":"cebpf4jnsgd1na2vs0mg"},{"bike_id":"55ea50a0-faa8-42b0-812e-aa23d1b50f58","system_id":"levelo_inurba_marseille","lat":43.284088,"lon":5.349776,"is_reserved":false,"is_disabled":false,"rental_uris":{"android":"levelo://app?vid=55ea50a0-faa8-42b0-812e-aa23d1b50f58","ios":"levelo://app?vid=55ea50a0-faa8-42b0-812e-aa23d1b50f58"},"vehicle_type_id":"4","last_reported":1748358714,"current_range_meters":17200,"station_id":"ce4bhbh2rcd13ifvqepg","pricing_plan_id":"cebpf4jnsgd1na2vs0mg"},{"bike_id":"a33cfaf9-8d11-4b08-a8d4-ae7cacd298ad","system_id":"levelo_inurba_marseille","lat":43.26968,"lon":5.40231,"is_reserved":false,"is_disabled":false,"rental_uris":{"android":"levelo://app?vid=a33cfaf9-8d11-4b08-a8d4-ae7cacd298ad","ios":"levelo://app?vid=a33cfaf9-8d11-4b08-a8d4-ae7cacd298ad"},"vehicle_type_id":"4","last_reported":1748358714,"current_range_meters":17600,"station_id":"cjm6bp8fraef2m0cb0m0","pricing_plan_id":"cebpf4jnsgd1na2vs0mg"},{"bike_id":"799d75e0-088b-4441-bd94-28f251fa8a3d","system_id":"levelo_inurba_marseille","lat":43.231503,"lon":5.437289,"is_reserved":false,"is_disabled":false,"rental_uris":{"android":"levelo://app?vid=799d75e0-088b-4441-bd94-28f251fa8a3d","ios":"levelo://app?vid=799d75e0-088b-4441-bd94-28f251fa8a3d"},"vehicle_type_id":"4","last_reported":1748358714,"current_range_meters":17600,"station_id":"ce4bhmp2rcd13ifvqgog","pricing_plan_id":"cebpf4jnsgd1na2vs0mg"},{"bike_id":"694826cd-19a1-499c-af7c-83a7fd9a0111","system_id":"levelo_inurba_marseille","lat":43.286257,"lon":5.351179,"is_reserved":false,"is_disabled":false,"rental_uris":{"android":"levelo://app?vid=694826cd-19a1-499c-af7c-83a7fd9a0111","ios":"levelo://app?vid=694826cd-19a1-499c-af7c-83a7fd9a0111"},"vehicle_type_id":"4","last_reported":1748358714,"current_range_meters":17600,"station_id":"ce4bhch2rcd13ifvqeug","pricing_plan_id":"cebpf4jnsgd1na2vs0mg"},{"bike_id":"f2fc1692-01b9-4b02-8b2c-252289992f8e","system_id":"levelo_inurba_marseille","lat":43.28446,"lon":5.35029,"is_reserved":false,"is_disabled":false,"rental_uris":{"android":"levelo://app?vid=f2fc1692-01b9-4b02-8b2c-252289992f8e","ios":"levelo://app?vid=f2fc1692-01b9-4b02-8b2c-252289992f8e"},"vehicle_type_id":"4","last_reported":1748358714,"current_range_meters":17600,"station_id":"","pricing_plan_id":"cebpf4jnsgd1na2vs0mg"},{"bike_id":"d1b04229-5ae5-4d40-af12-6abd6d26145d","system_id":"levelo_inurba_marseille","lat":43.25819,"lon":5.39436,"is_reserved":false,"is_disabled":false,"rental_uris":{"android":"levelo://app?vid=d1b04229-5ae5-4d40-af12-6abd6d26145d","ios":"levelo://app?vid=d1b04229-5ae5-4d40-af12-6abd6d26145d"},"vehicle_type_id":"4","last_reported":1748358714,"current_range_meters":18000,"station_id":"ce4bhip2rcd13ifvqft0","pricing_plan_id":"cebpf4jnsgd1na2vs0mg"},{"bike_id":"ed165672-9d9e-4ba7-ad6d-80d0e9db44ba","system_id":"levelo_inurba_marseille","lat":43.284115,"lon":5.349857,"is_reserved":false,"is_disabled":false,"rental_uris":{"android":"levelo://app?vid=ed165672-9d9e-4ba7-ad6d-80d0e9db44ba","ios":"levelo://app?vid=ed165672-9d9e-4ba7-ad6d-80d0e9db44ba"},"vehicle_type_id":"4","last_reported":1748358714,"current_range_meters":17600,"station_id":"ce4bhbh2rcd13ifvqepg","pricing_plan_id":"cebpf4jnsgd1na2vs0mg"},{"bike_id":"558523db-489c-491f-a891-6c7d29e45af9","system_id":"levelo_inurba_marseille","lat":43.31328,"lon":5.39698,"is_reserved":false,"is_disabled":false,"rental_uris":{"android":"levelo://app?vid=558523db-489c-491f-a891-6c7d29e45af9","ios":"levelo://app?vid=558523db-489c-491f-a891-6c7d29e45af9"},"vehicle_type_id":"4","last_reported":1748358714,"current_range_meters":17600,"station_id":"ce4bgvp2rcd13ifvqcu0","pricing_plan_id":"cebpf4jnsgd1na2vs0mg"},{"bike_id":"51d4e892-a069-4021-9c81-6ed4a34f6998","system_id":"levelo_inurba_marseille","lat":43.23219,"lon":5.39999,"is_reserved":false,"is_disabled":false,"rental_uris":{"android":"levelo://app?vid=51d4e892-a069-4021-9c81-6ed4a34f6998","ios":"levelo://app?vid=51d4e892-a069-4021-9c81-6ed4a34f6998"},"vehicle_type_id":"4","last_reported":1748358714,"current_range_meters":17600,"station_id":"ce4bhn12rcd13ifvqgqg","pricing_plan_id":"cebpf4jnsgd1na2vs0mg"},{"bike_id":"5c5f8dbe-91a8-4624-a293-00fcd91368c0","system_id":"levelo_inurba_marseille","lat":43.27422,"lon":5.39411,"is_reserved":false,"is_disabled":false,"rental_uris":{"android":"levelo://app?vid=5c5f8dbe-91a8-4624-a293-00fcd91368c0","ios":"levelo://app?vid=5c5f8dbe-91a8-4624-a293-00fcd91368c0"},"vehicle_type_id":"4","last_reported":1748358714,"current_range_meters":17600,"station_id":"ce4bhdp2rcd13ifvqf20","pricing_plan_id":"cebpf4jnsgd1na2vs0mg"},{"bike_id":"435d1a1f-35a7-45ad-ad6b-fa7767471b2e","system_id":"levelo_inurba_marseille","lat":43.33018,"lon":5.390419,"is_reserved":false,"is_disabled":false,"rental_uris":{"android":"levelo://app?vid=435d1a1f-35a7-45ad-ad6b-fa7767471b2e","ios":"levelo://app?vid=435d1a1f-35a7-45ad-ad6b-fa7767471b2e"},"vehicle_type_id":"4","last_reported":1748358714,"current_range_meters":17600,"station_id":"ce4bhr92rcd13ifvqhrg","pricing_plan_id":"cebpf4jnsgd1na2vs0mg"},{"bike_id":"f48e2a48-a406-414e-81d9-da6cefb63ec5","system_id":"levelo_inurba_marseille","lat":43.31482,"lon":5.37304,"is_reserved":false,"is_disabled":false,"rental_uris":{"android":"levelo://app?vid=f48e2a48-a406-414e-81d9-da6cefb63ec5","ios":"levelo://app?vid=f48e2a48-a406-414e-81d9-da6cefb63ec5"},"vehicle_type_id":"4","last_reported":1748358714,"current_range_meters":18000,"station_id":"ce4bgt12rcd13ifvqcd0","pricing_plan_id":"cebpf4jnsgd1na2vs0mg"},{"bike_id":"fef54560-e002-42dc-baed-4c468890c451","system_id":"levelo_inurba_marseille","lat":43.31472,"lon":5.37249,"is_reserved":false,"is_disabled":false,"rental_uris":{"android":"levelo://app?vid=fef54560-e002-42dc-baed-4c468890c451","ios":"levelo://app?vid=fef54560-e002-42dc-baed-4c468890c451"},"vehicle_type_id":"4","last_reported":1748358714,"current_range_meters":18000,"station_id":"","pricing_plan_id":"cebpf4jnsgd1na2vs0mg"},{"bike_id":"11ac0219-364e-46fc-b52b-f715902e2a4f","system_id":"levelo_inurba_marseille","lat":43.28722,"lon":5.36093,"is_reserved":false,"is_disabled":false,"rental_uris":{"android":"levelo://app?vid=11ac0219-364e-46fc-b52b-f715902e2a4f","ios":"levelo://app?vid=11ac0219-364e-46fc-b52b-f715902e2a4f"},"vehicle_type_id":"4","last_reported":1748358714,"current_range_meters":17600,"station_id":"cki0cbj6b192h4jlfktg","pricing_plan_id":"cebpf4jnsgd1na2vs0mg"},{"bike_id":"d4ab6fd8-818f-4646-9717-afba871f8d22","system_id":"levelo_inurba_marseille","lat":43.29519,"lon":5.39403,"is_reserved":false,"is_disabled":false,"rental_uris":{"android":"levelo://app?vid=d4ab6fd8-818f-4646-9717-afba871f8d22","ios":"levelo://app?vid=d4ab6fd8-818f-4646-9717-afba871f8d22"},"vehicle_type_id":"4","last_reported":1748358714,"current_range_meters":18000,"station_id":"ce4bh292rcd13ifvqdf0","pricing_plan_id":"cebpf4jnsgd1na2vs0mg"},{"bike_id":"dde48ba7-14c0-4d94-b0cb-cf6edbcb19b4","system_id":"levelo_inurba_marseille","lat":43.2466,"lon":5.38166,"is_reserved":false,"is_disabled":false,"rental_uris":{"android":"levelo://app?vid=dde48ba7-14c0-4d94-b0cb-cf6edbcb19b4","ios":"levelo://app?vid=dde48ba7-14c0-4d94-b0cb-cf6edbcb19b4"},"vehicle_type_id":"4","last_reported":1748358714,"current_range_meters":18000,"station_id":"ce4bhih2rcd13ifvqfr0","pricing_plan_id":"cebpf4jnsgd1na2vs0mg"},{"bike_id":"159b5b03-b07a-4fa4-b689-6a2ca553228e","system_id":"levelo_inurba_marseille","lat":43.31666,"lon":5.38942,"is_reserved":false,"is_disabled":false,"rental_uris":{"android":"levelo://app?vid=159b5b03-b07a-4fa4-b689-6a2ca553228e","ios":"levelo://app?vid=159b5b03-b07a-4fa4-b689-6a2ca553228e"},"vehicle_type_id":"4","last_reported":1748358714,"current_range_meters":18000,"station_id":"","pricing_plan_id":"cebpf4jnsgd1na2vs0mg"},{"bike_id":"5046fad6-7e56-4b3d-b074-accb7f2f5a2e","system_id":"levelo_inurba_marseille","lat":43.231533,"lon":5.437004,"is_reserved":false,"is_disabled":false,"rental_uris":{"android":"levelo://app?vid=5046fad6-7e56-4b3d-b074-accb7f2f5a2e","ios":"levelo://app?vid=5046fad6-7e56-4b3d-b074-accb7f2f5a2e"},