{"last_updated":1740298280,"ttl":60,"version":"2.2","data":{"bikes":[{"bike_id":"3605db98-8d62-4608-8b9f-d784ee68a047","system_id":"levelo_inurba_marseille","lat":43.2964,"lon":5.38154,"is_reserved":false,"is_disabled":false,"rental_uris":{"android":"levelo://app?vid=3605db98-8d62-4608-8b9f-d784ee68a047","ios":"levelo://app?vid=3605db98-8d62-4608-8b9f-d784ee68a047"},"vehicle_type_id":"4","last_reported":1740298281,"current_range_meters":2800,"station_id":"","pricing_plan_id":"cebpf4jnsgd1na2vs0mg"},{"bike_id":"53dc1046-c8ed-446b-920a-f2dd87fa2ddc","system_id":"levelo_inurba_marseille","lat":43.33019,"lon":5.39038,"is_reserved":false,"is_disabled":false,"rental_uris":{"android":"levelo://app?vid=53dc1046-c8ed-446b-920a-f2dd87fa2ddc","ios":"levelo://app?vid=53dc1046-c8ed-446b-920a-f2dd87fa2ddc"},"vehicle_type_id":"4","last_reported":1740298281,"current_range_meters":3200,"station_id":"ce4bhr92rcd13ifvqhrg","pricing_plan_id":"cebpf4jnsgd1na2vs0mg"},{"bike_id":"54392dcf-9098-4ade-a5f9-07d42853ec29","system_id":"levelo_inurba_marseille","lat":43.23967,"lon":5.36637,"is_reserved":false,"is_disabled":false,"rental_uris":{"android":"levelo://app?vid=54392dcf-9098-4ade-a5f9-07d42853ec29","ios":"levelo://app?vid=54392dcf-9098-4ade-a5f9-07d42853ec29"},"vehicle_type_id":"4","last_reported":1740298281,"current_range_meters":3200,"station_id":"ce4bhi12rcd13ifvqfp0","pricing_plan_id":"cebpf4jnsgd1na2vs0mg"},{"bike_id":"fd10b22e-e2f3-4811-9672-1b449bcd9332","system_id":"levelo_inurba_marseille","lat":43.25857,"lon":5.39913,"is_reserved":false,"is_disabled":false,"rental_uris":{"android":"levelo://app?vid=fd10b22e-e2f3-4811-9672-1b449bcd9332","ios":"levelo://app?vid=fd10b22e-e2f3-4811-9672-1b449bcd9332"},"vehicle_type_id":"4","last_reported":1740298281,"current_range_meters":3600,"station_id":"ce4bhl92rcd13ifvqghg","pricing_plan_id":"cebpf4jnsgd1na2vs0mg"},{"bike_id":"5f7bcbfe-7062-434c-8ba2-e296e063a8c4","system_id":"levelo_inurba_marseille","lat":43.24525,"lon":5.39539,"is_reserved":false,"is_disabled":false,"rental_uris":{"android":"levelo://app?vid=5f7bcbfe-7062-434c-8ba2-e296e063a8c4","ios":"levelo://app?vid=5f7bcbfe-7062-434c-8ba2-e296e063a8c4"},"vehicle_type_id":"4","last_reported":1740298281,"current_range_meters":3600,"station_id":"ce4bhlp2rcd13ifvqgjg","pricing_plan_id":"cebpf4jnsgd1na2vs0mg"},{"bike_id":"af247d9d-0333-4546-a723-1bcdd125ff5d","system_id":"levelo_inurba_marseille","lat":43.26475,"lon":5.40894,"is_reserved":false,"is_disabled":false,"rental_uris":{"android":"levelo://app?vid=af247d9d-0333-4546-a723-1bcdd125ff5d","ios":"levelo://app?vid=af247d9d-0333-4546-a723-1bcdd125ff5d"},"vehicle_type_id":"4","last_reported":1740298281,"current_range_meters":4000,"station_id":"","pricing_plan_id":"cebpf4jnsgd1na2vs0mg"},{"bike_id":"40df8261-ea13-41da-99aa-d29d2fbeea32","system_id":"levelo_inurba_marseille","lat":43.28478,"lon":5.38413,"is_reserved":false,"is_disabled":false,"rental_uris":{"android":"levelo://app?vid=40df8261-ea13-41da-99aa-d29d2fbeea32","ios":"levelo://app?vid=40df8261-ea13-41da-99aa-d29d2fbeea32"},"vehicle_type_id":"4","last_reported":1740298281,"current_range_meters":4000,"station_id":"ce4bh512rcd13ifvqe3g","pricing_plan_id":"cebpf4jnsgd1na2vs0mg"},{"bike_id":"f7621358-b3be-49e4-ae53-d826ca59a485","system_id":"levelo_inurba_marseille","lat":43.2894,"lon":5.36628,"is_reserved":false,"is_disabled":false,"rental_uris":{"android":"levelo://app?vid=f7621358-b3be-49e4-ae53-d826ca59a485","ios":"levelo://app?vid=f7621358-b3be-49e4-ae53-d826ca59a485"},"vehicle_type_id":"4","last_reported":1740298281,"current_range_meters":4400,"station_id":"ce4bhgp2rcd13ifvqfe0","pricing_plan_id":"cebpf4jnsgd1na2vs0mg"},{"bike_id":"e51c8e25-56a7-4fb0-83a7-b128c5e03853","system_id":"levelo_inurba_marseille","lat":43.26552,"lon":5.37292,"is_reserved":false,"is_disabled":false,"rental_uris":{"android":"levelo://app?vid=e51c8e25-56a7-4fb0-83a7-b128c5e03853","ios":"levelo://app?vid=e51c8e25-56a7-4fb0-83a7-b128c5e03853"},"vehicle_type_id":"4","last_reported":1740298281,"current_range_meters":4800,"station_id":"ce4bhg12rcd13ifvqf70","pricing_plan_id":"cebpf4jnsgd1na2vs0mg"},{"bike_id":"c3162490-3949-451a-9874-eb988aee2a7d","system_id":"levelo_inurba_marseille","lat":43.33599,"lon":5.4102,"is_reserved":false,"is_disabled":false,"rental_uris":{"android":"levelo://app?vid=c3162490-3949-451a-9874-eb988aee2a7d","ios":"levelo://app?vid=c3162490-3949-451a-9874-eb988aee2a7d"},"vehicle_type_id":"4","last_reported":1740298281,"current_range_meters":4800,"station_id":"ce4bhqh2rcd13ifvqhmg","pricing_plan_id":"cebpf4jnsgd1na2vs0mg"},{"bike_id":"551296f6-9c25-41a0-8804-ba4f656ebdc2","system_id":"levelo_inurba_marseille","lat":43.23183,"lon":5.39991,"is_reserved":false,"is_disabled":false,"rental_uris":{"android":"levelo://app?vid=551296f6-9c25-41a0-8804-ba4f656ebdc2","ios":"levelo://app?vid=551296f6-9c25-41a0-8804-ba4f656ebdc2"},"vehicle_type_id":"4","last_reported":1740298281,"current_range_meters":4800,"station_id":"ce4bhn12rcd13ifvqgqg","pricing_plan_id":"cebpf4jnsgd1na2vs0mg"},{"bike_id":"91cd9c50-a708-4ca7-8c38-9684716b8855","system_id":"levelo_inurba_marseille","lat":43.33763,"lon":5.37444,"is_reserved":false,"is_disabled":false,"rental_uris":{"android":"levelo://app?vid=91cd9c50-a708-4ca7-8c38-9684716b8855","ios":"levelo://app?vid=91cd9c50-a708-4ca7-8c38-9684716b8855"},"vehicle_type_id":"4","last_reported":1740298281,"current_range_meters":4800,"station_id":"","pricing_plan_id":"cebpf4jnsgd1na2vs0mg"},{"bike_id":"39f1c92e-7379-422f-8383-961a9cb4d1ba","system_id":"levelo_inurba_marseille","lat":43.28683,"lon":5.37447,"is_reserved":false,"is_disabled":false,"rental_uris":{"android":"levelo://app?vid=39f1c92e-7379-422f-8383-961a9cb4d1ba","ios":"levelo://app?vid=39f1c92e-7379-422f-8383-961a9cb4d1ba"},"vehicle_type_id":"4","last_reported":1740298281,"current_range_meters":5600,"station_id":"","pricing_plan_id":"cebpf4jnsgd1na2vs0mg"},{"bike_id":"df165ea4-3f0a-4a44-96d4-1085a6eb7531","system_id":"levelo_inurba_marseille","lat":43.24384,"lon":5.37063,"is_reserved":false,"is_disabled":false,"rental_uris":{"android":"levelo://app?vid=df165ea4-3f0a-4a44-96d4-1085a6eb7531","ios":"levelo://app?vid=df165ea4-3f0a-4a44-96d4-1085a6eb7531"},"vehicle_type_id":"4","last_reported":1740298281,"current_range_meters":5600,"station_id":"ce4bhhh2rcd13ifvqfk0","pricing_plan_id":"cebpf4jnsgd1na2vs0mg"},{"bike_id":"c3c30985-02be-4a13-90af-d702f6922290","system_id":"levelo_inurba_marseille","lat":43.2396,"lon":5.36632,"is_reserved":false,"is_disabled":false,"rental_uris":{"android":"levelo://app?vid=c3c30985-02be-4a13-90af-d702f6922290","ios":"levelo://app?vid=c3c30985-02be-4a13-90af-d702f6922290"},"vehicle_type_id":"4","last_reported":1740298281,"current_range_meters":5600,"station_id":"ce4bhi12rcd13ifvqfp0","pricing_plan_id":"cebpf4jnsgd1na2vs0mg"},{"bike_id":"91817d94-291a-47c9-91fa-831208abfdc7","system_id":"levelo_inurba_marseille","lat":43.23054,"lon":5.35513,"is_reserved":false,"is_disabled":false,"rental_uris":{"android":"levelo://app?vid=91817d94-291a-47c9-91fa-831208abfdc7","ios":"levelo://app?vid=91817d94-291a-47c9-91fa-831208abfdc7"},"vehicle_type_id":"4","last_reported":1740298281,"current_range_meters":5600,"station_id":"cpo3342slgdg3j2ifvpg","pricing_plan_id":"cebpf4jnsgd1na2vs0mg"},{"bike_id":"fa83beb1-2405-4db0-9826-c091cb751783","system_id":"levelo_inurba_marseille","lat":43.25096,"lon":5.40337,"is_reserved":false,"is_disabled":true,"rental_uris":{"android":"levelo://app?vid=fa83beb1-2405-4db0-9826-c091cb751783","ios":"levelo://app?vid=fa83beb1-2405-4db0-9826-c091cb751783"},"vehicle_type_id":"4","last_reported":1740298281,"current_range_meters":5600,"station_id":"ce4bhlh2rcd13ifvqgig","pricing_plan_id":"cebpf4jnsgd1na2vs0mg"},{"bike_id":"df3e86cb-ab3f-42d7-abef-aec5ae629ddf","system_id":"levelo_inurba_marseille","lat":43.25583,"lon":5.38223,"is_reserved":false,"is_disabled":false,"rental_uris":{"android":"levelo://app?vid=df3e86cb-ab3f-42d7-abef-aec5ae629ddf","ios":"levelo://app?vid=df3e86cb-ab3f-42d7-abef-aec5ae629ddf"},"vehicle_type_id":"4","last_reported":1740298281,"current_range_meters":5600,"station_id":"ce4bhih2rcd13ifvqfs0","pricing_plan_id":"cebpf4jnsgd1na2vs0mg"},{"bike_id":"f126b5c1-ac6b-428c-b324-5fd5bdcc9c61","system_id":"levelo_inurba_marseille","lat":43.28715,"lon":5.3998,"is_reserved":false,"is_disabled":false,"rental_uris":{"android":"levelo://app?vid=f126b5c1-ac6b-428c-b324-5fd5bdcc9c61","ios":"levelo://app?vid=f126b5c1-ac6b-428c-b324-5fd5bdcc9c61"},"vehicle_type_id":"4","last_reported":1740298281,"current_range_meters":6000,"station_id":"ce4bho92rcd13ifvqh3g","pricing_plan_id":"cebpf4jnsgd1na2vs0mg"},{"bike_id":"aa1d7723-b0b3-4df2-ae47-21d0329d4073","system_id":"levelo_inurba_marseille","lat":43.2406,"lon":5.37765,"is_reserved":false,"is_disabled":false,"rental_uris":{"android":"levelo://app?vid=aa1d7723-b0b3-4df2-ae47-21d0329d4073","ios":"levelo://app?vid=aa1d7723-b0b3-4df2-ae47-21d0329d4073"},"vehicle_type_id":"4","last_reported":1740298281,"current_range_meters":6000,"station_id":"ce4bhnp2rcd13ifvqgvg","pricing_plan_id":"cebpf4jnsgd1na2vs0mg"},{"bike_id":"c754532a-5e0c-4922-9013-812d41d51b10","system_id":"levelo_inurba_marseille","lat":43.28975,"lon":5.378449,"is_reserved":false,"is_disabled":false,"rental_uris":{"android":"levelo://app?vid=c754532a-5e0c-4922-9013-812d41d51b10","ios":"levelo://app?vid=c754532a-5e0c-4922-9013-812d41d51b10"},"vehicle_type_id":"4","last_reported":1740298281,"current_range_meters":6000,"station_id":"ce4bh9p2rcd13ifvqed0","pricing_plan_id":"cebpf4jnsgd1na2vs0mg"},{"bike_id":"c1ac8ae7-25e2-4da8-8454-419cca3d04d4","system_id":"levelo_inurba_marseille","lat":43.29255,"lon":5.40914,"is_reserved":false,"is_disabled":false,"rental_uris":{"android":"levelo://app?vid=c1ac8ae7-25e2-4da8-8454-419cca3d04d4","ios":"levelo://app?vid=c1ac8ae7-25e2-4da8-8454-419cca3d04d4"},"vehicle_type_id":"4","last_reported":1740298281,"current_range_meters":6000,"station_id":"ce4bh192rcd13ifvqdc0","pricing_plan_id":"cebpf4jnsgd1na2vs0mg"},{"bike_id":"a760c25b-8a2d-434b-8cd7-4ec1f7db14f8","system_id":"levelo_inurba_marseille","lat":43.28605,"lon":5.37077,"is_reserved":false,"is_disabled":false,"rental_uris":{"android":"levelo://app?vid=a760c25b-8a2d-434b-8cd7-4ec1f7db14f8","ios":"levelo://app?vid=a760c25b-8a2d-434b-8cd7-4ec1f7db14f8"},"vehicle_type_id":"4","last_reported":1740298281,"current_range_meters":6000,"station_id":"ce4bht12rcd13ifvqi60","pricing_plan_id":"cebpf4jnsgd1na2vs0mg"},{"bike_id":"fd260b03-d614-4e2c-9b13-5e2eec4c5a47","system_id":"levelo_inurba_marseille","lat":43.25569,"lon":5.38246,"is_reserved":false,"is_disabled":false,"rental_uris":{"android":"levelo://app?vid=fd260b03-d614-4e2c-9b13-5e2eec4c5a47","ios":"levelo://app?vid=fd260b03-d614-4e2c-9b13-5e2eec4c5a47"},"vehicle_type_id":"4","last_reported":1740298281,"current_range_meters":6000,"station_id":"ce4bhih2rcd13ifvqfs0","pricing_plan_id":"cebpf4jnsgd1na2vs0mg"},{"bike_id":"f080cb1f-4034-4a4a-a885-e96d071e2498","system_id":"levelo_inurba_marseille","lat":43.2655,"lon":5.37295,"is_reserved":false,"is_disabled":false,"rental_uris":{"android":"levelo://app?vid=f080cb1f-4034-4a4a-a885-e96d071e2498","ios":"levelo://app?vid=f080cb1f-4034-4a4a-a885-e96d071e2498"},"vehicle_type_id":"4","last_reported":1740298281,"current_range_meters":6000,"station_id":"ce4bhg12rcd13ifvqf70","pricing_plan_id":"cebpf4jnsgd1na2vs0mg"},{"bike_id":"b21bcafc-3648-4add-afdd-26d8e5e06ddf","system_id":"levelo_inurba_marseille","lat":43.3127,"lon":5.40166,"is_reserved":false,"is_disabled":false,"rental_uris":{"android":"levelo://app?vid=b21bcafc-3648-4add-afdd-26d8e5e06ddf","ios":"levelo://app?vid=b21bcafc-3648-4add-afdd-26d8e5e06ddf"},"vehicle_type_id":"4","last_reported":1740298281,"current_range_meters":4000,"station_id":"ce4bh092rcd13ifvqd30","pricing_plan_id":"cebpf4jnsgd1na2vs0mg"},{"bike_id":"6df70355-73df-49e5-bb6c-2ffe1455e6ef","system_id":"levelo_inurba_marseille","lat":43.29249,"lon":5.40185,"is_reserved":false,"is_disabled":false,"rental_uris":{"android":"levelo://app?vid=6df70355-73df-49e5-bb6c-2ffe1455e6ef","ios":"levelo://app?vid=6df70355-73df-49e5-bb6c-2ffe1455e6ef"},"vehicle_type_id":"4","last_reported":1740298281,"current_range_meters":6400,"station_id":"","pricing_plan_id":"cebpf4jnsgd1na2vs0mg"},{"bike_id":"32ebf3b1-e7de-46fa-94cd-5233cba74f35","system_id":"levelo_inurba_marseille","lat":43.29189,"lon":5.39318,"is_reserved":false,"is_disabled":false,"rental_uris":{"android":"levelo://app?vid=32ebf3b1-e7de-46fa-94cd-5233cba74f35","ios":"levelo://app?vid=32ebf3b1-e7de-46fa-94cd-5233cba74f35"},"vehicle_type_id":"4","last_reported":1740298281,"current_range_meters":6400,"station_id":"ce4bh192rcd13ifvqdd0","pricing_plan_id":"cebpf4jnsgd1na2vs0mg"},{"bike_id":"c28b88a6-4142-4efa-946c-e35f3eacfbab","system_id":"levelo_inurba_marseille","lat":43.28607,"lon":5.37072,"is_reserved":false,"is_disabled":false,"rental_uris":{"android":"levelo://app?vid=c28b88a6-4142-4efa-946c-e35f3eacfbab","ios":"levelo://app?vid=c28b88a6-4142-4efa-946c-e35f3eacfbab"},"vehicle_type_id":"4","last_reported":1740298281,"current_range_meters":6400,"station_id":"ce4bht12rcd13ifvqi60","pricing_plan_id":"cebpf4jnsgd1na2vs0mg"},{"bike_id":"098ba318-f0ee-4c81-991e-ba2f5a0cbad4","system_id":"levelo_inurba_marseille","lat":43.27609,"lon":5.3613,"is_reserved":false,"is_disabled":false,"rental_uris":{"android":"levelo://app?vid=098ba318-f0ee-4c81-991e-ba2f5a0cbad4","ios":"levelo://app?vid=098ba318-f0ee-4c81-991e-ba2f5a0cbad4"},"vehicle_type_id":"4","last_reported":1740298281,"current_range_meters":6400,"station_id":"ce4bgj92rcd13ifvqbe0","pricing_plan_id":"cebpf4jnsgd1na2vs0mg"},{"bike_id":"ab46b189-6bae-4129-a7fd-10b3ccd5a48e","system_id":"levelo_inurba_marseille","lat":43.27199,"lon":5.40006,"is_reserved":false,"is_disabled":false,"rental_uris":{"android":"levelo://app?vid=ab46b189-6bae-4129-a7fd-10b3ccd5a48e","ios":"levelo://app?vid=ab46b189-6bae-4129-a7fd-10b3ccd5a48e"},"vehicle_type_id":"4","last_reported":1740298281,"current_range_meters":6400,"station_id":"","pricing_plan_id":"cebpf4jnsgd1na2vs0mg"},{"bike_id":"3edf878a-b077-47d4-bf89-8453f040639a","system_id":"levelo_inurba_marseille","lat":43.30653,"lon":5.40072,"is_reserved":false,"is_disabled":false,"rental_uris":{"android":"levelo://app?vid=3edf878a-b077-47d4-bf89-8453f040639a","ios":"levelo://app?vid=3edf878a-b077-47d4-bf89-8453f040639a"},"vehicle_type_id":"4","last_reported":1740298281,"current_range_meters":6400,"station_id":"ce4bh112rcd13ifvqda0","pricing_plan_id":"cebpf4jnsgd1na2vs0mg"},{"bike_id":"22613deb-4e09-4d61-9470-7377805ef5b9","system_id":"levelo_inurba_marseille","lat":43.30904,"lon":5.40179,"is_reserved":false,"is_disabled":false,"rental_uris":{"android":"levelo://app?vid=22613deb-4e09-4d61-9470-7377805ef5b9","ios":"levelo://app?vid=22613deb-4e09-4d61-9470-7377805ef5b9"},"vehicle_type_id":"4","last_reported":1740298281,"current_range_meters":6800,"station_id":"ce4bgvp2rcd13ifvqct0","pricing_plan_id":"cebpf4jnsgd1na2vs0mg"},{"bike_id":"f32fe46d-1120-4c2c-97c5-cdbf2de4ccec","system_id":"levelo_inurba_marseille","lat":43.259454,"lon":5.408909,"is_reserved":false,"is_disabled":false,"rental_uris":{"android":"levelo://app?vid=f32fe46d-1120-4c2c-97c5-cdbf2de4ccec","ios":"levelo://app?vid=f32fe46d-1120-4c2c-97c5-cdbf2de4ccec"},"vehicle_type_id":"4","last_reported":1740298281,"current_range_meters":6800,"station_id":"ce4bhm92rcd13ifvqglg","pricing_plan_id":"cebpf4jnsgd1na2vs0mg"},{"bike_id":"9116b8ac-629d-459b-b44d-248b2c2649b7","system_id":"levelo_inurba_marseille","lat":43.2795,"lon":5.41041,"is_reserved":false,"is_disabled":true,"rental_uris":{"android":"levelo://app?vid=9116b8ac-629d-459b-b44d-248b2c2649b7","ios":"levelo://app?vid=9116b8ac-629d-459b-b44d-248b2c2649b7"},"vehicle_type_id":"4","last_reported":1740298281,"current_range_meters":6800,"station_id":"ce4bhnp2rcd13ifvqh0g","pricing_plan_id":"cebpf4jnsgd1na2vs0mg"},{"bike_id":"f01bc604-d3fe-484b-ab17-16d012a9acf2","system_id":"levelo_inurba_marseille","lat":43.27995,"lon":5.41642,"is_reserved":false,"is_disabled":false,"rental_uris":{"android":"levelo://app?vid=f01bc604-d3fe-484b-ab17-16d012a9acf2","ios":"levelo://app?vid=f01bc604-d3fe-484b-ab17-16d012a9acf2"},"vehicle_type_id":"4","last_reported":1740298281,"current_range_meters":6800,"station_id":"ce4bho12rcd13ifvqh1g","pricing_plan_id":"cebpf4jnsgd1na2vs0mg"},{"bike_id":"83e26f2c-641e-4b84-b1b0-47cb1c0394ec","system_id":"levelo_inurba_marseille","lat":43.286937,"lon":5.373859,"is_reserved":false,"is_disabled":false,"rental_uris":{"android":"levelo://app?vid=83e26f2c-641e-4b84-b1b0-47cb1c0394ec","ios":"levelo://app?vid=83e26f2c-641e-4b84-b1b0-47cb1c0394ec"},"vehicle_type_id":"4","last_reported":1740298281,"current_range_meters":6800,"station_id":"ce4bh3p2rcd13ifvqdq0","pricing_plan_id":"cebpf4jnsgd1na2vs0mg"},{"bike_id":"b1bdb101-ec98-466c-ac52-27f119bf539a","system_id":"levelo_inurba_marseille","lat":43.30313,"lon":5.36899,"is_reserved":false,"is_disabled":false,"rental_uris":{"android":"levelo://app?vid=b1bdb101-ec98-466c-ac52-27f119bf539a","ios":"levelo://app?vid=b1bdb101-ec98-466c-ac52-27f119bf539a"},"vehicle_type_id":"4","last_reported":1740298281,"current_range_meters":6800,"station_id":"ce4bgqh2rcd13ifvqc5g","pricing_plan_id":"cebpf4jnsgd1na2vs0mg"},{"bike_id":"87527375-06b2-4a0b-a94e-eff7d91eae1e","system_id":"levelo_inurba_marseille","lat":43.25114,"lon":5.40338,"is_reserved":false,"is_disabled":false,"rental_uris":{"android":"levelo://app?vid=87527375-06b2-4a0b-a94e-eff7d91eae1e","ios":"levelo://app?vid=87527375-06b2-4a0b-a94e-eff7d91eae1e"},"vehicle_type_id":"4","last_reported":1740298281,"current_range_meters":6800,"station_id":"ce4bhlh2rcd13ifvqgig","pricing_plan_id":"cebpf4jnsgd1na2vs0mg"},{"bike_id":"6c6000dd-d631-4057-b372-f83b5c6fd465","system_id":"levelo_inurba_marseille","lat":43.26556,"lon":5.39041,"is_reserved":false,"is_disabled":false,"rental_uris":{"android":"levelo://app?vid=6c6000dd-d631-4057-b372-f83b5c6fd465","ios":"levelo://app?vid=6c6000dd-d631-4057-b372-f83b5c6fd465"},"vehicle_type_id":"4","last_reported":1740298281,"current_range_meters":6800,"station_id":"ce4bhe12rcd13ifvqf30","pricing_plan_id":"cebpf4jnsgd1na2vs0mg"},{"bike_id":"a8896e4e-d267-4f58-952d-dba9725f4e05","system_id":"levelo_inurba_marseille","lat":43.2407,"lon":5.37752,"is_reserved":false,"is_disabled":false,"rental_uris":{"android":"levelo://app?vid=a8896e4e-d267-4f58-952d-dba9725f4e05","ios":"levelo://app?vid=a8896e4e-d267-4f58-952d-dba9725f4e05"},"vehicle_type_id":"4","last_reported":1740298281,"current_range_meters":7200,"station_id":"ce4bhnp2rcd13ifvqgvg","pricing_plan_id":"cebpf4jnsgd1na2vs0mg"},{"bike_id":"2ed41e63-2c80-4276-ad34-8378b59c3754","system_id":"levelo_inurba_marseille","lat":43.30931,"lon":5.40143,"is_reserved":false,"is_disabled":false,"rental_uris":{"android":"levelo://app?vid=2ed41e63-2c80-4276-ad34-8378b59c3754","ios":"levelo://app?vid=2ed41e63-2c80-4276-ad34-8378b59c3754"},"vehicle_type_id":"4","last_reported":1740298281,"current_range_meters":7200,"station_id":"ce4bgvp2rcd13ifvqct0","pricing_plan_id":"cebpf4jnsgd1na2vs0mg"},{"bike_id":"d6304c24-34fc-41d9-b5c1-e9bbec4a030a","system_id":"levelo_inurba_marseille","lat":43.25101,"lon":5.40339,"is_reserved":false,"is_disabled":false,"rental_uris":{"android":"levelo://app?vid=d6304c24-34fc-41d9-b5c1-e9bbec4a030a","ios":"levelo://app?vid=d6304c24-34fc-41d9-b5c1-e9bbec4a030a"},"vehicle_type_id":"4","last_reported":1740298281,"current_range_meters":7200,"station_id":"ce4bhlh2rcd13ifvqgig","pricing_plan_id":"cebpf4jnsgd1na2vs0mg"},{"bike_id":"19e95d2e-09f0-41c1-a32f-472209bcf05c","system_id":"levelo_inurba_marseille","lat":43.24656,"lon":5.38172,"is_reserved":false,"is_disabled":false,"rental_uris":{"android":"levelo://app?vid=19e95d2e-09f0-41c1-a32f-472209bcf05c","ios":"levelo://app?vid=19e95d2e-09f0-41c1-a32f-472209bcf05c"},"vehicle_type_id":"4","last_reported":1740298281,"current_range_meters":7200,"station_id":"ce4bhih2rcd13ifvqfr0","pricing_plan_id":"cebpf4jnsgd1na2vs0mg"},{"bike_id":"91dbf563-1a8a-411b-af95-51ba538b1126","system_id":"levelo_inurba_marseille","lat":43.23963,"lon":5.3663,"is_reserved":false,"is_disabled":false,"rental_uris":{"android":"levelo://app?vid=91dbf563-1a8a-411b-af95-51ba538b1126","ios":"levelo://app?vid=91dbf563-1a8a-411b-af95-51ba538b1126"},"vehicle_type_id":"4","last_reported":1740298281,"current_range_meters":7200,"station_id":"ce4bhi12rcd13ifvqfp0","pricing_plan_id":"cebpf4jnsgd1na2vs0mg"},{"bike_id":"2a7165b4-60a1-4418-90cd-83d9915280e2","system_id":"levelo_inurba_marseille","lat":43.28019,"lon":5.40605,"is_reserved":false,"is_disabled":false,"rental_uris":{"android":"levelo://app?vid=2a7165b4-60a1-4418-90cd-83d9915280e2","ios":"levelo://app?vid=2a7165b4-60a1-4418-90cd-83d9915280e2"},"vehicle_type_id":"4","last_reported":1740298281,"current_range_meters":7200,"station_id":"","pricing_plan_id":"cebpf4jnsgd1na2vs0mg"},{"bike_id":"6d48938c-9b80-49b7-89e5-950ba7a6ce63","system_id":"levelo_inurba_marseille","lat":43.25915,"lon":5.40885,"is_reserved":false,"is_disabled":false,"rental_uris":{"android":"levelo://app?vid=6d48938c-9b80-49b7-89e5-950ba7a6ce63","ios":"levelo://app?vid=6d48938c-9b80-49b7-89e5-950ba7a6ce63"},"vehicle_type_id":"4","last_reported":1740298281,"current_range_meters":7200,"station_id":"ce4bhm92rcd13ifvqglg","pricing_plan_id":"cebpf4jnsgd1na2vs0mg"},{"bike_id":"76596200-c56b-4ffd-99af-8639bd09cfbf","system_id":"levelo_inurba_marseille","lat":43.30439,"lon":5.38895,"is_reserved":false,"is_disabled":false,"rental_uris":{"android":"levelo://app?vid=76596200-c56b-4ffd-99af-8639bd09cfbf","ios":"levelo://app?vid=76596200-c56b-4ffd-99af-8639bd09cfbf"},"vehicle_type_id":"4","last_reported":1740298281,"current_range_meters":7200,"station_id":"ce4bgk12rcd13ifvqbi0","pricing_plan_id":"cebpf4jnsgd1na2vs0mg"},{"bike_id":"a49780e1-98ce-4f41-95bd-93389def60e1","system_id":"levelo_inurba_marseille","lat":43.232,"lon":5.39967,"is_reserved":false,"is_disabled":false,"rental_uris":{"android":"levelo://app?vid=a49780e1-98ce-4f41-95bd-93389def60e1","ios":"levelo://app?vid=a49780e1-98ce-4f41-95bd-93389def60e1"},"vehicle_type_id":"4","last_reported":1740298281,"current_range_meters":7200,"station_id":"ce4bhn12rcd13ifvqgqg","pricing_plan_id":"cebpf4jnsgd1na2vs0mg"},{"bike_id":"82c1de05-bc20-4ca0-af0d-bc4ed508b328","system_id":"levelo_inurba_marseille","lat":43.29559,"lon":5.39984,"is_reserved":false,"is_disabled":false,"rental_uris":{"android":"levelo://app?vid=82c1de05-bc20-4ca0-af0d-bc4ed508b328","ios":"levelo://app?vid=82c1de05-bc20-4ca0-af0d-bc4ed508b328"},"vehicle_type_id":"4","last_reported":1740298281,"current_range_meters":7200,"station_id":"ce4bh312rcd13ifvqdj0","pricing_plan_id":"cebpf4jnsgd1na2vs0mg"},{"bike_id":"f65e14d9-9d98-4273-878d-64aa1ddbd1a3","system_id":"levelo_inurba_marseille","lat":43.24074,"lon":5.37753,"is_reserved":false,"is_disabled":false,"rental_uris":{"android":"levelo://app?vid=f65e14d9-9d98-4273-878d-64aa1ddbd1a3","ios":"levelo://app?vid=f65e14d9-9d98-4273-878d-64aa1ddbd1a3"},"vehicle_type_id":"4","last_reported":1740298281,"current_range_meters":7200,"station_id":"ce4bhnp2rcd13ifvqgvg","pricing_plan_id":"cebpf4jnsgd1na2vs0mg"},{"bike_id":"b985ad1f-1942-453b-b5eb-7462cafd1e31","system_id":"levelo_inurba_marseille","lat":43.23162,"lon":5.35583,"is_reserved":false,"is_disabled":false,"rental_uris":{"android":"levelo://app?vid=b985ad1f-1942-453b-b5eb-7462cafd1e31","ios":"levelo://app?vid=b985ad1f-1942-453b-b5eb-7462cafd1e31"},"vehicle_type_id":"4","last_reported":1740298281,"current_range_meters":7200,"station_id":"ce4bhu92rcd13ifvqi70","pricing_plan_id":"cebpf4jnsgd1na2vs0mg"},{"bike_id":"b1f1891e-04da-4ee5-a98c-3d8b0253b7c5","system_id":"levelo_inurba_marseille","lat":43.26568,"lon":5.39012,"is_reserved":false,"is_disabled":false,"rental_uris":{"android":"levelo://app?vid=b1f1891e-04da-4ee5-a98c-3d8b0253b7c5","ios":"levelo://app?vid=b1f1891e-04da-4ee5-a98c-3d8b0253b7c5"},"vehicle_type_id":"4","last_reported":1740298281,"current_range_meters":7200,"station_id":"ce4bhe12rcd13ifvqf30","pricing_plan_id":"cebpf4jnsgd1na2vs0mg"},{"bike_id":"78ccc1b5-e05d-4c30-bc5b-473f9d97e2cd","system_id":"levelo_inurba_marseille","lat":43.3012,"lon":5.37809,"is_reserved":false,"is_disabled":false,"rental_uris":{"android":"levelo://app?vid=78ccc1b5-e05d-4c30-bc5b-473f9d97e2cd","ios":"levelo://app?vid=78ccc1b5-e05d-4c30-bc5b-473f9d97e2cd"},"vehicle_type_id":"4","last_reported":1740298281,"current_range_meters":8000,"station_id":"","pricing_plan_id":"cebpf4jnsgd1na2vs0mg"},{"bike_id":"2e4d9ef6-4dd9-45eb-8687-42db3850d70a","system_id":"levelo_inurba_marseille","lat":43.2746,"lon":5.40795,"is_reserved":false,"is_disabled":false,"rental_uris":{"android":"levelo://app?vid=2e4d9ef6-4dd9-45eb-8687-42db3850d70a","ios":"levelo://app?vid=2e4d9ef6-4dd9-45eb-8687-42db3850d70a"},"vehicle_type_id":"4","last_reported":1740298281,"current_range_meters":8000,"station_id":"","pricing_plan_id":"cebpf4jnsgd1na2vs0mg"},{"bike_id":"06c7d04b-0c73-473f-9f55-ff858732e591","system_id":"levelo_inurba_marseille","lat":43.2658,"lon":5.39024,"is_reserved":false,"is_disabled":false,"rental_uris":{"android":"levelo://app?vid=06c7d04b-0c73-473f-9f55-ff858732e591","ios":"levelo://app?vid=06c7d04b-0c73-473f-9f55-ff858732e591"},"vehicle_type_id":"4","last_reported":1740298281,"current_range_meters":8000,"station_id":"ce4bhe12rcd13ifvqf30","pricing_plan_id":"cebpf4jnsgd1na2vs0mg"},{"bike_id":"de1d7128-26f9-404e-928a-db01628d2c66","system_id":"levelo_inurba_marseille","lat":43.30951,"lon":5.39053,"is_reserved":false,"is_disabled":false,"rental_uris":{"android":"levelo://app?vid=de1d7128-26f9-404e-928a-db01628d2c66","ios":"levelo://app?vid=de1d7128-26f9-404e-928a-db01628d2c66"},"vehicle_type_id":"4","last_reported":1740298281,"current_range_meters":8000,"station_id":"ce4bgup2rcd13ifvqco0","pricing_plan_id":"cebpf4jnsgd1na2vs0mg"},{"bike_id":"23bc9759-d26d-4f40-b4f4-88a9beb1aae8","system_id":"levelo_inurba_marseille","lat":43.25853,"lon":5.39927,"is_reserved":false,"is_disabled":false,"rental_uris":{"android":"levelo://app?vid=23bc9759-d26d-4f40-b4f4-88a9beb1aae8","ios":"levelo://app?vid=23bc9759-d26d-4f40-b4f4-88a9beb1aae8"},"vehicle_type_id":"4","last_reported":1740298281,"current_range_meters":8000,"station_id":"ce4bhl92rcd13ifvqghg","pricing_plan_id":"cebpf4jnsgd1na2vs0mg"},{"bike_id":"be311f77-6336-4d34-b797-6256865a688c","system_id":"levelo_inurba_marseille","lat":43.30314,"lon":5.40449,"is_reserved":false,"is_disabled":false,"rental_uris":{"android":"levelo://app?vid=be311f77-6336-4d34-b797-6256865a688c","ios":"levelo://app?vid=be311f77-6336-4d34-b797-6256865a688c"},"vehicle_type_id":"4","last_reported":1740298281,"current_range_meters":8000,"station_id":"ce4bh012rcd13ifvqd10","pricing_plan_id":"cebpf4jnsgd1na2vs0mg"},{"bike_id":"bd0f0fb7-276d-4481-b5d8-ffa82acd63a0","system_id":"levelo_inurba_marseille","lat":43.28454,"lon":5.35885,"is_reserved":false,"is_disabled":false,"rental_uris":{"android":"levelo://app?vid=bd0f0fb7-276d-4481-b5d8-ffa82acd63a0","ios":"levelo://app?vid=bd0f0fb7-276d-4481-b5d8-ffa82acd63a0"},"vehicle_type_id":"4","last_reported":1740298281,"current_range_meters":8400,"station_id":"ce4bhah2rcd13ifvqei0","pricing_plan_id":"cebpf4jnsgd1na2vs0mg"},{"bike_id":"be5f18c6-d773-4035-9538-497c8eccebd5","system_id":"levelo_inurba_marseille","lat":43.27536,"lon":5.38466,"is_reserved":false,"is_disabled":false,"rental_uris":{"android":"levelo://app?vid=be5f18c6-d773-4035-9538-497c8eccebd5","ios":"levelo://app?vid=be5f18c6-d773-4035-9538-497c8eccebd5"},"vehicle_type_id":"4","last_reported":1740298281,"current_range_meters":8400,"station_id":"ce4bhh92rcd13ifvqfi0","pricing_plan_id":"cebpf4jnsgd1na2vs0mg"},{"bike_id":"805e65ea-389c-46f2-bfa7-079429bc7231","system_id":"levelo_inurba_marseille","lat":43.30254,"lon":5.40082,"is_reserved":false,"is_disabled":false,"rental_uris":{"android":"levelo://app?vid=805e65ea-389c-46f2-bfa7-079429bc7231","ios":"levelo://app?vid=805e65ea-389c-46f2-bfa7-079429bc7231"},"vehicle_type_id":"4","last_reported":1740298281,"current_range_meters":8400,"station_id":"ce4bgvh2rcd13ifvqcs0","pricing_plan_id":"cebpf4jnsgd1na2vs0mg"},{"bike_id":"f4c73116-43d3-41d9-88bb-9461dbbb405f","system_id":"levelo_inurba_marseille","lat":43.25413,"lon":5.41628,"is_reserved":false,"is_disabled":false,"rental_uris":{"android":"levelo://app?vid=f4c73116-43d3-41d9-88bb-9461dbbb405f","ios":"levelo://app?vid=f4c73116-43d3-41d9-88bb-9461dbbb405f"},"vehicle_type_id":"4","last_reported":1740298281,"current_range_meters":8400,"station_id":"","pricing_plan_id":"cebpf4jnsgd1na2vs0mg"},{"bike_id":"e717a2a7-a6d5-4645-adc9-bf1f13732123","system_id":"levelo_inurba_marseille","lat":43.28918,"lon":5.38396,"is_reserved":false,"is_disabled":false,"rental_uris":{"android":"levelo://app?vid=e717a2a7-a6d5-4645-adc9-bf1f13732123","ios":"levelo://app?vid=e717a2a7-a6d5-4645-adc9-bf1f13732123"},"vehicle_type_id":"4","last_reported":1740298281,"current_range_meters":8400,"station_id":"ce4bh612rcd13ifvqe6g","pricing_plan_id":"cebpf4jnsgd1na2vs0mg"},{"bike_id":"590c2d4d-a6f8-41f2-86bc-cf779452c419","system_id":"levelo_inurba_marseille","lat":43.27175,"lon":5.4101,"is_reserved":false,"is_disabled":false,"rental_uris":{"android":"levelo://app?vid=590c2d4d-a6f8-41f2-86bc-cf779452c419","ios":"levelo://app?vid=590c2d4d-a6f8-41f2-86bc-cf779452c419"},"vehicle_type_id":"4","last_reported":1740298281,"current_range_meters":8400,"station_id":"ce4bhl12rcd13ifvqgf0","pricing_plan_id":"cebpf4jnsgd1na2vs0mg"},{"bike_id":"c6a1ef00-1084-493b-8248-9658c4452943","system_id":"levelo_inurba_marseille","lat":43.28264,"lon":5.39049,"is_reserved":false,"is_disabled":false,"rental_uris":{"android":"levelo://app?vid=c6a1ef00-1084-493b-8248-9658c4452943","ios":"levelo://app?vid=c6a1ef00-1084-493b-8248-9658c4452943"},"vehicle_type_id":"4","last_reported":1740298281,"current_range_meters":8400,"station_id":"","pricing_plan_id":"cebpf4jnsgd1na2vs0mg"},{"bike_id":"bb9ffa60-bdcd-4c6e-a08c-d2ba136111f9","system_id":"levelo_inurba_marseille","lat":43.28643,"lon":5.36391,"is_reserved":false,"is_disabled":false,"rental_uris":{"android":"levelo://app?vid=bb9ffa60-bdcd-4c6e-a08c-d2ba136111f9","ios":"levelo://app?vid=bb9ffa60-bdcd-4c6e-a08c-d2ba136111f9"},"vehicle_type_id":"4","last_reported":1740298281,"current_range_meters":8400,"station_id":"ce4bhah2rcd13ifvqej0","pricing_plan_id":"cebpf4jnsgd1na2vs0mg"},{"bike_id":"fadd9fdd-7e50-4a61-851a-0df1f18a0fd2","system_id":"levelo_inurba_marseille","lat":43.26551,"lon":5.37295,"is_reserved":false,"is_disabled":false,"rental_uris":{"android":"levelo://app?vid=fadd9fdd-7e50-4a61-851a-0df1f18a0fd2","ios":"levelo://app?vid=fadd9fdd-7e50-4a61-851a-0df1f18a0fd2"},"vehicle_type_id":"4","last_reported":1740298281,"current_range_meters":8400,"station_id":"ce4bhg12rcd13ifvqf70","pricing_plan_id":"cebpf4jnsgd1na2vs0mg"},{"bike_id":"827ec7e5-1ae5-45b8-890e-b6822ea9bc11","system_id":"levelo_inurba_marseille","lat":43.23948,"lon":5.36661,"is_reserved":false,"is_disabled":false,"rental_uris":{"android":"levelo://app?vid=827ec7e5-1ae5-45b8-890e-b6822ea9bc11","ios":"levelo://app?vid=827ec7e5-1ae5-45b8-890e-b6822ea9bc11"},"vehicle_type_id":"4","last_reported":1740298281,"current_range_meters":8400,"station_id":"ce4bhi12rcd13ifvqfp0","pricing_plan_id":"cebpf4jnsgd1na2vs0mg"},{"bike_id":"58bbaf60-deab-4011-a9de-2c00010a5762","system_id":"levelo_inurba_marseille","lat":43.30316,"lon":5.40449,"is_reserved":false,"is_disabled":false,"rental_uris":{"android":"levelo://app?vid=58bbaf60-deab-4011-a9de-2c00010a5762","ios":"levelo://app?vid=58bbaf60-deab-4011-a9de-2c00010a5762"},"vehicle_type_id":"4","last_reported":1740298281,"current_range_meters":8800,"station_id":"ce4bh012rcd13ifvqd10","pricing_plan_id":"cebpf4jnsgd1na2vs0mg"},{"bike_id":"6ae5bc36-63b3-4841-abbd-2e352796184c","system_id":"levelo_inurba_marseille","lat":43.295928,"lon":5.381072,"is_reserved":false,"is_disabled":false,"rental_uris":{"android":"levelo://app?vid=6ae5bc36-63b3-4841-abbd-2e352796184c","ios":"levelo://app?vid=6ae5bc36-63b3-4841-abbd-2e352796184c"},"vehicle_type_id":"4","last_reported":1740298281,"current_range_meters":8800,"station_id":"ce4bgl12rcd13ifvqbo0","pricing_plan_id":"cebpf4jnsgd1na2vs0mg"},{"bike_id":"519c0d90-c598-4074-9c80-d5e1565ff705","system_id":"levelo_inurba_marseille","lat":43.23057,"lon":5.35495,"is_reserved":false,"is_disabled":false,"rental_uris":{"android":"levelo://app?vid=519c0d90-c598-4074-9c80-d5e1565ff705","ios":"levelo://app?vid=519c0d90-c598-4074-9c80-d5e1565ff705"},"vehicle_type_id":"4","last_reported":1740298281,"current_range_meters":8800,"station_id":"cpo3342slgdg3j2ifvpg","pricing_plan_id":"cebpf4jnsgd1na2vs0mg"},{"bike_id":"f059cbcc-b7ad-4e49-87a3-054a01f702f4","system_id":"levelo_inurba_marseille","lat":43.30888,"lon":5.3964,"is_reserved":false,"is_disabled":false,"rental_uris":{"android":"levelo://app?vid=f059cbcc-b7ad-4e49-87a3-054a01f702f4","ios":"levelo://app?vid=f059cbcc-b7ad-4e49-87a3-054a01f702f4"},"vehicle_type_id":"4","last_reported":1740298281,"current_range_meters":8800,"station_id":"ce4bh012rcd13ifvqcv0","pricing_plan_id":"cebpf4jnsgd1na2vs0mg"},{"bike_id":"0b35ef10-1d1d-4e8a-949e-c3122c5e3874","system_id":"levelo_inurba_marseille","lat":43.23955,"lon":5.36635,"is_reserved":false,"is_disabled":false,"rental_uris":{"android":"levelo://app?vid=0b35ef10-1d1d-4e8a-949e-c3122c5e3874","ios":"levelo://app?vid=0b35ef10-1d1d-4e8a-949e-c3122c5e3874"},"vehicle_type_id":"4","last_reported":1740298281,"current_range_meters":8800,"station_id":"ce4bhi12rcd13ifvqfp0","pricing_plan_id":"cebpf4jnsgd1na2vs0mg"},{"bike_id":"d17e9f43-52a6-4c0c-9e57-c49dabb8fed4","system_id":"levelo_inurba_marseille","lat":43.30466,"lon":5.38209,"is_reserved":false,"is_disabled":false,"rental_uris":{"android":"levelo://app?vid=d17e9f43-52a6-4c0c-9e57-c49dabb8fed4","ios":"levelo://app?vid=d17e9f43-52a6-4c0c-9e57-c49dabb8fed4"},"vehicle_type_id":"4","last_reported":1740298281,"current_range_meters":8800,"station_id":"","pricing_plan_id":"cebpf4jnsgd1na2vs0mg"},{"bike_id":"c76531ac-1214-4592-9c1c-6b2ce2bc0cf8","system_id":"levelo_inurba_marseille","lat":43.23198,"lon":5.35534,"is_reserved":false,"is_disabled":false,"rental_uris":{"android":"levelo://app?vid=c76531ac-1214-4592-9c1c-6b2ce2bc0cf8","ios":"levelo://app?vid=c76531ac-1214-4592-9c1c-6b2ce2bc0cf8"},"vehicle_type_id":"4","last_reported":1740298281,"current_range_meters":8800,"station_id":"ce4bhu92rcd13ifvqi70","pricing_plan_id":"cebpf4jnsgd1na2vs0mg"},{"bike_id":"697316fb-3768-4e97-980b-6f61f76a273d","system_id":"levelo_inurba_marseille","lat":43.30893,"lon":5.40203,"is_reserved":false,"is_disabled":false,"rental_uris":{"android":"levelo://app?vid=697316fb-3768-4e97-980b-6f61f76a273d","ios":"levelo://app?vid=697316fb-3768-4e97-980b-6f61f76a273d"},"vehicle_type_id":"4","last_reported":1740298281,"current_range_meters":8800,"station_id":"","pricing_plan_id":"cebpf4jnsgd1na2vs0mg"},{"bike_id":"2c6fe07a-1775-49e8-bb36-4bb755c649ab","system_id":"levelo_inurba_marseille","lat":43.28706,"lon":5.36091,"is_reserved":false,"is_disabled":false,"rental_uris":{"android":"levelo://app?vid=2c6fe07a-1775-49e8-bb36-4bb755c649ab","ios":"levelo://app?vid=2c6fe07a-1775-49e8-bb36-4bb755c649ab"},"vehicle_type_id":"4","last_reported":1740298281,"current_range_meters":8800,"station_id":"cki0cbj6b192h4jlfktg","pricing_plan_id":"cebpf4jnsgd1na2vs0mg"},{"bike_id":"5fcb0a33-39cc-43ca-ada8-f133ba1cb445","system_id":"levelo_inurba_marseille","lat":43.28083,"lon":5.39665,"is_reserved":false,"is_disabled":false,"rental_uris":{"android":"levelo://app?vid=5fcb0a33-39cc-43ca-ada8-f133ba1cb445","ios":"levelo://app?vid=5fcb0a33-39cc-43ca-ada8-f133ba1cb445"},"vehicle_type_id":"4","last_reported":1740298281,"current_range_meters":9200,"station_id":"ce4bho12rcd13ifvqh2g","pricing_plan_id":"cebpf4jnsgd1na2vs0mg"},{"bike_id":"bb127142-502c-4b61-b74c-d7410317905c","system_id":"levelo_inurba_marseille","lat":43.26799,"lon":5.40262,"is_reserved":false,"is_disabled":false,"rental_uris":{"android":"levelo://app?vid=bb127142-502c-4b61-b74c-d7410317905c","ios":"levelo://app?vid=bb127142-502c-4b61-b74c-d7410317905c"},"vehicle_type_id":"4","last_reported":1740298281,"current_range_meters":9200,"station_id":"ce501612rcd8frsf0b60","pricing_plan_id":"cebpf4jnsgd1na2vs0mg"},{"bike_id":"9134b4ec-cb90-4668-8650-961ee5f82b16","system_id":"levelo_inurba_marseille","lat":43.30313,"lon":5.36893,"is_reserved":false,"is_disabled":false,"rental_uris":{"android":"levelo://app?vid=9134b4ec-cb90-4668-8650-961ee5f82b16","ios":"levelo://app?vid=9134b4ec-cb90-4668-8650-961ee5f82b16"},"vehicle_type_id":"4","last_reported":1740298281,"current_range_meters":9200,"station_id":"ce4bgqh2rcd13ifvqc5g","pricing_plan_id":"cebpf4jnsgd1na2vs0mg"},{"bike_id":"074a8113-e323-4485-94ff-42bb9ce3b359","system_id":"levelo_inurba_marseille","lat":43.239672,"lon":5.366085,"is_reserved":false,"is_disabled":false,"rental_uris":{"android":"levelo://app?vid=074a8113-e323-4485-94ff-42bb9ce3b359","ios":"levelo://app?vid=074a8113-e323-4485-94ff-42bb9ce3b359"},"vehicle_type_id":"4","last_reported":1740298281,"current_range_meters":9200,"station_id":"ce4bhbh2rcd13ifvqepg","pricing_plan_id":"cebpf4jnsgd1na2vs0mg"},{"bike_id":"38ce73b0-8eac-454b-a3e2-8149ca682fb5","system_id":"levelo_inurba_marseille","lat":43.298699,"lon":5.397251,"is_reserved":false,"is_disabled":false,"rental_uris":{"android":"levelo://app?vid=38ce73b0-8eac-454b-a3e2-8149ca682fb5","ios":"levelo://app?vid=38ce73b0-8eac-454b-a3e2-8149ca682fb5"},"vehicle_type_id":"4","last_reported":1740298281,"current_range_meters":9200,"station_id":"ce4bh0h2rcd13ifvqd50","pricing_plan_id":"cebpf4jnsgd1na2vs0mg"},{"bike_id":"fb40098e-33ff-4c99-b1f4-c31af51adec3","system_id":"levelo_inurba_marseille","lat":43.27206,"lon":5.39193,"is_reserved":false,"is_disabled":false,"rental_uris":{"android":"levelo://app?vid=fb40098e-33ff-4c99-b1f4-c31af51adec3","ios":"levelo://app?vid=fb40098e-33ff-4c99-b1f4-c31af51adec3"},"vehicle_type_id":"4","last_reported":1740298281,"current_range_meters":9600,"station_id":"ce4bhhp2rcd13ifvqfm0","pricing_plan_id":"cebpf4jnsgd1na2vs0mg"},{"bike_id":"65a2b506-9f18-4086-90d7-6bbdf970a117","system_id":"levelo_inurba_marseille","lat":43.29537,"lon":5.38551,"is_reserved":false,"is_disabled":true,"rental_uris":{"android":"levelo://app?vid=65a2b506-9f18-4086-90d7-6bbdf970a117","ios":"levelo://app?vid=65a2b506-9f18-4086-90d7-6bbdf970a117"},"vehicle_type_id":"4","last_reported":1740298281,"current_range_meters":9600,"station_id":"ce4bgih2rcd13ifvqba0","pricing_plan_id":"cebpf4jnsgd1na2vs0mg"},{"bike_id":"5d52fe5a-dfb3-40bb-a0d1-9a7b3f23529e","system_id":"levelo_inurba_marseille","lat":43.26226,"lon":5.4046,"is_reserved":false,"is_disabled":false,"rental_uris":{"android":"levelo://app?vid=5d52fe5a-dfb3-40bb-a0d1-9a7b3f23529e","ios":"levelo://app?vid=5d52fe5a-dfb3-40bb-a0d1-9a7b3f23529e"},"vehicle_type_id":"4","last_reported":1740298281,"current_range_meters":9600,"station_id":"ce4bhmh2rcd13ifvqgmg","pricing_plan_id":"cebpf4jnsgd1na2vs0mg"},{"bike_id":"09486dc5-7654-4904-afc6-3b8a40308aeb","system_id":"levelo_inurba_marseille","lat":43.25407,"lon":5.41555,"is_reserved":false,"is_disabled":false,"rental_uris":{"android":"levelo://app?vid=09486dc5-7654-4904-afc6-3b8a40308aeb","ios":"levelo://app?vid=09486dc5-7654-4904-afc6-3b8a40308aeb"},"vehicle_type_id":"4","last_reported":1740298281,"current_range_meters":9600,"station_id":"","pricing_plan_id":"cebpf4jnsgd1na2vs0mg"},{"bike_id":"d280a88a-ad51-4bd3-98d0-9ad67ec8f5b9","system_id":"levelo_inurba_marseille","lat":43.279394,"lon":5.410452,"is_reserved":false,"is_disabled":false,"rental_uris":{"android":"levelo://app?vid=d280a88a-ad51-4bd3-98d0-9ad67ec8f5b9","ios":"levelo://app?vid=d280a88a-ad51-4bd3-98d0-9ad67ec8f5b9"},"vehicle_type_id":"4","last_reported":1740298281,"current_range_meters":9600,"station_id":"ce4bhnp2rcd13ifvqh0g","pricing_plan_id":"cebpf4jnsgd1na2vs0mg"},{"bike_id":"f00c61fb-ec65-4c44-adf0-658e6c00b6f6","system_id":"levelo_inurba_marseille","lat":43.28298,"lon":5.35078,"is_reserved":false,"is_disabled":false,"rental_uris":{"android":"levelo://app?vid=f00c61fb-ec65-4c44-adf0-658e6c00b6f6","ios":"levelo://app?vid=f00c61fb-ec65-4c44-adf0-658e6c00b6f6"},"vehicle_type_id":"4","last_reported":1740298281,"current_range_meters":9600,"station_id":"ce4bhbp2rcd13ifvqerg","pricing_plan_id":"cebpf4jnsgd1na2vs0mg"},{"bike_id":"580cd37a-010c-47d8-955d-e1bf99f50654","system_id":"levelo_inurba_marseille","lat":43.28362,"lon":5.38626,"is_reserved":false,"is_disabled":false,"rental_uris":{"android":"levelo://app?vid=580cd37a-010c-47d8-955d-e1bf99f50654","ios":"levelo://app?vid=580cd37a-010c-47d8-955d-e1bf99f50654"},"vehicle_type_id":"4","last_reported":1740298281,"current_range_meters":9600,"station_id":"ce4bh492rcd13ifvqdvg","pricing_plan_id":"cebpf4jnsgd1na2vs0mg"},{"bike_id":"26a2d076-f5f2-45a7-98f5-29542790fe7d","system_id":"levelo_inurba_marseille","lat":43.32357,"lon":5.36763,"is_reserved":false,"is_disabled":false,"rental_uris":{"android":"levelo://app?vid=26a2d076-f5f2-45a7-98f5-29542790fe7d","ios":"levelo://app?vid=26a2d076-f5f2-45a7-98f5-29542790fe7d"},"vehicle_type_id":"4","last_reported":1740298281,"current_range_meters":9600,"station_id":"ce4bhsh2rcd13ifvqi2g","pricing_plan_id":"cebpf4jnsgd1na2vs0mg"},{"bike_id":"c6f1d824-f9e9-40b6-a413-6bc7e7531bce","system_id":"levelo_inurba_marseille","lat":43.30886,"lon":5.39641,"is_reserved":false,"is_disabled":false,"rental_uris":{"android":"levelo://app?vid=c6f1d824-f9e9-40b6-a413-6bc7e7531bce","ios":"levelo://app?vid=c6f1d824-f9e9-40b6-a413-6bc7e7531bce"},"vehicle_type_id":"4","last_reported":1740298281,"current_range_meters":9600,"station_id":"ce4bh012rcd13ifvqcv0","pricing_plan_id":"cebpf4jnsgd1na2vs0mg"},{"bike_id":"1a10fd59-4523-44b6-b95d-9c8ecd2de736","system_id":"levelo_inurba_marseille","lat":43.2586,"lon":5.39912,"is_reserved":false,"is_disabled":false,"rental_uris":{"android":"levelo://app?vid=1a10fd59-4523-44b6-b95d-9c8ecd2de736","ios":"levelo://app?vid=1a10fd59-4523-44b6-b95d-9c8ecd2de736"},"vehicle_type_id":"4","last_reported":1740298281,"current_range_meters":9600,"station_id":"ce4bhl92rcd13ifvqghg","pricing_plan_id":"cebpf4jnsgd1na2vs0mg"},{"bike_id":"e2f62125-3a72-42e8-8935-2e0ba3bfe398","system_id":"levelo_inurba_marseille","lat":43.25582,"lon":5.38223,"is_reserved":false,"is_disabled":false,"rental_uris":{"android":"levelo://app?vid=e2f62125-3a72-42e8-8935-2e0ba3bfe398","ios":"levelo://app?vid=e2f62125-3a72-42e8-8935-2e0ba3bfe398"},"vehicle_type_id":"4","last_reported":1740298281,"current_range_meters":10000,"station_id":"ce4bhih2rcd13ifvqfs0","pricing_plan_id":"cebpf4jnsgd1na2vs0mg"},{"bike_id":"1b0d6542-f74d-4dd5-b78b-1cd1115ff80b","system_id":"levelo_inurba_marseille","lat":43.30619,"lon":5.3743,"is_reserved":false,"is_disabled":false,"rental_uris":{"android":"levelo://app?vid=1b0d6542-f74d-4dd5-b78b-1cd1115ff80b","ios":"levelo://app?vid=1b0d6542-f74d-4dd5-b78b-1cd1115ff80b"},"vehicle_type_id":"4","last_reported":1740298281,"current_range_meters":10000,"station_id":"","pricing_plan_id":"cebpf4jnsgd1na2vs0mg"},{"bike_id":"050367b7-8a54-4a5c-8db7-b52ce040e297","system_id":"levelo_inurba_marseille","lat":43.24674,"lon":5.38164,"is_reserved":false,"is_disabled":false,"rental_uris":{"android":"levelo://app?vid=050367b7-8a54-4a5c-8db7-b52ce040e297","ios":"levelo://app?vid=050367b7-8a54-4a5c-8db7-b52ce040e297"},"vehicle_type_id":"4","last_reported":1740298281,"current_range_meters":10000,"station_id":"ce4bhih2rcd13ifvqfr0","pricing_plan_id":"cebpf4jnsgd1na2vs0mg"},{"bike_id":"49e1c317-c43a-4e17-be08-ea23dc8d6739","system_id":"levelo_inurba_marseille","lat":43.3018,"lon":5.39576,"is_reserved":false,"is_disabled":true,"rental_uris":{"android":"levelo://app?vid=49e1c317-c43a-4e17-be08-ea23dc8d6739","ios":"levelo://app?vid=49e1c317-c43a-4e17-be08-ea23dc8d6739"},"vehicle_type_id":"4","last_reported":1740298281,"current_range_meters":10000,"station_id":"","pricing_plan_id":"cebpf4jnsgd1na2vs0mg"},{"bike_id":"ad184f0e-d5c6-4a9c-ba11-7ab7f337e022","system_id":"levelo_inurba_marseille","lat":43.25819,"lon":5.39432,"is_reserved":false,"is_disabled":false,"rental_uris":{"android":"levelo://app?vid=ad184f0e-d5c6-4a9c-ba11-7ab7f337e022","ios":"levelo://app?vid=ad184f0e-d5c6-4a9c-ba11-7ab7f337e022"},"vehicle_type_id":"4","last_reported":1740298281,"current_range_meters":10000,"station_id":"ce4bhip2rcd13ifvqft0","pricing_plan_id":"cebpf4jnsgd1na2vs0mg"},{"bike_id":"7edad6f1-bb02-4747-8467-5494540e990b","system_id":"levelo_inurba_marseille","lat":43.25009,"lon":5.38922,"is_reserved":false,"is_disabled":false,"rental_uris":{"android":"levelo://app?vid=7edad6f1-bb02-4747-8467-5494540e990b","ios":"levelo://app?vid=7edad6f1-bb02-4747-8467-5494540e990b"},"vehicle_type_id":"4","last_reported":1740298281,"current_range_meters":10000,"station_id":"ce4bhgp2rcd13ifvqfd0","pricing_plan_id":"cebpf4jnsgd1na2vs0mg"},{"bike_id":"84f06bda-a09e-41ac-a2f5-1951acbbbcf5","system_id":"levelo_inurba_marseille","lat":43.28474,"lon":5.38418,"is_reserved":false,"is_disabled":false,"rental_uris":{"android":"levelo://app?vid=84f06bda-a09e-41ac-a2f5-1951acbbbcf5","ios":"levelo://app?vid=84f06bda-a09e-41ac-a2f5-1951acbbbcf5"},"vehicle_type_id":"4","last_reported":1740298281,"current_range_meters":10000,"station_id":"ce4bh512rcd13ifvqe3g","pricing_plan_id":"cebpf4jnsgd1na2vs0mg"},{"bike_id":"1f7411cd-9379-4bab-a8bc-411b928d8602","system_id":"levelo_inurba_marseille","lat":43.27495,"lon":5.42463,"is_reserved":false,"is_disabled":false,"rental_uris":{"android":"levelo://app?vid=1f7411cd-9379-4bab-a8bc-411b928d8602","ios":"levelo://app?vid=1f7411cd-9379-4bab-a8bc-411b928d8602"},"vehicle_type_id":"4","last_reported":1740298281,"current_range_meters":10800,"station_id":"ce4bhn92rcd13ifvqgrg","pricing_plan_id":"cebpf4jnsgd1na2vs0mg"},{"bike_id":"b888c81b-ab0c-4df2-92f4-a4abe50fdfe5","system_id":"levelo_inurba_marseille","lat":43.26804,"lon":5.40271,"is_reserved":false,"is_disabled":false,"rental_uris":{"android":"levelo://app?vid=b888c81b-ab0c-4df2-92f4-a4abe50fdfe5","ios":"levelo://app?vid=b888c81b-ab0c-4df2-92f4-a4abe50fdfe5"},"vehicle_type_id":"4","last_reported":1740298281,"current_range_meters":10800,"station_id":"ce501612rcd8frsf0b60","pricing_plan_id":"cebpf4jnsgd1na2vs0mg"},{"bike_id":"0e853235-21f7-4f1b-8713-c7df142dfb62","system_id":"levelo_inurba_marseille","lat":43.287301,"lon":5.360866,"is_reserved":false,"is_disabled":false,"rental_uris":{"android":"levelo://app?vid=0e853235-21f7-4f1b-8713-c7df142dfb62","ios":"levelo://app?vid=0e853235-21f7-4f1b-8713-c7df142dfb62"},"vehicle_type_id":"4","last_reported":1740298281,"current_range_meters":10800,"station_id":"cki0cbj6b192h4jlfktg","pricing_plan_id":"cebpf4jnsgd1na2vs0mg"},{"bike_id":"4177e995-807d-40d8-9b40-d51883f9ac50","system_id":"levelo_inurba_marseille","lat":43.24651,"lon":5.38173,"is_reserved":false,"is_disabled":false,"rental_uris":{"android":"levelo://app?vid=4177e995-807d-40d8-9b40-d51883f9ac50","ios":"levelo://app?vid=4177e995-807d-40d8-9b40-d51883f9ac50"},"vehicle_type_id":"4","last_reported":1740298281,"current_range_meters":10800,"station_id":"ce4bhih2rcd13ifvqfr0","pricing_plan_id":"cebpf4jnsgd1na2vs0mg"},{"bike_id":"2af04dae-0b99-41ee-8239-03e9288e869a","system_id":"levelo_inurba_marseille","lat":43.28419,"lon":5.34976,"is_reserved":false,"is_disabled":false,"rental_uris":{"android":"levelo://app?vid=2af04dae-0b99-41ee-8239-03e9288e869a","ios":"levelo://app?vid=2af04dae-0b99-41ee-8239-03e9288e869a"},"vehicle_type_id":"4","last_reported":1740298281,"current_range_meters":10800,"station_id":"ce4bhbh2rcd13ifvqepg","pricing_plan_id":"cebpf4jnsgd1na2vs0mg"},{"bike_id":"7deb6946-2da2-45fc-aa6c-215c8b8c109b","system_id":"levelo_inurba_marseille","lat":43.30928,"lon":5.40137,"is_reserved":false,"is_disabled":false,"rental_uris":{"android":"levelo://app?vid=7deb6946-2da2-45fc-aa6c-215c8b8c109b","ios":"levelo://app?vid=7deb6946-2da2-45fc-aa6c-215c8b8c109b"},"vehicle_type_id":"4","last_reported":1740298281,"current_range_meters":10800,"station_id":"ce4bgvp2rcd13ifvqct0","pricing_plan_id":"cebpf4jnsgd1na2vs0mg"},{"bike_id":"8dc51aab-29d3-43fa-a37e-6c47cc4c2e69","system_id":"levelo_inurba_marseille","lat":43.2416,"lon":5.36414,"is_reserved":false,"is_disabled":false,"rental_uris":{"android":"levelo://app?vid=8dc51aab-29d3-43fa-a37e-6c47cc4c2e69","ios":"levelo://app?vid=8dc51aab-29d3-43fa-a37e-6c47cc4c2e69"},"vehicle_type_id":"4","last_reported":1740298281,"current_range_meters":11200,"station_id":"cpo36qri1sfpv3e86is0","pricing_plan_id":"cebpf4jnsgd1na2vs0mg"},{"bike_id":"3fd2a98c-7939-498c-8625-9658300a849b","system_id":"levelo_inurba_marseille","lat":43.25932,"lon":5.40894,"is_reserved":false,"is_disabled":false,"rental_uris":{"android":"levelo://app?vid=3fd2a98c-7939-498c-8625-9658300a849b","ios":"levelo://app?vid=3fd2a98c-7939-498c-8625-9658300a849b"},"vehicle_type_id":"4","last_reported":1740298281,"current_range_meters":11200,"station_id":"ce4bhm92rcd13ifvqglg","pricing_plan_id":"cebpf4jnsgd1na2vs0mg"},{"bike_id":"00512656-56f1-478d-a7b5-5569da3029b1","system_id":"levelo_inurba_marseille","lat":43.23958,"lon":5.36641,"is_reserved":false,"is_disabled":false,"rental_uris":{"android":"levelo://app?vid=00512656-56f1-478d-a7b5-5569da3029b1","ios":"levelo://app?vid=00512656-56f1-478d-a7b5-5569da3029b1"},"vehicle_type_id":"4","last_reported":1740298281,"current_range_meters":11200,"station_id":"ce4bhi12rcd13ifvqfp0","pricing_plan_id":"cebpf4jnsgd1na2vs0mg"},{"bike_id":"c396fa84-c871-4546-85c3-45e8ee86c4ed","system_id":"levelo_inurba_marseille","lat":43.29196,"lon":5.39331,"is_reserved":false,"is_disabled":false,"rental_uris":{"android":"levelo://app?vid=c396fa84-c871-4546-85c3-45e8ee86c4ed","ios":"levelo://app?vid=c396fa84-c871-4546-85c3-45e8ee86c4ed"},"vehicle_type_id":"4","last_reported":1740298281,"current_range_meters":11200,"station_id":"","pricing_plan_id":"cebpf4jnsgd1na2vs0mg"},{"bike_id":"9d0945d2-38eb-410a-a9b2-58bb6a88a0d9","system_id":"levelo_inurba_marseille","lat":43.28696,"lon":5.3998,"is_reserved":false,"is_disabled":false,"rental_uris":{"android":"levelo://app?vid=9d0945d2-38eb-410a-a9b2-58bb6a88a0d9","ios":"levelo://app?vid=9d0945d2-38eb-410a-a9b2-58bb6a88a0d9"},"vehicle_type_id":"4","last_reported":1740298281,"current_range_meters":11200,"station_id":"ce4bho92rcd13ifvqh3g","pricing_plan_id":"cebpf4jnsgd1na2vs0mg"},{"bike_id":"6cfc58a9-02b0-4986-9602-a8fc067f1c21","system_id":"levelo_inurba_marseille","lat":43.303419,"lon":5.41882,"is_reserved":false,"is_disabled":false,"rental_uris":{"android":"levelo://app?vid=6cfc58a9-02b0-4986-9602-a8fc067f1c21","ios":"levelo://app?vid=6cfc58a9-02b0-4986-9602-a8fc067f1c21"},"vehicle_type_id":"4","last_reported":1740298281,"current_range_meters":11200,"station_id":"ce4bhop2rcd13ifvqh7g","pricing_plan_id":"cebpf4jnsgd1na2vs0mg"},{"bike_id":"d5785c9b-5e24-4171-ab25-039888b91745","system_id":"levelo_inurba_marseille","lat":43.28099,"lon":5.37841,"is_reserved":false,"is_disabled":false,"rental_uris":{"android":"levelo://app?vid=d5785c9b-5e24-4171-ab25-039888b91745","ios":"levelo://app?vid=d5785c9b-5e24-4171-ab25-039888b91745"},"vehicle_type_id":"4","last_reported":1740298281,"current_range_meters":11600,"station_id":"ce4bha12rcd13ifvqee0","pricing_plan_id":"cebpf4jnsgd1na2vs0mg"},{"bike_id":"095d5026-b6cb-411c-ab71-6c60703e2b2f","system_id":"levelo_inurba_marseille","lat":43.23039,"lon":5.35516,"is_reserved":false,"is_disabled":true,"rental_uris":{"android":"levelo://app?vid=095d5026-b6cb-411c-ab71-6c60703e2b2f","ios":"levelo://app?vid=095d5026-b6cb-411c-ab71-6c60703e2b2f"},"vehicle_type_id":"4","last_reported":1740298281,"current_range_meters":11600,"station_id":"cpo3342slgdg3j2ifvpg","pricing_plan_id":"cebpf4jnsgd1na2vs0mg"},{"bike_id":"2043b63c-86fb-4771-99cf-582d1705e048","system_id":"levelo_inurba_marseille","lat":43.2655,"lon":5.37305,"is_reserved":false,"is_disabled":false,"rental_uris":{"android":"levelo://app?vid=2043b63c-86fb-4771-99cf-582d1705e048","ios":"levelo://app?vid=2043b63c-86fb-4771-99cf-582d1705e048"},"vehicle_type_id":"4","last_reported":1740298281,"current_range_meters":11600,"station_id":"ce4bhg12rcd13ifvqf70","pricing_plan_id":"cebpf4jnsgd1na2vs0mg"},{"bike_id":"2aacb4d9-2503-4289-b8c6-be9ef6e4c426","system_id":"levelo_inurba_marseille","lat":43.28725,"lon":5.37364,"is_reserved":false,"is_disabled":false,"rental_uris":{"android":"levelo://app?vid=2aacb4d9-2503-4289-b8c6-be9ef6e4c426","ios":"levelo://app?vid=2aacb4d9-2503-4289-b8c6-be9ef6e4c426"},"vehicle_type_id":"4","last_reported":1740298281,"current_range_meters":11600,"station_id":"ce4bh3p2rcd13ifvqdq0","pricing_plan_id":"cebpf4jnsgd1na2vs0mg"},{"bike_id":"bf955d35-f5d5-4c7a-acee-2eb7e71c40f9","system_id":"levelo_inurba_marseille","lat":43.26682,"lon":5.38291,"is_reserved":false,"is_disabled":false,"rental_uris":{"android":"levelo://app?vid=bf955d35-f5d5-4c7a-acee-2eb7e71c40f9","ios":"levelo://app?vid=bf955d35-f5d5-4c7a-acee-2eb7e71c40f9"},"vehicle_type_id":"4","last_reported":1740298281,"current_range_meters":12000,"station_id":"ce4bhg92rcd13ifvqf90","pricing_plan_id":"cebpf4jnsgd1na2vs0mg"},{"bike_id":"99490968-3d2b-41f0-bec8-f3a47225a67d","system_id":"levelo_inurba_marseille","lat":43.28417,"lon":5.37532,"is_reserved":false,"is_disabled":false,"rental_uris":{"android":"levelo://app?vid=99490968-3d2b-41f0-bec8-f3a47225a67d","ios":"levelo://app?vid=99490968-3d2b-41f0-bec8-f3a47225a67d"},"vehicle_type_id":"4","last_reported":1740298281,"current_range_meters":12000,"station_id":"ce4bh412rcd13ifvqds0","pricing_plan_id":"cebpf4jnsgd1na2vs0mg"},{"bike_id":"07e94c33-65a8-4be0-90bf-399fe126c10e","system_id":"levelo_inurba_marseille","lat":43.25038,"lon":5.38961,"is_reserved":false,"is_disabled":false,"rental_uris":{"android":"levelo://app?vid=07e94c33-65a8-4be0-90bf-399fe126c10e","ios":"levelo://app?vid=07e94c33-65a8-4be0-90bf-399fe126c10e"},"vehicle_type_id":"4","last_reported":1740298281,"current_range_meters":12000,"station_id":"","pricing_plan_id":"cebpf4jnsgd1na2vs0mg"},{"bike_id":"af3343b3-3c87-4012-b214-6859018ec6fa","system_id":"levelo_inurba_marseille","lat":43.30661,"lon":5.40077,"is_reserved":false,"is_disabled":false,"rental_uris":{"android":"levelo://app?vid=af3343b3-3c87-4012-b214-6859018ec6fa","ios":"levelo://app?vid=af3343b3-3c87-4012-b214-6859018ec6fa"},"vehicle_type_id":"4","last_reported":1740298281,"current_range_meters":12000,"station_id":"ce4bh112rcd13ifvqda0","pricing_plan_id":"cebpf4jnsgd1na2vs0mg"},{"bike_id":"80e30e07-59ff-4807-b06b-c6dc1a9e08e2","system_id":"levelo_inurba_marseille","lat":43.33613,"lon":5.41032,"is_reserved":false,"is_disabled":true,"rental_uris":{"android":"levelo://app?vid=80e30e07-59ff-4807-b06b-c6dc1a9e08e2","ios":"levelo://app?vid=80e30e07-59ff-4807-b06b-c6dc1a9e08e2"},"vehicle_type_id":"4","last_reported":1740298281,"current_range_meters":12400,"station_id":"ce4bhqh2rcd13ifvqhmg","pricing_plan_id":"cebpf4jnsgd1na2vs0mg"},{"bike_id":"fdbcb8e1-2e4e-454d-9bd8-1cbd05122eda","system_id":"levelo_inurba_marseille","lat":43.28455,"lon":5.35889,"is_reserved":false,"is_disabled":false,"rental_uris":{"android":"levelo://app?vid=fdbcb8e1-2e4e-454d-9bd8-1cbd05122eda","ios":"levelo://app?vid=fdbcb8e1-2e4e-454d-9bd8-1cbd05122eda"},"vehicle_type_id":"4","last_reported":1740298281,"current_range_meters":12400,"station_id":"ce4bhah2rcd13ifvqei0","pricing_plan_id":"cebpf4jnsgd1na2vs0mg"},{"bike_id":"fc2e944f-3330-4248-8d50-1bac21997cd1","system_id":"levelo_inurba_marseille","lat":43.29555,"lon":5.39988,"is_reserved":false,"is_disabled":false,"rental_uris":{"android":"levelo://app?vid=fc2e944f-3330-4248-8d50-1bac21997cd1","ios":"levelo://app?vid=fc2e944f-3330-4248-8d50-1bac21997cd1"},"vehicle_type_id":"4","last_reported":1740298281,"current_range_meters":12400,"station_id":"ce4bh312rcd13ifvqdj0","pricing_plan_id":"cebpf4jnsgd1na2vs0mg"},{"bike_id":"7330758a-b186-4c5c-af68-65980e50c2ac","system_id":"levelo_inurba_marseille","lat":43.28037,"lon":5.3695,"is_reserved":false,"is_disabled":false,"rental_uris":{"android":"levelo://app?vid=7330758a-b186-4c5c-af68-65980e50c2ac","ios":"levelo://app?vid=7330758a-b186-4c5c-af68-65980e50c2ac"},"vehicle_type_id":"4","last_reported":1740298281,"current_range_meters":12400,"station_id":"ce4bha12rcd13ifvqef0","pricing_plan_id":"cebpf4jnsgd1na2vs0mg"},{"bike_id":"e0c1d965-9bb5-48f6-93c4-81a00c3e7849","system_id":"levelo_inurba_marseille","lat":43.27071,"lon":5.42272,"is_reserved":false,"is_disabled":false,"rental_uris":{"android":"levelo://app?vid=e0c1d965-9bb5-48f6-93c4-81a00c3e7849","ios":"levelo://app?vid=e0c1d965-9bb5-48f6-93c4-81a00c3e7849"},"vehicle_type_id":"4","last_reported":1740298281,"current_range_meters":12400,"station_id":"ce4bhk92rcd13ifvqgb0","pricing_plan_id":"cebpf4jnsgd1na2vs0mg"},{"bike_id":"6e7453d3-b596-416f-a44e-21daef2820ad","system_id":"levelo_inurba_marseille","lat":43.25576,"lon":5.38243,"is_reserved":false,"is_disabled":false,"rental_uris":{"android":"levelo://app?vid=6e7453d3-b596-416f-a44e-21daef2820ad","ios":"levelo://app?vid=6e7453d3-b596-416f-a44e-21daef2820ad"},"vehicle_type_id":"4","last_reported":1740298281,"current_range_meters":12800,"station_id":"ce4bhih2rcd13ifvqfs0","pricing_plan_id":"cebpf4jnsgd1na2vs0mg"},{"bike_id":"0960003d-eea6-4d26-a89e-510626acdaa2","system_id":"levelo_inurba_marseille","lat":43.27937,"lon":5.41046,"is_reserved":false,"is_disabled":false,"rental_uris":{"android":"levelo://app?vid=0960003d-eea6-4d26-a89e-510626acdaa2","ios":"levelo://app?vid=0960003d-eea6-4d26-a89e-510626acdaa2"},"vehicle_type_id":"4","last_reported":1740298281,"current_range_meters":12800,"station_id":"ce4bhnp2rcd13ifvqh0g","pricing_plan_id":"cebpf4jnsgd1na2vs0mg"},{"bike_id":"805dafe4-ede9-43e3-9967-acf972eeb82f","system_id":"levelo_inurba_marseille","lat":43.31067,"lon":5.3835,"is_reserved":false,"is_disabled":false,"rental_uris":{"android":"levelo://app?vid=805dafe4-ede9-43e3-9967-acf972eeb82f","ios":"levelo://app?vid=805dafe4-ede9-43e3-9967-acf972eeb82f"},"vehicle_type_id":"4","last_reported":1740298281,"current_range_meters":12800,"station_id":"ce4bgv92rcd13ifvqcr0","pricing_plan_id":"cebpf4jnsgd1na2vs0mg"},{"bike_id":"e64ff07f-c2cf-4166-9163-32e5f1609d23","system_id":"levelo_inurba_marseille","lat":43.30649,"lon":5.4007,"is_reserved":false,"is_disabled":false,"rental_uris":{"android":"levelo://app?vid=e64ff07f-c2cf-4166-9163-32e5f1609d23","ios":"levelo://app?vid=e64ff07f-c2cf-4166-9163-32e5f1609d23"},"vehicle_type_id":"4","last_reported":1740298281,"current_range_meters":12800,"station_id":"ce4bh112rcd13ifvqda0","pricing_plan_id":"cebpf4jnsgd1na2vs0mg"},{"bike_id":"385d7307-e183-42a8-82a3-6bef8a311a76","system_id":"levelo_inurba_marseille","lat":43.2743,"lon":5.39408,"is_reserved":false,"is_disabled":false,"rental_uris":{"android":"levelo://app?vid=385d7307-e183-42a8-82a3-6bef8a311a76","ios":"levelo://app?vid=385d7307-e183-42a8-82a3-6bef8a311a76"},"vehicle_type_id":"4","last_reported":1740298281,"current_range_meters":12800,"station_id":"ce4bhdp2rcd13ifvqf20","pricing_plan_id":"cebpf4jnsgd1na2vs0mg"},{"bike_id":"1b218dd3-cbf0-4126-858c-bdfc514e6cf8","system_id":"levelo_inurba_marseille","lat":43.30237,"lon":5.36929,"is_reserved":false,"is_disabled":false,"rental_uris":{"android":"levelo://app?vid=1b218dd3-cbf0-4126-858c-bdfc514e6cf8","ios":"levelo://app?vid=1b218dd3-cbf0-4126-858c-bdfc514e6cf8"},"vehicle_type_id":"4","last_reported":1740298281,"current_range_meters":12800,"station_id":"ce4bgqh2rcd13ifvqc5g","pricing_plan_id":"cebpf4jnsgd1na2vs0mg"},{"bike_id":"6cee15f5-f5b0-4f78-80d2-62dd5deb5a0a","system_id":"levelo_inurba_marseille","lat":43.26571,"lon":5.39071,"is_reserved":false,"is_disabled":false,"rental_uris":{"android":"levelo://app?vid=6cee15f5-f5b0-4f78-80d2-62dd5deb5a0a","ios":"levelo://app?vid=6cee15f5-f5b0-4f78-80d2-62dd5deb5a0a"},"vehicle_type_id":"4","last_reported":1740298281,"current_range_meters":13600,"station_id":"ce4bhe12rcd13ifvqf30","pricing_plan_id":"cebpf4jnsgd1na2vs0mg"},{"bike_id":"47c58b1f-0f04-4a95-ba73-4d794abee5f2","system_id":"levelo_inurba_marseille","lat":43.30445,"lon":5.38906,"is_reserved":false,"is_disabled":true,"rental_uris":{"android":"levelo://app?vid=47c58b1f-0f04-4a95-ba73-4d794abee5f2","ios":"levelo://app?vid=47c58b1f-0f04-4a95-ba73-4d794abee5f2"},"vehicle_type_id":"4","last_reported":1740298281,"current_range_meters":14000,"station_id":"ce4bgk12rcd13ifvqbi0","pricing_plan_id":"cebpf4jnsgd1na2vs0mg"},{"bike_id":"b3ac880b-d8b7-46a2-9b1a-f85bd64e6893","system_id":"levelo_inurba_marseille","lat":43.27305,"lon":5.39082,"is_reserved":false,"is_disabled":false,"rental_uris":{"android":"levelo://app?vid=b3ac880b-d8b7-46a2-9b1a-f85bd64e6893","ios":"levelo://app?vid=b3ac880b-d8b7-46a2-9b1a-f85bd64e6893"},"vehicle_type_id":"4","last_reported":1740298281,"current_range_meters":13600,"station_id":"ce4bhgp2rcd13ifvqfe0","pricing_plan_id":"cebpf4jnsgd1na2vs0mg"},{"bike_id":"133eda79-8c18-4ed5-8caf-521ff4896829","system_id":"levelo_inurba_marseille","lat":43.28618,"lon":5.37051,"is_reserved":false,"is_disabled":false,"rental_uris":{"android":"levelo://app?vid=133eda79-8c18-4ed5-8caf-521ff4896829","ios":"levelo://app?vid=133eda79-8c18-4ed5-8caf-521ff4896829"},"vehicle_type_id":"4","last_reported":1740298281,"current_range_meters":14000,"station_id":"ce4bht12rcd13ifvqi60","pricing_plan_id":"cebpf4jnsgd1na2vs0mg"},{"bike_id":"e636832d-d31d-492b-9bcd-b899a106503d","system_id":"levelo_inurba_marseille","lat":43.24167,"lon":5.36386,"is_reserved":false,"is_disabled":false,"rental_uris":{"android":"levelo://app?vid=e636832d-d31d-492b-9bcd-b899a106503d","ios":"levelo://app?vid=e636832d-d31d-492b-9bcd-b899a106503d"},"vehicle_type_id":"4","last_reported":1740298281,"current_range_meters":14000,"station_id":"cpo36qri1sfpv3e86is0","pricing_plan_id":"cebpf4jnsgd1na2vs0mg"},{"bike_id":"ab7da9df-c7ed-482b-9961-43b5cca3e34b","system_id":"levelo_inurba_marseille","lat":43.31115,"lon":5.37799,"is_reserved":false,"is_disabled":true,"rental_uris":{"android":"levelo://app?vid=ab7da9df-c7ed-482b-9961-43b5cca3e34b","ios":"levelo://app?vid=ab7da9df-c7ed-482b-9961-43b5cca3e34b"},"vehicle_type_id":"4","last_reported":1740298281,"current_range_meters":14400,"station_id":"ce4bgt92rcd13ifvqcg0","pricing_plan_id":"cebpf4jnsgd1na2vs0mg"},{"bike_id":"855caca9-cd59-4c97-ad51-a64e28ee341f","system_id":"levelo_inurba_marseille","lat":43.30876,"lon":5.39663,"is_reserved":false,"is_disabled":true,"rental_uris":{"android":"levelo://app?vid=855caca9-cd59-4c97-ad51-a64e28ee341f","ios":"levelo://app?vid=855caca9-cd59-4c97-ad51-a64e28ee341f"},"vehicle_type_id":"4","last_reported":1740298281,"current_range_meters":14400,"station_id":"ce4bh012rcd13ifvqcv0","pricing_plan_id":"cebpf4jnsgd1na2vs0mg"},{"bike_id":"e501be99-a171-4e91-9e5b-ac547e4c06f2","system_id":"levelo_inurba_marseille","lat":43.23193,"lon":5.35556,"is_reserved":false,"is_disabled":false,"rental_uris":{"android":"levelo://app?vid=e501be99-a171-4e91-9e5b-ac547e4c06f2","ios":"levelo://app?vid=e501be99-a171-4e91-9e5b-ac547e4c06f2"},"vehicle_type_id":"4","last_reported":1740298281,"current_range_meters":14800,"station_id":"ce4bhu92rcd13ifvqi70","pricing_plan_id":"cebpf4jnsgd1na2vs0mg"},{"bike_id":"a3610751-bbe4-4d3e-a717-1a0eebd2fb2a","system_id":"levelo_inurba_marseille","lat":43.30664,"lon":5.375365,"is_reserved":false,"is_disabled":false,"rental_uris":{"android":"levelo://app?vid=a3610751-bbe4-4d3e-a717-1a0eebd2fb2a","ios":"levelo://app?vid=a3610751-bbe4-4d3e-a717-1a0eebd2fb2a"},"vehicle_type_id":"4","last_reported":1740298281,"current_range_meters":14400,"station_id":"","pricing_plan_id":"cebpf4jnsgd1na2vs0mg"},{"bike_id":"a695eda3-8555-4ce3-85ff-990506cef133","system_id":"levelo_inurba_marseille","lat":43.28086,"lon":5.3786,"is_reserved":false,"is_disabled":false,"rental_uris":{"android":"levelo://app?vid=a695eda3-8555-4ce3-85ff-990506cef133","ios":"levelo://app?vid=a695eda3-8555-4ce3-85ff-990506cef133"},"vehicle_type_id":"4","last_reported":1740298281,"current_range_meters":14800,"station_id":"ce4bha12rcd13ifvqee0","pricing_plan_id":"cebpf4jnsgd1na2vs0mg"},{"bike_id":"4caf490d-10e5-4073-8dae-a68a285775aa","system_id":"levelo_inurba_marseille","lat":43.24396,"lon":5.37056,"is_reserved":false,"is_disabled":false,"rental_uris":{"android":"levelo://app?vid=4caf490d-10e5-4073-8dae-a68a285775aa","ios":"levelo://app?vid=4caf490d-10e5-4073-8dae-a68a285775aa"},"vehicle_type_id":"4","last_reported":1740298281,"current_range_meters":14800,"station_id":"ce4bhhh2rcd13ifvqfk0","pricing_plan_id":"cebpf4jnsgd1na2vs0mg"},{"bike_id":"97ecfce5-1345-4264-9caa-09b38454c8ce","system_id":"levelo_inurba_marseille","lat":43.25713,"lon":5.4109,"is_reserved":false,"is_disabled":false,"rental_uris":{"android":"levelo://app?vid=97ecfce5-1345-4264-9caa-09b38454c8ce","ios":"levelo://app?vid=97ecfce5-1345-4264-9caa-09b38454c8ce"},"vehicle_type_id":"4","last_reported":1740298281,"current_range_meters":14800,"station_id":"ce4bhkp2rcd13ifvqgd0","pricing_plan_id":"cebpf4jnsgd1na2vs0mg"},{"bike_id":"4bf95473-2b8f-4dfa-85d3-1f987c13c8a4","system_id":"levelo_inurba_marseille","lat":43.30352,"lon":5.41886,"is_reserved":false,"is_disabled":false,"rental_uris":{"android":"levelo://app?vid=4bf95473-2b8f-4dfa-85d3-1f987c13c8a4","ios":"levelo://app?vid=4bf95473-2b8f-4dfa-85d3-1f987c13c8a4"},"vehicle_type_id":"4","last_reported":1740298281,"current_range_meters":14800,"station_id":"ce4bhop2rcd13ifvqh7g","pricing_plan_id":"cebpf4jnsgd1na2vs0mg"},{"bike_id":"2bdc35be-c87d-4858-a812-b27d436edeb5","system_id":"levelo_inurba_marseille","lat":43.28269,"lon":5.35086,"is_reserved":false,"is_disabled":false,"rental_uris":{"android":"levelo://app?vid=2bdc35be-c87d-4858-a812-b27d436edeb5","ios":"levelo://app?vid=2bdc35be-c87d-4858-a812-b27d436edeb5"},"vehicle_type_id":"4","last_reported":1740298281,"current_range_meters":14800,"station_id":"ce4bhbp2rcd13ifvqerg","pricing_plan_id":"cebpf4jnsgd1na2vs0mg"},{"bike_id":"0e17628e-77f1-4b2d-9900-e51a8c9f0181","system_id":"levelo_inurba_marseille","lat":43.28887,"lon":5.44989,"is_reserved":false,"is_disabled":false,"rental_uris":{"android":"levelo://app?vid=0e17628e-77f1-4b2d-9900-e51a8c9f0181","ios":"levelo://app?vid=0e17628e-77f1-4b2d-9900-e51a8c9f0181"},"vehicle_type_id":"4","last_reported":1740298281,"current_range_meters":15200,"station_id":"","pricing_plan_id":"cebpf4jnsgd1na2vs0mg"},{"bike_id":"25eeeba0-463a-4a74-bea9-a9a91cf848d3","system_id":"levelo_inurba_marseille","lat":43.272095,"lon":5.391818,"is_reserved":false,"is_disabled":false,"rental_uris":{"android":"levelo://app?vid=25eeeba0-463a-4a74-bea9-a9a91cf848d3","ios":"levelo://app?vid=25eeeba0-463a-4a74-bea9-a9a91cf848d3"},"vehicle_type_id":"4","last_reported":1740298281,"current_range_meters":11200,"station_id":"ce4bhmp2rcd13ifvqgog","pricing_plan_id":"cebpf4jnsgd1na2vs0mg"},{"bike_id":"3a65e98c-6fc0-442b-97a2-ccd814e231ae","system_id":"levelo_inurba_marseille","lat":43.24071,"lon":5.37762,"is_reserved":false,"is_disabled":false,"rental_uris":{"android":"levelo://app?vid=3a65e98c-6fc0-442b-97a2-ccd814e231ae","ios":"levelo://app?vid=3a65e98c-6fc0-442b-97a2-ccd814e231ae"},"vehicle_type_id":"4","last_reported":1740298281,"current_range_meters":15200,"station_id":"ce4bhnp2rcd13ifvqgvg","pricing_plan_id":"cebpf4jnsgd1na2vs0mg"},{"bike_id":"6e15618d-4d2d-4cdc-9d90-2b87c6806ce4","system_id":"levelo_inurba_marseille","lat":43.27178,"lon":5.40996,"is_reserved":false,"is_disabled":false,"rental_uris":{"android":"levelo://app?vid=6e15618d-4d2d-4cdc-9d90-2b87c6806ce4","ios":"levelo://app?vid=6e15618d-4d2d-4cdc-9d90-2b87c6806ce4"},"vehicle_type_id":"4","last_reported":1740298281,"current_range_meters":15200,"station_id":"ce4bhl12rcd13ifvqgf0","pricing_plan_id":"cebpf4jnsgd1na2vs0mg"},{"bike_id":"9fdc5228-e835-4793-ad30-e5834cfd975b","system_id":"levelo_inurba_marseille","lat":43.2586,"lon":5.39904,"is_reserved":false,"is_disabled":false,"rental_uris":{"android":"levelo://app?vid=9fdc5228-e835-4793-ad30-e5834cfd975b","ios":"levelo://app?vid=9fdc5228-e835-4793-ad30-e5834cfd975b"},"vehicle_type_id":"4","last_reported":1740298281,"current_range_meters":15200,"station_id":"ce4bhl92rcd13ifvqghg","pricing_plan_id":"cebpf4jnsgd1na2vs0mg"},{"bike_id":"6d998a69-4cab-4a34-8bc9-ba06a297eb86","system_id":"levelo_inurba_marseille","lat":43.28371,"lon":5.38632,"is_reserved":false,"is_disabled":false,"rental_uris":{"android":"levelo://app?vid=6d998a69-4cab-4a34-8bc9-ba06a297eb86","ios":"levelo://app?vid=6d998a69-4cab-4a34-8bc9-ba06a297eb86"},"vehicle_type_id":"4","last_reported":1740298281,"current_range_meters":15200,"station_id":"ce4bh492rcd13ifvqdvg","pricing_plan_id":"cebpf4jnsgd1na2vs0mg"},{"bike_id":"32f327f9-b577-4c3c-a746-3092ee67a262","system_id":"levelo_inurba_marseille","lat":43.292248,"lon":5.360757,"is_reserved":false,"is_disabled":false,"rental_uris":{"android":"levelo://app?vid=32f327f9-b577-4c3c-a746-3092ee67a262","ios":"levelo://app?vid=32f327f9-b577-4c3c-a746-3092ee67a262"},"vehicle_type_id":"4","last_reported":1740298281,"current_range_meters":16000,"station_id":"ce4bhbh2rcd13ifvqeqg","pricing_plan_id":"cebpf4jnsgd1na2vs0mg"},{"bike_id":"94d81672-f077-455d-ad5d-d4332136c2a8","system_id":"levelo_inurba_marseille","lat":43.22893,"lon":5.35409,"is_reserved":false,"is_disabled":false,"rental_uris":{"android":"levelo://app?vid=94d81672-f077-455d-ad5d-d4332136c2a8","ios":"levelo://app?vid=94d81672-f077-455d-ad5d-d4332136c2a8"},"vehicle_type_id":"4","last_reported":1740298281,"current_range_meters":16000,"station_id":"cpo3532slgdg3j2ikp40","pricing_plan_id":"cebpf4jnsgd1na2vs0mg"},{"bike_id":"9faf844a-413f-419f-bdea-64830f7f2bfb","system_id":"levelo_inurba_marseille","lat":43.2991,"lon":5.37859,"is_reserved":false,"is_disabled":false,"rental_uris":{"android":"levelo://app?vid=9faf844a-413f-419f-bdea-64830f7f2bfb","ios":"levelo://app?vid=9faf844a-413f-419f-bdea-64830f7f2bfb"},"vehicle_type_id":"4","last_reported":1740298281,"current_range_meters":16000,"station_id":"","pricing_plan_id":"cebpf4jnsgd1na2vs0mg"},{"bike_id":"d11f8e8f-64ba-4e30-9bb1-e71abe31654c","system_id":"levelo_inurba_marseille","lat":43.30315,"lon":5.36883,"is_reserved":false,"is_disabled":false,"rental_uris":{"android":"levelo://app?vid=d11f8e8f-64ba-4e30-9bb1-e71abe31654c","ios":"levelo://app?vid=d11f8e8f-64ba-4e30-9bb1-e71abe31654c"},"vehicle_type_id":"4","last_reported":1740298281,"current_range_meters":16000,"station_id":"ce4bgqh2rcd13ifvqc5g","pricing_plan_id":"cebpf4jnsgd1na2vs0mg"},{"bike_id":"35f7fe5f-b05d-405c-a155-dda0758733e2","system_id":"levelo_inurba_marseille","lat":43.28166,"lon":5.42625,"is_reserved":false,"is_disabled":true,"rental_uris":{"android":"levelo://app?vid=35f7fe5f-b05d-405c-a155-dda0758733e2","ios":"levelo://app?vid=35f7fe5f-b05d-405c-a155-dda0758733e2"},"vehicle_type_id":"4","last_reported":1740298281,"current_range_meters":16000,"station_id":"ce4bhnh2rcd13ifvqgug","pricing_plan_id":"cebpf4jnsgd1na2vs0mg"},{"bike_id":"220371b2-f7f7-4721-86fa-41955a753552","system_id":"levelo_inurba_marseille","lat":43.28695,"lon":5.37406,"is_reserved":false,"is_disabled":false,"rental_uris":{"android":"levelo://app?vid=220371b2-f7f7-4721-86fa-41955a753552","ios":"levelo://app?vid=220371b2-f7f7-4721-86fa-41955a753552"},"vehicle_type_id":"4","last_reported":1740298281,"current_range_meters":16000,"station_id":"ce4bh3p2rcd13ifvqdq0","pricing_plan_id":"cebpf4jnsgd1na2vs0mg"},{"bike_id":"24371844-0388-4325-bd72-54e6291e85e8","system_id":"levelo_inurba_marseille","lat":43.27617,"lon":5.36129,"is_reserved":false,"is_disabled":false,"rental_uris":{"android":"levelo://app?vid=24371844-0388-4325-bd72-54e6291e85e8","ios":"levelo://app?vid=24371844-0388-4325-bd72-54e6291e85e8"},"vehicle_type_id":"4","last_reported":1740298281,"current_range_meters":16000,"station_id":"ce4bgj92rcd13ifvqbe0","pricing_plan_id":"cebpf4jnsgd1na2vs0mg"},{"bike_id":"7e68d2dc-c00f-4e58-8247-38224da8b835","system_id":"levelo_inurba_marseille","lat":43.2316,"lon":5.43713,"is_reserved":false,"is_disabled":false,"rental_uris":{"android":"levelo://app?vid=7e68d2dc-c00f-4e58-8247-38224da8b835","ios":"levelo://app?vid=7e68d2dc-c00f-4e58-8247-38224da8b835"},"vehicle_type_id":"4","last_reported":1740298281,"current_range_meters":16000,"station_id":"ce4bhmp2rcd13ifvqgog","pricing_plan_id":"cebpf4jnsgd1na2vs0mg"},{"bike_id":"4fd90cf5-0719-47d5-a493-0ca6596204e5","system_id":"levelo_inurba_marseille","lat":43.27999,"lon":5.41655,"is_reserved":false,"is_disabled":false,"rental_uris":{"android":"levelo://app?vid=4fd90cf5-0719-47d5-a493-0ca6596204e5","ios":"levelo://app?vid=4fd90cf5-0719-47d5-a493-0ca6596204e5"},"vehicle_type_id":"4","last_reported":1740298281,"current_range_meters":16400,"station_id":"ce4bho12rcd13ifvqh1g","pricing_plan_id":"cebpf4jnsgd1na2vs0mg"},{"bike_id":"95e2ddce-3db5-44d8-803d-306a160839b1","system_id":"levelo_inurba_marseille","lat":43.28729,"lon":5.36077,"is_reserved":false,"is_disabled":false,"rental_uris":{"android":"levelo://app?vid=95e2ddce-3db5-44d8-803d-306a160839b1","ios":"levelo://app?vid=95e2ddce-3db5-44d8-803d-306a160839b1"},"vehicle_type_id":"4","last_reported":1740298281,"current_range_meters":16400,"station_id":"cki0cbj6b192h4jlfktg","pricing_plan_id":"cebpf4jnsgd1na2vs0mg"},{"bike_id":"85b5bbcd-7da2-4232-8e5a-a25680dad453","system_id":"levelo_inurba_marseille","lat":43.23954,"lon":5.36655,"is_reserved":false,"is_disabled":false,"rental_uris":{"android":"levelo://app?vid=85b5bbcd-7da2-4232-8e5a-a25680dad453","ios":"levelo://app?vid=85b5bbcd-7da2-4232-8e5a-a25680dad453"},"vehicle_type_id":"4","last_reported":1740298281,"current_range_meters":16400,"station_id":"ce4bhi12rcd13ifvqfp0","pricing_plan_id":"cebpf4jnsgd1na2vs0mg"},{"bike_id":"faeb2e28-4e2f-4cbb-aea8-2733d5daab0d","system_id":"levelo_inurba_marseille","lat":43.28692,"lon":5.37398,"is_reserved":false,"is_disabled":false,"rental_uris":{"android":"levelo://app?vid=faeb2e28-4e2f-4cbb-aea8-2733d5daab0d","ios":"levelo://app?vid=faeb2e28-4e2f-4cbb-aea8-2733d5daab0d"},"vehicle_type_id":"4","last_reported":1740298281,"current_range_meters":16400,"station_id":"ce4bh3p2rcd13ifvqdq0","pricing_plan_id":"cebpf4jnsgd1na2vs0mg"},{"bike_id":"ec6341d0-8737-4a97-bfc5-5d054fe4eb61","system_id":"levelo_inurba_marseille","lat":43.282349,"lon":5.402938,"is_reserved":false,"is_disabled":false,"rental_uris":{"android":"levelo://app?vid=ec6341d0-8737-4a97-bfc5-5d054fe4eb61","ios":"levelo://app?vid=ec6341d0-8737-4a97-bfc5-5d054fe4eb61"},"vehicle_type_id":"4","last_reported":1740298281,"current_range_meters":16400,"station_id":"ce4bhnh2rcd13ifvqgtg","pricing_plan_id":"cebpf4jnsgd1na2vs0mg"},{"bike_id":"e0eaa8ed-822d-43b8-9829-b90003beb400","system_id":"levelo_inurba_marseille","lat":43.24058,"lon":5.37775,"is_reserved":false,"is_disabled":false,"rental_uris":{"android":"levelo://app?vid=e0eaa8ed-822d-43b8-9829-b90003beb400","ios":"levelo://app?vid=e0eaa8ed-822d-43b8-9829-b90003beb400"},"vehicle_type_id":"4","last_reported":1740298281,"current_range_meters":16400,"station_id":"ce4bhnp2rcd13ifvqgvg","pricing_plan_id":"cebpf4jnsgd1na2vs0mg"},{"bike_id":"7540bb76-9c83-4856-b875-c71e42b1428c","system_id":"levelo_inurba_marseille","lat":43.29706,"lon":5.36613,"is_reserved":false,"is_disabled":false,"rental_uris":{"android":"levelo://app?vid=7540bb76-9c83-4856-b875-c71e42b1428c","ios":"levelo://app?vid=7540bb76-9c83-4856-b875-c71e42b1428c"},"vehicle_type_id":"4","last_reported":1740298281,"current_range_meters":16400,"station_id":"ce4bgn12rcd13ifvqbt0","pricing_plan_id":"cebpf4jnsgd1na2vs0mg"},{"bike_id":"965f384a-f968-46e4-8c7c-1f5e669b6909","system_id":"levelo_inurba_marseille","lat":43.25077,"lon":5.39526,"is_reserved":false,"is_disabled":false,"rental_uris":{"android":"levelo://app?vid=965f384a-f968-46e4-8c7c-1f5e669b6909","ios":"levelo://app?vid=965f384a-f968-46e4-8c7c-1f5e669b6909"},"vehicle_type_id":"4","last_reported":1740298281,"current_range_meters":16800,"station_id":"ce4bhm12rcd13ifvqgkg","pricing_plan_id":"cebpf4jnsgd1na2vs0mg"},{"bike_id":"bfa49506-8aca-4270-ad81-9aae4b5f7d55","system_id":"levelo_inurba_marseille","lat":43.28475,"lon":5.3844,"is_reserved":false,"is_disabled":false,"rental_uris":{"android":"levelo://app?vid=bfa49506-8aca-4270-ad81-9aae4b5f7d55","ios":"levelo://app?vid=bfa49506-8aca-4270-ad81-9aae4b5f7d55"},"vehicle_type_id":"4","last_reported":1740298281,"current_range_meters":16800,"station_id":"ce4bh512rcd13ifvqe3g","pricing_plan_id":"cebpf4jnsgd1na2vs0mg"},{"bike_id":"0ab8f8c4-7aa8-4128-a2cd-ff233900785f","system_id":"levelo_inurba_marseille","lat":43.3059,"lon":5.37249,"is_reserved":false,"is_disabled":false,"rental_uris":{"android":"levelo://app?vid=0ab8f8c4-7aa8-4128-a2cd-ff233900785f","ios":"levelo://app?vid=0ab8f8c4-7aa8-4128-a2cd-ff233900785f"},"vehicle_type_id":"4","last_reported":1740298281,"current_range_meters":16800,"station_id":"ce4bgqh2rcd13ifvqc4g","pricing_plan_id":"cebpf4jnsgd1na2vs0mg"},{"bike_id":"e672cd00-72b0-400a-8535-9ab04e4611c6","system_id":"levelo_inurba_marseille","lat":43.243968,"lon":5.370664,"is_reserved":false,"is_disabled":false,"rental_uris":{"android":"levelo://app?vid=e672cd00-72b0-400a-8535-9ab04e4611c6","ios":"levelo://app?vid=e672cd00-72b0-400a-8535-9ab04e4611c6"},"vehicle_type_id":"4","last_reported":1740298281,"current_range_meters":16800,"station_id":"ce4bhhh2rcd13ifvqfk0","pricing_plan_id":"cebpf4jnsgd1na2vs0mg"},{"bike_id":"61208316-9308-4988-99f7-5ead4f0f4c93","system_id":"levelo_inurba_marseille","lat":43.23195,"lon":5.35546,"is_reserved":false,"is_disabled":false,"rental_uris":{"android":"levelo://app?vid=61208316-9308-4988-99f7-5ead4f0f4c93","ios":"levelo://app?vid=61208316-9308-4988-99f7-5ead4f0f4c93"},"vehicle_type_id":"4","last_reported":1740298281,"current_range_meters":16800,"station_id":"ce4bhu92rcd13ifvqi70","pricing_plan_id":"cebpf4jnsgd1na2vs0mg"},{"bike_id":"45fb24fd-97c0-4da8-b3a6-d3651ebff086","system_id":"levelo_inurba_marseille","lat":43.31255,"lon":5.40189,"is_reserved":false,"is_disabled":false,"rental_uris":{"android":"levelo://app?vid=45fb24fd-97c0-4da8-b3a6-d3651ebff086","ios":"levelo://app?vid=45fb24fd-97c0-4da8-b3a6-d3651ebff086"},"vehicle_type_id":"4","last_reported":1740298281,"current_range_meters":17200,"station_id":"ce4bh092rcd13ifvqd30","pricing_plan_id":"cebpf4jnsgd1na2vs0mg"},{"bike_id":"6d3a28fb-ad8e-4099-ab7e-2f1842cf0da6","system_id":"levelo_inurba_marseille","lat":43.31999,"lon":5.38158,"is_reserved":false,"is_disabled":false,"rental_uris":{"android":"levelo://app?vid=6d3a28fb-ad8e-4099-ab7e-2f1842cf0da6","ios":"levelo://app?vid=6d3a28fb-ad8e-4099-ab7e-2f1842cf0da6"},"vehicle_type_id":"4","last_reported":1740298281,"current_range_meters":17200,"station_id":"ce4bhr12rcd13ifvqhpg","pricing_plan_id":"cebpf4jnsgd1na2vs0mg"},{"bike_id":"04d2baed-6020-49da-a94e-5cd3cc1cd370","system_id":"levelo_inurba_marseille","lat":43.25793,"lon":5.39361,"is_reserved":false,"is_disabled":false,"rental_uris":{"android":"levelo://app?vid=04d2baed-6020-49da-a94e-5cd3cc1cd370","ios":"levelo://app?vid=04d2baed-6020-49da-a94e-5cd3cc1cd370"},"vehicle_type_id":"4","last_reported":1740298281,"current_range_meters":17200,"station_id":"ce4bhip2rcd13ifvqft0","pricing_plan_id":"cebpf4jnsgd1na2vs0mg"},{"bike_id":"32e8ffbd-83fe-43c3-a0f4-249f67cd2b58","system_id":"levelo_inurba_marseille","lat":43.23188,"lon":5.39973,"is_reserved":false,"is_disabled":false,"rental_uris":{"android":"levelo://app?vid=32e8ffbd-83fe-43c3-a0f4-249f67cd2b58","ios":"levelo://app?vid=32e8ffbd-83fe-43c3-a0f4-249f67cd2b58"},"vehicle_type_id":"4","last_reported":1740298281,"current_range_meters":17200,"station_id":"ce4bhn12rcd13ifvqgqg","pricing_plan_id":"cebpf4jnsgd1na2vs0mg"},{"bike_id":"68c1cb49-7da1-4934-a025-4e78e338d091","system_id":"levelo_inurba_marseille","lat":43.337638,"lon":5.374412,"is_reserved":false,"is_disabled":false,"rental_uris":{"android":"levelo://app?vid=68c1cb49-7da1-4934-a025-4e78e338d091","ios":"levelo://app?vid=68c1cb49-7da1-4934-a025-4e78e338d091"},"vehicle_type_id":"4","last_reported":1740298281,"current_range_meters":17200,"station_id":"","pricing_plan_id":"cebpf4jnsgd1na2vs0mg"},{"bike_id":"fc93a0cd-d658-4fe7-9e6a-52a49333f268","system_id":"levelo_inurba_marseille","lat":43.3082,"lon":5.38196,"is_reserved":false,"is_disabled":false,"rental_uris":{"android":"levelo://app?vid=fc93a0cd-d658-4fe7-9e6a-52a49333f268","ios":"levelo://app?vid=fc93a0cd-d658-4fe7-9e6a-52a49333f268"},"vehicle_type_id":"4","last_reported":1740298281,"current_range_meters":17200,"station_id":"ce4bgt12rcd13ifvqce0","pricing_plan_id":"cebpf4jnsgd1na2vs0mg"},{"bike_id":"bce8ff4e-7e32-4ed9-90a6-bb011609363d","system_id":"levelo_inurba_marseille","lat":43.28063,"lon":5.37946,"is_reserved":false,"is_disabled":false,"rental_uris":{"android":"levelo://app?vid=bce8ff4e-7e32-4ed9-90a6-bb011609363d","ios":"levelo://app?vid=bce8ff4e-7e32-4ed9-90a6-bb011609363d"},"vehicle_type_id":"4","last_reported":1740298281,"current_range_meters":17600,"station_id":"","pricing_plan_id":"cebpf4jnsgd1na2vs0mg"},{"bike_id":"51c7c09f-82e9-4a4b-a201-54869c0fba8f","system_id":"levelo_inurba_marseille","lat":43.25087,"lon":5.39519,"is_reserved":false,"is_disabled":true,"rental_uris":{"android":"levelo://app?vid=51c7c09f-82e9-4a4b-a201-54869c0fba8f","ios":"levelo://app?vid=51c7c09f-82e9-4a4b-a201-54869c0fba8f"},"vehicle_type_id":"4","last_reported":1740298281,"current_range_meters":17600,"station_id":"ce4bhm12rcd13ifvqgkg","pricing_plan_id":"cebpf4jnsgd1na2vs0mg"},{"bike_id":"8e5d8ee8-3ab6-431c-8183-aaf067d6c91b","system_id":"levelo_inurba_marseille","lat":43.25,"lon":5.38922,"is_reserved":false,"is_disabled":false,"rental_uris":{"android":"levelo://app?vid=8e5d8ee8-3ab6-431c-8183-aaf067d6c91b","ios":"levelo://app?vid=8e5d8ee8-3ab6-431c-8183-aaf067d6c91b"},"vehicle_type_id":"4","last_reported":1740298281,"current_range_meters":17600,"station_id":"ce4bhgp2rcd13ifvqfd0","pricing_plan_id":"cebpf4jnsgd1na2vs0mg"},{"bike_id":"9ea42a7b-6275-4b3d-8430-c7f87bde5718","system_id":"levelo_inurba_marseille","lat":43.25933,"lon":5.40894,"is_reserved":false,"is_disabled":false,"rental_uris":{"android":"levelo://app?vid=9ea42a7b-6275-4b3d-8430-c7f87bde5718","ios":"levelo://app?vid=9ea42a7b-6275-4b3d-8430-c7f87bde5718"},"vehicle_type_id":"4","last_reported":1740298281,"current_range_meters":17600,"station_id":"ce4bhm92rcd13ifvqglg","pricing_plan_id":"cebpf4jnsgd1na2vs0mg"},{"bike_id":"ee82f77f-f9d3-4009-b8ec-39bce07c2f58","system_id":"levelo_inurba_marseille","lat":43.27497,"lon":5.42452,"is_reserved":false,"is_disabled":false,"rental_uris":{"android":"levelo://app?vid=ee82f77f-f9d3-4009-b8ec-39bce07c2f58","ios":"levelo://app?vid=ee82f77f-f9d3-4009-b8ec-39bce07c2f58"},"vehicle_type_id":"4","last_reported":1740298281,"current_range_meters":17600,"station_id":"ce4bhn92rcd13ifvqgrg","pricing_plan_id":"cebpf4jnsgd1na2vs0mg"},{"bike_id":"10ef97ed-34d8-4649-924a-f68e48b166be","system_id":"levelo_inurba_marseille","lat":43.262216,"lon":5.404634,"is_reserved":false,"is_disabled":false,"rental_uris":{"android":"levelo://app?vid=10ef97ed-34d8-4649-924a-f68e48b166be","ios":"levelo://app?vid=10ef97ed-34d8-4649-924a-f68e48b166be"},"vehicle_type_id":"4","last_reported":1740298281,"current_range_meters":17600,"station_id":"ce4bhmh2rcd13ifvqgmg","pricing_plan_id":"cebpf4jnsgd1na2vs0mg"},{"bike_id":"980588cb-aa59-436a-9bc0-01f90b14b9b4","system_id":"levelo_inurba_marseille","lat":43.24155,"lon":5.36397,"is_reserved":false,"is_disabled":false,"rental_uris":{"android":"levelo://app?vid=980588cb-aa59-436a-9bc0-01f90b14b9b4","ios":"levelo://app?vid=980588cb-aa59-436a-9bc0-01f90b14b9b4"},"vehicle_type_id":"4","last_reported":1740298281,"current_range_meters":18000,"station_id":"cpo36qri1sfpv3e86is0","pricing_plan_id":"cebpf4jnsgd1na2vs0mg"},{"bike_id":"f58a8166-0cd4-4225-b2d7-1546960c346d","system_id":"levelo_inurba_marseille","lat":43.30954,"lon":5.39057,"is_reserved":false,"is_disabled":false,"rental_uris":{"android":"levelo://app?vid=f58a8166-0cd4-4225-b2d7-1546960c346d","ios":"levelo://app?vid=f58a8166-0cd4-4225-b2d7-1546960c346d"},"vehicle_type_id":"4","last_reported":1740298281,"current_range_meters":18000,"station_id":"ce4bgup2rcd13ifvqco0","pricing_plan_id":"cebpf4jnsgd1na2vs0mg"},{"bike_id":"87c93845-143c-4613-9a0d-08836448a26d","system_id":"levelo_inurba_marseille","lat":43.23953,"lon":5.36636,"is_reserved":false,"is_disabled":false,"rental_uris":{"android":"levelo://app?vid=87c93845-143c-4613-9a0d-08836448a26d","ios":"levelo://app?vid=87c93845-143c-4613-9a0d-08836448a26d"},"vehicle_type_id":"4","last_reported":1740298281,"current_range_meters":18000,"station_id":"ce4bhi12rcd13ifvqfp0","pricing_plan_id":"cebpf4jnsgd1na2vs0mg"},{"bike_id":"c74af51f-e8b0-454b-9ffe-08da9beb30bd","system_id":"levelo_inurba_marseille","lat":43.27911,"lon":5.39583,"is_reserved":false,"is_disabled":false,"rental_uris":{"android":"levelo://app?vid=c74af51f-e8b0-454b-9ffe-08da9beb30bd","ios":"levelo://app?vid=c74af51f-e8b0-454b-9ffe-08da9beb30bd"},"vehicle_type_id":"4","last_reported":1740298281,"current_range_meters":18000,"station_id":"ce4bhf92rcd13ifvqf40","pricing_plan_id":"cebpf4jnsgd1na2vs0mg"},{"bike_id":"8501ffde-8bbd-42a2-af4d-7c627a9ae301","system_id":"levelo_inurba_marseille","lat":43.288406,"lon":5.392779,"is_reserved":false,"is_disabled":false,"rental_uris":{"android":"levelo://app?vid=8501ffde-8bbd-42a2-af4d-7c627a9ae301","ios":"levelo://app?vid=8501ffde-8bbd-42a2-af4d-7c627a9ae301"},"vehicle_type_id":"4","last_reported":1740298281,"current_range_meters":18000,"station_id":"ce4bh2p2rcd13ifvqdi0","pricing_plan_id":"cebpf4jnsgd1na2vs0mg"},{"bike_id":"1f724299-518e-43e9-b32e-7282b81b7214","system_id":"levelo_inurba_marseille","lat":43.25926,"lon":5.40896,"is_reserved":false,"is_disabled":false,"rental_uris":{"android":"levelo://app?vid=1f724299-518e-43e9-b32e-7282b81b7214","ios":"levelo://app?vid=1f724299-518e-43e9-b32e-7282b81b7214"},"vehicle_type_id":"4","last_reported":1740298281,"current_range_meters":18000,"station_id":"ce4bhm92rcd13ifvqglg","pricing_plan_id":"cebpf4jnsgd1na2vs0mg"},{"bike_id":"dfd73891-7692-4880-af8b-db2b9051ddf4","system_id":"levelo_inurba_marseille","lat":43.30879,"lon":5.39643,"is_reserved":false,"is_disabled":false,"rental_uris":{"android":"levelo://app?vid=dfd73891-7692-4880-af8b-db2b9051ddf4","ios":"levelo://app?vid=dfd73891-7692-4880-af8b-db2b9051ddf4"},"vehicle_type_id":"4","last_reported":1740298281,"current_range_meters":18000,"station_id":"ce4bh012rcd13ifvqcv0","pricing_plan_id":"cebpf4jnsgd1na2vs0mg"},{"bike_id":"a2609c25-95ff-4ac8-a72d-17797d74beae","system_id":"levelo_inurba_marseille","lat":43.306422,"lon":5.400655,"is_reserved":false,"is_disabled":false,"rental_uris":{"android":"levelo://app?vid=a2609c25-95ff-4ac8-a72d-17797d74beae","ios":"levelo://app?vid=a2609c25-95ff-4ac8-a72d-17797d74beae"},"vehicle_type_id":"4","last_reported":1740298281,"current_range_meters":18800,"station_id":"ce4bh112rcd13ifvqda0","pricing_plan_id":"cebpf4jnsgd1na2vs0mg"},{"bike_id":"bc922d1f-5c2f-42f1-9eef-6338c6fc5287","system_id":"levelo_inurba_marseille","lat":43.27185,"lon":5.41007,"is_reserved":false,"is_disabled":false,"rental_uris":{"android":"levelo://app?vid=bc922d1f-5c2f-42f1-9eef-6338c6fc5287","ios":"levelo://app?vid=bc922d1f-5c2f-42f1-9eef-6338c6fc5287"},"vehicle_type_id":"4","last_reported":1740298281,"current_range_meters":18800,"station_id":"ce4bhl12rcd13ifvqgf0","pricing_plan_id":"cebpf4jnsgd1na2vs0mg"},{"bike_id":"b3a62955-8f81-4b82-bacf-cd1ac5807c40","system_id":"levelo_inurba_marseille","lat":43.28725,"lon":5.3609,"is_reserved":false,"is_disabled":false,"rental_uris":{"android":"levelo://app?vid=b3a62955-8f81-4b82-bacf-cd1ac5807c40","ios":"levelo://app?vid=b3a62955-8f81-4b82-bacf-cd1ac5807c40"},"vehicle_type_id":"4","last_reported":1740298281,"current_range_meters":18800,"station_id":"cki0cbj6b192h4jlfktg","pricing_plan_id":"cebpf4jnsgd1na2vs0mg"},{"bike_id":"9d7c969d-ee67-4fd6-9d50-a91ee3e019cb","system_id":"levelo_inurba_marseille","lat":43.23191,"lon":5.39995,"is_reserved":false,"is_disabled":false,"rental_uris":{"android":"levelo://app?vid=9d7c969d-ee67-4fd6-9d50-a91ee3e019cb","ios":"levelo://app?vid=9d7c969d-ee67-4fd6-9d50-a91ee3e019cb"},"vehicle_type_id":"4","last_reported":1740298281,"current_range_meters":18800,"station_id":"ce4bhn12rcd13ifvqgqg","pricing_plan_id":"cebpf4jnsgd1na2vs0mg"},{"bike_id":"7fe0996e-2e24-4a3a-b975-03a2a20f6506","system_id":"levelo_inurba_marseille","lat":43.32341,"lon":5.36571,"is_reserved":false,"is_disabled":false,"rental_uris":{"android":"levelo://app?vid=7fe0996e-2e24-4a3a-b975-03a2a20f6506","ios":"levelo://app?vid=7fe0996e-2e24-4a3a-b975-03a2a20f6506"},"vehicle_type_id":"4","last_reported":1740298281,"current_range_meters":18800,"station_id":"ce4bhsh2rcd13ifvqi2g","pricing_plan_id":"cebpf4jnsgd1na2vs0mg"},{"bike_id":"72ef0693-cbd3-40a5-b88b-e205a0c8529b","system_id":"levelo_inurba_marseille","lat":43.30445,"lon":5.38864,"is_reserved":false,"is_disabled":false,"rental_uris":{"android":"levelo://app?vid=72ef0693-cbd3-40a5-b88b-e205a0c8529b","ios":"levelo://app?vid=72ef0693-cbd3-40a5-b88b-e205a0c8529b"},"vehicle_type_id":"4","last_reported":1740298281,"current_range_meters":18800,"station_id":"ce4bgk12rcd13ifvqbi0","pricing_plan_id":"cebpf4jnsgd1na2vs0mg"},{"bike_id":"e9319a35-c56e-4d6c-8230-904273da8a4b","system_id":"levelo_inurba_marseille","lat":43.29795,"lon":5.39352,"is_reserved":false,"is_disabled":false,"rental_uris":{"android":"levelo://app?vid=e9319a35-c56e-4d6c-8230-904273da8a4b","ios":"levelo://app?vid=e9319a35-c56e-4d6c-8230-904273da8a4b"},"vehicle_type_id":"4","last_reported":1740298281,"current_range_meters":18800,"station_id":"chh1huq6cuj3fo74tm60","pricing_plan_id":"cebpf4jnsgd1na2vs0mg"},{"bike_id":"024d6242-f75b-4d1e-914b-e252978b28b8","system_id":"levelo_inurba_marseille","lat":43.2827,"lon":5.35055,"is_reserved":false,"is_disabled":false,"rental_uris":{"android":"levelo://app?vid=024d6242-f75b-4d1e-914b-e252978b28b8","ios":"levelo://app?vid=024d6242-f75b-4d1e-914b-e252978b28b8"},"vehicle_type_id":"4","last_reported":1740298281,"current_range_meters":18800,"station_id":"ce4bhbp2rcd13ifvqerg","pricing_plan_id":"cebpf4jnsgd1na2vs0mg"},{"bike_id":"12d537d0-986c-45a4-b597-9935b1acfa04","system_id":"levelo_inurba_marseille","lat":43.29322,"lon":5.40104,"is_reserved":false,"is_disabled":true,"rental_uris":{"android":"levelo://app?vid=12d537d0-986c-45a4-b597-9935b1acfa04","ios":"levelo://app?vid=12d537d0-986c-45a4-b597-9935b1acfa04"},"vehicle_type_id":"4","last_reported":1740298281,"current_range_meters":18800,"station_id":"ce4bh312rcd13ifvqdk0","pricing_plan_id":"cebpf4jnsgd1na2vs0mg"},{"bike_id":"c64f7d7f-6dc9-4f4f-a4ac-9ddce49a4442","system_id":"levelo_inurba_marseille","lat":43.28714,"lon":5.37365,"is_reserved":false,"is_disabled":false,"rental_uris":{"android":"levelo://app?vid=c64f7d7f-6dc9-4f4f-a4ac-9ddce49a4442","ios":"levelo://app?vid=c64f7d7f-6dc9-4f4f-a4ac-9ddce49a4442"},"vehicle_type_id":"4","last_reported":1740298281,"current_range_meters":18800,"station_id":"ce4bh3p2rcd13ifvqdq0","pricing_plan_id":"cebpf4jnsgd1na2vs0mg"},{"bike_id":"1ef41376-cd3a-40a3-ae4a-f23a2a34fc30","system_id":"levelo_inurba_marseille","lat":43.27677,"lon":5.38907,"is_reserved":false,"is_disabled":true,"rental_uris":{"android":"levelo://app?vid=1ef41376-cd3a-40a3-ae4a-f23a2a34fc30","ios":"levelo://app?vid=1ef41376-cd3a-40a3-ae4a-f23a2a34fc30"},"vehicle_type_id":"4","last_reported":1740298281,"current_range_meters":19200,"station_id":"ce4bhi12rcd13ifvqfo0","pricing_plan_id":"cebpf4jnsgd1na2vs0mg"},{"bike_id":"22503efb-b5d2-4720-90a1-7dff9292ce17","system_id":"levelo_inurba_marseille","lat":43.29187,"lon":5.39309,"is_reserved":false,"is_disabled":false,"rental_uris":{"android":"levelo://app?vid=22503efb-b5d2-4720-90a1-7dff9292ce17","ios":"levelo://app?vid=22503efb-b5d2-4720-90a1-7dff9292ce17"},"vehicle_type_id":"4","last_reported":1740298281,"current_range_meters":19200,"station_id":"ce4bh192rcd13ifvqdd0","pricing_plan_id":"cebpf4jnsgd1na2vs0mg"},{"bike_id":"b3a155e4-3b5c-4855-8532-4a4caa6bcdc7","system_id":"levelo_inurba_marseille","lat":43.27206,"lon":5.39188,"is_reserved":false,"is_disabled":false,"rental_uris":{"android":"levelo://app?vid=b3a155e4-3b5c-4855-8532-4a4caa6bcdc7","ios":"levelo://app?vid=b3a155e4-3b5c-4855-8532-4a4caa6bcdc7"},"vehicle_type_id":"4","last_reported":1740298281,"current_range_meters":19600,"station_id":"ce4bhhp2rcd13ifvqfm0","pricing_plan_id":"cebpf4jnsgd1na2vs0mg"},{"bike_id":"38327b76-bdd1-47a7-b1f5-f821fac7f212","system_id":"levelo_inurba_marseille","lat":43.28689,"lon":5.37458,"is_reserved":false,"is_disabled":false,"rental_uris":{"android":"levelo://app?vid=38327b76-bdd1-47a7-b1f5-f821fac7f212","ios":"levelo://app?vid=38327b76-bdd1-47a7-b1f5-f821fac7f212"},"vehicle_type_id":"4","last_reported":1740298281,"current_range_meters":19600,"station_id":"","pricing_plan_id":"cebpf4jnsgd1na2vs0mg"},{"bike_id":"f917ce9c-59cb-4f70-a5b4-37e273892c4c","system_id":"levelo_inurba_marseille","lat":43.28363,"lon":5.38102,"is_reserved":false,"is_disabled":false,"rental_uris":{"android":"levelo://app?vid=f917ce9c-59cb-4f70-a5b4-37e273892c4c","ios":"levelo://app?vid=f917ce9c-59cb-4f70-a5b4-37e273892c4c"},"vehicle_type_id":"4","last_reported":1740298281,"current_range_meters":19600,"station_id":"ce4bh412rcd13ifvqdr0","pricing_plan_id":"cebpf4jnsgd1na2vs0mg"},{"bike_id":"c833a9c8-df91-4a8e-8ccf-4c632e0e89f9","system_id":"levelo_inurba_marseille","lat":43.30554,"lon":5.36576,"is_reserved":false,"is_disabled":false,"rental_uris":{"android":"levelo://app?vid=c833a9c8-df91-4a8e-8ccf-4c632e0e89f9","ios":"levelo://app?vid=c833a9c8-df91-4a8e-8ccf-4c632e0e89f9"},"vehicle_type_id":"4","last_reported":1740298281,"current_range_meters":19600,"station_id":"ce4bgs12rcd13ifvqcag","pricing_plan_id":"cebpf4jnsgd1na2vs0mg"},{"bike_id":"4178e4c7-1858-40c0-89c8-c8d521ddf11a","system_id":"levelo_inurba_marseille","lat":43.28339,"lon":5.38108,"is_reserved":false,"is_disabled":false,"rental_uris":{"android":"levelo://app?vid=4178e4c7-1858-40c0-89c8-c8d521ddf11a","ios":"levelo://app?vid=4178e4c7-1858-40c0-89c8-c8d521ddf11a"},"vehicle_type_id":"4","last_reported":1740298281,"current_range_meters":19600,"station_id":"ce4bh412rcd13ifvqdr0","pricing_plan_id":"cebpf4jnsgd1na2vs0mg"},{"bike_id":"9db7ae3a-c201-4d5e-99f1-e577399936a7","system_id":"levelo_inurba_marseille","lat":43.24815,"lon":5.37454,"is_reserved":false,"is_disabled":false,"rental_uris":{"android":"levelo://app?vid=9db7ae3a-c201-4d5e-99f1-e577399936a7","ios":"levelo://app?vid=9db7ae3a-c201-4d5e-99f1-e577399936a7"},"vehicle_type_id":"4","last_reported":1740298281,"current_range_meters":19600,"station_id":"ce4bhgh2rcd13ifvqfb0","pricing_plan_id":"cebpf4jnsgd1na2vs0mg"},{"bike_id":"b5a1d484-9e63-43b3-9bbc-06f2df1a2c91","system_id":"levelo_inurba_marseille","lat":43.291941,"lon":5.39316,"is_reserved":false,"is_disabled":false,"rental_uris":{"android":"levelo://app?vid=b5a1d484-9e63-43b3-9bbc-06f2df1a2c91","ios":"levelo://app?vid=b5a1d484-9e63-43b3-9bbc-06f2df1a2c91"},"vehicle_type_id":"4","last_reported":1740298281,"current_range_meters":20000,"station_id":"ce4bh192rcd13ifvqdd0","pricing_plan_id":"cebpf4jnsgd1na2vs0mg"},{"bike_id":"41a2216f-8b22-4f4f-9eac-5e2283bcdb4b","system_id":"levelo_inurba_marseille","lat":43.2812,"lon":5.42719,"is_reserved":false,"is_disabled":true,"rental_uris":{"android":"levelo://app?vid=41a2216f-8b22-4f4f-9eac-5e2283bcdb4b","ios":"levelo://app?vid=41a2216f-8b22-4f4f-9eac-5e2283bcdb4b"},"vehicle_type_id":"4","last_reported":1740298281,"current_range_meters":20000,"station_id":"","pricing_plan_id":"cebpf4jnsgd1na2vs0mg"},{"bike_id":"8ca06677-b1b9-472e-a44c-d767e4da9357","system_id":"levelo_inurba_marseille","lat":43.292112,"lon":5.393156,"is_reserved":false,"is_disabled":false,"rental_uris":{"android":"levelo://app?vid=8ca06677-b1b9-472e-a44c-d767e4da9357","ios":"levelo://app?vid=8ca06677-b1b9-472e-a44c-d767e4da9357"},"vehicle_type_id":"4","last_reported":1740298281,"current_range_meters":20000,"station_id":"ce4bh192rcd13ifvqdd0","pricing_plan_id":"cebpf4jnsgd1na2vs0mg"},{"bike_id":"f815f2bf-8d9c-4686-8cde-0ee7573c9c19","system_id":"levelo_inurba_marseille","lat":43.33604,"lon":5.41023,"is_reserved":false,"is_disabled":false,"rental_uris":{"android":"levelo://app?vid=f815f2bf-8d9c-4686-8cde-0ee7573c9c19","ios":"levelo://app?vid=f815f2bf-8d9c-4686-8cde-0ee7573c9c19"},"vehicle_type_id":"4","last_reported":1740298281,"current_range_meters":20000,"station_id":"ce4bhqh2rcd13ifvqhmg","pricing_plan_id":"cebpf4jnsgd1na2vs0mg"},{"bike_id":"b65ea0d9-5be0-4ff8-97d4-ed97e4d0b099","system_id":"levelo_inurba_marseille","lat":43.28673,"lon":5.37437,"is_reserved":false,"is_disabled":false,"rental_uris":{"android":"levelo://app?vid=b65ea0d9-5be0-4ff8-97d4-ed97e4d0b099","ios":"levelo://app?vid=b65ea0d9-5be0-4ff8-97d4-ed97e4d0b099"},"vehicle_type_id":"4","last_reported":1740298281,"current_range_meters":20000,"station_id":"","pricing_plan_id":"cebpf4jnsgd1na2vs0mg"},{"bike_id":"886d689e-bba4-4b2b-aabb-790ff0572272","system_id":"levelo_inurba_marseille","lat":43.26499,"lon":5.39553,"is_reserved":false,"is_disabled":false,"rental_uris":{"android":"levelo://app?vid=886d689e-bba4-4b2b-aabb-790ff0572272","ios":"levelo://app?vid=886d689e-bba4-4b2b-aabb-790ff0572272"},"vehicle_type_id":"4","last_reported":1740298281,"current_range_meters":20000,"station_id":"ce4bhi12rcd13ifvqfq0","pricing_plan_id":"cebpf4jnsgd1na2vs0mg"},{"bike_id":"5d78a666-c3e5-4c32-839f-c908eea6112c","system_id":"levelo_inurba_marseille","lat":43.30651,"lon":5.40102,"is_reserved":false,"is_disabled":false,"rental_uris":{"android":"levelo://app?vid=5d78a666-c3e5-4c32-839f-c908eea6112c","ios":"levelo://app?vid=5d78a666-c3e5-4c32-839f-c908eea6112c"},"vehicle_type_id":"4","last_reported":1740298281,"current_range_meters":20000,"station_id":"ce4bh112rcd13ifvqda0","pricing_plan_id":"cebpf4jnsgd1na2vs0mg"},{"bike_id":"9fabdfa7-a0ef-44ff-b626-33a9b5d52aad","system_id":"levelo_inurba_marseille","lat":43.30227,"lon":5.38705,"is_reserved":false,"is_disabled":true,"rental_uris":{"android":"levelo://app?vid=9fabdfa7-a0ef-44ff-b626-33a9b5d52aad","ios":"levelo://app?vid=9fabdfa7-a0ef-44ff-b626-33a9b5d52aad"},"vehicle_type_id":"4","last_reported":1740298281,"current_range_meters":20000,"station_id":"ce4bghh2rcd13ifvqb60","pricing_plan_id":"cebpf4jnsgd1na2vs0mg"},{"bike_id":"38ab22c3-32cb-4594-b585-b68140009962","system_id":"levelo_inurba_marseille","lat":43.272,"lon":5.3917,"is_reserved":false,"is_disabled":false,"rental_uris":{"android":"levelo://app?vid=38ab22c3-32cb-4594-b585-b68140009962","ios":"levelo://app?vid=38ab22c3-32cb-4594-b585-b68140009962"},"vehicle_type_id":"4","last_reported":1740298281,"current_range_meters":20400,"station_id":"ce4bhhp2rcd13ifvqfm0","pricing_plan_id":"cebpf4jnsgd1na2vs0mg"},{"bike_id":"0f987971-2fed-4a1e-8fb9-529d7192d066","system_id":"levelo_inurba_marseille","lat":43.292094,"lon":5.39313,"is_reserved":false,"is_disabled":false,"rental_uris":{"android":"levelo://app?vid=0f987971-2fed-4a1e-8fb9-529d7192d066","ios":"levelo://app?vid=0f987971-2fed-4a1e-8fb9-529d7192d066"},"vehicle_type_id":"4","last_reported":1740298281,"current_range_meters":20400,"station_id":"ce4bh192rcd13ifvqdd0","pricing_plan_id":"cebpf4jnsgd1na2vs0mg"},{"bike_id":"30cbce76-9e88-46d7-bd0c-af6a1c8c4bf9","system_id":"levelo_inurba_marseille","lat":43.29182,"lon":5.39333,"is_reserved":false,"is_disabled":false,"rental_uris":{"android":"levelo://app?vid=30cbce76-9e88-46d7-bd0c-af6a1c8c4bf9","ios":"levelo://app?vid=30cbce76-9e88-46d7-bd0c-af6a1c8c4bf9"},"vehicle_type_id":"4","last_reported":1740298281,"current_range_meters":20400,"station_id":"ce4bh192rcd13ifvqdd0","pricing_plan_id":"cebpf4jnsgd1na2vs0mg"},{"bike_id":"f8a5ac90-652c-4c81-848a-62b2549c9eba","system_id":"levelo_inurba_marseille","lat":43.30434,"lon":5.38888,"is_reserved":false,"is_disabled":false,"rental_uris":{"android":"levelo://app?vid=f8a5ac90-652c-4c81-848a-62b2549c9eba","ios":"levelo://app?vid=f8a5ac90-652c-4c81-848a-62b2549c9eba"},"vehicle_type_id":"4","last_reported":1740298281,"current_range_meters":20400,"station_id":"ce4bgk12rcd13ifvqbi0","pricing_plan_id":"cebpf4jnsgd1na2vs0mg"},