{"last_updated":1731751730,"ttl":60,"version":"2.2","data":{"bikes":[{"bike_id":"69d1512a-cdec-49f8-9f42-157d2825258d","system_id":"levelo_inurba_marseille","lat":43.306026,"lon":5.393404,"is_reserved":false,"is_disabled":false,"rental_uris":{"android":"levelo://app?vid=69d1512a-cdec-49f8-9f42-157d2825258d","ios":"levelo://app?vid=69d1512a-cdec-49f8-9f42-157d2825258d"},"vehicle_type_id":"4","last_reported":1731751730,"current_range_meters":12000,"station_id":"ce4bh0p2rcd13ifvqd80","pricing_plan_id":"cebpf4jnsgd1na2vs0mg"},{"bike_id":"0ced7113-db48-4671-8b7b-648b43de37ab","system_id":"levelo_inurba_marseille","lat":43.27374,"lon":5.36257,"is_reserved":false,"is_disabled":false,"rental_uris":{"android":"levelo://app?vid=0ced7113-db48-4671-8b7b-648b43de37ab","ios":"levelo://app?vid=0ced7113-db48-4671-8b7b-648b43de37ab"},"vehicle_type_id":"4","last_reported":1731751730,"current_range_meters":39200,"station_id":"ce4bhbh2rcd13ifvqeo0","pricing_plan_id":"cebpf4jnsgd1na2vs0mg"},{"bike_id":"1cd9bc7f-19ca-48a8-ba74-716e01ccbac0","system_id":"levelo_inurba_marseille","lat":43.31719,"lon":5.40431,"is_reserved":false,"is_disabled":false,"rental_uris":{"android":"levelo://app?vid=1cd9bc7f-19ca-48a8-ba74-716e01ccbac0","ios":"levelo://app?vid=1cd9bc7f-19ca-48a8-ba74-716e01ccbac0"},"vehicle_type_id":"4","last_reported":1731751730,"current_range_meters":37600,"station_id":"","pricing_plan_id":"cebpf4jnsgd1na2vs0mg"},{"bike_id":"c3429b5d-0a8f-4b7c-81b0-334f0f780e95","system_id":"levelo_inurba_marseille","lat":43.29801,"lon":5.40397,"is_reserved":false,"is_disabled":false,"rental_uris":{"android":"levelo://app?vid=c3429b5d-0a8f-4b7c-81b0-334f0f780e95","ios":"levelo://app?vid=c3429b5d-0a8f-4b7c-81b0-334f0f780e95"},"vehicle_type_id":"4","last_reported":1731751730,"current_range_meters":34800,"station_id":"ce4bh112rcd13ifvqd90","pricing_plan_id":"cebpf4jnsgd1na2vs0mg"},{"bike_id":"31514e32-afb6-42c0-9d4e-52bc7623427d","system_id":"levelo_inurba_marseille","lat":43.31079,"lon":5.42427,"is_reserved":false,"is_disabled":false,"rental_uris":{"android":"levelo://app?vid=31514e32-afb6-42c0-9d4e-52bc7623427d","ios":"levelo://app?vid=31514e32-afb6-42c0-9d4e-52bc7623427d"},"vehicle_type_id":"4","last_reported":1731751730,"current_range_meters":38800,"station_id":"ce4bhp92rcd13ifvqhag","pricing_plan_id":"cebpf4jnsgd1na2vs0mg"},{"bike_id":"4aafe376-b9bc-4522-87a4-83d6ad5af617","system_id":"levelo_inurba_marseille","lat":43.27065,"lon":5.42285,"is_reserved":false,"is_disabled":false,"rental_uris":{"android":"levelo://app?vid=4aafe376-b9bc-4522-87a4-83d6ad5af617","ios":"levelo://app?vid=4aafe376-b9bc-4522-87a4-83d6ad5af617"},"vehicle_type_id":"4","last_reported":1731751730,"current_range_meters":38800,"station_id":"ce4bhk92rcd13ifvqgb0","pricing_plan_id":"cebpf4jnsgd1na2vs0mg"},{"bike_id":"13ecd984-3bbf-449a-b4e0-2d024829111b","system_id":"levelo_inurba_marseille","lat":43.25935,"lon":5.40911,"is_reserved":false,"is_disabled":false,"rental_uris":{"android":"levelo://app?vid=13ecd984-3bbf-449a-b4e0-2d024829111b","ios":"levelo://app?vid=13ecd984-3bbf-449a-b4e0-2d024829111b"},"vehicle_type_id":"4","last_reported":1731751730,"current_range_meters":31200,"station_id":"ce4bhm92rcd13ifvqglg","pricing_plan_id":"cebpf4jnsgd1na2vs0mg"},{"bike_id":"ab6dc4ee-6007-4de0-8391-e0c3a471920a","system_id":"levelo_inurba_marseille","lat":43.29605,"lon":5.37711,"is_reserved":false,"is_disabled":false,"rental_uris":{"android":"levelo://app?vid=ab6dc4ee-6007-4de0-8391-e0c3a471920a","ios":"levelo://app?vid=ab6dc4ee-6007-4de0-8391-e0c3a471920a"},"vehicle_type_id":"4","last_reported":1731751730,"current_range_meters":27600,"station_id":"ce4bgi92rcd13ifvqb90","pricing_plan_id":"cebpf4jnsgd1na2vs0mg"},{"bike_id":"d9d8a7d9-cde4-4fab-ab69-fcee8fe6a6da","system_id":"levelo_inurba_marseille","lat":43.250187,"lon":5.38926,"is_reserved":false,"is_disabled":false,"rental_uris":{"android":"levelo://app?vid=d9d8a7d9-cde4-4fab-ab69-fcee8fe6a6da","ios":"levelo://app?vid=d9d8a7d9-cde4-4fab-ab69-fcee8fe6a6da"},"vehicle_type_id":"4","last_reported":1731751730,"current_range_meters":14000,"station_id":"ce4bhgp2rcd13ifvqfd0","pricing_plan_id":"cebpf4jnsgd1na2vs0mg"},{"bike_id":"2a4d0619-1af9-46f8-8f27-2f5bb3726a6d","system_id":"levelo_inurba_marseille","lat":43.24393,"lon":5.37055,"is_reserved":false,"is_disabled":false,"rental_uris":{"android":"levelo://app?vid=2a4d0619-1af9-46f8-8f27-2f5bb3726a6d","ios":"levelo://app?vid=2a4d0619-1af9-46f8-8f27-2f5bb3726a6d"},"vehicle_type_id":"4","last_reported":1731751730,"current_range_meters":40000,"station_id":"ce4bhhh2rcd13ifvqfk0","pricing_plan_id":"cebpf4jnsgd1na2vs0mg"},{"bike_id":"860f7f0f-99f3-49c9-8f27-d8f644f87c2f","system_id":"levelo_inurba_marseille","lat":43.27372,"lon":5.36262,"is_reserved":false,"is_disabled":false,"rental_uris":{"android":"levelo://app?vid=860f7f0f-99f3-49c9-8f27-d8f644f87c2f","ios":"levelo://app?vid=860f7f0f-99f3-49c9-8f27-d8f644f87c2f"},"vehicle_type_id":"4","last_reported":1731751730,"current_range_meters":32000,"station_id":"ce4bhbh2rcd13ifvqeo0","pricing_plan_id":"cebpf4jnsgd1na2vs0mg"},{"bike_id":"8a987b18-78e5-4520-a29f-64989c0928e0","system_id":"levelo_inurba_marseille","lat":43.27498,"lon":5.42449,"is_reserved":false,"is_disabled":false,"rental_uris":{"android":"levelo://app?vid=8a987b18-78e5-4520-a29f-64989c0928e0","ios":"levelo://app?vid=8a987b18-78e5-4520-a29f-64989c0928e0"},"vehicle_type_id":"4","last_reported":1731751730,"current_range_meters":16400,"station_id":"ce4bhn92rcd13ifvqgrg","pricing_plan_id":"cebpf4jnsgd1na2vs0mg"},{"bike_id":"6c97f8ae-b935-4867-a293-7007489abd61","system_id":"levelo_inurba_marseille","lat":43.28707,"lon":5.37393,"is_reserved":false,"is_disabled":false,"rental_uris":{"android":"levelo://app?vid=6c97f8ae-b935-4867-a293-7007489abd61","ios":"levelo://app?vid=6c97f8ae-b935-4867-a293-7007489abd61"},"vehicle_type_id":"4","last_reported":1731751730,"current_range_meters":37600,"station_id":"ce4bh3p2rcd13ifvqdq0","pricing_plan_id":"cebpf4jnsgd1na2vs0mg"},{"bike_id":"7588c7d3-f5c9-4342-abf6-5df161530f71","system_id":"levelo_inurba_marseille","lat":43.30893,"lon":5.39633,"is_reserved":false,"is_disabled":false,"rental_uris":{"android":"levelo://app?vid=7588c7d3-f5c9-4342-abf6-5df161530f71","ios":"levelo://app?vid=7588c7d3-f5c9-4342-abf6-5df161530f71"},"vehicle_type_id":"4","last_reported":1731751730,"current_range_meters":38000,"station_id":"ce4bh012rcd13ifvqcv0","pricing_plan_id":"cebpf4jnsgd1na2vs0mg"},{"bike_id":"e6499734-b6a4-4e3c-b00e-07084e350e1a","system_id":"levelo_inurba_marseille","lat":43.27983,"lon":5.41657,"is_reserved":false,"is_disabled":false,"rental_uris":{"android":"levelo://app?vid=e6499734-b6a4-4e3c-b00e-07084e350e1a","ios":"levelo://app?vid=e6499734-b6a4-4e3c-b00e-07084e350e1a"},"vehicle_type_id":"4","last_reported":1731751730,"current_range_meters":34800,"station_id":"ce4bho12rcd13ifvqh1g","pricing_plan_id":"cebpf4jnsgd1na2vs0mg"},{"bike_id":"a774f1d5-d3e2-434c-a374-5093a6e1ad5e","system_id":"levelo_inurba_marseille","lat":43.24388,"lon":5.37059,"is_reserved":false,"is_disabled":false,"rental_uris":{"android":"levelo://app?vid=a774f1d5-d3e2-434c-a374-5093a6e1ad5e","ios":"levelo://app?vid=a774f1d5-d3e2-434c-a374-5093a6e1ad5e"},"vehicle_type_id":"4","last_reported":1731751730,"current_range_meters":39200,"station_id":"ce4bhhh2rcd13ifvqfk0","pricing_plan_id":"cebpf4jnsgd1na2vs0mg"},{"bike_id":"27473974-a8f9-4698-9a62-0f5501087c82","system_id":"levelo_inurba_marseille","lat":43.28279,"lon":5.35071,"is_reserved":false,"is_disabled":false,"rental_uris":{"android":"levelo://app?vid=27473974-a8f9-4698-9a62-0f5501087c82","ios":"levelo://app?vid=27473974-a8f9-4698-9a62-0f5501087c82"},"vehicle_type_id":"4","last_reported":1731751730,"current_range_meters":20400,"station_id":"ce4bhbp2rcd13ifvqerg","pricing_plan_id":"cebpf4jnsgd1na2vs0mg"},{"bike_id":"0b995606-4707-45f4-85a4-3e178ef5e44c","system_id":"levelo_inurba_marseille","lat":43.28108,"lon":5.37826,"is_reserved":false,"is_disabled":false,"rental_uris":{"android":"levelo://app?vid=0b995606-4707-45f4-85a4-3e178ef5e44c","ios":"levelo://app?vid=0b995606-4707-45f4-85a4-3e178ef5e44c"},"vehicle_type_id":"4","last_reported":1731751730,"current_range_meters":22000,"station_id":"ce4bha12rcd13ifvqee0","pricing_plan_id":"cebpf4jnsgd1na2vs0mg"},{"bike_id":"cbcbb5bd-99d9-4f27-87aa-72908afa83d7","system_id":"levelo_inurba_marseille","lat":43.29578,"lon":5.36741,"is_reserved":false,"is_disabled":false,"rental_uris":{"android":"levelo://app?vid=cbcbb5bd-99d9-4f27-87aa-72908afa83d7","ios":"levelo://app?vid=cbcbb5bd-99d9-4f27-87aa-72908afa83d7"},"vehicle_type_id":"4","last_reported":1731751730,"current_range_meters":12800,"station_id":"ce4bgph2rcd13ifvqc2g","pricing_plan_id":"cebpf4jnsgd1na2vs0mg"},{"bike_id":"60dfa2fd-02a9-404e-ab04-d5d71ff40670","system_id":"levelo_inurba_marseille","lat":43.337444,"lon":5.374475,"is_reserved":false,"is_disabled":false,"rental_uris":{"android":"levelo://app?vid=60dfa2fd-02a9-404e-ab04-d5d71ff40670","ios":"levelo://app?vid=60dfa2fd-02a9-404e-ab04-d5d71ff40670"},"vehicle_type_id":"4","last_reported":1731751730,"current_range_meters":38400,"station_id":"","pricing_plan_id":"cebpf4jnsgd1na2vs0mg"},{"bike_id":"906347f7-b857-4677-b3f3-7720e8dfadfc","system_id":"levelo_inurba_marseille","lat":43.2696,"lon":5.4026,"is_reserved":false,"is_disabled":false,"rental_uris":{"android":"levelo://app?vid=906347f7-b857-4677-b3f3-7720e8dfadfc","ios":"levelo://app?vid=906347f7-b857-4677-b3f3-7720e8dfadfc"},"vehicle_type_id":"4","last_reported":1731751730,"current_range_meters":39200,"station_id":"cjm6bp8fraef2m0cb0m0","pricing_plan_id":"cebpf4jnsgd1na2vs0mg"},{"bike_id":"6a8df958-fb8f-4fdc-8b91-af389b02ee63","system_id":"levelo_inurba_marseille","lat":43.26058,"lon":5.394,"is_reserved":false,"is_disabled":false,"rental_uris":{"android":"levelo://app?vid=6a8df958-fb8f-4fdc-8b91-af389b02ee63","ios":"levelo://app?vid=6a8df958-fb8f-4fdc-8b91-af389b02ee63"},"vehicle_type_id":"4","last_reported":1731751730,"current_range_meters":38400,"station_id":"ce4bhh92rcd13ifvqfj0","pricing_plan_id":"cebpf4jnsgd1na2vs0mg"},{"bike_id":"6b0ea79e-cb12-4a50-9845-e4686b3cacc8","system_id":"levelo_inurba_marseille","lat":43.295751,"lon":5.399791,"is_reserved":false,"is_disabled":false,"rental_uris":{"android":"levelo://app?vid=6b0ea79e-cb12-4a50-9845-e4686b3cacc8","ios":"levelo://app?vid=6b0ea79e-cb12-4a50-9845-e4686b3cacc8"},"vehicle_type_id":"4","last_reported":1731751730,"current_range_meters":14800,"station_id":"","pricing_plan_id":"cebpf4jnsgd1na2vs0mg"},{"bike_id":"5ced4d53-b012-4352-8e88-3b445d4c7ca8","system_id":"levelo_inurba_marseille","lat":43.27017,"lon":5.40084,"is_reserved":false,"is_disabled":false,"rental_uris":{"android":"levelo://app?vid=5ced4d53-b012-4352-8e88-3b445d4c7ca8","ios":"levelo://app?vid=5ced4d53-b012-4352-8e88-3b445d4c7ca8"},"vehicle_type_id":"4","last_reported":1731751730,"current_range_meters":20800,"station_id":"","pricing_plan_id":"cebpf4jnsgd1na2vs0mg"},{"bike_id":"91f5d4da-bdc3-4062-a2de-d025c7b0accb","system_id":"levelo_inurba_marseille","lat":43.3035,"lon":5.41874,"is_reserved":false,"is_disabled":false,"rental_uris":{"android":"levelo://app?vid=91f5d4da-bdc3-4062-a2de-d025c7b0accb","ios":"levelo://app?vid=91f5d4da-bdc3-4062-a2de-d025c7b0accb"},"vehicle_type_id":"4","last_reported":1731751730,"current_range_meters":38400,"station_id":"ce4bhop2rcd13ifvqh7g","pricing_plan_id":"cebpf4jnsgd1na2vs0mg"},{"bike_id":"4a74f469-1d99-48ee-a8ca-9199898c00a4","system_id":"levelo_inurba_marseille","lat":43.23214,"lon":5.35516,"is_reserved":false,"is_disabled":false,"rental_uris":{"android":"levelo://app?vid=4a74f469-1d99-48ee-a8ca-9199898c00a4","ios":"levelo://app?vid=4a74f469-1d99-48ee-a8ca-9199898c00a4"},"vehicle_type_id":"4","last_reported":1731751730,"current_range_meters":9600,"station_id":"ce4bhu92rcd13ifvqi70","pricing_plan_id":"cebpf4jnsgd1na2vs0mg"},{"bike_id":"e6b6d2f2-afbf-4a92-9d76-12d621882253","system_id":"levelo_inurba_marseille","lat":43.284735,"lon":5.391616,"is_reserved":false,"is_disabled":false,"rental_uris":{"android":"levelo://app?vid=e6b6d2f2-afbf-4a92-9d76-12d621882253","ios":"levelo://app?vid=e6b6d2f2-afbf-4a92-9d76-12d621882253"},"vehicle_type_id":"4","last_reported":1731751730,"current_range_meters":37600,"station_id":"ce4bhoh2rcd13ifvqh5g","pricing_plan_id":"cebpf4jnsgd1na2vs0mg"},{"bike_id":"fb45e9b3-f2de-4d82-a347-b901c1d517d2","system_id":"levelo_inurba_marseille","lat":43.25585,"lon":5.38237,"is_reserved":false,"is_disabled":false,"rental_uris":{"android":"levelo://app?vid=fb45e9b3-f2de-4d82-a347-b901c1d517d2","ios":"levelo://app?vid=fb45e9b3-f2de-4d82-a347-b901c1d517d2"},"vehicle_type_id":"4","last_reported":1731751730,"current_range_meters":11200,"station_id":"ce4bhih2rcd13ifvqfs0","pricing_plan_id":"cebpf4jnsgd1na2vs0mg"},{"bike_id":"c478ff06-0baa-4687-ac70-3188bd2aae0c","system_id":"levelo_inurba_marseille","lat":43.27621,"lon":5.36111,"is_reserved":false,"is_disabled":false,"rental_uris":{"android":"levelo://app?vid=c478ff06-0baa-4687-ac70-3188bd2aae0c","ios":"levelo://app?vid=c478ff06-0baa-4687-ac70-3188bd2aae0c"},"vehicle_type_id":"4","last_reported":1731751730,"current_range_meters":9200,"station_id":"ce4bgj92rcd13ifvqbe0","pricing_plan_id":"cebpf4jnsgd1na2vs0mg"},{"bike_id":"ad97446b-cba2-4020-9eb2-1e9e725bf9d3","system_id":"levelo_inurba_marseille","lat":43.27498,"lon":5.42455,"is_reserved":false,"is_disabled":false,"rental_uris":{"android":"levelo://app?vid=ad97446b-cba2-4020-9eb2-1e9e725bf9d3","ios":"levelo://app?vid=ad97446b-cba2-4020-9eb2-1e9e725bf9d3"},"vehicle_type_id":"4","last_reported":1731751730,"current_range_meters":32400,"station_id":"ce4bhn92rcd13ifvqgrg","pricing_plan_id":"cebpf4jnsgd1na2vs0mg"},{"bike_id":"61affbab-4b1e-4c74-9fab-1311cbd161b5","system_id":"levelo_inurba_marseille","lat":43.29842,"lon":5.36261,"is_reserved":false,"is_disabled":false,"rental_uris":{"android":"levelo://app?vid=61affbab-4b1e-4c74-9fab-1311cbd161b5","ios":"levelo://app?vid=61affbab-4b1e-4c74-9fab-1311cbd161b5"},"vehicle_type_id":"4","last_reported":1731751730,"current_range_meters":38800,"station_id":"ce4bgpp2rcd13ifvqc3g","pricing_plan_id":"cebpf4jnsgd1na2vs0mg"},{"bike_id":"5b44252a-4aab-44b1-bcf3-68e2022d3cfd","system_id":"levelo_inurba_marseille","lat":43.28926,"lon":5.38393,"is_reserved":false,"is_disabled":false,"rental_uris":{"android":"levelo://app?vid=5b44252a-4aab-44b1-bcf3-68e2022d3cfd","ios":"levelo://app?vid=5b44252a-4aab-44b1-bcf3-68e2022d3cfd"},"vehicle_type_id":"4","last_reported":1731751730,"current_range_meters":17200,"station_id":"ce4bh612rcd13ifvqe6g","pricing_plan_id":"cebpf4jnsgd1na2vs0mg"},{"bike_id":"94070473-8486-4d58-b0a4-a7c2176fd642","system_id":"levelo_inurba_marseille","lat":43.29304,"lon":5.37466,"is_reserved":false,"is_disabled":false,"rental_uris":{"android":"levelo://app?vid=94070473-8486-4d58-b0a4-a7c2176fd642","ios":"levelo://app?vid=94070473-8486-4d58-b0a4-a7c2176fd642"},"vehicle_type_id":"4","last_reported":1731751730,"current_range_meters":30800,"station_id":"ce4bgi12rcd13ifvqb70","pricing_plan_id":"cebpf4jnsgd1na2vs0mg"},{"bike_id":"f8661d75-a9d6-4f3e-930f-79b6d9eb8ecc","system_id":"levelo_inurba_marseille","lat":43.29581,"lon":5.36748,"is_reserved":false,"is_disabled":false,"rental_uris":{"android":"levelo://app?vid=f8661d75-a9d6-4f3e-930f-79b6d9eb8ecc","ios":"levelo://app?vid=f8661d75-a9d6-4f3e-930f-79b6d9eb8ecc"},"vehicle_type_id":"4","last_reported":1731751730,"current_range_meters":22000,"station_id":"ce4bgph2rcd13ifvqc2g","pricing_plan_id":"cebpf4jnsgd1na2vs0mg"},{"bike_id":"61dc5a72-902e-4195-9647-849b2eaa5d03","system_id":"levelo_inurba_marseille","lat":43.24668,"lon":5.38159,"is_reserved":false,"is_disabled":false,"rental_uris":{"android":"levelo://app?vid=61dc5a72-902e-4195-9647-849b2eaa5d03","ios":"levelo://app?vid=61dc5a72-902e-4195-9647-849b2eaa5d03"},"vehicle_type_id":"4","last_reported":1731751730,"current_range_meters":37600,"station_id":"ce4bhih2rcd13ifvqfr0","pricing_plan_id":"cebpf4jnsgd1na2vs0mg"},{"bike_id":"0a7a6ac0-8f66-4145-b5c3-868e746d812c","system_id":"levelo_inurba_marseille","lat":43.27494,"lon":5.42452,"is_reserved":false,"is_disabled":false,"rental_uris":{"android":"levelo://app?vid=0a7a6ac0-8f66-4145-b5c3-868e746d812c","ios":"levelo://app?vid=0a7a6ac0-8f66-4145-b5c3-868e746d812c"},"vehicle_type_id":"4","last_reported":1731751730,"current_range_meters":9200,"station_id":"ce4bhn92rcd13ifvqgrg","pricing_plan_id":"cebpf4jnsgd1na2vs0mg"},{"bike_id":"b5825e57-3464-4a22-8cf7-a34310074398","system_id":"levelo_inurba_marseille","lat":43.29574,"lon":5.36743,"is_reserved":false,"is_disabled":false,"rental_uris":{"android":"levelo://app?vid=b5825e57-3464-4a22-8cf7-a34310074398","ios":"levelo://app?vid=b5825e57-3464-4a22-8cf7-a34310074398"},"vehicle_type_id":"4","last_reported":1731751730,"current_range_meters":38800,"station_id":"ce4bgph2rcd13ifvqc2g","pricing_plan_id":"cebpf4jnsgd1na2vs0mg"},{"bike_id":"6875c373-3a3e-464e-8826-15cf173d3295","system_id":"levelo_inurba_marseille","lat":43.24165,"lon":5.36398,"is_reserved":false,"is_disabled":false,"rental_uris":{"android":"levelo://app?vid=6875c373-3a3e-464e-8826-15cf173d3295","ios":"levelo://app?vid=6875c373-3a3e-464e-8826-15cf173d3295"},"vehicle_type_id":"4","last_reported":1731751730,"current_range_meters":38000,"station_id":"cpo36qri1sfpv3e86is0","pricing_plan_id":"cebpf4jnsgd1na2vs0mg"},{"bike_id":"db2a95f9-4e6a-4d56-a7c4-75a900c94b72","system_id":"levelo_inurba_marseille","lat":43.30869,"lon":5.37201,"is_reserved":false,"is_disabled":false,"rental_uris":{"android":"levelo://app?vid=db2a95f9-4e6a-4d56-a7c4-75a900c94b72","ios":"levelo://app?vid=db2a95f9-4e6a-4d56-a7c4-75a900c94b72"},"vehicle_type_id":"4","last_reported":1731751730,"current_range_meters":36000,"station_id":"ce4bguh2rcd13ifvqckg","pricing_plan_id":"cebpf4jnsgd1na2vs0mg"},{"bike_id":"6d37ae46-1aa0-445b-abb6-03c1eb4d13aa","system_id":"levelo_inurba_marseille","lat":43.30417,"lon":5.39755,"is_reserved":false,"is_disabled":false,"rental_uris":{"android":"levelo://app?vid=6d37ae46-1aa0-445b-abb6-03c1eb4d13aa","ios":"levelo://app?vid=6d37ae46-1aa0-445b-abb6-03c1eb4d13aa"},"vehicle_type_id":"4","last_reported":1731751730,"current_range_meters":33200,"station_id":"ce4bh092rcd13ifvqd20","pricing_plan_id":"cebpf4jnsgd1na2vs0mg"},{"bike_id":"f1be1b21-bb29-4fee-996b-7e208af1ea1c","system_id":"levelo_inurba_marseille","lat":43.32339,"lon":5.40616,"is_reserved":false,"is_disabled":false,"rental_uris":{"android":"levelo://app?vid=f1be1b21-bb29-4fee-996b-7e208af1ea1c","ios":"levelo://app?vid=f1be1b21-bb29-4fee-996b-7e208af1ea1c"},"vehicle_type_id":"4","last_reported":1731751730,"current_range_meters":7200,"station_id":"ce4bhq92rcd13ifvqhjg","pricing_plan_id":"cebpf4jnsgd1na2vs0mg"},{"bike_id":"d315d5ce-dec9-4141-968e-bc3a7bb885c0","system_id":"levelo_inurba_marseille","lat":43.2957,"lon":5.37483,"is_reserved":false,"is_disabled":false,"rental_uris":{"android":"levelo://app?vid=d315d5ce-dec9-4141-968e-bc3a7bb885c0","ios":"levelo://app?vid=d315d5ce-dec9-4141-968e-bc3a7bb885c0"},"vehicle_type_id":"4","last_reported":1731751730,"current_range_meters":38000,"station_id":"ce4bgh92rcd13ifvqb50","pricing_plan_id":"cebpf4jnsgd1na2vs0mg"},{"bike_id":"792ba918-f0aa-452f-8f68-1a7a13f87316","system_id":"levelo_inurba_marseille","lat":43.24667,"lon":5.38159,"is_reserved":false,"is_disabled":false,"rental_uris":{"android":"levelo://app?vid=792ba918-f0aa-452f-8f68-1a7a13f87316","ios":"levelo://app?vid=792ba918-f0aa-452f-8f68-1a7a13f87316"},"vehicle_type_id":"4","last_reported":1731751730,"current_range_meters":22000,"station_id":"ce4bhih2rcd13ifvqfr0","pricing_plan_id":"cebpf4jnsgd1na2vs0mg"},{"bike_id":"c5ef27b7-a358-4b46-9301-cd2a31b688e9","system_id":"levelo_inurba_marseille","lat":43.27321,"lon":5.39101,"is_reserved":false,"is_disabled":false,"rental_uris":{"android":"levelo://app?vid=c5ef27b7-a358-4b46-9301-cd2a31b688e9","ios":"levelo://app?vid=c5ef27b7-a358-4b46-9301-cd2a31b688e9"},"vehicle_type_id":"4","last_reported":1731751730,"current_range_meters":10000,"station_id":"ce4bhgp2rcd13ifvqfe0","pricing_plan_id":"cebpf4jnsgd1na2vs0mg"},{"bike_id":"ed7da7e8-f8ce-4997-874f-19e7b498dd3f","system_id":"levelo_inurba_marseille","lat":43.3014,"lon":5.38057,"is_reserved":false,"is_disabled":false,"rental_uris":{"android":"levelo://app?vid=ed7da7e8-f8ce-4997-874f-19e7b498dd3f","ios":"levelo://app?vid=ed7da7e8-f8ce-4997-874f-19e7b498dd3f"},"vehicle_type_id":"4","last_reported":1731751730,"current_range_meters":12800,"station_id":"ce4bgjp2rcd13ifvqbh0","pricing_plan_id":"cebpf4jnsgd1na2vs0mg"},{"bike_id":"ae0491f3-5d70-441c-acf0-3d1e976bcd0a","system_id":"levelo_inurba_marseille","lat":43.31651,"lon":5.37804,"is_reserved":false,"is_disabled":false,"rental_uris":{"android":"levelo://app?vid=ae0491f3-5d70-441c-acf0-3d1e976bcd0a","ios":"levelo://app?vid=ae0491f3-5d70-441c-acf0-3d1e976bcd0a"},"vehicle_type_id":"4","last_reported":1731751730,"current_range_meters":8400,"station_id":"","pricing_plan_id":"cebpf4jnsgd1na2vs0mg"},{"bike_id":"abd3bbaf-79f7-4579-9191-c7baa3b8349b","system_id":"levelo_inurba_marseille","lat":43.27492,"lon":5.42456,"is_reserved":false,"is_disabled":false,"rental_uris":{"android":"levelo://app?vid=abd3bbaf-79f7-4579-9191-c7baa3b8349b","ios":"levelo://app?vid=abd3bbaf-79f7-4579-9191-c7baa3b8349b"},"vehicle_type_id":"4","last_reported":1731751730,"current_range_meters":7200,"station_id":"ce4bhn92rcd13ifvqgrg","pricing_plan_id":"cebpf4jnsgd1na2vs0mg"},{"bike_id":"3b2f9214-f4a1-4af0-8ea4-725389312500","system_id":"levelo_inurba_marseille","lat":43.337444,"lon":5.374475,"is_reserved":false,"is_disabled":false,"rental_uris":{"android":"levelo://app?vid=3b2f9214-f4a1-4af0-8ea4-725389312500","ios":"levelo://app?vid=3b2f9214-f4a1-4af0-8ea4-725389312500"},"vehicle_type_id":"4","last_reported":1731751730,"current_range_meters":38000,"station_id":"","pricing_plan_id":"cebpf4jnsgd1na2vs0mg"},{"bike_id":"292ec6b9-529d-4ec1-b4f8-d3df413f2923","system_id":"levelo_inurba_marseille","lat":43.31708,"lon":5.43704,"is_reserved":false,"is_disabled":false,"rental_uris":{"android":"levelo://app?vid=292ec6b9-529d-4ec1-b4f8-d3df413f2923","ios":"levelo://app?vid=292ec6b9-529d-4ec1-b4f8-d3df413f2923"},"vehicle_type_id":"4","last_reported":1731751730,"current_range_meters":39200,"station_id":"ce4bhp92rcd13ifvqhcg","pricing_plan_id":"cebpf4jnsgd1na2vs0mg"},{"bike_id":"4cbd7226-43bc-4a1c-b31a-f299d9bf5ede","system_id":"levelo_inurba_marseille","lat":43.25504,"lon":5.37654,"is_reserved":false,"is_disabled":false,"rental_uris":{"android":"levelo://app?vid=4cbd7226-43bc-4a1c-b31a-f299d9bf5ede","ios":"levelo://app?vid=4cbd7226-43bc-4a1c-b31a-f299d9bf5ede"},"vehicle_type_id":"4","last_reported":1731751730,"current_range_meters":39200,"station_id":"ce4bhh12rcd13ifvqff0","pricing_plan_id":"cebpf4jnsgd1na2vs0mg"},{"bike_id":"76ada99b-13e5-4bb8-a67a-8c73c57f3f01","system_id":"levelo_inurba_marseille","lat":43.32035,"lon":5.41548,"is_reserved":false,"is_disabled":false,"rental_uris":{"android":"levelo://app?vid=76ada99b-13e5-4bb8-a67a-8c73c57f3f01","ios":"levelo://app?vid=76ada99b-13e5-4bb8-a67a-8c73c57f3f01"},"vehicle_type_id":"4","last_reported":1731751730,"current_range_meters":39200,"station_id":"ce4bhq92rcd13ifvqhkg","pricing_plan_id":"cebpf4jnsgd1na2vs0mg"},{"bike_id":"638ee7c2-fe87-45ad-9d30-192c05a964ea","system_id":"levelo_inurba_marseille","lat":43.26941,"lon":5.40245,"is_reserved":false,"is_disabled":false,"rental_uris":{"android":"levelo://app?vid=638ee7c2-fe87-45ad-9d30-192c05a964ea","ios":"levelo://app?vid=638ee7c2-fe87-45ad-9d30-192c05a964ea"},"vehicle_type_id":"4","last_reported":1731751730,"current_range_meters":30800,"station_id":"cjm6bp8fraef2m0cb0m0","pricing_plan_id":"cebpf4jnsgd1na2vs0mg"},{"bike_id":"f582f5b9-3aa7-46dd-af45-9af1734cd7d4","system_id":"levelo_inurba_marseille","lat":43.3015,"lon":5.38078,"is_reserved":false,"is_disabled":false,"rental_uris":{"android":"levelo://app?vid=f582f5b9-3aa7-46dd-af45-9af1734cd7d4","ios":"levelo://app?vid=f582f5b9-3aa7-46dd-af45-9af1734cd7d4"},"vehicle_type_id":"4","last_reported":1731751730,"current_range_meters":19200,"station_id":"ce4bgjp2rcd13ifvqbh0","pricing_plan_id":"cebpf4jnsgd1na2vs0mg"},{"bike_id":"5bac9782-313f-49fe-b265-9e8ca0c1a612","system_id":"levelo_inurba_marseille","lat":43.29786,"lon":5.3809,"is_reserved":false,"is_disabled":false,"rental_uris":{"android":"levelo://app?vid=5bac9782-313f-49fe-b265-9e8ca0c1a612","ios":"levelo://app?vid=5bac9782-313f-49fe-b265-9e8ca0c1a612"},"vehicle_type_id":"4","last_reported":1731751730,"current_range_meters":28000,"station_id":"ce4bgip2rcd13ifvqbb0","pricing_plan_id":"cebpf4jnsgd1na2vs0mg"},{"bike_id":"0630068a-91fe-4f7d-8571-bea113198f1a","system_id":"levelo_inurba_marseille","lat":43.27174,"lon":5.40993,"is_reserved":false,"is_disabled":false,"rental_uris":{"android":"levelo://app?vid=0630068a-91fe-4f7d-8571-bea113198f1a","ios":"levelo://app?vid=0630068a-91fe-4f7d-8571-bea113198f1a"},"vehicle_type_id":"4","last_reported":1731751730,"current_range_meters":16400,"station_id":"ce4bhl12rcd13ifvqgf0","pricing_plan_id":"cebpf4jnsgd1na2vs0mg"},{"bike_id":"82588854-e185-482e-a51c-801099d30d24","system_id":"levelo_inurba_marseille","lat":43.24672,"lon":5.38157,"is_reserved":false,"is_disabled":false,"rental_uris":{"android":"levelo://app?vid=82588854-e185-482e-a51c-801099d30d24","ios":"levelo://app?vid=82588854-e185-482e-a51c-801099d30d24"},"vehicle_type_id":"4","last_reported":1731751730,"current_range_meters":10000,"station_id":"ce4bhih2rcd13ifvqfr0","pricing_plan_id":"cebpf4jnsgd1na2vs0mg"},{"bike_id":"627befbe-ef81-4909-afe2-48970fe8987d","system_id":"levelo_inurba_marseille","lat":43.32336,"lon":5.40628,"is_reserved":false,"is_disabled":false,"rental_uris":{"android":"levelo://app?vid=627befbe-ef81-4909-afe2-48970fe8987d","ios":"levelo://app?vid=627befbe-ef81-4909-afe2-48970fe8987d"},"vehicle_type_id":"4","last_reported":1731751730,"current_range_meters":2800,"station_id":"ce4bhq92rcd13ifvqhjg","pricing_plan_id":"cebpf4jnsgd1na2vs0mg"},{"bike_id":"ba1c26a8-57eb-466e-81df-e976621621bc","system_id":"levelo_inurba_marseille","lat":43.3302,"lon":5.3903,"is_reserved":false,"is_disabled":false,"rental_uris":{"android":"levelo://app?vid=ba1c26a8-57eb-466e-81df-e976621621bc","ios":"levelo://app?vid=ba1c26a8-57eb-466e-81df-e976621621bc"},"vehicle_type_id":"4","last_reported":1731751730,"current_range_meters":18000,"station_id":"ce4bhr92rcd13ifvqhrg","pricing_plan_id":"cebpf4jnsgd1na2vs0mg"},{"bike_id":"20e9a85a-080a-4c58-84a1-bfdafb66d1ef","system_id":"levelo_inurba_marseille","lat":43.31367,"lon":5.38495,"is_reserved":false,"is_disabled":false,"rental_uris":{"android":"levelo://app?vid=20e9a85a-080a-4c58-84a1-bfdafb66d1ef","ios":"levelo://app?vid=20e9a85a-080a-4c58-84a1-bfdafb66d1ef"},"vehicle_type_id":"4","last_reported":1731751730,"current_range_meters":22400,"station_id":"ce4bgt92rcd13ifvqcf0","pricing_plan_id":"cebpf4jnsgd1na2vs0mg"},{"bike_id":"cd45cec4-9645-4621-b738-db5de0858cbd","system_id":"levelo_inurba_marseille","lat":43.30609,"lon":5.3723,"is_reserved":false,"is_disabled":false,"rental_uris":{"android":"levelo://app?vid=cd45cec4-9645-4621-b738-db5de0858cbd","ios":"levelo://app?vid=cd45cec4-9645-4621-b738-db5de0858cbd"},"vehicle_type_id":"4","last_reported":1731751730,"current_range_meters":17600,"station_id":"ce4bgqh2rcd13ifvqc4g","pricing_plan_id":"cebpf4jnsgd1na2vs0mg"},{"bike_id":"a392c0b2-4a10-44fc-886f-9565b34448ab","system_id":"levelo_inurba_marseille","lat":43.26955,"lon":5.38639,"is_reserved":false,"is_disabled":false,"rental_uris":{"android":"levelo://app?vid=a392c0b2-4a10-44fc-886f-9565b34448ab","ios":"levelo://app?vid=a392c0b2-4a10-44fc-886f-9565b34448ab"},"vehicle_type_id":"4","last_reported":1731751730,"current_range_meters":19200,"station_id":"ce4bhh92rcd13ifvqfh0","pricing_plan_id":"cebpf4jnsgd1na2vs0mg"},{"bike_id":"b02cad58-3de4-410a-a29d-78e174a9d94a","system_id":"levelo_inurba_marseille","lat":43.23193,"lon":5.35548,"is_reserved":false,"is_disabled":false,"rental_uris":{"android":"levelo://app?vid=b02cad58-3de4-410a-a29d-78e174a9d94a","ios":"levelo://app?vid=b02cad58-3de4-410a-a29d-78e174a9d94a"},"vehicle_type_id":"4","last_reported":1731751730,"current_range_meters":38400,"station_id":"ce4bhu92rcd13ifvqi70","pricing_plan_id":"cebpf4jnsgd1na2vs0mg"},{"bike_id":"79bd3e8e-da62-49dc-8238-ef5ce8e8b5c1","system_id":"levelo_inurba_marseille","lat":43.29048,"lon":5.37572,"is_reserved":false,"is_disabled":false,"rental_uris":{"android":"levelo://app?vid=79bd3e8e-da62-49dc-8238-ef5ce8e8b5c1","ios":"levelo://app?vid=79bd3e8e-da62-49dc-8238-ef5ce8e8b5c1"},"vehicle_type_id":"4","last_reported":1731751730,"current_range_meters":32800,"station_id":"ce4bh692rcd13ifvqe90","pricing_plan_id":"cebpf4jnsgd1na2vs0mg"},{"bike_id":"980c2b64-5ae6-4e8e-ac4f-88eb697394b6","system_id":"levelo_inurba_marseille","lat":43.25924,"lon":5.40912,"is_reserved":false,"is_disabled":false,"rental_uris":{"android":"levelo://app?vid=980c2b64-5ae6-4e8e-ac4f-88eb697394b6","ios":"levelo://app?vid=980c2b64-5ae6-4e8e-ac4f-88eb697394b6"},"vehicle_type_id":"4","last_reported":1731751730,"current_range_meters":19600,"station_id":"ce4bhm92rcd13ifvqglg","pricing_plan_id":"cebpf4jnsgd1na2vs0mg"},{"bike_id":"e1501de1-4181-416d-8c53-6efce29ebe9e","system_id":"levelo_inurba_marseille","lat":43.25496,"lon":5.37648,"is_reserved":false,"is_disabled":false,"rental_uris":{"android":"levelo://app?vid=e1501de1-4181-416d-8c53-6efce29ebe9e","ios":"levelo://app?vid=e1501de1-4181-416d-8c53-6efce29ebe9e"},"vehicle_type_id":"4","last_reported":1731751730,"current_range_meters":30400,"station_id":"ce4bhh12rcd13ifvqff0","pricing_plan_id":"cebpf4jnsgd1na2vs0mg"},{"bike_id":"795e9ab1-1e07-425d-be3d-823466f4b6fd","system_id":"levelo_inurba_marseille","lat":43.29184,"lon":5.35784,"is_reserved":false,"is_disabled":false,"rental_uris":{"android":"levelo://app?vid=795e9ab1-1e07-425d-be3d-823466f4b6fd","ios":"levelo://app?vid=795e9ab1-1e07-425d-be3d-823466f4b6fd"},"vehicle_type_id":"4","last_reported":1731751730,"current_range_meters":32400,"station_id":"","pricing_plan_id":"cebpf4jnsgd1na2vs0mg"},{"bike_id":"e713c054-0223-45a6-a263-34747956e4dd","system_id":"levelo_inurba_marseille","lat":43.30788,"lon":5.38157,"is_reserved":false,"is_disabled":false,"rental_uris":{"android":"levelo://app?vid=e713c054-0223-45a6-a263-34747956e4dd","ios":"levelo://app?vid=e713c054-0223-45a6-a263-34747956e4dd"},"vehicle_type_id":"4","last_reported":1731751730,"current_range_meters":30800,"station_id":"ce4bgt12rcd13ifvqce0","pricing_plan_id":"cebpf4jnsgd1na2vs0mg"},{"bike_id":"f82da10c-cf42-4d1e-8b05-fcaa6def071f","system_id":"levelo_inurba_marseille","lat":43.29622,"lon":5.37153,"is_reserved":false,"is_disabled":false,"rental_uris":{"android":"levelo://app?vid=f82da10c-cf42-4d1e-8b05-fcaa6def071f","ios":"levelo://app?vid=f82da10c-cf42-4d1e-8b05-fcaa6def071f"},"vehicle_type_id":"4","last_reported":1731751730,"current_range_meters":38800,"station_id":"ce4bgnh2rcd13ifvqc0g","pricing_plan_id":"cebpf4jnsgd1na2vs0mg"},{"bike_id":"7da8785d-8ceb-437a-9d70-92acc0f4f423","system_id":"levelo_inurba_marseille","lat":43.256212,"lon":5.382485,"is_reserved":false,"is_disabled":false,"rental_uris":{"android":"levelo://app?vid=7da8785d-8ceb-437a-9d70-92acc0f4f423","ios":"levelo://app?vid=7da8785d-8ceb-437a-9d70-92acc0f4f423"},"vehicle_type_id":"4","last_reported":1731751730,"current_range_meters":33600,"station_id":"ce4bhih2rcd13ifvqfs0","pricing_plan_id":"cebpf4jnsgd1na2vs0mg"},{"bike_id":"c7ad3112-6fa1-480b-b6f6-f0b1dce495ed","system_id":"levelo_inurba_marseille","lat":43.27381,"lon":5.3625,"is_reserved":false,"is_disabled":false,"rental_uris":{"android":"levelo://app?vid=c7ad3112-6fa1-480b-b6f6-f0b1dce495ed","ios":"levelo://app?vid=c7ad3112-6fa1-480b-b6f6-f0b1dce495ed"},"vehicle_type_id":"4","last_reported":1731751730,"current_range_meters":36800,"station_id":"ce4bhbh2rcd13ifvqeo0","pricing_plan_id":"cebpf4jnsgd1na2vs0mg"},{"bike_id":"490037b3-9551-47c8-9107-8e41cf9f098a","system_id":"levelo_inurba_marseille","lat":43.27958,"lon":5.38762,"is_reserved":false,"is_disabled":false,"rental_uris":{"android":"levelo://app?vid=490037b3-9551-47c8-9107-8e41cf9f098a","ios":"levelo://app?vid=490037b3-9551-47c8-9107-8e41cf9f098a"},"vehicle_type_id":"4","last_reported":1731751730,"current_range_meters":28000,"station_id":"ce4bhg12rcd13ifvqf80","pricing_plan_id":"cebpf4jnsgd1na2vs0mg"},{"bike_id":"0fbe2f51-ace8-4af6-8903-e78a75c9d6de","system_id":"levelo_inurba_marseille","lat":43.315369,"lon":5.380318,"is_reserved":false,"is_disabled":false,"rental_uris":{"android":"levelo://app?vid=0fbe2f51-ace8-4af6-8903-e78a75c9d6de","ios":"levelo://app?vid=0fbe2f51-ace8-4af6-8903-e78a75c9d6de"},"vehicle_type_id":"4","last_reported":1731751730,"current_range_meters":38400,"station_id":"ce4bhsp2rcd13ifvqi50","pricing_plan_id":"cebpf4jnsgd1na2vs0mg"},{"bike_id":"decfdfa3-3c86-4a53-8dff-a825db127ec6","system_id":"levelo_inurba_marseille","lat":43.29123,"lon":5.41751,"is_reserved":false,"is_disabled":false,"rental_uris":{"android":"levelo://app?vid=decfdfa3-3c86-4a53-8dff-a825db127ec6","ios":"levelo://app?vid=decfdfa3-3c86-4a53-8dff-a825db127ec6"},"vehicle_type_id":"4","last_reported":1731751730,"current_range_meters":30000,"station_id":"","pricing_plan_id":"cebpf4jnsgd1na2vs0mg"},{"bike_id":"231f4378-294e-4117-8fb0-630e80be8890","system_id":"levelo_inurba_marseille","lat":43.25722,"lon":5.41104,"is_reserved":false,"is_disabled":false,"rental_uris":{"android":"levelo://app?vid=231f4378-294e-4117-8fb0-630e80be8890","ios":"levelo://app?vid=231f4378-294e-4117-8fb0-630e80be8890"},"vehicle_type_id":"4","last_reported":1731751730,"current_range_meters":38000,"station_id":"ce4bhkp2rcd13ifvqgd0","pricing_plan_id":"cebpf4jnsgd1na2vs0mg"},{"bike_id":"46632805-d598-46ca-8978-4f5e71b702c6","system_id":"levelo_inurba_marseille","lat":43.28147,"lon":5.42635,"is_reserved":false,"is_disabled":false,"rental_uris":{"android":"levelo://app?vid=46632805-d598-46ca-8978-4f5e71b702c6","ios":"levelo://app?vid=46632805-d598-46ca-8978-4f5e71b702c6"},"vehicle_type_id":"4","last_reported":1731751730,"current_range_meters":38400,"station_id":"ce4bhnh2rcd13ifvqgug","pricing_plan_id":"cebpf4jnsgd1na2vs0mg"},{"bike_id":"f4b1fc7a-93b6-4e27-9bd2-12dd6a2ab8da","system_id":"levelo_inurba_marseille","lat":43.29412,"lon":5.38626,"is_reserved":false,"is_disabled":false,"rental_uris":{"android":"levelo://app?vid=f4b1fc7a-93b6-4e27-9bd2-12dd6a2ab8da","ios":"levelo://app?vid=f4b1fc7a-93b6-4e27-9bd2-12dd6a2ab8da"},"vehicle_type_id":"4","last_reported":1731751730,"current_range_meters":16800,"station_id":"ce4bh2h2rcd13ifvqdh0","pricing_plan_id":"cebpf4jnsgd1na2vs0mg"},{"bike_id":"811aec99-0ab9-44a4-a760-19620ef9a65c","system_id":"levelo_inurba_marseille","lat":43.30548,"lon":5.36703,"is_reserved":false,"is_disabled":false,"rental_uris":{"android":"levelo://app?vid=811aec99-0ab9-44a4-a760-19620ef9a65c","ios":"levelo://app?vid=811aec99-0ab9-44a4-a760-19620ef9a65c"},"vehicle_type_id":"4","last_reported":1731751730,"current_range_meters":14800,"station_id":"ce4bgrp2rcd13ifvqc9g","pricing_plan_id":"cebpf4jnsgd1na2vs0mg"},{"bike_id":"a7759f52-43d8-4392-a4d7-50c3610b64f4","system_id":"levelo_inurba_marseille","lat":43.32481,"lon":5.36581,"is_reserved":false,"is_disabled":false,"rental_uris":{"android":"levelo://app?vid=a7759f52-43d8-4392-a4d7-50c3610b64f4","ios":"levelo://app?vid=a7759f52-43d8-4392-a4d7-50c3610b64f4"},"vehicle_type_id":"4","last_reported":1731751730,"current_range_meters":39200,"station_id":"ce4bhs12rcd13ifvqhvg","pricing_plan_id":"cebpf4jnsgd1na2vs0mg"},{"bike_id":"2c7da520-bf3f-4579-bbaf-d8bed38515fb","system_id":"levelo_inurba_marseille","lat":43.24647,"lon":5.38897,"is_reserved":false,"is_disabled":false,"rental_uris":{"android":"levelo://app?vid=2c7da520-bf3f-4579-bbaf-d8bed38515fb","ios":"levelo://app?vid=2c7da520-bf3f-4579-bbaf-d8bed38515fb"},"vehicle_type_id":"4","last_reported":1731751730,"current_range_meters":39200,"station_id":"ce4bhg12rcd13ifvqf60","pricing_plan_id":"cebpf4jnsgd1na2vs0mg"},{"bike_id":"f977c5f6-0664-4a1f-98cb-06e11ab740ff","system_id":"levelo_inurba_marseille","lat":43.275,"lon":5.42448,"is_reserved":false,"is_disabled":false,"rental_uris":{"android":"levelo://app?vid=f977c5f6-0664-4a1f-98cb-06e11ab740ff","ios":"levelo://app?vid=f977c5f6-0664-4a1f-98cb-06e11ab740ff"},"vehicle_type_id":"4","last_reported":1731751730,"current_range_meters":39200,"station_id":"ce4bhn92rcd13ifvqgrg","pricing_plan_id":"cebpf4jnsgd1na2vs0mg"},{"bike_id":"6f7a4e4b-a09c-489e-8169-587ab3bb170d","system_id":"levelo_inurba_marseille","lat":43.27365,"lon":5.36251,"is_reserved":false,"is_disabled":false,"rental_uris":{"android":"levelo://app?vid=6f7a4e4b-a09c-489e-8169-587ab3bb170d","ios":"levelo://app?vid=6f7a4e4b-a09c-489e-8169-587ab3bb170d"},"vehicle_type_id":"4","last_reported":1731751730,"current_range_meters":14000,"station_id":"ce4bhbh2rcd13ifvqeo0","pricing_plan_id":"cebpf4jnsgd1na2vs0mg"},{"bike_id":"d450545d-116d-4b19-a52c-b8eb7dcdcab9","system_id":"levelo_inurba_marseille","lat":43.25586,"lon":5.38234,"is_reserved":false,"is_disabled":false,"rental_uris":{"android":"levelo://app?vid=d450545d-116d-4b19-a52c-b8eb7dcdcab9","ios":"levelo://app?vid=d450545d-116d-4b19-a52c-b8eb7dcdcab9"},"vehicle_type_id":"4","last_reported":1731751730,"current_range_meters":18800,"station_id":"ce4bhih2rcd13ifvqfs0","pricing_plan_id":"cebpf4jnsgd1na2vs0mg"},{"bike_id":"f12abf05-c53d-4f50-9b6b-de0708c10382","system_id":"levelo_inurba_marseille","lat":43.31704,"lon":5.37747,"is_reserved":false,"is_disabled":false,"rental_uris":{"android":"levelo://app?vid=f12abf05-c53d-4f50-9b6b-de0708c10382","ios":"levelo://app?vid=f12abf05-c53d-4f50-9b6b-de0708c10382"},"vehicle_type_id":"4","last_reported":1731751730,"current_range_meters":39200,"station_id":"ce4bgth2rcd13ifvqch0","pricing_plan_id":"cebpf4jnsgd1na2vs0mg"},{"bike_id":"d11cdb8f-0972-4c2b-9ac5-37fdc5ae388a","system_id":"levelo_inurba_marseille","lat":43.29788,"lon":5.38086,"is_reserved":false,"is_disabled":false,"rental_uris":{"android":"levelo://app?vid=d11cdb8f-0972-4c2b-9ac5-37fdc5ae388a","ios":"levelo://app?vid=d11cdb8f-0972-4c2b-9ac5-37fdc5ae388a"},"vehicle_type_id":"4","last_reported":1731751730,"current_range_meters":36800,"station_id":"ce4bgip2rcd13ifvqbb0","pricing_plan_id":"cebpf4jnsgd1na2vs0mg"},{"bike_id":"a65a2419-69e6-4d19-b1e3-3abe61fd327b","system_id":"levelo_inurba_marseille","lat":43.24811,"lon":5.37458,"is_reserved":false,"is_disabled":false,"rental_uris":{"android":"levelo://app?vid=a65a2419-69e6-4d19-b1e3-3abe61fd327b","ios":"levelo://app?vid=a65a2419-69e6-4d19-b1e3-3abe61fd327b"},"vehicle_type_id":"4","last_reported":1731751730,"current_range_meters":36400,"station_id":"ce4bhgh2rcd13ifvqfb0","pricing_plan_id":"cebpf4jnsgd1na2vs0mg"},{"bike_id":"d206d41a-8ea1-48b7-8dea-76f005b54e28","system_id":"levelo_inurba_marseille","lat":43.33764,"lon":5.37435,"is_reserved":false,"is_disabled":false,"rental_uris":{"android":"levelo://app?vid=d206d41a-8ea1-48b7-8dea-76f005b54e28","ios":"levelo://app?vid=d206d41a-8ea1-48b7-8dea-76f005b54e28"},"vehicle_type_id":"4","last_reported":1731751730,"current_range_meters":26800,"station_id":"","pricing_plan_id":"cebpf4jnsgd1na2vs0mg"},{"bike_id":"599cdc2a-c29e-4d39-a457-90d2e27a61a5","system_id":"levelo_inurba_marseille","lat":43.30896,"lon":5.37188,"is_reserved":false,"is_disabled":false,"rental_uris":{"android":"levelo://app?vid=599cdc2a-c29e-4d39-a457-90d2e27a61a5","ios":"levelo://app?vid=599cdc2a-c29e-4d39-a457-90d2e27a61a5"},"vehicle_type_id":"4","last_reported":1731751730,"current_range_meters":24400,"station_id":"ce4bguh2rcd13ifvqckg","pricing_plan_id":"cebpf4jnsgd1na2vs0mg"},{"bike_id":"9ede65c6-d405-4329-a67a-f5896c7f8e35","system_id":"levelo_inurba_marseille","lat":43.3108,"lon":5.42429,"is_reserved":false,"is_disabled":false,"rental_uris":{"android":"levelo://app?vid=9ede65c6-d405-4329-a67a-f5896c7f8e35","ios":"levelo://app?vid=9ede65c6-d405-4329-a67a-f5896c7f8e35"},"vehicle_type_id":"4","last_reported":1731751730,"current_range_meters":25200,"station_id":"ce4bhp92rcd13ifvqhag","pricing_plan_id":"cebpf4jnsgd1na2vs0mg"},{"bike_id":"0a0d76f2-f119-4475-b504-0f03b5ccc7b5","system_id":"levelo_inurba_marseille","lat":43.26952,"lon":5.3863,"is_reserved":false,"is_disabled":false,"rental_uris":{"android":"levelo://app?vid=0a0d76f2-f119-4475-b504-0f03b5ccc7b5","ios":"levelo://app?vid=0a0d76f2-f119-4475-b504-0f03b5ccc7b5"},"vehicle_type_id":"4","last_reported":1731751730,"current_range_meters":7200,"station_id":"ce4bhh92rcd13ifvqfh0","pricing_plan_id":"cebpf4jnsgd1na2vs0mg"},{"bike_id":"e39af636-a17e-4f5d-acab-4d7b47e0f45b","system_id":"levelo_inurba_marseille","lat":43.29297,"lon":5.37165,"is_reserved":false,"is_disabled":false,"rental_uris":{"android":"levelo://app?vid=e39af636-a17e-4f5d-acab-4d7b47e0f45b","ios":"levelo://app?vid=e39af636-a17e-4f5d-acab-4d7b47e0f45b"},"vehicle_type_id":"4","last_reported":1731751730,"current_range_meters":8400,"station_id":"ce4bgh92rcd13ifvqb40","pricing_plan_id":"cebpf4jnsgd1na2vs0mg"},{"bike_id":"14fb6a80-0412-42db-ab41-530cf252b118","system_id":"levelo_inurba_marseille","lat":43.27207,"lon":5.39174,"is_reserved":false,"is_disabled":false,"rental_uris":{"android":"levelo://app?vid=14fb6a80-0412-42db-ab41-530cf252b118","ios":"levelo://app?vid=14fb6a80-0412-42db-ab41-530cf252b118"},"vehicle_type_id":"4","last_reported":1731751730,"current_range_meters":6400,"station_id":"ce4bhhp2rcd13ifvqfm0","pricing_plan_id":"cebpf4jnsgd1na2vs0mg"},{"bike_id":"c1189ec1-c35f-4612-895e-f179eed881bb","system_id":"levelo_inurba_marseille","lat":43.26933,"lon":5.38913,"is_reserved":false,"is_disabled":false,"rental_uris":{"android":"levelo://app?vid=c1189ec1-c35f-4612-895e-f179eed881bb","ios":"levelo://app?vid=c1189ec1-c35f-4612-895e-f179eed881bb"},"vehicle_type_id":"4","last_reported":1731751730,"current_range_meters":38800,"station_id":"ce4bhhh2rcd13ifvqfl0","pricing_plan_id":"cebpf4jnsgd1na2vs0mg"},{"bike_id":"e442e41c-d68f-4096-a2cb-aa7e2616dded","system_id":"levelo_inurba_marseille","lat":43.30147,"lon":5.38078,"is_reserved":false,"is_disabled":false,"rental_uris":{"android":"levelo://app?vid=e442e41c-d68f-4096-a2cb-aa7e2616dded","ios":"levelo://app?vid=e442e41c-d68f-4096-a2cb-aa7e2616dded"},"vehicle_type_id":"4","last_reported":1731751730,"current_range_meters":28400,"station_id":"ce4bgjp2rcd13ifvqbh0","pricing_plan_id":"cebpf4jnsgd1na2vs0mg"},{"bike_id":"08045fbe-068c-4f02-bd75-18cdcdd855bb","system_id":"levelo_inurba_marseille","lat":43.2957,"lon":5.37522,"is_reserved":false,"is_disabled":false,"rental_uris":{"android":"levelo://app?vid=08045fbe-068c-4f02-bd75-18cdcdd855bb","ios":"levelo://app?vid=08045fbe-068c-4f02-bd75-18cdcdd855bb"},"vehicle_type_id":"4","last_reported":1731751730,"current_range_meters":36400,"station_id":"ce4bgh92rcd13ifvqb50","pricing_plan_id":"cebpf4jnsgd1na2vs0mg"},{"bike_id":"dd03836f-3f42-4c36-897f-2dc5c95a4923","system_id":"levelo_inurba_marseille","lat":43.27494,"lon":5.42462,"is_reserved":false,"is_disabled":false,"rental_uris":{"android":"levelo://app?vid=dd03836f-3f42-4c36-897f-2dc5c95a4923","ios":"levelo://app?vid=dd03836f-3f42-4c36-897f-2dc5c95a4923"},"vehicle_type_id":"4","last_reported":1731751730,"current_range_meters":35200,"station_id":"ce4bhn92rcd13ifvqgrg","pricing_plan_id":"cebpf4jnsgd1na2vs0mg"},{"bike_id":"afcb96cc-da56-41f7-8d2b-2ed6c81711b1","system_id":"levelo_inurba_marseille","lat":43.28038,"lon":5.36947,"is_reserved":false,"is_disabled":false,"rental_uris":{"android":"levelo://app?vid=afcb96cc-da56-41f7-8d2b-2ed6c81711b1","ios":"levelo://app?vid=afcb96cc-da56-41f7-8d2b-2ed6c81711b1"},"vehicle_type_id":"4","last_reported":1731751730,"current_range_meters":36400,"station_id":"ce4bha12rcd13ifvqef0","pricing_plan_id":"cebpf4jnsgd1na2vs0mg"},{"bike_id":"7814bce4-d4b3-4816-bdc1-60fd83ae58e2","system_id":"levelo_inurba_marseille","lat":43.27204,"lon":5.391931,"is_reserved":false,"is_disabled":false,"rental_uris":{"android":"levelo://app?vid=7814bce4-d4b3-4816-bdc1-60fd83ae58e2","ios":"levelo://app?vid=7814bce4-d4b3-4816-bdc1-60fd83ae58e2"},"vehicle_type_id":"4","last_reported":1731751730,"current_range_meters":30400,"station_id":"ce4bhhp2rcd13ifvqfm0","pricing_plan_id":"cebpf4jnsgd1na2vs0mg"},{"bike_id":"a4ee2b5b-3111-4b2d-b349-e59fe350c07c","system_id":"levelo_inurba_marseille","lat":43.29802,"lon":5.38094,"is_reserved":false,"is_disabled":false,"rental_uris":{"android":"levelo://app?vid=a4ee2b5b-3111-4b2d-b349-e59fe350c07c","ios":"levelo://app?vid=a4ee2b5b-3111-4b2d-b349-e59fe350c07c"},"vehicle_type_id":"4","last_reported":1731751730,"current_range_meters":28800,"station_id":"ce4bgip2rcd13ifvqbb0","pricing_plan_id":"cebpf4jnsgd1na2vs0mg"},{"bike_id":"6b11cefe-b4d3-4f2d-bf57-086e076e0c6c","system_id":"levelo_inurba_marseille","lat":43.24388,"lon":5.37054,"is_reserved":false,"is_disabled":false,"rental_uris":{"android":"levelo://app?vid=6b11cefe-b4d3-4f2d-bf57-086e076e0c6c","ios":"levelo://app?vid=6b11cefe-b4d3-4f2d-bf57-086e076e0c6c"},"vehicle_type_id":"4","last_reported":1731751730,"current_range_meters":39200,"station_id":"ce4bhhh2rcd13ifvqfk0","pricing_plan_id":"cebpf4jnsgd1na2vs0mg"},{"bike_id":"795c1f09-f1cd-4cd8-87e7-6698d95895c5","system_id":"levelo_inurba_marseille","lat":43.30435,"lon":5.39746,"is_reserved":false,"is_disabled":false,"rental_uris":{"android":"levelo://app?vid=795c1f09-f1cd-4cd8-87e7-6698d95895c5","ios":"levelo://app?vid=795c1f09-f1cd-4cd8-87e7-6698d95895c5"},"vehicle_type_id":"4","last_reported":1731751730,"current_range_meters":32800,"station_id":"ce4bh092rcd13ifvqd20","pricing_plan_id":"cebpf4jnsgd1na2vs0mg"},{"bike_id":"ff92ab18-2feb-4dc5-b1f0-bfa8891b6d9b","system_id":"levelo_inurba_marseille","lat":43.30147,"lon":5.38089,"is_reserved":false,"is_disabled":false,"rental_uris":{"android":"levelo://app?vid=ff92ab18-2feb-4dc5-b1f0-bfa8891b6d9b","ios":"levelo://app?vid=ff92ab18-2feb-4dc5-b1f0-bfa8891b6d9b"},"vehicle_type_id":"4","last_reported":1731751730,"current_range_meters":38800,"station_id":"ce4bgjp2rcd13ifvqbh0","pricing_plan_id":"cebpf4jnsgd1na2vs0mg"},{"bike_id":"14ece81b-fd80-461a-938b-9f1e5887a908","system_id":"levelo_inurba_marseille","lat":43.30256,"lon":5.40075,"is_reserved":false,"is_disabled":false,"rental_uris":{"android":"levelo://app?vid=14ece81b-fd80-461a-938b-9f1e5887a908","ios":"levelo://app?vid=14ece81b-fd80-461a-938b-9f1e5887a908"},"vehicle_type_id":"4","last_reported":1731751730,"current_range_meters":36400,"station_id":"ce4bgvh2rcd13ifvqcs0","pricing_plan_id":"cebpf4jnsgd1na2vs0mg"},{"bike_id":"4ba5a269-ea68-4e0f-a471-8a85e3b850d8","system_id":"levelo_inurba_marseille","lat":43.29594,"lon":5.38103,"is_reserved":false,"is_disabled":false,"rental_uris":{"android":"levelo://app?vid=4ba5a269-ea68-4e0f-a471-8a85e3b850d8","ios":"levelo://app?vid=4ba5a269-ea68-4e0f-a471-8a85e3b850d8"},"vehicle_type_id":"4","last_reported":1731751730,"current_range_meters":25600,"station_id":"ce4bgl12rcd13ifvqbo0","pricing_plan_id":"cebpf4jnsgd1na2vs0mg"},{"bike_id":"82c59fff-9b7f-4a08-acd3-f3d9450a6aa1","system_id":"levelo_inurba_marseille","lat":43.27316,"lon":5.39106,"is_reserved":false,"is_disabled":false,"rental_uris":{"android":"levelo://app?vid=82c59fff-9b7f-4a08-acd3-f3d9450a6aa1","ios":"levelo://app?vid=82c59fff-9b7f-4a08-acd3-f3d9450a6aa1"},"vehicle_type_id":"4","last_reported":1731751730,"current_range_meters":32800,"station_id":"ce4bhgp2rcd13ifvqfe0","pricing_plan_id":"cebpf4jnsgd1na2vs0mg"},{"bike_id":"45f0c48a-40d1-4090-9f17-d858166d41b0","system_id":"levelo_inurba_marseille","lat":43.29218,"lon":5.36072,"is_reserved":false,"is_disabled":false,"rental_uris":{"android":"levelo://app?vid=45f0c48a-40d1-4090-9f17-d858166d41b0","ios":"levelo://app?vid=45f0c48a-40d1-4090-9f17-d858166d41b0"},"vehicle_type_id":"4","last_reported":1731751730,"current_range_meters":30000,"station_id":"ce4bhbh2rcd13ifvqeqg","pricing_plan_id":"cebpf4jnsgd1na2vs0mg"},{"bike_id":"36431332-30c9-4c92-a4d2-20d5845ab51d","system_id":"levelo_inurba_marseille","lat":43.27496,"lon":5.42454,"is_reserved":false,"is_disabled":false,"rental_uris":{"android":"levelo://app?vid=36431332-30c9-4c92-a4d2-20d5845ab51d","ios":"levelo://app?vid=36431332-30c9-4c92-a4d2-20d5845ab51d"},"vehicle_type_id":"4","last_reported":1731751730,"current_range_meters":25600,"station_id":"ce4bhn92rcd13ifvqgrg","pricing_plan_id":"cebpf4jnsgd1na2vs0mg"},{"bike_id":"4c5ab393-6b19-4e5c-a236-2c1a18c7b572","system_id":"levelo_inurba_marseille","lat":43.29255,"lon":5.40912,"is_reserved":false,"is_disabled":false,"rental_uris":{"android":"levelo://app?vid=4c5ab393-6b19-4e5c-a236-2c1a18c7b572","ios":"levelo://app?vid=4c5ab393-6b19-4e5c-a236-2c1a18c7b572"},"vehicle_type_id":"4","last_reported":1731751730,"current_range_meters":18800,"station_id":"ce4bh192rcd13ifvqdc0","pricing_plan_id":"cebpf4jnsgd1na2vs0mg"},{"bike_id":"d7cad7ba-a3cf-4113-8f4d-63bd503bb522","system_id":"levelo_inurba_marseille","lat":43.27616,"lon":5.36104,"is_reserved":false,"is_disabled":false,"rental_uris":{"android":"levelo://app?vid=d7cad7ba-a3cf-4113-8f4d-63bd503bb522","ios":"levelo://app?vid=d7cad7ba-a3cf-4113-8f4d-63bd503bb522"},"vehicle_type_id":"4","last_reported":1731751730,"current_range_meters":20000,"station_id":"ce4bgj92rcd13ifvqbe0","pricing_plan_id":"cebpf4jnsgd1na2vs0mg"},{"bike_id":"007508bf-67c5-48a6-b21b-8dbff3965901","system_id":"levelo_inurba_marseille","lat":43.29796,"lon":5.38092,"is_reserved":false,"is_disabled":false,"rental_uris":{"android":"levelo://app?vid=007508bf-67c5-48a6-b21b-8dbff3965901","ios":"levelo://app?vid=007508bf-67c5-48a6-b21b-8dbff3965901"},"vehicle_type_id":"4","last_reported":1731751730,"current_range_meters":38000,"station_id":"ce4bgip2rcd13ifvqbb0","pricing_plan_id":"cebpf4jnsgd1na2vs0mg"},{"bike_id":"b17d06d2-c9d4-430e-8c4e-4c13081ec160","system_id":"levelo_inurba_marseille","lat":43.24652,"lon":5.38887,"is_reserved":false,"is_disabled":false,"rental_uris":{"android":"levelo://app?vid=b17d06d2-c9d4-430e-8c4e-4c13081ec160","ios":"levelo://app?vid=b17d06d2-c9d4-430e-8c4e-4c13081ec160"},"vehicle_type_id":"4","last_reported":1731751730,"current_range_meters":39200,"station_id":"ce4bhg12rcd13ifvqf60","pricing_plan_id":"cebpf4jnsgd1na2vs0mg"},{"bike_id":"786c6b68-ec8d-43d2-809c-83c227f2d2a6","system_id":"levelo_inurba_marseille","lat":43.3026,"lon":5.40077,"is_reserved":false,"is_disabled":false,"rental_uris":{"android":"levelo://app?vid=786c6b68-ec8d-43d2-809c-83c227f2d2a6","ios":"levelo://app?vid=786c6b68-ec8d-43d2-809c-83c227f2d2a6"},"vehicle_type_id":"4","last_reported":1731751730,"current_range_meters":38400,"station_id":"ce4bgvh2rcd13ifvqcs0","pricing_plan_id":"cebpf4jnsgd1na2vs0mg"},{"bike_id":"eb396eca-a1fc-49f9-a026-457f3c9f3ab8","system_id":"levelo_inurba_marseille","lat":43.30008,"lon":5.38891,"is_reserved":false,"is_disabled":false,"rental_uris":{"android":"levelo://app?vid=eb396eca-a1fc-49f9-a026-457f3c9f3ab8","ios":"levelo://app?vid=eb396eca-a1fc-49f9-a026-457f3c9f3ab8"},"vehicle_type_id":"4","last_reported":1731751730,"current_range_meters":16400,"station_id":"ce4bhi12rcd13ifvqfo0","pricing_plan_id":"cebpf4jnsgd1na2vs0mg"},{"bike_id":"f71cb3f6-cf60-4ae1-a7a0-a293770e8263","system_id":"levelo_inurba_marseille","lat":43.31115,"lon":5.37773,"is_reserved":false,"is_disabled":false,"rental_uris":{"android":"levelo://app?vid=f71cb3f6-cf60-4ae1-a7a0-a293770e8263","ios":"levelo://app?vid=f71cb3f6-cf60-4ae1-a7a0-a293770e8263"},"vehicle_type_id":"4","last_reported":1731751730,"current_range_meters":7200,"station_id":"ce4bgt92rcd13ifvqcg0","pricing_plan_id":"cebpf4jnsgd1na2vs0mg"},{"bike_id":"3f37f7d7-cfd0-46ff-ad64-e239f9c03c2e","system_id":"levelo_inurba_marseille","lat":43.33023,"lon":5.39041,"is_reserved":false,"is_disabled":false,"rental_uris":{"android":"levelo://app?vid=3f37f7d7-cfd0-46ff-ad64-e239f9c03c2e","ios":"levelo://app?vid=3f37f7d7-cfd0-46ff-ad64-e239f9c03c2e"},"vehicle_type_id":"4","last_reported":1731751730,"current_range_meters":39200,"station_id":"ce4bhr92rcd13ifvqhrg","pricing_plan_id":"cebpf4jnsgd1na2vs0mg"},{"bike_id":"ddf44895-d4f6-405c-ad97-35a6d7458a36","system_id":"levelo_inurba_marseille","lat":43.275,"lon":5.42454,"is_reserved":false,"is_disabled":false,"rental_uris":{"android":"levelo://app?vid=ddf44895-d4f6-405c-ad97-35a6d7458a36","ios":"levelo://app?vid=ddf44895-d4f6-405c-ad97-35a6d7458a36"},"vehicle_type_id":"4","last_reported":1731751730,"current_range_meters":22800,"station_id":"ce4bhn92rcd13ifvqgrg","pricing_plan_id":"cebpf4jnsgd1na2vs0mg"},{"bike_id":"3816a23f-95ec-47f5-9b41-dd1fbca0a489","system_id":"levelo_inurba_marseille","lat":43.302765,"lon":5.377266,"is_reserved":false,"is_disabled":false,"rental_uris":{"android":"levelo://app?vid=3816a23f-95ec-47f5-9b41-dd1fbca0a489","ios":"levelo://app?vid=3816a23f-95ec-47f5-9b41-dd1fbca0a489"},"vehicle_type_id":"4","last_reported":1731751730,"current_range_meters":38400,"station_id":"ce4bguh2rcd13ifvqcj0","pricing_plan_id":"cebpf4jnsgd1na2vs0mg"},{"bike_id":"92e5ff07-e698-41fa-9c74-a450de32acaa","system_id":"levelo_inurba_marseille","lat":43.30153,"lon":5.38085,"is_reserved":false,"is_disabled":false,"rental_uris":{"android":"levelo://app?vid=92e5ff07-e698-41fa-9c74-a450de32acaa","ios":"levelo://app?vid=92e5ff07-e698-41fa-9c74-a450de32acaa"},"vehicle_type_id":"4","last_reported":1731751730,"current_range_meters":14400,"station_id":"ce4bgjp2rcd13ifvqbh0","pricing_plan_id":"cebpf4jnsgd1na2vs0mg"},{"bike_id":"41a8f3c0-2349-4b3c-9e5f-f9588fd91dc0","system_id":"levelo_inurba_marseille","lat":43.30532,"lon":5.3671,"is_reserved":false,"is_disabled":false,"rental_uris":{"android":"levelo://app?vid=41a8f3c0-2349-4b3c-9e5f-f9588fd91dc0","ios":"levelo://app?vid=41a8f3c0-2349-4b3c-9e5f-f9588fd91dc0"},"vehicle_type_id":"4","last_reported":1731751730,"current_range_meters":4400,"station_id":"ce4bgrp2rcd13ifvqc9g","pricing_plan_id":"cebpf4jnsgd1na2vs0mg"},{"bike_id":"d6029a07-4312-42af-9590-5c6b5c606e61","system_id":"levelo_inurba_marseille","lat":43.2558,"lon":5.38239,"is_reserved":false,"is_disabled":false,"rental_uris":{"android":"levelo://app?vid=d6029a07-4312-42af-9590-5c6b5c606e61","ios":"levelo://app?vid=d6029a07-4312-42af-9590-5c6b5c606e61"},"vehicle_type_id":"4","last_reported":1731751730,"current_range_meters":38000,"station_id":"ce4bhih2rcd13ifvqfs0","pricing_plan_id":"cebpf4jnsgd1na2vs0mg"},{"bike_id":"351eb419-d411-4017-a3aa-d6931858a388","system_id":"levelo_inurba_marseille","lat":43.29577,"lon":5.36749,"is_reserved":false,"is_disabled":false,"rental_uris":{"android":"levelo://app?vid=351eb419-d411-4017-a3aa-d6931858a388","ios":"levelo://app?vid=351eb419-d411-4017-a3aa-d6931858a388"},"vehicle_type_id":"4","last_reported":1731751730,"current_range_meters":7200,"station_id":"ce4bgph2rcd13ifvqc2g","pricing_plan_id":"cebpf4jnsgd1na2vs0mg"},{"bike_id":"f14cfbd4-4f9c-4b18-8899-34ddb71b77ad","system_id":"levelo_inurba_marseille","lat":43.30266,"lon":5.40069,"is_reserved":false,"is_disabled":false,"rental_uris":{"android":"levelo://app?vid=f14cfbd4-4f9c-4b18-8899-34ddb71b77ad","ios":"levelo://app?vid=f14cfbd4-4f9c-4b18-8899-34ddb71b77ad"},"vehicle_type_id":"4","last_reported":1731751730,"current_range_meters":39200,"station_id":"ce4bgvh2rcd13ifvqcs0","pricing_plan_id":"cebpf4jnsgd1na2vs0mg"},{"bike_id":"65f92f31-0e5e-44c8-952d-df9c30660f65","system_id":"levelo_inurba_marseille","lat":43.29558,"lon":5.42284,"is_reserved":false,"is_disabled":false,"rental_uris":{"android":"levelo://app?vid=65f92f31-0e5e-44c8-952d-df9c30660f65","ios":"levelo://app?vid=65f92f31-0e5e-44c8-952d-df9c30660f65"},"vehicle_type_id":"4","last_reported":1731751730,"current_range_meters":24400,"station_id":"ce4bhph2rcd13ifvqhdg","pricing_plan_id":"cebpf4jnsgd1na2vs0mg"},{"bike_id":"c4af11b5-70d4-4dd3-91c5-4ad3e6b48b54","system_id":"levelo_inurba_marseille","lat":43.30254,"lon":5.37728,"is_reserved":false,"is_disabled":false,"rental_uris":{"android":"levelo://app?vid=c4af11b5-70d4-4dd3-91c5-4ad3e6b48b54","ios":"levelo://app?vid=c4af11b5-70d4-4dd3-91c5-4ad3e6b48b54"},"vehicle_type_id":"4","last_reported":1731751730,"current_range_meters":22400,"station_id":"ce4bguh2rcd13ifvqcj0","pricing_plan_id":"cebpf4jnsgd1na2vs0mg"},{"bike_id":"d295d273-78cf-440a-820a-0afdaf9f4a44","system_id":"levelo_inurba_marseille","lat":43.33609,"lon":5.41025,"is_reserved":false,"is_disabled":false,"rental_uris":{"android":"levelo://app?vid=d295d273-78cf-440a-820a-0afdaf9f4a44","ios":"levelo://app?vid=d295d273-78cf-440a-820a-0afdaf9f4a44"},"vehicle_type_id":"4","last_reported":1731751730,"current_range_meters":28000,"station_id":"ce4bhqh2rcd13ifvqhmg","pricing_plan_id":"cebpf4jnsgd1na2vs0mg"},{"bike_id":"9f0ef238-2338-4617-b8b2-86276cf2ad5a","system_id":"levelo_inurba_marseille","lat":43.248047,"lon":5.374573,"is_reserved":false,"is_disabled":false,"rental_uris":{"android":"levelo://app?vid=9f0ef238-2338-4617-b8b2-86276cf2ad5a","ios":"levelo://app?vid=9f0ef238-2338-4617-b8b2-86276cf2ad5a"},"vehicle_type_id":"4","last_reported":1731751730,"current_range_meters":34800,"station_id":"ce4bhgh2rcd13ifvqfb0","pricing_plan_id":"cebpf4jnsgd1na2vs0mg"},{"bike_id":"76fda271-4bcd-4529-8397-8074a1eff7fe","system_id":"levelo_inurba_marseille","lat":43.33749,"lon":5.37435,"is_reserved":false,"is_disabled":false,"rental_uris":{"android":"levelo://app?vid=76fda271-4bcd-4529-8397-8074a1eff7fe","ios":"levelo://app?vid=76fda271-4bcd-4529-8397-8074a1eff7fe"},"vehicle_type_id":"4","last_reported":1731751730,"current_range_meters":38400,"station_id":"","pricing_plan_id":"cebpf4jnsgd1na2vs0mg"},{"bike_id":"1f8a1a55-b493-4082-8e56-7f609908ae66","system_id":"levelo_inurba_marseille","lat":43.29046,"lon":5.35921,"is_reserved":false,"is_disabled":false,"rental_uris":{"android":"levelo://app?vid=1f8a1a55-b493-4082-8e56-7f609908ae66","ios":"levelo://app?vid=1f8a1a55-b493-4082-8e56-7f609908ae66"},"vehicle_type_id":"4","last_reported":1731751730,"current_range_meters":31200,"station_id":"ce4bha92rcd13ifvqeg0","pricing_plan_id":"cebpf4jnsgd1na2vs0mg"},{"bike_id":"7125cda5-6cac-4f0d-b24c-2d801b2955b5","system_id":"levelo_inurba_marseille","lat":43.23189,"lon":5.39978,"is_reserved":false,"is_disabled":false,"rental_uris":{"android":"levelo://app?vid=7125cda5-6cac-4f0d-b24c-2d801b2955b5","ios":"levelo://app?vid=7125cda5-6cac-4f0d-b24c-2d801b2955b5"},"vehicle_type_id":"4","last_reported":1731751730,"current_range_meters":38800,"station_id":"ce4bhn12rcd13ifvqgqg","pricing_plan_id":"cebpf4jnsgd1na2vs0mg"},{"bike_id":"77e98fa8-2403-4754-b6f6-34c4f430fecf","system_id":"levelo_inurba_marseille","lat":43.26209,"lon":5.37443,"is_reserved":false,"is_disabled":false,"rental_uris":{"android":"levelo://app?vid=77e98fa8-2403-4754-b6f6-34c4f430fecf","ios":"levelo://app?vid=77e98fa8-2403-4754-b6f6-34c4f430fecf"},"vehicle_type_id":"4","last_reported":1731751730,"current_range_meters":36400,"station_id":"ce4bhgp2rcd13ifvqfc0","pricing_plan_id":"cebpf4jnsgd1na2vs0mg"},{"bike_id":"86f570a3-c5de-49d0-be92-e7ab3aef3357","system_id":"levelo_inurba_marseille","lat":43.30525,"lon":5.36699,"is_reserved":false,"is_disabled":false,"rental_uris":{"android":"levelo://app?vid=86f570a3-c5de-49d0-be92-e7ab3aef3357","ios":"levelo://app?vid=86f570a3-c5de-49d0-be92-e7ab3aef3357"},"vehicle_type_id":"4","last_reported":1731751730,"current_range_meters":21600,"station_id":"ce4bgrp2rcd13ifvqc9g","pricing_plan_id":"cebpf4jnsgd1na2vs0mg"},{"bike_id":"d54f2dfa-2ad2-469a-8720-163ef98eb87d","system_id":"levelo_inurba_marseille","lat":43.25088,"lon":5.39518,"is_reserved":false,"is_disabled":false,"rental_uris":{"android":"levelo://app?vid=d54f2dfa-2ad2-469a-8720-163ef98eb87d","ios":"levelo://app?vid=d54f2dfa-2ad2-469a-8720-163ef98eb87d"},"vehicle_type_id":"4","last_reported":1731751730,"current_range_meters":24000,"station_id":"ce4bhm12rcd13ifvqgkg","pricing_plan_id":"cebpf4jnsgd1na2vs0mg"},{"bike_id":"e79ce6b9-44ad-42ae-b02b-2eaf4ac3477b","system_id":"levelo_inurba_marseille","lat":43.31126,"lon":5.37772,"is_reserved":false,"is_disabled":false,"rental_uris":{"android":"levelo://app?vid=e79ce6b9-44ad-42ae-b02b-2eaf4ac3477b","ios":"levelo://app?vid=e79ce6b9-44ad-42ae-b02b-2eaf4ac3477b"},"vehicle_type_id":"4","last_reported":1731751730,"current_range_meters":30800,"station_id":"ce4bgt92rcd13ifvqcg0","pricing_plan_id":"cebpf4jnsgd1na2vs0mg"},{"bike_id":"1cf6e9bd-b73c-49ce-a1cb-071237526ef4","system_id":"levelo_inurba_marseille","lat":43.29218,"lon":5.36073,"is_reserved":false,"is_disabled":false,"rental_uris":{"android":"levelo://app?vid=1cf6e9bd-b73c-49ce-a1cb-071237526ef4","ios":"levelo://app?vid=1cf6e9bd-b73c-49ce-a1cb-071237526ef4"},"vehicle_type_id":"4","last_reported":1731751730,"current_range_meters":32400,"station_id":"ce4bhbh2rcd13ifvqeqg","pricing_plan_id":"cebpf4jnsgd1na2vs0mg"},{"bike_id":"e45f085a-5435-4e14-83c4-74e1f130d1af","system_id":"levelo_inurba_marseille","lat":43.29782,"lon":5.38093,"is_reserved":false,"is_disabled":false,"rental_uris":{"android":"levelo://app?vid=e45f085a-5435-4e14-83c4-74e1f130d1af","ios":"levelo://app?vid=e45f085a-5435-4e14-83c4-74e1f130d1af"},"vehicle_type_id":"4","last_reported":1731751730,"current_range_meters":38000,"station_id":"ce4bgip2rcd13ifvqbb0","pricing_plan_id":"cebpf4jnsgd1na2vs0mg"},{"bike_id":"6d757fef-4f26-43f9-ac2c-ffab39bf7dae","system_id":"levelo_inurba_marseille","lat":43.32249,"lon":5.36901,"is_reserved":false,"is_disabled":false,"rental_uris":{"android":"levelo://app?vid=6d757fef-4f26-43f9-ac2c-ffab39bf7dae","ios":"levelo://app?vid=6d757fef-4f26-43f9-ac2c-ffab39bf7dae"},"vehicle_type_id":"4","last_reported":1731751730,"current_range_meters":20000,"station_id":"","pricing_plan_id":"cebpf4jnsgd1na2vs0mg"},{"bike_id":"5cfef7da-95ce-4eee-8bcc-83abe3bfab42","system_id":"levelo_inurba_marseille","lat":43.29557,"lon":5.4229,"is_reserved":false,"is_disabled":false,"rental_uris":{"android":"levelo://app?vid=5cfef7da-95ce-4eee-8bcc-83abe3bfab42","ios":"levelo://app?vid=5cfef7da-95ce-4eee-8bcc-83abe3bfab42"},"vehicle_type_id":"4","last_reported":1731751730,"current_range_meters":38000,"station_id":"ce4bhph2rcd13ifvqhdg","pricing_plan_id":"cebpf4jnsgd1na2vs0mg"},{"bike_id":"7cc3a9a1-5466-4e0c-ad63-f04d4b6e526b","system_id":"levelo_inurba_marseille","lat":43.25585,"lon":5.38234,"is_reserved":false,"is_disabled":false,"rental_uris":{"android":"levelo://app?vid=7cc3a9a1-5466-4e0c-ad63-f04d4b6e526b","ios":"levelo://app?vid=7cc3a9a1-5466-4e0c-ad63-f04d4b6e526b"},"vehicle_type_id":"4","last_reported":1731751730,"current_range_meters":39200,"station_id":"ce4bhih2rcd13ifvqfs0","pricing_plan_id":"cebpf4jnsgd1na2vs0mg"},{"bike_id":"46789660-8e1b-49b3-9f8e-8d8d35c459ab","system_id":"levelo_inurba_marseille","lat":43.29781,"lon":5.38081,"is_reserved":false,"is_disabled":false,"rental_uris":{"android":"levelo://app?vid=46789660-8e1b-49b3-9f8e-8d8d35c459ab","ios":"levelo://app?vid=46789660-8e1b-49b3-9f8e-8d8d35c459ab"},"vehicle_type_id":"4","last_reported":1731751730,"current_range_meters":28000,"station_id":"ce4bgip2rcd13ifvqbb0","pricing_plan_id":"cebpf4jnsgd1na2vs0mg"},{"bike_id":"cf3437fa-9383-4cb5-84d7-b189f5b308f2","system_id":"levelo_inurba_marseille","lat":43.31076,"lon":5.383533,"is_reserved":false,"is_disabled":false,"rental_uris":{"android":"levelo://app?vid=cf3437fa-9383-4cb5-84d7-b189f5b308f2","ios":"levelo://app?vid=cf3437fa-9383-4cb5-84d7-b189f5b308f2"},"vehicle_type_id":"4","last_reported":1731751730,"current_range_meters":24800,"station_id":"ce4bgv92rcd13ifvqcr0","pricing_plan_id":"cebpf4jnsgd1na2vs0mg"},{"bike_id":"994a1fe6-b6f9-42a9-8921-8bb60efd83ed","system_id":"levelo_inurba_marseille","lat":43.27323,"lon":5.39105,"is_reserved":false,"is_disabled":false,"rental_uris":{"android":"levelo://app?vid=994a1fe6-b6f9-42a9-8921-8bb60efd83ed","ios":"levelo://app?vid=994a1fe6-b6f9-42a9-8921-8bb60efd83ed"},"vehicle_type_id":"4","last_reported":1731751730,"current_range_meters":24400,"station_id":"ce4bhgp2rcd13ifvqfe0","pricing_plan_id":"cebpf4jnsgd1na2vs0mg"},{"bike_id":"0600d04a-24d2-4460-8e07-a08f3cec75a2","system_id":"levelo_inurba_marseille","lat":43.253998,"lon":5.388023,"is_reserved":false,"is_disabled":false,"rental_uris":{"android":"levelo://app?vid=0600d04a-24d2-4460-8e07-a08f3cec75a2","ios":"levelo://app?vid=0600d04a-24d2-4460-8e07-a08f3cec75a2"},"vehicle_type_id":"4","last_reported":1731751730,"current_range_meters":6800,"station_id":"ce4bhbh2rcd13ifvqeo0","pricing_plan_id":"cebpf4jnsgd1na2vs0mg"},{"bike_id":"aad4669a-3cee-431b-b28a-1ae7cd9f6df0","system_id":"levelo_inurba_marseille","lat":43.24994,"lon":5.38937,"is_reserved":false,"is_disabled":false,"rental_uris":{"android":"levelo://app?vid=aad4669a-3cee-431b-b28a-1ae7cd9f6df0","ios":"levelo://app?vid=aad4669a-3cee-431b-b28a-1ae7cd9f6df0"},"vehicle_type_id":"4","last_reported":1731751730,"current_range_meters":25200,"station_id":"ce4bhgp2rcd13ifvqfd0","pricing_plan_id":"cebpf4jnsgd1na2vs0mg"},{"bike_id":"3def47d5-da07-4acb-a4a9-5e939a90a81a","system_id":"levelo_inurba_marseille","lat":43.32657,"lon":5.40992,"is_reserved":false,"is_disabled":false,"rental_uris":{"android":"levelo://app?vid=3def47d5-da07-4acb-a4a9-5e939a90a81a","ios":"levelo://app?vid=3def47d5-da07-4acb-a4a9-5e939a90a81a"},"vehicle_type_id":"4","last_reported":1731751730,"current_range_meters":36800,"station_id":"ce4bhpp2rcd13ifvqhgg","pricing_plan_id":"cebpf4jnsgd1na2vs0mg"},{"bike_id":"a5bb31f6-2d80-4f6a-b823-66002c97c0b8","system_id":"levelo_inurba_marseille","lat":43.23152,"lon":5.43704,"is_reserved":false,"is_disabled":false,"rental_uris":{"android":"levelo://app?vid=a5bb31f6-2d80-4f6a-b823-66002c97c0b8","ios":"levelo://app?vid=a5bb31f6-2d80-4f6a-b823-66002c97c0b8"},"vehicle_type_id":"4","last_reported":1731751730,"current_range_meters":20000,"station_id":"ce4bhmp2rcd13ifvqgog","pricing_plan_id":"cebpf4jnsgd1na2vs0mg"},{"bike_id":"69316abb-217e-48fa-a923-b5dc4cad1113","system_id":"levelo_inurba_marseille","lat":43.32493,"lon":5.36574,"is_reserved":false,"is_disabled":false,"rental_uris":{"android":"levelo://app?vid=69316abb-217e-48fa-a923-b5dc4cad1113","ios":"levelo://app?vid=69316abb-217e-48fa-a923-b5dc4cad1113"},"vehicle_type_id":"4","last_reported":1731751730,"current_range_meters":39200,"station_id":"ce4bhs12rcd13ifvqhvg","pricing_plan_id":"cebpf4jnsgd1na2vs0mg"},{"bike_id":"77dfe3c4-e59e-4e85-8b30-7083fe85f2f5","system_id":"levelo_inurba_marseille","lat":43.28,"lon":5.40011,"is_reserved":false,"is_disabled":false,"rental_uris":{"android":"levelo://app?vid=77dfe3c4-e59e-4e85-8b30-7083fe85f2f5","ios":"levelo://app?vid=77dfe3c4-e59e-4e85-8b30-7083fe85f2f5"},"vehicle_type_id":"4","last_reported":1731751730,"current_range_meters":37600,"station_id":"ce4bho92rcd13ifvqh4g","pricing_plan_id":"cebpf4jnsgd1na2vs0mg"},{"bike_id":"89d65532-6780-451d-8295-77c745ae6df4","system_id":"levelo_inurba_marseille","lat":43.24067,"lon":5.3775,"is_reserved":false,"is_disabled":false,"rental_uris":{"android":"levelo://app?vid=89d65532-6780-451d-8295-77c745ae6df4","ios":"levelo://app?vid=89d65532-6780-451d-8295-77c745ae6df4"},"vehicle_type_id":"4","last_reported":1731751730,"current_range_meters":26800,"station_id":"ce4bhnp2rcd13ifvqgvg","pricing_plan_id":"cebpf4jnsgd1na2vs0mg"},{"bike_id":"208d585c-1931-4036-9da0-f89ba4a825ff","system_id":"levelo_inurba_marseille","lat":43.32291,"lon":5.38265,"is_reserved":false,"is_disabled":false,"rental_uris":{"android":"levelo://app?vid=208d585c-1931-4036-9da0-f89ba4a825ff","ios":"levelo://app?vid=208d585c-1931-4036-9da0-f89ba4a825ff"},"vehicle_type_id":"4","last_reported":1731751730,"current_range_meters":38000,"station_id":"ce4bhr12rcd13ifvqhqg","pricing_plan_id":"cebpf4jnsgd1na2vs0mg"},{"bike_id":"8f7aacd3-4586-4661-8e01-8c63c46bb897","system_id":"levelo_inurba_marseille","lat":43.29582,"lon":5.36736,"is_reserved":false,"is_disabled":false,"rental_uris":{"android":"levelo://app?vid=8f7aacd3-4586-4661-8e01-8c63c46bb897","ios":"levelo://app?vid=8f7aacd3-4586-4661-8e01-8c63c46bb897"},"vehicle_type_id":"4","last_reported":1731751730,"current_range_meters":25200,"station_id":"ce4bgph2rcd13ifvqc2g","pricing_plan_id":"cebpf4jnsgd1na2vs0mg"},{"bike_id":"3fb5681b-89f8-403c-ad09-fbfdce8353dd","system_id":"levelo_inurba_marseille","lat":43.29706,"lon":5.37708,"is_reserved":false,"is_disabled":false,"rental_uris":{"android":"levelo://app?vid=3fb5681b-89f8-403c-ad09-fbfdce8353dd","ios":"levelo://app?vid=3fb5681b-89f8-403c-ad09-fbfdce8353dd"},"vehicle_type_id":"4","last_reported":1731751730,"current_range_meters":35200,"station_id":"ce4bgkh2rcd13ifvqbl0","pricing_plan_id":"cebpf4jnsgd1na2vs0mg"},{"bike_id":"0c44cbb7-d5ce-467a-9d65-fdb0ac6d14cb","system_id":"levelo_inurba_marseille","lat":43.25939,"lon":5.40904,"is_reserved":false,"is_disabled":false,"rental_uris":{"android":"levelo://app?vid=0c44cbb7-d5ce-467a-9d65-fdb0ac6d14cb","ios":"levelo://app?vid=0c44cbb7-d5ce-467a-9d65-fdb0ac6d14cb"},"vehicle_type_id":"4","last_reported":1731751730,"current_range_meters":12400,"station_id":"ce4bhm92rcd13ifvqglg","pricing_plan_id":"cebpf4jnsgd1na2vs0mg"},{"bike_id":"3b677edf-45f5-444c-b758-f470521529a0","system_id":"levelo_inurba_marseille","lat":43.27492,"lon":5.42453,"is_reserved":false,"is_disabled":false,"rental_uris":{"android":"levelo://app?vid=3b677edf-45f5-444c-b758-f470521529a0","ios":"levelo://app?vid=3b677edf-45f5-444c-b758-f470521529a0"},"vehicle_type_id":"4","last_reported":1731751730,"current_range_meters":31200,"station_id":"ce4bhn92rcd13ifvqgrg","pricing_plan_id":"cebpf4jnsgd1na2vs0mg"},{"bike_id":"a4e8e96c-867e-4521-9861-087b3f6c78bd","system_id":"levelo_inurba_marseille","lat":43.25001,"lon":5.38922,"is_reserved":false,"is_disabled":false,"rental_uris":{"android":"levelo://app?vid=a4e8e96c-867e-4521-9861-087b3f6c78bd","ios":"levelo://app?vid=a4e8e96c-867e-4521-9861-087b3f6c78bd"},"vehicle_type_id":"4","last_reported":1731751730,"current_range_meters":38800,"station_id":"ce4bhgp2rcd13ifvqfd0","pricing_plan_id":"cebpf4jnsgd1na2vs0mg"},{"bike_id":"85c6faf1-caca-4be7-8bdf-3f18846bd5df","system_id":"levelo_inurba_marseille","lat":43.26804,"lon":5.40262,"is_reserved":false,"is_disabled":false,"rental_uris":{"android":"levelo://app?vid=85c6faf1-caca-4be7-8bdf-3f18846bd5df","ios":"levelo://app?vid=85c6faf1-caca-4be7-8bdf-3f18846bd5df"},"vehicle_type_id":"4","last_reported":1731751730,"current_range_meters":37600,"station_id":"ce501612rcd8frsf0b60","pricing_plan_id":"cebpf4jnsgd1na2vs0mg"},{"bike_id":"00224059-6161-44d6-9467-27ec20366cfd","system_id":"levelo_inurba_marseille","lat":43.31649,"lon":5.37818,"is_reserved":false,"is_disabled":false,"rental_uris":{"android":"levelo://app?vid=00224059-6161-44d6-9467-27ec20366cfd","ios":"levelo://app?vid=00224059-6161-44d6-9467-27ec20366cfd"},"vehicle_type_id":"4","last_reported":1731751730,"current_range_meters":6800,"station_id":"","pricing_plan_id":"cebpf4jnsgd1na2vs0mg"},{"bike_id":"b43bb81f-74dc-462a-9ad7-819560f801eb","system_id":"levelo_inurba_marseille","lat":43.25004,"lon":5.38927,"is_reserved":false,"is_disabled":false,"rental_uris":{"android":"levelo://app?vid=b43bb81f-74dc-462a-9ad7-819560f801eb","ios":"levelo://app?vid=b43bb81f-74dc-462a-9ad7-819560f801eb"},"vehicle_type_id":"4","last_reported":1731751730,"current_range_meters":3200,"station_id":"ce4bhgp2rcd13ifvqfd0","pricing_plan_id":"cebpf4jnsgd1na2vs0mg"},{"bike_id":"1a02213b-4b44-4c58-ba47-6c3fe1041efe","system_id":"levelo_inurba_marseille","lat":43.29219,"lon":5.36054,"is_reserved":false,"is_disabled":false,"rental_uris":{"android":"levelo://app?vid=1a02213b-4b44-4c58-ba47-6c3fe1041efe","ios":"levelo://app?vid=1a02213b-4b44-4c58-ba47-6c3fe1041efe"},"vehicle_type_id":"4","last_reported":1731751730,"current_range_meters":20800,"station_id":"ce4bhbh2rcd13ifvqeqg","pricing_plan_id":"cebpf4jnsgd1na2vs0mg"},{"bike_id":"54a36784-235f-4bff-a31b-8d83e35c7859","system_id":"levelo_inurba_marseille","lat":43.25587,"lon":5.38233,"is_reserved":false,"is_disabled":false,"rental_uris":{"android":"levelo://app?vid=54a36784-235f-4bff-a31b-8d83e35c7859","ios":"levelo://app?vid=54a36784-235f-4bff-a31b-8d83e35c7859"},"vehicle_type_id":"4","last_reported":1731751730,"current_range_meters":23200,"station_id":"ce4bhih2rcd13ifvqfs0","pricing_plan_id":"cebpf4jnsgd1na2vs0mg"},{"bike_id":"add988a2-bb45-4c2f-8430-8a3e282ea40e","system_id":"levelo_inurba_marseille","lat":43.27211,"lon":5.39187,"is_reserved":false,"is_disabled":false,"rental_uris":{"android":"levelo://app?vid=add988a2-bb45-4c2f-8430-8a3e282ea40e","ios":"levelo://app?vid=add988a2-bb45-4c2f-8430-8a3e282ea40e"},"vehicle_type_id":"4","last_reported":1731751730,"current_range_meters":39200,"station_id":"ce4bhhp2rcd13ifvqfm0","pricing_plan_id":"cebpf4jnsgd1na2vs0mg"},{"bike_id":"d7f79274-e640-43c4-b7dd-f4e3dad6011c","system_id":"levelo_inurba_marseille","lat":43.27991,"lon":5.41658,"is_reserved":false,"is_disabled":false,"rental_uris":{"android":"levelo://app?vid=d7f79274-e640-43c4-b7dd-f4e3dad6011c","ios":"levelo://app?vid=d7f79274-e640-43c4-b7dd-f4e3dad6011c"},"vehicle_type_id":"4","last_reported":1731751730,"current_range_meters":39200,"station_id":"ce4bho12rcd13ifvqh1g","pricing_plan_id":"cebpf4jnsgd1na2vs0mg"},{"bike_id":"f1e0f3dd-a15a-4f0c-a853-07b7313ac16b","system_id":"levelo_inurba_marseille","lat":43.31887,"lon":5.40743,"is_reserved":false,"is_disabled":false,"rental_uris":{"android":"levelo://app?vid=f1e0f3dd-a15a-4f0c-a853-07b7313ac16b","ios":"levelo://app?vid=f1e0f3dd-a15a-4f0c-a853-07b7313ac16b"},"vehicle_type_id":"4","last_reported":1731751730,"current_range_meters":33200,"station_id":"ce4bhq12rcd13ifvqhig","pricing_plan_id":"cebpf4jnsgd1na2vs0mg"},{"bike_id":"f095f873-3c25-4d64-9c8a-9d3a77d97165","system_id":"levelo_inurba_marseille","lat":43.24078,"lon":5.37749,"is_reserved":false,"is_disabled":false,"rental_uris":{"android":"levelo://app?vid=f095f873-3c25-4d64-9c8a-9d3a77d97165","ios":"levelo://app?vid=f095f873-3c25-4d64-9c8a-9d3a77d97165"},"vehicle_type_id":"4","last_reported":1731751730,"current_range_meters":25600,"station_id":"ce4bhnp2rcd13ifvqgvg","pricing_plan_id":"cebpf4jnsgd1na2vs0mg"},{"bike_id":"052465b0-873b-4d86-b508-197a5ec55540","system_id":"levelo_inurba_marseille","lat":43.25583,"lon":5.3824,"is_reserved":false,"is_disabled":false,"rental_uris":{"android":"levelo://app?vid=052465b0-873b-4d86-b508-197a5ec55540","ios":"levelo://app?vid=052465b0-873b-4d86-b508-197a5ec55540"},"vehicle_type_id":"4","last_reported":1731751730,"current_range_meters":24000,"station_id":"ce4bhih2rcd13ifvqfs0","pricing_plan_id":"cebpf4jnsgd1na2vs0mg"},{"bike_id":"733b8fbc-d1e7-4659-8527-d71807ce14b7","system_id":"levelo_inurba_marseille","lat":43.26932,"lon":5.40251,"is_reserved":false,"is_disabled":false,"rental_uris":{"android":"levelo://app?vid=733b8fbc-d1e7-4659-8527-d71807ce14b7","ios":"levelo://app?vid=733b8fbc-d1e7-4659-8527-d71807ce14b7"},"vehicle_type_id":"4","last_reported":1731751730,"current_range_meters":40000,"station_id":"cjm6bp8fraef2m0cb0m0","pricing_plan_id":"cebpf4jnsgd1na2vs0mg"},{"bike_id":"1c086fbe-dc38-4b58-8db7-36bfa0e081dc","system_id":"levelo_inurba_marseille","lat":43.298897,"lon":5.389049,"is_reserved":false,"is_disabled":false,"rental_uris":{"android":"levelo://app?vid=1c086fbe-dc38-4b58-8db7-36bfa0e081dc","ios":"levelo://app?vid=1c086fbe-dc38-4b58-8db7-36bfa0e081dc"},"vehicle_type_id":"4","last_reported":1731751730,"current_range_meters":36400,"station_id":"ce4bh392rcd13ifvqdl0","pricing_plan_id":"cebpf4jnsgd1na2vs0mg"},{"bike_id":"0822de53-10f1-4044-b858-548a2a7589b4","system_id":"levelo_inurba_marseille","lat":43.25825,"lon":5.39437,"is_reserved":false,"is_disabled":false,"rental_uris":{"android":"levelo://app?vid=0822de53-10f1-4044-b858-548a2a7589b4","ios":"levelo://app?vid=0822de53-10f1-4044-b858-548a2a7589b4"},"vehicle_type_id":"4","last_reported":1731751730,"current_range_meters":36800,"station_id":"ce4bhip2rcd13ifvqft0","pricing_plan_id":"cebpf4jnsgd1na2vs0mg"},{"bike_id":"a57fb143-973c-47ab-ad9f-272f194992ef","system_id":"levelo_inurba_marseille","lat":43.23153,"lon":5.43706,"is_reserved":false,"is_disabled":false,"rental_uris":{"android":"levelo://app?vid=a57fb143-973c-47ab-ad9f-272f194992ef","ios":"levelo://app?vid=a57fb143-973c-47ab-ad9f-272f194992ef"},"vehicle_type_id":"4","last_reported":1731751730,"current_range_meters":13600,"station_id":"ce4bhmp2rcd13ifvqgog","pricing_plan_id":"cebpf4jnsgd1na2vs0mg"},{"bike_id":"f1147a13-1a09-486c-be3b-5b4d79be5aaf","system_id":"levelo_inurba_marseille","lat":43.299072,"lon":5.37568,"is_reserved":false,"is_disabled":false,"rental_uris":{"android":"levelo://app?vid=f1147a13-1a09-486c-be3b-5b4d79be5aaf","ios":"levelo://app?vid=f1147a13-1a09-486c-be3b-5b4d79be5aaf"},"vehicle_type_id":"4","last_reported":1731751730,"current_range_meters":39200,"station_id":"ce4bgop2rcd13ifvqc1g","pricing_plan_id":"cebpf4jnsgd1na2vs0mg"},{"bike_id":"8eae60eb-22fa-4b86-b441-0c082a5e7daf","system_id":"levelo_inurba_marseille","lat":43.27316,"lon":5.39095,"is_reserved":false,"is_disabled":false,"rental_uris":{"android":"levelo://app?vid=8eae60eb-22fa-4b86-b441-0c082a5e7daf","ios":"levelo://app?vid=8eae60eb-22fa-4b86-b441-0c082a5e7daf"},"vehicle_type_id":"4","last_reported":1731751730,"current_range_meters":24000,"station_id":"ce4bhgp2rcd13ifvqfe0","pricing_plan_id":"cebpf4jnsgd1na2vs0mg"},{"bike_id":"67b74999-7562-40a9-80d6-0bf76d158375","system_id":"levelo_inurba_marseille","lat":43.25582,"lon":5.38232,"is_reserved":false,"is_disabled":false,"rental_uris":{"android":"levelo://app?vid=67b74999-7562-40a9-80d6-0bf76d158375","ios":"levelo://app?vid=67b74999-7562-40a9-80d6-0bf76d158375"},"vehicle_type_id":"4","last_reported":1731751730,"current_range_meters":30000,"station_id":"ce4bhih2rcd13ifvqfs0","pricing_plan_id":"cebpf4jnsgd1na2vs0mg"},{"bike_id":"f03c9f82-559a-401f-9fdb-4f4b8daa696c","system_id":"levelo_inurba_marseille","lat":43.30162,"lon":5.38086,"is_reserved":false,"is_disabled":false,"rental_uris":{"android":"levelo://app?vid=f03c9f82-559a-401f-9fdb-4f4b8daa696c","ios":"levelo://app?vid=f03c9f82-559a-401f-9fdb-4f4b8daa696c"},"vehicle_type_id":"4","last_reported":1731751730,"current_range_meters":35600,"station_id":"ce4bgjp2rcd13ifvqbh0","pricing_plan_id":"cebpf4jnsgd1na2vs0mg"},{"bike_id":"5a2211c6-1bd5-4b43-9804-7379a20aa3f3","system_id":"levelo_inurba_marseille","lat":43.30254,"lon":5.40058,"is_reserved":false,"is_disabled":false,"rental_uris":{"android":"levelo://app?vid=5a2211c6-1bd5-4b43-9804-7379a20aa3f3","ios":"levelo://app?vid=5a2211c6-1bd5-4b43-9804-7379a20aa3f3"},"vehicle_type_id":"4","last_reported":1731751730,"current_range_meters":33600,"station_id":"ce4bgvh2rcd13ifvqcs0","pricing_plan_id":"cebpf4jnsgd1na2vs0mg"},{"bike_id":"45156642-b4c8-42eb-82f7-126129e68141","system_id":"levelo_inurba_marseille","lat":43.25937,"lon":5.40905,"is_reserved":false,"is_disabled":false,"rental_uris":{"android":"levelo://app?vid=45156642-b4c8-42eb-82f7-126129e68141","ios":"levelo://app?vid=45156642-b4c8-42eb-82f7-126129e68141"},"vehicle_type_id":"4","last_reported":1731751730,"current_range_meters":24800,"station_id":"ce4bhm92rcd13ifvqglg","pricing_plan_id":"cebpf4jnsgd1na2vs0mg"},{"bike_id":"e4a5f773-f25f-4e1a-ad91-5d54dd653bfa","system_id":"levelo_inurba_marseille","lat":43.33024,"lon":5.39039,"is_reserved":false,"is_disabled":false,"rental_uris":{"android":"levelo://app?vid=e4a5f773-f25f-4e1a-ad91-5d54dd653bfa","ios":"levelo://app?vid=e4a5f773-f25f-4e1a-ad91-5d54dd653bfa"},"vehicle_type_id":"4","last_reported":1731751730,"current_range_meters":9200,"station_id":"ce4bhr92rcd13ifvqhrg","pricing_plan_id":"cebpf4jnsgd1na2vs0mg"},{"bike_id":"ca655f3b-8380-4045-b3f8-8acaa0e83ede","system_id":"levelo_inurba_marseille","lat":43.33739,"lon":5.37423,"is_reserved":false,"is_disabled":false,"rental_uris":{"android":"levelo://app?vid=ca655f3b-8380-4045-b3f8-8acaa0e83ede","ios":"levelo://app?vid=ca655f3b-8380-4045-b3f8-8acaa0e83ede"},"vehicle_type_id":"4","last_reported":1731751730,"current_range_meters":35600,"station_id":"","pricing_plan_id":"cebpf4jnsgd1na2vs0mg"},{"bike_id":"2e298671-80fc-4060-bd3b-6941ddfa052f","system_id":"levelo_inurba_marseille","lat":43.32477,"lon":5.36571,"is_reserved":false,"is_disabled":false,"rental_uris":{"android":"levelo://app?vid=2e298671-80fc-4060-bd3b-6941ddfa052f","ios":"levelo://app?vid=2e298671-80fc-4060-bd3b-6941ddfa052f"},"vehicle_type_id":"4","last_reported":1731751730,"current_range_meters":39200,"station_id":"ce4bhs12rcd13ifvqhvg","pricing_plan_id":"cebpf4jnsgd1na2vs0mg"},{"bike_id":"a6b8c285-acc9-4039-9531-1aae39136a33","system_id":"levelo_inurba_marseille","lat":43.312042,"lon":5.367348,"is_reserved":false,"is_disabled":false,"rental_uris":{"android":"levelo://app?vid=a6b8c285-acc9-4039-9531-1aae39136a33","ios":"levelo://app?vid=a6b8c285-acc9-4039-9531-1aae39136a33"},"vehicle_type_id":"4","last_reported":1731751730,"current_range_meters":15200,"station_id":"","pricing_plan_id":"cebpf4jnsgd1na2vs0mg"},{"bike_id":"7533f0c2-14f7-425a-b3ed-0abe750ceb15","system_id":"levelo_inurba_marseille","lat":43.255814,"lon":5.382358,"is_reserved":false,"is_disabled":false,"rental_uris":{"android":"levelo://app?vid=7533f0c2-14f7-425a-b3ed-0abe750ceb15","ios":"levelo://app?vid=7533f0c2-14f7-425a-b3ed-0abe750ceb15"},"vehicle_type_id":"4","last_reported":1731751730,"current_range_meters":39200,"station_id":"ce4bhih2rcd13ifvqfs0","pricing_plan_id":"cebpf4jnsgd1na2vs0mg"},{"bike_id":"5c254126-8805-4ed8-9520-9f63561143b3","system_id":"levelo_inurba_marseille","lat":43.24166,"lon":5.364,"is_reserved":false,"is_disabled":false,"rental_uris":{"android":"levelo://app?vid=5c254126-8805-4ed8-9520-9f63561143b3","ios":"levelo://app?vid=5c254126-8805-4ed8-9520-9f63561143b3"},"vehicle_type_id":"4","last_reported":1731751730,"current_range_meters":22000,"station_id":"cpo36qri1sfpv3e86is0","pricing_plan_id":"cebpf4jnsgd1na2vs0mg"},{"bike_id":"95189523-b163-438d-9cb1-f7dc4435500d","system_id":"levelo_inurba_marseille","lat":43.32332,"lon":5.4062,"is_reserved":false,"is_disabled":false,"rental_uris":{"android":"levelo://app?vid=95189523-b163-438d-9cb1-f7dc4435500d","ios":"levelo://app?vid=95189523-b163-438d-9cb1-f7dc4435500d"},"vehicle_type_id":"4","last_reported":1731751730,"current_range_meters":38800,"station_id":"ce4bhq92rcd13ifvqhjg","pricing_plan_id":"cebpf4jnsgd1na2vs0mg"},{"bike_id":"32fb8fcd-9b6e-4d51-81aa-23512ba1ae91","system_id":"levelo_inurba_marseille","lat":43.27176,"lon":5.40993,"is_reserved":false,"is_disabled":false,"rental_uris":{"android":"levelo://app?vid=32fb8fcd-9b6e-4d51-81aa-23512ba1ae91","ios":"levelo://app?vid=32fb8fcd-9b6e-4d51-81aa-23512ba1ae91"},"vehicle_type_id":"4","last_reported":1731751730,"current_range_meters":35600,"station_id":"ce4bhl12rcd13ifvqgf0","pricing_plan_id":"cebpf4jnsgd1na2vs0mg"},{"bike_id":"50ae3ec0-9f46-43fd-819a-4c7a80c3cf46","system_id":"levelo_inurba_marseille","lat":43.28857,"lon":5.35836,"is_reserved":false,"is_disabled":false,"rental_uris":{"android":"levelo://app?vid=50ae3ec0-9f46-43fd-819a-4c7a80c3cf46","ios":"levelo://app?vid=50ae3ec0-9f46-43fd-819a-4c7a80c3cf46"},"vehicle_type_id":"4","last_reported":1731751730,"current_range_meters":36000,"station_id":"ce4bhb12rcd13ifvqem0","pricing_plan_id":"cebpf4jnsgd1na2vs0mg"},{"bike_id":"216915e9-2b40-4929-94ff-e202f546ff7c","system_id":"levelo_inurba_marseille","lat":43.27992,"lon":5.41663,"is_reserved":false,"is_disabled":false,"rental_uris":{"android":"levelo://app?vid=216915e9-2b40-4929-94ff-e202f546ff7c","ios":"levelo://app?vid=216915e9-2b40-4929-94ff-e202f546ff7c"},"vehicle_type_id":"4","last_reported":1731751730,"current_range_meters":39200,"station_id":"ce4bho12rcd13ifvqh1g","pricing_plan_id":"cebpf4jnsgd1na2vs0mg"},{"bike_id":"6ef266d1-92eb-440d-9bcd-6ee947c0d029","system_id":"levelo_inurba_marseille","lat":43.27497,"lon":5.42447,"is_reserved":false,"is_disabled":false,"rental_uris":{"android":"levelo://app?vid=6ef266d1-92eb-440d-9bcd-6ee947c0d029","ios":"levelo://app?vid=6ef266d1-92eb-440d-9bcd-6ee947c0d029"},"vehicle_type_id":"4","last_reported":1731751730,"current_range_meters":39200,"station_id":"ce4bhn92rcd13ifvqgrg","pricing_plan_id":"cebpf4jnsgd1na2vs0mg"},{"bike_id":"a338278c-4191-40c1-9138-7ea50e2001a7","system_id":"levelo_inurba_marseille","lat":43.25719,"lon":5.41113,"is_reserved":false,"is_disabled":false,"rental_uris":{"android":"levelo://app?vid=a338278c-4191-40c1-9138-7ea50e2001a7","ios":"levelo://app?vid=a338278c-4191-40c1-9138-7ea50e2001a7"},"vehicle_type_id":"4","last_reported":1731751730,"current_range_meters":8400,"station_id":"ce4bhkp2rcd13ifvqgd0","pricing_plan_id":"cebpf4jnsgd1na2vs0mg"},{"bike_id":"1ae8fe75-00ad-479b-a755-74d45d76bfbe","system_id":"levelo_inurba_marseille","lat":43.2417,"lon":5.36402,"is_reserved":false,"is_disabled":false,"rental_uris":{"android":"levelo://app?vid=1ae8fe75-00ad-479b-a755-74d45d76bfbe","ios":"levelo://app?vid=1ae8fe75-00ad-479b-a755-74d45d76bfbe"},"vehicle_type_id":"4","last_reported":1731751730,"current_range_meters":6800,"station_id":"cpo36qri1sfpv3e86is0","pricing_plan_id":"cebpf4jnsgd1na2vs0mg"},{"bike_id":"783c1d73-5436-4f18-9c31-5ed5366668e6","system_id":"levelo_inurba_marseille","lat":43.23067,"lon":5.35486,"is_reserved":false,"is_disabled":false,"rental_uris":{"android":"levelo://app?vid=783c1d73-5436-4f18-9c31-5ed5366668e6","ios":"levelo://app?vid=783c1d73-5436-4f18-9c31-5ed5366668e6"},"vehicle_type_id":"4","last_reported":1731751730,"current_range_meters":9200,"station_id":"cpo3342slgdg3j2ifvpg","pricing_plan_id":"cebpf4jnsgd1na2vs0mg"},{"bike_id":"5aab0dbe-d2fd-4d0c-b42d-a61915bff56f","system_id":"levelo_inurba_marseille","lat":43.31713,"lon":5.43705,"is_reserved":false,"is_disabled":false,"rental_uris":{"android":"levelo://app?vid=5aab0dbe-d2fd-4d0c-b42d-a61915bff56f","ios":"levelo://app?vid=5aab0dbe-d2fd-4d0c-b42d-a61915bff56f"},"vehicle_type_id":"4","last_reported":1731751730,"current_range_meters":28400,"station_id":"ce4bhp92rcd13ifvqhcg","pricing_plan_id":"cebpf4jnsgd1na2vs0mg"},{"bike_id":"92ac4858-87d6-4ceb-8f6e-004635a816a8","system_id":"levelo_inurba_marseille","lat":43.27792,"lon":5.40724,"is_reserved":false,"is_disabled":false,"rental_uris":{"android":"levelo://app?vid=92ac4858-87d6-4ceb-8f6e-004635a816a8","ios":"levelo://app?vid=92ac4858-87d6-4ceb-8f6e-004635a816a8"},"vehicle_type_id":"4","last_reported":1731751730,"current_range_meters":32400,"station_id":"ce4bhnh2rcd13ifvqgtg","pricing_plan_id":"cebpf4jnsgd1na2vs0mg"},{"bike_id":"000e2b4a-0995-45d7-8425-4bdd9604fc99","system_id":"levelo_inurba_marseille","lat":43.29973,"lon":5.3718,"is_reserved":false,"is_disabled":false,"rental_uris":{"android":"levelo://app?vid=000e2b4a-0995-45d7-8425-4bdd9604fc99","ios":"levelo://app?vid=000e2b4a-0995-45d7-8425-4bdd9604fc99"},"vehicle_type_id":"4","last_reported":1731751730,"current_range_meters":30000,"station_id":"ce4bgr92rcd13ifvqc7g","pricing_plan_id":"cebpf4jnsgd1na2vs0mg"},{"bike_id":"4f072872-5e38-4a4b-9811-1d9e60a837c4","system_id":"levelo_inurba_marseille","lat":43.230991,"lon":5.354776,"is_reserved":false,"is_disabled":false,"rental_uris":{"android":"levelo://app?vid=4f072872-5e38-4a4b-9811-1d9e60a837c4","ios":"levelo://app?vid=4f072872-5e38-4a4b-9811-1d9e60a837c4"},"vehicle_type_id":"4","last_reported":1731751730,"current_range_meters":12000,"station_id":"","pricing_plan_id":"cebpf4jnsgd1na2vs0mg"},{"bike_id":"347c7842-b74d-475c-9f43-0b98799e9df1","system_id":"levelo_inurba_marseille","lat":43.32342,"lon":5.4062,"is_reserved":false,"is_disabled":false,"rental_uris":{"android":"levelo://app?vid=347c7842-b74d-475c-9f43-0b98799e9df1","ios":"levelo://app?vid=347c7842-b74d-475c-9f43-0b98799e9df1"},"vehicle_type_id":"4","last_reported":1731751730,"current_range_meters":38000,"station_id":"ce4bhq92rcd13ifvqhjg","pricing_plan_id":"cebpf4jnsgd1na2vs0mg"},{"bike_id":"9e5221bc-6ba3-4f80-a78a-00e1f24bd999","system_id":"levelo_inurba_marseille","lat":43.29975,"lon":5.37175,"is_reserved":false,"is_disabled":false,"rental_uris":{"android":"levelo://app?vid=9e5221bc-6ba3-4f80-a78a-00e1f24bd999","ios":"levelo://app?vid=9e5221bc-6ba3-4f80-a78a-00e1f24bd999"},"vehicle_type_id":"4","last_reported":1731751730,"current_range_meters":39200,"station_id":"ce4bgr92rcd13ifvqc7g","pricing_plan_id":"cebpf4jnsgd1na2vs0mg"},{"bike_id":"4f9bbc6b-a988-43f8-bc00-4d944c1473b5","system_id":"levelo_inurba_marseille","lat":43.29925,"lon":5.36386,"is_reserved":false,"is_disabled":false,"rental_uris":{"android":"levelo://app?vid=4f9bbc6b-a988-43f8-bc00-4d944c1473b5","ios":"levelo://app?vid=4f9bbc6b-a988-43f8-bc00-4d944c1473b5"},"vehicle_type_id":"4","last_reported":1731751730,"current_range_meters":27200,"station_id":"","pricing_plan_id":"cebpf4jnsgd1na2vs0mg"},{"bike_id":"24a0af93-0b5a-4226-88bf-51fadb17a53e","system_id":"levelo_inurba_marseille","lat":43.24388,"lon":5.37058,"is_reserved":false,"is_disabled":false,"rental_uris":{"android":"levelo://app?vid=24a0af93-0b5a-4226-88bf-51fadb17a53e","ios":"levelo://app?vid=24a0af93-0b5a-4226-88bf-51fadb17a53e"},"vehicle_type_id":"4","last_reported":1731751730,"current_range_meters":18000,"station_id":"ce4bhhh2rcd13ifvqfk0","pricing_plan_id":"cebpf4jnsgd1na2vs0mg"},{"bike_id":"e79c1d71-1ce6-4d60-8fff-1fc1acef8ee4","system_id":"levelo_inurba_marseille","lat":43.23956,"lon":5.36629,"is_reserved":false,"is_disabled":false,"rental_uris":{"android":"levelo://app?vid=e79c1d71-1ce6-4d60-8fff-1fc1acef8ee4","ios":"levelo://app?vid=e79c1d71-1ce6-4d60-8fff-1fc1acef8ee4"},"vehicle_type_id":"4","last_reported":1731751730,"current_range_meters":25200,"station_id":"ce4bhi12rcd13ifvqfp0","pricing_plan_id":"cebpf4jnsgd1na2vs0mg"},{"bike_id":"fb97bb0c-c75a-41b8-9fcb-fd43145f0977","system_id":"levelo_inurba_marseille","lat":43.29374,"lon":5.37853,"is_reserved":false,"is_disabled":false,"rental_uris":{"android":"levelo://app?vid=fb97bb0c-c75a-41b8-9fcb-fd43145f0977","ios":"levelo://app?vid=fb97bb0c-c75a-41b8-9fcb-fd43145f0977"},"vehicle_type_id":"4","last_reported":1731751730,"current_range_meters":38800,"station_id":"ce4bgjh2rcd13ifvqbf0","pricing_plan_id":"cebpf4jnsgd1na2vs0mg"},{"bike_id":"a84f5389-258d-4508-9c0f-32ee5d326b43","system_id":"levelo_inurba_marseille","lat":43.337444,"lon":5.374475,"is_reserved":false,"is_disabled":false,"rental_uris":{"android":"levelo://app?vid=a84f5389-258d-4508-9c0f-32ee5d326b43","ios":"levelo://app?vid=a84f5389-258d-4508-9c0f-32ee5d326b43"},"vehicle_type_id":"4","last_reported":1731751730,"current_range_meters":34800,"station_id":"","pricing_plan_id":"cebpf4jnsgd1na2vs0mg"},{"bike_id":"bdda4347-118f-4304-b506-09b4b5e15b39","system_id":"levelo_inurba_marseille","lat":43.33726,"lon":5.3918,"is_reserved":false,"is_disabled":false,"rental_uris":{"android":"levelo://app?vid=bdda4347-118f-4304-b506-09b4b5e15b39","ios":"levelo://app?vid=bdda4347-118f-4304-b506-09b4b5e15b39"},"vehicle_type_id":"4","last_reported":1731751730,"current_range_meters":12800,"station_id":"ce4bhr92rcd13ifvqhsg","pricing_plan_id":"cebpf4jnsgd1na2vs0mg"},{"bike_id":"528354ee-6034-444a-a50e-96791b22335c","system_id":"levelo_inurba_marseille","lat":43.26568,"lon":5.39012,"is_reserved":false,"is_disabled":false,"rental_uris":{"android":"levelo://app?vid=528354ee-6034-444a-a50e-96791b22335c","ios":"levelo://app?vid=528354ee-6034-444a-a50e-96791b22335c"},"vehicle_type_id":"4","last_reported":1731751730,"current_range_meters":18000,"station_id":"ce4bhe12rcd13ifvqf30","pricing_plan_id":"cebpf4jnsgd1na2vs0mg"},{"bike_id":"24420a27-91b5-4a69-bca6-e715ce78c1dc","system_id":"levelo_inurba_marseille","lat":43.2467,"lon":5.38159,"is_reserved":false,"is_disabled":false,"rental_uris":{"android":"levelo://app?vid=24420a27-91b5-4a69-bca6-e715ce78c1dc","ios":"levelo://app?vid=24420a27-91b5-4a69-bca6-e715ce78c1dc"},"vehicle_type_id":"4","last_reported":1731751730,"current_range_meters":28000,"station_id":"ce4bhih2rcd13ifvqfr0","pricing_plan_id":"cebpf4jnsgd1na2vs0mg"},{"bike_id":"7bf18ed8-aa6e-412e-b253-1b6d6a062ccb","system_id":"levelo_inurba_marseille","lat":43.30286,"lon":5.37709,"is_reserved":false,"is_disabled":false,"rental_uris":{"android":"levelo://app?vid=7bf18ed8-aa6e-412e-b253-1b6d6a062ccb","ios":"levelo://app?vid=7bf18ed8-aa6e-412e-b253-1b6d6a062ccb"},"vehicle_type_id":"4","last_reported":1731751730,"current_range_meters":20400,"station_id":"ce4bguh2rcd13ifvqcj0","pricing_plan_id":"cebpf4jnsgd1na2vs0mg"},{"bike_id":"eed0b17b-8ed0-4eb1-a580-b2834aeae7d4","system_id":"levelo_inurba_marseille","lat":43.26214,"lon":5.3744,"is_reserved":false,"is_disabled":false,"rental_uris":{"android":"levelo://app?vid=eed0b17b-8ed0-4eb1-a580-b2834aeae7d4","ios":"levelo://app?vid=eed0b17b-8ed0-4eb1-a580-b2834aeae7d4"},"vehicle_type_id":"4","last_reported":1731751730,"current_range_meters":18800,"station_id":"ce4bhgp2rcd13ifvqfc0","pricing_plan_id":"cebpf4jnsgd1na2vs0mg"},{"bike_id":"b5ce9235-4ffb-4d40-a9ab-7ab7ce5a79f6","system_id":"levelo_inurba_marseille","lat":43.24808,"lon":5.37455,"is_reserved":false,"is_disabled":false,"rental_uris":{"android":"levelo://app?vid=b5ce9235-4ffb-4d40-a9ab-7ab7ce5a79f6","ios":"levelo://app?vid=b5ce9235-4ffb-4d40-a9ab-7ab7ce5a79f6"},"vehicle_type_id":"4","last_reported":1731751730,"current_range_meters":38800,"station_id":"ce4bhgh2rcd13ifvqfb0","pricing_plan_id":"cebpf4jnsgd1na2vs0mg"},{"bike_id":"1905e423-9623-404a-bf2e-53fad8283f76","system_id":"levelo_inurba_marseille","lat":43.28421,"lon":5.34994,"is_reserved":false,"is_disabled":false,"rental_uris":{"android":"levelo://app?vid=1905e423-9623-404a-bf2e-53fad8283f76","ios":"levelo://app?vid=1905e423-9623-404a-bf2e-53fad8283f76"},"vehicle_type_id":"4","last_reported":1731751730,"current_range_meters":8000,"station_id":"ce4bhbh2rcd13ifvqepg","pricing_plan_id":"cebpf4jnsgd1na2vs0mg"},{"bike_id":"38a53e65-9116-435b-85fe-7d68419f9d50","system_id":"levelo_inurba_marseille","lat":43.30146,"lon":5.38079,"is_reserved":false,"is_disabled":false,"rental_uris":{"android":"levelo://app?vid=38a53e65-9116-435b-85fe-7d68419f9d50","ios":"levelo://app?vid=38a53e65-9116-435b-85fe-7d68419f9d50"},"vehicle_type_id":"4","last_reported":1731751730,"current_range_meters":36400,"station_id":"ce4bgjp2rcd13ifvqbh0","pricing_plan_id":"cebpf4jnsgd1na2vs0mg"},{"bike_id":"650f63fe-9f16-47b2-8d39-c6d77dfc254f","system_id":"levelo_inurba_marseille","lat":43.29175,"lon":5.37142,"is_reserved":false,"is_disabled":false,"rental_uris":{"android":"levelo://app?vid=650f63fe-9f16-47b2-8d39-c6d77dfc254f","ios":"levelo://app?vid=650f63fe-9f16-47b2-8d39-c6d77dfc254f"},"vehicle_type_id":"4","last_reported":1731751730,"current_range_meters":22800,"station_id":"ce4bha92rcd13ifvqeh0","pricing_plan_id":"cebpf4jnsgd1na2vs0mg"},{"bike_id":"829322f6-25e4-45ae-8238-9af2fac29bab","system_id":"levelo_inurba_marseille","lat":43.30944,"lon":5.39025,"is_reserved":false,"is_disabled":false,"rental_uris":{"android":"levelo://app?vid=829322f6-25e4-45ae-8238-9af2fac29bab","ios":"levelo://app?vid=829322f6-25e4-45ae-8238-9af2fac29bab"},"vehicle_type_id":"4","last_reported":1731751730,"current_range_meters":28000,"station_id":"ce4bgup2rcd13ifvqco0","pricing_plan_id":"cebpf4jnsgd1na2vs0mg"},{"bike_id":"fa348bd0-549f-4b58-8f7c-171e7c39d6f6","system_id":"levelo_inurba_marseille","lat":43.32037,"lon":5.4157,"is_reserved":false,"is_disabled":false,"rental_uris":{"android":"levelo://app?vid=fa348bd0-549f-4b58-8f7c-171e7c39d6f6","ios":"levelo://app?vid=fa348bd0-549f-4b58-8f7c-171e7c39d6f6"},"vehicle_type_id":"4","last_reported":1731751730,"current_range_meters":24800,"station_id":"ce4bhq92rcd13ifvqhkg","pricing_plan_id":"cebpf4jnsgd1na2vs0mg"},{"bike_id":"6d6992bf-ade3-4a22-a168-306dafdc4544","system_id":"levelo_inurba_marseille","lat":43.24172,"lon":5.36393,"is_reserved":false,"is_disabled":false,"rental_uris":{"android":"levelo://app?vid=6d6992bf-ade3-4a22-a168-306dafdc4544","ios":"levelo://app?vid=6d6992bf-ade3-4a22-a168-306dafdc4544"},"vehicle_type_id":"4","last_reported":1731751730,"current_range_meters":34800,"station_id":"cpo36qri1sfpv3e86is0","pricing_plan_id":"cebpf4jnsgd1na2vs0mg"},{"bike_id":"074c6971-4ae7-4906-8673-1607af29a7e1","system_id":"levelo_inurba_marseille","lat":43.25086,"lon":5.39507,"is_reserved":false,"is_disabled":false,"rental_uris":{"android":"levelo://app?vid=074c6971-4ae7-4906-8673-1607af29a7e1","ios":"levelo://app?vid=074c6971-4ae7-4906-8673-1607af29a7e1"},"vehicle_type_id":"4","last_reported":1731751730,"current_range_meters":33600,"station_id":"ce4bhm12rcd13ifvqgkg","pricing_plan_id":"cebpf4jnsgd1na2vs0mg"},{"bike_id":"82569cad-8166-47dc-82e2-c419602cc041","system_id":"levelo_inurba_marseille","lat":43.30553,"lon":5.36559,"is_reserved":false,"is_disabled":false,"rental_uris":{"android":"levelo://app?vid=82569cad-8166-47dc-82e2-c419602cc041","ios":"levelo://app?vid=82569cad-8166-47dc-82e2-c419602cc041"},"vehicle_type_id":"4","last_reported":1731751730,"current_range_meters":38000,"station_id":"ce4bgs12rcd13ifvqcag","pricing_plan_id":"cebpf4jnsgd1na2vs0mg"},{"bike_id":"8d1ab995-5455-49bb-b66d-4e775bac8251","system_id":"levelo_inurba_marseille","lat":43.3188,"lon":5.40731,"is_reserved":false,"is_disabled":false,"rental_uris":{"android":"levelo://app?vid=8d1ab995-5455-49bb-b66d-4e775bac8251","ios":"levelo://app?vid=8d1ab995-5455-49bb-b66d-4e775bac8251"},"vehicle_type_id":"4","last_reported":1731751730,"current_range_meters":39200,"station_id":"ce4bhq12rcd13ifvqhig","pricing_plan_id":"cebpf4jnsgd1na2vs0mg"},{"bike_id":"fd108b9d-dd59-4891-a78a-5898f6e6e763","system_id":"levelo_inurba_marseille","lat":43.33019,"lon":5.39034,"is_reserved":false,"is_disabled":false,"rental_uris":{"android":"levelo://app?vid=fd108b9d-dd59-4891-a78a-5898f6e6e763","ios":"levelo://app?vid=fd108b9d-dd59-4891-a78a-5898f6e6e763"},"vehicle_type_id":"4","last_reported":1731751730,"current_range_meters":37600,"station_id":"ce4bhr92rcd13ifvqhrg","pricing_plan_id":"cebpf4jnsgd1na2vs0mg"},{"bike_id":"dcbb9f17-9526-4f67-b653-d0f57ce48cdc","system_id":"levelo_inurba_marseille","lat":43.28929,"lon":5.38397,"is_reserved":false,"is_disabled":false,"rental_uris":{"android":"levelo://app?vid=dcbb9f17-9526-4f67-b653-d0f57ce48cdc","ios":"levelo://app?vid=dcbb9f17-9526-4f67-b653-d0f57ce48cdc"},"vehicle_type_id":"4","last_reported":1731751730,"current_range_meters":27600,"station_id":"ce4bh612rcd13ifvqe6g","pricing_plan_id":"cebpf4jnsgd1na2vs0mg"},{"bike_id":"2dc1bd73-ffe0-46aa-b1df-a5ede7709508","system_id":"levelo_inurba_marseille","lat":43.23185,"lon":5.39983,"is_reserved":false,"is_disabled":false,"rental_uris":{"android":"levelo://app?vid=2dc1bd73-ffe0-46aa-b1df-a5ede7709508","ios":"levelo://app?vid=2dc1bd73-ffe0-46aa-b1df-a5ede7709508"},"vehicle_type_id":"4","last_reported":1731751730,"current_range_meters":14000,"station_id":"ce4bhn12rcd13ifvqgqg","pricing_plan_id":"cebpf4jnsgd1na2vs0mg"},{"bike_id":"b136697d-3b7b-4acf-8fb6-bed31b8e7d1f","system_id":"levelo_inurba_marseille","lat":43.28361,"lon":5.38637,"is_reserved":false,"is_disabled":false,"rental_uris":{"android":"levelo://app?vid=b136697d-3b7b-4acf-8fb6-bed31b8e7d1f","ios":"levelo://app?vid=b136697d-3b7b-4acf-8fb6-bed31b8e7d1f"},"vehicle_type_id":"4","last_reported":1731751730,"current_range_meters":30000,"station_id":"ce4bh492rcd13ifvqdvg","pricing_plan_id":"cebpf4jnsgd1na2vs0mg"},{"bike_id":"70e089d0-d0b0-4a36-ba28-4f51863a6eb9","system_id":"levelo_inurba_marseille","lat":43.29361,"lon":5.372322,"is_reserved":false,"is_disabled":false,"rental_uris":{"android":"levelo://app?vid=70e089d0-d0b0-4a36-ba28-4f51863a6eb9","ios":"levelo://app?vid=70e089d0-d0b0-4a36-ba28-4f51863a6eb9"},"vehicle_type_id":"4","last_reported":1731751730,"current_range_meters":32000,"station_id":"ce4bhu92rcd13ifvqi70","pricing_plan_id":"cebpf4jnsgd1na2vs0mg"},{"bike_id":"4ee4605c-22f2-4532-b44d-f5fb03fd5142","system_id":"levelo_inurba_marseille","lat":43.30797,"lon":5.43519,"is_reserved":false,"is_disabled":false,"rental_uris":{"android":"levelo://app?vid=4ee4605c-22f2-4532-b44d-f5fb03fd5142","ios":"levelo://app?vid=4ee4605c-22f2-4532-b44d-f5fb03fd5142"},"vehicle_type_id":"4","last_reported":1731751730,"current_range_meters":16400,"station_id":"ce4bhph2rcd13ifvqheg","pricing_plan_id":"cebpf4jnsgd1na2vs0mg"},