{"last_updated":1733487518,"ttl":60,"version":"2.2","data":{"bikes":[{"bike_id":"34068c0a-2b29-4065-9d1d-e7e93af974fa","system_id":"levelo_inurba_marseille","lat":43.2318,"lon":5.39992,"is_reserved":false,"is_disabled":false,"rental_uris":{"android":"levelo://app?vid=34068c0a-2b29-4065-9d1d-e7e93af974fa","ios":"levelo://app?vid=34068c0a-2b29-4065-9d1d-e7e93af974fa"},"vehicle_type_id":"4","last_reported":1733487518,"current_range_meters":13600,"station_id":"ce4bhn12rcd13ifvqgqg","pricing_plan_id":"cebpf4jnsgd1na2vs0mg"},{"bike_id":"5566b1e4-e72a-4189-8e1b-a6c3faeca7b6","system_id":"levelo_inurba_marseille","lat":43.29218,"lon":5.35791,"is_reserved":false,"is_disabled":true,"rental_uris":{"android":"levelo://app?vid=5566b1e4-e72a-4189-8e1b-a6c3faeca7b6","ios":"levelo://app?vid=5566b1e4-e72a-4189-8e1b-a6c3faeca7b6"},"vehicle_type_id":"4","last_reported":1733487518,"current_range_meters":0,"station_id":"ce4bhb12rcd13ifvqel0","pricing_plan_id":"cebpf4jnsgd1na2vs0mg"},{"bike_id":"2bf7e536-6d78-4070-8fad-3bca0083ee23","system_id":"levelo_inurba_marseille","lat":43.29535,"lon":5.37495,"is_reserved":false,"is_disabled":false,"rental_uris":{"android":"levelo://app?vid=2bf7e536-6d78-4070-8fad-3bca0083ee23","ios":"levelo://app?vid=2bf7e536-6d78-4070-8fad-3bca0083ee23"},"vehicle_type_id":"4","last_reported":1733487518,"current_range_meters":9600,"station_id":"ce4bgkp2rcd13ifvqbmg","pricing_plan_id":"cebpf4jnsgd1na2vs0mg"},{"bike_id":"df479c2c-35ac-44ad-b9d6-81c89ed769ce","system_id":"levelo_inurba_marseille","lat":43.29699,"lon":5.37054,"is_reserved":false,"is_disabled":true,"rental_uris":{"android":"levelo://app?vid=df479c2c-35ac-44ad-b9d6-81c89ed769ce","ios":"levelo://app?vid=df479c2c-35ac-44ad-b9d6-81c89ed769ce"},"vehicle_type_id":"4","last_reported":1733487518,"current_range_meters":0,"station_id":"","pricing_plan_id":"cebpf4jnsgd1na2vs0mg"},{"bike_id":"8e029eaf-e104-4c5d-858d-6cd39de73d09","system_id":"levelo_inurba_marseille","lat":43.24159,"lon":5.3644,"is_reserved":false,"is_disabled":false,"rental_uris":{"android":"levelo://app?vid=8e029eaf-e104-4c5d-858d-6cd39de73d09","ios":"levelo://app?vid=8e029eaf-e104-4c5d-858d-6cd39de73d09"},"vehicle_type_id":"4","last_reported":1733487518,"current_range_meters":36400,"station_id":"cpo36qri1sfpv3e86is0","pricing_plan_id":"cebpf4jnsgd1na2vs0mg"},{"bike_id":"d04a747e-8453-4560-9b6e-d14f748d644b","system_id":"levelo_inurba_marseille","lat":43.30277,"lon":5.37697,"is_reserved":false,"is_disabled":false,"rental_uris":{"android":"levelo://app?vid=d04a747e-8453-4560-9b6e-d14f748d644b","ios":"levelo://app?vid=d04a747e-8453-4560-9b6e-d14f748d644b"},"vehicle_type_id":"4","last_reported":1733487518,"current_range_meters":28800,"station_id":"ce4bguh2rcd13ifvqcj0","pricing_plan_id":"cebpf4jnsgd1na2vs0mg"},{"bike_id":"d9e1fba4-bfb1-4b03-9209-d8ac627e783b","system_id":"levelo_inurba_marseille","lat":43.30192,"lon":5.3662,"is_reserved":false,"is_disabled":false,"rental_uris":{"android":"levelo://app?vid=d9e1fba4-bfb1-4b03-9209-d8ac627e783b","ios":"levelo://app?vid=d9e1fba4-bfb1-4b03-9209-d8ac627e783b"},"vehicle_type_id":"4","last_reported":1733487518,"current_range_meters":38800,"station_id":"ce4bgrh2rcd13ifvqc8g","pricing_plan_id":"cebpf4jnsgd1na2vs0mg"},{"bike_id":"be407bbe-d1ce-48de-8db2-09114af9efd7","system_id":"levelo_inurba_marseille","lat":43.32362,"lon":5.36762,"is_reserved":false,"is_disabled":false,"rental_uris":{"android":"levelo://app?vid=be407bbe-d1ce-48de-8db2-09114af9efd7","ios":"levelo://app?vid=be407bbe-d1ce-48de-8db2-09114af9efd7"},"vehicle_type_id":"4","last_reported":1733487518,"current_range_meters":24800,"station_id":"ce4bhsh2rcd13ifvqi2g","pricing_plan_id":"cebpf4jnsgd1na2vs0mg"},{"bike_id":"a8965da3-3135-404d-a457-e88102927913","system_id":"levelo_inurba_marseille","lat":43.27818,"lon":5.40704,"is_reserved":false,"is_disabled":false,"rental_uris":{"android":"levelo://app?vid=a8965da3-3135-404d-a457-e88102927913","ios":"levelo://app?vid=a8965da3-3135-404d-a457-e88102927913"},"vehicle_type_id":"4","last_reported":1733487518,"current_range_meters":28800,"station_id":"ce4bhnh2rcd13ifvqgtg","pricing_plan_id":"cebpf4jnsgd1na2vs0mg"},{"bike_id":"42dd3a08-3ce8-453a-9e94-fb7b0fd02f07","system_id":"levelo_inurba_marseille","lat":43.27179,"lon":5.40988,"is_reserved":false,"is_disabled":false,"rental_uris":{"android":"levelo://app?vid=42dd3a08-3ce8-453a-9e94-fb7b0fd02f07","ios":"levelo://app?vid=42dd3a08-3ce8-453a-9e94-fb7b0fd02f07"},"vehicle_type_id":"4","last_reported":1733487518,"current_range_meters":12800,"station_id":"ce4bhl12rcd13ifvqgf0","pricing_plan_id":"cebpf4jnsgd1na2vs0mg"},{"bike_id":"8bd642b2-0279-44c7-9ee2-fc3b57332c83","system_id":"levelo_inurba_marseille","lat":43.27455,"lon":5.40073,"is_reserved":false,"is_disabled":true,"rental_uris":{"android":"levelo://app?vid=8bd642b2-0279-44c7-9ee2-fc3b57332c83","ios":"levelo://app?vid=8bd642b2-0279-44c7-9ee2-fc3b57332c83"},"vehicle_type_id":"4","last_reported":1733487518,"current_range_meters":0,"station_id":"","pricing_plan_id":"cebpf4jnsgd1na2vs0mg"},{"bike_id":"ec204e6b-02a9-4b03-a600-92d59b5fb364","system_id":"levelo_inurba_marseille","lat":43.23194,"lon":5.35551,"is_reserved":false,"is_disabled":false,"rental_uris":{"android":"levelo://app?vid=ec204e6b-02a9-4b03-a600-92d59b5fb364","ios":"levelo://app?vid=ec204e6b-02a9-4b03-a600-92d59b5fb364"},"vehicle_type_id":"4","last_reported":1733487518,"current_range_meters":6400,"station_id":"ce4bhu92rcd13ifvqi70","pricing_plan_id":"cebpf4jnsgd1na2vs0mg"},{"bike_id":"5b667cd8-1ed1-4b03-8bee-ef4c0498560e","system_id":"levelo_inurba_marseille","lat":43.25,"lon":5.38927,"is_reserved":false,"is_disabled":false,"rental_uris":{"android":"levelo://app?vid=5b667cd8-1ed1-4b03-8bee-ef4c0498560e","ios":"levelo://app?vid=5b667cd8-1ed1-4b03-8bee-ef4c0498560e"},"vehicle_type_id":"4","last_reported":1733487518,"current_range_meters":38800,"station_id":"ce4bhgp2rcd13ifvqfd0","pricing_plan_id":"cebpf4jnsgd1na2vs0mg"},{"bike_id":"97fd2e21-8df3-48a4-a4fe-153a77359432","system_id":"levelo_inurba_marseille","lat":43.27951,"lon":5.41044,"is_reserved":false,"is_disabled":false,"rental_uris":{"android":"levelo://app?vid=97fd2e21-8df3-48a4-a4fe-153a77359432","ios":"levelo://app?vid=97fd2e21-8df3-48a4-a4fe-153a77359432"},"vehicle_type_id":"4","last_reported":1733487518,"current_range_meters":6800,"station_id":"ce4bhnp2rcd13ifvqh0g","pricing_plan_id":"cebpf4jnsgd1na2vs0mg"},{"bike_id":"572d5e03-1d52-4091-aed3-aef7accba865","system_id":"levelo_inurba_marseille","lat":43.24546,"lon":5.39522,"is_reserved":false,"is_disabled":false,"rental_uris":{"android":"levelo://app?vid=572d5e03-1d52-4091-aed3-aef7accba865","ios":"levelo://app?vid=572d5e03-1d52-4091-aed3-aef7accba865"},"vehicle_type_id":"4","last_reported":1733487518,"current_range_meters":38800,"station_id":"ce4bhlp2rcd13ifvqgjg","pricing_plan_id":"cebpf4jnsgd1na2vs0mg"},{"bike_id":"500942b9-3cba-4db8-b7da-b77e52af7f89","system_id":"levelo_inurba_marseille","lat":43.26955,"lon":5.38623,"is_reserved":false,"is_disabled":false,"rental_uris":{"android":"levelo://app?vid=500942b9-3cba-4db8-b7da-b77e52af7f89","ios":"levelo://app?vid=500942b9-3cba-4db8-b7da-b77e52af7f89"},"vehicle_type_id":"4","last_reported":1733487518,"current_range_meters":39200,"station_id":"ce4bhh92rcd13ifvqfh0","pricing_plan_id":"cebpf4jnsgd1na2vs0mg"},{"bike_id":"1952bc82-4662-4043-81dd-5c8b414fe71b","system_id":"levelo_inurba_marseille","lat":43.2954,"lon":5.39395,"is_reserved":false,"is_disabled":false,"rental_uris":{"android":"levelo://app?vid=1952bc82-4662-4043-81dd-5c8b414fe71b","ios":"levelo://app?vid=1952bc82-4662-4043-81dd-5c8b414fe71b"},"vehicle_type_id":"4","last_reported":1733487518,"current_range_meters":38800,"station_id":"ce4bh292rcd13ifvqdf0","pricing_plan_id":"cebpf4jnsgd1na2vs0mg"},{"bike_id":"e6e7f40a-b887-4cce-912a-7edaad8e645d","system_id":"levelo_inurba_marseille","lat":43.29965,"lon":5.38499,"is_reserved":false,"is_disabled":false,"rental_uris":{"android":"levelo://app?vid=e6e7f40a-b887-4cce-912a-7edaad8e645d","ios":"levelo://app?vid=e6e7f40a-b887-4cce-912a-7edaad8e645d"},"vehicle_type_id":"4","last_reported":1733487518,"current_range_meters":30000,"station_id":"ce4bgj92rcd13ifvqbd0","pricing_plan_id":"cebpf4jnsgd1na2vs0mg"},{"bike_id":"0c7d8135-3f48-4d1f-9d6e-8ceee018e1a4","system_id":"levelo_inurba_marseille","lat":43.26943,"lon":5.38641,"is_reserved":false,"is_disabled":false,"rental_uris":{"android":"levelo://app?vid=0c7d8135-3f48-4d1f-9d6e-8ceee018e1a4","ios":"levelo://app?vid=0c7d8135-3f48-4d1f-9d6e-8ceee018e1a4"},"vehicle_type_id":"4","last_reported":1733487518,"current_range_meters":35600,"station_id":"ce4bhh92rcd13ifvqfh0","pricing_plan_id":"cebpf4jnsgd1na2vs0mg"},{"bike_id":"28b52837-d828-49e4-b4be-cfbac010c328","system_id":"levelo_inurba_marseille","lat":43.33731,"lon":5.39187,"is_reserved":false,"is_disabled":false,"rental_uris":{"android":"levelo://app?vid=28b52837-d828-49e4-b4be-cfbac010c328","ios":"levelo://app?vid=28b52837-d828-49e4-b4be-cfbac010c328"},"vehicle_type_id":"4","last_reported":1733487518,"current_range_meters":24800,"station_id":"ce4bhr92rcd13ifvqhsg","pricing_plan_id":"cebpf4jnsgd1na2vs0mg"},{"bike_id":"b3f478ac-3b05-4edf-bdbf-76399090f8e9","system_id":"levelo_inurba_marseille","lat":43.29994,"lon":5.37639,"is_reserved":false,"is_disabled":true,"rental_uris":{"android":"levelo://app?vid=b3f478ac-3b05-4edf-bdbf-76399090f8e9","ios":"levelo://app?vid=b3f478ac-3b05-4edf-bdbf-76399090f8e9"},"vehicle_type_id":"4","last_reported":1733487518,"current_range_meters":0,"station_id":"","pricing_plan_id":"cebpf4jnsgd1na2vs0mg"},{"bike_id":"e9f79471-4ff3-4676-918f-e60f2e151b99","system_id":"levelo_inurba_marseille","lat":43.337444,"lon":5.374475,"is_reserved":false,"is_disabled":false,"rental_uris":{"android":"levelo://app?vid=e9f79471-4ff3-4676-918f-e60f2e151b99","ios":"levelo://app?vid=e9f79471-4ff3-4676-918f-e60f2e151b99"},"vehicle_type_id":"4","last_reported":1733487518,"current_range_meters":38000,"station_id":"","pricing_plan_id":"cebpf4jnsgd1na2vs0mg"},{"bike_id":"82383da8-e1a3-41dd-b408-c55ab2b01ce2","system_id":"levelo_inurba_marseille","lat":43.3377,"lon":5.37414,"is_reserved":false,"is_disabled":false,"rental_uris":{"android":"levelo://app?vid=82383da8-e1a3-41dd-b408-c55ab2b01ce2","ios":"levelo://app?vid=82383da8-e1a3-41dd-b408-c55ab2b01ce2"},"vehicle_type_id":"4","last_reported":1733487518,"current_range_meters":30800,"station_id":"","pricing_plan_id":"cebpf4jnsgd1na2vs0mg"},{"bike_id":"36eab559-191f-41d4-9302-813f441f16aa","system_id":"levelo_inurba_marseille","lat":43.2418,"lon":5.39725,"is_reserved":false,"is_disabled":false,"rental_uris":{"android":"levelo://app?vid=36eab559-191f-41d4-9302-813f441f16aa","ios":"levelo://app?vid=36eab559-191f-41d4-9302-813f441f16aa"},"vehicle_type_id":"4","last_reported":1733487518,"current_range_meters":38800,"station_id":"ce4bhn12rcd13ifvqgpg","pricing_plan_id":"cebpf4jnsgd1na2vs0mg"},{"bike_id":"e05119fd-fd4d-4fc7-9786-f468bbb9ad6c","system_id":"levelo_inurba_marseille","lat":43.32293,"lon":5.38265,"is_reserved":false,"is_disabled":false,"rental_uris":{"android":"levelo://app?vid=e05119fd-fd4d-4fc7-9786-f468bbb9ad6c","ios":"levelo://app?vid=e05119fd-fd4d-4fc7-9786-f468bbb9ad6c"},"vehicle_type_id":"4","last_reported":1733487518,"current_range_meters":38800,"station_id":"ce4bhr12rcd13ifvqhqg","pricing_plan_id":"cebpf4jnsgd1na2vs0mg"},{"bike_id":"3810e179-15e0-4d6a-a214-3fcd31710688","system_id":"levelo_inurba_marseille","lat":43.28099,"lon":5.37834,"is_reserved":false,"is_disabled":false,"rental_uris":{"android":"levelo://app?vid=3810e179-15e0-4d6a-a214-3fcd31710688","ios":"levelo://app?vid=3810e179-15e0-4d6a-a214-3fcd31710688"},"vehicle_type_id":"4","last_reported":1733487518,"current_range_meters":32000,"station_id":"ce4bha12rcd13ifvqee0","pricing_plan_id":"cebpf4jnsgd1na2vs0mg"},{"bike_id":"41874796-3b39-4cde-8ec6-6c4e20c7435b","system_id":"levelo_inurba_marseille","lat":43.29974,"lon":5.37183,"is_reserved":false,"is_disabled":false,"rental_uris":{"android":"levelo://app?vid=41874796-3b39-4cde-8ec6-6c4e20c7435b","ios":"levelo://app?vid=41874796-3b39-4cde-8ec6-6c4e20c7435b"},"vehicle_type_id":"4","last_reported":1733487518,"current_range_meters":27600,"station_id":"ce4bgr92rcd13ifvqc7g","pricing_plan_id":"cebpf4jnsgd1na2vs0mg"},{"bike_id":"9e3bc3fb-05cb-4c9a-8460-05ba9e2b92d0","system_id":"levelo_inurba_marseille","lat":43.31319,"lon":5.36724,"is_reserved":false,"is_disabled":false,"rental_uris":{"android":"levelo://app?vid=9e3bc3fb-05cb-4c9a-8460-05ba9e2b92d0","ios":"levelo://app?vid=9e3bc3fb-05cb-4c9a-8460-05ba9e2b92d0"},"vehicle_type_id":"4","last_reported":1733487518,"current_range_meters":38400,"station_id":"ce4bgr92rcd13ifvqc6g","pricing_plan_id":"cebpf4jnsgd1na2vs0mg"},{"bike_id":"92c1e117-f0fb-499c-b1b6-dfcc6283b817","system_id":"levelo_inurba_marseille","lat":43.25008,"lon":5.38911,"is_reserved":false,"is_disabled":false,"rental_uris":{"android":"levelo://app?vid=92c1e117-f0fb-499c-b1b6-dfcc6283b817","ios":"levelo://app?vid=92c1e117-f0fb-499c-b1b6-dfcc6283b817"},"vehicle_type_id":"4","last_reported":1733487518,"current_range_meters":38800,"station_id":"ce4bhgp2rcd13ifvqfd0","pricing_plan_id":"cebpf4jnsgd1na2vs0mg"},{"bike_id":"d180c708-c2eb-468f-bde2-cc174dfe962e","system_id":"levelo_inurba_marseille","lat":43.2396,"lon":5.36629,"is_reserved":false,"is_disabled":false,"rental_uris":{"android":"levelo://app?vid=d180c708-c2eb-468f-bde2-cc174dfe962e","ios":"levelo://app?vid=d180c708-c2eb-468f-bde2-cc174dfe962e"},"vehicle_type_id":"4","last_reported":1733487518,"current_range_meters":36800,"station_id":"ce4bhi12rcd13ifvqfp0","pricing_plan_id":"cebpf4jnsgd1na2vs0mg"},{"bike_id":"c995de29-1f5c-48d6-9e31-a9fba088583d","system_id":"levelo_inurba_marseille","lat":43.26937,"lon":5.38929,"is_reserved":false,"is_disabled":true,"rental_uris":{"android":"levelo://app?vid=c995de29-1f5c-48d6-9e31-a9fba088583d","ios":"levelo://app?vid=c995de29-1f5c-48d6-9e31-a9fba088583d"},"vehicle_type_id":"4","last_reported":1733487518,"current_range_meters":16400,"station_id":"ce4bhhh2rcd13ifvqfl0","pricing_plan_id":"cebpf4jnsgd1na2vs0mg"},{"bike_id":"1a6c9161-0075-4df5-af80-e53c8fbc6540","system_id":"levelo_inurba_marseille","lat":43.27057,"lon":5.40265,"is_reserved":false,"is_disabled":false,"rental_uris":{"android":"levelo://app?vid=1a6c9161-0075-4df5-af80-e53c8fbc6540","ios":"levelo://app?vid=1a6c9161-0075-4df5-af80-e53c8fbc6540"},"vehicle_type_id":"4","last_reported":1733487518,"current_range_meters":22000,"station_id":"ce4bhk92rcd13ifvqgc0","pricing_plan_id":"cebpf4jnsgd1na2vs0mg"},{"bike_id":"65ea8a13-f7a8-486f-90be-0a6dbaf33713","system_id":"levelo_inurba_marseille","lat":43.30879,"lon":5.37197,"is_reserved":false,"is_disabled":false,"rental_uris":{"android":"levelo://app?vid=65ea8a13-f7a8-486f-90be-0a6dbaf33713","ios":"levelo://app?vid=65ea8a13-f7a8-486f-90be-0a6dbaf33713"},"vehicle_type_id":"4","last_reported":1733487518,"current_range_meters":22800,"station_id":"ce4bguh2rcd13ifvqckg","pricing_plan_id":"cebpf4jnsgd1na2vs0mg"},{"bike_id":"8eb4c787-ff69-4c43-98c1-dcbd2862d3c4","system_id":"levelo_inurba_marseille","lat":43.30545,"lon":5.36528,"is_reserved":false,"is_disabled":false,"rental_uris":{"android":"levelo://app?vid=8eb4c787-ff69-4c43-98c1-dcbd2862d3c4","ios":"levelo://app?vid=8eb4c787-ff69-4c43-98c1-dcbd2862d3c4"},"vehicle_type_id":"4","last_reported":1733487518,"current_range_meters":24800,"station_id":"ce4bgs12rcd13ifvqcag","pricing_plan_id":"cebpf4jnsgd1na2vs0mg"},{"bike_id":"0d76dbf6-5e40-455b-a0e6-70fb0b70c5f9","system_id":"levelo_inurba_marseille","lat":43.32357,"lon":5.38889,"is_reserved":false,"is_disabled":false,"rental_uris":{"android":"levelo://app?vid=0d76dbf6-5e40-455b-a0e6-70fb0b70c5f9","ios":"levelo://app?vid=0d76dbf6-5e40-455b-a0e6-70fb0b70c5f9"},"vehicle_type_id":"4","last_reported":1733487518,"current_range_meters":36800,"station_id":"ce4bhqp2rcd13ifvqhog","pricing_plan_id":"cebpf4jnsgd1na2vs0mg"},{"bike_id":"bb33fa0c-b703-4470-8119-8d67c160e4d2","system_id":"levelo_inurba_marseille","lat":43.25092,"lon":5.39517,"is_reserved":false,"is_disabled":false,"rental_uris":{"android":"levelo://app?vid=bb33fa0c-b703-4470-8119-8d67c160e4d2","ios":"levelo://app?vid=bb33fa0c-b703-4470-8119-8d67c160e4d2"},"vehicle_type_id":"4","last_reported":1733487518,"current_range_meters":38800,"station_id":"ce4bhm12rcd13ifvqgkg","pricing_plan_id":"cebpf4jnsgd1na2vs0mg"},{"bike_id":"2f3968e7-9336-4ee4-ba78-8e92c0a818cc","system_id":"levelo_inurba_marseille","lat":43.31322,"lon":5.36647,"is_reserved":false,"is_disabled":true,"rental_uris":{"android":"levelo://app?vid=2f3968e7-9336-4ee4-ba78-8e92c0a818cc","ios":"levelo://app?vid=2f3968e7-9336-4ee4-ba78-8e92c0a818cc"},"vehicle_type_id":"4","last_reported":1733487518,"current_range_meters":0,"station_id":"","pricing_plan_id":"cebpf4jnsgd1na2vs0mg"},{"bike_id":"5d80b360-8122-490d-9a99-2101113a4840","system_id":"levelo_inurba_marseille","lat":43.30129,"lon":5.39862,"is_reserved":false,"is_disabled":true,"rental_uris":{"android":"levelo://app?vid=5d80b360-8122-490d-9a99-2101113a4840","ios":"levelo://app?vid=5d80b360-8122-490d-9a99-2101113a4840"},"vehicle_type_id":"4","last_reported":1733487518,"current_range_meters":400,"station_id":"ce4bh0h2rcd13ifvqd40","pricing_plan_id":"cebpf4jnsgd1na2vs0mg"},{"bike_id":"4d3faf3b-c455-4a80-9648-56dd8a851d4f","system_id":"levelo_inurba_marseille","lat":43.24183,"lon":5.39722,"is_reserved":false,"is_disabled":false,"rental_uris":{"android":"levelo://app?vid=4d3faf3b-c455-4a80-9648-56dd8a851d4f","ios":"levelo://app?vid=4d3faf3b-c455-4a80-9648-56dd8a851d4f"},"vehicle_type_id":"4","last_reported":1733487518,"current_range_meters":22400,"station_id":"ce4bhn12rcd13ifvqgpg","pricing_plan_id":"cebpf4jnsgd1na2vs0mg"},{"bike_id":"9537ead7-cfd2-40c1-89fd-1e8c65f06850","system_id":"levelo_inurba_marseille","lat":43.32475,"lon":5.36561,"is_reserved":false,"is_disabled":false,"rental_uris":{"android":"levelo://app?vid=9537ead7-cfd2-40c1-89fd-1e8c65f06850","ios":"levelo://app?vid=9537ead7-cfd2-40c1-89fd-1e8c65f06850"},"vehicle_type_id":"4","last_reported":1733487518,"current_range_meters":9600,"station_id":"ce4bhs12rcd13ifvqhvg","pricing_plan_id":"cebpf4jnsgd1na2vs0mg"},{"bike_id":"a4195ee0-472a-4f03-b955-5b202da4d03a","system_id":"levelo_inurba_marseille","lat":43.23179,"lon":5.39987,"is_reserved":false,"is_disabled":false,"rental_uris":{"android":"levelo://app?vid=a4195ee0-472a-4f03-b955-5b202da4d03a","ios":"levelo://app?vid=a4195ee0-472a-4f03-b955-5b202da4d03a"},"vehicle_type_id":"4","last_reported":1733487518,"current_range_meters":37600,"station_id":"ce4bhn12rcd13ifvqgqg","pricing_plan_id":"cebpf4jnsgd1na2vs0mg"},{"bike_id":"143c4d6d-da1c-4a74-a5f0-3735ad4e51e9","system_id":"levelo_inurba_marseille","lat":43.30587,"lon":5.39356,"is_reserved":false,"is_disabled":false,"rental_uris":{"android":"levelo://app?vid=143c4d6d-da1c-4a74-a5f0-3735ad4e51e9","ios":"levelo://app?vid=143c4d6d-da1c-4a74-a5f0-3735ad4e51e9"},"vehicle_type_id":"4","last_reported":1733487518,"current_range_meters":21600,"station_id":"ce4bh0p2rcd13ifvqd80","pricing_plan_id":"cebpf4jnsgd1na2vs0mg"},{"bike_id":"4f364583-ef31-4fd7-b03f-e8563c2d4cc3","system_id":"levelo_inurba_marseille","lat":43.26682,"lon":5.38269,"is_reserved":false,"is_disabled":false,"rental_uris":{"android":"levelo://app?vid=4f364583-ef31-4fd7-b03f-e8563c2d4cc3","ios":"levelo://app?vid=4f364583-ef31-4fd7-b03f-e8563c2d4cc3"},"vehicle_type_id":"4","last_reported":1733487518,"current_range_meters":10800,"station_id":"ce4bhg92rcd13ifvqf90","pricing_plan_id":"cebpf4jnsgd1na2vs0mg"},{"bike_id":"18c465ad-16a0-4d72-a337-11a15929aab8","system_id":"levelo_inurba_marseille","lat":43.239606,"lon":5.366203,"is_reserved":false,"is_disabled":false,"rental_uris":{"android":"levelo://app?vid=18c465ad-16a0-4d72-a337-11a15929aab8","ios":"levelo://app?vid=18c465ad-16a0-4d72-a337-11a15929aab8"},"vehicle_type_id":"4","last_reported":1733487518,"current_range_meters":10800,"station_id":"ce4bhi12rcd13ifvqfp0","pricing_plan_id":"cebpf4jnsgd1na2vs0mg"},{"bike_id":"02529b6f-2d74-4016-a1db-97306f24c935","system_id":"levelo_inurba_marseille","lat":43.29729,"lon":5.37695,"is_reserved":false,"is_disabled":false,"rental_uris":{"android":"levelo://app?vid=02529b6f-2d74-4016-a1db-97306f24c935","ios":"levelo://app?vid=02529b6f-2d74-4016-a1db-97306f24c935"},"vehicle_type_id":"4","last_reported":1733487518,"current_range_meters":29600,"station_id":"ce4bgkh2rcd13ifvqbl0","pricing_plan_id":"cebpf4jnsgd1na2vs0mg"},{"bike_id":"f825a6e3-d202-4ddc-917b-5da49c4114c4","system_id":"levelo_inurba_marseille","lat":43.23187,"lon":5.3555,"is_reserved":false,"is_disabled":false,"rental_uris":{"android":"levelo://app?vid=f825a6e3-d202-4ddc-917b-5da49c4114c4","ios":"levelo://app?vid=f825a6e3-d202-4ddc-917b-5da49c4114c4"},"vehicle_type_id":"4","last_reported":1733487518,"current_range_meters":16000,"station_id":"ce4bhu92rcd13ifvqi70","pricing_plan_id":"cebpf4jnsgd1na2vs0mg"},{"bike_id":"c65c3696-c1d5-4fa4-a9ff-3f106772a0e6","system_id":"levelo_inurba_marseille","lat":43.33728,"lon":5.39186,"is_reserved":false,"is_disabled":false,"rental_uris":{"android":"levelo://app?vid=c65c3696-c1d5-4fa4-a9ff-3f106772a0e6","ios":"levelo://app?vid=c65c3696-c1d5-4fa4-a9ff-3f106772a0e6"},"vehicle_type_id":"4","last_reported":1733487518,"current_range_meters":34000,"station_id":"ce4bhr92rcd13ifvqhsg","pricing_plan_id":"cebpf4jnsgd1na2vs0mg"},{"bike_id":"b0025f03-f4b7-4e1f-b2ae-d738bfb01f75","system_id":"levelo_inurba_marseille","lat":43.31348,"lon":5.37673,"is_reserved":false,"is_disabled":false,"rental_uris":{"android":"levelo://app?vid=b0025f03-f4b7-4e1f-b2ae-d738bfb01f75","ios":"levelo://app?vid=b0025f03-f4b7-4e1f-b2ae-d738bfb01f75"},"vehicle_type_id":"4","last_reported":1733487518,"current_range_meters":34000,"station_id":"","pricing_plan_id":"cebpf4jnsgd1na2vs0mg"},{"bike_id":"f110c4f3-c558-4a1d-a057-5cbe11975c78","system_id":"levelo_inurba_marseille","lat":43.26562,"lon":5.37288,"is_reserved":false,"is_disabled":false,"rental_uris":{"android":"levelo://app?vid=f110c4f3-c558-4a1d-a057-5cbe11975c78","ios":"levelo://app?vid=f110c4f3-c558-4a1d-a057-5cbe11975c78"},"vehicle_type_id":"4","last_reported":1733487518,"current_range_meters":28000,"station_id":"ce4bhg12rcd13ifvqf70","pricing_plan_id":"cebpf4jnsgd1na2vs0mg"},{"bike_id":"7fc9df7f-130a-4183-b01a-d6d499410853","system_id":"levelo_inurba_marseille","lat":43.27818,"lon":5.40711,"is_reserved":false,"is_disabled":false,"rental_uris":{"android":"levelo://app?vid=7fc9df7f-130a-4183-b01a-d6d499410853","ios":"levelo://app?vid=7fc9df7f-130a-4183-b01a-d6d499410853"},"vehicle_type_id":"4","last_reported":1733487518,"current_range_meters":36000,"station_id":"ce4bhnh2rcd13ifvqgtg","pricing_plan_id":"cebpf4jnsgd1na2vs0mg"},{"bike_id":"b21eb52e-346e-4336-8070-fc27e53aca86","system_id":"levelo_inurba_marseille","lat":43.31685,"lon":5.40475,"is_reserved":false,"is_disabled":false,"rental_uris":{"android":"levelo://app?vid=b21eb52e-346e-4336-8070-fc27e53aca86","ios":"levelo://app?vid=b21eb52e-346e-4336-8070-fc27e53aca86"},"vehicle_type_id":"4","last_reported":1733487518,"current_range_meters":22800,"station_id":"ce4bh012rcd13ifvqd00","pricing_plan_id":"cebpf4jnsgd1na2vs0mg"},{"bike_id":"f10c5e90-601b-4bd4-87e7-4cbb6a13a4fb","system_id":"levelo_inurba_marseille","lat":43.26124,"lon":5.39272,"is_reserved":false,"is_disabled":true,"rental_uris":{"android":"levelo://app?vid=f10c5e90-601b-4bd4-87e7-4cbb6a13a4fb","ios":"levelo://app?vid=f10c5e90-601b-4bd4-87e7-4cbb6a13a4fb"},"vehicle_type_id":"4","last_reported":1733487518,"current_range_meters":0,"station_id":"","pricing_plan_id":"cebpf4jnsgd1na2vs0mg"},{"bike_id":"80d1b9cb-411a-4e73-8bc4-c040b1c29f50","system_id":"levelo_inurba_marseille","lat":43.31713,"lon":5.43711,"is_reserved":false,"is_disabled":false,"rental_uris":{"android":"levelo://app?vid=80d1b9cb-411a-4e73-8bc4-c040b1c29f50","ios":"levelo://app?vid=80d1b9cb-411a-4e73-8bc4-c040b1c29f50"},"vehicle_type_id":"4","last_reported":1733487518,"current_range_meters":28800,"station_id":"ce4bhp92rcd13ifvqhcg","pricing_plan_id":"cebpf4jnsgd1na2vs0mg"},{"bike_id":"7b862f23-6322-4a26-a0e3-ae33911240c2","system_id":"levelo_inurba_marseille","lat":43.29521,"lon":5.37499,"is_reserved":false,"is_disabled":false,"rental_uris":{"android":"levelo://app?vid=7b862f23-6322-4a26-a0e3-ae33911240c2","ios":"levelo://app?vid=7b862f23-6322-4a26-a0e3-ae33911240c2"},"vehicle_type_id":"4","last_reported":1733487518,"current_range_meters":27600,"station_id":"ce4bgkp2rcd13ifvqbmg","pricing_plan_id":"cebpf4jnsgd1na2vs0mg"},{"bike_id":"665ab737-3737-49cc-84c2-0ab5fee4205c","system_id":"levelo_inurba_marseille","lat":43.259324,"lon":5.409102,"is_reserved":false,"is_disabled":false,"rental_uris":{"android":"levelo://app?vid=665ab737-3737-49cc-84c2-0ab5fee4205c","ios":"levelo://app?vid=665ab737-3737-49cc-84c2-0ab5fee4205c"},"vehicle_type_id":"4","last_reported":1733487518,"current_range_meters":36000,"station_id":"ce4bhm92rcd13ifvqglg","pricing_plan_id":"cebpf4jnsgd1na2vs0mg"},{"bike_id":"c392e4c3-b551-4938-bf4d-657774532cf7","system_id":"levelo_inurba_marseille","lat":43.3053,"lon":5.36543,"is_reserved":false,"is_disabled":false,"rental_uris":{"android":"levelo://app?vid=c392e4c3-b551-4938-bf4d-657774532cf7","ios":"levelo://app?vid=c392e4c3-b551-4938-bf4d-657774532cf7"},"vehicle_type_id":"4","last_reported":1733487518,"current_range_meters":30000,"station_id":"ce4bgs12rcd13ifvqcag","pricing_plan_id":"cebpf4jnsgd1na2vs0mg"},{"bike_id":"0e516958-fe02-46a6-9187-d1cfa5dfa278","system_id":"levelo_inurba_marseille","lat":43.25932,"lon":5.40919,"is_reserved":false,"is_disabled":false,"rental_uris":{"android":"levelo://app?vid=0e516958-fe02-46a6-9187-d1cfa5dfa278","ios":"levelo://app?vid=0e516958-fe02-46a6-9187-d1cfa5dfa278"},"vehicle_type_id":"4","last_reported":1733487518,"current_range_meters":16000,"station_id":"ce4bhm92rcd13ifvqglg","pricing_plan_id":"cebpf4jnsgd1na2vs0mg"},{"bike_id":"1f29961d-6301-43a7-993b-5d23eb852a02","system_id":"levelo_inurba_marseille","lat":43.30218,"lon":5.39477,"is_reserved":false,"is_disabled":true,"rental_uris":{"android":"levelo://app?vid=1f29961d-6301-43a7-993b-5d23eb852a02","ios":"levelo://app?vid=1f29961d-6301-43a7-993b-5d23eb852a02"},"vehicle_type_id":"4","last_reported":1733487518,"current_range_meters":0,"station_id":"ce4bh0p2rcd13ifvqd70","pricing_plan_id":"cebpf4jnsgd1na2vs0mg"},{"bike_id":"ea8f35d4-5ba1-4d5e-9874-6463d045bf6a","system_id":"levelo_inurba_marseille","lat":43.306,"lon":5.37221,"is_reserved":false,"is_disabled":false,"rental_uris":{"android":"levelo://app?vid=ea8f35d4-5ba1-4d5e-9874-6463d045bf6a","ios":"levelo://app?vid=ea8f35d4-5ba1-4d5e-9874-6463d045bf6a"},"vehicle_type_id":"4","last_reported":1733487518,"current_range_meters":20800,"station_id":"ce4bgqh2rcd13ifvqc4g","pricing_plan_id":"cebpf4jnsgd1na2vs0mg"},{"bike_id":"20b7188f-e505-43bb-9200-5e9953d9e57f","system_id":"levelo_inurba_marseille","lat":43.2396,"lon":5.36637,"is_reserved":false,"is_disabled":false,"rental_uris":{"android":"levelo://app?vid=20b7188f-e505-43bb-9200-5e9953d9e57f","ios":"levelo://app?vid=20b7188f-e505-43bb-9200-5e9953d9e57f"},"vehicle_type_id":"4","last_reported":1733487518,"current_range_meters":29600,"station_id":"ce4bhi12rcd13ifvqfp0","pricing_plan_id":"cebpf4jnsgd1na2vs0mg"},{"bike_id":"8701139b-c9ad-44e4-ab13-5cc49a843881","system_id":"levelo_inurba_marseille","lat":43.27994,"lon":5.40018,"is_reserved":false,"is_disabled":false,"rental_uris":{"android":"levelo://app?vid=8701139b-c9ad-44e4-ab13-5cc49a843881","ios":"levelo://app?vid=8701139b-c9ad-44e4-ab13-5cc49a843881"},"vehicle_type_id":"4","last_reported":1733487518,"current_range_meters":2800,"station_id":"ce4bho92rcd13ifvqh4g","pricing_plan_id":"cebpf4jnsgd1na2vs0mg"},{"bike_id":"a974f069-3bd7-4983-927a-557ae749f591","system_id":"levelo_inurba_marseille","lat":43.29451,"lon":5.39745,"is_reserved":false,"is_disabled":false,"rental_uris":{"android":"levelo://app?vid=a974f069-3bd7-4983-927a-557ae749f591","ios":"levelo://app?vid=a974f069-3bd7-4983-927a-557ae749f591"},"vehicle_type_id":"4","last_reported":1733487518,"current_range_meters":35600,"station_id":"ce4bh3h2rcd13ifvqdo0","pricing_plan_id":"cebpf4jnsgd1na2vs0mg"},{"bike_id":"a4d3b324-e08a-49a2-ae58-8854d2d2da3b","system_id":"levelo_inurba_marseille","lat":43.31761,"lon":5.37282,"is_reserved":false,"is_disabled":false,"rental_uris":{"android":"levelo://app?vid=a4d3b324-e08a-49a2-ae58-8854d2d2da3b","ios":"levelo://app?vid=a4d3b324-e08a-49a2-ae58-8854d2d2da3b"},"vehicle_type_id":"4","last_reported":1733487518,"current_range_meters":33600,"station_id":"","pricing_plan_id":"cebpf4jnsgd1na2vs0mg"},{"bike_id":"cdfe6590-4984-4014-86c8-6dd70747c27a","system_id":"levelo_inurba_marseille","lat":43.29737,"lon":5.37434,"is_reserved":false,"is_disabled":true,"rental_uris":{"android":"levelo://app?vid=cdfe6590-4984-4014-86c8-6dd70747c27a","ios":"levelo://app?vid=cdfe6590-4984-4014-86c8-6dd70747c27a"},"vehicle_type_id":"4","last_reported":1733487518,"current_range_meters":0,"station_id":"","pricing_plan_id":"cebpf4jnsgd1na2vs0mg"},{"bike_id":"5b280a56-469f-4e0c-9899-49bc0c37f007","system_id":"levelo_inurba_marseille","lat":43.25077,"lon":5.39512,"is_reserved":false,"is_disabled":false,"rental_uris":{"android":"levelo://app?vid=5b280a56-469f-4e0c-9899-49bc0c37f007","ios":"levelo://app?vid=5b280a56-469f-4e0c-9899-49bc0c37f007"},"vehicle_type_id":"4","last_reported":1733487518,"current_range_meters":11600,"station_id":"ce4bhm12rcd13ifvqgkg","pricing_plan_id":"cebpf4jnsgd1na2vs0mg"},{"bike_id":"afb1464f-7837-4f63-8da0-b44a6f3f6e3c","system_id":"levelo_inurba_marseille","lat":43.31264,"lon":5.40167,"is_reserved":false,"is_disabled":false,"rental_uris":{"android":"levelo://app?vid=afb1464f-7837-4f63-8da0-b44a6f3f6e3c","ios":"levelo://app?vid=afb1464f-7837-4f63-8da0-b44a6f3f6e3c"},"vehicle_type_id":"4","last_reported":1733487518,"current_range_meters":32000,"station_id":"ce4bh092rcd13ifvqd30","pricing_plan_id":"cebpf4jnsgd1na2vs0mg"},{"bike_id":"9cfb1313-64f8-4531-ad90-1dc3d6fb9e2b","system_id":"levelo_inurba_marseille","lat":43.24385,"lon":5.37057,"is_reserved":false,"is_disabled":false,"rental_uris":{"android":"levelo://app?vid=9cfb1313-64f8-4531-ad90-1dc3d6fb9e2b","ios":"levelo://app?vid=9cfb1313-64f8-4531-ad90-1dc3d6fb9e2b"},"vehicle_type_id":"4","last_reported":1733487518,"current_range_meters":25600,"station_id":"ce4bhhh2rcd13ifvqfk0","pricing_plan_id":"cebpf4jnsgd1na2vs0mg"},{"bike_id":"2bd9e227-9504-45f5-94e5-b6a337568cb4","system_id":"levelo_inurba_marseille","lat":43.30351,"lon":5.41885,"is_reserved":false,"is_disabled":false,"rental_uris":{"android":"levelo://app?vid=2bd9e227-9504-45f5-94e5-b6a337568cb4","ios":"levelo://app?vid=2bd9e227-9504-45f5-94e5-b6a337568cb4"},"vehicle_type_id":"4","last_reported":1733487518,"current_range_meters":37600,"station_id":"ce4bhop2rcd13ifvqh7g","pricing_plan_id":"cebpf4jnsgd1na2vs0mg"},{"bike_id":"12f626ac-11e5-4f97-b4aa-9eed98134575","system_id":"levelo_inurba_marseille","lat":43.30876,"lon":5.38916,"is_reserved":false,"is_disabled":false,"rental_uris":{"android":"levelo://app?vid=12f626ac-11e5-4f97-b4aa-9eed98134575","ios":"levelo://app?vid=12f626ac-11e5-4f97-b4aa-9eed98134575"},"vehicle_type_id":"4","last_reported":1733487518,"current_range_meters":38800,"station_id":"ce4bgj92rcd13ifvqbd0","pricing_plan_id":"cebpf4jnsgd1na2vs0mg"},{"bike_id":"fcd9936f-372a-4782-a0a1-fe2ee8690016","system_id":"levelo_inurba_marseille","lat":43.26671,"lon":5.38263,"is_reserved":false,"is_disabled":false,"rental_uris":{"android":"levelo://app?vid=fcd9936f-372a-4782-a0a1-fe2ee8690016","ios":"levelo://app?vid=fcd9936f-372a-4782-a0a1-fe2ee8690016"},"vehicle_type_id":"4","last_reported":1733487518,"current_range_meters":38800,"station_id":"ce4bhg92rcd13ifvqf90","pricing_plan_id":"cebpf4jnsgd1na2vs0mg"},{"bike_id":"987a5ab4-d60c-480c-94b6-7cab38975402","system_id":"levelo_inurba_marseille","lat":43.29748,"lon":5.37971,"is_reserved":false,"is_disabled":true,"rental_uris":{"android":"levelo://app?vid=987a5ab4-d60c-480c-94b6-7cab38975402","ios":"levelo://app?vid=987a5ab4-d60c-480c-94b6-7cab38975402"},"vehicle_type_id":"4","last_reported":1733487518,"current_range_meters":0,"station_id":"","pricing_plan_id":"cebpf4jnsgd1na2vs0mg"},{"bike_id":"2c4596ad-0ad9-4016-b92b-0093349de2b4","system_id":"levelo_inurba_marseille","lat":43.30755,"lon":5.38187,"is_reserved":false,"is_disabled":true,"rental_uris":{"android":"levelo://app?vid=2c4596ad-0ad9-4016-b92b-0093349de2b4","ios":"levelo://app?vid=2c4596ad-0ad9-4016-b92b-0093349de2b4"},"vehicle_type_id":"4","last_reported":1733487518,"current_range_meters":0,"station_id":"","pricing_plan_id":"cebpf4jnsgd1na2vs0mg"},{"bike_id":"23afbc50-e090-4532-a054-6bb2e7036ec0","system_id":"levelo_inurba_marseille","lat":43.29577,"lon":5.37515,"is_reserved":false,"is_disabled":true,"rental_uris":{"android":"levelo://app?vid=23afbc50-e090-4532-a054-6bb2e7036ec0","ios":"levelo://app?vid=23afbc50-e090-4532-a054-6bb2e7036ec0"},"vehicle_type_id":"4","last_reported":1733487518,"current_range_meters":2800,"station_id":"ce4bgh92rcd13ifvqb50","pricing_plan_id":"cebpf4jnsgd1na2vs0mg"},{"bike_id":"8a696230-0cd8-4e37-adec-e0ada77baafb","system_id":"levelo_inurba_marseille","lat":43.29539,"lon":5.38554,"is_reserved":false,"is_disabled":true,"rental_uris":{"android":"levelo://app?vid=8a696230-0cd8-4e37-adec-e0ada77baafb","ios":"levelo://app?vid=8a696230-0cd8-4e37-adec-e0ada77baafb"},"vehicle_type_id":"4","last_reported":1733487518,"current_range_meters":30400,"station_id":"ce4bgih2rcd13ifvqba0","pricing_plan_id":"cebpf4jnsgd1na2vs0mg"},{"bike_id":"b7ab8c01-033f-4395-8276-23c850ad3d02","system_id":"levelo_inurba_marseille","lat":43.30348,"lon":5.36626,"is_reserved":false,"is_disabled":true,"rental_uris":{"android":"levelo://app?vid=b7ab8c01-033f-4395-8276-23c850ad3d02","ios":"levelo://app?vid=b7ab8c01-033f-4395-8276-23c850ad3d02"},"vehicle_type_id":"4","last_reported":1733487518,"current_range_meters":0,"station_id":"","pricing_plan_id":"cebpf4jnsgd1na2vs0mg"},{"bike_id":"0279b2c0-513c-422a-b9fb-9fc99372925b","system_id":"levelo_inurba_marseille","lat":43.3157,"lon":5.38926,"is_reserved":false,"is_disabled":false,"rental_uris":{"android":"levelo://app?vid=0279b2c0-513c-422a-b9fb-9fc99372925b","ios":"levelo://app?vid=0279b2c0-513c-422a-b9fb-9fc99372925b"},"vehicle_type_id":"4","last_reported":1733487518,"current_range_meters":18000,"station_id":"","pricing_plan_id":"cebpf4jnsgd1na2vs0mg"},{"bike_id":"b15a802f-09bb-4088-aa70-fff1dfefff70","system_id":"levelo_inurba_marseille","lat":43.23153,"lon":5.43722,"is_reserved":false,"is_disabled":false,"rental_uris":{"android":"levelo://app?vid=b15a802f-09bb-4088-aa70-fff1dfefff70","ios":"levelo://app?vid=b15a802f-09bb-4088-aa70-fff1dfefff70"},"vehicle_type_id":"4","last_reported":1733487518,"current_range_meters":38000,"station_id":"ce4bhmp2rcd13ifvqgog","pricing_plan_id":"cebpf4jnsgd1na2vs0mg"},{"bike_id":"aabdb257-8888-4229-a0a4-2fbdece78663","system_id":"levelo_inurba_marseille","lat":43.32481,"lon":5.3657,"is_reserved":false,"is_disabled":false,"rental_uris":{"android":"levelo://app?vid=aabdb257-8888-4229-a0a4-2fbdece78663","ios":"levelo://app?vid=aabdb257-8888-4229-a0a4-2fbdece78663"},"vehicle_type_id":"4","last_reported":1733487518,"current_range_meters":25600,"station_id":"ce4bhs12rcd13ifvqhvg","pricing_plan_id":"cebpf4jnsgd1na2vs0mg"},{"bike_id":"01fc086f-11d0-4126-a5a7-f83f36005f81","system_id":"levelo_inurba_marseille","lat":43.31754,"lon":5.36903,"is_reserved":false,"is_disabled":false,"rental_uris":{"android":"levelo://app?vid=01fc086f-11d0-4126-a5a7-f83f36005f81","ios":"levelo://app?vid=01fc086f-11d0-4126-a5a7-f83f36005f81"},"vehicle_type_id":"4","last_reported":1733487518,"current_range_meters":35200,"station_id":"","pricing_plan_id":"cebpf4jnsgd1na2vs0mg"},{"bike_id":"3d769a68-e6a2-4c4a-88b0-3c686dbb241d","system_id":"levelo_inurba_marseille","lat":43.28909,"lon":5.39514,"is_reserved":false,"is_disabled":false,"rental_uris":{"android":"levelo://app?vid=3d769a68-e6a2-4c4a-88b0-3c686dbb241d","ios":"levelo://app?vid=3d769a68-e6a2-4c4a-88b0-3c686dbb241d"},"vehicle_type_id":"4","last_reported":1733487518,"current_range_meters":3200,"station_id":"","pricing_plan_id":"cebpf4jnsgd1na2vs0mg"},{"bike_id":"12a7cef1-9bb8-48be-a3a0-32b2e0ebf103","system_id":"levelo_inurba_marseille","lat":43.30198,"lon":5.36623,"is_reserved":false,"is_disabled":false,"rental_uris":{"android":"levelo://app?vid=12a7cef1-9bb8-48be-a3a0-32b2e0ebf103","ios":"levelo://app?vid=12a7cef1-9bb8-48be-a3a0-32b2e0ebf103"},"vehicle_type_id":"4","last_reported":1733487518,"current_range_meters":37600,"station_id":"ce4bgrh2rcd13ifvqc8g","pricing_plan_id":"cebpf4jnsgd1na2vs0mg"},{"bike_id":"11e86528-eb6b-4391-86a5-9b1822d069a4","system_id":"levelo_inurba_marseille","lat":43.278805,"lon":5.388003,"is_reserved":false,"is_disabled":true,"rental_uris":{"android":"levelo://app?vid=11e86528-eb6b-4391-86a5-9b1822d069a4","ios":"levelo://app?vid=11e86528-eb6b-4391-86a5-9b1822d069a4"},"vehicle_type_id":"4","last_reported":1733487518,"current_range_meters":5600,"station_id":"","pricing_plan_id":"cebpf4jnsgd1na2vs0mg"},{"bike_id":"6cc6805f-c0ca-4585-bdf1-b5a0339762b0","system_id":"levelo_inurba_marseille","lat":43.29027,"lon":5.42744,"is_reserved":false,"is_disabled":true,"rental_uris":{"android":"levelo://app?vid=6cc6805f-c0ca-4585-bdf1-b5a0339762b0","ios":"levelo://app?vid=6cc6805f-c0ca-4585-bdf1-b5a0339762b0"},"vehicle_type_id":"4","last_reported":1733487518,"current_range_meters":0,"station_id":"","pricing_plan_id":"cebpf4jnsgd1na2vs0mg"},{"bike_id":"d2c073ba-50f8-47cb-8452-98984e251822","system_id":"levelo_inurba_marseille","lat":43.25579,"lon":5.38235,"is_reserved":false,"is_disabled":false,"rental_uris":{"android":"levelo://app?vid=d2c073ba-50f8-47cb-8452-98984e251822","ios":"levelo://app?vid=d2c073ba-50f8-47cb-8452-98984e251822"},"vehicle_type_id":"4","last_reported":1733487518,"current_range_meters":28800,"station_id":"ce4bhih2rcd13ifvqfs0","pricing_plan_id":"cebpf4jnsgd1na2vs0mg"},{"bike_id":"4e6fc26f-c1d5-4d84-ac5b-7d384b8c30d5","system_id":"levelo_inurba_marseille","lat":43.32362,"lon":5.36743,"is_reserved":false,"is_disabled":false,"rental_uris":{"android":"levelo://app?vid=4e6fc26f-c1d5-4d84-ac5b-7d384b8c30d5","ios":"levelo://app?vid=4e6fc26f-c1d5-4d84-ac5b-7d384b8c30d5"},"vehicle_type_id":"4","last_reported":1733487518,"current_range_meters":6800,"station_id":"ce4bhsh2rcd13ifvqi2g","pricing_plan_id":"cebpf4jnsgd1na2vs0mg"},{"bike_id":"8d1c8b92-79bb-4181-b0d2-5e94db1a14d0","system_id":"levelo_inurba_marseille","lat":43.29972,"lon":5.3826,"is_reserved":false,"is_disabled":true,"rental_uris":{"android":"levelo://app?vid=8d1c8b92-79bb-4181-b0d2-5e94db1a14d0","ios":"levelo://app?vid=8d1c8b92-79bb-4181-b0d2-5e94db1a14d0"},"vehicle_type_id":"4","last_reported":1733487518,"current_range_meters":0,"station_id":"","pricing_plan_id":"cebpf4jnsgd1na2vs0mg"},{"bike_id":"66988d75-a9f0-423c-89be-11e06668ead3","system_id":"levelo_inurba_marseille","lat":43.26555,"lon":5.37293,"is_reserved":false,"is_disabled":false,"rental_uris":{"android":"levelo://app?vid=66988d75-a9f0-423c-89be-11e06668ead3","ios":"levelo://app?vid=66988d75-a9f0-423c-89be-11e06668ead3"},"vehicle_type_id":"4","last_reported":1733487518,"current_range_meters":36000,"station_id":"ce4bhg12rcd13ifvqf70","pricing_plan_id":"cebpf4jnsgd1na2vs0mg"},{"bike_id":"ab783f5c-556c-4bb2-b72a-18606393f833","system_id":"levelo_inurba_marseille","lat":43.24544,"lon":5.39524,"is_reserved":false,"is_disabled":false,"rental_uris":{"android":"levelo://app?vid=ab783f5c-556c-4bb2-b72a-18606393f833","ios":"levelo://app?vid=ab783f5c-556c-4bb2-b72a-18606393f833"},"vehicle_type_id":"4","last_reported":1733487518,"current_range_meters":30000,"station_id":"ce4bhlp2rcd13ifvqgjg","pricing_plan_id":"cebpf4jnsgd1na2vs0mg"},{"bike_id":"2d4328f5-608e-4ff2-8dbb-502f49d3f46f","system_id":"levelo_inurba_marseille","lat":43.293466,"lon":5.385238,"is_reserved":false,"is_disabled":false,"rental_uris":{"android":"levelo://app?vid=2d4328f5-608e-4ff2-8dbb-502f49d3f46f","ios":"levelo://app?vid=2d4328f5-608e-4ff2-8dbb-502f49d3f46f"},"vehicle_type_id":"4","last_reported":1733487518,"current_range_meters":14400,"station_id":"","pricing_plan_id":"cebpf4jnsgd1na2vs0mg"},{"bike_id":"444e8f82-b193-4401-b37f-59dde217ec7b","system_id":"levelo_inurba_marseille","lat":43.29027,"lon":5.38642,"is_reserved":false,"is_disabled":false,"rental_uris":{"android":"levelo://app?vid=444e8f82-b193-4401-b37f-59dde217ec7b","ios":"levelo://app?vid=444e8f82-b193-4401-b37f-59dde217ec7b"},"vehicle_type_id":"4","last_reported":1733487518,"current_range_meters":28800,"station_id":"ce4bh4p2rcd13ifvqe0g","pricing_plan_id":"cebpf4jnsgd1na2vs0mg"},{"bike_id":"92cb1211-4e82-42cc-87f8-4a0f9ca72995","system_id":"levelo_inurba_marseille","lat":43.337444,"lon":5.374475,"is_reserved":false,"is_disabled":false,"rental_uris":{"android":"levelo://app?vid=92cb1211-4e82-42cc-87f8-4a0f9ca72995","ios":"levelo://app?vid=92cb1211-4e82-42cc-87f8-4a0f9ca72995"},"vehicle_type_id":"4","last_reported":1733487518,"current_range_meters":36000,"station_id":"","pricing_plan_id":"cebpf4jnsgd1na2vs0mg"},{"bike_id":"7401184e-dcdc-4f69-89e9-1615045c1f8c","system_id":"levelo_inurba_marseille","lat":43.3004,"lon":5.38923,"is_reserved":false,"is_disabled":true,"rental_uris":{"android":"levelo://app?vid=7401184e-dcdc-4f69-89e9-1615045c1f8c","ios":"levelo://app?vid=7401184e-dcdc-4f69-89e9-1615045c1f8c"},"vehicle_type_id":"4","last_reported":1733487518,"current_range_meters":0,"station_id":"","pricing_plan_id":"cebpf4jnsgd1na2vs0mg"},{"bike_id":"cb97b00c-0871-41b4-8c95-a943ceeb06f3","system_id":"levelo_inurba_marseille","lat":43.29574,"lon":5.37513,"is_reserved":false,"is_disabled":true,"rental_uris":{"android":"levelo://app?vid=cb97b00c-0871-41b4-8c95-a943ceeb06f3","ios":"levelo://app?vid=cb97b00c-0871-41b4-8c95-a943ceeb06f3"},"vehicle_type_id":"4","last_reported":1733487518,"current_range_meters":0,"station_id":"ce4bgh92rcd13ifvqb50","pricing_plan_id":"cebpf4jnsgd1na2vs0mg"},{"bike_id":"d17c8516-9527-47a6-812f-8c90d576b3dc","system_id":"levelo_inurba_marseille","lat":43.29534,"lon":5.39401,"is_reserved":false,"is_disabled":false,"rental_uris":{"android":"levelo://app?vid=d17c8516-9527-47a6-812f-8c90d576b3dc","ios":"levelo://app?vid=d17c8516-9527-47a6-812f-8c90d576b3dc"},"vehicle_type_id":"4","last_reported":1733487518,"current_range_meters":32800,"station_id":"ce4bh292rcd13ifvqdf0","pricing_plan_id":"cebpf4jnsgd1na2vs0mg"},{"bike_id":"90b954b0-8077-4825-b5b0-8a1c9633aaaf","system_id":"levelo_inurba_marseille","lat":43.23187,"lon":5.39987,"is_reserved":false,"is_disabled":false,"rental_uris":{"android":"levelo://app?vid=90b954b0-8077-4825-b5b0-8a1c9633aaaf","ios":"levelo://app?vid=90b954b0-8077-4825-b5b0-8a1c9633aaaf"},"vehicle_type_id":"4","last_reported":1733487518,"current_range_meters":36800,"station_id":"ce4bhn12rcd13ifvqgqg","pricing_plan_id":"cebpf4jnsgd1na2vs0mg"},{"bike_id":"d1664eee-63a1-464b-a844-7dfb42454c93","system_id":"levelo_inurba_marseille","lat":43.28269,"lon":5.35068,"is_reserved":false,"is_disabled":true,"rental_uris":{"android":"levelo://app?vid=d1664eee-63a1-464b-a844-7dfb42454c93","ios":"levelo://app?vid=d1664eee-63a1-464b-a844-7dfb42454c93"},"vehicle_type_id":"4","last_reported":1733487518,"current_range_meters":1200,"station_id":"ce4bhbp2rcd13ifvqerg","pricing_plan_id":"cebpf4jnsgd1na2vs0mg"},{"bike_id":"2192e276-8ae2-4e00-8d2a-d3a83978fbd6","system_id":"levelo_inurba_marseille","lat":43.23156,"lon":5.43712,"is_reserved":false,"is_disabled":false,"rental_uris":{"android":"levelo://app?vid=2192e276-8ae2-4e00-8d2a-d3a83978fbd6","ios":"levelo://app?vid=2192e276-8ae2-4e00-8d2a-d3a83978fbd6"},"vehicle_type_id":"4","last_reported":1733487518,"current_range_meters":38800,"station_id":"ce4bhmp2rcd13ifvqgog","pricing_plan_id":"cebpf4jnsgd1na2vs0mg"},{"bike_id":"cf315912-6fc6-4c2f-9885-dbef65eb8065","system_id":"levelo_inurba_marseille","lat":43.2886,"lon":5.38876,"is_reserved":false,"is_disabled":false,"rental_uris":{"android":"levelo://app?vid=cf315912-6fc6-4c2f-9885-dbef65eb8065","ios":"levelo://app?vid=cf315912-6fc6-4c2f-9885-dbef65eb8065"},"vehicle_type_id":"4","last_reported":1733487518,"current_range_meters":10800,"station_id":"","pricing_plan_id":"cebpf4jnsgd1na2vs0mg"},{"bike_id":"026ddd5b-0082-46f0-83a7-36d0201c5593","system_id":"levelo_inurba_marseille","lat":43.2958,"lon":5.37517,"is_reserved":false,"is_disabled":false,"rental_uris":{"android":"levelo://app?vid=026ddd5b-0082-46f0-83a7-36d0201c5593","ios":"levelo://app?vid=026ddd5b-0082-46f0-83a7-36d0201c5593"},"vehicle_type_id":"4","last_reported":1733487518,"current_range_meters":32000,"station_id":"ce4bgh92rcd13ifvqb50","pricing_plan_id":"cebpf4jnsgd1na2vs0mg"},{"bike_id":"9cfb8fd8-6c4b-4034-ac4a-772d59138e69","system_id":"levelo_inurba_marseille","lat":43.26688,"lon":5.38278,"is_reserved":false,"is_disabled":false,"rental_uris":{"android":"levelo://app?vid=9cfb8fd8-6c4b-4034-ac4a-772d59138e69","ios":"levelo://app?vid=9cfb8fd8-6c4b-4034-ac4a-772d59138e69"},"vehicle_type_id":"4","last_reported":1733487518,"current_range_meters":25200,"station_id":"ce4bhg92rcd13ifvqf90","pricing_plan_id":"cebpf4jnsgd1na2vs0mg"},{"bike_id":"7e138b6d-da12-4dd1-aa5c-731ba9e5976b","system_id":"levelo_inurba_marseille","lat":43.31662,"lon":5.37372,"is_reserved":false,"is_disabled":true,"rental_uris":{"android":"levelo://app?vid=7e138b6d-da12-4dd1-aa5c-731ba9e5976b","ios":"levelo://app?vid=7e138b6d-da12-4dd1-aa5c-731ba9e5976b"},"vehicle_type_id":"4","last_reported":1733487518,"current_range_meters":0,"station_id":"","pricing_plan_id":"cebpf4jnsgd1na2vs0mg"},{"bike_id":"da92aff9-3fbb-4007-90fe-1a4d9eeeb4c2","system_id":"levelo_inurba_marseille","lat":43.30193,"lon":5.36609,"is_reserved":false,"is_disabled":false,"rental_uris":{"android":"levelo://app?vid=da92aff9-3fbb-4007-90fe-1a4d9eeeb4c2","ios":"levelo://app?vid=da92aff9-3fbb-4007-90fe-1a4d9eeeb4c2"},"vehicle_type_id":"4","last_reported":1733487518,"current_range_meters":30000,"station_id":"ce4bgrh2rcd13ifvqc8g","pricing_plan_id":"cebpf4jnsgd1na2vs0mg"},{"bike_id":"9c77a68d-2e99-44e9-b903-950fb6644d35","system_id":"levelo_inurba_marseille","lat":43.25265,"lon":5.39465,"is_reserved":false,"is_disabled":true,"rental_uris":{"android":"levelo://app?vid=9c77a68d-2e99-44e9-b903-950fb6644d35","ios":"levelo://app?vid=9c77a68d-2e99-44e9-b903-950fb6644d35"},"vehicle_type_id":"4","last_reported":1733487518,"current_range_meters":0,"station_id":"","pricing_plan_id":"cebpf4jnsgd1na2vs0mg"},{"bike_id":"32f89331-c3d7-4edd-8348-7bbfc423c98d","system_id":"levelo_inurba_marseille","lat":43.30137,"lon":5.38094,"is_reserved":false,"is_disabled":false,"rental_uris":{"android":"levelo://app?vid=32f89331-c3d7-4edd-8348-7bbfc423c98d","ios":"levelo://app?vid=32f89331-c3d7-4edd-8348-7bbfc423c98d"},"vehicle_type_id":"4","last_reported":1733487518,"current_range_meters":20400,"station_id":"ce4bgjp2rcd13ifvqbh0","pricing_plan_id":"cebpf4jnsgd1na2vs0mg"},{"bike_id":"c24928ae-8f0b-4132-827a-60ce7cac0e19","system_id":"levelo_inurba_marseille","lat":43.25719,"lon":5.41115,"is_reserved":false,"is_disabled":false,"rental_uris":{"android":"levelo://app?vid=c24928ae-8f0b-4132-827a-60ce7cac0e19","ios":"levelo://app?vid=c24928ae-8f0b-4132-827a-60ce7cac0e19"},"vehicle_type_id":"4","last_reported":1733487518,"current_range_meters":18000,"station_id":"ce4bhkp2rcd13ifvqgd0","pricing_plan_id":"cebpf4jnsgd1na2vs0mg"},{"bike_id":"20a08d51-7507-4fc7-a2eb-c8874573317d","system_id":"levelo_inurba_marseille","lat":43.24164,"lon":5.36405,"is_reserved":false,"is_disabled":false,"rental_uris":{"android":"levelo://app?vid=20a08d51-7507-4fc7-a2eb-c8874573317d","ios":"levelo://app?vid=20a08d51-7507-4fc7-a2eb-c8874573317d"},"vehicle_type_id":"4","last_reported":1733487518,"current_range_meters":22400,"station_id":"cpo36qri1sfpv3e86is0","pricing_plan_id":"cebpf4jnsgd1na2vs0mg"},{"bike_id":"45a99d3d-18c7-4943-8d60-ad1491c0fa82","system_id":"levelo_inurba_marseille","lat":43.27562,"lon":5.38422,"is_reserved":false,"is_disabled":true,"rental_uris":{"android":"levelo://app?vid=45a99d3d-18c7-4943-8d60-ad1491c0fa82","ios":"levelo://app?vid=45a99d3d-18c7-4943-8d60-ad1491c0fa82"},"vehicle_type_id":"4","last_reported":1733487518,"current_range_meters":38800,"station_id":"ce4bhh92rcd13ifvqfi0","pricing_plan_id":"cebpf4jnsgd1na2vs0mg"},{"bike_id":"2a76e2c4-f345-433e-ba85-e0577d027046","system_id":"levelo_inurba_marseille","lat":43.26552,"lon":5.37287,"is_reserved":false,"is_disabled":false,"rental_uris":{"android":"levelo://app?vid=2a76e2c4-f345-433e-ba85-e0577d027046","ios":"levelo://app?vid=2a76e2c4-f345-433e-ba85-e0577d027046"},"vehicle_type_id":"4","last_reported":1733487518,"current_range_meters":38000,"station_id":"ce4bhg12rcd13ifvqf70","pricing_plan_id":"cebpf4jnsgd1na2vs0mg"},{"bike_id":"83985555-c848-4b28-808f-8a7e7cf8519e","system_id":"levelo_inurba_marseille","lat":43.28115,"lon":5.43955,"is_reserved":false,"is_disabled":true,"rental_uris":{"android":"levelo://app?vid=83985555-c848-4b28-808f-8a7e7cf8519e","ios":"levelo://app?vid=83985555-c848-4b28-808f-8a7e7cf8519e"},"vehicle_type_id":"4","last_reported":1733487518,"current_range_meters":0,"station_id":"","pricing_plan_id":"cebpf4jnsgd1na2vs0mg"},{"bike_id":"f91c8cbe-f769-4278-963e-44c1e32d34d6","system_id":"levelo_inurba_marseille","lat":43.30912,"lon":5.3685,"is_reserved":false,"is_disabled":true,"rental_uris":{"android":"levelo://app?vid=f91c8cbe-f769-4278-963e-44c1e32d34d6","ios":"levelo://app?vid=f91c8cbe-f769-4278-963e-44c1e32d34d6"},"vehicle_type_id":"4","last_reported":1733487518,"current_range_meters":0,"station_id":"ce4bgn92rcd13ifvqbvg","pricing_plan_id":"cebpf4jnsgd1na2vs0mg"},{"bike_id":"84eddd35-4076-462c-b0e4-9c17c748aeff","system_id":"levelo_inurba_marseille","lat":43.337444,"lon":5.374475,"is_reserved":false,"is_disabled":false,"rental_uris":{"android":"levelo://app?vid=84eddd35-4076-462c-b0e4-9c17c748aeff","ios":"levelo://app?vid=84eddd35-4076-462c-b0e4-9c17c748aeff"},"vehicle_type_id":"4","last_reported":1733487518,"current_range_meters":38000,"station_id":"","pricing_plan_id":"cebpf4jnsgd1na2vs0mg"},{"bike_id":"f0d3a8b0-7f91-4a10-9d7c-db78ae274294","system_id":"levelo_inurba_marseille","lat":43.30884,"lon":5.37195,"is_reserved":false,"is_disabled":false,"rental_uris":{"android":"levelo://app?vid=f0d3a8b0-7f91-4a10-9d7c-db78ae274294","ios":"levelo://app?vid=f0d3a8b0-7f91-4a10-9d7c-db78ae274294"},"vehicle_type_id":"4","last_reported":1733487518,"current_range_meters":12800,"station_id":"ce4bguh2rcd13ifvqckg","pricing_plan_id":"cebpf4jnsgd1na2vs0mg"},{"bike_id":"36ae7a64-be31-48b5-96af-57a92ccb07c2","system_id":"levelo_inurba_marseille","lat":43.30927,"lon":5.40145,"is_reserved":false,"is_disabled":false,"rental_uris":{"android":"levelo://app?vid=36ae7a64-be31-48b5-96af-57a92ccb07c2","ios":"levelo://app?vid=36ae7a64-be31-48b5-96af-57a92ccb07c2"},"vehicle_type_id":"4","last_reported":1733487518,"current_range_meters":35200,"station_id":"ce4bgvp2rcd13ifvqct0","pricing_plan_id":"cebpf4jnsgd1na2vs0mg"},{"bike_id":"0866d2b1-9d4f-4dd5-918c-ea547c82d55f","system_id":"levelo_inurba_marseille","lat":43.29419,"lon":5.38622,"is_reserved":false,"is_disabled":false,"rental_uris":{"android":"levelo://app?vid=0866d2b1-9d4f-4dd5-918c-ea547c82d55f","ios":"levelo://app?vid=0866d2b1-9d4f-4dd5-918c-ea547c82d55f"},"vehicle_type_id":"4","last_reported":1733487518,"current_range_meters":20400,"station_id":"ce4bh2h2rcd13ifvqdh0","pricing_plan_id":"cebpf4jnsgd1na2vs0mg"},{"bike_id":"a8264fb2-dad4-4c52-9230-cf80b47302d6","system_id":"levelo_inurba_marseille","lat":43.31997,"lon":5.38147,"is_reserved":false,"is_disabled":false,"rental_uris":{"android":"levelo://app?vid=a8264fb2-dad4-4c52-9230-cf80b47302d6","ios":"levelo://app?vid=a8264fb2-dad4-4c52-9230-cf80b47302d6"},"vehicle_type_id":"4","last_reported":1733487518,"current_range_meters":12400,"station_id":"ce4bhr12rcd13ifvqhpg","pricing_plan_id":"cebpf4jnsgd1na2vs0mg"},{"bike_id":"5edf82fa-e9d0-4d1f-98f1-37c98092771a","system_id":"levelo_inurba_marseille","lat":43.23201,"lon":5.35549,"is_reserved":false,"is_disabled":false,"rental_uris":{"android":"levelo://app?vid=5edf82fa-e9d0-4d1f-98f1-37c98092771a","ios":"levelo://app?vid=5edf82fa-e9d0-4d1f-98f1-37c98092771a"},"vehicle_type_id":"4","last_reported":1733487518,"current_range_meters":39200,"station_id":"ce4bhu92rcd13ifvqi70","pricing_plan_id":"cebpf4jnsgd1na2vs0mg"},{"bike_id":"d0f7dbd9-a519-4870-b6bf-1f205ab52edb","system_id":"levelo_inurba_marseille","lat":43.27616,"lon":5.36112,"is_reserved":false,"is_disabled":false,"rental_uris":{"android":"levelo://app?vid=d0f7dbd9-a519-4870-b6bf-1f205ab52edb","ios":"levelo://app?vid=d0f7dbd9-a519-4870-b6bf-1f205ab52edb"},"vehicle_type_id":"4","last_reported":1733487518,"current_range_meters":16400,"station_id":"ce4bgj92rcd13ifvqbe0","pricing_plan_id":"cebpf4jnsgd1na2vs0mg"},{"bike_id":"b78486dc-2228-495e-b45a-5e3bac63a2d4","system_id":"levelo_inurba_marseille","lat":43.25939,"lon":5.4091,"is_reserved":false,"is_disabled":false,"rental_uris":{"android":"levelo://app?vid=b78486dc-2228-495e-b45a-5e3bac63a2d4","ios":"levelo://app?vid=b78486dc-2228-495e-b45a-5e3bac63a2d4"},"vehicle_type_id":"4","last_reported":1733487518,"current_range_meters":16000,"station_id":"ce4bhm92rcd13ifvqglg","pricing_plan_id":"cebpf4jnsgd1na2vs0mg"},{"bike_id":"a87d8c14-4963-4d3a-93d4-e166abfb1bc7","system_id":"levelo_inurba_marseille","lat":43.28462,"lon":5.359,"is_reserved":false,"is_disabled":false,"rental_uris":{"android":"levelo://app?vid=a87d8c14-4963-4d3a-93d4-e166abfb1bc7","ios":"levelo://app?vid=a87d8c14-4963-4d3a-93d4-e166abfb1bc7"},"vehicle_type_id":"4","last_reported":1733487518,"current_range_meters":30000,"station_id":"ce4bhah2rcd13ifvqei0","pricing_plan_id":"cebpf4jnsgd1na2vs0mg"},{"bike_id":"2278aa7c-669c-4263-9ba8-1156e5deaf60","system_id":"levelo_inurba_marseille","lat":43.23187,"lon":5.39988,"is_reserved":false,"is_disabled":false,"rental_uris":{"android":"levelo://app?vid=2278aa7c-669c-4263-9ba8-1156e5deaf60","ios":"levelo://app?vid=2278aa7c-669c-4263-9ba8-1156e5deaf60"},"vehicle_type_id":"4","last_reported":1733487518,"current_range_meters":38800,"station_id":"ce4bhn12rcd13ifvqgqg","pricing_plan_id":"cebpf4jnsgd1na2vs0mg"},{"bike_id":"4d82eb0e-eeca-48e4-a6ea-28ba45a5849b","system_id":"levelo_inurba_marseille","lat":43.26563,"lon":5.39003,"is_reserved":false,"is_disabled":false,"rental_uris":{"android":"levelo://app?vid=4d82eb0e-eeca-48e4-a6ea-28ba45a5849b","ios":"levelo://app?vid=4d82eb0e-eeca-48e4-a6ea-28ba45a5849b"},"vehicle_type_id":"4","last_reported":1733487518,"current_range_meters":38800,"station_id":"ce4bhe12rcd13ifvqf30","pricing_plan_id":"cebpf4jnsgd1na2vs0mg"},{"bike_id":"3f247a68-e864-4f0e-b70a-128bd5e68519","system_id":"levelo_inurba_marseille","lat":43.2582,"lon":5.39435,"is_reserved":false,"is_disabled":false,"rental_uris":{"android":"levelo://app?vid=3f247a68-e864-4f0e-b70a-128bd5e68519","ios":"levelo://app?vid=3f247a68-e864-4f0e-b70a-128bd5e68519"},"vehicle_type_id":"4","last_reported":1733487518,"current_range_meters":31200,"station_id":"ce4bhip2rcd13ifvqft0","pricing_plan_id":"cebpf4jnsgd1na2vs0mg"},{"bike_id":"52e37e86-f3fa-4447-994a-6c4d16c9cc6c","system_id":"levelo_inurba_marseille","lat":43.25493,"lon":5.37648,"is_reserved":false,"is_disabled":true,"rental_uris":{"android":"levelo://app?vid=52e37e86-f3fa-4447-994a-6c4d16c9cc6c","ios":"levelo://app?vid=52e37e86-f3fa-4447-994a-6c4d16c9cc6c"},"vehicle_type_id":"4","last_reported":1733487518,"current_range_meters":25200,"station_id":"ce4bhh12rcd13ifvqff0","pricing_plan_id":"cebpf4jnsgd1na2vs0mg"},{"bike_id":"6ab99516-c9b5-4294-ac9c-0785f1b2c910","system_id":"levelo_inurba_marseille","lat":43.27568,"lon":5.38418,"is_reserved":false,"is_disabled":true,"rental_uris":{"android":"levelo://app?vid=6ab99516-c9b5-4294-ac9c-0785f1b2c910","ios":"levelo://app?vid=6ab99516-c9b5-4294-ac9c-0785f1b2c910"},"vehicle_type_id":"4","last_reported":1733487518,"current_range_meters":38800,"station_id":"ce4bhh92rcd13ifvqfi0","pricing_plan_id":"cebpf4jnsgd1na2vs0mg"},{"bike_id":"25002d25-0262-455c-99c2-7fadaa7cefe4","system_id":"levelo_inurba_marseille","lat":43.30946,"lon":5.39029,"is_reserved":false,"is_disabled":false,"rental_uris":{"android":"levelo://app?vid=25002d25-0262-455c-99c2-7fadaa7cefe4","ios":"levelo://app?vid=25002d25-0262-455c-99c2-7fadaa7cefe4"},"vehicle_type_id":"4","last_reported":1733487518,"current_range_meters":36000,"station_id":"ce4bgup2rcd13ifvqco0","pricing_plan_id":"cebpf4jnsgd1na2vs0mg"},{"bike_id":"9202c63e-372c-4469-a5c1-8e35757d1940","system_id":"levelo_inurba_marseille","lat":43.30053,"lon":5.38832,"is_reserved":false,"is_disabled":true,"rental_uris":{"android":"levelo://app?vid=9202c63e-372c-4469-a5c1-8e35757d1940","ios":"levelo://app?vid=9202c63e-372c-4469-a5c1-8e35757d1940"},"vehicle_type_id":"4","last_reported":1733487518,"current_range_meters":0,"station_id":"","pricing_plan_id":"cebpf4jnsgd1na2vs0mg"},{"bike_id":"4d75ea9c-71c5-44e7-a3ed-dd13a7651159","system_id":"levelo_inurba_marseille","lat":43.30803,"lon":5.43528,"is_reserved":false,"is_disabled":false,"rental_uris":{"android":"levelo://app?vid=4d75ea9c-71c5-44e7-a3ed-dd13a7651159","ios":"levelo://app?vid=4d75ea9c-71c5-44e7-a3ed-dd13a7651159"},"vehicle_type_id":"4","last_reported":1733487518,"current_range_meters":22000,"station_id":"ce4bhph2rcd13ifvqheg","pricing_plan_id":"cebpf4jnsgd1na2vs0mg"},{"bike_id":"df1c4bb0-1145-4b7b-8375-44349fe11c9b","system_id":"levelo_inurba_marseille","lat":43.31327,"lon":5.39697,"is_reserved":false,"is_disabled":false,"rental_uris":{"android":"levelo://app?vid=df1c4bb0-1145-4b7b-8375-44349fe11c9b","ios":"levelo://app?vid=df1c4bb0-1145-4b7b-8375-44349fe11c9b"},"vehicle_type_id":"4","last_reported":1733487518,"current_range_meters":22800,"station_id":"ce4bgvp2rcd13ifvqcu0","pricing_plan_id":"cebpf4jnsgd1na2vs0mg"},{"bike_id":"fc06ed5f-6e14-4c88-a108-5cae3ed536ba","system_id":"levelo_inurba_marseille","lat":43.30533,"lon":5.36531,"is_reserved":false,"is_disabled":false,"rental_uris":{"android":"levelo://app?vid=fc06ed5f-6e14-4c88-a108-5cae3ed536ba","ios":"levelo://app?vid=fc06ed5f-6e14-4c88-a108-5cae3ed536ba"},"vehicle_type_id":"4","last_reported":1733487518,"current_range_meters":20800,"station_id":"ce4bgs12rcd13ifvqcag","pricing_plan_id":"cebpf4jnsgd1na2vs0mg"},{"bike_id":"0deb7b46-3bee-4382-87b1-3984fb62457f","system_id":"levelo_inurba_marseille","lat":43.28751,"lon":5.38916,"is_reserved":false,"is_disabled":true,"rental_uris":{"android":"levelo://app?vid=0deb7b46-3bee-4382-87b1-3984fb62457f","ios":"levelo://app?vid=0deb7b46-3bee-4382-87b1-3984fb62457f"},"vehicle_type_id":"4","last_reported":1733487518,"current_range_meters":30800,"station_id":"","pricing_plan_id":"cebpf4jnsgd1na2vs0mg"},{"bike_id":"cf3e6ea0-09ff-406c-b357-28a6a6117f94","system_id":"levelo_inurba_marseille","lat":43.22932,"lon":5.35378,"is_reserved":false,"is_disabled":false,"rental_uris":{"android":"levelo://app?vid=cf3e6ea0-09ff-406c-b357-28a6a6117f94","ios":"levelo://app?vid=cf3e6ea0-09ff-406c-b357-28a6a6117f94"},"vehicle_type_id":"4","last_reported":1733487518,"current_range_meters":38800,"station_id":"cpo3532slgdg3j2ikp40","pricing_plan_id":"cebpf4jnsgd1na2vs0mg"},{"bike_id":"d8d379fc-599e-41d5-9d4f-10bd600c63b1","system_id":"levelo_inurba_marseille","lat":43.31434,"lon":5.37445,"is_reserved":false,"is_disabled":false,"rental_uris":{"android":"levelo://app?vid=d8d379fc-599e-41d5-9d4f-10bd600c63b1","ios":"levelo://app?vid=d8d379fc-599e-41d5-9d4f-10bd600c63b1"},"vehicle_type_id":"4","last_reported":1733487518,"current_range_meters":28400,"station_id":"","pricing_plan_id":"cebpf4jnsgd1na2vs0mg"},{"bike_id":"719e509a-25e4-4b1b-9830-f708d85d7593","system_id":"levelo_inurba_marseille","lat":43.29404,"lon":5.37451,"is_reserved":false,"is_disabled":true,"rental_uris":{"android":"levelo://app?vid=719e509a-25e4-4b1b-9830-f708d85d7593","ios":"levelo://app?vid=719e509a-25e4-4b1b-9830-f708d85d7593"},"vehicle_type_id":"4","last_reported":1733487518,"current_range_meters":0,"station_id":"","pricing_plan_id":"cebpf4jnsgd1na2vs0mg"},{"bike_id":"e70b096d-c433-4c78-9336-7e05af6b517c","system_id":"levelo_inurba_marseille","lat":43.30641,"lon":5.40081,"is_reserved":false,"is_disabled":false,"rental_uris":{"android":"levelo://app?vid=e70b096d-c433-4c78-9336-7e05af6b517c","ios":"levelo://app?vid=e70b096d-c433-4c78-9336-7e05af6b517c"},"vehicle_type_id":"4","last_reported":1733487518,"current_range_meters":38800,"station_id":"ce4bh112rcd13ifvqda0","pricing_plan_id":"cebpf4jnsgd1na2vs0mg"},{"bike_id":"4104f221-5b60-4c5c-96ac-09d09f63c366","system_id":"levelo_inurba_marseille","lat":43.2781,"lon":5.40714,"is_reserved":false,"is_disabled":false,"rental_uris":{"android":"levelo://app?vid=4104f221-5b60-4c5c-96ac-09d09f63c366","ios":"levelo://app?vid=4104f221-5b60-4c5c-96ac-09d09f63c366"},"vehicle_type_id":"4","last_reported":1733487518,"current_range_meters":28400,"station_id":"ce4bhnh2rcd13ifvqgtg","pricing_plan_id":"cebpf4jnsgd1na2vs0mg"},{"bike_id":"7a0a2714-105e-4622-8b3e-a7dd62dc6941","system_id":"levelo_inurba_marseille","lat":43.29266,"lon":5.384189,"is_reserved":false,"is_disabled":true,"rental_uris":{"android":"levelo://app?vid=7a0a2714-105e-4622-8b3e-a7dd62dc6941","ios":"levelo://app?vid=7a0a2714-105e-4622-8b3e-a7dd62dc6941"},"vehicle_type_id":"4","last_reported":1733487518,"current_range_meters":0,"station_id":"","pricing_plan_id":"cebpf4jnsgd1na2vs0mg"},{"bike_id":"25e2a43e-a99f-4fd4-9ba3-8fbb7d6784ba","system_id":"levelo_inurba_marseille","lat":43.26554,"lon":5.37284,"is_reserved":false,"is_disabled":false,"rental_uris":{"android":"levelo://app?vid=25e2a43e-a99f-4fd4-9ba3-8fbb7d6784ba","ios":"levelo://app?vid=25e2a43e-a99f-4fd4-9ba3-8fbb7d6784ba"},"vehicle_type_id":"4","last_reported":1733487518,"current_range_meters":18000,"station_id":"ce4bhg12rcd13ifvqf70","pricing_plan_id":"cebpf4jnsgd1na2vs0mg"},{"bike_id":"d58c6100-d497-4193-a627-5c824ac6dcba","system_id":"levelo_inurba_marseille","lat":43.289362,"lon":5.366529,"is_reserved":false,"is_disabled":false,"rental_uris":{"android":"levelo://app?vid=d58c6100-d497-4193-a627-5c824ac6dcba","ios":"levelo://app?vid=d58c6100-d497-4193-a627-5c824ac6dcba"},"vehicle_type_id":"4","last_reported":1733487518,"current_range_meters":25200,"station_id":"ce4bhap2rcd13ifvqek0","pricing_plan_id":"cebpf4jnsgd1na2vs0mg"},{"bike_id":"7c0831eb-c871-4f41-9e16-a88fd7f510e7","system_id":"levelo_inurba_marseille","lat":43.30539,"lon":5.36539,"is_reserved":false,"is_disabled":false,"rental_uris":{"android":"levelo://app?vid=7c0831eb-c871-4f41-9e16-a88fd7f510e7","ios":"levelo://app?vid=7c0831eb-c871-4f41-9e16-a88fd7f510e7"},"vehicle_type_id":"4","last_reported":1733487518,"current_range_meters":26000,"station_id":"ce4bgs12rcd13ifvqcag","pricing_plan_id":"cebpf4jnsgd1na2vs0mg"},{"bike_id":"2b6d8e3a-eba6-48ab-ae54-ba4181438667","system_id":"levelo_inurba_marseille","lat":43.28937,"lon":5.39638,"is_reserved":false,"is_disabled":true,"rental_uris":{"android":"levelo://app?vid=2b6d8e3a-eba6-48ab-ae54-ba4181438667","ios":"levelo://app?vid=2b6d8e3a-eba6-48ab-ae54-ba4181438667"},"vehicle_type_id":"4","last_reported":1733487518,"current_range_meters":0,"station_id":"ce4bh3h2rcd13ifvqdn0","pricing_plan_id":"cebpf4jnsgd1na2vs0mg"},{"bike_id":"f7e50027-cc71-462b-a690-6201bce1409e","system_id":"levelo_inurba_marseille","lat":43.30286,"lon":5.37704,"is_reserved":false,"is_disabled":false,"rental_uris":{"android":"levelo://app?vid=f7e50027-cc71-462b-a690-6201bce1409e","ios":"levelo://app?vid=f7e50027-cc71-462b-a690-6201bce1409e"},"vehicle_type_id":"4","last_reported":1733487518,"current_range_meters":38800,"station_id":"ce4bguh2rcd13ifvqcj0","pricing_plan_id":"cebpf4jnsgd1na2vs0mg"},{"bike_id":"49212fa0-b672-419d-a122-9b35df58f5b6","system_id":"levelo_inurba_marseille","lat":43.23184,"lon":5.39987,"is_reserved":false,"is_disabled":false,"rental_uris":{"android":"levelo://app?vid=49212fa0-b672-419d-a122-9b35df58f5b6","ios":"levelo://app?vid=49212fa0-b672-419d-a122-9b35df58f5b6"},"vehicle_type_id":"4","last_reported":1733487518,"current_range_meters":19600,"station_id":"ce4bhn12rcd13ifvqgqg","pricing_plan_id":"cebpf4jnsgd1na2vs0mg"},{"bike_id":"07f04ac9-2c2b-4671-b17b-6d0d555978be","system_id":"levelo_inurba_marseille","lat":43.29979,"lon":5.385,"is_reserved":false,"is_disabled":false,"rental_uris":{"android":"levelo://app?vid=07f04ac9-2c2b-4671-b17b-6d0d555978be","ios":"levelo://app?vid=07f04ac9-2c2b-4671-b17b-6d0d555978be"},"vehicle_type_id":"4","last_reported":1733487518,"current_range_meters":24400,"station_id":"ce4bgj92rcd13ifvqbd0","pricing_plan_id":"cebpf4jnsgd1na2vs0mg"},{"bike_id":"7cab2b0e-b85d-461c-a6ff-00d3bd0ccb9d","system_id":"levelo_inurba_marseille","lat":43.29102,"lon":5.38131,"is_reserved":false,"is_disabled":true,"rental_uris":{"android":"levelo://app?vid=7cab2b0e-b85d-461c-a6ff-00d3bd0ccb9d","ios":"levelo://app?vid=7cab2b0e-b85d-461c-a6ff-00d3bd0ccb9d"},"vehicle_type_id":"4","last_reported":1733487518,"current_range_meters":0,"station_id":"ce4bh512rcd13ifvqe2g","pricing_plan_id":"cebpf4jnsgd1na2vs0mg"},{"bike_id":"505217fb-c1a1-4404-bab9-a11810c75a76","system_id":"levelo_inurba_marseille","lat":43.30599,"lon":5.37226,"is_reserved":false,"is_disabled":false,"rental_uris":{"android":"levelo://app?vid=505217fb-c1a1-4404-bab9-a11810c75a76","ios":"levelo://app?vid=505217fb-c1a1-4404-bab9-a11810c75a76"},"vehicle_type_id":"4","last_reported":1733487518,"current_range_meters":12000,"station_id":"ce4bgqh2rcd13ifvqc4g","pricing_plan_id":"cebpf4jnsgd1na2vs0mg"},{"bike_id":"b01ba929-1580-401b-973d-e4a15d746d4a","system_id":"levelo_inurba_marseille","lat":43.22928,"lon":5.35377,"is_reserved":false,"is_disabled":false,"rental_uris":{"android":"levelo://app?vid=b01ba929-1580-401b-973d-e4a15d746d4a","ios":"levelo://app?vid=b01ba929-1580-401b-973d-e4a15d746d4a"},"vehicle_type_id":"4","last_reported":1733487518,"current_range_meters":9200,"station_id":"cpo3532slgdg3j2ikp40","pricing_plan_id":"cebpf4jnsgd1na2vs0mg"},{"bike_id":"7519ef7a-d08a-49a3-a099-389c2c29dff3","system_id":"levelo_inurba_marseille","lat":43.31331,"lon":5.37041,"is_reserved":false,"is_disabled":true,"rental_uris":{"android":"levelo://app?vid=7519ef7a-d08a-49a3-a099-389c2c29dff3","ios":"levelo://app?vid=7519ef7a-d08a-49a3-a099-389c2c29dff3"},"vehicle_type_id":"4","last_reported":1733487518,"current_range_meters":0,"station_id":"","pricing_plan_id":"cebpf4jnsgd1na2vs0mg"},{"bike_id":"8c1e28b4-904f-48d7-ba6d-d3b5b5d05922","system_id":"levelo_inurba_marseille","lat":43.29379,"lon":5.40101,"is_reserved":false,"is_disabled":true,"rental_uris":{"android":"levelo://app?vid=8c1e28b4-904f-48d7-ba6d-d3b5b5d05922","ios":"levelo://app?vid=8c1e28b4-904f-48d7-ba6d-d3b5b5d05922"},"vehicle_type_id":"4","last_reported":1733487518,"current_range_meters":0,"station_id":"","pricing_plan_id":"cebpf4jnsgd1na2vs0mg"},{"bike_id":"0a43f817-3d21-4907-aab1-172705ef3170","system_id":"levelo_inurba_marseille","lat":43.2797,"lon":5.40481,"is_reserved":false,"is_disabled":false,"rental_uris":{"android":"levelo://app?vid=0a43f817-3d21-4907-aab1-172705ef3170","ios":"levelo://app?vid=0a43f817-3d21-4907-aab1-172705ef3170"},"vehicle_type_id":"4","last_reported":1733487518,"current_range_meters":32000,"station_id":"","pricing_plan_id":"cebpf4jnsgd1na2vs0mg"},{"bike_id":"7b9b3679-8df0-485d-a17a-ac62ea96167a","system_id":"levelo_inurba_marseille","lat":43.279753,"lon":5.386527,"is_reserved":false,"is_disabled":true,"rental_uris":{"android":"levelo://app?vid=7b9b3679-8df0-485d-a17a-ac62ea96167a","ios":"levelo://app?vid=7b9b3679-8df0-485d-a17a-ac62ea96167a"},"vehicle_type_id":"4","last_reported":1733487518,"current_range_meters":14000,"station_id":"","pricing_plan_id":"cebpf4jnsgd1na2vs0mg"},{"bike_id":"1064e1f8-f35f-4874-a95e-0574bf1ec95f","system_id":"levelo_inurba_marseille","lat":43.29164,"lon":5.37153,"is_reserved":false,"is_disabled":false,"rental_uris":{"android":"levelo://app?vid=1064e1f8-f35f-4874-a95e-0574bf1ec95f","ios":"levelo://app?vid=1064e1f8-f35f-4874-a95e-0574bf1ec95f"},"vehicle_type_id":"4","last_reported":1733487518,"current_range_meters":36000,"station_id":"ce4bha92rcd13ifvqeh0","pricing_plan_id":"cebpf4jnsgd1na2vs0mg"},{"bike_id":"0739cb89-586c-4275-beff-81c62ae67a52","system_id":"levelo_inurba_marseille","lat":43.27815,"lon":5.40709,"is_reserved":false,"is_disabled":true,"rental_uris":{"android":"levelo://app?vid=0739cb89-586c-4275-beff-81c62ae67a52","ios":"levelo://app?vid=0739cb89-586c-4275-beff-81c62ae67a52"},"vehicle_type_id":"4","last_reported":1733487518,"current_range_meters":0,"station_id":"ce4bhnh2rcd13ifvqgtg","pricing_plan_id":"cebpf4jnsgd1na2vs0mg"},{"bike_id":"237fb8c5-eaa2-455d-99e0-c028635df66a","system_id":"levelo_inurba_marseille","lat":43.29714,"lon":5.37697,"is_reserved":false,"is_disabled":false,"rental_uris":{"android":"levelo://app?vid=237fb8c5-eaa2-455d-99e0-c028635df66a","ios":"levelo://app?vid=237fb8c5-eaa2-455d-99e0-c028635df66a"},"vehicle_type_id":"4","last_reported":1733487518,"current_range_meters":26800,"station_id":"ce4bgkh2rcd13ifvqbl0","pricing_plan_id":"cebpf4jnsgd1na2vs0mg"},{"bike_id":"19477414-b2b7-4e46-9d48-67c6b1fde23f","system_id":"levelo_inurba_marseille","lat":43.29368,"lon":5.3785,"is_reserved":false,"is_disabled":false,"rental_uris":{"android":"levelo://app?vid=19477414-b2b7-4e46-9d48-67c6b1fde23f","ios":"levelo://app?vid=19477414-b2b7-4e46-9d48-67c6b1fde23f"},"vehicle_type_id":"4","last_reported":1733487518,"current_range_meters":38800,"station_id":"ce4bgjh2rcd13ifvqbf0","pricing_plan_id":"cebpf4jnsgd1na2vs0mg"},{"bike_id":"1ee74f47-c25e-4fca-8cea-1505429867e2","system_id":"levelo_inurba_marseille","lat":43.30305,"lon":5.3935,"is_reserved":false,"is_disabled":false,"rental_uris":{"android":"levelo://app?vid=1ee74f47-c25e-4fca-8cea-1505429867e2","ios":"levelo://app?vid=1ee74f47-c25e-4fca-8cea-1505429867e2"},"vehicle_type_id":"4","last_reported":1733487518,"current_range_meters":24800,"station_id":"","pricing_plan_id":"cebpf4jnsgd1na2vs0mg"},{"bike_id":"0161c719-40c7-4cb6-b4bd-d749611fdf4f","system_id":"levelo_inurba_marseille","lat":43.27834,"lon":5.39211,"is_reserved":false,"is_disabled":false,"rental_uris":{"android":"levelo://app?vid=0161c719-40c7-4cb6-b4bd-d749611fdf4f","ios":"levelo://app?vid=0161c719-40c7-4cb6-b4bd-d749611fdf4f"},"vehicle_type_id":"4","last_reported":1733487518,"current_range_meters":18800,"station_id":"ce4bhjp2rcd13ifvqga0","pricing_plan_id":"cebpf4jnsgd1na2vs0mg"},{"bike_id":"c1f8d58c-9e25-4eef-811b-7a74bf74c5d7","system_id":"levelo_inurba_marseille","lat":43.29866,"lon":5.39735,"is_reserved":false,"is_disabled":false,"rental_uris":{"android":"levelo://app?vid=c1f8d58c-9e25-4eef-811b-7a74bf74c5d7","ios":"levelo://app?vid=c1f8d58c-9e25-4eef-811b-7a74bf74c5d7"},"vehicle_type_id":"4","last_reported":1733487518,"current_range_meters":25200,"station_id":"ce4bh0h2rcd13ifvqd50","pricing_plan_id":"cebpf4jnsgd1na2vs0mg"},{"bike_id":"5fa3baa6-4a87-449f-b166-d4720e1f8a88","system_id":"levelo_inurba_marseille","lat":43.24083,"lon":5.37765,"is_reserved":false,"is_disabled":false,"rental_uris":{"android":"levelo://app?vid=5fa3baa6-4a87-449f-b166-d4720e1f8a88","ios":"levelo://app?vid=5fa3baa6-4a87-449f-b166-d4720e1f8a88"},"vehicle_type_id":"4","last_reported":1733487518,"current_range_meters":20400,"station_id":"ce4bhnp2rcd13ifvqgvg","pricing_plan_id":"cebpf4jnsgd1na2vs0mg"},{"bike_id":"581367ce-481c-40c1-a0e2-d5680f7b4da1","system_id":"levelo_inurba_marseille","lat":43.25928,"lon":5.40896,"is_reserved":false,"is_disabled":false,"rental_uris":{"android":"levelo://app?vid=581367ce-481c-40c1-a0e2-d5680f7b4da1","ios":"levelo://app?vid=581367ce-481c-40c1-a0e2-d5680f7b4da1"},"vehicle_type_id":"4","last_reported":1733487518,"current_range_meters":38000,"station_id":"ce4bhm92rcd13ifvqglg","pricing_plan_id":"cebpf4jnsgd1na2vs0mg"},{"bike_id":"cd30467e-c906-4709-b79b-d36d496b87f4","system_id":"levelo_inurba_marseille","lat":43.26212,"lon":5.37445,"is_reserved":false,"is_disabled":false,"rental_uris":{"android":"levelo://app?vid=cd30467e-c906-4709-b79b-d36d496b87f4","ios":"levelo://app?vid=cd30467e-c906-4709-b79b-d36d496b87f4"},"vehicle_type_id":"4","last_reported":1733487518,"current_range_meters":38800,"station_id":"ce4bhgp2rcd13ifvqfc0","pricing_plan_id":"cebpf4jnsgd1na2vs0mg"},{"bike_id":"92793eb0-63d0-4667-9caa-cff3c9ab621e","system_id":"levelo_inurba_marseille","lat":43.24801,"lon":5.37455,"is_reserved":false,"is_disabled":false,"rental_uris":{"android":"levelo://app?vid=92793eb0-63d0-4667-9caa-cff3c9ab621e","ios":"levelo://app?vid=92793eb0-63d0-4667-9caa-cff3c9ab621e"},"vehicle_type_id":"4","last_reported":1733487518,"current_range_meters":34000,"station_id":"ce4bhgh2rcd13ifvqfb0","pricing_plan_id":"cebpf4jnsgd1na2vs0mg"},{"bike_id":"0ada4ac8-82be-41ab-a4d6-04558624c236","system_id":"levelo_inurba_marseille","lat":43.32483,"lon":5.36569,"is_reserved":false,"is_disabled":false,"rental_uris":{"android":"levelo://app?vid=0ada4ac8-82be-41ab-a4d6-04558624c236","ios":"levelo://app?vid=0ada4ac8-82be-41ab-a4d6-04558624c236"},"vehicle_type_id":"4","last_reported":1733487518,"current_range_meters":28000,"station_id":"ce4bhs12rcd13ifvqhvg","pricing_plan_id":"cebpf4jnsgd1na2vs0mg"},{"bike_id":"54ba71e0-d884-4f9c-98ee-7a5d8c90a2cb","system_id":"levelo_inurba_marseille","lat":43.27817,"lon":5.40718,"is_reserved":false,"is_disabled":false,"rental_uris":{"android":"levelo://app?vid=54ba71e0-d884-4f9c-98ee-7a5d8c90a2cb","ios":"levelo://app?vid=54ba71e0-d884-4f9c-98ee-7a5d8c90a2cb"},"vehicle_type_id":"4","last_reported":1733487518,"current_range_meters":39200,"station_id":"ce4bhnh2rcd13ifvqgtg","pricing_plan_id":"cebpf4jnsgd1na2vs0mg"},{"bike_id":"710c9d13-8a64-4ca7-ba64-fd3194714b19","system_id":"levelo_inurba_marseille","lat":43.30801,"lon":5.3733,"is_reserved":false,"is_disabled":false,"rental_uris":{"android":"levelo://app?vid=710c9d13-8a64-4ca7-ba64-fd3194714b19","ios":"levelo://app?vid=710c9d13-8a64-4ca7-ba64-fd3194714b19"},"vehicle_type_id":"4","last_reported":1733487518,"current_range_meters":16800,"station_id":"","pricing_plan_id":"cebpf4jnsgd1na2vs0mg"},{"bike_id":"a4b9e425-64b8-4ce2-a5ab-5fcc5d1230a4","system_id":"levelo_inurba_marseille","lat":43.32103,"lon":5.36775,"is_reserved":false,"is_disabled":false,"rental_uris":{"android":"levelo://app?vid=a4b9e425-64b8-4ce2-a5ab-5fcc5d1230a4","ios":"levelo://app?vid=a4b9e425-64b8-4ce2-a5ab-5fcc5d1230a4"},"vehicle_type_id":"4","last_reported":1733487518,"current_range_meters":30000,"station_id":"ce4bhrh2rcd13ifvqhug","pricing_plan_id":"cebpf4jnsgd1na2vs0mg"},{"bike_id":"51991a0a-fe9c-412b-8c2b-242ee7813ef4","system_id":"levelo_inurba_marseille","lat":43.23964,"lon":5.36634,"is_reserved":false,"is_disabled":false,"rental_uris":{"android":"levelo://app?vid=51991a0a-fe9c-412b-8c2b-242ee7813ef4","ios":"levelo://app?vid=51991a0a-fe9c-412b-8c2b-242ee7813ef4"},"vehicle_type_id":"4","last_reported":1733487518,"current_range_meters":39200,"station_id":"ce4bhi12rcd13ifvqfp0","pricing_plan_id":"cebpf4jnsgd1na2vs0mg"},{"bike_id":"fd98eaa9-4d55-4e7b-aa90-0d14707466d9","system_id":"levelo_inurba_marseille","lat":43.337444,"lon":5.374475,"is_reserved":false,"is_disabled":true,"rental_uris":{"android":"levelo://app?vid=fd98eaa9-4d55-4e7b-aa90-0d14707466d9","ios":"levelo://app?vid=fd98eaa9-4d55-4e7b-aa90-0d14707466d9"},"vehicle_type_id":"4","last_reported":1733487518,"current_range_meters":0,"station_id":"","pricing_plan_id":"cebpf4jnsgd1na2vs0mg"},{"bike_id":"cce6f420-4439-4f23-b16c-85a1cc91ce44","system_id":"levelo_inurba_marseille","lat":43.26212,"lon":5.37442,"is_reserved":false,"is_disabled":false,"rental_uris":{"android":"levelo://app?vid=cce6f420-4439-4f23-b16c-85a1cc91ce44","ios":"levelo://app?vid=cce6f420-4439-4f23-b16c-85a1cc91ce44"},"vehicle_type_id":"4","last_reported":1733487518,"current_range_meters":39200,"station_id":"ce4bhgp2rcd13ifvqfc0","pricing_plan_id":"cebpf4jnsgd1na2vs0mg"},{"bike_id":"72395e2b-978a-447c-9418-7440080dddc6","system_id":"levelo_inurba_marseille","lat":43.31227,"lon":5.36864,"is_reserved":false,"is_disabled":false,"rental_uris":{"android":"levelo://app?vid=72395e2b-978a-447c-9418-7440080dddc6","ios":"levelo://app?vid=72395e2b-978a-447c-9418-7440080dddc6"},"vehicle_type_id":"4","last_reported":1733487518,"current_range_meters":38800,"station_id":"ce4bgl92rcd13ifvqbq0","pricing_plan_id":"cebpf4jnsgd1na2vs0mg"},{"bike_id":"58ae90bf-28dc-4332-a45b-369b54ae3a67","system_id":"levelo_inurba_marseille","lat":43.28409,"lon":5.34982,"is_reserved":false,"is_disabled":false,"rental_uris":{"android":"levelo://app?vid=58ae90bf-28dc-4332-a45b-369b54ae3a67","ios":"levelo://app?vid=58ae90bf-28dc-4332-a45b-369b54ae3a67"},"vehicle_type_id":"4","last_reported":1733487518,"current_range_meters":31200,"station_id":"ce4bhbh2rcd13ifvqepg","pricing_plan_id":"cebpf4jnsgd1na2vs0mg"},{"bike_id":"e25dc6e3-1f83-4e32-ad60-7f8ea4cb5b47","system_id":"levelo_inurba_marseille","lat":43.29794,"lon":5.39351,"is_reserved":false,"is_disabled":true,"rental_uris":{"android":"levelo://app?vid=e25dc6e3-1f83-4e32-ad60-7f8ea4cb5b47","ios":"levelo://app?vid=e25dc6e3-1f83-4e32-ad60-7f8ea4cb5b47"},"vehicle_type_id":"4","last_reported":1733487518,"current_range_meters":0,"station_id":"chh1huq6cuj3fo74tm60","pricing_plan_id":"cebpf4jnsgd1na2vs0mg"},{"bike_id":"9ba01976-b9d2-4540-a6b3-a2aa4c1d14bd","system_id":"levelo_inurba_marseille","lat":43.32654,"lon":5.40988,"is_reserved":false,"is_disabled":false,"rental_uris":{"android":"levelo://app?vid=9ba01976-b9d2-4540-a6b3-a2aa4c1d14bd","ios":"levelo://app?vid=9ba01976-b9d2-4540-a6b3-a2aa4c1d14bd"},"vehicle_type_id":"4","last_reported":1733487518,"current_range_meters":37600,"station_id":"ce4bhpp2rcd13ifvqhgg","pricing_plan_id":"cebpf4jnsgd1na2vs0mg"},{"bike_id":"c2d8a1c2-d166-4a36-b32f-beec95c93bd5","system_id":"levelo_inurba_marseille","lat":43.33756,"lon":5.37459,"is_reserved":false,"is_disabled":false,"rental_uris":{"android":"levelo://app?vid=c2d8a1c2-d166-4a36-b32f-beec95c93bd5","ios":"levelo://app?vid=c2d8a1c2-d166-4a36-b32f-beec95c93bd5"},"vehicle_type_id":"4","last_reported":1733487518,"current_range_meters":4800,"station_id":"","pricing_plan_id":"cebpf4jnsgd1na2vs0mg"},{"bike_id":"5976e944-e79a-451d-8f85-b143b67e5e11","system_id":"levelo_inurba_marseille","lat":43.25497,"lon":5.37656,"is_reserved":false,"is_disabled":true,"rental_uris":{"android":"levelo://app?vid=5976e944-e79a-451d-8f85-b143b67e5e11","ios":"levelo://app?vid=5976e944-e79a-451d-8f85-b143b67e5e11"},"vehicle_type_id":"4","last_reported":1733487518,"current_range_meters":0,"station_id":"ce4bhh12rcd13ifvqff0","pricing_plan_id":"cebpf4jnsgd1na2vs0mg"},{"bike_id":"a410149b-3781-479a-9e53-55401b868792","system_id":"levelo_inurba_marseille","lat":43.2885,"lon":5.35858,"is_reserved":false,"is_disabled":false,"rental_uris":{"android":"levelo://app?vid=a410149b-3781-479a-9e53-55401b868792","ios":"levelo://app?vid=a410149b-3781-479a-9e53-55401b868792"},"vehicle_type_id":"4","last_reported":1733487518,"current_range_meters":18800,"station_id":"ce4bhb12rcd13ifvqem0","pricing_plan_id":"cebpf4jnsgd1na2vs0mg"},{"bike_id":"fc211f49-7131-497a-851f-f8b6c7a4ac27","system_id":"levelo_inurba_marseille","lat":43.29299,"lon":5.37439,"is_reserved":false,"is_disabled":false,"rental_uris":{"android":"levelo://app?vid=fc211f49-7131-497a-851f-f8b6c7a4ac27","ios":"levelo://app?vid=fc211f49-7131-497a-851f-f8b6c7a4ac27"},"vehicle_type_id":"4","last_reported":1733487518,"current_range_meters":38000,"station_id":"ce4bgi12rcd13ifvqb70","pricing_plan_id":"cebpf4jnsgd1na2vs0mg"},{"bike_id":"ad1b8921-0d04-47cf-b6e9-1a3caf08bae9","system_id":"levelo_inurba_marseille","lat":43.28467,"lon":5.35884,"is_reserved":false,"is_disabled":false,"rental_uris":{"android":"levelo://app?vid=ad1b8921-0d04-47cf-b6e9-1a3caf08bae9","ios":"levelo://app?vid=ad1b8921-0d04-47cf-b6e9-1a3caf08bae9"},"vehicle_type_id":"4","last_reported":1733487518,"current_range_meters":16800,"station_id":"ce4bhah2rcd13ifvqei0","pricing_plan_id":"cebpf4jnsgd1na2vs0mg"},{"bike_id":"dce35d6a-08b0-4b4c-b89b-7b5e69e85874","system_id":"levelo_inurba_marseille","lat":43.32442,"lon":5.36375,"is_reserved":false,"is_disabled":false,"rental_uris":{"android":"levelo://app?vid=dce35d6a-08b0-4b4c-b89b-7b5e69e85874","ios":"levelo://app?vid=dce35d6a-08b0-4b4c-b89b-7b5e69e85874"},"vehicle_type_id":"4","last_reported":1733487518,"current_range_meters":6400,"station_id":"","pricing_plan_id":"cebpf4jnsgd1na2vs0mg"},{"bike_id":"37727576-2d28-4525-b065-40affdaee0f8","system_id":"levelo_inurba_marseille","lat":43.3235,"lon":5.38885,"is_reserved":false,"is_disabled":false,"rental_uris":{"android":"levelo://app?vid=37727576-2d28-4525-b065-40affdaee0f8","ios":"levelo://app?vid=37727576-2d28-4525-b065-40affdaee0f8"},"vehicle_type_id":"4","last_reported":1733487518,"current_range_meters":36400,"station_id":"ce4bhqp2rcd13ifvqhog","pricing_plan_id":"cebpf4jnsgd1na2vs0mg"},{"bike_id":"3a352b39-ea88-4938-aca7-0d30863305b9","system_id":"levelo_inurba_marseille","lat":43.30598,"lon":5.37212,"is_reserved":false,"is_disabled":true,"rental_uris":{"android":"levelo://app?vid=3a352b39-ea88-4938-aca7-0d30863305b9","ios":"levelo://app?vid=3a352b39-ea88-4938-aca7-0d30863305b9"},"vehicle_type_id":"4","last_reported":1733487518,"current_range_meters":8800,"station_id":"ce4bgqh2rcd13ifvqc4g","pricing_plan_id":"cebpf4jnsgd1na2vs0mg"},{"bike_id":"232593bd-31e9-42d5-ac0d-00231dedcbf5","system_id":"levelo_inurba_marseille","lat":43.24082,"lon":5.37757,"is_reserved":false,"is_disabled":false,"rental_uris":{"android":"levelo://app?vid=232593bd-31e9-42d5-ac0d-00231dedcbf5","ios":"levelo://app?vid=232593bd-31e9-42d5-ac0d-00231dedcbf5"},"vehicle_type_id":"4","last_reported":1733487518,"current_range_meters":38800,"station_id":"ce4bhnp2rcd13ifvqgvg","pricing_plan_id":"cebpf4jnsgd1na2vs0mg"},{"bike_id":"2497263a-1e49-446f-8ac2-aedcbe0b5ea4","system_id":"levelo_inurba_marseille","lat":43.26212,"lon":5.37449,"is_reserved":false,"is_disabled":false,"rental_uris":{"android":"levelo://app?vid=2497263a-1e49-446f-8ac2-aedcbe0b5ea4","ios":"levelo://app?vid=2497263a-1e49-446f-8ac2-aedcbe0b5ea4"},"vehicle_type_id":"4","last_reported":1733487518,"current_range_meters":22400,"station_id":"ce4bhgp2rcd13ifvqfc0","pricing_plan_id":"cebpf4jnsgd1na2vs0mg"},{"bike_id":"2e25e5ac-189e-491e-a8a8-90c3dd347a2d","system_id":"levelo_inurba_marseille","lat":43.31344,"lon":5.36736,"is_reserved":false,"is_disabled":false,"rental_uris":{"android":"levelo://app?vid=2e25e5ac-189e-491e-a8a8-90c3dd347a2d","ios":"levelo://app?vid=2e25e5ac-189e-491e-a8a8-90c3dd347a2d"},"vehicle_type_id":"4","last_reported":1733487518,"current_range_meters":7200,"station_id":"ce4bgr92rcd13ifvqc6g","pricing_plan_id":"cebpf4jnsgd1na2vs0mg"},{"bike_id":"b9c7bee0-5635-4d39-88e9-1a74f07b42a9","system_id":"levelo_inurba_marseille","lat":43.262,"lon":5.37459,"is_reserved":false,"is_disabled":false,"rental_uris":{"android":"levelo://app?vid=b9c7bee0-5635-4d39-88e9-1a74f07b42a9","ios":"levelo://app?vid=b9c7bee0-5635-4d39-88e9-1a74f07b42a9"},"vehicle_type_id":"4","last_reported":1733487518,"current_range_meters":38000,"station_id":"ce4bhgp2rcd13ifvqfc0","pricing_plan_id":"cebpf4jnsgd1na2vs0mg"},{"bike_id":"2e2547d4-336d-4d9b-ac40-cf4833de027f","system_id":"levelo_inurba_marseille","lat":43.28938,"lon":5.36642,"is_reserved":false,"is_disabled":false,"rental_uris":{"android":"levelo://app?vid=2e2547d4-336d-4d9b-ac40-cf4833de027f","ios":"levelo://app?vid=2e2547d4-336d-4d9b-ac40-cf4833de027f"},"vehicle_type_id":"4","last_reported":1733487518,"current_range_meters":11600,"station_id":"ce4bhap2rcd13ifvqek0","pricing_plan_id":"cebpf4jnsgd1na2vs0mg"},{"bike_id":"4c731081-4465-4ee0-a99d-5a9339d6530d","system_id":"levelo_inurba_marseille","lat":43.23153,"lon":5.43726,"is_reserved":false,"is_disabled":false,"rental_uris":{"android":"levelo://app?vid=4c731081-4465-4ee0-a99d-5a9339d6530d","ios":"levelo://app?vid=4c731081-4465-4ee0-a99d-5a9339d6530d"},"vehicle_type_id":"4","last_reported":1733487518,"current_range_meters":37600,"station_id":"ce4bhmp2rcd13ifvqgog","pricing_plan_id":"cebpf4jnsgd1na2vs0mg"},{"bike_id":"d235925a-856b-419b-8add-63577881caa4","system_id":"levelo_inurba_marseille","lat":43.28083,"lon":5.39668,"is_reserved":false,"is_disabled":false,"rental_uris":{"android":"levelo://app?vid=d235925a-856b-419b-8add-63577881caa4","ios":"levelo://app?vid=d235925a-856b-419b-8add-63577881caa4"},"vehicle_type_id":"4","last_reported":1733487518,"current_range_meters":30400,"station_id":"ce4bho12rcd13ifvqh2g","pricing_plan_id":"cebpf4jnsgd1na2vs0mg"},{"bike_id":"7cec87ae-5cf8-4ac3-b0bf-8d42d1422b1f","system_id":"levelo_inurba_marseille","lat":43.30441,"lon":5.40735,"is_reserved":false,"is_disabled":false,"rental_uris":{"android":"levelo://app?vid=7cec87ae-5cf8-4ac3-b0bf-8d42d1422b1f","ios":"levelo://app?vid=7cec87ae-5cf8-4ac3-b0bf-8d42d1422b1f"},"vehicle_type_id":"4","last_reported":1733487518,"current_range_meters":35200,"station_id":"","pricing_plan_id":"cebpf4jnsgd1na2vs0mg"},{"bike_id":"dcada1aa-e58b-417b-8471-01fd127f6871","system_id":"levelo_inurba_marseille","lat":43.29608,"lon":5.37717,"is_reserved":false,"is_disabled":true,"rental_uris":{"android":"levelo://app?vid=dcada1aa-e58b-417b-8471-01fd127f6871","ios":"levelo://app?vid=dcada1aa-e58b-417b-8471-01fd127f6871"},"vehicle_type_id":"4","last_reported":1733487518,"current_range_meters":22400,"station_id":"ce4bgi92rcd13ifvqb90","pricing_plan_id":"cebpf4jnsgd1na2vs0mg"},{"bike_id":"06fa5d7c-3b9b-4c5d-a878-9f9d07eac2da","system_id":"levelo_inurba_marseille","lat":43.2795,"lon":5.41045,"is_reserved":false,"is_disabled":false,"rental_uris":{"android":"levelo://app?vid=06fa5d7c-3b9b-4c5d-a878-9f9d07eac2da","ios":"levelo://app?vid=06fa5d7c-3b9b-4c5d-a878-9f9d07eac2da"},"vehicle_type_id":"4","last_reported":1733487518,"current_range_meters":32800,"station_id":"ce4bhnp2rcd13ifvqh0g","pricing_plan_id":"cebpf4jnsgd1na2vs0mg"},{"bike_id":"28121aa3-7c19-4b1b-a44a-d17aed6b8d94","system_id":"levelo_inurba_marseille","lat":43.337444,"lon":5.374475,"is_reserved":false,"is_disabled":false,"rental_uris":{"android":"levelo://app?vid=28121aa3-7c19-4b1b-a44a-d17aed6b8d94","ios":"levelo://app?vid=28121aa3-7c19-4b1b-a44a-d17aed6b8d94"},"vehicle_type_id":"4","last_reported":1733487518,"current_range_meters":33600,"station_id":"","pricing_plan_id":"cebpf4jnsgd1na2vs0mg"},{"bike_id":"62dddee1-1100-4d8c-839c-64951e09afde","system_id":"levelo_inurba_marseille","lat":43.25247,"lon":5.40517,"is_reserved":false,"is_disabled":true,"rental_uris":{"android":"levelo://app?vid=62dddee1-1100-4d8c-839c-64951e09afde","ios":"levelo://app?vid=62dddee1-1100-4d8c-839c-64951e09afde"},"vehicle_type_id":"4","last_reported":1733487518,"current_range_meters":22800,"station_id":"","pricing_plan_id":"cebpf4jnsgd1na2vs0mg"},{"bike_id":"f906c750-d91b-4cfa-8b92-b5fe6ae97dae","system_id":"levelo_inurba_marseille","lat":43.3053,"lon":5.36551,"is_reserved":false,"is_disabled":false,"rental_uris":{"android":"levelo://app?vid=f906c750-d91b-4cfa-8b92-b5fe6ae97dae","ios":"levelo://app?vid=f906c750-d91b-4cfa-8b92-b5fe6ae97dae"},"vehicle_type_id":"4","last_reported":1733487518,"current_range_meters":38400,"station_id":"ce4bgs12rcd13ifvqcag","pricing_plan_id":"cebpf4jnsgd1na2vs0mg"},{"bike_id":"21c61b3f-2ae1-41ed-96e8-21fc1b01a387","system_id":"levelo_inurba_marseille","lat":43.30089,"lon":5.37257,"is_reserved":false,"is_disabled":false,"rental_uris":{"android":"levelo://app?vid=21c61b3f-2ae1-41ed-96e8-21fc1b01a387","ios":"levelo://app?vid=21c61b3f-2ae1-41ed-96e8-21fc1b01a387"},"vehicle_type_id":"4","last_reported":1733487518,"current_range_meters":10800,"station_id":"","pricing_plan_id":"cebpf4jnsgd1na2vs0mg"},{"bike_id":"9d601b44-18de-420f-afc6-2cb5de397159","system_id":"levelo_inurba_marseille","lat":43.30608,"lon":5.37215,"is_reserved":false,"is_disabled":false,"rental_uris":{"android":"levelo://app?vid=9d601b44-18de-420f-afc6-2cb5de397159","ios":"levelo://app?vid=9d601b44-18de-420f-afc6-2cb5de397159"},"vehicle_type_id":"4","last_reported":1733487518,"current_range_meters":16400,"station_id":"ce4bgqh2rcd13ifvqc4g","pricing_plan_id":"cebpf4jnsgd1na2vs0mg"},{"bike_id":"3a9149f3-357c-4d0a-859b-18382ef024a5","system_id":"levelo_inurba_marseille","lat":43.32107,"lon":5.36772,"is_reserved":false,"is_disabled":false,"rental_uris":{"android":"levelo://app?vid=3a9149f3-357c-4d0a-859b-18382ef024a5","ios":"levelo://app?vid=3a9149f3-357c-4d0a-859b-18382ef024a5"},"vehicle_type_id":"4","last_reported":1733487518,"current_range_meters":18800,"station_id":"ce4bhrh2rcd13ifvqhug","pricing_plan_id":"cebpf4jnsgd1na2vs0mg"},{"bike_id":"95354dd4-2157-413c-8e37-b401e8351bcc","system_id":"levelo_inurba_marseille","lat":43.31362,"lon":5.38498,"is_reserved":false,"is_disabled":false,"rental_uris":{"android":"levelo://app?vid=95354dd4-2157-413c-8e37-b401e8351bcc","ios":"levelo://app?vid=95354dd4-2157-413c-8e37-b401e8351bcc"},"vehicle_type_id":"4","last_reported":1733487518,"current_range_meters":17600,"station_id":"ce4bgt92rcd13ifvqcf0","pricing_plan_id":"cebpf4jnsgd1na2vs0mg"},{"bike_id":"868a434e-7c11-4b20-84c6-7ecdbf24c83b","system_id":"levelo_inurba_marseille","lat":43.33022,"lon":5.39037,"is_reserved":false,"is_disabled":false,"rental_uris":{"android":"levelo://app?vid=868a434e-7c11-4b20-84c6-7ecdbf24c83b","ios":"levelo://app?vid=868a434e-7c11-4b20-84c6-7ecdbf24c83b"},"vehicle_type_id":"4","last_reported":1733487518,"current_range_meters":27600,"station_id":"ce4bhr92rcd13ifvqhrg","pricing_plan_id":"cebpf4jnsgd1na2vs0mg"},{"bike_id":"f4f26259-85f2-42d3-b0b5-c02046ecbaee","system_id":"levelo_inurba_marseille","lat":43.31227,"lon":5.36858,"is_reserved":false,"is_disabled":false,"rental_uris":{"android":"levelo://app?vid=f4f26259-85f2-42d3-b0b5-c02046ecbaee","ios":"levelo://app?vid=f4f26259-85f2-42d3-b0b5-c02046ecbaee"},"vehicle_type_id":"4","last_reported":1733487518,"current_range_meters":36800,"station_id":"ce4bgl92rcd13ifvqbq0","pricing_plan_id":"cebpf4jnsgd1na2vs0mg"},{"bike_id":"a90edf1f-a50f-4556-8541-4eafae33c950","system_id":"levelo_inurba_marseille","lat":43.30308,"lon":5.36865,"is_reserved":false,"is_disabled":false,"rental_uris":{"android":"levelo://app?vid=a90edf1f-a50f-4556-8541-4eafae33c950","ios":"levelo://app?vid=a90edf1f-a50f-4556-8541-4eafae33c950"},"vehicle_type_id":"4","last_reported":1733487518,"current_range_meters":33600,"station_id":"ce4bgqh2rcd13ifvqc5g","pricing_plan_id":"cebpf4jnsgd1na2vs0mg"},{"bike_id":"98df377c-5b46-4a4e-a80e-95ded7d1b7b9","system_id":"levelo_inurba_marseille","lat":43.2903,"lon":5.38657,"is_reserved":false,"is_disabled":true,"rental_uris":{"android":"levelo://app?vid=98df377c-5b46-4a4e-a80e-95ded7d1b7b9","ios":"levelo://app?vid=98df377c-5b46-4a4e-a80e-95ded7d1b7b9"},"vehicle_type_id":"4","last_reported":1733487518,"current_range_meters":24000,"station_id":"ce4bh4p2rcd13ifvqe0g","pricing_plan_id":"cebpf4jnsgd1na2vs0mg"},{"bike_id":"da6a7a1d-e653-4950-af8c-8137b06f7d40","system_id":"levelo_inurba_marseille","lat":43.3004,"lon":5.37551,"is_reserved":false,"is_disabled":true,"rental_uris":{"android":"levelo://app?vid=da6a7a1d-e653-4950-af8c-8137b06f7d40","ios":"levelo://app?vid=da6a7a1d-e653-4950-af8c-8137b06f7d40"},"vehicle_type_id":"4","last_reported":1733487518,"current_range_meters":0,"station_id":"","pricing_plan_id":"cebpf4jnsgd1na2vs0mg"},{"bike_id":"f7252cae-ba4c-4699-a0b4-4edea22fdb53","system_id":"levelo_inurba_marseille","lat":43.26204,"lon":5.37927,"is_reserved":false,"is_disabled":false,"rental_uris":{"android":"levelo://app?vid=f7252cae-ba4c-4699-a0b4-4edea22fdb53","ios":"levelo://app?vid=f7252cae-ba4c-4699-a0b4-4edea22fdb53"},"vehicle_type_id":"4","last_reported":1733487518,"current_range_meters":18000,"station_id":"ce4bhjp2rcd13ifvqg90","pricing_plan_id":"cebpf4jnsgd1na2vs0mg"},{"bike_id":"d1391f75-0844-4b44-be23-1c381e54fd43","system_id":"levelo_inurba_marseille","lat":43.23973,"lon":5.36642,"is_reserved":false,"is_disabled":false,"rental_uris":{"android":"levelo://app?vid=d1391f75-0844-4b44-be23-1c381e54fd43","ios":"levelo://app?vid=d1391f75-0844-4b44-be23-1c381e54fd43"},"vehicle_type_id":"4","last_reported":1733487518,"current_range_meters":38800,"station_id":"ce4bhi12rcd13ifvqfp0","pricing_plan_id":"cebpf4jnsgd1na2vs0mg"},{"bike_id":"4749705c-a720-4636-8ed7-23e4217e4b34","system_id":"levelo_inurba_marseille","lat":43.30557,"lon":5.36543,"is_reserved":false,"is_disabled":false,"rental_uris":{"android":"levelo://app?vid=4749705c-a720-4636-8ed7-23e4217e4b34","ios":"levelo://app?vid=4749705c-a720-4636-8ed7-23e4217e4b34"},"vehicle_type_id":"4","last_reported":1733487518,"current_range_meters":33200,"station_id":"ce4bgs12rcd13ifvqcag","pricing_plan_id":"cebpf4jnsgd1na2vs0mg"},{"bike_id":"5a6e01f3-fc72-4af0-b740-2fa117df8249","system_id":"levelo_inurba_marseille","lat":43.30544,"lon":5.36539,"is_reserved":false,"is_disabled":false,"rental_uris":{"android":"levelo://app?vid=5a6e01f3-fc72-4af0-b740-2fa117df8249","ios":"levelo://app?vid=5a6e01f3-fc72-4af0-b740-2fa117df8249"},"vehicle_type_id":"4","last_reported":1733487518,"current_range_meters":38800,"station_id":"ce4bgs12rcd13ifvqcag","pricing_plan_id":"cebpf4jnsgd1na2vs0mg"},{"bike_id":"b78b3334-0b4d-459e-95e9-a0b0032447c4","system_id":"levelo_inurba_marseille","lat":43.25866,"lon":5.39909,"is_reserved":false,"is_disabled":false,"rental_uris":{"android":"levelo://app?vid=b78b3334-0b4d-459e-95e9-a0b0032447c4","ios":"levelo://app?vid=b78b3334-0b4d-459e-95e9-a0b0032447c4"},"vehicle_type_id":"4","last_reported":1733487518,"current_range_meters":16800,"station_id":"ce4bhl92rcd13ifvqghg","pricing_plan_id":"cebpf4jnsgd1na2vs0mg"},{"bike_id":"7b35ba6c-f5eb-4e2d-bd3d-b273e8f445c5","system_id":"levelo_inurba_marseille","lat":43.29025,"lon":5.38652,"is_reserved":false,"is_disabled":false,"rental_uris":{"android":"levelo://app?vid=7b35ba6c-f5eb-4e2d-bd3d-b273e8f445c5","ios":"levelo://app?vid=7b35ba6c-f5eb-4e2d-bd3d-b273e8f445c5"},"vehicle_type_id":"4","last_reported":1733487518,"current_range_meters":22800,"station_id":"ce4bh4p2rcd13ifvqe0g","pricing_plan_id":"cebpf4jnsgd1na2vs0mg"},{"bike_id":"5b6ba10e-6c88-48cc-955d-3a8c7a538fb0","system_id":"levelo_inurba_marseille","lat":43.29301,"lon":5.37183,"is_reserved":false,"is_disabled":false,"rental_uris":{"android":"levelo://app?vid=5b6ba10e-6c88-48cc-955d-3a8c7a538fb0","ios":"levelo://app?vid=5b6ba10e-6c88-48cc-955d-3a8c7a538fb0"},"vehicle_type_id":"4","last_reported":1733487518,"current_range_meters":20800,"station_id":"ce4bgh92rcd13ifvqb40","pricing_plan_id":"cebpf4jnsgd1na2vs0mg"},{"bike_id":"ea9a78d6-a712-47bc-866e-5af60f761756","system_id":"levelo_inurba_marseille","lat":43.29972,"lon":5.38492,"is_reserved":false,"is_disabled":false,"rental_uris":{"android":"levelo://app?vid=ea9a78d6-a712-47bc-866e-5af60f761756","ios":"levelo://app?vid=ea9a78d6-a712-47bc-866e-5af60f761756"},"vehicle_type_id":"4","last_reported":1733487518,"current_range_meters":19200,"station_id":"ce4bgj92rcd13ifvqbd0","pricing_plan_id":"cebpf4jnsgd1na2vs0mg"},{"bike_id":"b983f700-39e1-418f-84a3-1c3c95a84b96","system_id":"levelo_inurba_marseille","lat":43.337752,"lon":5.375048,"is_reserved":false,"is_disabled":false,"rental_uris":{"android":"levelo://app?vid=b983f700-39e1-418f-84a3-1c3c95a84b96","ios":"levelo://app?vid=b983f700-39e1-418f-84a3-1c3c95a84b96"},"vehicle_type_id":"4","last_reported":1733487518,"current_range_meters":36800,"station_id":"","pricing_plan_id":"cebpf4jnsgd1na2vs0mg"},{"bike_id":"30de221a-4ae9-44c8-af60-f5843b67f535","system_id":"levelo_inurba_marseille","lat":43.337444,"lon":5.374475,"is_reserved":false,"is_disabled":false,"rental_uris":{"android":"levelo://app?vid=30de221a-4ae9-44c8-af60-f5843b67f535","ios":"levelo://app?vid=30de221a-4ae9-44c8-af60-f5843b67f535"},"vehicle_type_id":"4","last_reported":1733487518,"current_range_meters":33600,"station_id":"","pricing_plan_id":"cebpf4jnsgd1na2vs0mg"},{"bike_id":"7a381558-e016-4198-80e3-c7e931296fca","system_id":"levelo_inurba_marseille","lat":43.30594,"lon":5.39362,"is_reserved":false,"is_disabled":false,"rental_uris":{"android":"levelo://app?vid=7a381558-e016-4198-80e3-c7e931296fca","ios":"levelo://app?vid=7a381558-e016-4198-80e3-c7e931296fca"},"vehicle_type_id":"4","last_reported":1733487518,"current_range_meters":7200,"station_id":"ce4bh0p2rcd13ifvqd80","pricing_plan_id":"cebpf4jnsgd1na2vs0mg"},{"bike_id":"38c57fa0-e1ea-4923-b61c-26cf37c8fe12","system_id":"levelo_inurba_marseille","lat":43.26565,"lon":5.39012,"is_reserved":false,"is_disabled":false,"rental_uris":{"android":"levelo://app?vid=38c57fa0-e1ea-4923-b61c-26cf37c8fe12","ios":"levelo://app?vid=38c57fa0-e1ea-4923-b61c-26cf37c8fe12"},"vehicle_type_id":"4","last_reported":1733487518,"current_range_meters":38000,"station_id":"ce4bhe12rcd13ifvqf30","pricing_plan_id":"cebpf4jnsgd1na2vs0mg"},{"bike_id":"0926a58f-f7f1-456e-826c-66fceeca260f","system_id":"levelo_inurba_marseille","lat":43.299,"lon":5.43655,"is_reserved":false,"is_disabled":false,"rental_uris":{"android":"levelo://app?vid=0926a58f-f7f1-456e-826c-66fceeca260f","ios":"levelo://app?vid=0926a58f-f7f1-456e-826c-66fceeca260f"},"vehicle_type_id":"4","last_reported":1733487518,"current_range_meters":16000,"station_id":"ce4bhpp2rcd13ifvqhfg","pricing_plan_id":"cebpf4jnsgd1na2vs0mg"},{"bike_id":"920fbb68-b2c8-493b-b33a-39318097534b","system_id":"levelo_inurba_marseille","lat":43.30548,"lon":5.36708,"is_reserved":false,"is_disabled":false,"rental_uris":{"android":"levelo://app?vid=920fbb68-b2c8-493b-b33a-39318097534b","ios":"levelo://app?vid=920fbb68-b2c8-493b-b33a-39318097534b"},"vehicle_type_id":"4","last_reported":1733487518,"current_range_meters":38800,"station_id":"ce4bgrp2rcd13ifvqc9g","pricing_plan_id":"cebpf4jnsgd1na2vs0mg"},{"bike_id":"fe9e2035-4ee8-42b6-a8bd-e1e6763c91a5","system_id":"levelo_inurba_marseille","lat":43.27171,"lon":5.40996,"is_reserved":false,"is_disabled":false,"rental_uris":{"android":"levelo://app?vid=fe9e2035-4ee8-42b6-a8bd-e1e6763c91a5","ios":"levelo://app?vid=fe9e2035-4ee8-42b6-a8bd-e1e6763c91a5"},"vehicle_type_id":"4","last_reported":1733487518,"current_range_meters":32800,"station_id":"ce4bhl12rcd13ifvqgf0","pricing_plan_id":"cebpf4jnsgd1na2vs0mg"},{"bike_id":"2d6f098c-aca7-4e91-afbd-32e24edf9884","system_id":"levelo_inurba_marseille","lat":43.29576,"lon":5.39984,"is_reserved":false,"is_disabled":false,"rental_uris":{"android":"levelo://app?vid=2d6f098c-aca7-4e91-afbd-32e24edf9884","ios":"levelo://app?vid=2d6f098c-aca7-4e91-afbd-32e24edf9884"},"vehicle_type_id":"4","last_reported":1733487518,"current_range_meters":8400,"station_id":"ce4bh312rcd13ifvqdj0","pricing_plan_id":"cebpf4jnsgd1na2vs0mg"},{"bike_id":"770176c3-dcad-4da0-8e7e-be1bdf49f564","system_id":"levelo_inurba_marseille","lat":43.26557,"lon":5.37284,"is_reserved":false,"is_disabled":false,"rental_uris":{"android":"levelo://app?vid=770176c3-dcad-4da0-8e7e-be1bdf49f564","ios":"levelo://app?vid=770176c3-dcad-4da0-8e7e-be1bdf49f564"},"vehicle_type_id":"4","last_reported":1733487518,"current_range_meters":31200,"station_id":"ce4bhg12rcd13ifvqf70","pricing_plan_id":"cebpf4jnsgd1na2vs0mg"},{"bike_id":"7714ce30-465c-426d-9621-0f0245a19ff8","system_id":"levelo_inurba_marseille","lat":43.27179,"lon":5.41,"is_reserved":false,"is_disabled":false,"rental_uris":{"android":"levelo://app?vid=7714ce30-465c-426d-9621-0f0245a19ff8","ios":"levelo://app?vid=7714ce30-465c-426d-9621-0f0245a19ff8"},"vehicle_type_id":"4","last_reported":1733487518,"current_range_meters":22400,"station_id":"ce4bhl12rcd13ifvqgf0","pricing_plan_id":"cebpf4jnsgd1na2vs0mg"},{"bike_id":"2e38f9e4-f6de-4fae-9004-b11bb52a4773","system_id":"levelo_inurba_marseille","lat":43.27051,"lon":5.40263,"is_reserved":false,"is_disabled":true,"rental_uris":{"android":"levelo://app?vid=2e38f9e4-f6de-4fae-9004-b11bb52a4773","ios":"levelo://app?vid=2e38f9e4-f6de-4fae-9004-b11bb52a4773"},"vehicle_type_id":"4","last_reported":1733487518,"current_range_meters":0,"station_id":"ce4bhk92rcd13ifvqgc0","pricing_plan_id":"cebpf4jnsgd1na2vs0mg"},