{"last_updated":1725711244,"ttl":30,"version":"2.2","data":{"bikes":[{"bike_id":"3bd77500-ebad-499e-83a1-9b4c0185e2b3","system_id":"levelo_inurba_marseille","lat":43.312239,"lon":5.368562,"is_reserved":false,"is_disabled":false,"rental_uris":{"android":"levelo://app?vid=3bd77500-ebad-499e-83a1-9b4c0185e2b3","ios":"levelo://app?vid=3bd77500-ebad-499e-83a1-9b4c0185e2b3"},"vehicle_type_id":"4","last_reported":1725711245,"current_range_meters":7200,"station_id":"ce4bgl92rcd13ifvqbq0","pricing_plan_id":"cebpf4jnsgd1na2vs0mg"},{"bike_id":"f98faf8a-c81e-48d6-86a3-64df43977b52","system_id":"levelo_inurba_marseille","lat":43.309076,"lon":5.368465,"is_reserved":false,"is_disabled":false,"rental_uris":{"android":"levelo://app?vid=f98faf8a-c81e-48d6-86a3-64df43977b52","ios":"levelo://app?vid=f98faf8a-c81e-48d6-86a3-64df43977b52"},"vehicle_type_id":"4","last_reported":1725711245,"current_range_meters":3600,"station_id":"ce4bgn92rcd13ifvqbvg","pricing_plan_id":"cebpf4jnsgd1na2vs0mg"},{"bike_id":"743ab9a1-f6fd-4527-85f5-e8b7e9663f76","system_id":"levelo_inurba_marseille","lat":43.309076,"lon":5.368465,"is_reserved":false,"is_disabled":false,"rental_uris":{"android":"levelo://app?vid=743ab9a1-f6fd-4527-85f5-e8b7e9663f76","ios":"levelo://app?vid=743ab9a1-f6fd-4527-85f5-e8b7e9663f76"},"vehicle_type_id":"4","last_reported":1725711245,"current_range_meters":31200,"station_id":"ce4bgn92rcd13ifvqbvg","pricing_plan_id":"cebpf4jnsgd1na2vs0mg"},{"bike_id":"e6587942-a9a9-4279-ac15-9feccec48d71","system_id":"levelo_inurba_marseille","lat":43.314811,"lon":5.373103,"is_reserved":false,"is_disabled":false,"rental_uris":{"android":"levelo://app?vid=e6587942-a9a9-4279-ac15-9feccec48d71","ios":"levelo://app?vid=e6587942-a9a9-4279-ac15-9feccec48d71"},"vehicle_type_id":"4","last_reported":1725711245,"current_range_meters":12000,"station_id":"ce4bgt12rcd13ifvqcd0","pricing_plan_id":"cebpf4jnsgd1na2vs0mg"},{"bike_id":"69879956-ad82-484b-a272-7202a9fb350c","system_id":"levelo_inurba_marseille","lat":43.314811,"lon":5.373104,"is_reserved":false,"is_disabled":false,"rental_uris":{"android":"levelo://app?vid=69879956-ad82-484b-a272-7202a9fb350c","ios":"levelo://app?vid=69879956-ad82-484b-a272-7202a9fb350c"},"vehicle_type_id":"4","last_reported":1725711245,"current_range_meters":28400,"station_id":"ce4bgt12rcd13ifvqcd0","pricing_plan_id":"cebpf4jnsgd1na2vs0mg"},{"bike_id":"16fe18ae-1e4c-4804-a252-ff01648f5d0c","system_id":"levelo_inurba_marseille","lat":43.309039,"lon":5.371797,"is_reserved":false,"is_disabled":false,"rental_uris":{"android":"levelo://app?vid=16fe18ae-1e4c-4804-a252-ff01648f5d0c","ios":"levelo://app?vid=16fe18ae-1e4c-4804-a252-ff01648f5d0c"},"vehicle_type_id":"4","last_reported":1725711245,"current_range_meters":20000,"station_id":"ce4bguh2rcd13ifvqckg","pricing_plan_id":"cebpf4jnsgd1na2vs0mg"},{"bike_id":"08a61b1a-bd1d-4c3b-b540-2923d6729982","system_id":"levelo_inurba_marseille","lat":43.309039,"lon":5.371797,"is_reserved":false,"is_disabled":false,"rental_uris":{"android":"levelo://app?vid=08a61b1a-bd1d-4c3b-b540-2923d6729982","ios":"levelo://app?vid=08a61b1a-bd1d-4c3b-b540-2923d6729982"},"vehicle_type_id":"4","last_reported":1725711245,"current_range_meters":30000,"station_id":"ce4bguh2rcd13ifvqckg","pricing_plan_id":"cebpf4jnsgd1na2vs0mg"},{"bike_id":"0f83b55c-63a0-4c37-afdc-a4ada4c44f5b","system_id":"levelo_inurba_marseille","lat":43.309039,"lon":5.371797,"is_reserved":false,"is_disabled":false,"rental_uris":{"android":"levelo://app?vid=0f83b55c-63a0-4c37-afdc-a4ada4c44f5b","ios":"levelo://app?vid=0f83b55c-63a0-4c37-afdc-a4ada4c44f5b"},"vehicle_type_id":"4","last_reported":1725711245,"current_range_meters":23200,"station_id":"ce4bguh2rcd13ifvqckg","pricing_plan_id":"cebpf4jnsgd1na2vs0mg"},{"bike_id":"adb36f91-5077-4ab9-aed7-db95a2ab7416","system_id":"levelo_inurba_marseille","lat":43.309039,"lon":5.371797,"is_reserved":false,"is_disabled":false,"rental_uris":{"android":"levelo://app?vid=adb36f91-5077-4ab9-aed7-db95a2ab7416","ios":"levelo://app?vid=adb36f91-5077-4ab9-aed7-db95a2ab7416"},"vehicle_type_id":"4","last_reported":1725711245,"current_range_meters":13600,"station_id":"ce4bguh2rcd13ifvqckg","pricing_plan_id":"cebpf4jnsgd1na2vs0mg"},{"bike_id":"bb010e4b-2f34-41d5-a45a-5f3a5bba42a0","system_id":"levelo_inurba_marseille","lat":43.309039,"lon":5.371797,"is_reserved":false,"is_disabled":false,"rental_uris":{"android":"levelo://app?vid=bb010e4b-2f34-41d5-a45a-5f3a5bba42a0","ios":"levelo://app?vid=bb010e4b-2f34-41d5-a45a-5f3a5bba42a0"},"vehicle_type_id":"4","last_reported":1725711245,"current_range_meters":4400,"station_id":"ce4bguh2rcd13ifvqckg","pricing_plan_id":"cebpf4jnsgd1na2vs0mg"},{"bike_id":"bb16cc37-4487-4342-a779-76dbe87db1e9","system_id":"levelo_inurba_marseille","lat":43.305714,"lon":5.365633,"is_reserved":false,"is_disabled":false,"rental_uris":{"android":"levelo://app?vid=bb16cc37-4487-4342-a779-76dbe87db1e9","ios":"levelo://app?vid=bb16cc37-4487-4342-a779-76dbe87db1e9"},"vehicle_type_id":"4","last_reported":1725711245,"current_range_meters":28000,"station_id":"ce4bgs12rcd13ifvqcag","pricing_plan_id":"cebpf4jnsgd1na2vs0mg"},{"bike_id":"0da45747-94dc-48f1-b10f-7671f4115b71","system_id":"levelo_inurba_marseille","lat":43.305706,"lon":5.365654,"is_reserved":false,"is_disabled":false,"rental_uris":{"android":"levelo://app?vid=0da45747-94dc-48f1-b10f-7671f4115b71","ios":"levelo://app?vid=0da45747-94dc-48f1-b10f-7671f4115b71"},"vehicle_type_id":"4","last_reported":1725711245,"current_range_meters":22800,"station_id":"ce4bgs12rcd13ifvqcag","pricing_plan_id":"cebpf4jnsgd1na2vs0mg"},{"bike_id":"23017dde-f7c6-46d0-8c75-6d607ab0e83f","system_id":"levelo_inurba_marseille","lat":43.305714,"lon":5.365633,"is_reserved":false,"is_disabled":false,"rental_uris":{"android":"levelo://app?vid=23017dde-f7c6-46d0-8c75-6d607ab0e83f","ios":"levelo://app?vid=23017dde-f7c6-46d0-8c75-6d607ab0e83f"},"vehicle_type_id":"4","last_reported":1725711245,"current_range_meters":24800,"station_id":"ce4bgs12rcd13ifvqcag","pricing_plan_id":"cebpf4jnsgd1na2vs0mg"},{"bike_id":"1dd66b25-9104-4516-b437-ee7b5cfa476b","system_id":"levelo_inurba_marseille","lat":43.305706,"lon":5.365654,"is_reserved":false,"is_disabled":false,"rental_uris":{"android":"levelo://app?vid=1dd66b25-9104-4516-b437-ee7b5cfa476b","ios":"levelo://app?vid=1dd66b25-9104-4516-b437-ee7b5cfa476b"},"vehicle_type_id":"4","last_reported":1725711245,"current_range_meters":3600,"station_id":"ce4bgs12rcd13ifvqcag","pricing_plan_id":"cebpf4jnsgd1na2vs0mg"},{"bike_id":"d58d8bc3-d8b6-4adb-9085-8f75e8ae9df9","system_id":"levelo_inurba_marseille","lat":43.305706,"lon":5.365654,"is_reserved":false,"is_disabled":false,"rental_uris":{"android":"levelo://app?vid=d58d8bc3-d8b6-4adb-9085-8f75e8ae9df9","ios":"levelo://app?vid=d58d8bc3-d8b6-4adb-9085-8f75e8ae9df9"},"vehicle_type_id":"4","last_reported":1725711245,"current_range_meters":14400,"station_id":"ce4bgs12rcd13ifvqcag","pricing_plan_id":"cebpf4jnsgd1na2vs0mg"},{"bike_id":"192e91e7-63b3-4ef8-805a-f3abe4d95934","system_id":"levelo_inurba_marseille","lat":43.305706,"lon":5.365654,"is_reserved":false,"is_disabled":false,"rental_uris":{"android":"levelo://app?vid=192e91e7-63b3-4ef8-805a-f3abe4d95934","ios":"levelo://app?vid=192e91e7-63b3-4ef8-805a-f3abe4d95934"},"vehicle_type_id":"4","last_reported":1725711245,"current_range_meters":12800,"station_id":"ce4bgs12rcd13ifvqcag","pricing_plan_id":"cebpf4jnsgd1na2vs0mg"},{"bike_id":"5763e947-1663-4e37-ae49-e928f57cfb4c","system_id":"levelo_inurba_marseille","lat":43.305706,"lon":5.365654,"is_reserved":false,"is_disabled":false,"rental_uris":{"android":"levelo://app?vid=5763e947-1663-4e37-ae49-e928f57cfb4c","ios":"levelo://app?vid=5763e947-1663-4e37-ae49-e928f57cfb4c"},"vehicle_type_id":"4","last_reported":1725711245,"current_range_meters":0,"station_id":"ce4bgs12rcd13ifvqcag","pricing_plan_id":"cebpf4jnsgd1na2vs0mg"},{"bike_id":"8ac2bb14-64e5-422a-b274-b471efef31f7","system_id":"levelo_inurba_marseille","lat":43.305714,"lon":5.365633,"is_reserved":false,"is_disabled":false,"rental_uris":{"android":"levelo://app?vid=8ac2bb14-64e5-422a-b274-b471efef31f7","ios":"levelo://app?vid=8ac2bb14-64e5-422a-b274-b471efef31f7"},"vehicle_type_id":"4","last_reported":1725711245,"current_range_meters":0,"station_id":"ce4bgs12rcd13ifvqcag","pricing_plan_id":"cebpf4jnsgd1na2vs0mg"},{"bike_id":"fbed1ff6-9a2e-4761-bcbc-f43d9604ad46","system_id":"levelo_inurba_marseille","lat":43.305706,"lon":5.365654,"is_reserved":false,"is_disabled":false,"rental_uris":{"android":"levelo://app?vid=fbed1ff6-9a2e-4761-bcbc-f43d9604ad46","ios":"levelo://app?vid=fbed1ff6-9a2e-4761-bcbc-f43d9604ad46"},"vehicle_type_id":"4","last_reported":1725711245,"current_range_meters":18000,"station_id":"ce4bgs12rcd13ifvqcag","pricing_plan_id":"cebpf4jnsgd1na2vs0mg"},{"bike_id":"887fb71a-aadf-4714-ac1d-fc4a6197b3cc","system_id":"levelo_inurba_marseille","lat":43.305706,"lon":5.365654,"is_reserved":false,"is_disabled":false,"rental_uris":{"android":"levelo://app?vid=887fb71a-aadf-4714-ac1d-fc4a6197b3cc","ios":"levelo://app?vid=887fb71a-aadf-4714-ac1d-fc4a6197b3cc"},"vehicle_type_id":"4","last_reported":1725711245,"current_range_meters":31200,"station_id":"ce4bgs12rcd13ifvqcag","pricing_plan_id":"cebpf4jnsgd1na2vs0mg"},{"bike_id":"167c5dd8-5030-4cd1-994b-7247c1f5702c","system_id":"levelo_inurba_marseille","lat":43.305714,"lon":5.365633,"is_reserved":false,"is_disabled":false,"rental_uris":{"android":"levelo://app?vid=167c5dd8-5030-4cd1-994b-7247c1f5702c","ios":"levelo://app?vid=167c5dd8-5030-4cd1-994b-7247c1f5702c"},"vehicle_type_id":"4","last_reported":1725711245,"current_range_meters":6400,"station_id":"ce4bgs12rcd13ifvqcag","pricing_plan_id":"cebpf4jnsgd1na2vs0mg"},{"bike_id":"8da4a334-46e0-41ee-9228-2483281577d5","system_id":"levelo_inurba_marseille","lat":43.305714,"lon":5.365633,"is_reserved":false,"is_disabled":false,"rental_uris":{"android":"levelo://app?vid=8da4a334-46e0-41ee-9228-2483281577d5","ios":"levelo://app?vid=8da4a334-46e0-41ee-9228-2483281577d5"},"vehicle_type_id":"4","last_reported":1725711245,"current_range_meters":20000,"station_id":"ce4bgs12rcd13ifvqcag","pricing_plan_id":"cebpf4jnsgd1na2vs0mg"},{"bike_id":"3891171c-5a5c-4731-bfe7-269b8ef747e6","system_id":"levelo_inurba_marseille","lat":43.305714,"lon":5.365633,"is_reserved":false,"is_disabled":false,"rental_uris":{"android":"levelo://app?vid=3891171c-5a5c-4731-bfe7-269b8ef747e6","ios":"levelo://app?vid=3891171c-5a5c-4731-bfe7-269b8ef747e6"},"vehicle_type_id":"4","last_reported":1725711245,"current_range_meters":8800,"station_id":"ce4bgs12rcd13ifvqcag","pricing_plan_id":"cebpf4jnsgd1na2vs0mg"},{"bike_id":"70b225a8-cc5f-4d86-b820-a3f9147ed0c8","system_id":"levelo_inurba_marseille","lat":43.305714,"lon":5.365633,"is_reserved":false,"is_disabled":false,"rental_uris":{"android":"levelo://app?vid=70b225a8-cc5f-4d86-b820-a3f9147ed0c8","ios":"levelo://app?vid=70b225a8-cc5f-4d86-b820-a3f9147ed0c8"},"vehicle_type_id":"4","last_reported":1725711245,"current_range_meters":20000,"station_id":"ce4bgs12rcd13ifvqcag","pricing_plan_id":"cebpf4jnsgd1na2vs0mg"},{"bike_id":"731e118e-1f09-493b-a790-1ef41af71029","system_id":"levelo_inurba_marseille","lat":43.305714,"lon":5.365633,"is_reserved":false,"is_disabled":false,"rental_uris":{"android":"levelo://app?vid=731e118e-1f09-493b-a790-1ef41af71029","ios":"levelo://app?vid=731e118e-1f09-493b-a790-1ef41af71029"},"vehicle_type_id":"4","last_reported":1725711245,"current_range_meters":28400,"station_id":"ce4bgs12rcd13ifvqcag","pricing_plan_id":"cebpf4jnsgd1na2vs0mg"},{"bike_id":"77de31fd-c17e-4f46-a7cc-a8fe983e7c00","system_id":"levelo_inurba_marseille","lat":43.305706,"lon":5.365654,"is_reserved":false,"is_disabled":false,"rental_uris":{"android":"levelo://app?vid=77de31fd-c17e-4f46-a7cc-a8fe983e7c00","ios":"levelo://app?vid=77de31fd-c17e-4f46-a7cc-a8fe983e7c00"},"vehicle_type_id":"4","last_reported":1725711245,"current_range_meters":19200,"station_id":"ce4bgs12rcd13ifvqcag","pricing_plan_id":"cebpf4jnsgd1na2vs0mg"},{"bike_id":"888c1cb5-9b9f-497a-91a4-6608a422b035","system_id":"levelo_inurba_marseille","lat":43.305714,"lon":5.365633,"is_reserved":false,"is_disabled":false,"rental_uris":{"android":"levelo://app?vid=888c1cb5-9b9f-497a-91a4-6608a422b035","ios":"levelo://app?vid=888c1cb5-9b9f-497a-91a4-6608a422b035"},"vehicle_type_id":"4","last_reported":1725711245,"current_range_meters":20000,"station_id":"ce4bgs12rcd13ifvqcag","pricing_plan_id":"cebpf4jnsgd1na2vs0mg"},{"bike_id":"a6321b78-576a-49fb-b384-81860201efc8","system_id":"levelo_inurba_marseille","lat":43.305706,"lon":5.365654,"is_reserved":false,"is_disabled":false,"rental_uris":{"android":"levelo://app?vid=a6321b78-576a-49fb-b384-81860201efc8","ios":"levelo://app?vid=a6321b78-576a-49fb-b384-81860201efc8"},"vehicle_type_id":"4","last_reported":1725711245,"current_range_meters":25200,"station_id":"ce4bgs12rcd13ifvqcag","pricing_plan_id":"cebpf4jnsgd1na2vs0mg"},{"bike_id":"de7d17e5-4952-4d65-a475-6aafbba0beb2","system_id":"levelo_inurba_marseille","lat":43.305714,"lon":5.365633,"is_reserved":false,"is_disabled":false,"rental_uris":{"android":"levelo://app?vid=de7d17e5-4952-4d65-a475-6aafbba0beb2","ios":"levelo://app?vid=de7d17e5-4952-4d65-a475-6aafbba0beb2"},"vehicle_type_id":"4","last_reported":1725711245,"current_range_meters":23200,"station_id":"ce4bgs12rcd13ifvqcag","pricing_plan_id":"cebpf4jnsgd1na2vs0mg"},{"bike_id":"79c0a146-901c-4c6b-9003-2bf1f426a171","system_id":"levelo_inurba_marseille","lat":43.305706,"lon":5.365654,"is_reserved":false,"is_disabled":false,"rental_uris":{"android":"levelo://app?vid=79c0a146-901c-4c6b-9003-2bf1f426a171","ios":"levelo://app?vid=79c0a146-901c-4c6b-9003-2bf1f426a171"},"vehicle_type_id":"4","last_reported":1725711245,"current_range_meters":20000,"station_id":"ce4bgs12rcd13ifvqcag","pricing_plan_id":"cebpf4jnsgd1na2vs0mg"},{"bike_id":"ef99cd7a-4d5f-497e-b6fb-cf9f68ce81fd","system_id":"levelo_inurba_marseille","lat":43.305706,"lon":5.365654,"is_reserved":false,"is_disabled":false,"rental_uris":{"android":"levelo://app?vid=ef99cd7a-4d5f-497e-b6fb-cf9f68ce81fd","ios":"levelo://app?vid=ef99cd7a-4d5f-497e-b6fb-cf9f68ce81fd"},"vehicle_type_id":"4","last_reported":1725711245,"current_range_meters":31600,"station_id":"ce4bgs12rcd13ifvqcag","pricing_plan_id":"cebpf4jnsgd1na2vs0mg"},{"bike_id":"ca2dc0d9-479c-484d-99df-16e90a8531b8","system_id":"levelo_inurba_marseille","lat":43.305706,"lon":5.365654,"is_reserved":false,"is_disabled":false,"rental_uris":{"android":"levelo://app?vid=ca2dc0d9-479c-484d-99df-16e90a8531b8","ios":"levelo://app?vid=ca2dc0d9-479c-484d-99df-16e90a8531b8"},"vehicle_type_id":"4","last_reported":1725711245,"current_range_meters":31600,"station_id":"ce4bgs12rcd13ifvqcag","pricing_plan_id":"cebpf4jnsgd1na2vs0mg"},{"bike_id":"c8ddbfd9-5f80-41d0-8d08-0e69b6e86779","system_id":"levelo_inurba_marseille","lat":43.305706,"lon":5.365654,"is_reserved":false,"is_disabled":false,"rental_uris":{"android":"levelo://app?vid=c8ddbfd9-5f80-41d0-8d08-0e69b6e86779","ios":"levelo://app?vid=c8ddbfd9-5f80-41d0-8d08-0e69b6e86779"},"vehicle_type_id":"4","last_reported":1725711245,"current_range_meters":16000,"station_id":"ce4bgs12rcd13ifvqcag","pricing_plan_id":"cebpf4jnsgd1na2vs0mg"},{"bike_id":"e958e188-3439-4e1b-ad41-ad2839dc1712","system_id":"levelo_inurba_marseille","lat":43.305989,"lon":5.37225,"is_reserved":false,"is_disabled":false,"rental_uris":{"android":"levelo://app?vid=e958e188-3439-4e1b-ad41-ad2839dc1712","ios":"levelo://app?vid=e958e188-3439-4e1b-ad41-ad2839dc1712"},"vehicle_type_id":"4","last_reported":1725711245,"current_range_meters":8400,"station_id":"ce4bgqh2rcd13ifvqc4g","pricing_plan_id":"cebpf4jnsgd1na2vs0mg"},{"bike_id":"d1d65cdc-f61c-4744-8cac-0b3b362fe9e2","system_id":"levelo_inurba_marseille","lat":43.311131,"lon":5.377651,"is_reserved":false,"is_disabled":false,"rental_uris":{"android":"levelo://app?vid=d1d65cdc-f61c-4744-8cac-0b3b362fe9e2","ios":"levelo://app?vid=d1d65cdc-f61c-4744-8cac-0b3b362fe9e2"},"vehicle_type_id":"4","last_reported":1725711245,"current_range_meters":4800,"station_id":"ce4bgt92rcd13ifvqcg0","pricing_plan_id":"cebpf4jnsgd1na2vs0mg"},{"bike_id":"12677fe6-790a-45b0-867e-f1068403259a","system_id":"levelo_inurba_marseille","lat":43.307945,"lon":5.376487,"is_reserved":false,"is_disabled":false,"rental_uris":{"android":"levelo://app?vid=12677fe6-790a-45b0-867e-f1068403259a","ios":"levelo://app?vid=12677fe6-790a-45b0-867e-f1068403259a"},"vehicle_type_id":"4","last_reported":1725711245,"current_range_meters":12000,"station_id":"ce4bgv92rcd13ifvqcq0","pricing_plan_id":"cebpf4jnsgd1na2vs0mg"},{"bike_id":"e6240958-5766-4e43-be3c-5414d3e93fa9","system_id":"levelo_inurba_marseille","lat":43.313327,"lon":5.37937,"is_reserved":false,"is_disabled":false,"rental_uris":{"android":"levelo://app?vid=e6240958-5766-4e43-be3c-5414d3e93fa9","ios":"levelo://app?vid=e6240958-5766-4e43-be3c-5414d3e93fa9"},"vehicle_type_id":"4","last_reported":1725711245,"current_range_meters":8400,"station_id":"","pricing_plan_id":"cebpf4jnsgd1na2vs0mg"},{"bike_id":"d3f0b7cc-b24c-4e37-acd8-3e704c49ec1b","system_id":"levelo_inurba_marseille","lat":43.30304,"lon":5.368987,"is_reserved":false,"is_disabled":false,"rental_uris":{"android":"levelo://app?vid=d3f0b7cc-b24c-4e37-acd8-3e704c49ec1b","ios":"levelo://app?vid=d3f0b7cc-b24c-4e37-acd8-3e704c49ec1b"},"vehicle_type_id":"4","last_reported":1725711245,"current_range_meters":31600,"station_id":"ce4bgqh2rcd13ifvqc5g","pricing_plan_id":"cebpf4jnsgd1na2vs0mg"},{"bike_id":"ab8c04c6-e065-40bf-9bb9-2a559bfa4af7","system_id":"levelo_inurba_marseille","lat":43.303046,"lon":5.368981,"is_reserved":false,"is_disabled":false,"rental_uris":{"android":"levelo://app?vid=ab8c04c6-e065-40bf-9bb9-2a559bfa4af7","ios":"levelo://app?vid=ab8c04c6-e065-40bf-9bb9-2a559bfa4af7"},"vehicle_type_id":"4","last_reported":1725711245,"current_range_meters":10000,"station_id":"ce4bgqh2rcd13ifvqc5g","pricing_plan_id":"cebpf4jnsgd1na2vs0mg"},{"bike_id":"22bc77a5-26a8-4d98-86a9-198976d21a3e","system_id":"levelo_inurba_marseille","lat":43.30304,"lon":5.368987,"is_reserved":false,"is_disabled":false,"rental_uris":{"android":"levelo://app?vid=22bc77a5-26a8-4d98-86a9-198976d21a3e","ios":"levelo://app?vid=22bc77a5-26a8-4d98-86a9-198976d21a3e"},"vehicle_type_id":"4","last_reported":1725711245,"current_range_meters":10400,"station_id":"ce4bgqh2rcd13ifvqc5g","pricing_plan_id":"cebpf4jnsgd1na2vs0mg"},{"bike_id":"0977ac2c-0a12-4225-9be7-70dc9ca73676","system_id":"levelo_inurba_marseille","lat":43.303046,"lon":5.368981,"is_reserved":false,"is_disabled":false,"rental_uris":{"android":"levelo://app?vid=0977ac2c-0a12-4225-9be7-70dc9ca73676","ios":"levelo://app?vid=0977ac2c-0a12-4225-9be7-70dc9ca73676"},"vehicle_type_id":"4","last_reported":1725711245,"current_range_meters":16400,"station_id":"ce4bgqh2rcd13ifvqc5g","pricing_plan_id":"cebpf4jnsgd1na2vs0mg"},{"bike_id":"b58bbec2-337c-466d-b432-5373f1c601e7","system_id":"levelo_inurba_marseille","lat":43.302877,"lon":5.370403,"is_reserved":false,"is_disabled":false,"rental_uris":{"android":"levelo://app?vid=b58bbec2-337c-466d-b432-5373f1c601e7","ios":"levelo://app?vid=b58bbec2-337c-466d-b432-5373f1c601e7"},"vehicle_type_id":"4","last_reported":1725711245,"current_range_meters":6800,"station_id":"","pricing_plan_id":"cebpf4jnsgd1na2vs0mg"},{"bike_id":"5c7e602c-f961-461f-96ab-799dea8e8115","system_id":"levelo_inurba_marseille","lat":43.32315,"lon":5.36737,"is_reserved":false,"is_disabled":false,"rental_uris":{"android":"levelo://app?vid=5c7e602c-f961-461f-96ab-799dea8e8115","ios":"levelo://app?vid=5c7e602c-f961-461f-96ab-799dea8e8115"},"vehicle_type_id":"4","last_reported":1725711245,"current_range_meters":14800,"station_id":"","pricing_plan_id":"cebpf4jnsgd1na2vs0mg"},{"bike_id":"844fe63f-d550-462e-8dbb-495e2f795030","system_id":"levelo_inurba_marseille","lat":43.301939,"lon":5.366286,"is_reserved":false,"is_disabled":false,"rental_uris":{"android":"levelo://app?vid=844fe63f-d550-462e-8dbb-495e2f795030","ios":"levelo://app?vid=844fe63f-d550-462e-8dbb-495e2f795030"},"vehicle_type_id":"4","last_reported":1725711245,"current_range_meters":26800,"station_id":"ce4bgrh2rcd13ifvqc8g","pricing_plan_id":"cebpf4jnsgd1na2vs0mg"},{"bike_id":"8c89bd28-a76c-4556-809a-d4c8609fa2e1","system_id":"levelo_inurba_marseille","lat":43.30808,"lon":5.38155,"is_reserved":false,"is_disabled":false,"rental_uris":{"android":"levelo://app?vid=8c89bd28-a76c-4556-809a-d4c8609fa2e1","ios":"levelo://app?vid=8c89bd28-a76c-4556-809a-d4c8609fa2e1"},"vehicle_type_id":"4","last_reported":1725711245,"current_range_meters":12000,"station_id":"ce4bgt12rcd13ifvqce0","pricing_plan_id":"cebpf4jnsgd1na2vs0mg"},{"bike_id":"4711c370-4451-4f3b-a9fa-925217b0ab77","system_id":"levelo_inurba_marseille","lat":43.30795,"lon":5.38154,"is_reserved":false,"is_disabled":false,"rental_uris":{"android":"levelo://app?vid=4711c370-4451-4f3b-a9fa-925217b0ab77","ios":"levelo://app?vid=4711c370-4451-4f3b-a9fa-925217b0ab77"},"vehicle_type_id":"4","last_reported":1725711245,"current_range_meters":21600,"station_id":"ce4bhbh2rcd13ifvqepg","pricing_plan_id":"cebpf4jnsgd1na2vs0mg"},{"bike_id":"5059a847-d414-4a85-9b6c-bdfd30520957","system_id":"levelo_inurba_marseille","lat":43.304606,"lon":5.379026,"is_reserved":false,"is_disabled":false,"rental_uris":{"android":"levelo://app?vid=5059a847-d414-4a85-9b6c-bdfd30520957","ios":"levelo://app?vid=5059a847-d414-4a85-9b6c-bdfd30520957"},"vehicle_type_id":"4","last_reported":1725711245,"current_range_meters":30000,"station_id":"ce4bgup2rcd13ifvqcn0","pricing_plan_id":"cebpf4jnsgd1na2vs0mg"},{"bike_id":"dd936932-2142-4c24-9b0a-fa4eb35a8eba","system_id":"levelo_inurba_marseille","lat":43.304606,"lon":5.379026,"is_reserved":false,"is_disabled":false,"rental_uris":{"android":"levelo://app?vid=dd936932-2142-4c24-9b0a-fa4eb35a8eba","ios":"levelo://app?vid=dd936932-2142-4c24-9b0a-fa4eb35a8eba"},"vehicle_type_id":"4","last_reported":1725711245,"current_range_meters":30800,"station_id":"ce4bgup2rcd13ifvqcn0","pricing_plan_id":"cebpf4jnsgd1na2vs0mg"},{"bike_id":"b740ec4c-0f28-4a94-9e2f-c2173c08d505","system_id":"levelo_inurba_marseille","lat":43.30483,"lon":5.37907,"is_reserved":false,"is_disabled":false,"rental_uris":{"android":"levelo://app?vid=b740ec4c-0f28-4a94-9e2f-c2173c08d505","ios":"levelo://app?vid=b740ec4c-0f28-4a94-9e2f-c2173c08d505"},"vehicle_type_id":"4","last_reported":1725711245,"current_range_meters":0,"station_id":"ce4bgup2rcd13ifvqcn0","pricing_plan_id":"cebpf4jnsgd1na2vs0mg"},{"bike_id":"487b4d21-2988-4ddb-87cb-54b1475da679","system_id":"levelo_inurba_marseille","lat":43.316893,"lon":5.382203,"is_reserved":false,"is_disabled":false,"rental_uris":{"android":"levelo://app?vid=487b4d21-2988-4ddb-87cb-54b1475da679","ios":"levelo://app?vid=487b4d21-2988-4ddb-87cb-54b1475da679"},"vehicle_type_id":"4","last_reported":1725711245,"current_range_meters":400,"station_id":"","pricing_plan_id":"cebpf4jnsgd1na2vs0mg"},{"bike_id":"f941bc6d-64ae-400d-970b-0065f758d122","system_id":"levelo_inurba_marseille","lat":43.304606,"lon":5.379026,"is_reserved":false,"is_disabled":false,"rental_uris":{"android":"levelo://app?vid=f941bc6d-64ae-400d-970b-0065f758d122","ios":"levelo://app?vid=f941bc6d-64ae-400d-970b-0065f758d122"},"vehicle_type_id":"4","last_reported":1725711245,"current_range_meters":14000,"station_id":"ce4bgup2rcd13ifvqcn0","pricing_plan_id":"cebpf4jnsgd1na2vs0mg"},{"bike_id":"8796e1e2-9d27-4409-9c2f-b0f5956d465c","system_id":"levelo_inurba_marseille","lat":43.304606,"lon":5.379026,"is_reserved":false,"is_disabled":false,"rental_uris":{"android":"levelo://app?vid=8796e1e2-9d27-4409-9c2f-b0f5956d465c","ios":"levelo://app?vid=8796e1e2-9d27-4409-9c2f-b0f5956d465c"},"vehicle_type_id":"4","last_reported":1725711245,"current_range_meters":31600,"station_id":"ce4bgup2rcd13ifvqcn0","pricing_plan_id":"cebpf4jnsgd1na2vs0mg"},{"bike_id":"1f5409ab-ebed-444b-bdbc-4e04c3355d30","system_id":"levelo_inurba_marseille","lat":43.304606,"lon":5.379026,"is_reserved":false,"is_disabled":false,"rental_uris":{"android":"levelo://app?vid=1f5409ab-ebed-444b-bdbc-4e04c3355d30","ios":"levelo://app?vid=1f5409ab-ebed-444b-bdbc-4e04c3355d30"},"vehicle_type_id":"4","last_reported":1725711245,"current_range_meters":25200,"station_id":"ce4bgup2rcd13ifvqcn0","pricing_plan_id":"cebpf4jnsgd1na2vs0mg"},{"bike_id":"3467d0f8-ac3f-4f6a-8955-c46ae773695e","system_id":"levelo_inurba_marseille","lat":43.304606,"lon":5.379026,"is_reserved":false,"is_disabled":false,"rental_uris":{"android":"levelo://app?vid=3467d0f8-ac3f-4f6a-8955-c46ae773695e","ios":"levelo://app?vid=3467d0f8-ac3f-4f6a-8955-c46ae773695e"},"vehicle_type_id":"4","last_reported":1725711245,"current_range_meters":4400,"station_id":"ce4bgup2rcd13ifvqcn0","pricing_plan_id":"cebpf4jnsgd1na2vs0mg"},{"bike_id":"fb415186-3a94-4ee1-9b96-a27876108abf","system_id":"levelo_inurba_marseille","lat":43.304606,"lon":5.379026,"is_reserved":false,"is_disabled":false,"rental_uris":{"android":"levelo://app?vid=fb415186-3a94-4ee1-9b96-a27876108abf","ios":"levelo://app?vid=fb415186-3a94-4ee1-9b96-a27876108abf"},"vehicle_type_id":"4","last_reported":1725711245,"current_range_meters":24400,"station_id":"ce4bgup2rcd13ifvqcn0","pricing_plan_id":"cebpf4jnsgd1na2vs0mg"},{"bike_id":"a3cfe848-aee8-49db-a195-6a4fa972964f","system_id":"levelo_inurba_marseille","lat":43.304606,"lon":5.379026,"is_reserved":false,"is_disabled":false,"rental_uris":{"android":"levelo://app?vid=a3cfe848-aee8-49db-a195-6a4fa972964f","ios":"levelo://app?vid=a3cfe848-aee8-49db-a195-6a4fa972964f"},"vehicle_type_id":"4","last_reported":1725711245,"current_range_meters":22000,"station_id":"ce4bgup2rcd13ifvqcn0","pricing_plan_id":"cebpf4jnsgd1na2vs0mg"},{"bike_id":"b83a842b-b7ec-4e24-9a16-49f0b8a0d607","system_id":"levelo_inurba_marseille","lat":43.304606,"lon":5.379026,"is_reserved":false,"is_disabled":false,"rental_uris":{"android":"levelo://app?vid=b83a842b-b7ec-4e24-9a16-49f0b8a0d607","ios":"levelo://app?vid=b83a842b-b7ec-4e24-9a16-49f0b8a0d607"},"vehicle_type_id":"4","last_reported":1725711245,"current_range_meters":6800,"station_id":"ce4bgup2rcd13ifvqcn0","pricing_plan_id":"cebpf4jnsgd1na2vs0mg"},{"bike_id":"33a5524d-9e06-48a0-b030-c181cf3ce0c9","system_id":"levelo_inurba_marseille","lat":43.324771,"lon":5.36557,"is_reserved":false,"is_disabled":false,"rental_uris":{"android":"levelo://app?vid=33a5524d-9e06-48a0-b030-c181cf3ce0c9","ios":"levelo://app?vid=33a5524d-9e06-48a0-b030-c181cf3ce0c9"},"vehicle_type_id":"4","last_reported":1725711245,"current_range_meters":12000,"station_id":"ce4bhs12rcd13ifvqhvg","pricing_plan_id":"cebpf4jnsgd1na2vs0mg"},{"bike_id":"4a03a0e4-a983-4f33-b412-5df1b66448b1","system_id":"levelo_inurba_marseille","lat":43.324771,"lon":5.36557,"is_reserved":false,"is_disabled":false,"rental_uris":{"android":"levelo://app?vid=4a03a0e4-a983-4f33-b412-5df1b66448b1","ios":"levelo://app?vid=4a03a0e4-a983-4f33-b412-5df1b66448b1"},"vehicle_type_id":"4","last_reported":1725711245,"current_range_meters":9200,"station_id":"ce4bhs12rcd13ifvqhvg","pricing_plan_id":"cebpf4jnsgd1na2vs0mg"},{"bike_id":"0984b71c-6f69-448e-8521-2cb8a14f6e06","system_id":"levelo_inurba_marseille","lat":43.324771,"lon":5.36557,"is_reserved":false,"is_disabled":false,"rental_uris":{"android":"levelo://app?vid=0984b71c-6f69-448e-8521-2cb8a14f6e06","ios":"levelo://app?vid=0984b71c-6f69-448e-8521-2cb8a14f6e06"},"vehicle_type_id":"4","last_reported":1725711245,"current_range_meters":31200,"station_id":"ce4bhs12rcd13ifvqhvg","pricing_plan_id":"cebpf4jnsgd1na2vs0mg"},{"bike_id":"c30bb852-e35e-45ef-b5b6-a933a90c8e44","system_id":"levelo_inurba_marseille","lat":43.324771,"lon":5.36557,"is_reserved":false,"is_disabled":false,"rental_uris":{"android":"levelo://app?vid=c30bb852-e35e-45ef-b5b6-a933a90c8e44","ios":"levelo://app?vid=c30bb852-e35e-45ef-b5b6-a933a90c8e44"},"vehicle_type_id":"4","last_reported":1725711245,"current_range_meters":31200,"station_id":"ce4bhs12rcd13ifvqhvg","pricing_plan_id":"cebpf4jnsgd1na2vs0mg"},{"bike_id":"a3691860-e732-4d4a-a2ad-f41ef4a779e4","system_id":"levelo_inurba_marseille","lat":43.324771,"lon":5.36557,"is_reserved":false,"is_disabled":false,"rental_uris":{"android":"levelo://app?vid=a3691860-e732-4d4a-a2ad-f41ef4a779e4","ios":"levelo://app?vid=a3691860-e732-4d4a-a2ad-f41ef4a779e4"},"vehicle_type_id":"4","last_reported":1725711245,"current_range_meters":21200,"station_id":"ce4bhs12rcd13ifvqhvg","pricing_plan_id":"cebpf4jnsgd1na2vs0mg"},{"bike_id":"54c477a5-2aa7-4fbb-b610-40a3f68ca827","system_id":"levelo_inurba_marseille","lat":43.324771,"lon":5.36557,"is_reserved":false,"is_disabled":false,"rental_uris":{"android":"levelo://app?vid=54c477a5-2aa7-4fbb-b610-40a3f68ca827","ios":"levelo://app?vid=54c477a5-2aa7-4fbb-b610-40a3f68ca827"},"vehicle_type_id":"4","last_reported":1725711245,"current_range_meters":18800,"station_id":"ce4bhs12rcd13ifvqhvg","pricing_plan_id":"cebpf4jnsgd1na2vs0mg"},{"bike_id":"c81dba2c-e2bb-4032-bdb6-83c41e5cf771","system_id":"levelo_inurba_marseille","lat":43.324771,"lon":5.36557,"is_reserved":false,"is_disabled":false,"rental_uris":{"android":"levelo://app?vid=c81dba2c-e2bb-4032-bdb6-83c41e5cf771","ios":"levelo://app?vid=c81dba2c-e2bb-4032-bdb6-83c41e5cf771"},"vehicle_type_id":"4","last_reported":1725711245,"current_range_meters":23600,"station_id":"ce4bhs12rcd13ifvqhvg","pricing_plan_id":"cebpf4jnsgd1na2vs0mg"},{"bike_id":"d5959fbd-009b-4440-810f-601f3cb302d3","system_id":"levelo_inurba_marseille","lat":43.324771,"lon":5.36557,"is_reserved":false,"is_disabled":false,"rental_uris":{"android":"levelo://app?vid=d5959fbd-009b-4440-810f-601f3cb302d3","ios":"levelo://app?vid=d5959fbd-009b-4440-810f-601f3cb302d3"},"vehicle_type_id":"4","last_reported":1725711245,"current_range_meters":6800,"station_id":"ce4bhs12rcd13ifvqhvg","pricing_plan_id":"cebpf4jnsgd1na2vs0mg"},{"bike_id":"8e8b7298-bda1-42f1-9283-662fa4189aca","system_id":"levelo_inurba_marseille","lat":43.324771,"lon":5.36557,"is_reserved":false,"is_disabled":false,"rental_uris":{"android":"levelo://app?vid=8e8b7298-bda1-42f1-9283-662fa4189aca","ios":"levelo://app?vid=8e8b7298-bda1-42f1-9283-662fa4189aca"},"vehicle_type_id":"4","last_reported":1725711245,"current_range_meters":31200,"station_id":"ce4bhs12rcd13ifvqhvg","pricing_plan_id":"cebpf4jnsgd1na2vs0mg"},{"bike_id":"ed6742d1-4cec-455c-bbc7-f5a0651a802c","system_id":"levelo_inurba_marseille","lat":43.324888,"lon":5.36574,"is_reserved":false,"is_disabled":false,"rental_uris":{"android":"levelo://app?vid=ed6742d1-4cec-455c-bbc7-f5a0651a802c","ios":"levelo://app?vid=ed6742d1-4cec-455c-bbc7-f5a0651a802c"},"vehicle_type_id":"4","last_reported":1725711245,"current_range_meters":26800,"station_id":"ce4bhs12rcd13ifvqhvg","pricing_plan_id":"cebpf4jnsgd1na2vs0mg"},{"bike_id":"0affed82-db5d-4f1c-9824-f792968eeb44","system_id":"levelo_inurba_marseille","lat":43.324771,"lon":5.36557,"is_reserved":false,"is_disabled":false,"rental_uris":{"android":"levelo://app?vid=0affed82-db5d-4f1c-9824-f792968eeb44","ios":"levelo://app?vid=0affed82-db5d-4f1c-9824-f792968eeb44"},"vehicle_type_id":"4","last_reported":1725711245,"current_range_meters":27200,"station_id":"ce4bhs12rcd13ifvqhvg","pricing_plan_id":"cebpf4jnsgd1na2vs0mg"},{"bike_id":"ceafc242-0873-411d-9016-4855dc3b18ab","system_id":"levelo_inurba_marseille","lat":43.302784,"lon":5.377158,"is_reserved":false,"is_disabled":false,"rental_uris":{"android":"levelo://app?vid=ceafc242-0873-411d-9016-4855dc3b18ab","ios":"levelo://app?vid=ceafc242-0873-411d-9016-4855dc3b18ab"},"vehicle_type_id":"4","last_reported":1725711245,"current_range_meters":23600,"station_id":"ce4bguh2rcd13ifvqcj0","pricing_plan_id":"cebpf4jnsgd1na2vs0mg"},{"bike_id":"97197822-d761-43cc-bcb1-1a4fe5824e92","system_id":"levelo_inurba_marseille","lat":43.302784,"lon":5.377158,"is_reserved":false,"is_disabled":false,"rental_uris":{"android":"levelo://app?vid=97197822-d761-43cc-bcb1-1a4fe5824e92","ios":"levelo://app?vid=97197822-d761-43cc-bcb1-1a4fe5824e92"},"vehicle_type_id":"4","last_reported":1725711245,"current_range_meters":2400,"station_id":"ce4bguh2rcd13ifvqcj0","pricing_plan_id":"cebpf4jnsgd1na2vs0mg"},{"bike_id":"55890cc6-564c-40f6-bc8a-f5265bf8144e","system_id":"levelo_inurba_marseille","lat":43.302784,"lon":5.377158,"is_reserved":false,"is_disabled":false,"rental_uris":{"android":"levelo://app?vid=55890cc6-564c-40f6-bc8a-f5265bf8144e","ios":"levelo://app?vid=55890cc6-564c-40f6-bc8a-f5265bf8144e"},"vehicle_type_id":"4","last_reported":1725711245,"current_range_meters":20800,"station_id":"ce4bguh2rcd13ifvqcj0","pricing_plan_id":"cebpf4jnsgd1na2vs0mg"},{"bike_id":"23b4c972-6ad7-4f0d-864d-6d945766ed8f","system_id":"levelo_inurba_marseille","lat":43.302784,"lon":5.377158,"is_reserved":false,"is_disabled":false,"rental_uris":{"android":"levelo://app?vid=23b4c972-6ad7-4f0d-864d-6d945766ed8f","ios":"levelo://app?vid=23b4c972-6ad7-4f0d-864d-6d945766ed8f"},"vehicle_type_id":"4","last_reported":1725711245,"current_range_meters":20000,"station_id":"ce4bguh2rcd13ifvqcj0","pricing_plan_id":"cebpf4jnsgd1na2vs0mg"},{"bike_id":"5db767da-9815-4c92-9753-d8582bb27a19","system_id":"levelo_inurba_marseille","lat":43.301429,"lon":5.37413,"is_reserved":false,"is_disabled":false,"rental_uris":{"android":"levelo://app?vid=5db767da-9815-4c92-9753-d8582bb27a19","ios":"levelo://app?vid=5db767da-9815-4c92-9753-d8582bb27a19"},"vehicle_type_id":"4","last_reported":1725711245,"current_range_meters":17600,"station_id":"ce4bgs92rcd13ifvqcc0","pricing_plan_id":"cebpf4jnsgd1na2vs0mg"},{"bike_id":"f52fc69d-9352-4278-a75f-321e291060d8","system_id":"levelo_inurba_marseille","lat":43.30149,"lon":5.37412,"is_reserved":false,"is_disabled":false,"rental_uris":{"android":"levelo://app?vid=f52fc69d-9352-4278-a75f-321e291060d8","ios":"levelo://app?vid=f52fc69d-9352-4278-a75f-321e291060d8"},"vehicle_type_id":"4","last_reported":1725711245,"current_range_meters":13200,"station_id":"ce4bgs92rcd13ifvqcc0","pricing_plan_id":"cebpf4jnsgd1na2vs0mg"},{"bike_id":"2f8ba309-042f-4257-8377-0acfefa26ca7","system_id":"levelo_inurba_marseille","lat":43.302784,"lon":5.377158,"is_reserved":false,"is_disabled":false,"rental_uris":{"android":"levelo://app?vid=2f8ba309-042f-4257-8377-0acfefa26ca7","ios":"levelo://app?vid=2f8ba309-042f-4257-8377-0acfefa26ca7"},"vehicle_type_id":"4","last_reported":1725711245,"current_range_meters":31600,"station_id":"ce4bguh2rcd13ifvqcj0","pricing_plan_id":"cebpf4jnsgd1na2vs0mg"},{"bike_id":"42c1c544-c883-427f-8285-071437e33a1e","system_id":"levelo_inurba_marseille","lat":43.30149,"lon":5.37422,"is_reserved":false,"is_disabled":false,"rental_uris":{"android":"levelo://app?vid=42c1c544-c883-427f-8285-071437e33a1e","ios":"levelo://app?vid=42c1c544-c883-427f-8285-071437e33a1e"},"vehicle_type_id":"4","last_reported":1725711245,"current_range_meters":0,"station_id":"ce4bgs92rcd13ifvqcc0","pricing_plan_id":"cebpf4jnsgd1na2vs0mg"},{"bike_id":"24266fb7-9ee1-4c07-a1fe-75099f925c5c","system_id":"levelo_inurba_marseille","lat":43.30277,"lon":5.37716,"is_reserved":false,"is_disabled":false,"rental_uris":{"android":"levelo://app?vid=24266fb7-9ee1-4c07-a1fe-75099f925c5c","ios":"levelo://app?vid=24266fb7-9ee1-4c07-a1fe-75099f925c5c"},"vehicle_type_id":"4","last_reported":1725711245,"current_range_meters":20000,"station_id":"ce4bguh2rcd13ifvqcj0","pricing_plan_id":"cebpf4jnsgd1na2vs0mg"},{"bike_id":"ddc980b3-c2e7-4ccb-b8e4-f8494abce111","system_id":"levelo_inurba_marseille","lat":43.302784,"lon":5.377158,"is_reserved":false,"is_disabled":false,"rental_uris":{"android":"levelo://app?vid=ddc980b3-c2e7-4ccb-b8e4-f8494abce111","ios":"levelo://app?vid=ddc980b3-c2e7-4ccb-b8e4-f8494abce111"},"vehicle_type_id":"4","last_reported":1725711245,"current_range_meters":31200,"station_id":"ce4bguh2rcd13ifvqcj0","pricing_plan_id":"cebpf4jnsgd1na2vs0mg"},{"bike_id":"eec4b531-de3f-4dc5-8dcd-0dfe4ac81ae5","system_id":"levelo_inurba_marseille","lat":43.302784,"lon":5.377158,"is_reserved":false,"is_disabled":false,"rental_uris":{"android":"levelo://app?vid=eec4b531-de3f-4dc5-8dcd-0dfe4ac81ae5","ios":"levelo://app?vid=eec4b531-de3f-4dc5-8dcd-0dfe4ac81ae5"},"vehicle_type_id":"4","last_reported":1725711245,"current_range_meters":32000,"station_id":"ce4bguh2rcd13ifvqcj0","pricing_plan_id":"cebpf4jnsgd1na2vs0mg"},{"bike_id":"237c7243-b2b9-448d-8d9c-f6bfae726f25","system_id":"levelo_inurba_marseille","lat":43.301429,"lon":5.37413,"is_reserved":false,"is_disabled":false,"rental_uris":{"android":"levelo://app?vid=237c7243-b2b9-448d-8d9c-f6bfae726f25","ios":"levelo://app?vid=237c7243-b2b9-448d-8d9c-f6bfae726f25"},"vehicle_type_id":"4","last_reported":1725711245,"current_range_meters":16800,"station_id":"ce4bgs92rcd13ifvqcc0","pricing_plan_id":"cebpf4jnsgd1na2vs0mg"},{"bike_id":"c9f12051-5a75-4d97-88c4-55bb704090a5","system_id":"levelo_inurba_marseille","lat":43.301429,"lon":5.37413,"is_reserved":false,"is_disabled":false,"rental_uris":{"android":"levelo://app?vid=c9f12051-5a75-4d97-88c4-55bb704090a5","ios":"levelo://app?vid=c9f12051-5a75-4d97-88c4-55bb704090a5"},"vehicle_type_id":"4","last_reported":1725711245,"current_range_meters":13200,"station_id":"ce4bgs92rcd13ifvqcc0","pricing_plan_id":"cebpf4jnsgd1na2vs0mg"},{"bike_id":"1ddaa9e0-7162-400f-a561-0b2fb82c95b3","system_id":"levelo_inurba_marseille","lat":43.301429,"lon":5.37413,"is_reserved":false,"is_disabled":false,"rental_uris":{"android":"levelo://app?vid=1ddaa9e0-7162-400f-a561-0b2fb82c95b3","ios":"levelo://app?vid=1ddaa9e0-7162-400f-a561-0b2fb82c95b3"},"vehicle_type_id":"4","last_reported":1725711245,"current_range_meters":4800,"station_id":"ce4bgs92rcd13ifvqcc0","pricing_plan_id":"cebpf4jnsgd1na2vs0mg"},{"bike_id":"e806ec38-9087-43b0-bc97-276c01819845","system_id":"levelo_inurba_marseille","lat":43.30143,"lon":5.37413,"is_reserved":false,"is_disabled":false,"rental_uris":{"android":"levelo://app?vid=e806ec38-9087-43b0-bc97-276c01819845","ios":"levelo://app?vid=e806ec38-9087-43b0-bc97-276c01819845"},"vehicle_type_id":"4","last_reported":1725711245,"current_range_meters":7600,"station_id":"ce4bgs92rcd13ifvqcc0","pricing_plan_id":"cebpf4jnsgd1na2vs0mg"},{"bike_id":"fce7767e-9bd2-46a0-97e0-4838ca72e46e","system_id":"levelo_inurba_marseille","lat":43.30143,"lon":5.37413,"is_reserved":false,"is_disabled":false,"rental_uris":{"android":"levelo://app?vid=fce7767e-9bd2-46a0-97e0-4838ca72e46e","ios":"levelo://app?vid=fce7767e-9bd2-46a0-97e0-4838ca72e46e"},"vehicle_type_id":"4","last_reported":1725711245,"current_range_meters":0,"station_id":"ce4bgs92rcd13ifvqcc0","pricing_plan_id":"cebpf4jnsgd1na2vs0mg"},{"bike_id":"26a4e841-63c4-4ead-b151-539bde1ac509","system_id":"levelo_inurba_marseille","lat":43.301429,"lon":5.37413,"is_reserved":false,"is_disabled":false,"rental_uris":{"android":"levelo://app?vid=26a4e841-63c4-4ead-b151-539bde1ac509","ios":"levelo://app?vid=26a4e841-63c4-4ead-b151-539bde1ac509"},"vehicle_type_id":"4","last_reported":1725711245,"current_range_meters":11200,"station_id":"ce4bgs92rcd13ifvqcc0","pricing_plan_id":"cebpf4jnsgd1na2vs0mg"},{"bike_id":"660cb85d-ee7d-45af-b062-fc02745b9cdc","system_id":"levelo_inurba_marseille","lat":43.301429,"lon":5.37413,"is_reserved":false,"is_disabled":false,"rental_uris":{"android":"levelo://app?vid=660cb85d-ee7d-45af-b062-fc02745b9cdc","ios":"levelo://app?vid=660cb85d-ee7d-45af-b062-fc02745b9cdc"},"vehicle_type_id":"4","last_reported":1725711245,"current_range_meters":17200,"station_id":"ce4bgs92rcd13ifvqcc0","pricing_plan_id":"cebpf4jnsgd1na2vs0mg"},{"bike_id":"5dd1d915-7b0d-4de6-a015-335d3d3f9075","system_id":"levelo_inurba_marseille","lat":43.30143,"lon":5.37413,"is_reserved":false,"is_disabled":false,"rental_uris":{"android":"levelo://app?vid=5dd1d915-7b0d-4de6-a015-335d3d3f9075","ios":"levelo://app?vid=5dd1d915-7b0d-4de6-a015-335d3d3f9075"},"vehicle_type_id":"4","last_reported":1725711245,"current_range_meters":1200,"station_id":"ce4bgs92rcd13ifvqcc0","pricing_plan_id":"cebpf4jnsgd1na2vs0mg"},{"bike_id":"3a2c994e-5050-4553-b774-4ebd670e754b","system_id":"levelo_inurba_marseille","lat":43.301429,"lon":5.37413,"is_reserved":false,"is_disabled":false,"rental_uris":{"android":"levelo://app?vid=3a2c994e-5050-4553-b774-4ebd670e754b","ios":"levelo://app?vid=3a2c994e-5050-4553-b774-4ebd670e754b"},"vehicle_type_id":"4","last_reported":1725711245,"current_range_meters":5600,"station_id":"ce4bgs92rcd13ifvqcc0","pricing_plan_id":"cebpf4jnsgd1na2vs0mg"},{"bike_id":"0def6858-59cb-471a-85b3-6553fb74d0a0","system_id":"levelo_inurba_marseille","lat":43.30137,"lon":5.37408,"is_reserved":false,"is_disabled":false,"rental_uris":{"android":"levelo://app?vid=0def6858-59cb-471a-85b3-6553fb74d0a0","ios":"levelo://app?vid=0def6858-59cb-471a-85b3-6553fb74d0a0"},"vehicle_type_id":"4","last_reported":1725711245,"current_range_meters":3200,"station_id":"ce4bgs92rcd13ifvqcc0","pricing_plan_id":"cebpf4jnsgd1na2vs0mg"},{"bike_id":"81c5f5b6-3435-4cf3-832e-450e42212513","system_id":"levelo_inurba_marseille","lat":43.301429,"lon":5.37413,"is_reserved":false,"is_disabled":false,"rental_uris":{"android":"levelo://app?vid=81c5f5b6-3435-4cf3-832e-450e42212513","ios":"levelo://app?vid=81c5f5b6-3435-4cf3-832e-450e42212513"},"vehicle_type_id":"4","last_reported":1725711245,"current_range_meters":23600,"station_id":"ce4bgs92rcd13ifvqcc0","pricing_plan_id":"cebpf4jnsgd1na2vs0mg"},{"bike_id":"07b77677-eee8-4c99-8036-549999ee4db6","system_id":"levelo_inurba_marseille","lat":43.302784,"lon":5.377158,"is_reserved":false,"is_disabled":false,"rental_uris":{"android":"levelo://app?vid=07b77677-eee8-4c99-8036-549999ee4db6","ios":"levelo://app?vid=07b77677-eee8-4c99-8036-549999ee4db6"},"vehicle_type_id":"4","last_reported":1725711245,"current_range_meters":17200,"station_id":"ce4bguh2rcd13ifvqcj0","pricing_plan_id":"cebpf4jnsgd1na2vs0mg"},{"bike_id":"9c7fc49d-6911-4a16-a834-5c53701503d4","system_id":"levelo_inurba_marseille","lat":43.30141,"lon":5.37422,"is_reserved":false,"is_disabled":false,"rental_uris":{"android":"levelo://app?vid=9c7fc49d-6911-4a16-a834-5c53701503d4","ios":"levelo://app?vid=9c7fc49d-6911-4a16-a834-5c53701503d4"},"vehicle_type_id":"4","last_reported":1725711245,"current_range_meters":13600,"station_id":"ce4bgs92rcd13ifvqcc0","pricing_plan_id":"cebpf4jnsgd1na2vs0mg"},{"bike_id":"9c2fbdcb-185a-4a6a-a4db-ed69eb066ab8","system_id":"levelo_inurba_marseille","lat":43.30138,"lon":5.37414,"is_reserved":false,"is_disabled":false,"rental_uris":{"android":"levelo://app?vid=9c2fbdcb-185a-4a6a-a4db-ed69eb066ab8","ios":"levelo://app?vid=9c2fbdcb-185a-4a6a-a4db-ed69eb066ab8"},"vehicle_type_id":"4","last_reported":1725711245,"current_range_meters":15600,"station_id":"ce4bgs92rcd13ifvqcc0","pricing_plan_id":"cebpf4jnsgd1na2vs0mg"},{"bike_id":"0258a2ec-3943-45a3-a38c-2d3a4a922e3b","system_id":"levelo_inurba_marseille","lat":43.30143,"lon":5.37413,"is_reserved":false,"is_disabled":false,"rental_uris":{"android":"levelo://app?vid=0258a2ec-3943-45a3-a38c-2d3a4a922e3b","ios":"levelo://app?vid=0258a2ec-3943-45a3-a38c-2d3a4a922e3b"},"vehicle_type_id":"4","last_reported":1725711245,"current_range_meters":29600,"station_id":"ce4bgs92rcd13ifvqcc0","pricing_plan_id":"cebpf4jnsgd1na2vs0mg"},{"bike_id":"2786ef64-7756-4902-be56-113b45d52440","system_id":"levelo_inurba_marseille","lat":43.301429,"lon":5.37413,"is_reserved":false,"is_disabled":false,"rental_uris":{"android":"levelo://app?vid=2786ef64-7756-4902-be56-113b45d52440","ios":"levelo://app?vid=2786ef64-7756-4902-be56-113b45d52440"},"vehicle_type_id":"4","last_reported":1725711245,"current_range_meters":19600,"station_id":"ce4bgs92rcd13ifvqcc0","pricing_plan_id":"cebpf4jnsgd1na2vs0mg"},{"bike_id":"e0b60dbc-842a-44ad-b963-ab4e0203b210","system_id":"levelo_inurba_marseille","lat":43.301429,"lon":5.37413,"is_reserved":false,"is_disabled":false,"rental_uris":{"android":"levelo://app?vid=e0b60dbc-842a-44ad-b963-ab4e0203b210","ios":"levelo://app?vid=e0b60dbc-842a-44ad-b963-ab4e0203b210"},"vehicle_type_id":"4","last_reported":1725711245,"current_range_meters":2800,"station_id":"ce4bgs92rcd13ifvqcc0","pricing_plan_id":"cebpf4jnsgd1na2vs0mg"},{"bike_id":"115e6ee5-79a8-4786-b06b-9954a6d8e83c","system_id":"levelo_inurba_marseille","lat":43.30137,"lon":5.37426,"is_reserved":false,"is_disabled":false,"rental_uris":{"android":"levelo://app?vid=115e6ee5-79a8-4786-b06b-9954a6d8e83c","ios":"levelo://app?vid=115e6ee5-79a8-4786-b06b-9954a6d8e83c"},"vehicle_type_id":"4","last_reported":1725711245,"current_range_meters":2400,"station_id":"ce4bgs92rcd13ifvqcc0","pricing_plan_id":"cebpf4jnsgd1na2vs0mg"},{"bike_id":"d7968f90-c4b2-451b-ba91-0b593766e5c5","system_id":"levelo_inurba_marseille","lat":43.30135,"lon":5.37428,"is_reserved":false,"is_disabled":false,"rental_uris":{"android":"levelo://app?vid=d7968f90-c4b2-451b-ba91-0b593766e5c5","ios":"levelo://app?vid=d7968f90-c4b2-451b-ba91-0b593766e5c5"},"vehicle_type_id":"4","last_reported":1725711245,"current_range_meters":16800,"station_id":"ce4bgs92rcd13ifvqcc0","pricing_plan_id":"cebpf4jnsgd1na2vs0mg"},{"bike_id":"9735787b-bb95-4695-bfb5-873e00d170b8","system_id":"levelo_inurba_marseille","lat":43.301429,"lon":5.37413,"is_reserved":false,"is_disabled":false,"rental_uris":{"android":"levelo://app?vid=9735787b-bb95-4695-bfb5-873e00d170b8","ios":"levelo://app?vid=9735787b-bb95-4695-bfb5-873e00d170b8"},"vehicle_type_id":"4","last_reported":1725711245,"current_range_meters":18800,"station_id":"ce4bgs92rcd13ifvqcc0","pricing_plan_id":"cebpf4jnsgd1na2vs0mg"},{"bike_id":"356d1c33-e2d2-4e53-8393-82c5044a28a8","system_id":"levelo_inurba_marseille","lat":43.30133,"lon":5.37434,"is_reserved":false,"is_disabled":false,"rental_uris":{"android":"levelo://app?vid=356d1c33-e2d2-4e53-8393-82c5044a28a8","ios":"levelo://app?vid=356d1c33-e2d2-4e53-8393-82c5044a28a8"},"vehicle_type_id":"4","last_reported":1725711245,"current_range_meters":26400,"station_id":"ce4bgs92rcd13ifvqcc0","pricing_plan_id":"cebpf4jnsgd1na2vs0mg"},{"bike_id":"7413cdfa-8aae-4c5b-b794-99832c43b23d","system_id":"levelo_inurba_marseille","lat":43.301429,"lon":5.37413,"is_reserved":false,"is_disabled":false,"rental_uris":{"android":"levelo://app?vid=7413cdfa-8aae-4c5b-b794-99832c43b23d","ios":"levelo://app?vid=7413cdfa-8aae-4c5b-b794-99832c43b23d"},"vehicle_type_id":"4","last_reported":1725711245,"current_range_meters":24400,"station_id":"ce4bgs92rcd13ifvqcc0","pricing_plan_id":"cebpf4jnsgd1na2vs0mg"},{"bike_id":"b7723872-ff68-43be-893c-213f4fdcc07b","system_id":"levelo_inurba_marseille","lat":43.30255,"lon":5.37723,"is_reserved":false,"is_disabled":false,"rental_uris":{"android":"levelo://app?vid=b7723872-ff68-43be-893c-213f4fdcc07b","ios":"levelo://app?vid=b7723872-ff68-43be-893c-213f4fdcc07b"},"vehicle_type_id":"4","last_reported":1725711245,"current_range_meters":23600,"station_id":"ce4bguh2rcd13ifvqcj0","pricing_plan_id":"cebpf4jnsgd1na2vs0mg"},{"bike_id":"4df696d9-3d19-4dd1-94dd-e1660708efa6","system_id":"levelo_inurba_marseille","lat":43.299222,"lon":5.365554,"is_reserved":false,"is_disabled":false,"rental_uris":{"android":"levelo://app?vid=4df696d9-3d19-4dd1-94dd-e1660708efa6","ios":"levelo://app?vid=4df696d9-3d19-4dd1-94dd-e1660708efa6"},"vehicle_type_id":"4","last_reported":1725711245,"current_range_meters":14000,"station_id":"ce4bgm92rcd13ifvqbr0","pricing_plan_id":"cebpf4jnsgd1na2vs0mg"},{"bike_id":"053c796a-b5ea-4f30-b642-9c764d0f0195","system_id":"levelo_inurba_marseille","lat":43.299222,"lon":5.365554,"is_reserved":false,"is_disabled":false,"rental_uris":{"android":"levelo://app?vid=053c796a-b5ea-4f30-b642-9c764d0f0195","ios":"levelo://app?vid=053c796a-b5ea-4f30-b642-9c764d0f0195"},"vehicle_type_id":"4","last_reported":1725711245,"current_range_meters":24400,"station_id":"ce4bgm92rcd13ifvqbr0","pricing_plan_id":"cebpf4jnsgd1na2vs0mg"},{"bike_id":"c0502ec5-61b3-4135-8e3b-9d82ef903f77","system_id":"levelo_inurba_marseille","lat":43.299724,"lon":5.371829,"is_reserved":false,"is_disabled":false,"rental_uris":{"android":"levelo://app?vid=c0502ec5-61b3-4135-8e3b-9d82ef903f77","ios":"levelo://app?vid=c0502ec5-61b3-4135-8e3b-9d82ef903f77"},"vehicle_type_id":"4","last_reported":1725711245,"current_range_meters":27600,"station_id":"ce4bgr92rcd13ifvqc7g","pricing_plan_id":"cebpf4jnsgd1na2vs0mg"},{"bike_id":"3cc2f09e-3186-4914-b3e5-2766b8846375","system_id":"levelo_inurba_marseille","lat":43.299724,"lon":5.371829,"is_reserved":false,"is_disabled":false,"rental_uris":{"android":"levelo://app?vid=3cc2f09e-3186-4914-b3e5-2766b8846375","ios":"levelo://app?vid=3cc2f09e-3186-4914-b3e5-2766b8846375"},"vehicle_type_id":"4","last_reported":1725711245,"current_range_meters":26400,"station_id":"ce4bgr92rcd13ifvqc7g","pricing_plan_id":"cebpf4jnsgd1na2vs0mg"},{"bike_id":"9862c973-58f7-428f-b53c-abfad5376c42","system_id":"levelo_inurba_marseille","lat":43.299724,"lon":5.371829,"is_reserved":false,"is_disabled":false,"rental_uris":{"android":"levelo://app?vid=9862c973-58f7-428f-b53c-abfad5376c42","ios":"levelo://app?vid=9862c973-58f7-428f-b53c-abfad5376c42"},"vehicle_type_id":"4","last_reported":1725711245,"current_range_meters":14400,"station_id":"ce4bgr92rcd13ifvqc7g","pricing_plan_id":"cebpf4jnsgd1na2vs0mg"},{"bike_id":"366f791b-0da6-46a6-b594-b67946dafde8","system_id":"levelo_inurba_marseille","lat":43.298433,"lon":5.362774,"is_reserved":false,"is_disabled":false,"rental_uris":{"android":"levelo://app?vid=366f791b-0da6-46a6-b594-b67946dafde8","ios":"levelo://app?vid=366f791b-0da6-46a6-b594-b67946dafde8"},"vehicle_type_id":"4","last_reported":1725711245,"current_range_meters":31200,"station_id":"ce4bgpp2rcd13ifvqc3g","pricing_plan_id":"cebpf4jnsgd1na2vs0mg"},{"bike_id":"17003fcb-f0f6-473e-bdbe-62582a1c5a7a","system_id":"levelo_inurba_marseille","lat":43.29848,"lon":5.36276,"is_reserved":false,"is_disabled":false,"rental_uris":{"android":"levelo://app?vid=17003fcb-f0f6-473e-bdbe-62582a1c5a7a","ios":"levelo://app?vid=17003fcb-f0f6-473e-bdbe-62582a1c5a7a"},"vehicle_type_id":"4","last_reported":1725711245,"current_range_meters":24800,"station_id":"ce4bgpp2rcd13ifvqc3g","pricing_plan_id":"cebpf4jnsgd1na2vs0mg"},{"bike_id":"d19f16fc-9145-456a-a18f-11db04ab4eed","system_id":"levelo_inurba_marseille","lat":43.298433,"lon":5.362774,"is_reserved":false,"is_disabled":false,"rental_uris":{"android":"levelo://app?vid=d19f16fc-9145-456a-a18f-11db04ab4eed","ios":"levelo://app?vid=d19f16fc-9145-456a-a18f-11db04ab4eed"},"vehicle_type_id":"4","last_reported":1725711245,"current_range_meters":12800,"station_id":"ce4bgpp2rcd13ifvqc3g","pricing_plan_id":"cebpf4jnsgd1na2vs0mg"},{"bike_id":"ec50db43-d25c-4879-9794-ef3d5888572b","system_id":"levelo_inurba_marseille","lat":43.30177,"lon":5.38023,"is_reserved":false,"is_disabled":false,"rental_uris":{"android":"levelo://app?vid=ec50db43-d25c-4879-9794-ef3d5888572b","ios":"levelo://app?vid=ec50db43-d25c-4879-9794-ef3d5888572b"},"vehicle_type_id":"4","last_reported":1725711245,"current_range_meters":31200,"station_id":"","pricing_plan_id":"cebpf4jnsgd1na2vs0mg"},{"bike_id":"a8a30847-9cd8-4e85-b4b7-c9b5a8546b69","system_id":"levelo_inurba_marseille","lat":43.29843,"lon":5.36269,"is_reserved":false,"is_disabled":false,"rental_uris":{"android":"levelo://app?vid=a8a30847-9cd8-4e85-b4b7-c9b5a8546b69","ios":"levelo://app?vid=a8a30847-9cd8-4e85-b4b7-c9b5a8546b69"},"vehicle_type_id":"4","last_reported":1725711245,"current_range_meters":24800,"station_id":"ce4bgpp2rcd13ifvqc3g","pricing_plan_id":"cebpf4jnsgd1na2vs0mg"},{"bike_id":"9d6d909d-4f1f-4ba9-8564-bc54d36183a1","system_id":"levelo_inurba_marseille","lat":43.29926,"lon":5.37482,"is_reserved":false,"is_disabled":false,"rental_uris":{"android":"levelo://app?vid=9d6d909d-4f1f-4ba9-8564-bc54d36183a1","ios":"levelo://app?vid=9d6d909d-4f1f-4ba9-8564-bc54d36183a1"},"vehicle_type_id":"4","last_reported":1725711245,"current_range_meters":0,"station_id":"ce4bgjh2rcd13ifvqbg0","pricing_plan_id":"cebpf4jnsgd1na2vs0mg"},{"bike_id":"6ef9891b-aef2-437c-ba8d-f08fcbec90e7","system_id":"levelo_inurba_marseille","lat":43.298433,"lon":5.362774,"is_reserved":false,"is_disabled":false,"rental_uris":{"android":"levelo://app?vid=6ef9891b-aef2-437c-ba8d-f08fcbec90e7","ios":"levelo://app?vid=6ef9891b-aef2-437c-ba8d-f08fcbec90e7"},"vehicle_type_id":"4","last_reported":1725711245,"current_range_meters":31200,"station_id":"ce4bgpp2rcd13ifvqc3g","pricing_plan_id":"cebpf4jnsgd1na2vs0mg"},{"bike_id":"f21d445d-d69d-4c71-8f6b-4db0cebd82b9","system_id":"levelo_inurba_marseille","lat":43.299243,"lon":5.37481,"is_reserved":false,"is_disabled":false,"rental_uris":{"android":"levelo://app?vid=f21d445d-d69d-4c71-8f6b-4db0cebd82b9","ios":"levelo://app?vid=f21d445d-d69d-4c71-8f6b-4db0cebd82b9"},"vehicle_type_id":"4","last_reported":1725711245,"current_range_meters":20400,"station_id":"ce4bgjh2rcd13ifvqbg0","pricing_plan_id":"cebpf4jnsgd1na2vs0mg"},{"bike_id":"26e14042-2794-4e40-b1d4-c31295ade603","system_id":"levelo_inurba_marseille","lat":43.29836,"lon":5.36282,"is_reserved":false,"is_disabled":false,"rental_uris":{"android":"levelo://app?vid=26e14042-2794-4e40-b1d4-c31295ade603","ios":"levelo://app?vid=26e14042-2794-4e40-b1d4-c31295ade603"},"vehicle_type_id":"4","last_reported":1725711245,"current_range_meters":31200,"station_id":"ce4bgpp2rcd13ifvqc3g","pricing_plan_id":"cebpf4jnsgd1na2vs0mg"},{"bike_id":"4d4524ec-fd96-4fa2-bc81-320d46b96390","system_id":"levelo_inurba_marseille","lat":43.29916,"lon":5.37471,"is_reserved":false,"is_disabled":false,"rental_uris":{"android":"levelo://app?vid=4d4524ec-fd96-4fa2-bc81-320d46b96390","ios":"levelo://app?vid=4d4524ec-fd96-4fa2-bc81-320d46b96390"},"vehicle_type_id":"4","last_reported":1725711245,"current_range_meters":8800,"station_id":"ce4bgjh2rcd13ifvqbg0","pricing_plan_id":"cebpf4jnsgd1na2vs0mg"},{"bike_id":"9309866f-cf3e-4329-b60d-ddd4a4f79994","system_id":"levelo_inurba_marseille","lat":43.299243,"lon":5.37481,"is_reserved":false,"is_disabled":false,"rental_uris":{"android":"levelo://app?vid=9309866f-cf3e-4329-b60d-ddd4a4f79994","ios":"levelo://app?vid=9309866f-cf3e-4329-b60d-ddd4a4f79994"},"vehicle_type_id":"4","last_reported":1725711245,"current_range_meters":28000,"station_id":"ce4bgjh2rcd13ifvqbg0","pricing_plan_id":"cebpf4jnsgd1na2vs0mg"},{"bike_id":"a0b157e6-d9d4-4c27-92b7-6cad8c2fc66d","system_id":"levelo_inurba_marseille","lat":43.299243,"lon":5.37481,"is_reserved":false,"is_disabled":false,"rental_uris":{"android":"levelo://app?vid=a0b157e6-d9d4-4c27-92b7-6cad8c2fc66d","ios":"levelo://app?vid=a0b157e6-d9d4-4c27-92b7-6cad8c2fc66d"},"vehicle_type_id":"4","last_reported":1725711245,"current_range_meters":1200,"station_id":"ce4bgjh2rcd13ifvqbg0","pricing_plan_id":"cebpf4jnsgd1na2vs0mg"},{"bike_id":"d82e45f0-32f8-4efa-ab26-ebcf708b30d9","system_id":"levelo_inurba_marseille","lat":43.2991,"lon":5.37464,"is_reserved":false,"is_disabled":false,"rental_uris":{"android":"levelo://app?vid=d82e45f0-32f8-4efa-ab26-ebcf708b30d9","ios":"levelo://app?vid=d82e45f0-32f8-4efa-ab26-ebcf708b30d9"},"vehicle_type_id":"4","last_reported":1725711245,"current_range_meters":7200,"station_id":"ce4bgjh2rcd13ifvqbg0","pricing_plan_id":"cebpf4jnsgd1na2vs0mg"},{"bike_id":"81ee0059-ba87-4eea-9a34-2c6431a260ea","system_id":"levelo_inurba_marseille","lat":43.299243,"lon":5.37481,"is_reserved":false,"is_disabled":false,"rental_uris":{"android":"levelo://app?vid=81ee0059-ba87-4eea-9a34-2c6431a260ea","ios":"levelo://app?vid=81ee0059-ba87-4eea-9a34-2c6431a260ea"},"vehicle_type_id":"4","last_reported":1725711245,"current_range_meters":12800,"station_id":"ce4bgjh2rcd13ifvqbg0","pricing_plan_id":"cebpf4jnsgd1na2vs0mg"},{"bike_id":"80de60e1-1ffa-416e-8dfb-c842a43eaf71","system_id":"levelo_inurba_marseille","lat":43.299243,"lon":5.374807,"is_reserved":false,"is_disabled":false,"rental_uris":{"android":"levelo://app?vid=80de60e1-1ffa-416e-8dfb-c842a43eaf71","ios":"levelo://app?vid=80de60e1-1ffa-416e-8dfb-c842a43eaf71"},"vehicle_type_id":"4","last_reported":1725711245,"current_range_meters":22800,"station_id":"ce4bgjh2rcd13ifvqbg0","pricing_plan_id":"cebpf4jnsgd1na2vs0mg"},{"bike_id":"4bc3ea97-6281-45cc-aa9d-f122bc77120e","system_id":"levelo_inurba_marseille","lat":43.2991,"lon":5.37471,"is_reserved":false,"is_disabled":false,"rental_uris":{"android":"levelo://app?vid=4bc3ea97-6281-45cc-aa9d-f122bc77120e","ios":"levelo://app?vid=4bc3ea97-6281-45cc-aa9d-f122bc77120e"},"vehicle_type_id":"4","last_reported":1725711245,"current_range_meters":26800,"station_id":"ce4bgjh2rcd13ifvqbg0","pricing_plan_id":"cebpf4jnsgd1na2vs0mg"},{"bike_id":"9e4f7660-8550-4941-ada1-2588de853502","system_id":"levelo_inurba_marseille","lat":43.2991,"lon":5.37482,"is_reserved":false,"is_disabled":false,"rental_uris":{"android":"levelo://app?vid=9e4f7660-8550-4941-ada1-2588de853502","ios":"levelo://app?vid=9e4f7660-8550-4941-ada1-2588de853502"},"vehicle_type_id":"4","last_reported":1725711245,"current_range_meters":27200,"station_id":"ce4bgjh2rcd13ifvqbg0","pricing_plan_id":"cebpf4jnsgd1na2vs0mg"},{"bike_id":"e8e9845b-029d-42b6-a515-7f068cd7efb8","system_id":"levelo_inurba_marseille","lat":43.29903,"lon":5.37464,"is_reserved":false,"is_disabled":false,"rental_uris":{"android":"levelo://app?vid=e8e9845b-029d-42b6-a515-7f068cd7efb8","ios":"levelo://app?vid=e8e9845b-029d-42b6-a515-7f068cd7efb8"},"vehicle_type_id":"4","last_reported":1725711245,"current_range_meters":14800,"station_id":"ce4bgjh2rcd13ifvqbg0","pricing_plan_id":"cebpf4jnsgd1na2vs0mg"},{"bike_id":"4ae51d6b-aaaf-442a-873d-f8eca9a3e7b5","system_id":"levelo_inurba_marseille","lat":43.320685,"lon":5.384466,"is_reserved":false,"is_disabled":false,"rental_uris":{"android":"levelo://app?vid=4ae51d6b-aaaf-442a-873d-f8eca9a3e7b5","ios":"levelo://app?vid=4ae51d6b-aaaf-442a-873d-f8eca9a3e7b5"},"vehicle_type_id":"4","last_reported":1725711245,"current_range_meters":6800,"station_id":"","pricing_plan_id":"cebpf4jnsgd1na2vs0mg"},{"bike_id":"b5635114-5cd2-4335-a6d0-38de69390223","system_id":"levelo_inurba_marseille","lat":43.30158,"lon":5.38083,"is_reserved":false,"is_disabled":false,"rental_uris":{"android":"levelo://app?vid=b5635114-5cd2-4335-a6d0-38de69390223","ios":"levelo://app?vid=b5635114-5cd2-4335-a6d0-38de69390223"},"vehicle_type_id":"4","last_reported":1725711245,"current_range_meters":800,"station_id":"ce4bgjp2rcd13ifvqbh0","pricing_plan_id":"cebpf4jnsgd1na2vs0mg"},{"bike_id":"7c01d79e-9ca2-46fa-8144-4baedbd07919","system_id":"levelo_inurba_marseille","lat":43.30157,"lon":5.38088,"is_reserved":false,"is_disabled":false,"rental_uris":{"android":"levelo://app?vid=7c01d79e-9ca2-46fa-8144-4baedbd07919","ios":"levelo://app?vid=7c01d79e-9ca2-46fa-8144-4baedbd07919"},"vehicle_type_id":"4","last_reported":1725711245,"current_range_meters":12400,"station_id":"ce4bgjp2rcd13ifvqbh0","pricing_plan_id":"cebpf4jnsgd1na2vs0mg"},{"bike_id":"c58b04ad-f964-463f-9cb6-21428b082b64","system_id":"levelo_inurba_marseille","lat":43.30149,"lon":5.38089,"is_reserved":false,"is_disabled":false,"rental_uris":{"android":"levelo://app?vid=c58b04ad-f964-463f-9cb6-21428b082b64","ios":"levelo://app?vid=c58b04ad-f964-463f-9cb6-21428b082b64"},"vehicle_type_id":"4","last_reported":1725711245,"current_range_meters":24000,"station_id":"ce4bgjp2rcd13ifvqbh0","pricing_plan_id":"cebpf4jnsgd1na2vs0mg"},{"bike_id":"8c8584aa-8ac7-45b0-bf13-ac77086ef1fa","system_id":"levelo_inurba_marseille","lat":43.297794,"lon":5.370888,"is_reserved":false,"is_disabled":false,"rental_uris":{"android":"levelo://app?vid=8c8584aa-8ac7-45b0-bf13-ac77086ef1fa","ios":"levelo://app?vid=8c8584aa-8ac7-45b0-bf13-ac77086ef1fa"},"vehicle_type_id":"4","last_reported":1725711245,"current_range_meters":3600,"station_id":"ce4bgop2rcd13ifvqc1g","pricing_plan_id":"cebpf4jnsgd1na2vs0mg"},{"bike_id":"9d4d4ad3-9fa4-4394-8995-8a5887e80cc8","system_id":"levelo_inurba_marseille","lat":43.32277,"lon":5.38262,"is_reserved":false,"is_disabled":false,"rental_uris":{"android":"levelo://app?vid=9d4d4ad3-9fa4-4394-8995-8a5887e80cc8","ios":"levelo://app?vid=9d4d4ad3-9fa4-4394-8995-8a5887e80cc8"},"vehicle_type_id":"4","last_reported":1725711245,"current_range_meters":13600,"station_id":"ce4bhr12rcd13ifvqhqg","pricing_plan_id":"cebpf4jnsgd1na2vs0mg"},{"bike_id":"8e318e47-3c73-4147-834f-a32b4edd5969","system_id":"levelo_inurba_marseille","lat":43.29777,"lon":5.371107,"is_reserved":false,"is_disabled":false,"rental_uris":{"android":"levelo://app?vid=8e318e47-3c73-4147-834f-a32b4edd5969","ios":"levelo://app?vid=8e318e47-3c73-4147-834f-a32b4edd5969"},"vehicle_type_id":"4","last_reported":1725711245,"current_range_meters":28400,"station_id":"ce4bgop2rcd13ifvqc1g","pricing_plan_id":"cebpf4jnsgd1na2vs0mg"},{"bike_id":"bd8346dc-ae74-44f9-8106-021c6f714e8d","system_id":"levelo_inurba_marseille","lat":43.297163,"lon":5.365866,"is_reserved":false,"is_disabled":false,"rental_uris":{"android":"levelo://app?vid=bd8346dc-ae74-44f9-8106-021c6f714e8d","ios":"levelo://app?vid=bd8346dc-ae74-44f9-8106-021c6f714e8d"},"vehicle_type_id":"4","last_reported":1725711245,"current_range_meters":1600,"station_id":"ce4bgn12rcd13ifvqbt0","pricing_plan_id":"cebpf4jnsgd1na2vs0mg"},{"bike_id":"83f7e5b1-e2ed-4339-a5a6-94d3d94b3a41","system_id":"levelo_inurba_marseille","lat":43.31586,"lon":5.3887,"is_reserved":false,"is_disabled":false,"rental_uris":{"android":"levelo://app?vid=83f7e5b1-e2ed-4339-a5a6-94d3d94b3a41","ios":"levelo://app?vid=83f7e5b1-e2ed-4339-a5a6-94d3d94b3a41"},"vehicle_type_id":"4","last_reported":1725711245,"current_range_meters":14400,"station_id":"","pricing_plan_id":"cebpf4jnsgd1na2vs0mg"},{"bike_id":"5f29f7e8-f57f-4bda-be63-fa489e41ebb8","system_id":"levelo_inurba_marseille","lat":43.30161,"lon":5.3835,"is_reserved":false,"is_disabled":false,"rental_uris":{"android":"levelo://app?vid=5f29f7e8-f57f-4bda-be63-fa489e41ebb8","ios":"levelo://app?vid=5f29f7e8-f57f-4bda-be63-fa489e41ebb8"},"vehicle_type_id":"4","last_reported":1725711245,"current_range_meters":18800,"station_id":"","pricing_plan_id":"cebpf4jnsgd1na2vs0mg"},{"bike_id":"8a8887de-5c7d-4b1c-91b2-78e9c920b48d","system_id":"levelo_inurba_marseille","lat":43.2968,"lon":5.37291,"is_reserved":false,"is_disabled":false,"rental_uris":{"android":"levelo://app?vid=8a8887de-5c7d-4b1c-91b2-78e9c920b48d","ios":"levelo://app?vid=8a8887de-5c7d-4b1c-91b2-78e9c920b48d"},"vehicle_type_id":"4","last_reported":1725711245,"current_range_meters":27600,"station_id":"ce4bgk12rcd13ifvqbj0","pricing_plan_id":"cebpf4jnsgd1na2vs0mg"},{"bike_id":"adaa2c6d-bfad-4a20-9ef6-52f50230e256","system_id":"levelo_inurba_marseille","lat":43.29625,"lon":5.37157,"is_reserved":false,"is_disabled":false,"rental_uris":{"android":"levelo://app?vid=adaa2c6d-bfad-4a20-9ef6-52f50230e256","ios":"levelo://app?vid=adaa2c6d-bfad-4a20-9ef6-52f50230e256"},"vehicle_type_id":"4","last_reported":1725711245,"current_range_meters":30000,"station_id":"ce4bgnh2rcd13ifvqc0g","pricing_plan_id":"cebpf4jnsgd1na2vs0mg"},{"bike_id":"a2645d96-71f6-4fb7-b7f2-f3fe5ce8a9c6","system_id":"levelo_inurba_marseille","lat":43.296131,"lon":5.370773,"is_reserved":false,"is_disabled":false,"rental_uris":{"android":"levelo://app?vid=a2645d96-71f6-4fb7-b7f2-f3fe5ce8a9c6","ios":"levelo://app?vid=a2645d96-71f6-4fb7-b7f2-f3fe5ce8a9c6"},"vehicle_type_id":"4","last_reported":1725711245,"current_range_meters":31600,"station_id":"ce4bgnh2rcd13ifvqc0g","pricing_plan_id":"cebpf4jnsgd1na2vs0mg"},{"bike_id":"bcd710b3-d104-4012-8cd8-aa29fac309ad","system_id":"levelo_inurba_marseille","lat":43.296131,"lon":5.370773,"is_reserved":false,"is_disabled":false,"rental_uris":{"android":"levelo://app?vid=bcd710b3-d104-4012-8cd8-aa29fac309ad","ios":"levelo://app?vid=bcd710b3-d104-4012-8cd8-aa29fac309ad"},"vehicle_type_id":"4","last_reported":1725711245,"current_range_meters":20400,"station_id":"ce4bgnh2rcd13ifvqc0g","pricing_plan_id":"cebpf4jnsgd1na2vs0mg"},{"bike_id":"9d1afc4f-89d8-445b-a69b-b339dcbe83d3","system_id":"levelo_inurba_marseille","lat":43.29622,"lon":5.37147,"is_reserved":false,"is_disabled":false,"rental_uris":{"android":"levelo://app?vid=9d1afc4f-89d8-445b-a69b-b339dcbe83d3","ios":"levelo://app?vid=9d1afc4f-89d8-445b-a69b-b339dcbe83d3"},"vehicle_type_id":"4","last_reported":1725711245,"current_range_meters":28400,"station_id":"ce4bgnh2rcd13ifvqc0g","pricing_plan_id":"cebpf4jnsgd1na2vs0mg"},{"bike_id":"a2884717-8dbc-4dc4-9035-e51c5c9658cb","system_id":"levelo_inurba_marseille","lat":43.296131,"lon":5.370773,"is_reserved":false,"is_disabled":false,"rental_uris":{"android":"levelo://app?vid=a2884717-8dbc-4dc4-9035-e51c5c9658cb","ios":"levelo://app?vid=a2884717-8dbc-4dc4-9035-e51c5c9658cb"},"vehicle_type_id":"4","last_reported":1725711245,"current_range_meters":22000,"station_id":"ce4bgnh2rcd13ifvqc0g","pricing_plan_id":"cebpf4jnsgd1na2vs0mg"},{"bike_id":"c716f777-c206-4b6f-90ef-3d15b2f35c76","system_id":"levelo_inurba_marseille","lat":43.296131,"lon":5.370791,"is_reserved":false,"is_disabled":false,"rental_uris":{"android":"levelo://app?vid=c716f777-c206-4b6f-90ef-3d15b2f35c76","ios":"levelo://app?vid=c716f777-c206-4b6f-90ef-3d15b2f35c76"},"vehicle_type_id":"4","last_reported":1725711245,"current_range_meters":30400,"station_id":"ce4bgnh2rcd13ifvqc0g","pricing_plan_id":"cebpf4jnsgd1na2vs0mg"},{"bike_id":"2f7586f0-acc0-4701-ba9e-da64f773602d","system_id":"levelo_inurba_marseille","lat":43.296131,"lon":5.370791,"is_reserved":false,"is_disabled":false,"rental_uris":{"android":"levelo://app?vid=2f7586f0-acc0-4701-ba9e-da64f773602d","ios":"levelo://app?vid=2f7586f0-acc0-4701-ba9e-da64f773602d"},"vehicle_type_id":"4","last_reported":1725711245,"current_range_meters":31200,"station_id":"ce4bgnh2rcd13ifvqc0g","pricing_plan_id":"cebpf4jnsgd1na2vs0mg"},{"bike_id":"3a7322c7-dc58-4fa6-9d5f-b07bc2cae149","system_id":"levelo_inurba_marseille","lat":43.296131,"lon":5.370773,"is_reserved":false,"is_disabled":false,"rental_uris":{"android":"levelo://app?vid=3a7322c7-dc58-4fa6-9d5f-b07bc2cae149","ios":"levelo://app?vid=3a7322c7-dc58-4fa6-9d5f-b07bc2cae149"},"vehicle_type_id":"4","last_reported":1725711245,"current_range_meters":16800,"station_id":"ce4bgnh2rcd13ifvqc0g","pricing_plan_id":"cebpf4jnsgd1na2vs0mg"},{"bike_id":"8fb64d05-fd5b-4174-8fc1-effce21304fd","system_id":"levelo_inurba_marseille","lat":43.29573,"lon":5.367355,"is_reserved":false,"is_disabled":false,"rental_uris":{"android":"levelo://app?vid=8fb64d05-fd5b-4174-8fc1-effce21304fd","ios":"levelo://app?vid=8fb64d05-fd5b-4174-8fc1-effce21304fd"},"vehicle_type_id":"4","last_reported":1725711245,"current_range_meters":0,"station_id":"ce4bgph2rcd13ifvqc2g","pricing_plan_id":"cebpf4jnsgd1na2vs0mg"},{"bike_id":"6f2dcd28-62f3-45cc-b694-a6734e4cebd1","system_id":"levelo_inurba_marseille","lat":43.29573,"lon":5.367355,"is_reserved":false,"is_disabled":false,"rental_uris":{"android":"levelo://app?vid=6f2dcd28-62f3-45cc-b694-a6734e4cebd1","ios":"levelo://app?vid=6f2dcd28-62f3-45cc-b694-a6734e4cebd1"},"vehicle_type_id":"4","last_reported":1725711245,"current_range_meters":10800,"station_id":"ce4bgph2rcd13ifvqc2g","pricing_plan_id":"cebpf4jnsgd1na2vs0mg"},{"bike_id":"a6f76d50-82d8-45b5-a2d2-8b7ef5a87dae","system_id":"levelo_inurba_marseille","lat":43.29573,"lon":5.367355,"is_reserved":false,"is_disabled":false,"rental_uris":{"android":"levelo://app?vid=a6f76d50-82d8-45b5-a2d2-8b7ef5a87dae","ios":"levelo://app?vid=a6f76d50-82d8-45b5-a2d2-8b7ef5a87dae"},"vehicle_type_id":"4","last_reported":1725711245,"current_range_meters":14400,"station_id":"ce4bgph2rcd13ifvqc2g","pricing_plan_id":"cebpf4jnsgd1na2vs0mg"},{"bike_id":"b3064485-0790-4da7-bf48-d3e5fe76db62","system_id":"levelo_inurba_marseille","lat":43.29573,"lon":5.367355,"is_reserved":false,"is_disabled":false,"rental_uris":{"android":"levelo://app?vid=b3064485-0790-4da7-bf48-d3e5fe76db62","ios":"levelo://app?vid=b3064485-0790-4da7-bf48-d3e5fe76db62"},"vehicle_type_id":"4","last_reported":1725711245,"current_range_meters":28400,"station_id":"ce4bgph2rcd13ifvqc2g","pricing_plan_id":"cebpf4jnsgd1na2vs0mg"},{"bike_id":"07507859-e981-42e4-9f0c-d5116fc6dd51","system_id":"levelo_inurba_marseille","lat":43.29573,"lon":5.367355,"is_reserved":false,"is_disabled":false,"rental_uris":{"android":"levelo://app?vid=07507859-e981-42e4-9f0c-d5116fc6dd51","ios":"levelo://app?vid=07507859-e981-42e4-9f0c-d5116fc6dd51"},"vehicle_type_id":"4","last_reported":1725711245,"current_range_meters":13200,"station_id":"ce4bgph2rcd13ifvqc2g","pricing_plan_id":"cebpf4jnsgd1na2vs0mg"},{"bike_id":"022e13ea-4bd3-4de6-b849-1c7229d2b94e","system_id":"levelo_inurba_marseille","lat":43.296921,"lon":5.376579,"is_reserved":false,"is_disabled":false,"rental_uris":{"android":"levelo://app?vid=022e13ea-4bd3-4de6-b849-1c7229d2b94e","ios":"levelo://app?vid=022e13ea-4bd3-4de6-b849-1c7229d2b94e"},"vehicle_type_id":"4","last_reported":1725711245,"current_range_meters":18000,"station_id":"ce4bgkh2rcd13ifvqbl0","pricing_plan_id":"cebpf4jnsgd1na2vs0mg"},{"bike_id":"7e2a9981-304b-427f-9c45-fdaba7c305e1","system_id":"levelo_inurba_marseille","lat":43.29566,"lon":5.36531,"is_reserved":false,"is_disabled":false,"rental_uris":{"android":"levelo://app?vid=7e2a9981-304b-427f-9c45-fdaba7c305e1","ios":"levelo://app?vid=7e2a9981-304b-427f-9c45-fdaba7c305e1"},"vehicle_type_id":"4","last_reported":1725711245,"current_range_meters":20800,"station_id":"","pricing_plan_id":"cebpf4jnsgd1na2vs0mg"},{"bike_id":"64666d02-0451-4aa5-a8da-c8f1ef2b92f8","system_id":"levelo_inurba_marseille","lat":43.296921,"lon":5.376579,"is_reserved":false,"is_disabled":false,"rental_uris":{"android":"levelo://app?vid=64666d02-0451-4aa5-a8da-c8f1ef2b92f8","ios":"levelo://app?vid=64666d02-0451-4aa5-a8da-c8f1ef2b92f8"},"vehicle_type_id":"4","last_reported":1725711245,"current_range_meters":31600,"station_id":"ce4bgkh2rcd13ifvqbl0","pricing_plan_id":"cebpf4jnsgd1na2vs0mg"},{"bike_id":"e4330a65-06e6-4a7d-a64a-0ba990fa5774","system_id":"levelo_inurba_marseille","lat":43.299251,"lon":5.381606,"is_reserved":false,"is_disabled":false,"rental_uris":{"android":"levelo://app?vid=e4330a65-06e6-4a7d-a64a-0ba990fa5774","ios":"levelo://app?vid=e4330a65-06e6-4a7d-a64a-0ba990fa5774"},"vehicle_type_id":"4","last_reported":1725711245,"current_range_meters":18400,"station_id":"ce4bgj12rcd13ifvqbc0","pricing_plan_id":"cebpf4jnsgd1na2vs0mg"},{"bike_id":"aad85daa-a226-4a9f-bd7c-99c965e87ebf","system_id":"levelo_inurba_marseille","lat":43.29911,"lon":5.38141,"is_reserved":false,"is_disabled":false,"rental_uris":{"android":"levelo://app?vid=aad85daa-a226-4a9f-bd7c-99c965e87ebf","ios":"levelo://app?vid=aad85daa-a226-4a9f-bd7c-99c965e87ebf"},"vehicle_type_id":"4","last_reported":1725711245,"current_range_meters":30800,"station_id":"ce4bgj12rcd13ifvqbc0","pricing_plan_id":"cebpf4jnsgd1na2vs0mg"},{"bike_id":"d01e2f00-58a3-4030-8671-ad0aed92233d","system_id":"levelo_inurba_marseille","lat":43.296935,"lon":5.376544,"is_reserved":false,"is_disabled":false,"rental_uris":{"android":"levelo://app?vid=d01e2f00-58a3-4030-8671-ad0aed92233d","ios":"levelo://app?vid=d01e2f00-58a3-4030-8671-ad0aed92233d"},"vehicle_type_id":"4","last_reported":1725711245,"current_range_meters":0,"station_id":"ce4bgkh2rcd13ifvqbl0","pricing_plan_id":"cebpf4jnsgd1na2vs0mg"},{"bike_id":"ca6133ff-5c11-4a07-a2c5-1eaca40d9102","system_id":"levelo_inurba_marseille","lat":43.296921,"lon":5.376579,"is_reserved":false,"is_disabled":false,"rental_uris":{"android":"levelo://app?vid=ca6133ff-5c11-4a07-a2c5-1eaca40d9102","ios":"levelo://app?vid=ca6133ff-5c11-4a07-a2c5-1eaca40d9102"},"vehicle_type_id":"4","last_reported":1725711245,"current_range_meters":18000,"station_id":"ce4bgkh2rcd13ifvqbl0","pricing_plan_id":"cebpf4jnsgd1na2vs0mg"},{"bike_id":"e2042bdc-95bf-41c0-be45-325eac5906db","system_id":"levelo_inurba_marseille","lat":43.29899,"lon":5.38135,"is_reserved":false,"is_disabled":false,"rental_uris":{"android":"levelo://app?vid=e2042bdc-95bf-41c0-be45-325eac5906db","ios":"levelo://app?vid=e2042bdc-95bf-41c0-be45-325eac5906db"},"vehicle_type_id":"4","last_reported":1725711245,"current_range_meters":0,"station_id":"ce4bgj12rcd13ifvqbc0","pricing_plan_id":"cebpf4jnsgd1na2vs0mg"},{"bike_id":"d0a195fc-dd1a-40f8-870e-bfc67fcb6482","system_id":"levelo_inurba_marseille","lat":43.296921,"lon":5.376579,"is_reserved":false,"is_disabled":false,"rental_uris":{"android":"levelo://app?vid=d0a195fc-dd1a-40f8-870e-bfc67fcb6482","ios":"levelo://app?vid=d0a195fc-dd1a-40f8-870e-bfc67fcb6482"},"vehicle_type_id":"4","last_reported":1725711245,"current_range_meters":6400,"station_id":"ce4bgkh2rcd13ifvqbl0","pricing_plan_id":"cebpf4jnsgd1na2vs0mg"},{"bike_id":"177db442-f90d-4597-8603-9b3345a46b92","system_id":"levelo_inurba_marseille","lat":43.296921,"lon":5.376579,"is_reserved":false,"is_disabled":false,"rental_uris":{"android":"levelo://app?vid=177db442-f90d-4597-8603-9b3345a46b92","ios":"levelo://app?vid=177db442-f90d-4597-8603-9b3345a46b92"},"vehicle_type_id":"4","last_reported":1725711245,"current_range_meters":8800,"station_id":"ce4bgkh2rcd13ifvqbl0","pricing_plan_id":"cebpf4jnsgd1na2vs0mg"},{"bike_id":"b884f71c-985d-45a6-9b44-cba21140f94e","system_id":"levelo_inurba_marseille","lat":43.299028,"lon":5.381509,"is_reserved":false,"is_disabled":false,"rental_uris":{"android":"levelo://app?vid=b884f71c-985d-45a6-9b44-cba21140f94e","ios":"levelo://app?vid=b884f71c-985d-45a6-9b44-cba21140f94e"},"vehicle_type_id":"4","last_reported":1725711245,"current_range_meters":18000,"station_id":"ce4bgj12rcd13ifvqbc0","pricing_plan_id":"cebpf4jnsgd1na2vs0mg"},{"bike_id":"b4ee5613-7231-4cdb-89f0-a42ffa5a47a3","system_id":"levelo_inurba_marseille","lat":43.296935,"lon":5.376544,"is_reserved":false,"is_disabled":false,"rental_uris":{"android":"levelo://app?vid=b4ee5613-7231-4cdb-89f0-a42ffa5a47a3","ios":"levelo://app?vid=b4ee5613-7231-4cdb-89f0-a42ffa5a47a3"},"vehicle_type_id":"4","last_reported":1725711245,"current_range_meters":6400,"station_id":"ce4bgkh2rcd13ifvqbl0","pricing_plan_id":"cebpf4jnsgd1na2vs0mg"},{"bike_id":"442cfd05-cfad-47b4-b545-ced53ac2ff54","system_id":"levelo_inurba_marseille","lat":43.309589,"lon":5.390258,"is_reserved":false,"is_disabled":false,"rental_uris":{"android":"levelo://app?vid=442cfd05-cfad-47b4-b545-ced53ac2ff54","ios":"levelo://app?vid=442cfd05-cfad-47b4-b545-ced53ac2ff54"},"vehicle_type_id":"4","last_reported":1725711245,"current_range_meters":10400,"station_id":"ce4bgup2rcd13ifvqco0","pricing_plan_id":"cebpf4jnsgd1na2vs0mg"},{"bike_id":"ca202c39-1a7d-4979-a346-37bd3ff87ce0","system_id":"levelo_inurba_marseille","lat":43.317557,"lon":5.390173,"is_reserved":false,"is_disabled":false,"rental_uris":{"android":"levelo://app?vid=ca202c39-1a7d-4979-a346-37bd3ff87ce0","ios":"levelo://app?vid=ca202c39-1a7d-4979-a346-37bd3ff87ce0"},"vehicle_type_id":"4","last_reported":1725711245,"current_range_meters":7600,"station_id":"ce4bhqp2rcd13ifvqhng","pricing_plan_id":"cebpf4jnsgd1na2vs0mg"},{"bike_id":"73a9ecba-d7cd-4755-949f-f6d90f482a98","system_id":"levelo_inurba_marseille","lat":43.317557,"lon":5.390173,"is_reserved":false,"is_disabled":false,"rental_uris":{"android":"levelo://app?vid=73a9ecba-d7cd-4755-949f-f6d90f482a98","ios":"levelo://app?vid=73a9ecba-d7cd-4755-949f-f6d90f482a98"},"vehicle_type_id":"4","last_reported":1725711245,"current_range_meters":26400,"station_id":"ce4bhqp2rcd13ifvqhng","pricing_plan_id":"cebpf4jnsgd1na2vs0mg"},{"bike_id":"10f69fe8-7773-460f-8cbc-84d5043d302b","system_id":"levelo_inurba_marseille","lat":43.32253,"lon":5.387034,"is_reserved":false,"is_disabled":false,"rental_uris":{"android":"levelo://app?vid=10f69fe8-7773-460f-8cbc-84d5043d302b","ios":"levelo://app?vid=10f69fe8-7773-460f-8cbc-84d5043d302b"},"vehicle_type_id":"4","last_reported":1725711245,"current_range_meters":23200,"station_id":"","pricing_plan_id":"cebpf4jnsgd1na2vs0mg"},{"bike_id":"c0387abf-b428-49ed-a96b-aeefec5f00c7","system_id":"levelo_inurba_marseille","lat":43.317557,"lon":5.390173,"is_reserved":false,"is_disabled":false,"rental_uris":{"android":"levelo://app?vid=c0387abf-b428-49ed-a96b-aeefec5f00c7","ios":"levelo://app?vid=c0387abf-b428-49ed-a96b-aeefec5f00c7"},"vehicle_type_id":"4","last_reported":1725711245,"current_range_meters":31200,"station_id":"ce4bhqp2rcd13ifvqhng","pricing_plan_id":"cebpf4jnsgd1na2vs0mg"},{"bike_id":"e47e5151-57c8-44be-823f-0175aebd43b8","system_id":"levelo_inurba_marseille","lat":43.317557,"lon":5.390173,"is_reserved":false,"is_disabled":false,"rental_uris":{"android":"levelo://app?vid=e47e5151-57c8-44be-823f-0175aebd43b8","ios":"levelo://app?vid=e47e5151-57c8-44be-823f-0175aebd43b8"},"vehicle_type_id":"4","last_reported":1725711245,"current_range_meters":25600,"station_id":"ce4bhqp2rcd13ifvqhng","pricing_plan_id":"cebpf4jnsgd1na2vs0mg"},{"bike_id":"81ea37ab-c798-4700-ad23-25329c78f9ae","system_id":"levelo_inurba_marseille","lat":43.309589,"lon":5.390258,"is_reserved":false,"is_disabled":false,"rental_uris":{"android":"levelo://app?vid=81ea37ab-c798-4700-ad23-25329c78f9ae","ios":"levelo://app?vid=81ea37ab-c798-4700-ad23-25329c78f9ae"},"vehicle_type_id":"4","last_reported":1725711245,"current_range_meters":13600,"station_id":"ce4bgup2rcd13ifvqco0","pricing_plan_id":"cebpf4jnsgd1na2vs0mg"},{"bike_id":"f44c1579-c827-41e4-9b3c-d436fded26a6","system_id":"levelo_inurba_marseille","lat":43.296277,"lon":5.377108,"is_reserved":false,"is_disabled":false,"rental_uris":{"android":"levelo://app?vid=f44c1579-c827-41e4-9b3c-d436fded26a6","ios":"levelo://app?vid=f44c1579-c827-41e4-9b3c-d436fded26a6"},"vehicle_type_id":"4","last_reported":1725711245,"current_range_meters":26400,"station_id":"ce4bgi92rcd13ifvqb90","pricing_plan_id":"cebpf4jnsgd1na2vs0mg"},{"bike_id":"7bae5f6d-ecff-4791-b647-8ea08cd31294","system_id":"levelo_inurba_marseille","lat":43.295794,"lon":5.375099,"is_reserved":false,"is_disabled":false,"rental_uris":{"android":"levelo://app?vid=7bae5f6d-ecff-4791-b647-8ea08cd31294","ios":"levelo://app?vid=7bae5f6d-ecff-4791-b647-8ea08cd31294"},"vehicle_type_id":"4","last_reported":1725711245,"current_range_meters":14400,"station_id":"ce4bgh92rcd13ifvqb50","pricing_plan_id":"cebpf4jnsgd1na2vs0mg"},{"bike_id":"541c2641-7a80-48fe-896f-81972b36045c","system_id":"levelo_inurba_marseille","lat":43.295785,"lon":5.375105,"is_reserved":false,"is_disabled":false,"rental_uris":{"android":"levelo://app?vid=541c2641-7a80-48fe-896f-81972b36045c","ios":"levelo://app?vid=541c2641-7a80-48fe-896f-81972b36045c"},"vehicle_type_id":"4","last_reported":1725711245,"current_range_meters":31200,"station_id":"ce4bgh92rcd13ifvqb50","pricing_plan_id":"cebpf4jnsgd1na2vs0mg"},{"bike_id":"46dff643-1afa-4c94-bf35-80a5aa2ada46","system_id":"levelo_inurba_marseille","lat":43.295788,"lon":5.375143,"is_reserved":false,"is_disabled":false,"rental_uris":{"android":"levelo://app?vid=46dff643-1afa-4c94-bf35-80a5aa2ada46","ios":"levelo://app?vid=46dff643-1afa-4c94-bf35-80a5aa2ada46"},"vehicle_type_id":"4","last_reported":1725711245,"current_range_meters":31200,"station_id":"ce4bgh92rcd13ifvqb50","pricing_plan_id":"cebpf4jnsgd1na2vs0mg"},{"bike_id":"b0c6221c-a798-4faf-965f-a63ce46cff87","system_id":"levelo_inurba_marseille","lat":43.2958,"lon":5.37521,"is_reserved":false,"is_disabled":false,"rental_uris":{"android":"levelo://app?vid=b0c6221c-a798-4faf-965f-a63ce46cff87","ios":"levelo://app?vid=b0c6221c-a798-4faf-965f-a63ce46cff87"},"vehicle_type_id":"4","last_reported":1725711245,"current_range_meters":23200,"station_id":"ce4bgh92rcd13ifvqb50","pricing_plan_id":"cebpf4jnsgd1na2vs0mg"},{"bike_id":"9468cd9d-81aa-46d5-a88c-85330cdf7f9b","system_id":"levelo_inurba_marseille","lat":43.295758,"lon":5.375188,"is_reserved":false,"is_disabled":false,"rental_uris":{"android":"levelo://app?vid=9468cd9d-81aa-46d5-a88c-85330cdf7f9b","ios":"levelo://app?vid=9468cd9d-81aa-46d5-a88c-85330cdf7f9b"},"vehicle_type_id":"4","last_reported":1725711245,"current_range_meters":30400,"station_id":"ce4bgh92rcd13ifvqb50","pricing_plan_id":"cebpf4jnsgd1na2vs0mg"},{"bike_id":"33a13210-98d2-4686-bc87-fb2e568add25","system_id":"levelo_inurba_marseille","lat":43.295763,"lon":5.37521,"is_reserved":false,"is_disabled":false,"rental_uris":{"android":"levelo://app?vid=33a13210-98d2-4686-bc87-fb2e568add25","ios":"levelo://app?vid=33a13210-98d2-4686-bc87-fb2e568add25"},"vehicle_type_id":"4","last_reported":1725711245,"current_range_meters":28000,"station_id":"ce4bgh92rcd13ifvqb50","pricing_plan_id":"cebpf4jnsgd1na2vs0mg"},{"bike_id":"e0c45751-fc52-4d5f-97da-8b43e214d36b","system_id":"levelo_inurba_marseille","lat":43.29576,"lon":5.37521,"is_reserved":false,"is_disabled":false,"rental_uris":{"android":"levelo://app?vid=e0c45751-fc52-4d5f-97da-8b43e214d36b","ios":"levelo://app?vid=e0c45751-fc52-4d5f-97da-8b43e214d36b"},"vehicle_type_id":"4","last_reported":1725711245,"current_range_meters":25600,"station_id":"ce4bgh92rcd13ifvqb50","pricing_plan_id":"cebpf4jnsgd1na2vs0mg"},{"bike_id":"92556951-ca22-4ac6-a342-3d730ab70a75","system_id":"levelo_inurba_marseille","lat":43.29572,"lon":5.37511,"is_reserved":false,"is_disabled":false,"rental_uris":{"android":"levelo://app?vid=92556951-ca22-4ac6-a342-3d730ab70a75","ios":"levelo://app?vid=92556951-ca22-4ac6-a342-3d730ab70a75"},"vehicle_type_id":"4","last_reported":1725711245,"current_range_meters":0,"station_id":"ce4bgh92rcd13ifvqb50","pricing_plan_id":"cebpf4jnsgd1na2vs0mg"},{"bike_id":"2d9cb345-3447-492e-bba2-aaa21265c911","system_id":"levelo_inurba_marseille","lat":43.29572,"lon":5.37512,"is_reserved":false,"is_disabled":false,"rental_uris":{"android":"levelo://app?vid=2d9cb345-3447-492e-bba2-aaa21265c911","ios":"levelo://app?vid=2d9cb345-3447-492e-bba2-aaa21265c911"},"vehicle_type_id":"4","last_reported":1725711245,"current_range_meters":30800,"station_id":"ce4bgh92rcd13ifvqb50","pricing_plan_id":"cebpf4jnsgd1na2vs0mg"},{"bike_id":"8d7be21b-e9be-4e4e-af4b-6d516ca3b959","system_id":"levelo_inurba_marseille","lat":43.296277,"lon":5.377108,"is_reserved":false,"is_disabled":false,"rental_uris":{"android":"levelo://app?vid=8d7be21b-e9be-4e4e-af4b-6d516ca3b959","ios":"levelo://app?vid=8d7be21b-e9be-4e4e-af4b-6d516ca3b959"},"vehicle_type_id":"4","last_reported":1725711245,"current_range_meters":9600,"station_id":"ce4bgi92rcd13ifvqb90","pricing_plan_id":"cebpf4jnsgd1na2vs0mg"},{"bike_id":"13ac08e4-a8a6-4fac-8595-fa58c09ad082","system_id":"levelo_inurba_marseille","lat":43.29573,"lon":5.37521,"is_reserved":false,"is_disabled":false,"rental_uris":{"android":"levelo://app?vid=13ac08e4-a8a6-4fac-8595-fa58c09ad082","ios":"levelo://app?vid=13ac08e4-a8a6-4fac-8595-fa58c09ad082"},"vehicle_type_id":"4","last_reported":1725711245,"current_range_meters":0,"station_id":"ce4bgh92rcd13ifvqb50","pricing_plan_id":"cebpf4jnsgd1na2vs0mg"},{"bike_id":"7cf05400-0753-430d-aa0c-367a16576130","system_id":"levelo_inurba_marseille","lat":43.295748,"lon":5.37522,"is_reserved":false,"is_disabled":false,"rental_uris":{"android":"levelo://app?vid=7cf05400-0753-430d-aa0c-367a16576130","ios":"levelo://app?vid=7cf05400-0753-430d-aa0c-367a16576130"},"vehicle_type_id":"4","last_reported":1725711245,"current_range_meters":30800,"station_id":"ce4bgh92rcd13ifvqb50","pricing_plan_id":"cebpf4jnsgd1na2vs0mg"},{"bike_id":"39f102e8-abab-4d94-b489-122169fe4749","system_id":"levelo_inurba_marseille","lat":43.296263,"lon":5.377094,"is_reserved":false,"is_disabled":false,"rental_uris":{"android":"levelo://app?vid=39f102e8-abab-4d94-b489-122169fe4749","ios":"levelo://app?vid=39f102e8-abab-4d94-b489-122169fe4749"},"vehicle_type_id":"4","last_reported":1725711245,"current_range_meters":6400,"station_id":"ce4bgi92rcd13ifvqb90","pricing_plan_id":"cebpf4jnsgd1na2vs0mg"},{"bike_id":"524ef32a-4483-4cdc-a432-bd52a2bc4870","system_id":"levelo_inurba_marseille","lat":43.296277,"lon":5.377108,"is_reserved":false,"is_disabled":false,"rental_uris":{"android":"levelo://app?vid=524ef32a-4483-4cdc-a432-bd52a2bc4870","ios":"levelo://app?vid=524ef32a-4483-4cdc-a432-bd52a2bc4870"},"vehicle_type_id":"4","last_reported":1725711245,"current_range_meters":11200,"station_id":"ce4bgi92rcd13ifvqb90","pricing_plan_id":"cebpf4jnsgd1na2vs0mg"},{"bike_id":"44819a25-42de-4e74-b2e2-d5b0178c7dcf","system_id":"levelo_inurba_marseille","lat":43.299707,"lon":5.384859,"is_reserved":false,"is_disabled":false,"rental_uris":{"android":"levelo://app?vid=44819a25-42de-4e74-b2e2-d5b0178c7dcf","ios":"levelo://app?vid=44819a25-42de-4e74-b2e2-d5b0178c7dcf"},"vehicle_type_id":"4","last_reported":1725711245,"current_range_meters":25200,"station_id":"ce4bgj92rcd13ifvqbd0","pricing_plan_id":"cebpf4jnsgd1na2vs0mg"},{"bike_id":"7da42d45-97df-4ddc-8722-a342bfb19c22","system_id":"levelo_inurba_marseille","lat":43.29979,"lon":5.38483,"is_reserved":false,"is_disabled":false,"rental_uris":{"android":"levelo://app?vid=7da42d45-97df-4ddc-8722-a342bfb19c22","ios":"levelo://app?vid=7da42d45-97df-4ddc-8722-a342bfb19c22"},"vehicle_type_id":"4","last_reported":1725711245,"current_range_meters":31200,"station_id":"ce4bgj92rcd13ifvqbd0","pricing_plan_id":"cebpf4jnsgd1na2vs0mg"},{"bike_id":"a040b1c4-eb50-4545-b286-78a687989376","system_id":"levelo_inurba_marseille","lat":43.299707,"lon":5.384859,"is_reserved":false,"is_disabled":false,"rental_uris":{"android":"levelo://app?vid=a040b1c4-eb50-4545-b286-78a687989376","ios":"levelo://app?vid=a040b1c4-eb50-4545-b286-78a687989376"},"vehicle_type_id":"4","last_reported":1725711245,"current_range_meters":0,"station_id":"ce4bgj92rcd13ifvqbd0","pricing_plan_id":"cebpf4jnsgd1na2vs0mg"},{"bike_id":"da715fb2-6150-4295-9235-3d22da767e1d","system_id":"levelo_inurba_marseille","lat":43.29973,"lon":5.38488,"is_reserved":false,"is_disabled":false,"rental_uris":{"android":"levelo://app?vid=da715fb2-6150-4295-9235-3d22da767e1d","ios":"levelo://app?vid=da715fb2-6150-4295-9235-3d22da767e1d"},"vehicle_type_id":"4","last_reported":1725711245,"current_range_meters":25200,"station_id":"ce4bgj92rcd13ifvqbd0","pricing_plan_id":"cebpf4jnsgd1na2vs0mg"},{"bike_id":"caa28d56-a8b2-4504-af8f-b96e1b6b399c","system_id":"levelo_inurba_marseille","lat":43.295279,"lon":5.375048,"is_reserved":false,"is_disabled":false,"rental_uris":{"android":"levelo://app?vid=caa28d56-a8b2-4504-af8f-b96e1b6b399c","ios":"levelo://app?vid=caa28d56-a8b2-4504-af8f-b96e1b6b399c"},"vehicle_type_id":"4","last_reported":1725711245,"current_range_meters":14000,"station_id":"ce4bgkp2rcd13ifvqbmg","pricing_plan_id":"cebpf4jnsgd1na2vs0mg"},{"bike_id":"075ac727-0297-4f86-9e2a-f6e18487b4c3","system_id":"levelo_inurba_marseille","lat":43.295279,"lon":5.375048,"is_reserved":false,"is_disabled":false,"rental_uris":{"android":"levelo://app?vid=075ac727-0297-4f86-9e2a-f6e18487b4c3","ios":"levelo://app?vid=075ac727-0297-4f86-9e2a-f6e18487b4c3"},"vehicle_type_id":"4","last_reported":1725711245,"current_range_meters":28800,"station_id":"ce4bgkp2rcd13ifvqbmg","pricing_plan_id":"cebpf4jnsgd1na2vs0mg"},{"bike_id":"8a97feea-66c6-47dc-b129-a8c0ac6be00d","system_id":"levelo_inurba_marseille","lat":43.299717,"lon":5.384845,"is_reserved":false,"is_disabled":false,"rental_uris":{"android":"levelo://app?vid=8a97feea-66c6-47dc-b129-a8c0ac6be00d","ios":"levelo://app?vid=8a97feea-66c6-47dc-b129-a8c0ac6be00d"},"vehicle_type_id":"4","last_reported":1725711245,"current_range_meters":30000,"station_id":"ce4bgj92rcd13ifvqbd0","pricing_plan_id":"cebpf4jnsgd1na2vs0mg"},{"bike_id":"30e0bf95-baf4-4d1c-9c8a-d9ab8c37567a","system_id":"levelo_inurba_marseille","lat":43.295279,"lon":5.375048,"is_reserved":false,"is_disabled":false,"rental_uris":{"android":"levelo://app?vid=30e0bf95-baf4-4d1c-9c8a-d9ab8c37567a","ios":"levelo://app?vid=30e0bf95-baf4-4d1c-9c8a-d9ab8c37567a"},"vehicle_type_id":"4","last_reported":1725711245,"current_range_meters":31200,"station_id":"ce4bgkp2rcd13ifvqbmg","pricing_plan_id":"cebpf4jnsgd1na2vs0mg"},{"bike_id":"f4e104e0-c70e-4f69-8b87-f35765016f57","system_id":"levelo_inurba_marseille","lat":43.295279,"lon":5.375048,"is_reserved":false,"is_disabled":false,"rental_uris":{"android":"levelo://app?vid=f4e104e0-c70e-4f69-8b87-f35765016f57","ios":"levelo://app?vid=f4e104e0-c70e-4f69-8b87-f35765016f57"},"vehicle_type_id":"4","last_reported":1725711245,"current_range_meters":14400,"station_id":"ce4bgkp2rcd13ifvqbmg","pricing_plan_id":"cebpf4jnsgd1na2vs0mg"},{"bike_id":"81158bf0-6594-4d9f-9c24-cf019eded3b5","system_id":"levelo_inurba_marseille","lat":43.295279,"lon":5.375048,"is_reserved":false,"is_disabled":false,"rental_uris":{"android":"levelo://app?vid=81158bf0-6594-4d9f-9c24-cf019eded3b5","ios":"levelo://app?vid=81158bf0-6594-4d9f-9c24-cf019eded3b5"},"vehicle_type_id":"4","last_reported":1725711245,"current_range_meters":20400,"station_id":"ce4bgkp2rcd13ifvqbmg","pricing_plan_id":"cebpf4jnsgd1na2vs0mg"},{"bike_id":"eed70830-c1f7-4007-8eb9-d271fddbecb6","system_id":"levelo_inurba_marseille","lat":43.295279,"lon":5.375048,"is_reserved":false,"is_disabled":false,"rental_uris":{"android":"levelo://app?vid=eed70830-c1f7-4007-8eb9-d271fddbecb6","ios":"levelo://app?vid=eed70830-c1f7-4007-8eb9-d271fddbecb6"},"vehicle_type_id":"4","last_reported":1725711245,"current_range_meters":14400,"station_id":"ce4bgkp2rcd13ifvqbmg","pricing_plan_id":"cebpf4jnsgd1na2vs0mg"},{"bike_id":"11de9f5a-c9ce-4f3f-8739-76fb540f35a4","system_id":"levelo_inurba_marseille","lat":43.296277,"lon":5.377108,"is_reserved":false,"is_disabled":false,"rental_uris":{"android":"levelo://app?vid=11de9f5a-c9ce-4f3f-8739-76fb540f35a4","ios":"levelo://app?vid=11de9f5a-c9ce-4f3f-8739-76fb540f35a4"},"vehicle_type_id":"4","last_reported":1725711245,"current_range_meters":14800,"station_id":"ce4bgi92rcd13ifvqb90","pricing_plan_id":"cebpf4jnsgd1na2vs0mg"},{"bike_id":"7dfad6ee-3a0a-4e82-bc25-e7f709db6a07","system_id":"levelo_inurba_marseille","lat":43.29386,"lon":5.36266,"is_reserved":false,"is_disabled":false,"rental_uris":{"android":"levelo://app?vid=7dfad6ee-3a0a-4e82-bc25-e7f709db6a07","ios":"levelo://app?vid=7dfad6ee-3a0a-4e82-bc25-e7f709db6a07"},"vehicle_type_id":"4","last_reported":1725711245,"current_range_meters":14400,"station_id":"","pricing_plan_id":"cebpf4jnsgd1na2vs0mg"},{"bike_id":"f1505e76-30e7-4198-b296-253cc255b826","system_id":"levelo_inurba_marseille","lat":43.32367,"lon":5.388836,"is_reserved":false,"is_disabled":false,"rental_uris":{"android":"levelo://app?vid=f1505e76-30e7-4198-b296-253cc255b826","ios":"levelo://app?vid=f1505e76-30e7-4198-b296-253cc255b826"},"vehicle_type_id":"4","last_reported":1725711245,"current_range_meters":28400,"station_id":"ce4bhqp2rcd13ifvqhog","pricing_plan_id":"cebpf4jnsgd1na2vs0mg"},{"bike_id":"1389f4a0-fe8c-45a8-89e1-761602337135","system_id":"levelo_inurba_marseille","lat":43.32367,"lon":5.38925,"is_reserved":false,"is_disabled":false,"rental_uris":{"android":"levelo://app?vid=1389f4a0-fe8c-45a8-89e1-761602337135","ios":"levelo://app?vid=1389f4a0-fe8c-45a8-89e1-761602337135"},"vehicle_type_id":"4","last_reported":1725711245,"current_range_meters":20400,"station_id":"ce4bhqp2rcd13ifvqhog","pricing_plan_id":"cebpf4jnsgd1na2vs0mg"},{"bike_id":"74c59e3d-56c9-4373-9efe-a345696f9a5c","system_id":"levelo_inurba_marseille","lat":43.3237,"lon":5.38926,"is_reserved":false,"is_disabled":false,"rental_uris":{"android":"levelo://app?vid=74c59e3d-56c9-4373-9efe-a345696f9a5c","ios":"levelo://app?vid=74c59e3d-56c9-4373-9efe-a345696f9a5c"},"vehicle_type_id":"4","last_reported":1725711245,"current_range_meters":25600,"station_id":"","pricing_plan_id":"cebpf4jnsgd1na2vs0mg"},{"bike_id":"41704600-e9e6-4869-aefd-a4a12996605b","system_id":"levelo_inurba_marseille","lat":43.3237,"lon":5.38926,"is_reserved":false,"is_disabled":false,"rental_uris":{"android":"levelo://app?vid=41704600-e9e6-4869-aefd-a4a12996605b","ios":"levelo://app?vid=41704600-e9e6-4869-aefd-a4a12996605b"},"vehicle_type_id":"4","last_reported":1725711245,"current_range_meters":13200,"station_id":"ce4bhqp2rcd13ifvqhog","pricing_plan_id":"cebpf4jnsgd1na2vs0mg"},{"bike_id":"4ab94bc6-20c6-43c2-8e04-b2ccd0058f21","system_id":"levelo_inurba_marseille","lat":43.29327,"lon":5.37076,"is_reserved":false,"is_disabled":false,"rental_uris":{"android":"levelo://app?vid=4ab94bc6-20c6-43c2-8e04-b2ccd0058f21","ios":"levelo://app?vid=4ab94bc6-20c6-43c2-8e04-b2ccd0058f21"},"vehicle_type_id":"4","last_reported":1725711245,"current_range_meters":28000,"station_id":"","pricing_plan_id":"cebpf4jnsgd1na2vs0mg"},{"bike_id":"8dcb9a8c-3eaf-4121-8c6b-0909597bd113","system_id":"levelo_inurba_marseille","lat":43.29602,"lon":5.381084,"is_reserved":false,"is_disabled":false,"rental_uris":{"android":"levelo://app?vid=8dcb9a8c-3eaf-4121-8c6b-0909597bd113","ios":"levelo://app?vid=8dcb9a8c-3eaf-4121-8c6b-0909597bd113"},"vehicle_type_id":"4","last_reported":1725711245,"current_range_meters":14400,"station_id":"ce4bgl12rcd13ifvqbo0","pricing_plan_id":"cebpf4jnsgd1na2vs0mg"},{"bike_id":"48727308-6402-4132-b520-ec9db4be79ed","system_id":"levelo_inurba_marseille","lat":43.293087,"lon":5.371832,"is_reserved":false,"is_disabled":false,"rental_uris":{"android":"levelo://app?vid=48727308-6402-4132-b520-ec9db4be79ed","ios":"levelo://app?vid=48727308-6402-4132-b520-ec9db4be79ed"},"vehicle_type_id":"4","last_reported":1725711245,"current_range_meters":10800,"station_id":"ce4bgh92rcd13ifvqb40","pricing_plan_id":"cebpf4jnsgd1na2vs0mg"},{"bike_id":"0ab53d8b-1031-428b-acfc-21e54c6d689c","system_id":"levelo_inurba_marseille","lat":43.293061,"lon":5.371777,"is_reserved":false,"is_disabled":false,"rental_uris":{"android":"levelo://app?vid=0ab53d8b-1031-428b-acfc-21e54c6d689c","ios":"levelo://app?vid=0ab53d8b-1031-428b-acfc-21e54c6d689c"},"vehicle_type_id":"4","last_reported":1725711245,"current_range_meters":16000,"station_id":"ce4bgh92rcd13ifvqb40","pricing_plan_id":"cebpf4jnsgd1na2vs0mg"},{"bike_id":"fd5f092e-b06f-45b6-a844-fb9c425722a0","system_id":"levelo_inurba_marseille","lat":43.293056,"lon":5.371892,"is_reserved":false,"is_disabled":false,"rental_uris":{"android":"levelo://app?vid=fd5f092e-b06f-45b6-a844-fb9c425722a0","ios":"levelo://app?vid=fd5f092e-b06f-45b6-a844-fb9c425722a0"},"vehicle_type_id":"4","last_reported":1725711245,"current_range_meters":28400,"station_id":"ce4bgh92rcd13ifvqb40","pricing_plan_id":"cebpf4jnsgd1na2vs0mg"},{"bike_id":"1fa135cf-3a18-40a1-94c3-c91a0e6ef1cc","system_id":"levelo_inurba_marseille","lat":43.29301,"lon":5.37156,"is_reserved":false,"is_disabled":false,"rental_uris":{"android":"levelo://app?vid=1fa135cf-3a18-40a1-94c3-c91a0e6ef1cc","ios":"levelo://app?vid=1fa135cf-3a18-40a1-94c3-c91a0e6ef1cc"},"vehicle_type_id":"4","last_reported":1725711245,"current_range_meters":1600,"station_id":"ce4bgh92rcd13ifvqb40","pricing_plan_id":"cebpf4jnsgd1na2vs0mg"},{"bike_id":"db8a20f8-d6b3-4b47-9ac1-2f76ed7fe2d2","system_id":"levelo_inurba_marseille","lat":43.293249,"lon":5.371578,"is_reserved":false,"is_disabled":false,"rental_uris":{"android":"levelo://app?vid=db8a20f8-d6b3-4b47-9ac1-2f76ed7fe2d2","ios":"levelo://app?vid=db8a20f8-d6b3-4b47-9ac1-2f76ed7fe2d2"},"vehicle_type_id":"4","last_reported":1725711245,"current_range_meters":26000,"station_id":"ce4bgh92rcd13ifvqb40","pricing_plan_id":"cebpf4jnsgd1na2vs0mg"},{"bike_id":"6b27dcf8-4185-462e-bfb8-005a16b1eacc","system_id":"levelo_inurba_marseille","lat":43.305994,"lon":5.393687,"is_reserved":false,"is_disabled":false,"rental_uris":{"android":"levelo://app?vid=6b27dcf8-4185-462e-bfb8-005a16b1eacc","ios":"levelo://app?vid=6b27dcf8-4185-462e-bfb8-005a16b1eacc"},"vehicle_type_id":"4","last_reported":1725711245,"current_range_meters":29200,"station_id":"ce4bh0p2rcd13ifvqd80","pricing_plan_id":"cebpf4jnsgd1na2vs0mg"},{"bike_id":"e3456fe1-6d33-4d87-8887-aca867519f31","system_id":"levelo_inurba_marseille","lat":43.29295,"lon":5.37458,"is_reserved":false,"is_disabled":false,"rental_uris":{"android":"levelo://app?vid=e3456fe1-6d33-4d87-8887-aca867519f31","ios":"levelo://app?vid=e3456fe1-6d33-4d87-8887-aca867519f31"},"vehicle_type_id":"4","last_reported":1725711245,"current_range_meters":7200,"station_id":"ce4bgi12rcd13ifvqb70","pricing_plan_id":"cebpf4jnsgd1na2vs0mg"},{"bike_id":"a5095e03-18c3-4a76-a2ee-af2ac393a42f","system_id":"levelo_inurba_marseille","lat":43.293009,"lon":5.374584,"is_reserved":false,"is_disabled":false,"rental_uris":{"android":"levelo://app?vid=a5095e03-18c3-4a76-a2ee-af2ac393a42f","ios":"levelo://app?vid=a5095e03-18c3-4a76-a2ee-af2ac393a42f"},"vehicle_type_id":"4","last_reported":1725711245,"current_range_meters":20400,"station_id":"ce4bgi12rcd13ifvqb70","pricing_plan_id":"cebpf4jnsgd1na2vs0mg"},{"bike_id":"a79d3a01-4b71-4039-9837-f78b2f33f2eb","system_id":"levelo_inurba_marseille","lat":43.293009,"lon":5.374584,"is_reserved":false,"is_disabled":false,"rental_uris":{"android":"levelo://app?vid=a79d3a01-4b71-4039-9837-f78b2f33f2eb","ios":"levelo://app?vid=a79d3a01-4b71-4039-9837-f78b2f33f2eb"},"vehicle_type_id":"4","last_reported":1725711245,"current_range_meters":29600,"station_id":"ce4bgi12rcd13ifvqb70","pricing_plan_id":"cebpf4jnsgd1na2vs0mg"},{"bike_id":"057ebbd8-eae1-4f75-b118-3bcea5e89722","system_id":"levelo_inurba_marseille","lat":43.29371,"lon":5.37844,"is_reserved":false,"is_disabled":false,"rental_uris":{"android":"levelo://app?vid=057ebbd8-eae1-4f75-b118-3bcea5e89722","ios":"levelo://app?vid=057ebbd8-eae1-4f75-b118-3bcea5e89722"},"vehicle_type_id":"4","last_reported":1725711245,"current_range_meters":0,"station_id":"ce4bgjh2rcd13ifvqbf0","pricing_plan_id":"cebpf4jnsgd1na2vs0mg"},{"bike_id":"4b21590e-1455-448b-b8cc-3176480d82cc","system_id":"levelo_inurba_marseille","lat":43.2936,"lon":5.37835,"is_reserved":false,"is_disabled":false,"rental_uris":{"android":"levelo://app?vid=4b21590e-1455-448b-b8cc-3176480d82cc","ios":"levelo://app?vid=4b21590e-1455-448b-b8cc-3176480d82cc"},"vehicle_type_id":"4","last_reported":1725711245,"current_range_meters":31200,"station_id":"ce4bgjh2rcd13ifvqbf0","pricing_plan_id":"cebpf4jnsgd1na2vs0mg"},{"bike_id":"09bd77c1-fbdc-47e1-a38a-71670668ff6d","system_id":"levelo_inurba_marseille","lat":43.2936,"lon":5.37835,"is_reserved":false,"is_disabled":false,"rental_uris":{"android":"levelo://app?vid=09bd77c1-fbdc-47e1-a38a-71670668ff6d","ios":"levelo://app?vid=09bd77c1-fbdc-47e1-a38a-71670668ff6d"},"vehicle_type_id":"4","last_reported":1725711245,"current_range_meters":13200,"station_id":"ce4bgjh2rcd13ifvqbf0","pricing_plan_id":"cebpf4jnsgd1na2vs0mg"},{"bike_id":"fd231172-f9f9-4af0-9cdf-943bf2307180","system_id":"levelo_inurba_marseille","lat":43.29188,"lon":5.36335,"is_reserved":false,"is_disabled":false,"rental_uris":{"android":"levelo://app?vid=fd231172-f9f9-4af0-9cdf-943bf2307180","ios":"levelo://app?vid=fd231172-f9f9-4af0-9cdf-943bf2307180"},"vehicle_type_id":"4","last_reported":1725711245,"current_range_meters":0,"station_id":"","pricing_plan_id":"cebpf4jnsgd1na2vs0mg"},{"bike_id":"fa84d6cc-dca6-4ff1-82c4-796db2b5abc0","system_id":"levelo_inurba_marseille","lat":43.292311,"lon":5.360731,"is_reserved":false,"is_disabled":false,"rental_uris":{"android":"levelo://app?vid=fa84d6cc-dca6-4ff1-82c4-796db2b5abc0","ios":"levelo://app?vid=fa84d6cc-dca6-4ff1-82c4-796db2b5abc0"},"vehicle_type_id":"4","last_reported":1725711245,"current_range_meters":24400,"station_id":"ce4bhbh2rcd13ifvqeqg","pricing_plan_id":"cebpf4jnsgd1na2vs0mg"},{"bike_id":"23142e59-2443-47e9-87c3-868cc4e83961","system_id":"levelo_inurba_marseille","lat":43.312609,"lon":5.401662,"is_reserved":false,"is_disabled":false,"rental_uris":{"android":"levelo://app?vid=23142e59-2443-47e9-87c3-868cc4e83961","ios":"levelo://app?vid=23142e59-2443-47e9-87c3-868cc4e83961"},"vehicle_type_id":"4","last_reported":1725711245,"current_range_meters":27200,"station_id":"ce4bh092rcd13ifvqd30","pricing_plan_id":"cebpf4jnsgd1na2vs0mg"},{"bike_id":"33d2299b-a13f-4334-89f6-916de9dcb641","system_id":"levelo_inurba_marseille","lat":43.300852,"lon":5.390859,"is_reserved":false,"is_disabled":false,"rental_uris":{"android":"levelo://app?vid=33d2299b-a13f-4334-89f6-916de9dcb641","ios":"levelo://app?vid=33d2299b-a13f-4334-89f6-916de9dcb641"},"vehicle_type_id":"4","last_reported":1725711245,"current_range_meters":28400,"station_id":"ce4bh192rcd13ifvqdb0","pricing_plan_id":"cebpf4jnsgd1na2vs0mg"},{"bike_id":"2b8c48a3-2535-4482-b6ce-9a038e65f07f","system_id":"levelo_inurba_marseille","lat":43.298764,"lon":5.388973,"is_reserved":false,"is_disabled":false,"rental_uris":{"android":"levelo://app?vid=2b8c48a3-2535-4482-b6ce-9a038e65f07f","ios":"levelo://app?vid=2b8c48a3-2535-4482-b6ce-9a038e65f07f"},