{"last_updated":1690826909,"ttl":30,"version":"2.2","data":{"bikes":[{"bike_id":"428c0970-0cde-44bb-87fb-b52d39540cfd","system_id":"levelo_inurba_marseille","lat":43.31225,"lon":5.36854,"is_reserved":false,"is_disabled":false,"rental_uris":{"android":"levelo://app?vid=428c0970-0cde-44bb-87fb-b52d39540cfd","ios":"levelo://app?vid=428c0970-0cde-44bb-87fb-b52d39540cfd"},"vehicle_type_id":"4","last_reported":1690826910,"current_range_meters":23600,"station_id":"ce4bgl92rcd13ifvqbq0","pricing_plan_id":"free"},{"bike_id":"e526d4e2-849c-44ae-a0d7-5572a62df909","system_id":"levelo_inurba_marseille","lat":43.31216,"lon":5.36863,"is_reserved":false,"is_disabled":false,"rental_uris":{"android":"levelo://app?vid=e526d4e2-849c-44ae-a0d7-5572a62df909","ios":"levelo://app?vid=e526d4e2-849c-44ae-a0d7-5572a62df909"},"vehicle_type_id":"4","last_reported":1690826910,"current_range_meters":18000,"station_id":"ce4bgl92rcd13ifvqbq0","pricing_plan_id":"free"},{"bike_id":"1c68b9d9-9f7f-4388-ae12-8fb976259465","system_id":"levelo_inurba_marseille","lat":43.31223,"lon":5.3687,"is_reserved":false,"is_disabled":false,"rental_uris":{"android":"levelo://app?vid=1c68b9d9-9f7f-4388-ae12-8fb976259465","ios":"levelo://app?vid=1c68b9d9-9f7f-4388-ae12-8fb976259465"},"vehicle_type_id":"4","last_reported":1690826910,"current_range_meters":400,"station_id":"ce4bgl92rcd13ifvqbq0","pricing_plan_id":"free"},{"bike_id":"1a4a3e69-ebdf-4b3e-8ae0-190eba04ad5e","system_id":"levelo_inurba_marseille","lat":43.309076,"lon":5.368465,"is_reserved":false,"is_disabled":false,"rental_uris":{"android":"levelo://app?vid=1a4a3e69-ebdf-4b3e-8ae0-190eba04ad5e","ios":"levelo://app?vid=1a4a3e69-ebdf-4b3e-8ae0-190eba04ad5e"},"vehicle_type_id":"4","last_reported":1690826910,"current_range_meters":8400,"station_id":"ce4bgn92rcd13ifvqbvg","pricing_plan_id":"free"},{"bike_id":"41175c62-31dc-4050-90d5-cb32d2b4440b","system_id":"levelo_inurba_marseille","lat":43.314811,"lon":5.373104,"is_reserved":false,"is_disabled":false,"rental_uris":{"android":"levelo://app?vid=41175c62-31dc-4050-90d5-cb32d2b4440b","ios":"levelo://app?vid=41175c62-31dc-4050-90d5-cb32d2b4440b"},"vehicle_type_id":"4","last_reported":1690826910,"current_range_meters":22800,"station_id":"ce4bgt12rcd13ifvqcd0","pricing_plan_id":"free"},{"bike_id":"f98c244a-9348-4646-bb55-fbffddefc91e","system_id":"levelo_inurba_marseille","lat":43.30668,"lon":5.36593,"is_reserved":false,"is_disabled":false,"rental_uris":{"android":"levelo://app?vid=f98c244a-9348-4646-bb55-fbffddefc91e","ios":"levelo://app?vid=f98c244a-9348-4646-bb55-fbffddefc91e"},"vehicle_type_id":"4","last_reported":1690826910,"current_range_meters":4000,"station_id":"","pricing_plan_id":"free"},{"bike_id":"f20ea888-8740-440b-bfeb-8eb2a7c1f652","system_id":"levelo_inurba_marseille","lat":43.305989,"lon":5.37225,"is_reserved":false,"is_disabled":false,"rental_uris":{"android":"levelo://app?vid=f20ea888-8740-440b-bfeb-8eb2a7c1f652","ios":"levelo://app?vid=f20ea888-8740-440b-bfeb-8eb2a7c1f652"},"vehicle_type_id":"4","last_reported":1690826910,"current_range_meters":30000,"station_id":"ce4bgqh2rcd13ifvqc4g","pricing_plan_id":"free"},{"bike_id":"f0f7ee57-bf88-44ed-9e89-73424ab932b6","system_id":"levelo_inurba_marseille","lat":43.305989,"lon":5.37225,"is_reserved":false,"is_disabled":false,"rental_uris":{"android":"levelo://app?vid=f0f7ee57-bf88-44ed-9e89-73424ab932b6","ios":"levelo://app?vid=f0f7ee57-bf88-44ed-9e89-73424ab932b6"},"vehicle_type_id":"4","last_reported":1690826910,"current_range_meters":20400,"station_id":"ce4bgqh2rcd13ifvqc4g","pricing_plan_id":"free"},{"bike_id":"c32f078b-8a0b-4da4-97f1-3fbe72a5d913","system_id":"levelo_inurba_marseille","lat":43.307945,"lon":5.376487,"is_reserved":false,"is_disabled":false,"rental_uris":{"android":"levelo://app?vid=c32f078b-8a0b-4da4-97f1-3fbe72a5d913","ios":"levelo://app?vid=c32f078b-8a0b-4da4-97f1-3fbe72a5d913"},"vehicle_type_id":"4","last_reported":1690826910,"current_range_meters":18400,"station_id":"ce4bgv92rcd13ifvqcq0","pricing_plan_id":"free"},{"bike_id":"64e44361-d8fb-4ea3-974e-cc25800a9b96","system_id":"levelo_inurba_marseille","lat":43.307945,"lon":5.376487,"is_reserved":false,"is_disabled":false,"rental_uris":{"android":"levelo://app?vid=64e44361-d8fb-4ea3-974e-cc25800a9b96","ios":"levelo://app?vid=64e44361-d8fb-4ea3-974e-cc25800a9b96"},"vehicle_type_id":"4","last_reported":1690826910,"current_range_meters":21600,"station_id":"ce4bgv92rcd13ifvqcq0","pricing_plan_id":"free"},{"bike_id":"5438da75-18eb-427a-a58c-dda2f8afa0be","system_id":"levelo_inurba_marseille","lat":43.311131,"lon":5.377651,"is_reserved":false,"is_disabled":false,"rental_uris":{"android":"levelo://app?vid=5438da75-18eb-427a-a58c-dda2f8afa0be","ios":"levelo://app?vid=5438da75-18eb-427a-a58c-dda2f8afa0be"},"vehicle_type_id":"4","last_reported":1690826910,"current_range_meters":2800,"station_id":"ce4bgt92rcd13ifvqcg0","pricing_plan_id":"free"},{"bike_id":"31a41a71-5bf4-471c-b93e-8f017946fa68","system_id":"levelo_inurba_marseille","lat":43.31529,"lon":5.38035,"is_reserved":false,"is_disabled":false,"rental_uris":{"android":"levelo://app?vid=31a41a71-5bf4-471c-b93e-8f017946fa68","ios":"levelo://app?vid=31a41a71-5bf4-471c-b93e-8f017946fa68"},"vehicle_type_id":"4","last_reported":1690826910,"current_range_meters":15200,"station_id":"ce4bhsp2rcd13ifvqi50","pricing_plan_id":"free"},{"bike_id":"38cec350-8638-442a-a04d-0d21502ba143","system_id":"levelo_inurba_marseille","lat":43.31533,"lon":5.38041,"is_reserved":false,"is_disabled":false,"rental_uris":{"android":"levelo://app?vid=38cec350-8638-442a-a04d-0d21502ba143","ios":"levelo://app?vid=38cec350-8638-442a-a04d-0d21502ba143"},"vehicle_type_id":"4","last_reported":1690826910,"current_range_meters":18000,"station_id":"ce4bhsp2rcd13ifvqi50","pricing_plan_id":"free"},{"bike_id":"aefe435c-e5be-40e7-a8ec-6318936d3e6d","system_id":"levelo_inurba_marseille","lat":43.304606,"lon":5.379026,"is_reserved":false,"is_disabled":false,"rental_uris":{"android":"levelo://app?vid=aefe435c-e5be-40e7-a8ec-6318936d3e6d","ios":"levelo://app?vid=aefe435c-e5be-40e7-a8ec-6318936d3e6d"},"vehicle_type_id":"4","last_reported":1690826910,"current_range_meters":8400,"station_id":"ce4bgup2rcd13ifvqcn0","pricing_plan_id":"free"},{"bike_id":"83325b53-d65b-43f8-9a64-f9041b175249","system_id":"levelo_inurba_marseille","lat":43.304606,"lon":5.379026,"is_reserved":false,"is_disabled":false,"rental_uris":{"android":"levelo://app?vid=83325b53-d65b-43f8-9a64-f9041b175249","ios":"levelo://app?vid=83325b53-d65b-43f8-9a64-f9041b175249"},"vehicle_type_id":"4","last_reported":1690826910,"current_range_meters":28400,"station_id":"ce4bgup2rcd13ifvqcn0","pricing_plan_id":"free"},{"bike_id":"4d220c97-9572-4fe7-9839-d3efcc734386","system_id":"levelo_inurba_marseille","lat":43.313571,"lon":5.384829,"is_reserved":false,"is_disabled":false,"rental_uris":{"android":"levelo://app?vid=4d220c97-9572-4fe7-9839-d3efcc734386","ios":"levelo://app?vid=4d220c97-9572-4fe7-9839-d3efcc734386"},"vehicle_type_id":"4","last_reported":1690826910,"current_range_meters":9600,"station_id":"ce4bgt92rcd13ifvqcf0","pricing_plan_id":"free"},{"bike_id":"4c68aa43-11d1-4962-8848-3c4c5d10796c","system_id":"levelo_inurba_marseille","lat":43.299222,"lon":5.365554,"is_reserved":false,"is_disabled":false,"rental_uris":{"android":"levelo://app?vid=4c68aa43-11d1-4962-8848-3c4c5d10796c","ios":"levelo://app?vid=4c68aa43-11d1-4962-8848-3c4c5d10796c"},"vehicle_type_id":"4","last_reported":1690826910,"current_range_meters":0,"station_id":"ce4bgm92rcd13ifvqbr0","pricing_plan_id":"free"},{"bike_id":"4e999064-7cc2-4c3c-8dfc-4e64a75343a6","system_id":"levelo_inurba_marseille","lat":43.29935,"lon":5.36546,"is_reserved":false,"is_disabled":false,"rental_uris":{"android":"levelo://app?vid=4e999064-7cc2-4c3c-8dfc-4e64a75343a6","ios":"levelo://app?vid=4e999064-7cc2-4c3c-8dfc-4e64a75343a6"},"vehicle_type_id":"4","last_reported":1690826910,"current_range_meters":400,"station_id":"ce4bgm92rcd13ifvqbr0","pricing_plan_id":"free"},{"bike_id":"30537d43-af02-4a10-b928-7b9b8cf633d2","system_id":"levelo_inurba_marseille","lat":43.30539,"lon":5.38432,"is_reserved":false,"is_disabled":false,"rental_uris":{"android":"levelo://app?vid=30537d43-af02-4a10-b928-7b9b8cf633d2","ios":"levelo://app?vid=30537d43-af02-4a10-b928-7b9b8cf633d2"},"vehicle_type_id":"4","last_reported":1690826910,"current_range_meters":29200,"station_id":"ce4bgg92rcd13ifvqb30","pricing_plan_id":"free"},{"bike_id":"f358f04d-c47d-4448-8454-f586e9fd66a4","system_id":"levelo_inurba_marseille","lat":43.311722,"lon":5.387247,"is_reserved":false,"is_disabled":false,"rental_uris":{"android":"levelo://app?vid=f358f04d-c47d-4448-8454-f586e9fd66a4","ios":"levelo://app?vid=f358f04d-c47d-4448-8454-f586e9fd66a4"},"vehicle_type_id":"4","last_reported":1690826910,"current_range_meters":21200,"station_id":"ce4bgv12rcd13ifvqcp0","pricing_plan_id":"free"},{"bike_id":"ffca5e91-1334-4566-8658-a6146aecc234","system_id":"levelo_inurba_marseille","lat":43.3278,"lon":5.36697,"is_reserved":false,"is_disabled":false,"rental_uris":{"android":"levelo://app?vid=ffca5e91-1334-4566-8658-a6146aecc234","ios":"levelo://app?vid=ffca5e91-1334-4566-8658-a6146aecc234"},"vehicle_type_id":"4","last_reported":1690826910,"current_range_meters":20400,"station_id":"","pricing_plan_id":"free"},{"bike_id":"1667f8d3-a9be-4cd0-94f9-a49d8fa2e11e","system_id":"levelo_inurba_marseille","lat":43.32291,"lon":5.38265,"is_reserved":false,"is_disabled":false,"rental_uris":{"android":"levelo://app?vid=1667f8d3-a9be-4cd0-94f9-a49d8fa2e11e","ios":"levelo://app?vid=1667f8d3-a9be-4cd0-94f9-a49d8fa2e11e"},"vehicle_type_id":"4","last_reported":1690826910,"current_range_meters":24800,"station_id":"ce4bhr12rcd13ifvqhqg","pricing_plan_id":"free"},{"bike_id":"9415d978-2564-41e1-bf0c-bf78154b02ce","system_id":"levelo_inurba_marseille","lat":43.32294,"lon":5.38263,"is_reserved":false,"is_disabled":false,"rental_uris":{"android":"levelo://app?vid=9415d978-2564-41e1-bf0c-bf78154b02ce","ios":"levelo://app?vid=9415d978-2564-41e1-bf0c-bf78154b02ce"},"vehicle_type_id":"4","last_reported":1690826910,"current_range_meters":18400,"station_id":"ce4bhr12rcd13ifvqhqg","pricing_plan_id":"free"},{"bike_id":"79bf6da4-5f08-488b-96b1-6e23f74ec5ec","system_id":"levelo_inurba_marseille","lat":43.322872,"lon":5.382756,"is_reserved":false,"is_disabled":false,"rental_uris":{"android":"levelo://app?vid=79bf6da4-5f08-488b-96b1-6e23f74ec5ec","ios":"levelo://app?vid=79bf6da4-5f08-488b-96b1-6e23f74ec5ec"},"vehicle_type_id":"4","last_reported":1690826910,"current_range_meters":28400,"station_id":"ce4bhr12rcd13ifvqhqg","pricing_plan_id":"free"},{"bike_id":"711b5568-f412-46f6-b2c1-6b25a217636a","system_id":"levelo_inurba_marseille","lat":43.32291,"lon":5.38267,"is_reserved":false,"is_disabled":false,"rental_uris":{"android":"levelo://app?vid=711b5568-f412-46f6-b2c1-6b25a217636a","ios":"levelo://app?vid=711b5568-f412-46f6-b2c1-6b25a217636a"},"vehicle_type_id":"4","last_reported":1690826910,"current_range_meters":2400,"station_id":"ce4bhr12rcd13ifvqhqg","pricing_plan_id":"free"},{"bike_id":"82f1e03d-e4c3-4aac-b6f0-c9fc3950fe62","system_id":"levelo_inurba_marseille","lat":43.322919,"lon":5.382674,"is_reserved":false,"is_disabled":false,"rental_uris":{"android":"levelo://app?vid=82f1e03d-e4c3-4aac-b6f0-c9fc3950fe62","ios":"levelo://app?vid=82f1e03d-e4c3-4aac-b6f0-c9fc3950fe62"},"vehicle_type_id":"4","last_reported":1690826910,"current_range_meters":16000,"station_id":"","pricing_plan_id":"free"},{"bike_id":"6e2ecb45-9d47-4c78-839f-879a3de42c45","system_id":"levelo_inurba_marseille","lat":43.3283,"lon":5.36681,"is_reserved":false,"is_disabled":false,"rental_uris":{"android":"levelo://app?vid=6e2ecb45-9d47-4c78-839f-879a3de42c45","ios":"levelo://app?vid=6e2ecb45-9d47-4c78-839f-879a3de42c45"},"vehicle_type_id":"4","last_reported":1690826910,"current_range_meters":21200,"station_id":"ce4bhs92rcd13ifvqi0g","pricing_plan_id":"free"},{"bike_id":"61b39c43-398d-4345-ae6b-a312757f2f03","system_id":"levelo_inurba_marseille","lat":43.32832,"lon":5.36686,"is_reserved":false,"is_disabled":false,"rental_uris":{"android":"levelo://app?vid=61b39c43-398d-4345-ae6b-a312757f2f03","ios":"levelo://app?vid=61b39c43-398d-4345-ae6b-a312757f2f03"},"vehicle_type_id":"4","last_reported":1690826910,"current_range_meters":22800,"station_id":"ce4bhs92rcd13ifvqi0g","pricing_plan_id":"free"},{"bike_id":"21eb0dd3-6514-4278-9b9e-3268030f83a1","system_id":"levelo_inurba_marseille","lat":43.297163,"lon":5.365866,"is_reserved":false,"is_disabled":false,"rental_uris":{"android":"levelo://app?vid=21eb0dd3-6514-4278-9b9e-3268030f83a1","ios":"levelo://app?vid=21eb0dd3-6514-4278-9b9e-3268030f83a1"},"vehicle_type_id":"4","last_reported":1690826910,"current_range_meters":15600,"station_id":"ce4bgn12rcd13ifvqbt0","pricing_plan_id":"free"},{"bike_id":"dd789220-e7b5-42c1-b9dc-dc4243148021","system_id":"levelo_inurba_marseille","lat":43.297163,"lon":5.365866,"is_reserved":false,"is_disabled":false,"rental_uris":{"android":"levelo://app?vid=dd789220-e7b5-42c1-b9dc-dc4243148021","ios":"levelo://app?vid=dd789220-e7b5-42c1-b9dc-dc4243148021"},"vehicle_type_id":"4","last_reported":1690826910,"current_range_meters":31200,"station_id":"ce4bgn12rcd13ifvqbt0","pricing_plan_id":"free"},{"bike_id":"452cfc60-de17-4e32-8e61-affb2816010a","system_id":"levelo_inurba_marseille","lat":43.32841,"lon":5.36676,"is_reserved":false,"is_disabled":false,"rental_uris":{"android":"levelo://app?vid=452cfc60-de17-4e32-8e61-affb2816010a","ios":"levelo://app?vid=452cfc60-de17-4e32-8e61-affb2816010a"},"vehicle_type_id":"4","last_reported":1690826910,"current_range_meters":31200,"station_id":"ce4bhs92rcd13ifvqi0g","pricing_plan_id":"free"},{"bike_id":"3436c5b2-e861-41e2-adfa-7a8897fa82c8","system_id":"levelo_inurba_marseille","lat":43.2968,"lon":5.37291,"is_reserved":false,"is_disabled":false,"rental_uris":{"android":"levelo://app?vid=3436c5b2-e861-41e2-adfa-7a8897fa82c8","ios":"levelo://app?vid=3436c5b2-e861-41e2-adfa-7a8897fa82c8"},"vehicle_type_id":"4","last_reported":1690826910,"current_range_meters":0,"station_id":"ce4bgk12rcd13ifvqbj0","pricing_plan_id":"free"},{"bike_id":"cef361e4-08f2-479c-9ab6-62141b4f3468","system_id":"levelo_inurba_marseille","lat":43.29573,"lon":5.367355,"is_reserved":false,"is_disabled":false,"rental_uris":{"android":"levelo://app?vid=cef361e4-08f2-479c-9ab6-62141b4f3468","ios":"levelo://app?vid=cef361e4-08f2-479c-9ab6-62141b4f3468"},"vehicle_type_id":"4","last_reported":1690826910,"current_range_meters":9600,"station_id":"ce4bgph2rcd13ifvqc2g","pricing_plan_id":"free"},{"bike_id":"f0b1921d-8fc5-42f6-8214-26455e772ce5","system_id":"levelo_inurba_marseille","lat":43.309589,"lon":5.390258,"is_reserved":false,"is_disabled":false,"rental_uris":{"android":"levelo://app?vid=f0b1921d-8fc5-42f6-8214-26455e772ce5","ios":"levelo://app?vid=f0b1921d-8fc5-42f6-8214-26455e772ce5"},"vehicle_type_id":"4","last_reported":1690826910,"current_range_meters":23600,"station_id":"ce4bgup2rcd13ifvqco0","pricing_plan_id":"free"},{"bike_id":"6c1a1a02-0c24-4e4d-b0de-0a27f9363633","system_id":"levelo_inurba_marseille","lat":43.31752,"lon":5.39014,"is_reserved":false,"is_disabled":false,"rental_uris":{"android":"levelo://app?vid=6c1a1a02-0c24-4e4d-b0de-0a27f9363633","ios":"levelo://app?vid=6c1a1a02-0c24-4e4d-b0de-0a27f9363633"},"vehicle_type_id":"4","last_reported":1690826910,"current_range_meters":22000,"station_id":"","pricing_plan_id":"free"},{"bike_id":"ae786bb5-bca1-42b5-8f57-e1dd8a890203","system_id":"levelo_inurba_marseille","lat":43.29804,"lon":5.38084,"is_reserved":false,"is_disabled":false,"rental_uris":{"android":"levelo://app?vid=ae786bb5-bca1-42b5-8f57-e1dd8a890203","ios":"levelo://app?vid=ae786bb5-bca1-42b5-8f57-e1dd8a890203"},"vehicle_type_id":"4","last_reported":1690826910,"current_range_meters":20800,"station_id":"ce4bgip2rcd13ifvqbb0","pricing_plan_id":"free"},{"bike_id":"f4cbcbd2-5e66-42e0-85eb-61b2ae435a7b","system_id":"levelo_inurba_marseille","lat":43.295757,"lon":5.37527,"is_reserved":false,"is_disabled":false,"rental_uris":{"android":"levelo://app?vid=f4cbcbd2-5e66-42e0-85eb-61b2ae435a7b","ios":"levelo://app?vid=f4cbcbd2-5e66-42e0-85eb-61b2ae435a7b"},"vehicle_type_id":"4","last_reported":1690826910,"current_range_meters":6800,"station_id":"ce4bgh92rcd13ifvqb50","pricing_plan_id":"free"},{"bike_id":"174bf170-f3c3-443a-8f7e-a08ac1f70fe3","system_id":"levelo_inurba_marseille","lat":43.304278,"lon":5.388868,"is_reserved":false,"is_disabled":false,"rental_uris":{"android":"levelo://app?vid=174bf170-f3c3-443a-8f7e-a08ac1f70fe3","ios":"levelo://app?vid=174bf170-f3c3-443a-8f7e-a08ac1f70fe3"},"vehicle_type_id":"4","last_reported":1690826910,"current_range_meters":15200,"station_id":"ce4bgk12rcd13ifvqbi0","pricing_plan_id":"free"},{"bike_id":"78a5b085-d422-4538-a08f-87168832b582","system_id":"levelo_inurba_marseille","lat":43.30428,"lon":5.38894,"is_reserved":false,"is_disabled":false,"rental_uris":{"android":"levelo://app?vid=78a5b085-d422-4538-a08f-87168832b582","ios":"levelo://app?vid=78a5b085-d422-4538-a08f-87168832b582"},"vehicle_type_id":"4","last_reported":1690826910,"current_range_meters":2000,"station_id":"ce4bgk12rcd13ifvqbi0","pricing_plan_id":"free"},{"bike_id":"09c7c729-a880-4101-b4fc-8bba9b893903","system_id":"levelo_inurba_marseille","lat":43.296263,"lon":5.377094,"is_reserved":false,"is_disabled":false,"rental_uris":{"android":"levelo://app?vid=09c7c729-a880-4101-b4fc-8bba9b893903","ios":"levelo://app?vid=09c7c729-a880-4101-b4fc-8bba9b893903"},"vehicle_type_id":"4","last_reported":1690826910,"current_range_meters":26800,"station_id":"ce4bgi92rcd13ifvqb90","pricing_plan_id":"free"},{"bike_id":"114254dd-8a2e-4995-91bf-076304b4246a","system_id":"levelo_inurba_marseille","lat":43.304274,"lon":5.388873,"is_reserved":false,"is_disabled":false,"rental_uris":{"android":"levelo://app?vid=114254dd-8a2e-4995-91bf-076304b4246a","ios":"levelo://app?vid=114254dd-8a2e-4995-91bf-076304b4246a"},"vehicle_type_id":"4","last_reported":1690826910,"current_range_meters":0,"station_id":"ce4bgk12rcd13ifvqbi0","pricing_plan_id":"free"},{"bike_id":"3e72f98d-02b0-486b-81e9-8a1ce064861b","system_id":"levelo_inurba_marseille","lat":43.296263,"lon":5.377094,"is_reserved":false,"is_disabled":false,"rental_uris":{"android":"levelo://app?vid=3e72f98d-02b0-486b-81e9-8a1ce064861b","ios":"levelo://app?vid=3e72f98d-02b0-486b-81e9-8a1ce064861b"},"vehicle_type_id":"4","last_reported":1690826910,"current_range_meters":6000,"station_id":"ce4bgi92rcd13ifvqb90","pricing_plan_id":"free"},{"bike_id":"6a1a3bd7-e941-43af-9668-a468fa1e1495","system_id":"levelo_inurba_marseille","lat":43.296263,"lon":5.377094,"is_reserved":false,"is_disabled":false,"rental_uris":{"android":"levelo://app?vid=6a1a3bd7-e941-43af-9668-a468fa1e1495","ios":"levelo://app?vid=6a1a3bd7-e941-43af-9668-a468fa1e1495"},"vehicle_type_id":"4","last_reported":1690826910,"current_range_meters":1200,"station_id":"ce4bgi92rcd13ifvqb90","pricing_plan_id":"free"},{"bike_id":"bc01e246-40a4-4720-98d1-2dcb72dc35fa","system_id":"levelo_inurba_marseille","lat":43.299724,"lon":5.384848,"is_reserved":false,"is_disabled":false,"rental_uris":{"android":"levelo://app?vid=bc01e246-40a4-4720-98d1-2dcb72dc35fa","ios":"levelo://app?vid=bc01e246-40a4-4720-98d1-2dcb72dc35fa"},"vehicle_type_id":"4","last_reported":1690826910,"current_range_meters":4400,"station_id":"ce4bgj92rcd13ifvqbd0","pricing_plan_id":"free"},{"bike_id":"2e8fda54-9922-47ef-8923-74045620ca62","system_id":"levelo_inurba_marseille","lat":43.299724,"lon":5.384848,"is_reserved":false,"is_disabled":false,"rental_uris":{"android":"levelo://app?vid=2e8fda54-9922-47ef-8923-74045620ca62","ios":"levelo://app?vid=2e8fda54-9922-47ef-8923-74045620ca62"},"vehicle_type_id":"4","last_reported":1690826910,"current_range_meters":0,"station_id":"ce4bgj92rcd13ifvqbd0","pricing_plan_id":"free"},{"bike_id":"7ec05174-ebff-4c35-9061-a31f82ada661","system_id":"levelo_inurba_marseille","lat":43.32367,"lon":5.388836,"is_reserved":false,"is_disabled":false,"rental_uris":{"android":"levelo://app?vid=7ec05174-ebff-4c35-9061-a31f82ada661","ios":"levelo://app?vid=7ec05174-ebff-4c35-9061-a31f82ada661"},"vehicle_type_id":"4","last_reported":1690826910,"current_range_meters":3600,"station_id":"ce4bhqp2rcd13ifvqhog","pricing_plan_id":"free"},{"bike_id":"fa414a1f-66c6-4578-8b8b-21914cda0c96","system_id":"levelo_inurba_marseille","lat":43.32367,"lon":5.388836,"is_reserved":false,"is_disabled":false,"rental_uris":{"android":"levelo://app?vid=fa414a1f-66c6-4578-8b8b-21914cda0c96","ios":"levelo://app?vid=fa414a1f-66c6-4578-8b8b-21914cda0c96"},"vehicle_type_id":"4","last_reported":1690826910,"current_range_meters":14000,"station_id":"ce4bhqp2rcd13ifvqhog","pricing_plan_id":"free"},{"bike_id":"0eec1dee-9a7e-4791-8589-bd82e7781bbe","system_id":"levelo_inurba_marseille","lat":43.293009,"lon":5.374584,"is_reserved":false,"is_disabled":false,"rental_uris":{"android":"levelo://app?vid=0eec1dee-9a7e-4791-8589-bd82e7781bbe","ios":"levelo://app?vid=0eec1dee-9a7e-4791-8589-bd82e7781bbe"},"vehicle_type_id":"4","last_reported":1690826910,"current_range_meters":2800,"station_id":"ce4bgi12rcd13ifvqb70","pricing_plan_id":"free"},{"bike_id":"b0504bb6-1927-4135-9ee6-b3da2a08ed1f","system_id":"levelo_inurba_marseille","lat":43.2931,"lon":5.37184,"is_reserved":false,"is_disabled":false,"rental_uris":{"android":"levelo://app?vid=b0504bb6-1927-4135-9ee6-b3da2a08ed1f","ios":"levelo://app?vid=b0504bb6-1927-4135-9ee6-b3da2a08ed1f"},"vehicle_type_id":"4","last_reported":1690826910,"current_range_meters":6000,"station_id":"ce4bgh92rcd13ifvqb40","pricing_plan_id":"free"},{"bike_id":"482faf80-b80c-4c97-b2a5-d3dceb97eedc","system_id":"levelo_inurba_marseille","lat":43.293009,"lon":5.374584,"is_reserved":false,"is_disabled":false,"rental_uris":{"android":"levelo://app?vid=482faf80-b80c-4c97-b2a5-d3dceb97eedc","ios":"levelo://app?vid=482faf80-b80c-4c97-b2a5-d3dceb97eedc"},"vehicle_type_id":"4","last_reported":1690826910,"current_range_meters":21600,"station_id":"ce4bgi12rcd13ifvqb70","pricing_plan_id":"free"},{"bike_id":"91183c7b-d73a-43ac-bdd3-577edf0fd090","system_id":"levelo_inurba_marseille","lat":43.293009,"lon":5.374584,"is_reserved":false,"is_disabled":false,"rental_uris":{"android":"levelo://app?vid=91183c7b-d73a-43ac-bdd3-577edf0fd090","ios":"levelo://app?vid=91183c7b-d73a-43ac-bdd3-577edf0fd090"},"vehicle_type_id":"4","last_reported":1690826910,"current_range_meters":31200,"station_id":"ce4bgi12rcd13ifvqb70","pricing_plan_id":"free"},{"bike_id":"06fe5541-78ff-44c3-8970-7cf82fa739dd","system_id":"levelo_inurba_marseille","lat":43.2923,"lon":5.36393,"is_reserved":false,"is_disabled":false,"rental_uris":{"android":"levelo://app?vid=06fe5541-78ff-44c3-8970-7cf82fa739dd","ios":"levelo://app?vid=06fe5541-78ff-44c3-8970-7cf82fa739dd"},"vehicle_type_id":"4","last_reported":1690826910,"current_range_meters":16000,"station_id":"","pricing_plan_id":"free"},{"bike_id":"42f4ca3d-77db-4d68-b1ae-e07e9363b23c","system_id":"levelo_inurba_marseille","lat":43.305994,"lon":5.393687,"is_reserved":false,"is_disabled":false,"rental_uris":{"android":"levelo://app?vid=42f4ca3d-77db-4d68-b1ae-e07e9363b23c","ios":"levelo://app?vid=42f4ca3d-77db-4d68-b1ae-e07e9363b23c"},"vehicle_type_id":"4","last_reported":1690826910,"current_range_meters":28400,"station_id":"ce4bh0p2rcd13ifvqd80","pricing_plan_id":"free"},{"bike_id":"17e7d265-4a86-413f-a1e4-36ca55e50c5e","system_id":"levelo_inurba_marseille","lat":43.2926,"lon":5.37264,"is_reserved":false,"is_disabled":false,"rental_uris":{"android":"levelo://app?vid=17e7d265-4a86-413f-a1e4-36ca55e50c5e","ios":"levelo://app?vid=17e7d265-4a86-413f-a1e4-36ca55e50c5e"},"vehicle_type_id":"4","last_reported":1690826910,"current_range_meters":30400,"station_id":"","pricing_plan_id":"free"},{"bike_id":"d7018806-5360-40ad-a215-fb5955860ddb","system_id":"levelo_inurba_marseille","lat":43.305994,"lon":5.393687,"is_reserved":false,"is_disabled":false,"rental_uris":{"android":"levelo://app?vid=d7018806-5360-40ad-a215-fb5955860ddb","ios":"levelo://app?vid=d7018806-5360-40ad-a215-fb5955860ddb"},"vehicle_type_id":"4","last_reported":1690826910,"current_range_meters":25600,"station_id":"ce4bh0p2rcd13ifvqd80","pricing_plan_id":"free"},{"bike_id":"2ee0c72d-adad-4c62-b9da-b86f31ba8d3b","system_id":"levelo_inurba_marseille","lat":43.2936,"lon":5.37835,"is_reserved":false,"is_disabled":false,"rental_uris":{"android":"levelo://app?vid=2ee0c72d-adad-4c62-b9da-b86f31ba8d3b","ios":"levelo://app?vid=2ee0c72d-adad-4c62-b9da-b86f31ba8d3b"},"vehicle_type_id":"4","last_reported":1690826910,"current_range_meters":13600,"station_id":"ce4bgjh2rcd13ifvqbf0","pricing_plan_id":"free"},{"bike_id":"a23341f8-75ca-47a4-905d-0e89c4dd6b68","system_id":"levelo_inurba_marseille","lat":43.2936,"lon":5.37835,"is_reserved":false,"is_disabled":false,"rental_uris":{"android":"levelo://app?vid=a23341f8-75ca-47a4-905d-0e89c4dd6b68","ios":"levelo://app?vid=a23341f8-75ca-47a4-905d-0e89c4dd6b68"},"vehicle_type_id":"4","last_reported":1690826910,"current_range_meters":10400,"station_id":"ce4bgjh2rcd13ifvqbf0","pricing_plan_id":"free"},{"bike_id":"c22453da-702b-4cde-8593-2be32fe3aff0","system_id":"levelo_inurba_marseille","lat":43.2936,"lon":5.37835,"is_reserved":false,"is_disabled":false,"rental_uris":{"android":"levelo://app?vid=c22453da-702b-4cde-8593-2be32fe3aff0","ios":"levelo://app?vid=c22453da-702b-4cde-8593-2be32fe3aff0"},"vehicle_type_id":"4","last_reported":1690826910,"current_range_meters":3200,"station_id":"ce4bgjh2rcd13ifvqbf0","pricing_plan_id":"free"},{"bike_id":"8be2ebd3-98e5-4246-8e24-01e26991e03c","system_id":"levelo_inurba_marseille","lat":43.292311,"lon":5.360731,"is_reserved":false,"is_disabled":false,"rental_uris":{"android":"levelo://app?vid=8be2ebd3-98e5-4246-8e24-01e26991e03c","ios":"levelo://app?vid=8be2ebd3-98e5-4246-8e24-01e26991e03c"},"vehicle_type_id":"4","last_reported":1690826910,"current_range_meters":27600,"station_id":"ce4bhbh2rcd13ifvqeqg","pricing_plan_id":"free"},{"bike_id":"ac639dc7-6706-4bb4-be36-cc9037e658fd","system_id":"levelo_inurba_marseille","lat":43.300852,"lon":5.390859,"is_reserved":false,"is_disabled":false,"rental_uris":{"android":"levelo://app?vid=ac639dc7-6706-4bb4-be36-cc9037e658fd","ios":"levelo://app?vid=ac639dc7-6706-4bb4-be36-cc9037e658fd"},"vehicle_type_id":"4","last_reported":1690826910,"current_range_meters":17200,"station_id":"ce4bh192rcd13ifvqdb0","pricing_plan_id":"free"},{"bike_id":"881a5e6d-dfdf-4c84-bd6c-229f276a5a91","system_id":"levelo_inurba_marseille","lat":43.292311,"lon":5.360731,"is_reserved":false,"is_disabled":false,"rental_uris":{"android":"levelo://app?vid=881a5e6d-dfdf-4c84-bd6c-229f276a5a91","ios":"levelo://app?vid=881a5e6d-dfdf-4c84-bd6c-229f276a5a91"},"vehicle_type_id":"4","last_reported":1690826910,"current_range_meters":13200,"station_id":"ce4bhbh2rcd13ifvqeqg","pricing_plan_id":"free"},{"bike_id":"6a5577dc-9dec-4fed-b081-40dde99a216e","system_id":"levelo_inurba_marseille","lat":43.292311,"lon":5.360731,"is_reserved":false,"is_disabled":false,"rental_uris":{"android":"levelo://app?vid=6a5577dc-9dec-4fed-b081-40dde99a216e","ios":"levelo://app?vid=6a5577dc-9dec-4fed-b081-40dde99a216e"},"vehicle_type_id":"4","last_reported":1690826910,"current_range_meters":2800,"station_id":"ce4bhbh2rcd13ifvqeqg","pricing_plan_id":"free"},{"bike_id":"2679e0df-9ecd-410e-ada5-ccf01f0c793d","system_id":"levelo_inurba_marseille","lat":43.300852,"lon":5.390859,"is_reserved":false,"is_disabled":false,"rental_uris":{"android":"levelo://app?vid=2679e0df-9ecd-410e-ada5-ccf01f0c793d","ios":"levelo://app?vid=2679e0df-9ecd-410e-ada5-ccf01f0c793d"},"vehicle_type_id":"4","last_reported":1690826910,"current_range_meters":15200,"station_id":"ce4bh192rcd13ifvqdb0","pricing_plan_id":"free"},{"bike_id":"02afe194-8c94-4781-9aea-ef47cbfb9bbf","system_id":"levelo_inurba_marseille","lat":43.292311,"lon":5.360731,"is_reserved":false,"is_disabled":false,"rental_uris":{"android":"levelo://app?vid=02afe194-8c94-4781-9aea-ef47cbfb9bbf","ios":"levelo://app?vid=02afe194-8c94-4781-9aea-ef47cbfb9bbf"},"vehicle_type_id":"4","last_reported":1690826910,"current_range_meters":4000,"station_id":"ce4bhbh2rcd13ifvqeqg","pricing_plan_id":"free"},{"bike_id":"c0e0a499-10b6-4554-8dd6-2c766f5fa040","system_id":"levelo_inurba_marseille","lat":43.298764,"lon":5.388973,"is_reserved":false,"is_disabled":false,"rental_uris":{"android":"levelo://app?vid=c0e0a499-10b6-4554-8dd6-2c766f5fa040","ios":"levelo://app?vid=c0e0a499-10b6-4554-8dd6-2c766f5fa040"},"vehicle_type_id":"4","last_reported":1690826910,"current_range_meters":16800,"station_id":"ce4bh392rcd13ifvqdl0","pricing_plan_id":"free"},{"bike_id":"3d8815b5-20d1-4622-be77-5f8021f856bc","system_id":"levelo_inurba_marseille","lat":43.291671,"lon":5.371575,"is_reserved":false,"is_disabled":false,"rental_uris":{"android":"levelo://app?vid=3d8815b5-20d1-4622-be77-5f8021f856bc","ios":"levelo://app?vid=3d8815b5-20d1-4622-be77-5f8021f856bc"},"vehicle_type_id":"4","last_reported":1690826910,"current_range_meters":3600,"station_id":"ce4bha92rcd13ifvqeh0","pricing_plan_id":"free"},{"bike_id":"8a8a0400-547f-4e98-8555-f8d886068159","system_id":"levelo_inurba_marseille","lat":43.29204,"lon":5.35794,"is_reserved":false,"is_disabled":false,"rental_uris":{"android":"levelo://app?vid=8a8a0400-547f-4e98-8555-f8d886068159","ios":"levelo://app?vid=8a8a0400-547f-4e98-8555-f8d886068159"},"vehicle_type_id":"4","last_reported":1690826910,"current_range_meters":16400,"station_id":"ce4bhb12rcd13ifvqel0","pricing_plan_id":"free"},{"bike_id":"f29fbabf-4195-4a21-a766-d9b1132f3572","system_id":"levelo_inurba_marseille","lat":43.29198,"lon":5.358,"is_reserved":false,"is_disabled":false,"rental_uris":{"android":"levelo://app?vid=f29fbabf-4195-4a21-a766-d9b1132f3572","ios":"levelo://app?vid=f29fbabf-4195-4a21-a766-d9b1132f3572"},"vehicle_type_id":"4","last_reported":1690826910,"current_range_meters":8000,"station_id":"ce4bhb12rcd13ifvqel0","pricing_plan_id":"free"},{"bike_id":"494b6313-d1f2-40f9-bf1d-751733b3f50c","system_id":"levelo_inurba_marseille","lat":43.29197,"lon":5.35797,"is_reserved":false,"is_disabled":false,"rental_uris":{"android":"levelo://app?vid=494b6313-d1f2-40f9-bf1d-751733b3f50c","ios":"levelo://app?vid=494b6313-d1f2-40f9-bf1d-751733b3f50c"},"vehicle_type_id":"4","last_reported":1690826910,"current_range_meters":15600,"station_id":"ce4bhb12rcd13ifvqel0","pricing_plan_id":"free"},{"bike_id":"df2ba20e-f3d2-4ad4-a987-8d5f28625f03","system_id":"levelo_inurba_marseille","lat":43.29192,"lon":5.35806,"is_reserved":false,"is_disabled":false,"rental_uris":{"android":"levelo://app?vid=df2ba20e-f3d2-4ad4-a987-8d5f28625f03","ios":"levelo://app?vid=df2ba20e-f3d2-4ad4-a987-8d5f28625f03"},"vehicle_type_id":"4","last_reported":1690826910,"current_range_meters":13600,"station_id":"ce4bhb12rcd13ifvqel0","pricing_plan_id":"free"},{"bike_id":"9128dccd-252b-4f4a-8670-2c1f44c11eb7","system_id":"levelo_inurba_marseille","lat":43.29193,"lon":5.35798,"is_reserved":false,"is_disabled":false,"rental_uris":{"android":"levelo://app?vid=9128dccd-252b-4f4a-8670-2c1f44c11eb7","ios":"levelo://app?vid=9128dccd-252b-4f4a-8670-2c1f44c11eb7"},"vehicle_type_id":"4","last_reported":1690826910,"current_range_meters":0,"station_id":"ce4bhb12rcd13ifvqel0","pricing_plan_id":"free"},{"bike_id":"7f3dccae-6f07-439f-8566-8d720d1f8a32","system_id":"levelo_inurba_marseille","lat":43.29192,"lon":5.35799,"is_reserved":false,"is_disabled":false,"rental_uris":{"android":"levelo://app?vid=7f3dccae-6f07-439f-8566-8d720d1f8a32","ios":"levelo://app?vid=7f3dccae-6f07-439f-8566-8d720d1f8a32"},"vehicle_type_id":"4","last_reported":1690826910,"current_range_meters":14000,"station_id":"ce4bhb12rcd13ifvqel0","pricing_plan_id":"free"},{"bike_id":"14913b68-aa4e-4c46-a034-6475ce192051","system_id":"levelo_inurba_marseille","lat":43.29192,"lon":5.35797,"is_reserved":false,"is_disabled":false,"rental_uris":{"android":"levelo://app?vid=14913b68-aa4e-4c46-a034-6475ce192051","ios":"levelo://app?vid=14913b68-aa4e-4c46-a034-6475ce192051"},"vehicle_type_id":"4","last_reported":1690826910,"current_range_meters":23200,"station_id":"ce4bhb12rcd13ifvqel0","pricing_plan_id":"free"},{"bike_id":"6faf2f25-62c8-42c6-b010-0bac1a17ecca","system_id":"levelo_inurba_marseille","lat":43.31329,"lon":5.39691,"is_reserved":false,"is_disabled":false,"rental_uris":{"android":"levelo://app?vid=6faf2f25-62c8-42c6-b010-0bac1a17ecca","ios":"levelo://app?vid=6faf2f25-62c8-42c6-b010-0bac1a17ecca"},"vehicle_type_id":"4","last_reported":1690826910,"current_range_meters":30000,"station_id":"ce4bgvp2rcd13ifvqcu0","pricing_plan_id":"free"},{"bike_id":"bece33f2-9aaf-4985-9e07-5017766e4fba","system_id":"levelo_inurba_marseille","lat":43.291994,"lon":5.357886,"is_reserved":false,"is_disabled":false,"rental_uris":{"android":"levelo://app?vid=bece33f2-9aaf-4985-9e07-5017766e4fba","ios":"levelo://app?vid=bece33f2-9aaf-4985-9e07-5017766e4fba"},"vehicle_type_id":"4","last_reported":1690826910,"current_range_meters":12000,"station_id":"ce4bhb12rcd13ifvqel0","pricing_plan_id":"free"},{"bike_id":"b74ba8ab-5442-456c-886a-f1f0c5f0a327","system_id":"levelo_inurba_marseille","lat":43.313291,"lon":5.396838,"is_reserved":false,"is_disabled":false,"rental_uris":{"android":"levelo://app?vid=b74ba8ab-5442-456c-886a-f1f0c5f0a327","ios":"levelo://app?vid=b74ba8ab-5442-456c-886a-f1f0c5f0a327"},"vehicle_type_id":"4","last_reported":1690826910,"current_range_meters":4400,"station_id":"ce4bgvp2rcd13ifvqcu0","pricing_plan_id":"free"},{"bike_id":"48ca99b2-d032-42ca-95a1-5a717f04616c","system_id":"levelo_inurba_marseille","lat":43.291994,"lon":5.357886,"is_reserved":false,"is_disabled":false,"rental_uris":{"android":"levelo://app?vid=48ca99b2-d032-42ca-95a1-5a717f04616c","ios":"levelo://app?vid=48ca99b2-d032-42ca-95a1-5a717f04616c"},"vehicle_type_id":"4","last_reported":1690826910,"current_range_meters":15200,"station_id":"ce4bhb12rcd13ifvqel0","pricing_plan_id":"free"},{"bike_id":"cef9b150-1276-4897-9ffd-35e784ba9bbf","system_id":"levelo_inurba_marseille","lat":43.313291,"lon":5.396838,"is_reserved":false,"is_disabled":false,"rental_uris":{"android":"levelo://app?vid=cef9b150-1276-4897-9ffd-35e784ba9bbf","ios":"levelo://app?vid=cef9b150-1276-4897-9ffd-35e784ba9bbf"},"vehicle_type_id":"4","last_reported":1690826910,"current_range_meters":17600,"station_id":"ce4bgvp2rcd13ifvqcu0","pricing_plan_id":"free"},{"bike_id":"9ecc08f0-2f75-4903-8dd9-3a0098d2d2ef","system_id":"levelo_inurba_marseille","lat":43.29529,"lon":5.385581,"is_reserved":false,"is_disabled":false,"rental_uris":{"android":"levelo://app?vid=9ecc08f0-2f75-4903-8dd9-3a0098d2d2ef","ios":"levelo://app?vid=9ecc08f0-2f75-4903-8dd9-3a0098d2d2ef"},"vehicle_type_id":"4","last_reported":1690826910,"current_range_meters":10000,"station_id":"ce4bgih2rcd13ifvqba0","pricing_plan_id":"free"},{"bike_id":"c5196979-2e15-489a-95f6-d9bb62b45d04","system_id":"levelo_inurba_marseille","lat":43.29529,"lon":5.385581,"is_reserved":false,"is_disabled":false,"rental_uris":{"android":"levelo://app?vid=c5196979-2e15-489a-95f6-d9bb62b45d04","ios":"levelo://app?vid=c5196979-2e15-489a-95f6-d9bb62b45d04"},"vehicle_type_id":"4","last_reported":1690826910,"current_range_meters":19200,"station_id":"ce4bgih2rcd13ifvqba0","pricing_plan_id":"free"},{"bike_id":"fb11b33b-ea47-4805-ba4f-ba00a5c1ed68","system_id":"levelo_inurba_marseille","lat":43.29529,"lon":5.385581,"is_reserved":false,"is_disabled":false,"rental_uris":{"android":"levelo://app?vid=fb11b33b-ea47-4805-ba4f-ba00a5c1ed68","ios":"levelo://app?vid=fb11b33b-ea47-4805-ba4f-ba00a5c1ed68"},"vehicle_type_id":"4","last_reported":1690826910,"current_range_meters":14000,"station_id":"ce4bgih2rcd13ifvqba0","pricing_plan_id":"free"},{"bike_id":"d363ad8f-c995-4ae1-8b75-f0196b1c7a7d","system_id":"levelo_inurba_marseille","lat":43.290779,"lon":5.371482,"is_reserved":false,"is_disabled":false,"rental_uris":{"android":"levelo://app?vid=d363ad8f-c995-4ae1-8b75-f0196b1c7a7d","ios":"levelo://app?vid=d363ad8f-c995-4ae1-8b75-f0196b1c7a7d"},"vehicle_type_id":"4","last_reported":1690826910,"current_range_meters":28800,"station_id":"ce4bh5p2rcd13ifvqe4g","pricing_plan_id":"free"},{"bike_id":"88516b0c-2eec-4fd9-abb6-69fe24cc00b3","system_id":"levelo_inurba_marseille","lat":43.290779,"lon":5.371482,"is_reserved":false,"is_disabled":false,"rental_uris":{"android":"levelo://app?vid=88516b0c-2eec-4fd9-abb6-69fe24cc00b3","ios":"levelo://app?vid=88516b0c-2eec-4fd9-abb6-69fe24cc00b3"},"vehicle_type_id":"4","last_reported":1690826910,"current_range_meters":14800,"station_id":"ce4bh5p2rcd13ifvqe4g","pricing_plan_id":"free"},{"bike_id":"91fc1766-9987-4a12-9652-a615c6c8195b","system_id":"levelo_inurba_marseille","lat":43.33492,"lon":5.37468,"is_reserved":false,"is_disabled":false,"rental_uris":{"android":"levelo://app?vid=91fc1766-9987-4a12-9652-a615c6c8195b","ios":"levelo://app?vid=91fc1766-9987-4a12-9652-a615c6c8195b"},"vehicle_type_id":"4","last_reported":1690826910,"current_range_meters":30400,"station_id":"","pricing_plan_id":"free"},{"bike_id":"1c699e8c-ec81-45ac-9553-1dbf6a58fbaf","system_id":"levelo_inurba_marseille","lat":43.29052,"lon":5.35906,"is_reserved":false,"is_disabled":false,"rental_uris":{"android":"levelo://app?vid=1c699e8c-ec81-45ac-9553-1dbf6a58fbaf","ios":"levelo://app?vid=1c699e8c-ec81-45ac-9553-1dbf6a58fbaf"},"vehicle_type_id":"4","last_reported":1690826910,"current_range_meters":5600,"station_id":"","pricing_plan_id":"free"},{"bike_id":"80805c99-a917-4a9b-bc97-95082e5f4042","system_id":"levelo_inurba_marseille","lat":43.290624,"lon":5.359245,"is_reserved":false,"is_disabled":false,"rental_uris":{"android":"levelo://app?vid=80805c99-a917-4a9b-bc97-95082e5f4042","ios":"levelo://app?vid=80805c99-a917-4a9b-bc97-95082e5f4042"},"vehicle_type_id":"4","last_reported":1690826910,"current_range_meters":10400,"station_id":"ce4bha92rcd13ifvqeg0","pricing_plan_id":"free"},{"bike_id":"0747d783-0bff-4085-a7b6-ff07aa30957d","system_id":"levelo_inurba_marseille","lat":43.290631,"lon":5.359244,"is_reserved":false,"is_disabled":false,"rental_uris":{"android":"levelo://app?vid=0747d783-0bff-4085-a7b6-ff07aa30957d","ios":"levelo://app?vid=0747d783-0bff-4085-a7b6-ff07aa30957d"},"vehicle_type_id":"4","last_reported":1690826910,"current_range_meters":25600,"station_id":"ce4bha92rcd13ifvqeg0","pricing_plan_id":"free"},{"bike_id":"875ab7a7-0add-4cfb-be1c-95c574de410c","system_id":"levelo_inurba_marseille","lat":43.290631,"lon":5.359244,"is_reserved":false,"is_disabled":false,"rental_uris":{"android":"levelo://app?vid=875ab7a7-0add-4cfb-be1c-95c574de410c","ios":"levelo://app?vid=875ab7a7-0add-4cfb-be1c-95c574de410c"},"vehicle_type_id":"4","last_reported":1690826910,"current_range_meters":6400,"station_id":"ce4bha92rcd13ifvqeg0","pricing_plan_id":"free"},{"bike_id":"af7b0d22-d9ca-4e60-9c84-471b2caef65c","system_id":"levelo_inurba_marseille","lat":43.290624,"lon":5.359245,"is_reserved":false,"is_disabled":false,"rental_uris":{"android":"levelo://app?vid=af7b0d22-d9ca-4e60-9c84-471b2caef65c","ios":"levelo://app?vid=af7b0d22-d9ca-4e60-9c84-471b2caef65c"},"vehicle_type_id":"4","last_reported":1690826910,"current_range_meters":30000,"station_id":"ce4bha92rcd13ifvqeg0","pricing_plan_id":"free"},{"bike_id":"a650395b-81e9-4e58-9e9e-edb0e4e4bd7b","system_id":"levelo_inurba_marseille","lat":43.290631,"lon":5.359244,"is_reserved":false,"is_disabled":false,"rental_uris":{"android":"levelo://app?vid=a650395b-81e9-4e58-9e9e-edb0e4e4bd7b","ios":"levelo://app?vid=a650395b-81e9-4e58-9e9e-edb0e4e4bd7b"},"vehicle_type_id":"4","last_reported":1690826910,"current_range_meters":30000,"station_id":"ce4bha92rcd13ifvqeg0","pricing_plan_id":"free"},{"bike_id":"91e75cd5-f69a-4b66-bfac-216f0a7d0349","system_id":"levelo_inurba_marseille","lat":43.294162,"lon":5.386292,"is_reserved":false,"is_disabled":false,"rental_uris":{"android":"levelo://app?vid=91e75cd5-f69a-4b66-bfac-216f0a7d0349","ios":"levelo://app?vid=91e75cd5-f69a-4b66-bfac-216f0a7d0349"},"vehicle_type_id":"4","last_reported":1690826910,"current_range_meters":7200,"station_id":"ce4bh2h2rcd13ifvqdh0","pricing_plan_id":"free"},{"bike_id":"cc2ee932-bffd-486b-968e-585ac389112c","system_id":"levelo_inurba_marseille","lat":43.289184,"lon":5.366408,"is_reserved":false,"is_disabled":false,"rental_uris":{"android":"levelo://app?vid=cc2ee932-bffd-486b-968e-585ac389112c","ios":"levelo://app?vid=cc2ee932-bffd-486b-968e-585ac389112c"},"vehicle_type_id":"4","last_reported":1690826910,"current_range_meters":29200,"station_id":"ce4bhap2rcd13ifvqek0","pricing_plan_id":"free"},{"bike_id":"698173fa-c0d4-4ebb-b136-34cfcc511475","system_id":"levelo_inurba_marseille","lat":43.289468,"lon":5.363719,"is_reserved":false,"is_disabled":false,"rental_uris":{"android":"levelo://app?vid=698173fa-c0d4-4ebb-b136-34cfcc511475","ios":"levelo://app?vid=698173fa-c0d4-4ebb-b136-34cfcc511475"},"vehicle_type_id":"4","last_reported":1690826910,"current_range_meters":1600,"station_id":"ce4bhc92rcd13ifvqetg","pricing_plan_id":"free"},{"bike_id":"2040d58b-c5c6-4292-a35d-1be34c7c531c","system_id":"levelo_inurba_marseille","lat":43.289468,"lon":5.363719,"is_reserved":false,"is_disabled":false,"rental_uris":{"android":"levelo://app?vid=2040d58b-c5c6-4292-a35d-1be34c7c531c","ios":"levelo://app?vid=2040d58b-c5c6-4292-a35d-1be34c7c531c"},"vehicle_type_id":"4","last_reported":1690826910,"current_range_meters":12400,"station_id":"ce4bhc92rcd13ifvqetg","pricing_plan_id":"free"},{"bike_id":"53d27011-84dd-4403-aa9d-9b93b62f507e","system_id":"levelo_inurba_marseille","lat":43.289184,"lon":5.366408,"is_reserved":false,"is_disabled":false,"rental_uris":{"android":"levelo://app?vid=53d27011-84dd-4403-aa9d-9b93b62f507e","ios":"levelo://app?vid=53d27011-84dd-4403-aa9d-9b93b62f507e"},"vehicle_type_id":"4","last_reported":1690826910,"current_range_meters":4000,"station_id":"ce4bhap2rcd13ifvqek0","pricing_plan_id":"free"},{"bike_id":"1a022c78-2d21-421e-9eba-f2ae142e43af","system_id":"levelo_inurba_marseille","lat":43.304274,"lon":5.397513,"is_reserved":false,"is_disabled":false,"rental_uris":{"android":"levelo://app?vid=1a022c78-2d21-421e-9eba-f2ae142e43af","ios":"levelo://app?vid=1a022c78-2d21-421e-9eba-f2ae142e43af"},"vehicle_type_id":"4","last_reported":1690826910,"current_range_meters":27600,"station_id":"ce4bh092rcd13ifvqd20","pricing_plan_id":"free"},{"bike_id":"fefb2355-f4f1-46ff-bc68-ec0683f922dc","system_id":"levelo_inurba_marseille","lat":43.292644,"lon":5.384257,"is_reserved":false,"is_disabled":false,"rental_uris":{"android":"levelo://app?vid=fefb2355-f4f1-46ff-bc68-ec0683f922dc","ios":"levelo://app?vid=fefb2355-f4f1-46ff-bc68-ec0683f922dc"},"vehicle_type_id":"4","last_reported":1690826910,"current_range_meters":23600,"station_id":"ce4bh692rcd13ifvqea0","pricing_plan_id":"free"},{"bike_id":"8ed0f67c-530e-4f07-ae6f-8b8e85a70e44","system_id":"levelo_inurba_marseille","lat":43.290103,"lon":5.356114,"is_reserved":false,"is_disabled":false,"rental_uris":{"android":"levelo://app?vid=8ed0f67c-530e-4f07-ae6f-8b8e85a70e44","ios":"levelo://app?vid=8ed0f67c-530e-4f07-ae6f-8b8e85a70e44"},"vehicle_type_id":"4","last_reported":1690826910,"current_range_meters":24400,"station_id":"ce4bhb92rcd13ifvqen0","pricing_plan_id":"free"},{"bike_id":"90a1a68f-5e38-41da-b78c-77ff4020fce6","system_id":"levelo_inurba_marseille","lat":43.33045,"lon":5.38911,"is_reserved":false,"is_disabled":false,"rental_uris":{"android":"levelo://app?vid=90a1a68f-5e38-41da-b78c-77ff4020fce6","ios":"levelo://app?vid=90a1a68f-5e38-41da-b78c-77ff4020fce6"},"vehicle_type_id":"4","last_reported":1690826910,"current_range_meters":31200,"station_id":"ce4bhr92rcd13ifvqhrg","pricing_plan_id":"free"},{"bike_id":"4778b3e9-5ca3-4fb4-a68e-a31c751a1c2f","system_id":"levelo_inurba_marseille","lat":43.290103,"lon":5.356114,"is_reserved":false,"is_disabled":false,"rental_uris":{"android":"levelo://app?vid=4778b3e9-5ca3-4fb4-a68e-a31c751a1c2f","ios":"levelo://app?vid=4778b3e9-5ca3-4fb4-a68e-a31c751a1c2f"},"vehicle_type_id":"4","last_reported":1690826910,"current_range_meters":0,"station_id":"ce4bhb92rcd13ifvqen0","pricing_plan_id":"free"},{"bike_id":"33679209-2aa5-405b-ad0a-c5fe9ac9981c","system_id":"levelo_inurba_marseille","lat":43.290103,"lon":5.356114,"is_reserved":false,"is_disabled":false,"rental_uris":{"android":"levelo://app?vid=33679209-2aa5-405b-ad0a-c5fe9ac9981c","ios":"levelo://app?vid=33679209-2aa5-405b-ad0a-c5fe9ac9981c"},"vehicle_type_id":"4","last_reported":1690826910,"current_range_meters":12800,"station_id":"ce4bhb92rcd13ifvqen0","pricing_plan_id":"free"},{"bike_id":"9bec12f1-125b-4485-9c50-551d64be56ca","system_id":"levelo_inurba_marseille","lat":43.290103,"lon":5.356114,"is_reserved":false,"is_disabled":false,"rental_uris":{"android":"levelo://app?vid=9bec12f1-125b-4485-9c50-551d64be56ca","ios":"levelo://app?vid=9bec12f1-125b-4485-9c50-551d64be56ca"},"vehicle_type_id":"4","last_reported":1690826910,"current_range_meters":32000,"station_id":"ce4bhb92rcd13ifvqen0","pricing_plan_id":"free"},{"bike_id":"bb8c6e65-4dcc-40e3-a309-7649f03fab08","system_id":"levelo_inurba_marseille","lat":43.290104,"lon":5.356111,"is_reserved":false,"is_disabled":false,"rental_uris":{"android":"levelo://app?vid=bb8c6e65-4dcc-40e3-a309-7649f03fab08","ios":"levelo://app?vid=bb8c6e65-4dcc-40e3-a309-7649f03fab08"},"vehicle_type_id":"4","last_reported":1690826910,"current_range_meters":20000,"station_id":"ce4bhb92rcd13ifvqen0","pricing_plan_id":"free"},{"bike_id":"134ef223-0af9-48f2-bbd1-4d84dd8cb35c","system_id":"levelo_inurba_marseille","lat":43.290103,"lon":5.356114,"is_reserved":false,"is_disabled":false,"rental_uris":{"android":"levelo://app?vid=134ef223-0af9-48f2-bbd1-4d84dd8cb35c","ios":"levelo://app?vid=134ef223-0af9-48f2-bbd1-4d84dd8cb35c"},"vehicle_type_id":"4","last_reported":1690826910,"current_range_meters":32000,"station_id":"ce4bhb92rcd13ifvqen0","pricing_plan_id":"free"},{"bike_id":"703413dd-9931-4d50-bb30-d89b3c86da62","system_id":"levelo_inurba_marseille","lat":43.290104,"lon":5.356111,"is_reserved":false,"is_disabled":false,"rental_uris":{"android":"levelo://app?vid=703413dd-9931-4d50-bb30-d89b3c86da62","ios":"levelo://app?vid=703413dd-9931-4d50-bb30-d89b3c86da62"},"vehicle_type_id":"4","last_reported":1690826910,"current_range_meters":31600,"station_id":"ce4bhb92rcd13ifvqen0","pricing_plan_id":"free"},{"bike_id":"05bf2cc0-c80b-4d3b-9303-5cea93148e89","system_id":"levelo_inurba_marseille","lat":43.290995,"lon":5.381361,"is_reserved":false,"is_disabled":false,"rental_uris":{"android":"levelo://app?vid=05bf2cc0-c80b-4d3b-9303-5cea93148e89","ios":"levelo://app?vid=05bf2cc0-c80b-4d3b-9303-5cea93148e89"},"vehicle_type_id":"4","last_reported":1690826910,"current_range_meters":31200,"station_id":"ce4bh512rcd13ifvqe2g","pricing_plan_id":"free"},{"bike_id":"652579ef-afc0-41a5-8712-73ab8ab899d3","system_id":"levelo_inurba_marseille","lat":43.29792,"lon":5.39341,"is_reserved":false,"is_disabled":false,"rental_uris":{"android":"levelo://app?vid=652579ef-afc0-41a5-8712-73ab8ab899d3","ios":"levelo://app?vid=652579ef-afc0-41a5-8712-73ab8ab899d3"},"vehicle_type_id":"4","last_reported":1690826910,"current_range_meters":22400,"station_id":"chh1huq6cuj3fo74tm60","pricing_plan_id":"free"},{"bike_id":"042498a3-6d60-48fc-b22b-e87661d9f737","system_id":"levelo_inurba_marseille","lat":43.29793,"lon":5.39348,"is_reserved":false,"is_disabled":false,"rental_uris":{"android":"levelo://app?vid=042498a3-6d60-48fc-b22b-e87661d9f737","ios":"levelo://app?vid=042498a3-6d60-48fc-b22b-e87661d9f737"},"vehicle_type_id":"4","last_reported":1690826910,"current_range_meters":28000,"station_id":"chh1huq6cuj3fo74tm60","pricing_plan_id":"free"},{"bike_id":"d6eda751-25f8-4c0b-a26b-40146ed2a814","system_id":"levelo_inurba_marseille","lat":43.297815,"lon":5.393548,"is_reserved":false,"is_disabled":false,"rental_uris":{"android":"levelo://app?vid=d6eda751-25f8-4c0b-a26b-40146ed2a814","ios":"levelo://app?vid=d6eda751-25f8-4c0b-a26b-40146ed2a814"},"vehicle_type_id":"4","last_reported":1690826910,"current_range_meters":31200,"station_id":"chh1huq6cuj3fo74tm60","pricing_plan_id":"free"},{"bike_id":"7e1ba35a-2ec1-4a3d-9d2c-a769890dd1ca","system_id":"levelo_inurba_marseille","lat":43.29518,"lon":5.39021,"is_reserved":false,"is_disabled":false,"rental_uris":{"android":"levelo://app?vid=7e1ba35a-2ec1-4a3d-9d2c-a769890dd1ca","ios":"levelo://app?vid=7e1ba35a-2ec1-4a3d-9d2c-a769890dd1ca"},"vehicle_type_id":"4","last_reported":1690826910,"current_range_meters":20800,"station_id":"ce4bh3p2rcd13ifvqdp0","pricing_plan_id":"free"},{"bike_id":"f97046b4-7bbf-4e71-9fd3-bcb68749ad60","system_id":"levelo_inurba_marseille","lat":43.289741,"lon":5.378306,"is_reserved":false,"is_disabled":false,"rental_uris":{"android":"levelo://app?vid=f97046b4-7bbf-4e71-9fd3-bcb68749ad60","ios":"levelo://app?vid=f97046b4-7bbf-4e71-9fd3-bcb68749ad60"},"vehicle_type_id":"4","last_reported":1690826910,"current_range_meters":13200,"station_id":"ce4bh9p2rcd13ifvqed0","pricing_plan_id":"free"},{"bike_id":"f1d59e8f-7d4a-4d30-9391-7dcae64e2d90","system_id":"levelo_inurba_marseille","lat":43.28864,"lon":5.35853,"is_reserved":false,"is_disabled":false,"rental_uris":{"android":"levelo://app?vid=f1d59e8f-7d4a-4d30-9391-7dcae64e2d90","ios":"levelo://app?vid=f1d59e8f-7d4a-4d30-9391-7dcae64e2d90"},"vehicle_type_id":"4","last_reported":1690826910,"current_range_meters":20000,"station_id":"ce4bhb12rcd13ifvqem0","pricing_plan_id":"free"},{"bike_id":"ead34a83-bc08-4837-8751-fdd443420f7f","system_id":"levelo_inurba_marseille","lat":43.29022,"lon":5.38146,"is_reserved":false,"is_disabled":false,"rental_uris":{"android":"levelo://app?vid=ead34a83-bc08-4837-8751-fdd443420f7f","ios":"levelo://app?vid=ead34a83-bc08-4837-8751-fdd443420f7f"},"vehicle_type_id":"4","last_reported":1690826910,"current_range_meters":0,"station_id":"ce4bh4p2rcd13ifvqe1g","pricing_plan_id":"free"},{"bike_id":"054df242-919c-4658-bdb9-1bda9e9a58bf","system_id":"levelo_inurba_marseille","lat":43.28856,"lon":5.358371,"is_reserved":false,"is_disabled":false,"rental_uris":{"android":"levelo://app?vid=054df242-919c-4658-bdb9-1bda9e9a58bf","ios":"levelo://app?vid=054df242-919c-4658-bdb9-1bda9e9a58bf"},"vehicle_type_id":"4","last_reported":1690826910,"current_range_meters":15200,"station_id":"ce4bhb12rcd13ifvqem0","pricing_plan_id":"free"},{"bike_id":"fbdb23a6-3345-4beb-a8bc-6ccfe5955c25","system_id":"levelo_inurba_marseille","lat":43.31269,"lon":5.40169,"is_reserved":false,"is_disabled":false,"rental_uris":{"android":"levelo://app?vid=fbdb23a6-3345-4beb-a8bc-6ccfe5955c25","ios":"levelo://app?vid=fbdb23a6-3345-4beb-a8bc-6ccfe5955c25"},"vehicle_type_id":"4","last_reported":1690826910,"current_range_meters":15200,"station_id":"ce4bh092rcd13ifvqd30","pricing_plan_id":"free"},{"bike_id":"0e6d3371-e79d-42d7-ae3a-36d723b0f666","system_id":"levelo_inurba_marseille","lat":43.309371,"lon":5.401449,"is_reserved":false,"is_disabled":false,"rental_uris":{"android":"levelo://app?vid=0e6d3371-e79d-42d7-ae3a-36d723b0f666","ios":"levelo://app?vid=0e6d3371-e79d-42d7-ae3a-36d723b0f666"},"vehicle_type_id":"4","last_reported":1690826910,"current_range_meters":10400,"station_id":"ce4bgvp2rcd13ifvqct0","pricing_plan_id":"free"},{"bike_id":"713638c2-383f-408b-a100-f46b5264c018","system_id":"levelo_inurba_marseille","lat":43.309371,"lon":5.401449,"is_reserved":false,"is_disabled":false,"rental_uris":{"android":"levelo://app?vid=713638c2-383f-408b-a100-f46b5264c018","ios":"levelo://app?vid=713638c2-383f-408b-a100-f46b5264c018"},"vehicle_type_id":"4","last_reported":1690826910,"current_range_meters":24000,"station_id":"ce4bgvp2rcd13ifvqct0","pricing_plan_id":"free"},{"bike_id":"fb895056-5177-439e-b6a1-eccc2cdf2b67","system_id":"levelo_inurba_marseille","lat":43.309371,"lon":5.401449,"is_reserved":false,"is_disabled":false,"rental_uris":{"android":"levelo://app?vid=fb895056-5177-439e-b6a1-eccc2cdf2b67","ios":"levelo://app?vid=fb895056-5177-439e-b6a1-eccc2cdf2b67"},"vehicle_type_id":"4","last_reported":1690826910,"current_range_meters":0,"station_id":"ce4bgvp2rcd13ifvqct0","pricing_plan_id":"free"},{"bike_id":"e4570427-9415-4d67-bb4e-bf45760ed4f9","system_id":"levelo_inurba_marseille","lat":43.30642,"lon":5.401031,"is_reserved":false,"is_disabled":false,"rental_uris":{"android":"levelo://app?vid=e4570427-9415-4d67-bb4e-bf45760ed4f9","ios":"levelo://app?vid=e4570427-9415-4d67-bb4e-bf45760ed4f9"},"vehicle_type_id":"4","last_reported":1690826910,"current_range_meters":31200,"station_id":"ce4bh112rcd13ifvqda0","pricing_plan_id":"free"},{"bike_id":"98f837da-9ab5-43c9-95a6-72732be6afde","system_id":"levelo_inurba_marseille","lat":43.309371,"lon":5.401449,"is_reserved":false,"is_disabled":false,"rental_uris":{"android":"levelo://app?vid=98f837da-9ab5-43c9-95a6-72732be6afde","ios":"levelo://app?vid=98f837da-9ab5-43c9-95a6-72732be6afde"},"vehicle_type_id":"4","last_reported":1690826910,"current_range_meters":10400,"station_id":"ce4bgvp2rcd13ifvqct0","pricing_plan_id":"free"},{"bike_id":"633ee452-b8f0-409b-b45f-a6374b9582ca","system_id":"levelo_inurba_marseille","lat":43.30642,"lon":5.40069,"is_reserved":false,"is_disabled":false,"rental_uris":{"android":"levelo://app?vid=633ee452-b8f0-409b-b45f-a6374b9582ca","ios":"levelo://app?vid=633ee452-b8f0-409b-b45f-a6374b9582ca"},"vehicle_type_id":"4","last_reported":1690826910,"current_range_meters":31200,"station_id":"ce4bh112rcd13ifvqda0","pricing_plan_id":"free"},{"bike_id":"cb8e442b-3f75-4ed4-aa94-96e00fb80303","system_id":"levelo_inurba_marseille","lat":43.30924,"lon":5.40147,"is_reserved":false,"is_disabled":false,"rental_uris":{"android":"levelo://app?vid=cb8e442b-3f75-4ed4-aa94-96e00fb80303","ios":"levelo://app?vid=cb8e442b-3f75-4ed4-aa94-96e00fb80303"},"vehicle_type_id":"4","last_reported":1690826910,"current_range_meters":13600,"station_id":"ce4bgvp2rcd13ifvqct0","pricing_plan_id":"free"},{"bike_id":"93d33694-3176-4a66-9769-e905ec5f9e79","system_id":"levelo_inurba_marseille","lat":43.306412,"lon":5.401035,"is_reserved":false,"is_disabled":false,"rental_uris":{"android":"levelo://app?vid=93d33694-3176-4a66-9769-e905ec5f9e79","ios":"levelo://app?vid=93d33694-3176-4a66-9769-e905ec5f9e79"},"vehicle_type_id":"4","last_reported":1690826910,"current_range_meters":29200,"station_id":"ce4bh112rcd13ifvqda0","pricing_plan_id":"free"},{"bike_id":"c7655a94-80ad-4e4d-820d-d3922aa9c5cf","system_id":"levelo_inurba_marseille","lat":43.301117,"lon":5.398795,"is_reserved":false,"is_disabled":false,"rental_uris":{"android":"levelo://app?vid=c7655a94-80ad-4e4d-820d-d3922aa9c5cf","ios":"levelo://app?vid=c7655a94-80ad-4e4d-820d-d3922aa9c5cf"},"vehicle_type_id":"4","last_reported":1690826910,"current_range_meters":30000,"station_id":"ce4bh0h2rcd13ifvqd40","pricing_plan_id":"free"},{"bike_id":"e61645df-88a7-45ac-9b18-52b58ec1bd0b","system_id":"levelo_inurba_marseille","lat":43.30135,"lon":5.39877,"is_reserved":false,"is_disabled":false,"rental_uris":{"android":"levelo://app?vid=e61645df-88a7-45ac-9b18-52b58ec1bd0b","ios":"levelo://app?vid=e61645df-88a7-45ac-9b18-52b58ec1bd0b"},"vehicle_type_id":"4","last_reported":1690826910,"current_range_meters":26400,"station_id":"ce4bh0h2rcd13ifvqd40","pricing_plan_id":"free"},{"bike_id":"4eab26b8-c983-4b24-87f7-38d244c7cda1","system_id":"levelo_inurba_marseille","lat":43.286593,"lon":5.363346,"is_reserved":false,"is_disabled":false,"rental_uris":{"android":"levelo://app?vid=4eab26b8-c983-4b24-87f7-38d244c7cda1","ios":"levelo://app?vid=4eab26b8-c983-4b24-87f7-38d244c7cda1"},"vehicle_type_id":"4","last_reported":1690826910,"current_range_meters":12000,"station_id":"ce4bhah2rcd13ifvqej0","pricing_plan_id":"free"},{"bike_id":"47be3d7a-068b-4edf-b06c-bac912645b92","system_id":"levelo_inurba_marseille","lat":43.298681,"lon":5.397225,"is_reserved":false,"is_disabled":false,"rental_uris":{"android":"levelo://app?vid=47be3d7a-068b-4edf-b06c-bac912645b92","ios":"levelo://app?vid=47be3d7a-068b-4edf-b06c-bac912645b92"},"vehicle_type_id":"4","last_reported":1690826910,"current_range_meters":31200,"station_id":"ce4bh0h2rcd13ifvqd50","pricing_plan_id":"free"},{"bike_id":"e4b467fc-5700-41d4-a165-4235abda9bd2","system_id":"levelo_inurba_marseille","lat":43.298681,"lon":5.397225,"is_reserved":false,"is_disabled":false,"rental_uris":{"android":"levelo://app?vid=e4b467fc-5700-41d4-a165-4235abda9bd2","ios":"levelo://app?vid=e4b467fc-5700-41d4-a165-4235abda9bd2"},"vehicle_type_id":"4","last_reported":1690826910,"current_range_meters":30000,"station_id":"ce4bh0h2rcd13ifvqd50","pricing_plan_id":"free"},{"bike_id":"75199276-b705-4ad7-b6a9-49aeaa84628a","system_id":"levelo_inurba_marseille","lat":43.286593,"lon":5.363346,"is_reserved":false,"is_disabled":false,"rental_uris":{"android":"levelo://app?vid=75199276-b705-4ad7-b6a9-49aeaa84628a","ios":"levelo://app?vid=75199276-b705-4ad7-b6a9-49aeaa84628a"},"vehicle_type_id":"4","last_reported":1690826910,"current_range_meters":31200,"station_id":"ce4bhah2rcd13ifvqej0","pricing_plan_id":"free"},{"bike_id":"7457a453-3342-4cf1-a533-4eebf1116012","system_id":"levelo_inurba_marseille","lat":43.290336,"lon":5.386425,"is_reserved":false,"is_disabled":false,"rental_uris":{"android":"levelo://app?vid=7457a453-3342-4cf1-a533-4eebf1116012","ios":"levelo://app?vid=7457a453-3342-4cf1-a533-4eebf1116012"},"vehicle_type_id":"4","last_reported":1690826910,"current_range_meters":3600,"station_id":"ce4bh4p2rcd13ifvqe0g","pricing_plan_id":"free"},{"bike_id":"ca519260-c07d-4271-b338-62cd0a6a535a","system_id":"levelo_inurba_marseille","lat":43.290336,"lon":5.386425,"is_reserved":false,"is_disabled":false,"rental_uris":{"android":"levelo://app?vid=ca519260-c07d-4271-b338-62cd0a6a535a","ios":"levelo://app?vid=ca519260-c07d-4271-b338-62cd0a6a535a"},"vehicle_type_id":"4","last_reported":1690826910,"current_range_meters":0,"station_id":"ce4bh4p2rcd13ifvqe0g","pricing_plan_id":"free"},{"bike_id":"178f5927-da34-4b03-b382-f7f5cfc5e34a","system_id":"levelo_inurba_marseille","lat":43.290336,"lon":5.386425,"is_reserved":false,"is_disabled":false,"rental_uris":{"android":"levelo://app?vid=178f5927-da34-4b03-b382-f7f5cfc5e34a","ios":"levelo://app?vid=178f5927-da34-4b03-b382-f7f5cfc5e34a"},"vehicle_type_id":"4","last_reported":1690826910,"current_range_meters":31600,"station_id":"ce4bh4p2rcd13ifvqe0g","pricing_plan_id":"free"},{"bike_id":"af43c81e-e211-4817-a1cb-c28136b980ee","system_id":"levelo_inurba_marseille","lat":43.302759,"lon":5.400793,"is_reserved":false,"is_disabled":false,"rental_uris":{"android":"levelo://app?vid=af43c81e-e211-4817-a1cb-c28136b980ee","ios":"levelo://app?vid=af43c81e-e211-4817-a1cb-c28136b980ee"},"vehicle_type_id":"4","last_reported":1690826910,"current_range_meters":27200,"station_id":"ce4bgvh2rcd13ifvqcs0","pricing_plan_id":"free"},{"bike_id":"4da92dfe-8151-4213-8821-fc7c12a0f465","system_id":"levelo_inurba_marseille","lat":43.302759,"lon":5.400793,"is_reserved":false,"is_disabled":false,"rental_uris":{"android":"levelo://app?vid=4da92dfe-8151-4213-8821-fc7c12a0f465","ios":"levelo://app?vid=4da92dfe-8151-4213-8821-fc7c12a0f465"},"vehicle_type_id":"4","last_reported":1690826910,"current_range_meters":18400,"station_id":"ce4bgvh2rcd13ifvqcs0","pricing_plan_id":"free"},{"bike_id":"602b68ae-f288-411c-a127-a719bae94c7c","system_id":"levelo_inurba_marseille","lat":43.302759,"lon":5.400793,"is_reserved":false,"is_disabled":false,"rental_uris":{"android":"levelo://app?vid=602b68ae-f288-411c-a127-a719bae94c7c","ios":"levelo://app?vid=602b68ae-f288-411c-a127-a719bae94c7c"},"vehicle_type_id":"4","last_reported":1690826910,"current_range_meters":10800,"station_id":"ce4bgvh2rcd13ifvqcs0","pricing_plan_id":"free"},{"bike_id":"7b2283e8-03a6-4e82-a65d-e76f8b41c467","system_id":"levelo_inurba_marseille","lat":43.302759,"lon":5.400793,"is_reserved":false,"is_disabled":false,"rental_uris":{"android":"levelo://app?vid=7b2283e8-03a6-4e82-a65d-e76f8b41c467","ios":"levelo://app?vid=7b2283e8-03a6-4e82-a65d-e76f8b41c467"},"vehicle_type_id":"4","last_reported":1690826910,"current_range_meters":28800,"station_id":"ce4bgvh2rcd13ifvqcs0","pricing_plan_id":"free"},{"bike_id":"30faaba4-39ad-40bb-97b2-0bc12693b013","system_id":"levelo_inurba_marseille","lat":43.28614,"lon":5.37057,"is_reserved":false,"is_disabled":false,"rental_uris":{"android":"levelo://app?vid=30faaba4-39ad-40bb-97b2-0bc12693b013","ios":"levelo://app?vid=30faaba4-39ad-40bb-97b2-0bc12693b013"},"vehicle_type_id":"4","last_reported":1690826910,"current_range_meters":22400,"station_id":"ce4bht12rcd13ifvqi60","pricing_plan_id":"free"},{"bike_id":"dc3a4fca-0b22-42d8-8a29-5f9ab22c7a08","system_id":"levelo_inurba_marseille","lat":43.286039,"lon":5.370679,"is_reserved":false,"is_disabled":false,"rental_uris":{"android":"levelo://app?vid=dc3a4fca-0b22-42d8-8a29-5f9ab22c7a08","ios":"levelo://app?vid=dc3a4fca-0b22-42d8-8a29-5f9ab22c7a08"},"vehicle_type_id":"4","last_reported":1690826910,"current_range_meters":30400,"station_id":"ce4bht12rcd13ifvqi60","pricing_plan_id":"free"},{"bike_id":"63f9ecc7-33e8-49f0-b369-525276d814eb","system_id":"levelo_inurba_marseille","lat":43.286039,"lon":5.370679,"is_reserved":false,"is_disabled":false,"rental_uris":{"android":"levelo://app?vid=63f9ecc7-33e8-49f0-b369-525276d814eb","ios":"levelo://app?vid=63f9ecc7-33e8-49f0-b369-525276d814eb"},"vehicle_type_id":"4","last_reported":1690826910,"current_range_meters":31200,"station_id":"ce4bht12rcd13ifvqi60","pricing_plan_id":"free"},{"bike_id":"dffbbb1e-4efe-4f89-a62c-66736c5582e0","system_id":"levelo_inurba_marseille","lat":43.286039,"lon":5.370681,"is_reserved":false,"is_disabled":false,"rental_uris":{"android":"levelo://app?vid=dffbbb1e-4efe-4f89-a62c-66736c5582e0","ios":"levelo://app?vid=dffbbb1e-4efe-4f89-a62c-66736c5582e0"},"vehicle_type_id":"4","last_reported":1690826910,"current_range_meters":30800,"station_id":"ce4bht12rcd13ifvqi60","pricing_plan_id":"free"},{"bike_id":"2935bf46-b581-4f15-b008-7019118ec59b","system_id":"levelo_inurba_marseille","lat":43.286039,"lon":5.370681,"is_reserved":false,"is_disabled":false,"rental_uris":{"android":"levelo://app?vid=2935bf46-b581-4f15-b008-7019118ec59b","ios":"levelo://app?vid=2935bf46-b581-4f15-b008-7019118ec59b"},"vehicle_type_id":"4","last_reported":1690826910,"current_range_meters":22800,"station_id":"ce4bht12rcd13ifvqi60","pricing_plan_id":"free"},{"bike_id":"c7c667d9-d78d-44bb-8b04-8177cdfe2794","system_id":"levelo_inurba_marseille","lat":43.287185,"lon":5.379373,"is_reserved":false,"is_disabled":false,"rental_uris":{"android":"levelo://app?vid=c7c667d9-d78d-44bb-8b04-8177cdfe2794","ios":"levelo://app?vid=c7c667d9-d78d-44bb-8b04-8177cdfe2794"},"vehicle_type_id":"4","last_reported":1690826910,"current_range_meters":0,"station_id":"ce4bh9p2rcd13ifvqec0","pricing_plan_id":"free"},{"bike_id":"7a462474-3cbb-45ab-8148-f5e2f1a676af","system_id":"levelo_inurba_marseille","lat":43.3165,"lon":5.40435,"is_reserved":false,"is_disabled":false,"rental_uris":{"android":"levelo://app?vid=7a462474-3cbb-45ab-8148-f5e2f1a676af","ios":"levelo://app?vid=7a462474-3cbb-45ab-8148-f5e2f1a676af"},"vehicle_type_id":"4","last_reported":1690826910,"current_range_meters":16800,"station_id":"ce4bh012rcd13ifvqd00","pricing_plan_id":"free"},{"bike_id":"f875db09-037d-4835-8d5b-e3d006b51e8f","system_id":"levelo_inurba_marseille","lat":43.31655,"lon":5.40436,"is_reserved":false,"is_disabled":false,"rental_uris":{"android":"levelo://app?vid=f875db09-037d-4835-8d5b-e3d006b51e8f","ios":"levelo://app?vid=f875db09-037d-4835-8d5b-e3d006b51e8f"},"vehicle_type_id":"4","last_reported":1690826910,"current_range_meters":0,"station_id":"ce4bh012rcd13ifvqd00","pricing_plan_id":"free"},{"bike_id":"631459f1-2952-4301-bd95-06c1d29762c5","system_id":"levelo_inurba_marseille","lat":43.31649,"lon":5.40438,"is_reserved":false,"is_disabled":false,"rental_uris":{"android":"levelo://app?vid=631459f1-2952-4301-bd95-06c1d29762c5","ios":"levelo://app?vid=631459f1-2952-4301-bd95-06c1d29762c5"},"vehicle_type_id":"4","last_reported":1690826910,"current_range_meters":28800,"station_id":"ce4bh012rcd13ifvqd00","pricing_plan_id":"free"},{"bike_id":"ebc58f38-220c-4c4a-b3f0-ce2d8d310f43","system_id":"levelo_inurba_marseille","lat":43.291994,"lon":5.392907,"is_reserved":false,"is_disabled":false,"rental_uris":{"android":"levelo://app?vid=ebc58f38-220c-4c4a-b3f0-ce2d8d310f43","ios":"levelo://app?vid=ebc58f38-220c-4c4a-b3f0-ce2d8d310f43"},"vehicle_type_id":"4","last_reported":1690826910,"current_range_meters":16800,"station_id":"ce4bh192rcd13ifvqdd0","pricing_plan_id":"free"},{"bike_id":"d1a6d331-a805-40e5-8918-1d5307435d1b","system_id":"levelo_inurba_marseille","lat":43.284678,"lon":5.358886,"is_reserved":false,"is_disabled":false,"rental_uris":{"android":"levelo://app?vid=d1a6d331-a805-40e5-8918-1d5307435d1b","ios":"levelo://app?vid=d1a6d331-a805-40e5-8918-1d5307435d1b"},"vehicle_type_id":"4","last_reported":1690826910,"current_range_meters":21200,"station_id":"ce4bhah2rcd13ifvqei0","pricing_plan_id":"free"},{"bike_id":"98ea623d-77b9-4690-927a-a6f90146ea10","system_id":"levelo_inurba_marseille","lat":43.284538,"lon":5.358657,"is_reserved":false,"is_disabled":false,"rental_uris":{"android":"levelo://app?vid=98ea623d-77b9-4690-927a-a6f90146ea10","ios":"levelo://app?vid=98ea623d-77b9-4690-927a-a6f90146ea10"},"vehicle_type_id":"4","last_reported":1690826910,"current_range_meters":28000,"station_id":"ce4bhah2rcd13ifvqei0","pricing_plan_id":"free"},{"bike_id":"c5bdb4bc-71c1-4c34-9184-9a3c2d7104c1","system_id":"levelo_inurba_marseille","lat":43.284538,"lon":5.358657,"is_reserved":false,"is_disabled":false,"rental_uris":{"android":"levelo://app?vid=c5bdb4bc-71c1-4c34-9184-9a3c2d7104c1","ios":"levelo://app?vid=c5bdb4bc-71c1-4c34-9184-9a3c2d7104c1"},"vehicle_type_id":"4","last_reported":1690826910,"current_range_meters":28800,"station_id":"ce4bhah2rcd13ifvqei0","pricing_plan_id":"free"},{"bike_id":"2e7bb935-7b0f-4a47-9ac2-3972d6cc245a","system_id":"levelo_inurba_marseille","lat":43.294314,"lon":5.397498,"is_reserved":false,"is_disabled":false,"rental_uris":{"android":"levelo://app?vid=2e7bb935-7b0f-4a47-9ac2-3972d6cc245a","ios":"levelo://app?vid=2e7bb935-7b0f-4a47-9ac2-3972d6cc245a"},"vehicle_type_id":"4","last_reported":1690826910,"current_range_meters":5600,"station_id":"ce4bh3h2rcd13ifvqdo0","pricing_plan_id":"free"},{"bike_id":"918722df-fc3e-4b46-b4c7-b5726ff6ef61","system_id":"levelo_inurba_marseille","lat":43.294314,"lon":5.397498,"is_reserved":false,"is_disabled":false,"rental_uris":{"android":"levelo://app?vid=918722df-fc3e-4b46-b4c7-b5726ff6ef61","ios":"levelo://app?vid=918722df-fc3e-4b46-b4c7-b5726ff6ef61"},"vehicle_type_id":"4","last_reported":1690826910,"current_range_meters":25600,"station_id":"ce4bh3h2rcd13ifvqdo0","pricing_plan_id":"free"},{"bike_id":"993c866a-5815-468c-b2f5-c6653c4eac22","system_id":"levelo_inurba_marseille","lat":43.294314,"lon":5.397498,"is_reserved":false,"is_disabled":false,"rental_uris":{"android":"levelo://app?vid=993c866a-5815-468c-b2f5-c6653c4eac22","ios":"levelo://app?vid=993c866a-5815-468c-b2f5-c6653c4eac22"},"vehicle_type_id":"4","last_reported":1690826910,"current_range_meters":4400,"station_id":"ce4bh3h2rcd13ifvqdo0","pricing_plan_id":"free"},{"bike_id":"f1b57ff3-3259-4880-9c64-ef59377c913b","system_id":"levelo_inurba_marseille","lat":43.285856,"lon":5.350771,"is_reserved":false,"is_disabled":false,"rental_uris":{"android":"levelo://app?vid=f1b57ff3-3259-4880-9c64-ef59377c913b","ios":"levelo://app?vid=f1b57ff3-3259-4880-9c64-ef59377c913b"},"vehicle_type_id":"4","last_reported":1690826910,"current_range_meters":19600,"station_id":"ce4bhch2rcd13ifvqeug","pricing_plan_id":"free"},{"bike_id":"5b112069-dd75-4a1c-a0d8-84fb8f414b25","system_id":"levelo_inurba_marseille","lat":43.285848,"lon":5.350787,"is_reserved":false,"is_disabled":false,"rental_uris":{"android":"levelo://app?vid=5b112069-dd75-4a1c-a0d8-84fb8f414b25","ios":"levelo://app?vid=5b112069-dd75-4a1c-a0d8-84fb8f414b25"},"vehicle_type_id":"4","last_reported":1690826910,"current_range_meters":19600,"station_id":"ce4bhch2rcd13ifvqeug","pricing_plan_id":"free"},{"bike_id":"bdcdee81-653a-4dbe-abc1-e479b71c2fc6","system_id":"levelo_inurba_marseille","lat":43.28419,"lon":5.3752,"is_reserved":false,"is_disabled":false,"rental_uris":{"android":"levelo://app?vid=bdcdee81-653a-4dbe-abc1-e479b71c2fc6","ios":"levelo://app?vid=bdcdee81-653a-4dbe-abc1-e479b71c2fc6"},"vehicle_type_id":"4","last_reported":1690826910,"current_range_meters":11600,"station_id":"ce4bh412rcd13ifvqds0","pricing_plan_id":"free"},{"bike_id":"98e800f5-fcfa-4722-a790-45182820707a","system_id":"levelo_inurba_marseille","lat":43.28417,"lon":5.37514,"is_reserved":false,"is_disabled":false,"rental_uris":{"android":"levelo://app?vid=98e800f5-fcfa-4722-a790-45182820707a","ios":"levelo://app?vid=98e800f5-fcfa-4722-a790-45182820707a"},"vehicle_type_id":"4","last_reported":1690826910,"current_range_meters":0,"station_id":"ce4bh412rcd13ifvqds0","pricing_plan_id":"free"},{"bike_id":"c39a68cf-dc74-4157-bd40-24a003e1a391","system_id":"levelo_inurba_marseille","lat":43.28416,"lon":5.37509,"is_reserved":false,"is_disabled":false,"rental_uris":{"android":"levelo://app?vid=c39a68cf-dc74-4157-bd40-24a003e1a391","ios":"levelo://app?vid=c39a68cf-dc74-4157-bd40-24a003e1a391"},"vehicle_type_id":"4","last_reported":1690826910,"current_range_meters":8800,"station_id":"ce4bh412rcd13ifvqds0","pricing_plan_id":"free"},{"bike_id":"1af64665-0418-4da6-af25-8e3181b7e908","system_id":"levelo_inurba_marseille","lat":43.28415,"lon":5.37507,"is_reserved":false,"is_disabled":false,"rental_uris":{"android":"levelo://app?vid=1af64665-0418-4da6-af25-8e3181b7e908","ios":"levelo://app?vid=1af64665-0418-4da6-af25-8e3181b7e908"},"vehicle_type_id":"4","last_reported":1690826910,"current_range_meters":23200,"station_id":"ce4bh412rcd13ifvqds0","pricing_plan_id":"free"},{"bike_id":"dadf2d2b-ee9d-429d-bea5-60ee6a4e8db8","system_id":"levelo_inurba_marseille","lat":43.284128,"lon":5.375113,"is_reserved":false,"is_disabled":false,"rental_uris":{"android":"levelo://app?vid=dadf2d2b-ee9d-429d-bea5-60ee6a4e8db8","ios":"levelo://app?vid=dadf2d2b-ee9d-429d-bea5-60ee6a4e8db8"},"vehicle_type_id":"4","last_reported":1690826910,"current_range_meters":6800,"station_id":"ce4bh412rcd13ifvqds0","pricing_plan_id":"free"},{"bike_id":"dd04a366-8c53-4498-b432-661b74c15c62","system_id":"levelo_inurba_marseille","lat":43.28412,"lon":5.37508,"is_reserved":false,"is_disabled":false,"rental_uris":{"android":"levelo://app?vid=dd04a366-8c53-4498-b432-661b74c15c62","ios":"levelo://app?vid=dd04a366-8c53-4498-b432-661b74c15c62"},"vehicle_type_id":"4","last_reported":1690826910,"current_range_meters":23200,"station_id":"ce4bh412rcd13ifvqds0","pricing_plan_id":"free"},{"bike_id":"2f47c7f1-8a1c-4581-8d42-f3722653e9dd","system_id":"levelo_inurba_marseille","lat":43.284072,"lon":5.375037,"is_reserved":false,"is_disabled":false,"rental_uris":{"android":"levelo://app?vid=2f47c7f1-8a1c-4581-8d42-f3722653e9dd","ios":"levelo://app?vid=2f47c7f1-8a1c-4581-8d42-f3722653e9dd"},"vehicle_type_id":"4","last_reported":1690826910,"current_range_meters":6400,"station_id":"ce4bh412rcd13ifvqds0","pricing_plan_id":"free"},{"bike_id":"f40aabee-44cc-4c3c-84a6-54aa0afdbba7","system_id":"levelo_inurba_marseille","lat":43.283502,"lon":5.386471,"is_reserved":false,"is_disabled":false,"rental_uris":{"android":"levelo://app?vid=f40aabee-44cc-4c3c-84a6-54aa0afdbba7","ios":"levelo://app?vid=f40aabee-44cc-4c3c-84a6-54aa0afdbba7"},"vehicle_type_id":"4","last_reported":1690826910,"current_range_meters":4000,"station_id":"ce4bh492rcd13ifvqdvg","pricing_plan_id":"free"},{"bike_id":"4e216deb-dc17-47f6-8996-72766357ba25","system_id":"levelo_inurba_marseille","lat":43.286595,"lon":5.386795,"is_reserved":false,"is_disabled":false,"rental_uris":{"android":"levelo://app?vid=4e216deb-dc17-47f6-8996-72766357ba25","ios":"levelo://app?vid=4e216deb-dc17-47f6-8996-72766357ba25"},"vehicle_type_id":"4","last_reported":1690826910,"current_range_meters":3200,"station_id":"ce4bh492rcd13ifvqdug","pricing_plan_id":"free"},{"bike_id":"13d9fef3-66f6-4487-ad2b-c2a9e139ece2","system_id":"levelo_inurba_marseille","lat":43.286595,"lon":5.386795,"is_reserved":false,"is_disabled":false,"rental_uris":{"android":"levelo://app?vid=13d9fef3-66f6-4487-ad2b-c2a9e139ece2","ios":"levelo://app?vid=13d9fef3-66f6-4487-ad2b-c2a9e139ece2"},"vehicle_type_id":"4","last_reported":1690826910,"current_range_meters":4400,"station_id":"ce4bh492rcd13ifvqdug","pricing_plan_id":"free"},{"bike_id":"f9e5d041-5657-4085-9df0-d592409fd106","system_id":"levelo_inurba_marseille","lat":43.286595,"lon":5.386795,"is_reserved":false,"is_disabled":false,"rental_uris":{"android":"levelo://app?vid=f9e5d041-5657-4085-9df0-d592409fd106","ios":"levelo://app?vid=f9e5d041-5657-4085-9df0-d592409fd106"},"vehicle_type_id":"4","last_reported":1690826910,"current_range_meters":9600,"station_id":"ce4bh492rcd13ifvqdug","pricing_plan_id":"free"},{"bike_id":"cf230782-c8bf-4b86-9691-984ef98a502f","system_id":"levelo_inurba_marseille","lat":43.286595,"lon":5.386795,"is_reserved":false,"is_disabled":false,"rental_uris":{"android":"levelo://app?vid=cf230782-c8bf-4b86-9691-984ef98a502f","ios":"levelo://app?vid=cf230782-c8bf-4b86-9691-984ef98a502f"},"vehicle_type_id":"4","last_reported":1690826910,"current_range_meters":13600,"station_id":"ce4bh492rcd13ifvqdug","pricing_plan_id":"free"},{"bike_id":"91e09460-cfc0-485e-9f84-92d2c8fee084","system_id":"levelo_inurba_marseille","lat":43.323464,"lon":5.406297,"is_reserved":false,"is_disabled":false,"rental_uris":{"android":"levelo://app?vid=91e09460-cfc0-485e-9f84-92d2c8fee084","ios":"levelo://app?vid=91e09460-cfc0-485e-9f84-92d2c8fee084"},"vehicle_type_id":"4","last_reported":1690826910,"current_range_meters":14400,"station_id":"ce4bhq92rcd13ifvqhjg","pricing_plan_id":"free"},{"bike_id":"99d6cf98-d0ee-49ee-ad65-19acca3c5b9a","system_id":"levelo_inurba_marseille","lat":43.323464,"lon":5.406297,"is_reserved":false,"is_disabled":false,"rental_uris":{"android":"levelo://app?vid=99d6cf98-d0ee-49ee-ad65-19acca3c5b9a","ios":"levelo://app?vid=99d6cf98-d0ee-49ee-ad65-19acca3c5b9a"},"vehicle_type_id":"4","last_reported":1690826910,"current_range_meters":14400,"station_id":"ce4bhq92rcd13ifvqhjg","pricing_plan_id":"free"},{"bike_id":"b35b35ac-779a-433f-a286-0b05a9e80c7f","system_id":"levelo_inurba_marseille","lat":43.337168,"lon":5.391825,"is_reserved":false,"is_disabled":false,"rental_uris":{"android":"levelo://app?vid=b35b35ac-779a-433f-a286-0b05a9e80c7f","ios":"levelo://app?vid=b35b35ac-779a-433f-a286-0b05a9e80c7f"},"vehicle_type_id":"4","last_reported":1690826910,"current_range_meters":19600,"station_id":"ce4bhr92rcd13ifvqhsg","pricing_plan_id":"free"},{"bike_id":"a412b8a9-b41c-49ef-8bda-be4d266dcbd2","system_id":"levelo_inurba_marseille","lat":43.32345,"lon":5.40624,"is_reserved":false,"is_disabled":false,"rental_uris":{"android":"levelo://app?vid=a412b8a9-b41c-49ef-8bda-be4d266dcbd2","ios":"levelo://app?vid=a412b8a9-b41c-49ef-8bda-be4d266dcbd2"},"vehicle_type_id":"4","last_reported":1690826910,"current_range_meters":4000,"station_id":"ce4bhq92rcd13ifvqhjg","pricing_plan_id":"free"},{"bike_id":"541e3b69-b521-48fc-a5e5-888fe89c4119","system_id":"levelo_inurba_marseille","lat":43.284793,"lon":5.384119,"is_reserved":false,"is_disabled":false,"rental_uris":{"android":"levelo://app?vid=541e3b69-b521-48fc-a5e5-888fe89c4119","ios":"levelo://app?vid=541e3b69-b521-48fc-a5e5-888fe89c4119"},"vehicle_type_id":"4","last_reported":1690826910,"current_range_meters":30400,"station_id":"ce4bh512rcd13ifvqe3g","pricing_plan_id":"free"},{"bike_id":"4586e753-cc61-41e4-b68b-5c57803277bb","system_id":"levelo_inurba_marseille","lat":43.284793,"lon":5.384119,"is_reserved":false,"is_disabled":false,"rental_uris":{"android":"levelo://app?vid=4586e753-cc61-41e4-b68b-5c57803277bb","ios":"levelo://app?vid=4586e753-cc61-41e4-b68b-5c57803277bb"},"vehicle_type_id":"4","last_reported":1690826910,"current_range_meters":19200,"station_id":"ce4bh512rcd13ifvqe3g","pricing_plan_id":"free"},{"bike_id":"dbada9f9-e33c-4a7d-ab43-1cac4e571e70","system_id":"levelo_inurba_marseille","lat":43.2847,"lon":5.38417,"is_reserved":false,"is_disabled":false,"rental_uris":{"android":"levelo://app?vid=dbada9f9-e33c-4a7d-ab43-1cac4e571e70","ios":"levelo://app?vid=dbada9f9-e33c-4a7d-ab43-1cac4e571e70"},"vehicle_type_id":"4","last_reported":1690826910,"current_range_meters":30800,"station_id":"ce4bh512rcd13ifvqe3g","pricing_plan_id":"free"},{"bike_id":"07ced79b-dfa3-4695-8759-d47ebb2846d0","system_id":"levelo_inurba_marseille","lat":43.29797,"lon":5.40399,"is_reserved":false,"is_disabled":false,"rental_uris":{"android":"levelo://app?vid=07ced79b-dfa3-4695-8759-d47ebb2846d0","ios":"levelo://app?vid=07ced79b-dfa3-4695-8759-d47ebb2846d0"},"vehicle_type_id":"4","last_reported":1690826910,"current_range_meters":4400,"station_id":"","pricing_plan_id":"free"},{"bike_id":"c4b72fef-d9c1-4299-a363-8eb0c38bebf4","system_id":"levelo_inurba_marseille","lat":43.29795,"lon":5.4041,"is_reserved":false,"is_disabled":false,"rental_uris":{"android":"levelo://app?vid=c4b72fef-d9c1-4299-a363-8eb0c38bebf4","ios":"levelo://app?vid=c4b72fef-d9c1-4299-a363-8eb0c38bebf4"},"vehicle_type_id":"4","last_reported":1690826910,"current_range_meters":17600,"station_id":"","pricing_plan_id":"free"},{"bike_id":"9e000755-a935-477c-bb6a-2762a55fe67a","system_id":"levelo_inurba_marseille","lat":43.284219,"lon":5.3497,"is_reserved":false,"is_disabled":false,"rental_uris":{"android":"levelo://app?vid=9e000755-a935-477c-bb6a-2762a55fe67a","ios":"levelo://app?vid=9e000755-a935-477c-bb6a-2762a55fe67a"},"vehicle_type_id":"4","last_reported":1690826910,"current_range_meters":31200,"station_id":"ce4bhbh2rcd13ifvqepg","pricing_plan_id":"free"},{"bike_id":"e9a55f61-6be9-431f-83c4-1a3eaeb0b1a7","system_id":"levelo_inurba_marseille","lat":43.284248,"lon":5.349823,"is_reserved":false,"is_disabled":false,"rental_uris":{"android":"levelo://app?vid=e9a55f61-6be9-431f-83c4-1a3eaeb0b1a7","ios":"levelo://app?vid=e9a55f61-6be9-431f-83c4-1a3eaeb0b1a7"},"vehicle_type_id":"4","last_reported":1690826910,"current_range_meters":11200,"station_id":"","pricing_plan_id":"free"},{"bike_id":"fdf483a8-83bf-46f7-a41d-af6aa8841cc3","system_id":"levelo_inurba_marseille","lat":43.284219,"lon":5.3497,"is_reserved":false,"is_disabled":false,"rental_uris":{"android":"levelo://app?vid=fdf483a8-83bf-46f7-a41d-af6aa8841cc3","ios":"levelo://app?vid=fdf483a8-83bf-46f7-a41d-af6aa8841cc3"},"vehicle_type_id":"4","last_reported":1690826910,"current_range_meters":25200,"station_id":"ce4bhbh2rcd13ifvqepg","pricing_plan_id":"free"},{"bike_id":"d5b35f69-b146-413b-b20d-9ba0b6fe9bea","system_id":"levelo_inurba_marseille","lat":43.28419,"lon":5.34987,"is_reserved":false,"is_disabled":false,"rental_uris":{"android":"levelo://app?vid=d5b35f69-b146-413b-b20d-9ba0b6fe9bea","ios":"levelo://app?vid=d5b35f69-b146-413b-b20d-9ba0b6fe9bea"},"vehicle_type_id":"4","last_reported":1690826910,"current_range_meters":1600,"station_id":"ce4bhbh2rcd13ifvqepg","pricing_plan_id":"free"},{"bike_id":"f13e289c-ef6c-435c-809b-cdd8831974ed","system_id":"levelo_inurba_marseille","lat":43.284219,"lon":5.3497,"is_reserved":false,"is_disabled":false,"rental_uris":{"android":"levelo://app?vid=f13e289c-ef6c-435c-809b-cdd8831974ed","ios":"levelo://app?vid=f13e289c-ef6c-435c-809b-cdd8831974ed"},"vehicle_type_id":"4","last_reported":1690826910,"current_range_meters":20000,"station_id":"ce4bhbh2rcd13ifvqepg","pricing_plan_id":"free"},{"bike_id":"a2521efe-0bbe-444d-a7cf-cc11ef9e375b","system_id":"levelo_inurba_marseille","lat":43.284219,"lon":5.3497,"is_reserved":false,"is_disabled":false,"rental_uris":{"android":"levelo://app?vid=a2521efe-0bbe-444d-a7cf-cc11ef9e375b","ios":"levelo://app?vid=a2521efe-0bbe-444d-a7cf-cc11ef9e375b"},"vehicle_type_id":"4","last_reported":1690826910,"current_range_meters":28800,"station_id":"ce4bhbh2rcd13ifvqepg","pricing_plan_id":"free"},{"bike_id":"f7f5768e-b80f-4da0-8864-86696a8877fb","system_id":"levelo_inurba_marseille","lat":43.32456,"lon":5.40727,"is_reserved":false,"is_disabled":false,"rental_uris":{"android":"levelo://app?vid=f7f5768e-b80f-4da0-8864-86696a8877fb","ios":"levelo://app?vid=f7f5768e-b80f-4da0-8864-86696a8877fb"},"vehicle_type_id":"4","last_reported":1690826910,"current_range_meters":11200,"station_id":"","pricing_plan_id":"free"},{"bike_id":"310116e4-c066-4845-b90e-d028b7280339","system_id":"levelo_inurba_marseille","lat":43.282754,"lon":5.350519,"is_reserved":false,"is_disabled":false,"rental_uris":{"android":"levelo://app?vid=310116e4-c066-4845-b90e-d028b7280339","ios":"levelo://app?vid=310116e4-c066-4845-b90e-d028b7280339"},"vehicle_type_id":"4","last_reported":1690826910,"current_range_meters":31600,"station_id":"ce4bhbp2rcd13ifvqerg","pricing_plan_id":"free"},{"bike_id":"a8109abe-a44f-4044-bbec-994558227941","system_id":"levelo_inurba_marseille","lat":43.28277,"lon":5.35075,"is_reserved":false,"is_disabled":false,"rental_uris":{"android":"levelo://app?vid=a8109abe-a44f-4044-bbec-994558227941","ios":"levelo://app?vid=a8109abe-a44f-4044-bbec-994558227941"},"vehicle_type_id":"4","last_reported":1690826910,"current_range_meters":20000,"station_id":"ce4bhbp2rcd13ifvqerg","pricing_plan_id":"free"},{"bike_id":"31fe2267-6a62-467d-9dcd-66896e9ea97b","system_id":"levelo_inurba_marseille","lat":43.282754,"lon":5.350519,"is_reserved":false,"is_disabled":false,"rental_uris":{"android":"levelo://app?vid=31fe2267-6a62-467d-9dcd-66896e9ea97b","ios":"levelo://app?vid=31fe2267-6a62-467d-9dcd-66896e9ea97b"},"vehicle_type_id":"4","last_reported":1690826910,"current_range_meters":800,"station_id":"ce4bhbp2rcd13ifvqerg","pricing_plan_id":"free"},{"bike_id":"087f9e70-cce2-4d29-99b2-1fb296bd8e74","system_id":"levelo_inurba_marseille","lat":43.282754,"lon":5.350519,"is_reserved":false,"is_disabled":false,"rental_uris":{"android":"levelo://app?vid=087f9e70-cce2-4d29-99b2-1fb296bd8e74","ios":"levelo://app?vid=087f9e70-cce2-4d29-99b2-1fb296bd8e74"},"vehicle_type_id":"4","last_reported":1690826910,"current_range_meters":18800,"station_id":"ce4bhbp2rcd13ifvqerg","pricing_plan_id":"free"},{"bike_id":"8cadeda5-9ab5-4d50-bc40-b1f884ec9cf5","system_id":"levelo_inurba_marseille","lat":43.28272,"lon":5.35077,"is_reserved":false,"is_disabled":false,"rental_uris":{"android":"levelo://app?vid=8cadeda5-9ab5-4d50-bc40-b1f884ec9cf5","ios":"levelo://app?vid=8cadeda5-9ab5-4d50-bc40-b1f884ec9cf5"},"vehicle_type_id":"4","last_reported":1690826910,"current_range_meters":11600,"station_id":"ce4bhbp2rcd13ifvqerg","pricing_plan_id":"free"},{"bike_id":"694f4289-0c61-40d4-87d5-2fc47d3f2703","system_id":"levelo_inurba_marseille","lat":43.282754,"lon":5.350519,"is_reserved":false,"is_disabled":false,"rental_uris":{"android":"levelo://app?vid=694f4289-0c61-40d4-87d5-2fc47d3f2703","ios":"levelo://app?vid=694f4289-0c61-40d4-87d5-2fc47d3f2703"},"vehicle_type_id":"4","last_reported":1690826910,"current_range_meters":3600,"station_id":"ce4bhbp2rcd13ifvqerg","pricing_plan_id":"free"},{"bike_id":"ae7fba01-8d10-4d96-a15b-c4ee50873e82","system_id":"levelo_inurba_marseille","lat":43.283502,"lon":5.386471,"is_reserved":false,"is_disabled":false,"rental_uris":{"android":"levelo://app?vid=ae7fba01-8d10-4d96-a15b-c4ee50873e82","ios":"levelo://app?vid=ae7fba01-8d10-4d96-a15b-c4ee50873e82"},"vehicle_type_id":"4","last_reported":1690826910,"current_range_meters":5600,"station_id":"ce4bh492rcd13ifvqdvg","pricing_plan_id":"free"},{"bike_id":"bb56563d-418f-4743-a158-5677e8ab3222","system_id":"levelo_inurba_marseille","lat":43.282754,"lon":5.350519,"is_reserved":false,"is_disabled":false,"rental_uris":{"android":"levelo://app?vid=bb56563d-418f-4743-a158-5677e8ab3222","ios":"levelo://app?vid=bb56563d-418f-4743-a158-5677e8ab3222"},"vehicle_type_id":"4","last_reported":1690826910,"current_range_meters":7200,"station_id":"ce4bhbp2rcd13ifvqerg","pricing_plan_id":"free"},{"bike_id":"e8dd2044-3cea-4297-9723-172f4796b3c8","system_id":"levelo_inurba_marseille","lat":43.28268,"lon":5.35075,"is_reserved":false,"is_disabled":false,"rental_uris":{"android":"levelo://app?vid=e8dd2044-3cea-4297-9723-172f4796b3c8","ios":"levelo://app?vid=e8dd2044-3cea-4297-9723-172f4796b3c8"},"vehicle_type_id":"4","last_reported":1690826910,"current_range_meters":27200,"station_id":"ce4bhbp2rcd13ifvqerg","pricing_plan_id":"free"},{"bike_id":"51ef3c98-330d-4731-9dc5-dd44ba1a90c8","system_id":"levelo_inurba_marseille","lat":43.28271,"lon":5.35062,"is_reserved":false,"is_disabled":false,"rental_uris":{"android":"levelo://app?vid=51ef3c98-330d-4731-9dc5-dd44ba1a90c8","ios":"levelo://app?vid=51ef3c98-330d-4731-9dc5-dd44ba1a90c8"},"vehicle_type_id":"4","last_reported":1690826910,"current_range_meters":15200,"station_id":"ce4bhbp2rcd13ifvqerg","pricing_plan_id":"free"},{"bike_id":"c3ee8847-60a3-4bdb-b2d2-693881697ea2","system_id":"levelo_inurba_marseille","lat":43.282744,"lon":5.350533,"is_reserved":false,"is_disabled":false,"rental_uris":{"android":"levelo://app?vid=c3ee8847-60a3-4bdb-b2d2-693881697ea2","ios":"levelo://app?vid=c3ee8847-60a3-4bdb-b2d2-693881697ea2"},"vehicle_type_id":"4","last_reported":1690826910,"current_range_meters":16400,"station_id":"ce4bhbp2rcd13ifvqerg","pricing_plan_id":"free"},{"bike_id":"6da09880-e6da-4c80-8af2-f6fb03628697","system_id":"levelo_inurba_marseille","lat":43.283502,"lon":5.386471,"is_reserved":false,"is_disabled":false,"rental_uris":{"android":"levelo://app?vid=6da09880-e6da-4c80-8af2-f6fb03628697","ios":"levelo://app?vid=6da09880-e6da-4c80-8af2-f6fb03628697"},"vehicle_type_id":"4","last_reported":1690826910,"current_range_meters":19200,"station_id":"ce4bh492rcd13ifvqdvg","pricing_plan_id":"free"},{"bike_id":"301640f7-7196-476b-b9a4-862e281e88f0","system_id":"levelo_inurba_marseille","lat":43.28269,"lon":5.3506,"is_reserved":false,"is_disabled":false,"rental_uris":{"android":"levelo://app?vid=301640f7-7196-476b-b9a4-862e281e88f0","ios":"levelo://app?vid=301640f7-7196-476b-b9a4-862e281e88f0"},"vehicle_type_id":"4","last_reported":1690826910,"current_range_meters":8000,"station_id":"ce4bhbp2rcd13ifvqerg","pricing_plan_id":"free"},{"bike_id":"a4518de3-1874-40d1-bb41-db5c3cbec346","system_id":"levelo_inurba_marseille","lat":43.282744,"lon":5.350533,"is_reserved":false,"is_disabled":false,"rental_uris":{"android":"levelo://app?vid=a4518de3-1874-40d1-bb41-db5c3cbec346","ios":"levelo://app?vid=a4518de3-1874-40d1-bb41-db5c3cbec346"},"vehicle_type_id":"4","last_reported":1690826910,"current_range_meters":16800,"station_id":"ce4bhbp2rcd13ifvqerg","pricing_plan_id":"free"},{"bike_id":"6b2de981-c2da-4102-abb0-357baa2adc94","system_id":"levelo_inurba_marseille","lat":43.28264,"lon":5.35067,"is_reserved":false,"is_disabled":false,"rental_uris":{"android":"levelo://app?vid=6b2de981-c2da-4102-abb0-357baa2adc94","ios":"levelo://app?vid=6b2de981-c2da-4102-abb0-357baa2adc94"},"vehicle_type_id":"4","last_reported":1690826910,"current_range_meters":18000,"station_id":"ce4bhbp2rcd13ifvqerg","pricing_plan_id":"free"},{"bike_id":"97ebb689-c36a-4c13-82f9-a04845f6cce6","system_id":"levelo_inurba_marseille","lat":43.280382,"lon":5.369291,"is_reserved":false,"is_disabled":false,"rental_uris":{"android":"levelo://app?vid=97ebb689-c36a-4c13-82f9-a04845f6cce6","ios":"levelo://app?vid=97ebb689-c36a-4c13-82f9-a04845f6cce6"},"vehicle_type_id":"4","last_reported":1690826910,"current_range_meters":15200,"station_id":"ce4bha12rcd13ifvqef0","pricing_plan_id":"free"},{"bike_id":"ce30505c-4d1d-4f81-b6e9-2574716e74cd","system_id":"levelo_inurba_marseille","lat":43.280382,"lon":5.369291,"is_reserved":false,"is_disabled":false,"rental_uris":{"android":"levelo://app?vid=ce30505c-4d1d-4f81-b6e9-2574716e74cd","ios":"levelo://app?vid=ce30505c-4d1d-4f81-b6e9-2574716e74cd"},"vehicle_type_id":"4","last_reported":1690826910,"current_range_meters":0,"station_id":"ce4bha12rcd13ifvqef0","pricing_plan_id":"free"},{"bike_id":"c76c2e67-6687-4094-8ba8-e75b8198d669","system_id":"levelo_inurba_marseille","lat":43.280382,"lon":5.369291,"is_reserved":false,"is_disabled":false,"rental_uris":{"android":"levelo://app?vid=c76c2e67-6687-4094-8ba8-e75b8198d669","ios":"levelo://app?vid=c76c2e67-6687-4094-8ba8-e75b8198d669"},"vehicle_type_id":"4","last_reported":1690826910,"current_range_meters":20000,"station_id":"ce4bha12rcd13ifvqef0","pricing_plan_id":"free"},{"bike_id":"96751007-2cf4-4589-bbde-b138e8aaf8fa","system_id":"levelo_inurba_marseille","lat":43.28039,"lon":5.369297,"is_reserved":false,"is_disabled":false,"rental_uris":{"android":"levelo://app?vid=96751007-2cf4-4589-bbde-b138e8aaf8fa","ios":"levelo://app?vid=96751007-2cf4-4589-bbde-b138e8aaf8fa"},"vehicle_type_id":"4","last_reported":1690826910,"current_range_meters":24400,"station_id":"ce4bha12rcd13ifvqef0","pricing_plan_id":"free"},{"bike_id":"f8718a3e-3c6f-441b-a1a6-caaa208a8c35","system_id":"levelo_inurba_marseille","lat":43.283502,"lon":5.386471,"is_reserved":false,"is_disabled":false,"rental_uris":{"android":"levelo://app?vid=f8718a3e-3c6f-441b-a1a6-caaa208a8c35","ios":"levelo://app?vid=f8718a3e-3c6f-441b-a1a6-caaa208a8c35"},"vehicle_type_id":"4","last_reported":1690826910,"current_range_meters":26800,"station_id":"ce4bh492rcd13ifvqdvg","pricing_plan_id":"free"},{"bike_id":"02c00517-e6ed-429e-a3f1-7d48d7f83fc3","system_id":"levelo_inurba_marseille","lat":43.283502,"lon":5.386471,"is_reserved":false,"is_disabled":false,"rental_uris":{"android":"levelo://app?vid=02c00517-e6ed-429e-a3f1-7d48d7f83fc3","ios":"levelo://app?vid=02c00517-e6ed-429e-a3f1-7d48d7f83fc3"},"vehicle_type_id":"4","last_reported":1690826910,"current_range_meters":10400,"station_id":"ce4bh492rcd13ifvqdvg","pricing_plan_id":"free"},{"bike_id":"c67fd003-011a-42e2-85f2-2714de5997e4","system_id":"levelo_inurba_marseille","lat":43.32502,"lon":5.40824,"is_reserved":false,"is_disabled":false,"rental_uris":{"android":"levelo://app?vid=c67fd003-011a-42e2-85f2-2714de5997e4","ios":"levelo://app?vid=c67fd003-011a-42e2-85f2-2714de5997e4"},"vehicle_type_id":"4","last_reported":1690826910,"current_range_meters":400,"station_id":"","pricing_plan_id":"free"},{"bike_id":"6c2cbcb7-3a7f-44ea-9a22-196bb6f65e1f","system_id":"levelo_inurba_marseille","lat":43.28039,"lon":5.369297,"is_reserved":false,"is_disabled":false,"rental_uris":{"android":"levelo://app?vid=6c2cbcb7-3a7f-44ea-9a22-196bb6f65e1f","ios":"levelo://app?vid=6c2cbcb7-3a7f-44ea-9a22-196bb6f65e1f"},"vehicle_type_id":"4","last_reported":1690826910,"current_range_meters":0,"station_id":"ce4bha12rcd13ifvqef0","pricing_plan_id":"free"},{"bike_id":"f3c9bbbd-022f-4c3d-8889-2b7f08f7751e","system_id":"levelo_inurba_marseille","lat":43.28039,"lon":5.369297,"is_reserved":false,"is_disabled":false,"rental_uris":{"android":"levelo://app?vid=f3c9bbbd-022f-4c3d-8889-2b7f08f7751e","ios":"levelo://app?vid=f3c9bbbd-022f-4c3d-8889-2b7f08f7751e"},"vehicle_type_id":"4","last_reported":1690826910,"current_range_meters":22400,"station_id":"ce4bha12rcd13ifvqef0","pricing_plan_id":"free"},{"bike_id":"ef84567a-3537-4313-b3b7-89acc275e8e3","system_id":"levelo_inurba_marseille","lat":43.28039,"lon":5.369297,"is_reserved":false,"is_disabled":false,"rental_uris":{"android":"levelo://app?vid=ef84567a-3537-4313-b3b7-89acc275e8e3","ios":"levelo://app?vid=ef84567a-3537-4313-b3b7-89acc275e8e3"},"vehicle_type_id":"4","last_reported":1690826910,"current_range_meters":6400,"station_id":"ce4bha12rcd13ifvqef0","pricing_plan_id":"free"},{"bike_id":"645db14d-0eae-4b95-84b8-d84c748cbbae","system_id":"levelo_inurba_marseille","lat":43.28039,"lon":5.369297,"is_reserved":false,"is_disabled":false,"rental_uris":{"android":"levelo://app?vid=645db14d-0eae-4b95-84b8-d84c748cbbae","ios":"levelo://app?vid=645db14d-0eae-4b95-84b8-d84c748cbbae"},"vehicle_type_id":"4","last_reported":1690826910,"current_range_meters":17200,"station_id":"ce4bha12rcd13ifvqef0","pricing_plan_id":"free"},{"bike_id":"f9e77593-6b7d-4d54-abff-3f71eedeff00","system_id":"levelo_inurba_marseille","lat":43.28107,"lon":5.37836,"is_reserved":false,"is_disabled":false,"rental_uris":{"android":"levelo://app?vid=f9e77593-6b7d-4d54-abff-3f71eedeff00","ios":"levelo://app?vid=f9e77593-6b7d-4d54-abff-3f71eedeff00"},"vehicle_type_id":"4","last_reported":1690826910,"current_range_meters":23200,"station_id":"ce4bha12rcd13ifvqee0","pricing_plan_id":"free"},{"bike_id":"1d062866-55c8-4ade-b914-b78cade26912","system_id":"levelo_inurba_marseille","lat":43.281044,"lon":5.378308,"is_reserved":false,"is_disabled":false,"rental_uris":{"android":"levelo://app?vid=1d062866-55c8-4ade-b914-b78cade26912","ios":"levelo://app?vid=1d062866-55c8-4ade-b914-b78cade26912"},"vehicle_type_id":"4","last_reported":1690826910,"current_range_meters":21600,"station_id":"ce4bha12rcd13ifvqee0","pricing_plan_id":"free"},{"bike_id":"7eb02c23-209e-4384-b0a2-44458c417d51","system_id":"levelo_inurba_marseille","lat":43.28106,"lon":5.37836,"is_reserved":false,"is_disabled":false,"rental_uris":{"android":"levelo://app?vid=7eb02c23-209e-4384-b0a2-44458c417d51","ios":"levelo://app?vid=7eb02c23-209e-4384-b0a2-44458c417d51"},"vehicle_type_id":"4","last_reported":1690826910,"current_range_meters":25600,"station_id":"ce4bha12rcd13ifvqee0","pricing_plan_id":"free"},{"bike_id":"cb893db2-0787-4e29-a172-58893a2c1129","system_id":"levelo_inurba_marseille","lat":43.296263,"lon":5.40601,"is_reserved":false,"is_disabled":false,"rental_uris":{"android":"levelo://app?vid=cb893db2-0787-4e29-a172-58893a2c1129","ios":"levelo://app?vid=cb893db2-0787-4e29-a172-58893a2c1129"},"vehicle_type_id":"4","last_reported":1690826910,"current_range_meters":23600,"station_id":"ce4bh0h2rcd13ifvqd60","pricing_plan_id":"free"},{"bike_id":"95fc0ffd-2ae0-41f2-b97d-c03af2fec6ea","system_id":"levelo_inurba_marseille","lat":43.296263,"lon":5.40601,"is_reserved":false,"is_disabled":false,"rental_uris":{"android":"levelo://app?vid=95fc0ffd-2ae0-41f2-b97d-c03af2fec6ea","ios":"levelo://app?vid=95fc0ffd-2ae0-41f2-b97d-c03af2fec6ea"},"vehicle_type_id":"4","last_reported":1690826910,"current_range_meters":17600,"station_id":"ce4bh0h2rcd13ifvqd60","pricing_plan_id":"free"},{"bike_id":"2c42262b-dafd-49de-8210-27bbc73055c4","system_id":"levelo_inurba_marseille","lat":43.296263,"lon":5.40601,"is_reserved":false,"is_disabled":false,"rental_uris":{"android":"levelo://app?vid=2c42262b-dafd-49de-8210-27bbc73055c4","ios":"levelo://app?vid=2c42262b-dafd-49de-8210-27bbc73055c4"},"vehicle_type_id":"4","last_reported":1690826910,"current_range_meters":24800,"station_id":"ce4bh0h2rcd13ifvqd60","pricing_plan_id":"free"},{"bike_id":"d1652af1-3b77-4570-9e4f-c8a3c88701a5","system_id":"levelo_inurba_marseille","lat":43.284462,"lon":5.392121,"is_reserved":false,"is_disabled":false,"rental_uris":{"android":"levelo://app?vid=d1652af1-3b77-4570-9e4f-c8a3c88701a5","ios":"levelo://app?vid=d1652af1-3b77-4570-9e4f-c8a3c88701a5"},"vehicle_type_id":"4","last_reported":1690826910,"current_range_meters":10800,"station_id":"ce4bhoh2rcd13ifvqh5g","pricing_plan_id":"free"},{"bike_id":"7908d640-d317-4140-97f4-60902a64eb73","system_id":"levelo_inurba_marseille","lat":43.284462,"lon":5.392121,"is_reserved":false,"is_disabled":false,"rental_uris":{"android":"levelo://app?vid=7908d640-d317-4140-97f4-60902a64eb73","ios":"levelo://app?vid=7908d640-d317-4140-97f4-60902a64eb73"},"vehicle_type_id":"4","last_reported":1690826910,"current_range_meters":14000,"station_id":"ce4bhoh2rcd13ifvqh5g","pricing_plan_id":"free"},{"bike_id":"b3950e44-9680-465f-8bc5-2d4642151d2d","system_id":"levelo_inurba_marseille","lat":43.32663,"lon":5.40982,"is_reserved":false,"is_disabled":false,"rental_uris":{"android":"levelo://app?vid=b3950e44-9680-465f-8bc5-2d4642151d2d","ios":"levelo://app?vid=b3950e44-9680-465f-8bc5-2d4642151d2d"},"vehicle_type_id":"4","last_reported":1690826910,"current_range_meters":23200,"station_id":"ce4bhpp2rcd13ifvqhgg","pricing_plan_id":"free"},{"bike_id":"b836f974-c3db-4776-9cd8-f1290a5cef6b","system_id":"levelo_inurba_marseille","lat":43.32661,"lon":5.40985,"is_reserved":false,"is_disabled":false,"rental_uris":{"android":"levelo://app?vid=b836f974-c3db-4776-9cd8-f1290a5cef6b","ios":"levelo://app?vid=b836f974-c3db-4776-9cd8-f1290a5cef6b"},"vehicle_type_id":"4","last_reported":1690826910,"current_range_meters":31600,"station_id":"ce4bhpp2rcd13ifvqhgg","pricing_plan_id":"free"},{"bike_id":"343d7dd2-c91f-4a41-b9e6-25e114012205","system_id":"levelo_inurba_marseille","lat":43.3266,"lon":5.40987,"is_reserved":false,"is_disabled":false,"rental_uris":{"android":"levelo://app?vid=343d7dd2-c91f-4a41-b9e6-25e114012205","ios":"levelo://app?vid=343d7dd2-c91f-4a41-b9e6-25e114012205"},"vehicle_type_id":"4","last_reported":1690826910,"current_range_meters":31600,"station_id":"ce4bhpp2rcd13ifvqhgg","pricing_plan_id":"free"},{"bike_id":"aeee1a69-5ea8-46b6-a77a-f8d3e4f3d119","system_id":"levelo_inurba_marseille","lat":43.326605,"lon":5.409903,"is_reserved":false,"is_disabled":false,"rental_uris":{"android":"levelo://app?vid=aeee1a69-5ea8-46b6-a77a-f8d3e4f3d119","ios":"levelo://app?vid=aeee1a69-5ea8-46b6-a77a-f8d3e4f3d119"},"vehicle_type_id":"4","last_reported":1690826910,"current_range_meters":28000,"station_id":"ce4bhpp2rcd13ifvqhgg","pricing_plan_id":"free"},{"bike_id":"35ebe136-fdc7-4a43-8dd8-de61fc9f571e","system_id":"levelo_inurba_marseille","lat":43.304188,"lon":5.412904,"is_reserved":false,"is_disabled":false,"rental_uris":{"android":"levelo://app?vid=35ebe136-fdc7-4a43-8dd8-de61fc9f571e","ios":"levelo://app?vid=35ebe136-fdc7-4a43-8dd8-de61fc9f571e"},"vehicle_type_id":"4","last_reported":1690826910,"current_range_meters":20000,"station_id":"ce4bhop2rcd13ifvqh8g","pricing_plan_id":"free"},{"bike_id":"ccbd5b2e-f368-479d-b64e-394140411ad0","system_id":"levelo_inurba_marseille","lat":43.304188,"lon":5.412904,"is_reserved":false,"is_disabled":false,"rental_uris":{"android":"levelo://app?vid=ccbd5b2e-f368-479d-b64e-394140411ad0","ios":"levelo://app?vid=ccbd5b2e-f368-479d-b64e-394140411ad0"},"vehicle_type_id":"4","last_reported":1690826910,"current_range_meters":25600,"station_id":"ce4bhop2rcd13ifvqh8g","pricing_plan_id":"free"},{"bike_id":"5a63241f-0464-430f-a239-2071644aca5a","system_id":"levelo_inurba_marseille","lat":43.304188,"lon":5.412904,"is_reserved":false,"is_disabled":false,"rental_uris":{"android":"levelo://app?vid=5a63241f-0464-430f-a239-2071644aca5a","ios":"levelo://app?vid=5a63241f-0464-430f-a239-2071644aca5a"},"vehicle_type_id":"4","last_reported":1690826910,"current_range_meters":6800,"station_id":"ce4bhop2rcd13ifvqh8g","pricing_plan_id":"free"},{"bike_id":"ce486fba-ac14-4a0c-8eb2-11cf1035611e","system_id":"levelo_inurba_marseille","lat":43.279087,"lon":5.380114,"is_reserved":false,"is_disabled":false,"rental_uris":{"android":"levelo://app?vid=ce486fba-ac14-4a0c-8eb2-11cf1035611e","ios":"levelo://app?vid=ce486fba-ac14-4a0c-8eb2-11cf1035611e"},"vehicle_type_id":"4","last_reported":1690826910,"current_range_meters":27200,"station_id":"ce4bhf92rcd13ifvqf50","pricing_plan_id":"free"},{"bike_id":"9776be54-a0da-4f58-8f22-2b1ce7d127ba","system_id":"levelo_inurba_marseille","lat":43.287154,"lon":5.399979,"is_reserved":false,"is_disabled":false,"rental_uris":{"android":"levelo://app?vid=9776be54-a0da-4f58-8f22-2b1ce7d127ba","ios":"levelo://app?vid=9776be54-a0da-4f58-8f22-2b1ce7d127ba"},"vehicle_type_id":"4","last_reported":1690826910,"current_range_meters":10800,"station_id":"ce4bho92rcd13ifvqh3g","pricing_plan_id":"free"},{"bike_id":"da74851f-183f-4ed8-bc32-44e1d656b516","system_id":"levelo_inurba_marseille","lat":43.32095,"lon":5.41512,"is_reserved":false,"is_disabled":false,"rental_uris":{"android":"levelo://app?vid=da74851f-183f-4ed8-bc32-44e1d656b516","ios":"levelo://app?vid=da74851f-183f-4ed8-bc32-44e1d656b516"},"vehicle_type_id":"4","last_reported":1690826910,"current_range_meters":14000,"station_id":"","pricing_plan_id":"free"},{"bike_id":"e9fbe7f4-c376-4a74-9a01-c2dfa71d30c2","system_id":"levelo_inurba_marseille","lat":43.3209,"lon":5.41514,"is_reserved":false,"is_disabled":false,"rental_uris":{"android":"levelo://app?vid=e9fbe7f4-c376-4a74-9a01-c2dfa71d30c2","ios":"levelo://app?vid=e9fbe7f4-c376-4a74-9a01-c2dfa71d30c2"},