{"last_updated":1779329544,"ttl":60,"version":"2.2","data":{"bikes":[{"bike_id":"7d641315-6110-49cb-a9dd-d637ff032de1","system_id":"levelo_inurba_marseille","lat":43.337444,"lon":5.374475,"is_reserved":false,"is_disabled":false,"rental_uris":{"android":"levelo://app?vid=7d641315-6110-49cb-a9dd-d637ff032de1","ios":"levelo://app?vid=7d641315-6110-49cb-a9dd-d637ff032de1"},"vehicle_type_id":"4","last_reported":1779329545,"current_range_meters":0,"station_id":"","pricing_plan_id":"cebpf4jnsgd1na2vs0mg"},{"bike_id":"72f56fa8-e526-4ef5-b975-0672b110b057","system_id":"levelo_inurba_marseille","lat":43.32485,"lon":5.37422,"is_reserved":false,"is_disabled":false,"rental_uris":{"android":"levelo://app?vid=72f56fa8-e526-4ef5-b975-0672b110b057","ios":"levelo://app?vid=72f56fa8-e526-4ef5-b975-0672b110b057"},"vehicle_type_id":"4","last_reported":1779329545,"current_range_meters":2800,"station_id":"","pricing_plan_id":"cebpf4jnsgd1na2vs0mg"},{"bike_id":"d09c36a6-9778-446b-b3a3-2ab82ba4c91a","system_id":"levelo_inurba_marseille","lat":43.2468,"lon":5.38174,"is_reserved":false,"is_disabled":false,"rental_uris":{"android":"levelo://app?vid=d09c36a6-9778-446b-b3a3-2ab82ba4c91a","ios":"levelo://app?vid=d09c36a6-9778-446b-b3a3-2ab82ba4c91a"},"vehicle_type_id":"4","last_reported":1779329545,"current_range_meters":2800,"station_id":"ce4bhih2rcd13ifvqfr0","pricing_plan_id":"cebpf4jnsgd1na2vs0mg"},{"bike_id":"ac2b95f9-60f4-4c5a-b409-6c01af11bb33","system_id":"levelo_inurba_marseille","lat":43.31541,"lon":5.38785,"is_reserved":false,"is_disabled":false,"rental_uris":{"android":"levelo://app?vid=ac2b95f9-60f4-4c5a-b409-6c01af11bb33","ios":"levelo://app?vid=ac2b95f9-60f4-4c5a-b409-6c01af11bb33"},"vehicle_type_id":"4","last_reported":1779329545,"current_range_meters":2800,"station_id":"","pricing_plan_id":"cebpf4jnsgd1na2vs0mg"},{"bike_id":"6910e06f-f20d-432d-bfe5-cf38102a60fc","system_id":"levelo_inurba_marseille","lat":43.30126,"lon":5.40038,"is_reserved":false,"is_disabled":false,"rental_uris":{"android":"levelo://app?vid=6910e06f-f20d-432d-bfe5-cf38102a60fc","ios":"levelo://app?vid=6910e06f-f20d-432d-bfe5-cf38102a60fc"},"vehicle_type_id":"4","last_reported":1779329545,"current_range_meters":2800,"station_id":"","pricing_plan_id":"cebpf4jnsgd1na2vs0mg"},{"bike_id":"1d8a0de7-dee9-4c46-b0dc-9cb1beff9b47","system_id":"levelo_inurba_marseille","lat":43.28406,"lon":5.34999,"is_reserved":false,"is_disabled":false,"rental_uris":{"android":"levelo://app?vid=1d8a0de7-dee9-4c46-b0dc-9cb1beff9b47","ios":"levelo://app?vid=1d8a0de7-dee9-4c46-b0dc-9cb1beff9b47"},"vehicle_type_id":"4","last_reported":1779329545,"current_range_meters":3200,"station_id":"ce4bhbh2rcd13ifvqepg","pricing_plan_id":"cebpf4jnsgd1na2vs0mg"},{"bike_id":"6fbbeee5-4103-4e2c-9a6b-f561619170ee","system_id":"levelo_inurba_marseille","lat":43.225316,"lon":5.348364,"is_reserved":false,"is_disabled":false,"rental_uris":{"android":"levelo://app?vid=6fbbeee5-4103-4e2c-9a6b-f561619170ee","ios":"levelo://app?vid=6fbbeee5-4103-4e2c-9a6b-f561619170ee"},"vehicle_type_id":"4","last_reported":1779329545,"current_range_meters":3200,"station_id":"st_cvj5dfep6f1abm77gieg","pricing_plan_id":"cebpf4jnsgd1na2vs0mg"},{"bike_id":"435ea0d5-ad7c-4bb7-95f7-132f6610f88b","system_id":"levelo_inurba_marseille","lat":43.2862,"lon":5.35107,"is_reserved":false,"is_disabled":false,"rental_uris":{"android":"levelo://app?vid=435ea0d5-ad7c-4bb7-95f7-132f6610f88b","ios":"levelo://app?vid=435ea0d5-ad7c-4bb7-95f7-132f6610f88b"},"vehicle_type_id":"4","last_reported":1779329545,"current_range_meters":3200,"station_id":"ce4bhch2rcd13ifvqeug","pricing_plan_id":"cebpf4jnsgd1na2vs0mg"},{"bike_id":"05e96898-a928-4a3a-918b-fe95a4e06ca8","system_id":"levelo_inurba_marseille","lat":43.273191,"lon":5.390724,"is_reserved":false,"is_disabled":true,"rental_uris":{"android":"levelo://app?vid=05e96898-a928-4a3a-918b-fe95a4e06ca8","ios":"levelo://app?vid=05e96898-a928-4a3a-918b-fe95a4e06ca8"},"vehicle_type_id":"4","last_reported":1779329545,"current_range_meters":3200,"station_id":"","pricing_plan_id":"cebpf4jnsgd1na2vs0mg"},{"bike_id":"1c9797d8-8264-4791-a52f-e89d3f16cc0d","system_id":"levelo_inurba_marseille","lat":43.29602,"lon":5.36752,"is_reserved":false,"is_disabled":false,"rental_uris":{"android":"levelo://app?vid=1c9797d8-8264-4791-a52f-e89d3f16cc0d","ios":"levelo://app?vid=1c9797d8-8264-4791-a52f-e89d3f16cc0d"},"vehicle_type_id":"4","last_reported":1779329545,"current_range_meters":3200,"station_id":"ce4bgph2rcd13ifvqc2g","pricing_plan_id":"cebpf4jnsgd1na2vs0mg"},{"bike_id":"1a06f864-2fba-45c9-aafb-270d94cc913c","system_id":"levelo_inurba_marseille","lat":43.26679,"lon":5.3826,"is_reserved":false,"is_disabled":false,"rental_uris":{"android":"levelo://app?vid=1a06f864-2fba-45c9-aafb-270d94cc913c","ios":"levelo://app?vid=1a06f864-2fba-45c9-aafb-270d94cc913c"},"vehicle_type_id":"4","last_reported":1779329545,"current_range_meters":3200,"station_id":"ce4bhg92rcd13ifvqf90","pricing_plan_id":"cebpf4jnsgd1na2vs0mg"},{"bike_id":"65dfb13f-4570-4435-9163-5a7dd58b9c97","system_id":"levelo_inurba_marseille","lat":43.22528,"lon":5.34824,"is_reserved":false,"is_disabled":false,"rental_uris":{"android":"levelo://app?vid=65dfb13f-4570-4435-9163-5a7dd58b9c97","ios":"levelo://app?vid=65dfb13f-4570-4435-9163-5a7dd58b9c97"},"vehicle_type_id":"4","last_reported":1779329545,"current_range_meters":3200,"station_id":"st_cvj5dfep6f1abm77gieg","pricing_plan_id":"cebpf4jnsgd1na2vs0mg"},{"bike_id":"0be98877-0b3d-44cc-8b14-d27b00e21c61","system_id":"levelo_inurba_marseille","lat":43.30322,"lon":5.41895,"is_reserved":false,"is_disabled":false,"rental_uris":{"android":"levelo://app?vid=0be98877-0b3d-44cc-8b14-d27b00e21c61","ios":"levelo://app?vid=0be98877-0b3d-44cc-8b14-d27b00e21c61"},"vehicle_type_id":"4","last_reported":1779329545,"current_range_meters":3200,"station_id":"","pricing_plan_id":"cebpf4jnsgd1na2vs0mg"},{"bike_id":"de745e5d-4b98-4d49-9bd0-f17d616f75e3","system_id":"levelo_inurba_marseille","lat":43.30679,"lon":5.40632,"is_reserved":false,"is_disabled":false,"rental_uris":{"android":"levelo://app?vid=de745e5d-4b98-4d49-9bd0-f17d616f75e3","ios":"levelo://app?vid=de745e5d-4b98-4d49-9bd0-f17d616f75e3"},"vehicle_type_id":"4","last_reported":1779329545,"current_range_meters":3600,"station_id":"","pricing_plan_id":"cebpf4jnsgd1na2vs0mg"},{"bike_id":"7c7fb249-fc8e-4d79-a1ce-dd5b0f183060","system_id":"levelo_inurba_marseille","lat":43.29825,"lon":5.44038,"is_reserved":false,"is_disabled":false,"rental_uris":{"android":"levelo://app?vid=7c7fb249-fc8e-4d79-a1ce-dd5b0f183060","ios":"levelo://app?vid=7c7fb249-fc8e-4d79-a1ce-dd5b0f183060"},"vehicle_type_id":"4","last_reported":1779329545,"current_range_meters":3600,"station_id":"st_d3jp68qikq2c7381ktn0","pricing_plan_id":"cebpf4jnsgd1na2vs0mg"},{"bike_id":"1a6d7516-d04e-46d1-a111-883e6fa9ceec","system_id":"levelo_inurba_marseille","lat":43.29007,"lon":5.38354,"is_reserved":false,"is_disabled":false,"rental_uris":{"android":"levelo://app?vid=1a6d7516-d04e-46d1-a111-883e6fa9ceec","ios":"levelo://app?vid=1a6d7516-d04e-46d1-a111-883e6fa9ceec"},"vehicle_type_id":"4","last_reported":1779329545,"current_range_meters":3600,"station_id":"ce4bh612rcd13ifvqe6g","pricing_plan_id":"cebpf4jnsgd1na2vs0mg"},{"bike_id":"11478a6d-054f-463c-83ef-2f58f5c99442","system_id":"levelo_inurba_marseille","lat":43.30847,"lon":5.37179,"is_reserved":false,"is_disabled":false,"rental_uris":{"android":"levelo://app?vid=11478a6d-054f-463c-83ef-2f58f5c99442","ios":"levelo://app?vid=11478a6d-054f-463c-83ef-2f58f5c99442"},"vehicle_type_id":"4","last_reported":1779329545,"current_range_meters":3600,"station_id":"","pricing_plan_id":"cebpf4jnsgd1na2vs0mg"},{"bike_id":"47e75fc7-5e0f-4fd7-831f-8486114b27f3","system_id":"levelo_inurba_marseille","lat":43.28693,"lon":5.37386,"is_reserved":false,"is_disabled":true,"rental_uris":{"android":"levelo://app?vid=47e75fc7-5e0f-4fd7-831f-8486114b27f3","ios":"levelo://app?vid=47e75fc7-5e0f-4fd7-831f-8486114b27f3"},"vehicle_type_id":"4","last_reported":1779329545,"current_range_meters":3600,"station_id":"ce4bh3p2rcd13ifvqdq0","pricing_plan_id":"cebpf4jnsgd1na2vs0mg"},{"bike_id":"94133b29-971d-48eb-9475-ae0b64fbd116","system_id":"levelo_inurba_marseille","lat":43.28183,"lon":5.38151,"is_reserved":false,"is_disabled":false,"rental_uris":{"android":"levelo://app?vid=94133b29-971d-48eb-9475-ae0b64fbd116","ios":"levelo://app?vid=94133b29-971d-48eb-9475-ae0b64fbd116"},"vehicle_type_id":"4","last_reported":1779329545,"current_range_meters":3600,"station_id":"","pricing_plan_id":"cebpf4jnsgd1na2vs0mg"},{"bike_id":"a2009dae-a093-4569-9603-c96f59c9dcee","system_id":"levelo_inurba_marseille","lat":43.31368,"lon":5.38503,"is_reserved":false,"is_disabled":false,"rental_uris":{"android":"levelo://app?vid=a2009dae-a093-4569-9603-c96f59c9dcee","ios":"levelo://app?vid=a2009dae-a093-4569-9603-c96f59c9dcee"},"vehicle_type_id":"4","last_reported":1779329545,"current_range_meters":3600,"station_id":"ce4bgt92rcd13ifvqcf0","pricing_plan_id":"cebpf4jnsgd1na2vs0mg"},{"bike_id":"2bf74d5d-fa63-42ae-b32e-db63a3d0dfe5","system_id":"levelo_inurba_marseille","lat":43.25569,"lon":5.38227,"is_reserved":false,"is_disabled":false,"rental_uris":{"android":"levelo://app?vid=2bf74d5d-fa63-42ae-b32e-db63a3d0dfe5","ios":"levelo://app?vid=2bf74d5d-fa63-42ae-b32e-db63a3d0dfe5"},"vehicle_type_id":"4","last_reported":1779329545,"current_range_meters":3600,"station_id":"ce4bhih2rcd13ifvqfs0","pricing_plan_id":"cebpf4jnsgd1na2vs0mg"},{"bike_id":"b905ca94-3071-4f16-9ce5-d80026149c93","system_id":"levelo_inurba_marseille","lat":43.31711,"lon":5.43706,"is_reserved":false,"is_disabled":false,"rental_uris":{"android":"levelo://app?vid=b905ca94-3071-4f16-9ce5-d80026149c93","ios":"levelo://app?vid=b905ca94-3071-4f16-9ce5-d80026149c93"},"vehicle_type_id":"4","last_reported":1779329545,"current_range_meters":3600,"station_id":"ce4bhp92rcd13ifvqhcg","pricing_plan_id":"cebpf4jnsgd1na2vs0mg"},{"bike_id":"fbb9cd9a-eeff-47a7-a071-bf140227c01e","system_id":"levelo_inurba_marseille","lat":43.29567,"lon":5.42277,"is_reserved":false,"is_disabled":false,"rental_uris":{"android":"levelo://app?vid=fbb9cd9a-eeff-47a7-a071-bf140227c01e","ios":"levelo://app?vid=fbb9cd9a-eeff-47a7-a071-bf140227c01e"},"vehicle_type_id":"4","last_reported":1779329545,"current_range_meters":3600,"station_id":"ce4bhph2rcd13ifvqhdg","pricing_plan_id":"cebpf4jnsgd1na2vs0mg"},{"bike_id":"ff26a0ce-1300-4a14-824b-0d8ecc854269","system_id":"levelo_inurba_marseille","lat":43.24471,"lon":5.42557,"is_reserved":false,"is_disabled":false,"rental_uris":{"android":"levelo://app?vid=ff26a0ce-1300-4a14-824b-0d8ecc854269","ios":"levelo://app?vid=ff26a0ce-1300-4a14-824b-0d8ecc854269"},"vehicle_type_id":"4","last_reported":1779329545,"current_range_meters":3600,"station_id":"st_d4a3vfp97mjs738cd8kg","pricing_plan_id":"cebpf4jnsgd1na2vs0mg"},{"bike_id":"8254c16b-2709-467c-9f0c-f5d3dae1f566","system_id":"levelo_inurba_marseille","lat":43.31685,"lon":5.40446,"is_reserved":false,"is_disabled":false,"rental_uris":{"android":"levelo://app?vid=8254c16b-2709-467c-9f0c-f5d3dae1f566","ios":"levelo://app?vid=8254c16b-2709-467c-9f0c-f5d3dae1f566"},"vehicle_type_id":"4","last_reported":1779329545,"current_range_meters":3600,"station_id":"ce4bh012rcd13ifvqd00","pricing_plan_id":"cebpf4jnsgd1na2vs0mg"},{"bike_id":"46be8dd3-948b-467e-ad94-fd338307b9c7","system_id":"levelo_inurba_marseille","lat":43.29985,"lon":5.36742,"is_reserved":false,"is_disabled":false,"rental_uris":{"android":"levelo://app?vid=46be8dd3-948b-467e-ad94-fd338307b9c7","ios":"levelo://app?vid=46be8dd3-948b-467e-ad94-fd338307b9c7"},"vehicle_type_id":"4","last_reported":1779329545,"current_range_meters":3600,"station_id":"","pricing_plan_id":"cebpf4jnsgd1na2vs0mg"},{"bike_id":"9bbf8bad-9024-483e-8743-8079437f3821","system_id":"levelo_inurba_marseille","lat":43.29039,"lon":5.39998,"is_reserved":false,"is_disabled":false,"rental_uris":{"android":"levelo://app?vid=9bbf8bad-9024-483e-8743-8079437f3821","ios":"levelo://app?vid=9bbf8bad-9024-483e-8743-8079437f3821"},"vehicle_type_id":"4","last_reported":1779329545,"current_range_meters":3600,"station_id":"ce4bh392rcd13ifvqdm0","pricing_plan_id":"cebpf4jnsgd1na2vs0mg"},{"bike_id":"830fbec4-0a75-4e1e-a4d5-ab2e34d5b368","system_id":"levelo_inurba_marseille","lat":43.31229,"lon":5.36977,"is_reserved":false,"is_disabled":false,"rental_uris":{"android":"levelo://app?vid=830fbec4-0a75-4e1e-a4d5-ab2e34d5b368","ios":"levelo://app?vid=830fbec4-0a75-4e1e-a4d5-ab2e34d5b368"},"vehicle_type_id":"4","last_reported":1779329545,"current_range_meters":3600,"station_id":"","pricing_plan_id":"cebpf4jnsgd1na2vs0mg"},{"bike_id":"9941467d-088a-4cca-8f63-efa4a0d06d4f","system_id":"levelo_inurba_marseille","lat":43.21748,"lon":5.34598,"is_reserved":false,"is_disabled":false,"rental_uris":{"android":"levelo://app?vid=9941467d-088a-4cca-8f63-efa4a0d06d4f","ios":"levelo://app?vid=9941467d-088a-4cca-8f63-efa4a0d06d4f"},"vehicle_type_id":"4","last_reported":1779329545,"current_range_meters":3600,"station_id":"st_cvj6r9ubvosntc0bgbag","pricing_plan_id":"cebpf4jnsgd1na2vs0mg"},{"bike_id":"d3ff84ca-1a35-47b9-9971-176fd9813c99","system_id":"levelo_inurba_marseille","lat":43.28276,"lon":5.35071,"is_reserved":false,"is_disabled":true,"rental_uris":{"android":"levelo://app?vid=d3ff84ca-1a35-47b9-9971-176fd9813c99","ios":"levelo://app?vid=d3ff84ca-1a35-47b9-9971-176fd9813c99"},"vehicle_type_id":"4","last_reported":1779329545,"current_range_meters":4000,"station_id":"ce4bhbp2rcd13ifvqerg","pricing_plan_id":"cebpf4jnsgd1na2vs0mg"},{"bike_id":"3f42a6d9-721c-4045-81f8-56e377ee5c6e","system_id":"levelo_inurba_marseille","lat":43.26502,"lon":5.3954,"is_reserved":false,"is_disabled":true,"rental_uris":{"android":"levelo://app?vid=3f42a6d9-721c-4045-81f8-56e377ee5c6e","ios":"levelo://app?vid=3f42a6d9-721c-4045-81f8-56e377ee5c6e"},"vehicle_type_id":"4","last_reported":1779329545,"current_range_meters":4000,"station_id":"ce4bhi12rcd13ifvqfq0","pricing_plan_id":"cebpf4jnsgd1na2vs0mg"},{"bike_id":"78ee063a-5f1e-4634-b782-fad7e6ea49bb","system_id":"levelo_inurba_marseille","lat":43.28289,"lon":5.35078,"is_reserved":false,"is_disabled":true,"rental_uris":{"android":"levelo://app?vid=78ee063a-5f1e-4634-b782-fad7e6ea49bb","ios":"levelo://app?vid=78ee063a-5f1e-4634-b782-fad7e6ea49bb"},"vehicle_type_id":"4","last_reported":1779329545,"current_range_meters":4000,"station_id":"ce4bhbp2rcd13ifvqerg","pricing_plan_id":"cebpf4jnsgd1na2vs0mg"},{"bike_id":"13906fa3-7ad6-4abd-ab59-6fb3d01221a9","system_id":"levelo_inurba_marseille","lat":43.26196,"lon":5.37431,"is_reserved":false,"is_disabled":true,"rental_uris":{"android":"levelo://app?vid=13906fa3-7ad6-4abd-ab59-6fb3d01221a9","ios":"levelo://app?vid=13906fa3-7ad6-4abd-ab59-6fb3d01221a9"},"vehicle_type_id":"4","last_reported":1779329545,"current_range_meters":4000,"station_id":"ce4bhgp2rcd13ifvqfc0","pricing_plan_id":"cebpf4jnsgd1na2vs0mg"},{"bike_id":"b6dbcf2f-816d-438e-b35d-15b5289844e5","system_id":"levelo_inurba_marseille","lat":43.28404,"lon":5.37517,"is_reserved":false,"is_disabled":false,"rental_uris":{"android":"levelo://app?vid=b6dbcf2f-816d-438e-b35d-15b5289844e5","ios":"levelo://app?vid=b6dbcf2f-816d-438e-b35d-15b5289844e5"},"vehicle_type_id":"4","last_reported":1779329545,"current_range_meters":4000,"station_id":"ce4bh412rcd13ifvqds0","pricing_plan_id":"cebpf4jnsgd1na2vs0mg"},{"bike_id":"187681c3-3525-4629-a40f-e8b860c875cc","system_id":"levelo_inurba_marseille","lat":43.29568,"lon":5.39974,"is_reserved":false,"is_disabled":false,"rental_uris":{"android":"levelo://app?vid=187681c3-3525-4629-a40f-e8b860c875cc","ios":"levelo://app?vid=187681c3-3525-4629-a40f-e8b860c875cc"},"vehicle_type_id":"4","last_reported":1779329545,"current_range_meters":4000,"station_id":"ce4bh312rcd13ifvqdj0","pricing_plan_id":"cebpf4jnsgd1na2vs0mg"},{"bike_id":"00f8a525-f6c8-455f-bfa6-20d66cfcf0b5","system_id":"levelo_inurba_marseille","lat":43.25097,"lon":5.39514,"is_reserved":false,"is_disabled":false,"rental_uris":{"android":"levelo://app?vid=00f8a525-f6c8-455f-bfa6-20d66cfcf0b5","ios":"levelo://app?vid=00f8a525-f6c8-455f-bfa6-20d66cfcf0b5"},"vehicle_type_id":"4","last_reported":1779329545,"current_range_meters":4000,"station_id":"ce4bhm12rcd13ifvqgkg","pricing_plan_id":"cebpf4jnsgd1na2vs0mg"},{"bike_id":"65eb9ff9-15c9-4a56-bd3a-d3588f69bdf0","system_id":"levelo_inurba_marseille","lat":43.31868,"lon":5.40853,"is_reserved":false,"is_disabled":false,"rental_uris":{"android":"levelo://app?vid=65eb9ff9-15c9-4a56-bd3a-d3588f69bdf0","ios":"levelo://app?vid=65eb9ff9-15c9-4a56-bd3a-d3588f69bdf0"},"vehicle_type_id":"4","last_reported":1779329545,"current_range_meters":4000,"station_id":"","pricing_plan_id":"cebpf4jnsgd1na2vs0mg"},{"bike_id":"4d9ee6d9-5b9f-446e-ba40-dccb3a9755fd","system_id":"levelo_inurba_marseille","lat":43.24804,"lon":5.3746,"is_reserved":false,"is_disabled":true,"rental_uris":{"android":"levelo://app?vid=4d9ee6d9-5b9f-446e-ba40-dccb3a9755fd","ios":"levelo://app?vid=4d9ee6d9-5b9f-446e-ba40-dccb3a9755fd"},"vehicle_type_id":"4","last_reported":1779329545,"current_range_meters":4000,"station_id":"ce4bhgh2rcd13ifvqfb0","pricing_plan_id":"cebpf4jnsgd1na2vs0mg"},{"bike_id":"88b71783-5a76-45d7-95c1-e155059fa86a","system_id":"levelo_inurba_marseille","lat":43.28922,"lon":5.39636,"is_reserved":false,"is_disabled":false,"rental_uris":{"android":"levelo://app?vid=88b71783-5a76-45d7-95c1-e155059fa86a","ios":"levelo://app?vid=88b71783-5a76-45d7-95c1-e155059fa86a"},"vehicle_type_id":"4","last_reported":1779329545,"current_range_meters":4400,"station_id":"ce4bh3h2rcd13ifvqdn0","pricing_plan_id":"cebpf4jnsgd1na2vs0mg"},{"bike_id":"3a50c5a4-deb8-4283-a331-71ea6e0504a8","system_id":"levelo_inurba_marseille","lat":43.28529,"lon":5.44094,"is_reserved":false,"is_disabled":false,"rental_uris":{"android":"levelo://app?vid=3a50c5a4-deb8-4283-a331-71ea6e0504a8","ios":"levelo://app?vid=3a50c5a4-deb8-4283-a331-71ea6e0504a8"},"vehicle_type_id":"4","last_reported":1779329545,"current_range_meters":4400,"station_id":"st_d3j3df2ikq2c7380ej80","pricing_plan_id":"cebpf4jnsgd1na2vs0mg"},{"bike_id":"b240bfe0-1e21-463f-b8ba-29278f3af6a0","system_id":"levelo_inurba_marseille","lat":43.31113,"lon":5.37764,"is_reserved":false,"is_disabled":false,"rental_uris":{"android":"levelo://app?vid=b240bfe0-1e21-463f-b8ba-29278f3af6a0","ios":"levelo://app?vid=b240bfe0-1e21-463f-b8ba-29278f3af6a0"},"vehicle_type_id":"4","last_reported":1779329545,"current_range_meters":4400,"station_id":"ce4bgt92rcd13ifvqcg0","pricing_plan_id":"cebpf4jnsgd1na2vs0mg"},{"bike_id":"4341a76c-de83-439a-8ce3-4ff3f63ae155","system_id":"levelo_inurba_marseille","lat":43.28942,"lon":5.3662,"is_reserved":false,"is_disabled":false,"rental_uris":{"android":"levelo://app?vid=4341a76c-de83-439a-8ce3-4ff3f63ae155","ios":"levelo://app?vid=4341a76c-de83-439a-8ce3-4ff3f63ae155"},"vehicle_type_id":"4","last_reported":1779329545,"current_range_meters":4400,"station_id":"ce4bhap2rcd13ifvqek0","pricing_plan_id":"cebpf4jnsgd1na2vs0mg"},{"bike_id":"f6025abd-7600-48ca-a17a-986bf5349c82","system_id":"levelo_inurba_marseille","lat":43.25726,"lon":5.4112,"is_reserved":false,"is_disabled":false,"rental_uris":{"android":"levelo://app?vid=f6025abd-7600-48ca-a17a-986bf5349c82","ios":"levelo://app?vid=f6025abd-7600-48ca-a17a-986bf5349c82"},"vehicle_type_id":"4","last_reported":1779329545,"current_range_meters":4400,"station_id":"ce4bhkp2rcd13ifvqgd0","pricing_plan_id":"cebpf4jnsgd1na2vs0mg"},{"bike_id":"379e52e6-eb1f-48c0-a846-66d2aab55293","system_id":"levelo_inurba_marseille","lat":43.29363,"lon":5.3879,"is_reserved":false,"is_disabled":false,"rental_uris":{"android":"levelo://app?vid=379e52e6-eb1f-48c0-a846-66d2aab55293","ios":"levelo://app?vid=379e52e6-eb1f-48c0-a846-66d2aab55293"},"vehicle_type_id":"4","last_reported":1779329545,"current_range_meters":4400,"station_id":"","pricing_plan_id":"cebpf4jnsgd1na2vs0mg"},{"bike_id":"0b26ba4e-c846-41a0-958a-3b9baf746a49","system_id":"levelo_inurba_marseille","lat":43.23451,"lon":5.36559,"is_reserved":false,"is_disabled":false,"rental_uris":{"android":"levelo://app?vid=0b26ba4e-c846-41a0-958a-3b9baf746a49","ios":"levelo://app?vid=0b26ba4e-c846-41a0-958a-3b9baf746a49"},"vehicle_type_id":"4","last_reported":1779329545,"current_range_meters":4400,"station_id":"","pricing_plan_id":"cebpf4jnsgd1na2vs0mg"},{"bike_id":"6160ae8e-a0ef-40fb-a824-ac8b6555538f","system_id":"levelo_inurba_marseille","lat":43.26632,"lon":5.39003,"is_reserved":false,"is_disabled":false,"rental_uris":{"android":"levelo://app?vid=6160ae8e-a0ef-40fb-a824-ac8b6555538f","ios":"levelo://app?vid=6160ae8e-a0ef-40fb-a824-ac8b6555538f"},"vehicle_type_id":"4","last_reported":1779329545,"current_range_meters":4400,"station_id":"","pricing_plan_id":"cebpf4jnsgd1na2vs0mg"},{"bike_id":"bc3fe07f-ae95-42d2-91f0-d34745765c9e","system_id":"levelo_inurba_marseille","lat":43.24461,"lon":5.42538,"is_reserved":false,"is_disabled":false,"rental_uris":{"android":"levelo://app?vid=bc3fe07f-ae95-42d2-91f0-d34745765c9e","ios":"levelo://app?vid=bc3fe07f-ae95-42d2-91f0-d34745765c9e"},"vehicle_type_id":"4","last_reported":1779329545,"current_range_meters":4400,"station_id":"st_d4a3vfp97mjs738cd8kg","pricing_plan_id":"cebpf4jnsgd1na2vs0mg"},{"bike_id":"d8983a03-7068-468d-afba-9184bd0a9ec7","system_id":"levelo_inurba_marseille","lat":43.29873,"lon":5.38905,"is_reserved":false,"is_disabled":false,"rental_uris":{"android":"levelo://app?vid=d8983a03-7068-468d-afba-9184bd0a9ec7","ios":"levelo://app?vid=d8983a03-7068-468d-afba-9184bd0a9ec7"},"vehicle_type_id":"4","last_reported":1779329545,"current_range_meters":4400,"station_id":"ce4bh392rcd13ifvqdl0","pricing_plan_id":"cebpf4jnsgd1na2vs0mg"},{"bike_id":"c202bc15-6fd2-4b5b-b9f8-fe2a7981a9a0","system_id":"levelo_inurba_marseille","lat":43.23336,"lon":5.35896,"is_reserved":false,"is_disabled":false,"rental_uris":{"android":"levelo://app?vid=c202bc15-6fd2-4b5b-b9f8-fe2a7981a9a0","ios":"levelo://app?vid=c202bc15-6fd2-4b5b-b9f8-fe2a7981a9a0"},"vehicle_type_id":"4","last_reported":1779329545,"current_range_meters":4800,"station_id":"","pricing_plan_id":"cebpf4jnsgd1na2vs0mg"},{"bike_id":"ed0a2e31-3f52-4952-819a-710fa6677d96","system_id":"levelo_inurba_marseille","lat":43.28691,"lon":5.46686,"is_reserved":false,"is_disabled":false,"rental_uris":{"android":"levelo://app?vid=ed0a2e31-3f52-4952-819a-710fa6677d96","ios":"levelo://app?vid=ed0a2e31-3f52-4952-819a-710fa6677d96"},"vehicle_type_id":"4","last_reported":1779329545,"current_range_meters":4800,"station_id":"st_d6tc3vkotcvc738tfjhg","pricing_plan_id":"cebpf4jnsgd1na2vs0mg"},{"bike_id":"e4850232-cc78-4e9f-9019-c3172df3a0df","system_id":"levelo_inurba_marseille","lat":43.2883,"lon":5.38237,"is_reserved":false,"is_disabled":false,"rental_uris":{"android":"levelo://app?vid=e4850232-cc78-4e9f-9019-c3172df3a0df","ios":"levelo://app?vid=e4850232-cc78-4e9f-9019-c3172df3a0df"},"vehicle_type_id":"4","last_reported":1779329545,"current_range_meters":4800,"station_id":"","pricing_plan_id":"cebpf4jnsgd1na2vs0mg"},{"bike_id":"9610b6c1-4de4-4635-adca-70fccdbaf631","system_id":"levelo_inurba_marseille","lat":43.29513,"lon":5.38555,"is_reserved":false,"is_disabled":true,"rental_uris":{"android":"levelo://app?vid=9610b6c1-4de4-4635-adca-70fccdbaf631","ios":"levelo://app?vid=9610b6c1-4de4-4635-adca-70fccdbaf631"},"vehicle_type_id":"4","last_reported":1779329545,"current_range_meters":4800,"station_id":"ce4bgih2rcd13ifvqba0","pricing_plan_id":"cebpf4jnsgd1na2vs0mg"},{"bike_id":"390ee940-4c83-4081-8edb-bcfbb6c43117","system_id":"levelo_inurba_marseille","lat":43.31084,"lon":5.4244,"is_reserved":false,"is_disabled":false,"rental_uris":{"android":"levelo://app?vid=390ee940-4c83-4081-8edb-bcfbb6c43117","ios":"levelo://app?vid=390ee940-4c83-4081-8edb-bcfbb6c43117"},"vehicle_type_id":"4","last_reported":1779329545,"current_range_meters":4800,"station_id":"ce4bhp92rcd13ifvqhag","pricing_plan_id":"cebpf4jnsgd1na2vs0mg"},{"bike_id":"ab3d0653-ceb0-447c-b6ee-1608aa7ac29d","system_id":"levelo_inurba_marseille","lat":43.29187,"lon":5.46003,"is_reserved":false,"is_disabled":false,"rental_uris":{"android":"levelo://app?vid=ab3d0653-ceb0-447c-b6ee-1608aa7ac29d","ios":"levelo://app?vid=ab3d0653-ceb0-447c-b6ee-1608aa7ac29d"},"vehicle_type_id":"4","last_reported":1779329545,"current_range_meters":4800,"station_id":"","pricing_plan_id":"cebpf4jnsgd1na2vs0mg"},{"bike_id":"7e88b870-5ff2-4471-88fb-ab74e45d300b","system_id":"levelo_inurba_marseille","lat":43.27911,"lon":5.37994,"is_reserved":false,"is_disabled":false,"rental_uris":{"android":"levelo://app?vid=7e88b870-5ff2-4471-88fb-ab74e45d300b","ios":"levelo://app?vid=7e88b870-5ff2-4471-88fb-ab74e45d300b"},"vehicle_type_id":"4","last_reported":1779329545,"current_range_meters":4800,"station_id":"ce4bhf92rcd13ifvqf50","pricing_plan_id":"cebpf4jnsgd1na2vs0mg"},{"bike_id":"1945c429-a6b3-4afe-8b4e-c989148ef8b4","system_id":"levelo_inurba_marseille","lat":43.28618,"lon":5.37779,"is_reserved":false,"is_disabled":false,"rental_uris":{"android":"levelo://app?vid=1945c429-a6b3-4afe-8b4e-c989148ef8b4","ios":"levelo://app?vid=1945c429-a6b3-4afe-8b4e-c989148ef8b4"},"vehicle_type_id":"4","last_reported":1779329545,"current_range_meters":4800,"station_id":"","pricing_plan_id":"cebpf4jnsgd1na2vs0mg"},{"bike_id":"7f79f024-70ef-46fc-aaed-47c5192eeb69","system_id":"levelo_inurba_marseille","lat":43.28704,"lon":5.39971,"is_reserved":false,"is_disabled":false,"rental_uris":{"android":"levelo://app?vid=7f79f024-70ef-46fc-aaed-47c5192eeb69","ios":"levelo://app?vid=7f79f024-70ef-46fc-aaed-47c5192eeb69"},"vehicle_type_id":"4","last_reported":1779329545,"current_range_meters":5600,"station_id":"ce4bho92rcd13ifvqh3g","pricing_plan_id":"cebpf4jnsgd1na2vs0mg"},{"bike_id":"5b204f4b-b296-45d4-912e-16425feeb896","system_id":"levelo_inurba_marseille","lat":43.29799,"lon":5.40419,"is_reserved":false,"is_disabled":false,"rental_uris":{"android":"levelo://app?vid=5b204f4b-b296-45d4-912e-16425feeb896","ios":"levelo://app?vid=5b204f4b-b296-45d4-912e-16425feeb896"},"vehicle_type_id":"4","last_reported":1779329545,"current_range_meters":5600,"station_id":"ce4bh112rcd13ifvqd90","pricing_plan_id":"cebpf4jnsgd1na2vs0mg"},{"bike_id":"47c9cb97-371d-4e9f-9c20-83aba40029f7","system_id":"levelo_inurba_marseille","lat":43.225321,"lon":5.348338,"is_reserved":false,"is_disabled":false,"rental_uris":{"android":"levelo://app?vid=47c9cb97-371d-4e9f-9c20-83aba40029f7","ios":"levelo://app?vid=47c9cb97-371d-4e9f-9c20-83aba40029f7"},"vehicle_type_id":"4","last_reported":1779329545,"current_range_meters":5600,"station_id":"st_cvj5dfep6f1abm77gieg","pricing_plan_id":"cebpf4jnsgd1na2vs0mg"},{"bike_id":"cc4d7ae3-c5f7-4b04-bb34-9909f7f7970d","system_id":"levelo_inurba_marseille","lat":43.29254,"lon":5.4091,"is_reserved":false,"is_disabled":true,"rental_uris":{"android":"levelo://app?vid=cc4d7ae3-c5f7-4b04-bb34-9909f7f7970d","ios":"levelo://app?vid=cc4d7ae3-c5f7-4b04-bb34-9909f7f7970d"},"vehicle_type_id":"4","last_reported":1779329545,"current_range_meters":5600,"station_id":"ce4bh192rcd13ifvqdc0","pricing_plan_id":"cebpf4jnsgd1na2vs0mg"},{"bike_id":"05896f52-d0c6-479f-9af9-0dc1e43de6bd","system_id":"levelo_inurba_marseille","lat":43.28763,"lon":5.39932,"is_reserved":false,"is_disabled":false,"rental_uris":{"android":"levelo://app?vid=05896f52-d0c6-479f-9af9-0dc1e43de6bd","ios":"levelo://app?vid=05896f52-d0c6-479f-9af9-0dc1e43de6bd"},"vehicle_type_id":"4","last_reported":1779329545,"current_range_meters":5600,"station_id":"","pricing_plan_id":"cebpf4jnsgd1na2vs0mg"},{"bike_id":"291bce7d-95a9-4f5c-a2d8-de5b55889c52","system_id":"levelo_inurba_marseille","lat":43.3142,"lon":5.37391,"is_reserved":false,"is_disabled":false,"rental_uris":{"android":"levelo://app?vid=291bce7d-95a9-4f5c-a2d8-de5b55889c52","ios":"levelo://app?vid=291bce7d-95a9-4f5c-a2d8-de5b55889c52"},"vehicle_type_id":"4","last_reported":1779329545,"current_range_meters":5600,"station_id":"","pricing_plan_id":"cebpf4jnsgd1na2vs0mg"},{"bike_id":"da944e72-44c6-4bd2-9c1b-1671f752e12e","system_id":"levelo_inurba_marseille","lat":43.28422,"lon":5.34969,"is_reserved":false,"is_disabled":false,"rental_uris":{"android":"levelo://app?vid=da944e72-44c6-4bd2-9c1b-1671f752e12e","ios":"levelo://app?vid=da944e72-44c6-4bd2-9c1b-1671f752e12e"},"vehicle_type_id":"4","last_reported":1779329545,"current_range_meters":5600,"station_id":"ce4bhbh2rcd13ifvqepg","pricing_plan_id":"cebpf4jnsgd1na2vs0mg"},{"bike_id":"187bbf18-d8ae-4483-a996-a2dc6c8185d7","system_id":"levelo_inurba_marseille","lat":43.3033,"lon":5.39055,"is_reserved":false,"is_disabled":false,"rental_uris":{"android":"levelo://app?vid=187bbf18-d8ae-4483-a996-a2dc6c8185d7","ios":"levelo://app?vid=187bbf18-d8ae-4483-a996-a2dc6c8185d7"},"vehicle_type_id":"4","last_reported":1779329545,"current_range_meters":5600,"station_id":"","pricing_plan_id":"cebpf4jnsgd1na2vs0mg"},{"bike_id":"ab1b80a7-8642-4232-b72a-fa5cdf2c1795","system_id":"levelo_inurba_marseille","lat":43.27045,"lon":5.38313,"is_reserved":false,"is_disabled":false,"rental_uris":{"android":"levelo://app?vid=ab1b80a7-8642-4232-b72a-fa5cdf2c1795","ios":"levelo://app?vid=ab1b80a7-8642-4232-b72a-fa5cdf2c1795"},"vehicle_type_id":"4","last_reported":1779329545,"current_range_meters":5600,"station_id":"st_d3n2fo6cfp8s73cte1j0","pricing_plan_id":"cebpf4jnsgd1na2vs0mg"},{"bike_id":"6c41c42b-7b5f-405e-859d-62132869e9bb","system_id":"levelo_inurba_marseille","lat":43.28474,"lon":5.35871,"is_reserved":false,"is_disabled":false,"rental_uris":{"android":"levelo://app?vid=6c41c42b-7b5f-405e-859d-62132869e9bb","ios":"levelo://app?vid=6c41c42b-7b5f-405e-859d-62132869e9bb"},"vehicle_type_id":"4","last_reported":1779329545,"current_range_meters":5600,"station_id":"ce4bhah2rcd13ifvqei0","pricing_plan_id":"cebpf4jnsgd1na2vs0mg"},{"bike_id":"b694d5dc-8b9c-4f5d-b756-49983936d7ec","system_id":"levelo_inurba_marseille","lat":43.24059,"lon":5.37751,"is_reserved":false,"is_disabled":false,"rental_uris":{"android":"levelo://app?vid=b694d5dc-8b9c-4f5d-b756-49983936d7ec","ios":"levelo://app?vid=b694d5dc-8b9c-4f5d-b756-49983936d7ec"},"vehicle_type_id":"4","last_reported":1779329545,"current_range_meters":5600,"station_id":"ce4bhnp2rcd13ifvqgvg","pricing_plan_id":"cebpf4jnsgd1na2vs0mg"},{"bike_id":"2bf3b8cd-50c9-42f5-921e-c67d2f362780","system_id":"levelo_inurba_marseille","lat":43.28157,"lon":5.39041,"is_reserved":false,"is_disabled":false,"rental_uris":{"android":"levelo://app?vid=2bf3b8cd-50c9-42f5-921e-c67d2f362780","ios":"levelo://app?vid=2bf3b8cd-50c9-42f5-921e-c67d2f362780"},"vehicle_type_id":"4","last_reported":1779329545,"current_range_meters":5600,"station_id":"","pricing_plan_id":"cebpf4jnsgd1na2vs0mg"},{"bike_id":"e7b2834d-0414-4c8b-95bb-dbeba87a5cba","system_id":"levelo_inurba_marseille","lat":43.32936,"lon":5.38927,"is_reserved":false,"is_disabled":false,"rental_uris":{"android":"levelo://app?vid=e7b2834d-0414-4c8b-95bb-dbeba87a5cba","ios":"levelo://app?vid=e7b2834d-0414-4c8b-95bb-dbeba87a5cba"},"vehicle_type_id":"4","last_reported":1779329545,"current_range_meters":6000,"station_id":"","pricing_plan_id":"cebpf4jnsgd1na2vs0mg"},{"bike_id":"6e24a969-0f97-4d59-87fe-fb88bdf57d03","system_id":"levelo_inurba_marseille","lat":43.28371,"lon":5.38627,"is_reserved":false,"is_disabled":false,"rental_uris":{"android":"levelo://app?vid=6e24a969-0f97-4d59-87fe-fb88bdf57d03","ios":"levelo://app?vid=6e24a969-0f97-4d59-87fe-fb88bdf57d03"},"vehicle_type_id":"4","last_reported":1779329545,"current_range_meters":6000,"station_id":"ce4bh492rcd13ifvqdvg","pricing_plan_id":"cebpf4jnsgd1na2vs0mg"},{"bike_id":"b0f1837a-ba23-48f3-a7c9-fe91ecd3237b","system_id":"levelo_inurba_marseille","lat":43.26056,"lon":5.39414,"is_reserved":false,"is_disabled":false,"rental_uris":{"android":"levelo://app?vid=b0f1837a-ba23-48f3-a7c9-fe91ecd3237b","ios":"levelo://app?vid=b0f1837a-ba23-48f3-a7c9-fe91ecd3237b"},"vehicle_type_id":"4","last_reported":1779329545,"current_range_meters":6000,"station_id":"ce4bhh92rcd13ifvqfj0","pricing_plan_id":"cebpf4jnsgd1na2vs0mg"},{"bike_id":"971279ad-c3ba-4571-819f-fa9941bdb7dc","system_id":"levelo_inurba_marseille","lat":43.28525,"lon":5.44063,"is_reserved":false,"is_disabled":true,"rental_uris":{"android":"levelo://app?vid=971279ad-c3ba-4571-819f-fa9941bdb7dc","ios":"levelo://app?vid=971279ad-c3ba-4571-819f-fa9941bdb7dc"},"vehicle_type_id":"4","last_reported":1779329545,"current_range_meters":6000,"station_id":"st_d3j3df2ikq2c7380ej80","pricing_plan_id":"cebpf4jnsgd1na2vs0mg"},{"bike_id":"a3857048-92e2-4783-b165-372c66143a1f","system_id":"levelo_inurba_marseille","lat":43.28197,"lon":5.39074,"is_reserved":false,"is_disabled":false,"rental_uris":{"android":"levelo://app?vid=a3857048-92e2-4783-b165-372c66143a1f","ios":"levelo://app?vid=a3857048-92e2-4783-b165-372c66143a1f"},"vehicle_type_id":"4","last_reported":1779329545,"current_range_meters":6000,"station_id":"ce4bhn92rcd13ifvqgsg","pricing_plan_id":"cebpf4jnsgd1na2vs0mg"},{"bike_id":"7e7baf03-24b6-4996-8b95-34d4e5760aba","system_id":"levelo_inurba_marseille","lat":43.29018,"lon":5.38609,"is_reserved":false,"is_disabled":true,"rental_uris":{"android":"levelo://app?vid=7e7baf03-24b6-4996-8b95-34d4e5760aba","ios":"levelo://app?vid=7e7baf03-24b6-4996-8b95-34d4e5760aba"},"vehicle_type_id":"4","last_reported":1779329545,"current_range_meters":6000,"station_id":"ce4bh4p2rcd13ifvqe0g","pricing_plan_id":"cebpf4jnsgd1na2vs0mg"},{"bike_id":"5a017e23-5549-4350-a411-15d42f13ec7e","system_id":"levelo_inurba_marseille","lat":43.3136,"lon":5.38493,"is_reserved":false,"is_disabled":false,"rental_uris":{"android":"levelo://app?vid=5a017e23-5549-4350-a411-15d42f13ec7e","ios":"levelo://app?vid=5a017e23-5549-4350-a411-15d42f13ec7e"},"vehicle_type_id":"4","last_reported":1779329545,"current_range_meters":6000,"station_id":"ce4bgt92rcd13ifvqcf0","pricing_plan_id":"cebpf4jnsgd1na2vs0mg"},{"bike_id":"dcab00e4-b3bd-4572-b937-f215ffccae6a","system_id":"levelo_inurba_marseille","lat":43.2691,"lon":5.4031,"is_reserved":false,"is_disabled":false,"rental_uris":{"android":"levelo://app?vid=dcab00e4-b3bd-4572-b937-f215ffccae6a","ios":"levelo://app?vid=dcab00e4-b3bd-4572-b937-f215ffccae6a"},"vehicle_type_id":"4","last_reported":1779329545,"current_range_meters":6000,"station_id":"","pricing_plan_id":"cebpf4jnsgd1na2vs0mg"},{"bike_id":"edeb54d9-e15c-4660-97b0-f8179e706b40","system_id":"levelo_inurba_marseille","lat":43.28998,"lon":5.35596,"is_reserved":false,"is_disabled":true,"rental_uris":{"android":"levelo://app?vid=edeb54d9-e15c-4660-97b0-f8179e706b40","ios":"levelo://app?vid=edeb54d9-e15c-4660-97b0-f8179e706b40"},"vehicle_type_id":"4","last_reported":1779329545,"current_range_meters":6000,"station_id":"ce4bhb92rcd13ifvqen0","pricing_plan_id":"cebpf4jnsgd1na2vs0mg"},{"bike_id":"de315fc5-e4a4-4a3e-96eb-972d021c61d5","system_id":"levelo_inurba_marseille","lat":43.30317,"lon":5.39199,"is_reserved":false,"is_disabled":false,"rental_uris":{"android":"levelo://app?vid=de315fc5-e4a4-4a3e-96eb-972d021c61d5","ios":"levelo://app?vid=de315fc5-e4a4-4a3e-96eb-972d021c61d5"},"vehicle_type_id":"4","last_reported":1779329545,"current_range_meters":6400,"station_id":"ce4bgkh2rcd13ifvqbk0","pricing_plan_id":"cebpf4jnsgd1na2vs0mg"},{"bike_id":"c35d4196-671b-414f-ba54-6bcb597f3830","system_id":"levelo_inurba_marseille","lat":43.2891,"lon":5.38398,"is_reserved":false,"is_disabled":false,"rental_uris":{"android":"levelo://app?vid=c35d4196-671b-414f-ba54-6bcb597f3830","ios":"levelo://app?vid=c35d4196-671b-414f-ba54-6bcb597f3830"},"vehicle_type_id":"4","last_reported":1779329545,"current_range_meters":6400,"station_id":"ce4bh612rcd13ifvqe6g","pricing_plan_id":"cebpf4jnsgd1na2vs0mg"},{"bike_id":"931f0d4f-f79d-43bd-844d-c17a85f6359a","system_id":"levelo_inurba_marseille","lat":43.29045,"lon":5.39956,"is_reserved":false,"is_disabled":false,"rental_uris":{"android":"levelo://app?vid=931f0d4f-f79d-43bd-844d-c17a85f6359a","ios":"levelo://app?vid=931f0d4f-f79d-43bd-844d-c17a85f6359a"},"vehicle_type_id":"4","last_reported":1779329545,"current_range_meters":6400,"station_id":"ce4bh392rcd13ifvqdm0","pricing_plan_id":"cebpf4jnsgd1na2vs0mg"},{"bike_id":"6678e321-5389-4431-9c53-24777ba9d6de","system_id":"levelo_inurba_marseille","lat":43.29082,"lon":5.37135,"is_reserved":false,"is_disabled":false,"rental_uris":{"android":"levelo://app?vid=6678e321-5389-4431-9c53-24777ba9d6de","ios":"levelo://app?vid=6678e321-5389-4431-9c53-24777ba9d6de"},"vehicle_type_id":"4","last_reported":1779329545,"current_range_meters":6400,"station_id":"ce4bh5p2rcd13ifvqe4g","pricing_plan_id":"cebpf4jnsgd1na2vs0mg"},{"bike_id":"b6a287e1-8cbd-41f7-ad22-13bfaf641c30","system_id":"levelo_inurba_marseille","lat":43.28937,"lon":5.39635,"is_reserved":false,"is_disabled":false,"rental_uris":{"android":"levelo://app?vid=b6a287e1-8cbd-41f7-ad22-13bfaf641c30","ios":"levelo://app?vid=b6a287e1-8cbd-41f7-ad22-13bfaf641c30"},"vehicle_type_id":"4","last_reported":1779329545,"current_range_meters":6400,"station_id":"ce4bh3h2rcd13ifvqdn0","pricing_plan_id":"cebpf4jnsgd1na2vs0mg"},{"bike_id":"c5e693a5-5aee-4f2f-b3d3-ad6fe1a5da64","system_id":"levelo_inurba_marseille","lat":43.3246,"lon":5.36574,"is_reserved":false,"is_disabled":false,"rental_uris":{"android":"levelo://app?vid=c5e693a5-5aee-4f2f-b3d3-ad6fe1a5da64","ios":"levelo://app?vid=c5e693a5-5aee-4f2f-b3d3-ad6fe1a5da64"},"vehicle_type_id":"4","last_reported":1779329545,"current_range_meters":6400,"station_id":"ce4bhs12rcd13ifvqhvg","pricing_plan_id":"cebpf4jnsgd1na2vs0mg"},{"bike_id":"6e56ddd0-7524-400e-9ead-6aa874825d80","system_id":"levelo_inurba_marseille","lat":43.28225,"lon":5.39046,"is_reserved":false,"is_disabled":false,"rental_uris":{"android":"levelo://app?vid=6e56ddd0-7524-400e-9ead-6aa874825d80","ios":"levelo://app?vid=6e56ddd0-7524-400e-9ead-6aa874825d80"},"vehicle_type_id":"4","last_reported":1779329545,"current_range_meters":6400,"station_id":"ce4bhn92rcd13ifvqgsg","pricing_plan_id":"cebpf4jnsgd1na2vs0mg"},{"bike_id":"e38caa21-a14a-4197-88a1-db68aad57c56","system_id":"levelo_inurba_marseille","lat":43.28696,"lon":5.46679,"is_reserved":false,"is_disabled":false,"rental_uris":{"android":"levelo://app?vid=e38caa21-a14a-4197-88a1-db68aad57c56","ios":"levelo://app?vid=e38caa21-a14a-4197-88a1-db68aad57c56"},"vehicle_type_id":"4","last_reported":1779329545,"current_range_meters":6400,"station_id":"st_d6tc3vkotcvc738tfjhg","pricing_plan_id":"cebpf4jnsgd1na2vs0mg"},{"bike_id":"84048bdd-5ca2-4618-8dc7-44848538cd6f","system_id":"levelo_inurba_marseille","lat":43.25578,"lon":5.38235,"is_reserved":false,"is_disabled":false,"rental_uris":{"android":"levelo://app?vid=84048bdd-5ca2-4618-8dc7-44848538cd6f","ios":"levelo://app?vid=84048bdd-5ca2-4618-8dc7-44848538cd6f"},"vehicle_type_id":"4","last_reported":1779329545,"current_range_meters":6400,"station_id":"ce4bhih2rcd13ifvqfs0","pricing_plan_id":"cebpf4jnsgd1na2vs0mg"},{"bike_id":"a3071a58-220a-49d7-933f-639eaa20dffd","system_id":"levelo_inurba_marseille","lat":43.28729,"lon":5.42884,"is_reserved":false,"is_disabled":false,"rental_uris":{"android":"levelo://app?vid=a3071a58-220a-49d7-933f-639eaa20dffd","ios":"levelo://app?vid=a3071a58-220a-49d7-933f-639eaa20dffd"},"vehicle_type_id":"4","last_reported":1779329545,"current_range_meters":6400,"station_id":"","pricing_plan_id":"cebpf4jnsgd1na2vs0mg"},{"bike_id":"87615e51-7ea8-422f-91e5-4a862196b9d0","system_id":"levelo_inurba_marseille","lat":43.25342,"lon":5.42172,"is_reserved":false,"is_disabled":false,"rental_uris":{"android":"levelo://app?vid=87615e51-7ea8-422f-91e5-4a862196b9d0","ios":"levelo://app?vid=87615e51-7ea8-422f-91e5-4a862196b9d0"},"vehicle_type_id":"4","last_reported":1779329545,"current_range_meters":6400,"station_id":"st_d2m65c5bi1j21697t3ng","pricing_plan_id":"cebpf4jnsgd1na2vs0mg"},{"bike_id":"8f86defa-86b3-4703-86fc-36b92d95cb21","system_id":"levelo_inurba_marseille","lat":43.29782,"lon":5.39349,"is_reserved":false,"is_disabled":false,"rental_uris":{"android":"levelo://app?vid=8f86defa-86b3-4703-86fc-36b92d95cb21","ios":"levelo://app?vid=8f86defa-86b3-4703-86fc-36b92d95cb21"},"vehicle_type_id":"4","last_reported":1779329545,"current_range_meters":6400,"station_id":"chh1huq6cuj3fo74tm60","pricing_plan_id":"cebpf4jnsgd1na2vs0mg"},{"bike_id":"8abba8cb-6df7-4abd-9677-4ca572eb13e8","system_id":"levelo_inurba_marseille","lat":43.28955,"lon":5.39631,"is_reserved":false,"is_disabled":false,"rental_uris":{"android":"levelo://app?vid=8abba8cb-6df7-4abd-9677-4ca572eb13e8","ios":"levelo://app?vid=8abba8cb-6df7-4abd-9677-4ca572eb13e8"},"vehicle_type_id":"4","last_reported":1779329545,"current_range_meters":6400,"station_id":"ce4bh3h2rcd13ifvqdn0","pricing_plan_id":"cebpf4jnsgd1na2vs0mg"},{"bike_id":"1f4766e0-d0f9-4006-8a33-0254f7a213a4","system_id":"levelo_inurba_marseille","lat":43.33031,"lon":5.39037,"is_reserved":false,"is_disabled":false,"rental_uris":{"android":"levelo://app?vid=1f4766e0-d0f9-4006-8a33-0254f7a213a4","ios":"levelo://app?vid=1f4766e0-d0f9-4006-8a33-0254f7a213a4"},"vehicle_type_id":"4","last_reported":1779329545,"current_range_meters":6400,"station_id":"ce4bhr92rcd13ifvqhrg","pricing_plan_id":"cebpf4jnsgd1na2vs0mg"},{"bike_id":"c516a5ed-b3ae-497a-8fb4-e4a29969a0c7","system_id":"levelo_inurba_marseille","lat":43.29564,"lon":5.39973,"is_reserved":false,"is_disabled":true,"rental_uris":{"android":"levelo://app?vid=c516a5ed-b3ae-497a-8fb4-e4a29969a0c7","ios":"levelo://app?vid=c516a5ed-b3ae-497a-8fb4-e4a29969a0c7"},"vehicle_type_id":"4","last_reported":1779329545,"current_range_meters":6400,"station_id":"ce4bh312rcd13ifvqdj0","pricing_plan_id":"cebpf4jnsgd1na2vs0mg"},{"bike_id":"f866df32-1984-464f-b169-bf63661abae8","system_id":"levelo_inurba_marseille","lat":43.27203,"lon":5.40995,"is_reserved":false,"is_disabled":false,"rental_uris":{"android":"levelo://app?vid=f866df32-1984-464f-b169-bf63661abae8","ios":"levelo://app?vid=f866df32-1984-464f-b169-bf63661abae8"},"vehicle_type_id":"4","last_reported":1779329545,"current_range_meters":6400,"station_id":"ce4bhl12rcd13ifvqgf0","pricing_plan_id":"cebpf4jnsgd1na2vs0mg"},{"bike_id":"2ca7b8fb-98ca-45d4-80fb-36997f3b8947","system_id":"levelo_inurba_marseille","lat":43.26583,"lon":5.39041,"is_reserved":false,"is_disabled":false,"rental_uris":{"android":"levelo://app?vid=2ca7b8fb-98ca-45d4-80fb-36997f3b8947","ios":"levelo://app?vid=2ca7b8fb-98ca-45d4-80fb-36997f3b8947"},"vehicle_type_id":"4","last_reported":1779329545,"current_range_meters":6400,"station_id":"ce4bhe12rcd13ifvqf30","pricing_plan_id":"cebpf4jnsgd1na2vs0mg"},{"bike_id":"79d56ee1-af37-4aee-87cc-6ddfe877e584","system_id":"levelo_inurba_marseille","lat":43.27824,"lon":5.392,"is_reserved":false,"is_disabled":false,"rental_uris":{"android":"levelo://app?vid=79d56ee1-af37-4aee-87cc-6ddfe877e584","ios":"levelo://app?vid=79d56ee1-af37-4aee-87cc-6ddfe877e584"},"vehicle_type_id":"4","last_reported":1779329545,"current_range_meters":6400,"station_id":"ce4bhjp2rcd13ifvqga0","pricing_plan_id":"cebpf4jnsgd1na2vs0mg"},{"bike_id":"5d406f5e-299d-4f1d-8d07-1ec50de5b6e9","system_id":"levelo_inurba_marseille","lat":43.29772,"lon":5.39364,"is_reserved":false,"is_disabled":false,"rental_uris":{"android":"levelo://app?vid=5d406f5e-299d-4f1d-8d07-1ec50de5b6e9","ios":"levelo://app?vid=5d406f5e-299d-4f1d-8d07-1ec50de5b6e9"},"vehicle_type_id":"4","last_reported":1779329545,"current_range_meters":6400,"station_id":"chh1huq6cuj3fo74tm60","pricing_plan_id":"cebpf4jnsgd1na2vs0mg"},{"bike_id":"37d1eac1-3743-4b79-a265-2a16f0f4d90d","system_id":"levelo_inurba_marseille","lat":43.2958,"lon":5.37731,"is_reserved":false,"is_disabled":true,"rental_uris":{"android":"levelo://app?vid=37d1eac1-3743-4b79-a265-2a16f0f4d90d","ios":"levelo://app?vid=37d1eac1-3743-4b79-a265-2a16f0f4d90d"},"vehicle_type_id":"4","last_reported":1779329545,"current_range_meters":6800,"station_id":"","pricing_plan_id":"cebpf4jnsgd1na2vs0mg"},{"bike_id":"7975b169-5677-4dff-9b59-bed9c727a531","system_id":"levelo_inurba_marseille","lat":43.31104,"lon":5.3779,"is_reserved":false,"is_disabled":true,"rental_uris":{"android":"levelo://app?vid=7975b169-5677-4dff-9b59-bed9c727a531","ios":"levelo://app?vid=7975b169-5677-4dff-9b59-bed9c727a531"},"vehicle_type_id":"4","last_reported":1779329545,"current_range_meters":6800,"station_id":"ce4bgt92rcd13ifvqcg0","pricing_plan_id":"cebpf4jnsgd1na2vs0mg"},{"bike_id":"ef227ab8-b5b9-472b-b469-39a87d525ccb","system_id":"levelo_inurba_marseille","lat":43.28218,"lon":5.39059,"is_reserved":false,"is_disabled":false,"rental_uris":{"android":"levelo://app?vid=ef227ab8-b5b9-472b-b469-39a87d525ccb","ios":"levelo://app?vid=ef227ab8-b5b9-472b-b469-39a87d525ccb"},"vehicle_type_id":"4","last_reported":1779329545,"current_range_meters":6800,"station_id":"ce4bhn92rcd13ifvqgsg","pricing_plan_id":"cebpf4jnsgd1na2vs0mg"},{"bike_id":"9a3eac75-969b-461f-b69b-91cc2507b971","system_id":"levelo_inurba_marseille","lat":43.27981,"lon":5.38661,"is_reserved":false,"is_disabled":false,"rental_uris":{"android":"levelo://app?vid=9a3eac75-969b-461f-b69b-91cc2507b971","ios":"levelo://app?vid=9a3eac75-969b-461f-b69b-91cc2507b971"},"vehicle_type_id":"4","last_reported":1779329545,"current_range_meters":6800,"station_id":"ce4bhg12rcd13ifvqf80","pricing_plan_id":"cebpf4jnsgd1na2vs0mg"},{"bike_id":"f21198b3-cc38-4d1d-876e-83ff3a9c5575","system_id":"levelo_inurba_marseille","lat":43.29187,"lon":5.39323,"is_reserved":false,"is_disabled":false,"rental_uris":{"android":"levelo://app?vid=f21198b3-cc38-4d1d-876e-83ff3a9c5575","ios":"levelo://app?vid=f21198b3-cc38-4d1d-876e-83ff3a9c5575"},"vehicle_type_id":"4","last_reported":1779329545,"current_range_meters":6800,"station_id":"ce4bh192rcd13ifvqdd0","pricing_plan_id":"cebpf4jnsgd1na2vs0mg"},{"bike_id":"63e853a5-551d-4d65-8a47-9c51160382e9","system_id":"levelo_inurba_marseille","lat":43.29573,"lon":5.39968,"is_reserved":false,"is_disabled":false,"rental_uris":{"android":"levelo://app?vid=63e853a5-551d-4d65-8a47-9c51160382e9","ios":"levelo://app?vid=63e853a5-551d-4d65-8a47-9c51160382e9"},"vehicle_type_id":"4","last_reported":1779329545,"current_range_meters":6800,"station_id":"ce4bh312rcd13ifvqdj0","pricing_plan_id":"cebpf4jnsgd1na2vs0mg"},{"bike_id":"381a1687-3b4c-4e43-ada7-0b296f458493","system_id":"levelo_inurba_marseille","lat":43.28754,"lon":5.46696,"is_reserved":false,"is_disabled":false,"rental_uris":{"android":"levelo://app?vid=381a1687-3b4c-4e43-ada7-0b296f458493","ios":"levelo://app?vid=381a1687-3b4c-4e43-ada7-0b296f458493"},"vehicle_type_id":"4","last_reported":1779329545,"current_range_meters":6800,"station_id":"","pricing_plan_id":"cebpf4jnsgd1na2vs0mg"},{"bike_id":"2da5e8c9-6a64-4da8-ae03-132afb90fbb2","system_id":"levelo_inurba_marseille","lat":43.28612,"lon":5.3989,"is_reserved":false,"is_disabled":false,"rental_uris":{"android":"levelo://app?vid=2da5e8c9-6a64-4da8-ae03-132afb90fbb2","ios":"levelo://app?vid=2da5e8c9-6a64-4da8-ae03-132afb90fbb2"},"vehicle_type_id":"4","last_reported":1779329545,"current_range_meters":6800,"station_id":"st_d4a7ka997mjs738ck50g","pricing_plan_id":"cebpf4jnsgd1na2vs0mg"},{"bike_id":"29d3f4a8-eb87-48d7-9078-200ee5029180","system_id":"levelo_inurba_marseille","lat":43.2923,"lon":5.36058,"is_reserved":false,"is_disabled":false,"rental_uris":{"android":"levelo://app?vid=29d3f4a8-eb87-48d7-9078-200ee5029180","ios":"levelo://app?vid=29d3f4a8-eb87-48d7-9078-200ee5029180"},"vehicle_type_id":"4","last_reported":1779329545,"current_range_meters":6800,"station_id":"ce4bhbh2rcd13ifvqeqg","pricing_plan_id":"cebpf4jnsgd1na2vs0mg"},{"bike_id":"b8cb0ca9-b67d-49fe-825f-c0bcf70ec713","system_id":"levelo_inurba_marseille","lat":43.28609,"lon":5.39175,"is_reserved":false,"is_disabled":false,"rental_uris":{"android":"levelo://app?vid=b8cb0ca9-b67d-49fe-825f-c0bcf70ec713","ios":"levelo://app?vid=b8cb0ca9-b67d-49fe-825f-c0bcf70ec713"},"vehicle_type_id":"4","last_reported":1779329545,"current_range_meters":6800,"station_id":"","pricing_plan_id":"cebpf4jnsgd1na2vs0mg"},{"bike_id":"e74cc65c-76f1-42c6-85ab-a981a73da68b","system_id":"levelo_inurba_marseille","lat":43.22581,"lon":5.41614,"is_reserved":false,"is_disabled":false,"rental_uris":{"android":"levelo://app?vid=e74cc65c-76f1-42c6-85ab-a981a73da68b","ios":"levelo://app?vid=e74cc65c-76f1-42c6-85ab-a981a73da68b"},"vehicle_type_id":"4","last_reported":1779329545,"current_range_meters":6800,"station_id":"st_d2o4gvlbi1j2169b742g","pricing_plan_id":"cebpf4jnsgd1na2vs0mg"},{"bike_id":"5a938283-bd97-4afe-bccf-5238cbf0c1ba","system_id":"levelo_inurba_marseille","lat":43.30403,"lon":5.39769,"is_reserved":false,"is_disabled":false,"rental_uris":{"android":"levelo://app?vid=5a938283-bd97-4afe-bccf-5238cbf0c1ba","ios":"levelo://app?vid=5a938283-bd97-4afe-bccf-5238cbf0c1ba"},"vehicle_type_id":"4","last_reported":1779329545,"current_range_meters":6800,"station_id":"ce4bh092rcd13ifvqd20","pricing_plan_id":"cebpf4jnsgd1na2vs0mg"},{"bike_id":"4581f6a7-79e9-44cd-b96e-06f3561662b8","system_id":"levelo_inurba_marseille","lat":43.22537,"lon":5.34825,"is_reserved":false,"is_disabled":false,"rental_uris":{"android":"levelo://app?vid=4581f6a7-79e9-44cd-b96e-06f3561662b8","ios":"levelo://app?vid=4581f6a7-79e9-44cd-b96e-06f3561662b8"},"vehicle_type_id":"4","last_reported":1779329545,"current_range_meters":6800,"station_id":"st_cvj5dfep6f1abm77gieg","pricing_plan_id":"cebpf4jnsgd1na2vs0mg"},{"bike_id":"8da072d2-bc69-4669-b8a2-c4b323a5ccfa","system_id":"levelo_inurba_marseille","lat":43.28427,"lon":5.37507,"is_reserved":false,"is_disabled":true,"rental_uris":{"android":"levelo://app?vid=8da072d2-bc69-4669-b8a2-c4b323a5ccfa","ios":"levelo://app?vid=8da072d2-bc69-4669-b8a2-c4b323a5ccfa"},"vehicle_type_id":"4","last_reported":1779329545,"current_range_meters":6800,"station_id":"ce4bh412rcd13ifvqds0","pricing_plan_id":"cebpf4jnsgd1na2vs0mg"},{"bike_id":"76d9f01a-7981-4ce9-bf0b-7ca3e26a009c","system_id":"levelo_inurba_marseille","lat":43.28976,"lon":5.37787,"is_reserved":false,"is_disabled":true,"rental_uris":{"android":"levelo://app?vid=76d9f01a-7981-4ce9-bf0b-7ca3e26a009c","ios":"levelo://app?vid=76d9f01a-7981-4ce9-bf0b-7ca3e26a009c"},"vehicle_type_id":"4","last_reported":1779329545,"current_range_meters":6800,"station_id":"ce4bh9p2rcd13ifvqed0","pricing_plan_id":"cebpf4jnsgd1na2vs0mg"},{"bike_id":"fb094e4b-6baa-4308-836f-97eb7d995621","system_id":"levelo_inurba_marseille","lat":43.26066,"lon":5.39401,"is_reserved":false,"is_disabled":false,"rental_uris":{"android":"levelo://app?vid=fb094e4b-6baa-4308-836f-97eb7d995621","ios":"levelo://app?vid=fb094e4b-6baa-4308-836f-97eb7d995621"},"vehicle_type_id":"4","last_reported":1779329545,"current_range_meters":6800,"station_id":"ce4bhh92rcd13ifvqfj0","pricing_plan_id":"cebpf4jnsgd1na2vs0mg"},{"bike_id":"505cb8b6-4a87-4b72-8a1d-8920a90ddb30","system_id":"levelo_inurba_marseille","lat":43.30095,"lon":5.39081,"is_reserved":false,"is_disabled":false,"rental_uris":{"android":"levelo://app?vid=505cb8b6-4a87-4b72-8a1d-8920a90ddb30","ios":"levelo://app?vid=505cb8b6-4a87-4b72-8a1d-8920a90ddb30"},"vehicle_type_id":"4","last_reported":1779329545,"current_range_meters":6800,"station_id":"ce4bh192rcd13ifvqdb0","pricing_plan_id":"cebpf4jnsgd1na2vs0mg"},{"bike_id":"b2ac17fc-31c8-416b-a10d-cb0288895cf6","system_id":"levelo_inurba_marseille","lat":43.24078,"lon":5.37755,"is_reserved":false,"is_disabled":false,"rental_uris":{"android":"levelo://app?vid=b2ac17fc-31c8-416b-a10d-cb0288895cf6","ios":"levelo://app?vid=b2ac17fc-31c8-416b-a10d-cb0288895cf6"},"vehicle_type_id":"4","last_reported":1779329545,"current_range_meters":7200,"station_id":"ce4bhnp2rcd13ifvqgvg","pricing_plan_id":"cebpf4jnsgd1na2vs0mg"},{"bike_id":"cdea3a3f-ad21-4609-8ff7-db1e94c68a25","system_id":"levelo_inurba_marseille","lat":43.21744,"lon":5.34603,"is_reserved":false,"is_disabled":false,"rental_uris":{"android":"levelo://app?vid=cdea3a3f-ad21-4609-8ff7-db1e94c68a25","ios":"levelo://app?vid=cdea3a3f-ad21-4609-8ff7-db1e94c68a25"},"vehicle_type_id":"4","last_reported":1779329545,"current_range_meters":7200,"station_id":"st_cvj6r9ubvosntc0bgbag","pricing_plan_id":"cebpf4jnsgd1na2vs0mg"},{"bike_id":"3a636bf3-84e4-4339-9994-403a1263860e","system_id":"levelo_inurba_marseille","lat":43.27853,"lon":5.39201,"is_reserved":false,"is_disabled":false,"rental_uris":{"android":"levelo://app?vid=3a636bf3-84e4-4339-9994-403a1263860e","ios":"levelo://app?vid=3a636bf3-84e4-4339-9994-403a1263860e"},"vehicle_type_id":"4","last_reported":1779329545,"current_range_meters":7200,"station_id":"ce4bhjp2rcd13ifvqga0","pricing_plan_id":"cebpf4jnsgd1na2vs0mg"},{"bike_id":"eb0f425e-4651-461b-803b-54eec489b7e8","system_id":"levelo_inurba_marseille","lat":43.24476,"lon":5.4254,"is_reserved":false,"is_disabled":false,"rental_uris":{"android":"levelo://app?vid=eb0f425e-4651-461b-803b-54eec489b7e8","ios":"levelo://app?vid=eb0f425e-4651-461b-803b-54eec489b7e8"},"vehicle_type_id":"4","last_reported":1779329545,"current_range_meters":7200,"station_id":"st_d4a3vfp97mjs738cd8kg","pricing_plan_id":"cebpf4jnsgd1na2vs0mg"},{"bike_id":"0d3ea755-0ef1-4203-bc47-c7bdcb0fa6dd","system_id":"levelo_inurba_marseille","lat":43.30416,"lon":5.38886,"is_reserved":false,"is_disabled":false,"rental_uris":{"android":"levelo://app?vid=0d3ea755-0ef1-4203-bc47-c7bdcb0fa6dd","ios":"levelo://app?vid=0d3ea755-0ef1-4203-bc47-c7bdcb0fa6dd"},"vehicle_type_id":"4","last_reported":1779329545,"current_range_meters":7200,"station_id":"ce4bgk12rcd13ifvqbi0","pricing_plan_id":"cebpf4jnsgd1na2vs0mg"},{"bike_id":"282c9669-7dad-469f-b087-8dbbc861bbc4","system_id":"levelo_inurba_marseille","lat":43.274223,"lon":5.394069,"is_reserved":false,"is_disabled":true,"rental_uris":{"android":"levelo://app?vid=282c9669-7dad-469f-b087-8dbbc861bbc4","ios":"levelo://app?vid=282c9669-7dad-469f-b087-8dbbc861bbc4"},"vehicle_type_id":"4","last_reported":1779329545,"current_range_meters":7200,"station_id":"ce4bhdp2rcd13ifvqf20","pricing_plan_id":"cebpf4jnsgd1na2vs0mg"},{"bike_id":"4e3abe44-81b8-4d22-8fa4-d176f590145e","system_id":"levelo_inurba_marseille","lat":43.28101,"lon":5.37846,"is_reserved":false,"is_disabled":false,"rental_uris":{"android":"levelo://app?vid=4e3abe44-81b8-4d22-8fa4-d176f590145e","ios":"levelo://app?vid=4e3abe44-81b8-4d22-8fa4-d176f590145e"},"vehicle_type_id":"4","last_reported":1779329545,"current_range_meters":7200,"station_id":"ce4bha12rcd13ifvqee0","pricing_plan_id":"cebpf4jnsgd1na2vs0mg"},{"bike_id":"b54a0860-ff04-4417-9804-a7525879c950","system_id":"levelo_inurba_marseille","lat":43.29494,"lon":5.37512,"is_reserved":false,"is_disabled":false,"rental_uris":{"android":"levelo://app?vid=b54a0860-ff04-4417-9804-a7525879c950","ios":"levelo://app?vid=b54a0860-ff04-4417-9804-a7525879c950"},"vehicle_type_id":"4","last_reported":1779329545,"current_range_meters":7200,"station_id":"ce4bgkp2rcd13ifvqbmg","pricing_plan_id":"cebpf4jnsgd1na2vs0mg"},{"bike_id":"86a0fb52-613b-4a6c-942d-1abbde400b19","system_id":"levelo_inurba_marseille","lat":43.28409,"lon":5.34982,"is_reserved":false,"is_disabled":true,"rental_uris":{"android":"levelo://app?vid=86a0fb52-613b-4a6c-942d-1abbde400b19","ios":"levelo://app?vid=86a0fb52-613b-4a6c-942d-1abbde400b19"},"vehicle_type_id":"4","last_reported":1779329545,"current_range_meters":7200,"station_id":"ce4bhbh2rcd13ifvqepg","pricing_plan_id":"cebpf4jnsgd1na2vs0mg"},{"bike_id":"288fc1d2-5993-46ec-aa53-7b60753a5fb4","system_id":"levelo_inurba_marseille","lat":43.31258,"lon":5.36878,"is_reserved":false,"is_disabled":false,"rental_uris":{"android":"levelo://app?vid=288fc1d2-5993-46ec-aa53-7b60753a5fb4","ios":"levelo://app?vid=288fc1d2-5993-46ec-aa53-7b60753a5fb4"},"vehicle_type_id":"4","last_reported":1779329545,"current_range_meters":7200,"station_id":"ce4bgl92rcd13ifvqbq0","pricing_plan_id":"cebpf4jnsgd1na2vs0mg"},{"bike_id":"b9c60d60-4264-40e8-a508-f1be55518834","system_id":"levelo_inurba_marseille","lat":43.28477,"lon":5.38395,"is_reserved":false,"is_disabled":false,"rental_uris":{"android":"levelo://app?vid=b9c60d60-4264-40e8-a508-f1be55518834","ios":"levelo://app?vid=b9c60d60-4264-40e8-a508-f1be55518834"},"vehicle_type_id":"4","last_reported":1779329545,"current_range_meters":7200,"station_id":"ce4bh512rcd13ifvqe3g","pricing_plan_id":"cebpf4jnsgd1na2vs0mg"},{"bike_id":"574f98ab-1f57-456e-a741-64ec8fa6c3b2","system_id":"levelo_inurba_marseille","lat":43.29262,"lon":5.38422,"is_reserved":false,"is_disabled":true,"rental_uris":{"android":"levelo://app?vid=574f98ab-1f57-456e-a741-64ec8fa6c3b2","ios":"levelo://app?vid=574f98ab-1f57-456e-a741-64ec8fa6c3b2"},"vehicle_type_id":"4","last_reported":1779329545,"current_range_meters":7200,"station_id":"ce4bh692rcd13ifvqea0","pricing_plan_id":"cebpf4jnsgd1na2vs0mg"},{"bike_id":"3096f3f7-7fc7-4228-b175-4b649f17f6c1","system_id":"levelo_inurba_marseille","lat":43.27995,"lon":5.41663,"is_reserved":false,"is_disabled":false,"rental_uris":{"android":"levelo://app?vid=3096f3f7-7fc7-4228-b175-4b649f17f6c1","ios":"levelo://app?vid=3096f3f7-7fc7-4228-b175-4b649f17f6c1"},"vehicle_type_id":"4","last_reported":1779329545,"current_range_meters":7200,"station_id":"ce4bho12rcd13ifvqh1g","pricing_plan_id":"cebpf4jnsgd1na2vs0mg"},{"bike_id":"c4c0f517-52f8-4166-8401-8fad6ca72234","system_id":"levelo_inurba_marseille","lat":43.28075,"lon":5.39674,"is_reserved":false,"is_disabled":false,"rental_uris":{"android":"levelo://app?vid=c4c0f517-52f8-4166-8401-8fad6ca72234","ios":"levelo://app?vid=c4c0f517-52f8-4166-8401-8fad6ca72234"},"vehicle_type_id":"4","last_reported":1779329545,"current_range_meters":7200,"station_id":"ce4bho12rcd13ifvqh2g","pricing_plan_id":"cebpf4jnsgd1na2vs0mg"},{"bike_id":"85aa7030-1d2d-4efc-851d-09155d499f3c","system_id":"levelo_inurba_marseille","lat":43.32078,"lon":5.41821,"is_reserved":false,"is_disabled":false,"rental_uris":{"android":"levelo://app?vid=85aa7030-1d2d-4efc-851d-09155d499f3c","ios":"levelo://app?vid=85aa7030-1d2d-4efc-851d-09155d499f3c"},"vehicle_type_id":"4","last_reported":1779329545,"current_range_meters":7200,"station_id":"","pricing_plan_id":"cebpf4jnsgd1na2vs0mg"},{"bike_id":"d68a936e-9daf-43f0-a68d-31a43f79d6b4","system_id":"levelo_inurba_marseille","lat":43.28453,"lon":5.35866,"is_reserved":false,"is_disabled":false,"rental_uris":{"android":"levelo://app?vid=d68a936e-9daf-43f0-a68d-31a43f79d6b4","ios":"levelo://app?vid=d68a936e-9daf-43f0-a68d-31a43f79d6b4"},"vehicle_type_id":"4","last_reported":1779329545,"current_range_meters":7200,"station_id":"ce4bhah2rcd13ifvqei0","pricing_plan_id":"cebpf4jnsgd1na2vs0mg"},{"bike_id":"b4bb4584-80e7-4195-a68c-70dd91a63a57","system_id":"levelo_inurba_marseille","lat":43.26194,"lon":5.37431,"is_reserved":false,"is_disabled":false,"rental_uris":{"android":"levelo://app?vid=b4bb4584-80e7-4195-a68c-70dd91a63a57","ios":"levelo://app?vid=b4bb4584-80e7-4195-a68c-70dd91a63a57"},"vehicle_type_id":"4","last_reported":1779329545,"current_range_meters":7200,"station_id":"ce4bhgp2rcd13ifvqfc0","pricing_plan_id":"cebpf4jnsgd1na2vs0mg"},{"bike_id":"5b2a581a-ec1c-4cbe-ba39-04ebd8922ba0","system_id":"levelo_inurba_marseille","lat":43.28368,"lon":5.40273,"is_reserved":false,"is_disabled":false,"rental_uris":{"android":"levelo://app?vid=5b2a581a-ec1c-4cbe-ba39-04ebd8922ba0","ios":"levelo://app?vid=5b2a581a-ec1c-4cbe-ba39-04ebd8922ba0"},"vehicle_type_id":"4","last_reported":1779329545,"current_range_meters":7200,"station_id":"","pricing_plan_id":"cebpf4jnsgd1na2vs0mg"},{"bike_id":"8c39b6dd-b754-48e2-823c-6f28d51803e0","system_id":"levelo_inurba_marseille","lat":43.29295,"lon":5.39828,"is_reserved":false,"is_disabled":false,"rental_uris":{"android":"levelo://app?vid=8c39b6dd-b754-48e2-823c-6f28d51803e0","ios":"levelo://app?vid=8c39b6dd-b754-48e2-823c-6f28d51803e0"},"vehicle_type_id":"4","last_reported":1779329545,"current_range_meters":7200,"station_id":"","pricing_plan_id":"cebpf4jnsgd1na2vs0mg"},{"bike_id":"e197dbb7-26cc-4236-b2f8-6618940fae9e","system_id":"levelo_inurba_marseille","lat":43.29001,"lon":5.35579,"is_reserved":false,"is_disabled":true,"rental_uris":{"android":"levelo://app?vid=e197dbb7-26cc-4236-b2f8-6618940fae9e","ios":"levelo://app?vid=e197dbb7-26cc-4236-b2f8-6618940fae9e"},"vehicle_type_id":"4","last_reported":1779329545,"current_range_meters":7200,"station_id":"ce4bhb92rcd13ifvqen0","pricing_plan_id":"cebpf4jnsgd1na2vs0mg"},{"bike_id":"f700b1da-af38-4d5f-ad87-e4d046ffd9a3","system_id":"levelo_inurba_marseille","lat":43.24064,"lon":5.37764,"is_reserved":false,"is_disabled":false,"rental_uris":{"android":"levelo://app?vid=f700b1da-af38-4d5f-ad87-e4d046ffd9a3","ios":"levelo://app?vid=f700b1da-af38-4d5f-ad87-e4d046ffd9a3"},"vehicle_type_id":"4","last_reported":1779329545,"current_range_meters":7200,"station_id":"ce4bhnp2rcd13ifvqgvg","pricing_plan_id":"cebpf4jnsgd1na2vs0mg"},{"bike_id":"b3c58742-0569-4988-8f74-9982023b97a6","system_id":"levelo_inurba_marseille","lat":43.31896,"lon":5.36794,"is_reserved":false,"is_disabled":false,"rental_uris":{"android":"levelo://app?vid=b3c58742-0569-4988-8f74-9982023b97a6","ios":"levelo://app?vid=b3c58742-0569-4988-8f74-9982023b97a6"},"vehicle_type_id":"4","last_reported":1779329545,"current_range_meters":8000,"station_id":"st_d6o2h0d0559c73evc1b0","pricing_plan_id":"cebpf4jnsgd1na2vs0mg"},{"bike_id":"90909669-7a43-46e5-9a32-45c9f9a499f8","system_id":"levelo_inurba_marseille","lat":43.30133,"lon":5.39851,"is_reserved":false,"is_disabled":false,"rental_uris":{"android":"levelo://app?vid=90909669-7a43-46e5-9a32-45c9f9a499f8","ios":"levelo://app?vid=90909669-7a43-46e5-9a32-45c9f9a499f8"},"vehicle_type_id":"4","last_reported":1779329545,"current_range_meters":8000,"station_id":"ce4bh0h2rcd13ifvqd40","pricing_plan_id":"cebpf4jnsgd1na2vs0mg"},{"bike_id":"41d55f64-564a-478e-9515-bd2146133ca8","system_id":"levelo_inurba_marseille","lat":43.28617,"lon":5.39878,"is_reserved":false,"is_disabled":false,"rental_uris":{"android":"levelo://app?vid=41d55f64-564a-478e-9515-bd2146133ca8","ios":"levelo://app?vid=41d55f64-564a-478e-9515-bd2146133ca8"},"vehicle_type_id":"4","last_reported":1779329545,"current_range_meters":8000,"station_id":"st_d4a7ka997mjs738ck50g","pricing_plan_id":"cebpf4jnsgd1na2vs0mg"},{"bike_id":"94c49980-82e9-40c1-8742-79af726fe66b","system_id":"levelo_inurba_marseille","lat":43.29877,"lon":5.42092,"is_reserved":false,"is_disabled":false,"rental_uris":{"android":"levelo://app?vid=94c49980-82e9-40c1-8742-79af726fe66b","ios":"levelo://app?vid=94c49980-82e9-40c1-8742-79af726fe66b"},"vehicle_type_id":"4","last_reported":1779329545,"current_range_meters":8000,"station_id":"st_d6tc004otcvc738tfe70","pricing_plan_id":"cebpf4jnsgd1na2vs0mg"},{"bike_id":"dd5bca8d-4a0a-4bc1-8cec-b991e57c6089","system_id":"levelo_inurba_marseille","lat":43.24165,"lon":5.36384,"is_reserved":false,"is_disabled":false,"rental_uris":{"android":"levelo://app?vid=dd5bca8d-4a0a-4bc1-8cec-b991e57c6089","ios":"levelo://app?vid=dd5bca8d-4a0a-4bc1-8cec-b991e57c6089"},"vehicle_type_id":"4","last_reported":1779329545,"current_range_meters":8000,"station_id":"cpo36qri1sfpv3e86is0","pricing_plan_id":"cebpf4jnsgd1na2vs0mg"},{"bike_id":"2c5c64bf-711f-4bd8-992c-6aa244c03a61","system_id":"levelo_inurba_marseille","lat":43.2959,"lon":5.38113,"is_reserved":false,"is_disabled":true,"rental_uris":{"android":"levelo://app?vid=2c5c64bf-711f-4bd8-992c-6aa244c03a61","ios":"levelo://app?vid=2c5c64bf-711f-4bd8-992c-6aa244c03a61"},"vehicle_type_id":"4","last_reported":1779329545,"current_range_meters":8000,"station_id":"ce4bgl12rcd13ifvqbo0","pricing_plan_id":"cebpf4jnsgd1na2vs0mg"},{"bike_id":"a7663cb0-bdf2-4f00-9897-79ffa21a4db5","system_id":"levelo_inurba_marseille","lat":43.29528,"lon":5.39042,"is_reserved":false,"is_disabled":false,"rental_uris":{"android":"levelo://app?vid=a7663cb0-bdf2-4f00-9897-79ffa21a4db5","ios":"levelo://app?vid=a7663cb0-bdf2-4f00-9897-79ffa21a4db5"},"vehicle_type_id":"4","last_reported":1779329545,"current_range_meters":8000,"station_id":"ce4bh3p2rcd13ifvqdp0","pricing_plan_id":"cebpf4jnsgd1na2vs0mg"},{"bike_id":"3fda13dd-62eb-4101-a611-c63297cf5d15","system_id":"levelo_inurba_marseille","lat":43.28697,"lon":5.373857,"is_reserved":false,"is_disabled":false,"rental_uris":{"android":"levelo://app?vid=3fda13dd-62eb-4101-a611-c63297cf5d15","ios":"levelo://app?vid=3fda13dd-62eb-4101-a611-c63297cf5d15"},"vehicle_type_id":"4","last_reported":1779329545,"current_range_meters":8000,"station_id":"ce4bh3p2rcd13ifvqdq0","pricing_plan_id":"cebpf4jnsgd1na2vs0mg"},{"bike_id":"2c2f2607-cd7b-439c-b16b-459a4264ed42","system_id":"levelo_inurba_marseille","lat":43.29891,"lon":5.38132,"is_reserved":false,"is_disabled":false,"rental_uris":{"android":"levelo://app?vid=2c2f2607-cd7b-439c-b16b-459a4264ed42","ios":"levelo://app?vid=2c2f2607-cd7b-439c-b16b-459a4264ed42"},"vehicle_type_id":"4","last_reported":1779329545,"current_range_meters":8000,"station_id":"ce4bgj12rcd13ifvqbc0","pricing_plan_id":"cebpf4jnsgd1na2vs0mg"},{"bike_id":"54ebc614-4655-4582-83f2-3a009523bce0","system_id":"levelo_inurba_marseille","lat":43.25522,"lon":5.3767,"is_reserved":false,"is_disabled":true,"rental_uris":{"android":"levelo://app?vid=54ebc614-4655-4582-83f2-3a009523bce0","ios":"levelo://app?vid=54ebc614-4655-4582-83f2-3a009523bce0"},"vehicle_type_id":"4","last_reported":1779329545,"current_range_meters":8000,"station_id":"ce4bhh12rcd13ifvqff0","pricing_plan_id":"cebpf4jnsgd1na2vs0mg"},{"bike_id":"faed9e98-8b71-42e4-8b75-2d0412995e9c","system_id":"levelo_inurba_marseille","lat":43.24661,"lon":5.40093,"is_reserved":false,"is_disabled":false,"rental_uris":{"android":"levelo://app?vid=faed9e98-8b71-42e4-8b75-2d0412995e9c","ios":"levelo://app?vid=faed9e98-8b71-42e4-8b75-2d0412995e9c"},"vehicle_type_id":"4","last_reported":1779329545,"current_range_meters":8000,"station_id":"","pricing_plan_id":"cebpf4jnsgd1na2vs0mg"},{"bike_id":"7ddbe22d-bab8-4335-82e8-2d5c4a9070a9","system_id":"levelo_inurba_marseille","lat":43.25414,"lon":5.41665,"is_reserved":false,"is_disabled":false,"rental_uris":{"android":"levelo://app?vid=7ddbe22d-bab8-4335-82e8-2d5c4a9070a9","ios":"levelo://app?vid=7ddbe22d-bab8-4335-82e8-2d5c4a9070a9"},"vehicle_type_id":"4","last_reported":1779329545,"current_range_meters":8000,"station_id":"","pricing_plan_id":"cebpf4jnsgd1na2vs0mg"},{"bike_id":"87992c88-ecb9-429e-8c45-8a21961af2b1","system_id":"levelo_inurba_marseille","lat":43.29525,"lon":5.39398,"is_reserved":false,"is_disabled":false,"rental_uris":{"android":"levelo://app?vid=87992c88-ecb9-429e-8c45-8a21961af2b1","ios":"levelo://app?vid=87992c88-ecb9-429e-8c45-8a21961af2b1"},"vehicle_type_id":"4","last_reported":1779329545,"current_range_meters":8000,"station_id":"ce4bh292rcd13ifvqdf0","pricing_plan_id":"cebpf4jnsgd1na2vs0mg"},{"bike_id":"aad75fce-f297-4a66-8546-74ab6bfcd851","system_id":"levelo_inurba_marseille","lat":43.24172,"lon":5.36395,"is_reserved":false,"is_disabled":false,"rental_uris":{"android":"levelo://app?vid=aad75fce-f297-4a66-8546-74ab6bfcd851","ios":"levelo://app?vid=aad75fce-f297-4a66-8546-74ab6bfcd851"},"vehicle_type_id":"4","last_reported":1779329545,"current_range_meters":8000,"station_id":"cpo36qri1sfpv3e86is0","pricing_plan_id":"cebpf4jnsgd1na2vs0mg"},{"bike_id":"4fdd8c15-1bcb-4fa5-b5bd-d33affd8bbad","system_id":"levelo_inurba_marseille","lat":43.30202,"lon":5.39937,"is_reserved":false,"is_disabled":false,"rental_uris":{"android":"levelo://app?vid=4fdd8c15-1bcb-4fa5-b5bd-d33affd8bbad","ios":"levelo://app?vid=4fdd8c15-1bcb-4fa5-b5bd-d33affd8bbad"},"vehicle_type_id":"4","last_reported":1779329545,"current_range_meters":8000,"station_id":"","pricing_plan_id":"cebpf4jnsgd1na2vs0mg"},{"bike_id":"d4489d0a-9da0-4121-b07e-4f2cd7660fd1","system_id":"levelo_inurba_marseille","lat":43.24391,"lon":5.37064,"is_reserved":false,"is_disabled":false,"rental_uris":{"android":"levelo://app?vid=d4489d0a-9da0-4121-b07e-4f2cd7660fd1","ios":"levelo://app?vid=d4489d0a-9da0-4121-b07e-4f2cd7660fd1"},"vehicle_type_id":"4","last_reported":1779329545,"current_range_meters":8000,"station_id":"ce4bhhh2rcd13ifvqfk0","pricing_plan_id":"cebpf4jnsgd1na2vs0mg"},{"bike_id":"38567cb0-51a6-4e45-8cea-a98ef4eda7dc","system_id":"levelo_inurba_marseille","lat":43.3149,"lon":5.37283,"is_reserved":false,"is_disabled":false,"rental_uris":{"android":"levelo://app?vid=38567cb0-51a6-4e45-8cea-a98ef4eda7dc","ios":"levelo://app?vid=38567cb0-51a6-4e45-8cea-a98ef4eda7dc"},"vehicle_type_id":"4","last_reported":1779329545,"current_range_meters":8000,"station_id":"ce4bgt12rcd13ifvqcd0","pricing_plan_id":"cebpf4jnsgd1na2vs0mg"},{"bike_id":"2fdda9c5-5807-41e7-a64c-feadf07a903c","system_id":"levelo_inurba_marseille","lat":43.26349,"lon":5.41066,"is_reserved":false,"is_disabled":false,"rental_uris":{"android":"levelo://app?vid=2fdda9c5-5807-41e7-a64c-feadf07a903c","ios":"levelo://app?vid=2fdda9c5-5807-41e7-a64c-feadf07a903c"},"vehicle_type_id":"4","last_reported":1779329545,"current_range_meters":8000,"station_id":"st_d4e5ca6na9uc73bfl5fg","pricing_plan_id":"cebpf4jnsgd1na2vs0mg"},{"bike_id":"bac299b5-fc4e-424f-8c05-a5bbed976d4c","system_id":"levelo_inurba_marseille","lat":43.22534,"lon":5.34833,"is_reserved":false,"is_disabled":false,"rental_uris":{"android":"levelo://app?vid=bac299b5-fc4e-424f-8c05-a5bbed976d4c","ios":"levelo://app?vid=bac299b5-fc4e-424f-8c05-a5bbed976d4c"},"vehicle_type_id":"4","last_reported":1779329545,"current_range_meters":8000,"station_id":"st_cvj5dfep6f1abm77gieg","pricing_plan_id":"cebpf4jnsgd1na2vs0mg"},{"bike_id":"cdc99775-2a76-4038-973d-58172b6f2b92","system_id":"levelo_inurba_marseille","lat":43.29014,"lon":5.35626,"is_reserved":false,"is_disabled":true,"rental_uris":{"android":"levelo://app?vid=cdc99775-2a76-4038-973d-58172b6f2b92","ios":"levelo://app?vid=cdc99775-2a76-4038-973d-58172b6f2b92"},"vehicle_type_id":"4","last_reported":1779329545,"current_range_meters":8000,"station_id":"ce4bhb92rcd13ifvqen0","pricing_plan_id":"cebpf4jnsgd1na2vs0mg"},{"bike_id":"0514a9d8-6497-4d94-9f86-5a5dc79da441","system_id":"levelo_inurba_marseille","lat":43.26186,"lon":5.37494,"is_reserved":false,"is_disabled":false,"rental_uris":{"android":"levelo://app?vid=0514a9d8-6497-4d94-9f86-5a5dc79da441","ios":"levelo://app?vid=0514a9d8-6497-4d94-9f86-5a5dc79da441"},"vehicle_type_id":"4","last_reported":1779329545,"current_range_meters":8000,"station_id":"ce4bhgp2rcd13ifvqfc0","pricing_plan_id":"cebpf4jnsgd1na2vs0mg"},{"bike_id":"0b9fb95c-cf6b-4ed5-8bf4-759fc5a571cc","system_id":"levelo_inurba_marseille","lat":43.2687,"lon":5.40659,"is_reserved":false,"is_disabled":false,"rental_uris":{"android":"levelo://app?vid=0b9fb95c-cf6b-4ed5-8bf4-759fc5a571cc","ios":"levelo://app?vid=0b9fb95c-cf6b-4ed5-8bf4-759fc5a571cc"},"vehicle_type_id":"4","last_reported":1779329545,"current_range_meters":8000,"station_id":"","pricing_plan_id":"cebpf4jnsgd1na2vs0mg"},{"bike_id":"94d363c9-eb9c-491d-8b21-9b20b513e8f4","system_id":"levelo_inurba_marseille","lat":43.24667,"lon":5.38158,"is_reserved":false,"is_disabled":false,"rental_uris":{"android":"levelo://app?vid=94d363c9-eb9c-491d-8b21-9b20b513e8f4","ios":"levelo://app?vid=94d363c9-eb9c-491d-8b21-9b20b513e8f4"},"vehicle_type_id":"4","last_reported":1779329545,"current_range_meters":8000,"station_id":"ce4bhih2rcd13ifvqfr0","pricing_plan_id":"cebpf4jnsgd1na2vs0mg"},{"bike_id":"2417956b-f325-4b75-806c-e42e7b7f598c","system_id":"levelo_inurba_marseille","lat":43.24975,"lon":5.41775,"is_reserved":false,"is_disabled":false,"rental_uris":{"android":"levelo://app?vid=2417956b-f325-4b75-806c-e42e7b7f598c","ios":"levelo://app?vid=2417956b-f325-4b75-806c-e42e7b7f598c"},"vehicle_type_id":"4","last_reported":1779329545,"current_range_meters":8000,"station_id":"","pricing_plan_id":"cebpf4jnsgd1na2vs0mg"},{"bike_id":"aa38e8c5-77de-4d3e-a591-d4ff2702b5f8","system_id":"levelo_inurba_marseille","lat":43.30322,"lon":5.39179,"is_reserved":false,"is_disabled":false,"rental_uris":{"android":"levelo://app?vid=aa38e8c5-77de-4d3e-a591-d4ff2702b5f8","ios":"levelo://app?vid=aa38e8c5-77de-4d3e-a591-d4ff2702b5f8"},"vehicle_type_id":"4","last_reported":1779329545,"current_range_meters":8000,"station_id":"ce4bgkh2rcd13ifvqbk0","pricing_plan_id":"cebpf4jnsgd1na2vs0mg"},{"bike_id":"615c49a8-b4db-44a4-9999-da0b264dbd08","system_id":"levelo_inurba_marseille","lat":43.25861,"lon":5.39914,"is_reserved":false,"is_disabled":false,"rental_uris":{"android":"levelo://app?vid=615c49a8-b4db-44a4-9999-da0b264dbd08","ios":"levelo://app?vid=615c49a8-b4db-44a4-9999-da0b264dbd08"},"vehicle_type_id":"4","last_reported":1779329545,"current_range_meters":8000,"station_id":"ce4bhl92rcd13ifvqghg","pricing_plan_id":"cebpf4jnsgd1na2vs0mg"},{"bike_id":"504ef9b7-081e-4298-93f3-c5a397c06fb0","system_id":"levelo_inurba_marseille","lat":43.26564,"lon":5.37275,"is_reserved":false,"is_disabled":false,"rental_uris":{"android":"levelo://app?vid=504ef9b7-081e-4298-93f3-c5a397c06fb0","ios":"levelo://app?vid=504ef9b7-081e-4298-93f3-c5a397c06fb0"},"vehicle_type_id":"4","last_reported":1779329545,"current_range_meters":8400,"station_id":"ce4bhg12rcd13ifvqf70","pricing_plan_id":"cebpf4jnsgd1na2vs0mg"},{"bike_id":"9be0d29d-cf38-478e-a5b2-3ccdc95ac463","system_id":"levelo_inurba_marseille","lat":43.27573,"lon":5.38411,"is_reserved":false,"is_disabled":false,"rental_uris":{"android":"levelo://app?vid=9be0d29d-cf38-478e-a5b2-3ccdc95ac463","ios":"levelo://app?vid=9be0d29d-cf38-478e-a5b2-3ccdc95ac463"},"vehicle_type_id":"4","last_reported":1779329545,"current_range_meters":8400,"station_id":"ce4bhh92rcd13ifvqfi0","pricing_plan_id":"cebpf4jnsgd1na2vs0mg"},{"bike_id":"4cc306f1-4e1b-469c-9daa-9c4ee4ee3409","system_id":"levelo_inurba_marseille","lat":43.29877,"lon":5.39786,"is_reserved":false,"is_disabled":false,"rental_uris":{"android":"levelo://app?vid=4cc306f1-4e1b-469c-9daa-9c4ee4ee3409","ios":"levelo://app?vid=4cc306f1-4e1b-469c-9daa-9c4ee4ee3409"},"vehicle_type_id":"4","last_reported":1779329545,"current_range_meters":8400,"station_id":"","pricing_plan_id":"cebpf4jnsgd1na2vs0mg"},{"bike_id":"77b1acc3-de39-40aa-939c-5c95431b22b9","system_id":"levelo_inurba_marseille","lat":43.2871,"lon":5.3998,"is_reserved":false,"is_disabled":false,"rental_uris":{"android":"levelo://app?vid=77b1acc3-de39-40aa-939c-5c95431b22b9","ios":"levelo://app?vid=77b1acc3-de39-40aa-939c-5c95431b22b9"},"vehicle_type_id":"4","last_reported":1779329545,"current_range_meters":8400,"station_id":"ce4bho92rcd13ifvqh3g","pricing_plan_id":"cebpf4jnsgd1na2vs0mg"},{"bike_id":"477c5db0-ace8-4c76-8cdd-10ccb6337664","system_id":"levelo_inurba_marseille","lat":43.30922,"lon":5.40139,"is_reserved":false,"is_disabled":false,"rental_uris":{"android":"levelo://app?vid=477c5db0-ace8-4c76-8cdd-10ccb6337664","ios":"levelo://app?vid=477c5db0-ace8-4c76-8cdd-10ccb6337664"},"vehicle_type_id":"4","last_reported":1779329545,"current_range_meters":8400,"station_id":"ce4bgvp2rcd13ifvqct0","pricing_plan_id":"cebpf4jnsgd1na2vs0mg"},{"bike_id":"dddaef04-5841-4524-8dc9-df887a4b6d4d","system_id":"levelo_inurba_marseille","lat":43.29544,"lon":5.38529,"is_reserved":false,"is_disabled":false,"rental_uris":{"android":"levelo://app?vid=dddaef04-5841-4524-8dc9-df887a4b6d4d","ios":"levelo://app?vid=dddaef04-5841-4524-8dc9-df887a4b6d4d"},"vehicle_type_id":"4","last_reported":1779329545,"current_range_meters":8400,"station_id":"ce4bgih2rcd13ifvqba0","pricing_plan_id":"cebpf4jnsgd1na2vs0mg"},{"bike_id":"377dbe51-8418-4051-9890-49be0070f98c","system_id":"levelo_inurba_marseille","lat":43.25032,"lon":5.39609,"is_reserved":false,"is_disabled":false,"rental_uris":{"android":"levelo://app?vid=377dbe51-8418-4051-9890-49be0070f98c","ios":"levelo://app?vid=377dbe51-8418-4051-9890-49be0070f98c"},"vehicle_type_id":"4","last_reported":1779329545,"current_range_meters":8400,"station_id":"","pricing_plan_id":"cebpf4jnsgd1na2vs0mg"},{"bike_id":"f0e1c62c-4014-47ee-b8a9-c5f5511a0d13","system_id":"levelo_inurba_marseille","lat":43.3093,"lon":5.40145,"is_reserved":false,"is_disabled":false,"rental_uris":{"android":"levelo://app?vid=f0e1c62c-4014-47ee-b8a9-c5f5511a0d13","ios":"levelo://app?vid=f0e1c62c-4014-47ee-b8a9-c5f5511a0d13"},"vehicle_type_id":"4","last_reported":1779329545,"current_range_meters":8400,"station_id":"ce4bgvp2rcd13ifvqct0","pricing_plan_id":"cebpf4jnsgd1na2vs0mg"},{"bike_id":"12481d7b-ca53-44d2-a72d-3641cbe06950","system_id":"levelo_inurba_marseille","lat":43.29921,"lon":5.41024,"is_reserved":false,"is_disabled":false,"rental_uris":{"android":"levelo://app?vid=12481d7b-ca53-44d2-a72d-3641cbe06950","ios":"levelo://app?vid=12481d7b-ca53-44d2-a72d-3641cbe06950"},"vehicle_type_id":"4","last_reported":1779329545,"current_range_meters":8400,"station_id":"","pricing_plan_id":"cebpf4jnsgd1na2vs0mg"},{"bike_id":"72bee0bb-8dc4-495d-b327-1c8db4123867","system_id":"levelo_inurba_marseille","lat":43.26793,"lon":5.40265,"is_reserved":false,"is_disabled":false,"rental_uris":{"android":"levelo://app?vid=72bee0bb-8dc4-495d-b327-1c8db4123867","ios":"levelo://app?vid=72bee0bb-8dc4-495d-b327-1c8db4123867"},"vehicle_type_id":"4","last_reported":1779329545,"current_range_meters":8400,"station_id":"ce501612rcd8frsf0b60","pricing_plan_id":"cebpf4jnsgd1na2vs0mg"},{"bike_id":"4f4817ee-661b-4288-a997-4f5149d3e126","system_id":"levelo_inurba_marseille","lat":43.26558,"lon":5.39044,"is_reserved":false,"is_disabled":false,"rental_uris":{"android":"levelo://app?vid=4f4817ee-661b-4288-a997-4f5149d3e126","ios":"levelo://app?vid=4f4817ee-661b-4288-a997-4f5149d3e126"},"vehicle_type_id":"4","last_reported":1779329545,"current_range_meters":8400,"station_id":"ce4bhe12rcd13ifvqf30","pricing_plan_id":"cebpf4jnsgd1na2vs0mg"},{"bike_id":"15a4ef45-bb40-4062-acaf-f25356ce981a","system_id":"levelo_inurba_marseille","lat":43.30531,"lon":5.36709,"is_reserved":false,"is_disabled":true,"rental_uris":{"android":"levelo://app?vid=15a4ef45-bb40-4062-acaf-f25356ce981a","ios":"levelo://app?vid=15a4ef45-bb40-4062-acaf-f25356ce981a"},"vehicle_type_id":"4","last_reported":1779329545,"current_range_meters":8400,"station_id":"ce4bgrp2rcd13ifvqc9g","pricing_plan_id":"cebpf4jnsgd1na2vs0mg"},{"bike_id":"69a54a2a-4966-42b1-85ed-debcc0938836","system_id":"levelo_inurba_marseille","lat":43.30821,"lon":5.38143,"is_reserved":false,"is_disabled":false,"rental_uris":{"android":"levelo://app?vid=69a54a2a-4966-42b1-85ed-debcc0938836","ios":"levelo://app?vid=69a54a2a-4966-42b1-85ed-debcc0938836"},"vehicle_type_id":"4","last_reported":1779329545,"current_range_meters":8400,"station_id":"ce4bgt12rcd13ifvqce0","pricing_plan_id":"cebpf4jnsgd1na2vs0mg"},{"bike_id":"bdb8ea9e-f317-4a97-aecb-97370038e137","system_id":"levelo_inurba_marseille","lat":43.31083,"lon":5.42425,"is_reserved":false,"is_disabled":false,"rental_uris":{"android":"levelo://app?vid=bdb8ea9e-f317-4a97-aecb-97370038e137","ios":"levelo://app?vid=bdb8ea9e-f317-4a97-aecb-97370038e137"},"vehicle_type_id":"4","last_reported":1779329545,"current_range_meters":8400,"station_id":"ce4bhp92rcd13ifvqhag","pricing_plan_id":"cebpf4jnsgd1na2vs0mg"},{"bike_id":"8f54b12e-d970-4ef6-9d9d-f553ebdc84c8","system_id":"levelo_inurba_marseille","lat":43.24657,"lon":5.38176,"is_reserved":false,"is_disabled":false,"rental_uris":{"android":"levelo://app?vid=8f54b12e-d970-4ef6-9d9d-f553ebdc84c8","ios":"levelo://app?vid=8f54b12e-d970-4ef6-9d9d-f553ebdc84c8"},"vehicle_type_id":"4","last_reported":1779329545,"current_range_meters":8400,"station_id":"ce4bhih2rcd13ifvqfr0","pricing_plan_id":"cebpf4jnsgd1na2vs0mg"},{"bike_id":"86acb344-9066-47c1-bef7-dff26b637764","system_id":"levelo_inurba_marseille","lat":43.31695,"lon":5.40457,"is_reserved":false,"is_disabled":false,"rental_uris":{"android":"levelo://app?vid=86acb344-9066-47c1-bef7-dff26b637764","ios":"levelo://app?vid=86acb344-9066-47c1-bef7-dff26b637764"},"vehicle_type_id":"4","last_reported":1779329545,"current_range_meters":8400,"station_id":"ce4bh012rcd13ifvqd00","pricing_plan_id":"cebpf4jnsgd1na2vs0mg"},{"bike_id":"68d1f156-6a75-4a7b-b338-23ac86ac58a5","system_id":"levelo_inurba_marseille","lat":43.31293,"lon":5.40126,"is_reserved":false,"is_disabled":false,"rental_uris":{"android":"levelo://app?vid=68d1f156-6a75-4a7b-b338-23ac86ac58a5","ios":"levelo://app?vid=68d1f156-6a75-4a7b-b338-23ac86ac58a5"},"vehicle_type_id":"4","last_reported":1779329545,"current_range_meters":8400,"station_id":"ce4bh092rcd13ifvqd30","pricing_plan_id":"cebpf4jnsgd1na2vs0mg"},{"bike_id":"1ca95aee-a991-4a29-b8d4-54ec712d9fb3","system_id":"levelo_inurba_marseille","lat":43.28695,"lon":5.46672,"is_reserved":false,"is_disabled":false,"rental_uris":{"android":"levelo://app?vid=1ca95aee-a991-4a29-b8d4-54ec712d9fb3","ios":"levelo://app?vid=1ca95aee-a991-4a29-b8d4-54ec712d9fb3"},"vehicle_type_id":"4","last_reported":1779329545,"current_range_meters":8400,"station_id":"st_d6tc3vkotcvc738tfjhg","pricing_plan_id":"cebpf4jnsgd1na2vs0mg"},{"bike_id":"d0da6d3c-9ca4-4a83-9008-a534a6280ad2","system_id":"levelo_inurba_marseille","lat":43.28944,"lon":5.36617,"is_reserved":false,"is_disabled":false,"rental_uris":{"android":"levelo://app?vid=d0da6d3c-9ca4-4a83-9008-a534a6280ad2","ios":"levelo://app?vid=d0da6d3c-9ca4-4a83-9008-a534a6280ad2"},"vehicle_type_id":"4","last_reported":1779329545,"current_range_meters":8400,"station_id":"ce4bhap2rcd13ifvqek0","pricing_plan_id":"cebpf4jnsgd1na2vs0mg"},{"bike_id":"32a27c34-0b6c-4b71-9c1e-e9990206823f","system_id":"levelo_inurba_marseille","lat":43.30224,"lon":5.38572,"is_reserved":false,"is_disabled":false,"rental_uris":{"android":"levelo://app?vid=32a27c34-0b6c-4b71-9c1e-e9990206823f","ios":"levelo://app?vid=32a27c34-0b6c-4b71-9c1e-e9990206823f"},"vehicle_type_id":"4","last_reported":1779329545,"current_range_meters":8400,"station_id":"","pricing_plan_id":"cebpf4jnsgd1na2vs0mg"},{"bike_id":"e27feea1-9bc4-4f71-870f-9ba99b38e6d2","system_id":"levelo_inurba_marseille","lat":43.29173,"lon":5.37243,"is_reserved":false,"is_disabled":false,"rental_uris":{"android":"levelo://app?vid=e27feea1-9bc4-4f71-870f-9ba99b38e6d2","ios":"levelo://app?vid=e27feea1-9bc4-4f71-870f-9ba99b38e6d2"},"vehicle_type_id":"4","last_reported":1779329545,"current_range_meters":8400,"station_id":"","pricing_plan_id":"cebpf4jnsgd1na2vs0mg"},{"bike_id":"e7efd226-2c43-4498-bd5b-0def1db25104","system_id":"levelo_inurba_marseille","lat":43.28443,"lon":5.35902,"is_reserved":false,"is_disabled":false,"rental_uris":{"android":"levelo://app?vid=e7efd226-2c43-4498-bd5b-0def1db25104","ios":"levelo://app?vid=e7efd226-2c43-4498-bd5b-0def1db25104"},"vehicle_type_id":"4","last_reported":1779329545,"current_range_meters":8400,"station_id":"ce4bhah2rcd13ifvqei0","pricing_plan_id":"cebpf4jnsgd1na2vs0mg"},{"bike_id":"b7348f1b-4d89-4109-a6da-ee1d816f8563","system_id":"levelo_inurba_marseille","lat":43.29343,"lon":5.38737,"is_reserved":false,"is_disabled":false,"rental_uris":{"android":"levelo://app?vid=b7348f1b-4d89-4109-a6da-ee1d816f8563","ios":"levelo://app?vid=b7348f1b-4d89-4109-a6da-ee1d816f8563"},"vehicle_type_id":"4","last_reported":1779329545,"current_range_meters":8400,"station_id":"","pricing_plan_id":"cebpf4jnsgd1na2vs0mg"},{"bike_id":"0a3b05a4-eeb2-4a43-bcd3-8110dcb0cf7e","system_id":"levelo_inurba_marseille","lat":43.26131,"lon":5.37516,"is_reserved":false,"is_disabled":true,"rental_uris":{"android":"levelo://app?vid=0a3b05a4-eeb2-4a43-bcd3-8110dcb0cf7e","ios":"levelo://app?vid=0a3b05a4-eeb2-4a43-bcd3-8110dcb0cf7e"},"vehicle_type_id":"4","last_reported":1779329545,"current_range_meters":8800,"station_id":"","pricing_plan_id":"cebpf4jnsgd1na2vs0mg"},{"bike_id":"5a297e80-d2f0-4fb4-9886-093528a3567a","system_id":"levelo_inurba_marseille","lat":43.31432,"lon":5.37425,"is_reserved":false,"is_disabled":true,"rental_uris":{"android":"levelo://app?vid=5a297e80-d2f0-4fb4-9886-093528a3567a","ios":"levelo://app?vid=5a297e80-d2f0-4fb4-9886-093528a3567a"},"vehicle_type_id":"4","last_reported":1779329545,"current_range_meters":8800,"station_id":"","pricing_plan_id":"cebpf4jnsgd1na2vs0mg"},{"bike_id":"2fbac758-0692-4d8a-9705-7fcad4dab252","system_id":"levelo_inurba_marseille","lat":43.30906,"lon":5.38001,"is_reserved":false,"is_disabled":false,"rental_uris":{"android":"levelo://app?vid=2fbac758-0692-4d8a-9705-7fcad4dab252","ios":"levelo://app?vid=2fbac758-0692-4d8a-9705-7fcad4dab252"},"vehicle_type_id":"4","last_reported":1779329545,"current_range_meters":8800,"station_id":"","pricing_plan_id":"cebpf4jnsgd1na2vs0mg"},{"bike_id":"7fda94e1-e2e3-4c99-b006-59137d824a49","system_id":"levelo_inurba_marseille","lat":43.23183,"lon":5.39983,"is_reserved":false,"is_disabled":false,"rental_uris":{"android":"levelo://app?vid=7fda94e1-e2e3-4c99-b006-59137d824a49","ios":"levelo://app?vid=7fda94e1-e2e3-4c99-b006-59137d824a49"},"vehicle_type_id":"4","last_reported":1779329545,"current_range_meters":8800,"station_id":"ce4bhn12rcd13ifvqgqg","pricing_plan_id":"cebpf4jnsgd1na2vs0mg"},{"bike_id":"bce1c8ec-bccc-49ef-ae7c-3813f8d4d01e","system_id":"levelo_inurba_marseille","lat":43.26812,"lon":5.40255,"is_reserved":false,"is_disabled":false,"rental_uris":{"android":"levelo://app?vid=bce1c8ec-bccc-49ef-ae7c-3813f8d4d01e","ios":"levelo://app?vid=bce1c8ec-bccc-49ef-ae7c-3813f8d4d01e"},"vehicle_type_id":"4","last_reported":1779329545,"current_range_meters":8800,"station_id":"ce501612rcd8frsf0b60","pricing_plan_id":"cebpf4jnsgd1na2vs0mg"},{"bike_id":"b98f6561-23bb-490c-8bfc-fe304981f3cc","system_id":"levelo_inurba_marseille","lat":43.29594,"lon":5.39994,"is_reserved":false,"is_disabled":true,"rental_uris":{"android":"levelo://app?vid=b98f6561-23bb-490c-8bfc-fe304981f3cc","ios":"levelo://app?vid=b98f6561-23bb-490c-8bfc-fe304981f3cc"},"vehicle_type_id":"4","last_reported":1779329545,"current_range_meters":8800,"station_id":"ce4bh312rcd13ifvqdj0","pricing_plan_id":"cebpf4jnsgd1na2vs0mg"},{"bike_id":"5134a1f4-75ef-4557-8a9b-bd594bc1eae5","system_id":"levelo_inurba_marseille","lat":43.26552,"lon":5.37285,"is_reserved":false,"is_disabled":true,"rental_uris":{"android":"levelo://app?vid=5134a1f4-75ef-4557-8a9b-bd594bc1eae5","ios":"levelo://app?vid=5134a1f4-75ef-4557-8a9b-bd594bc1eae5"},"vehicle_type_id":"4","last_reported":1779329545,"current_range_meters":8800,"station_id":"ce4bhg12rcd13ifvqf70","pricing_plan_id":"cebpf4jnsgd1na2vs0mg"},{"bike_id":"7e2325cb-0e1c-4598-851a-c8d5a31023ae","system_id":"levelo_inurba_marseille","lat":43.29867,"lon":5.39778,"is_reserved":false,"is_disabled":false,"rental_uris":{"android":"levelo://app?vid=7e2325cb-0e1c-4598-851a-c8d5a31023ae","ios":"levelo://app?vid=7e2325cb-0e1c-4598-851a-c8d5a31023ae"},"vehicle_type_id":"4","last_reported":1779329545,"current_range_meters":8800,"station_id":"ce4bh0h2rcd13ifvqd50","pricing_plan_id":"cebpf4jnsgd1na2vs0mg"},{"bike_id":"f56cb847-edf2-4543-abb2-9ba3a10d749a","system_id":"levelo_inurba_marseille","lat":43.29878,"lon":5.38162,"is_reserved":false,"is_disabled":false,"rental_uris":{"android":"levelo://app?vid=f56cb847-edf2-4543-abb2-9ba3a10d749a","ios":"levelo://app?vid=f56cb847-edf2-4543-abb2-9ba3a10d749a"},"vehicle_type_id":"4","last_reported":1779329545,"current_range_meters":8800,"station_id":"ce4bgj12rcd13ifvqbc0","pricing_plan_id":"cebpf4jnsgd1na2vs0mg"},{"bike_id":"269bb8e0-e133-48f5-bae2-51666cdc023f","system_id":"levelo_inurba_marseille","lat":43.30942,"lon":5.40141,"is_reserved":false,"is_disabled":false,"rental_uris":{"android":"levelo://app?vid=269bb8e0-e133-48f5-bae2-51666cdc023f","ios":"levelo://app?vid=269bb8e0-e133-48f5-bae2-51666cdc023f"},"vehicle_type_id":"4","last_reported":1779329545,"current_range_meters":8800,"station_id":"ce4bgvp2rcd13ifvqct0","pricing_plan_id":"cebpf4jnsgd1na2vs0mg"},{"bike_id":"2841de83-224d-4a3c-99b6-db495d1adef1","system_id":"levelo_inurba_marseille","lat":43.30621,"lon":5.40059,"is_reserved":false,"is_disabled":false,"rental_uris":{"android":"levelo://app?vid=2841de83-224d-4a3c-99b6-db495d1adef1","ios":"levelo://app?vid=2841de83-224d-4a3c-99b6-db495d1adef1"},"vehicle_type_id":"4","last_reported":1779329545,"current_range_meters":8800,"station_id":"ce4bh112rcd13ifvqda0","pricing_plan_id":"cebpf4jnsgd1na2vs0mg"},{"bike_id":"092a41f3-9024-4e87-a6c3-fffcddbe9c14","system_id":"levelo_inurba_marseille","lat":43.30235,"lon":5.40056,"is_reserved":false,"is_disabled":false,"rental_uris":{"android":"levelo://app?vid=092a41f3-9024-4e87-a6c3-fffcddbe9c14","ios":"levelo://app?vid=092a41f3-9024-4e87-a6c3-fffcddbe9c14"},"vehicle_type_id":"4","last_reported":1779329545,"current_range_meters":8800,"station_id":"ce4bgvh2rcd13ifvqcs0","pricing_plan_id":"cebpf4jnsgd1na2vs0mg"},{"bike_id":"ab3cff16-245f-4723-82b6-b729751ed010","system_id":"levelo_inurba_marseille","lat":43.30952,"lon":5.40154,"is_reserved":false,"is_disabled":false,"rental_uris":{"android":"levelo://app?vid=ab3cff16-245f-4723-82b6-b729751ed010","ios":"levelo://app?vid=ab3cff16-245f-4723-82b6-b729751ed010"},"vehicle_type_id":"4","last_reported":1779329545,"current_range_meters":8800,"station_id":"ce4bgvp2rcd13ifvqct0","pricing_plan_id":"cebpf4jnsgd1na2vs0mg"},{"bike_id":"791495c4-7ea5-465a-bc80-9e45352118ee","system_id":"levelo_inurba_marseille","lat":43.24815,"lon":5.37488,"is_reserved":false,"is_disabled":false,"rental_uris":{"android":"levelo://app?vid=791495c4-7ea5-465a-bc80-9e45352118ee","ios":"levelo://app?vid=791495c4-7ea5-465a-bc80-9e45352118ee"},"vehicle_type_id":"4","last_reported":1779329545,"current_range_meters":8800,"station_id":"ce4bhgh2rcd13ifvqfb0","pricing_plan_id":"cebpf4jnsgd1na2vs0mg"},{"bike_id":"7ec93175-8d9c-4b31-b534-34e06405c4e0","system_id":"levelo_inurba_marseille","lat":43.29621,"lon":5.44694,"is_reserved":false,"is_disabled":false,"rental_uris":{"android":"levelo://app?vid=7ec93175-8d9c-4b31-b534-34e06405c4e0","ios":"levelo://app?vid=7ec93175-8d9c-4b31-b534-34e06405c4e0"},"vehicle_type_id":"4","last_reported":1779329545,"current_range_meters":8800,"station_id":"","pricing_plan_id":"cebpf4jnsgd1na2vs0mg"},{"bike_id":"246191a5-1683-431c-8ce3-230a728dcb2b","system_id":"levelo_inurba_marseille","lat":43.30317,"lon":5.40435,"is_reserved":false,"is_disabled":false,"rental_uris":{"android":"levelo://app?vid=246191a5-1683-431c-8ce3-230a728dcb2b","ios":"levelo://app?vid=246191a5-1683-431c-8ce3-230a728dcb2b"},"vehicle_type_id":"4","last_reported":1779329545,"current_range_meters":8800,"station_id":"ce4bh012rcd13ifvqd10","pricing_plan_id":"cebpf4jnsgd1na2vs0mg"},{"bike_id":"1d1a4d3a-9302-44ea-b3f1-a60812928797","system_id":"levelo_inurba_marseille","lat":43.30647,"lon":5.40067,"is_reserved":false,"is_disabled":false,"rental_uris":{"android":"levelo://app?vid=1d1a4d3a-9302-44ea-b3f1-a60812928797","ios":"levelo://app?vid=1d1a4d3a-9302-44ea-b3f1-a60812928797"},"vehicle_type_id":"4","last_reported":1779329545,"current_range_meters":8800,"station_id":"ce4bh112rcd13ifvqda0","pricing_plan_id":"cebpf4jnsgd1na2vs0mg"},{"bike_id":"aeb5c96b-d8ab-468f-8721-b69eb07d550e","system_id":"levelo_inurba_marseille","lat":43.27542,"lon":5.38431,"is_reserved":false,"is_disabled":false,"rental_uris":{"android":"levelo://app?vid=aeb5c96b-d8ab-468f-8721-b69eb07d550e","ios":"levelo://app?vid=aeb5c96b-d8ab-468f-8721-b69eb07d550e"},"vehicle_type_id":"4","last_reported":1779329545,"current_range_meters":8800,"station_id":"ce4bhh92rcd13ifvqfi0","pricing_plan_id":"cebpf4jnsgd1na2vs0mg"},{"bike_id":"8ae01fbd-13ec-4abe-9b2c-1050445b111f","system_id":"levelo_inurba_marseille","lat":43.22473,"lon":5.34953,"is_reserved":false,"is_disabled":false,"rental_uris":{"android":"levelo://app?vid=8ae01fbd-13ec-4abe-9b2c-1050445b111f","ios":"levelo://app?vid=8ae01fbd-13ec-4abe-9b2c-1050445b111f"},"vehicle_type_id":"4","last_reported":1779329545,"current_range_meters":8800,"station_id":"","pricing_plan_id":"cebpf4jnsgd1na2vs0mg"},{"bike_id":"8e7115e5-afd0-482b-bfd7-f75a7925e115","system_id":"levelo_inurba_marseille","lat":43.30241,"lon":5.41216,"is_reserved":false,"is_disabled":false,"rental_uris":{"android":"levelo://app?vid=8e7115e5-afd0-482b-bfd7-f75a7925e115","ios":"levelo://app?vid=8e7115e5-afd0-482b-bfd7-f75a7925e115"},"vehicle_type_id":"4","last_reported":1779329545,"current_range_meters":8800,"station_id":"","pricing_plan_id":"cebpf4jnsgd1na2vs0mg"},{"bike_id":"fca2e5aa-dfe6-4e22-afbf-2a255903d110","system_id":"levelo_inurba_marseille","lat":43.29969,"lon":5.38485,"is_reserved":false,"is_disabled":true,"rental_uris":{"android":"levelo://app?vid=fca2e5aa-dfe6-4e22-afbf-2a255903d110","ios":"levelo://app?vid=fca2e5aa-dfe6-4e22-afbf-2a255903d110"},"vehicle_type_id":"4","last_reported":1779329545,"current_range_meters":8800,"station_id":"ce4bgj92rcd13ifvqbd0","pricing_plan_id":"cebpf4jnsgd1na2vs0mg"},{"bike_id":"df8394b3-27b6-49e2-bc87-0ef9e6e38cac","system_id":"levelo_inurba_marseille","lat":43.29859,"lon":5.3892,"is_reserved":false,"is_disabled":false,"rental_uris":{"android":"levelo://app?vid=df8394b3-27b6-49e2-bc87-0ef9e6e38cac","ios":"levelo://app?vid=df8394b3-27b6-49e2-bc87-0ef9e6e38cac"},"vehicle_type_id":"4","last_reported":1779329545,"current_range_meters":8800,"station_id":"ce4bh392rcd13ifvqdl0","pricing_plan_id":"cebpf4jnsgd1na2vs0mg"},{"bike_id":"ada748d5-583c-4dfb-b476-9536b806687d","system_id":"levelo_inurba_marseille","lat":43.28927,"lon":5.36634,"is_reserved":false,"is_disabled":false,"rental_uris":{"android":"levelo://app?vid=ada748d5-583c-4dfb-b476-9536b806687d","ios":"levelo://app?vid=ada748d5-583c-4dfb-b476-9536b806687d"},"vehicle_type_id":"4","last_reported":1779329545,"current_range_meters":8800,"station_id":"ce4bhap2rcd13ifvqek0","pricing_plan_id":"cebpf4jnsgd1na2vs0mg"},{"bike_id":"76a83b0f-6415-4f2d-ad7c-7523a2b178d8","system_id":"levelo_inurba_marseille","lat":43.30803,"lon":5.38148,"is_reserved":false,"is_disabled":false,"rental_uris":{"android":"levelo://app?vid=76a83b0f-6415-4f2d-ad7c-7523a2b178d8","ios":"levelo://app?vid=76a83b0f-6415-4f2d-ad7c-7523a2b178d8"},"vehicle_type_id":"4","last_reported":1779329545,"current_range_meters":8800,"station_id":"ce4bgt12rcd13ifvqce0","pricing_plan_id":"cebpf4jnsgd1na2vs0mg"},{"bike_id":"1740c6e9-2a4b-480e-9ab5-c92782efb7d1","system_id":"levelo_inurba_marseille","lat":43.3175,"lon":5.39013,"is_reserved":false,"is_disabled":false,"rental_uris":{"android":"levelo://app?vid=1740c6e9-2a4b-480e-9ab5-c92782efb7d1","ios":"levelo://app?vid=1740c6e9-2a4b-480e-9ab5-c92782efb7d1"},"vehicle_type_id":"4","last_reported":1779329545,"current_range_meters":8800,"station_id":"ce4bhqp2rcd13ifvqhng","pricing_plan_id":"cebpf4jnsgd1na2vs0mg"},{"bike_id":"30d289fc-109a-48f5-a7ee-a95f904115da","system_id":"levelo_inurba_marseille","lat":43.31392,"lon":5.385,"is_reserved":false,"is_disabled":false,"rental_uris":{"android":"levelo://app?vid=30d289fc-109a-48f5-a7ee-a95f904115da","ios":"levelo://app?vid=30d289fc-109a-48f5-a7ee-a95f904115da"},"vehicle_type_id":"4","last_reported":1779329545,"current_range_meters":8800,"station_id":"ce4bgt92rcd13ifvqcf0","pricing_plan_id":"cebpf4jnsgd1na2vs0mg"},{"bike_id":"92475532-28d1-431b-bc92-e2f01ee50f54","system_id":"levelo_inurba_marseille","lat":43.23188,"lon":5.3999,"is_reserved":false,"is_disabled":true,"rental_uris":{"android":"levelo://app?vid=92475532-28d1-431b-bc92-e2f01ee50f54","ios":"levelo://app?vid=92475532-28d1-431b-bc92-e2f01ee50f54"},"vehicle_type_id":"4","last_reported":1779329545,"current_range_meters":8800,"station_id":"ce4bhn12rcd13ifvqgqg","pricing_plan_id":"cebpf4jnsgd1na2vs0mg"},{"bike_id":"5fc1d925-85f8-40fc-8427-2d9d3bc14353","system_id":"levelo_inurba_marseille","lat":43.25722,"lon":5.41107,"is_reserved":false,"is_disabled":false,"rental_uris":{"android":"levelo://app?vid=5fc1d925-85f8-40fc-8427-2d9d3bc14353","ios":"levelo://app?vid=5fc1d925-85f8-40fc-8427-2d9d3bc14353"},"vehicle_type_id":"4","last_reported":1779329545,"current_range_meters":8800,"station_id":"ce4bhkp2rcd13ifvqgd0","pricing_plan_id":"cebpf4jnsgd1na2vs0mg"},{"bike_id":"cff3b2d3-2c26-4c9d-9990-d84b0c3e3b30","system_id":"levelo_inurba_marseille","lat":43.2957,"lon":5.39955,"is_reserved":false,"is_disabled":true,"rental_uris":{"android":"levelo://app?vid=cff3b2d3-2c26-4c9d-9990-d84b0c3e3b30","ios":"levelo://app?vid=cff3b2d3-2c26-4c9d-9990-d84b0c3e3b30"},"vehicle_type_id":"4","last_reported":1779329545,"current_range_meters":8800,"station_id":"ce4bh312rcd13ifvqdj0","pricing_plan_id":"cebpf4jnsgd1na2vs0mg"},{"bike_id":"7926970b-b546-4bd9-8ad0-0c1e21624b17","system_id":"levelo_inurba_marseille","lat":43.29586,"lon":5.38103,"is_reserved":false,"is_disabled":true,"rental_uris":{"android":"levelo://app?vid=7926970b-b546-4bd9-8ad0-0c1e21624b17","ios":"levelo://app?vid=7926970b-b546-4bd9-8ad0-0c1e21624b17"},"vehicle_type_id":"4","last_reported":1779329545,"current_range_meters":8800,"station_id":"ce4bgl12rcd13ifvqbo0","pricing_plan_id":"cebpf4jnsgd1na2vs0mg"},{"bike_id":"210000fa-3cba-420d-9938-925b13dcf371","system_id":"levelo_inurba_marseille","lat":43.28348,"lon":5.38104,"is_reserved":false,"is_disabled":false,"rental_uris":{"android":"levelo://app?vid=210000fa-3cba-420d-9938-925b13dcf371","ios":"levelo://app?vid=210000fa-3cba-420d-9938-925b13dcf371"},"vehicle_type_id":"4","last_reported":1779329545,"current_range_meters":8800,"station_id":"ce4bh412rcd13ifvqdr0","pricing_plan_id":"cebpf4jnsgd1na2vs0mg"},{"bike_id":"616259e1-99b9-477f-9be8-a931d2e539ff","system_id":"levelo_inurba_marseille","lat":43.231941,"lon":5.355529,"is_reserved":false,"is_disabled":false,"rental_uris":{"android":"levelo://app?vid=616259e1-99b9-477f-9be8-a931d2e539ff","ios":"levelo://app?vid=616259e1-99b9-477f-9be8-a931d2e539ff"},"vehicle_type_id":"4","last_reported":1779329545,"current_range_meters":9200,"station_id":"ce4bgi92rcd13ifvqb90","pricing_plan_id":"cebpf4jnsgd1na2vs0mg"},{"bike_id":"375ee5aa-b3a4-4687-9cb5-9ce27e5d544e","system_id":"levelo_inurba_marseille","lat":43.31089,"lon":5.42436,"is_reserved":false,"is_disabled":false,"rental_uris":{"android":"levelo://app?vid=375ee5aa-b3a4-4687-9cb5-9ce27e5d544e","ios":"levelo://app?vid=375ee5aa-b3a4-4687-9cb5-9ce27e5d544e"},"vehicle_type_id":"4","last_reported":1779329545,"current_range_meters":9200,"station_id":"ce4bhp92rcd13ifvqhag","pricing_plan_id":"cebpf4jnsgd1na2vs0mg"},{"bike_id":"0cb2f30d-981a-4f69-9bec-64cc0dc95f7e","system_id":"levelo_inurba_marseille","lat":43.29531,"lon":5.39026,"is_reserved":false,"is_disabled":true,"rental_uris":{"android":"levelo://app?vid=0cb2f30d-981a-4f69-9bec-64cc0dc95f7e","ios":"levelo://app?vid=0cb2f30d-981a-4f69-9bec-64cc0dc95f7e"},"vehicle_type_id":"4","last_reported":1779329545,"current_range_meters":9200,"station_id":"ce4bh3p2rcd13ifvqdp0","pricing_plan_id":"cebpf4jnsgd1na2vs0mg"},{"bike_id":"868c7f6d-3724-4708-98f5-65cb966b2d4a","system_id":"levelo_inurba_marseille","lat":43.33537,"lon":5.37481,"is_reserved":false,"is_disabled":false,"rental_uris":{"android":"levelo://app?vid=868c7f6d-3724-4708-98f5-65cb966b2d4a","ios":"levelo://app?vid=868c7f6d-3724-4708-98f5-65cb966b2d4a"},"vehicle_type_id":"4","last_reported":1779329545,"current_range_meters":9200,"station_id":"st_d46tts09ee8s73dlu43g","pricing_plan_id":"cebpf4jnsgd1na2vs0mg"},{"bike_id":"36aa6f0d-c8a5-421f-bb1a-43d21232f078","system_id":"levelo_inurba_marseille","lat":43.22562,"lon":5.41644,"is_reserved":false,"is_disabled":false,"rental_uris":{"android":"levelo://app?vid=36aa6f0d-c8a5-421f-bb1a-43d21232f078","ios":"levelo://app?vid=36aa6f0d-c8a5-421f-bb1a-43d21232f078"},"vehicle_type_id":"4","last_reported":1779329545,"current_range_meters":9200,"station_id":"st_d2o4gvlbi1j2169b742g","pricing_plan_id":"cebpf4jnsgd1na2vs0mg"},{"bike_id":"eaf6d7d2-7aca-4232-bc5d-e17333efbf3d","system_id":"levelo_inurba_marseille","lat":43.26188,"lon":5.37459,"is_reserved":false,"is_disabled":true,"rental_uris":{"android":"levelo://app?vid=eaf6d7d2-7aca-4232-bc5d-e17333efbf3d","ios":"levelo://app?vid=eaf6d7d2-7aca-4232-bc5d-e17333efbf3d"},"vehicle_type_id":"4","last_reported":1779329545,"current_range_meters":9200,"station_id":"ce4bhgp2rcd13ifvqfc0","pricing_plan_id":"cebpf4jnsgd1na2vs0mg"},{"bike_id":"aa328c66-195e-4754-bc09-a9d3e3da759b","system_id":"levelo_inurba_marseille","lat":43.28098,"lon":5.37853,"is_reserved":false,"is_disabled":false,"rental_uris":{"android":"levelo://app?vid=aa328c66-195e-4754-bc09-a9d3e3da759b","ios":"levelo://app?vid=aa328c66-195e-4754-bc09-a9d3e3da759b"},"vehicle_type_id":"4","last_reported":1779329545,"current_range_meters":9200,"station_id":"ce4bha12rcd13ifvqee0","pricing_plan_id":"cebpf4jnsgd1na2vs0mg"},