{"last_updated":1746281320,"ttl":60,"version":"2.2","data":{"bikes":[{"bike_id":"5f75a91e-ae63-4c6d-b31f-368a27bb5d15","system_id":"levelo_inurba_marseille","lat":43.21748,"lon":5.34601,"is_reserved":false,"is_disabled":false,"rental_uris":{"android":"levelo://app?vid=5f75a91e-ae63-4c6d-b31f-368a27bb5d15","ios":"levelo://app?vid=5f75a91e-ae63-4c6d-b31f-368a27bb5d15"},"vehicle_type_id":"4","last_reported":1746281320,"current_range_meters":2800,"station_id":"st_cvj6r9ubvosntc0bgbag","pricing_plan_id":"cebpf4jnsgd1na2vs0mg"},{"bike_id":"9f054f8a-642f-4898-87db-4e42caa9206e","system_id":"levelo_inurba_marseille","lat":43.336,"lon":5.41034,"is_reserved":false,"is_disabled":false,"rental_uris":{"android":"levelo://app?vid=9f054f8a-642f-4898-87db-4e42caa9206e","ios":"levelo://app?vid=9f054f8a-642f-4898-87db-4e42caa9206e"},"vehicle_type_id":"4","last_reported":1746281320,"current_range_meters":2000,"station_id":"ce4bhqh2rcd13ifvqhmg","pricing_plan_id":"cebpf4jnsgd1na2vs0mg"},{"bike_id":"b89a3167-2541-490a-a77c-20f22bbb0e5e","system_id":"levelo_inurba_marseille","lat":43.28939,"lon":5.36636,"is_reserved":false,"is_disabled":false,"rental_uris":{"android":"levelo://app?vid=b89a3167-2541-490a-a77c-20f22bbb0e5e","ios":"levelo://app?vid=b89a3167-2541-490a-a77c-20f22bbb0e5e"},"vehicle_type_id":"4","last_reported":1746281320,"current_range_meters":2800,"station_id":"ce4bhap2rcd13ifvqek0","pricing_plan_id":"cebpf4jnsgd1na2vs0mg"},{"bike_id":"43aec6d7-ddcd-4e79-93c2-3d3ef047d9ff","system_id":"levelo_inurba_marseille","lat":43.24804,"lon":5.37454,"is_reserved":false,"is_disabled":false,"rental_uris":{"android":"levelo://app?vid=43aec6d7-ddcd-4e79-93c2-3d3ef047d9ff","ios":"levelo://app?vid=43aec6d7-ddcd-4e79-93c2-3d3ef047d9ff"},"vehicle_type_id":"4","last_reported":1746281320,"current_range_meters":2800,"station_id":"ce4bhgh2rcd13ifvqfb0","pricing_plan_id":"cebpf4jnsgd1na2vs0mg"},{"bike_id":"8c93c613-d1f2-40ec-a354-7bd207262e4f","system_id":"levelo_inurba_marseille","lat":43.290222,"lon":5.381227,"is_reserved":false,"is_disabled":false,"rental_uris":{"android":"levelo://app?vid=8c93c613-d1f2-40ec-a354-7bd207262e4f","ios":"levelo://app?vid=8c93c613-d1f2-40ec-a354-7bd207262e4f"},"vehicle_type_id":"4","last_reported":1746281320,"current_range_meters":2000,"station_id":"ce4bh4p2rcd13ifvqe1g","pricing_plan_id":"cebpf4jnsgd1na2vs0mg"},{"bike_id":"5ed16451-564f-4f42-8726-33dd4369d317","system_id":"levelo_inurba_marseille","lat":43.29966,"lon":5.38499,"is_reserved":false,"is_disabled":false,"rental_uris":{"android":"levelo://app?vid=5ed16451-564f-4f42-8726-33dd4369d317","ios":"levelo://app?vid=5ed16451-564f-4f42-8726-33dd4369d317"},"vehicle_type_id":"4","last_reported":1746281320,"current_range_meters":3200,"station_id":"ce4bgj92rcd13ifvqbd0","pricing_plan_id":"cebpf4jnsgd1na2vs0mg"},{"bike_id":"14a1265e-bd96-4498-bacb-754b2e322a7c","system_id":"levelo_inurba_marseille","lat":43.29434,"lon":5.38656,"is_reserved":false,"is_disabled":false,"rental_uris":{"android":"levelo://app?vid=14a1265e-bd96-4498-bacb-754b2e322a7c","ios":"levelo://app?vid=14a1265e-bd96-4498-bacb-754b2e322a7c"},"vehicle_type_id":"4","last_reported":1746281320,"current_range_meters":3200,"station_id":"ce4bh2h2rcd13ifvqdh0","pricing_plan_id":"cebpf4jnsgd1na2vs0mg"},{"bike_id":"4fcb94dd-7e2e-4c2b-a657-b8760b2238dc","system_id":"levelo_inurba_marseille","lat":43.2594,"lon":5.40913,"is_reserved":false,"is_disabled":false,"rental_uris":{"android":"levelo://app?vid=4fcb94dd-7e2e-4c2b-a657-b8760b2238dc","ios":"levelo://app?vid=4fcb94dd-7e2e-4c2b-a657-b8760b2238dc"},"vehicle_type_id":"4","last_reported":1746281320,"current_range_meters":3200,"station_id":"ce4bhm92rcd13ifvqglg","pricing_plan_id":"cebpf4jnsgd1na2vs0mg"},{"bike_id":"3a4fa58a-1cdb-4fec-be1e-762b44308336","system_id":"levelo_inurba_marseille","lat":43.23965,"lon":5.36634,"is_reserved":false,"is_disabled":false,"rental_uris":{"android":"levelo://app?vid=3a4fa58a-1cdb-4fec-be1e-762b44308336","ios":"levelo://app?vid=3a4fa58a-1cdb-4fec-be1e-762b44308336"},"vehicle_type_id":"4","last_reported":1746281320,"current_range_meters":3200,"station_id":"ce4bhi12rcd13ifvqfp0","pricing_plan_id":"cebpf4jnsgd1na2vs0mg"},{"bike_id":"228c76ff-f630-4f5a-a531-1525ea8b93a9","system_id":"levelo_inurba_marseille","lat":43.30597,"lon":5.39357,"is_reserved":false,"is_disabled":false,"rental_uris":{"android":"levelo://app?vid=228c76ff-f630-4f5a-a531-1525ea8b93a9","ios":"levelo://app?vid=228c76ff-f630-4f5a-a531-1525ea8b93a9"},"vehicle_type_id":"4","last_reported":1746281320,"current_range_meters":3200,"station_id":"ce4bh0p2rcd13ifvqd80","pricing_plan_id":"cebpf4jnsgd1na2vs0mg"},{"bike_id":"f73daf93-45c7-48c0-a61a-2d28ac89db8d","system_id":"levelo_inurba_marseille","lat":43.33949,"lon":5.42025,"is_reserved":false,"is_disabled":false,"rental_uris":{"android":"levelo://app?vid=f73daf93-45c7-48c0-a61a-2d28ac89db8d","ios":"levelo://app?vid=f73daf93-45c7-48c0-a61a-2d28ac89db8d"},"vehicle_type_id":"4","last_reported":1746281320,"current_range_meters":3200,"station_id":"","pricing_plan_id":"cebpf4jnsgd1na2vs0mg"},{"bike_id":"3d7a6bb1-0ca6-4fce-a743-2e1d6408d464","system_id":"levelo_inurba_marseille","lat":43.25576,"lon":5.38229,"is_reserved":false,"is_disabled":false,"rental_uris":{"android":"levelo://app?vid=3d7a6bb1-0ca6-4fce-a743-2e1d6408d464","ios":"levelo://app?vid=3d7a6bb1-0ca6-4fce-a743-2e1d6408d464"},"vehicle_type_id":"4","last_reported":1746281320,"current_range_meters":3200,"station_id":"ce4bhih2rcd13ifvqfs0","pricing_plan_id":"cebpf4jnsgd1na2vs0mg"},{"bike_id":"2be6c5ac-db75-4c9d-95c6-9c66882f14b8","system_id":"levelo_inurba_marseille","lat":43.27897,"lon":5.36308,"is_reserved":false,"is_disabled":false,"rental_uris":{"android":"levelo://app?vid=2be6c5ac-db75-4c9d-95c6-9c66882f14b8","ios":"levelo://app?vid=2be6c5ac-db75-4c9d-95c6-9c66882f14b8"},"vehicle_type_id":"4","last_reported":1746281320,"current_range_meters":3600,"station_id":"","pricing_plan_id":"cebpf4jnsgd1na2vs0mg"},{"bike_id":"fe2d3b2e-aa5e-4935-8bb6-3b659f16e8b2","system_id":"levelo_inurba_marseille","lat":43.24802,"lon":5.37452,"is_reserved":false,"is_disabled":false,"rental_uris":{"android":"levelo://app?vid=fe2d3b2e-aa5e-4935-8bb6-3b659f16e8b2","ios":"levelo://app?vid=fe2d3b2e-aa5e-4935-8bb6-3b659f16e8b2"},"vehicle_type_id":"4","last_reported":1746281320,"current_range_meters":4000,"station_id":"ce4bhgh2rcd13ifvqfb0","pricing_plan_id":"cebpf4jnsgd1na2vs0mg"},{"bike_id":"2d87f24b-bb92-4f5a-9c64-611905425c8d","system_id":"levelo_inurba_marseille","lat":43.23667,"lon":5.39143,"is_reserved":false,"is_disabled":false,"rental_uris":{"android":"levelo://app?vid=2d87f24b-bb92-4f5a-9c64-611905425c8d","ios":"levelo://app?vid=2d87f24b-bb92-4f5a-9c64-611905425c8d"},"vehicle_type_id":"4","last_reported":1746281320,"current_range_meters":4000,"station_id":"","pricing_plan_id":"cebpf4jnsgd1na2vs0mg"},{"bike_id":"2af2bcf9-a457-43fc-8af7-4da451262cdc","system_id":"levelo_inurba_marseille","lat":43.26214,"lon":5.37441,"is_reserved":false,"is_disabled":false,"rental_uris":{"android":"levelo://app?vid=2af2bcf9-a457-43fc-8af7-4da451262cdc","ios":"levelo://app?vid=2af2bcf9-a457-43fc-8af7-4da451262cdc"},"vehicle_type_id":"4","last_reported":1746281320,"current_range_meters":4000,"station_id":"ce4bhgp2rcd13ifvqfc0","pricing_plan_id":"cebpf4jnsgd1na2vs0mg"},{"bike_id":"98bab6d4-8d25-41a9-a31d-052d3ee4daf6","system_id":"levelo_inurba_marseille","lat":43.278076,"lon":5.407187,"is_reserved":false,"is_disabled":false,"rental_uris":{"android":"levelo://app?vid=98bab6d4-8d25-41a9-a31d-052d3ee4daf6","ios":"levelo://app?vid=98bab6d4-8d25-41a9-a31d-052d3ee4daf6"},"vehicle_type_id":"4","last_reported":1746281320,"current_range_meters":4000,"station_id":"ce4bhnh2rcd13ifvqgtg","pricing_plan_id":"cebpf4jnsgd1na2vs0mg"},{"bike_id":"b7e6dc2a-d3ff-4e12-a27b-a6b59cfdf1a2","system_id":"levelo_inurba_marseille","lat":43.3061,"lon":5.37228,"is_reserved":false,"is_disabled":false,"rental_uris":{"android":"levelo://app?vid=b7e6dc2a-d3ff-4e12-a27b-a6b59cfdf1a2","ios":"levelo://app?vid=b7e6dc2a-d3ff-4e12-a27b-a6b59cfdf1a2"},"vehicle_type_id":"4","last_reported":1746281320,"current_range_meters":3600,"station_id":"ce4bgqh2rcd13ifvqc4g","pricing_plan_id":"cebpf4jnsgd1na2vs0mg"},{"bike_id":"1bf8ced2-981b-4e28-ad29-aa4f72707a32","system_id":"levelo_inurba_marseille","lat":43.21747,"lon":5.34594,"is_reserved":false,"is_disabled":false,"rental_uris":{"android":"levelo://app?vid=1bf8ced2-981b-4e28-ad29-aa4f72707a32","ios":"levelo://app?vid=1bf8ced2-981b-4e28-ad29-aa4f72707a32"},"vehicle_type_id":"4","last_reported":1746281320,"current_range_meters":4400,"station_id":"st_cvj6r9ubvosntc0bgbag","pricing_plan_id":"cebpf4jnsgd1na2vs0mg"},{"bike_id":"1cda1b19-5d1e-4702-af92-9a7c9f7d71d1","system_id":"levelo_inurba_marseille","lat":43.239618,"lon":5.366348,"is_reserved":false,"is_disabled":false,"rental_uris":{"android":"levelo://app?vid=1cda1b19-5d1e-4702-af92-9a7c9f7d71d1","ios":"levelo://app?vid=1cda1b19-5d1e-4702-af92-9a7c9f7d71d1"},"vehicle_type_id":"4","last_reported":1746281320,"current_range_meters":4400,"station_id":"ce4bhi12rcd13ifvqfp0","pricing_plan_id":"cebpf4jnsgd1na2vs0mg"},{"bike_id":"13c0816c-335f-4a6c-9cbd-90ef35b8b4e8","system_id":"levelo_inurba_marseille","lat":43.26579,"lon":5.39012,"is_reserved":false,"is_disabled":false,"rental_uris":{"android":"levelo://app?vid=13c0816c-335f-4a6c-9cbd-90ef35b8b4e8","ios":"levelo://app?vid=13c0816c-335f-4a6c-9cbd-90ef35b8b4e8"},"vehicle_type_id":"4","last_reported":1746281320,"current_range_meters":4400,"station_id":"ce4bhe12rcd13ifvqf30","pricing_plan_id":"cebpf4jnsgd1na2vs0mg"},{"bike_id":"ed4b8c8c-3ee6-4f08-895e-86ab08d930f0","system_id":"levelo_inurba_marseille","lat":43.29966,"lon":5.37161,"is_reserved":false,"is_disabled":false,"rental_uris":{"android":"levelo://app?vid=ed4b8c8c-3ee6-4f08-895e-86ab08d930f0","ios":"levelo://app?vid=ed4b8c8c-3ee6-4f08-895e-86ab08d930f0"},"vehicle_type_id":"4","last_reported":1746281320,"current_range_meters":4000,"station_id":"ce4bgr92rcd13ifvqc7g","pricing_plan_id":"cebpf4jnsgd1na2vs0mg"},{"bike_id":"324ff0fb-e7fc-49b6-b90c-9b00dcd345cc","system_id":"levelo_inurba_marseille","lat":43.27993,"lon":5.39998,"is_reserved":false,"is_disabled":false,"rental_uris":{"android":"levelo://app?vid=324ff0fb-e7fc-49b6-b90c-9b00dcd345cc","ios":"levelo://app?vid=324ff0fb-e7fc-49b6-b90c-9b00dcd345cc"},"vehicle_type_id":"4","last_reported":1746281320,"current_range_meters":4400,"station_id":"ce4bho92rcd13ifvqh4g","pricing_plan_id":"cebpf4jnsgd1na2vs0mg"},{"bike_id":"7971fe93-5f1d-4a59-8508-b415e64fcb18","system_id":"levelo_inurba_marseille","lat":43.30947,"lon":5.37364,"is_reserved":false,"is_disabled":false,"rental_uris":{"android":"levelo://app?vid=7971fe93-5f1d-4a59-8508-b415e64fcb18","ios":"levelo://app?vid=7971fe93-5f1d-4a59-8508-b415e64fcb18"},"vehicle_type_id":"4","last_reported":1746281320,"current_range_meters":4400,"station_id":"","pricing_plan_id":"cebpf4jnsgd1na2vs0mg"},{"bike_id":"41d00eef-1d8e-4bda-9447-30d03886cf9c","system_id":"levelo_inurba_marseille","lat":43.25093,"lon":5.39515,"is_reserved":false,"is_disabled":false,"rental_uris":{"android":"levelo://app?vid=41d00eef-1d8e-4bda-9447-30d03886cf9c","ios":"levelo://app?vid=41d00eef-1d8e-4bda-9447-30d03886cf9c"},"vehicle_type_id":"4","last_reported":1746281320,"current_range_meters":0,"station_id":"ce4bhm12rcd13ifvqgkg","pricing_plan_id":"cebpf4jnsgd1na2vs0mg"},{"bike_id":"5e759aa3-ad13-4bf4-9610-a0120007de67","system_id":"levelo_inurba_marseille","lat":43.30541,"lon":5.36556,"is_reserved":false,"is_disabled":false,"rental_uris":{"android":"levelo://app?vid=5e759aa3-ad13-4bf4-9610-a0120007de67","ios":"levelo://app?vid=5e759aa3-ad13-4bf4-9610-a0120007de67"},"vehicle_type_id":"4","last_reported":1746281320,"current_range_meters":4800,"station_id":"ce4bgs12rcd13ifvqcag","pricing_plan_id":"cebpf4jnsgd1na2vs0mg"},{"bike_id":"7715676e-8194-456c-84fd-f0f00e794351","system_id":"levelo_inurba_marseille","lat":43.26199,"lon":5.37929,"is_reserved":false,"is_disabled":false,"rental_uris":{"android":"levelo://app?vid=7715676e-8194-456c-84fd-f0f00e794351","ios":"levelo://app?vid=7715676e-8194-456c-84fd-f0f00e794351"},"vehicle_type_id":"4","last_reported":1746281320,"current_range_meters":4800,"station_id":"ce4bhjp2rcd13ifvqg90","pricing_plan_id":"cebpf4jnsgd1na2vs0mg"},{"bike_id":"2446fac7-0853-40d4-99dd-027547d42531","system_id":"levelo_inurba_marseille","lat":43.2319,"lon":5.3556,"is_reserved":false,"is_disabled":false,"rental_uris":{"android":"levelo://app?vid=2446fac7-0853-40d4-99dd-027547d42531","ios":"levelo://app?vid=2446fac7-0853-40d4-99dd-027547d42531"},"vehicle_type_id":"4","last_reported":1746281320,"current_range_meters":4800,"station_id":"ce4bhu92rcd13ifvqi70","pricing_plan_id":"cebpf4jnsgd1na2vs0mg"},{"bike_id":"d0b7059b-f0e0-4710-8176-005361741ed1","system_id":"levelo_inurba_marseille","lat":43.239633,"lon":5.366212,"is_reserved":false,"is_disabled":false,"rental_uris":{"android":"levelo://app?vid=d0b7059b-f0e0-4710-8176-005361741ed1","ios":"levelo://app?vid=d0b7059b-f0e0-4710-8176-005361741ed1"},"vehicle_type_id":"4","last_reported":1746281320,"current_range_meters":5600,"station_id":"ce4bhi12rcd13ifvqfp0","pricing_plan_id":"cebpf4jnsgd1na2vs0mg"},{"bike_id":"0a25284c-1cc1-4990-9246-2524adc6d5a2","system_id":"levelo_inurba_marseille","lat":43.21193,"lon":5.35066,"is_reserved":false,"is_disabled":false,"rental_uris":{"android":"levelo://app?vid=0a25284c-1cc1-4990-9246-2524adc6d5a2","ios":"levelo://app?vid=0a25284c-1cc1-4990-9246-2524adc6d5a2"},"vehicle_type_id":"4","last_reported":1746281320,"current_range_meters":5600,"station_id":"st_cvj6sg6p6f1abm77japg","pricing_plan_id":"cebpf4jnsgd1na2vs0mg"},{"bike_id":"96b9f48f-efb0-43cf-b578-6c77ebd8b117","system_id":"levelo_inurba_marseille","lat":43.29869,"lon":5.39728,"is_reserved":false,"is_disabled":false,"rental_uris":{"android":"levelo://app?vid=96b9f48f-efb0-43cf-b578-6c77ebd8b117","ios":"levelo://app?vid=96b9f48f-efb0-43cf-b578-6c77ebd8b117"},"vehicle_type_id":"4","last_reported":1746281320,"current_range_meters":5600,"station_id":"ce4bh0h2rcd13ifvqd50","pricing_plan_id":"cebpf4jnsgd1na2vs0mg"},{"bike_id":"de4ec590-7e5b-4dd4-a0d3-036fbe026126","system_id":"levelo_inurba_marseille","lat":43.31712,"lon":5.43709,"is_reserved":false,"is_disabled":false,"rental_uris":{"android":"levelo://app?vid=de4ec590-7e5b-4dd4-a0d3-036fbe026126","ios":"levelo://app?vid=de4ec590-7e5b-4dd4-a0d3-036fbe026126"},"vehicle_type_id":"4","last_reported":1746281320,"current_range_meters":5600,"station_id":"ce4bhp92rcd13ifvqhcg","pricing_plan_id":"cebpf4jnsgd1na2vs0mg"},{"bike_id":"8db712a6-8122-41e8-911c-a9e6e162f4d0","system_id":"levelo_inurba_marseille","lat":43.262075,"lon":5.37445,"is_reserved":false,"is_disabled":false,"rental_uris":{"android":"levelo://app?vid=8db712a6-8122-41e8-911c-a9e6e162f4d0","ios":"levelo://app?vid=8db712a6-8122-41e8-911c-a9e6e162f4d0"},"vehicle_type_id":"4","last_reported":1746281320,"current_range_meters":5600,"station_id":"ce4bhgp2rcd13ifvqfc0","pricing_plan_id":"cebpf4jnsgd1na2vs0mg"},{"bike_id":"18343a21-2da2-4827-8837-9bddad4e02e9","system_id":"levelo_inurba_marseille","lat":43.26774,"lon":5.39423,"is_reserved":false,"is_disabled":false,"rental_uris":{"android":"levelo://app?vid=18343a21-2da2-4827-8837-9bddad4e02e9","ios":"levelo://app?vid=18343a21-2da2-4827-8837-9bddad4e02e9"},"vehicle_type_id":"4","last_reported":1746281320,"current_range_meters":6000,"station_id":"ce4bhh12rcd13ifvqfg0","pricing_plan_id":"cebpf4jnsgd1na2vs0mg"},{"bike_id":"bb1b1976-90c7-4237-9814-2d670d1d90fe","system_id":"levelo_inurba_marseille","lat":43.24179,"lon":5.3973,"is_reserved":false,"is_disabled":false,"rental_uris":{"android":"levelo://app?vid=bb1b1976-90c7-4237-9814-2d670d1d90fe","ios":"levelo://app?vid=bb1b1976-90c7-4237-9814-2d670d1d90fe"},"vehicle_type_id":"4","last_reported":1746281320,"current_range_meters":6000,"station_id":"ce4bhn12rcd13ifvqgpg","pricing_plan_id":"cebpf4jnsgd1na2vs0mg"},{"bike_id":"a69ccf4e-5743-4dc3-a630-b2344bf0c864","system_id":"levelo_inurba_marseille","lat":43.3171,"lon":5.37794,"is_reserved":false,"is_disabled":false,"rental_uris":{"android":"levelo://app?vid=a69ccf4e-5743-4dc3-a630-b2344bf0c864","ios":"levelo://app?vid=a69ccf4e-5743-4dc3-a630-b2344bf0c864"},"vehicle_type_id":"4","last_reported":1746281320,"current_range_meters":6000,"station_id":"ce4bgth2rcd13ifvqch0","pricing_plan_id":"cebpf4jnsgd1na2vs0mg"},{"bike_id":"5e04b7f4-cf32-4853-a03c-272a7a02a657","system_id":"levelo_inurba_marseille","lat":43.211925,"lon":5.350685,"is_reserved":false,"is_disabled":false,"rental_uris":{"android":"levelo://app?vid=5e04b7f4-cf32-4853-a03c-272a7a02a657","ios":"levelo://app?vid=5e04b7f4-cf32-4853-a03c-272a7a02a657"},"vehicle_type_id":"4","last_reported":1746281320,"current_range_meters":6000,"station_id":"st_cvj6sg6p6f1abm77japg","pricing_plan_id":"cebpf4jnsgd1na2vs0mg"},{"bike_id":"8f39f1c0-3c63-4000-ba9e-9b5590bb2b71","system_id":"levelo_inurba_marseille","lat":43.21742,"lon":5.34611,"is_reserved":false,"is_disabled":false,"rental_uris":{"android":"levelo://app?vid=8f39f1c0-3c63-4000-ba9e-9b5590bb2b71","ios":"levelo://app?vid=8f39f1c0-3c63-4000-ba9e-9b5590bb2b71"},"vehicle_type_id":"4","last_reported":1746281320,"current_range_meters":6400,"station_id":"st_cvj6r9ubvosntc0bgbag","pricing_plan_id":"cebpf4jnsgd1na2vs0mg"},{"bike_id":"d75ff0fa-007f-432e-a50f-f9cd0205a7fe","system_id":"levelo_inurba_marseille","lat":43.30311,"lon":5.36888,"is_reserved":false,"is_disabled":false,"rental_uris":{"android":"levelo://app?vid=d75ff0fa-007f-432e-a50f-f9cd0205a7fe","ios":"levelo://app?vid=d75ff0fa-007f-432e-a50f-f9cd0205a7fe"},"vehicle_type_id":"4","last_reported":1746281320,"current_range_meters":6800,"station_id":"ce4bgqh2rcd13ifvqc5g","pricing_plan_id":"cebpf4jnsgd1na2vs0mg"},{"bike_id":"1bbbfe85-f436-4aab-8b40-65a6948bc664","system_id":"levelo_inurba_marseille","lat":43.28265,"lon":5.3508,"is_reserved":false,"is_disabled":false,"rental_uris":{"android":"levelo://app?vid=1bbbfe85-f436-4aab-8b40-65a6948bc664","ios":"levelo://app?vid=1bbbfe85-f436-4aab-8b40-65a6948bc664"},"vehicle_type_id":"4","last_reported":1746281320,"current_range_meters":6400,"station_id":"ce4bhbp2rcd13ifvqerg","pricing_plan_id":"cebpf4jnsgd1na2vs0mg"},{"bike_id":"2f4632c8-afda-40d2-86b8-c05e6d1d12c0","system_id":"levelo_inurba_marseille","lat":43.2862,"lon":5.35107,"is_reserved":false,"is_disabled":false,"rental_uris":{"android":"levelo://app?vid=2f4632c8-afda-40d2-86b8-c05e6d1d12c0","ios":"levelo://app?vid=2f4632c8-afda-40d2-86b8-c05e6d1d12c0"},"vehicle_type_id":"4","last_reported":1746281320,"current_range_meters":6400,"station_id":"ce4bhch2rcd13ifvqeug","pricing_plan_id":"cebpf4jnsgd1na2vs0mg"},{"bike_id":"173a5c73-191c-451a-bb9d-4b642ebe4f47","system_id":"levelo_inurba_marseille","lat":43.28617,"lon":5.35096,"is_reserved":false,"is_disabled":false,"rental_uris":{"android":"levelo://app?vid=173a5c73-191c-451a-bb9d-4b642ebe4f47","ios":"levelo://app?vid=173a5c73-191c-451a-bb9d-4b642ebe4f47"},"vehicle_type_id":"4","last_reported":1746281320,"current_range_meters":6400,"station_id":"ce4bhch2rcd13ifvqeug","pricing_plan_id":"cebpf4jnsgd1na2vs0mg"},{"bike_id":"ee7f9b95-49c4-4562-a7d1-79e96d1d9de6","system_id":"levelo_inurba_marseille","lat":43.31237,"lon":5.36866,"is_reserved":false,"is_disabled":false,"rental_uris":{"android":"levelo://app?vid=ee7f9b95-49c4-4562-a7d1-79e96d1d9de6","ios":"levelo://app?vid=ee7f9b95-49c4-4562-a7d1-79e96d1d9de6"},"vehicle_type_id":"4","last_reported":1746281320,"current_range_meters":6400,"station_id":"ce4bgl92rcd13ifvqbq0","pricing_plan_id":"cebpf4jnsgd1na2vs0mg"},{"bike_id":"62b6a680-5f99-465a-98b6-0efe3ef83813","system_id":"levelo_inurba_marseille","lat":43.23191,"lon":5.35567,"is_reserved":false,"is_disabled":false,"rental_uris":{"android":"levelo://app?vid=62b6a680-5f99-465a-98b6-0efe3ef83813","ios":"levelo://app?vid=62b6a680-5f99-465a-98b6-0efe3ef83813"},"vehicle_type_id":"4","last_reported":1746281320,"current_range_meters":6800,"station_id":"ce4bhu92rcd13ifvqi70","pricing_plan_id":"cebpf4jnsgd1na2vs0mg"},{"bike_id":"1dc8f26d-4a80-4ee5-870b-5340933d186c","system_id":"levelo_inurba_marseille","lat":43.25721,"lon":5.4111,"is_reserved":false,"is_disabled":false,"rental_uris":{"android":"levelo://app?vid=1dc8f26d-4a80-4ee5-870b-5340933d186c","ios":"levelo://app?vid=1dc8f26d-4a80-4ee5-870b-5340933d186c"},"vehicle_type_id":"4","last_reported":1746281320,"current_range_meters":6800,"station_id":"ce4bhkp2rcd13ifvqgd0","pricing_plan_id":"cebpf4jnsgd1na2vs0mg"},{"bike_id":"b4e79752-b71b-47a9-ab18-675a6a26004e","system_id":"levelo_inurba_marseille","lat":43.29278,"lon":5.36837,"is_reserved":false,"is_disabled":false,"rental_uris":{"android":"levelo://app?vid=b4e79752-b71b-47a9-ab18-675a6a26004e","ios":"levelo://app?vid=b4e79752-b71b-47a9-ab18-675a6a26004e"},"vehicle_type_id":"4","last_reported":1746281320,"current_range_meters":6800,"station_id":"ce4bhbp2rcd13ifvqesg","pricing_plan_id":"cebpf4jnsgd1na2vs0mg"},{"bike_id":"010ec91c-417f-4f2b-90e0-9ab2e5c9bd11","system_id":"levelo_inurba_marseille","lat":43.282775,"lon":5.350697,"is_reserved":false,"is_disabled":false,"rental_uris":{"android":"levelo://app?vid=010ec91c-417f-4f2b-90e0-9ab2e5c9bd11","ios":"levelo://app?vid=010ec91c-417f-4f2b-90e0-9ab2e5c9bd11"},"vehicle_type_id":"4","last_reported":1746281320,"current_range_meters":6800,"station_id":"","pricing_plan_id":"cebpf4jnsgd1na2vs0mg"},{"bike_id":"67192092-173e-4233-9bfe-be25fc091f42","system_id":"levelo_inurba_marseille","lat":43.24081,"lon":5.37753,"is_reserved":false,"is_disabled":false,"rental_uris":{"android":"levelo://app?vid=67192092-173e-4233-9bfe-be25fc091f42","ios":"levelo://app?vid=67192092-173e-4233-9bfe-be25fc091f42"},"vehicle_type_id":"4","last_reported":1746281320,"current_range_meters":6800,"station_id":"ce4bhnp2rcd13ifvqgvg","pricing_plan_id":"cebpf4jnsgd1na2vs0mg"},{"bike_id":"7128bd0d-bf4c-438d-aec0-35506f98d4d7","system_id":"levelo_inurba_marseille","lat":43.28613,"lon":5.35107,"is_reserved":false,"is_disabled":false,"rental_uris":{"android":"levelo://app?vid=7128bd0d-bf4c-438d-aec0-35506f98d4d7","ios":"levelo://app?vid=7128bd0d-bf4c-438d-aec0-35506f98d4d7"},"vehicle_type_id":"4","last_reported":1746281320,"current_range_meters":6800,"station_id":"ce4bhch2rcd13ifvqeug","pricing_plan_id":"cebpf4jnsgd1na2vs0mg"},{"bike_id":"6c1e637a-56a1-4ff2-964c-06bdd3052360","system_id":"levelo_inurba_marseille","lat":43.25495,"lon":5.3767,"is_reserved":false,"is_disabled":false,"rental_uris":{"android":"levelo://app?vid=6c1e637a-56a1-4ff2-964c-06bdd3052360","ios":"levelo://app?vid=6c1e637a-56a1-4ff2-964c-06bdd3052360"},"vehicle_type_id":"4","last_reported":1746281320,"current_range_meters":7200,"station_id":"ce4bhh12rcd13ifvqff0","pricing_plan_id":"cebpf4jnsgd1na2vs0mg"},{"bike_id":"5b9238d4-b62f-479f-88db-255f8d78812c","system_id":"levelo_inurba_marseille","lat":43.23963,"lon":5.3662,"is_reserved":false,"is_disabled":false,"rental_uris":{"android":"levelo://app?vid=5b9238d4-b62f-479f-88db-255f8d78812c","ios":"levelo://app?vid=5b9238d4-b62f-479f-88db-255f8d78812c"},"vehicle_type_id":"4","last_reported":1746281320,"current_range_meters":7200,"station_id":"ce4bhi12rcd13ifvqfp0","pricing_plan_id":"cebpf4jnsgd1na2vs0mg"},{"bike_id":"afaeac27-fc81-419e-a20e-04d5f04c6caa","system_id":"levelo_inurba_marseille","lat":43.27318,"lon":5.39065,"is_reserved":false,"is_disabled":false,"rental_uris":{"android":"levelo://app?vid=afaeac27-fc81-419e-a20e-04d5f04c6caa","ios":"levelo://app?vid=afaeac27-fc81-419e-a20e-04d5f04c6caa"},"vehicle_type_id":"4","last_reported":1746281320,"current_range_meters":7200,"station_id":"ce4bhgp2rcd13ifvqfe0","pricing_plan_id":"cebpf4jnsgd1na2vs0mg"},{"bike_id":"a7d43f64-b6c8-4af1-ae08-9081efab7269","system_id":"levelo_inurba_marseille","lat":43.23961,"lon":5.36623,"is_reserved":false,"is_disabled":false,"rental_uris":{"android":"levelo://app?vid=a7d43f64-b6c8-4af1-ae08-9081efab7269","ios":"levelo://app?vid=a7d43f64-b6c8-4af1-ae08-9081efab7269"},"vehicle_type_id":"4","last_reported":1746281320,"current_range_meters":8000,"station_id":"ce4bhi12rcd13ifvqfp0","pricing_plan_id":"cebpf4jnsgd1na2vs0mg"},{"bike_id":"1d3f7cbf-3db7-496b-a367-24c92f5a7d89","system_id":"levelo_inurba_marseille","lat":43.21188,"lon":5.35079,"is_reserved":false,"is_disabled":false,"rental_uris":{"android":"levelo://app?vid=1d3f7cbf-3db7-496b-a367-24c92f5a7d89","ios":"levelo://app?vid=1d3f7cbf-3db7-496b-a367-24c92f5a7d89"},"vehicle_type_id":"4","last_reported":1746281320,"current_range_meters":8000,"station_id":"st_cvj6sg6p6f1abm77japg","pricing_plan_id":"cebpf4jnsgd1na2vs0mg"},{"bike_id":"37838047-f6a3-4360-8eb2-382f8529acb4","system_id":"levelo_inurba_marseille","lat":43.25587,"lon":5.38235,"is_reserved":false,"is_disabled":false,"rental_uris":{"android":"levelo://app?vid=37838047-f6a3-4360-8eb2-382f8529acb4","ios":"levelo://app?vid=37838047-f6a3-4360-8eb2-382f8529acb4"},"vehicle_type_id":"4","last_reported":1746281320,"current_range_meters":8000,"station_id":"ce4bhih2rcd13ifvqfs0","pricing_plan_id":"cebpf4jnsgd1na2vs0mg"},{"bike_id":"10664c03-6a56-4ff9-97c5-7c4b9fbea670","system_id":"levelo_inurba_marseille","lat":43.225035,"lon":5.347845,"is_reserved":false,"is_disabled":false,"rental_uris":{"android":"levelo://app?vid=10664c03-6a56-4ff9-97c5-7c4b9fbea670","ios":"levelo://app?vid=10664c03-6a56-4ff9-97c5-7c4b9fbea670"},"vehicle_type_id":"4","last_reported":1746281320,"current_range_meters":8000,"station_id":"st_cvj5dfep6f1abm77gieg","pricing_plan_id":"cebpf4jnsgd1na2vs0mg"},{"bike_id":"38412710-bb28-4675-8b86-f91fbec3ac84","system_id":"levelo_inurba_marseille","lat":43.2572,"lon":5.41115,"is_reserved":false,"is_disabled":false,"rental_uris":{"android":"levelo://app?vid=38412710-bb28-4675-8b86-f91fbec3ac84","ios":"levelo://app?vid=38412710-bb28-4675-8b86-f91fbec3ac84"},"vehicle_type_id":"4","last_reported":1746281320,"current_range_meters":7200,"station_id":"ce4bhkp2rcd13ifvqgd0","pricing_plan_id":"cebpf4jnsgd1na2vs0mg"},{"bike_id":"03f8f1a1-348f-43c1-810e-3f5bf3b4a5c6","system_id":"levelo_inurba_marseille","lat":43.24901,"lon":5.39394,"is_reserved":false,"is_disabled":false,"rental_uris":{"android":"levelo://app?vid=03f8f1a1-348f-43c1-810e-3f5bf3b4a5c6","ios":"levelo://app?vid=03f8f1a1-348f-43c1-810e-3f5bf3b4a5c6"},"vehicle_type_id":"4","last_reported":1746281320,"current_range_meters":8000,"station_id":"","pricing_plan_id":"cebpf4jnsgd1na2vs0mg"},{"bike_id":"2ec6dd80-93b4-435e-89c9-9ef2c5604b75","system_id":"levelo_inurba_marseille","lat":43.24168,"lon":5.39733,"is_reserved":false,"is_disabled":false,"rental_uris":{"android":"levelo://app?vid=2ec6dd80-93b4-435e-89c9-9ef2c5604b75","ios":"levelo://app?vid=2ec6dd80-93b4-435e-89c9-9ef2c5604b75"},"vehicle_type_id":"4","last_reported":1746281320,"current_range_meters":8400,"station_id":"ce4bhn12rcd13ifvqgpg","pricing_plan_id":"cebpf4jnsgd1na2vs0mg"},{"bike_id":"c811b81b-299d-4f8d-b843-ae1756353fd2","system_id":"levelo_inurba_marseille","lat":43.211893,"lon":5.35065,"is_reserved":false,"is_disabled":false,"rental_uris":{"android":"levelo://app?vid=c811b81b-299d-4f8d-b843-ae1756353fd2","ios":"levelo://app?vid=c811b81b-299d-4f8d-b843-ae1756353fd2"},"vehicle_type_id":"4","last_reported":1746281320,"current_range_meters":8400,"station_id":"st_cvj6sg6p6f1abm77japg","pricing_plan_id":"cebpf4jnsgd1na2vs0mg"},{"bike_id":"fe05e755-145e-4aba-b0e1-648f715e5e47","system_id":"levelo_inurba_marseille","lat":43.21746,"lon":5.34602,"is_reserved":false,"is_disabled":false,"rental_uris":{"android":"levelo://app?vid=fe05e755-145e-4aba-b0e1-648f715e5e47","ios":"levelo://app?vid=fe05e755-145e-4aba-b0e1-648f715e5e47"},"vehicle_type_id":"4","last_reported":1746281320,"current_range_meters":8400,"station_id":"st_cvj6r9ubvosntc0bgbag","pricing_plan_id":"cebpf4jnsgd1na2vs0mg"},{"bike_id":"ceb7bbc0-0abe-4c68-8877-1b73485c0d71","system_id":"levelo_inurba_marseille","lat":43.2737,"lon":5.36255,"is_reserved":false,"is_disabled":false,"rental_uris":{"android":"levelo://app?vid=ceb7bbc0-0abe-4c68-8877-1b73485c0d71","ios":"levelo://app?vid=ceb7bbc0-0abe-4c68-8877-1b73485c0d71"},"vehicle_type_id":"4","last_reported":1746281320,"current_range_meters":8400,"station_id":"ce4bhbh2rcd13ifvqeo0","pricing_plan_id":"cebpf4jnsgd1na2vs0mg"},{"bike_id":"c2572591-722d-4871-8c1c-32c9d3e183ba","system_id":"levelo_inurba_marseille","lat":43.28057,"lon":5.42718,"is_reserved":false,"is_disabled":false,"rental_uris":{"android":"levelo://app?vid=c2572591-722d-4871-8c1c-32c9d3e183ba","ios":"levelo://app?vid=c2572591-722d-4871-8c1c-32c9d3e183ba"},"vehicle_type_id":"4","last_reported":1746281320,"current_range_meters":8400,"station_id":"","pricing_plan_id":"cebpf4jnsgd1na2vs0mg"},{"bike_id":"4d2fe1ca-70c8-4826-aba6-9aa47bdf7f8c","system_id":"levelo_inurba_marseille","lat":43.26193,"lon":5.37449,"is_reserved":false,"is_disabled":false,"rental_uris":{"android":"levelo://app?vid=4d2fe1ca-70c8-4826-aba6-9aa47bdf7f8c","ios":"levelo://app?vid=4d2fe1ca-70c8-4826-aba6-9aa47bdf7f8c"},"vehicle_type_id":"4","last_reported":1746281320,"current_range_meters":8800,"station_id":"ce4bhgp2rcd13ifvqfc0","pricing_plan_id":"cebpf4jnsgd1na2vs0mg"},{"bike_id":"bf4c1fc8-2664-4134-a414-a46fbf2caa8b","system_id":"levelo_inurba_marseille","lat":43.27354,"lon":5.36238,"is_reserved":false,"is_disabled":false,"rental_uris":{"android":"levelo://app?vid=bf4c1fc8-2664-4134-a414-a46fbf2caa8b","ios":"levelo://app?vid=bf4c1fc8-2664-4134-a414-a46fbf2caa8b"},"vehicle_type_id":"4","last_reported":1746281320,"current_range_meters":8400,"station_id":"ce4bhbh2rcd13ifvqeo0","pricing_plan_id":"cebpf4jnsgd1na2vs0mg"},{"bike_id":"3de94c14-2ea2-46dc-9da5-528defe52a87","system_id":"levelo_inurba_marseille","lat":43.26806,"lon":5.402702,"is_reserved":false,"is_disabled":false,"rental_uris":{"android":"levelo://app?vid=3de94c14-2ea2-46dc-9da5-528defe52a87","ios":"levelo://app?vid=3de94c14-2ea2-46dc-9da5-528defe52a87"},"vehicle_type_id":"4","last_reported":1746281320,"current_range_meters":8400,"station_id":"ce501612rcd8frsf0b60","pricing_plan_id":"cebpf4jnsgd1na2vs0mg"},{"bike_id":"038a1734-ebe7-4044-b80c-b48b28f6964b","system_id":"levelo_inurba_marseille","lat":43.29994,"lon":5.41342,"is_reserved":false,"is_disabled":false,"rental_uris":{"android":"levelo://app?vid=038a1734-ebe7-4044-b80c-b48b28f6964b","ios":"levelo://app?vid=038a1734-ebe7-4044-b80c-b48b28f6964b"},"vehicle_type_id":"4","last_reported":1746281320,"current_range_meters":8400,"station_id":"ce4bhp12rcd13ifvqh9g","pricing_plan_id":"cebpf4jnsgd1na2vs0mg"},{"bike_id":"04bb6f96-9e39-4108-8723-bc204926f7d5","system_id":"levelo_inurba_marseille","lat":43.28267,"lon":5.35072,"is_reserved":false,"is_disabled":false,"rental_uris":{"android":"levelo://app?vid=04bb6f96-9e39-4108-8723-bc204926f7d5","ios":"levelo://app?vid=04bb6f96-9e39-4108-8723-bc204926f7d5"},"vehicle_type_id":"4","last_reported":1746281320,"current_range_meters":8800,"station_id":"ce4bhbp2rcd13ifvqerg","pricing_plan_id":"cebpf4jnsgd1na2vs0mg"},{"bike_id":"ac392de7-5a76-4aa8-b96a-62f61cafa423","system_id":"levelo_inurba_marseille","lat":43.28619,"lon":5.35089,"is_reserved":false,"is_disabled":false,"rental_uris":{"android":"levelo://app?vid=ac392de7-5a76-4aa8-b96a-62f61cafa423","ios":"levelo://app?vid=ac392de7-5a76-4aa8-b96a-62f61cafa423"},"vehicle_type_id":"4","last_reported":1746281320,"current_range_meters":8800,"station_id":"ce4bhch2rcd13ifvqeug","pricing_plan_id":"cebpf4jnsgd1na2vs0mg"},{"bike_id":"01a13554-a34a-4609-bc8e-948ab864f0c2","system_id":"levelo_inurba_marseille","lat":43.29895,"lon":5.43665,"is_reserved":false,"is_disabled":false,"rental_uris":{"android":"levelo://app?vid=01a13554-a34a-4609-bc8e-948ab864f0c2","ios":"levelo://app?vid=01a13554-a34a-4609-bc8e-948ab864f0c2"},"vehicle_type_id":"4","last_reported":1746281320,"current_range_meters":8800,"station_id":"ce4bhpp2rcd13ifvqhfg","pricing_plan_id":"cebpf4jnsgd1na2vs0mg"},{"bike_id":"65afbb64-b57b-4df9-bcf1-453e71e708ed","system_id":"levelo_inurba_marseille","lat":43.3205,"lon":5.41546,"is_reserved":false,"is_disabled":false,"rental_uris":{"android":"levelo://app?vid=65afbb64-b57b-4df9-bcf1-453e71e708ed","ios":"levelo://app?vid=65afbb64-b57b-4df9-bcf1-453e71e708ed"},"vehicle_type_id":"4","last_reported":1746281320,"current_range_meters":8800,"station_id":"ce4bhq92rcd13ifvqhkg","pricing_plan_id":"cebpf4jnsgd1na2vs0mg"},{"bike_id":"4e0af904-702c-4b19-a064-03ed5007c3a7","system_id":"levelo_inurba_marseille","lat":43.21757,"lon":5.34593,"is_reserved":false,"is_disabled":false,"rental_uris":{"android":"levelo://app?vid=4e0af904-702c-4b19-a064-03ed5007c3a7","ios":"levelo://app?vid=4e0af904-702c-4b19-a064-03ed5007c3a7"},"vehicle_type_id":"4","last_reported":1746281320,"current_range_meters":8800,"station_id":"st_cvj6r9ubvosntc0bgbag","pricing_plan_id":"cebpf4jnsgd1na2vs0mg"},{"bike_id":"20ccbdaf-8a76-4cd4-87af-fb59c08e81dc","system_id":"levelo_inurba_marseille","lat":43.231949,"lon":5.355557,"is_reserved":false,"is_disabled":false,"rental_uris":{"android":"levelo://app?vid=20ccbdaf-8a76-4cd4-87af-fb59c08e81dc","ios":"levelo://app?vid=20ccbdaf-8a76-4cd4-87af-fb59c08e81dc"},"vehicle_type_id":"4","last_reported":1746281320,"current_range_meters":8800,"station_id":"ce4bhu92rcd13ifvqi70","pricing_plan_id":"cebpf4jnsgd1na2vs0mg"},{"bike_id":"d321969f-b787-4d5a-912e-565daf62d726","system_id":"levelo_inurba_marseille","lat":43.2942,"lon":5.37865,"is_reserved":false,"is_disabled":false,"rental_uris":{"android":"levelo://app?vid=d321969f-b787-4d5a-912e-565daf62d726","ios":"levelo://app?vid=d321969f-b787-4d5a-912e-565daf62d726"},"vehicle_type_id":"4","last_reported":1746281320,"current_range_meters":10000,"station_id":"ce4bgjh2rcd13ifvqbf0","pricing_plan_id":"cebpf4jnsgd1na2vs0mg"},{"bike_id":"06127141-dc6e-49d9-a8d5-27ce271dd256","system_id":"levelo_inurba_marseille","lat":43.28615,"lon":5.35101,"is_reserved":false,"is_disabled":false,"rental_uris":{"android":"levelo://app?vid=06127141-dc6e-49d9-a8d5-27ce271dd256","ios":"levelo://app?vid=06127141-dc6e-49d9-a8d5-27ce271dd256"},"vehicle_type_id":"4","last_reported":1746281320,"current_range_meters":9200,"station_id":"ce4bhch2rcd13ifvqeug","pricing_plan_id":"cebpf4jnsgd1na2vs0mg"},{"bike_id":"e27ce41e-d31e-4411-a762-387f29d91877","system_id":"levelo_inurba_marseille","lat":43.29552,"lon":5.42271,"is_reserved":false,"is_disabled":false,"rental_uris":{"android":"levelo://app?vid=e27ce41e-d31e-4411-a762-387f29d91877","ios":"levelo://app?vid=e27ce41e-d31e-4411-a762-387f29d91877"},"vehicle_type_id":"4","last_reported":1746281320,"current_range_meters":9200,"station_id":"ce4bhph2rcd13ifvqhdg","pricing_plan_id":"cebpf4jnsgd1na2vs0mg"},{"bike_id":"570b486c-50df-4f1f-97df-caa86c0d419e","system_id":"levelo_inurba_marseille","lat":43.33717,"lon":5.35581,"is_reserved":false,"is_disabled":false,"rental_uris":{"android":"levelo://app?vid=570b486c-50df-4f1f-97df-caa86c0d419e","ios":"levelo://app?vid=570b486c-50df-4f1f-97df-caa86c0d419e"},"vehicle_type_id":"4","last_reported":1746281320,"current_range_meters":9200,"station_id":"","pricing_plan_id":"cebpf4jnsgd1na2vs0mg"},{"bike_id":"e0e163c0-b70c-478b-a240-966060226969","system_id":"levelo_inurba_marseille","lat":43.292337,"lon":5.361969,"is_reserved":false,"is_disabled":false,"rental_uris":{"android":"levelo://app?vid=e0e163c0-b70c-478b-a240-966060226969","ios":"levelo://app?vid=e0e163c0-b70c-478b-a240-966060226969"},"vehicle_type_id":"4","last_reported":1746281320,"current_range_meters":9200,"station_id":"","pricing_plan_id":"cebpf4jnsgd1na2vs0mg"},{"bike_id":"30380250-a2cc-4ca9-aa52-6e36990cb6ac","system_id":"levelo_inurba_marseille","lat":43.23963,"lon":5.36631,"is_reserved":false,"is_disabled":false,"rental_uris":{"android":"levelo://app?vid=30380250-a2cc-4ca9-aa52-6e36990cb6ac","ios":"levelo://app?vid=30380250-a2cc-4ca9-aa52-6e36990cb6ac"},"vehicle_type_id":"4","last_reported":1746281320,"current_range_meters":9600,"station_id":"ce4bhi12rcd13ifvqfp0","pricing_plan_id":"cebpf4jnsgd1na2vs0mg"},{"bike_id":"ef69e7cc-37df-4e66-bd4f-a85ef9d1ea7e","system_id":"levelo_inurba_marseille","lat":43.27492,"lon":5.424503,"is_reserved":false,"is_disabled":false,"rental_uris":{"android":"levelo://app?vid=ef69e7cc-37df-4e66-bd4f-a85ef9d1ea7e","ios":"levelo://app?vid=ef69e7cc-37df-4e66-bd4f-a85ef9d1ea7e"},"vehicle_type_id":"4","last_reported":1746281320,"current_range_meters":9600,"station_id":"ce4bhn92rcd13ifvqgrg","pricing_plan_id":"cebpf4jnsgd1na2vs0mg"},{"bike_id":"f6835f36-6aec-44ba-a694-f76d7eb9b13f","system_id":"levelo_inurba_marseille","lat":43.2396,"lon":5.36627,"is_reserved":false,"is_disabled":false,"rental_uris":{"android":"levelo://app?vid=f6835f36-6aec-44ba-a694-f76d7eb9b13f","ios":"levelo://app?vid=f6835f36-6aec-44ba-a694-f76d7eb9b13f"},"vehicle_type_id":"4","last_reported":1746281320,"current_range_meters":9600,"station_id":"ce4bhi12rcd13ifvqfp0","pricing_plan_id":"cebpf4jnsgd1na2vs0mg"},{"bike_id":"28b8babb-e145-495e-99b3-057fb00ba174","system_id":"levelo_inurba_marseille","lat":43.23066,"lon":5.35485,"is_reserved":false,"is_disabled":false,"rental_uris":{"android":"levelo://app?vid=28b8babb-e145-495e-99b3-057fb00ba174","ios":"levelo://app?vid=28b8babb-e145-495e-99b3-057fb00ba174"},"vehicle_type_id":"4","last_reported":1746281320,"current_range_meters":9600,"station_id":"cpo3342slgdg3j2ifvpg","pricing_plan_id":"cebpf4jnsgd1na2vs0mg"},{"bike_id":"dfb3396e-96f5-457c-af11-f6f27dad33e9","system_id":"levelo_inurba_marseille","lat":43.27169,"lon":5.36509,"is_reserved":false,"is_disabled":false,"rental_uris":{"android":"levelo://app?vid=dfb3396e-96f5-457c-af11-f6f27dad33e9","ios":"levelo://app?vid=dfb3396e-96f5-457c-af11-f6f27dad33e9"},"vehicle_type_id":"4","last_reported":1746281320,"current_range_meters":10000,"station_id":"","pricing_plan_id":"cebpf4jnsgd1na2vs0mg"},{"bike_id":"9540bd96-9748-4584-8d3d-48234ef421d4","system_id":"levelo_inurba_marseille","lat":43.26198,"lon":5.37446,"is_reserved":false,"is_disabled":false,"rental_uris":{"android":"levelo://app?vid=9540bd96-9748-4584-8d3d-48234ef421d4","ios":"levelo://app?vid=9540bd96-9748-4584-8d3d-48234ef421d4"},"vehicle_type_id":"4","last_reported":1746281320,"current_range_meters":10000,"station_id":"ce4bhgp2rcd13ifvqfc0","pricing_plan_id":"cebpf4jnsgd1na2vs0mg"},{"bike_id":"d926d947-6126-41f9-be95-9ce87007a05d","system_id":"levelo_inurba_marseille","lat":43.29048,"lon":5.35905,"is_reserved":false,"is_disabled":false,"rental_uris":{"android":"levelo://app?vid=d926d947-6126-41f9-be95-9ce87007a05d","ios":"levelo://app?vid=d926d947-6126-41f9-be95-9ce87007a05d"},"vehicle_type_id":"4","last_reported":1746281320,"current_range_meters":9600,"station_id":"ce4bha92rcd13ifvqeg0","pricing_plan_id":"cebpf4jnsgd1na2vs0mg"},{"bike_id":"b3cac469-87b7-4e7d-a7b1-e150eda12b5b","system_id":"levelo_inurba_marseille","lat":43.29005,"lon":5.35607,"is_reserved":false,"is_disabled":false,"rental_uris":{"android":"levelo://app?vid=b3cac469-87b7-4e7d-a7b1-e150eda12b5b","ios":"levelo://app?vid=b3cac469-87b7-4e7d-a7b1-e150eda12b5b"},"vehicle_type_id":"4","last_reported":1746281320,"current_range_meters":10000,"station_id":"ce4bhb92rcd13ifvqen0","pricing_plan_id":"cebpf4jnsgd1na2vs0mg"},{"bike_id":"9b3d30e3-887a-439c-b1f3-3c252bfd5dcf","system_id":"levelo_inurba_marseille","lat":43.32491,"lon":5.36566,"is_reserved":false,"is_disabled":false,"rental_uris":{"android":"levelo://app?vid=9b3d30e3-887a-439c-b1f3-3c252bfd5dcf","ios":"levelo://app?vid=9b3d30e3-887a-439c-b1f3-3c252bfd5dcf"},"vehicle_type_id":"4","last_reported":1746281320,"current_range_meters":10000,"station_id":"ce4bhs12rcd13ifvqhvg","pricing_plan_id":"cebpf4jnsgd1na2vs0mg"},{"bike_id":"07dd4d6f-d264-4e0e-a216-a64419e78ce6","system_id":"levelo_inurba_marseille","lat":43.29449,"lon":5.43371,"is_reserved":false,"is_disabled":false,"rental_uris":{"android":"levelo://app?vid=07dd4d6f-d264-4e0e-a216-a64419e78ce6","ios":"levelo://app?vid=07dd4d6f-d264-4e0e-a216-a64419e78ce6"},"vehicle_type_id":"4","last_reported":1746281320,"current_range_meters":10000,"station_id":"","pricing_plan_id":"cebpf4jnsgd1na2vs0mg"},{"bike_id":"a89f9260-0b81-43be-9f22-4b4dd24b8ae9","system_id":"levelo_inurba_marseille","lat":43.31327,"lon":5.39682,"is_reserved":false,"is_disabled":false,"rental_uris":{"android":"levelo://app?vid=a89f9260-0b81-43be-9f22-4b4dd24b8ae9","ios":"levelo://app?vid=a89f9260-0b81-43be-9f22-4b4dd24b8ae9"},"vehicle_type_id":"4","last_reported":1746281320,"current_range_meters":10000,"station_id":"ce4bgvp2rcd13ifvqcu0","pricing_plan_id":"cebpf4jnsgd1na2vs0mg"},{"bike_id":"ccb509fb-ddbe-4834-973c-1f5d49cbea7b","system_id":"levelo_inurba_marseille","lat":43.31714,"lon":5.43707,"is_reserved":false,"is_disabled":false,"rental_uris":{"android":"levelo://app?vid=ccb509fb-ddbe-4834-973c-1f5d49cbea7b","ios":"levelo://app?vid=ccb509fb-ddbe-4834-973c-1f5d49cbea7b"},"vehicle_type_id":"4","last_reported":1746281320,"current_range_meters":9600,"station_id":"ce4bhp92rcd13ifvqhcg","pricing_plan_id":"cebpf4jnsgd1na2vs0mg"},{"bike_id":"f6136f00-b6b5-48ee-b9f8-5a00e87db14b","system_id":"levelo_inurba_marseille","lat":43.2293,"lon":5.35378,"is_reserved":false,"is_disabled":false,"rental_uris":{"android":"levelo://app?vid=f6136f00-b6b5-48ee-b9f8-5a00e87db14b","ios":"levelo://app?vid=f6136f00-b6b5-48ee-b9f8-5a00e87db14b"},"vehicle_type_id":"4","last_reported":1746281320,"current_range_meters":10000,"station_id":"cpo3532slgdg3j2ikp40","pricing_plan_id":"cebpf4jnsgd1na2vs0mg"},{"bike_id":"a6a35e7d-9e6f-4c97-ba68-bc0ee6a8433a","system_id":"levelo_inurba_marseille","lat":43.21192,"lon":5.35071,"is_reserved":false,"is_disabled":false,"rental_uris":{"android":"levelo://app?vid=a6a35e7d-9e6f-4c97-ba68-bc0ee6a8433a","ios":"levelo://app?vid=a6a35e7d-9e6f-4c97-ba68-bc0ee6a8433a"},"vehicle_type_id":"4","last_reported":1746281320,"current_range_meters":10000,"station_id":"st_cvj6sg6p6f1abm77japg","pricing_plan_id":"cebpf4jnsgd1na2vs0mg"},{"bike_id":"33668472-bde9-404c-bc36-2d8c5c574310","system_id":"levelo_inurba_marseille","lat":43.26577,"lon":5.37268,"is_reserved":false,"is_disabled":false,"rental_uris":{"android":"levelo://app?vid=33668472-bde9-404c-bc36-2d8c5c574310","ios":"levelo://app?vid=33668472-bde9-404c-bc36-2d8c5c574310"},"vehicle_type_id":"4","last_reported":1746281320,"current_range_meters":10800,"station_id":"ce4bhg12rcd13ifvqf70","pricing_plan_id":"cebpf4jnsgd1na2vs0mg"},{"bike_id":"c1d1d359-1671-4de4-980d-a20ef28bd411","system_id":"levelo_inurba_marseille","lat":43.23962,"lon":5.36629,"is_reserved":false,"is_disabled":false,"rental_uris":{"android":"levelo://app?vid=c1d1d359-1671-4de4-980d-a20ef28bd411","ios":"levelo://app?vid=c1d1d359-1671-4de4-980d-a20ef28bd411"},"vehicle_type_id":"4","last_reported":1746281320,"current_range_meters":10800,"station_id":"ce4bhi12rcd13ifvqfp0","pricing_plan_id":"cebpf4jnsgd1na2vs0mg"},{"bike_id":"2e6965d3-9b5d-4ec1-a3a3-003adfe5560b","system_id":"levelo_inurba_marseille","lat":43.25944,"lon":5.40897,"is_reserved":false,"is_disabled":false,"rental_uris":{"android":"levelo://app?vid=2e6965d3-9b5d-4ec1-a3a3-003adfe5560b","ios":"levelo://app?vid=2e6965d3-9b5d-4ec1-a3a3-003adfe5560b"},"vehicle_type_id":"4","last_reported":1746281320,"current_range_meters":10800,"station_id":"ce4bhm92rcd13ifvqglg","pricing_plan_id":"cebpf4jnsgd1na2vs0mg"},{"bike_id":"f1ffd2b9-91e9-4bf5-a319-6e95940b0de6","system_id":"levelo_inurba_marseille","lat":43.29551,"lon":5.42276,"is_reserved":false,"is_disabled":false,"rental_uris":{"android":"levelo://app?vid=f1ffd2b9-91e9-4bf5-a319-6e95940b0de6","ios":"levelo://app?vid=f1ffd2b9-91e9-4bf5-a319-6e95940b0de6"},"vehicle_type_id":"4","last_reported":1746281320,"current_range_meters":10800,"station_id":"ce4bhph2rcd13ifvqhdg","pricing_plan_id":"cebpf4jnsgd1na2vs0mg"},{"bike_id":"66fdcfeb-3974-4100-9f34-3b9cc5126371","system_id":"levelo_inurba_marseille","lat":43.2997,"lon":5.38489,"is_reserved":false,"is_disabled":false,"rental_uris":{"android":"levelo://app?vid=66fdcfeb-3974-4100-9f34-3b9cc5126371","ios":"levelo://app?vid=66fdcfeb-3974-4100-9f34-3b9cc5126371"},"vehicle_type_id":"4","last_reported":1746281320,"current_range_meters":10800,"station_id":"ce4bgj92rcd13ifvqbd0","pricing_plan_id":"cebpf4jnsgd1na2vs0mg"},{"bike_id":"00c88a64-81b8-4cc2-852a-b81be9467837","system_id":"levelo_inurba_marseille","lat":43.30947,"lon":5.39042,"is_reserved":false,"is_disabled":false,"rental_uris":{"android":"levelo://app?vid=00c88a64-81b8-4cc2-852a-b81be9467837","ios":"levelo://app?vid=00c88a64-81b8-4cc2-852a-b81be9467837"},"vehicle_type_id":"4","last_reported":1746281320,"current_range_meters":10800,"station_id":"ce4bgup2rcd13ifvqco0","pricing_plan_id":"cebpf4jnsgd1na2vs0mg"},{"bike_id":"198408b7-fd14-4a9d-839a-fc4dddb07c4d","system_id":"levelo_inurba_marseille","lat":43.21746,"lon":5.34603,"is_reserved":false,"is_disabled":false,"rental_uris":{"android":"levelo://app?vid=198408b7-fd14-4a9d-839a-fc4dddb07c4d","ios":"levelo://app?vid=198408b7-fd14-4a9d-839a-fc4dddb07c4d"},"vehicle_type_id":"4","last_reported":1746281320,"current_range_meters":10800,"station_id":"st_cvj6r9ubvosntc0bgbag","pricing_plan_id":"cebpf4jnsgd1na2vs0mg"},{"bike_id":"7e50baf0-4331-4680-8f06-30d29bb4ebe9","system_id":"levelo_inurba_marseille","lat":43.25503,"lon":5.37644,"is_reserved":false,"is_disabled":false,"rental_uris":{"android":"levelo://app?vid=7e50baf0-4331-4680-8f06-30d29bb4ebe9","ios":"levelo://app?vid=7e50baf0-4331-4680-8f06-30d29bb4ebe9"},"vehicle_type_id":"4","last_reported":1746281320,"current_range_meters":10800,"station_id":"ce4bhh12rcd13ifvqff0","pricing_plan_id":"cebpf4jnsgd1na2vs0mg"},{"bike_id":"55a893f6-b5f9-4998-abcd-5825ebca7a97","system_id":"levelo_inurba_marseille","lat":43.23189,"lon":5.35554,"is_reserved":false,"is_disabled":false,"rental_uris":{"android":"levelo://app?vid=55a893f6-b5f9-4998-abcd-5825ebca7a97","ios":"levelo://app?vid=55a893f6-b5f9-4998-abcd-5825ebca7a97"},"vehicle_type_id":"4","last_reported":1746281320,"current_range_meters":10800,"station_id":"ce4bhu92rcd13ifvqi70","pricing_plan_id":"cebpf4jnsgd1na2vs0mg"},{"bike_id":"e2e26302-aea2-4096-8452-5c28111ad2ea","system_id":"levelo_inurba_marseille","lat":43.21187,"lon":5.35069,"is_reserved":false,"is_disabled":false,"rental_uris":{"android":"levelo://app?vid=e2e26302-aea2-4096-8452-5c28111ad2ea","ios":"levelo://app?vid=e2e26302-aea2-4096-8452-5c28111ad2ea"},"vehicle_type_id":"4","last_reported":1746281320,"current_range_meters":11200,"station_id":"st_cvj6sg6p6f1abm77japg","pricing_plan_id":"cebpf4jnsgd1na2vs0mg"},{"bike_id":"fd2c3c67-23a6-4380-b7ca-8f23c8f78921","system_id":"levelo_inurba_marseille","lat":43.32356,"lon":5.36746,"is_reserved":false,"is_disabled":false,"rental_uris":{"android":"levelo://app?vid=fd2c3c67-23a6-4380-b7ca-8f23c8f78921","ios":"levelo://app?vid=fd2c3c67-23a6-4380-b7ca-8f23c8f78921"},"vehicle_type_id":"4","last_reported":1746281320,"current_range_meters":11200,"station_id":"ce4bhsh2rcd13ifvqi2g","pricing_plan_id":"cebpf4jnsgd1na2vs0mg"},{"bike_id":"8ea6e7f2-1f7e-4f54-8dc5-eed093a84867","system_id":"levelo_inurba_marseille","lat":43.2942,"lon":5.38627,"is_reserved":false,"is_disabled":false,"rental_uris":{"android":"levelo://app?vid=8ea6e7f2-1f7e-4f54-8dc5-eed093a84867","ios":"levelo://app?vid=8ea6e7f2-1f7e-4f54-8dc5-eed093a84867"},"vehicle_type_id":"4","last_reported":1746281320,"current_range_meters":11600,"station_id":"ce4bh2h2rcd13ifvqdh0","pricing_plan_id":"cebpf4jnsgd1na2vs0mg"},{"bike_id":"6ae9068b-8534-47e2-832a-cb0e5255371d","system_id":"levelo_inurba_marseille","lat":43.337444,"lon":5.374475,"is_reserved":false,"is_disabled":false,"rental_uris":{"android":"levelo://app?vid=6ae9068b-8534-47e2-832a-cb0e5255371d","ios":"levelo://app?vid=6ae9068b-8534-47e2-832a-cb0e5255371d"},"vehicle_type_id":"4","last_reported":1746281320,"current_range_meters":11600,"station_id":"ce4bgvp2rcd13ifvqct0","pricing_plan_id":"cebpf4jnsgd1na2vs0mg"},{"bike_id":"d24ea90b-8793-4999-a657-b3e357fcaa49","system_id":"levelo_inurba_marseille","lat":43.21747,"lon":5.34604,"is_reserved":false,"is_disabled":false,"rental_uris":{"android":"levelo://app?vid=d24ea90b-8793-4999-a657-b3e357fcaa49","ios":"levelo://app?vid=d24ea90b-8793-4999-a657-b3e357fcaa49"},"vehicle_type_id":"4","last_reported":1746281320,"current_range_meters":11600,"station_id":"st_cvj6r9ubvosntc0bgbag","pricing_plan_id":"cebpf4jnsgd1na2vs0mg"},{"bike_id":"68009f65-0558-4602-b442-3c5ed9143dc8","system_id":"levelo_inurba_marseille","lat":43.30379,"lon":5.42489,"is_reserved":false,"is_disabled":false,"rental_uris":{"android":"levelo://app?vid=68009f65-0558-4602-b442-3c5ed9143dc8","ios":"levelo://app?vid=68009f65-0558-4602-b442-3c5ed9143dc8"},"vehicle_type_id":"4","last_reported":1746281320,"current_range_meters":12000,"station_id":"ce4bhoh2rcd13ifvqh6g","pricing_plan_id":"cebpf4jnsgd1na2vs0mg"},{"bike_id":"a978adc6-201e-4b96-b42f-9c074698e1bc","system_id":"levelo_inurba_marseille","lat":43.23957,"lon":5.36644,"is_reserved":false,"is_disabled":false,"rental_uris":{"android":"levelo://app?vid=a978adc6-201e-4b96-b42f-9c074698e1bc","ios":"levelo://app?vid=a978adc6-201e-4b96-b42f-9c074698e1bc"},"vehicle_type_id":"4","last_reported":1746281320,"current_range_meters":12000,"station_id":"ce4bhi12rcd13ifvqfp0","pricing_plan_id":"cebpf4jnsgd1na2vs0mg"},{"bike_id":"f1a21292-7368-4409-8775-4df2d9b75e26","system_id":"levelo_inurba_marseille","lat":43.30017,"lon":5.37193,"is_reserved":false,"is_disabled":false,"rental_uris":{"android":"levelo://app?vid=f1a21292-7368-4409-8775-4df2d9b75e26","ios":"levelo://app?vid=f1a21292-7368-4409-8775-4df2d9b75e26"},"vehicle_type_id":"4","last_reported":1746281320,"current_range_meters":12000,"station_id":"ce4bgr92rcd13ifvqc7g","pricing_plan_id":"cebpf4jnsgd1na2vs0mg"},{"bike_id":"b513dfb6-777c-42d4-89a3-6df589c7e19f","system_id":"levelo_inurba_marseille","lat":43.30334,"lon":5.40437,"is_reserved":false,"is_disabled":false,"rental_uris":{"android":"levelo://app?vid=b513dfb6-777c-42d4-89a3-6df589c7e19f","ios":"levelo://app?vid=b513dfb6-777c-42d4-89a3-6df589c7e19f"},"vehicle_type_id":"4","last_reported":1746281320,"current_range_meters":12400,"station_id":"ce4bh012rcd13ifvqd10","pricing_plan_id":"cebpf4jnsgd1na2vs0mg"},{"bike_id":"fc3225f2-eaf3-4c78-a933-73e3bdc893be","system_id":"levelo_inurba_marseille","lat":43.28264,"lon":5.35063,"is_reserved":false,"is_disabled":false,"rental_uris":{"android":"levelo://app?vid=fc3225f2-eaf3-4c78-a933-73e3bdc893be","ios":"levelo://app?vid=fc3225f2-eaf3-4c78-a933-73e3bdc893be"},"vehicle_type_id":"4","last_reported":1746281320,"current_range_meters":12400,"station_id":"ce4bhbp2rcd13ifvqerg","pricing_plan_id":"cebpf4jnsgd1na2vs0mg"},{"bike_id":"b67936d6-81f5-4a1a-ba4e-70e70cd59cfc","system_id":"levelo_inurba_marseille","lat":43.24171,"lon":5.3639,"is_reserved":false,"is_disabled":false,"rental_uris":{"android":"levelo://app?vid=b67936d6-81f5-4a1a-ba4e-70e70cd59cfc","ios":"levelo://app?vid=b67936d6-81f5-4a1a-ba4e-70e70cd59cfc"},"vehicle_type_id":"4","last_reported":1746281320,"current_range_meters":12400,"station_id":"cpo36qri1sfpv3e86is0","pricing_plan_id":"cebpf4jnsgd1na2vs0mg"},{"bike_id":"24bdbb0e-62f8-45fd-92de-6c0cb99f2644","system_id":"levelo_inurba_marseille","lat":43.28263,"lon":5.35062,"is_reserved":false,"is_disabled":false,"rental_uris":{"android":"levelo://app?vid=24bdbb0e-62f8-45fd-92de-6c0cb99f2644","ios":"levelo://app?vid=24bdbb0e-62f8-45fd-92de-6c0cb99f2644"},"vehicle_type_id":"4","last_reported":1746281320,"current_range_meters":12800,"station_id":"ce4bhbp2rcd13ifvqerg","pricing_plan_id":"cebpf4jnsgd1na2vs0mg"},{"bike_id":"0c9d6c7c-fd78-4aeb-a3f8-af2c188466be","system_id":"levelo_inurba_marseille","lat":43.299133,"lon":5.381005,"is_reserved":false,"is_disabled":false,"rental_uris":{"android":"levelo://app?vid=0c9d6c7c-fd78-4aeb-a3f8-af2c188466be","ios":"levelo://app?vid=0c9d6c7c-fd78-4aeb-a3f8-af2c188466be"},"vehicle_type_id":"4","last_reported":1746281320,"current_range_meters":12800,"station_id":"","pricing_plan_id":"cebpf4jnsgd1na2vs0mg"},{"bike_id":"0e7429ce-b0cb-4848-93c1-271bc715969e","system_id":"levelo_inurba_marseille","lat":43.27919,"lon":5.39578,"is_reserved":false,"is_disabled":false,"rental_uris":{"android":"levelo://app?vid=0e7429ce-b0cb-4848-93c1-271bc715969e","ios":"levelo://app?vid=0e7429ce-b0cb-4848-93c1-271bc715969e"},"vehicle_type_id":"4","last_reported":1746281320,"current_range_meters":12800,"station_id":"","pricing_plan_id":"cebpf4jnsgd1na2vs0mg"},{"bike_id":"75ac2cdb-b505-4a7d-8de3-62d5a513bb3a","system_id":"levelo_inurba_marseille","lat":43.27497,"lon":5.42449,"is_reserved":false,"is_disabled":false,"rental_uris":{"android":"levelo://app?vid=75ac2cdb-b505-4a7d-8de3-62d5a513bb3a","ios":"levelo://app?vid=75ac2cdb-b505-4a7d-8de3-62d5a513bb3a"},"vehicle_type_id":"4","last_reported":1746281320,"current_range_meters":12800,"station_id":"ce4bhn92rcd13ifvqgrg","pricing_plan_id":"cebpf4jnsgd1na2vs0mg"},{"bike_id":"7c73c1cd-fdd7-486a-b2e2-a4ecddaa364c","system_id":"levelo_inurba_marseille","lat":43.32485,"lon":5.36561,"is_reserved":false,"is_disabled":false,"rental_uris":{"android":"levelo://app?vid=7c73c1cd-fdd7-486a-b2e2-a4ecddaa364c","ios":"levelo://app?vid=7c73c1cd-fdd7-486a-b2e2-a4ecddaa364c"},"vehicle_type_id":"4","last_reported":1746281320,"current_range_meters":12800,"station_id":"ce4bhs12rcd13ifvqhvg","pricing_plan_id":"cebpf4jnsgd1na2vs0mg"},{"bike_id":"503185c3-0d76-4716-9a21-96143ff68830","system_id":"levelo_inurba_marseille","lat":43.211902,"lon":5.350724,"is_reserved":false,"is_disabled":false,"rental_uris":{"android":"levelo://app?vid=503185c3-0d76-4716-9a21-96143ff68830","ios":"levelo://app?vid=503185c3-0d76-4716-9a21-96143ff68830"},"vehicle_type_id":"4","last_reported":1746281320,"current_range_meters":13600,"station_id":"st_cvj6sg6p6f1abm77japg","pricing_plan_id":"cebpf4jnsgd1na2vs0mg"},{"bike_id":"1a7c80b5-2e0d-4fa7-92a6-c2725561ee64","system_id":"levelo_inurba_marseille","lat":43.27174,"lon":5.40993,"is_reserved":false,"is_disabled":false,"rental_uris":{"android":"levelo://app?vid=1a7c80b5-2e0d-4fa7-92a6-c2725561ee64","ios":"levelo://app?vid=1a7c80b5-2e0d-4fa7-92a6-c2725561ee64"},"vehicle_type_id":"4","last_reported":1746281320,"current_range_meters":12800,"station_id":"ce4bhl12rcd13ifvqgf0","pricing_plan_id":"cebpf4jnsgd1na2vs0mg"},{"bike_id":"d6fca117-0b75-4d46-b112-e4517691aa07","system_id":"levelo_inurba_marseille","lat":43.23191,"lon":5.3556,"is_reserved":false,"is_disabled":false,"rental_uris":{"android":"levelo://app?vid=d6fca117-0b75-4d46-b112-e4517691aa07","ios":"levelo://app?vid=d6fca117-0b75-4d46-b112-e4517691aa07"},"vehicle_type_id":"4","last_reported":1746281320,"current_range_meters":14000,"station_id":"ce4bhu92rcd13ifvqi70","pricing_plan_id":"cebpf4jnsgd1na2vs0mg"},{"bike_id":"5b826206-4d35-483e-9723-70ff57ab60c5","system_id":"levelo_inurba_marseille","lat":43.21766,"lon":5.34594,"is_reserved":false,"is_disabled":false,"rental_uris":{"android":"levelo://app?vid=5b826206-4d35-483e-9723-70ff57ab60c5","ios":"levelo://app?vid=5b826206-4d35-483e-9723-70ff57ab60c5"},"vehicle_type_id":"4","last_reported":1746281320,"current_range_meters":14000,"station_id":"st_cvj6r9ubvosntc0bgbag","pricing_plan_id":"cebpf4jnsgd1na2vs0mg"},{"bike_id":"2db315d7-6b60-4521-953d-fd64fd209a38","system_id":"levelo_inurba_marseille","lat":43.27373,"lon":5.36254,"is_reserved":false,"is_disabled":false,"rental_uris":{"android":"levelo://app?vid=2db315d7-6b60-4521-953d-fd64fd209a38","ios":"levelo://app?vid=2db315d7-6b60-4521-953d-fd64fd209a38"},"vehicle_type_id":"4","last_reported":1746281320,"current_range_meters":14000,"station_id":"ce4bhbh2rcd13ifvqeo0","pricing_plan_id":"cebpf4jnsgd1na2vs0mg"},{"bike_id":"6defb52e-7ec8-4e4d-8a7d-31465f532171","system_id":"levelo_inurba_marseille","lat":43.28424,"lon":5.3498,"is_reserved":false,"is_disabled":false,"rental_uris":{"android":"levelo://app?vid=6defb52e-7ec8-4e4d-8a7d-31465f532171","ios":"levelo://app?vid=6defb52e-7ec8-4e4d-8a7d-31465f532171"},"vehicle_type_id":"4","last_reported":1746281320,"current_range_meters":14000,"station_id":"ce4bhbh2rcd13ifvqepg","pricing_plan_id":"cebpf4jnsgd1na2vs0mg"},{"bike_id":"fb80c1da-d845-467b-9c3b-2f591f4d56ae","system_id":"levelo_inurba_marseille","lat":43.323406,"lon":5.37422,"is_reserved":false,"is_disabled":false,"rental_uris":{"android":"levelo://app?vid=fb80c1da-d845-467b-9c3b-2f591f4d56ae","ios":"levelo://app?vid=fb80c1da-d845-467b-9c3b-2f591f4d56ae"},"vehicle_type_id":"4","last_reported":1746281320,"current_range_meters":14400,"station_id":"","pricing_plan_id":"cebpf4jnsgd1na2vs0mg"},{"bike_id":"d1425f8b-4ee2-4234-adf2-33ee09f6306d","system_id":"levelo_inurba_marseille","lat":43.23157,"lon":5.437013,"is_reserved":false,"is_disabled":false,"rental_uris":{"android":"levelo://app?vid=d1425f8b-4ee2-4234-adf2-33ee09f6306d","ios":"levelo://app?vid=d1425f8b-4ee2-4234-adf2-33ee09f6306d"},"vehicle_type_id":"4","last_reported":1746281320,"current_range_meters":14400,"station_id":"ce4bhmp2rcd13ifvqgog","pricing_plan_id":"cebpf4jnsgd1na2vs0mg"},{"bike_id":"aedf206f-89f3-4f30-9da6-56fb7ff8915b","system_id":"levelo_inurba_marseille","lat":43.28105,"lon":5.40399,"is_reserved":false,"is_disabled":false,"rental_uris":{"android":"levelo://app?vid=aedf206f-89f3-4f30-9da6-56fb7ff8915b","ios":"levelo://app?vid=aedf206f-89f3-4f30-9da6-56fb7ff8915b"},"vehicle_type_id":"4","last_reported":1746281320,"current_range_meters":14400,"station_id":"","pricing_plan_id":"cebpf4jnsgd1na2vs0mg"},{"bike_id":"fc158cd3-7385-42c8-bcb7-aeeb8fd8dc82","system_id":"levelo_inurba_marseille","lat":43.30897,"lon":5.37186,"is_reserved":false,"is_disabled":false,"rental_uris":{"android":"levelo://app?vid=fc158cd3-7385-42c8-bcb7-aeeb8fd8dc82","ios":"levelo://app?vid=fc158cd3-7385-42c8-bcb7-aeeb8fd8dc82"},"vehicle_type_id":"4","last_reported":1746281320,"current_range_meters":14000,"station_id":"ce4bguh2rcd13ifvqckg","pricing_plan_id":"cebpf4jnsgd1na2vs0mg"},{"bike_id":"4d7a40f6-3a2e-48f6-8353-47c491915336","system_id":"levelo_inurba_marseille","lat":43.21745,"lon":5.34603,"is_reserved":false,"is_disabled":false,"rental_uris":{"android":"levelo://app?vid=4d7a40f6-3a2e-48f6-8353-47c491915336","ios":"levelo://app?vid=4d7a40f6-3a2e-48f6-8353-47c491915336"},"vehicle_type_id":"4","last_reported":1746281320,"current_range_meters":14400,"station_id":"st_cvj6r9ubvosntc0bgbag","pricing_plan_id":"cebpf4jnsgd1na2vs0mg"},{"bike_id":"50290b22-d2c1-4789-83fc-8aded9fda4d4","system_id":"levelo_inurba_marseille","lat":43.27361,"lon":5.36244,"is_reserved":false,"is_disabled":false,"rental_uris":{"android":"levelo://app?vid=50290b22-d2c1-4789-83fc-8aded9fda4d4","ios":"levelo://app?vid=50290b22-d2c1-4789-83fc-8aded9fda4d4"},"vehicle_type_id":"4","last_reported":1746281320,"current_range_meters":14800,"station_id":"ce4bhbh2rcd13ifvqeo0","pricing_plan_id":"cebpf4jnsgd1na2vs0mg"},{"bike_id":"3b18c665-bb69-428a-81da-75f615facb16","system_id":"levelo_inurba_marseille","lat":43.28619,"lon":5.35102,"is_reserved":false,"is_disabled":false,"rental_uris":{"android":"levelo://app?vid=3b18c665-bb69-428a-81da-75f615facb16","ios":"levelo://app?vid=3b18c665-bb69-428a-81da-75f615facb16"},"vehicle_type_id":"4","last_reported":1746281320,"current_range_meters":14800,"station_id":"ce4bhch2rcd13ifvqeug","pricing_plan_id":"cebpf4jnsgd1na2vs0mg"},{"bike_id":"bfb34e45-e140-4e8b-bf15-58c2969a2ff5","system_id":"levelo_inurba_marseille","lat":43.23963,"lon":5.36627,"is_reserved":false,"is_disabled":false,"rental_uris":{"android":"levelo://app?vid=bfb34e45-e140-4e8b-bf15-58c2969a2ff5","ios":"levelo://app?vid=bfb34e45-e140-4e8b-bf15-58c2969a2ff5"},"vehicle_type_id":"4","last_reported":1746281320,"current_range_meters":14800,"station_id":"ce4bhi12rcd13ifvqfp0","pricing_plan_id":"cebpf4jnsgd1na2vs0mg"},{"bike_id":"31c54918-ec32-4234-94e4-ab9da1be312c","system_id":"levelo_inurba_marseille","lat":43.241685,"lon":5.363973,"is_reserved":false,"is_disabled":false,"rental_uris":{"android":"levelo://app?vid=31c54918-ec32-4234-94e4-ab9da1be312c","ios":"levelo://app?vid=31c54918-ec32-4234-94e4-ab9da1be312c"},"vehicle_type_id":"4","last_reported":1746281320,"current_range_meters":14800,"station_id":"cpo36qri1sfpv3e86is0","pricing_plan_id":"cebpf4jnsgd1na2vs0mg"},{"bike_id":"91533154-ce4e-45f6-aca9-f67de918019a","system_id":"levelo_inurba_marseille","lat":43.21743,"lon":5.34609,"is_reserved":false,"is_disabled":false,"rental_uris":{"android":"levelo://app?vid=91533154-ce4e-45f6-aca9-f67de918019a","ios":"levelo://app?vid=91533154-ce4e-45f6-aca9-f67de918019a"},"vehicle_type_id":"4","last_reported":1746281320,"current_range_meters":15200,"station_id":"st_cvj6r9ubvosntc0bgbag","pricing_plan_id":"cebpf4jnsgd1na2vs0mg"},{"bike_id":"658965a6-2a98-4375-8e97-fd0b7b5eaea4","system_id":"levelo_inurba_marseille","lat":43.26557,"lon":5.37282,"is_reserved":false,"is_disabled":false,"rental_uris":{"android":"levelo://app?vid=658965a6-2a98-4375-8e97-fd0b7b5eaea4","ios":"levelo://app?vid=658965a6-2a98-4375-8e97-fd0b7b5eaea4"},"vehicle_type_id":"4","last_reported":1746281320,"current_range_meters":15200,"station_id":"ce4bhg12rcd13ifvqf70","pricing_plan_id":"cebpf4jnsgd1na2vs0mg"},{"bike_id":"89cb15be-d418-464e-a671-f0e01ffad496","system_id":"levelo_inurba_marseille","lat":43.28267,"lon":5.35067,"is_reserved":false,"is_disabled":false,"rental_uris":{"android":"levelo://app?vid=89cb15be-d418-464e-a671-f0e01ffad496","ios":"levelo://app?vid=89cb15be-d418-464e-a671-f0e01ffad496"},"vehicle_type_id":"4","last_reported":1746281320,"current_range_meters":15200,"station_id":"ce4bhbp2rcd13ifvqerg","pricing_plan_id":"cebpf4jnsgd1na2vs0mg"},{"bike_id":"0bb0a6cd-b8a5-41d3-88ec-e9648a03c7f5","system_id":"levelo_inurba_marseille","lat":43.25938,"lon":5.40897,"is_reserved":false,"is_disabled":false,"rental_uris":{"android":"levelo://app?vid=0bb0a6cd-b8a5-41d3-88ec-e9648a03c7f5","ios":"levelo://app?vid=0bb0a6cd-b8a5-41d3-88ec-e9648a03c7f5"},"vehicle_type_id":"4","last_reported":1746281320,"current_range_meters":15200,"station_id":"ce4bhm92rcd13ifvqglg","pricing_plan_id":"cebpf4jnsgd1na2vs0mg"},{"bike_id":"20d4f174-a887-4b60-b761-c15aef5ef4cd","system_id":"levelo_inurba_marseille","lat":43.31123,"lon":5.37779,"is_reserved":false,"is_disabled":false,"rental_uris":{"android":"levelo://app?vid=20d4f174-a887-4b60-b761-c15aef5ef4cd","ios":"levelo://app?vid=20d4f174-a887-4b60-b761-c15aef5ef4cd"},"vehicle_type_id":"4","last_reported":1746281320,"current_range_meters":16000,"station_id":"ce4bgt92rcd13ifvqcg0","pricing_plan_id":"cebpf4jnsgd1na2vs0mg"},{"bike_id":"72bc2885-590d-40d3-a5e4-51ae7212f5d8","system_id":"levelo_inurba_marseille","lat":43.231837,"lon":5.399807,"is_reserved":false,"is_disabled":false,"rental_uris":{"android":"levelo://app?vid=72bc2885-590d-40d3-a5e4-51ae7212f5d8","ios":"levelo://app?vid=72bc2885-590d-40d3-a5e4-51ae7212f5d8"},"vehicle_type_id":"4","last_reported":1746281320,"current_range_meters":15200,"station_id":"ce4bhn12rcd13ifvqgqg","pricing_plan_id":"cebpf4jnsgd1na2vs0mg"},{"bike_id":"a4342359-f282-49ee-a353-c883ead521bd","system_id":"levelo_inurba_marseille","lat":43.21193,"lon":5.35069,"is_reserved":false,"is_disabled":false,"rental_uris":{"android":"levelo://app?vid=a4342359-f282-49ee-a353-c883ead521bd","ios":"levelo://app?vid=a4342359-f282-49ee-a353-c883ead521bd"},"vehicle_type_id":"4","last_reported":1746281320,"current_range_meters":16000,"station_id":"st_cvj6sg6p6f1abm77japg","pricing_plan_id":"cebpf4jnsgd1na2vs0mg"},{"bike_id":"3102f720-32db-4af0-b5ac-a58b39f8d3b2","system_id":"levelo_inurba_marseille","lat":43.24141,"lon":5.39712,"is_reserved":false,"is_disabled":false,"rental_uris":{"android":"levelo://app?vid=3102f720-32db-4af0-b5ac-a58b39f8d3b2","ios":"levelo://app?vid=3102f720-32db-4af0-b5ac-a58b39f8d3b2"},"vehicle_type_id":"4","last_reported":1746281320,"current_range_meters":16000,"station_id":"ce4bhn12rcd13ifvqgpg","pricing_plan_id":"cebpf4jnsgd1na2vs0mg"},{"bike_id":"5f627001-c5b8-43e0-a792-83db31ff2ea2","system_id":"levelo_inurba_marseille","lat":43.21193,"lon":5.35068,"is_reserved":false,"is_disabled":false,"rental_uris":{"android":"levelo://app?vid=5f627001-c5b8-43e0-a792-83db31ff2ea2","ios":"levelo://app?vid=5f627001-c5b8-43e0-a792-83db31ff2ea2"},"vehicle_type_id":"4","last_reported":1746281320,"current_range_meters":16000,"station_id":"st_cvj6sg6p6f1abm77japg","pricing_plan_id":"cebpf4jnsgd1na2vs0mg"},{"bike_id":"9eda8183-0cd8-42e1-84d6-8c8409f8d5ee","system_id":"levelo_inurba_marseille","lat":43.24171,"lon":5.39726,"is_reserved":false,"is_disabled":false,"rental_uris":{"android":"levelo://app?vid=9eda8183-0cd8-42e1-84d6-8c8409f8d5ee","ios":"levelo://app?vid=9eda8183-0cd8-42e1-84d6-8c8409f8d5ee"},"vehicle_type_id":"4","last_reported":1746281320,"current_range_meters":16000,"station_id":"ce4bhn12rcd13ifvqgpg","pricing_plan_id":"cebpf4jnsgd1na2vs0mg"},{"bike_id":"5e1d765b-b55b-4be2-835f-928adb328dc1","system_id":"levelo_inurba_marseille","lat":43.23198,"lon":5.35552,"is_reserved":false,"is_disabled":false,"rental_uris":{"android":"levelo://app?vid=5e1d765b-b55b-4be2-835f-928adb328dc1","ios":"levelo://app?vid=5e1d765b-b55b-4be2-835f-928adb328dc1"},"vehicle_type_id":"4","last_reported":1746281320,"current_range_meters":16000,"station_id":"ce4bhu92rcd13ifvqi70","pricing_plan_id":"cebpf4jnsgd1na2vs0mg"},{"bike_id":"bd53cffe-6e58-4682-9873-afea7a091df5","system_id":"levelo_inurba_marseille","lat":43.21195,"lon":5.35071,"is_reserved":false,"is_disabled":false,"rental_uris":{"android":"levelo://app?vid=bd53cffe-6e58-4682-9873-afea7a091df5","ios":"levelo://app?vid=bd53cffe-6e58-4682-9873-afea7a091df5"},"vehicle_type_id":"4","last_reported":1746281320,"current_range_meters":16000,"station_id":"st_cvj6sg6p6f1abm77japg","pricing_plan_id":"cebpf4jnsgd1na2vs0mg"},{"bike_id":"e7061e18-ac4e-46b7-92e8-430d3604c3dd","system_id":"levelo_inurba_marseille","lat":43.23193,"lon":5.35555,"is_reserved":false,"is_disabled":false,"rental_uris":{"android":"levelo://app?vid=e7061e18-ac4e-46b7-92e8-430d3604c3dd","ios":"levelo://app?vid=e7061e18-ac4e-46b7-92e8-430d3604c3dd"},"vehicle_type_id":"4","last_reported":1746281320,"current_range_meters":16000,"station_id":"ce4bhu92rcd13ifvqi70","pricing_plan_id":"cebpf4jnsgd1na2vs0mg"},{"bike_id":"139b9b2a-575a-470e-a19c-1126fe6339cf","system_id":"levelo_inurba_marseille","lat":43.217448,"lon":5.346043,"is_reserved":false,"is_disabled":false,"rental_uris":{"android":"levelo://app?vid=139b9b2a-575a-470e-a19c-1126fe6339cf","ios":"levelo://app?vid=139b9b2a-575a-470e-a19c-1126fe6339cf"},"vehicle_type_id":"4","last_reported":1746281320,"current_range_meters":16400,"station_id":"st_cvj6r9ubvosntc0bgbag","pricing_plan_id":"cebpf4jnsgd1na2vs0mg"},{"bike_id":"8308238b-fb7a-4e5a-87eb-cd8991e9f3a2","system_id":"levelo_inurba_marseille","lat":43.30253,"lon":5.40065,"is_reserved":false,"is_disabled":false,"rental_uris":{"android":"levelo://app?vid=8308238b-fb7a-4e5a-87eb-cd8991e9f3a2","ios":"levelo://app?vid=8308238b-fb7a-4e5a-87eb-cd8991e9f3a2"},"vehicle_type_id":"4","last_reported":1746281320,"current_range_meters":16400,"station_id":"ce4bgvh2rcd13ifvqcs0","pricing_plan_id":"cebpf4jnsgd1na2vs0mg"},{"bike_id":"7cfd5dd3-4dfd-48bd-b2d6-52fee48bd892","system_id":"levelo_inurba_marseille","lat":43.23964,"lon":5.36625,"is_reserved":false,"is_disabled":false,"rental_uris":{"android":"levelo://app?vid=7cfd5dd3-4dfd-48bd-b2d6-52fee48bd892","ios":"levelo://app?vid=7cfd5dd3-4dfd-48bd-b2d6-52fee48bd892"},"vehicle_type_id":"4","last_reported":1746281320,"current_range_meters":16400,"station_id":"ce4bhi12rcd13ifvqfp0","pricing_plan_id":"cebpf4jnsgd1na2vs0mg"},{"bike_id":"2b1e13c4-b754-43da-bbfa-011bec603043","system_id":"levelo_inurba_marseille","lat":43.26569,"lon":5.39012,"is_reserved":false,"is_disabled":false,"rental_uris":{"android":"levelo://app?vid=2b1e13c4-b754-43da-bbfa-011bec603043","ios":"levelo://app?vid=2b1e13c4-b754-43da-bbfa-011bec603043"},"vehicle_type_id":"4","last_reported":1746281320,"current_range_meters":16400,"station_id":"ce4bhe12rcd13ifvqf30","pricing_plan_id":"cebpf4jnsgd1na2vs0mg"},{"bike_id":"3fac65db-575d-473d-b39d-63e5ce5f80d4","system_id":"levelo_inurba_marseille","lat":43.26559,"lon":5.37287,"is_reserved":false,"is_disabled":false,"rental_uris":{"android":"levelo://app?vid=3fac65db-575d-473d-b39d-63e5ce5f80d4","ios":"levelo://app?vid=3fac65db-575d-473d-b39d-63e5ce5f80d4"},"vehicle_type_id":"4","last_reported":1746281320,"current_range_meters":16800,"station_id":"ce4bhg12rcd13ifvqf70","pricing_plan_id":"cebpf4jnsgd1na2vs0mg"},{"bike_id":"3f5b4948-55dd-4c61-800b-d5df5f7e4e3a","system_id":"levelo_inurba_marseille","lat":43.21182,"lon":5.35067,"is_reserved":false,"is_disabled":false,"rental_uris":{"android":"levelo://app?vid=3f5b4948-55dd-4c61-800b-d5df5f7e4e3a","ios":"levelo://app?vid=3f5b4948-55dd-4c61-800b-d5df5f7e4e3a"},"vehicle_type_id":"4","last_reported":1746281320,"current_range_meters":16400,"station_id":"st_cvj6sg6p6f1abm77japg","pricing_plan_id":"cebpf4jnsgd1na2vs0mg"},{"bike_id":"9fe1eaeb-780e-48cd-98bf-fa4661e6fb9d","system_id":"levelo_inurba_marseille","lat":43.24174,"lon":5.36395,"is_reserved":false,"is_disabled":false,"rental_uris":{"android":"levelo://app?vid=9fe1eaeb-780e-48cd-98bf-fa4661e6fb9d","ios":"levelo://app?vid=9fe1eaeb-780e-48cd-98bf-fa4661e6fb9d"},"vehicle_type_id":"4","last_reported":1746281320,"current_range_meters":16800,"station_id":"cpo36qri1sfpv3e86is0","pricing_plan_id":"cebpf4jnsgd1na2vs0mg"},{"bike_id":"e34635f3-8b2d-4d19-b499-3d4413f28d2f","system_id":"levelo_inurba_marseille","lat":43.2119,"lon":5.35083,"is_reserved":false,"is_disabled":false,"rental_uris":{"android":"levelo://app?vid=e34635f3-8b2d-4d19-b499-3d4413f28d2f","ios":"levelo://app?vid=e34635f3-8b2d-4d19-b499-3d4413f28d2f"},"vehicle_type_id":"4","last_reported":1746281320,"current_range_meters":16800,"station_id":"st_cvj6sg6p6f1abm77japg","pricing_plan_id":"cebpf4jnsgd1na2vs0mg"},{"bike_id":"9282606e-d8cd-4bbb-96af-20fbd4ddd5c3","system_id":"levelo_inurba_marseille","lat":43.29531,"lon":5.39393,"is_reserved":false,"is_disabled":false,"rental_uris":{"android":"levelo://app?vid=9282606e-d8cd-4bbb-96af-20fbd4ddd5c3","ios":"levelo://app?vid=9282606e-d8cd-4bbb-96af-20fbd4ddd5c3"},"vehicle_type_id":"4","last_reported":1746281320,"current_range_meters":16800,"station_id":"ce4bh292rcd13ifvqdf0","pricing_plan_id":"cebpf4jnsgd1na2vs0mg"},{"bike_id":"baec3a48-7832-428f-bfc2-0f9a06df3065","system_id":"levelo_inurba_marseille","lat":43.259361,"lon":5.408936,"is_reserved":false,"is_disabled":false,"rental_uris":{"android":"levelo://app?vid=baec3a48-7832-428f-bfc2-0f9a06df3065","ios":"levelo://app?vid=baec3a48-7832-428f-bfc2-0f9a06df3065"},"vehicle_type_id":"4","last_reported":1746281320,"current_range_meters":16800,"station_id":"ce4bhm92rcd13ifvqglg","pricing_plan_id":"cebpf4jnsgd1na2vs0mg"},{"bike_id":"3b542a84-de62-4a11-b0a3-12bdb238a101","system_id":"levelo_inurba_marseille","lat":43.337532,"lon":5.37432,"is_reserved":false,"is_disabled":false,"rental_uris":{"android":"levelo://app?vid=3b542a84-de62-4a11-b0a3-12bdb238a101","ios":"levelo://app?vid=3b542a84-de62-4a11-b0a3-12bdb238a101"},"vehicle_type_id":"4","last_reported":1746281320,"current_range_meters":17200,"station_id":"","pricing_plan_id":"cebpf4jnsgd1na2vs0mg"},{"bike_id":"952122e6-39bc-4299-bd60-94117abb2b66","system_id":"levelo_inurba_marseille","lat":43.2397,"lon":5.36623,"is_reserved":false,"is_disabled":false,"rental_uris":{"android":"levelo://app?vid=952122e6-39bc-4299-bd60-94117abb2b66","ios":"levelo://app?vid=952122e6-39bc-4299-bd60-94117abb2b66"},"vehicle_type_id":"4","last_reported":1746281320,"current_range_meters":16800,"station_id":"ce4bhi12rcd13ifvqfp0","pricing_plan_id":"cebpf4jnsgd1na2vs0mg"},{"bike_id":"c1ad8400-67c5-45ff-97cf-e0ee81b85c2f","system_id":"levelo_inurba_marseille","lat":43.29847,"lon":5.36278,"is_reserved":false,"is_disabled":false,"rental_uris":{"android":"levelo://app?vid=c1ad8400-67c5-45ff-97cf-e0ee81b85c2f","ios":"levelo://app?vid=c1ad8400-67c5-45ff-97cf-e0ee81b85c2f"},"vehicle_type_id":"4","last_reported":1746281320,"current_range_meters":16800,"station_id":"ce4bgpp2rcd13ifvqc3g","pricing_plan_id":"cebpf4jnsgd1na2vs0mg"},{"bike_id":"a3bc2359-39e4-4d03-aa5e-8ffa409341e2","system_id":"levelo_inurba_marseille","lat":43.298989,"lon":5.436628,"is_reserved":false,"is_disabled":false,"rental_uris":{"android":"levelo://app?vid=a3bc2359-39e4-4d03-aa5e-8ffa409341e2","ios":"levelo://app?vid=a3bc2359-39e4-4d03-aa5e-8ffa409341e2"},"vehicle_type_id":"4","last_reported":1746281320,"current_range_meters":16800,"station_id":"ce4bhpp2rcd13ifvqhfg","pricing_plan_id":"cebpf4jnsgd1na2vs0mg"},{"bike_id":"19d702cc-0b06-4f4d-b787-6708e1e4452d","system_id":"levelo_inurba_marseille","lat":43.23192,"lon":5.35553,"is_reserved":false,"is_disabled":false,"rental_uris":{"android":"levelo://app?vid=19d702cc-0b06-4f4d-b787-6708e1e4452d","ios":"levelo://app?vid=19d702cc-0b06-4f4d-b787-6708e1e4452d"},"vehicle_type_id":"4","last_reported":1746281320,"current_range_meters":16800,"station_id":"ce4bhu92rcd13ifvqi70","pricing_plan_id":"cebpf4jnsgd1na2vs0mg"},{"bike_id":"4fe65730-1288-4294-8cf9-619ddf893ccb","system_id":"levelo_inurba_marseille","lat":43.30247,"lon":5.40061,"is_reserved":false,"is_disabled":false,"rental_uris":{"android":"levelo://app?vid=4fe65730-1288-4294-8cf9-619ddf893ccb","ios":"levelo://app?vid=4fe65730-1288-4294-8cf9-619ddf893ccb"},"vehicle_type_id":"4","last_reported":1746281320,"current_range_meters":17200,"station_id":"ce4bgvh2rcd13ifvqcs0","pricing_plan_id":"cebpf4jnsgd1na2vs0mg"},{"bike_id":"b51e8583-0fb2-49ca-9c11-9dbce28dfa5d","system_id":"levelo_inurba_marseille","lat":43.23192,"lon":5.35559,"is_reserved":false,"is_disabled":false,"rental_uris":{"android":"levelo://app?vid=b51e8583-0fb2-49ca-9c11-9dbce28dfa5d","ios":"levelo://app?vid=b51e8583-0fb2-49ca-9c11-9dbce28dfa5d"},"vehicle_type_id":"4","last_reported":1746281320,"current_range_meters":17200,"station_id":"ce4bhu92rcd13ifvqi70","pricing_plan_id":"cebpf4jnsgd1na2vs0mg"},{"bike_id":"43580de2-2781-4103-8514-2bfafc9158a6","system_id":"levelo_inurba_marseille","lat":43.24189,"lon":5.36381,"is_reserved":false,"is_disabled":false,"rental_uris":{"android":"levelo://app?vid=43580de2-2781-4103-8514-2bfafc9158a6","ios":"levelo://app?vid=43580de2-2781-4103-8514-2bfafc9158a6"},"vehicle_type_id":"4","last_reported":1746281320,"current_range_meters":17200,"station_id":"cpo36qri1sfpv3e86is0","pricing_plan_id":"cebpf4jnsgd1na2vs0mg"},{"bike_id":"d4019007-d3b5-4642-b83e-d40511d56bb0","system_id":"levelo_inurba_marseille","lat":43.29852,"lon":5.36287,"is_reserved":false,"is_disabled":false,"rental_uris":{"android":"levelo://app?vid=d4019007-d3b5-4642-b83e-d40511d56bb0","ios":"levelo://app?vid=d4019007-d3b5-4642-b83e-d40511d56bb0"},"vehicle_type_id":"4","last_reported":1746281320,"current_range_meters":17200,"station_id":"ce4bgpp2rcd13ifvqc3g","pricing_plan_id":"cebpf4jnsgd1na2vs0mg"},{"bike_id":"95cb0049-b3f3-4de6-a2a9-84a2eea9b041","system_id":"levelo_inurba_marseille","lat":43.31484,"lon":5.37307,"is_reserved":false,"is_disabled":false,"rental_uris":{"android":"levelo://app?vid=95cb0049-b3f3-4de6-a2a9-84a2eea9b041","ios":"levelo://app?vid=95cb0049-b3f3-4de6-a2a9-84a2eea9b041"},"vehicle_type_id":"4","last_reported":1746281320,"current_range_meters":16800,"station_id":"ce4bgt12rcd13ifvqcd0","pricing_plan_id":"cebpf4jnsgd1na2vs0mg"},{"bike_id":"8ef8e415-3a8e-4e37-94d1-5c69550e4819","system_id":"levelo_inurba_marseille","lat":43.286156,"lon":5.350973,"is_reserved":false,"is_disabled":false,"rental_uris":{"android":"levelo://app?vid=8ef8e415-3a8e-4e37-94d1-5c69550e4819","ios":"levelo://app?vid=8ef8e415-3a8e-4e37-94d1-5c69550e4819"},"vehicle_type_id":"4","last_reported":1746281320,"current_range_meters":17200,"station_id":"ce4bhch2rcd13ifvqeug","pricing_plan_id":"cebpf4jnsgd1na2vs0mg"},{"bike_id":"ae9b4fce-d591-4548-a37c-3a390c801e6d","system_id":"levelo_inurba_marseille","lat":43.26207,"lon":5.37442,"is_reserved":false,"is_disabled":false,"rental_uris":{"android":"levelo://app?vid=ae9b4fce-d591-4548-a37c-3a390c801e6d","ios":"levelo://app?vid=ae9b4fce-d591-4548-a37c-3a390c801e6d"},"vehicle_type_id":"4","last_reported":1746281320,"current_range_meters":17600,"station_id":"ce4bhgp2rcd13ifvqfc0","pricing_plan_id":"cebpf4jnsgd1na2vs0mg"},{"bike_id":"5c79900e-fd0f-4131-9112-361e5024beb1","system_id":"levelo_inurba_marseille","lat":43.30594,"lon":5.39353,"is_reserved":false,"is_disabled":false,"rental_uris":{"android":"levelo://app?vid=5c79900e-fd0f-4131-9112-361e5024beb1","ios":"levelo://app?vid=5c79900e-fd0f-4131-9112-361e5024beb1"},"vehicle_type_id":"4","last_reported":1746281320,"current_range_meters":17600,"station_id":"ce4bh0p2rcd13ifvqd80","pricing_plan_id":"cebpf4jnsgd1na2vs0mg"},{"bike_id":"b6ecfc91-4481-4bb2-bd1b-a33023a24a1b","system_id":"levelo_inurba_marseille","lat":43.211918,"lon":5.350735,"is_reserved":false,"is_disabled":false,"rental_uris":{"android":"levelo://app?vid=b6ecfc91-4481-4bb2-bd1b-a33023a24a1b","ios":"levelo://app?vid=b6ecfc91-4481-4bb2-bd1b-a33023a24a1b"},"vehicle_type_id":"4","last_reported":1746281320,"current_range_meters":17600,"station_id":"st_cvj6sg6p6f1abm77japg","pricing_plan_id":"cebpf4jnsgd1na2vs0mg"},{"bike_id":"be6773de-c835-4a89-b968-e92acff56e35","system_id":"levelo_inurba_marseille","lat":43.21739,"lon":5.34619,"is_reserved":false,"is_disabled":false,"rental_uris":{"android":"levelo://app?vid=be6773de-c835-4a89-b968-e92acff56e35","ios":"levelo://app?vid=be6773de-c835-4a89-b968-e92acff56e35"},"vehicle_type_id":"4","last_reported":1746281320,"current_range_meters":17600,"station_id":"st_cvj6r9ubvosntc0bgbag","pricing_plan_id":"cebpf4jnsgd1na2vs0mg"},{"bike_id":"c8e16fcb-5510-4723-b6e7-2aa49c1b3b8d","system_id":"levelo_inurba_marseille","lat":43.31948,"lon":5.37035,"is_reserved":false,"is_disabled":false,"rental_uris":{"android":"levelo://app?vid=c8e16fcb-5510-4723-b6e7-2aa49c1b3b8d","ios":"levelo://app?vid=c8e16fcb-5510-4723-b6e7-2aa49c1b3b8d"},"vehicle_type_id":"4","last_reported":1746281320,"current_range_meters":17600,"station_id":"","pricing_plan_id":"cebpf4jnsgd1na2vs0mg"},{"bike_id":"6944077a-8284-47ad-8742-a365655e9628","system_id":"levelo_inurba_marseille","lat":43.30804,"lon":5.43523,"is_reserved":false,"is_disabled":false,"rental_uris":{"android":"levelo://app?vid=6944077a-8284-47ad-8742-a365655e9628","ios":"levelo://app?vid=6944077a-8284-47ad-8742-a365655e9628"},"vehicle_type_id":"4","last_reported":1746281320,"current_range_meters":17200,"station_id":"ce4bhph2rcd13ifvqheg","pricing_plan_id":"cebpf4jnsgd1na2vs0mg"},{"bike_id":"5143ce13-2df0-4726-8d98-6c8d933897a7","system_id":"levelo_inurba_marseille","lat":43.2841,"lon":5.3496,"is_reserved":false,"is_disabled":false,"rental_uris":{"android":"levelo://app?vid=5143ce13-2df0-4726-8d98-6c8d933897a7","ios":"levelo://app?vid=5143ce13-2df0-4726-8d98-6c8d933897a7"},"vehicle_type_id":"4","last_reported":1746281320,"current_range_meters":17600,"station_id":"ce4bhbh2rcd13ifvqepg","pricing_plan_id":"cebpf4jnsgd1na2vs0mg"},{"bike_id":"b56d2285-3dfb-43af-bc0a-8b50b14e64af","system_id":"levelo_inurba_marseille","lat":43.32483,"lon":5.36571,"is_reserved":false,"is_disabled":false,"rental_uris":{"android":"levelo://app?vid=b56d2285-3dfb-43af-bc0a-8b50b14e64af","ios":"levelo://app?vid=b56d2285-3dfb-43af-bc0a-8b50b14e64af"},"vehicle_type_id":"4","last_reported":1746281320,"current_range_meters":17600,"station_id":"ce4bhs12rcd13ifvqhvg","pricing_plan_id":"cebpf4jnsgd1na2vs0mg"},{"bike_id":"31846cd9-5d1c-4ae5-9690-1eb646eb5f3d","system_id":"levelo_inurba_marseille","lat":43.21745,"lon":5.34606,"is_reserved":false,"is_disabled":false,"rental_uris":{"android":"levelo://app?vid=31846cd9-5d1c-4ae5-9690-1eb646eb5f3d","ios":"levelo://app?vid=31846cd9-5d1c-4ae5-9690-1eb646eb5f3d"},"vehicle_type_id":"4","last_reported":1746281320,"current_range_meters":18000,"station_id":"","pricing_plan_id":"cebpf4jnsgd1na2vs0mg"},{"bike_id":"c91ef7ff-9ba6-4edc-81cb-e80e5f06db53","system_id":"levelo_inurba_marseille","lat":43.26206,"lon":5.37439,"is_reserved":false,"is_disabled":false,"rental_uris":{"android":"levelo://app?vid=c91ef7ff-9ba6-4edc-81cb-e80e5f06db53","ios":"levelo://app?vid=c91ef7ff-9ba6-4edc-81cb-e80e5f06db53"},"vehicle_type_id":"4","last_reported":1746281320,"current_range_meters":17600,"station_id":"ce4bhgp2rcd13ifvqfc0","pricing_plan_id":"cebpf4jnsgd1na2vs0mg"},{"bike_id":"b44f9884-ad91-4c4f-8556-0c40c7f3c478","system_id":"levelo_inurba_marseille","lat":43.23193,"lon":5.3555,"is_reserved":false,"is_disabled":false,"rental_uris":{"android":"levelo://app?vid=b44f9884-ad91-4c4f-8556-0c40c7f3c478","ios":"levelo://app?vid=b44f9884-ad91-4c4f-8556-0c40c7f3c478"},"vehicle_type_id":"4","last_reported":1746281320,"current_range_meters":18000,"station_id":"ce4bhu92rcd13ifvqi70","pricing_plan_id":"cebpf4jnsgd1na2vs0mg"},{"bike_id":"25b89c4a-ae9b-4df7-84d0-b786cb272028","system_id":"levelo_inurba_marseille","lat":43.262105,"lon":5.374377,"is_reserved":false,"is_disabled":false,"rental_uris":{"android":"levelo://app?vid=25b89c4a-ae9b-4df7-84d0-b786cb272028","ios":"levelo://app?vid=25b89c4a-ae9b-4df7-84d0-b786cb272028"},"vehicle_type_id":"4","last_reported":1746281320,"current_range_meters":18000,"station_id":"","pricing_plan_id":"cebpf4jnsgd1na2vs0mg"},{"bike_id":"fe3402fa-010e-49a7-9738-90cf54be6235","system_id":"levelo_inurba_marseille","lat":43.27362,"lon":5.36252,"is_reserved":false,"is_disabled":false,"rental_uris":{"android":"levelo://app?vid=fe3402fa-010e-49a7-9738-90cf54be6235","ios":"levelo://app?vid=fe3402fa-010e-49a7-9738-90cf54be6235"},"vehicle_type_id":"4","last_reported":1746281320,"current_range_meters":18000,"station_id":"ce4bhbh2rcd13ifvqeo0","pricing_plan_id":"cebpf4jnsgd1na2vs0mg"},{"bike_id":"18d1f4f2-fe48-49de-aa3f-67b5db0f82e2","system_id":"levelo_inurba_marseille","lat":43.24658,"lon":5.38165,"is_reserved":false,"is_disabled":false,"rental_uris":{"android":"levelo://app?vid=18d1f4f2-fe48-49de-aa3f-67b5db0f82e2","ios":"levelo://app?vid=18d1f4f2-fe48-49de-aa3f-67b5db0f82e2"},"vehicle_type_id":"4","last_reported":1746281320,"current_range_meters":18800,"station_id":"ce4bhih2rcd13ifvqfr0","pricing_plan_id":"cebpf4jnsgd1na2vs0mg"},{"bike_id":"bcf4afd3-0ca0-4fae-a7ca-2e3bfd4390fe","system_id":"levelo_inurba_marseille","lat":43.30553,"lon":5.36551,"is_reserved":false,"is_disabled":false,"rental_uris":{"android":"levelo://app?vid=bcf4afd3-0ca0-4fae-a7ca-2e3bfd4390fe","ios":"levelo://app?vid=bcf4afd3-0ca0-4fae-a7ca-2e3bfd4390fe"},"vehicle_type_id":"4","last_reported":1746281320,"current_range_meters":18800,"station_id":"ce4bgs12rcd13ifvqcag","pricing_plan_id":"cebpf4jnsgd1na2vs0mg"},{"bike_id":"44a4d48b-8b35-4579-9500-8ea752fbfc55","system_id":"levelo_inurba_marseille","lat":43.305984,"lon":5.372418,"is_reserved":false,"is_disabled":false,"rental_uris":{"android":"levelo://app?vid=44a4d48b-8b35-4579-9500-8ea752fbfc55","ios":"levelo://app?vid=44a4d48b-8b35-4579-9500-8ea752fbfc55"},"vehicle_type_id":"4","last_reported":1746281320,"current_range_meters":18800,"station_id":"ce4bgqh2rcd13ifvqc4g","pricing_plan_id":"cebpf4jnsgd1na2vs0mg"},{"bike_id":"d7ab26b3-6e62-463f-8a98-5eb022d2d885","system_id":"levelo_inurba_marseille","lat":43.23961,"lon":5.36625,"is_reserved":false,"is_disabled":false,"rental_uris":{"android":"levelo://app?vid=d7ab26b3-6e62-463f-8a98-5eb022d2d885","ios":"levelo://app?vid=d7ab26b3-6e62-463f-8a98-5eb022d2d885"},"vehicle_type_id":"4","last_reported":1746281320,"current_range_meters":18800,"station_id":"ce4bhi12rcd13ifvqfp0","pricing_plan_id":"cebpf4jnsgd1na2vs0mg"},{"bike_id":"e0eb2257-89c1-4851-bec9-ef9639111322","system_id":"levelo_inurba_marseille","lat":43.3,"lon":5.3725,"is_reserved":false,"is_disabled":false,"rental_uris":{"android":"levelo://app?vid=e0eb2257-89c1-4851-bec9-ef9639111322","ios":"levelo://app?vid=e0eb2257-89c1-4851-bec9-ef9639111322"},"vehicle_type_id":"4","last_reported":1746281320,"current_range_meters":18800,"station_id":"","pricing_plan_id":"cebpf4jnsgd1na2vs0mg"},{"bike_id":"cb06b34a-ed36-47a6-8d09-45a1d4eda444","system_id":"levelo_inurba_marseille","lat":43.21192,"lon":5.35091,"is_reserved":false,"is_disabled":false,"rental_uris":{"android":"levelo://app?vid=cb06b34a-ed36-47a6-8d09-45a1d4eda444","ios":"levelo://app?vid=cb06b34a-ed36-47a6-8d09-45a1d4eda444"},"vehicle_type_id":"4","last_reported":1746281320,"current_range_meters":19200,"station_id":"st_cvj6sg6p6f1abm77japg","pricing_plan_id":"cebpf4jnsgd1na2vs0mg"},{"bike_id":"40fd19f4-44fe-44e9-821b-b3af5edff61f","system_id":"levelo_inurba_marseille","lat":43.211863,"lon":5.35077,"is_reserved":false,"is_disabled":false,"rental_uris":{"android":"levelo://app?vid=40fd19f4-44fe-44e9-821b-b3af5edff61f","ios":"levelo://app?vid=40fd19f4-44fe-44e9-821b-b3af5edff61f"},"vehicle_type_id":"4","last_reported":1746281320,"current_range_meters":19200,"station_id":"st_cvj6sg6p6f1abm77japg","pricing_plan_id":"cebpf4jnsgd1na2vs0mg"},{"bike_id":"633f4cac-9696-4e15-bb10-152509541b56","system_id":"levelo_inurba_marseille","lat":43.32359,"lon":5.3675,"is_reserved":false,"is_disabled":false,"rental_uris":{"android":"levelo://app?vid=633f4cac-9696-4e15-bb10-152509541b56","ios":"levelo://app?vid=633f4cac-9696-4e15-bb10-152509541b56"},"vehicle_type_id":"4","last_reported":1746281320,"current_range_meters":19200,"station_id":"ce4bhsh2rcd13ifvqi2g","pricing_plan_id":"cebpf4jnsgd1na2vs0mg"},{"bike_id":"6ed6519d-6b88-4855-9483-f94ae3923e18","system_id":"levelo_inurba_marseille","lat":43.28611,"lon":5.35105,"is_reserved":false,"is_disabled":false,"rental_uris":{"android":"levelo://app?vid=6ed6519d-6b88-4855-9483-f94ae3923e18","ios":"levelo://app?vid=6ed6519d-6b88-4855-9483-f94ae3923e18"},"vehicle_type_id":"4","last_reported":1746281320,"current_range_meters":19200,"station_id":"ce4bhch2rcd13ifvqeug","pricing_plan_id":"cebpf4jnsgd1na2vs0mg"},{"bike_id":"a156a43b-a454-494b-9663-fdd53beb9caa","system_id":"levelo_inurba_marseille","lat":43.21751,"lon":5.34604,"is_reserved":false,"is_disabled":false,"rental_uris":{"android":"levelo://app?vid=a156a43b-a454-494b-9663-fdd53beb9caa","ios":"levelo://app?vid=a156a43b-a454-494b-9663-fdd53beb9caa"},"vehicle_type_id":"4","last_reported":1746281320,"current_range_meters":19200,"station_id":"st_cvj6r9ubvosntc0bgbag","pricing_plan_id":"cebpf4jnsgd1na2vs0mg"},{"bike_id":"48b89a22-48a4-441f-8095-cafac174cc18","system_id":"levelo_inurba_marseille","lat":43.23967,"lon":5.36637,"is_reserved":false,"is_disabled":false,"rental_uris":{"android":"levelo://app?vid=48b89a22-48a4-441f-8095-cafac174cc18","ios":"levelo://app?vid=48b89a22-48a4-441f-8095-cafac174cc18"},"vehicle_type_id":"4","last_reported":1746281320,"current_range_meters":19600,"station_id":"ce4bhi12rcd13ifvqfp0","pricing_plan_id":"cebpf4jnsgd1na2vs0mg"},{"bike_id":"fabf2925-9bd4-424b-868f-8f1d1e6774c1","system_id":"levelo_inurba_marseille","lat":43.2293,"lon":5.35376,"is_reserved":false,"is_disabled":false,"rental_uris":{"android":"levelo://app?vid=fabf2925-9bd4-424b-868f-8f1d1e6774c1","ios":"levelo://app?vid=fabf2925-9bd4-424b-868f-8f1d1e6774c1"},"vehicle_type_id":"4","last_reported":1746281320,"current_range_meters":19600,"station_id":"cpo3532slgdg3j2ikp40","pricing_plan_id":"cebpf4jnsgd1na2vs0mg"},{"bike_id":"0cca1046-247e-489f-a145-8327cdb6c11d","system_id":"levelo_inurba_marseille","lat":43.29259,"lon":5.37621,"is_reserved":false,"is_disabled":false,"rental_uris":{"android":"levelo://app?vid=0cca1046-247e-489f-a145-8327cdb6c11d","ios":"levelo://app?vid=0cca1046-247e-489f-a145-8327cdb6c11d"},"vehicle_type_id":"4","last_reported":1746281320,"current_range_meters":19600,"station_id":"ce4bgi12rcd13ifvqb80","pricing_plan_id":"cebpf4jnsgd1na2vs0mg"},{"bike_id":"1d6c891d-d0c9-40e1-8e22-7763a9d3b3ae","system_id":"levelo_inurba_marseille","lat":43.28273,"lon":5.3507,"is_reserved":false,"is_disabled":false,"rental_uris":{"android":"levelo://app?vid=1d6c891d-d0c9-40e1-8e22-7763a9d3b3ae","ios":"levelo://app?vid=1d6c891d-d0c9-40e1-8e22-7763a9d3b3ae"},"vehicle_type_id":"4","last_reported":1746281320,"current_range_meters":19600,"station_id":"ce4bhbp2rcd13ifvqerg","pricing_plan_id":"cebpf4jnsgd1na2vs0mg"},{"bike_id":"1a0b984a-5bb6-40c8-b8b0-68edd4b3d9bd","system_id":"levelo_inurba_marseille","lat":43.21753,"lon":5.34611,"is_reserved":false,"is_disabled":false,"rental_uris":{"android":"levelo://app?vid=1a0b984a-5bb6-40c8-b8b0-68edd4b3d9bd","ios":"levelo://app?vid=1a0b984a-5bb6-40c8-b8b0-68edd4b3d9bd"},"vehicle_type_id":"4","last_reported":1746281320,"current_range_meters":20000,"station_id":"st_cvj6r9ubvosntc0bgbag","pricing_plan_id":"cebpf4jnsgd1na2vs0mg"},{"bike_id":"b07fb12b-e0f7-4ed3-8eff-8b03f8df1cfe","system_id":"levelo_inurba_marseille","lat":43.28271,"lon":5.35067,"is_reserved":false,"is_disabled":false,"rental_uris":{"android":"levelo://app?vid=b07fb12b-e0f7-4ed3-8eff-8b03f8df1cfe","ios":"levelo://app?vid=b07fb12b-e0f7-4ed3-8eff-8b03f8df1cfe"},"vehicle_type_id":"4","last_reported":1746281320,"current_range_meters":19600,"station_id":"ce4bhbp2rcd13ifvqerg","pricing_plan_id":"cebpf4jnsgd1na2vs0mg"},{"bike_id":"478eea82-b413-46b8-98d5-a2b0b85050dc","system_id":"levelo_inurba_marseille","lat":43.21186,"lon":5.35093,"is_reserved":false,"is_disabled":false,"rental_uris":{"android":"levelo://app?vid=478eea82-b413-46b8-98d5-a2b0b85050dc","ios":"levelo://app?vid=478eea82-b413-46b8-98d5-a2b0b85050dc"},"vehicle_type_id":"4","last_reported":1746281320,"current_range_meters":20000,"station_id":"st_cvj6sg6p6f1abm77japg","pricing_plan_id":"cebpf4jnsgd1na2vs0mg"},{"bike_id":"43f220ab-0408-46b3-abe5-60437ce3bc1e","system_id":"levelo_inurba_marseille","lat":43.23192,"lon":5.35557,"is_reserved":false,"is_disabled":false,"rental_uris":{"android":"levelo://app?vid=43f220ab-0408-46b3-abe5-60437ce3bc1e","ios":"levelo://app?vid=43f220ab-0408-46b3-abe5-60437ce3bc1e"},"vehicle_type_id":"4","last_reported":1746281320,"current_range_meters":20400,"station_id":"ce4bhu92rcd13ifvqi70","pricing_plan_id":"cebpf4jnsgd1na2vs0mg"},{"bike_id":"439c3f75-613c-45c5-bce8-ead29e1df63f","system_id":"levelo_inurba_marseille","lat":43.23192,"lon":5.3555,"is_reserved":false,"is_disabled":false,"rental_uris":{"android":"levelo://app?vid=439c3f75-613c-45c5-bce8-ead29e1df63f","ios":"levelo://app?vid=439c3f75-613c-45c5-bce8-ead29e1df63f"},"vehicle_type_id":"4","last_reported":1746281320,"current_range_meters":20400,"station_id":"ce4bhu92rcd13ifvqi70","pricing_plan_id":"cebpf4jnsgd1na2vs0mg"},{"bike_id":"55cb05ac-a725-4487-a188-479c691dd106","system_id":"levelo_inurba_marseille","lat":43.30797,"lon":5.43529,"is_reserved":false,"is_disabled":false,"rental_uris":{"android":"levelo://app?vid=55cb05ac-a725-4487-a188-479c691dd106","ios":"levelo://app?vid=55cb05ac-a725-4487-a188-479c691dd106"},"vehicle_type_id":"4","last_reported":1746281320,"current_range_meters":20400,"station_id":"ce4bhph2rcd13ifvqheg","pricing_plan_id":"cebpf4jnsgd1na2vs0mg"},{"bike_id":"95835ed7-e5bf-438d-a54a-861e6ec398a7","system_id":"levelo_inurba_marseille","lat":43.2901,"lon":5.35608,"is_reserved":false,"is_disabled":false,"rental_uris":{"android":"levelo://app?vid=95835ed7-e5bf-438d-a54a-861e6ec398a7","ios":"levelo://app?vid=95835ed7-e5bf-438d-a54a-861e6ec398a7"},"vehicle_type_id":"4","last_reported":1746281320,"current_range_meters":20400,"station_id":"ce4bhb92rcd13ifvqen0","pricing_plan_id":"cebpf4jnsgd1na2vs0mg"},{"bike_id":"574e711c-fa4e-4bf9-84b3-4ae402691bae","system_id":"levelo_inurba_marseille","lat":43.2119,"lon":5.35069,"is_reserved":false,"is_disabled":false,"rental_uris":{"android":"levelo://app?vid=574e711c-fa4e-4bf9-84b3-4ae402691bae","ios":"levelo://app?vid=574e711c-fa4e-4bf9-84b3-4ae402691bae"},"vehicle_type_id":"4","last_reported":1746281320,"current_range_meters":20800,"station_id":"st_cvj6sg6p6f1abm77japg","pricing_plan_id":"cebpf4jnsgd1na2vs0mg"},{"bike_id":"dab12b6a-8e85-4773-8a98-0792c70cd514","system_id":"levelo_inurba_marseille","lat":43.22498,"lon":5.34797,"is_reserved":false,"is_disabled":false,"rental_uris":{"android":"levelo://app?vid=dab12b6a-8e85-4773-8a98-0792c70cd514","ios":"levelo://app?vid=dab12b6a-8e85-4773-8a98-0792c70cd514"},"vehicle_type_id":"4","last_reported":1746281320,"current_range_meters":20800,"station_id":"st_cvj5dfep6f1abm77gieg","pricing_plan_id":"cebpf4jnsgd1na2vs0mg"},{"bike_id":"c83fc389-78a1-49b8-9394-79568ce18717","system_id":"levelo_inurba_marseille","lat":43.302551,"lon":5.400835,"is_reserved":false,"is_disabled":false,"rental_uris":{"android":"levelo://app?vid=c83fc389-78a1-49b8-9394-79568ce18717","ios":"levelo://app?vid=c83fc389-78a1-49b8-9394-79568ce18717"},"vehicle_type_id":"4","last_reported":1746281320,"current_range_meters":21600,"station_id":"ce4bgvh2rcd13ifvqcs0","pricing_plan_id":"cebpf4jnsgd1na2vs0mg"},{"bike_id":"01903239-002f-47a3-aecc-3dba327d261b","system_id":"levelo_inurba_marseille","lat":43.25586,"lon":5.38235,"is_reserved":false,"is_disabled":false,"rental_uris":{"android":"levelo://app?vid=01903239-002f-47a3-aecc-3dba327d261b","ios":"levelo://app?vid=01903239-002f-47a3-aecc-3dba327d261b"},"vehicle_type_id":"4","last_reported":1746281320,"current_range_meters":21600,"station_id":"ce4bhih2rcd13ifvqfs0","pricing_plan_id":"cebpf4jnsgd1na2vs0mg"},{"bike_id":"c517b0b7-ca4a-47c7-b571-f236eeb40f51","system_id":"levelo_inurba_marseille","lat":43.34145,"lon":5.40906,"is_reserved":false,"is_disabled":false,"rental_uris":{"android":"levelo://app?vid=c517b0b7-ca4a-47c7-b571-f236eeb40f51","ios":"levelo://app?vid=c517b0b7-ca4a-47c7-b571-f236eeb40f51"},"vehicle_type_id":"4","last_reported":1746281320,"current_range_meters":22000,"station_id":"ce4bhqh2rcd13ifvqhlg","pricing_plan_id":"cebpf4jnsgd1na2vs0mg"},{"bike_id":"d35a773f-85f3-4502-b349-d3ba85e9d3ac","system_id":"levelo_inurba_marseille","lat":43.3293,"lon":5.36422,"is_reserved":false,"is_disabled":false,"rental_uris":{"android":"levelo://app?vid=d35a773f-85f3-4502-b349-d3ba85e9d3ac","ios":"levelo://app?vid=d35a773f-85f3-4502-b349-d3ba85e9d3ac"},"vehicle_type_id":"4","last_reported":1746281320,"current_range_meters":22000,"station_id":"","pricing_plan_id":"cebpf4jnsgd1na2vs0mg"},{"bike_id":"b212db87-e197-43f7-9b5a-58b33a4d1cb9","system_id":"levelo_inurba_marseille","lat":43.31996,"lon":5.38161,"is_reserved":false,"is_disabled":true,"rental_uris":{"android":"levelo://app?vid=b212db87-e197-43f7-9b5a-58b33a4d1cb9","ios":"levelo://app?vid=b212db87-e197-43f7-9b5a-58b33a4d1cb9"},"vehicle_type_id":"4","last_reported":1746281320,"current_range_meters":22400,"station_id":"ce4bhr12rcd13ifvqhpg","pricing_plan_id":"cebpf4jnsgd1na2vs0mg"},{"bike_id":"8f8205c0-508b-4c6c-bda0-809653224241","system_id":"levelo_inurba_marseille","lat":43.21195,"lon":5.35067,"is_reserved":false,"is_disabled":false,"rental_uris":{"android":"levelo://app?vid=8f8205c0-508b-4c6c-bda0-809653224241","ios":"levelo://app?vid=8f8205c0-508b-4c6c-bda0-809653224241"},"vehicle_type_id":"4","last_reported":1746281320,"current_range_meters":22400,"station_id":"st_cvj6sg6p6f1abm77japg","pricing_plan_id":"cebpf4jnsgd1na2vs0mg"},{"bike_id":"9172d49a-7daf-47e2-9b1a-ebe15edc4883","system_id":"levelo_inurba_marseille","lat":43.302673,"lon":5.376986,"is_reserved":false,"is_disabled":false,"rental_uris":{"android":"levelo://app?vid=9172d49a-7daf-47e2-9b1a-ebe15edc4883","ios":"levelo://app?vid=9172d49a-7daf-47e2-9b1a-ebe15edc4883"},"vehicle_type_id":"4","last_reported":1746281320,"current_range_meters":22000,"station_id":"ce4bguh2rcd13ifvqcj0","pricing_plan_id":"cebpf4jnsgd1na2vs0mg"},{"bike_id":"fa039a04-d770-4559-a8e9-94351309aac0","system_id":"levelo_inurba_marseille","lat":43.28426,"lon":5.34982,"is_reserved":false,"is_disabled":false,"rental_uris":{"android":"levelo://app?vid=fa039a04-d770-4559-a8e9-94351309aac0","ios":"levelo://app?vid=fa039a04-d770-4559-a8e9-94351309aac0"},"vehicle_type_id":"4","last_reported":1746281320,"current_range_meters":22400,"station_id":"ce4bhbh2rcd13ifvqepg","pricing_plan_id":"cebpf4jnsgd1na2vs0mg"},{"bike_id":"7c34e6ec-f0af-4b00-b42e-7651e5caf715","system_id":"levelo_inurba_marseille","lat":43.29783,"lon":5.37096,"is_reserved":false,"is_disabled":false,"rental_uris":{"android":"levelo://app?vid=7c34e6ec-f0af-4b00-b42e-7651e5caf715","ios":"levelo://app?vid=7c34e6ec-f0af-4b00-b42e-7651e5caf715"},"vehicle_type_id":"4","last_reported":1746281320,"current_range_meters":22400,"station_id":"ce4bgop2rcd13ifvqc1g","pricing_plan_id":"cebpf4jnsgd1na2vs0mg"},{"bike_id":"b2b1ba3d-7740-45fe-b71c-5ba2f2310554","system_id":"levelo_inurba_marseille","lat":43.29005,"lon":5.35613,"is_reserved":false,"is_disabled":false,"rental_uris":{"android":"levelo://app?vid=b2b1ba3d-7740-45fe-b71c-5ba2f2310554","ios":"levelo://app?vid=b2b1ba3d-7740-45fe-b71c-5ba2f2310554"},"vehicle_type_id":"4","last_reported":1746281320,"current_range_meters":22800,"station_id":"ce4bhb92rcd13ifvqen0","pricing_plan_id":"cebpf4jnsgd1na2vs0mg"},{"bike_id":"f7129fc7-e162-4059-b746-ae4f6375dc85","system_id":"levelo_inurba_marseille","lat":43.21748,"lon":5.346,"is_reserved":false,"is_disabled":false,"rental_uris":{"android":"levelo://app?vid=f7129fc7-e162-4059-b746-ae4f6375dc85","ios":"levelo://app?vid=f7129fc7-e162-4059-b746-ae4f6375dc85"},"vehicle_type_id":"4","last_reported":1746281320,"current_range_meters":22800,"station_id":"st_cvj6r9ubvosntc0bgbag","pricing_plan_id":"cebpf4jnsgd1na2vs0mg"},{"bike_id":"a4474d1d-fa23-4aba-8153-4ecc3115a54e","system_id":"levelo_inurba_marseille","lat":43.21747,"lon":5.34596,"is_reserved":false,"is_disabled":false,"rental_uris":{"android":"levelo://app?vid=a4474d1d-fa23-4aba-8153-4ecc3115a54e","ios":"levelo://app?vid=a4474d1d-fa23-4aba-8153-4ecc3115a54e"},"vehicle_type_id":"4","last_reported":1746281320,"current_range_meters":22800,"station_id":"st_cvj6r9ubvosntc0bgbag","pricing_plan_id":"cebpf4jnsgd1na2vs0mg"},{"bike_id":"45b0f65b-e66b-413d-a73f-39145fadacf7","system_id":"levelo_inurba_marseille","lat":43.28618,"lon":5.35102,"is_reserved":false,"is_disabled":false,"rental_uris":{"android":"levelo://app?vid=45b0f65b-e66b-413d-a73f-39145fadacf7","ios":"levelo://app?vid=45b0f65b-e66b-413d-a73f-39145fadacf7"},"vehicle_type_id":"4","last_reported":1746281320,"current_range_meters":22800,"station_id":"ce4bhch2rcd13ifvqeug","pricing_plan_id":"cebpf4jnsgd1na2vs0mg"},{"bike_id":"3066597f-681a-4aa4-a815-a956d58f19e7","system_id":"levelo_inurba_marseille","lat":43.29945,"lon":5.37129,"is_reserved":false,"is_disabled":false,"rental_uris":{"android":"levelo://app?vid=3066597f-681a-4aa4-a815-a956d58f19e7","ios":"levelo://app?vid=3066597f-681a-4aa4-a815-a956d58f19e7"},"vehicle_type_id":"4","last_reported":1746281320,"current_range_meters":22800,"station_id":"","pricing_plan_id":"cebpf4jnsgd1na2vs0mg"},{"bike_id":"244aafcb-631b-44da-a279-675674e67b6b","system_id":"levelo_inurba_marseille","lat":43.272135,"lon":5.391864,"is_reserved":false,"is_disabled":false,"rental_uris":{"android":"levelo://app?vid=244aafcb-631b-44da-a279-675674e67b6b","ios":"levelo://app?vid=244aafcb-631b-44da-a279-675674e67b6b"},"vehicle_type_id":"4","last_reported":1746281320,"current_range_meters":22800,"station_id":"ce4bhhp2rcd13ifvqfm0","pricing_plan_id":"cebpf4jnsgd1na2vs0mg"},{"bike_id":"b75e3c25-4180-45cb-ab53-852b8b613ff4","system_id":"levelo_inurba_marseille","lat":43.299,"lon":5.43664,"is_reserved":false,"is_disabled":false,"rental_uris":{"android":"levelo://app?vid=b75e3c25-4180-45cb-ab53-852b8b613ff4","ios":"levelo://app?vid=b75e3c25-4180-45cb-ab53-852b8b613ff4"},"vehicle_type_id":"4","last_reported":1746281320,"current_range_meters":23200,"station_id":"ce4bhpp2rcd13ifvqhfg","pricing_plan_id":"cebpf4jnsgd1na2vs0mg"},{"bike_id":"6d4b36b1-59b0-41a2-a7b4-711aacfec2cb","system_id":"levelo_inurba_marseille","lat":43.31119,"lon":5.37764,"is_reserved":false,"is_disabled":false,"rental_uris":{"android":"levelo://app?vid=6d4b36b1-59b0-41a2-a7b4-711aacfec2cb","ios":"levelo://app?vid=6d4b36b1-59b0-41a2-a7b4-711aacfec2cb"},"vehicle_type_id":"4","last_reported":1746281320,"current_range_meters":23200,"station_id":"ce4bgt92rcd13ifvqcg0","pricing_plan_id":"cebpf4jnsgd1na2vs0mg"},