{"last_updated":1766225465,"ttl":60,"version":"2.2","data":{"bikes":[{"bike_id":"40c51ff6-bcdf-4189-b2f9-53259a9dc236","system_id":"levelo_inurba_marseille","lat":43.28306,"lon":5.38919,"is_reserved":false,"is_disabled":true,"rental_uris":{"android":"levelo://app?vid=40c51ff6-bcdf-4189-b2f9-53259a9dc236","ios":"levelo://app?vid=40c51ff6-bcdf-4189-b2f9-53259a9dc236"},"vehicle_type_id":"4","last_reported":1766225466,"current_range_meters":2800,"station_id":"","pricing_plan_id":"cebpf4jnsgd1na2vs0mg"},{"bike_id":"9549e986-9478-4186-9dd6-3e135359aabe","system_id":"levelo_inurba_marseille","lat":43.29553,"lon":5.42266,"is_reserved":false,"is_disabled":false,"rental_uris":{"android":"levelo://app?vid=9549e986-9478-4186-9dd6-3e135359aabe","ios":"levelo://app?vid=9549e986-9478-4186-9dd6-3e135359aabe"},"vehicle_type_id":"4","last_reported":1766225466,"current_range_meters":2800,"station_id":"ce4bhph2rcd13ifvqhdg","pricing_plan_id":"cebpf4jnsgd1na2vs0mg"},{"bike_id":"753fa97d-bba9-4bc5-9aa4-f2f3d952d6db","system_id":"levelo_inurba_marseille","lat":43.26206,"lon":5.37446,"is_reserved":false,"is_disabled":false,"rental_uris":{"android":"levelo://app?vid=753fa97d-bba9-4bc5-9aa4-f2f3d952d6db","ios":"levelo://app?vid=753fa97d-bba9-4bc5-9aa4-f2f3d952d6db"},"vehicle_type_id":"4","last_reported":1766225466,"current_range_meters":3200,"station_id":"ce4bhgp2rcd13ifvqfc0","pricing_plan_id":"cebpf4jnsgd1na2vs0mg"},{"bike_id":"f5e985df-e78f-40aa-af46-7945d1f462ea","system_id":"levelo_inurba_marseille","lat":43.28966,"lon":5.37832,"is_reserved":false,"is_disabled":false,"rental_uris":{"android":"levelo://app?vid=f5e985df-e78f-40aa-af46-7945d1f462ea","ios":"levelo://app?vid=f5e985df-e78f-40aa-af46-7945d1f462ea"},"vehicle_type_id":"4","last_reported":1766225466,"current_range_meters":3200,"station_id":"ce4bh9p2rcd13ifvqed0","pricing_plan_id":"cebpf4jnsgd1na2vs0mg"},{"bike_id":"9dda9b0f-3aee-451b-807e-9b7f2564409f","system_id":"levelo_inurba_marseille","lat":43.29534,"lon":5.375,"is_reserved":false,"is_disabled":false,"rental_uris":{"android":"levelo://app?vid=9dda9b0f-3aee-451b-807e-9b7f2564409f","ios":"levelo://app?vid=9dda9b0f-3aee-451b-807e-9b7f2564409f"},"vehicle_type_id":"4","last_reported":1766225466,"current_range_meters":3200,"station_id":"ce4bgkp2rcd13ifvqbmg","pricing_plan_id":"cebpf4jnsgd1na2vs0mg"},{"bike_id":"1818541f-8e74-41e7-b7cb-57e7d6fa274f","system_id":"levelo_inurba_marseille","lat":43.2446,"lon":5.39044,"is_reserved":false,"is_disabled":false,"rental_uris":{"android":"levelo://app?vid=1818541f-8e74-41e7-b7cb-57e7d6fa274f","ios":"levelo://app?vid=1818541f-8e74-41e7-b7cb-57e7d6fa274f"},"vehicle_type_id":"4","last_reported":1766225466,"current_range_meters":3600,"station_id":"","pricing_plan_id":"cebpf4jnsgd1na2vs0mg"},{"bike_id":"cf0e2dfe-8751-4251-bbd3-3ad00be9f3ad","system_id":"levelo_inurba_marseille","lat":43.28472,"lon":5.48399,"is_reserved":false,"is_disabled":false,"rental_uris":{"android":"levelo://app?vid=cf0e2dfe-8751-4251-bbd3-3ad00be9f3ad","ios":"levelo://app?vid=cf0e2dfe-8751-4251-bbd3-3ad00be9f3ad"},"vehicle_type_id":"4","last_reported":1766225466,"current_range_meters":3600,"station_id":"","pricing_plan_id":"cebpf4jnsgd1na2vs0mg"},{"bike_id":"bf880f0d-3fee-4d7b-a187-038ad765e571","system_id":"levelo_inurba_marseille","lat":43.2657,"lon":5.390114,"is_reserved":false,"is_disabled":false,"rental_uris":{"android":"levelo://app?vid=bf880f0d-3fee-4d7b-a187-038ad765e571","ios":"levelo://app?vid=bf880f0d-3fee-4d7b-a187-038ad765e571"},"vehicle_type_id":"4","last_reported":1766225466,"current_range_meters":3600,"station_id":"ce4bhe12rcd13ifvqf30","pricing_plan_id":"cebpf4jnsgd1na2vs0mg"},{"bike_id":"0f0ba93b-2f84-46c7-a059-9539de548098","system_id":"levelo_inurba_marseille","lat":43.30177,"lon":5.38095,"is_reserved":false,"is_disabled":true,"rental_uris":{"android":"levelo://app?vid=0f0ba93b-2f84-46c7-a059-9539de548098","ios":"levelo://app?vid=0f0ba93b-2f84-46c7-a059-9539de548098"},"vehicle_type_id":"4","last_reported":1766225466,"current_range_meters":4000,"station_id":"ce4bgjp2rcd13ifvqbh0","pricing_plan_id":"cebpf4jnsgd1na2vs0mg"},{"bike_id":"4a614ce4-d61c-499d-8955-0569e02f377b","system_id":"levelo_inurba_marseille","lat":43.27507,"lon":5.37287,"is_reserved":false,"is_disabled":false,"rental_uris":{"android":"levelo://app?vid=4a614ce4-d61c-499d-8955-0569e02f377b","ios":"levelo://app?vid=4a614ce4-d61c-499d-8955-0569e02f377b"},"vehicle_type_id":"4","last_reported":1766225466,"current_range_meters":4400,"station_id":"","pricing_plan_id":"cebpf4jnsgd1na2vs0mg"},{"bike_id":"6b7496fc-d3dd-4d3b-b8fd-d79a378cb4e0","system_id":"levelo_inurba_marseille","lat":43.29801,"lon":5.40405,"is_reserved":false,"is_disabled":false,"rental_uris":{"android":"levelo://app?vid=6b7496fc-d3dd-4d3b-b8fd-d79a378cb4e0","ios":"levelo://app?vid=6b7496fc-d3dd-4d3b-b8fd-d79a378cb4e0"},"vehicle_type_id":"4","last_reported":1766225466,"current_range_meters":4400,"station_id":"ce4bh112rcd13ifvqd90","pricing_plan_id":"cebpf4jnsgd1na2vs0mg"},{"bike_id":"436e467e-3ef8-4484-b12e-82fd46509f97","system_id":"levelo_inurba_marseille","lat":43.232987,"lon":5.444002,"is_reserved":false,"is_disabled":false,"rental_uris":{"android":"levelo://app?vid=436e467e-3ef8-4484-b12e-82fd46509f97","ios":"levelo://app?vid=436e467e-3ef8-4484-b12e-82fd46509f97"},"vehicle_type_id":"4","last_reported":1766225466,"current_range_meters":4800,"station_id":"","pricing_plan_id":"cebpf4jnsgd1na2vs0mg"},{"bike_id":"9bace714-42cd-41e4-9aa6-82a8c1875c2b","system_id":"levelo_inurba_marseille","lat":43.29578,"lon":5.36746,"is_reserved":false,"is_disabled":false,"rental_uris":{"android":"levelo://app?vid=9bace714-42cd-41e4-9aa6-82a8c1875c2b","ios":"levelo://app?vid=9bace714-42cd-41e4-9aa6-82a8c1875c2b"},"vehicle_type_id":"4","last_reported":1766225466,"current_range_meters":4800,"station_id":"ce4bgph2rcd13ifvqc2g","pricing_plan_id":"cebpf4jnsgd1na2vs0mg"},{"bike_id":"89756c06-0681-4f7b-a419-2fe2621485f7","system_id":"levelo_inurba_marseille","lat":43.27637,"lon":5.39927,"is_reserved":false,"is_disabled":false,"rental_uris":{"android":"levelo://app?vid=89756c06-0681-4f7b-a419-2fe2621485f7","ios":"levelo://app?vid=89756c06-0681-4f7b-a419-2fe2621485f7"},"vehicle_type_id":"4","last_reported":1766225466,"current_range_meters":4800,"station_id":"","pricing_plan_id":"cebpf4jnsgd1na2vs0mg"},{"bike_id":"5c82aa5d-e9af-478b-9ffa-e9de9eb19a05","system_id":"levelo_inurba_marseille","lat":43.2481,"lon":5.37456,"is_reserved":false,"is_disabled":true,"rental_uris":{"android":"levelo://app?vid=5c82aa5d-e9af-478b-9ffa-e9de9eb19a05","ios":"levelo://app?vid=5c82aa5d-e9af-478b-9ffa-e9de9eb19a05"},"vehicle_type_id":"4","last_reported":1766225466,"current_range_meters":4800,"station_id":"ce4bhgh2rcd13ifvqfb0","pricing_plan_id":"cebpf4jnsgd1na2vs0mg"},{"bike_id":"2d860b81-0081-47f0-80fb-7e4c62824916","system_id":"levelo_inurba_marseille","lat":43.301209,"lon":5.431124,"is_reserved":false,"is_disabled":false,"rental_uris":{"android":"levelo://app?vid=2d860b81-0081-47f0-80fb-7e4c62824916","ios":"levelo://app?vid=2d860b81-0081-47f0-80fb-7e4c62824916"},"vehicle_type_id":"4","last_reported":1766225466,"current_range_meters":5600,"station_id":"st_d3js3co5814s73ftftug","pricing_plan_id":"cebpf4jnsgd1na2vs0mg"},{"bike_id":"6ae5c5d7-9508-4aff-bf6b-f54c64146479","system_id":"levelo_inurba_marseille","lat":43.298418,"lon":5.405605,"is_reserved":false,"is_disabled":false,"rental_uris":{"android":"levelo://app?vid=6ae5c5d7-9508-4aff-bf6b-f54c64146479","ios":"levelo://app?vid=6ae5c5d7-9508-4aff-bf6b-f54c64146479"},"vehicle_type_id":"4","last_reported":1766225466,"current_range_meters":5600,"station_id":"","pricing_plan_id":"cebpf4jnsgd1na2vs0mg"},{"bike_id":"c5365846-c619-4f12-8c92-97c9f9725a15","system_id":"levelo_inurba_marseille","lat":43.295179,"lon":5.379305,"is_reserved":false,"is_disabled":false,"rental_uris":{"android":"levelo://app?vid=c5365846-c619-4f12-8c92-97c9f9725a15","ios":"levelo://app?vid=c5365846-c619-4f12-8c92-97c9f9725a15"},"vehicle_type_id":"4","last_reported":1766225466,"current_range_meters":5600,"station_id":"","pricing_plan_id":"cebpf4jnsgd1na2vs0mg"},{"bike_id":"2e7dc1ab-5624-44a1-98cc-138e4f1d28a0","system_id":"levelo_inurba_marseille","lat":43.265573,"lon":5.40325,"is_reserved":false,"is_disabled":false,"rental_uris":{"android":"levelo://app?vid=2e7dc1ab-5624-44a1-98cc-138e4f1d28a0","ios":"levelo://app?vid=2e7dc1ab-5624-44a1-98cc-138e4f1d28a0"},"vehicle_type_id":"4","last_reported":1766225466,"current_range_meters":6000,"station_id":"ce4bhmp2rcd13ifvqgng","pricing_plan_id":"cebpf4jnsgd1na2vs0mg"},{"bike_id":"f3a4c2fd-c27a-4ca6-bbe5-3949d2a88808","system_id":"levelo_inurba_marseille","lat":43.285663,"lon":5.42994,"is_reserved":false,"is_disabled":false,"rental_uris":{"android":"levelo://app?vid=f3a4c2fd-c27a-4ca6-bbe5-3949d2a88808","ios":"levelo://app?vid=f3a4c2fd-c27a-4ca6-bbe5-3949d2a88808"},"vehicle_type_id":"4","last_reported":1766225466,"current_range_meters":6000,"station_id":"","pricing_plan_id":"cebpf4jnsgd1na2vs0mg"},{"bike_id":"17a49efb-d179-4b85-b20c-4afe87c0613f","system_id":"levelo_inurba_marseille","lat":43.3106,"lon":5.37182,"is_reserved":false,"is_disabled":true,"rental_uris":{"android":"levelo://app?vid=17a49efb-d179-4b85-b20c-4afe87c0613f","ios":"levelo://app?vid=17a49efb-d179-4b85-b20c-4afe87c0613f"},"vehicle_type_id":"4","last_reported":1766225466,"current_range_meters":6000,"station_id":"st_d4kl2rp97mjs73e7tdfg","pricing_plan_id":"cebpf4jnsgd1na2vs0mg"},{"bike_id":"9c9ba0f1-d906-4d43-a01d-b5ab5d0412ea","system_id":"levelo_inurba_marseille","lat":43.284852,"lon":5.385533,"is_reserved":false,"is_disabled":false,"rental_uris":{"android":"levelo://app?vid=9c9ba0f1-d906-4d43-a01d-b5ab5d0412ea","ios":"levelo://app?vid=9c9ba0f1-d906-4d43-a01d-b5ab5d0412ea"},"vehicle_type_id":"4","last_reported":1766225466,"current_range_meters":6400,"station_id":"ce4bh8p2rcd13ifvqeb0","pricing_plan_id":"cebpf4jnsgd1na2vs0mg"},{"bike_id":"a3b88a57-9d06-4c52-97e4-1f5c2e42f298","system_id":"levelo_inurba_marseille","lat":43.29626,"lon":5.40605,"is_reserved":false,"is_disabled":false,"rental_uris":{"android":"levelo://app?vid=a3b88a57-9d06-4c52-97e4-1f5c2e42f298","ios":"levelo://app?vid=a3b88a57-9d06-4c52-97e4-1f5c2e42f298"},"vehicle_type_id":"4","last_reported":1766225466,"current_range_meters":6400,"station_id":"ce4bh0h2rcd13ifvqd60","pricing_plan_id":"cebpf4jnsgd1na2vs0mg"},{"bike_id":"1f8bf9e3-c9bd-4c05-9201-34f9580d25af","system_id":"levelo_inurba_marseille","lat":43.21194,"lon":5.35093,"is_reserved":false,"is_disabled":false,"rental_uris":{"android":"levelo://app?vid=1f8bf9e3-c9bd-4c05-9201-34f9580d25af","ios":"levelo://app?vid=1f8bf9e3-c9bd-4c05-9201-34f9580d25af"},"vehicle_type_id":"4","last_reported":1766225466,"current_range_meters":6400,"station_id":"st_cvj6sg6p6f1abm77japg","pricing_plan_id":"cebpf4jnsgd1na2vs0mg"},{"bike_id":"c989796d-dcc1-4fc7-b147-6dbca1d74de3","system_id":"levelo_inurba_marseille","lat":43.281504,"lon":5.38331,"is_reserved":false,"is_disabled":false,"rental_uris":{"android":"levelo://app?vid=c989796d-dcc1-4fc7-b147-6dbca1d74de3","ios":"levelo://app?vid=c989796d-dcc1-4fc7-b147-6dbca1d74de3"},"vehicle_type_id":"4","last_reported":1766225466,"current_range_meters":6400,"station_id":"","pricing_plan_id":"cebpf4jnsgd1na2vs0mg"},{"bike_id":"13d8fc38-2f21-4c6a-bb58-ec1fb993beb3","system_id":"levelo_inurba_marseille","lat":43.337444,"lon":5.374475,"is_reserved":false,"is_disabled":false,"rental_uris":{"android":"levelo://app?vid=13d8fc38-2f21-4c6a-bb58-ec1fb993beb3","ios":"levelo://app?vid=13d8fc38-2f21-4c6a-bb58-ec1fb993beb3"},"vehicle_type_id":"4","last_reported":1766225466,"current_range_meters":6400,"station_id":"","pricing_plan_id":"cebpf4jnsgd1na2vs0mg"},{"bike_id":"374a0371-4968-4fe9-88a9-ac5ffa94b236","system_id":"levelo_inurba_marseille","lat":43.314592,"lon":5.453823,"is_reserved":false,"is_disabled":false,"rental_uris":{"android":"levelo://app?vid=374a0371-4968-4fe9-88a9-ac5ffa94b236","ios":"levelo://app?vid=374a0371-4968-4fe9-88a9-ac5ffa94b236"},"vehicle_type_id":"4","last_reported":1766225466,"current_range_meters":6400,"station_id":"","pricing_plan_id":"cebpf4jnsgd1na2vs0mg"},{"bike_id":"1d20ee3d-5c43-43a2-bd2d-9cbba5bed977","system_id":"levelo_inurba_marseille","lat":43.32668,"lon":5.40991,"is_reserved":false,"is_disabled":false,"rental_uris":{"android":"levelo://app?vid=1d20ee3d-5c43-43a2-bd2d-9cbba5bed977","ios":"levelo://app?vid=1d20ee3d-5c43-43a2-bd2d-9cbba5bed977"},"vehicle_type_id":"4","last_reported":1766225466,"current_range_meters":6800,"station_id":"ce4bhpp2rcd13ifvqhgg","pricing_plan_id":"cebpf4jnsgd1na2vs0mg"},{"bike_id":"cde75731-be94-4954-af76-b79651b240b9","system_id":"levelo_inurba_marseille","lat":43.29938,"lon":5.39385,"is_reserved":false,"is_disabled":false,"rental_uris":{"android":"levelo://app?vid=cde75731-be94-4954-af76-b79651b240b9","ios":"levelo://app?vid=cde75731-be94-4954-af76-b79651b240b9"},"vehicle_type_id":"4","last_reported":1766225466,"current_range_meters":6800,"station_id":"","pricing_plan_id":"cebpf4jnsgd1na2vs0mg"},{"bike_id":"42f3d177-2c64-42aa-9df9-a8c5fb0c9f28","system_id":"levelo_inurba_marseille","lat":43.25001,"lon":5.38926,"is_reserved":false,"is_disabled":false,"rental_uris":{"android":"levelo://app?vid=42f3d177-2c64-42aa-9df9-a8c5fb0c9f28","ios":"levelo://app?vid=42f3d177-2c64-42aa-9df9-a8c5fb0c9f28"},"vehicle_type_id":"4","last_reported":1766225466,"current_range_meters":6800,"station_id":"ce4bhgp2rcd13ifvqfd0","pricing_plan_id":"cebpf4jnsgd1na2vs0mg"},{"bike_id":"42f91fd2-a74d-47c0-ac9b-88a8b6f0d009","system_id":"levelo_inurba_marseille","lat":43.29919,"lon":5.36502,"is_reserved":false,"is_disabled":false,"rental_uris":{"android":"levelo://app?vid=42f91fd2-a74d-47c0-ac9b-88a8b6f0d009","ios":"levelo://app?vid=42f91fd2-a74d-47c0-ac9b-88a8b6f0d009"},"vehicle_type_id":"4","last_reported":1766225466,"current_range_meters":6800,"station_id":"ce4bgm92rcd13ifvqbr0","pricing_plan_id":"cebpf4jnsgd1na2vs0mg"},{"bike_id":"2a7ace86-79e3-414e-bec6-2f2ac2a70a88","system_id":"levelo_inurba_marseille","lat":43.25646,"lon":5.38644,"is_reserved":false,"is_disabled":false,"rental_uris":{"android":"levelo://app?vid=2a7ace86-79e3-414e-bec6-2f2ac2a70a88","ios":"levelo://app?vid=2a7ace86-79e3-414e-bec6-2f2ac2a70a88"},"vehicle_type_id":"4","last_reported":1766225466,"current_range_meters":6800,"station_id":"","pricing_plan_id":"cebpf4jnsgd1na2vs0mg"},{"bike_id":"347b7fa4-b059-47c1-b1d3-116565cb90d4","system_id":"levelo_inurba_marseille","lat":43.2721,"lon":5.39177,"is_reserved":false,"is_disabled":false,"rental_uris":{"android":"levelo://app?vid=347b7fa4-b059-47c1-b1d3-116565cb90d4","ios":"levelo://app?vid=347b7fa4-b059-47c1-b1d3-116565cb90d4"},"vehicle_type_id":"4","last_reported":1766225466,"current_range_meters":6800,"station_id":"ce4bhhp2rcd13ifvqfm0","pricing_plan_id":"cebpf4jnsgd1na2vs0mg"},{"bike_id":"48e30a46-3a61-4ed5-93c8-2b0ee8661bac","system_id":"levelo_inurba_marseille","lat":43.29817,"lon":5.37788,"is_reserved":false,"is_disabled":false,"rental_uris":{"android":"levelo://app?vid=48e30a46-3a61-4ed5-93c8-2b0ee8661bac","ios":"levelo://app?vid=48e30a46-3a61-4ed5-93c8-2b0ee8661bac"},"vehicle_type_id":"4","last_reported":1766225466,"current_range_meters":6800,"station_id":"","pricing_plan_id":"cebpf4jnsgd1na2vs0mg"},{"bike_id":"b0d73770-4332-4e17-9699-6a066a9df6b8","system_id":"levelo_inurba_marseille","lat":43.2773,"lon":5.38867,"is_reserved":false,"is_disabled":true,"rental_uris":{"android":"levelo://app?vid=b0d73770-4332-4e17-9699-6a066a9df6b8","ios":"levelo://app?vid=b0d73770-4332-4e17-9699-6a066a9df6b8"},"vehicle_type_id":"4","last_reported":1766225466,"current_range_meters":7200,"station_id":"","pricing_plan_id":"cebpf4jnsgd1na2vs0mg"},{"bike_id":"2579c30f-7bd4-4d12-b10b-3589260939b4","system_id":"levelo_inurba_marseille","lat":43.30131,"lon":5.39876,"is_reserved":false,"is_disabled":false,"rental_uris":{"android":"levelo://app?vid=2579c30f-7bd4-4d12-b10b-3589260939b4","ios":"levelo://app?vid=2579c30f-7bd4-4d12-b10b-3589260939b4"},"vehicle_type_id":"4","last_reported":1766225466,"current_range_meters":7200,"station_id":"ce4bh0h2rcd13ifvqd40","pricing_plan_id":"cebpf4jnsgd1na2vs0mg"},{"bike_id":"305412fd-41fd-4f48-b0ce-d25b5a7eb63f","system_id":"levelo_inurba_marseille","lat":43.32551,"lon":5.38972,"is_reserved":false,"is_disabled":true,"rental_uris":{"android":"levelo://app?vid=305412fd-41fd-4f48-b0ce-d25b5a7eb63f","ios":"levelo://app?vid=305412fd-41fd-4f48-b0ce-d25b5a7eb63f"},"vehicle_type_id":"4","last_reported":1766225466,"current_range_meters":7200,"station_id":"","pricing_plan_id":"cebpf4jnsgd1na2vs0mg"},{"bike_id":"d796ac3e-d924-4d00-9348-0900ac0099ff","system_id":"levelo_inurba_marseille","lat":43.24491,"lon":5.42568,"is_reserved":false,"is_disabled":false,"rental_uris":{"android":"levelo://app?vid=d796ac3e-d924-4d00-9348-0900ac0099ff","ios":"levelo://app?vid=d796ac3e-d924-4d00-9348-0900ac0099ff"},"vehicle_type_id":"4","last_reported":1766225466,"current_range_meters":7200,"station_id":"st_d4a3vfp97mjs738cd8kg","pricing_plan_id":"cebpf4jnsgd1na2vs0mg"},{"bike_id":"43b73d10-2c68-446f-a5e8-06f042e6a42a","system_id":"levelo_inurba_marseille","lat":43.25349,"lon":5.42198,"is_reserved":false,"is_disabled":false,"rental_uris":{"android":"levelo://app?vid=43b73d10-2c68-446f-a5e8-06f042e6a42a","ios":"levelo://app?vid=43b73d10-2c68-446f-a5e8-06f042e6a42a"},"vehicle_type_id":"4","last_reported":1766225466,"current_range_meters":7200,"station_id":"st_d2m65c5bi1j21697t3ng","pricing_plan_id":"cebpf4jnsgd1na2vs0mg"},{"bike_id":"700442f5-a082-454e-8bc7-ab3bbb77bfce","system_id":"levelo_inurba_marseille","lat":43.26661,"lon":5.37423,"is_reserved":false,"is_disabled":false,"rental_uris":{"android":"levelo://app?vid=700442f5-a082-454e-8bc7-ab3bbb77bfce","ios":"levelo://app?vid=700442f5-a082-454e-8bc7-ab3bbb77bfce"},"vehicle_type_id":"4","last_reported":1766225466,"current_range_meters":7200,"station_id":"","pricing_plan_id":"cebpf4jnsgd1na2vs0mg"},{"bike_id":"7bc8d603-102d-4033-b3a6-87238067bcbb","system_id":"levelo_inurba_marseille","lat":43.281264,"lon":5.378691,"is_reserved":false,"is_disabled":false,"rental_uris":{"android":"levelo://app?vid=7bc8d603-102d-4033-b3a6-87238067bcbb","ios":"levelo://app?vid=7bc8d603-102d-4033-b3a6-87238067bcbb"},"vehicle_type_id":"4","last_reported":1766225466,"current_range_meters":8000,"station_id":"ce4bha12rcd13ifvqee0","pricing_plan_id":"cebpf4jnsgd1na2vs0mg"},{"bike_id":"9bf89e5f-aaa6-4ccd-bcf3-970eda9694d1","system_id":"levelo_inurba_marseille","lat":43.337444,"lon":5.374475,"is_reserved":false,"is_disabled":false,"rental_uris":{"android":"levelo://app?vid=9bf89e5f-aaa6-4ccd-bcf3-970eda9694d1","ios":"levelo://app?vid=9bf89e5f-aaa6-4ccd-bcf3-970eda9694d1"},"vehicle_type_id":"4","last_reported":1766225466,"current_range_meters":8400,"station_id":"ce4bgv92rcd13ifvqcq0","pricing_plan_id":"cebpf4jnsgd1na2vs0mg"},{"bike_id":"1c79eb29-135e-40c1-8651-901759d4aaa6","system_id":"levelo_inurba_marseille","lat":43.28561,"lon":5.35311,"is_reserved":false,"is_disabled":false,"rental_uris":{"android":"levelo://app?vid=1c79eb29-135e-40c1-8651-901759d4aaa6","ios":"levelo://app?vid=1c79eb29-135e-40c1-8651-901759d4aaa6"},"vehicle_type_id":"4","last_reported":1766225466,"current_range_meters":8400,"station_id":"","pricing_plan_id":"cebpf4jnsgd1na2vs0mg"},{"bike_id":"780c0555-473e-4d40-91d8-a5c7306c5117","system_id":"levelo_inurba_marseille","lat":43.284871,"lon":5.384154,"is_reserved":false,"is_disabled":false,"rental_uris":{"android":"levelo://app?vid=780c0555-473e-4d40-91d8-a5c7306c5117","ios":"levelo://app?vid=780c0555-473e-4d40-91d8-a5c7306c5117"},"vehicle_type_id":"4","last_reported":1766225466,"current_range_meters":8400,"station_id":"ce4bh512rcd13ifvqe3g","pricing_plan_id":"cebpf4jnsgd1na2vs0mg"},{"bike_id":"9bd4261f-3c41-4eca-b791-4729436e9b50","system_id":"levelo_inurba_marseille","lat":43.28602,"lon":5.3709,"is_reserved":false,"is_disabled":false,"rental_uris":{"android":"levelo://app?vid=9bd4261f-3c41-4eca-b791-4729436e9b50","ios":"levelo://app?vid=9bd4261f-3c41-4eca-b791-4729436e9b50"},"vehicle_type_id":"4","last_reported":1766225466,"current_range_meters":8400,"station_id":"ce4bht12rcd13ifvqi60","pricing_plan_id":"cebpf4jnsgd1na2vs0mg"},{"bike_id":"81cdd19c-9eb0-4b68-8437-f268e3e9b7c5","system_id":"levelo_inurba_marseille","lat":43.26487,"lon":5.39559,"is_reserved":false,"is_disabled":false,"rental_uris":{"android":"levelo://app?vid=81cdd19c-9eb0-4b68-8437-f268e3e9b7c5","ios":"levelo://app?vid=81cdd19c-9eb0-4b68-8437-f268e3e9b7c5"},"vehicle_type_id":"4","last_reported":1766225466,"current_range_meters":8800,"station_id":"ce4bhi12rcd13ifvqfq0","pricing_plan_id":"cebpf4jnsgd1na2vs0mg"},{"bike_id":"e4cd5307-2aeb-45c6-b17a-888b082a3559","system_id":"levelo_inurba_marseille","lat":43.30252,"lon":5.400788,"is_reserved":false,"is_disabled":false,"rental_uris":{"android":"levelo://app?vid=e4cd5307-2aeb-45c6-b17a-888b082a3559","ios":"levelo://app?vid=e4cd5307-2aeb-45c6-b17a-888b082a3559"},"vehicle_type_id":"4","last_reported":1766225466,"current_range_meters":8800,"station_id":"","pricing_plan_id":"cebpf4jnsgd1na2vs0mg"},{"bike_id":"8670d596-6bf6-4127-a1f1-affbffd3c0e5","system_id":"levelo_inurba_marseille","lat":43.301506,"lon":5.381039,"is_reserved":false,"is_disabled":true,"rental_uris":{"android":"levelo://app?vid=8670d596-6bf6-4127-a1f1-affbffd3c0e5","ios":"levelo://app?vid=8670d596-6bf6-4127-a1f1-affbffd3c0e5"},"vehicle_type_id":"4","last_reported":1766225466,"current_range_meters":8800,"station_id":"","pricing_plan_id":"cebpf4jnsgd1na2vs0mg"},{"bike_id":"fcd75001-1344-42ec-a013-2f4c6240ace8","system_id":"levelo_inurba_marseille","lat":43.298079,"lon":5.38658,"is_reserved":false,"is_disabled":false,"rental_uris":{"android":"levelo://app?vid=fcd75001-1344-42ec-a013-2f4c6240ace8","ios":"levelo://app?vid=fcd75001-1344-42ec-a013-2f4c6240ace8"},"vehicle_type_id":"4","last_reported":1766225466,"current_range_meters":8800,"station_id":"","pricing_plan_id":"cebpf4jnsgd1na2vs0mg"},{"bike_id":"128f68df-e6c8-471d-bf6e-3a9c347712de","system_id":"levelo_inurba_marseille","lat":43.29234,"lon":5.40898,"is_reserved":false,"is_disabled":false,"rental_uris":{"android":"levelo://app?vid=128f68df-e6c8-471d-bf6e-3a9c347712de","ios":"levelo://app?vid=128f68df-e6c8-471d-bf6e-3a9c347712de"},"vehicle_type_id":"4","last_reported":1766225466,"current_range_meters":8800,"station_id":"ce4bh192rcd13ifvqdc0","pricing_plan_id":"cebpf4jnsgd1na2vs0mg"},{"bike_id":"0792b884-26df-417f-8d22-567bf0d2088d","system_id":"levelo_inurba_marseille","lat":43.3038,"lon":5.42513,"is_reserved":false,"is_disabled":false,"rental_uris":{"android":"levelo://app?vid=0792b884-26df-417f-8d22-567bf0d2088d","ios":"levelo://app?vid=0792b884-26df-417f-8d22-567bf0d2088d"},"vehicle_type_id":"4","last_reported":1766225466,"current_range_meters":8800,"station_id":"ce4bhoh2rcd13ifvqh6g","pricing_plan_id":"cebpf4jnsgd1na2vs0mg"},{"bike_id":"ea6a862f-741e-4383-9442-86ee897e4887","system_id":"levelo_inurba_marseille","lat":43.24178,"lon":5.39724,"is_reserved":false,"is_disabled":false,"rental_uris":{"android":"levelo://app?vid=ea6a862f-741e-4383-9442-86ee897e4887","ios":"levelo://app?vid=ea6a862f-741e-4383-9442-86ee897e4887"},"vehicle_type_id":"4","last_reported":1766225466,"current_range_meters":8800,"station_id":"ce4bhn12rcd13ifvqgpg","pricing_plan_id":"cebpf4jnsgd1na2vs0mg"},{"bike_id":"ceb07a65-3040-45ad-b66c-311fb8e0f069","system_id":"levelo_inurba_marseille","lat":43.30152,"lon":5.38099,"is_reserved":false,"is_disabled":false,"rental_uris":{"android":"levelo://app?vid=ceb07a65-3040-45ad-b66c-311fb8e0f069","ios":"levelo://app?vid=ceb07a65-3040-45ad-b66c-311fb8e0f069"},"vehicle_type_id":"4","last_reported":1766225466,"current_range_meters":8800,"station_id":"ce4bgjp2rcd13ifvqbh0","pricing_plan_id":"cebpf4jnsgd1na2vs0mg"},{"bike_id":"1a965e1b-41ad-4142-80e2-8d7c8565603d","system_id":"levelo_inurba_marseille","lat":43.26485,"lon":5.3957,"is_reserved":false,"is_disabled":true,"rental_uris":{"android":"levelo://app?vid=1a965e1b-41ad-4142-80e2-8d7c8565603d","ios":"levelo://app?vid=1a965e1b-41ad-4142-80e2-8d7c8565603d"},"vehicle_type_id":"4","last_reported":1766225466,"current_range_meters":8800,"station_id":"ce4bhi12rcd13ifvqfq0","pricing_plan_id":"cebpf4jnsgd1na2vs0mg"},{"bike_id":"7f889525-944d-4f66-a793-f62cef883342","system_id":"levelo_inurba_marseille","lat":43.2499,"lon":5.38933,"is_reserved":false,"is_disabled":false,"rental_uris":{"android":"levelo://app?vid=7f889525-944d-4f66-a793-f62cef883342","ios":"levelo://app?vid=7f889525-944d-4f66-a793-f62cef883342"},"vehicle_type_id":"4","last_reported":1766225466,"current_range_meters":8800,"station_id":"ce4bhgp2rcd13ifvqfd0","pricing_plan_id":"cebpf4jnsgd1na2vs0mg"},{"bike_id":"83db9612-28b9-4551-9d40-b0773043baf6","system_id":"levelo_inurba_marseille","lat":43.2953,"lon":5.38549,"is_reserved":false,"is_disabled":false,"rental_uris":{"android":"levelo://app?vid=83db9612-28b9-4551-9d40-b0773043baf6","ios":"levelo://app?vid=83db9612-28b9-4551-9d40-b0773043baf6"},"vehicle_type_id":"4","last_reported":1766225466,"current_range_meters":8800,"station_id":"ce4bgih2rcd13ifvqba0","pricing_plan_id":"cebpf4jnsgd1na2vs0mg"},{"bike_id":"6ec9a6be-eed9-4adb-a34f-9a64c85ea37b","system_id":"levelo_inurba_marseille","lat":43.30635,"lon":5.37569,"is_reserved":false,"is_disabled":false,"rental_uris":{"android":"levelo://app?vid=6ec9a6be-eed9-4adb-a34f-9a64c85ea37b","ios":"levelo://app?vid=6ec9a6be-eed9-4adb-a34f-9a64c85ea37b"},"vehicle_type_id":"4","last_reported":1766225466,"current_range_meters":8800,"station_id":"","pricing_plan_id":"cebpf4jnsgd1na2vs0mg"},{"bike_id":"35a097a7-89d1-40d3-9783-9d3d9a5a97f8","system_id":"levelo_inurba_marseille","lat":43.29615,"lon":5.37585,"is_reserved":false,"is_disabled":true,"rental_uris":{"android":"levelo://app?vid=35a097a7-89d1-40d3-9783-9d3d9a5a97f8","ios":"levelo://app?vid=35a097a7-89d1-40d3-9783-9d3d9a5a97f8"},"vehicle_type_id":"4","last_reported":1766225466,"current_range_meters":9200,"station_id":"ce4bgh92rcd13ifvqb50","pricing_plan_id":"cebpf4jnsgd1na2vs0mg"},{"bike_id":"f76f9e4d-d309-41e5-bccd-e5b55b3c97ca","system_id":"levelo_inurba_marseille","lat":43.286141,"lon":5.351044,"is_reserved":false,"is_disabled":false,"rental_uris":{"android":"levelo://app?vid=f76f9e4d-d309-41e5-bccd-e5b55b3c97ca","ios":"levelo://app?vid=f76f9e4d-d309-41e5-bccd-e5b55b3c97ca"},"vehicle_type_id":"4","last_reported":1766225466,"current_range_meters":9200,"station_id":"ce4bhch2rcd13ifvqeug","pricing_plan_id":"cebpf4jnsgd1na2vs0mg"},{"bike_id":"49eaeb99-01db-4a25-87fd-cb6c87f1647c","system_id":"levelo_inurba_marseille","lat":43.301269,"lon":5.431201,"is_reserved":false,"is_disabled":false,"rental_uris":{"android":"levelo://app?vid=49eaeb99-01db-4a25-87fd-cb6c87f1647c","ios":"levelo://app?vid=49eaeb99-01db-4a25-87fd-cb6c87f1647c"},"vehicle_type_id":"4","last_reported":1766225466,"current_range_meters":9200,"station_id":"st_d3js3co5814s73ftftug","pricing_plan_id":"cebpf4jnsgd1na2vs0mg"},{"bike_id":"dcf784f4-8fb6-484a-a880-b53a6c3cae38","system_id":"levelo_inurba_marseille","lat":43.24472,"lon":5.42528,"is_reserved":false,"is_disabled":false,"rental_uris":{"android":"levelo://app?vid=dcf784f4-8fb6-484a-a880-b53a6c3cae38","ios":"levelo://app?vid=dcf784f4-8fb6-484a-a880-b53a6c3cae38"},"vehicle_type_id":"4","last_reported":1766225466,"current_range_meters":9200,"station_id":"st_d4a3vfp97mjs738cd8kg","pricing_plan_id":"cebpf4jnsgd1na2vs0mg"},{"bike_id":"75446ebb-48c4-4780-9b01-a1b7249fcdeb","system_id":"levelo_inurba_marseille","lat":43.25335,"lon":5.42179,"is_reserved":false,"is_disabled":true,"rental_uris":{"android":"levelo://app?vid=75446ebb-48c4-4780-9b01-a1b7249fcdeb","ios":"levelo://app?vid=75446ebb-48c4-4780-9b01-a1b7249fcdeb"},"vehicle_type_id":"4","last_reported":1766225466,"current_range_meters":9200,"station_id":"st_d2m65c5bi1j21697t3ng","pricing_plan_id":"cebpf4jnsgd1na2vs0mg"},{"bike_id":"93936499-13b8-41bf-bc5b-f7c0a6f29254","system_id":"levelo_inurba_marseille","lat":43.292004,"lon":5.358058,"is_reserved":false,"is_disabled":false,"rental_uris":{"android":"levelo://app?vid=93936499-13b8-41bf-bc5b-f7c0a6f29254","ios":"levelo://app?vid=93936499-13b8-41bf-bc5b-f7c0a6f29254"},"vehicle_type_id":"4","last_reported":1766225466,"current_range_meters":9200,"station_id":"ce4bhb12rcd13ifvqel0","pricing_plan_id":"cebpf4jnsgd1na2vs0mg"},{"bike_id":"8ca42c75-83fc-47f3-8798-7bc1fc1f198d","system_id":"levelo_inurba_marseille","lat":43.28863,"lon":5.42539,"is_reserved":false,"is_disabled":false,"rental_uris":{"android":"levelo://app?vid=8ca42c75-83fc-47f3-8798-7bc1fc1f198d","ios":"levelo://app?vid=8ca42c75-83fc-47f3-8798-7bc1fc1f198d"},"vehicle_type_id":"4","last_reported":1766225466,"current_range_meters":9200,"station_id":"st_d3b462108ojc7389ooeg","pricing_plan_id":"cebpf4jnsgd1na2vs0mg"},{"bike_id":"eb5f3bbe-4e6b-468f-84fe-8900d88fe94d","system_id":"levelo_inurba_marseille","lat":43.24577,"lon":5.39324,"is_reserved":false,"is_disabled":false,"rental_uris":{"android":"levelo://app?vid=eb5f3bbe-4e6b-468f-84fe-8900d88fe94d","ios":"levelo://app?vid=eb5f3bbe-4e6b-468f-84fe-8900d88fe94d"},"vehicle_type_id":"4","last_reported":1766225466,"current_range_meters":9200,"station_id":"ce4bhlp2rcd13ifvqgjg","pricing_plan_id":"cebpf4jnsgd1na2vs0mg"},{"bike_id":"ed3886cf-9015-46fc-b612-0b3872f743f3","system_id":"levelo_inurba_marseille","lat":43.29977,"lon":5.37177,"is_reserved":false,"is_disabled":false,"rental_uris":{"android":"levelo://app?vid=ed3886cf-9015-46fc-b612-0b3872f743f3","ios":"levelo://app?vid=ed3886cf-9015-46fc-b612-0b3872f743f3"},"vehicle_type_id":"4","last_reported":1766225466,"current_range_meters":9600,"station_id":"ce4bgr92rcd13ifvqc7g","pricing_plan_id":"cebpf4jnsgd1na2vs0mg"},{"bike_id":"207776d7-b88e-48a6-b74f-2b1aae5e54c7","system_id":"levelo_inurba_marseille","lat":43.268961,"lon":5.387159,"is_reserved":false,"is_disabled":true,"rental_uris":{"android":"levelo://app?vid=207776d7-b88e-48a6-b74f-2b1aae5e54c7","ios":"levelo://app?vid=207776d7-b88e-48a6-b74f-2b1aae5e54c7"},"vehicle_type_id":"4","last_reported":1766225466,"current_range_meters":9600,"station_id":"","pricing_plan_id":"cebpf4jnsgd1na2vs0mg"},{"bike_id":"342f1aab-f383-4095-9af9-476f39ec27e6","system_id":"levelo_inurba_marseille","lat":43.22556,"lon":5.41667,"is_reserved":false,"is_disabled":false,"rental_uris":{"android":"levelo://app?vid=342f1aab-f383-4095-9af9-476f39ec27e6","ios":"levelo://app?vid=342f1aab-f383-4095-9af9-476f39ec27e6"},"vehicle_type_id":"4","last_reported":1766225466,"current_range_meters":9600,"station_id":"st_d2o4gvlbi1j2169b742g","pricing_plan_id":"cebpf4jnsgd1na2vs0mg"},{"bike_id":"657677ff-bd0f-45b9-a985-0cee09b5fde2","system_id":"levelo_inurba_marseille","lat":43.3173,"lon":5.43715,"is_reserved":false,"is_disabled":false,"rental_uris":{"android":"levelo://app?vid=657677ff-bd0f-45b9-a985-0cee09b5fde2","ios":"levelo://app?vid=657677ff-bd0f-45b9-a985-0cee09b5fde2"},"vehicle_type_id":"4","last_reported":1766225466,"current_range_meters":9600,"station_id":"ce4bhp92rcd13ifvqhcg","pricing_plan_id":"cebpf4jnsgd1na2vs0mg"},{"bike_id":"342831ac-e927-49d6-8b43-22fa72e5bef8","system_id":"levelo_inurba_marseille","lat":43.2804,"lon":5.3876,"is_reserved":false,"is_disabled":false,"rental_uris":{"android":"levelo://app?vid=342831ac-e927-49d6-8b43-22fa72e5bef8","ios":"levelo://app?vid=342831ac-e927-49d6-8b43-22fa72e5bef8"},"vehicle_type_id":"4","last_reported":1766225466,"current_range_meters":9600,"station_id":"","pricing_plan_id":"cebpf4jnsgd1na2vs0mg"},{"bike_id":"ddeb044e-67bd-438d-99c6-746858cb4126","system_id":"levelo_inurba_marseille","lat":43.299084,"lon":5.365482,"is_reserved":false,"is_disabled":false,"rental_uris":{"android":"levelo://app?vid=ddeb044e-67bd-438d-99c6-746858cb4126","ios":"levelo://app?vid=ddeb044e-67bd-438d-99c6-746858cb4126"},"vehicle_type_id":"4","last_reported":1766225466,"current_range_meters":9600,"station_id":"ce4bgm92rcd13ifvqbr0","pricing_plan_id":"cebpf4jnsgd1na2vs0mg"},{"bike_id":"85f2625d-107f-4271-a05d-e29e15a60ba9","system_id":"levelo_inurba_marseille","lat":43.30107,"lon":5.43132,"is_reserved":false,"is_disabled":false,"rental_uris":{"android":"levelo://app?vid=85f2625d-107f-4271-a05d-e29e15a60ba9","ios":"levelo://app?vid=85f2625d-107f-4271-a05d-e29e15a60ba9"},"vehicle_type_id":"4","last_reported":1766225466,"current_range_meters":9600,"station_id":"st_d3js3co5814s73ftftug","pricing_plan_id":"cebpf4jnsgd1na2vs0mg"},{"bike_id":"bbe6d64f-2cb1-409d-ba24-ff27de876e43","system_id":"levelo_inurba_marseille","lat":43.28522,"lon":5.44119,"is_reserved":false,"is_disabled":false,"rental_uris":{"android":"levelo://app?vid=bbe6d64f-2cb1-409d-ba24-ff27de876e43","ios":"levelo://app?vid=bbe6d64f-2cb1-409d-ba24-ff27de876e43"},"vehicle_type_id":"4","last_reported":1766225466,"current_range_meters":10000,"station_id":"st_d3j3df2ikq2c7380ej80","pricing_plan_id":"cebpf4jnsgd1na2vs0mg"},{"bike_id":"61400083-f616-4ed1-b9c8-dd52c9c8a6c7","system_id":"levelo_inurba_marseille","lat":43.24174,"lon":5.39747,"is_reserved":false,"is_disabled":false,"rental_uris":{"android":"levelo://app?vid=61400083-f616-4ed1-b9c8-dd52c9c8a6c7","ios":"levelo://app?vid=61400083-f616-4ed1-b9c8-dd52c9c8a6c7"},"vehicle_type_id":"4","last_reported":1766225466,"current_range_meters":10000,"station_id":"ce4bhn12rcd13ifvqgpg","pricing_plan_id":"cebpf4jnsgd1na2vs0mg"},{"bike_id":"bcb638ec-1f7a-45bb-913f-62a7a0a453a1","system_id":"levelo_inurba_marseille","lat":43.29835,"lon":5.38574,"is_reserved":false,"is_disabled":false,"rental_uris":{"android":"levelo://app?vid=bcb638ec-1f7a-45bb-913f-62a7a0a453a1","ios":"levelo://app?vid=bcb638ec-1f7a-45bb-913f-62a7a0a453a1"},"vehicle_type_id":"4","last_reported":1766225466,"current_range_meters":10000,"station_id":"","pricing_plan_id":"cebpf4jnsgd1na2vs0mg"},{"bike_id":"bb67b255-5e37-444f-b7a3-316dd67e2430","system_id":"levelo_inurba_marseille","lat":43.29177,"lon":5.35789,"is_reserved":false,"is_disabled":false,"rental_uris":{"android":"levelo://app?vid=bb67b255-5e37-444f-b7a3-316dd67e2430","ios":"levelo://app?vid=bb67b255-5e37-444f-b7a3-316dd67e2430"},"vehicle_type_id":"4","last_reported":1766225466,"current_range_meters":10000,"station_id":"ce4bgh92rcd13ifvqb40","pricing_plan_id":"cebpf4jnsgd1na2vs0mg"},{"bike_id":"8ddf5f0b-8638-4227-b0ee-efe27c023df6","system_id":"levelo_inurba_marseille","lat":43.308014,"lon":5.381433,"is_reserved":false,"is_disabled":true,"rental_uris":{"android":"levelo://app?vid=8ddf5f0b-8638-4227-b0ee-efe27c023df6","ios":"levelo://app?vid=8ddf5f0b-8638-4227-b0ee-efe27c023df6"},"vehicle_type_id":"4","last_reported":1766225466,"current_range_meters":10000,"station_id":"ce4bgjp2rcd13ifvqbh0","pricing_plan_id":"cebpf4jnsgd1na2vs0mg"},{"bike_id":"3d8062de-4bd0-49c7-86a6-7bf3b5df4845","system_id":"levelo_inurba_marseille","lat":43.28481,"lon":5.483959,"is_reserved":false,"is_disabled":false,"rental_uris":{"android":"levelo://app?vid=3d8062de-4bd0-49c7-86a6-7bf3b5df4845","ios":"levelo://app?vid=3d8062de-4bd0-49c7-86a6-7bf3b5df4845"},"vehicle_type_id":"4","last_reported":1766225466,"current_range_meters":10000,"station_id":"","pricing_plan_id":"cebpf4jnsgd1na2vs0mg"},{"bike_id":"a155df3e-4b60-4af2-bb99-ef9672812592","system_id":"levelo_inurba_marseille","lat":43.31176,"lon":5.38171,"is_reserved":false,"is_disabled":false,"rental_uris":{"android":"levelo://app?vid=a155df3e-4b60-4af2-bb99-ef9672812592","ios":"levelo://app?vid=a155df3e-4b60-4af2-bb99-ef9672812592"},"vehicle_type_id":"4","last_reported":1766225466,"current_range_meters":10000,"station_id":"","pricing_plan_id":"cebpf4jnsgd1na2vs0mg"},{"bike_id":"025bcf3c-9127-4e0c-b7ed-8709d35ce958","system_id":"levelo_inurba_marseille","lat":43.31745,"lon":5.37228,"is_reserved":false,"is_disabled":false,"rental_uris":{"android":"levelo://app?vid=025bcf3c-9127-4e0c-b7ed-8709d35ce958","ios":"levelo://app?vid=025bcf3c-9127-4e0c-b7ed-8709d35ce958"},"vehicle_type_id":"4","last_reported":1766225466,"current_range_meters":10800,"station_id":"","pricing_plan_id":"cebpf4jnsgd1na2vs0mg"},{"bike_id":"f1c6ef30-df40-4531-b632-19b3b8de3f93","system_id":"levelo_inurba_marseille","lat":43.337444,"lon":5.374475,"is_reserved":false,"is_disabled":false,"rental_uris":{"android":"levelo://app?vid=f1c6ef30-df40-4531-b632-19b3b8de3f93","ios":"levelo://app?vid=f1c6ef30-df40-4531-b632-19b3b8de3f93"},"vehicle_type_id":"4","last_reported":1766225466,"current_range_meters":10800,"station_id":"","pricing_plan_id":"cebpf4jnsgd1na2vs0mg"},{"bike_id":"d33916c2-2fb8-423c-8d5a-6320b507fa38","system_id":"levelo_inurba_marseille","lat":43.2957,"lon":5.37527,"is_reserved":false,"is_disabled":false,"rental_uris":{"android":"levelo://app?vid=d33916c2-2fb8-423c-8d5a-6320b507fa38","ios":"levelo://app?vid=d33916c2-2fb8-423c-8d5a-6320b507fa38"},"vehicle_type_id":"4","last_reported":1766225466,"current_range_meters":10800,"station_id":"ce4bgh92rcd13ifvqb50","pricing_plan_id":"cebpf4jnsgd1na2vs0mg"},{"bike_id":"b9cb3bf3-00fb-441a-ba6d-542e2e974911","system_id":"levelo_inurba_marseille","lat":43.2895,"lon":5.39637,"is_reserved":false,"is_disabled":false,"rental_uris":{"android":"levelo://app?vid=b9cb3bf3-00fb-441a-ba6d-542e2e974911","ios":"levelo://app?vid=b9cb3bf3-00fb-441a-ba6d-542e2e974911"},"vehicle_type_id":"4","last_reported":1766225466,"current_range_meters":10800,"station_id":"ce4bh3h2rcd13ifvqdn0","pricing_plan_id":"cebpf4jnsgd1na2vs0mg"},{"bike_id":"e4c1e4b8-20c3-403d-b299-c80acc21f5f9","system_id":"levelo_inurba_marseille","lat":43.29445,"lon":5.397473,"is_reserved":false,"is_disabled":false,"rental_uris":{"android":"levelo://app?vid=e4c1e4b8-20c3-403d-b299-c80acc21f5f9","ios":"levelo://app?vid=e4c1e4b8-20c3-403d-b299-c80acc21f5f9"},"vehicle_type_id":"4","last_reported":1766225466,"current_range_meters":10800,"station_id":"ce4bh3h2rcd13ifvqdo0","pricing_plan_id":"cebpf4jnsgd1na2vs0mg"},{"bike_id":"e42ac7ed-f66a-44b4-b394-3418e57e1ec0","system_id":"levelo_inurba_marseille","lat":43.21183,"lon":5.35077,"is_reserved":false,"is_disabled":true,"rental_uris":{"android":"levelo://app?vid=e42ac7ed-f66a-44b4-b394-3418e57e1ec0","ios":"levelo://app?vid=e42ac7ed-f66a-44b4-b394-3418e57e1ec0"},"vehicle_type_id":"4","last_reported":1766225466,"current_range_meters":10800,"station_id":"st_cvj6sg6p6f1abm77japg","pricing_plan_id":"cebpf4jnsgd1na2vs0mg"},{"bike_id":"960000b9-5f6a-4874-8ba2-61bf0329fc25","system_id":"levelo_inurba_marseille","lat":43.30648,"lon":5.41008,"is_reserved":false,"is_disabled":false,"rental_uris":{"android":"levelo://app?vid=960000b9-5f6a-4874-8ba2-61bf0329fc25","ios":"levelo://app?vid=960000b9-5f6a-4874-8ba2-61bf0329fc25"},"vehicle_type_id":"4","last_reported":1766225466,"current_range_meters":10800,"station_id":"","pricing_plan_id":"cebpf4jnsgd1na2vs0mg"},{"bike_id":"dd02578a-3ce3-4a5b-a150-72db34f2d7af","system_id":"levelo_inurba_marseille","lat":43.28149,"lon":5.42653,"is_reserved":false,"is_disabled":false,"rental_uris":{"android":"levelo://app?vid=dd02578a-3ce3-4a5b-a150-72db34f2d7af","ios":"levelo://app?vid=dd02578a-3ce3-4a5b-a150-72db34f2d7af"},"vehicle_type_id":"4","last_reported":1766225466,"current_range_meters":10800,"station_id":"ce4bhnh2rcd13ifvqgug","pricing_plan_id":"cebpf4jnsgd1na2vs0mg"},{"bike_id":"ce10c583-0246-4e24-b4dd-e47fefb4b982","system_id":"levelo_inurba_marseille","lat":43.301907,"lon":5.366257,"is_reserved":false,"is_disabled":false,"rental_uris":{"android":"levelo://app?vid=ce10c583-0246-4e24-b4dd-e47fefb4b982","ios":"levelo://app?vid=ce10c583-0246-4e24-b4dd-e47fefb4b982"},"vehicle_type_id":"4","last_reported":1766225466,"current_range_meters":10800,"station_id":"ce4bgrh2rcd13ifvqc8g","pricing_plan_id":"cebpf4jnsgd1na2vs0mg"},{"bike_id":"ff400a14-182c-4479-9723-f211d61c81db","system_id":"levelo_inurba_marseille","lat":43.31981,"lon":5.40397,"is_reserved":false,"is_disabled":false,"rental_uris":{"android":"levelo://app?vid=ff400a14-182c-4479-9723-f211d61c81db","ios":"levelo://app?vid=ff400a14-182c-4479-9723-f211d61c81db"},"vehicle_type_id":"4","last_reported":1766225466,"current_range_meters":10800,"station_id":"","pricing_plan_id":"cebpf4jnsgd1na2vs0mg"},{"bike_id":"177fd090-0076-4f92-9832-62b1c96ea1ea","system_id":"levelo_inurba_marseille","lat":43.253341,"lon":5.421632,"is_reserved":false,"is_disabled":false,"rental_uris":{"android":"levelo://app?vid=177fd090-0076-4f92-9832-62b1c96ea1ea","ios":"levelo://app?vid=177fd090-0076-4f92-9832-62b1c96ea1ea"},"vehicle_type_id":"4","last_reported":1766225466,"current_range_meters":10800,"station_id":"st_d2m65c5bi1j21697t3ng","pricing_plan_id":"cebpf4jnsgd1na2vs0mg"},{"bike_id":"e18d88c4-447f-4613-ac8f-5a6e3bb9a21c","system_id":"levelo_inurba_marseille","lat":43.29817,"lon":5.44072,"is_reserved":false,"is_disabled":false,"rental_uris":{"android":"levelo://app?vid=e18d88c4-447f-4613-ac8f-5a6e3bb9a21c","ios":"levelo://app?vid=e18d88c4-447f-4613-ac8f-5a6e3bb9a21c"},"vehicle_type_id":"4","last_reported":1766225466,"current_range_meters":10800,"station_id":"st_d3jp68qikq2c7381ktn0","pricing_plan_id":"cebpf4jnsgd1na2vs0mg"},{"bike_id":"af1f9193-90aa-4f34-b2c4-fb0bbaea183c","system_id":"levelo_inurba_marseille","lat":43.2847,"lon":5.48408,"is_reserved":false,"is_disabled":false,"rental_uris":{"android":"levelo://app?vid=af1f9193-90aa-4f34-b2c4-fb0bbaea183c","ios":"levelo://app?vid=af1f9193-90aa-4f34-b2c4-fb0bbaea183c"},"vehicle_type_id":"4","last_reported":1766225466,"current_range_meters":10800,"station_id":"","pricing_plan_id":"cebpf4jnsgd1na2vs0mg"},{"bike_id":"eb1341ba-ba7e-4c28-827b-ac87efb87a9d","system_id":"levelo_inurba_marseille","lat":43.23808,"lon":5.36654,"is_reserved":false,"is_disabled":false,"rental_uris":{"android":"levelo://app?vid=eb1341ba-ba7e-4c28-827b-ac87efb87a9d","ios":"levelo://app?vid=eb1341ba-ba7e-4c28-827b-ac87efb87a9d"},"vehicle_type_id":"4","last_reported":1766225466,"current_range_meters":11200,"station_id":"st_d3nk18o9ro0c73en2l3g","pricing_plan_id":"cebpf4jnsgd1na2vs0mg"},{"bike_id":"26710569-0a32-4772-bdf2-90eda4871cac","system_id":"levelo_inurba_marseille","lat":43.29869,"lon":5.38919,"is_reserved":false,"is_disabled":false,"rental_uris":{"android":"levelo://app?vid=26710569-0a32-4772-bdf2-90eda4871cac","ios":"levelo://app?vid=26710569-0a32-4772-bdf2-90eda4871cac"},"vehicle_type_id":"4","last_reported":1766225466,"current_range_meters":11200,"station_id":"ce4bh392rcd13ifvqdl0","pricing_plan_id":"cebpf4jnsgd1na2vs0mg"},{"bike_id":"99ad97c1-5a83-4b1c-9cf1-08492f7d7210","system_id":"levelo_inurba_marseille","lat":43.29249,"lon":5.409,"is_reserved":false,"is_disabled":false,"rental_uris":{"android":"levelo://app?vid=99ad97c1-5a83-4b1c-9cf1-08492f7d7210","ios":"levelo://app?vid=99ad97c1-5a83-4b1c-9cf1-08492f7d7210"},"vehicle_type_id":"4","last_reported":1766225466,"current_range_meters":11200,"station_id":"ce4bh192rcd13ifvqdc0","pricing_plan_id":"cebpf4jnsgd1na2vs0mg"},{"bike_id":"26f6d6a5-5821-4875-a164-33d619759de8","system_id":"levelo_inurba_marseille","lat":43.24163,"lon":5.364,"is_reserved":false,"is_disabled":false,"rental_uris":{"android":"levelo://app?vid=26f6d6a5-5821-4875-a164-33d619759de8","ios":"levelo://app?vid=26f6d6a5-5821-4875-a164-33d619759de8"},"vehicle_type_id":"4","last_reported":1766225466,"current_range_meters":11200,"station_id":"cpo36qri1sfpv3e86is0","pricing_plan_id":"cebpf4jnsgd1na2vs0mg"},{"bike_id":"2085b852-1d74-495b-98a0-b5219ae4a550","system_id":"levelo_inurba_marseille","lat":43.24166,"lon":5.36398,"is_reserved":false,"is_disabled":false,"rental_uris":{"android":"levelo://app?vid=2085b852-1d74-495b-98a0-b5219ae4a550","ios":"levelo://app?vid=2085b852-1d74-495b-98a0-b5219ae4a550"},"vehicle_type_id":"4","last_reported":1766225466,"current_range_meters":11200,"station_id":"cpo36qri1sfpv3e86is0","pricing_plan_id":"cebpf4jnsgd1na2vs0mg"},{"bike_id":"ce634916-e630-4474-8c32-4b2bfe924f7f","system_id":"levelo_inurba_marseille","lat":43.24638,"lon":5.43153,"is_reserved":false,"is_disabled":false,"rental_uris":{"android":"levelo://app?vid=ce634916-e630-4474-8c32-4b2bfe924f7f","ios":"levelo://app?vid=ce634916-e630-4474-8c32-4b2bfe924f7f"},"vehicle_type_id":"4","last_reported":1766225466,"current_range_meters":11200,"station_id":"st_d2m6c4gdas8pm72e190g","pricing_plan_id":"cebpf4jnsgd1na2vs0mg"},{"bike_id":"90f8fe9a-ddea-490c-a93c-f47190bbab49","system_id":"levelo_inurba_marseille","lat":43.313647,"lon":5.367098,"is_reserved":false,"is_disabled":false,"rental_uris":{"android":"levelo://app?vid=90f8fe9a-ddea-490c-a93c-f47190bbab49","ios":"levelo://app?vid=90f8fe9a-ddea-490c-a93c-f47190bbab49"},"vehicle_type_id":"4","last_reported":1766225466,"current_range_meters":11200,"station_id":"ce4bgr92rcd13ifvqc6g","pricing_plan_id":"cebpf4jnsgd1na2vs0mg"},{"bike_id":"e854eef1-e631-49df-8024-94b8790f513f","system_id":"levelo_inurba_marseille","lat":43.30808,"lon":5.38163,"is_reserved":false,"is_disabled":false,"rental_uris":{"android":"levelo://app?vid=e854eef1-e631-49df-8024-94b8790f513f","ios":"levelo://app?vid=e854eef1-e631-49df-8024-94b8790f513f"},"vehicle_type_id":"4","last_reported":1766225466,"current_range_meters":11200,"station_id":"ce4bgt12rcd13ifvqce0","pricing_plan_id":"cebpf4jnsgd1na2vs0mg"},{"bike_id":"0c1f6896-cbd5-4c55-b68a-3cd9b92201dc","system_id":"levelo_inurba_marseille","lat":43.29895,"lon":5.43666,"is_reserved":false,"is_disabled":false,"rental_uris":{"android":"levelo://app?vid=0c1f6896-cbd5-4c55-b68a-3cd9b92201dc","ios":"levelo://app?vid=0c1f6896-cbd5-4c55-b68a-3cd9b92201dc"},"vehicle_type_id":"4","last_reported":1766225466,"current_range_meters":11200,"station_id":"ce4bhpp2rcd13ifvqhfg","pricing_plan_id":"cebpf4jnsgd1na2vs0mg"},{"bike_id":"410aa719-af76-4967-8457-d347b0a2e6bb","system_id":"levelo_inurba_marseille","lat":43.25511,"lon":5.37664,"is_reserved":false,"is_disabled":false,"rental_uris":{"android":"levelo://app?vid=410aa719-af76-4967-8457-d347b0a2e6bb","ios":"levelo://app?vid=410aa719-af76-4967-8457-d347b0a2e6bb"},"vehicle_type_id":"4","last_reported":1766225466,"current_range_meters":11200,"station_id":"ce4bhh12rcd13ifvqff0","pricing_plan_id":"cebpf4jnsgd1na2vs0mg"},{"bike_id":"8580f57b-5aa3-4bcd-953e-6f28ee58972f","system_id":"levelo_inurba_marseille","lat":43.24637,"lon":5.43143,"is_reserved":false,"is_disabled":false,"rental_uris":{"android":"levelo://app?vid=8580f57b-5aa3-4bcd-953e-6f28ee58972f","ios":"levelo://app?vid=8580f57b-5aa3-4bcd-953e-6f28ee58972f"},"vehicle_type_id":"4","last_reported":1766225466,"current_range_meters":11200,"station_id":"st_d2m6c4gdas8pm72e190g","pricing_plan_id":"cebpf4jnsgd1na2vs0mg"},{"bike_id":"7d7cd1a6-c729-482c-ae5b-9123613e01ec","system_id":"levelo_inurba_marseille","lat":43.237894,"lon":5.366395,"is_reserved":false,"is_disabled":false,"rental_uris":{"android":"levelo://app?vid=7d7cd1a6-c729-482c-ae5b-9123613e01ec","ios":"levelo://app?vid=7d7cd1a6-c729-482c-ae5b-9123613e01ec"},"vehicle_type_id":"4","last_reported":1766225466,"current_range_meters":11200,"station_id":"st_d3nk18o9ro0c73en2l3g","pricing_plan_id":"cebpf4jnsgd1na2vs0mg"},{"bike_id":"f3b1e206-d95c-4749-81ff-7ea507ffa6a5","system_id":"levelo_inurba_marseille","lat":43.26554,"lon":5.37305,"is_reserved":false,"is_disabled":false,"rental_uris":{"android":"levelo://app?vid=f3b1e206-d95c-4749-81ff-7ea507ffa6a5","ios":"levelo://app?vid=f3b1e206-d95c-4749-81ff-7ea507ffa6a5"},"vehicle_type_id":"4","last_reported":1766225466,"current_range_meters":11600,"station_id":"ce4bhg12rcd13ifvqf70","pricing_plan_id":"cebpf4jnsgd1na2vs0mg"},{"bike_id":"20ce8cf1-9f9d-448e-ad1e-77f9e595930e","system_id":"levelo_inurba_marseille","lat":43.23784,"lon":5.366317,"is_reserved":false,"is_disabled":false,"rental_uris":{"android":"levelo://app?vid=20ce8cf1-9f9d-448e-ad1e-77f9e595930e","ios":"levelo://app?vid=20ce8cf1-9f9d-448e-ad1e-77f9e595930e"},"vehicle_type_id":"4","last_reported":1766225466,"current_range_meters":11600,"station_id":"st_d3nk18o9ro0c73en2l3g","pricing_plan_id":"cebpf4jnsgd1na2vs0mg"},{"bike_id":"b9fd6a3a-e5d4-452a-99d2-fbb6f9148990","system_id":"levelo_inurba_marseille","lat":43.29279,"lon":5.40138,"is_reserved":false,"is_disabled":true,"rental_uris":{"android":"levelo://app?vid=b9fd6a3a-e5d4-452a-99d2-fbb6f9148990","ios":"levelo://app?vid=b9fd6a3a-e5d4-452a-99d2-fbb6f9148990"},"vehicle_type_id":"4","last_reported":1766225466,"current_range_meters":11600,"station_id":"ce4bh312rcd13ifvqdk0","pricing_plan_id":"cebpf4jnsgd1na2vs0mg"},{"bike_id":"19f83498-9c2c-438c-9319-9c90e9928c89","system_id":"levelo_inurba_marseille","lat":43.30319,"lon":5.37714,"is_reserved":false,"is_disabled":false,"rental_uris":{"android":"levelo://app?vid=19f83498-9c2c-438c-9319-9c90e9928c89","ios":"levelo://app?vid=19f83498-9c2c-438c-9319-9c90e9928c89"},"vehicle_type_id":"4","last_reported":1766225466,"current_range_meters":11600,"station_id":"ce4bguh2rcd13ifvqcj0","pricing_plan_id":"cebpf4jnsgd1na2vs0mg"},{"bike_id":"156e61f2-3d75-4260-9924-a8b3ec92c21b","system_id":"levelo_inurba_marseille","lat":43.22559,"lon":5.41628,"is_reserved":false,"is_disabled":true,"rental_uris":{"android":"levelo://app?vid=156e61f2-3d75-4260-9924-a8b3ec92c21b","ios":"levelo://app?vid=156e61f2-3d75-4260-9924-a8b3ec92c21b"},"vehicle_type_id":"4","last_reported":1766225466,"current_range_meters":11600,"station_id":"st_d2o4gvlbi1j2169b742g","pricing_plan_id":"cebpf4jnsgd1na2vs0mg"},{"bike_id":"81d9b9c0-6984-4243-9b90-5a011f67b45b","system_id":"levelo_inurba_marseille","lat":43.265601,"lon":5.372979,"is_reserved":false,"is_disabled":false,"rental_uris":{"android":"levelo://app?vid=81d9b9c0-6984-4243-9b90-5a011f67b45b","ios":"levelo://app?vid=81d9b9c0-6984-4243-9b90-5a011f67b45b"},"vehicle_type_id":"4","last_reported":1766225466,"current_range_meters":11600,"station_id":"ce4bhg12rcd13ifvqf70","pricing_plan_id":"cebpf4jnsgd1na2vs0mg"},{"bike_id":"20e9dd8e-ed66-4bff-9188-35cbfde59a24","system_id":"levelo_inurba_marseille","lat":43.32323,"lon":5.39369,"is_reserved":false,"is_disabled":true,"rental_uris":{"android":"levelo://app?vid=20e9dd8e-ed66-4bff-9188-35cbfde59a24","ios":"levelo://app?vid=20e9dd8e-ed66-4bff-9188-35cbfde59a24"},"vehicle_type_id":"4","last_reported":1766225466,"current_range_meters":11600,"station_id":"","pricing_plan_id":"cebpf4jnsgd1na2vs0mg"},{"bike_id":"81a85eee-f373-4b05-9cb1-7d055d012ab7","system_id":"levelo_inurba_marseille","lat":43.26787,"lon":5.39414,"is_reserved":false,"is_disabled":false,"rental_uris":{"android":"levelo://app?vid=81a85eee-f373-4b05-9cb1-7d055d012ab7","ios":"levelo://app?vid=81a85eee-f373-4b05-9cb1-7d055d012ab7"},"vehicle_type_id":"4","last_reported":1766225466,"current_range_meters":11600,"station_id":"ce4bhh12rcd13ifvqfg0","pricing_plan_id":"cebpf4jnsgd1na2vs0mg"},{"bike_id":"3a68f052-ef14-4b15-a197-210bb3d4845c","system_id":"levelo_inurba_marseille","lat":43.28558,"lon":5.39497,"is_reserved":false,"is_disabled":false,"rental_uris":{"android":"levelo://app?vid=3a68f052-ef14-4b15-a197-210bb3d4845c","ios":"levelo://app?vid=3a68f052-ef14-4b15-a197-210bb3d4845c"},"vehicle_type_id":"4","last_reported":1766225466,"current_range_meters":12000,"station_id":"ce4bh292rcd13ifvqdg0","pricing_plan_id":"cebpf4jnsgd1na2vs0mg"},{"bike_id":"d93eed39-a491-45bd-a27b-3b19929bf78e","system_id":"levelo_inurba_marseille","lat":43.23788,"lon":5.36636,"is_reserved":false,"is_disabled":false,"rental_uris":{"android":"levelo://app?vid=d93eed39-a491-45bd-a27b-3b19929bf78e","ios":"levelo://app?vid=d93eed39-a491-45bd-a27b-3b19929bf78e"},"vehicle_type_id":"4","last_reported":1766225466,"current_range_meters":12000,"station_id":"st_d3nk18o9ro0c73en2l3g","pricing_plan_id":"cebpf4jnsgd1na2vs0mg"},{"bike_id":"d333f5c5-54f8-4cf5-940a-bb6a2ed8e5fd","system_id":"levelo_inurba_marseille","lat":43.3056,"lon":5.37616,"is_reserved":false,"is_disabled":false,"rental_uris":{"android":"levelo://app?vid=d333f5c5-54f8-4cf5-940a-bb6a2ed8e5fd","ios":"levelo://app?vid=d333f5c5-54f8-4cf5-940a-bb6a2ed8e5fd"},"vehicle_type_id":"4","last_reported":1766225466,"current_range_meters":12000,"station_id":"","pricing_plan_id":"cebpf4jnsgd1na2vs0mg"},{"bike_id":"ba5ddc14-134d-4f97-af1c-22a9ea8f76d0","system_id":"levelo_inurba_marseille","lat":43.27831,"lon":5.39202,"is_reserved":false,"is_disabled":false,"rental_uris":{"android":"levelo://app?vid=ba5ddc14-134d-4f97-af1c-22a9ea8f76d0","ios":"levelo://app?vid=ba5ddc14-134d-4f97-af1c-22a9ea8f76d0"},"vehicle_type_id":"4","last_reported":1766225466,"current_range_meters":12000,"station_id":"ce4bhjp2rcd13ifvqga0","pricing_plan_id":"cebpf4jnsgd1na2vs0mg"},{"bike_id":"7a2810d9-a7a2-4f55-a626-e3338912c6bf","system_id":"levelo_inurba_marseille","lat":43.33759,"lon":5.37493,"is_reserved":false,"is_disabled":false,"rental_uris":{"android":"levelo://app?vid=7a2810d9-a7a2-4f55-a626-e3338912c6bf","ios":"levelo://app?vid=7a2810d9-a7a2-4f55-a626-e3338912c6bf"},"vehicle_type_id":"4","last_reported":1766225466,"current_range_meters":12000,"station_id":"","pricing_plan_id":"cebpf4jnsgd1na2vs0mg"},{"bike_id":"13510b18-4a9b-47d0-a954-6d7cdc2c118c","system_id":"levelo_inurba_marseille","lat":43.284799,"lon":5.483945,"is_reserved":false,"is_disabled":false,"rental_uris":{"android":"levelo://app?vid=13510b18-4a9b-47d0-a954-6d7cdc2c118c","ios":"levelo://app?vid=13510b18-4a9b-47d0-a954-6d7cdc2c118c"},"vehicle_type_id":"4","last_reported":1766225466,"current_range_meters":12000,"station_id":"","pricing_plan_id":"cebpf4jnsgd1na2vs0mg"},{"bike_id":"47e5dfd8-2a23-438e-831d-33a1476d5301","system_id":"levelo_inurba_marseille","lat":43.312753,"lon":5.401803,"is_reserved":false,"is_disabled":false,"rental_uris":{"android":"levelo://app?vid=47e5dfd8-2a23-438e-831d-33a1476d5301","ios":"levelo://app?vid=47e5dfd8-2a23-438e-831d-33a1476d5301"},"vehicle_type_id":"4","last_reported":1766225466,"current_range_meters":12000,"station_id":"","pricing_plan_id":"cebpf4jnsgd1na2vs0mg"},{"bike_id":"cc9768e4-2670-4e18-83b2-4c8cdb76982c","system_id":"levelo_inurba_marseille","lat":43.296253,"lon":5.406025,"is_reserved":false,"is_disabled":false,"rental_uris":{"android":"levelo://app?vid=cc9768e4-2670-4e18-83b2-4c8cdb76982c","ios":"levelo://app?vid=cc9768e4-2670-4e18-83b2-4c8cdb76982c"},"vehicle_type_id":"4","last_reported":1766225466,"current_range_meters":12000,"station_id":"ce4bh0h2rcd13ifvqd60","pricing_plan_id":"cebpf4jnsgd1na2vs0mg"},{"bike_id":"9ed2abc5-3eb4-46ee-9006-c9e3411abb84","system_id":"levelo_inurba_marseille","lat":43.263664,"lon":5.399262,"is_reserved":false,"is_disabled":false,"rental_uris":{"android":"levelo://app?vid=9ed2abc5-3eb4-46ee-9006-c9e3411abb84","ios":"levelo://app?vid=9ed2abc5-3eb4-46ee-9006-c9e3411abb84"},"vehicle_type_id":"4","last_reported":1766225466,"current_range_meters":12000,"station_id":"","pricing_plan_id":"cebpf4jnsgd1na2vs0mg"},{"bike_id":"304ef207-642b-4acc-bb69-2e55c996103c","system_id":"levelo_inurba_marseille","lat":43.28358,"lon":5.3863,"is_reserved":false,"is_disabled":false,"rental_uris":{"android":"levelo://app?vid=304ef207-642b-4acc-bb69-2e55c996103c","ios":"levelo://app?vid=304ef207-642b-4acc-bb69-2e55c996103c"},"vehicle_type_id":"4","last_reported":1766225466,"current_range_meters":12000,"station_id":"ce4bh492rcd13ifvqdvg","pricing_plan_id":"cebpf4jnsgd1na2vs0mg"},{"bike_id":"4f2bc6c6-d63f-4e59-bdbf-91760def261d","system_id":"levelo_inurba_marseille","lat":43.28502,"lon":5.44098,"is_reserved":false,"is_disabled":false,"rental_uris":{"android":"levelo://app?vid=4f2bc6c6-d63f-4e59-bdbf-91760def261d","ios":"levelo://app?vid=4f2bc6c6-d63f-4e59-bdbf-91760def261d"},"vehicle_type_id":"4","last_reported":1766225466,"current_range_meters":12000,"station_id":"st_d3j3df2ikq2c7380ej80","pricing_plan_id":"cebpf4jnsgd1na2vs0mg"},{"bike_id":"55030f46-dbb4-4fd6-84fa-5d30bc31453e","system_id":"levelo_inurba_marseille","lat":43.272047,"lon":5.391811,"is_reserved":false,"is_disabled":false,"rental_uris":{"android":"levelo://app?vid=55030f46-dbb4-4fd6-84fa-5d30bc31453e","ios":"levelo://app?vid=55030f46-dbb4-4fd6-84fa-5d30bc31453e"},"vehicle_type_id":"4","last_reported":1766225466,"current_range_meters":12000,"station_id":"ce4bhhp2rcd13ifvqfm0","pricing_plan_id":"cebpf4jnsgd1na2vs0mg"},{"bike_id":"2f835dbf-c2e7-4b49-944f-97b984a1828a","system_id":"levelo_inurba_marseille","lat":43.26793,"lon":5.39425,"is_reserved":false,"is_disabled":false,"rental_uris":{"android":"levelo://app?vid=2f835dbf-c2e7-4b49-944f-97b984a1828a","ios":"levelo://app?vid=2f835dbf-c2e7-4b49-944f-97b984a1828a"},"vehicle_type_id":"4","last_reported":1766225466,"current_range_meters":12000,"station_id":"ce4bhh12rcd13ifvqfg0","pricing_plan_id":"cebpf4jnsgd1na2vs0mg"},{"bike_id":"9dcaa91a-9418-424d-b1f6-153df9647225","system_id":"levelo_inurba_marseille","lat":43.25584,"lon":5.3825,"is_reserved":false,"is_disabled":false,"rental_uris":{"android":"levelo://app?vid=9dcaa91a-9418-424d-b1f6-153df9647225","ios":"levelo://app?vid=9dcaa91a-9418-424d-b1f6-153df9647225"},"vehicle_type_id":"4","last_reported":1766225466,"current_range_meters":12000,"station_id":"ce4bhih2rcd13ifvqfs0","pricing_plan_id":"cebpf4jnsgd1na2vs0mg"},{"bike_id":"d6449d99-814b-4c20-beb0-efc14f45bf89","system_id":"levelo_inurba_marseille","lat":43.29795,"lon":5.40418,"is_reserved":false,"is_disabled":false,"rental_uris":{"android":"levelo://app?vid=d6449d99-814b-4c20-beb0-efc14f45bf89","ios":"levelo://app?vid=d6449d99-814b-4c20-beb0-efc14f45bf89"},"vehicle_type_id":"4","last_reported":1766225466,"current_range_meters":12400,"station_id":"ce4bh112rcd13ifvqd90","pricing_plan_id":"cebpf4jnsgd1na2vs0mg"},{"bike_id":"26c78947-38c8-4fe2-9c04-b54c7806b0ba","system_id":"levelo_inurba_marseille","lat":43.273807,"lon":5.36258,"is_reserved":false,"is_disabled":true,"rental_uris":{"android":"levelo://app?vid=26c78947-38c8-4fe2-9c04-b54c7806b0ba","ios":"levelo://app?vid=26c78947-38c8-4fe2-9c04-b54c7806b0ba"},"vehicle_type_id":"4","last_reported":1766225466,"current_range_meters":12400,"station_id":"ce4bhbh2rcd13ifvqeo0","pricing_plan_id":"cebpf4jnsgd1na2vs0mg"},{"bike_id":"a8544672-03a2-4160-9031-e61c4107dd19","system_id":"levelo_inurba_marseille","lat":43.29761,"lon":5.42784,"is_reserved":false,"is_disabled":false,"rental_uris":{"android":"levelo://app?vid=a8544672-03a2-4160-9031-e61c4107dd19","ios":"levelo://app?vid=a8544672-03a2-4160-9031-e61c4107dd19"},"vehicle_type_id":"4","last_reported":1766225466,"current_range_meters":12400,"station_id":"st_d3md5207bmas73dh9klg","pricing_plan_id":"cebpf4jnsgd1na2vs0mg"},{"bike_id":"c84b8e47-5802-4c21-b1cc-1df47c4f26c2","system_id":"levelo_inurba_marseille","lat":43.28488,"lon":5.48392,"is_reserved":false,"is_disabled":false,"rental_uris":{"android":"levelo://app?vid=c84b8e47-5802-4c21-b1cc-1df47c4f26c2","ios":"levelo://app?vid=c84b8e47-5802-4c21-b1cc-1df47c4f26c2"},"vehicle_type_id":"4","last_reported":1766225466,"current_range_meters":12400,"station_id":"","pricing_plan_id":"cebpf4jnsgd1na2vs0mg"},{"bike_id":"e690c867-6f92-4878-bff7-a3243322d024","system_id":"levelo_inurba_marseille","lat":43.29462,"lon":5.4274,"is_reserved":false,"is_disabled":false,"rental_uris":{"android":"levelo://app?vid=e690c867-6f92-4878-bff7-a3243322d024","ios":"levelo://app?vid=e690c867-6f92-4878-bff7-a3243322d024"},"vehicle_type_id":"4","last_reported":1766225466,"current_range_meters":12400,"station_id":"","pricing_plan_id":"cebpf4jnsgd1na2vs0mg"},{"bike_id":"38037a8b-e273-42d2-a455-4b2107ee1743","system_id":"levelo_inurba_marseille","lat":43.301154,"lon":5.431097,"is_reserved":false,"is_disabled":false,"rental_uris":{"android":"levelo://app?vid=38037a8b-e273-42d2-a455-4b2107ee1743","ios":"levelo://app?vid=38037a8b-e273-42d2-a455-4b2107ee1743"},"vehicle_type_id":"4","last_reported":1766225466,"current_range_meters":12400,"station_id":"st_d3js3co5814s73ftftug","pricing_plan_id":"cebpf4jnsgd1na2vs0mg"},{"bike_id":"28d36d66-e4d6-4e13-a6c5-33e9d81e47d2","system_id":"levelo_inurba_marseille","lat":43.29618,"lon":5.37722,"is_reserved":false,"is_disabled":false,"rental_uris":{"android":"levelo://app?vid=28d36d66-e4d6-4e13-a6c5-33e9d81e47d2","ios":"levelo://app?vid=28d36d66-e4d6-4e13-a6c5-33e9d81e47d2"},"vehicle_type_id":"4","last_reported":1766225466,"current_range_meters":12800,"station_id":"ce4bgi92rcd13ifvqb90","pricing_plan_id":"cebpf4jnsgd1na2vs0mg"},{"bike_id":"90dac6f2-4e58-4623-b929-4f8d06ec1c31","system_id":"levelo_inurba_marseille","lat":43.28509,"lon":5.42557,"is_reserved":false,"is_disabled":false,"rental_uris":{"android":"levelo://app?vid=90dac6f2-4e58-4623-b929-4f8d06ec1c31","ios":"levelo://app?vid=90dac6f2-4e58-4623-b929-4f8d06ec1c31"},"vehicle_type_id":"4","last_reported":1766225466,"current_range_meters":12800,"station_id":"","pricing_plan_id":"cebpf4jnsgd1na2vs0mg"},{"bike_id":"40d73e8d-0c27-4119-afd6-7fe731b3c8a2","system_id":"levelo_inurba_marseille","lat":43.23189,"lon":5.35547,"is_reserved":false,"is_disabled":false,"rental_uris":{"android":"levelo://app?vid=40d73e8d-0c27-4119-afd6-7fe731b3c8a2","ios":"levelo://app?vid=40d73e8d-0c27-4119-afd6-7fe731b3c8a2"},"vehicle_type_id":"4","last_reported":1766225466,"current_range_meters":12800,"station_id":"ce4bhu92rcd13ifvqi70","pricing_plan_id":"cebpf4jnsgd1na2vs0mg"},{"bike_id":"8eb30b91-3cf1-4507-b361-be5214bebabb","system_id":"levelo_inurba_marseille","lat":43.2959,"lon":5.3751,"is_reserved":false,"is_disabled":false,"rental_uris":{"android":"levelo://app?vid=8eb30b91-3cf1-4507-b361-be5214bebabb","ios":"levelo://app?vid=8eb30b91-3cf1-4507-b361-be5214bebabb"},"vehicle_type_id":"4","last_reported":1766225466,"current_range_meters":12800,"station_id":"ce4bgh92rcd13ifvqb50","pricing_plan_id":"cebpf4jnsgd1na2vs0mg"},{"bike_id":"5cdf0c26-71fe-4230-ab4f-b50d47db508a","system_id":"levelo_inurba_marseille","lat":43.30133,"lon":5.39774,"is_reserved":false,"is_disabled":false,"rental_uris":{"android":"levelo://app?vid=5cdf0c26-71fe-4230-ab4f-b50d47db508a","ios":"levelo://app?vid=5cdf0c26-71fe-4230-ab4f-b50d47db508a"},"vehicle_type_id":"4","last_reported":1766225466,"current_range_meters":12800,"station_id":"","pricing_plan_id":"cebpf4jnsgd1na2vs0mg"},{"bike_id":"f2c2f21a-2643-40c9-a83e-5a52788ba994","system_id":"levelo_inurba_marseille","lat":43.23784,"lon":5.36632,"is_reserved":false,"is_disabled":false,"rental_uris":{"android":"levelo://app?vid=f2c2f21a-2643-40c9-a83e-5a52788ba994","ios":"levelo://app?vid=f2c2f21a-2643-40c9-a83e-5a52788ba994"},"vehicle_type_id":"4","last_reported":1766225466,"current_range_meters":12800,"station_id":"st_d3nk18o9ro0c73en2l3g","pricing_plan_id":"cebpf4jnsgd1na2vs0mg"},{"bike_id":"b99df7a0-ab82-44f9-a6fb-f2c4e3c7415e","system_id":"levelo_inurba_marseille","lat":43.29005,"lon":5.3558,"is_reserved":false,"is_disabled":false,"rental_uris":{"android":"levelo://app?vid=b99df7a0-ab82-44f9-a6fb-f2c4e3c7415e","ios":"levelo://app?vid=b99df7a0-ab82-44f9-a6fb-f2c4e3c7415e"},"vehicle_type_id":"4","last_reported":1766225466,"current_range_meters":12800,"station_id":"ce4bhb92rcd13ifvqen0","pricing_plan_id":"cebpf4jnsgd1na2vs0mg"},{"bike_id":"cdf3202c-fd49-4f86-836a-843cb59136f2","system_id":"levelo_inurba_marseille","lat":43.29604,"lon":5.3773,"is_reserved":false,"is_disabled":false,"rental_uris":{"android":"levelo://app?vid=cdf3202c-fd49-4f86-836a-843cb59136f2","ios":"levelo://app?vid=cdf3202c-fd49-4f86-836a-843cb59136f2"},"vehicle_type_id":"4","last_reported":1766225466,"current_range_meters":12800,"station_id":"ce4bgi92rcd13ifvqb90","pricing_plan_id":"cebpf4jnsgd1na2vs0mg"},{"bike_id":"60104876-cfb4-4c08-831d-06fdc216973b","system_id":"levelo_inurba_marseille","lat":43.29963,"lon":5.38501,"is_reserved":false,"is_disabled":true,"rental_uris":{"android":"levelo://app?vid=60104876-cfb4-4c08-831d-06fdc216973b","ios":"levelo://app?vid=60104876-cfb4-4c08-831d-06fdc216973b"},"vehicle_type_id":"4","last_reported":1766225466,"current_range_meters":12800,"station_id":"ce4bgj92rcd13ifvqbd0","pricing_plan_id":"cebpf4jnsgd1na2vs0mg"},{"bike_id":"98c040ff-ac12-4358-bded-c79cb9358db9","system_id":"levelo_inurba_marseille","lat":43.31721,"lon":5.42397,"is_reserved":false,"is_disabled":false,"rental_uris":{"android":"levelo://app?vid=98c040ff-ac12-4358-bded-c79cb9358db9","ios":"levelo://app?vid=98c040ff-ac12-4358-bded-c79cb9358db9"},"vehicle_type_id":"4","last_reported":1766225466,"current_range_meters":12800,"station_id":"ce4bhp92rcd13ifvqhbg","pricing_plan_id":"cebpf4jnsgd1na2vs0mg"},{"bike_id":"24e7abf2-89bb-4fe0-b381-9c3ddc4276ea","system_id":"levelo_inurba_marseille","lat":43.29102,"lon":5.381261,"is_reserved":false,"is_disabled":false,"rental_uris":{"android":"levelo://app?vid=24e7abf2-89bb-4fe0-b381-9c3ddc4276ea","ios":"levelo://app?vid=24e7abf2-89bb-4fe0-b381-9c3ddc4276ea"},"vehicle_type_id":"4","last_reported":1766225466,"current_range_meters":12800,"station_id":"ce4bh512rcd13ifvqe2g","pricing_plan_id":"cebpf4jnsgd1na2vs0mg"},{"bike_id":"e4ea7d09-2075-4c2e-84c3-9a697f2f820b","system_id":"levelo_inurba_marseille","lat":43.28034,"lon":5.36977,"is_reserved":false,"is_disabled":false,"rental_uris":{"android":"levelo://app?vid=e4ea7d09-2075-4c2e-84c3-9a697f2f820b","ios":"levelo://app?vid=e4ea7d09-2075-4c2e-84c3-9a697f2f820b"},"vehicle_type_id":"4","last_reported":1766225466,"current_range_meters":12800,"station_id":"ce4bha12rcd13ifvqef0","pricing_plan_id":"cebpf4jnsgd1na2vs0mg"},{"bike_id":"c2b20442-15ad-4c80-bc2f-0f38373ef667","system_id":"levelo_inurba_marseille","lat":43.28484,"lon":5.38422,"is_reserved":false,"is_disabled":false,"rental_uris":{"android":"levelo://app?vid=c2b20442-15ad-4c80-bc2f-0f38373ef667","ios":"levelo://app?vid=c2b20442-15ad-4c80-bc2f-0f38373ef667"},"vehicle_type_id":"4","last_reported":1766225466,"current_range_meters":13600,"station_id":"ce4bh512rcd13ifvqe3g","pricing_plan_id":"cebpf4jnsgd1na2vs0mg"},{"bike_id":"0a878f81-014a-4418-8c17-c944e0044104","system_id":"levelo_inurba_marseille","lat":43.28619,"lon":5.35107,"is_reserved":false,"is_disabled":false,"rental_uris":{"android":"levelo://app?vid=0a878f81-014a-4418-8c17-c944e0044104","ios":"levelo://app?vid=0a878f81-014a-4418-8c17-c944e0044104"},"vehicle_type_id":"4","last_reported":1766225466,"current_range_meters":13600,"station_id":"ce4bhch2rcd13ifvqeug","pricing_plan_id":"cebpf4jnsgd1na2vs0mg"},{"bike_id":"6682e79b-6b3d-439e-b71b-bda1cffb85c8","system_id":"levelo_inurba_marseille","lat":43.27205,"lon":5.39183,"is_reserved":false,"is_disabled":false,"rental_uris":{"android":"levelo://app?vid=6682e79b-6b3d-439e-b71b-bda1cffb85c8","ios":"levelo://app?vid=6682e79b-6b3d-439e-b71b-bda1cffb85c8"},"vehicle_type_id":"4","last_reported":1766225466,"current_range_meters":13600,"station_id":"ce4bhhp2rcd13ifvqfm0","pricing_plan_id":"cebpf4jnsgd1na2vs0mg"},{"bike_id":"f247771e-2838-4c74-9387-68cb8feccb4e","system_id":"levelo_inurba_marseille","lat":43.28563,"lon":5.40469,"is_reserved":false,"is_disabled":false,"rental_uris":{"android":"levelo://app?vid=f247771e-2838-4c74-9387-68cb8feccb4e","ios":"levelo://app?vid=f247771e-2838-4c74-9387-68cb8feccb4e"},"vehicle_type_id":"4","last_reported":1766225466,"current_range_meters":13600,"station_id":"","pricing_plan_id":"cebpf4jnsgd1na2vs0mg"},{"bike_id":"1a7829b6-e17e-42fa-9ac7-719de18f4299","system_id":"levelo_inurba_marseille","lat":43.30197,"lon":5.3812,"is_reserved":false,"is_disabled":false,"rental_uris":{"android":"levelo://app?vid=1a7829b6-e17e-42fa-9ac7-719de18f4299","ios":"levelo://app?vid=1a7829b6-e17e-42fa-9ac7-719de18f4299"},"vehicle_type_id":"4","last_reported":1766225466,"current_range_meters":13600,"station_id":"","pricing_plan_id":"cebpf4jnsgd1na2vs0mg"},{"bike_id":"c77925b6-3ecc-478f-bd5f-39a2551d5e66","system_id":"levelo_inurba_marseille","lat":43.29553,"lon":5.42287,"is_reserved":false,"is_disabled":false,"rental_uris":{"android":"levelo://app?vid=c77925b6-3ecc-478f-bd5f-39a2551d5e66","ios":"levelo://app?vid=c77925b6-3ecc-478f-bd5f-39a2551d5e66"},"vehicle_type_id":"4","last_reported":1766225466,"current_range_meters":13600,"station_id":"ce4bhph2rcd13ifvqhdg","pricing_plan_id":"cebpf4jnsgd1na2vs0mg"},{"bike_id":"b0eb95b9-79ce-4691-a99c-e8e830cecad7","system_id":"levelo_inurba_marseille","lat":43.303741,"lon":5.425196,"is_reserved":false,"is_disabled":false,"rental_uris":{"android":"levelo://app?vid=b0eb95b9-79ce-4691-a99c-e8e830cecad7","ios":"levelo://app?vid=b0eb95b9-79ce-4691-a99c-e8e830cecad7"},"vehicle_type_id":"4","last_reported":1766225466,"current_range_meters":13600,"station_id":"","pricing_plan_id":"cebpf4jnsgd1na2vs0mg"},{"bike_id":"1a399a16-62ed-47ae-ba1c-654e7762c033","system_id":"levelo_inurba_marseille","lat":43.300219,"lon":5.380071,"is_reserved":false,"is_disabled":false,"rental_uris":{"android":"levelo://app?vid=1a399a16-62ed-47ae-ba1c-654e7762c033","ios":"levelo://app?vid=1a399a16-62ed-47ae-ba1c-654e7762c033"},"vehicle_type_id":"4","last_reported":1766225466,"current_range_meters":14000,"station_id":"","pricing_plan_id":"cebpf4jnsgd1na2vs0mg"},{"bike_id":"22a40d0a-95d4-4372-b972-453fda8655a6","system_id":"levelo_inurba_marseille","lat":43.308775,"lon":5.396417,"is_reserved":false,"is_disabled":false,"rental_uris":{"android":"levelo://app?vid=22a40d0a-95d4-4372-b972-453fda8655a6","ios":"levelo://app?vid=22a40d0a-95d4-4372-b972-453fda8655a6"},"vehicle_type_id":"4","last_reported":1766225466,"current_range_meters":14000,"station_id":"ce4bh012rcd13ifvqcv0","pricing_plan_id":"cebpf4jnsgd1na2vs0mg"},{"bike_id":"ac69310b-48fc-4542-b776-5797f9034e72","system_id":"levelo_inurba_marseille","lat":43.29816,"lon":5.44071,"is_reserved":false,"is_disabled":false,"rental_uris":{"android":"levelo://app?vid=ac69310b-48fc-4542-b776-5797f9034e72","ios":"levelo://app?vid=ac69310b-48fc-4542-b776-5797f9034e72"},"vehicle_type_id":"4","last_reported":1766225466,"current_range_meters":14000,"station_id":"st_d3jp68qikq2c7381ktn0","pricing_plan_id":"cebpf4jnsgd1na2vs0mg"},{"bike_id":"00a29bb1-88ca-440d-9219-07d673c689ed","system_id":"levelo_inurba_marseille","lat":43.30495,"lon":5.36874,"is_reserved":false,"is_disabled":false,"rental_uris":{"android":"levelo://app?vid=00a29bb1-88ca-440d-9219-07d673c689ed","ios":"levelo://app?vid=00a29bb1-88ca-440d-9219-07d673c689ed"},"vehicle_type_id":"4","last_reported":1766225466,"current_range_meters":14000,"station_id":"","pricing_plan_id":"cebpf4jnsgd1na2vs0mg"},{"bike_id":"628a75f3-7312-4f05-a812-11eaca59fded","system_id":"levelo_inurba_marseille","lat":43.28464,"lon":5.38557,"is_reserved":false,"is_disabled":false,"rental_uris":{"android":"levelo://app?vid=628a75f3-7312-4f05-a812-11eaca59fded","ios":"levelo://app?vid=628a75f3-7312-4f05-a812-11eaca59fded"},"vehicle_type_id":"4","last_reported":1766225466,"current_range_meters":14000,"station_id":"ce4bh8p2rcd13ifvqeb0","pricing_plan_id":"cebpf4jnsgd1na2vs0mg"},{"bike_id":"ad6b341f-35a2-402c-a6cc-33fa78b70380","system_id":"levelo_inurba_marseille","lat":43.25322,"lon":5.42187,"is_reserved":false,"is_disabled":false,"rental_uris":{"android":"levelo://app?vid=ad6b341f-35a2-402c-a6cc-33fa78b70380","ios":"levelo://app?vid=ad6b341f-35a2-402c-a6cc-33fa78b70380"},"vehicle_type_id":"4","last_reported":1766225466,"current_range_meters":14000,"station_id":"st_d2m65c5bi1j21697t3ng","pricing_plan_id":"cebpf4jnsgd1na2vs0mg"},{"bike_id":"7154c4d5-1054-4e7b-8948-ae2db00b882b","system_id":"levelo_inurba_marseille","lat":43.28832,"lon":5.42509,"is_reserved":false,"is_disabled":false,"rental_uris":{"android":"levelo://app?vid=7154c4d5-1054-4e7b-8948-ae2db00b882b","ios":"levelo://app?vid=7154c4d5-1054-4e7b-8948-ae2db00b882b"},"vehicle_type_id":"4","last_reported":1766225466,"current_range_meters":14000,"station_id":"st_d3b462108ojc7389ooeg","pricing_plan_id":"cebpf4jnsgd1na2vs0mg"},{"bike_id":"de4957ca-9c93-409a-ae9b-9b8d86479fcf","system_id":"levelo_inurba_marseille","lat":43.29542,"lon":5.37503,"is_reserved":false,"is_disabled":true,"rental_uris":{"android":"levelo://app?vid=de4957ca-9c93-409a-ae9b-9b8d86479fcf","ios":"levelo://app?vid=de4957ca-9c93-409a-ae9b-9b8d86479fcf"},"vehicle_type_id":"4","last_reported":1766225466,"current_range_meters":14400,"station_id":"ce4bgkp2rcd13ifvqbmg","pricing_plan_id":"cebpf4jnsgd1na2vs0mg"},{"bike_id":"28ad1a9a-391c-435e-96a8-1e7f1aea86aa","system_id":"levelo_inurba_marseille","lat":43.3014,"lon":5.43121,"is_reserved":false,"is_disabled":false,"rental_uris":{"android":"levelo://app?vid=28ad1a9a-391c-435e-96a8-1e7f1aea86aa","ios":"levelo://app?vid=28ad1a9a-391c-435e-96a8-1e7f1aea86aa"},"vehicle_type_id":"4","last_reported":1766225466,"current_range_meters":14400,"station_id":"st_d3js3co5814s73ftftug","pricing_plan_id":"cebpf4jnsgd1na2vs0mg"},{"bike_id":"167ff5eb-f7ec-4a9a-a389-047000be67d8","system_id":"levelo_inurba_marseille","lat":43.28148,"lon":5.426404,"is_reserved":false,"is_disabled":false,"rental_uris":{"android":"levelo://app?vid=167ff5eb-f7ec-4a9a-a389-047000be67d8","ios":"levelo://app?vid=167ff5eb-f7ec-4a9a-a389-047000be67d8"},"vehicle_type_id":"4","last_reported":1766225466,"current_range_meters":14400,"station_id":"ce4bhnh2rcd13ifvqgug","pricing_plan_id":"cebpf4jnsgd1na2vs0mg"},{"bike_id":"f2bb075c-a4ca-4a7d-9548-444cf0978b1e","system_id":"levelo_inurba_marseille","lat":43.303815,"lon":5.369031,"is_reserved":false,"is_disabled":false,"rental_uris":{"android":"levelo://app?vid=f2bb075c-a4ca-4a7d-9548-444cf0978b1e","ios":"levelo://app?vid=f2bb075c-a4ca-4a7d-9548-444cf0978b1e"},"vehicle_type_id":"4","last_reported":1766225466,"current_range_meters":14400,"station_id":"","pricing_plan_id":"cebpf4jnsgd1na2vs0mg"},{"bike_id":"c0fb8cc1-ebe9-4001-a3ec-0d3fc87db3d9","system_id":"levelo_inurba_marseille","lat":43.34336,"lon":5.35522,"is_reserved":false,"is_disabled":false,"rental_uris":{"android":"levelo://app?vid=c0fb8cc1-ebe9-4001-a3ec-0d3fc87db3d9","ios":"levelo://app?vid=c0fb8cc1-ebe9-4001-a3ec-0d3fc87db3d9"},"vehicle_type_id":"4","last_reported":1766225466,"current_range_meters":14400,"station_id":"","pricing_plan_id":"cebpf4jnsgd1na2vs0mg"},{"bike_id":"4dc3984a-98b4-4bb5-bf48-55b828f51361","system_id":"levelo_inurba_marseille","lat":43.2477,"lon":5.37455,"is_reserved":false,"is_disabled":false,"rental_uris":{"android":"levelo://app?vid=4dc3984a-98b4-4bb5-bf48-55b828f51361","ios":"levelo://app?vid=4dc3984a-98b4-4bb5-bf48-55b828f51361"},"vehicle_type_id":"4","last_reported":1766225466,"current_range_meters":14400,"station_id":"ce4bhgh2rcd13ifvqfb0","pricing_plan_id":"cebpf4jnsgd1na2vs0mg"},{"bike_id":"8c1ab11e-9e0c-4d16-a145-c73e6f57ea67","system_id":"levelo_inurba_marseille","lat":43.30129,"lon":5.37422,"is_reserved":false,"is_disabled":false,"rental_uris":{"android":"levelo://app?vid=8c1ab11e-9e0c-4d16-a145-c73e6f57ea67","ios":"levelo://app?vid=8c1ab11e-9e0c-4d16-a145-c73e6f57ea67"},"vehicle_type_id":"4","last_reported":1766225466,"current_range_meters":14400,"station_id":"ce4bgs92rcd13ifvqcc0","pricing_plan_id":"cebpf4jnsgd1na2vs0mg"},{"bike_id":"0e05f7ed-c67a-4250-8192-9046cb1ea63b","system_id":"levelo_inurba_marseille","lat":43.29879,"lon":5.39738,"is_reserved":false,"is_disabled":false,"rental_uris":{"android":"levelo://app?vid=0e05f7ed-c67a-4250-8192-9046cb1ea63b","ios":"levelo://app?vid=0e05f7ed-c67a-4250-8192-9046cb1ea63b"},"vehicle_type_id":"4","last_reported":1766225466,"current_range_meters":14400,"station_id":"ce4bh0h2rcd13ifvqd50","pricing_plan_id":"cebpf4jnsgd1na2vs0mg"},{"bike_id":"d26729f5-210b-4096-acd6-99d477896379","system_id":"levelo_inurba_marseille","lat":43.24998,"lon":5.38946,"is_reserved":false,"is_disabled":false,"rental_uris":{"android":"levelo://app?vid=d26729f5-210b-4096-acd6-99d477896379","ios":"levelo://app?vid=d26729f5-210b-4096-acd6-99d477896379"},"vehicle_type_id":"4","last_reported":1766225466,"current_range_meters":14400,"station_id":"ce4bhgp2rcd13ifvqfd0","pricing_plan_id":"cebpf4jnsgd1na2vs0mg"},{"bike_id":"85f80c36-b01d-4148-8a0f-5ed00798dda8","system_id":"levelo_inurba_marseille","lat":43.30107,"lon":5.36536,"is_reserved":false,"is_disabled":false,"rental_uris":{"android":"levelo://app?vid=85f80c36-b01d-4148-8a0f-5ed00798dda8","ios":"levelo://app?vid=85f80c36-b01d-4148-8a0f-5ed00798dda8"},"vehicle_type_id":"4","last_reported":1766225466,"current_range_meters":14400,"station_id":"","pricing_plan_id":"cebpf4jnsgd1na2vs0mg"},{"bike_id":"f9df09a0-3737-4582-8136-0e0c747a0f9b","system_id":"levelo_inurba_marseille","lat":43.32372,"lon":5.36768,"is_reserved":false,"is_disabled":false,"rental_uris":{"android":"levelo://app?vid=f9df09a0-3737-4582-8136-0e0c747a0f9b","ios":"levelo://app?vid=f9df09a0-3737-4582-8136-0e0c747a0f9b"},"vehicle_type_id":"4","last_reported":1766225466,"current_range_meters":14400,"station_id":"ce4bhsh2rcd13ifvqi2g","pricing_plan_id":"cebpf4jnsgd1na2vs0mg"},{"bike_id":"253a2033-908d-4c58-8c32-7a732e831eec","system_id":"levelo_inurba_marseille","lat":43.254855,"lon":5.376486,"is_reserved":false,"is_disabled":false,"rental_uris":{"android":"levelo://app?vid=253a2033-908d-4c58-8c32-7a732e831eec","ios":"levelo://app?vid=253a2033-908d-4c58-8c32-7a732e831eec"},"vehicle_type_id":"4","last_reported":1766225466,"current_range_meters":14400,"station_id":"ce4bhh12rcd13ifvqff0","pricing_plan_id":"cebpf4jnsgd1na2vs0mg"},{"bike_id":"2964d339-565e-4966-a8d5-dd5de314e6fd","system_id":"levelo_inurba_marseille","lat":43.32345,"lon":5.36731,"is_reserved":false,"is_disabled":false,"rental_uris":{"android":"levelo://app?vid=2964d339-565e-4966-a8d5-dd5de314e6fd","ios":"levelo://app?vid=2964d339-565e-4966-a8d5-dd5de314e6fd"},"vehicle_type_id":"4","last_reported":1766225466,"current_range_meters":14800,"station_id":"ce4bhsh2rcd13ifvqi2g","pricing_plan_id":"cebpf4jnsgd1na2vs0mg"},{"bike_id":"cf01deac-2376-4d88-bc76-849623b1c99e","system_id":"levelo_inurba_marseille","lat":43.30783,"lon":5.3765,"is_reserved":false,"is_disabled":false,"rental_uris":{"android":"levelo://app?vid=cf01deac-2376-4d88-bc76-849623b1c99e","ios":"levelo://app?vid=cf01deac-2376-4d88-bc76-849623b1c99e"},"vehicle_type_id":"4","last_reported":1766225466,"current_range_meters":14800,"station_id":"ce4bgv92rcd13ifvqcq0","pricing_plan_id":"cebpf4jnsgd1na2vs0mg"},{"bike_id":"b4c06ecc-7a46-4aca-a09e-6e605e584bbd","system_id":"levelo_inurba_marseille","lat":43.29821,"lon":5.44067,"is_reserved":false,"is_disabled":false,"rental_uris":{"android":"levelo://app?vid=b4c06ecc-7a46-4aca-a09e-6e605e584bbd","ios":"levelo://app?vid=b4c06ecc-7a46-4aca-a09e-6e605e584bbd"},"vehicle_type_id":"4","last_reported":1766225466,"current_range_meters":14800,"station_id":"st_d3jp68qikq2c7381ktn0","pricing_plan_id":"cebpf4jnsgd1na2vs0mg"},{"bike_id":"f1a91494-4ea9-498a-8b4d-c2877ea07d2f","system_id":"levelo_inurba_marseille","lat":43.33534,"lon":5.37463,"is_reserved":false,"is_disabled":false,"rental_uris":{"android":"levelo://app?vid=f1a91494-4ea9-498a-8b4d-c2877ea07d2f","ios":"levelo://app?vid=f1a91494-4ea9-498a-8b4d-c2877ea07d2f"},"vehicle_type_id":"4","last_reported":1766225466,"current_range_meters":14800,"station_id":"st_d46tts09ee8s73dlu43g","pricing_plan_id":"cebpf4jnsgd1na2vs0mg"},{"bike_id":"9d21dcb0-ce26-48db-a303-317550439f40","system_id":"levelo_inurba_marseille","lat":43.284829,"lon":5.483945,"is_reserved":false,"is_disabled":false,"rental_uris":{"android":"levelo://app?vid=9d21dcb0-ce26-48db-a303-317550439f40","ios":"levelo://app?vid=9d21dcb0-ce26-48db-a303-317550439f40"},"vehicle_type_id":"4","last_reported":1766225466,"current_range_meters":14800,"station_id":"st_d3svhcjqgbts73a3dn0g","pricing_plan_id":"cebpf4jnsgd1na2vs0mg"},{"bike_id":"fa6439a5-bd8f-400f-b0c9-f9eb6345c2ca","system_id":"levelo_inurba_marseille","lat":43.2903,"lon":5.35628,"is_reserved":false,"is_disabled":false,"rental_uris":{"android":"levelo://app?vid=fa6439a5-bd8f-400f-b0c9-f9eb6345c2ca","ios":"levelo://app?vid=fa6439a5-bd8f-400f-b0c9-f9eb6345c2ca"},"vehicle_type_id":"4","last_reported":1766225466,"current_range_meters":14800,"station_id":"ce4bhb92rcd13ifvqen0","pricing_plan_id":"cebpf4jnsgd1na2vs0mg"},{"bike_id":"855d16cb-a0fd-4e07-9270-f8edf3ac4bcb","system_id":"levelo_inurba_marseille","lat":43.279955,"lon":5.416616,"is_reserved":false,"is_disabled":false,"rental_uris":{"android":"levelo://app?vid=855d16cb-a0fd-4e07-9270-f8edf3ac4bcb","ios":"levelo://app?vid=855d16cb-a0fd-4e07-9270-f8edf3ac4bcb"},"vehicle_type_id":"4","last_reported":1766225466,"current_range_meters":14800,"station_id":"ce4bho12rcd13ifvqh1g","pricing_plan_id":"cebpf4jnsgd1na2vs0mg"},{"bike_id":"365ad53f-cb3b-420d-a376-f0f84e839076","system_id":"levelo_inurba_marseille","lat":43.29911,"lon":5.37478,"is_reserved":false,"is_disabled":false,"rental_uris":{"android":"levelo://app?vid=365ad53f-cb3b-420d-a376-f0f84e839076","ios":"levelo://app?vid=365ad53f-cb3b-420d-a376-f0f84e839076"},"vehicle_type_id":"4","last_reported":1766225466,"current_range_meters":14800,"station_id":"ce4bgjh2rcd13ifvqbg0","pricing_plan_id":"cebpf4jnsgd1na2vs0mg"},{"bike_id":"6fb215b1-ab25-4dde-991e-c0fe77591f5a","system_id":"levelo_inurba_marseille","lat":43.290039,"lon":5.390386,"is_reserved":false,"is_disabled":true,"rental_uris":{"android":"levelo://app?vid=6fb215b1-ab25-4dde-991e-c0fe77591f5a","ios":"levelo://app?vid=6fb215b1-ab25-4dde-991e-c0fe77591f5a"},"vehicle_type_id":"4","last_reported":1766225466,"current_range_meters":14800,"station_id":"","pricing_plan_id":"cebpf4jnsgd1na2vs0mg"},{"bike_id":"ace7fcda-beb2-4527-848b-014e8845c1e2","system_id":"levelo_inurba_marseille","lat":43.3361,"lon":5.41042,"is_reserved":false,"is_disabled":false,"rental_uris":{"android":"levelo://app?vid=ace7fcda-beb2-4527-848b-014e8845c1e2","ios":"levelo://app?vid=ace7fcda-beb2-4527-848b-014e8845c1e2"},"vehicle_type_id":"4","last_reported":1766225466,"current_range_meters":14800,"station_id":"ce4bhqh2rcd13ifvqhmg","pricing_plan_id":"cebpf4jnsgd1na2vs0mg"},{"bike_id":"e75bd08d-cd7e-46a6-9907-47bbb677a71c","system_id":"levelo_inurba_marseille","lat":43.28665,"lon":5.38663,"is_reserved":false,"is_disabled":false,"rental_uris":{"android":"levelo://app?vid=e75bd08d-cd7e-46a6-9907-47bbb677a71c","ios":"levelo://app?vid=e75bd08d-cd7e-46a6-9907-47bbb677a71c"},"vehicle_type_id":"4","last_reported":1766225466,"current_range_meters":14800,"station_id":"ce4bh492rcd13ifvqdug","pricing_plan_id":"cebpf4jnsgd1na2vs0mg"},{"bike_id":"90840bbc-8899-4ec1-9d75-c0cbe42c36af","system_id":"levelo_inurba_marseille","lat":43.299099,"lon":5.381441,"is_reserved":false,"is_disabled":false,"rental_uris":{"android":"levelo://app?vid=90840bbc-8899-4ec1-9d75-c0cbe42c36af","ios":"levelo://app?vid=90840bbc-8899-4ec1-9d75-c0cbe42c36af"},"vehicle_type_id":"4","last_reported":1766225466,"current_range_meters":15200,"station_id":"ce4bgj12rcd13ifvqbc0","pricing_plan_id":"cebpf4jnsgd1na2vs0mg"},{"bike_id":"2154a936-f819-49ae-b7ae-2734365f2c42","system_id":"levelo_inurba_marseille","lat":43.335436,"lon":5.374693,"is_reserved":false,"is_disabled":false,"rental_uris":{"android":"levelo://app?vid=2154a936-f819-49ae-b7ae-2734365f2c42","ios":"levelo://app?vid=2154a936-f819-49ae-b7ae-2734365f2c42"},"vehicle_type_id":"4","last_reported":1766225466,"current_range_meters":15200,"station_id":"st_d46tts09ee8s73dlu43g","pricing_plan_id":"cebpf4jnsgd1na2vs0mg"},{"bike_id":"f05b1d45-099e-428c-8304-1aeb2bda8a9a","system_id":"levelo_inurba_marseille","lat":43.231893,"lon":5.355693,"is_reserved":false,"is_disabled":true,"rental_uris":{"android":"levelo://app?vid=f05b1d45-099e-428c-8304-1aeb2bda8a9a","ios":"levelo://app?vid=f05b1d45-099e-428c-8304-1aeb2bda8a9a"},"vehicle_type_id":"4","last_reported":1766225466,"current_range_meters":15200,"station_id":"ce4bhu92rcd13ifvqi70","pricing_plan_id":"cebpf4jnsgd1na2vs0mg"},{"bike_id":"ba5fe198-5ac3-4bd7-8649-5b6193db5395","system_id":"levelo_inurba_marseille","lat":43.318334,"lon":5.389599,"is_reserved":false,"is_disabled":false,"rental_uris":{"android":"levelo://app?vid=ba5fe198-5ac3-4bd7-8649-5b6193db5395","ios":"levelo://app?vid=ba5fe198-5ac3-4bd7-8649-5b6193db5395"},"vehicle_type_id":"4","last_reported":1766225466,"current_range_meters":15200,"station_id":"","pricing_plan_id":"cebpf4jnsgd1na2vs0mg"},{"bike_id":"93bf859a-8811-47fd-8138-493e55036625","system_id":"levelo_inurba_marseille","lat":43.29028,"lon":5.38119,"is_reserved":false,"is_disabled":false,"rental_uris":{"android":"levelo://app?vid=93bf859a-8811-47fd-8138-493e55036625","ios":"levelo://app?vid=93bf859a-8811-47fd-8138-493e55036625"},"vehicle_type_id":"4","last_reported":1766225466,"current_range_meters":15200,"station_id":"ce4bh4p2rcd13ifvqe1g","pricing_plan_id":"cebpf4jnsgd1na2vs0mg"},{"bike_id":"698032aa-e78c-409e-bed4-f8f4309f7e0c","system_id":"levelo_inurba_marseille","lat":43.294513,"lon":5.396208,"is_reserved":false,"is_disabled":false,"rental_uris":{"android":"levelo://app?vid=698032aa-e78c-409e-bed4-f8f4309f7e0c","ios":"levelo://app?vid=698032aa-e78c-409e-bed4-f8f4309f7e0c"},"vehicle_type_id":"4","last_reported":1766225466,"current_range_meters":15200,"station_id":"","pricing_plan_id":"cebpf4jnsgd1na2vs0mg"},{"bike_id":"8e10016a-8913-4626-9f23-353558e4e802","system_id":"levelo_inurba_marseille","lat":43.27363,"lon":5.39082,"is_reserved":false,"is_disabled":false,"rental_uris":{"android":"levelo://app?vid=8e10016a-8913-4626-9f23-353558e4e802","ios":"levelo://app?vid=8e10016a-8913-4626-9f23-353558e4e802"},"vehicle_type_id":"4","last_reported":1766225466,"current_range_meters":15200,"station_id":"","pricing_plan_id":"cebpf4jnsgd1na2vs0mg"},{"bike_id":"a8a96969-9f32-4610-9b29-13cd70cfc85b","system_id":"levelo_inurba_marseille","lat":43.24392,"lon":5.3707,"is_reserved":false,"is_disabled":false,"rental_uris":{"android":"levelo://app?vid=a8a96969-9f32-4610-9b29-13cd70cfc85b","ios":"levelo://app?vid=a8a96969-9f32-4610-9b29-13cd70cfc85b"},"vehicle_type_id":"4","last_reported":1766225466,"current_range_meters":15200,"station_id":"ce4bhhh2rcd13ifvqfk0","pricing_plan_id":"cebpf4jnsgd1na2vs0mg"},{"bike_id":"f3fdb73c-e2e3-4dd3-a99d-4f3e3986936b","system_id":"levelo_inurba_marseille","lat":43.22554,"lon":5.41625,"is_reserved":false,"is_disabled":false,"rental_uris":{"android":"levelo://app?vid=f3fdb73c-e2e3-4dd3-a99d-4f3e3986936b","ios":"levelo://app?vid=f3fdb73c-e2e3-4dd3-a99d-4f3e3986936b"},"vehicle_type_id":"4","last_reported":1766225466,"current_range_meters":15200,"station_id":"st_d2o4gvlbi1j2169b742g","pricing_plan_id":"cebpf4jnsgd1na2vs0mg"},{"bike_id":"d25ab0ff-f414-4f1d-a827-2cb02628b30e","system_id":"levelo_inurba_marseille","lat":43.25347,"lon":5.42178,"is_reserved":false,"is_disabled":false,"rental_uris":{"android":"levelo://app?vid=d25ab0ff-f414-4f1d-a827-2cb02628b30e","ios":"levelo://app?vid=d25ab0ff-f414-4f1d-a827-2cb02628b30e"},"vehicle_type_id":"4","last_reported":1766225466,"current_range_meters":16000,"station_id":"st_d2m65c5bi1j21697t3ng","pricing_plan_id":"cebpf4jnsgd1na2vs0mg"},{"bike_id":"27c6cab6-027c-4350-9b9c-20490c10cfe9","system_id":"levelo_inurba_marseille","lat":43.32497,"lon":5.38311,"is_reserved":false,"is_disabled":false,"rental_uris":{"android":"levelo://app?vid=27c6cab6-027c-4350-9b9c-20490c10cfe9","ios":"levelo://app?vid=27c6cab6-027c-4350-9b9c-20490c10cfe9"},"vehicle_type_id":"4","last_reported":1766225466,"current_range_meters":16000,"station_id":"st_d4asgbiv49dc73anf9m0","pricing_plan_id":"cebpf4jnsgd1na2vs0mg"},{"bike_id":"b9fd4cfe-8ada-4a37-b6cf-a845383e4bbf","system_id":"levelo_inurba_marseille","lat":43.29823,"lon":5.36311,"is_reserved":false,"is_disabled":false,"rental_uris":{"android":"levelo://app?vid=b9fd4cfe-8ada-4a37-b6cf-a845383e4bbf","ios":"levelo://app?vid=b9fd4cfe-8ada-4a37-b6cf-a845383e4bbf"},"vehicle_type_id":"4","last_reported":1766225466,"current_range_meters":16000,"station_id":"ce4bgpp2rcd13ifvqc3g","pricing_plan_id":"cebpf4jnsgd1na2vs0mg"},{"bike_id":"69c3bf49-dc0b-4726-91ee-b4e37e9a81d0","system_id":"levelo_inurba_marseille","lat":43.22929,"lon":5.35373,"is_reserved":false,"is_disabled":false,"rental_uris":{"android":"levelo://app?vid=69c3bf49-dc0b-4726-91ee-b4e37e9a81d0","ios":"levelo://app?vid=69c3bf49-dc0b-4726-91ee-b4e37e9a81d0"},"vehicle_type_id":"4","last_reported":1766225466,"current_range_meters":16000,"station_id":"cpo3532slgdg3j2ikp40","pricing_plan_id":"cebpf4jnsgd1na2vs0mg"},{"bike_id":"e1e0c5d5-d1ff-4328-abce-0032e41eb0b8","system_id":"levelo_inurba_marseille","lat":43.24615,"lon":5.43145,"is_reserved":false,"is_disabled":false,"rental_uris":{"android":"levelo://app?vid=e1e0c5d5-d1ff-4328-abce-0032e41eb0b8","ios":"levelo://app?vid=e1e0c5d5-d1ff-4328-abce-0032e41eb0b8"},"vehicle_type_id":"4","last_reported":1766225466,"current_range_meters":16400,"station_id":"st_d2m6c4gdas8pm72e190g","pricing_plan_id":"cebpf4jnsgd1na2vs0mg"},{"bike_id":"dbc6fc8f-e55d-48e4-a4b0-251fe00bd311","system_id":"levelo_inurba_marseille","lat":43.29603,"lon":5.38107,"is_reserved":false,"is_disabled":false,"rental_uris":{"android":"levelo://app?vid=dbc6fc8f-e55d-48e4-a4b0-251fe00bd311","ios":"levelo://app?vid=dbc6fc8f-e55d-48e4-a4b0-251fe00bd311"},"vehicle_type_id":"4","last_reported":1766225466,"current_range_meters":16400,"station_id":"ce4bgl12rcd13ifvqbo0","pricing_plan_id":"cebpf4jnsgd1na2vs0mg"},{"bike_id":"be6edca5-cbaf-425d-ba3c-7981181dd2c6","system_id":"levelo_inurba_marseille","lat":43.283626,"lon":5.386419,"is_reserved":false,"is_disabled":true,"rental_uris":{"android":"levelo://app?vid=be6edca5-cbaf-425d-ba3c-7981181dd2c6","ios":"levelo://app?vid=be6edca5-cbaf-425d-ba3c-7981181dd2c6"},"vehicle_type_id":"4","last_reported":1766225466,"current_range_meters":16400,"station_id":"ce4bhi12rcd13ifvqfo0","pricing_plan_id":"cebpf4jnsgd1na2vs0mg"},{"bike_id":"6721e4a5-7307-40c6-a4b2-6b5fc5cd0790","system_id":"levelo_inurba_marseille","lat":43.295483,"lon":5.422722,"is_reserved":false,"is_disabled":true,"rental_uris":{"android":"levelo://app?vid=6721e4a5-7307-40c6-a4b2-6b5fc5cd0790","ios":"levelo://app?vid=6721e4a5-7307-40c6-a4b2-6b5fc5cd0790"},"vehicle_type_id":"4","last_reported":1766225466,"current_range_meters":16400,"station_id":"ce4bhph2rcd13ifvqhdg","pricing_plan_id":"cebpf4jnsgd1na2vs0mg"},{"bike_id":"4e0f766d-d75a-4df9-ac24-fad22e17ff7e","system_id":"levelo_inurba_marseille","lat":43.286125,"lon":5.398705,"is_reserved":false,"is_disabled":false,"rental_uris":{"android":"levelo://app?vid=4e0f766d-d75a-4df9-ac24-fad22e17ff7e","ios":"levelo://app?vid=4e0f766d-d75a-4df9-ac24-fad22e17ff7e"},"vehicle_type_id":"4","last_reported":1766225466,"current_range_meters":16400,"station_id":"st_d4a7ka997mjs738ck50g","pricing_plan_id":"cebpf4jnsgd1na2vs0mg"},{"bike_id":"8236b2ff-636e-47d5-bd6b-04dc2016d9f3","system_id":"levelo_inurba_marseille","lat":43.25522,"lon":5.37653,"is_reserved":false,"is_disabled":false,"rental_uris":{"android":"levelo://app?vid=8236b2ff-636e-47d5-bd6b-04dc2016d9f3","ios":"levelo://app?vid=8236b2ff-636e-47d5-bd6b-04dc2016d9f3"},"vehicle_type_id":"4","last_reported":1766225466,"current_range_meters":16400,"station_id":"ce4bhh12rcd13ifvqff0","pricing_plan_id":"cebpf4jnsgd1na2vs0mg"},{"bike_id":"785156da-0593-4b75-94f6-e2ccbbaee3ef","system_id":"levelo_inurba_marseille","lat":43.27442,"lon":5.39421,"is_reserved":false,"is_disabled":false,"rental_uris":{"android":"levelo://app?vid=785156da-0593-4b75-94f6-e2ccbbaee3ef","ios":"levelo://app?vid=785156da-0593-4b75-94f6-e2ccbbaee3ef"},"vehicle_type_id":"4","last_reported":1766225466,"current_range_meters":16400,"station_id":"ce4bhdp2rcd13ifvqf20","pricing_plan_id":"cebpf4jnsgd1na2vs0mg"},{"bike_id":"ca477084-c8ec-4c95-924e-7d8909a251ee","system_id":"levelo_inurba_marseille","lat":43.29701,"lon":5.37691,"is_reserved":false,"is_disabled":false,"rental_uris":{"android":"levelo://app?vid=ca477084-c8ec-4c95-924e-7d8909a251ee","ios":"levelo://app?vid=ca477084-c8ec-4c95-924e-7d8909a251ee"},"vehicle_type_id":"4","last_reported":1766225466,"current_range_meters":16400,"station_id":"ce4bgkh2rcd13ifvqbl0","pricing_plan_id":"cebpf4jnsgd1na2vs0mg"},{"bike_id":"271dff6c-fcae-4ce6-8e3b-d18235e5d6e7","system_id":"levelo_inurba_marseille","lat":43.26196,"lon":5.37454,"is_reserved":false,"is_disabled":false,"rental_uris":{"android":"levelo://app?vid=271dff6c-fcae-4ce6-8e3b-d18235e5d6e7","ios":"levelo://app?vid=271dff6c-fcae-4ce6-8e3b-d18235e5d6e7"},"vehicle_type_id":"4","last_reported":1766225466,"current_range_meters":16400,"station_id":"ce4bhgp2rcd13ifvqfc0","pricing_plan_id":"cebpf4jnsgd1na2vs0mg"},{"bike_id":"95d8cbdb-ee9c-4f54-891a-89fe4e151e99","system_id":"levelo_inurba_marseille","lat":43.26501,"lon":5.3956,"is_reserved":false,"is_disabled":false,"rental_uris":{"android":"levelo://app?vid=95d8cbdb-ee9c-4f54-891a-89fe4e151e99","ios":"levelo://app?vid=95d8cbdb-ee9c-4f54-891a-89fe4e151e99"},"vehicle_type_id":"4","last_reported":1766225466,"current_range_meters":16400,"station_id":"ce4bhi12rcd13ifvqfq0","pricing_plan_id":"cebpf4jnsgd1na2vs0mg"},{"bike_id":"611bb42d-81f1-42fc-b832-157e5dfb6bb7","system_id":"levelo_inurba_marseille","lat":43.285344,"lon":5.441048,"is_reserved":false,"is_disabled":false,"rental_uris":{"android":"levelo://app?vid=611bb42d-81f1-42fc-b832-157e5dfb6bb7","ios":"levelo://app?vid=611bb42d-81f1-42fc-b832-157e5dfb6bb7"},"vehicle_type_id":"4","last_reported":1766225466,"current_range_meters":16400,"station_id":"st_d3j3df2ikq2c7380ej80","pricing_plan_id":"cebpf4jnsgd1na2vs0mg"},{"bike_id":"8b51e427-7c13-4b57-9cd5-bf603542e006","system_id":"levelo_inurba_marseille","lat":43.237854,"lon":5.366293,"is_reserved":false,"is_disabled":false,"rental_uris":{"android":"levelo://app?vid=8b51e427-7c13-4b57-9cd5-bf603542e006","ios":"levelo://app?vid=8b51e427-7c13-4b57-9cd5-bf603542e006"},"vehicle_type_id":"4","last_reported":1766225466,"current_range_meters":16400,"station_id":"st_d3nk18o9ro0c73en2l3g","pricing_plan_id":"cebpf4jnsgd1na2vs0mg"},{"bike_id":"b79cb017-d598-4262-b3c2-034704c280e1","system_id":"levelo_inurba_marseille","lat":43.284738,"lon":5.38426,"is_reserved":false,"is_disabled":false,"rental_uris":{"android":"levelo://app?vid=b79cb017-d598-4262-b3c2-034704c280e1","ios":"levelo://app?vid=b79cb017-d598-4262-b3c2-034704c280e1"},"vehicle_type_id":"4","last_reported":1766225466,"current_range_meters":16400,"station_id":"ce4bh512rcd13ifvqe3g","pricing_plan_id":"cebpf4jnsgd1na2vs0mg"},{"bike_id":"4c0d6fce-33ab-431d-b903-8bcf563c13d6","system_id":"levelo_inurba_marseille","lat":43.27203,"lon":5.39186,"is_reserved":false,"is_disabled":false,"rental_uris":{"android":"levelo://app?vid=4c0d6fce-33ab-431d-b903-8bcf563c13d6","ios":"levelo://app?vid=4c0d6fce-33ab-431d-b903-8bcf563c13d6"},"vehicle_type_id":"4","last_reported":1766225466,"current_range_meters":16400,"station_id":"ce4bhhp2rcd13ifvqfm0","pricing_plan_id":"cebpf4jnsgd1na2vs0mg"},{"bike_id":"24bdf439-eafa-4725-949f-48e8f3329db0","system_id":"levelo_inurba_marseille","lat":43.28407,"lon":5.34993,"is_reserved":false,"is_disabled":false,"rental_uris":{"android":"levelo://app?vid=24bdf439-eafa-4725-949f-48e8f3329db0","ios":"levelo://app?vid=24bdf439-eafa-4725-949f-48e8f3329db0"},"vehicle_type_id":"4","last_reported":1766225466,"current_range_meters":16800,"station_id":"ce4bhbh2rcd13ifvqepg","pricing_plan_id":"cebpf4jnsgd1na2vs0mg"},{"bike_id":"dbd5fb4f-f806-43a3-84bf-19548fb9458c","system_id":"levelo_inurba_marseille","lat":43.30951,"lon":5.39041,"is_reserved":false,"is_disabled":false,"rental_uris":{"android":"levelo://app?vid=dbd5fb4f-f806-43a3-84bf-19548fb9458c","ios":"levelo://app?vid=dbd5fb4f-f806-43a3-84bf-19548fb9458c"},"vehicle_type_id":"4","last_reported":1766225466,"current_range_meters":16800,"station_id":"ce4bgup2rcd13ifvqco0","pricing_plan_id":"cebpf4jnsgd1na2vs0mg"},{"bike_id":"3442bd90-ea5e-4ce5-bdce-62071f021411","system_id":"levelo_inurba_marseille","lat":43.26187,"lon":5.3749,"is_reserved":false,"is_disabled":false,"rental_uris":{"android":"levelo://app?vid=3442bd90-ea5e-4ce5-bdce-62071f021411","ios":"levelo://app?vid=3442bd90-ea5e-4ce5-bdce-62071f021411"},"vehicle_type_id":"4","last_reported":1766225466,"current_range_meters":16800,"station_id":"ce4bhgp2rcd13ifvqfc0","pricing_plan_id":"cebpf4jnsgd1na2vs0mg"},{"bike_id":"674911cf-1cfd-40f1-9e5e-f3941e7b6fc6","system_id":"levelo_inurba_marseille","lat":43.337444,"lon":5.374475,"is_reserved":false,"is_disabled":false,"rental_uris":{"android":"levelo://app?vid=674911cf-1cfd-40f1-9e5e-f3941e7b6fc6","ios":"levelo://app?vid=674911cf-1cfd-40f1-9e5e-f3941e7b6fc6"},"vehicle_type_id":"4","last_reported":1766225466,"current_range_meters":16800,"station_id":"","pricing_plan_id":"cebpf4jnsgd1na2vs0mg"},{"bike_id":"5549c5d4-40ee-4672-8eb6-d9e741467e36","system_id":"levelo_inurba_marseille","lat":43.29902,"lon":5.37462,"is_reserved":false,"is_disabled":true,"rental_uris":{"android":"levelo://app?vid=5549c5d4-40ee-4672-8eb6-d9e741467e36","ios":"levelo://app?vid=5549c5d4-40ee-4672-8eb6-d9e741467e36"},"vehicle_type_id":"4","last_reported":1766225466,"current_range_meters":16800,"station_id":"ce4bgjh2rcd13ifvqbg0","pricing_plan_id":"cebpf4jnsgd1na2vs0mg"},{"bike_id":"ae6c1aeb-ea56-4930-8ca5-97f00c057268","system_id":"levelo_inurba_marseille","lat":43.25006,"lon":5.38932,"is_reserved":false,"is_disabled":false,"rental_uris":{"android":"levelo://app?vid=ae6c1aeb-ea56-4930-8ca5-97f00c057268","ios":"levelo://app?vid=ae6c1aeb-ea56-4930-8ca5-97f00c057268"},"vehicle_type_id":"4","last_reported":1766225466,"current_range_meters":16800,"station_id":"ce4bhgp2rcd13ifvqfd0","pricing_plan_id":"cebpf4jnsgd1na2vs0mg"},{"bike_id":"3b42393c-b293-4707-a89f-72f8a29ac58d","system_id":"levelo_inurba_marseille","lat":43.26551,"lon":5.37303,"is_reserved":false,"is_disabled":false,"rental_uris":{"android":"levelo://app?vid=3b42393c-b293-4707-a89f-72f8a29ac58d","ios":"levelo://app?vid=3b42393c-b293-4707-a89f-72f8a29ac58d"},"vehicle_type_id":"4","last_reported":1766225466,"current_range_meters":16800,"station_id":"ce4bhg12rcd13ifvqf70","pricing_plan_id":"cebpf4jnsgd1na2vs0mg"},{"bike_id":"fe3645d0-1e48-4f18-8807-1bc4df77a4c8","system_id":"levelo_inurba_marseille","lat":43.297121,"lon":5.376667,"is_reserved":false,"is_disabled":false,"rental_uris":{"android":"levelo://app?vid=fe3645d0-1e48-4f18-8807-1bc4df77a4c8","ios":"levelo://app?vid=fe3645d0-1e48-4f18-8807-1bc4df77a4c8"},"vehicle_type_id":"4","last_reported":1766225466,"current_range_meters":16800,"station_id":"ce4bgkh2rcd13ifvqbl0","pricing_plan_id":"cebpf4jnsgd1na2vs0mg"},{"bike_id":"1a588d30-cbc2-4224-b198-2e732cff06f7","system_id":"levelo_inurba_marseille","lat":43.296231,"lon":5.406028,"is_reserved":false,"is_disabled":false,"rental_uris":{"android":"levelo://app?vid=1a588d30-cbc2-4224-b198-2e732cff06f7","ios":"levelo://app?vid=1a588d30-cbc2-4224-b198-2e732cff06f7"},"vehicle_type_id":"4","last_reported":1766225466,"current_range_meters":16800,"station_id":"ce4bh0h2rcd13ifvqd60","pricing_plan_id":"cebpf4jnsgd1na2vs0mg"},{"bike_id":"765debad-eda4-476b-957c-cf93f044563d","system_id":"levelo_inurba_marseille","lat":43.29848,"lon":5.36279,"is_reserved":false,"is_disabled":false,"rental_uris":{"android":"levelo://app?vid=765debad-eda4-476b-957c-cf93f044563d","ios":"levelo://app?vid=765debad-eda4-476b-957c-cf93f044563d"},"vehicle_type_id":"4","last_reported":1766225466,"current_range_meters":16800,"station_id":"ce4bgpp2rcd13ifvqc3g","pricing_plan_id":"cebpf4jnsgd1na2vs0mg"},{"bike_id":"92df6f82-a495-446a-8ebe-63f29e1f2504","system_id":"levelo_inurba_marseille","lat":43.32474,"lon":5.36576,"is_reserved":false,"is_disabled":false,"rental_uris":{"android":"levelo://app?vid=92df6f82-a495-446a-8ebe-63f29e1f2504","ios":"levelo://app?vid=92df6f82-a495-446a-8ebe-63f29e1f2504"},"vehicle_type_id":"4","last_reported":1766225466,"current_range_meters":16800,"station_id":"ce4bhs12rcd13ifvqhvg","pricing_plan_id":"cebpf4jnsgd1na2vs0mg"},{"bike_id":"73e2925b-3961-4e27-be9f-277c3490deb8","system_id":"levelo_inurba_marseille","lat":43.29609,"lon":5.37736,"is_reserved":false,"is_disabled":false,"rental_uris":{"android":"levelo://app?vid=73e2925b-3961-4e27-be9f-277c3490deb8","ios":"levelo://app?vid=73e2925b-3961-4e27-be9f-277c3490deb8"},"vehicle_type_id":"4","last_reported":1766225466,"current_range_meters":16800,"station_id":"ce4bgi92rcd13ifvqb90","pricing_plan_id":"cebpf4jnsgd1na2vs0mg"},{"bike_id":"e520c4e4-0609-4d1b-8612-635b02ca2662","system_id":"levelo_inurba_marseille","lat":43.2903,"lon":5.39981,"is_reserved":false,"is_disabled":false,"rental_uris":{"android":"levelo://app?vid=e520c4e4-0609-4d1b-8612-635b02ca2662","ios":"levelo://app?vid=e520c4e4-0609-4d1b-8612-635b02ca2662"},