{"last_updated":1781296825,"ttl":60,"version":"2.2","data":{"bikes":[{"bike_id":"ec12d144-24c8-4071-abf6-197e520eae96","system_id":"levelo_inurba_marseille","lat":43.337444,"lon":5.374475,"is_reserved":false,"is_disabled":false,"rental_uris":{"android":"levelo://app?vid=ec12d144-24c8-4071-abf6-197e520eae96","ios":"levelo://app?vid=ec12d144-24c8-4071-abf6-197e520eae96"},"vehicle_type_id":"4","last_reported":1781296826,"current_range_meters":0,"station_id":"","pricing_plan_id":"cebpf4jnsgd1na2vs0mg"},{"bike_id":"e595c798-8e20-42df-94e8-c7ab65cbe26f","system_id":"levelo_inurba_marseille","lat":43.30242,"lon":5.40068,"is_reserved":false,"is_disabled":false,"rental_uris":{"android":"levelo://app?vid=e595c798-8e20-42df-94e8-c7ab65cbe26f","ios":"levelo://app?vid=e595c798-8e20-42df-94e8-c7ab65cbe26f"},"vehicle_type_id":"4","last_reported":1781296826,"current_range_meters":2800,"station_id":"","pricing_plan_id":"cebpf4jnsgd1na2vs0mg"},{"bike_id":"0a743a51-5728-422c-8a96-f69476a8f4cb","system_id":"levelo_inurba_marseille","lat":43.27619,"lon":5.36093,"is_reserved":false,"is_disabled":true,"rental_uris":{"android":"levelo://app?vid=0a743a51-5728-422c-8a96-f69476a8f4cb","ios":"levelo://app?vid=0a743a51-5728-422c-8a96-f69476a8f4cb"},"vehicle_type_id":"4","last_reported":1781296826,"current_range_meters":2800,"station_id":"ce4bgj92rcd13ifvqbe0","pricing_plan_id":"cebpf4jnsgd1na2vs0mg"},{"bike_id":"2e41d0d3-9e86-4c08-89a6-e0a70cc8ae89","system_id":"levelo_inurba_marseille","lat":43.29248,"lon":5.38251,"is_reserved":false,"is_disabled":true,"rental_uris":{"android":"levelo://app?vid=2e41d0d3-9e86-4c08-89a6-e0a70cc8ae89","ios":"levelo://app?vid=2e41d0d3-9e86-4c08-89a6-e0a70cc8ae89"},"vehicle_type_id":"4","last_reported":1781296826,"current_range_meters":2800,"station_id":"","pricing_plan_id":"cebpf4jnsgd1na2vs0mg"},{"bike_id":"41efe1ca-29c6-43c8-a63b-61a200f151ca","system_id":"levelo_inurba_marseille","lat":43.26026,"lon":5.37546,"is_reserved":false,"is_disabled":false,"rental_uris":{"android":"levelo://app?vid=41efe1ca-29c6-43c8-a63b-61a200f151ca","ios":"levelo://app?vid=41efe1ca-29c6-43c8-a63b-61a200f151ca"},"vehicle_type_id":"4","last_reported":1781296826,"current_range_meters":2800,"station_id":"ce4bhgh2rcd13ifvqfa0","pricing_plan_id":"cebpf4jnsgd1na2vs0mg"},{"bike_id":"3e28917f-12dd-4b37-af94-6f348c8b7c68","system_id":"levelo_inurba_marseille","lat":43.25581,"lon":5.38226,"is_reserved":false,"is_disabled":true,"rental_uris":{"android":"levelo://app?vid=3e28917f-12dd-4b37-af94-6f348c8b7c68","ios":"levelo://app?vid=3e28917f-12dd-4b37-af94-6f348c8b7c68"},"vehicle_type_id":"4","last_reported":1781296826,"current_range_meters":2800,"station_id":"ce4bhih2rcd13ifvqfs0","pricing_plan_id":"cebpf4jnsgd1na2vs0mg"},{"bike_id":"7d670955-2936-440c-bd70-613ec77c1cc0","system_id":"levelo_inurba_marseille","lat":43.2621,"lon":5.37438,"is_reserved":false,"is_disabled":true,"rental_uris":{"android":"levelo://app?vid=7d670955-2936-440c-bd70-613ec77c1cc0","ios":"levelo://app?vid=7d670955-2936-440c-bd70-613ec77c1cc0"},"vehicle_type_id":"4","last_reported":1781296826,"current_range_meters":2800,"station_id":"ce4bhgp2rcd13ifvqfc0","pricing_plan_id":"cebpf4jnsgd1na2vs0mg"},{"bike_id":"5ac28b06-af05-4d8b-a509-2f5043908588","system_id":"levelo_inurba_marseille","lat":43.23438,"lon":5.36842,"is_reserved":false,"is_disabled":false,"rental_uris":{"android":"levelo://app?vid=5ac28b06-af05-4d8b-a509-2f5043908588","ios":"levelo://app?vid=5ac28b06-af05-4d8b-a509-2f5043908588"},"vehicle_type_id":"4","last_reported":1781296826,"current_range_meters":2800,"station_id":"","pricing_plan_id":"cebpf4jnsgd1na2vs0mg"},{"bike_id":"446e12e6-b3d6-4da6-a064-d7ccde7a6276","system_id":"levelo_inurba_marseille","lat":43.2619,"lon":5.37442,"is_reserved":false,"is_disabled":false,"rental_uris":{"android":"levelo://app?vid=446e12e6-b3d6-4da6-a064-d7ccde7a6276","ios":"levelo://app?vid=446e12e6-b3d6-4da6-a064-d7ccde7a6276"},"vehicle_type_id":"4","last_reported":1781296826,"current_range_meters":2800,"station_id":"ce4bhgp2rcd13ifvqfc0","pricing_plan_id":"cebpf4jnsgd1na2vs0mg"},{"bike_id":"17be60fe-ff7f-4ced-b2c5-f100be112574","system_id":"levelo_inurba_marseille","lat":43.31346,"lon":5.3849,"is_reserved":false,"is_disabled":true,"rental_uris":{"android":"levelo://app?vid=17be60fe-ff7f-4ced-b2c5-f100be112574","ios":"levelo://app?vid=17be60fe-ff7f-4ced-b2c5-f100be112574"},"vehicle_type_id":"4","last_reported":1781296826,"current_range_meters":2800,"station_id":"ce4bgt92rcd13ifvqcf0","pricing_plan_id":"cebpf4jnsgd1na2vs0mg"},{"bike_id":"dd8f2fa1-b5da-4cef-87c9-29d3b1051138","system_id":"levelo_inurba_marseille","lat":43.25649,"lon":5.42769,"is_reserved":false,"is_disabled":false,"rental_uris":{"android":"levelo://app?vid=dd8f2fa1-b5da-4cef-87c9-29d3b1051138","ios":"levelo://app?vid=dd8f2fa1-b5da-4cef-87c9-29d3b1051138"},"vehicle_type_id":"4","last_reported":1781296826,"current_range_meters":2800,"station_id":"","pricing_plan_id":"cebpf4jnsgd1na2vs0mg"},{"bike_id":"2d294e19-1203-4b5a-b483-e1012ee59b95","system_id":"levelo_inurba_marseille","lat":43.31345,"lon":5.396815,"is_reserved":false,"is_disabled":false,"rental_uris":{"android":"levelo://app?vid=2d294e19-1203-4b5a-b483-e1012ee59b95","ios":"levelo://app?vid=2d294e19-1203-4b5a-b483-e1012ee59b95"},"vehicle_type_id":"4","last_reported":1781296826,"current_range_meters":2800,"station_id":"ce4bgvp2rcd13ifvqcu0","pricing_plan_id":"cebpf4jnsgd1na2vs0mg"},{"bike_id":"a7035cfa-2cad-4a3c-b6b7-082bb42a565d","system_id":"levelo_inurba_marseille","lat":43.24077,"lon":5.37812,"is_reserved":false,"is_disabled":false,"rental_uris":{"android":"levelo://app?vid=a7035cfa-2cad-4a3c-b6b7-082bb42a565d","ios":"levelo://app?vid=a7035cfa-2cad-4a3c-b6b7-082bb42a565d"},"vehicle_type_id":"4","last_reported":1781296826,"current_range_meters":2800,"station_id":"ce4bhnp2rcd13ifvqgvg","pricing_plan_id":"cebpf4jnsgd1na2vs0mg"},{"bike_id":"758b8575-bd39-4c4b-83ba-b708bb22f91d","system_id":"levelo_inurba_marseille","lat":43.27554,"lon":5.35928,"is_reserved":false,"is_disabled":false,"rental_uris":{"android":"levelo://app?vid=758b8575-bd39-4c4b-83ba-b708bb22f91d","ios":"levelo://app?vid=758b8575-bd39-4c4b-83ba-b708bb22f91d"},"vehicle_type_id":"4","last_reported":1781296826,"current_range_meters":2800,"station_id":"","pricing_plan_id":"cebpf4jnsgd1na2vs0mg"},{"bike_id":"3e958d42-5d60-491b-83bd-39ec3ae698eb","system_id":"levelo_inurba_marseille","lat":43.263441,"lon":5.378327,"is_reserved":false,"is_disabled":false,"rental_uris":{"android":"levelo://app?vid=3e958d42-5d60-491b-83bd-39ec3ae698eb","ios":"levelo://app?vid=3e958d42-5d60-491b-83bd-39ec3ae698eb"},"vehicle_type_id":"4","last_reported":1781296826,"current_range_meters":2800,"station_id":"","pricing_plan_id":"cebpf4jnsgd1na2vs0mg"},{"bike_id":"6823f9a2-8013-4e26-94c8-72b20fcbdb61","system_id":"levelo_inurba_marseille","lat":43.30329,"lon":5.40448,"is_reserved":false,"is_disabled":false,"rental_uris":{"android":"levelo://app?vid=6823f9a2-8013-4e26-94c8-72b20fcbdb61","ios":"levelo://app?vid=6823f9a2-8013-4e26-94c8-72b20fcbdb61"},"vehicle_type_id":"4","last_reported":1781296826,"current_range_meters":2800,"station_id":"ce4bh012rcd13ifvqd10","pricing_plan_id":"cebpf4jnsgd1na2vs0mg"},{"bike_id":"4b38708e-8c44-4734-ab91-a02bd4a8b6e1","system_id":"levelo_inurba_marseille","lat":43.25488,"lon":5.37708,"is_reserved":false,"is_disabled":false,"rental_uris":{"android":"levelo://app?vid=4b38708e-8c44-4734-ab91-a02bd4a8b6e1","ios":"levelo://app?vid=4b38708e-8c44-4734-ab91-a02bd4a8b6e1"},"vehicle_type_id":"4","last_reported":1781296826,"current_range_meters":2800,"station_id":"","pricing_plan_id":"cebpf4jnsgd1na2vs0mg"},{"bike_id":"15fc56fc-294c-406d-b298-e6517f81b737","system_id":"levelo_inurba_marseille","lat":43.24646,"lon":5.43144,"is_reserved":false,"is_disabled":false,"rental_uris":{"android":"levelo://app?vid=15fc56fc-294c-406d-b298-e6517f81b737","ios":"levelo://app?vid=15fc56fc-294c-406d-b298-e6517f81b737"},"vehicle_type_id":"4","last_reported":1781296826,"current_range_meters":2800,"station_id":"st_d2m6c4gdas8pm72e190g","pricing_plan_id":"cebpf4jnsgd1na2vs0mg"},{"bike_id":"cd8b17dc-13e9-44b6-a2ec-022494a29a28","system_id":"levelo_inurba_marseille","lat":43.28345,"lon":5.38104,"is_reserved":false,"is_disabled":false,"rental_uris":{"android":"levelo://app?vid=cd8b17dc-13e9-44b6-a2ec-022494a29a28","ios":"levelo://app?vid=cd8b17dc-13e9-44b6-a2ec-022494a29a28"},"vehicle_type_id":"4","last_reported":1781296826,"current_range_meters":2800,"station_id":"ce4bh412rcd13ifvqdr0","pricing_plan_id":"cebpf4jnsgd1na2vs0mg"},{"bike_id":"f3413c8d-80a6-4129-9004-b88c5c896006","system_id":"levelo_inurba_marseille","lat":43.28853,"lon":5.42519,"is_reserved":false,"is_disabled":false,"rental_uris":{"android":"levelo://app?vid=f3413c8d-80a6-4129-9004-b88c5c896006","ios":"levelo://app?vid=f3413c8d-80a6-4129-9004-b88c5c896006"},"vehicle_type_id":"4","last_reported":1781296826,"current_range_meters":2800,"station_id":"st_d3b462108ojc7389ooeg","pricing_plan_id":"cebpf4jnsgd1na2vs0mg"},{"bike_id":"dbcda9ae-c30a-47f2-91a8-8dac9b33d85e","system_id":"levelo_inurba_marseille","lat":43.27993,"lon":5.36106,"is_reserved":false,"is_disabled":false,"rental_uris":{"android":"levelo://app?vid=dbcda9ae-c30a-47f2-91a8-8dac9b33d85e","ios":"levelo://app?vid=dbcda9ae-c30a-47f2-91a8-8dac9b33d85e"},"vehicle_type_id":"4","last_reported":1781296826,"current_range_meters":2800,"station_id":"","pricing_plan_id":"cebpf4jnsgd1na2vs0mg"},{"bike_id":"9426269d-62cd-4971-84a7-d88b31e2908f","system_id":"levelo_inurba_marseille","lat":43.26674,"lon":5.38288,"is_reserved":false,"is_disabled":true,"rental_uris":{"android":"levelo://app?vid=9426269d-62cd-4971-84a7-d88b31e2908f","ios":"levelo://app?vid=9426269d-62cd-4971-84a7-d88b31e2908f"},"vehicle_type_id":"4","last_reported":1781296826,"current_range_meters":2800,"station_id":"ce4bhg92rcd13ifvqf90","pricing_plan_id":"cebpf4jnsgd1na2vs0mg"},{"bike_id":"da83bae3-b134-4546-ab2f-f295ee8cbf09","system_id":"levelo_inurba_marseille","lat":43.27368,"lon":5.36248,"is_reserved":false,"is_disabled":false,"rental_uris":{"android":"levelo://app?vid=da83bae3-b134-4546-ab2f-f295ee8cbf09","ios":"levelo://app?vid=da83bae3-b134-4546-ab2f-f295ee8cbf09"},"vehicle_type_id":"4","last_reported":1781296826,"current_range_meters":3200,"station_id":"ce4bhbh2rcd13ifvqeo0","pricing_plan_id":"cebpf4jnsgd1na2vs0mg"},{"bike_id":"f3a9c806-392d-42a8-81ee-b90c19863eb9","system_id":"levelo_inurba_marseille","lat":43.272108,"lon":5.391853,"is_reserved":false,"is_disabled":false,"rental_uris":{"android":"levelo://app?vid=f3a9c806-392d-42a8-81ee-b90c19863eb9","ios":"levelo://app?vid=f3a9c806-392d-42a8-81ee-b90c19863eb9"},"vehicle_type_id":"4","last_reported":1781296826,"current_range_meters":3200,"station_id":"ce4bhf92rcd13ifvqf40","pricing_plan_id":"cebpf4jnsgd1na2vs0mg"},{"bike_id":"8bb0d554-3dd8-4daa-b504-8ed1f0dad155","system_id":"levelo_inurba_marseille","lat":43.28424,"lon":5.34986,"is_reserved":false,"is_disabled":false,"rental_uris":{"android":"levelo://app?vid=8bb0d554-3dd8-4daa-b504-8ed1f0dad155","ios":"levelo://app?vid=8bb0d554-3dd8-4daa-b504-8ed1f0dad155"},"vehicle_type_id":"4","last_reported":1781296826,"current_range_meters":3200,"station_id":"ce4bhbh2rcd13ifvqepg","pricing_plan_id":"cebpf4jnsgd1na2vs0mg"},{"bike_id":"8e603741-2779-4d4d-a97c-177d28fd1026","system_id":"levelo_inurba_marseille","lat":43.28727,"lon":5.39988,"is_reserved":false,"is_disabled":false,"rental_uris":{"android":"levelo://app?vid=8e603741-2779-4d4d-a97c-177d28fd1026","ios":"levelo://app?vid=8e603741-2779-4d4d-a97c-177d28fd1026"},"vehicle_type_id":"4","last_reported":1781296826,"current_range_meters":3200,"station_id":"ce4bho92rcd13ifvqh3g","pricing_plan_id":"cebpf4jnsgd1na2vs0mg"},{"bike_id":"6d7ea876-ff49-4598-95d5-d8ad5a5b16aa","system_id":"levelo_inurba_marseille","lat":43.29271,"lon":5.38426,"is_reserved":false,"is_disabled":false,"rental_uris":{"android":"levelo://app?vid=6d7ea876-ff49-4598-95d5-d8ad5a5b16aa","ios":"levelo://app?vid=6d7ea876-ff49-4598-95d5-d8ad5a5b16aa"},"vehicle_type_id":"4","last_reported":1781296826,"current_range_meters":3200,"station_id":"ce4bh692rcd13ifvqea0","pricing_plan_id":"cebpf4jnsgd1na2vs0mg"},{"bike_id":"2b93ae1e-aed2-4f09-a1d5-207d27d2dd0d","system_id":"levelo_inurba_marseille","lat":43.24498,"lon":5.42514,"is_reserved":false,"is_disabled":false,"rental_uris":{"android":"levelo://app?vid=2b93ae1e-aed2-4f09-a1d5-207d27d2dd0d","ios":"levelo://app?vid=2b93ae1e-aed2-4f09-a1d5-207d27d2dd0d"},"vehicle_type_id":"4","last_reported":1781296826,"current_range_meters":3200,"station_id":"st_d4a3vfp97mjs738cd8kg","pricing_plan_id":"cebpf4jnsgd1na2vs0mg"},{"bike_id":"7c307ebc-aea8-4c74-801b-203d11055b3c","system_id":"levelo_inurba_marseille","lat":43.299,"lon":5.42791,"is_reserved":false,"is_disabled":false,"rental_uris":{"android":"levelo://app?vid=7c307ebc-aea8-4c74-801b-203d11055b3c","ios":"levelo://app?vid=7c307ebc-aea8-4c74-801b-203d11055b3c"},"vehicle_type_id":"4","last_reported":1781296826,"current_range_meters":3200,"station_id":"","pricing_plan_id":"cebpf4jnsgd1na2vs0mg"},{"bike_id":"0a247f79-5c46-4ba8-b4e6-ff79bedb3de0","system_id":"levelo_inurba_marseille","lat":43.28613,"lon":5.35099,"is_reserved":false,"is_disabled":false,"rental_uris":{"android":"levelo://app?vid=0a247f79-5c46-4ba8-b4e6-ff79bedb3de0","ios":"levelo://app?vid=0a247f79-5c46-4ba8-b4e6-ff79bedb3de0"},"vehicle_type_id":"4","last_reported":1781296826,"current_range_meters":3200,"station_id":"ce4bhch2rcd13ifvqeug","pricing_plan_id":"cebpf4jnsgd1na2vs0mg"},{"bike_id":"2fe78ccb-070f-432a-a7e8-216efa06d701","system_id":"levelo_inurba_marseille","lat":43.28581,"lon":5.42982,"is_reserved":false,"is_disabled":false,"rental_uris":{"android":"levelo://app?vid=2fe78ccb-070f-432a-a7e8-216efa06d701","ios":"levelo://app?vid=2fe78ccb-070f-432a-a7e8-216efa06d701"},"vehicle_type_id":"4","last_reported":1781296826,"current_range_meters":3200,"station_id":"","pricing_plan_id":"cebpf4jnsgd1na2vs0mg"},{"bike_id":"f0fd0361-f31f-49cf-b700-8653d29b5d8e","system_id":"levelo_inurba_marseille","lat":43.248,"lon":5.37462,"is_reserved":false,"is_disabled":false,"rental_uris":{"android":"levelo://app?vid=f0fd0361-f31f-49cf-b700-8653d29b5d8e","ios":"levelo://app?vid=f0fd0361-f31f-49cf-b700-8653d29b5d8e"},"vehicle_type_id":"4","last_reported":1781296826,"current_range_meters":3200,"station_id":"ce4bhgh2rcd13ifvqfb0","pricing_plan_id":"cebpf4jnsgd1na2vs0mg"},{"bike_id":"8682f4e8-0798-4b4f-8fef-c4dc002ea1c8","system_id":"levelo_inurba_marseille","lat":43.2914,"lon":5.46115,"is_reserved":false,"is_disabled":false,"rental_uris":{"android":"levelo://app?vid=8682f4e8-0798-4b4f-8fef-c4dc002ea1c8","ios":"levelo://app?vid=8682f4e8-0798-4b4f-8fef-c4dc002ea1c8"},"vehicle_type_id":"4","last_reported":1781296826,"current_range_meters":3200,"station_id":"","pricing_plan_id":"cebpf4jnsgd1na2vs0mg"},{"bike_id":"878a072e-2b99-477e-9128-b5664b8f1a9e","system_id":"levelo_inurba_marseille","lat":43.28033,"lon":5.3695,"is_reserved":false,"is_disabled":false,"rental_uris":{"android":"levelo://app?vid=878a072e-2b99-477e-9128-b5664b8f1a9e","ios":"levelo://app?vid=878a072e-2b99-477e-9128-b5664b8f1a9e"},"vehicle_type_id":"4","last_reported":1781296826,"current_range_meters":3200,"station_id":"ce4bha12rcd13ifvqef0","pricing_plan_id":"cebpf4jnsgd1na2vs0mg"},{"bike_id":"75248494-6e46-4c4b-92d2-9db9ddbe9016","system_id":"levelo_inurba_marseille","lat":43.28475,"lon":5.48384,"is_reserved":false,"is_disabled":false,"rental_uris":{"android":"levelo://app?vid=75248494-6e46-4c4b-92d2-9db9ddbe9016","ios":"levelo://app?vid=75248494-6e46-4c4b-92d2-9db9ddbe9016"},"vehicle_type_id":"4","last_reported":1781296826,"current_range_meters":3200,"station_id":"st_d3svhcjqgbts73a3dn0g","pricing_plan_id":"cebpf4jnsgd1na2vs0mg"},{"bike_id":"6da9d7b9-df5d-4b67-8801-335c3ab0f33c","system_id":"levelo_inurba_marseille","lat":43.23964,"lon":5.36628,"is_reserved":false,"is_disabled":false,"rental_uris":{"android":"levelo://app?vid=6da9d7b9-df5d-4b67-8801-335c3ab0f33c","ios":"levelo://app?vid=6da9d7b9-df5d-4b67-8801-335c3ab0f33c"},"vehicle_type_id":"4","last_reported":1781296826,"current_range_meters":3200,"station_id":"ce4bhi12rcd13ifvqfp0","pricing_plan_id":"cebpf4jnsgd1na2vs0mg"},{"bike_id":"02779e87-7950-4b3e-a0cb-69ad55469255","system_id":"levelo_inurba_marseille","lat":43.30913,"lon":5.38276,"is_reserved":false,"is_disabled":false,"rental_uris":{"android":"levelo://app?vid=02779e87-7950-4b3e-a0cb-69ad55469255","ios":"levelo://app?vid=02779e87-7950-4b3e-a0cb-69ad55469255"},"vehicle_type_id":"4","last_reported":1781296826,"current_range_meters":3200,"station_id":"","pricing_plan_id":"cebpf4jnsgd1na2vs0mg"},{"bike_id":"26ec08c6-0088-4574-b89f-579ba5665af6","system_id":"levelo_inurba_marseille","lat":43.26694,"lon":5.38255,"is_reserved":false,"is_disabled":false,"rental_uris":{"android":"levelo://app?vid=26ec08c6-0088-4574-b89f-579ba5665af6","ios":"levelo://app?vid=26ec08c6-0088-4574-b89f-579ba5665af6"},"vehicle_type_id":"4","last_reported":1781296826,"current_range_meters":3200,"station_id":"ce4bhg92rcd13ifvqf90","pricing_plan_id":"cebpf4jnsgd1na2vs0mg"},{"bike_id":"18c8e055-2916-4de1-97f8-041ec745c7a4","system_id":"levelo_inurba_marseille","lat":43.25821,"lon":5.39428,"is_reserved":false,"is_disabled":false,"rental_uris":{"android":"levelo://app?vid=18c8e055-2916-4de1-97f8-041ec745c7a4","ios":"levelo://app?vid=18c8e055-2916-4de1-97f8-041ec745c7a4"},"vehicle_type_id":"4","last_reported":1781296826,"current_range_meters":3200,"station_id":"ce4bhip2rcd13ifvqft0","pricing_plan_id":"cebpf4jnsgd1na2vs0mg"},{"bike_id":"cfca987a-456e-47df-a095-b63382c88e43","system_id":"levelo_inurba_marseille","lat":43.23204,"lon":5.35551,"is_reserved":false,"is_disabled":false,"rental_uris":{"android":"levelo://app?vid=cfca987a-456e-47df-a095-b63382c88e43","ios":"levelo://app?vid=cfca987a-456e-47df-a095-b63382c88e43"},"vehicle_type_id":"4","last_reported":1781296826,"current_range_meters":3600,"station_id":"ce4bhu92rcd13ifvqi70","pricing_plan_id":"cebpf4jnsgd1na2vs0mg"},{"bike_id":"2a192182-021b-439d-a0e2-993561972500","system_id":"levelo_inurba_marseille","lat":43.225345,"lon":5.348271,"is_reserved":false,"is_disabled":false,"rental_uris":{"android":"levelo://app?vid=2a192182-021b-439d-a0e2-993561972500","ios":"levelo://app?vid=2a192182-021b-439d-a0e2-993561972500"},"vehicle_type_id":"4","last_reported":1781296826,"current_range_meters":3600,"station_id":"st_cvj5dfep6f1abm77gieg","pricing_plan_id":"cebpf4jnsgd1na2vs0mg"},{"bike_id":"40877921-cf64-4231-b6a7-7f65220da3fe","system_id":"levelo_inurba_marseille","lat":43.295958,"lon":5.381012,"is_reserved":false,"is_disabled":true,"rental_uris":{"android":"levelo://app?vid=40877921-cf64-4231-b6a7-7f65220da3fe","ios":"levelo://app?vid=40877921-cf64-4231-b6a7-7f65220da3fe"},"vehicle_type_id":"4","last_reported":1781296826,"current_range_meters":3600,"station_id":"ce4bgl12rcd13ifvqbo0","pricing_plan_id":"cebpf4jnsgd1na2vs0mg"},{"bike_id":"f6f4f86c-9b37-4ce7-9093-9ca625094014","system_id":"levelo_inurba_marseille","lat":43.28857,"lon":5.42525,"is_reserved":false,"is_disabled":false,"rental_uris":{"android":"levelo://app?vid=f6f4f86c-9b37-4ce7-9093-9ca625094014","ios":"levelo://app?vid=f6f4f86c-9b37-4ce7-9093-9ca625094014"},"vehicle_type_id":"4","last_reported":1781296826,"current_range_meters":3600,"station_id":"st_d3b462108ojc7389ooeg","pricing_plan_id":"cebpf4jnsgd1na2vs0mg"},{"bike_id":"3643eb2e-b0e4-40f6-9aa2-b567c4963540","system_id":"levelo_inurba_marseille","lat":43.32105,"lon":5.36788,"is_reserved":false,"is_disabled":false,"rental_uris":{"android":"levelo://app?vid=3643eb2e-b0e4-40f6-9aa2-b567c4963540","ios":"levelo://app?vid=3643eb2e-b0e4-40f6-9aa2-b567c4963540"},"vehicle_type_id":"4","last_reported":1781296826,"current_range_meters":3600,"station_id":"ce4bhrh2rcd13ifvqhug","pricing_plan_id":"cebpf4jnsgd1na2vs0mg"},{"bike_id":"f63e0e69-6a54-4e19-8d8e-f67680de3ed1","system_id":"levelo_inurba_marseille","lat":43.2463,"lon":5.43144,"is_reserved":false,"is_disabled":false,"rental_uris":{"android":"levelo://app?vid=f63e0e69-6a54-4e19-8d8e-f67680de3ed1","ios":"levelo://app?vid=f63e0e69-6a54-4e19-8d8e-f67680de3ed1"},"vehicle_type_id":"4","last_reported":1781296826,"current_range_meters":3600,"station_id":"st_d2m6c4gdas8pm72e190g","pricing_plan_id":"cebpf4jnsgd1na2vs0mg"},{"bike_id":"e68fddf3-c826-4b80-8260-df958ad54400","system_id":"levelo_inurba_marseille","lat":43.26399,"lon":5.37822,"is_reserved":false,"is_disabled":false,"rental_uris":{"android":"levelo://app?vid=e68fddf3-c826-4b80-8260-df958ad54400","ios":"levelo://app?vid=e68fddf3-c826-4b80-8260-df958ad54400"},"vehicle_type_id":"4","last_reported":1781296826,"current_range_meters":3600,"station_id":"st_d163nis0mtpqnht9uue0","pricing_plan_id":"cebpf4jnsgd1na2vs0mg"},{"bike_id":"03ed1c88-c162-4cd3-88f1-4f550c76654e","system_id":"levelo_inurba_marseille","lat":43.237812,"lon":5.366261,"is_reserved":false,"is_disabled":false,"rental_uris":{"android":"levelo://app?vid=03ed1c88-c162-4cd3-88f1-4f550c76654e","ios":"levelo://app?vid=03ed1c88-c162-4cd3-88f1-4f550c76654e"},"vehicle_type_id":"4","last_reported":1781296826,"current_range_meters":3600,"station_id":"st_d3nk18o9ro0c73en2l3g","pricing_plan_id":"cebpf4jnsgd1na2vs0mg"},{"bike_id":"f1a562e5-8cff-449a-bdbb-a7b0c70c969e","system_id":"levelo_inurba_marseille","lat":43.29063,"lon":5.38115,"is_reserved":false,"is_disabled":true,"rental_uris":{"android":"levelo://app?vid=f1a562e5-8cff-449a-bdbb-a7b0c70c969e","ios":"levelo://app?vid=f1a562e5-8cff-449a-bdbb-a7b0c70c969e"},"vehicle_type_id":"4","last_reported":1781296826,"current_range_meters":3600,"station_id":"ce4bh512rcd13ifvqe2g","pricing_plan_id":"cebpf4jnsgd1na2vs0mg"},{"bike_id":"3922a396-c5f6-4a26-bc3c-50942816827d","system_id":"levelo_inurba_marseille","lat":43.26224,"lon":5.40458,"is_reserved":false,"is_disabled":false,"rental_uris":{"android":"levelo://app?vid=3922a396-c5f6-4a26-bc3c-50942816827d","ios":"levelo://app?vid=3922a396-c5f6-4a26-bc3c-50942816827d"},"vehicle_type_id":"4","last_reported":1781296826,"current_range_meters":3600,"station_id":"ce4bhmh2rcd13ifvqgmg","pricing_plan_id":"cebpf4jnsgd1na2vs0mg"},{"bike_id":"0be4dcf9-0deb-43a2-933c-3f878dba03b4","system_id":"levelo_inurba_marseille","lat":43.276729,"lon":5.38878,"is_reserved":false,"is_disabled":false,"rental_uris":{"android":"levelo://app?vid=0be4dcf9-0deb-43a2-933c-3f878dba03b4","ios":"levelo://app?vid=0be4dcf9-0deb-43a2-933c-3f878dba03b4"},"vehicle_type_id":"4","last_reported":1781296826,"current_range_meters":3600,"station_id":"ce4bhi12rcd13ifvqfo0","pricing_plan_id":"cebpf4jnsgd1na2vs0mg"},{"bike_id":"3a44773b-a64a-45f6-9197-56969bf49878","system_id":"levelo_inurba_marseille","lat":43.29702,"lon":5.37052,"is_reserved":false,"is_disabled":false,"rental_uris":{"android":"levelo://app?vid=3a44773b-a64a-45f6-9197-56969bf49878","ios":"levelo://app?vid=3a44773b-a64a-45f6-9197-56969bf49878"},"vehicle_type_id":"4","last_reported":1781296826,"current_range_meters":3600,"station_id":"","pricing_plan_id":"cebpf4jnsgd1na2vs0mg"},{"bike_id":"ce2246e6-ff7a-4520-8507-c76904475225","system_id":"levelo_inurba_marseille","lat":43.307883,"lon":5.376338,"is_reserved":false,"is_disabled":false,"rental_uris":{"android":"levelo://app?vid=ce2246e6-ff7a-4520-8507-c76904475225","ios":"levelo://app?vid=ce2246e6-ff7a-4520-8507-c76904475225"},"vehicle_type_id":"4","last_reported":1781296826,"current_range_meters":3600,"station_id":"ce4bgv92rcd13ifvqcq0","pricing_plan_id":"cebpf4jnsgd1na2vs0mg"},{"bike_id":"ed9ba03f-23a2-42a9-8b6d-2f3a977e4a50","system_id":"levelo_inurba_marseille","lat":43.29373,"lon":5.37848,"is_reserved":false,"is_disabled":false,"rental_uris":{"android":"levelo://app?vid=ed9ba03f-23a2-42a9-8b6d-2f3a977e4a50","ios":"levelo://app?vid=ed9ba03f-23a2-42a9-8b6d-2f3a977e4a50"},"vehicle_type_id":"4","last_reported":1781296826,"current_range_meters":3600,"station_id":"ce4bgjh2rcd13ifvqbf0","pricing_plan_id":"cebpf4jnsgd1na2vs0mg"},{"bike_id":"c01f2a41-d46f-4c92-9bf7-b941d7cdc517","system_id":"levelo_inurba_marseille","lat":43.32475,"lon":5.38256,"is_reserved":false,"is_disabled":false,"rental_uris":{"android":"levelo://app?vid=c01f2a41-d46f-4c92-9bf7-b941d7cdc517","ios":"levelo://app?vid=c01f2a41-d46f-4c92-9bf7-b941d7cdc517"},"vehicle_type_id":"4","last_reported":1781296826,"current_range_meters":3600,"station_id":"st_d4asgbiv49dc73anf9m0","pricing_plan_id":"cebpf4jnsgd1na2vs0mg"},{"bike_id":"004b415f-b0f2-44c3-aabf-3bd9683d1147","system_id":"levelo_inurba_marseille","lat":43.26245,"lon":5.38747,"is_reserved":false,"is_disabled":false,"rental_uris":{"android":"levelo://app?vid=004b415f-b0f2-44c3-aabf-3bd9683d1147","ios":"levelo://app?vid=004b415f-b0f2-44c3-aabf-3bd9683d1147"},"vehicle_type_id":"4","last_reported":1781296826,"current_range_meters":3600,"station_id":"st_d8gjfg747rts73coq3b0","pricing_plan_id":"cebpf4jnsgd1na2vs0mg"},{"bike_id":"569126d3-1a96-45bc-b1a0-1c0adbbbf74d","system_id":"levelo_inurba_marseille","lat":43.27917,"lon":5.39604,"is_reserved":false,"is_disabled":false,"rental_uris":{"android":"levelo://app?vid=569126d3-1a96-45bc-b1a0-1c0adbbbf74d","ios":"levelo://app?vid=569126d3-1a96-45bc-b1a0-1c0adbbbf74d"},"vehicle_type_id":"4","last_reported":1781296826,"current_range_meters":4000,"station_id":"ce4bhf92rcd13ifvqf40","pricing_plan_id":"cebpf4jnsgd1na2vs0mg"},{"bike_id":"9a7db7eb-8c9c-4ee4-93d9-c9ef675fea88","system_id":"levelo_inurba_marseille","lat":43.33751,"lon":5.37449,"is_reserved":false,"is_disabled":true,"rental_uris":{"android":"levelo://app?vid=9a7db7eb-8c9c-4ee4-93d9-c9ef675fea88","ios":"levelo://app?vid=9a7db7eb-8c9c-4ee4-93d9-c9ef675fea88"},"vehicle_type_id":"4","last_reported":1781296826,"current_range_meters":4000,"station_id":"","pricing_plan_id":"cebpf4jnsgd1na2vs0mg"},{"bike_id":"bad21f0b-d2fb-41b9-8474-ef247551b4fe","system_id":"levelo_inurba_marseille","lat":43.29598,"lon":5.38096,"is_reserved":false,"is_disabled":false,"rental_uris":{"android":"levelo://app?vid=bad21f0b-d2fb-41b9-8474-ef247551b4fe","ios":"levelo://app?vid=bad21f0b-d2fb-41b9-8474-ef247551b4fe"},"vehicle_type_id":"4","last_reported":1781296826,"current_range_meters":4000,"station_id":"ce4bgl12rcd13ifvqbo0","pricing_plan_id":"cebpf4jnsgd1na2vs0mg"},{"bike_id":"71e673c1-4feb-446e-b58c-e0535f27ae14","system_id":"levelo_inurba_marseille","lat":43.31738,"lon":5.39058,"is_reserved":false,"is_disabled":false,"rental_uris":{"android":"levelo://app?vid=71e673c1-4feb-446e-b58c-e0535f27ae14","ios":"levelo://app?vid=71e673c1-4feb-446e-b58c-e0535f27ae14"},"vehicle_type_id":"4","last_reported":1781296826,"current_range_meters":4000,"station_id":"ce4bhqp2rcd13ifvqhng","pricing_plan_id":"cebpf4jnsgd1na2vs0mg"},{"bike_id":"8b6b68f1-e508-4aca-8408-2e25b4d6ced5","system_id":"levelo_inurba_marseille","lat":43.21193,"lon":5.35089,"is_reserved":false,"is_disabled":false,"rental_uris":{"android":"levelo://app?vid=8b6b68f1-e508-4aca-8408-2e25b4d6ced5","ios":"levelo://app?vid=8b6b68f1-e508-4aca-8408-2e25b4d6ced5"},"vehicle_type_id":"4","last_reported":1781296826,"current_range_meters":4000,"station_id":"st_cvj6sg6p6f1abm77japg","pricing_plan_id":"cebpf4jnsgd1na2vs0mg"},{"bike_id":"40de0209-043c-4ed6-84c3-7ac1da5cf58d","system_id":"levelo_inurba_marseille","lat":43.32101,"lon":5.36761,"is_reserved":false,"is_disabled":false,"rental_uris":{"android":"levelo://app?vid=40de0209-043c-4ed6-84c3-7ac1da5cf58d","ios":"levelo://app?vid=40de0209-043c-4ed6-84c3-7ac1da5cf58d"},"vehicle_type_id":"4","last_reported":1781296826,"current_range_meters":4000,"station_id":"ce4bhrh2rcd13ifvqhug","pricing_plan_id":"cebpf4jnsgd1na2vs0mg"},{"bike_id":"7c3c9798-9b75-4378-9f94-0bdd0c17f02c","system_id":"levelo_inurba_marseille","lat":43.24663,"lon":5.38157,"is_reserved":false,"is_disabled":false,"rental_uris":{"android":"levelo://app?vid=7c3c9798-9b75-4378-9f94-0bdd0c17f02c","ios":"levelo://app?vid=7c3c9798-9b75-4378-9f94-0bdd0c17f02c"},"vehicle_type_id":"4","last_reported":1781296826,"current_range_meters":4000,"station_id":"ce4bhih2rcd13ifvqfr0","pricing_plan_id":"cebpf4jnsgd1na2vs0mg"},{"bike_id":"e701585c-89d0-4eaf-8626-265210c3ee56","system_id":"levelo_inurba_marseille","lat":43.29816,"lon":5.38058,"is_reserved":false,"is_disabled":false,"rental_uris":{"android":"levelo://app?vid=e701585c-89d0-4eaf-8626-265210c3ee56","ios":"levelo://app?vid=e701585c-89d0-4eaf-8626-265210c3ee56"},"vehicle_type_id":"4","last_reported":1781296826,"current_range_meters":4000,"station_id":"ce4bgip2rcd13ifvqbb0","pricing_plan_id":"cebpf4jnsgd1na2vs0mg"},{"bike_id":"23f38097-faae-4eac-9b32-b89e2f9db578","system_id":"levelo_inurba_marseille","lat":43.30874,"lon":5.39646,"is_reserved":false,"is_disabled":false,"rental_uris":{"android":"levelo://app?vid=23f38097-faae-4eac-9b32-b89e2f9db578","ios":"levelo://app?vid=23f38097-faae-4eac-9b32-b89e2f9db578"},"vehicle_type_id":"4","last_reported":1781296826,"current_range_meters":4000,"station_id":"ce4bh012rcd13ifvqcv0","pricing_plan_id":"cebpf4jnsgd1na2vs0mg"},{"bike_id":"93c1c78b-8af7-405b-b0f0-87a2658f66d3","system_id":"levelo_inurba_marseille","lat":43.28404,"lon":5.37524,"is_reserved":false,"is_disabled":false,"rental_uris":{"android":"levelo://app?vid=93c1c78b-8af7-405b-b0f0-87a2658f66d3","ios":"levelo://app?vid=93c1c78b-8af7-405b-b0f0-87a2658f66d3"},"vehicle_type_id":"4","last_reported":1781296826,"current_range_meters":4000,"station_id":"ce4bh412rcd13ifvqds0","pricing_plan_id":"cebpf4jnsgd1na2vs0mg"},{"bike_id":"6ba7ac05-0426-4d69-b420-c648862de664","system_id":"levelo_inurba_marseille","lat":43.30887,"lon":5.39655,"is_reserved":false,"is_disabled":false,"rental_uris":{"android":"levelo://app?vid=6ba7ac05-0426-4d69-b420-c648862de664","ios":"levelo://app?vid=6ba7ac05-0426-4d69-b420-c648862de664"},"vehicle_type_id":"4","last_reported":1781296826,"current_range_meters":4000,"station_id":"ce4bh012rcd13ifvqcv0","pricing_plan_id":"cebpf4jnsgd1na2vs0mg"},{"bike_id":"263da845-97bb-476a-b58b-c1db1ba25e78","system_id":"levelo_inurba_marseille","lat":43.28705,"lon":5.39979,"is_reserved":false,"is_disabled":false,"rental_uris":{"android":"levelo://app?vid=263da845-97bb-476a-b58b-c1db1ba25e78","ios":"levelo://app?vid=263da845-97bb-476a-b58b-c1db1ba25e78"},"vehicle_type_id":"4","last_reported":1781296826,"current_range_meters":4000,"station_id":"ce4bho92rcd13ifvqh3g","pricing_plan_id":"cebpf4jnsgd1na2vs0mg"},{"bike_id":"fe204d01-8f1a-4ced-94f9-a01089ec6357","system_id":"levelo_inurba_marseille","lat":43.29568,"lon":5.37522,"is_reserved":false,"is_disabled":false,"rental_uris":{"android":"levelo://app?vid=fe204d01-8f1a-4ced-94f9-a01089ec6357","ios":"levelo://app?vid=fe204d01-8f1a-4ced-94f9-a01089ec6357"},"vehicle_type_id":"4","last_reported":1781296826,"current_range_meters":4000,"station_id":"ce4bgh92rcd13ifvqb50","pricing_plan_id":"cebpf4jnsgd1na2vs0mg"},{"bike_id":"b71af7c2-4d98-4630-86ae-a4a165ba23e9","system_id":"levelo_inurba_marseille","lat":43.28865,"lon":5.3767,"is_reserved":false,"is_disabled":false,"rental_uris":{"android":"levelo://app?vid=b71af7c2-4d98-4630-86ae-a4a165ba23e9","ios":"levelo://app?vid=b71af7c2-4d98-4630-86ae-a4a165ba23e9"},"vehicle_type_id":"4","last_reported":1781296826,"current_range_meters":4400,"station_id":"","pricing_plan_id":"cebpf4jnsgd1na2vs0mg"},{"bike_id":"c4fbf366-2afe-477b-bf19-5b900f4439d8","system_id":"levelo_inurba_marseille","lat":43.29552,"lon":5.39983,"is_reserved":false,"is_disabled":false,"rental_uris":{"android":"levelo://app?vid=c4fbf366-2afe-477b-bf19-5b900f4439d8","ios":"levelo://app?vid=c4fbf366-2afe-477b-bf19-5b900f4439d8"},"vehicle_type_id":"4","last_reported":1781296826,"current_range_meters":4400,"station_id":"ce4bh312rcd13ifvqdj0","pricing_plan_id":"cebpf4jnsgd1na2vs0mg"},{"bike_id":"3b71f69c-10a9-42f7-b498-d318b5adcb6f","system_id":"levelo_inurba_marseille","lat":43.30246,"lon":5.40117,"is_reserved":false,"is_disabled":false,"rental_uris":{"android":"levelo://app?vid=3b71f69c-10a9-42f7-b498-d318b5adcb6f","ios":"levelo://app?vid=3b71f69c-10a9-42f7-b498-d318b5adcb6f"},"vehicle_type_id":"4","last_reported":1781296826,"current_range_meters":4400,"station_id":"ce4bgvh2rcd13ifvqcs0","pricing_plan_id":"cebpf4jnsgd1na2vs0mg"},{"bike_id":"b83be4d3-06f4-4b3e-9ba2-a6d47abaf96e","system_id":"levelo_inurba_marseille","lat":43.29264,"lon":5.37621,"is_reserved":false,"is_disabled":true,"rental_uris":{"android":"levelo://app?vid=b83be4d3-06f4-4b3e-9ba2-a6d47abaf96e","ios":"levelo://app?vid=b83be4d3-06f4-4b3e-9ba2-a6d47abaf96e"},"vehicle_type_id":"4","last_reported":1781296826,"current_range_meters":4400,"station_id":"ce4bgi12rcd13ifvqb80","pricing_plan_id":"cebpf4jnsgd1na2vs0mg"},{"bike_id":"0889d115-661d-4ea3-a70a-090f92bb1173","system_id":"levelo_inurba_marseille","lat":43.29277,"lon":5.40125,"is_reserved":false,"is_disabled":false,"rental_uris":{"android":"levelo://app?vid=0889d115-661d-4ea3-a70a-090f92bb1173","ios":"levelo://app?vid=0889d115-661d-4ea3-a70a-090f92bb1173"},"vehicle_type_id":"4","last_reported":1781296826,"current_range_meters":4400,"station_id":"ce4bh312rcd13ifvqdk0","pricing_plan_id":"cebpf4jnsgd1na2vs0mg"},{"bike_id":"f7698676-1932-4dbf-ab9d-6c907c9bbe14","system_id":"levelo_inurba_marseille","lat":43.31886,"lon":5.37143,"is_reserved":false,"is_disabled":false,"rental_uris":{"android":"levelo://app?vid=f7698676-1932-4dbf-ab9d-6c907c9bbe14","ios":"levelo://app?vid=f7698676-1932-4dbf-ab9d-6c907c9bbe14"},"vehicle_type_id":"4","last_reported":1781296826,"current_range_meters":4400,"station_id":"","pricing_plan_id":"cebpf4jnsgd1na2vs0mg"},{"bike_id":"8afeb7a8-b686-4611-8220-2ade2d33c717","system_id":"levelo_inurba_marseille","lat":43.2961,"lon":5.37718,"is_reserved":false,"is_disabled":true,"rental_uris":{"android":"levelo://app?vid=8afeb7a8-b686-4611-8220-2ade2d33c717","ios":"levelo://app?vid=8afeb7a8-b686-4611-8220-2ade2d33c717"},"vehicle_type_id":"4","last_reported":1781296826,"current_range_meters":4400,"station_id":"ce4bgi92rcd13ifvqb90","pricing_plan_id":"cebpf4jnsgd1na2vs0mg"},{"bike_id":"3fd18870-63e0-4195-960e-3e018f65896c","system_id":"levelo_inurba_marseille","lat":43.26188,"lon":5.37448,"is_reserved":false,"is_disabled":false,"rental_uris":{"android":"levelo://app?vid=3fd18870-63e0-4195-960e-3e018f65896c","ios":"levelo://app?vid=3fd18870-63e0-4195-960e-3e018f65896c"},"vehicle_type_id":"4","last_reported":1781296826,"current_range_meters":4400,"station_id":"ce4bhgp2rcd13ifvqfc0","pricing_plan_id":"cebpf4jnsgd1na2vs0mg"},{"bike_id":"edd7f6cf-c00d-4334-ba4f-ddda86c6a12e","system_id":"levelo_inurba_marseille","lat":43.30279,"lon":5.37686,"is_reserved":false,"is_disabled":false,"rental_uris":{"android":"levelo://app?vid=edd7f6cf-c00d-4334-ba4f-ddda86c6a12e","ios":"levelo://app?vid=edd7f6cf-c00d-4334-ba4f-ddda86c6a12e"},"vehicle_type_id":"4","last_reported":1781296826,"current_range_meters":4400,"station_id":"ce4bguh2rcd13ifvqcj0","pricing_plan_id":"cebpf4jnsgd1na2vs0mg"},{"bike_id":"899fc967-7875-4bbe-9778-4c7d3ea1d62e","system_id":"levelo_inurba_marseille","lat":43.29092,"lon":5.38793,"is_reserved":false,"is_disabled":false,"rental_uris":{"android":"levelo://app?vid=899fc967-7875-4bbe-9778-4c7d3ea1d62e","ios":"levelo://app?vid=899fc967-7875-4bbe-9778-4c7d3ea1d62e"},"vehicle_type_id":"4","last_reported":1781296826,"current_range_meters":4400,"station_id":"","pricing_plan_id":"cebpf4jnsgd1na2vs0mg"},{"bike_id":"4a74c3d7-7b3b-4e0f-b22c-08bc2b7973f0","system_id":"levelo_inurba_marseille","lat":43.29525,"lon":5.38535,"is_reserved":false,"is_disabled":false,"rental_uris":{"android":"levelo://app?vid=4a74c3d7-7b3b-4e0f-b22c-08bc2b7973f0","ios":"levelo://app?vid=4a74c3d7-7b3b-4e0f-b22c-08bc2b7973f0"},"vehicle_type_id":"4","last_reported":1781296826,"current_range_meters":4400,"station_id":"ce4bgih2rcd13ifvqba0","pricing_plan_id":"cebpf4jnsgd1na2vs0mg"},{"bike_id":"cef246f7-529a-421c-b091-401c74da4e20","system_id":"levelo_inurba_marseille","lat":43.28936,"lon":5.39634,"is_reserved":false,"is_disabled":false,"rental_uris":{"android":"levelo://app?vid=cef246f7-529a-421c-b091-401c74da4e20","ios":"levelo://app?vid=cef246f7-529a-421c-b091-401c74da4e20"},"vehicle_type_id":"4","last_reported":1781296826,"current_range_meters":4400,"station_id":"ce4bh3h2rcd13ifvqdn0","pricing_plan_id":"cebpf4jnsgd1na2vs0mg"},{"bike_id":"1e5f8c48-dce6-462c-9a99-251ea5543707","system_id":"levelo_inurba_marseille","lat":43.25502,"lon":5.37653,"is_reserved":false,"is_disabled":false,"rental_uris":{"android":"levelo://app?vid=1e5f8c48-dce6-462c-9a99-251ea5543707","ios":"levelo://app?vid=1e5f8c48-dce6-462c-9a99-251ea5543707"},"vehicle_type_id":"4","last_reported":1781296826,"current_range_meters":4400,"station_id":"ce4bhh12rcd13ifvqff0","pricing_plan_id":"cebpf4jnsgd1na2vs0mg"},{"bike_id":"1a706732-5203-4eb8-9878-0ee7ddc2410a","system_id":"levelo_inurba_marseille","lat":43.26347,"lon":5.37816,"is_reserved":false,"is_disabled":false,"rental_uris":{"android":"levelo://app?vid=1a706732-5203-4eb8-9878-0ee7ddc2410a","ios":"levelo://app?vid=1a706732-5203-4eb8-9878-0ee7ddc2410a"},"vehicle_type_id":"4","last_reported":1781296826,"current_range_meters":4400,"station_id":"st_d163nis0mtpqnht9uue0","pricing_plan_id":"cebpf4jnsgd1na2vs0mg"},{"bike_id":"363966a7-9ff4-4819-9047-4b04be8560bf","system_id":"levelo_inurba_marseille","lat":43.29007,"lon":5.38132,"is_reserved":false,"is_disabled":false,"rental_uris":{"android":"levelo://app?vid=363966a7-9ff4-4819-9047-4b04be8560bf","ios":"levelo://app?vid=363966a7-9ff4-4819-9047-4b04be8560bf"},"vehicle_type_id":"4","last_reported":1781296826,"current_range_meters":4800,"station_id":"ce4bh4p2rcd13ifvqe1g","pricing_plan_id":"cebpf4jnsgd1na2vs0mg"},{"bike_id":"a47caa15-5bbd-4fd9-84c1-e2018ea3f40b","system_id":"levelo_inurba_marseille","lat":43.29869,"lon":5.36234,"is_reserved":false,"is_disabled":false,"rental_uris":{"android":"levelo://app?vid=a47caa15-5bbd-4fd9-84c1-e2018ea3f40b","ios":"levelo://app?vid=a47caa15-5bbd-4fd9-84c1-e2018ea3f40b"},"vehicle_type_id":"4","last_reported":1781296826,"current_range_meters":4800,"station_id":"ce4bgpp2rcd13ifvqc3g","pricing_plan_id":"cebpf4jnsgd1na2vs0mg"},{"bike_id":"116e7e79-df73-459e-bb6d-922ab4ccb8bd","system_id":"levelo_inurba_marseille","lat":43.21194,"lon":5.35069,"is_reserved":false,"is_disabled":false,"rental_uris":{"android":"levelo://app?vid=116e7e79-df73-459e-bb6d-922ab4ccb8bd","ios":"levelo://app?vid=116e7e79-df73-459e-bb6d-922ab4ccb8bd"},"vehicle_type_id":"4","last_reported":1781296826,"current_range_meters":4800,"station_id":"st_cvj6sg6p6f1abm77japg","pricing_plan_id":"cebpf4jnsgd1na2vs0mg"},{"bike_id":"dc071c6b-42f4-46bb-9678-560eb8650fd1","system_id":"levelo_inurba_marseille","lat":43.2889,"lon":5.42507,"is_reserved":false,"is_disabled":false,"rental_uris":{"android":"levelo://app?vid=dc071c6b-42f4-46bb-9678-560eb8650fd1","ios":"levelo://app?vid=dc071c6b-42f4-46bb-9678-560eb8650fd1"},"vehicle_type_id":"4","last_reported":1781296826,"current_range_meters":4800,"station_id":"st_d3b462108ojc7389ooeg","pricing_plan_id":"cebpf4jnsgd1na2vs0mg"},{"bike_id":"9e2ab423-c4f7-4fc5-bb89-60dd4548e5f9","system_id":"levelo_inurba_marseille","lat":43.2655,"lon":5.37295,"is_reserved":false,"is_disabled":false,"rental_uris":{"android":"levelo://app?vid=9e2ab423-c4f7-4fc5-bb89-60dd4548e5f9","ios":"levelo://app?vid=9e2ab423-c4f7-4fc5-bb89-60dd4548e5f9"},"vehicle_type_id":"4","last_reported":1781296826,"current_range_meters":4800,"station_id":"ce4bhg12rcd13ifvqf70","pricing_plan_id":"cebpf4jnsgd1na2vs0mg"},{"bike_id":"b98906ac-e37f-458e-ab92-2d585c529dee","system_id":"levelo_inurba_marseille","lat":43.267873,"lon":5.394056,"is_reserved":false,"is_disabled":false,"rental_uris":{"android":"levelo://app?vid=b98906ac-e37f-458e-ab92-2d585c529dee","ios":"levelo://app?vid=b98906ac-e37f-458e-ab92-2d585c529dee"},"vehicle_type_id":"4","last_reported":1781296826,"current_range_meters":4800,"station_id":"ce4bhh12rcd13ifvqfg0","pricing_plan_id":"cebpf4jnsgd1na2vs0mg"},{"bike_id":"1092cd7f-d680-45ee-8ff2-7815bf031c7e","system_id":"levelo_inurba_marseille","lat":43.31676,"lon":5.37757,"is_reserved":false,"is_disabled":false,"rental_uris":{"android":"levelo://app?vid=1092cd7f-d680-45ee-8ff2-7815bf031c7e","ios":"levelo://app?vid=1092cd7f-d680-45ee-8ff2-7815bf031c7e"},"vehicle_type_id":"4","last_reported":1781296826,"current_range_meters":4800,"station_id":"ce4bgth2rcd13ifvqch0","pricing_plan_id":"cebpf4jnsgd1na2vs0mg"},{"bike_id":"1c444fa9-9def-4999-8bc4-4a6c72c5f742","system_id":"levelo_inurba_marseille","lat":43.26024,"lon":5.37548,"is_reserved":false,"is_disabled":false,"rental_uris":{"android":"levelo://app?vid=1c444fa9-9def-4999-8bc4-4a6c72c5f742","ios":"levelo://app?vid=1c444fa9-9def-4999-8bc4-4a6c72c5f742"},"vehicle_type_id":"4","last_reported":1781296826,"current_range_meters":4800,"station_id":"ce4bhgh2rcd13ifvqfa0","pricing_plan_id":"cebpf4jnsgd1na2vs0mg"},{"bike_id":"318c2327-cd61-4b3a-8efa-5ff92eb9038b","system_id":"levelo_inurba_marseille","lat":43.3476,"lon":5.36647,"is_reserved":false,"is_disabled":false,"rental_uris":{"android":"levelo://app?vid=318c2327-cd61-4b3a-8efa-5ff92eb9038b","ios":"levelo://app?vid=318c2327-cd61-4b3a-8efa-5ff92eb9038b"},"vehicle_type_id":"4","last_reported":1781296826,"current_range_meters":4800,"station_id":"","pricing_plan_id":"cebpf4jnsgd1na2vs0mg"},{"bike_id":"6e2438bd-db9c-44c7-817f-8838bffe7fff","system_id":"levelo_inurba_marseille","lat":43.26668,"lon":5.38282,"is_reserved":false,"is_disabled":false,"rental_uris":{"android":"levelo://app?vid=6e2438bd-db9c-44c7-817f-8838bffe7fff","ios":"levelo://app?vid=6e2438bd-db9c-44c7-817f-8838bffe7fff"},"vehicle_type_id":"4","last_reported":1781296826,"current_range_meters":4800,"station_id":"ce4bhg92rcd13ifvqf90","pricing_plan_id":"cebpf4jnsgd1na2vs0mg"},{"bike_id":"d9bbcfa4-a44d-4020-b0df-d2651b3bdf41","system_id":"levelo_inurba_marseille","lat":43.21191,"lon":5.35082,"is_reserved":false,"is_disabled":false,"rental_uris":{"android":"levelo://app?vid=d9bbcfa4-a44d-4020-b0df-d2651b3bdf41","ios":"levelo://app?vid=d9bbcfa4-a44d-4020-b0df-d2651b3bdf41"},"vehicle_type_id":"4","last_reported":1781296826,"current_range_meters":4800,"station_id":"st_cvj6sg6p6f1abm77japg","pricing_plan_id":"cebpf4jnsgd1na2vs0mg"},{"bike_id":"1cf00d28-1590-4edc-a831-e1616f52c218","system_id":"levelo_inurba_marseille","lat":43.29534,"lon":5.38545,"is_reserved":false,"is_disabled":false,"rental_uris":{"android":"levelo://app?vid=1cf00d28-1590-4edc-a831-e1616f52c218","ios":"levelo://app?vid=1cf00d28-1590-4edc-a831-e1616f52c218"},"vehicle_type_id":"4","last_reported":1781296826,"current_range_meters":4800,"station_id":"ce4bgih2rcd13ifvqba0","pricing_plan_id":"cebpf4jnsgd1na2vs0mg"},{"bike_id":"66fae40d-083e-4fda-b105-98f5ea4343f9","system_id":"levelo_inurba_marseille","lat":43.26964,"lon":5.38856,"is_reserved":false,"is_disabled":false,"rental_uris":{"android":"levelo://app?vid=66fae40d-083e-4fda-b105-98f5ea4343f9","ios":"levelo://app?vid=66fae40d-083e-4fda-b105-98f5ea4343f9"},"vehicle_type_id":"4","last_reported":1781296826,"current_range_meters":4800,"station_id":"","pricing_plan_id":"cebpf4jnsgd1na2vs0mg"},{"bike_id":"8bf99202-0aa0-4c45-a06d-a3fa999fbea6","system_id":"levelo_inurba_marseille","lat":43.3111,"lon":5.37144,"is_reserved":false,"is_disabled":true,"rental_uris":{"android":"levelo://app?vid=8bf99202-0aa0-4c45-a06d-a3fa999fbea6","ios":"levelo://app?vid=8bf99202-0aa0-4c45-a06d-a3fa999fbea6"},"vehicle_type_id":"4","last_reported":1781296826,"current_range_meters":4800,"station_id":"","pricing_plan_id":"cebpf4jnsgd1na2vs0mg"},{"bike_id":"24f02d56-4cb2-4734-b396-c4353be9b86c","system_id":"levelo_inurba_marseille","lat":43.32101,"lon":5.36771,"is_reserved":false,"is_disabled":false,"rental_uris":{"android":"levelo://app?vid=24f02d56-4cb2-4734-b396-c4353be9b86c","ios":"levelo://app?vid=24f02d56-4cb2-4734-b396-c4353be9b86c"},"vehicle_type_id":"4","last_reported":1781296826,"current_range_meters":4800,"station_id":"ce4bhrh2rcd13ifvqhug","pricing_plan_id":"cebpf4jnsgd1na2vs0mg"},{"bike_id":"a848a5d1-feb4-4560-89e7-b2ad298b123f","system_id":"levelo_inurba_marseille","lat":43.24632,"lon":5.43151,"is_reserved":false,"is_disabled":false,"rental_uris":{"android":"levelo://app?vid=a848a5d1-feb4-4560-89e7-b2ad298b123f","ios":"levelo://app?vid=a848a5d1-feb4-4560-89e7-b2ad298b123f"},"vehicle_type_id":"4","last_reported":1781296826,"current_range_meters":4800,"station_id":"st_d2m6c4gdas8pm72e190g","pricing_plan_id":"cebpf4jnsgd1na2vs0mg"},{"bike_id":"b4c0f195-58a3-456c-9ed4-e0663f1468e6","system_id":"levelo_inurba_marseille","lat":43.28265,"lon":5.37389,"is_reserved":false,"is_disabled":false,"rental_uris":{"android":"levelo://app?vid=b4c0f195-58a3-456c-9ed4-e0663f1468e6","ios":"levelo://app?vid=b4c0f195-58a3-456c-9ed4-e0663f1468e6"},"vehicle_type_id":"4","last_reported":1781296826,"current_range_meters":4800,"station_id":"","pricing_plan_id":"cebpf4jnsgd1na2vs0mg"},{"bike_id":"07a038f9-3e46-47d4-8009-d482a4aba1db","system_id":"levelo_inurba_marseille","lat":43.2511,"lon":5.40313,"is_reserved":false,"is_disabled":false,"rental_uris":{"android":"levelo://app?vid=07a038f9-3e46-47d4-8009-d482a4aba1db","ios":"levelo://app?vid=07a038f9-3e46-47d4-8009-d482a4aba1db"},"vehicle_type_id":"4","last_reported":1781296826,"current_range_meters":4800,"station_id":"ce4bhlh2rcd13ifvqgig","pricing_plan_id":"cebpf4jnsgd1na2vs0mg"},{"bike_id":"7b9ee6a4-3956-43e2-ab7f-cff515f9e40d","system_id":"levelo_inurba_marseille","lat":43.29263,"lon":5.38419,"is_reserved":false,"is_disabled":false,"rental_uris":{"android":"levelo://app?vid=7b9ee6a4-3956-43e2-ab7f-cff515f9e40d","ios":"levelo://app?vid=7b9ee6a4-3956-43e2-ab7f-cff515f9e40d"},"vehicle_type_id":"4","last_reported":1781296826,"current_range_meters":4800,"station_id":"ce4bh692rcd13ifvqea0","pricing_plan_id":"cebpf4jnsgd1na2vs0mg"},{"bike_id":"c7003374-df0a-4adf-a763-b7ffcb27c463","system_id":"levelo_inurba_marseille","lat":43.28478,"lon":5.48391,"is_reserved":false,"is_disabled":false,"rental_uris":{"android":"levelo://app?vid=c7003374-df0a-4adf-a763-b7ffcb27c463","ios":"levelo://app?vid=c7003374-df0a-4adf-a763-b7ffcb27c463"},"vehicle_type_id":"4","last_reported":1781296826,"current_range_meters":4800,"station_id":"st_d3svhcjqgbts73a3dn0g","pricing_plan_id":"cebpf4jnsgd1na2vs0mg"},{"bike_id":"d10aeada-e5bb-465f-aabb-98c102cbbc5d","system_id":"levelo_inurba_marseille","lat":43.23194,"lon":5.35528,"is_reserved":false,"is_disabled":false,"rental_uris":{"android":"levelo://app?vid=d10aeada-e5bb-465f-aabb-98c102cbbc5d","ios":"levelo://app?vid=d10aeada-e5bb-465f-aabb-98c102cbbc5d"},"vehicle_type_id":"4","last_reported":1781296826,"current_range_meters":4800,"station_id":"ce4bhu92rcd13ifvqi70","pricing_plan_id":"cebpf4jnsgd1na2vs0mg"},{"bike_id":"95a6a820-080c-4047-9edc-2eab85cc3ea0","system_id":"levelo_inurba_marseille","lat":43.31239,"lon":5.37274,"is_reserved":false,"is_disabled":false,"rental_uris":{"android":"levelo://app?vid=95a6a820-080c-4047-9edc-2eab85cc3ea0","ios":"levelo://app?vid=95a6a820-080c-4047-9edc-2eab85cc3ea0"},"vehicle_type_id":"4","last_reported":1781296826,"current_range_meters":4800,"station_id":"","pricing_plan_id":"cebpf4jnsgd1na2vs0mg"},{"bike_id":"bca5b770-b29d-49b2-982d-4ac0dbc96bc5","system_id":"levelo_inurba_marseille","lat":43.24955,"lon":5.40489,"is_reserved":false,"is_disabled":false,"rental_uris":{"android":"levelo://app?vid=bca5b770-b29d-49b2-982d-4ac0dbc96bc5","ios":"levelo://app?vid=bca5b770-b29d-49b2-982d-4ac0dbc96bc5"},"vehicle_type_id":"4","last_reported":1781296826,"current_range_meters":4800,"station_id":"st_d2ngiaodas8pm72gd1h0","pricing_plan_id":"cebpf4jnsgd1na2vs0mg"},{"bike_id":"e5823920-ad61-43d0-b095-77de39444231","system_id":"levelo_inurba_marseille","lat":43.29618,"lon":5.37729,"is_reserved":false,"is_disabled":false,"rental_uris":{"android":"levelo://app?vid=e5823920-ad61-43d0-b095-77de39444231","ios":"levelo://app?vid=e5823920-ad61-43d0-b095-77de39444231"},"vehicle_type_id":"4","last_reported":1781296826,"current_range_meters":5600,"station_id":"ce4bgi92rcd13ifvqb90","pricing_plan_id":"cebpf4jnsgd1na2vs0mg"},{"bike_id":"a771b0ba-e6fe-40dc-8f8a-30a1d88a02ab","system_id":"levelo_inurba_marseille","lat":43.29256,"lon":5.38448,"is_reserved":false,"is_disabled":false,"rental_uris":{"android":"levelo://app?vid=a771b0ba-e6fe-40dc-8f8a-30a1d88a02ab","ios":"levelo://app?vid=a771b0ba-e6fe-40dc-8f8a-30a1d88a02ab"},"vehicle_type_id":"4","last_reported":1781296826,"current_range_meters":5600,"station_id":"ce4bh692rcd13ifvqea0","pricing_plan_id":"cebpf4jnsgd1na2vs0mg"},{"bike_id":"0e737488-eea1-4c79-a09b-4e4182d3e90a","system_id":"levelo_inurba_marseille","lat":43.26214,"lon":5.38769,"is_reserved":false,"is_disabled":false,"rental_uris":{"android":"levelo://app?vid=0e737488-eea1-4c79-a09b-4e4182d3e90a","ios":"levelo://app?vid=0e737488-eea1-4c79-a09b-4e4182d3e90a"},"vehicle_type_id":"4","last_reported":1781296826,"current_range_meters":5600,"station_id":"st_d8gjfg747rts73coq3b0","pricing_plan_id":"cebpf4jnsgd1na2vs0mg"},{"bike_id":"6edb1571-ff0e-41be-86f6-ab57a8172f99","system_id":"levelo_inurba_marseille","lat":43.3211,"lon":5.36758,"is_reserved":false,"is_disabled":false,"rental_uris":{"android":"levelo://app?vid=6edb1571-ff0e-41be-86f6-ab57a8172f99","ios":"levelo://app?vid=6edb1571-ff0e-41be-86f6-ab57a8172f99"},"vehicle_type_id":"4","last_reported":1781296826,"current_range_meters":5600,"station_id":"ce4bhrh2rcd13ifvqhug","pricing_plan_id":"cebpf4jnsgd1na2vs0mg"},{"bike_id":"c4c8f592-2f0a-488a-9059-30a67bfcfd66","system_id":"levelo_inurba_marseille","lat":43.2479,"lon":5.37425,"is_reserved":false,"is_disabled":false,"rental_uris":{"android":"levelo://app?vid=c4c8f592-2f0a-488a-9059-30a67bfcfd66","ios":"levelo://app?vid=c4c8f592-2f0a-488a-9059-30a67bfcfd66"},"vehicle_type_id":"4","last_reported":1781296826,"current_range_meters":5600,"station_id":"ce4bhgh2rcd13ifvqfb0","pricing_plan_id":"cebpf4jnsgd1na2vs0mg"},{"bike_id":"1345c154-16ee-4ed3-b4f1-947a1b328d12","system_id":"levelo_inurba_marseille","lat":43.2622,"lon":5.38761,"is_reserved":false,"is_disabled":false,"rental_uris":{"android":"levelo://app?vid=1345c154-16ee-4ed3-b4f1-947a1b328d12","ios":"levelo://app?vid=1345c154-16ee-4ed3-b4f1-947a1b328d12"},"vehicle_type_id":"4","last_reported":1781296826,"current_range_meters":5600,"station_id":"st_d8gjfg747rts73coq3b0","pricing_plan_id":"cebpf4jnsgd1na2vs0mg"},{"bike_id":"5959399d-2a5a-4619-a6df-91439cbfbae4","system_id":"levelo_inurba_marseille","lat":43.27068,"lon":5.38301,"is_reserved":false,"is_disabled":false,"rental_uris":{"android":"levelo://app?vid=5959399d-2a5a-4619-a6df-91439cbfbae4","ios":"levelo://app?vid=5959399d-2a5a-4619-a6df-91439cbfbae4"},"vehicle_type_id":"4","last_reported":1781296826,"current_range_meters":5600,"station_id":"st_d3n2fo6cfp8s73cte1j0","pricing_plan_id":"cebpf4jnsgd1na2vs0mg"},{"bike_id":"6edcf1b7-92b4-40b2-b83c-f35c5e6a2231","system_id":"levelo_inurba_marseille","lat":43.25337,"lon":5.42165,"is_reserved":false,"is_disabled":false,"rental_uris":{"android":"levelo://app?vid=6edcf1b7-92b4-40b2-b83c-f35c5e6a2231","ios":"levelo://app?vid=6edcf1b7-92b4-40b2-b83c-f35c5e6a2231"},"vehicle_type_id":"4","last_reported":1781296826,"current_range_meters":5600,"station_id":"st_d2m65c5bi1j21697t3ng","pricing_plan_id":"cebpf4jnsgd1na2vs0mg"},{"bike_id":"0076731a-8e94-4558-9102-c515029dd928","system_id":"levelo_inurba_marseille","lat":43.28607,"lon":5.39871,"is_reserved":false,"is_disabled":false,"rental_uris":{"android":"levelo://app?vid=0076731a-8e94-4558-9102-c515029dd928","ios":"levelo://app?vid=0076731a-8e94-4558-9102-c515029dd928"},"vehicle_type_id":"4","last_reported":1781296826,"current_range_meters":5600,"station_id":"st_d4a7ka997mjs738ck50g","pricing_plan_id":"cebpf4jnsgd1na2vs0mg"},{"bike_id":"3eb1ee37-e347-41f2-8d65-873e103ae57e","system_id":"levelo_inurba_marseille","lat":43.26486,"lon":5.39543,"is_reserved":false,"is_disabled":false,"rental_uris":{"android":"levelo://app?vid=3eb1ee37-e347-41f2-8d65-873e103ae57e","ios":"levelo://app?vid=3eb1ee37-e347-41f2-8d65-873e103ae57e"},"vehicle_type_id":"4","last_reported":1781296826,"current_range_meters":5600,"station_id":"ce4bhi12rcd13ifvqfq0","pricing_plan_id":"cebpf4jnsgd1na2vs0mg"},{"bike_id":"7717390a-9f55-4678-b2a5-ba0a73b8a548","system_id":"levelo_inurba_marseille","lat":43.31588,"lon":5.36955,"is_reserved":false,"is_disabled":false,"rental_uris":{"android":"levelo://app?vid=7717390a-9f55-4678-b2a5-ba0a73b8a548","ios":"levelo://app?vid=7717390a-9f55-4678-b2a5-ba0a73b8a548"},"vehicle_type_id":"4","last_reported":1781296826,"current_range_meters":5600,"station_id":"","pricing_plan_id":"cebpf4jnsgd1na2vs0mg"},{"bike_id":"750d545d-9962-42b9-9a8e-d0d1cf1bbc44","system_id":"levelo_inurba_marseille","lat":43.25513,"lon":5.37672,"is_reserved":false,"is_disabled":false,"rental_uris":{"android":"levelo://app?vid=750d545d-9962-42b9-9a8e-d0d1cf1bbc44","ios":"levelo://app?vid=750d545d-9962-42b9-9a8e-d0d1cf1bbc44"},"vehicle_type_id":"4","last_reported":1781296826,"current_range_meters":5600,"station_id":"ce4bhh12rcd13ifvqff0","pricing_plan_id":"cebpf4jnsgd1na2vs0mg"},{"bike_id":"e4f3ef33-23ae-46b5-9d3f-ed3f2c6f89cf","system_id":"levelo_inurba_marseille","lat":43.26631,"lon":5.38169,"is_reserved":false,"is_disabled":false,"rental_uris":{"android":"levelo://app?vid=e4f3ef33-23ae-46b5-9d3f-ed3f2c6f89cf","ios":"levelo://app?vid=e4f3ef33-23ae-46b5-9d3f-ed3f2c6f89cf"},"vehicle_type_id":"4","last_reported":1781296826,"current_range_meters":5600,"station_id":"","pricing_plan_id":"cebpf4jnsgd1na2vs0mg"},{"bike_id":"83b97a84-3219-4b15-b3c7-d12b8693895b","system_id":"levelo_inurba_marseille","lat":43.26197,"lon":5.37449,"is_reserved":false,"is_disabled":false,"rental_uris":{"android":"levelo://app?vid=83b97a84-3219-4b15-b3c7-d12b8693895b","ios":"levelo://app?vid=83b97a84-3219-4b15-b3c7-d12b8693895b"},"vehicle_type_id":"4","last_reported":1781296826,"current_range_meters":5600,"station_id":"ce4bhgp2rcd13ifvqfc0","pricing_plan_id":"cebpf4jnsgd1na2vs0mg"},{"bike_id":"a7a8b9c4-b243-4552-8039-fd809a726e11","system_id":"levelo_inurba_marseille","lat":43.30943,"lon":5.39037,"is_reserved":false,"is_disabled":false,"rental_uris":{"android":"levelo://app?vid=a7a8b9c4-b243-4552-8039-fd809a726e11","ios":"levelo://app?vid=a7a8b9c4-b243-4552-8039-fd809a726e11"},"vehicle_type_id":"4","last_reported":1781296826,"current_range_meters":5600,"station_id":"ce4bgup2rcd13ifvqco0","pricing_plan_id":"cebpf4jnsgd1na2vs0mg"},{"bike_id":"ee494397-ad1c-4b5e-80ed-9cc6e888762d","system_id":"levelo_inurba_marseille","lat":43.31898,"lon":5.42482,"is_reserved":false,"is_disabled":false,"rental_uris":{"android":"levelo://app?vid=ee494397-ad1c-4b5e-80ed-9cc6e888762d","ios":"levelo://app?vid=ee494397-ad1c-4b5e-80ed-9cc6e888762d"},"vehicle_type_id":"4","last_reported":1781296826,"current_range_meters":5600,"station_id":"","pricing_plan_id":"cebpf4jnsgd1na2vs0mg"},{"bike_id":"76ff20aa-c2bd-4fa2-8dca-7099f4d9bbe6","system_id":"levelo_inurba_marseille","lat":43.21187,"lon":5.35071,"is_reserved":false,"is_disabled":false,"rental_uris":{"android":"levelo://app?vid=76ff20aa-c2bd-4fa2-8dca-7099f4d9bbe6","ios":"levelo://app?vid=76ff20aa-c2bd-4fa2-8dca-7099f4d9bbe6"},"vehicle_type_id":"4","last_reported":1781296826,"current_range_meters":5600,"station_id":"st_cvj6sg6p6f1abm77japg","pricing_plan_id":"cebpf4jnsgd1na2vs0mg"},{"bike_id":"41eb6a40-5c9c-4ae0-95cb-ec8052428c3d","system_id":"levelo_inurba_marseille","lat":43.26695,"lon":5.38278,"is_reserved":false,"is_disabled":false,"rental_uris":{"android":"levelo://app?vid=41eb6a40-5c9c-4ae0-95cb-ec8052428c3d","ios":"levelo://app?vid=41eb6a40-5c9c-4ae0-95cb-ec8052428c3d"},"vehicle_type_id":"4","last_reported":1781296826,"current_range_meters":6000,"station_id":"","pricing_plan_id":"cebpf4jnsgd1na2vs0mg"},{"bike_id":"4bbd9026-ac9b-4dc1-97ad-6610089734db","system_id":"levelo_inurba_marseille","lat":43.31584,"lon":5.38809,"is_reserved":false,"is_disabled":false,"rental_uris":{"android":"levelo://app?vid=4bbd9026-ac9b-4dc1-97ad-6610089734db","ios":"levelo://app?vid=4bbd9026-ac9b-4dc1-97ad-6610089734db"},"vehicle_type_id":"4","last_reported":1781296826,"current_range_meters":6000,"station_id":"","pricing_plan_id":"cebpf4jnsgd1na2vs0mg"},{"bike_id":"9355951e-b041-446b-b93e-73dce11071c1","system_id":"levelo_inurba_marseille","lat":43.30323,"lon":5.37335,"is_reserved":false,"is_disabled":false,"rental_uris":{"android":"levelo://app?vid=9355951e-b041-446b-b93e-73dce11071c1","ios":"levelo://app?vid=9355951e-b041-446b-b93e-73dce11071c1"},"vehicle_type_id":"4","last_reported":1781296826,"current_range_meters":6000,"station_id":"","pricing_plan_id":"cebpf4jnsgd1na2vs0mg"},{"bike_id":"4865a1c5-afe2-4dda-8194-f69b08d22f31","system_id":"levelo_inurba_marseille","lat":43.25577,"lon":5.38255,"is_reserved":false,"is_disabled":false,"rental_uris":{"android":"levelo://app?vid=4865a1c5-afe2-4dda-8194-f69b08d22f31","ios":"levelo://app?vid=4865a1c5-afe2-4dda-8194-f69b08d22f31"},"vehicle_type_id":"4","last_reported":1781296826,"current_range_meters":6000,"station_id":"ce4bhih2rcd13ifvqfs0","pricing_plan_id":"cebpf4jnsgd1na2vs0mg"},{"bike_id":"df241b3d-3790-49dc-b436-dad3f86c24a5","system_id":"levelo_inurba_marseille","lat":43.28364,"lon":5.38078,"is_reserved":false,"is_disabled":false,"rental_uris":{"android":"levelo://app?vid=df241b3d-3790-49dc-b436-dad3f86c24a5","ios":"levelo://app?vid=df241b3d-3790-49dc-b436-dad3f86c24a5"},"vehicle_type_id":"4","last_reported":1781296826,"current_range_meters":6000,"station_id":"ce4bh412rcd13ifvqdr0","pricing_plan_id":"cebpf4jnsgd1na2vs0mg"},{"bike_id":"7da39971-3362-423d-90d4-6678fb39a439","system_id":"levelo_inurba_marseille","lat":43.2995,"lon":5.38524,"is_reserved":false,"is_disabled":false,"rental_uris":{"android":"levelo://app?vid=7da39971-3362-423d-90d4-6678fb39a439","ios":"levelo://app?vid=7da39971-3362-423d-90d4-6678fb39a439"},"vehicle_type_id":"4","last_reported":1781296826,"current_range_meters":6000,"station_id":"ce4bgj92rcd13ifvqbd0","pricing_plan_id":"cebpf4jnsgd1na2vs0mg"},{"bike_id":"2b63624a-5426-4b81-a9a8-e87aeed571ed","system_id":"levelo_inurba_marseille","lat":43.26369,"lon":5.4108,"is_reserved":false,"is_disabled":false,"rental_uris":{"android":"levelo://app?vid=2b63624a-5426-4b81-a9a8-e87aeed571ed","ios":"levelo://app?vid=2b63624a-5426-4b81-a9a8-e87aeed571ed"},"vehicle_type_id":"4","last_reported":1781296826,"current_range_meters":6000,"station_id":"st_d4e5ca6na9uc73bfl5fg","pricing_plan_id":"cebpf4jnsgd1na2vs0mg"},{"bike_id":"3a522cce-ccfd-496b-a456-a8d6ae8cf3c1","system_id":"levelo_inurba_marseille","lat":43.26565,"lon":5.39005,"is_reserved":false,"is_disabled":false,"rental_uris":{"android":"levelo://app?vid=3a522cce-ccfd-496b-a456-a8d6ae8cf3c1","ios":"levelo://app?vid=3a522cce-ccfd-496b-a456-a8d6ae8cf3c1"},"vehicle_type_id":"4","last_reported":1781296826,"current_range_meters":6000,"station_id":"ce4bhe12rcd13ifvqf30","pricing_plan_id":"cebpf4jnsgd1na2vs0mg"},{"bike_id":"ea97e60e-4181-45fb-93e9-aec30c6471ba","system_id":"levelo_inurba_marseille","lat":43.29365,"lon":5.39877,"is_reserved":false,"is_disabled":false,"rental_uris":{"android":"levelo://app?vid=ea97e60e-4181-45fb-93e9-aec30c6471ba","ios":"levelo://app?vid=ea97e60e-4181-45fb-93e9-aec30c6471ba"},"vehicle_type_id":"4","last_reported":1781296826,"current_range_meters":6000,"station_id":"","pricing_plan_id":"cebpf4jnsgd1na2vs0mg"},{"bike_id":"faf8ca25-719d-47d6-9604-bd79076dfce4","system_id":"levelo_inurba_marseille","lat":43.26687,"lon":5.38274,"is_reserved":false,"is_disabled":false,"rental_uris":{"android":"levelo://app?vid=faf8ca25-719d-47d6-9604-bd79076dfce4","ios":"levelo://app?vid=faf8ca25-719d-47d6-9604-bd79076dfce4"},"vehicle_type_id":"4","last_reported":1781296826,"current_range_meters":6000,"station_id":"ce4bhg92rcd13ifvqf90","pricing_plan_id":"cebpf4jnsgd1na2vs0mg"},{"bike_id":"b105e559-ad92-41ad-9bdf-4bd2f454dd68","system_id":"levelo_inurba_marseille","lat":43.30155,"lon":5.44966,"is_reserved":false,"is_disabled":false,"rental_uris":{"android":"levelo://app?vid=b105e559-ad92-41ad-9bdf-4bd2f454dd68","ios":"levelo://app?vid=b105e559-ad92-41ad-9bdf-4bd2f454dd68"},"vehicle_type_id":"4","last_reported":1781296826,"current_range_meters":6000,"station_id":"","pricing_plan_id":"cebpf4jnsgd1na2vs0mg"},{"bike_id":"d0de1da7-d7ae-4453-8900-8b3f4d2eb0f2","system_id":"levelo_inurba_marseille","lat":43.29525,"lon":5.38544,"is_reserved":false,"is_disabled":false,"rental_uris":{"android":"levelo://app?vid=d0de1da7-d7ae-4453-8900-8b3f4d2eb0f2","ios":"levelo://app?vid=d0de1da7-d7ae-4453-8900-8b3f4d2eb0f2"},"vehicle_type_id":"4","last_reported":1781296826,"current_range_meters":6000,"station_id":"ce4bgih2rcd13ifvqba0","pricing_plan_id":"cebpf4jnsgd1na2vs0mg"},{"bike_id":"f7b2140e-39b4-4c04-9be7-1aff72473e60","system_id":"levelo_inurba_marseille","lat":43.26349,"lon":5.37822,"is_reserved":false,"is_disabled":false,"rental_uris":{"android":"levelo://app?vid=f7b2140e-39b4-4c04-9be7-1aff72473e60","ios":"levelo://app?vid=f7b2140e-39b4-4c04-9be7-1aff72473e60"},"vehicle_type_id":"4","last_reported":1781296826,"current_range_meters":6000,"station_id":"st_d163nis0mtpqnht9uue0","pricing_plan_id":"cebpf4jnsgd1na2vs0mg"},{"bike_id":"3fe36e96-bc16-4401-911b-7c126008a02d","system_id":"levelo_inurba_marseille","lat":43.23777,"lon":5.36636,"is_reserved":false,"is_disabled":false,"rental_uris":{"android":"levelo://app?vid=3fe36e96-bc16-4401-911b-7c126008a02d","ios":"levelo://app?vid=3fe36e96-bc16-4401-911b-7c126008a02d"},"vehicle_type_id":"4","last_reported":1781296826,"current_range_meters":6000,"station_id":"st_d3nk18o9ro0c73en2l3g","pricing_plan_id":"cebpf4jnsgd1na2vs0mg"},{"bike_id":"0861ae41-ee4b-4f20-9f21-8200b0c33b42","system_id":"levelo_inurba_marseille","lat":43.27773,"lon":5.35551,"is_reserved":false,"is_disabled":false,"rental_uris":{"android":"levelo://app?vid=0861ae41-ee4b-4f20-9f21-8200b0c33b42","ios":"levelo://app?vid=0861ae41-ee4b-4f20-9f21-8200b0c33b42"},"vehicle_type_id":"4","last_reported":1781296826,"current_range_meters":6000,"station_id":"","pricing_plan_id":"cebpf4jnsgd1na2vs0mg"},{"bike_id":"cdd0d7c4-3655-4c38-929a-373781280705","system_id":"levelo_inurba_marseille","lat":43.25501,"lon":5.37662,"is_reserved":false,"is_disabled":false,"rental_uris":{"android":"levelo://app?vid=cdd0d7c4-3655-4c38-929a-373781280705","ios":"levelo://app?vid=cdd0d7c4-3655-4c38-929a-373781280705"},"vehicle_type_id":"4","last_reported":1781296826,"current_range_meters":6000,"station_id":"ce4bhh12rcd13ifvqff0","pricing_plan_id":"cebpf4jnsgd1na2vs0mg"},{"bike_id":"6c149b80-daf1-4dc6-b899-1e8147e8b6f7","system_id":"levelo_inurba_marseille","lat":43.25075,"lon":5.40435,"is_reserved":false,"is_disabled":false,"rental_uris":{"android":"levelo://app?vid=6c149b80-daf1-4dc6-b899-1e8147e8b6f7","ios":"levelo://app?vid=6c149b80-daf1-4dc6-b899-1e8147e8b6f7"},"vehicle_type_id":"4","last_reported":1781296826,"current_range_meters":6000,"station_id":"","pricing_plan_id":"cebpf4jnsgd1na2vs0mg"},{"bike_id":"7a4ba46c-6362-49a8-982a-a4ee92fd7529","system_id":"levelo_inurba_marseille","lat":43.26884,"lon":5.37044,"is_reserved":false,"is_disabled":false,"rental_uris":{"android":"levelo://app?vid=7a4ba46c-6362-49a8-982a-a4ee92fd7529","ios":"levelo://app?vid=7a4ba46c-6362-49a8-982a-a4ee92fd7529"},"vehicle_type_id":"4","last_reported":1781296826,"current_range_meters":6000,"station_id":"","pricing_plan_id":"cebpf4jnsgd1na2vs0mg"},{"bike_id":"a4b5c841-081f-4864-9ad4-e1c7a6e60416","system_id":"levelo_inurba_marseille","lat":43.23789,"lon":5.36623,"is_reserved":false,"is_disabled":true,"rental_uris":{"android":"levelo://app?vid=a4b5c841-081f-4864-9ad4-e1c7a6e60416","ios":"levelo://app?vid=a4b5c841-081f-4864-9ad4-e1c7a6e60416"},"vehicle_type_id":"4","last_reported":1781296826,"current_range_meters":6000,"station_id":"st_d3nk18o9ro0c73en2l3g","pricing_plan_id":"cebpf4jnsgd1na2vs0mg"},{"bike_id":"c2dec3d9-07ad-4eb1-8b48-59fae51aa2bd","system_id":"levelo_inurba_marseille","lat":43.260263,"lon":5.375529,"is_reserved":false,"is_disabled":false,"rental_uris":{"android":"levelo://app?vid=c2dec3d9-07ad-4eb1-8b48-59fae51aa2bd","ios":"levelo://app?vid=c2dec3d9-07ad-4eb1-8b48-59fae51aa2bd"},"vehicle_type_id":"4","last_reported":1781296826,"current_range_meters":6000,"station_id":"ce4bhgh2rcd13ifvqfa0","pricing_plan_id":"cebpf4jnsgd1na2vs0mg"},{"bike_id":"b154e503-5e6b-4b2c-aea8-7afe1c19122c","system_id":"levelo_inurba_marseille","lat":43.28108,"lon":5.42639,"is_reserved":false,"is_disabled":false,"rental_uris":{"android":"levelo://app?vid=b154e503-5e6b-4b2c-aea8-7afe1c19122c","ios":"levelo://app?vid=b154e503-5e6b-4b2c-aea8-7afe1c19122c"},"vehicle_type_id":"4","last_reported":1781296826,"current_range_meters":6000,"station_id":"","pricing_plan_id":"cebpf4jnsgd1na2vs0mg"},{"bike_id":"fddbf6a7-cfab-4481-914f-86a0d0db8fc2","system_id":"levelo_inurba_marseille","lat":43.26374,"lon":5.37814,"is_reserved":false,"is_disabled":false,"rental_uris":{"android":"levelo://app?vid=fddbf6a7-cfab-4481-914f-86a0d0db8fc2","ios":"levelo://app?vid=fddbf6a7-cfab-4481-914f-86a0d0db8fc2"},"vehicle_type_id":"4","last_reported":1781296826,"current_range_meters":6000,"station_id":"st_d163nis0mtpqnht9uue0","pricing_plan_id":"cebpf4jnsgd1na2vs0mg"},{"bike_id":"ae3be122-678e-4362-a61e-d9ebae16bb12","system_id":"levelo_inurba_marseille","lat":43.26546,"lon":5.37283,"is_reserved":false,"is_disabled":false,"rental_uris":{"android":"levelo://app?vid=ae3be122-678e-4362-a61e-d9ebae16bb12","ios":"levelo://app?vid=ae3be122-678e-4362-a61e-d9ebae16bb12"},"vehicle_type_id":"4","last_reported":1781296826,"current_range_meters":6400,"station_id":"ce4bhg12rcd13ifvqf70","pricing_plan_id":"cebpf4jnsgd1na2vs0mg"},{"bike_id":"52e0ca30-f6db-4b40-a595-fe3e1b7ca10e","system_id":"levelo_inurba_marseille","lat":43.26172,"lon":5.37446,"is_reserved":false,"is_disabled":true,"rental_uris":{"android":"levelo://app?vid=52e0ca30-f6db-4b40-a595-fe3e1b7ca10e","ios":"levelo://app?vid=52e0ca30-f6db-4b40-a595-fe3e1b7ca10e"},"vehicle_type_id":"4","last_reported":1781296826,"current_range_meters":6400,"station_id":"ce4bhgp2rcd13ifvqfc0","pricing_plan_id":"cebpf4jnsgd1na2vs0mg"},{"bike_id":"8cd0c170-ca59-4d7f-9c99-44c5e80e380f","system_id":"levelo_inurba_marseille","lat":43.29861,"lon":5.36247,"is_reserved":false,"is_disabled":false,"rental_uris":{"android":"levelo://app?vid=8cd0c170-ca59-4d7f-9c99-44c5e80e380f","ios":"levelo://app?vid=8cd0c170-ca59-4d7f-9c99-44c5e80e380f"},"vehicle_type_id":"4","last_reported":1781296826,"current_range_meters":6400,"station_id":"ce4bgpp2rcd13ifvqc3g","pricing_plan_id":"cebpf4jnsgd1na2vs0mg"},{"bike_id":"d6f0960d-8a26-4d7f-93a9-7161f0913d8b","system_id":"levelo_inurba_marseille","lat":43.25512,"lon":5.37651,"is_reserved":false,"is_disabled":false,"rental_uris":{"android":"levelo://app?vid=d6f0960d-8a26-4d7f-93a9-7161f0913d8b","ios":"levelo://app?vid=d6f0960d-8a26-4d7f-93a9-7161f0913d8b"},"vehicle_type_id":"4","last_reported":1781296826,"current_range_meters":6400,"station_id":"ce4bhh12rcd13ifvqff0","pricing_plan_id":"cebpf4jnsgd1na2vs0mg"},{"bike_id":"e9569279-e2ef-4e9f-95c5-a952e85e209d","system_id":"levelo_inurba_marseille","lat":43.31048,"lon":5.37155,"is_reserved":false,"is_disabled":false,"rental_uris":{"android":"levelo://app?vid=e9569279-e2ef-4e9f-95c5-a952e85e209d","ios":"levelo://app?vid=e9569279-e2ef-4e9f-95c5-a952e85e209d"},"vehicle_type_id":"4","last_reported":1781296826,"current_range_meters":6400,"station_id":"st_d4kl2rp97mjs73e7tdfg","pricing_plan_id":"cebpf4jnsgd1na2vs0mg"},{"bike_id":"dbf30277-d3e6-4cad-8465-5c92e1f1d567","system_id":"levelo_inurba_marseille","lat":43.23185,"lon":5.39988,"is_reserved":false,"is_disabled":false,"rental_uris":{"android":"levelo://app?vid=dbf30277-d3e6-4cad-8465-5c92e1f1d567","ios":"levelo://app?vid=dbf30277-d3e6-4cad-8465-5c92e1f1d567"},"vehicle_type_id":"4","last_reported":1781296826,"current_range_meters":6400,"station_id":"ce4bhn12rcd13ifvqgqg","pricing_plan_id":"cebpf4jnsgd1na2vs0mg"},{"bike_id":"ea62c520-f2b3-445f-b60b-7689a1a703b6","system_id":"levelo_inurba_marseille","lat":43.295288,"lon":5.385456,"is_reserved":false,"is_disabled":false,"rental_uris":{"android":"levelo://app?vid=ea62c520-f2b3-445f-b60b-7689a1a703b6","ios":"levelo://app?vid=ea62c520-f2b3-445f-b60b-7689a1a703b6"},"vehicle_type_id":"4","last_reported":1781296826,"current_range_meters":6400,"station_id":"ce4bgih2rcd13ifvqba0","pricing_plan_id":"cebpf4jnsgd1na2vs0mg"},{"bike_id":"8549ed76-d067-4e8e-8122-bf5cc7918ab0","system_id":"levelo_inurba_marseille","lat":43.27815,"lon":5.40702,"is_reserved":false,"is_disabled":false,"rental_uris":{"android":"levelo://app?vid=8549ed76-d067-4e8e-8122-bf5cc7918ab0","ios":"levelo://app?vid=8549ed76-d067-4e8e-8122-bf5cc7918ab0"},"vehicle_type_id":"4","last_reported":1781296826,"current_range_meters":6400,"station_id":"ce4bhnh2rcd13ifvqgtg","pricing_plan_id":"cebpf4jnsgd1na2vs0mg"},{"bike_id":"1ca3a914-a55c-4637-a9ca-4ffd36fbecad","system_id":"levelo_inurba_marseille","lat":43.262214,"lon":5.387661,"is_reserved":false,"is_disabled":true,"rental_uris":{"android":"levelo://app?vid=1ca3a914-a55c-4637-a9ca-4ffd36fbecad","ios":"levelo://app?vid=1ca3a914-a55c-4637-a9ca-4ffd36fbecad"},"vehicle_type_id":"4","last_reported":1781296826,"current_range_meters":6400,"station_id":"st_d8gjfg747rts73coq3b0","pricing_plan_id":"cebpf4jnsgd1na2vs0mg"},{"bike_id":"3081d497-bbc6-4b87-a5d1-bd53f3b53904","system_id":"levelo_inurba_marseille","lat":43.25509,"lon":5.37657,"is_reserved":false,"is_disabled":false,"rental_uris":{"android":"levelo://app?vid=3081d497-bbc6-4b87-a5d1-bd53f3b53904","ios":"levelo://app?vid=3081d497-bbc6-4b87-a5d1-bd53f3b53904"},"vehicle_type_id":"4","last_reported":1781296826,"current_range_meters":6400,"station_id":"ce4bhh12rcd13ifvqff0","pricing_plan_id":"cebpf4jnsgd1na2vs0mg"},{"bike_id":"3b5b5f2c-d221-46ba-ad59-d00e6f782f9b","system_id":"levelo_inurba_marseille","lat":43.31726,"lon":5.42399,"is_reserved":false,"is_disabled":false,"rental_uris":{"android":"levelo://app?vid=3b5b5f2c-d221-46ba-ad59-d00e6f782f9b","ios":"levelo://app?vid=3b5b5f2c-d221-46ba-ad59-d00e6f782f9b"},"vehicle_type_id":"4","last_reported":1781296826,"current_range_meters":6400,"station_id":"ce4bhp92rcd13ifvqhbg","pricing_plan_id":"cebpf4jnsgd1na2vs0mg"},{"bike_id":"a318bc01-9889-445e-ad9e-b36118278119","system_id":"levelo_inurba_marseille","lat":43.28612,"lon":5.35096,"is_reserved":false,"is_disabled":true,"rental_uris":{"android":"levelo://app?vid=a318bc01-9889-445e-ad9e-b36118278119","ios":"levelo://app?vid=a318bc01-9889-445e-ad9e-b36118278119"},"vehicle_type_id":"4","last_reported":1781296826,"current_range_meters":6400,"station_id":"ce4bhch2rcd13ifvqeug","pricing_plan_id":"cebpf4jnsgd1na2vs0mg"},{"bike_id":"e5112665-65a7-4715-ad28-a304dc18be43","system_id":"levelo_inurba_marseille","lat":43.24803,"lon":5.37451,"is_reserved":false,"is_disabled":false,"rental_uris":{"android":"levelo://app?vid=e5112665-65a7-4715-ad28-a304dc18be43","ios":"levelo://app?vid=e5112665-65a7-4715-ad28-a304dc18be43"},"vehicle_type_id":"4","last_reported":1781296826,"current_range_meters":6400,"station_id":"ce4bhgh2rcd13ifvqfb0","pricing_plan_id":"cebpf4jnsgd1na2vs0mg"},{"bike_id":"9e36cfa1-09fe-4bd5-9827-624ec281fd82","system_id":"levelo_inurba_marseille","lat":43.26028,"lon":5.37567,"is_reserved":false,"is_disabled":false,"rental_uris":{"android":"levelo://app?vid=9e36cfa1-09fe-4bd5-9827-624ec281fd82","ios":"levelo://app?vid=9e36cfa1-09fe-4bd5-9827-624ec281fd82"},"vehicle_type_id":"4","last_reported":1781296826,"current_range_meters":6400,"station_id":"ce4bhgh2rcd13ifvqfa0","pricing_plan_id":"cebpf4jnsgd1na2vs0mg"},{"bike_id":"6df7054b-12fc-4820-90eb-30a94928fe3f","system_id":"levelo_inurba_marseille","lat":43.23772,"lon":5.36623,"is_reserved":false,"is_disabled":false,"rental_uris":{"android":"levelo://app?vid=6df7054b-12fc-4820-90eb-30a94928fe3f","ios":"levelo://app?vid=6df7054b-12fc-4820-90eb-30a94928fe3f"},"vehicle_type_id":"4","last_reported":1781296826,"current_range_meters":6400,"station_id":"st_d3nk18o9ro0c73en2l3g","pricing_plan_id":"cebpf4jnsgd1na2vs0mg"},{"bike_id":"7f928b3b-7f65-4d73-95df-3bf5f0b8fb18","system_id":"levelo_inurba_marseille","lat":43.24814,"lon":5.37456,"is_reserved":false,"is_disabled":false,"rental_uris":{"android":"levelo://app?vid=7f928b3b-7f65-4d73-95df-3bf5f0b8fb18","ios":"levelo://app?vid=7f928b3b-7f65-4d73-95df-3bf5f0b8fb18"},"vehicle_type_id":"4","last_reported":1781296826,"current_range_meters":6400,"station_id":"ce4bhgh2rcd13ifvqfb0","pricing_plan_id":"cebpf4jnsgd1na2vs0mg"},{"bike_id":"4d08b5d9-914d-4ab9-9bc8-f51a62a0b573","system_id":"levelo_inurba_marseille","lat":43.291889,"lon":5.383053,"is_reserved":false,"is_disabled":false,"rental_uris":{"android":"levelo://app?vid=4d08b5d9-914d-4ab9-9bc8-f51a62a0b573","ios":"levelo://app?vid=4d08b5d9-914d-4ab9-9bc8-f51a62a0b573"},"vehicle_type_id":"4","last_reported":1781296826,"current_range_meters":6400,"station_id":"ce4bh692rcd13ifvqea0","pricing_plan_id":"cebpf4jnsgd1na2vs0mg"},{"bike_id":"84cefb90-e5b2-45bd-b10e-3536684b6861","system_id":"levelo_inurba_marseille","lat":43.28862,"lon":5.42534,"is_reserved":false,"is_disabled":false,"rental_uris":{"android":"levelo://app?vid=84cefb90-e5b2-45bd-b10e-3536684b6861","ios":"levelo://app?vid=84cefb90-e5b2-45bd-b10e-3536684b6861"},"vehicle_type_id":"4","last_reported":1781296826,"current_range_meters":6400,"station_id":"st_d3b462108ojc7389ooeg","pricing_plan_id":"cebpf4jnsgd1na2vs0mg"},{"bike_id":"3ea61c54-5ae4-4ec5-8d1e-95c813254f6e","system_id":"levelo_inurba_marseille","lat":43.24467,"lon":5.42531,"is_reserved":false,"is_disabled":false,"rental_uris":{"android":"levelo://app?vid=3ea61c54-5ae4-4ec5-8d1e-95c813254f6e","ios":"levelo://app?vid=3ea61c54-5ae4-4ec5-8d1e-95c813254f6e"},"vehicle_type_id":"4","last_reported":1781296826,"current_range_meters":6400,"station_id":"st_d4a3vfp97mjs738cd8kg","pricing_plan_id":"cebpf4jnsgd1na2vs0mg"},{"bike_id":"67d79504-0563-4610-907f-80e12b8075dc","system_id":"levelo_inurba_marseille","lat":43.24393,"lon":5.37057,"is_reserved":false,"is_disabled":false,"rental_uris":{"android":"levelo://app?vid=67d79504-0563-4610-907f-80e12b8075dc","ios":"levelo://app?vid=67d79504-0563-4610-907f-80e12b8075dc"},"vehicle_type_id":"4","last_reported":1781296826,"current_range_meters":6800,"station_id":"ce4bhhh2rcd13ifvqfk0","pricing_plan_id":"cebpf4jnsgd1na2vs0mg"},{"bike_id":"89acfe88-1a8f-4c8c-aa43-8cd7735ad8e6","system_id":"levelo_inurba_marseille","lat":43.24069,"lon":5.37766,"is_reserved":false,"is_disabled":false,"rental_uris":{"android":"levelo://app?vid=89acfe88-1a8f-4c8c-aa43-8cd7735ad8e6","ios":"levelo://app?vid=89acfe88-1a8f-4c8c-aa43-8cd7735ad8e6"},"vehicle_type_id":"4","last_reported":1781296826,"current_range_meters":6800,"station_id":"ce4bhnp2rcd13ifvqgvg","pricing_plan_id":"cebpf4jnsgd1na2vs0mg"},{"bike_id":"1ac2d94c-139a-4510-8081-53f6e2112503","system_id":"levelo_inurba_marseille","lat":43.29556,"lon":5.37517,"is_reserved":false,"is_disabled":false,"rental_uris":{"android":"levelo://app?vid=1ac2d94c-139a-4510-8081-53f6e2112503","ios":"levelo://app?vid=1ac2d94c-139a-4510-8081-53f6e2112503"},"vehicle_type_id":"4","last_reported":1781296826,"current_range_meters":6800,"station_id":"ce4bgh92rcd13ifvqb50","pricing_plan_id":"cebpf4jnsgd1na2vs0mg"},{"bike_id":"7c56fbf2-b06b-4ad4-bd6e-fb0ad9ba401c","system_id":"levelo_inurba_marseille","lat":43.28721,"lon":5.37945,"is_reserved":false,"is_disabled":true,"rental_uris":{"android":"levelo://app?vid=7c56fbf2-b06b-4ad4-bd6e-fb0ad9ba401c","ios":"levelo://app?vid=7c56fbf2-b06b-4ad4-bd6e-fb0ad9ba401c"},"vehicle_type_id":"4","last_reported":1781296826,"current_range_meters":6800,"station_id":"ce4bh9p2rcd13ifvqec0","pricing_plan_id":"cebpf4jnsgd1na2vs0mg"},{"bike_id":"ba9e662c-c195-4d37-b478-8ff41eecf68d","system_id":"levelo_inurba_marseille","lat":43.29457,"lon":5.39767,"is_reserved":false,"is_disabled":false,"rental_uris":{"android":"levelo://app?vid=ba9e662c-c195-4d37-b478-8ff41eecf68d","ios":"levelo://app?vid=ba9e662c-c195-4d37-b478-8ff41eecf68d"},"vehicle_type_id":"4","last_reported":1781296826,"current_range_meters":6800,"station_id":"ce4bh3h2rcd13ifvqdo0","pricing_plan_id":"cebpf4jnsgd1na2vs0mg"},{"bike_id":"cde38214-2692-427a-a50b-8a9ec9ef611f","system_id":"levelo_inurba_marseille","lat":43.299229,"lon":5.385351,"is_reserved":false,"is_disabled":false,"rental_uris":{"android":"levelo://app?vid=cde38214-2692-427a-a50b-8a9ec9ef611f","ios":"levelo://app?vid=cde38214-2692-427a-a50b-8a9ec9ef611f"},"vehicle_type_id":"4","last_reported":1781296826,"current_range_meters":6800,"station_id":"ce4bgj92rcd13ifvqbd0","pricing_plan_id":"cebpf4jnsgd1na2vs0mg"},{"bike_id":"f312a474-3688-43e4-8515-a784a5c48528","system_id":"levelo_inurba_marseille","lat":43.21188,"lon":5.35081,"is_reserved":false,"is_disabled":true,"rental_uris":{"android":"levelo://app?vid=f312a474-3688-43e4-8515-a784a5c48528","ios":"levelo://app?vid=f312a474-3688-43e4-8515-a784a5c48528"},"vehicle_type_id":"4","last_reported":1781296826,"current_range_meters":6800,"station_id":"st_cvj6sg6p6f1abm77japg","pricing_plan_id":"cebpf4jnsgd1na2vs0mg"},{"bike_id":"d39db183-6bf7-420a-96f5-b25822544857","system_id":"levelo_inurba_marseille","lat":43.32354,"lon":5.36757,"is_reserved":false,"is_disabled":false,"rental_uris":{"android":"levelo://app?vid=d39db183-6bf7-420a-96f5-b25822544857","ios":"levelo://app?vid=d39db183-6bf7-420a-96f5-b25822544857"},"vehicle_type_id":"4","last_reported":1781296826,"current_range_meters":6800,"station_id":"ce4bhsh2rcd13ifvqi2g","pricing_plan_id":"cebpf4jnsgd1na2vs0mg"},{"bike_id":"2d68fdb4-c8ef-4630-8900-9b3a566aa66f","system_id":"levelo_inurba_marseille","lat":43.304324,"lon":5.388936,"is_reserved":false,"is_disabled":false,"rental_uris":{"android":"levelo://app?vid=2d68fdb4-c8ef-4630-8900-9b3a566aa66f","ios":"levelo://app?vid=2d68fdb4-c8ef-4630-8900-9b3a566aa66f"},"vehicle_type_id":"4","last_reported":1781296826,"current_range_meters":6800,"station_id":"ce4bgk12rcd13ifvqbi0","pricing_plan_id":"cebpf4jnsgd1na2vs0mg"},{"bike_id":"bea4b75c-4103-4062-bb41-7c43ef518d93","system_id":"levelo_inurba_marseille","lat":43.27887,"lon":5.38017,"is_reserved":false,"is_disabled":false,"rental_uris":{"android":"levelo://app?vid=bea4b75c-4103-4062-bb41-7c43ef518d93","ios":"levelo://app?vid=bea4b75c-4103-4062-bb41-7c43ef518d93"},"vehicle_type_id":"4","last_reported":1781296826,"current_range_meters":6800,"station_id":"ce4bhf92rcd13ifvqf50","pricing_plan_id":"cebpf4jnsgd1na2vs0mg"},{"bike_id":"1609f7f2-ce35-4e0f-a0ae-988ecdad722b","system_id":"levelo_inurba_marseille","lat":43.25827,"lon":5.39439,"is_reserved":false,"is_disabled":false,"rental_uris":{"android":"levelo://app?vid=1609f7f2-ce35-4e0f-a0ae-988ecdad722b","ios":"levelo://app?vid=1609f7f2-ce35-4e0f-a0ae-988ecdad722b"},"vehicle_type_id":"4","last_reported":1781296826,"current_range_meters":6800,"station_id":"ce4bhip2rcd13ifvqft0","pricing_plan_id":"cebpf4jnsgd1na2vs0mg"},{"bike_id":"a0d2ac5f-fff6-43f6-831d-dfa81e9c3981","system_id":"levelo_inurba_marseille","lat":43.29607,"lon":5.3643,"is_reserved":false,"is_disabled":false,"rental_uris":{"android":"levelo://app?vid=a0d2ac5f-fff6-43f6-831d-dfa81e9c3981","ios":"levelo://app?vid=a0d2ac5f-fff6-43f6-831d-dfa81e9c3981"},"vehicle_type_id":"4","last_reported":1781296826,"current_range_meters":6800,"station_id":"","pricing_plan_id":"cebpf4jnsgd1na2vs0mg"},{"bike_id":"97b9414c-f337-4aa3-a619-e8223bfb5c75","system_id":"levelo_inurba_marseille","lat":43.29533,"lon":5.3854,"is_reserved":false,"is_disabled":false,"rental_uris":{"android":"levelo://app?vid=97b9414c-f337-4aa3-a619-e8223bfb5c75","ios":"levelo://app?vid=97b9414c-f337-4aa3-a619-e8223bfb5c75"},"vehicle_type_id":"4","last_reported":1781296826,"current_range_meters":6800,"station_id":"ce4bgih2rcd13ifvqba0","pricing_plan_id":"cebpf4jnsgd1na2vs0mg"},{"bike_id":"7319007b-6fdc-43f3-99df-d293dafb9975","system_id":"levelo_inurba_marseille","lat":43.295318,"lon":5.385441,"is_reserved":false,"is_disabled":false,"rental_uris":{"android":"levelo://app?vid=7319007b-6fdc-43f3-99df-d293dafb9975","ios":"levelo://app?vid=7319007b-6fdc-43f3-99df-d293dafb9975"},"vehicle_type_id":"4","last_reported":1781296826,"current_range_meters":6800,"station_id":"ce4bgih2rcd13ifvqba0","pricing_plan_id":"cebpf4jnsgd1na2vs0mg"},{"bike_id":"2d65b860-94da-4574-a20f-82b65ca5f84b","system_id":"levelo_inurba_marseille","lat":43.22564,"lon":5.41632,"is_reserved":false,"is_disabled":false,"rental_uris":{"android":"levelo://app?vid=2d65b860-94da-4574-a20f-82b65ca5f84b","ios":"levelo://app?vid=2d65b860-94da-4574-a20f-82b65ca5f84b"},"vehicle_type_id":"4","last_reported":1781296826,"current_range_meters":6800,"station_id":"st_d2o4gvlbi1j2169b742g","pricing_plan_id":"cebpf4jnsgd1na2vs0mg"},{"bike_id":"f57ddc5d-b3ad-43f3-bbc4-226ea7be866d","system_id":"levelo_inurba_marseille","lat":43.29853,"lon":5.42272,"is_reserved":false,"is_disabled":false,"rental_uris":{"android":"levelo://app?vid=f57ddc5d-b3ad-43f3-bbc4-226ea7be866d","ios":"levelo://app?vid=f57ddc5d-b3ad-43f3-bbc4-226ea7be866d"},"vehicle_type_id":"4","last_reported":1781296826,"current_range_meters":6800,"station_id":"","pricing_plan_id":"cebpf4jnsgd1na2vs0mg"},{"bike_id":"fb2a1f7d-f7e9-4d12-bb3c-32e8cd55f82d","system_id":"levelo_inurba_marseille","lat":43.29068,"lon":5.4426,"is_reserved":false,"is_disabled":false,"rental_uris":{"android":"levelo://app?vid=fb2a1f7d-f7e9-4d12-bb3c-32e8cd55f82d","ios":"levelo://app?vid=fb2a1f7d-f7e9-4d12-bb3c-32e8cd55f82d"},"vehicle_type_id":"4","last_reported":1781296826,"current_range_meters":6800,"station_id":"","pricing_plan_id":"cebpf4jnsgd1na2vs0mg"},{"bike_id":"c4decb83-9012-4817-bf29-a7abe31071b8","system_id":"levelo_inurba_marseille","lat":43.27165,"lon":5.4099,"is_reserved":false,"is_disabled":false,"rental_uris":{"android":"levelo://app?vid=c4decb83-9012-4817-bf29-a7abe31071b8","ios":"levelo://app?vid=c4decb83-9012-4817-bf29-a7abe31071b8"},"vehicle_type_id":"4","last_reported":1781296826,"current_range_meters":6800,"station_id":"ce4bhl12rcd13ifvqgf0","pricing_plan_id":"cebpf4jnsgd1na2vs0mg"},{"bike_id":"e6dd2d51-0c09-4f37-aab6-d3ebe41e92d3","system_id":"levelo_inurba_marseille","lat":43.26549,"lon":5.37289,"is_reserved":false,"is_disabled":false,"rental_uris":{"android":"levelo://app?vid=e6dd2d51-0c09-4f37-aab6-d3ebe41e92d3","ios":"levelo://app?vid=e6dd2d51-0c09-4f37-aab6-d3ebe41e92d3"},"vehicle_type_id":"4","last_reported":1781296826,"current_range_meters":6800,"station_id":"ce4bhg12rcd13ifvqf70","pricing_plan_id":"cebpf4jnsgd1na2vs0mg"},{"bike_id":"5ab25b28-e35d-4f10-9ca9-7d658cce4ea9","system_id":"levelo_inurba_marseille","lat":43.28916,"lon":5.38385,"is_reserved":false,"is_disabled":true,"rental_uris":{"android":"levelo://app?vid=5ab25b28-e35d-4f10-9ca9-7d658cce4ea9","ios":"levelo://app?vid=5ab25b28-e35d-4f10-9ca9-7d658cce4ea9"},"vehicle_type_id":"4","last_reported":1781296826,"current_range_meters":6800,"station_id":"ce4bh612rcd13ifvqe6g","pricing_plan_id":"cebpf4jnsgd1na2vs0mg"},{"bike_id":"7af5dc62-7a31-4d7c-a26c-927a2cb82321","system_id":"levelo_inurba_marseille","lat":43.32092,"lon":5.36788,"is_reserved":false,"is_disabled":false,"rental_uris":{"android":"levelo://app?vid=7af5dc62-7a31-4d7c-a26c-927a2cb82321","ios":"levelo://app?vid=7af5dc62-7a31-4d7c-a26c-927a2cb82321"},"vehicle_type_id":"4","last_reported":1781296826,"current_range_meters":6800,"station_id":"ce4bhrh2rcd13ifvqhug","pricing_plan_id":"cebpf4jnsgd1na2vs0mg"},{"bike_id":"29f89edd-ea47-4769-ba03-c94739969a4f","system_id":"levelo_inurba_marseille","lat":43.29399,"lon":5.40187,"is_reserved":false,"is_disabled":false,"rental_uris":{"android":"levelo://app?vid=29f89edd-ea47-4769-ba03-c94739969a4f","ios":"levelo://app?vid=29f89edd-ea47-4769-ba03-c94739969a4f"},"vehicle_type_id":"4","last_reported":1781296826,"current_range_meters":6800,"station_id":"","pricing_plan_id":"cebpf4jnsgd1na2vs0mg"},{"bike_id":"5fe816be-adb0-4ccc-a8a6-ac6bd0711409","system_id":"levelo_inurba_marseille","lat":43.26322,"lon":5.37831,"is_reserved":false,"is_disabled":false,"rental_uris":{"android":"levelo://app?vid=5fe816be-adb0-4ccc-a8a6-ac6bd0711409","ios":"levelo://app?vid=5fe816be-adb0-4ccc-a8a6-ac6bd0711409"},"vehicle_type_id":"4","last_reported":1781296826,"current_range_meters":6800,"station_id":"","pricing_plan_id":"cebpf4jnsgd1na2vs0mg"},{"bike_id":"b5e5b9f3-bc66-4719-bcc7-6308b8e27554","system_id":"levelo_inurba_marseille","lat":43.263665,"lon":5.378192,"is_reserved":false,"is_disabled":false,"rental_uris":{"android":"levelo://app?vid=b5e5b9f3-bc66-4719-bcc7-6308b8e27554","ios":"levelo://app?vid=b5e5b9f3-bc66-4719-bcc7-6308b8e27554"},"vehicle_type_id":"4","last_reported":1781296826,"current_range_meters":6800,"station_id":"st_d163nis0mtpqnht9uue0","pricing_plan_id":"cebpf4jnsgd1na2vs0mg"},{"bike_id":"c017a8ae-85a7-45a6-aa4f-da9efc8013ea","system_id":"levelo_inurba_marseille","lat":43.24794,"lon":5.37459,"is_reserved":false,"is_disabled":false,"rental_uris":{"android":"levelo://app?vid=c017a8ae-85a7-45a6-aa4f-da9efc8013ea","ios":"levelo://app?vid=c017a8ae-85a7-45a6-aa4f-da9efc8013ea"},"vehicle_type_id":"4","last_reported":1781296826,"current_range_meters":6800,"station_id":"ce4bhgh2rcd13ifvqfb0","pricing_plan_id":"cebpf4jnsgd1na2vs0mg"},{"bike_id":"aec8333f-a9c6-4953-b628-b84715e28c57","system_id":"levelo_inurba_marseille","lat":43.27809,"lon":5.40713,"is_reserved":false,"is_disabled":false,"rental_uris":{"android":"levelo://app?vid=aec8333f-a9c6-4953-b628-b84715e28c57","ios":"levelo://app?vid=aec8333f-a9c6-4953-b628-b84715e28c57"},"vehicle_type_id":"4","last_reported":1781296826,"current_range_meters":6800,"station_id":"ce4bhnh2rcd13ifvqgtg","pricing_plan_id":"cebpf4jnsgd1na2vs0mg"},{"bike_id":"70782d62-79db-4fe5-9541-fd64ae5ddfbb","system_id":"levelo_inurba_marseille","lat":43.29288,"lon":5.37734,"is_reserved":false,"is_disabled":false,"rental_uris":{"android":"levelo://app?vid=70782d62-79db-4fe5-9541-fd64ae5ddfbb","ios":"levelo://app?vid=70782d62-79db-4fe5-9541-fd64ae5ddfbb"},"vehicle_type_id":"4","last_reported":1781296826,"current_range_meters":6800,"station_id":"","pricing_plan_id":"cebpf4jnsgd1na2vs0mg"},{"bike_id":"61b7a27c-4633-4433-8d95-fae8968731e7","system_id":"levelo_inurba_marseille","lat":43.27505,"lon":5.41589,"is_reserved":false,"is_disabled":false,"rental_uris":{"android":"levelo://app?vid=61b7a27c-4633-4433-8d95-fae8968731e7","ios":"levelo://app?vid=61b7a27c-4633-4433-8d95-fae8968731e7"},"vehicle_type_id":"4","last_reported":1781296826,"current_range_meters":6800,"station_id":"st_d6im8g6chgec73a5pndg","pricing_plan_id":"cebpf4jnsgd1na2vs0mg"},{"bike_id":"deaa129f-e1ec-4b70-89be-08228923086d","system_id":"levelo_inurba_marseille","lat":43.27051,"lon":5.38301,"is_reserved":false,"is_disabled":false,"rental_uris":{"android":"levelo://app?vid=deaa129f-e1ec-4b70-89be-08228923086d","ios":"levelo://app?vid=deaa129f-e1ec-4b70-89be-08228923086d"},"vehicle_type_id":"4","last_reported":1781296826,"current_range_meters":6800,"station_id":"st_d3n2fo6cfp8s73cte1j0","pricing_plan_id":"cebpf4jnsgd1na2vs0mg"},{"bike_id":"c40c4ead-d8dd-4ab4-8b7c-8c735c9c1613","system_id":"levelo_inurba_marseille","lat":43.31905,"lon":5.36808,"is_reserved":false,"is_disabled":false,"rental_uris":{"android":"levelo://app?vid=c40c4ead-d8dd-4ab4-8b7c-8c735c9c1613","ios":"levelo://app?vid=c40c4ead-d8dd-4ab4-8b7c-8c735c9c1613"},"vehicle_type_id":"4","last_reported":1781296826,"current_range_meters":6800,"station_id":"st_d6o2h0d0559c73evc1b0","pricing_plan_id":"cebpf4jnsgd1na2vs0mg"},{"bike_id":"f4bd0ae9-9a5e-4f7b-b865-f24efdefb544","system_id":"levelo_inurba_marseille","lat":43.31181,"lon":5.3871,"is_reserved":false,"is_disabled":false,"rental_uris":{"android":"levelo://app?vid=f4bd0ae9-9a5e-4f7b-b865-f24efdefb544","ios":"levelo://app?vid=f4bd0ae9-9a5e-4f7b-b865-f24efdefb544"},"vehicle_type_id":"4","last_reported":1781296826,"current_range_meters":7200,"station_id":"","pricing_plan_id":"cebpf4jnsgd1na2vs0mg"},{"bike_id":"a5e77653-46b7-42be-ae06-dd075d05a062","system_id":"levelo_inurba_marseille","lat":43.32481,"lon":5.36575,"is_reserved":false,"is_disabled":false,"rental_uris":{"android":"levelo://app?vid=a5e77653-46b7-42be-ae06-dd075d05a062","ios":"levelo://app?vid=a5e77653-46b7-42be-ae06-dd075d05a062"},"vehicle_type_id":"4","last_reported":1781296826,"current_range_meters":7200,"station_id":"ce4bhs12rcd13ifvqhvg","pricing_plan_id":"cebpf4jnsgd1na2vs0mg"},{"bike_id":"932afb10-d230-406f-a6e2-098fe36a2de4","system_id":"levelo_inurba_marseille","lat":43.25334,"lon":5.42167,"is_reserved":false,"is_disabled":false,"rental_uris":{"android":"levelo://app?vid=932afb10-d230-406f-a6e2-098fe36a2de4","ios":"levelo://app?vid=932afb10-d230-406f-a6e2-098fe36a2de4"},"vehicle_type_id":"4","last_reported":1781296826,"current_range_meters":7200,"station_id":"st_d2m65c5bi1j21697t3ng","pricing_plan_id":"cebpf4jnsgd1na2vs0mg"},{"bike_id":"7ec5ac6c-1ad1-484e-b1ac-0dd6240aeac8","system_id":"levelo_inurba_marseille","lat":43.3208,"lon":5.36607,"is_reserved":false,"is_disabled":false,"rental_uris":{"android":"levelo://app?vid=7ec5ac6c-1ad1-484e-b1ac-0dd6240aeac8","ios":"levelo://app?vid=7ec5ac6c-1ad1-484e-b1ac-0dd6240aeac8"},"vehicle_type_id":"4","last_reported":1781296826,"current_range_meters":7200,"station_id":"ce4bhrh2rcd13ifvqhug","pricing_plan_id":"cebpf4jnsgd1na2vs0mg"},{"bike_id":"7dddd80c-4fca-4079-bdd5-00f9aab1f938","system_id":"levelo_inurba_marseille","lat":43.2635,"lon":5.37814,"is_reserved":false,"is_disabled":false,"rental_uris":{"android":"levelo://app?vid=7dddd80c-4fca-4079-bdd5-00f9aab1f938","ios":"levelo://app?vid=7dddd80c-4fca-4079-bdd5-00f9aab1f938"},"vehicle_type_id":"4","last_reported":1781296826,"current_range_meters":7200,"station_id":"st_d163nis0mtpqnht9uue0","pricing_plan_id":"cebpf4jnsgd1na2vs0mg"},{"bike_id":"61abc050-794c-43f3-96ae-15565612cd1b","system_id":"levelo_inurba_marseille","lat":43.28687,"lon":5.46665,"is_reserved":false,"is_disabled":false,"rental_uris":{"android":"levelo://app?vid=61abc050-794c-43f3-96ae-15565612cd1b","ios":"levelo://app?vid=61abc050-794c-43f3-96ae-15565612cd1b"},"vehicle_type_id":"4","last_reported":1781296826,"current_range_meters":7200,"station_id":"st_d6tc3vkotcvc738tfjhg","pricing_plan_id":"cebpf4jnsgd1na2vs0mg"},{"bike_id":"925c1e70-5a7e-4c96-b774-c6af84642d7b","system_id":"levelo_inurba_marseille","lat":43.26215,"lon":5.37437,"is_reserved":false,"is_disabled":false,"rental_uris":{"android":"levelo://app?vid=925c1e70-5a7e-4c96-b774-c6af84642d7b","ios":"levelo://app?vid=925c1e70-5a7e-4c96-b774-c6af84642d7b"},"vehicle_type_id":"4","last_reported":1781296826,"current_range_meters":7200,"station_id":"ce4bhgp2rcd13ifvqfc0","pricing_plan_id":"cebpf4jnsgd1na2vs0mg"},{"bike_id":"66ae99e5-ecd9-4396-854e-87d80266e898","system_id":"levelo_inurba_marseille","lat":43.29181,"lon":5.39351,"is_reserved":false,"is_disabled":false,"rental_uris":{"android":"levelo://app?vid=66ae99e5-ecd9-4396-854e-87d80266e898","ios":"levelo://app?vid=66ae99e5-ecd9-4396-854e-87d80266e898"},"vehicle_type_id":"4","last_reported":1781296826,"current_range_meters":7200,"station_id":"","pricing_plan_id":"cebpf4jnsgd1na2vs0mg"},{"bike_id":"fd8c8178-fb36-487e-a473-7cfbfc7e936e","system_id":"levelo_inurba_marseille","lat":43.25121,"lon":5.41896,"is_reserved":false,"is_disabled":false,"rental_uris":{"android":"levelo://app?vid=fd8c8178-fb36-487e-a473-7cfbfc7e936e","ios":"levelo://app?vid=fd8c8178-fb36-487e-a473-7cfbfc7e936e"},"vehicle_type_id":"4","last_reported":1781296826,"current_range_meters":7200,"station_id":"","pricing_plan_id":"cebpf4jnsgd1na2vs0mg"},{"bike_id":"01974ce9-2ce7-4184-9698-03768bec9bb4","system_id":"levelo_inurba_marseille","lat":43.28679,"lon":5.46694,"is_reserved":false,"is_disabled":false,"rental_uris":{"android":"levelo://app?vid=01974ce9-2ce7-4184-9698-03768bec9bb4","ios":"levelo://app?vid=01974ce9-2ce7-4184-9698-03768bec9bb4"},"vehicle_type_id":"4","last_reported":1781296826,"current_range_meters":7200,"station_id":"st_d6tc3vkotcvc738tfjhg","pricing_plan_id":"cebpf4jnsgd1na2vs0mg"},{"bike_id":"910288ae-a795-4498-aa25-4a8228f33c50","system_id":"levelo_inurba_marseille","lat":43.26211,"lon":5.37435,"is_reserved":false,"is_disabled":false,"rental_uris":{"android":"levelo://app?vid=910288ae-a795-4498-aa25-4a8228f33c50","ios":"levelo://app?vid=910288ae-a795-4498-aa25-4a8228f33c50"},"vehicle_type_id":"4","last_reported":1781296826,"current_range_meters":7200,"station_id":"ce4bhgp2rcd13ifvqfc0","pricing_plan_id":"cebpf4jnsgd1na2vs0mg"},{"bike_id":"5e65bd81-8190-4fc5-9f8e-d040d3bdd292","system_id":"levelo_inurba_marseille","lat":43.26205,"lon":5.37432,"is_reserved":false,"is_disabled":false,"rental_uris":{"android":"levelo://app?vid=5e65bd81-8190-4fc5-9f8e-d040d3bdd292","ios":"levelo://app?vid=5e65bd81-8190-4fc5-9f8e-d040d3bdd292"},"vehicle_type_id":"4","last_reported":1781296826,"current_range_meters":7200,"station_id":"ce4bhgp2rcd13ifvqfc0","pricing_plan_id":"cebpf4jnsgd1na2vs0mg"},{"bike_id":"6238fcf5-9640-4daf-a7e9-dad5928f2be9","system_id":"levelo_inurba_marseille","lat":43.24807,"lon":5.37466,"is_reserved":false,"is_disabled":false,"rental_uris":{"android":"levelo://app?vid=6238fcf5-9640-4daf-a7e9-dad5928f2be9","ios":"levelo://app?vid=6238fcf5-9640-4daf-a7e9-dad5928f2be9"},"vehicle_type_id":"4","last_reported":1781296826,"current_range_meters":7200,"station_id":"ce4bhgh2rcd13ifvqfb0","pricing_plan_id":"cebpf4jnsgd1na2vs0mg"},{"bike_id":"29866fdf-8b3b-4d01-acd8-1c5cee78560c","system_id":"levelo_inurba_marseille","lat":43.24389,"lon":5.37038,"is_reserved":false,"is_disabled":false,"rental_uris":{"android":"levelo://app?vid=29866fdf-8b3b-4d01-acd8-1c5cee78560c","ios":"levelo://app?vid=29866fdf-8b3b-4d01-acd8-1c5cee78560c"},"vehicle_type_id":"4","last_reported":1781296826,"current_range_meters":7200,"station_id":"ce4bhhh2rcd13ifvqfk0","pricing_plan_id":"cebpf4jnsgd1na2vs0mg"},{"bike_id":"f7453a07-acc8-4a0c-b4d8-3250378f0a1d","system_id":"levelo_inurba_marseille","lat":43.26682,"lon":5.3827,"is_reserved":false,"is_disabled":false,"rental_uris":{"android":"levelo://app?vid=f7453a07-acc8-4a0c-b4d8-3250378f0a1d","ios":"levelo://app?vid=f7453a07-acc8-4a0c-b4d8-3250378f0a1d"},"vehicle_type_id":"4","last_reported":1781296826,"current_range_meters":7200,"station_id":"ce4bhg92rcd13ifvqf90","pricing_plan_id":"cebpf4jnsgd1na2vs0mg"},{"bike_id":"7234cab2-0197-49c5-8963-6b88ab90da50","system_id":"levelo_inurba_marseille","lat":43.26682,"lon":5.38265,"is_reserved":false,"is_disabled":false,"rental_uris":{"android":"levelo://app?vid=7234cab2-0197-49c5-8963-6b88ab90da50","ios":"levelo://app?vid=7234cab2-0197-49c5-8963-6b88ab90da50"},"vehicle_type_id":"4","last_reported":1781296826,"current_range_meters":7200,"station_id":"ce4bhg92rcd13ifvqf90","pricing_plan_id":"cebpf4jnsgd1na2vs0mg"},{"bike_id":"f96f9850-1fa1-4da0-b9b2-06c64b7f75d3","system_id":"levelo_inurba_marseille","lat":43.26016,"lon":5.37558,"is_reserved":false,"is_disabled":false,"rental_uris":{"android":"levelo://app?vid=f96f9850-1fa1-4da0-b9b2-06c64b7f75d3","ios":"levelo://app?vid=f96f9850-1fa1-4da0-b9b2-06c64b7f75d3"},"vehicle_type_id":"4","last_reported":1781296826,"current_range_meters":7200,"station_id":"ce4bhgh2rcd13ifvqfa0","pricing_plan_id":"cebpf4jnsgd1na2vs0mg"},{"bike_id":"46d9495a-bf76-4e1d-85b4-b888eb068c07","system_id":"levelo_inurba_marseille","lat":43.26364,"lon":5.37813,"is_reserved":false,"is_disabled":false,"rental_uris":{"android":"levelo://app?vid=46d9495a-bf76-4e1d-85b4-b888eb068c07","ios":"levelo://app?vid=46d9495a-bf76-4e1d-85b4-b888eb068c07"},"vehicle_type_id":"4","last_reported":1781296826,"current_range_meters":7200,"station_id":"st_d163nis0mtpqnht9uue0","pricing_plan_id":"cebpf4jnsgd1na2vs0mg"},{"bike_id":"9baebc47-9a21-445a-b575-5e8cc4ed7549","system_id":"levelo_inurba_marseille","lat":43.2852,"lon":5.4835,"is_reserved":false,"is_disabled":false,"rental_uris":{"android":"levelo://app?vid=9baebc47-9a21-445a-b575-5e8cc4ed7549","ios":"levelo://app?vid=9baebc47-9a21-445a-b575-5e8cc4ed7549"},"vehicle_type_id":"4","last_reported":1781296826,"current_range_meters":7200,"station_id":"","pricing_plan_id":"cebpf4jnsgd1na2vs0mg"},{"bike_id":"e9045bcf-2c3a-4f4c-b428-012c0ecd376b","system_id":"levelo_inurba_marseille","lat":43.281079,"lon":5.378343,"is_reserved":false,"is_disabled":false,"rental_uris":{"android":"levelo://app?vid=e9045bcf-2c3a-4f4c-b428-012c0ecd376b","ios":"levelo://app?vid=e9045bcf-2c3a-4f4c-b428-012c0ecd376b"},"vehicle_type_id":"4","last_reported":1781296826,"current_range_meters":7200,"station_id":"ce4bha12rcd13ifvqee0","pricing_plan_id":"cebpf4jnsgd1na2vs0mg"},{"bike_id":"caefa88b-7b48-4b5d-a5b4-4f5568674469","system_id":"levelo_inurba_marseille","lat":43.23894,"lon":5.37465,"is_reserved":false,"is_disabled":false,"rental_uris":{"android":"levelo://app?vid=caefa88b-7b48-4b5d-a5b4-4f5568674469","ios":"levelo://app?vid=caefa88b-7b48-4b5d-a5b4-4f5568674469"},"vehicle_type_id":"4","last_reported":1781296826,"current_range_meters":7200,"station_id":"st_d6sm7csbq4hs73f8fpjg","pricing_plan_id":"cebpf4jnsgd1na2vs0mg"},{"bike_id":"6e4387d7-bd16-4a30-af78-71416e460c6d","system_id":"levelo_inurba_marseille","lat":43.30834,"lon":5.38377,"is_reserved":false,"is_disabled":false,"rental_uris":{"android":"levelo://app?vid=6e4387d7-bd16-4a30-af78-71416e460c6d","ios":"levelo://app?vid=6e4387d7-bd16-4a30-af78-71416e460c6d"},"vehicle_type_id":"4","last_reported":1781296826,"current_range_meters":7200,"station_id":"","pricing_plan_id":"cebpf4jnsgd1na2vs0mg"},{"bike_id":"a80c2580-5bf7-4a86-b2d1-488615406ba4","system_id":"levelo_inurba_marseille","lat":43.29045,"lon":5.42623,"is_reserved":false,"is_disabled":false,"rental_uris":{"android":"levelo://app?vid=a80c2580-5bf7-4a86-b2d1-488615406ba4","ios":"levelo://app?vid=a80c2580-5bf7-4a86-b2d1-488615406ba4"},"vehicle_type_id":"4","last_reported":1781296826,"current_range_meters":7200,"station_id":"","pricing_plan_id":"cebpf4jnsgd1na2vs0mg"},{"bike_id":"ed1b8ea2-ecf3-46da-8352-26963074c835","system_id":"levelo_inurba_marseille","lat":43.24448,"lon":5.42511,"is_reserved":false,"is_disabled":false,"rental_uris":{"android":"levelo://app?vid=ed1b8ea2-ecf3-46da-8352-26963074c835","ios":"levelo://app?vid=ed1b8ea2-ecf3-46da-8352-26963074c835"},"vehicle_type_id":"4","last_reported":1781296826,"current_range_meters":7200,"station_id":"st_d4a3vfp97mjs738cd8kg","pricing_plan_id":"cebpf4jnsgd1na2vs0mg"},{"bike_id":"4b60ae99-f290-4039-abe4-cd055330fc73","system_id":"levelo_inurba_marseille","lat":43.278095,"lon":5.407192,"is_reserved":false,"is_disabled":false,"rental_uris":{"android":"levelo://app?vid=4b60ae99-f290-4039-abe4-cd055330fc73","ios":"levelo://app?vid=4b60ae99-f290-4039-abe4-cd055330fc73"},"vehicle_type_id":"4","last_reported":1781296826,"current_range_meters":7200,"station_id":"","pricing_plan_id":"cebpf4jnsgd1na2vs0mg"},{"bike_id":"4a121e3a-eac5-4a43-b8c7-f9848a1df946","system_id":"levelo_inurba_marseille","lat":43.29251,"lon":5.38444,"is_reserved":false,"is_disabled":false,"rental_uris":{"android":"levelo://app?vid=4a121e3a-eac5-4a43-b8c7-f9848a1df946","ios":"levelo://app?vid=4a121e3a-eac5-4a43-b8c7-f9848a1df946"},"vehicle_type_id":"4","last_reported":1781296826,"current_range_meters":7200,"station_id":"ce4bh692rcd13ifvqea0","pricing_plan_id":"cebpf4jnsgd1na2vs0mg"},{"bike_id":"86cffae5-a719-4128-9b84-58e58e49b7c2","system_id":"levelo_inurba_marseille","lat":43.29062,"lon":5.42445,"is_reserved":false,"is_disabled":false,"rental_uris":{"android":"levelo://app?vid=86cffae5-a719-4128-9b84-58e58e49b7c2","ios":"levelo://app?vid=86cffae5-a719-4128-9b84-58e58e49b7c2"},"vehicle_type_id":"4","last_reported":1781296826,"current_range_meters":7200,"station_id":"","pricing_plan_id":"cebpf4jnsgd1na2vs0mg"},{"bike_id":"57d69777-1682-47c9-b53e-1b1c8d3ff4bd","system_id":"levelo_inurba_marseille","lat":43.27671,"lon":5.357358,"is_reserved":false,"is_disabled":false,"rental_uris":{"android":"levelo://app?vid=57d69777-1682-47c9-b53e-1b1c8d3ff4bd","ios":"levelo://app?vid=57d69777-1682-47c9-b53e-1b1c8d3ff4bd"},"vehicle_type_id":"4","last_reported":1781296826,"current_range_meters":7200,"station_id":"","pricing_plan_id":"cebpf4jnsgd1na2vs0mg"},