{"last_updated":1715461631,"ttl":30,"version":"2.2","data":{"bikes":[{"bike_id":"b6d5adf7-e3cf-42dc-bd46-9e38f2887abe","system_id":"levelo_inurba_marseille","lat":43.312423,"lon":5.368549,"is_reserved":false,"is_disabled":false,"rental_uris":{"android":"levelo://app?vid=b6d5adf7-e3cf-42dc-bd46-9e38f2887abe","ios":"levelo://app?vid=b6d5adf7-e3cf-42dc-bd46-9e38f2887abe"},"vehicle_type_id":"4","last_reported":1715461631,"current_range_meters":4800,"station_id":"ce4bgl92rcd13ifvqbq0","pricing_plan_id":"cebpf4jnsgd1na2vs0mg"},{"bike_id":"15c23b71-3668-403b-8f04-383b7ad43740","system_id":"levelo_inurba_marseille","lat":43.312239,"lon":5.368562,"is_reserved":false,"is_disabled":false,"rental_uris":{"android":"levelo://app?vid=15c23b71-3668-403b-8f04-383b7ad43740","ios":"levelo://app?vid=15c23b71-3668-403b-8f04-383b7ad43740"},"vehicle_type_id":"4","last_reported":1715461631,"current_range_meters":6400,"station_id":"ce4bgl92rcd13ifvqbq0","pricing_plan_id":"cebpf4jnsgd1na2vs0mg"},{"bike_id":"73cb83c0-9afc-417e-baa2-897dcef7a5a5","system_id":"levelo_inurba_marseille","lat":43.312239,"lon":5.368562,"is_reserved":false,"is_disabled":false,"rental_uris":{"android":"levelo://app?vid=73cb83c0-9afc-417e-baa2-897dcef7a5a5","ios":"levelo://app?vid=73cb83c0-9afc-417e-baa2-897dcef7a5a5"},"vehicle_type_id":"4","last_reported":1715461631,"current_range_meters":20400,"station_id":"ce4bgl92rcd13ifvqbq0","pricing_plan_id":"cebpf4jnsgd1na2vs0mg"},{"bike_id":"2f613741-bfda-43a9-9cf5-c8fc2135c89d","system_id":"levelo_inurba_marseille","lat":43.312239,"lon":5.368562,"is_reserved":false,"is_disabled":false,"rental_uris":{"android":"levelo://app?vid=2f613741-bfda-43a9-9cf5-c8fc2135c89d","ios":"levelo://app?vid=2f613741-bfda-43a9-9cf5-c8fc2135c89d"},"vehicle_type_id":"4","last_reported":1715461631,"current_range_meters":8400,"station_id":"ce4bgl92rcd13ifvqbq0","pricing_plan_id":"cebpf4jnsgd1na2vs0mg"},{"bike_id":"312160d1-8fa2-468a-8ebf-fd60da90dc8a","system_id":"levelo_inurba_marseille","lat":43.3122,"lon":5.36877,"is_reserved":false,"is_disabled":false,"rental_uris":{"android":"levelo://app?vid=312160d1-8fa2-468a-8ebf-fd60da90dc8a","ios":"levelo://app?vid=312160d1-8fa2-468a-8ebf-fd60da90dc8a"},"vehicle_type_id":"4","last_reported":1715461631,"current_range_meters":26400,"station_id":"ce4bgl92rcd13ifvqbq0","pricing_plan_id":"cebpf4jnsgd1na2vs0mg"},{"bike_id":"75ae3393-a7f1-421c-a2e5-958f2d4d7f26","system_id":"levelo_inurba_marseille","lat":43.309076,"lon":5.368465,"is_reserved":false,"is_disabled":false,"rental_uris":{"android":"levelo://app?vid=75ae3393-a7f1-421c-a2e5-958f2d4d7f26","ios":"levelo://app?vid=75ae3393-a7f1-421c-a2e5-958f2d4d7f26"},"vehicle_type_id":"4","last_reported":1715461631,"current_range_meters":4400,"station_id":"ce4bgn92rcd13ifvqbvg","pricing_plan_id":"cebpf4jnsgd1na2vs0mg"},{"bike_id":"ce346588-0ddf-40c4-af52-a1b9e984907a","system_id":"levelo_inurba_marseille","lat":43.309076,"lon":5.368465,"is_reserved":false,"is_disabled":false,"rental_uris":{"android":"levelo://app?vid=ce346588-0ddf-40c4-af52-a1b9e984907a","ios":"levelo://app?vid=ce346588-0ddf-40c4-af52-a1b9e984907a"},"vehicle_type_id":"4","last_reported":1715461631,"current_range_meters":30000,"station_id":"ce4bgn92rcd13ifvqbvg","pricing_plan_id":"cebpf4jnsgd1na2vs0mg"},{"bike_id":"f810f5a0-f783-44fc-b524-774d35ca36aa","system_id":"levelo_inurba_marseille","lat":43.31482,"lon":5.3731,"is_reserved":false,"is_disabled":false,"rental_uris":{"android":"levelo://app?vid=f810f5a0-f783-44fc-b524-774d35ca36aa","ios":"levelo://app?vid=f810f5a0-f783-44fc-b524-774d35ca36aa"},"vehicle_type_id":"4","last_reported":1715461631,"current_range_meters":0,"station_id":"ce4bgt12rcd13ifvqcd0","pricing_plan_id":"cebpf4jnsgd1na2vs0mg"},{"bike_id":"ddb7e328-d932-4d23-a593-f8d93f6ee6c9","system_id":"levelo_inurba_marseille","lat":43.31495,"lon":5.37304,"is_reserved":false,"is_disabled":false,"rental_uris":{"android":"levelo://app?vid=ddb7e328-d932-4d23-a593-f8d93f6ee6c9","ios":"levelo://app?vid=ddb7e328-d932-4d23-a593-f8d93f6ee6c9"},"vehicle_type_id":"4","last_reported":1715461631,"current_range_meters":0,"station_id":"ce4bgt12rcd13ifvqcd0","pricing_plan_id":"cebpf4jnsgd1na2vs0mg"},{"bike_id":"3376c42b-fb30-4fa9-8de3-5e8986ec24b8","system_id":"levelo_inurba_marseille","lat":43.31494,"lon":5.37308,"is_reserved":false,"is_disabled":false,"rental_uris":{"android":"levelo://app?vid=3376c42b-fb30-4fa9-8de3-5e8986ec24b8","ios":"levelo://app?vid=3376c42b-fb30-4fa9-8de3-5e8986ec24b8"},"vehicle_type_id":"4","last_reported":1715461631,"current_range_meters":13600,"station_id":"ce4bgt12rcd13ifvqcd0","pricing_plan_id":"cebpf4jnsgd1na2vs0mg"},{"bike_id":"b20350b3-67c8-469a-8951-d65cf0f69a1e","system_id":"levelo_inurba_marseille","lat":43.309039,"lon":5.371797,"is_reserved":false,"is_disabled":false,"rental_uris":{"android":"levelo://app?vid=b20350b3-67c8-469a-8951-d65cf0f69a1e","ios":"levelo://app?vid=b20350b3-67c8-469a-8951-d65cf0f69a1e"},"vehicle_type_id":"4","last_reported":1715461631,"current_range_meters":8400,"station_id":"ce4bguh2rcd13ifvqckg","pricing_plan_id":"cebpf4jnsgd1na2vs0mg"},{"bike_id":"0ad8755b-b8d6-4caf-b0d2-205eceda3633","system_id":"levelo_inurba_marseille","lat":43.314811,"lon":5.373104,"is_reserved":false,"is_disabled":false,"rental_uris":{"android":"levelo://app?vid=0ad8755b-b8d6-4caf-b0d2-205eceda3633","ios":"levelo://app?vid=0ad8755b-b8d6-4caf-b0d2-205eceda3633"},"vehicle_type_id":"4","last_reported":1715461631,"current_range_meters":6000,"station_id":"ce4bgt12rcd13ifvqcd0","pricing_plan_id":"cebpf4jnsgd1na2vs0mg"},{"bike_id":"0957e933-1b51-46a7-8089-090eb8de71ba","system_id":"levelo_inurba_marseille","lat":43.30878,"lon":5.37198,"is_reserved":false,"is_disabled":false,"rental_uris":{"android":"levelo://app?vid=0957e933-1b51-46a7-8089-090eb8de71ba","ios":"levelo://app?vid=0957e933-1b51-46a7-8089-090eb8de71ba"},"vehicle_type_id":"4","last_reported":1715461631,"current_range_meters":0,"station_id":"ce4bguh2rcd13ifvqckg","pricing_plan_id":"cebpf4jnsgd1na2vs0mg"},{"bike_id":"cd8087b4-b6d4-4395-b9fd-4f697b7b1881","system_id":"levelo_inurba_marseille","lat":43.30551,"lon":5.36701,"is_reserved":false,"is_disabled":false,"rental_uris":{"android":"levelo://app?vid=cd8087b4-b6d4-4395-b9fd-4f697b7b1881","ios":"levelo://app?vid=cd8087b4-b6d4-4395-b9fd-4f697b7b1881"},"vehicle_type_id":"4","last_reported":1715461631,"current_range_meters":2000,"station_id":"ce4bgrp2rcd13ifvqc9g","pricing_plan_id":"cebpf4jnsgd1na2vs0mg"},{"bike_id":"9f222b4b-4c72-482b-a763-ea4913bf6ef5","system_id":"levelo_inurba_marseille","lat":43.305989,"lon":5.37225,"is_reserved":false,"is_disabled":false,"rental_uris":{"android":"levelo://app?vid=9f222b4b-4c72-482b-a763-ea4913bf6ef5","ios":"levelo://app?vid=9f222b4b-4c72-482b-a763-ea4913bf6ef5"},"vehicle_type_id":"4","last_reported":1715461631,"current_range_meters":18000,"station_id":"ce4bgqh2rcd13ifvqc4g","pricing_plan_id":"cebpf4jnsgd1na2vs0mg"},{"bike_id":"d080e089-308f-4331-8522-fd542409311a","system_id":"levelo_inurba_marseille","lat":43.311131,"lon":5.377651,"is_reserved":false,"is_disabled":false,"rental_uris":{"android":"levelo://app?vid=d080e089-308f-4331-8522-fd542409311a","ios":"levelo://app?vid=d080e089-308f-4331-8522-fd542409311a"},"vehicle_type_id":"4","last_reported":1715461631,"current_range_meters":1600,"station_id":"ce4bgt92rcd13ifvqcg0","pricing_plan_id":"cebpf4jnsgd1na2vs0mg"},{"bike_id":"c317af9c-df59-4a3f-9ef8-114edae49360","system_id":"levelo_inurba_marseille","lat":43.311131,"lon":5.377651,"is_reserved":false,"is_disabled":false,"rental_uris":{"android":"levelo://app?vid=c317af9c-df59-4a3f-9ef8-114edae49360","ios":"levelo://app?vid=c317af9c-df59-4a3f-9ef8-114edae49360"},"vehicle_type_id":"4","last_reported":1715461631,"current_range_meters":26800,"station_id":"ce4bgt92rcd13ifvqcg0","pricing_plan_id":"cebpf4jnsgd1na2vs0mg"},{"bike_id":"b869e5c3-0444-42c6-b7b4-b80891d6bbad","system_id":"levelo_inurba_marseille","lat":43.305989,"lon":5.37225,"is_reserved":false,"is_disabled":false,"rental_uris":{"android":"levelo://app?vid=b869e5c3-0444-42c6-b7b4-b80891d6bbad","ios":"levelo://app?vid=b869e5c3-0444-42c6-b7b4-b80891d6bbad"},"vehicle_type_id":"4","last_reported":1715461631,"current_range_meters":11600,"station_id":"ce4bgqh2rcd13ifvqc4g","pricing_plan_id":"cebpf4jnsgd1na2vs0mg"},{"bike_id":"7028835a-ae64-4d33-a20b-5465db284918","system_id":"levelo_inurba_marseille","lat":43.307945,"lon":5.376487,"is_reserved":false,"is_disabled":false,"rental_uris":{"android":"levelo://app?vid=7028835a-ae64-4d33-a20b-5465db284918","ios":"levelo://app?vid=7028835a-ae64-4d33-a20b-5465db284918"},"vehicle_type_id":"4","last_reported":1715461631,"current_range_meters":25200,"station_id":"ce4bgv92rcd13ifvqcq0","pricing_plan_id":"cebpf4jnsgd1na2vs0mg"},{"bike_id":"a8420d12-5ea1-4553-ba77-74153419b9a1","system_id":"levelo_inurba_marseille","lat":43.307945,"lon":5.376487,"is_reserved":false,"is_disabled":false,"rental_uris":{"android":"levelo://app?vid=a8420d12-5ea1-4553-ba77-74153419b9a1","ios":"levelo://app?vid=a8420d12-5ea1-4553-ba77-74153419b9a1"},"vehicle_type_id":"4","last_reported":1715461631,"current_range_meters":31200,"station_id":"ce4bgv92rcd13ifvqcq0","pricing_plan_id":"cebpf4jnsgd1na2vs0mg"},{"bike_id":"57e96d4e-aa35-4a7e-8ac8-a7cd46ff08fa","system_id":"levelo_inurba_marseille","lat":43.307945,"lon":5.376487,"is_reserved":false,"is_disabled":false,"rental_uris":{"android":"levelo://app?vid=57e96d4e-aa35-4a7e-8ac8-a7cd46ff08fa","ios":"levelo://app?vid=57e96d4e-aa35-4a7e-8ac8-a7cd46ff08fa"},"vehicle_type_id":"4","last_reported":1715461631,"current_range_meters":2800,"station_id":"ce4bgv92rcd13ifvqcq0","pricing_plan_id":"cebpf4jnsgd1na2vs0mg"},{"bike_id":"4bf92838-c09e-4f8e-aa7d-448a6884f219","system_id":"levelo_inurba_marseille","lat":43.307945,"lon":5.376487,"is_reserved":false,"is_disabled":false,"rental_uris":{"android":"levelo://app?vid=4bf92838-c09e-4f8e-aa7d-448a6884f219","ios":"levelo://app?vid=4bf92838-c09e-4f8e-aa7d-448a6884f219"},"vehicle_type_id":"4","last_reported":1715461631,"current_range_meters":26000,"station_id":"ce4bgv92rcd13ifvqcq0","pricing_plan_id":"cebpf4jnsgd1na2vs0mg"},{"bike_id":"38227d49-b2f9-4e1e-adcd-b8939f7ea0a4","system_id":"levelo_inurba_marseille","lat":43.307945,"lon":5.376487,"is_reserved":false,"is_disabled":false,"rental_uris":{"android":"levelo://app?vid=38227d49-b2f9-4e1e-adcd-b8939f7ea0a4","ios":"levelo://app?vid=38227d49-b2f9-4e1e-adcd-b8939f7ea0a4"},"vehicle_type_id":"4","last_reported":1715461631,"current_range_meters":24400,"station_id":"ce4bgv92rcd13ifvqcq0","pricing_plan_id":"cebpf4jnsgd1na2vs0mg"},{"bike_id":"e88d998f-0cce-45ad-99f5-d874d8dbe12e","system_id":"levelo_inurba_marseille","lat":43.307945,"lon":5.376487,"is_reserved":false,"is_disabled":false,"rental_uris":{"android":"levelo://app?vid=e88d998f-0cce-45ad-99f5-d874d8dbe12e","ios":"levelo://app?vid=e88d998f-0cce-45ad-99f5-d874d8dbe12e"},"vehicle_type_id":"4","last_reported":1715461631,"current_range_meters":26400,"station_id":"ce4bgv92rcd13ifvqcq0","pricing_plan_id":"cebpf4jnsgd1na2vs0mg"},{"bike_id":"5a7b2386-7fee-4c94-914b-cee4237803e9","system_id":"levelo_inurba_marseille","lat":43.307945,"lon":5.376487,"is_reserved":false,"is_disabled":false,"rental_uris":{"android":"levelo://app?vid=5a7b2386-7fee-4c94-914b-cee4237803e9","ios":"levelo://app?vid=5a7b2386-7fee-4c94-914b-cee4237803e9"},"vehicle_type_id":"4","last_reported":1715461631,"current_range_meters":23200,"station_id":"ce4bgv92rcd13ifvqcq0","pricing_plan_id":"cebpf4jnsgd1na2vs0mg"},{"bike_id":"43eeca73-981a-4e0a-b033-348ec10d81e0","system_id":"levelo_inurba_marseille","lat":43.317075,"lon":5.377367,"is_reserved":false,"is_disabled":false,"rental_uris":{"android":"levelo://app?vid=43eeca73-981a-4e0a-b033-348ec10d81e0","ios":"levelo://app?vid=43eeca73-981a-4e0a-b033-348ec10d81e0"},"vehicle_type_id":"4","last_reported":1715461631,"current_range_meters":15600,"station_id":"ce4bgth2rcd13ifvqch0","pricing_plan_id":"cebpf4jnsgd1na2vs0mg"},{"bike_id":"8c097122-685e-41d0-8670-2bb464d989b0","system_id":"levelo_inurba_marseille","lat":43.317075,"lon":5.377367,"is_reserved":false,"is_disabled":false,"rental_uris":{"android":"levelo://app?vid=8c097122-685e-41d0-8670-2bb464d989b0","ios":"levelo://app?vid=8c097122-685e-41d0-8670-2bb464d989b0"},"vehicle_type_id":"4","last_reported":1715461631,"current_range_meters":2000,"station_id":"ce4bgth2rcd13ifvqch0","pricing_plan_id":"cebpf4jnsgd1na2vs0mg"},{"bike_id":"8920910b-22c5-4db4-92e6-6b42843f21b2","system_id":"levelo_inurba_marseille","lat":43.303046,"lon":5.368981,"is_reserved":false,"is_disabled":false,"rental_uris":{"android":"levelo://app?vid=8920910b-22c5-4db4-92e6-6b42843f21b2","ios":"levelo://app?vid=8920910b-22c5-4db4-92e6-6b42843f21b2"},"vehicle_type_id":"4","last_reported":1715461631,"current_range_meters":10400,"station_id":"ce4bgqh2rcd13ifvqc5g","pricing_plan_id":"cebpf4jnsgd1na2vs0mg"},{"bike_id":"10f92648-91f2-4929-bcf3-c3efc09aafe0","system_id":"levelo_inurba_marseille","lat":43.315289,"lon":5.380349,"is_reserved":false,"is_disabled":false,"rental_uris":{"android":"levelo://app?vid=10f92648-91f2-4929-bcf3-c3efc09aafe0","ios":"levelo://app?vid=10f92648-91f2-4929-bcf3-c3efc09aafe0"},"vehicle_type_id":"4","last_reported":1715461631,"current_range_meters":7200,"station_id":"ce4bhsp2rcd13ifvqi50","pricing_plan_id":"cebpf4jnsgd1na2vs0mg"},{"bike_id":"dfc7ec82-cde0-4457-a8fa-45b6c6a6be39","system_id":"levelo_inurba_marseille","lat":43.30195,"lon":5.36588,"is_reserved":false,"is_disabled":false,"rental_uris":{"android":"levelo://app?vid=dfc7ec82-cde0-4457-a8fa-45b6c6a6be39","ios":"levelo://app?vid=dfc7ec82-cde0-4457-a8fa-45b6c6a6be39"},"vehicle_type_id":"4","last_reported":1715461631,"current_range_meters":0,"station_id":"ce4bgrh2rcd13ifvqc8g","pricing_plan_id":"cebpf4jnsgd1na2vs0mg"},{"bike_id":"b44d87c6-0a59-4fcf-bc94-f3f4d46ddd3d","system_id":"levelo_inurba_marseille","lat":43.301939,"lon":5.366286,"is_reserved":false,"is_disabled":false,"rental_uris":{"android":"levelo://app?vid=b44d87c6-0a59-4fcf-bc94-f3f4d46ddd3d","ios":"levelo://app?vid=b44d87c6-0a59-4fcf-bc94-f3f4d46ddd3d"},"vehicle_type_id":"4","last_reported":1715461631,"current_range_meters":12000,"station_id":"ce4bgrh2rcd13ifvqc8g","pricing_plan_id":"cebpf4jnsgd1na2vs0mg"},{"bike_id":"02b0faa7-289c-4b50-8314-7603932f402f","system_id":"levelo_inurba_marseille","lat":43.308012,"lon":5.381511,"is_reserved":false,"is_disabled":false,"rental_uris":{"android":"levelo://app?vid=02b0faa7-289c-4b50-8314-7603932f402f","ios":"levelo://app?vid=02b0faa7-289c-4b50-8314-7603932f402f"},"vehicle_type_id":"4","last_reported":1715461631,"current_range_meters":7200,"station_id":"ce4bgt12rcd13ifvqce0","pricing_plan_id":"cebpf4jnsgd1na2vs0mg"},{"bike_id":"f0519099-c2a2-4b00-9e88-4684a9a3ca1e","system_id":"levelo_inurba_marseille","lat":43.308012,"lon":5.381511,"is_reserved":false,"is_disabled":false,"rental_uris":{"android":"levelo://app?vid=f0519099-c2a2-4b00-9e88-4684a9a3ca1e","ios":"levelo://app?vid=f0519099-c2a2-4b00-9e88-4684a9a3ca1e"},"vehicle_type_id":"4","last_reported":1715461631,"current_range_meters":24000,"station_id":"ce4bgt12rcd13ifvqce0","pricing_plan_id":"cebpf4jnsgd1na2vs0mg"},{"bike_id":"46ca62fe-2200-4fb9-b209-fa360db28095","system_id":"levelo_inurba_marseille","lat":43.308012,"lon":5.381511,"is_reserved":false,"is_disabled":false,"rental_uris":{"android":"levelo://app?vid=46ca62fe-2200-4fb9-b209-fa360db28095","ios":"levelo://app?vid=46ca62fe-2200-4fb9-b209-fa360db28095"},"vehicle_type_id":"4","last_reported":1715461631,"current_range_meters":10800,"station_id":"ce4bgt12rcd13ifvqce0","pricing_plan_id":"cebpf4jnsgd1na2vs0mg"},{"bike_id":"7c2713bb-1e0e-429c-9d41-368100949eb9","system_id":"levelo_inurba_marseille","lat":43.304606,"lon":5.379026,"is_reserved":false,"is_disabled":false,"rental_uris":{"android":"levelo://app?vid=7c2713bb-1e0e-429c-9d41-368100949eb9","ios":"levelo://app?vid=7c2713bb-1e0e-429c-9d41-368100949eb9"},"vehicle_type_id":"4","last_reported":1715461631,"current_range_meters":0,"station_id":"ce4bgup2rcd13ifvqcn0","pricing_plan_id":"cebpf4jnsgd1na2vs0mg"},{"bike_id":"e471e7ae-2034-44ee-b6a9-11a866026577","system_id":"levelo_inurba_marseille","lat":43.304606,"lon":5.379026,"is_reserved":false,"is_disabled":false,"rental_uris":{"android":"levelo://app?vid=e471e7ae-2034-44ee-b6a9-11a866026577","ios":"levelo://app?vid=e471e7ae-2034-44ee-b6a9-11a866026577"},"vehicle_type_id":"4","last_reported":1715461631,"current_range_meters":5200,"station_id":"ce4bgup2rcd13ifvqcn0","pricing_plan_id":"cebpf4jnsgd1na2vs0mg"},{"bike_id":"bc25cdf7-0d3b-49af-812d-80a6c19bc66a","system_id":"levelo_inurba_marseille","lat":43.304606,"lon":5.379026,"is_reserved":false,"is_disabled":false,"rental_uris":{"android":"levelo://app?vid=bc25cdf7-0d3b-49af-812d-80a6c19bc66a","ios":"levelo://app?vid=bc25cdf7-0d3b-49af-812d-80a6c19bc66a"},"vehicle_type_id":"4","last_reported":1715461631,"current_range_meters":21200,"station_id":"ce4bgup2rcd13ifvqcn0","pricing_plan_id":"cebpf4jnsgd1na2vs0mg"},{"bike_id":"333cb693-6337-42b4-8566-231779fdd3f3","system_id":"levelo_inurba_marseille","lat":43.324771,"lon":5.36557,"is_reserved":false,"is_disabled":false,"rental_uris":{"android":"levelo://app?vid=333cb693-6337-42b4-8566-231779fdd3f3","ios":"levelo://app?vid=333cb693-6337-42b4-8566-231779fdd3f3"},"vehicle_type_id":"4","last_reported":1715461631,"current_range_meters":5600,"station_id":"ce4bhs12rcd13ifvqhvg","pricing_plan_id":"cebpf4jnsgd1na2vs0mg"},{"bike_id":"3d8b7acc-05a7-41da-9ae5-0bf56340cdc2","system_id":"levelo_inurba_marseille","lat":43.304606,"lon":5.379026,"is_reserved":false,"is_disabled":false,"rental_uris":{"android":"levelo://app?vid=3d8b7acc-05a7-41da-9ae5-0bf56340cdc2","ios":"levelo://app?vid=3d8b7acc-05a7-41da-9ae5-0bf56340cdc2"},"vehicle_type_id":"4","last_reported":1715461631,"current_range_meters":12800,"station_id":"ce4bgup2rcd13ifvqcn0","pricing_plan_id":"cebpf4jnsgd1na2vs0mg"},{"bike_id":"b125298d-03d9-4812-acc8-376d3fccfa8d","system_id":"levelo_inurba_marseille","lat":43.313571,"lon":5.384829,"is_reserved":false,"is_disabled":false,"rental_uris":{"android":"levelo://app?vid=b125298d-03d9-4812-acc8-376d3fccfa8d","ios":"levelo://app?vid=b125298d-03d9-4812-acc8-376d3fccfa8d"},"vehicle_type_id":"4","last_reported":1715461631,"current_range_meters":6000,"station_id":"ce4bgt92rcd13ifvqcf0","pricing_plan_id":"cebpf4jnsgd1na2vs0mg"},{"bike_id":"bbfe2455-9875-4a6e-bd88-8f6a8f83ba68","system_id":"levelo_inurba_marseille","lat":43.304274,"lon":5.397513,"is_reserved":false,"is_disabled":false,"rental_uris":{"android":"levelo://app?vid=bbfe2455-9875-4a6e-bd88-8f6a8f83ba68","ios":"levelo://app?vid=bbfe2455-9875-4a6e-bd88-8f6a8f83ba68"},"vehicle_type_id":"4","last_reported":1715461631,"current_range_meters":22000,"station_id":"ce4bh092rcd13ifvqd20","pricing_plan_id":"cebpf4jnsgd1na2vs0mg"},{"bike_id":"b477d686-c217-4fd8-853d-78a541c0c23e","system_id":"levelo_inurba_marseille","lat":43.324771,"lon":5.36557,"is_reserved":false,"is_disabled":false,"rental_uris":{"android":"levelo://app?vid=b477d686-c217-4fd8-853d-78a541c0c23e","ios":"levelo://app?vid=b477d686-c217-4fd8-853d-78a541c0c23e"},"vehicle_type_id":"4","last_reported":1715461631,"current_range_meters":1600,"station_id":"ce4bhs12rcd13ifvqhvg","pricing_plan_id":"cebpf4jnsgd1na2vs0mg"},{"bike_id":"a76ac9e1-e5fc-45aa-83a4-d1570f8cca81","system_id":"levelo_inurba_marseille","lat":43.3248,"lon":5.36556,"is_reserved":false,"is_disabled":false,"rental_uris":{"android":"levelo://app?vid=a76ac9e1-e5fc-45aa-83a4-d1570f8cca81","ios":"levelo://app?vid=a76ac9e1-e5fc-45aa-83a4-d1570f8cca81"},"vehicle_type_id":"4","last_reported":1715461631,"current_range_meters":8800,"station_id":"","pricing_plan_id":"cebpf4jnsgd1na2vs0mg"},{"bike_id":"de363a9b-b8dd-4f25-97c4-05ca23eea0b0","system_id":"levelo_inurba_marseille","lat":43.324771,"lon":5.36557,"is_reserved":false,"is_disabled":false,"rental_uris":{"android":"levelo://app?vid=de363a9b-b8dd-4f25-97c4-05ca23eea0b0","ios":"levelo://app?vid=de363a9b-b8dd-4f25-97c4-05ca23eea0b0"},"vehicle_type_id":"4","last_reported":1715461631,"current_range_meters":0,"station_id":"ce4bhs12rcd13ifvqhvg","pricing_plan_id":"cebpf4jnsgd1na2vs0mg"},{"bike_id":"27864151-07c6-46e0-bb7f-76413df57206","system_id":"levelo_inurba_marseille","lat":43.324771,"lon":5.36557,"is_reserved":false,"is_disabled":false,"rental_uris":{"android":"levelo://app?vid=27864151-07c6-46e0-bb7f-76413df57206","ios":"levelo://app?vid=27864151-07c6-46e0-bb7f-76413df57206"},"vehicle_type_id":"4","last_reported":1715461631,"current_range_meters":19200,"station_id":"ce4bhs12rcd13ifvqhvg","pricing_plan_id":"cebpf4jnsgd1na2vs0mg"},{"bike_id":"7d725402-757b-4cd9-84ff-6dd57d0cc79e","system_id":"levelo_inurba_marseille","lat":43.32487,"lon":5.36565,"is_reserved":false,"is_disabled":false,"rental_uris":{"android":"levelo://app?vid=7d725402-757b-4cd9-84ff-6dd57d0cc79e","ios":"levelo://app?vid=7d725402-757b-4cd9-84ff-6dd57d0cc79e"},"vehicle_type_id":"4","last_reported":1715461631,"current_range_meters":27200,"station_id":"ce4bhs12rcd13ifvqhvg","pricing_plan_id":"cebpf4jnsgd1na2vs0mg"},{"bike_id":"a5aae73a-6cf1-4b49-87b4-d746ca727a77","system_id":"levelo_inurba_marseille","lat":43.310804,"lon":5.38359,"is_reserved":false,"is_disabled":false,"rental_uris":{"android":"levelo://app?vid=a5aae73a-6cf1-4b49-87b4-d746ca727a77","ios":"levelo://app?vid=a5aae73a-6cf1-4b49-87b4-d746ca727a77"},"vehicle_type_id":"4","last_reported":1715461631,"current_range_meters":9600,"station_id":"ce4bgv92rcd13ifvqcr0","pricing_plan_id":"cebpf4jnsgd1na2vs0mg"},{"bike_id":"9533a675-c7b3-4a17-9a94-05ea11af0952","system_id":"levelo_inurba_marseille","lat":43.310804,"lon":5.38359,"is_reserved":false,"is_disabled":false,"rental_uris":{"android":"levelo://app?vid=9533a675-c7b3-4a17-9a94-05ea11af0952","ios":"levelo://app?vid=9533a675-c7b3-4a17-9a94-05ea11af0952"},"vehicle_type_id":"4","last_reported":1715461631,"current_range_meters":800,"station_id":"ce4bgv92rcd13ifvqcr0","pricing_plan_id":"cebpf4jnsgd1na2vs0mg"},{"bike_id":"8f48c512-046e-4018-bc08-1af00933015a","system_id":"levelo_inurba_marseille","lat":43.310804,"lon":5.38359,"is_reserved":false,"is_disabled":false,"rental_uris":{"android":"levelo://app?vid=8f48c512-046e-4018-bc08-1af00933015a","ios":"levelo://app?vid=8f48c512-046e-4018-bc08-1af00933015a"},"vehicle_type_id":"4","last_reported":1715461631,"current_range_meters":1600,"station_id":"ce4bgv92rcd13ifvqcr0","pricing_plan_id":"cebpf4jnsgd1na2vs0mg"},{"bike_id":"266b3ea2-b86c-488f-8cc2-72da6f001ce7","system_id":"levelo_inurba_marseille","lat":43.302784,"lon":5.377158,"is_reserved":false,"is_disabled":false,"rental_uris":{"android":"levelo://app?vid=266b3ea2-b86c-488f-8cc2-72da6f001ce7","ios":"levelo://app?vid=266b3ea2-b86c-488f-8cc2-72da6f001ce7"},"vehicle_type_id":"4","last_reported":1715461631,"current_range_meters":10800,"station_id":"ce4bguh2rcd13ifvqcj0","pricing_plan_id":"cebpf4jnsgd1na2vs0mg"},{"bike_id":"2b0ff087-e655-4f6c-b9f1-e447ab87f072","system_id":"levelo_inurba_marseille","lat":43.302784,"lon":5.377158,"is_reserved":false,"is_disabled":false,"rental_uris":{"android":"levelo://app?vid=2b0ff087-e655-4f6c-b9f1-e447ab87f072","ios":"levelo://app?vid=2b0ff087-e655-4f6c-b9f1-e447ab87f072"},"vehicle_type_id":"4","last_reported":1715461631,"current_range_meters":9200,"station_id":"ce4bguh2rcd13ifvqcj0","pricing_plan_id":"cebpf4jnsgd1na2vs0mg"},{"bike_id":"afe4c349-cfc6-4bef-90ae-5ae06a73227d","system_id":"levelo_inurba_marseille","lat":43.302784,"lon":5.377158,"is_reserved":false,"is_disabled":false,"rental_uris":{"android":"levelo://app?vid=afe4c349-cfc6-4bef-90ae-5ae06a73227d","ios":"levelo://app?vid=afe4c349-cfc6-4bef-90ae-5ae06a73227d"},"vehicle_type_id":"4","last_reported":1715461631,"current_range_meters":16800,"station_id":"ce4bguh2rcd13ifvqcj0","pricing_plan_id":"cebpf4jnsgd1na2vs0mg"},{"bike_id":"aa6930b9-25e4-46c2-b8bd-b181aa475bc0","system_id":"levelo_inurba_marseille","lat":43.302784,"lon":5.377158,"is_reserved":false,"is_disabled":false,"rental_uris":{"android":"levelo://app?vid=aa6930b9-25e4-46c2-b8bd-b181aa475bc0","ios":"levelo://app?vid=aa6930b9-25e4-46c2-b8bd-b181aa475bc0"},"vehicle_type_id":"4","last_reported":1715461631,"current_range_meters":2000,"station_id":"ce4bguh2rcd13ifvqcj0","pricing_plan_id":"cebpf4jnsgd1na2vs0mg"},{"bike_id":"6af742f2-0eb4-4b4b-9472-79c0986fb7ab","system_id":"levelo_inurba_marseille","lat":43.301429,"lon":5.37413,"is_reserved":false,"is_disabled":false,"rental_uris":{"android":"levelo://app?vid=6af742f2-0eb4-4b4b-9472-79c0986fb7ab","ios":"levelo://app?vid=6af742f2-0eb4-4b4b-9472-79c0986fb7ab"},"vehicle_type_id":"4","last_reported":1715461631,"current_range_meters":8400,"station_id":"ce4bgs92rcd13ifvqcc0","pricing_plan_id":"cebpf4jnsgd1na2vs0mg"},{"bike_id":"1c7cafee-e030-43eb-a330-eeb527a21816","system_id":"levelo_inurba_marseille","lat":43.32308,"lon":5.37705,"is_reserved":false,"is_disabled":false,"rental_uris":{"android":"levelo://app?vid=1c7cafee-e030-43eb-a330-eeb527a21816","ios":"levelo://app?vid=1c7cafee-e030-43eb-a330-eeb527a21816"},"vehicle_type_id":"4","last_reported":1715461631,"current_range_meters":8400,"station_id":"","pricing_plan_id":"cebpf4jnsgd1na2vs0mg"},{"bike_id":"8fcc13f4-4ae6-43e1-b422-006f088faa2c","system_id":"levelo_inurba_marseille","lat":43.319935,"lon":5.381699,"is_reserved":false,"is_disabled":false,"rental_uris":{"android":"levelo://app?vid=8fcc13f4-4ae6-43e1-b422-006f088faa2c","ios":"levelo://app?vid=8fcc13f4-4ae6-43e1-b422-006f088faa2c"},"vehicle_type_id":"4","last_reported":1715461631,"current_range_meters":0,"station_id":"ce4bhr12rcd13ifvqhpg","pricing_plan_id":"cebpf4jnsgd1na2vs0mg"},{"bike_id":"e8ef476a-b1e3-4e8c-82c7-a87911daffc5","system_id":"levelo_inurba_marseille","lat":43.313571,"lon":5.384829,"is_reserved":false,"is_disabled":false,"rental_uris":{"android":"levelo://app?vid=e8ef476a-b1e3-4e8c-82c7-a87911daffc5","ios":"levelo://app?vid=e8ef476a-b1e3-4e8c-82c7-a87911daffc5"},"vehicle_type_id":"4","last_reported":1715461631,"current_range_meters":31200,"station_id":"ce4bgt92rcd13ifvqcf0","pricing_plan_id":"cebpf4jnsgd1na2vs0mg"},{"bike_id":"ab66e624-79f5-419e-ab4d-504c9d1261a5","system_id":"levelo_inurba_marseille","lat":43.313571,"lon":5.384829,"is_reserved":false,"is_disabled":false,"rental_uris":{"android":"levelo://app?vid=ab66e624-79f5-419e-ab4d-504c9d1261a5","ios":"levelo://app?vid=ab66e624-79f5-419e-ab4d-504c9d1261a5"},"vehicle_type_id":"4","last_reported":1715461631,"current_range_meters":12800,"station_id":"ce4bgt92rcd13ifvqcf0","pricing_plan_id":"cebpf4jnsgd1na2vs0mg"},{"bike_id":"6c1a755c-5877-43ab-b148-9d39b1a6f17e","system_id":"levelo_inurba_marseille","lat":43.31357,"lon":5.38486,"is_reserved":false,"is_disabled":false,"rental_uris":{"android":"levelo://app?vid=6c1a755c-5877-43ab-b148-9d39b1a6f17e","ios":"levelo://app?vid=6c1a755c-5877-43ab-b148-9d39b1a6f17e"},"vehicle_type_id":"4","last_reported":1715461631,"current_range_meters":31200,"station_id":"ce4bgt92rcd13ifvqcf0","pricing_plan_id":"cebpf4jnsgd1na2vs0mg"},{"bike_id":"71f32a51-aac5-46d6-bd87-52815eff3e1b","system_id":"levelo_inurba_marseille","lat":43.313571,"lon":5.384829,"is_reserved":false,"is_disabled":false,"rental_uris":{"android":"levelo://app?vid=71f32a51-aac5-46d6-bd87-52815eff3e1b","ios":"levelo://app?vid=71f32a51-aac5-46d6-bd87-52815eff3e1b"},"vehicle_type_id":"4","last_reported":1715461631,"current_range_meters":23600,"station_id":"ce4bgt92rcd13ifvqcf0","pricing_plan_id":"cebpf4jnsgd1na2vs0mg"},{"bike_id":"824678c8-d02e-4845-9caa-d250dffb6a67","system_id":"levelo_inurba_marseille","lat":43.313571,"lon":5.384829,"is_reserved":false,"is_disabled":false,"rental_uris":{"android":"levelo://app?vid=824678c8-d02e-4845-9caa-d250dffb6a67","ios":"levelo://app?vid=824678c8-d02e-4845-9caa-d250dffb6a67"},"vehicle_type_id":"4","last_reported":1715461631,"current_range_meters":10400,"station_id":"ce4bgt92rcd13ifvqcf0","pricing_plan_id":"cebpf4jnsgd1na2vs0mg"},{"bike_id":"018da453-3439-4bdf-8d68-609d8788d32c","system_id":"levelo_inurba_marseille","lat":43.313571,"lon":5.384829,"is_reserved":false,"is_disabled":false,"rental_uris":{"android":"levelo://app?vid=018da453-3439-4bdf-8d68-609d8788d32c","ios":"levelo://app?vid=018da453-3439-4bdf-8d68-609d8788d32c"},"vehicle_type_id":"4","last_reported":1715461631,"current_range_meters":29600,"station_id":"ce4bgt92rcd13ifvqcf0","pricing_plan_id":"cebpf4jnsgd1na2vs0mg"},{"bike_id":"bcc739ae-5e43-4f31-bb87-9f6fe09e2442","system_id":"levelo_inurba_marseille","lat":43.313571,"lon":5.384829,"is_reserved":false,"is_disabled":false,"rental_uris":{"android":"levelo://app?vid=bcc739ae-5e43-4f31-bb87-9f6fe09e2442","ios":"levelo://app?vid=bcc739ae-5e43-4f31-bb87-9f6fe09e2442"},"vehicle_type_id":"4","last_reported":1715461631,"current_range_meters":12800,"station_id":"ce4bgt92rcd13ifvqcf0","pricing_plan_id":"cebpf4jnsgd1na2vs0mg"},{"bike_id":"cc258dc5-2747-4c4f-9e8a-0d841802ebaf","system_id":"levelo_inurba_marseille","lat":43.313571,"lon":5.384829,"is_reserved":false,"is_disabled":false,"rental_uris":{"android":"levelo://app?vid=cc258dc5-2747-4c4f-9e8a-0d841802ebaf","ios":"levelo://app?vid=cc258dc5-2747-4c4f-9e8a-0d841802ebaf"},"vehicle_type_id":"4","last_reported":1715461631,"current_range_meters":31200,"station_id":"ce4bgt92rcd13ifvqcf0","pricing_plan_id":"cebpf4jnsgd1na2vs0mg"},{"bike_id":"c7bea60e-910f-4220-9a58-7743cbc63306","system_id":"levelo_inurba_marseille","lat":43.313571,"lon":5.384829,"is_reserved":false,"is_disabled":false,"rental_uris":{"android":"levelo://app?vid=c7bea60e-910f-4220-9a58-7743cbc63306","ios":"levelo://app?vid=c7bea60e-910f-4220-9a58-7743cbc63306"},"vehicle_type_id":"4","last_reported":1715461631,"current_range_meters":24000,"station_id":"ce4bgt92rcd13ifvqcf0","pricing_plan_id":"cebpf4jnsgd1na2vs0mg"},{"bike_id":"badb5f76-71ed-4600-b35d-126c4209fe60","system_id":"levelo_inurba_marseille","lat":43.299222,"lon":5.365554,"is_reserved":false,"is_disabled":false,"rental_uris":{"android":"levelo://app?vid=badb5f76-71ed-4600-b35d-126c4209fe60","ios":"levelo://app?vid=badb5f76-71ed-4600-b35d-126c4209fe60"},"vehicle_type_id":"4","last_reported":1715461631,"current_range_meters":19200,"station_id":"ce4bgm92rcd13ifvqbr0","pricing_plan_id":"cebpf4jnsgd1na2vs0mg"},{"bike_id":"018966fb-c32a-4f82-84ab-ebe5fcdae87d","system_id":"levelo_inurba_marseille","lat":43.29977,"lon":5.37171,"is_reserved":false,"is_disabled":false,"rental_uris":{"android":"levelo://app?vid=018966fb-c32a-4f82-84ab-ebe5fcdae87d","ios":"levelo://app?vid=018966fb-c32a-4f82-84ab-ebe5fcdae87d"},"vehicle_type_id":"4","last_reported":1715461631,"current_range_meters":19200,"station_id":"ce4bgr92rcd13ifvqc7g","pricing_plan_id":"cebpf4jnsgd1na2vs0mg"},{"bike_id":"f7cde1a1-b775-46c2-a962-b51b8029dbdd","system_id":"levelo_inurba_marseille","lat":43.29977,"lon":5.37174,"is_reserved":false,"is_disabled":false,"rental_uris":{"android":"levelo://app?vid=f7cde1a1-b775-46c2-a962-b51b8029dbdd","ios":"levelo://app?vid=f7cde1a1-b775-46c2-a962-b51b8029dbdd"},"vehicle_type_id":"4","last_reported":1715461631,"current_range_meters":7600,"station_id":"ce4bgr92rcd13ifvqc7g","pricing_plan_id":"cebpf4jnsgd1na2vs0mg"},{"bike_id":"f7ffced5-f67b-4ea4-9bdb-fd963a51cc9f","system_id":"levelo_inurba_marseille","lat":43.299724,"lon":5.371829,"is_reserved":false,"is_disabled":false,"rental_uris":{"android":"levelo://app?vid=f7ffced5-f67b-4ea4-9bdb-fd963a51cc9f","ios":"levelo://app?vid=f7ffced5-f67b-4ea4-9bdb-fd963a51cc9f"},"vehicle_type_id":"4","last_reported":1715461631,"current_range_meters":2000,"station_id":"ce4bgr92rcd13ifvqc7g","pricing_plan_id":"cebpf4jnsgd1na2vs0mg"},{"bike_id":"224185d2-432c-4286-85fe-ec4779ce3a74","system_id":"levelo_inurba_marseille","lat":43.299724,"lon":5.371829,"is_reserved":false,"is_disabled":false,"rental_uris":{"android":"levelo://app?vid=224185d2-432c-4286-85fe-ec4779ce3a74","ios":"levelo://app?vid=224185d2-432c-4286-85fe-ec4779ce3a74"},"vehicle_type_id":"4","last_reported":1715461631,"current_range_meters":4400,"station_id":"ce4bgr92rcd13ifvqc7g","pricing_plan_id":"cebpf4jnsgd1na2vs0mg"},{"bike_id":"54a1d89e-df4b-4799-b4c3-21437836e2bc","system_id":"levelo_inurba_marseille","lat":43.29855,"lon":5.36288,"is_reserved":false,"is_disabled":false,"rental_uris":{"android":"levelo://app?vid=54a1d89e-df4b-4799-b4c3-21437836e2bc","ios":"levelo://app?vid=54a1d89e-df4b-4799-b4c3-21437836e2bc"},"vehicle_type_id":"4","last_reported":1715461631,"current_range_meters":25200,"station_id":"ce4bgpp2rcd13ifvqc3g","pricing_plan_id":"cebpf4jnsgd1na2vs0mg"},{"bike_id":"655788ce-5898-4a64-9cf7-5ce898650bcd","system_id":"levelo_inurba_marseille","lat":43.298433,"lon":5.362774,"is_reserved":false,"is_disabled":false,"rental_uris":{"android":"levelo://app?vid=655788ce-5898-4a64-9cf7-5ce898650bcd","ios":"levelo://app?vid=655788ce-5898-4a64-9cf7-5ce898650bcd"},"vehicle_type_id":"4","last_reported":1715461631,"current_range_meters":26800,"station_id":"ce4bgpp2rcd13ifvqc3g","pricing_plan_id":"cebpf4jnsgd1na2vs0mg"},{"bike_id":"5977ca17-aa6d-4101-883a-4cac9f41aa3d","system_id":"levelo_inurba_marseille","lat":43.298433,"lon":5.362774,"is_reserved":false,"is_disabled":false,"rental_uris":{"android":"levelo://app?vid=5977ca17-aa6d-4101-883a-4cac9f41aa3d","ios":"levelo://app?vid=5977ca17-aa6d-4101-883a-4cac9f41aa3d"},"vehicle_type_id":"4","last_reported":1715461631,"current_range_meters":3600,"station_id":"ce4bgpp2rcd13ifvqc3g","pricing_plan_id":"cebpf4jnsgd1na2vs0mg"},{"bike_id":"46bba4e0-a2dc-459e-9f19-e75e3edbca38","system_id":"levelo_inurba_marseille","lat":43.305364,"lon":5.384119,"is_reserved":false,"is_disabled":false,"rental_uris":{"android":"levelo://app?vid=46bba4e0-a2dc-459e-9f19-e75e3edbca38","ios":"levelo://app?vid=46bba4e0-a2dc-459e-9f19-e75e3edbca38"},"vehicle_type_id":"4","last_reported":1715461631,"current_range_meters":17600,"station_id":"ce4bgg92rcd13ifvqb30","pricing_plan_id":"cebpf4jnsgd1na2vs0mg"},{"bike_id":"a48e6787-08c1-4baf-b023-bed781218279","system_id":"levelo_inurba_marseille","lat":43.299243,"lon":5.374807,"is_reserved":false,"is_disabled":false,"rental_uris":{"android":"levelo://app?vid=a48e6787-08c1-4baf-b023-bed781218279","ios":"levelo://app?vid=a48e6787-08c1-4baf-b023-bed781218279"},"vehicle_type_id":"4","last_reported":1715461631,"current_range_meters":10800,"station_id":"ce4bgjh2rcd13ifvqbg0","pricing_plan_id":"cebpf4jnsgd1na2vs0mg"},{"bike_id":"02095080-e17c-4f40-8da7-8c2ed4d77619","system_id":"levelo_inurba_marseille","lat":43.299243,"lon":5.37481,"is_reserved":false,"is_disabled":false,"rental_uris":{"android":"levelo://app?vid=02095080-e17c-4f40-8da7-8c2ed4d77619","ios":"levelo://app?vid=02095080-e17c-4f40-8da7-8c2ed4d77619"},"vehicle_type_id":"4","last_reported":1715461631,"current_range_meters":3200,"station_id":"ce4bgjh2rcd13ifvqbg0","pricing_plan_id":"cebpf4jnsgd1na2vs0mg"},{"bike_id":"28208c5e-a420-44e7-b0a7-fbc156da9b7d","system_id":"levelo_inurba_marseille","lat":43.311722,"lon":5.387247,"is_reserved":false,"is_disabled":false,"rental_uris":{"android":"levelo://app?vid=28208c5e-a420-44e7-b0a7-fbc156da9b7d","ios":"levelo://app?vid=28208c5e-a420-44e7-b0a7-fbc156da9b7d"},"vehicle_type_id":"4","last_reported":1715461631,"current_range_meters":8800,"station_id":"ce4bgv12rcd13ifvqcp0","pricing_plan_id":"cebpf4jnsgd1na2vs0mg"},{"bike_id":"5d3d217e-c5e2-44ba-9704-4fda0f7b1d35","system_id":"levelo_inurba_marseille","lat":43.31175,"lon":5.38724,"is_reserved":false,"is_disabled":false,"rental_uris":{"android":"levelo://app?vid=5d3d217e-c5e2-44ba-9704-4fda0f7b1d35","ios":"levelo://app?vid=5d3d217e-c5e2-44ba-9704-4fda0f7b1d35"},"vehicle_type_id":"4","last_reported":1715461631,"current_range_meters":0,"station_id":"ce4bgv12rcd13ifvqcp0","pricing_plan_id":"cebpf4jnsgd1na2vs0mg"},{"bike_id":"01c20bac-d6a4-4ae6-86b8-517a53fd5e59","system_id":"levelo_inurba_marseille","lat":43.311722,"lon":5.387247,"is_reserved":false,"is_disabled":false,"rental_uris":{"android":"levelo://app?vid=01c20bac-d6a4-4ae6-86b8-517a53fd5e59","ios":"levelo://app?vid=01c20bac-d6a4-4ae6-86b8-517a53fd5e59"},"vehicle_type_id":"4","last_reported":1715461631,"current_range_meters":16400,"station_id":"ce4bgv12rcd13ifvqcp0","pricing_plan_id":"cebpf4jnsgd1na2vs0mg"},{"bike_id":"748f2757-e8ff-4f73-a074-a57de5c4052c","system_id":"levelo_inurba_marseille","lat":43.311722,"lon":5.387247,"is_reserved":false,"is_disabled":false,"rental_uris":{"android":"levelo://app?vid=748f2757-e8ff-4f73-a074-a57de5c4052c","ios":"levelo://app?vid=748f2757-e8ff-4f73-a074-a57de5c4052c"},"vehicle_type_id":"4","last_reported":1715461631,"current_range_meters":4800,"station_id":"ce4bgv12rcd13ifvqcp0","pricing_plan_id":"cebpf4jnsgd1na2vs0mg"},{"bike_id":"12c261f4-ac1b-4364-83d4-2dbe87ccc028","system_id":"levelo_inurba_marseille","lat":43.311722,"lon":5.387247,"is_reserved":false,"is_disabled":false,"rental_uris":{"android":"levelo://app?vid=12c261f4-ac1b-4364-83d4-2dbe87ccc028","ios":"levelo://app?vid=12c261f4-ac1b-4364-83d4-2dbe87ccc028"},"vehicle_type_id":"4","last_reported":1715461631,"current_range_meters":16000,"station_id":"ce4bgv12rcd13ifvqcp0","pricing_plan_id":"cebpf4jnsgd1na2vs0mg"},{"bike_id":"3269a82e-20fd-46cb-9087-cc49c8cec2db","system_id":"levelo_inurba_marseille","lat":43.32787,"lon":5.36578,"is_reserved":false,"is_disabled":false,"rental_uris":{"android":"levelo://app?vid=3269a82e-20fd-46cb-9087-cc49c8cec2db","ios":"levelo://app?vid=3269a82e-20fd-46cb-9087-cc49c8cec2db"},"vehicle_type_id":"4","last_reported":1715461631,"current_range_meters":7200,"station_id":"","pricing_plan_id":"cebpf4jnsgd1na2vs0mg"},{"bike_id":"2ac2f7f6-9d0f-4b48-86fb-7ab458ca1ed8","system_id":"levelo_inurba_marseille","lat":43.297794,"lon":5.370888,"is_reserved":false,"is_disabled":false,"rental_uris":{"android":"levelo://app?vid=2ac2f7f6-9d0f-4b48-86fb-7ab458ca1ed8","ios":"levelo://app?vid=2ac2f7f6-9d0f-4b48-86fb-7ab458ca1ed8"},"vehicle_type_id":"4","last_reported":1715461631,"current_range_meters":9200,"station_id":"ce4bgop2rcd13ifvqc1g","pricing_plan_id":"cebpf4jnsgd1na2vs0mg"},{"bike_id":"8b8b727e-8cc4-407b-b396-22de4655dafa","system_id":"levelo_inurba_marseille","lat":43.32291,"lon":5.3827,"is_reserved":false,"is_disabled":false,"rental_uris":{"android":"levelo://app?vid=8b8b727e-8cc4-407b-b396-22de4655dafa","ios":"levelo://app?vid=8b8b727e-8cc4-407b-b396-22de4655dafa"},"vehicle_type_id":"4","last_reported":1715461631,"current_range_meters":8400,"station_id":"ce4bhr12rcd13ifvqhqg","pricing_plan_id":"cebpf4jnsgd1na2vs0mg"},{"bike_id":"e927a95c-94ec-448d-a33b-2db2c79eee0f","system_id":"levelo_inurba_marseille","lat":43.322872,"lon":5.382756,"is_reserved":false,"is_disabled":false,"rental_uris":{"android":"levelo://app?vid=e927a95c-94ec-448d-a33b-2db2c79eee0f","ios":"levelo://app?vid=e927a95c-94ec-448d-a33b-2db2c79eee0f"},"vehicle_type_id":"4","last_reported":1715461631,"current_range_meters":26800,"station_id":"ce4bhr12rcd13ifvqhqg","pricing_plan_id":"cebpf4jnsgd1na2vs0mg"},{"bike_id":"0861332c-1ac6-437e-8bc8-f309982dc862","system_id":"levelo_inurba_marseille","lat":43.302784,"lon":5.377158,"is_reserved":false,"is_disabled":false,"rental_uris":{"android":"levelo://app?vid=0861332c-1ac6-437e-8bc8-f309982dc862","ios":"levelo://app?vid=0861332c-1ac6-437e-8bc8-f309982dc862"},"vehicle_type_id":"4","last_reported":1715461631,"current_range_meters":19600,"station_id":"ce4bguh2rcd13ifvqcj0","pricing_plan_id":"cebpf4jnsgd1na2vs0mg"},{"bike_id":"c9145d0c-b5d9-4a87-9a7b-4b27700d51aa","system_id":"levelo_inurba_marseille","lat":43.29626,"lon":5.37168,"is_reserved":false,"is_disabled":false,"rental_uris":{"android":"levelo://app?vid=c9145d0c-b5d9-4a87-9a7b-4b27700d51aa","ios":"levelo://app?vid=c9145d0c-b5d9-4a87-9a7b-4b27700d51aa"},"vehicle_type_id":"4","last_reported":1715461631,"current_range_meters":0,"station_id":"ce4bgnh2rcd13ifvqc0g","pricing_plan_id":"cebpf4jnsgd1na2vs0mg"},{"bike_id":"93e80e3f-8b35-45ff-a77f-c776aafe13b7","system_id":"levelo_inurba_marseille","lat":43.296129,"lon":5.370777,"is_reserved":false,"is_disabled":false,"rental_uris":{"android":"levelo://app?vid=93e80e3f-8b35-45ff-a77f-c776aafe13b7","ios":"levelo://app?vid=93e80e3f-8b35-45ff-a77f-c776aafe13b7"},"vehicle_type_id":"4","last_reported":1715461631,"current_range_meters":11600,"station_id":"ce4bgnh2rcd13ifvqc0g","pricing_plan_id":"cebpf4jnsgd1na2vs0mg"},{"bike_id":"5282efea-ec7b-407d-8a9a-ffb47bd26688","system_id":"levelo_inurba_marseille","lat":43.296131,"lon":5.370773,"is_reserved":false,"is_disabled":false,"rental_uris":{"android":"levelo://app?vid=5282efea-ec7b-407d-8a9a-ffb47bd26688","ios":"levelo://app?vid=5282efea-ec7b-407d-8a9a-ffb47bd26688"},"vehicle_type_id":"4","last_reported":1715461631,"current_range_meters":1200,"station_id":"ce4bgnh2rcd13ifvqc0g","pricing_plan_id":"cebpf4jnsgd1na2vs0mg"},{"bike_id":"919534af-1945-4afc-a9f0-6cd8182f7281","system_id":"levelo_inurba_marseille","lat":43.29621,"lon":5.37164,"is_reserved":false,"is_disabled":false,"rental_uris":{"android":"levelo://app?vid=919534af-1945-4afc-a9f0-6cd8182f7281","ios":"levelo://app?vid=919534af-1945-4afc-a9f0-6cd8182f7281"},"vehicle_type_id":"4","last_reported":1715461631,"current_range_meters":20800,"station_id":"ce4bgnh2rcd13ifvqc0g","pricing_plan_id":"cebpf4jnsgd1na2vs0mg"},{"bike_id":"17724cbd-bb50-4a97-aeab-c9c7dd881926","system_id":"levelo_inurba_marseille","lat":43.29586,"lon":5.36742,"is_reserved":false,"is_disabled":false,"rental_uris":{"android":"levelo://app?vid=17724cbd-bb50-4a97-aeab-c9c7dd881926","ios":"levelo://app?vid=17724cbd-bb50-4a97-aeab-c9c7dd881926"},"vehicle_type_id":"4","last_reported":1715461631,"current_range_meters":400,"station_id":"ce4bgph2rcd13ifvqc2g","pricing_plan_id":"cebpf4jnsgd1na2vs0mg"},{"bike_id":"8484abe0-3ef2-42e6-b4ad-44919ad15a8f","system_id":"levelo_inurba_marseille","lat":43.296129,"lon":5.370777,"is_reserved":false,"is_disabled":false,"rental_uris":{"android":"levelo://app?vid=8484abe0-3ef2-42e6-b4ad-44919ad15a8f","ios":"levelo://app?vid=8484abe0-3ef2-42e6-b4ad-44919ad15a8f"},"vehicle_type_id":"4","last_reported":1715461631,"current_range_meters":3200,"station_id":"ce4bgnh2rcd13ifvqc0g","pricing_plan_id":"cebpf4jnsgd1na2vs0mg"},{"bike_id":"1f428780-77ff-4bc6-ad93-88923086a95b","system_id":"levelo_inurba_marseille","lat":43.29618,"lon":5.3717,"is_reserved":false,"is_disabled":false,"rental_uris":{"android":"levelo://app?vid=1f428780-77ff-4bc6-ad93-88923086a95b","ios":"levelo://app?vid=1f428780-77ff-4bc6-ad93-88923086a95b"},"vehicle_type_id":"4","last_reported":1715461631,"current_range_meters":4000,"station_id":"ce4bgnh2rcd13ifvqc0g","pricing_plan_id":"cebpf4jnsgd1na2vs0mg"},{"bike_id":"7dde7766-7e23-4f21-b896-8e446b74018a","system_id":"levelo_inurba_marseille","lat":43.309523,"lon":5.390055,"is_reserved":false,"is_disabled":false,"rental_uris":{"android":"levelo://app?vid=7dde7766-7e23-4f21-b896-8e446b74018a","ios":"levelo://app?vid=7dde7766-7e23-4f21-b896-8e446b74018a"},"vehicle_type_id":"4","last_reported":1715461631,"current_range_meters":24400,"station_id":"ce4bgup2rcd13ifvqco0","pricing_plan_id":"cebpf4jnsgd1na2vs0mg"},{"bike_id":"9f252a48-dd03-4d91-82b5-e316db9e638f","system_id":"levelo_inurba_marseille","lat":43.3095,"lon":5.39015,"is_reserved":false,"is_disabled":false,"rental_uris":{"android":"levelo://app?vid=9f252a48-dd03-4d91-82b5-e316db9e638f","ios":"levelo://app?vid=9f252a48-dd03-4d91-82b5-e316db9e638f"},"vehicle_type_id":"4","last_reported":1715461631,"current_range_meters":0,"station_id":"ce4bgup2rcd13ifvqco0","pricing_plan_id":"cebpf4jnsgd1na2vs0mg"},{"bike_id":"2f262488-b195-427b-9118-235292c05054","system_id":"levelo_inurba_marseille","lat":43.3095,"lon":5.39019,"is_reserved":false,"is_disabled":false,"rental_uris":{"android":"levelo://app?vid=2f262488-b195-427b-9118-235292c05054","ios":"levelo://app?vid=2f262488-b195-427b-9118-235292c05054"},"vehicle_type_id":"4","last_reported":1715461631,"current_range_meters":2800,"station_id":"ce4bgup2rcd13ifvqco0","pricing_plan_id":"cebpf4jnsgd1na2vs0mg"},{"bike_id":"613a1404-62c4-49f8-aede-0543fbfb327d","system_id":"levelo_inurba_marseille","lat":43.299028,"lon":5.381509,"is_reserved":false,"is_disabled":false,"rental_uris":{"android":"levelo://app?vid=613a1404-62c4-49f8-aede-0543fbfb327d","ios":"levelo://app?vid=613a1404-62c4-49f8-aede-0543fbfb327d"},"vehicle_type_id":"4","last_reported":1715461631,"current_range_meters":2000,"station_id":"ce4bgj12rcd13ifvqbc0","pricing_plan_id":"cebpf4jnsgd1na2vs0mg"},{"bike_id":"305badf6-9b2c-498b-ad7a-f470f5e82ce6","system_id":"levelo_inurba_marseille","lat":43.309473,"lon":5.390393,"is_reserved":false,"is_disabled":false,"rental_uris":{"android":"levelo://app?vid=305badf6-9b2c-498b-ad7a-f470f5e82ce6","ios":"levelo://app?vid=305badf6-9b2c-498b-ad7a-f470f5e82ce6"},"vehicle_type_id":"4","last_reported":1715461631,"current_range_meters":0,"station_id":"ce4bgup2rcd13ifvqco0","pricing_plan_id":"cebpf4jnsgd1na2vs0mg"},{"bike_id":"bd600988-f713-451f-a27b-92bb547ff065","system_id":"levelo_inurba_marseille","lat":43.299028,"lon":5.381509,"is_reserved":false,"is_disabled":false,"rental_uris":{"android":"levelo://app?vid=bd600988-f713-451f-a27b-92bb547ff065","ios":"levelo://app?vid=bd600988-f713-451f-a27b-92bb547ff065"},"vehicle_type_id":"4","last_reported":1715461631,"current_range_meters":18800,"station_id":"ce4bgj12rcd13ifvqbc0","pricing_plan_id":"cebpf4jnsgd1na2vs0mg"},{"bike_id":"88031d4c-0039-492a-b461-541581b52a53","system_id":"levelo_inurba_marseille","lat":43.317557,"lon":5.390173,"is_reserved":false,"is_disabled":false,"rental_uris":{"android":"levelo://app?vid=88031d4c-0039-492a-b461-541581b52a53","ios":"levelo://app?vid=88031d4c-0039-492a-b461-541581b52a53"},"vehicle_type_id":"4","last_reported":1715461631,"current_range_meters":31200,"station_id":"ce4bhqp2rcd13ifvqhng","pricing_plan_id":"cebpf4jnsgd1na2vs0mg"},{"bike_id":"5ac93315-54c4-458e-afef-cc7b23a07317","system_id":"levelo_inurba_marseille","lat":43.317557,"lon":5.390173,"is_reserved":false,"is_disabled":false,"rental_uris":{"android":"levelo://app?vid=5ac93315-54c4-458e-afef-cc7b23a07317","ios":"levelo://app?vid=5ac93315-54c4-458e-afef-cc7b23a07317"},"vehicle_type_id":"4","last_reported":1715461631,"current_range_meters":12000,"station_id":"ce4bhqp2rcd13ifvqhng","pricing_plan_id":"cebpf4jnsgd1na2vs0mg"},{"bike_id":"dd631198-812c-404c-a00f-2b8fc8478619","system_id":"levelo_inurba_marseille","lat":43.317557,"lon":5.390173,"is_reserved":false,"is_disabled":false,"rental_uris":{"android":"levelo://app?vid=dd631198-812c-404c-a00f-2b8fc8478619","ios":"levelo://app?vid=dd631198-812c-404c-a00f-2b8fc8478619"},"vehicle_type_id":"4","last_reported":1715461631,"current_range_meters":5600,"station_id":"ce4bhqp2rcd13ifvqhng","pricing_plan_id":"cebpf4jnsgd1na2vs0mg"},{"bike_id":"117ea6a9-01af-49f7-ba3b-ee891c9546f5","system_id":"levelo_inurba_marseille","lat":43.31759,"lon":5.39016,"is_reserved":false,"is_disabled":false,"rental_uris":{"android":"levelo://app?vid=117ea6a9-01af-49f7-ba3b-ee891c9546f5","ios":"levelo://app?vid=117ea6a9-01af-49f7-ba3b-ee891c9546f5"},"vehicle_type_id":"4","last_reported":1715461631,"current_range_meters":2400,"station_id":"ce4bhqp2rcd13ifvqhng","pricing_plan_id":"cebpf4jnsgd1na2vs0mg"},{"bike_id":"e3604d0e-f552-4bef-ab20-0b6ff1bd1e80","system_id":"levelo_inurba_marseille","lat":43.317557,"lon":5.390173,"is_reserved":false,"is_disabled":false,"rental_uris":{"android":"levelo://app?vid=e3604d0e-f552-4bef-ab20-0b6ff1bd1e80","ios":"levelo://app?vid=e3604d0e-f552-4bef-ab20-0b6ff1bd1e80"},"vehicle_type_id":"4","last_reported":1715461631,"current_range_meters":28000,"station_id":"ce4bhqp2rcd13ifvqhng","pricing_plan_id":"cebpf4jnsgd1na2vs0mg"},{"bike_id":"cbb2e7a9-f9b4-4a50-97cd-9505a3c625f5","system_id":"levelo_inurba_marseille","lat":43.298037,"lon":5.381066,"is_reserved":false,"is_disabled":false,"rental_uris":{"android":"levelo://app?vid=cbb2e7a9-f9b4-4a50-97cd-9505a3c625f5","ios":"levelo://app?vid=cbb2e7a9-f9b4-4a50-97cd-9505a3c625f5"},"vehicle_type_id":"4","last_reported":1715461631,"current_range_meters":5200,"station_id":"ce4bgip2rcd13ifvqbb0","pricing_plan_id":"cebpf4jnsgd1na2vs0mg"},{"bike_id":"c559703e-1287-4477-846c-0bde0605ad1d","system_id":"levelo_inurba_marseille","lat":43.29802,"lon":5.38094,"is_reserved":false,"is_disabled":false,"rental_uris":{"android":"levelo://app?vid=c559703e-1287-4477-846c-0bde0605ad1d","ios":"levelo://app?vid=c559703e-1287-4477-846c-0bde0605ad1d"},"vehicle_type_id":"4","last_reported":1715461631,"current_range_meters":1600,"station_id":"ce4bgip2rcd13ifvqbb0","pricing_plan_id":"cebpf4jnsgd1na2vs0mg"},{"bike_id":"da618ccf-b9d0-415d-aa47-9f3253d1464a","system_id":"levelo_inurba_marseille","lat":43.298037,"lon":5.381066,"is_reserved":false,"is_disabled":false,"rental_uris":{"android":"levelo://app?vid=da618ccf-b9d0-415d-aa47-9f3253d1464a","ios":"levelo://app?vid=da618ccf-b9d0-415d-aa47-9f3253d1464a"},"vehicle_type_id":"4","last_reported":1715461631,"current_range_meters":1600,"station_id":"ce4bgip2rcd13ifvqbb0","pricing_plan_id":"cebpf4jnsgd1na2vs0mg"},{"bike_id":"b02664ad-7c34-489a-a175-48007fd762f4","system_id":"levelo_inurba_marseille","lat":43.2979,"lon":5.38083,"is_reserved":false,"is_disabled":false,"rental_uris":{"android":"levelo://app?vid=b02664ad-7c34-489a-a175-48007fd762f4","ios":"levelo://app?vid=b02664ad-7c34-489a-a175-48007fd762f4"},"vehicle_type_id":"4","last_reported":1715461631,"current_range_meters":0,"station_id":"ce4bgip2rcd13ifvqbb0","pricing_plan_id":"cebpf4jnsgd1na2vs0mg"},{"bike_id":"b2cd5e41-c0c2-45dc-9da4-3a1e0c4502a2","system_id":"levelo_inurba_marseille","lat":43.298037,"lon":5.381066,"is_reserved":false,"is_disabled":false,"rental_uris":{"android":"levelo://app?vid=b2cd5e41-c0c2-45dc-9da4-3a1e0c4502a2","ios":"levelo://app?vid=b2cd5e41-c0c2-45dc-9da4-3a1e0c4502a2"},"vehicle_type_id":"4","last_reported":1715461631,"current_range_meters":13200,"station_id":"ce4bgip2rcd13ifvqbb0","pricing_plan_id":"cebpf4jnsgd1na2vs0mg"},{"bike_id":"de8c73de-2ae5-4625-b15a-d08a0cb05cc6","system_id":"levelo_inurba_marseille","lat":43.298037,"lon":5.381066,"is_reserved":false,"is_disabled":false,"rental_uris":{"android":"levelo://app?vid=de8c73de-2ae5-4625-b15a-d08a0cb05cc6","ios":"levelo://app?vid=de8c73de-2ae5-4625-b15a-d08a0cb05cc6"},"vehicle_type_id":"4","last_reported":1715461631,"current_range_meters":21200,"station_id":"ce4bgip2rcd13ifvqbb0","pricing_plan_id":"cebpf4jnsgd1na2vs0mg"},{"bike_id":"771040c3-d986-48d7-a046-f665dbfc6b27","system_id":"levelo_inurba_marseille","lat":43.295761,"lon":5.375161,"is_reserved":false,"is_disabled":false,"rental_uris":{"android":"levelo://app?vid=771040c3-d986-48d7-a046-f665dbfc6b27","ios":"levelo://app?vid=771040c3-d986-48d7-a046-f665dbfc6b27"},"vehicle_type_id":"4","last_reported":1715461631,"current_range_meters":0,"station_id":"ce4bgh92rcd13ifvqb50","pricing_plan_id":"cebpf4jnsgd1na2vs0mg"},{"bike_id":"7d0a5df9-d58a-4b38-8077-aede3423ad77","system_id":"levelo_inurba_marseille","lat":43.29572,"lon":5.37502,"is_reserved":false,"is_disabled":false,"rental_uris":{"android":"levelo://app?vid=7d0a5df9-d58a-4b38-8077-aede3423ad77","ios":"levelo://app?vid=7d0a5df9-d58a-4b38-8077-aede3423ad77"},"vehicle_type_id":"4","last_reported":1715461631,"current_range_meters":4400,"station_id":"ce4bgh92rcd13ifvqb50","pricing_plan_id":"cebpf4jnsgd1na2vs0mg"},{"bike_id":"fffedb30-e0ca-481c-84ee-6dc5026b84f3","system_id":"levelo_inurba_marseille","lat":43.304274,"lon":5.388873,"is_reserved":false,"is_disabled":false,"rental_uris":{"android":"levelo://app?vid=fffedb30-e0ca-481c-84ee-6dc5026b84f3","ios":"levelo://app?vid=fffedb30-e0ca-481c-84ee-6dc5026b84f3"},"vehicle_type_id":"4","last_reported":1715461631,"current_range_meters":7200,"station_id":"ce4bgk12rcd13ifvqbi0","pricing_plan_id":"cebpf4jnsgd1na2vs0mg"},{"bike_id":"419d3dee-4201-4f54-bda3-96dca33c1d22","system_id":"levelo_inurba_marseille","lat":43.30439,"lon":5.38889,"is_reserved":false,"is_disabled":false,"rental_uris":{"android":"levelo://app?vid=419d3dee-4201-4f54-bda3-96dca33c1d22","ios":"levelo://app?vid=419d3dee-4201-4f54-bda3-96dca33c1d22"},"vehicle_type_id":"4","last_reported":1715461631,"current_range_meters":0,"station_id":"ce4bgk12rcd13ifvqbi0","pricing_plan_id":"cebpf4jnsgd1na2vs0mg"},{"bike_id":"52105503-3333-476a-b162-16619bfe7cad","system_id":"levelo_inurba_marseille","lat":43.304278,"lon":5.388868,"is_reserved":false,"is_disabled":false,"rental_uris":{"android":"levelo://app?vid=52105503-3333-476a-b162-16619bfe7cad","ios":"levelo://app?vid=52105503-3333-476a-b162-16619bfe7cad"},"vehicle_type_id":"4","last_reported":1715461631,"current_range_meters":29200,"station_id":"ce4bgk12rcd13ifvqbi0","pricing_plan_id":"cebpf4jnsgd1na2vs0mg"},{"bike_id":"a712a299-e107-4791-99a3-dc2acb03ee56","system_id":"levelo_inurba_marseille","lat":43.298037,"lon":5.381066,"is_reserved":false,"is_disabled":false,"rental_uris":{"android":"levelo://app?vid=a712a299-e107-4791-99a3-dc2acb03ee56","ios":"levelo://app?vid=a712a299-e107-4791-99a3-dc2acb03ee56"},"vehicle_type_id":"4","last_reported":1715461631,"current_range_meters":0,"station_id":"ce4bgip2rcd13ifvqbb0","pricing_plan_id":"cebpf4jnsgd1na2vs0mg"},{"bike_id":"be223a97-935e-46f9-b52d-084b5572b3f9","system_id":"levelo_inurba_marseille","lat":43.298037,"lon":5.381066,"is_reserved":false,"is_disabled":false,"rental_uris":{"android":"levelo://app?vid=be223a97-935e-46f9-b52d-084b5572b3f9","ios":"levelo://app?vid=be223a97-935e-46f9-b52d-084b5572b3f9"},"vehicle_type_id":"4","last_reported":1715461631,"current_range_meters":22000,"station_id":"ce4bgip2rcd13ifvqbb0","pricing_plan_id":"cebpf4jnsgd1na2vs0mg"},{"bike_id":"087fb80d-4764-4efb-8374-a75d9886d2b4","system_id":"levelo_inurba_marseille","lat":43.295711,"lon":5.375308,"is_reserved":false,"is_disabled":false,"rental_uris":{"android":"levelo://app?vid=087fb80d-4764-4efb-8374-a75d9886d2b4","ios":"levelo://app?vid=087fb80d-4764-4efb-8374-a75d9886d2b4"},"vehicle_type_id":"4","last_reported":1715461631,"current_range_meters":11200,"station_id":"","pricing_plan_id":"cebpf4jnsgd1na2vs0mg"},{"bike_id":"007e3d47-31b6-49af-93fd-3e746e9b22a3","system_id":"levelo_inurba_marseille","lat":43.29562,"lon":5.37499,"is_reserved":false,"is_disabled":false,"rental_uris":{"android":"levelo://app?vid=007e3d47-31b6-49af-93fd-3e746e9b22a3","ios":"levelo://app?vid=007e3d47-31b6-49af-93fd-3e746e9b22a3"},"vehicle_type_id":"4","last_reported":1715461631,"current_range_meters":0,"station_id":"ce4bgh92rcd13ifvqb50","pricing_plan_id":"cebpf4jnsgd1na2vs0mg"},{"bike_id":"e87b9dac-21fb-4f5e-b62a-0da47981df93","system_id":"levelo_inurba_marseille","lat":43.298037,"lon":5.381066,"is_reserved":false,"is_disabled":false,"rental_uris":{"android":"levelo://app?vid=e87b9dac-21fb-4f5e-b62a-0da47981df93","ios":"levelo://app?vid=e87b9dac-21fb-4f5e-b62a-0da47981df93"},"vehicle_type_id":"4","last_reported":1715461631,"current_range_meters":12800,"station_id":"ce4bgip2rcd13ifvqbb0","pricing_plan_id":"cebpf4jnsgd1na2vs0mg"},{"bike_id":"081ea22b-81ff-4ee8-86b1-6c67edcd8631","system_id":"levelo_inurba_marseille","lat":43.304278,"lon":5.388868,"is_reserved":false,"is_disabled":false,"rental_uris":{"android":"levelo://app?vid=081ea22b-81ff-4ee8-86b1-6c67edcd8631","ios":"levelo://app?vid=081ea22b-81ff-4ee8-86b1-6c67edcd8631"},"vehicle_type_id":"4","last_reported":1715461631,"current_range_meters":7200,"station_id":"ce4bgk12rcd13ifvqbi0","pricing_plan_id":"cebpf4jnsgd1na2vs0mg"},{"bike_id":"ec9136a7-aea8-4586-824e-633d97f64ed9","system_id":"levelo_inurba_marseille","lat":43.29627,"lon":5.37727,"is_reserved":false,"is_disabled":false,"rental_uris":{"android":"levelo://app?vid=ec9136a7-aea8-4586-824e-633d97f64ed9","ios":"levelo://app?vid=ec9136a7-aea8-4586-824e-633d97f64ed9"},"vehicle_type_id":"4","last_reported":1715461631,"current_range_meters":0,"station_id":"ce4bgi92rcd13ifvqb90","pricing_plan_id":"cebpf4jnsgd1na2vs0mg"},{"bike_id":"301f08e1-8da8-448e-9445-cb769feb4021","system_id":"levelo_inurba_marseille","lat":43.304278,"lon":5.388868,"is_reserved":false,"is_disabled":false,"rental_uris":{"android":"levelo://app?vid=301f08e1-8da8-448e-9445-cb769feb4021","ios":"levelo://app?vid=301f08e1-8da8-448e-9445-cb769feb4021"},"vehicle_type_id":"4","last_reported":1715461631,"current_range_meters":27200,"station_id":"ce4bgk12rcd13ifvqbi0","pricing_plan_id":"cebpf4jnsgd1na2vs0mg"},{"bike_id":"35be85b5-8a63-482c-b0f3-a1e1a27507c2","system_id":"levelo_inurba_marseille","lat":43.29569,"lon":5.37535,"is_reserved":false,"is_disabled":false,"rental_uris":{"android":"levelo://app?vid=35be85b5-8a63-482c-b0f3-a1e1a27507c2","ios":"levelo://app?vid=35be85b5-8a63-482c-b0f3-a1e1a27507c2"},"vehicle_type_id":"4","last_reported":1715461631,"current_range_meters":0,"station_id":"ce4bgh92rcd13ifvqb50","pricing_plan_id":"cebpf4jnsgd1na2vs0mg"},{"bike_id":"4f559d26-b4ac-44c7-9b64-027ec21a550a","system_id":"levelo_inurba_marseille","lat":43.296263,"lon":5.377094,"is_reserved":false,"is_disabled":false,"rental_uris":{"android":"levelo://app?vid=4f559d26-b4ac-44c7-9b64-027ec21a550a","ios":"levelo://app?vid=4f559d26-b4ac-44c7-9b64-027ec21a550a"},"vehicle_type_id":"4","last_reported":1715461631,"current_range_meters":1200,"station_id":"ce4bgi92rcd13ifvqb90","pricing_plan_id":"cebpf4jnsgd1na2vs0mg"},{"bike_id":"75b8ea0e-ee68-4de6-b388-74a93c2397b6","system_id":"levelo_inurba_marseille","lat":43.304278,"lon":5.388868,"is_reserved":false,"is_disabled":false,"rental_uris":{"android":"levelo://app?vid=75b8ea0e-ee68-4de6-b388-74a93c2397b6","ios":"levelo://app?vid=75b8ea0e-ee68-4de6-b388-74a93c2397b6"},"vehicle_type_id":"4","last_reported":1715461631,"current_range_meters":2000,"station_id":"ce4bgk12rcd13ifvqbi0","pricing_plan_id":"cebpf4jnsgd1na2vs0mg"},{"bike_id":"847ffd41-b33d-438c-8926-628255fb64f9","system_id":"levelo_inurba_marseille","lat":43.304278,"lon":5.388868,"is_reserved":false,"is_disabled":false,"rental_uris":{"android":"levelo://app?vid=847ffd41-b33d-438c-8926-628255fb64f9","ios":"levelo://app?vid=847ffd41-b33d-438c-8926-628255fb64f9"},"vehicle_type_id":"4","last_reported":1715461631,"current_range_meters":23600,"station_id":"ce4bgk12rcd13ifvqbi0","pricing_plan_id":"cebpf4jnsgd1na2vs0mg"},{"bike_id":"5bc35382-5339-4dfc-a4a3-04be1f91f65a","system_id":"levelo_inurba_marseille","lat":43.29624,"lon":5.37732,"is_reserved":false,"is_disabled":false,"rental_uris":{"android":"levelo://app?vid=5bc35382-5339-4dfc-a4a3-04be1f91f65a","ios":"levelo://app?vid=5bc35382-5339-4dfc-a4a3-04be1f91f65a"},"vehicle_type_id":"4","last_reported":1715461631,"current_range_meters":0,"station_id":"ce4bgi92rcd13ifvqb90","pricing_plan_id":"cebpf4jnsgd1na2vs0mg"},{"bike_id":"68f5a890-4c84-4811-a15a-c80320776e65","system_id":"levelo_inurba_marseille","lat":43.304278,"lon":5.388868,"is_reserved":false,"is_disabled":false,"rental_uris":{"android":"levelo://app?vid=68f5a890-4c84-4811-a15a-c80320776e65","ios":"levelo://app?vid=68f5a890-4c84-4811-a15a-c80320776e65"},"vehicle_type_id":"4","last_reported":1715461631,"current_range_meters":15200,"station_id":"ce4bgk12rcd13ifvqbi0","pricing_plan_id":"cebpf4jnsgd1na2vs0mg"},{"bike_id":"21dd603c-a67a-49ab-b64c-54e6b71cd70d","system_id":"levelo_inurba_marseille","lat":43.29618,"lon":5.37726,"is_reserved":false,"is_disabled":false,"rental_uris":{"android":"levelo://app?vid=21dd603c-a67a-49ab-b64c-54e6b71cd70d","ios":"levelo://app?vid=21dd603c-a67a-49ab-b64c-54e6b71cd70d"},"vehicle_type_id":"4","last_reported":1715461631,"current_range_meters":0,"station_id":"ce4bgi92rcd13ifvqb90","pricing_plan_id":"cebpf4jnsgd1na2vs0mg"},{"bike_id":"bc312e84-8f22-4a2c-bf99-b1e1272342ec","system_id":"levelo_inurba_marseille","lat":43.304278,"lon":5.388868,"is_reserved":false,"is_disabled":false,"rental_uris":{"android":"levelo://app?vid=bc312e84-8f22-4a2c-bf99-b1e1272342ec","ios":"levelo://app?vid=bc312e84-8f22-4a2c-bf99-b1e1272342ec"},"vehicle_type_id":"4","last_reported":1715461631,"current_range_meters":22000,"station_id":"ce4bgk12rcd13ifvqbi0","pricing_plan_id":"cebpf4jnsgd1na2vs0mg"},{"bike_id":"b46dd7a7-2d14-4fdd-83f8-a639c529f125","system_id":"levelo_inurba_marseille","lat":43.298037,"lon":5.381066,"is_reserved":false,"is_disabled":false,"rental_uris":{"android":"levelo://app?vid=b46dd7a7-2d14-4fdd-83f8-a639c529f125","ios":"levelo://app?vid=b46dd7a7-2d14-4fdd-83f8-a639c529f125"},"vehicle_type_id":"4","last_reported":1715461631,"current_range_meters":20000,"station_id":"ce4bgip2rcd13ifvqbb0","pricing_plan_id":"cebpf4jnsgd1na2vs0mg"},{"bike_id":"d6266799-6336-4ee0-90dc-33a2620eed62","system_id":"levelo_inurba_marseille","lat":43.296153,"lon":5.37729,"is_reserved":false,"is_disabled":false,"rental_uris":{"android":"levelo://app?vid=d6266799-6336-4ee0-90dc-33a2620eed62","ios":"levelo://app?vid=d6266799-6336-4ee0-90dc-33a2620eed62"},"vehicle_type_id":"4","last_reported":1715461631,"current_range_meters":0,"station_id":"ce4bgi92rcd13ifvqb90","pricing_plan_id":"cebpf4jnsgd1na2vs0mg"},{"bike_id":"2aaef184-4bd5-4d14-b1ba-65195088895d","system_id":"levelo_inurba_marseille","lat":43.298037,"lon":5.381066,"is_reserved":false,"is_disabled":false,"rental_uris":{"android":"levelo://app?vid=2aaef184-4bd5-4d14-b1ba-65195088895d","ios":"levelo://app?vid=2aaef184-4bd5-4d14-b1ba-65195088895d"},"vehicle_type_id":"4","last_reported":1715461631,"current_range_meters":26800,"station_id":"ce4bgip2rcd13ifvqbb0","pricing_plan_id":"cebpf4jnsgd1na2vs0mg"},{"bike_id":"78f567cd-0d31-4338-ba0a-c2d5f394a2a5","system_id":"levelo_inurba_marseille","lat":43.299707,"lon":5.384859,"is_reserved":false,"is_disabled":false,"rental_uris":{"android":"levelo://app?vid=78f567cd-0d31-4338-ba0a-c2d5f394a2a5","ios":"levelo://app?vid=78f567cd-0d31-4338-ba0a-c2d5f394a2a5"},"vehicle_type_id":"4","last_reported":1715461631,"current_range_meters":11200,"station_id":"ce4bgj92rcd13ifvqbd0","pricing_plan_id":"cebpf4jnsgd1na2vs0mg"},{"bike_id":"96ab395d-4566-40de-ba7c-322745a1a648","system_id":"levelo_inurba_marseille","lat":43.299725,"lon":5.384885,"is_reserved":false,"is_disabled":false,"rental_uris":{"android":"levelo://app?vid=96ab395d-4566-40de-ba7c-322745a1a648","ios":"levelo://app?vid=96ab395d-4566-40de-ba7c-322745a1a648"},"vehicle_type_id":"4","last_reported":1715461631,"current_range_meters":0,"station_id":"ce4bgj92rcd13ifvqbd0","pricing_plan_id":"cebpf4jnsgd1na2vs0mg"},{"bike_id":"02e7c436-e582-46e3-a7e8-fc69d1750ece","system_id":"levelo_inurba_marseille","lat":43.299724,"lon":5.384848,"is_reserved":false,"is_disabled":false,"rental_uris":{"android":"levelo://app?vid=02e7c436-e582-46e3-a7e8-fc69d1750ece","ios":"levelo://app?vid=02e7c436-e582-46e3-a7e8-fc69d1750ece"},"vehicle_type_id":"4","last_reported":1715461631,"current_range_meters":0,"station_id":"ce4bgj92rcd13ifvqbd0","pricing_plan_id":"cebpf4jnsgd1na2vs0mg"},{"bike_id":"0462e543-1429-4a9e-99bc-96e4cc4ffbe4","system_id":"levelo_inurba_marseille","lat":43.295279,"lon":5.375048,"is_reserved":false,"is_disabled":false,"rental_uris":{"android":"levelo://app?vid=0462e543-1429-4a9e-99bc-96e4cc4ffbe4","ios":"levelo://app?vid=0462e543-1429-4a9e-99bc-96e4cc4ffbe4"},"vehicle_type_id":"4","last_reported":1715461631,"current_range_meters":11200,"station_id":"ce4bgkp2rcd13ifvqbmg","pricing_plan_id":"cebpf4jnsgd1na2vs0mg"},{"bike_id":"6eade27a-763d-4f00-b865-03f835783ec3","system_id":"levelo_inurba_marseille","lat":43.29971,"lon":5.3849,"is_reserved":false,"is_disabled":false,"rental_uris":{"android":"levelo://app?vid=6eade27a-763d-4f00-b865-03f835783ec3","ios":"levelo://app?vid=6eade27a-763d-4f00-b865-03f835783ec3"},"vehicle_type_id":"4","last_reported":1715461631,"current_range_meters":0,"station_id":"ce4bgj92rcd13ifvqbd0","pricing_plan_id":"cebpf4jnsgd1na2vs0mg"},{"bike_id":"fb898be3-ec57-4138-90c1-9d32451f6b46","system_id":"levelo_inurba_marseille","lat":43.29515,"lon":5.37508,"is_reserved":false,"is_disabled":false,"rental_uris":{"android":"levelo://app?vid=fb898be3-ec57-4138-90c1-9d32451f6b46","ios":"levelo://app?vid=fb898be3-ec57-4138-90c1-9d32451f6b46"},"vehicle_type_id":"4","last_reported":1715461631,"current_range_meters":0,"station_id":"ce4bgkp2rcd13ifvqbmg","pricing_plan_id":"cebpf4jnsgd1na2vs0mg"},{"bike_id":"daea4f0b-c564-46fd-8cac-acc3bab5e006","system_id":"levelo_inurba_marseille","lat":43.299033,"lon":5.384817,"is_reserved":false,"is_disabled":false,"rental_uris":{"android":"levelo://app?vid=daea4f0b-c564-46fd-8cac-acc3bab5e006","ios":"levelo://app?vid=daea4f0b-c564-46fd-8cac-acc3bab5e006"},"vehicle_type_id":"4","last_reported":1715461631,"current_range_meters":0,"station_id":"","pricing_plan_id":"cebpf4jnsgd1na2vs0mg"},{"bike_id":"3512b53f-9906-4c3e-8801-a85814bc0d02","system_id":"levelo_inurba_marseille","lat":43.32372,"lon":5.38874,"is_reserved":false,"is_disabled":false,"rental_uris":{"android":"levelo://app?vid=3512b53f-9906-4c3e-8801-a85814bc0d02","ios":"levelo://app?vid=3512b53f-9906-4c3e-8801-a85814bc0d02"},"vehicle_type_id":"4","last_reported":1715461631,"current_range_meters":4800,"station_id":"ce4bhqp2rcd13ifvqhog","pricing_plan_id":"cebpf4jnsgd1na2vs0mg"},{"bike_id":"83cb1ab1-ec7f-488f-97dd-7a4be64c170c","system_id":"levelo_inurba_marseille","lat":43.32365,"lon":5.38881,"is_reserved":false,"is_disabled":false,"rental_uris":{"android":"levelo://app?vid=83cb1ab1-ec7f-488f-97dd-7a4be64c170c","ios":"levelo://app?vid=83cb1ab1-ec7f-488f-97dd-7a4be64c170c"},"vehicle_type_id":"4","last_reported":1715461631,"current_range_meters":16800,"station_id":"ce4bhqp2rcd13ifvqhog","pricing_plan_id":"cebpf4jnsgd1na2vs0mg"},{"bike_id":"59f7ed56-efa1-4a89-b479-251d4588ad8a","system_id":"levelo_inurba_marseille","lat":43.32366,"lon":5.38882,"is_reserved":false,"is_disabled":false,"rental_uris":{"android":"levelo://app?vid=59f7ed56-efa1-4a89-b479-251d4588ad8a","ios":"levelo://app?vid=59f7ed56-efa1-4a89-b479-251d4588ad8a"},"vehicle_type_id":"4","last_reported":1715461631,"current_range_meters":14000,"station_id":"ce4bhqp2rcd13ifvqhog","pricing_plan_id":"cebpf4jnsgd1na2vs0mg"},{"bike_id":"b7a8912c-8a7d-4e12-9580-854fcaddddcb","system_id":"levelo_inurba_marseille","lat":43.32366,"lon":5.38883,"is_reserved":false,"is_disabled":false,"rental_uris":{"android":"levelo://app?vid=b7a8912c-8a7d-4e12-9580-854fcaddddcb","ios":"levelo://app?vid=b7a8912c-8a7d-4e12-9580-854fcaddddcb"},"vehicle_type_id":"4","last_reported":1715461631,"current_range_meters":6800,"station_id":"ce4bhqp2rcd13ifvqhog","pricing_plan_id":"cebpf4jnsgd1na2vs0mg"},{"bike_id":"53f4033f-b9cb-412c-b6b0-275f1c656d8f","system_id":"levelo_inurba_marseille","lat":43.32367,"lon":5.38886,"is_reserved":false,"is_disabled":false,"rental_uris":{"android":"levelo://app?vid=53f4033f-b9cb-412c-b6b0-275f1c656d8f","ios":"levelo://app?vid=53f4033f-b9cb-412c-b6b0-275f1c656d8f"},"vehicle_type_id":"4","last_reported":1715461631,"current_range_meters":0,"station_id":"ce4bhqp2rcd13ifvqhog","pricing_plan_id":"cebpf4jnsgd1na2vs0mg"},{"bike_id":"81efba0e-12fe-4fa0-a4ae-da8c5b033846","system_id":"levelo_inurba_marseille","lat":43.323652,"lon":5.388889,"is_reserved":false,"is_disabled":false,"rental_uris":{"android":"levelo://app?vid=81efba0e-12fe-4fa0-a4ae-da8c5b033846","ios":"levelo://app?vid=81efba0e-12fe-4fa0-a4ae-da8c5b033846"},"vehicle_type_id":"4","last_reported":1715461631,"current_range_meters":9200,"station_id":"ce4bhqp2rcd13ifvqhog","pricing_plan_id":"cebpf4jnsgd1na2vs0mg"},{"bike_id":"4e8417cc-72d8-49ce-a35d-02dc2861c8ed","system_id":"levelo_inurba_marseille","lat":43.29609,"lon":5.3809,"is_reserved":false,"is_disabled":false,"rental_uris":{"android":"levelo://app?vid=4e8417cc-72d8-49ce-a35d-02dc2861c8ed","ios":"levelo://app?vid=4e8417cc-72d8-49ce-a35d-02dc2861c8ed"},"vehicle_type_id":"4","last_reported":1715461631,"current_range_meters":800,"station_id":"ce4bgl12rcd13ifvqbo0","pricing_plan_id":"cebpf4jnsgd1na2vs0mg"},{"bike_id":"e9f96871-4648-4c76-9216-b37f706422dd","system_id":"levelo_inurba_marseille","lat":43.29602,"lon":5.381084,"is_reserved":false,"is_disabled":false,"rental_uris":{"android":"levelo://app?vid=e9f96871-4648-4c76-9216-b37f706422dd","ios":"levelo://app?vid=e9f96871-4648-4c76-9216-b37f706422dd"},"vehicle_type_id":"4","last_reported":1715461631,"current_range_meters":0,"station_id":"ce4bgl12rcd13ifvqbo0","pricing_plan_id":"cebpf4jnsgd1na2vs0mg"},{"bike_id":"22266511-3943-496b-a814-763d4ad194c7","system_id":"levelo_inurba_marseille","lat":43.29601,"lon":5.381084,"is_reserved":false,"is_disabled":false,"rental_uris":{"android":"levelo://app?vid=22266511-3943-496b-a814-763d4ad194c7","ios":"levelo://app?vid=22266511-3943-496b-a814-763d4ad194c7"},"vehicle_type_id":"4","last_reported":1715461631,"current_range_meters":13600,"station_id":"ce4bgl12rcd13ifvqbo0","pricing_plan_id":"cebpf4jnsgd1na2vs0mg"},{"bike_id":"273500e5-350f-4288-a3ea-3ea15d6311be","system_id":"levelo_inurba_marseille","lat":43.29601,"lon":5.381084,"is_reserved":false,"is_disabled":false,"rental_uris":{"android":"levelo://app?vid=273500e5-350f-4288-a3ea-3ea15d6311be","ios":"levelo://app?vid=273500e5-350f-4288-a3ea-3ea15d6311be"},"vehicle_type_id":"4","last_reported":1715461631,"current_range_meters":2800,"station_id":"ce4bgl12rcd13ifvqbo0","pricing_plan_id":"cebpf4jnsgd1na2vs0mg"},{"bike_id":"33de42cd-7956-4e62-a770-8ade90f2cfc5","system_id":"levelo_inurba_marseille","lat":43.29602,"lon":5.381084,"is_reserved":false,"is_disabled":false,"rental_uris":{"android":"levelo://app?vid=33de42cd-7956-4e62-a770-8ade90f2cfc5","ios":"levelo://app?vid=33de42cd-7956-4e62-a770-8ade90f2cfc5"},"vehicle_type_id":"4","last_reported":1715461631,"current_range_meters":10400,"station_id":"ce4bgl12rcd13ifvqbo0","pricing_plan_id":"cebpf4jnsgd1na2vs0mg"},{"bike_id":"84b35357-ef20-478d-9c0e-185ec9dc6d25","system_id":"levelo_inurba_marseille","lat":43.29601,"lon":5.381084,"is_reserved":false,"is_disabled":false,"rental_uris":{"android":"levelo://app?vid=84b35357-ef20-478d-9c0e-185ec9dc6d25","ios":"levelo://app?vid=84b35357-ef20-478d-9c0e-185ec9dc6d25"},"vehicle_type_id":"4","last_reported":1715461631,"current_range_meters":4800,"station_id":"ce4bgl12rcd13ifvqbo0","pricing_plan_id":"cebpf4jnsgd1na2vs0mg"},{"bike_id":"75c4ffc4-0ef8-405d-bfb5-dc4dec5339cc","system_id":"levelo_inurba_marseille","lat":43.29598,"lon":5.38101,"is_reserved":false,"is_disabled":false,"rental_uris":{"android":"levelo://app?vid=75c4ffc4-0ef8-405d-bfb5-dc4dec5339cc","ios":"levelo://app?vid=75c4ffc4-0ef8-405d-bfb5-dc4dec5339cc"},"vehicle_type_id":"4","last_reported":1715461631,"current_range_meters":25200,"station_id":"ce4bgl12rcd13ifvqbo0","pricing_plan_id":"cebpf4jnsgd1na2vs0mg"},{"bike_id":"c07f50b7-a8fd-4e33-ab4a-a39a3f6e30ee","system_id":"levelo_inurba_marseille","lat":43.29601,"lon":5.381084,"is_reserved":false,"is_disabled":false,"rental_uris":{"android":"levelo://app?vid=c07f50b7-a8fd-4e33-ab4a-a39a3f6e30ee","ios":"levelo://app?vid=c07f50b7-a8fd-4e33-ab4a-a39a3f6e30ee"},"vehicle_type_id":"4","last_reported":1715461631,"current_range_meters":12400,"station_id":"ce4bgl12rcd13ifvqbo0","pricing_plan_id":"cebpf4jnsgd1na2vs0mg"},{"bike_id":"3601a511-c9fc-45c8-8141-fc970367fcb6","system_id":"levelo_inurba_marseille","lat":43.29594,"lon":5.380987,"is_reserved":false,"is_disabled":false,"rental_uris":{"android":"levelo://app?vid=3601a511-c9fc-45c8-8141-fc970367fcb6","ios":"levelo://app?vid=3601a511-c9fc-45c8-8141-fc970367fcb6"},"vehicle_type_id":"4","last_reported":1715461631,"current_range_meters":800,"station_id":"ce4bgl12rcd13ifvqbo0","pricing_plan_id":"cebpf4jnsgd1na2vs0mg"},{"bike_id":"730bb873-a3bc-4693-9665-5ffcca74c19b","system_id":"levelo_inurba_marseille","lat":43.29601,"lon":5.381084,"is_reserved":false,"is_disabled":false,"rental_uris":{"android":"levelo://app?vid=730bb873-a3bc-4693-9665-5ffcca74c19b","ios":"levelo://app?vid=730bb873-a3bc-4693-9665-5ffcca74c19b"},"vehicle_type_id":"4","last_reported":1715461631,"current_range_meters":0,"station_id":"ce4bgl12rcd13ifvqbo0","pricing_plan_id":"cebpf4jnsgd1na2vs0mg"},{"bike_id":"277e19b3-e4c2-44cc-8aec-3de10ffb878e","system_id":"levelo_inurba_marseille","lat":43.29601,"lon":5.381084,"is_reserved":false,"is_disabled":false,"rental_uris":{"android":"levelo://app?vid=277e19b3-e4c2-44cc-8aec-3de10ffb878e","ios":"levelo://app?vid=277e19b3-e4c2-44cc-8aec-3de10ffb878e"},"vehicle_type_id":"4","last_reported":1715461631,"current_range_meters":0,"station_id":"ce4bgl12rcd13ifvqbo0","pricing_plan_id":"cebpf4jnsgd1na2vs0mg"},{"bike_id":"c6b422ae-7b22-4d2f-976d-c51dbc4c09b1","system_id":"levelo_inurba_marseille","lat":43.293259,"lon":5.371586,"is_reserved":false,"is_disabled":false,"rental_uris":{"android":"levelo://app?vid=c6b422ae-7b22-4d2f-976d-c51dbc4c09b1","ios":"levelo://app?vid=c6b422ae-7b22-4d2f-976d-c51dbc4c09b1"},"vehicle_type_id":"4","last_reported":1715461631,"current_range_meters":0,"station_id":"ce4bgh92rcd13ifvqb40","pricing_plan_id":"cebpf4jnsgd1na2vs0mg"},{"bike_id":"8807b0dc-ee86-4cb1-bd33-5d8de370838d","system_id":"levelo_inurba_marseille","lat":43.29307,"lon":5.37173,"is_reserved":false,"is_disabled":false,"rental_uris":{"android":"levelo://app?vid=8807b0dc-ee86-4cb1-bd33-5d8de370838d","ios":"levelo://app?vid=8807b0dc-ee86-4cb1-bd33-5d8de370838d"},"vehicle_type_id":"4","last_reported":1715461631,"current_range_meters":0,"station_id":"ce4bgh92rcd13ifvqb40","pricing_plan_id":"cebpf4jnsgd1na2vs0mg"},{"bike_id":"0c6ea095-543e-46b1-b7ba-f0d9af8e81b5","system_id":"levelo_inurba_marseille","lat":43.292749,"lon":5.368402,"is_reserved":false,"is_disabled":false,"rental_uris":{"android":"levelo://app?vid=0c6ea095-543e-46b1-b7ba-f0d9af8e81b5","ios":"levelo://app?vid=0c6ea095-543e-46b1-b7ba-f0d9af8e81b5"},"vehicle_type_id":"4","last_reported":1715461631,"current_range_meters":14000,"station_id":"ce4bhbp2rcd13ifvqesg","pricing_plan_id":"cebpf4jnsgd1na2vs0mg"},{"bike_id":"9e127b99-9b04-4d5c-9ae5-3c27372f05c9","system_id":"levelo_inurba_marseille","lat":43.293259,"lon":5.371586,"is_reserved":false,"is_disabled":false,"rental_uris":{"android":"levelo://app?vid=9e127b99-9b04-4d5c-9ae5-3c27372f05c9","ios":"levelo://app?vid=9e127b99-9b04-4d5c-9ae5-3c27372f05c9"},"vehicle_type_id":"4","last_reported":1715461631,"current_range_meters":2800,"station_id":"ce4bgh92rcd13ifvqb40","pricing_plan_id":"cebpf4jnsgd1na2vs0mg"},{"bike_id":"f5edcb11-0957-47eb-b96d-bafd4b00fb8b","system_id":"levelo_inurba_marseille","lat":43.292749,"lon":5.368402,"is_reserved":false,"is_disabled":false,"rental_uris":{"android":"levelo://app?vid=f5edcb11-0957-47eb-b96d-bafd4b00fb8b","ios":"levelo://app?vid=f5edcb11-0957-47eb-b96d-bafd4b00fb8b"},"vehicle_type_id":"4","last_reported":1715461631,"current_range_meters":28400,"station_id":"ce4bhbp2rcd13ifvqesg","pricing_plan_id":"cebpf4jnsgd1na2vs0mg"},{"bike_id":"ace5f1ba-d409-47f8-8f94-137520b885a6","system_id":"levelo_inurba_marseille","lat":43.292749,"lon":5.368402,"is_reserved":false,"is_disabled":false,"rental_uris":{"android":"levelo://app?vid=ace5f1ba-d409-47f8-8f94-137520b885a6","ios":"levelo://app?vid=ace5f1ba-d409-47f8-8f94-137520b885a6"},"vehicle_type_id":"4","last_reported":1715461631,"current_range_meters":0,"station_id":"ce4bhbp2rcd13ifvqesg","pricing_plan_id":"cebpf4jnsgd1na2vs0mg"},{"bike_id":"2af4424c-fd65-4ff0-9cf6-31460101abf4","system_id":"levelo_inurba_marseille","lat":43.306046,"lon":5.393694,"is_reserved":false,"is_disabled":false,"rental_uris":{"android":"levelo://app?vid=2af4424c-fd65-4ff0-9cf6-31460101abf4","ios":"levelo://app?vid=2af4424c-fd65-4ff0-9cf6-31460101abf4"},"vehicle_type_id":"4","last_reported":1715461631,"current_range_meters":8800,"station_id":"ce4bh0p2rcd13ifvqd80","pricing_plan_id":"cebpf4jnsgd1na2vs0mg"},{"bike_id":"7b2ae26b-68f7-49f4-acdc-ae02eff4abbd","system_id":"levelo_inurba_marseille","lat":43.303002,"lon":5.392142,"is_reserved":false,"is_disabled":false,"rental_uris":{"android":"levelo://app?vid=7b2ae26b-68f7-49f4-acdc-ae02eff4abbd","ios":"levelo://app?vid=7b2ae26b-68f7-49f4-acdc-ae02eff4abbd"},"vehicle_type_id":"4","last_reported":1715461631,"current_range_meters":13200,"station_id":"ce4bgkh2rcd13ifvqbk0","pricing_plan_id":"cebpf4jnsgd1na2vs0mg"},{"bike_id":"ae2326a1-9fb4-4f8c-877b-c4e13b106cb5","system_id":"levelo_inurba_marseille","lat":43.305994,"lon":5.393687,"is_reserved":false,"is_disabled":false,"rental_uris":{"android":"levelo://app?vid=ae2326a1-9fb4-4f8c-877b-c4e13b106cb5","ios":"levelo://app?vid=ae2326a1-9fb4-4f8c-877b-c4e13b106cb5"},"vehicle_type_id":"4","last_reported":1715461631,"current_range_meters":1200,"station_id":"ce4bh0p2rcd13ifvqd80","pricing_plan_id":"cebpf4jnsgd1na2vs0mg"},{"bike_id":"98711287-1c85-4b47-be63-e86a144ff926","system_id":"levelo_inurba_marseille","lat":43.303002,"lon":5.392142,"is_reserved":false,"is_disabled":false,"rental_uris":{"android":"levelo://app?vid=98711287-1c85-4b47-be63-e86a144ff926","ios":"levelo://app?vid=98711287-1c85-4b47-be63-e86a144ff926"},"vehicle_type_id":"4","last_reported":1715461631,"current_range_meters":5600,"station_id":"ce4bgkh2rcd13ifvqbk0","pricing_plan_id":"cebpf4jnsgd1na2vs0mg"},{"bike_id":"1534170c-3b1b-4210-8b14-4eff70278d8e","system_id":"levelo_inurba_marseille","lat":43.303002,"lon":5.392142,"is_reserved":false,"is_disabled":false,"rental_uris":{"android":"levelo://app?vid=1534170c-3b1b-4210-8b14-4eff70278d8e","ios":"levelo://app?vid=1534170c-3b1b-4210-8b14-4eff70278d8e"},"vehicle_type_id":"4","last_reported":1715461631,"current_range_meters":8800,"station_id":"ce4bgkh2rcd13ifvqbk0","pricing_plan_id":"cebpf4jnsgd1na2vs0mg"},{"bike_id":"55e71824-3fe3-4a83-93c9-e20f1887bf0b","system_id":"levelo_inurba_marseille","lat":43.303,"lon":5.39203,"is_reserved":false,"is_disabled":false,"rental_uris":{"android":"levelo://app?vid=55e71824-3fe3-4a83-93c9-e20f1887bf0b","ios":"levelo://app?vid=55e71824-3fe3-4a83-93c9-e20f1887bf0b"},"vehicle_type_id":"4","last_reported":1715461631,"current_range_meters":6400,"station_id":"ce4bgkh2rcd13ifvqbk0","pricing_plan_id":"cebpf4jnsgd1na2vs0mg"},{"bike_id":"aff5e682-fbca-4036-98c5-c5e2b5d40cdf","system_id":"levelo_inurba_marseille","lat":43.2936,"lon":5.37835,"is_reserved":false,"is_disabled":false,"rental_uris":{"android":"levelo://app?vid=aff5e682-fbca-4036-98c5-c5e2b5d40cdf","ios":"levelo://app?vid=aff5e682-fbca-4036-98c5-c5e2b5d40cdf"},"vehicle_type_id":"4","last_reported":1715461631,"current_range_meters":7200,"station_id":"ce4bgjh2rcd13ifvqbf0","pricing_plan_id":"cebpf4jnsgd1na2vs0mg"},{"bike_id":"becbb3e4-1a04-47e9-a005-47bcc6ce7e9c","system_id":"levelo_inurba_marseille","lat":43.2936,"lon":5.37835,"is_reserved":false,"is_disabled":false,"rental_uris":{"android":"levelo://app?vid=becbb3e4-1a04-47e9-a005-47bcc6ce7e9c","ios":"levelo://app?vid=becbb3e4-1a04-47e9-a005-47bcc6ce7e9c"},"vehicle_type_id":"4","last_reported":1715461631,"current_range_meters":5200,"station_id":"ce4bgjh2rcd13ifvqbf0","pricing_plan_id":"cebpf4jnsgd1na2vs0mg"},{"bike_id":"b0add846-a61c-47ae-9275-add62fa74566","system_id":"levelo_inurba_marseille","lat":43.302992,"lon":5.392136,"is_reserved":false,"is_disabled":false,"rental_uris":{"android":"levelo://app?vid=b0add846-a61c-47ae-9275-add62fa74566","ios":"levelo://app?vid=b0add846-a61c-47ae-9275-add62fa74566"},"vehicle_type_id":"4","last_reported":1715461631,"current_range_meters":14800,"station_id":"ce4bgkh2rcd13ifvqbk0","pricing_plan_id":"cebpf4jnsgd1na2vs0mg"},{"bike_id":"f3f7b03b-40bb-4f83-9a47-cde57329742b","system_id":"levelo_inurba_marseille","lat":43.303012,"lon":5.392135,"is_reserved":false,"is_disabled":false,"rental_uris":{"android":"levelo://app?vid=f3f7b03b-40bb-4f83-9a47-cde57329742b","ios":"levelo://app?vid=f3f7b03b-40bb-4f83-9a47-cde57329742b"},"vehicle_type_id":"4","last_reported":1715461631,"current_range_meters":0,"station_id":"ce4bgkh2rcd13ifvqbk0","pricing_plan_id":"cebpf4jnsgd1na2vs0mg"},{"bike_id":"372f5a94-93ff-4042-8655-2526339459ec","system_id":"levelo_inurba_marseille","lat":43.30293,"lon":5.3921,"is_reserved":false,"is_disabled":false,"rental_uris":{"android":"levelo://app?vid=372f5a94-93ff-4042-8655-2526339459ec","ios":"levelo://app?vid=372f5a94-93ff-4042-8655-2526339459ec"},"vehicle_type_id":"4","last_reported":1715461631,"current_range_meters":0,"station_id":"ce4bgkh2rcd13ifvqbk0","pricing_plan_id":"cebpf4jnsgd1na2vs0mg"},{"bike_id":"3a6b8a46-784d-4d03-b44e-f684f66c229a","system_id":"levelo_inurba_marseille","lat":43.303002,"lon":5.392142,"is_reserved":false,"is_disabled":false,"rental_uris":{"android":"levelo://app?vid=3a6b8a46-784d-4d03-b44e-f684f66c229a","ios":"levelo://app?vid=3a6b8a46-784d-4d03-b44e-f684f66c229a"},"vehicle_type_id":"4","last_reported":1715461631,"current_range_meters":0,"station_id":"ce4bgkh2rcd13ifvqbk0","pricing_plan_id":"cebpf4jnsgd1na2vs0mg"},{"bike_id":"fe174315-dcdb-4f0d-b2df-c7cb963cc117","system_id":"levelo_inurba_marseille","lat":43.293751,"lon":5.378551,"is_reserved":false,"is_disabled":false,"rental_uris":{"android":"levelo://app?vid=fe174315-dcdb-4f0d-b2df-c7cb963cc117","ios":"levelo://app?vid=fe174315-dcdb-4f0d-b2df-c7cb963cc117"},"vehicle_type_id":"4","last_reported":1715461631,"current_range_meters":5600,"station_id":"ce4bgjh2rcd13ifvqbf0","pricing_plan_id":"cebpf4jnsgd1na2vs0mg"},{"bike_id":"f766ae70-d19d-404c-981f-a41fd67bda23","system_id":"levelo_inurba_marseille","lat":43.302992,"lon":5.392136,"is_reserved":false,"is_disabled":false,"rental_uris":{"android":"levelo://app?vid=f766ae70-d19d-404c-981f-a41fd67bda23","ios":"levelo://app?vid=f766ae70-d19d-404c-981f-a41fd67bda23"},"vehicle_type_id":"4","last_reported":1715461631,"current_range_meters":400,"station_id":"ce4bgkh2rcd13ifvqbk0","pricing_plan_id":"cebpf4jnsgd1na2vs0mg"},{"bike_id":"525c54c1-d3c9-42a9-97a3-cf94370c60fa","system_id":"levelo_inurba_marseille","lat":43.2936,"lon":5.37835,"is_reserved":false,"is_disabled":false,"rental_uris":{"android":"levelo://app?vid=525c54c1-d3c9-42a9-97a3-cf94370c60fa","ios":"levelo://app?vid=525c54c1-d3c9-42a9-97a3-cf94370c60fa"},"vehicle_type_id":"4","last_reported":1715461631,"current_range_meters":30000,"station_id":"ce4bgjh2rcd13ifvqbf0","pricing_plan_id":"cebpf4jnsgd1na2vs0mg"},{"bike_id":"763a64d8-c130-47fc-8c8c-abdc1e5f6aa8","system_id":"levelo_inurba_marseille","lat":43.2936,"lon":5.37835,"is_reserved":false,"is_disabled":false,"rental_uris":{"android":"levelo://app?vid=763a64d8-c130-47fc-8c8c-abdc1e5f6aa8","ios":"levelo://app?vid=763a64d8-c130-47fc-8c8c-abdc1e5f6aa8"},"vehicle_type_id":"4","last_reported":1715461631,"current_range_meters":2000,"station_id":"ce4bgjh2rcd13ifvqbf0","pricing_plan_id":"cebpf4jnsgd1na2vs0mg"},{"bike_id":"c101c3ad-ea1f-4f71-a18d-807a18927757","system_id":"levelo_inurba_marseille","lat":43.2936,"lon":5.37835,"is_reserved":false,"is_disabled":false,"rental_uris":{"android":"levelo://app?vid=c101c3ad-ea1f-4f71-a18d-807a18927757","ios":"levelo://app?vid=c101c3ad-ea1f-4f71-a18d-807a18927757"},"vehicle_type_id":"4","last_reported":1715461631,"current_range_meters":25600,"station_id":"ce4bgjh2rcd13ifvqbf0","pricing_plan_id":"cebpf4jnsgd1na2vs0mg"},{"bike_id":"19c72b84-b869-4389-95c1-4887a07fc001","system_id":"levelo_inurba_marseille","lat":43.302992,"lon":5.392136,"is_reserved":false,"is_disabled":false,"rental_uris":{"android":"levelo://app?vid=19c72b84-b869-4389-95c1-4887a07fc001","ios":"levelo://app?vid=19c72b84-b869-4389-95c1-4887a07fc001"},"vehicle_type_id":"4","last_reported":1715461631,"current_range_meters":6400,"station_id":"ce4bgkh2rcd13ifvqbk0","pricing_plan_id":"cebpf4jnsgd1na2vs0mg"},{"bike_id":"ec821044-58a2-4082-942a-518b1ab60297","system_id":"levelo_inurba_marseille","lat":43.2936,"lon":5.37835,"is_reserved":false,"is_disabled":false,"rental_uris":{"android":"levelo://app?vid=ec821044-58a2-4082-942a-518b1ab60297","ios":"levelo://app?vid=ec821044-58a2-4082-942a-518b1ab60297"},"vehicle_type_id":"4","last_reported":1715461631,"current_range_meters":0,"station_id":"ce4bgjh2rcd13ifvqbf0","pricing_plan_id":"cebpf4jnsgd1na2vs0mg"},{"bike_id":"5ca6ab47-ba99-44ee-a063-cf87d046f4da","system_id":"levelo_inurba_marseille","lat":43.292311,"lon":5.360731,"is_reserved":false,"is_disabled":false,"rental_uris":{"android":"levelo://app?vid=5ca6ab47-ba99-44ee-a063-cf87d046f4da","ios":"levelo://app?vid=5ca6ab47-ba99-44ee-a063-cf87d046f4da"},"vehicle_type_id":"4","last_reported":1715461631,"current_range_meters":0,"station_id":"ce4bhbh2rcd13ifvqeqg","pricing_plan_id":"cebpf4jnsgd1na2vs0mg"},{"bike_id":"6d496a28-1e21-4c2d-8b95-b1d95733c0b7","system_id":"levelo_inurba_marseille","lat":43.30091,"lon":5.39074,"is_reserved":false,"is_disabled":false,"rental_uris":{"android":"levelo://app?vid=6d496a28-1e21-4c2d-8b95-b1d95733c0b7","ios":"levelo://app?vid=6d496a28-1e21-4c2d-8b95-b1d95733c0b7"},"vehicle_type_id":"4","last_reported":1715461631,"current_range_meters":9600,"station_id":"ce4bh192rcd13ifvqdb0","pricing_plan_id":"cebpf4jnsgd1na2vs0mg"},{"bike_id":"4ef0c972-fbed-4ec9-8a9b-398fdc5b1fb5","system_id":"levelo_inurba_marseille","lat":43.300769,"lon":5.390625,"is_reserved":false,"is_disabled":false,"rental_uris":{"android":"levelo://app?vid=4ef0c972-fbed-4ec9-8a9b-398fdc5b1fb5","ios":"levelo://app?vid=4ef0c972-fbed-4ec9-8a9b-398fdc5b1fb5"},"vehicle_type_id":"4","last_reported":1715461631,"current_range_meters":6800,"station_id":"","pricing_plan_id":"cebpf4jnsgd1na2vs0mg"},{"bike_id":"9e4a0363-7607-42ea-bb1d-38a8616213b5","system_id":"levelo_inurba_marseille","lat":43.30085,"lon":5.390856,"is_reserved":false,"is_disabled":false,"rental_uris":{"android":"levelo://app?vid=9e4a0363-7607-42ea-bb1d-38a8616213b5","ios":"levelo://app?vid=9e4a0363-7607-42ea-bb1d-38a8616213b5"},"vehicle_type_id":"4","last_reported":1715461631,"current_range_meters":24400,"station_id":"ce4bh192rcd13ifvqdb0","pricing_plan_id":"cebpf4jnsgd1na2vs0mg"},{"bike_id":"92e08384-2cf8-4906-8bcf-04e8b6b886cc","system_id":"levelo_inurba_marseille","lat":43.29278,"lon":5.3764,"is_reserved":false,"is_disabled":false,"rental_uris":{"android":"levelo://app?vid=92e08384-2cf8-4906-8bcf-04e8b6b886cc","ios":"levelo://app?vid=92e08384-2cf8-4906-8bcf-04e8b6b886cc"},"vehicle_type_id":"4","last_reported":1715461631,"current_range_meters":28400,"station_id":"","pricing_plan_id":"cebpf4jnsgd1na2vs0mg"},{"bike_id":"256bb6b8-b4f0-49b2-9f53-caf18fc37f79","system_id":"levelo_inurba_marseille","lat":43.291675,"lon":5.371583,"is_reserved":false,"is_disabled":false,"rental_uris":{"android":"levelo://app?vid=256bb6b8-b4f0-49b2-9f53-caf18fc37f79","ios":"levelo://app?vid=256bb6b8-b4f0-49b2-9f53-caf18fc37f79"},"vehicle_type_id":"4","last_reported":1715461631,"current_range_meters":0,"station_id":"ce4bha92rcd13ifvqeh0","pricing_plan_id":"cebpf4jnsgd1na2vs0mg"},{"bike_id":"5afbec35-3136-48a3-a7d2-efce90fa9c91","system_id":"levelo_inurba_marseille","lat":43.29259,"lon":5.37627,"is_reserved":false,"is_disabled":false,"rental_uris":{"android":"levelo://app?vid=5afbec35-3136-48a3-a7d2-efce90fa9c91","ios":"levelo://app?vid=5afbec35-3136-48a3-a7d2-efce90fa9c91"},"vehicle_type_id":"4","last_reported":1715461631,"current_range_meters":14400,"station_id":"","pricing_plan_id":"cebpf4jnsgd1na2vs0mg"},{"bike_id":"accb08e6-a94f-4f8b-90e9-0c5dfae8e3e7","system_id":"levelo_inurba_marseille","lat":43.29879,"lon":5.38904,"is_reserved":false,"is_disabled":false,"rental_uris":{"android":"levelo://app?vid=accb08e6-a94f-4f8b-90e9-0c5dfae8e3e7","ios":"levelo://app?vid=accb08e6-a94f-4f8b-90e9-0c5dfae8e3e7"},"vehicle_type_id":"4","last_reported":1715461631,"current_range_meters":12000,"station_id":"ce4bh392rcd13ifvqdl0","pricing_plan_id":"cebpf4jnsgd1na2vs0mg"},{"bike_id":"a1005953-1e96-4385-84c7-3a2395f5e69d","system_id":"levelo_inurba_marseille","lat":43.298786,"lon":5.389094,"is_reserved":false,"is_disabled":false,"rental_uris":{"android":"levelo://app?vid=a1005953-1e96-4385-84c7-3a2395f5e69d","ios":"levelo://app?vid=a1005953-1e96-4385-84c7-3a2395f5e69d"},"vehicle_type_id":"4","last_reported":1715461631,"current_range_meters":0,"station_id":"ce4bh392rcd13ifvqdl0","pricing_plan_id":"cebpf4jnsgd1na2vs0mg"},{"bike_id":"c4114e2b-3558-4180-8fa6-642ef6e613c8","system_id":"levelo_inurba_marseille","lat":43.298764,"lon":5.388973,"is_reserved":false,"is_disabled":false,"rental_uris":{"android":"levelo://app?vid=c4114e2b-3558-4180-8fa6-642ef6e613c8","ios":"levelo://app?vid=c4114e2b-3558-4180-8fa6-642ef6e613c8"},"vehicle_type_id":"4","last_reported":1715461631,"current_range_meters":0,"station_id":"ce4bh392rcd13ifvqdl0","pricing_plan_id":"cebpf4jnsgd1na2vs0mg"},{"bike_id":"f3ebc673-6700-4797-8b9e-8a2056f853b0","system_id":"levelo_inurba_marseille","lat":43.298764,"lon":5.388973,"is_reserved":false,"is_disabled":false,"rental_uris":{"android":"levelo://app?vid=f3ebc673-6700-4797-8b9e-8a2056f853b0","ios":"levelo://app?vid=f3ebc673-6700-4797-8b9e-8a2056f853b0"},"vehicle_type_id":"4","last_reported":1715461631,"current_range_meters":9600,"station_id":"ce4bh392rcd13ifvqdl0","pricing_plan_id":"cebpf4jnsgd1na2vs0mg"},{"bike_id":"3d659689-6cb1-43b1-adc1-680cafa47597","system_id":"levelo_inurba_marseille","lat":43.313291,"lon":5.396838,"is_reserved":false,"is_disabled":false,"rental_uris":{"android":"levelo://app?vid=3d659689-6cb1-43b1-adc1-680cafa47597","ios":"levelo://app?vid=3d659689-6cb1-43b1-adc1-680cafa47597"},"vehicle_type_id":"4","last_reported":1715461631,"current_range_meters":6400,"station_id":"ce4bgvp2rcd13ifvqcu0","pricing_plan_id":"cebpf4jnsgd1na2vs0mg"},{"bike_id":"b12fda34-b5be-420c-aae7-ded3faff28dd","system_id":"levelo_inurba_marseille","lat":43.313291,"lon":5.396838,"is_reserved":false,"is_disabled":false,"rental_uris":{"android":"levelo://app?vid=b12fda34-b5be-420c-aae7-ded3faff28dd","ios":"levelo://app?vid=b12fda34-b5be-420c-aae7-ded3faff28dd"},"vehicle_type_id":"4","last_reported":1715461631,"current_range_meters":3600,"station_id":"ce4bgvp2rcd13ifvqcu0","pricing_plan_id":"cebpf4jnsgd1na2vs0mg"},{"bike_id":"61511669-cadf-418a-a1f2-9b2e30769aa1","system_id":"levelo_inurba_marseille","lat":43.313291,"lon":5.396838,"is_reserved":false,"is_disabled":false,"rental_uris":{"android":"levelo://app?vid=61511669-cadf-418a-a1f2-9b2e30769aa1","ios":"levelo://app?vid=61511669-cadf-418a-a1f2-9b2e30769aa1"},"vehicle_type_id":"4","last_reported":1715461631,"current_range_meters":15600,"station_id":"ce4bgvp2rcd13ifvqcu0","pricing_plan_id":"cebpf4jnsgd1na2vs0mg"},{"bike_id":"0d83eb94-ea50-4af9-88d9-3a452b25fee6","system_id":"levelo_inurba_marseille","lat":43.309047,"lon":5.396551,"is_reserved":false,"is_disabled":false,"rental_uris":{"android":"levelo://app?vid=0d83eb94-ea50-4af9-88d9-3a452b25fee6","ios":"levelo://app?vid=0d83eb94-ea50-4af9-88d9-3a452b25fee6"},"vehicle_type_id":"4","last_reported":1715461631,"current_range_meters":12000,"station_id":"ce4bh012rcd13ifvqcv0","pricing_plan_id":"cebpf4jnsgd1na2vs0mg"},{"bike_id":"b252cd04-1c12-4888-9658-35fdc857750f","system_id":"levelo_inurba_marseille","lat":43.313291,"lon":5.396838,"is_reserved":false,"is_disabled":false,"rental_uris":{"android":"levelo://app?vid=b252cd04-1c12-4888-9658-35fdc857750f","ios":"levelo://app?vid=b252cd04-1c12-4888-9658-35fdc857750f"},"vehicle_type_id":"4","last_reported":1715461631,"current_range_meters":18400,"station_id":"ce4bgvp2rcd13ifvqcu0","pricing_plan_id":"cebpf4jnsgd1na2vs0mg"},{"bike_id":"35973854-e5f1-47d1-bee3-afae40acfed8","system_id":"levelo_inurba_marseille","lat":43.313291,"lon":5.396838,"is_reserved":false,"is_disabled":false,"rental_uris":{"android":"levelo://app?vid=35973854-e5f1-47d1-bee3-afae40acfed8","ios":"levelo://app?vid=35973854-e5f1-47d1-bee3-afae40acfed8"},"vehicle_type_id":"4","last_reported":1715461631,"current_range_meters":4400,"station_id":"ce4bgvp2rcd13ifvqcu0","pricing_plan_id":"cebpf4jnsgd1na2vs0mg"},{"bike_id":"15711df4-44b0-4386-8163-a092638a8fbf","system_id":"levelo_inurba_marseille","lat":43.301117,"lon":5.398795,"is_reserved":false,"is_disabled":false,"rental_uris":{"android":"levelo://app?vid=15711df4-44b0-4386-8163-a092638a8fbf","ios":"levelo://app?vid=15711df4-44b0-4386-8163-a092638a8fbf"},"vehicle_type_id":"4","last_reported":1715461631,"current_range_meters":26000,"station_id":"ce4bh0h2rcd13ifvqd40","pricing_plan_id":"cebpf4jnsgd1na2vs0mg"},{"bike_id":"a6cc9624-2bb0-4d16-aeef-b91f14cb803c","system_id":"levelo_inurba_marseille","lat":43.313291,"lon":5.396838,"is_reserved":false,"is_disabled":false,"rental_uris":{"android":"levelo://app?vid=a6cc9624-2bb0-4d16-aeef-b91f14cb803c","ios":"levelo://app?vid=a6cc9624-2bb0-4d16-aeef-b91f14cb803c"},"vehicle_type_id":"4","last_reported":1715461631,"current_range_meters":3600,"station_id":"ce4bgvp2rcd13ifvqcu0","pricing_plan_id":"cebpf4jnsgd1na2vs0mg"},{"bike_id":"3f4e2c36-aa2d-449e-b97f-3b5f185a782c","system_id":"levelo_inurba_marseille","lat":43.313291,"lon":5.396838,"is_reserved":false,"is_disabled":false,"rental_uris":{"android":"levelo://app?vid=3f4e2c36-aa2d-449e-b97f-3b5f185a782c","ios":"levelo://app?vid=3f4e2c36-aa2d-449e-b97f-3b5f185a782c"},"vehicle_type_id":"4","last_reported":1715461631,"current_range_meters":22800,"station_id":"ce4bgvp2rcd13ifvqcu0","pricing_plan_id":"cebpf4jnsgd1na2vs0mg"},{"bike_id":"bbd27537-97fa-4255-97ba-e8739a0a5241","system_id":"levelo_inurba_marseille","lat":43.313291,"lon":5.396838,"is_reserved":false,"is_disabled":false,"rental_uris":{"android":"levelo://app?vid=bbd27537-97fa-4255-97ba-e8739a0a5241","ios":"levelo://app?vid=bbd27537-97fa-4255-97ba-e8739a0a5241"},"vehicle_type_id":"4","last_reported":1715461631,"current_range_meters":21600,"station_id":"ce4bgvp2rcd13ifvqcu0","pricing_plan_id":"cebpf4jnsgd1na2vs0mg"},{"bike_id":"f95d94d3-009a-4a20-9470-8d41d954d033","system_id":"levelo_inurba_marseille","lat":43.309038,"lon":5.396546,"is_reserved":false,"is_disabled":false,"rental_uris":{"android":"levelo://app?vid=f95d94d3-009a-4a20-9470-8d41d954d033","ios":"levelo://app?vid=f95d94d3-009a-4a20-9470-8d41d954d033"},"vehicle_type_id":"4","last_reported":1715461631,"current_range_meters":21200,"station_id":"ce4bh012rcd13ifvqcv0","pricing_plan_id":"cebpf4jnsgd1na2vs0mg"},{"bike_id":"70c54b0e-b89d-4c56-8f08-ee86e141198c","system_id":"levelo_inurba_marseille","lat":43.29531,"lon":5.38531,"is_reserved":false,"is_disabled":false,"rental_uris":{"android":"levelo://app?vid=70c54b0e-b89d-4c56-8f08-ee86e141198c","ios":"levelo://app?vid=70c54b0e-b89d-4c56-8f08-ee86e141198c"},"vehicle_type_id":"4","last_reported":1715461631,"current_range_meters":6000,"station_id":"ce4bgih2rcd13ifvqba0","pricing_plan_id":"cebpf4jnsgd1na2vs0mg"},{"bike_id":"0bed7a7f-40b0-4806-bb9b-de9cde23fd6a","system_id":"levelo_inurba_marseille","lat":43.29537,"lon":5.38544,"is_reserved":false,"is_disabled":false,"rental_uris":{"android":"levelo://app?vid=0bed7a7f-40b0-4806-bb9b-de9cde23fd6a","ios":"levelo://app?vid=0bed7a7f-40b0-4806-bb9b-de9cde23fd6a"},"vehicle_type_id":"4","last_reported":1715461631,"current_range_meters":20800,"station_id":"ce4bgih2rcd13ifvqba0","pricing_plan_id":"cebpf4jnsgd1na2vs0mg"},{"bike_id":"88ec1553-e849-439d-a725-be19ec02abb4","system_id":"levelo_inurba_marseille","lat":43.2953,"lon":5.38537,"is_reserved":false,"is_disabled":false,"rental_uris":{"android":"levelo://app?vid=88ec1553-e849-439d-a725-be19ec02abb4","ios":"levelo://app?vid=88ec1553-e849-439d-a725-be19ec02abb4"},"vehicle_type_id":"4","last_reported":1715461631,"current_range_meters":21200,"station_id":"ce4bgih2rcd13ifvqba0","pricing_plan_id":"cebpf4jnsgd1na2vs0mg"},{"bike_id":"2bc6d0dc-ac9c-468f-8290-90f457d6d628","system_id":"levelo_inurba_marseille","lat":43.295329,"lon":5.385449,"is_reserved":false,"is_disabled":false,"rental_uris":{"android":"levelo://app?vid=2bc6d0dc-ac9c-468f-8290-90f457d6d628","ios":"levelo://app?vid=2bc6d0dc-ac9c-468f-8290-90f457d6d628"},"vehicle_type_id":"4","last_reported":1715461631,"current_range_meters":30400,"station_id":"ce4bgih2rcd13ifvqba0","pricing_plan_id":"cebpf4jnsgd1na2vs0mg"},{"bike_id":"69e3b564-5c37-4488-9b2d-dde8b146c0ea","system_id":"levelo_inurba_marseille","lat":43.2953,"lon":5.3854,"is_reserved":false,"is_disabled":false,"rental_uris":{"android":"levelo://app?vid=69e3b564-5c37-4488-9b2d-dde8b146c0ea","ios":"levelo://app?vid=69e3b564-5c37-4488-9b2d-dde8b146c0ea"},"vehicle_type_id":"4","last_reported":1715461631,"current_range_meters":22000,"station_id":"ce4bgih2rcd13ifvqba0","pricing_plan_id":"cebpf4jnsgd1na2vs0mg"},{"bike_id":"9aecd5af-1dae-43e2-879e-b1b7c356abcf","system_id":"levelo_inurba_marseille","lat":43.29529,"lon":5.385581,"is_reserved":false,"is_disabled":false,"rental_uris":{"android":"levelo://app?vid=9aecd5af-1dae-43e2-879e-b1b7c356abcf","ios":"levelo://app?vid=9aecd5af-1dae-43e2-879e-b1b7c356abcf"},"vehicle_type_id":"4","last_reported":1715461631,"current_range_meters":10000,"station_id":"ce4bgih2rcd13ifvqba0","pricing_plan_id":"cebpf4jnsgd1na2vs0mg"},{"bike_id":"2fe54c42-5ee2-475d-bb66-4629881a661a","system_id":"levelo_inurba_marseille","lat":43.29528,"lon":5.38537,"is_reserved":false,"is_disabled":false,"rental_uris":{"android":"levelo://app?vid=2fe54c42-5ee2-475d-bb66-4629881a661a","ios":"levelo://app?vid=2fe54c42-5ee2-475d-bb66-4629881a661a"},"vehicle_type_id":"4","last_reported":1715461631,"current_range_meters":0,"station_id":"ce4bgih2rcd13ifvqba0","pricing_plan_id":"cebpf4jnsgd1na2vs0mg"},{"bike_id":"ed5b2e3b-dfa3-4eb3-b9b3-5493ab93c378","system_id":"levelo_inurba_marseille","lat":43.29533,"lon":5.38548,"is_reserved":false,"is_disabled":false,"rental_uris":{"android":"levelo://app?vid=ed5b2e3b-dfa3-4eb3-b9b3-5493ab93c378","ios":"levelo://app?vid=ed5b2e3b-dfa3-4eb3-b9b3-5493ab93c378"},"vehicle_type_id":"4","last_reported":1715461631,"current_range_meters":23200,"station_id":"ce4bgih2rcd13ifvqba0","pricing_plan_id":"cebpf4jnsgd1na2vs0mg"},{"bike_id":"0b93a8c1-0bce-4b5f-80ce-e90af44c5fc4","system_id":"levelo_inurba_marseille","lat":43.29529,"lon":5.385581,"is_reserved":false,"is_disabled":false,"rental_uris":{"android":"levelo://app?vid=0b93a8c1-0bce-4b5f-80ce-e90af44c5fc4","ios":"levelo://app?vid=0b93a8c1-0bce-4b5f-80ce-e90af44c5fc4"},"vehicle_type_id":"4","last_reported":1715461631,"current_range_meters":2000,"station_id":"ce4bgih2rcd13ifvqba0","pricing_plan_id":"cebpf4jnsgd1na2vs0mg"},{"bike_id":"cb4ff5c6-fa50-45cd-948f-3dc4dccb5b2a","system_id":"levelo_inurba_marseille","lat":43.29532,"lon":5.38547,"is_reserved":false,"is_disabled":false,"rental_uris":{"android":"levelo://app?vid=cb4ff5c6-fa50-45cd-948f-3dc4dccb5b2a","ios":"levelo://app?vid=cb4ff5c6-fa50-45cd-948f-3dc4dccb5b2a"},"vehicle_type_id":"4","last_reported":1715461631,"current_range_meters":6800,"station_id":"ce4bgih2rcd13ifvqba0","pricing_plan_id":"cebpf4jnsgd1na2vs0mg"},{"bike_id":"39750d35-e67c-4cb9-a3c9-e0e73f712544","system_id":"levelo_inurba_marseille","lat":43.29533,"lon":5.3855,"is_reserved":false,"is_disabled":false,"rental_uris":{"android":"levelo://app?vid=39750d35-e67c-4cb9-a3c9-e0e73f712544","ios":"levelo://app?vid=39750d35-e67c-4cb9-a3c9-e0e73f712544"},"vehicle_type_id":"4","last_reported":1715461631,"current_range_meters":5200,"station_id":"ce4bgih2rcd13ifvqba0","pricing_plan_id":"cebpf4jnsgd1na2vs0mg"},{"bike_id":"eed7bcf8-85ad-4df7-843e-4074bd431c3a","system_id":"levelo_inurba_marseille","lat":43.29529,"lon":5.385581,"is_reserved":false,"is_disabled":false,"rental_uris":{"android":"levelo://app?vid=eed7bcf8-85ad-4df7-843e-4074bd431c3a","ios":"levelo://app?vid=eed7bcf8-85ad-4df7-843e-4074bd431c3a"},"vehicle_type_id":"4","last_reported":1715461631,"current_range_meters":4800,"station_id":"ce4bgih2rcd13ifvqba0","pricing_plan_id":"cebpf4jnsgd1na2vs0mg"},{"bike_id":"77bad177-eeda-41fb-89b9-065bd76122f1","system_id":"levelo_inurba_marseille","lat":43.29527,"lon":5.38541,"is_reserved":false,"is_disabled":false,"rental_uris":{"android":"levelo://app?vid=77bad177-eeda-41fb-89b9-065bd76122f1","ios":"levelo://app?vid=77bad177-eeda-41fb-89b9-065bd76122f1"},"vehicle_type_id":"4","last_reported":1715461631,"current_range_meters":2800,"station_id":"ce4bgih2rcd13ifvqba0","pricing_plan_id":"cebpf4jnsgd1na2vs0mg"},{"bike_id":"68fa5573-e501-44f9-956f-22dfeb619cbc","system_id":"levelo_inurba_marseille","lat":43.29523,"lon":5.38536,"is_reserved":false,"is_disabled":false,"rental_uris":{"android":"levelo://app?vid=68fa5573-e501-44f9-956f-22dfeb619cbc","ios":"levelo://app?vid=68fa5573-e501-44f9-956f-22dfeb619cbc"},"vehicle_type_id":"4","last_reported":1715461631,"current_range_meters":26000,"station_id":"ce4bgih2rcd13ifvqba0","pricing_plan_id":"cebpf4jnsgd1na2vs0mg"},