{"last_updated":1713805580,"ttl":30,"version":"2.2","data":{"bikes":[{"bike_id":"ab7f63e7-3b48-4d5c-857f-bfe786414e02","system_id":"levelo_inurba_marseille","lat":43.312283,"lon":5.368507,"is_reserved":false,"is_disabled":false,"rental_uris":{"android":"levelo://app?vid=ab7f63e7-3b48-4d5c-857f-bfe786414e02","ios":"levelo://app?vid=ab7f63e7-3b48-4d5c-857f-bfe786414e02"},"vehicle_type_id":"4","last_reported":1713805581,"current_range_meters":2400,"station_id":"ce4bgl92rcd13ifvqbq0","pricing_plan_id":"cebpf4jnsgd1na2vs0mg"},{"bike_id":"43a77d60-c1b5-4357-962a-f02e1a74a4d2","system_id":"levelo_inurba_marseille","lat":43.312239,"lon":5.368562,"is_reserved":false,"is_disabled":false,"rental_uris":{"android":"levelo://app?vid=43a77d60-c1b5-4357-962a-f02e1a74a4d2","ios":"levelo://app?vid=43a77d60-c1b5-4357-962a-f02e1a74a4d2"},"vehicle_type_id":"4","last_reported":1713805581,"current_range_meters":22000,"station_id":"ce4bgl92rcd13ifvqbq0","pricing_plan_id":"cebpf4jnsgd1na2vs0mg"},{"bike_id":"703d1c4d-4eed-4a40-b749-f435abe24920","system_id":"levelo_inurba_marseille","lat":43.309076,"lon":5.368465,"is_reserved":false,"is_disabled":false,"rental_uris":{"android":"levelo://app?vid=703d1c4d-4eed-4a40-b749-f435abe24920","ios":"levelo://app?vid=703d1c4d-4eed-4a40-b749-f435abe24920"},"vehicle_type_id":"4","last_reported":1713805581,"current_range_meters":4400,"station_id":"ce4bgn92rcd13ifvqbvg","pricing_plan_id":"cebpf4jnsgd1na2vs0mg"},{"bike_id":"9264b93c-b1f3-48cd-ab72-5f994ae18e24","system_id":"levelo_inurba_marseille","lat":43.314811,"lon":5.373103,"is_reserved":false,"is_disabled":false,"rental_uris":{"android":"levelo://app?vid=9264b93c-b1f3-48cd-ab72-5f994ae18e24","ios":"levelo://app?vid=9264b93c-b1f3-48cd-ab72-5f994ae18e24"},"vehicle_type_id":"4","last_reported":1713805581,"current_range_meters":2000,"station_id":"ce4bgt12rcd13ifvqcd0","pricing_plan_id":"cebpf4jnsgd1na2vs0mg"},{"bike_id":"f922a085-64bc-4953-8d97-20ee8d2d1a59","system_id":"levelo_inurba_marseille","lat":43.314811,"lon":5.373103,"is_reserved":false,"is_disabled":false,"rental_uris":{"android":"levelo://app?vid=f922a085-64bc-4953-8d97-20ee8d2d1a59","ios":"levelo://app?vid=f922a085-64bc-4953-8d97-20ee8d2d1a59"},"vehicle_type_id":"4","last_reported":1713805581,"current_range_meters":7200,"station_id":"ce4bgt12rcd13ifvqcd0","pricing_plan_id":"cebpf4jnsgd1na2vs0mg"},{"bike_id":"a19e5af9-4bdc-4a50-866d-49663044ec0b","system_id":"levelo_inurba_marseille","lat":43.314811,"lon":5.373103,"is_reserved":false,"is_disabled":false,"rental_uris":{"android":"levelo://app?vid=a19e5af9-4bdc-4a50-866d-49663044ec0b","ios":"levelo://app?vid=a19e5af9-4bdc-4a50-866d-49663044ec0b"},"vehicle_type_id":"4","last_reported":1713805581,"current_range_meters":8400,"station_id":"ce4bgt12rcd13ifvqcd0","pricing_plan_id":"cebpf4jnsgd1na2vs0mg"},{"bike_id":"19a0eee7-f142-4434-89a7-8758dc2a8d86","system_id":"levelo_inurba_marseille","lat":43.314811,"lon":5.373103,"is_reserved":false,"is_disabled":false,"rental_uris":{"android":"levelo://app?vid=19a0eee7-f142-4434-89a7-8758dc2a8d86","ios":"levelo://app?vid=19a0eee7-f142-4434-89a7-8758dc2a8d86"},"vehicle_type_id":"4","last_reported":1713805581,"current_range_meters":2000,"station_id":"ce4bgt12rcd13ifvqcd0","pricing_plan_id":"cebpf4jnsgd1na2vs0mg"},{"bike_id":"f1088f11-60ca-4f10-89ed-35d2dc3c9c8b","system_id":"levelo_inurba_marseille","lat":43.314811,"lon":5.373104,"is_reserved":false,"is_disabled":false,"rental_uris":{"android":"levelo://app?vid=f1088f11-60ca-4f10-89ed-35d2dc3c9c8b","ios":"levelo://app?vid=f1088f11-60ca-4f10-89ed-35d2dc3c9c8b"},"vehicle_type_id":"4","last_reported":1713805581,"current_range_meters":1200,"station_id":"ce4bgt12rcd13ifvqcd0","pricing_plan_id":"cebpf4jnsgd1na2vs0mg"},{"bike_id":"122b115b-57d0-4af8-b2c1-3c00f134b32f","system_id":"levelo_inurba_marseille","lat":43.314811,"lon":5.373104,"is_reserved":false,"is_disabled":false,"rental_uris":{"android":"levelo://app?vid=122b115b-57d0-4af8-b2c1-3c00f134b32f","ios":"levelo://app?vid=122b115b-57d0-4af8-b2c1-3c00f134b32f"},"vehicle_type_id":"4","last_reported":1713805581,"current_range_meters":20400,"station_id":"ce4bgt12rcd13ifvqcd0","pricing_plan_id":"cebpf4jnsgd1na2vs0mg"},{"bike_id":"65fb0e9e-cf49-4edd-bd1b-0d08de3e71f8","system_id":"levelo_inurba_marseille","lat":43.305714,"lon":5.365633,"is_reserved":false,"is_disabled":false,"rental_uris":{"android":"levelo://app?vid=65fb0e9e-cf49-4edd-bd1b-0d08de3e71f8","ios":"levelo://app?vid=65fb0e9e-cf49-4edd-bd1b-0d08de3e71f8"},"vehicle_type_id":"4","last_reported":1713805581,"current_range_meters":6000,"station_id":"ce4bgs12rcd13ifvqcag","pricing_plan_id":"cebpf4jnsgd1na2vs0mg"},{"bike_id":"dd3be50e-f56e-4fef-9218-29de32baa38d","system_id":"levelo_inurba_marseille","lat":43.309039,"lon":5.371797,"is_reserved":false,"is_disabled":false,"rental_uris":{"android":"levelo://app?vid=dd3be50e-f56e-4fef-9218-29de32baa38d","ios":"levelo://app?vid=dd3be50e-f56e-4fef-9218-29de32baa38d"},"vehicle_type_id":"4","last_reported":1713805581,"current_range_meters":27600,"station_id":"ce4bguh2rcd13ifvqckg","pricing_plan_id":"cebpf4jnsgd1na2vs0mg"},{"bike_id":"fc53d7a0-5349-4282-8e1e-ce3bae5e42d1","system_id":"levelo_inurba_marseille","lat":43.309039,"lon":5.371797,"is_reserved":false,"is_disabled":false,"rental_uris":{"android":"levelo://app?vid=fc53d7a0-5349-4282-8e1e-ce3bae5e42d1","ios":"levelo://app?vid=fc53d7a0-5349-4282-8e1e-ce3bae5e42d1"},"vehicle_type_id":"4","last_reported":1713805581,"current_range_meters":22800,"station_id":"ce4bguh2rcd13ifvqckg","pricing_plan_id":"cebpf4jnsgd1na2vs0mg"},{"bike_id":"5302e8b1-b05e-4a26-a7a3-14284ddfd1bf","system_id":"levelo_inurba_marseille","lat":43.309039,"lon":5.371797,"is_reserved":false,"is_disabled":false,"rental_uris":{"android":"levelo://app?vid=5302e8b1-b05e-4a26-a7a3-14284ddfd1bf","ios":"levelo://app?vid=5302e8b1-b05e-4a26-a7a3-14284ddfd1bf"},"vehicle_type_id":"4","last_reported":1713805581,"current_range_meters":20400,"station_id":"ce4bguh2rcd13ifvqckg","pricing_plan_id":"cebpf4jnsgd1na2vs0mg"},{"bike_id":"4ef05ec7-b709-48b1-afd7-b87badcb2273","system_id":"levelo_inurba_marseille","lat":43.309039,"lon":5.371797,"is_reserved":false,"is_disabled":false,"rental_uris":{"android":"levelo://app?vid=4ef05ec7-b709-48b1-afd7-b87badcb2273","ios":"levelo://app?vid=4ef05ec7-b709-48b1-afd7-b87badcb2273"},"vehicle_type_id":"4","last_reported":1713805581,"current_range_meters":31200,"station_id":"ce4bguh2rcd13ifvqckg","pricing_plan_id":"cebpf4jnsgd1na2vs0mg"},{"bike_id":"a0b6f137-2013-472b-a5a0-60c9b0ef68b6","system_id":"levelo_inurba_marseille","lat":43.309039,"lon":5.371797,"is_reserved":false,"is_disabled":false,"rental_uris":{"android":"levelo://app?vid=a0b6f137-2013-472b-a5a0-60c9b0ef68b6","ios":"levelo://app?vid=a0b6f137-2013-472b-a5a0-60c9b0ef68b6"},"vehicle_type_id":"4","last_reported":1713805581,"current_range_meters":26400,"station_id":"ce4bguh2rcd13ifvqckg","pricing_plan_id":"cebpf4jnsgd1na2vs0mg"},{"bike_id":"3e74bbe4-aff5-48bb-a125-1141184164f5","system_id":"levelo_inurba_marseille","lat":43.309039,"lon":5.371797,"is_reserved":false,"is_disabled":false,"rental_uris":{"android":"levelo://app?vid=3e74bbe4-aff5-48bb-a125-1141184164f5","ios":"levelo://app?vid=3e74bbe4-aff5-48bb-a125-1141184164f5"},"vehicle_type_id":"4","last_reported":1713805581,"current_range_meters":26000,"station_id":"ce4bguh2rcd13ifvqckg","pricing_plan_id":"cebpf4jnsgd1na2vs0mg"},{"bike_id":"7ae33aad-de88-40da-9ffc-87a653e14e32","system_id":"levelo_inurba_marseille","lat":43.309039,"lon":5.371797,"is_reserved":false,"is_disabled":false,"rental_uris":{"android":"levelo://app?vid=7ae33aad-de88-40da-9ffc-87a653e14e32","ios":"levelo://app?vid=7ae33aad-de88-40da-9ffc-87a653e14e32"},"vehicle_type_id":"4","last_reported":1713805581,"current_range_meters":8000,"station_id":"ce4bguh2rcd13ifvqckg","pricing_plan_id":"cebpf4jnsgd1na2vs0mg"},{"bike_id":"c22a7010-8753-426c-b833-da1863c7cd12","system_id":"levelo_inurba_marseille","lat":43.309034,"lon":5.371783,"is_reserved":false,"is_disabled":false,"rental_uris":{"android":"levelo://app?vid=c22a7010-8753-426c-b833-da1863c7cd12","ios":"levelo://app?vid=c22a7010-8753-426c-b833-da1863c7cd12"},"vehicle_type_id":"4","last_reported":1713805581,"current_range_meters":12400,"station_id":"ce4bguh2rcd13ifvqckg","pricing_plan_id":"cebpf4jnsgd1na2vs0mg"},{"bike_id":"7525f81f-d1b1-4899-85ba-26df6df61af3","system_id":"levelo_inurba_marseille","lat":43.309034,"lon":5.371783,"is_reserved":false,"is_disabled":false,"rental_uris":{"android":"levelo://app?vid=7525f81f-d1b1-4899-85ba-26df6df61af3","ios":"levelo://app?vid=7525f81f-d1b1-4899-85ba-26df6df61af3"},"vehicle_type_id":"4","last_reported":1713805581,"current_range_meters":10000,"station_id":"ce4bguh2rcd13ifvqckg","pricing_plan_id":"cebpf4jnsgd1na2vs0mg"},{"bike_id":"86fd9595-880c-4693-a25e-e2165167ddc2","system_id":"levelo_inurba_marseille","lat":43.309034,"lon":5.371783,"is_reserved":false,"is_disabled":false,"rental_uris":{"android":"levelo://app?vid=86fd9595-880c-4693-a25e-e2165167ddc2","ios":"levelo://app?vid=86fd9595-880c-4693-a25e-e2165167ddc2"},"vehicle_type_id":"4","last_reported":1713805581,"current_range_meters":17200,"station_id":"ce4bguh2rcd13ifvqckg","pricing_plan_id":"cebpf4jnsgd1na2vs0mg"},{"bike_id":"f3c8e660-adb7-448d-9d5d-55a0433da1f6","system_id":"levelo_inurba_marseille","lat":43.309039,"lon":5.371797,"is_reserved":false,"is_disabled":false,"rental_uris":{"android":"levelo://app?vid=f3c8e660-adb7-448d-9d5d-55a0433da1f6","ios":"levelo://app?vid=f3c8e660-adb7-448d-9d5d-55a0433da1f6"},"vehicle_type_id":"4","last_reported":1713805581,"current_range_meters":24000,"station_id":"ce4bguh2rcd13ifvqckg","pricing_plan_id":"cebpf4jnsgd1na2vs0mg"},{"bike_id":"35dcebb6-9894-4131-bba5-0a3adcc9c7d9","system_id":"levelo_inurba_marseille","lat":43.305714,"lon":5.365633,"is_reserved":false,"is_disabled":false,"rental_uris":{"android":"levelo://app?vid=35dcebb6-9894-4131-bba5-0a3adcc9c7d9","ios":"levelo://app?vid=35dcebb6-9894-4131-bba5-0a3adcc9c7d9"},"vehicle_type_id":"4","last_reported":1713805581,"current_range_meters":20000,"station_id":"ce4bgs12rcd13ifvqcag","pricing_plan_id":"cebpf4jnsgd1na2vs0mg"},{"bike_id":"fd2c9ae6-daa7-44b7-84f7-0203aa08b89b","system_id":"levelo_inurba_marseille","lat":43.305706,"lon":5.365654,"is_reserved":false,"is_disabled":false,"rental_uris":{"android":"levelo://app?vid=fd2c9ae6-daa7-44b7-84f7-0203aa08b89b","ios":"levelo://app?vid=fd2c9ae6-daa7-44b7-84f7-0203aa08b89b"},"vehicle_type_id":"4","last_reported":1713805581,"current_range_meters":10800,"station_id":"ce4bgs12rcd13ifvqcag","pricing_plan_id":"cebpf4jnsgd1na2vs0mg"},{"bike_id":"8eb5a9d6-9e6b-4e4f-9d88-04cfbca5fd37","system_id":"levelo_inurba_marseille","lat":43.292311,"lon":5.360731,"is_reserved":false,"is_disabled":false,"rental_uris":{"android":"levelo://app?vid=8eb5a9d6-9e6b-4e4f-9d88-04cfbca5fd37","ios":"levelo://app?vid=8eb5a9d6-9e6b-4e4f-9d88-04cfbca5fd37"},"vehicle_type_id":"4","last_reported":1713805581,"current_range_meters":14800,"station_id":"ce4bhbh2rcd13ifvqeqg","pricing_plan_id":"cebpf4jnsgd1na2vs0mg"},{"bike_id":"2a8d79ed-5cc0-4a07-8115-59d020fb9344","system_id":"levelo_inurba_marseille","lat":43.305714,"lon":5.365633,"is_reserved":false,"is_disabled":false,"rental_uris":{"android":"levelo://app?vid=2a8d79ed-5cc0-4a07-8115-59d020fb9344","ios":"levelo://app?vid=2a8d79ed-5cc0-4a07-8115-59d020fb9344"},"vehicle_type_id":"4","last_reported":1713805581,"current_range_meters":3600,"station_id":"ce4bgs12rcd13ifvqcag","pricing_plan_id":"cebpf4jnsgd1na2vs0mg"},{"bike_id":"d296d6b5-9bcf-4be5-a1c6-005e6bb69c7b","system_id":"levelo_inurba_marseille","lat":43.305368,"lon":5.367343,"is_reserved":false,"is_disabled":false,"rental_uris":{"android":"levelo://app?vid=d296d6b5-9bcf-4be5-a1c6-005e6bb69c7b","ios":"levelo://app?vid=d296d6b5-9bcf-4be5-a1c6-005e6bb69c7b"},"vehicle_type_id":"4","last_reported":1713805581,"current_range_meters":19200,"station_id":"ce4bgrp2rcd13ifvqc9g","pricing_plan_id":"cebpf4jnsgd1na2vs0mg"},{"bike_id":"c2a99be0-7d09-498b-a348-f592ce7ecfc3","system_id":"levelo_inurba_marseille","lat":43.305337,"lon":5.365548,"is_reserved":false,"is_disabled":false,"rental_uris":{"android":"levelo://app?vid=c2a99be0-7d09-498b-a348-f592ce7ecfc3","ios":"levelo://app?vid=c2a99be0-7d09-498b-a348-f592ce7ecfc3"},"vehicle_type_id":"4","last_reported":1713805581,"current_range_meters":24800,"station_id":"ce4bgs12rcd13ifvqcag","pricing_plan_id":"cebpf4jnsgd1na2vs0mg"},{"bike_id":"a7f38b8c-a44a-43c7-9d4b-541b45bc975b","system_id":"levelo_inurba_marseille","lat":43.299724,"lon":5.371829,"is_reserved":false,"is_disabled":false,"rental_uris":{"android":"levelo://app?vid=a7f38b8c-a44a-43c7-9d4b-541b45bc975b","ios":"levelo://app?vid=a7f38b8c-a44a-43c7-9d4b-541b45bc975b"},"vehicle_type_id":"4","last_reported":1713805581,"current_range_meters":12400,"station_id":"ce4bgr92rcd13ifvqc7g","pricing_plan_id":"cebpf4jnsgd1na2vs0mg"},{"bike_id":"71339a0a-08ec-4af2-bb75-3a1a55362bf3","system_id":"levelo_inurba_marseille","lat":43.306127,"lon":5.372295,"is_reserved":false,"is_disabled":false,"rental_uris":{"android":"levelo://app?vid=71339a0a-08ec-4af2-bb75-3a1a55362bf3","ios":"levelo://app?vid=71339a0a-08ec-4af2-bb75-3a1a55362bf3"},"vehicle_type_id":"4","last_reported":1713805581,"current_range_meters":6000,"station_id":"ce4bgqh2rcd13ifvqc4g","pricing_plan_id":"cebpf4jnsgd1na2vs0mg"},{"bike_id":"36f39dbe-4653-4a6c-95c8-591867e169e9","system_id":"levelo_inurba_marseille","lat":43.305989,"lon":5.37225,"is_reserved":false,"is_disabled":false,"rental_uris":{"android":"levelo://app?vid=36f39dbe-4653-4a6c-95c8-591867e169e9","ios":"levelo://app?vid=36f39dbe-4653-4a6c-95c8-591867e169e9"},"vehicle_type_id":"4","last_reported":1713805581,"current_range_meters":0,"station_id":"ce4bgqh2rcd13ifvqc4g","pricing_plan_id":"cebpf4jnsgd1na2vs0mg"},{"bike_id":"0fb83330-f1aa-4b50-8a53-ed6e11df466b","system_id":"levelo_inurba_marseille","lat":43.305989,"lon":5.37225,"is_reserved":false,"is_disabled":false,"rental_uris":{"android":"levelo://app?vid=0fb83330-f1aa-4b50-8a53-ed6e11df466b","ios":"levelo://app?vid=0fb83330-f1aa-4b50-8a53-ed6e11df466b"},"vehicle_type_id":"4","last_reported":1713805581,"current_range_meters":16000,"station_id":"ce4bgqh2rcd13ifvqc4g","pricing_plan_id":"cebpf4jnsgd1na2vs0mg"},{"bike_id":"7e96b56b-3613-4f12-a256-540e4ce354e9","system_id":"levelo_inurba_marseille","lat":43.305989,"lon":5.37225,"is_reserved":false,"is_disabled":false,"rental_uris":{"android":"levelo://app?vid=7e96b56b-3613-4f12-a256-540e4ce354e9","ios":"levelo://app?vid=7e96b56b-3613-4f12-a256-540e4ce354e9"},"vehicle_type_id":"4","last_reported":1713805581,"current_range_meters":31200,"station_id":"ce4bgqh2rcd13ifvqc4g","pricing_plan_id":"cebpf4jnsgd1na2vs0mg"},{"bike_id":"9ad04985-19b3-411b-9d37-d39d66559013","system_id":"levelo_inurba_marseille","lat":43.305989,"lon":5.37225,"is_reserved":false,"is_disabled":false,"rental_uris":{"android":"levelo://app?vid=9ad04985-19b3-411b-9d37-d39d66559013","ios":"levelo://app?vid=9ad04985-19b3-411b-9d37-d39d66559013"},"vehicle_type_id":"4","last_reported":1713805581,"current_range_meters":31200,"station_id":"ce4bgqh2rcd13ifvqc4g","pricing_plan_id":"cebpf4jnsgd1na2vs0mg"},{"bike_id":"89d8f7de-a676-4bfd-bdb8-75de7de48b12","system_id":"levelo_inurba_marseille","lat":43.305989,"lon":5.37225,"is_reserved":false,"is_disabled":false,"rental_uris":{"android":"levelo://app?vid=89d8f7de-a676-4bfd-bdb8-75de7de48b12","ios":"levelo://app?vid=89d8f7de-a676-4bfd-bdb8-75de7de48b12"},"vehicle_type_id":"4","last_reported":1713805581,"current_range_meters":8400,"station_id":"ce4bgqh2rcd13ifvqc4g","pricing_plan_id":"cebpf4jnsgd1na2vs0mg"},{"bike_id":"ed5eab22-9b68-4b64-8470-a9a37758d950","system_id":"levelo_inurba_marseille","lat":43.305989,"lon":5.37225,"is_reserved":false,"is_disabled":false,"rental_uris":{"android":"levelo://app?vid=ed5eab22-9b68-4b64-8470-a9a37758d950","ios":"levelo://app?vid=ed5eab22-9b68-4b64-8470-a9a37758d950"},"vehicle_type_id":"4","last_reported":1713805581,"current_range_meters":31200,"station_id":"ce4bgqh2rcd13ifvqc4g","pricing_plan_id":"cebpf4jnsgd1na2vs0mg"},{"bike_id":"fdb9fb2b-6a51-4f65-a923-6fa06967a45f","system_id":"levelo_inurba_marseille","lat":43.305989,"lon":5.37225,"is_reserved":false,"is_disabled":false,"rental_uris":{"android":"levelo://app?vid=fdb9fb2b-6a51-4f65-a923-6fa06967a45f","ios":"levelo://app?vid=fdb9fb2b-6a51-4f65-a923-6fa06967a45f"},"vehicle_type_id":"4","last_reported":1713805581,"current_range_meters":20000,"station_id":"ce4bgqh2rcd13ifvqc4g","pricing_plan_id":"cebpf4jnsgd1na2vs0mg"},{"bike_id":"272200ae-83b9-4c91-b764-2d1112b325f9","system_id":"levelo_inurba_marseille","lat":43.305989,"lon":5.37225,"is_reserved":false,"is_disabled":false,"rental_uris":{"android":"levelo://app?vid=272200ae-83b9-4c91-b764-2d1112b325f9","ios":"levelo://app?vid=272200ae-83b9-4c91-b764-2d1112b325f9"},"vehicle_type_id":"4","last_reported":1713805581,"current_range_meters":8000,"station_id":"ce4bgqh2rcd13ifvqc4g","pricing_plan_id":"cebpf4jnsgd1na2vs0mg"},{"bike_id":"0f8eab57-0296-42d8-abcd-67662705bc0d","system_id":"levelo_inurba_marseille","lat":43.304929,"lon":5.365681,"is_reserved":false,"is_disabled":false,"rental_uris":{"android":"levelo://app?vid=0f8eab57-0296-42d8-abcd-67662705bc0d","ios":"levelo://app?vid=0f8eab57-0296-42d8-abcd-67662705bc0d"},"vehicle_type_id":"4","last_reported":1713805581,"current_range_meters":11200,"station_id":"ce4bgs12rcd13ifvqcag","pricing_plan_id":"cebpf4jnsgd1na2vs0mg"},{"bike_id":"07aadf95-a98b-40ab-8432-98ff5146110c","system_id":"levelo_inurba_marseille","lat":43.317075,"lon":5.377367,"is_reserved":false,"is_disabled":false,"rental_uris":{"android":"levelo://app?vid=07aadf95-a98b-40ab-8432-98ff5146110c","ios":"levelo://app?vid=07aadf95-a98b-40ab-8432-98ff5146110c"},"vehicle_type_id":"4","last_reported":1713805581,"current_range_meters":18400,"station_id":"ce4bgth2rcd13ifvqch0","pricing_plan_id":"cebpf4jnsgd1na2vs0mg"},{"bike_id":"c96c8be7-1eed-4ea1-939d-549da3be5a78","system_id":"levelo_inurba_marseille","lat":43.307579,"lon":5.375969,"is_reserved":false,"is_disabled":false,"rental_uris":{"android":"levelo://app?vid=c96c8be7-1eed-4ea1-939d-549da3be5a78","ios":"levelo://app?vid=c96c8be7-1eed-4ea1-939d-549da3be5a78"},"vehicle_type_id":"4","last_reported":1713805581,"current_range_meters":7200,"station_id":"ce4bgv92rcd13ifvqcq0","pricing_plan_id":"cebpf4jnsgd1na2vs0mg"},{"bike_id":"8c4a9ef0-f0cc-43cf-a599-9ac6660df75d","system_id":"levelo_inurba_marseille","lat":43.307907,"lon":5.376523,"is_reserved":false,"is_disabled":false,"rental_uris":{"android":"levelo://app?vid=8c4a9ef0-f0cc-43cf-a599-9ac6660df75d","ios":"levelo://app?vid=8c4a9ef0-f0cc-43cf-a599-9ac6660df75d"},"vehicle_type_id":"4","last_reported":1713805581,"current_range_meters":0,"station_id":"ce4bgv92rcd13ifvqcq0","pricing_plan_id":"cebpf4jnsgd1na2vs0mg"},{"bike_id":"2577fb2a-9dc6-4b39-abe2-3b818e9d97a9","system_id":"levelo_inurba_marseille","lat":43.30776,"lon":5.376493,"is_reserved":false,"is_disabled":false,"rental_uris":{"android":"levelo://app?vid=2577fb2a-9dc6-4b39-abe2-3b818e9d97a9","ios":"levelo://app?vid=2577fb2a-9dc6-4b39-abe2-3b818e9d97a9"},"vehicle_type_id":"4","last_reported":1713805581,"current_range_meters":800,"station_id":"ce4bgv92rcd13ifvqcq0","pricing_plan_id":"cebpf4jnsgd1na2vs0mg"},{"bike_id":"9a0b165e-3b2a-4431-ae73-0e852475d79d","system_id":"levelo_inurba_marseille","lat":43.317075,"lon":5.377367,"is_reserved":false,"is_disabled":false,"rental_uris":{"android":"levelo://app?vid=9a0b165e-3b2a-4431-ae73-0e852475d79d","ios":"levelo://app?vid=9a0b165e-3b2a-4431-ae73-0e852475d79d"},"vehicle_type_id":"4","last_reported":1713805581,"current_range_meters":8400,"station_id":"ce4bgth2rcd13ifvqch0","pricing_plan_id":"cebpf4jnsgd1na2vs0mg"},{"bike_id":"3385ee2a-c550-4633-ade2-dfbb928c531a","system_id":"levelo_inurba_marseille","lat":43.317075,"lon":5.377367,"is_reserved":false,"is_disabled":false,"rental_uris":{"android":"levelo://app?vid=3385ee2a-c550-4633-ade2-dfbb928c531a","ios":"levelo://app?vid=3385ee2a-c550-4633-ade2-dfbb928c531a"},"vehicle_type_id":"4","last_reported":1713805581,"current_range_meters":25200,"station_id":"ce4bgth2rcd13ifvqch0","pricing_plan_id":"cebpf4jnsgd1na2vs0mg"},{"bike_id":"3d00f2e5-cee5-443c-be55-f17ef666fe94","system_id":"levelo_inurba_marseille","lat":43.317075,"lon":5.377367,"is_reserved":false,"is_disabled":false,"rental_uris":{"android":"levelo://app?vid=3d00f2e5-cee5-443c-be55-f17ef666fe94","ios":"levelo://app?vid=3d00f2e5-cee5-443c-be55-f17ef666fe94"},"vehicle_type_id":"4","last_reported":1713805581,"current_range_meters":24800,"station_id":"ce4bgth2rcd13ifvqch0","pricing_plan_id":"cebpf4jnsgd1na2vs0mg"},{"bike_id":"924ffc8a-1da0-4137-8ddd-75062e3ec9e2","system_id":"levelo_inurba_marseille","lat":43.31707,"lon":5.3775,"is_reserved":false,"is_disabled":false,"rental_uris":{"android":"levelo://app?vid=924ffc8a-1da0-4137-8ddd-75062e3ec9e2","ios":"levelo://app?vid=924ffc8a-1da0-4137-8ddd-75062e3ec9e2"},"vehicle_type_id":"4","last_reported":1713805581,"current_range_meters":8800,"station_id":"ce4bgth2rcd13ifvqch0","pricing_plan_id":"cebpf4jnsgd1na2vs0mg"},{"bike_id":"1bd93fe7-cbcc-4fc6-bbf5-18322dcb475a","system_id":"levelo_inurba_marseille","lat":43.317075,"lon":5.377367,"is_reserved":false,"is_disabled":false,"rental_uris":{"android":"levelo://app?vid=1bd93fe7-cbcc-4fc6-bbf5-18322dcb475a","ios":"levelo://app?vid=1bd93fe7-cbcc-4fc6-bbf5-18322dcb475a"},"vehicle_type_id":"4","last_reported":1713805581,"current_range_meters":18800,"station_id":"ce4bgth2rcd13ifvqch0","pricing_plan_id":"cebpf4jnsgd1na2vs0mg"},{"bike_id":"04a52809-4714-4f3c-866f-faa7c2ffb546","system_id":"levelo_inurba_marseille","lat":43.315365,"lon":5.38028,"is_reserved":false,"is_disabled":false,"rental_uris":{"android":"levelo://app?vid=04a52809-4714-4f3c-866f-faa7c2ffb546","ios":"levelo://app?vid=04a52809-4714-4f3c-866f-faa7c2ffb546"},"vehicle_type_id":"4","last_reported":1713805581,"current_range_meters":800,"station_id":"ce4bhsp2rcd13ifvqi50","pricing_plan_id":"cebpf4jnsgd1na2vs0mg"},{"bike_id":"3fe57c5f-ad80-4997-b059-460e086c908f","system_id":"levelo_inurba_marseille","lat":43.315283,"lon":5.380335,"is_reserved":false,"is_disabled":false,"rental_uris":{"android":"levelo://app?vid=3fe57c5f-ad80-4997-b059-460e086c908f","ios":"levelo://app?vid=3fe57c5f-ad80-4997-b059-460e086c908f"},"vehicle_type_id":"4","last_reported":1713805581,"current_range_meters":24000,"station_id":"ce4bhsp2rcd13ifvqi50","pricing_plan_id":"cebpf4jnsgd1na2vs0mg"},{"bike_id":"d15fe16b-0e74-4bcd-88d4-7692f6a3089e","system_id":"levelo_inurba_marseille","lat":43.315293,"lon":5.380349,"is_reserved":false,"is_disabled":false,"rental_uris":{"android":"levelo://app?vid=d15fe16b-0e74-4bcd-88d4-7692f6a3089e","ios":"levelo://app?vid=d15fe16b-0e74-4bcd-88d4-7692f6a3089e"},"vehicle_type_id":"4","last_reported":1713805581,"current_range_meters":16000,"station_id":"ce4bhsp2rcd13ifvqi50","pricing_plan_id":"cebpf4jnsgd1na2vs0mg"},{"bike_id":"46379e38-105f-4037-b8d0-12ca52bb6457","system_id":"levelo_inurba_marseille","lat":43.315293,"lon":5.380349,"is_reserved":false,"is_disabled":false,"rental_uris":{"android":"levelo://app?vid=46379e38-105f-4037-b8d0-12ca52bb6457","ios":"levelo://app?vid=46379e38-105f-4037-b8d0-12ca52bb6457"},"vehicle_type_id":"4","last_reported":1713805581,"current_range_meters":21600,"station_id":"ce4bhsp2rcd13ifvqi50","pricing_plan_id":"cebpf4jnsgd1na2vs0mg"},{"bike_id":"8212d23c-d46e-4724-90f0-f41f60079a58","system_id":"levelo_inurba_marseille","lat":43.315293,"lon":5.380349,"is_reserved":false,"is_disabled":false,"rental_uris":{"android":"levelo://app?vid=8212d23c-d46e-4724-90f0-f41f60079a58","ios":"levelo://app?vid=8212d23c-d46e-4724-90f0-f41f60079a58"},"vehicle_type_id":"4","last_reported":1713805581,"current_range_meters":16400,"station_id":"ce4bhsp2rcd13ifvqi50","pricing_plan_id":"cebpf4jnsgd1na2vs0mg"},{"bike_id":"ee602a9d-8d35-4ec1-8a7b-e380e3e00589","system_id":"levelo_inurba_marseille","lat":43.301939,"lon":5.366286,"is_reserved":false,"is_disabled":false,"rental_uris":{"android":"levelo://app?vid=ee602a9d-8d35-4ec1-8a7b-e380e3e00589","ios":"levelo://app?vid=ee602a9d-8d35-4ec1-8a7b-e380e3e00589"},"vehicle_type_id":"4","last_reported":1713805581,"current_range_meters":19600,"station_id":"ce4bgrh2rcd13ifvqc8g","pricing_plan_id":"cebpf4jnsgd1na2vs0mg"},{"bike_id":"cd550386-513c-45e1-aa91-16003d6b3786","system_id":"levelo_inurba_marseille","lat":43.30183,"lon":5.36621,"is_reserved":false,"is_disabled":false,"rental_uris":{"android":"levelo://app?vid=cd550386-513c-45e1-aa91-16003d6b3786","ios":"levelo://app?vid=cd550386-513c-45e1-aa91-16003d6b3786"},"vehicle_type_id":"4","last_reported":1713805581,"current_range_meters":22800,"station_id":"ce4bgrh2rcd13ifvqc8g","pricing_plan_id":"cebpf4jnsgd1na2vs0mg"},{"bike_id":"e1d124df-1272-45dd-a91e-b57fc7e3a259","system_id":"levelo_inurba_marseille","lat":43.301939,"lon":5.366286,"is_reserved":false,"is_disabled":false,"rental_uris":{"android":"levelo://app?vid=e1d124df-1272-45dd-a91e-b57fc7e3a259","ios":"levelo://app?vid=e1d124df-1272-45dd-a91e-b57fc7e3a259"},"vehicle_type_id":"4","last_reported":1713805581,"current_range_meters":31600,"station_id":"ce4bgrh2rcd13ifvqc8g","pricing_plan_id":"cebpf4jnsgd1na2vs0mg"},{"bike_id":"ded35c10-e689-4dd4-bd39-54d66a1336df","system_id":"levelo_inurba_marseille","lat":43.304606,"lon":5.379026,"is_reserved":false,"is_disabled":false,"rental_uris":{"android":"levelo://app?vid=ded35c10-e689-4dd4-bd39-54d66a1336df","ios":"levelo://app?vid=ded35c10-e689-4dd4-bd39-54d66a1336df"},"vehicle_type_id":"4","last_reported":1713805581,"current_range_meters":4400,"station_id":"ce4bgup2rcd13ifvqcn0","pricing_plan_id":"cebpf4jnsgd1na2vs0mg"},{"bike_id":"27aff1ea-8a48-4c2a-baa9-1986bf7d531d","system_id":"levelo_inurba_marseille","lat":43.295169,"lon":5.390426,"is_reserved":false,"is_disabled":false,"rental_uris":{"android":"levelo://app?vid=27aff1ea-8a48-4c2a-baa9-1986bf7d531d","ios":"levelo://app?vid=27aff1ea-8a48-4c2a-baa9-1986bf7d531d"},"vehicle_type_id":"4","last_reported":1713805581,"current_range_meters":12000,"station_id":"ce4bh3p2rcd13ifvqdp0","pricing_plan_id":"cebpf4jnsgd1na2vs0mg"},{"bike_id":"bfeaffd7-a018-4819-9769-7ca5c6520dff","system_id":"levelo_inurba_marseille","lat":43.304606,"lon":5.379026,"is_reserved":false,"is_disabled":false,"rental_uris":{"android":"levelo://app?vid=bfeaffd7-a018-4819-9769-7ca5c6520dff","ios":"levelo://app?vid=bfeaffd7-a018-4819-9769-7ca5c6520dff"},"vehicle_type_id":"4","last_reported":1713805581,"current_range_meters":18800,"station_id":"ce4bgup2rcd13ifvqcn0","pricing_plan_id":"cebpf4jnsgd1na2vs0mg"},{"bike_id":"4de203a6-e210-4aa0-bcb0-972d5a213134","system_id":"levelo_inurba_marseille","lat":43.324771,"lon":5.36557,"is_reserved":false,"is_disabled":false,"rental_uris":{"android":"levelo://app?vid=4de203a6-e210-4aa0-bcb0-972d5a213134","ios":"levelo://app?vid=4de203a6-e210-4aa0-bcb0-972d5a213134"},"vehicle_type_id":"4","last_reported":1713805581,"current_range_meters":4400,"station_id":"ce4bhs12rcd13ifvqhvg","pricing_plan_id":"cebpf4jnsgd1na2vs0mg"},{"bike_id":"0b33afc3-8406-4840-8582-4dbe3b27faea","system_id":"levelo_inurba_marseille","lat":43.310804,"lon":5.38359,"is_reserved":false,"is_disabled":false,"rental_uris":{"android":"levelo://app?vid=0b33afc3-8406-4840-8582-4dbe3b27faea","ios":"levelo://app?vid=0b33afc3-8406-4840-8582-4dbe3b27faea"},"vehicle_type_id":"4","last_reported":1713805581,"current_range_meters":11600,"station_id":"ce4bgv92rcd13ifvqcr0","pricing_plan_id":"cebpf4jnsgd1na2vs0mg"},{"bike_id":"381cf7dd-0d9f-4327-93e1-b594e5c999fe","system_id":"levelo_inurba_marseille","lat":43.310804,"lon":5.38359,"is_reserved":false,"is_disabled":false,"rental_uris":{"android":"levelo://app?vid=381cf7dd-0d9f-4327-93e1-b594e5c999fe","ios":"levelo://app?vid=381cf7dd-0d9f-4327-93e1-b594e5c999fe"},"vehicle_type_id":"4","last_reported":1713805581,"current_range_meters":17200,"station_id":"ce4bgv92rcd13ifvqcr0","pricing_plan_id":"cebpf4jnsgd1na2vs0mg"},{"bike_id":"4a9b6fd5-48b8-431d-ac8a-011f517afc0c","system_id":"levelo_inurba_marseille","lat":43.310804,"lon":5.38359,"is_reserved":false,"is_disabled":false,"rental_uris":{"android":"levelo://app?vid=4a9b6fd5-48b8-431d-ac8a-011f517afc0c","ios":"levelo://app?vid=4a9b6fd5-48b8-431d-ac8a-011f517afc0c"},"vehicle_type_id":"4","last_reported":1713805581,"current_range_meters":14800,"station_id":"ce4bgv92rcd13ifvqcr0","pricing_plan_id":"cebpf4jnsgd1na2vs0mg"},{"bike_id":"e708ef37-37e6-4cd4-9c58-58c213efed3a","system_id":"levelo_inurba_marseille","lat":43.305395,"lon":5.380968,"is_reserved":false,"is_disabled":false,"rental_uris":{"android":"levelo://app?vid=e708ef37-37e6-4cd4-9c58-58c213efed3a","ios":"levelo://app?vid=e708ef37-37e6-4cd4-9c58-58c213efed3a"},"vehicle_type_id":"4","last_reported":1713805581,"current_range_meters":9200,"station_id":"","pricing_plan_id":"cebpf4jnsgd1na2vs0mg"},{"bike_id":"7709d9a1-50f8-405a-a970-d42aeec9ff31","system_id":"levelo_inurba_marseille","lat":43.32039,"lon":5.38073,"is_reserved":false,"is_disabled":false,"rental_uris":{"android":"levelo://app?vid=7709d9a1-50f8-405a-a970-d42aeec9ff31","ios":"levelo://app?vid=7709d9a1-50f8-405a-a970-d42aeec9ff31"},"vehicle_type_id":"4","last_reported":1713805581,"current_range_meters":27200,"station_id":"","pricing_plan_id":"cebpf4jnsgd1na2vs0mg"},{"bike_id":"7e34a868-f7f5-4cc8-ad38-12f475d2e78e","system_id":"levelo_inurba_marseille","lat":43.319935,"lon":5.381699,"is_reserved":false,"is_disabled":false,"rental_uris":{"android":"levelo://app?vid=7e34a868-f7f5-4cc8-ad38-12f475d2e78e","ios":"levelo://app?vid=7e34a868-f7f5-4cc8-ad38-12f475d2e78e"},"vehicle_type_id":"4","last_reported":1713805581,"current_range_meters":26000,"station_id":"ce4bhr12rcd13ifvqhpg","pricing_plan_id":"cebpf4jnsgd1na2vs0mg"},{"bike_id":"fec8dffa-10ef-4635-82bc-fa57de892e01","system_id":"levelo_inurba_marseille","lat":43.319935,"lon":5.381699,"is_reserved":false,"is_disabled":false,"rental_uris":{"android":"levelo://app?vid=fec8dffa-10ef-4635-82bc-fa57de892e01","ios":"levelo://app?vid=fec8dffa-10ef-4635-82bc-fa57de892e01"},"vehicle_type_id":"4","last_reported":1713805581,"current_range_meters":2000,"station_id":"ce4bhr12rcd13ifvqhpg","pricing_plan_id":"cebpf4jnsgd1na2vs0mg"},{"bike_id":"36e6c597-4c9b-44fd-b549-5a94fcfa18a9","system_id":"levelo_inurba_marseille","lat":43.319935,"lon":5.381699,"is_reserved":false,"is_disabled":false,"rental_uris":{"android":"levelo://app?vid=36e6c597-4c9b-44fd-b549-5a94fcfa18a9","ios":"levelo://app?vid=36e6c597-4c9b-44fd-b549-5a94fcfa18a9"},"vehicle_type_id":"4","last_reported":1713805581,"current_range_meters":19200,"station_id":"ce4bhr12rcd13ifvqhpg","pricing_plan_id":"cebpf4jnsgd1na2vs0mg"},{"bike_id":"433458f1-4592-4f2a-9af5-551c5a82a6c5","system_id":"levelo_inurba_marseille","lat":43.31999,"lon":5.38157,"is_reserved":false,"is_disabled":false,"rental_uris":{"android":"levelo://app?vid=433458f1-4592-4f2a-9af5-551c5a82a6c5","ios":"levelo://app?vid=433458f1-4592-4f2a-9af5-551c5a82a6c5"},"vehicle_type_id":"4","last_reported":1713805581,"current_range_meters":26000,"station_id":"ce4bhr12rcd13ifvqhpg","pricing_plan_id":"cebpf4jnsgd1na2vs0mg"},{"bike_id":"71adbe34-2f9a-470e-9db9-22e3f5446b00","system_id":"levelo_inurba_marseille","lat":43.319935,"lon":5.381699,"is_reserved":false,"is_disabled":false,"rental_uris":{"android":"levelo://app?vid=71adbe34-2f9a-470e-9db9-22e3f5446b00","ios":"levelo://app?vid=71adbe34-2f9a-470e-9db9-22e3f5446b00"},"vehicle_type_id":"4","last_reported":1713805581,"current_range_meters":18800,"station_id":"ce4bhr12rcd13ifvqhpg","pricing_plan_id":"cebpf4jnsgd1na2vs0mg"},{"bike_id":"b6448e4e-bc8c-4096-befe-00e7d7b27d86","system_id":"levelo_inurba_marseille","lat":43.319935,"lon":5.381699,"is_reserved":false,"is_disabled":false,"rental_uris":{"android":"levelo://app?vid=b6448e4e-bc8c-4096-befe-00e7d7b27d86","ios":"levelo://app?vid=b6448e4e-bc8c-4096-befe-00e7d7b27d86"},"vehicle_type_id":"4","last_reported":1713805581,"current_range_meters":12000,"station_id":"ce4bhr12rcd13ifvqhpg","pricing_plan_id":"cebpf4jnsgd1na2vs0mg"},{"bike_id":"f93eef6b-628d-49e2-addc-56cb17903cdc","system_id":"levelo_inurba_marseille","lat":43.319935,"lon":5.381699,"is_reserved":false,"is_disabled":false,"rental_uris":{"android":"levelo://app?vid=f93eef6b-628d-49e2-addc-56cb17903cdc","ios":"levelo://app?vid=f93eef6b-628d-49e2-addc-56cb17903cdc"},"vehicle_type_id":"4","last_reported":1713805581,"current_range_meters":9600,"station_id":"ce4bhr12rcd13ifvqhpg","pricing_plan_id":"cebpf4jnsgd1na2vs0mg"},{"bike_id":"955f71a7-4619-4d31-8ae8-e76b3da35934","system_id":"levelo_inurba_marseille","lat":43.313571,"lon":5.384829,"is_reserved":false,"is_disabled":false,"rental_uris":{"android":"levelo://app?vid=955f71a7-4619-4d31-8ae8-e76b3da35934","ios":"levelo://app?vid=955f71a7-4619-4d31-8ae8-e76b3da35934"},"vehicle_type_id":"4","last_reported":1713805581,"current_range_meters":11200,"station_id":"ce4bgt92rcd13ifvqcf0","pricing_plan_id":"cebpf4jnsgd1na2vs0mg"},{"bike_id":"592053a3-659a-45a8-8349-609ba5b9935d","system_id":"levelo_inurba_marseille","lat":43.289184,"lon":5.366408,"is_reserved":false,"is_disabled":false,"rental_uris":{"android":"levelo://app?vid=592053a3-659a-45a8-8349-609ba5b9935d","ios":"levelo://app?vid=592053a3-659a-45a8-8349-609ba5b9935d"},"vehicle_type_id":"4","last_reported":1713805581,"current_range_meters":20000,"station_id":"ce4bhap2rcd13ifvqek0","pricing_plan_id":"cebpf4jnsgd1na2vs0mg"},{"bike_id":"9b31c5cc-0e04-41b6-acaf-075e374232fa","system_id":"levelo_inurba_marseille","lat":43.298433,"lon":5.362774,"is_reserved":false,"is_disabled":false,"rental_uris":{"android":"levelo://app?vid=9b31c5cc-0e04-41b6-acaf-075e374232fa","ios":"levelo://app?vid=9b31c5cc-0e04-41b6-acaf-075e374232fa"},"vehicle_type_id":"4","last_reported":1713805581,"current_range_meters":0,"station_id":"ce4bgpp2rcd13ifvqc3g","pricing_plan_id":"cebpf4jnsgd1na2vs0mg"},{"bike_id":"ecb715d2-2126-4bed-9a48-22d10b27c1e6","system_id":"levelo_inurba_marseille","lat":43.311125,"lon":5.377624,"is_reserved":false,"is_disabled":false,"rental_uris":{"android":"levelo://app?vid=ecb715d2-2126-4bed-9a48-22d10b27c1e6","ios":"levelo://app?vid=ecb715d2-2126-4bed-9a48-22d10b27c1e6"},"vehicle_type_id":"4","last_reported":1713805581,"current_range_meters":13200,"station_id":"ce4bgt92rcd13ifvqcg0","pricing_plan_id":"cebpf4jnsgd1na2vs0mg"},{"bike_id":"bea8eece-a67d-4e27-8c47-5b0be0a8092a","system_id":"levelo_inurba_marseille","lat":43.29848,"lon":5.36279,"is_reserved":false,"is_disabled":false,"rental_uris":{"android":"levelo://app?vid=bea8eece-a67d-4e27-8c47-5b0be0a8092a","ios":"levelo://app?vid=bea8eece-a67d-4e27-8c47-5b0be0a8092a"},"vehicle_type_id":"4","last_reported":1713805581,"current_range_meters":11600,"station_id":"ce4bgpp2rcd13ifvqc3g","pricing_plan_id":"cebpf4jnsgd1na2vs0mg"},{"bike_id":"282a0637-f50e-40cb-9b67-bb3b8a56d2a3","system_id":"levelo_inurba_marseille","lat":43.298433,"lon":5.362774,"is_reserved":false,"is_disabled":false,"rental_uris":{"android":"levelo://app?vid=282a0637-f50e-40cb-9b67-bb3b8a56d2a3","ios":"levelo://app?vid=282a0637-f50e-40cb-9b67-bb3b8a56d2a3"},"vehicle_type_id":"4","last_reported":1713805581,"current_range_meters":4000,"station_id":"ce4bgpp2rcd13ifvqc3g","pricing_plan_id":"cebpf4jnsgd1na2vs0mg"},{"bike_id":"d909c883-9c04-4c3e-84b9-70bb12e28056","system_id":"levelo_inurba_marseille","lat":43.29846,"lon":5.36275,"is_reserved":false,"is_disabled":false,"rental_uris":{"android":"levelo://app?vid=d909c883-9c04-4c3e-84b9-70bb12e28056","ios":"levelo://app?vid=d909c883-9c04-4c3e-84b9-70bb12e28056"},"vehicle_type_id":"4","last_reported":1713805581,"current_range_meters":2000,"station_id":"ce4bgpp2rcd13ifvqc3g","pricing_plan_id":"cebpf4jnsgd1na2vs0mg"},{"bike_id":"d7ca59fe-e30e-4364-abdb-2c8128687c58","system_id":"levelo_inurba_marseille","lat":43.29846,"lon":5.36272,"is_reserved":false,"is_disabled":false,"rental_uris":{"android":"levelo://app?vid=d7ca59fe-e30e-4364-abdb-2c8128687c58","ios":"levelo://app?vid=d7ca59fe-e30e-4364-abdb-2c8128687c58"},"vehicle_type_id":"4","last_reported":1713805581,"current_range_meters":28800,"station_id":"ce4bgpp2rcd13ifvqc3g","pricing_plan_id":"cebpf4jnsgd1na2vs0mg"},{"bike_id":"761b50ed-594c-4709-b6ab-86c84140ccab","system_id":"levelo_inurba_marseille","lat":43.298433,"lon":5.362774,"is_reserved":false,"is_disabled":false,"rental_uris":{"android":"levelo://app?vid=761b50ed-594c-4709-b6ab-86c84140ccab","ios":"levelo://app?vid=761b50ed-594c-4709-b6ab-86c84140ccab"},"vehicle_type_id":"4","last_reported":1713805581,"current_range_meters":31200,"station_id":"ce4bgpp2rcd13ifvqc3g","pricing_plan_id":"cebpf4jnsgd1na2vs0mg"},{"bike_id":"a42f28e9-4fdc-4654-92c0-eece35875ecf","system_id":"levelo_inurba_marseille","lat":43.298433,"lon":5.362774,"is_reserved":false,"is_disabled":false,"rental_uris":{"android":"levelo://app?vid=a42f28e9-4fdc-4654-92c0-eece35875ecf","ios":"levelo://app?vid=a42f28e9-4fdc-4654-92c0-eece35875ecf"},"vehicle_type_id":"4","last_reported":1713805581,"current_range_meters":15200,"station_id":"ce4bgpp2rcd13ifvqc3g","pricing_plan_id":"cebpf4jnsgd1na2vs0mg"},{"bike_id":"2734edb9-098c-4884-9b90-e8b0cfbe9616","system_id":"levelo_inurba_marseille","lat":43.292749,"lon":5.368402,"is_reserved":false,"is_disabled":false,"rental_uris":{"android":"levelo://app?vid=2734edb9-098c-4884-9b90-e8b0cfbe9616","ios":"levelo://app?vid=2734edb9-098c-4884-9b90-e8b0cfbe9616"},"vehicle_type_id":"4","last_reported":1713805581,"current_range_meters":21600,"station_id":"ce4bhbp2rcd13ifvqesg","pricing_plan_id":"cebpf4jnsgd1na2vs0mg"},{"bike_id":"9773334b-655f-4d7e-bf91-a24a87795160","system_id":"levelo_inurba_marseille","lat":43.29842,"lon":5.36263,"is_reserved":false,"is_disabled":false,"rental_uris":{"android":"levelo://app?vid=9773334b-655f-4d7e-bf91-a24a87795160","ios":"levelo://app?vid=9773334b-655f-4d7e-bf91-a24a87795160"},"vehicle_type_id":"4","last_reported":1713805581,"current_range_meters":16400,"station_id":"ce4bgpp2rcd13ifvqc3g","pricing_plan_id":"cebpf4jnsgd1na2vs0mg"},{"bike_id":"6d7ca7b2-a53a-4588-9bc9-7f7020787541","system_id":"levelo_inurba_marseille","lat":43.298433,"lon":5.362774,"is_reserved":false,"is_disabled":false,"rental_uris":{"android":"levelo://app?vid=6d7ca7b2-a53a-4588-9bc9-7f7020787541","ios":"levelo://app?vid=6d7ca7b2-a53a-4588-9bc9-7f7020787541"},"vehicle_type_id":"4","last_reported":1713805581,"current_range_meters":31200,"station_id":"ce4bgpp2rcd13ifvqc3g","pricing_plan_id":"cebpf4jnsgd1na2vs0mg"},{"bike_id":"78716218-7a51-43cf-9039-8ec49a33dc90","system_id":"levelo_inurba_marseille","lat":43.299243,"lon":5.37481,"is_reserved":false,"is_disabled":false,"rental_uris":{"android":"levelo://app?vid=78716218-7a51-43cf-9039-8ec49a33dc90","ios":"levelo://app?vid=78716218-7a51-43cf-9039-8ec49a33dc90"},"vehicle_type_id":"4","last_reported":1713805581,"current_range_meters":23600,"station_id":"ce4bgjh2rcd13ifvqbg0","pricing_plan_id":"cebpf4jnsgd1na2vs0mg"},{"bike_id":"0596a7bd-2488-4686-9e1b-913831b0e489","system_id":"levelo_inurba_marseille","lat":43.322872,"lon":5.382756,"is_reserved":false,"is_disabled":false,"rental_uris":{"android":"levelo://app?vid=0596a7bd-2488-4686-9e1b-913831b0e489","ios":"levelo://app?vid=0596a7bd-2488-4686-9e1b-913831b0e489"},"vehicle_type_id":"4","last_reported":1713805581,"current_range_meters":4000,"station_id":"ce4bhr12rcd13ifvqhqg","pricing_plan_id":"cebpf4jnsgd1na2vs0mg"},{"bike_id":"a4cc2678-1ae4-4d41-a3d2-cbb8a9fd73ac","system_id":"levelo_inurba_marseille","lat":43.322872,"lon":5.382756,"is_reserved":false,"is_disabled":false,"rental_uris":{"android":"levelo://app?vid=a4cc2678-1ae4-4d41-a3d2-cbb8a9fd73ac","ios":"levelo://app?vid=a4cc2678-1ae4-4d41-a3d2-cbb8a9fd73ac"},"vehicle_type_id":"4","last_reported":1713805581,"current_range_meters":31200,"station_id":"ce4bhr12rcd13ifvqhqg","pricing_plan_id":"cebpf4jnsgd1na2vs0mg"},{"bike_id":"b87c4180-08df-49c8-872f-4a266b5c0162","system_id":"levelo_inurba_marseille","lat":43.322872,"lon":5.382756,"is_reserved":false,"is_disabled":false,"rental_uris":{"android":"levelo://app?vid=b87c4180-08df-49c8-872f-4a266b5c0162","ios":"levelo://app?vid=b87c4180-08df-49c8-872f-4a266b5c0162"},"vehicle_type_id":"4","last_reported":1713805581,"current_range_meters":16000,"station_id":"ce4bhr12rcd13ifvqhqg","pricing_plan_id":"cebpf4jnsgd1na2vs0mg"},{"bike_id":"92c24665-badb-4ed7-9129-70f50714ed40","system_id":"levelo_inurba_marseille","lat":43.322872,"lon":5.382756,"is_reserved":false,"is_disabled":false,"rental_uris":{"android":"levelo://app?vid=92c24665-badb-4ed7-9129-70f50714ed40","ios":"levelo://app?vid=92c24665-badb-4ed7-9129-70f50714ed40"},"vehicle_type_id":"4","last_reported":1713805581,"current_range_meters":13600,"station_id":"ce4bhr12rcd13ifvqhqg","pricing_plan_id":"cebpf4jnsgd1na2vs0mg"},{"bike_id":"c46d9a8d-ee81-498e-bbb5-006f1b556bbe","system_id":"levelo_inurba_marseille","lat":43.322872,"lon":5.382756,"is_reserved":false,"is_disabled":false,"rental_uris":{"android":"levelo://app?vid=c46d9a8d-ee81-498e-bbb5-006f1b556bbe","ios":"levelo://app?vid=c46d9a8d-ee81-498e-bbb5-006f1b556bbe"},"vehicle_type_id":"4","last_reported":1713805581,"current_range_meters":13600,"station_id":"ce4bhr12rcd13ifvqhqg","pricing_plan_id":"cebpf4jnsgd1na2vs0mg"},{"bike_id":"0b32fa2b-6e99-4115-bc6d-55694d0bf299","system_id":"levelo_inurba_marseille","lat":43.322872,"lon":5.382756,"is_reserved":false,"is_disabled":false,"rental_uris":{"android":"levelo://app?vid=0b32fa2b-6e99-4115-bc6d-55694d0bf299","ios":"levelo://app?vid=0b32fa2b-6e99-4115-bc6d-55694d0bf299"},"vehicle_type_id":"4","last_reported":1713805581,"current_range_meters":31200,"station_id":"ce4bhr12rcd13ifvqhqg","pricing_plan_id":"cebpf4jnsgd1na2vs0mg"},{"bike_id":"4aa6bbb6-acfe-4a72-b7aa-c41f660e7dba","system_id":"levelo_inurba_marseille","lat":43.322872,"lon":5.382756,"is_reserved":false,"is_disabled":false,"rental_uris":{"android":"levelo://app?vid=4aa6bbb6-acfe-4a72-b7aa-c41f660e7dba","ios":"levelo://app?vid=4aa6bbb6-acfe-4a72-b7aa-c41f660e7dba"},"vehicle_type_id":"4","last_reported":1713805581,"current_range_meters":27600,"station_id":"ce4bhr12rcd13ifvqhqg","pricing_plan_id":"cebpf4jnsgd1na2vs0mg"},{"bike_id":"454f2963-a870-401a-a816-3704b04ea77e","system_id":"levelo_inurba_marseille","lat":43.322872,"lon":5.382756,"is_reserved":false,"is_disabled":false,"rental_uris":{"android":"levelo://app?vid=454f2963-a870-401a-a816-3704b04ea77e","ios":"levelo://app?vid=454f2963-a870-401a-a816-3704b04ea77e"},"vehicle_type_id":"4","last_reported":1713805581,"current_range_meters":6000,"station_id":"ce4bhr12rcd13ifvqhqg","pricing_plan_id":"cebpf4jnsgd1na2vs0mg"},{"bike_id":"ef61a51c-36c6-4c2f-9a98-9ec3cb0d9ad4","system_id":"levelo_inurba_marseille","lat":43.322872,"lon":5.382756,"is_reserved":false,"is_disabled":false,"rental_uris":{"android":"levelo://app?vid=ef61a51c-36c6-4c2f-9a98-9ec3cb0d9ad4","ios":"levelo://app?vid=ef61a51c-36c6-4c2f-9a98-9ec3cb0d9ad4"},"vehicle_type_id":"4","last_reported":1713805581,"current_range_meters":20800,"station_id":"ce4bhr12rcd13ifvqhqg","pricing_plan_id":"cebpf4jnsgd1na2vs0mg"},{"bike_id":"7bdb248d-764c-415d-a6c7-c411571b1cad","system_id":"levelo_inurba_marseille","lat":43.297163,"lon":5.365866,"is_reserved":false,"is_disabled":false,"rental_uris":{"android":"levelo://app?vid=7bdb248d-764c-415d-a6c7-c411571b1cad","ios":"levelo://app?vid=7bdb248d-764c-415d-a6c7-c411571b1cad"},"vehicle_type_id":"4","last_reported":1713805581,"current_range_meters":0,"station_id":"ce4bgn12rcd13ifvqbt0","pricing_plan_id":"cebpf4jnsgd1na2vs0mg"},{"bike_id":"950a5ee6-4d88-4ae1-b07e-35ff0396f3e5","system_id":"levelo_inurba_marseille","lat":43.29823,"lon":5.376374,"is_reserved":false,"is_disabled":false,"rental_uris":{"android":"levelo://app?vid=950a5ee6-4d88-4ae1-b07e-35ff0396f3e5","ios":"levelo://app?vid=950a5ee6-4d88-4ae1-b07e-35ff0396f3e5"},"vehicle_type_id":"4","last_reported":1713805581,"current_range_meters":14400,"station_id":"ce4bgjh2rcd13ifvqbg0","pricing_plan_id":"cebpf4jnsgd1na2vs0mg"},{"bike_id":"8142c0dc-44ba-4f01-99a8-66f5cd3737d4","system_id":"levelo_inurba_marseille","lat":43.296131,"lon":5.370791,"is_reserved":false,"is_disabled":false,"rental_uris":{"android":"levelo://app?vid=8142c0dc-44ba-4f01-99a8-66f5cd3737d4","ios":"levelo://app?vid=8142c0dc-44ba-4f01-99a8-66f5cd3737d4"},"vehicle_type_id":"4","last_reported":1713805581,"current_range_meters":7200,"station_id":"ce4bgnh2rcd13ifvqc0g","pricing_plan_id":"cebpf4jnsgd1na2vs0mg"},{"bike_id":"b7e73b47-4c3c-48a7-959f-86c23d89f9e9","system_id":"levelo_inurba_marseille","lat":43.29573,"lon":5.367355,"is_reserved":false,"is_disabled":false,"rental_uris":{"android":"levelo://app?vid=b7e73b47-4c3c-48a7-959f-86c23d89f9e9","ios":"levelo://app?vid=b7e73b47-4c3c-48a7-959f-86c23d89f9e9"},"vehicle_type_id":"4","last_reported":1713805581,"current_range_meters":24400,"station_id":"ce4bgph2rcd13ifvqc2g","pricing_plan_id":"cebpf4jnsgd1na2vs0mg"},{"bike_id":"fbfaecb0-cd2c-46d5-97dc-eb041d8f2d0f","system_id":"levelo_inurba_marseille","lat":43.296131,"lon":5.370791,"is_reserved":false,"is_disabled":false,"rental_uris":{"android":"levelo://app?vid=fbfaecb0-cd2c-46d5-97dc-eb041d8f2d0f","ios":"levelo://app?vid=fbfaecb0-cd2c-46d5-97dc-eb041d8f2d0f"},"vehicle_type_id":"4","last_reported":1713805581,"current_range_meters":22800,"station_id":"ce4bgnh2rcd13ifvqc0g","pricing_plan_id":"cebpf4jnsgd1na2vs0mg"},{"bike_id":"ac07facb-2332-4ac4-aa5c-cd6c098ed7ba","system_id":"levelo_inurba_marseille","lat":43.296131,"lon":5.370791,"is_reserved":false,"is_disabled":false,"rental_uris":{"android":"levelo://app?vid=ac07facb-2332-4ac4-aa5c-cd6c098ed7ba","ios":"levelo://app?vid=ac07facb-2332-4ac4-aa5c-cd6c098ed7ba"},"vehicle_type_id":"4","last_reported":1713805581,"current_range_meters":3200,"station_id":"ce4bgnh2rcd13ifvqc0g","pricing_plan_id":"cebpf4jnsgd1na2vs0mg"},{"bike_id":"c1be5787-293b-4756-81dd-1ab8613f2897","system_id":"levelo_inurba_marseille","lat":43.296131,"lon":5.370791,"is_reserved":false,"is_disabled":false,"rental_uris":{"android":"levelo://app?vid=c1be5787-293b-4756-81dd-1ab8613f2897","ios":"levelo://app?vid=c1be5787-293b-4756-81dd-1ab8613f2897"},"vehicle_type_id":"4","last_reported":1713805581,"current_range_meters":30800,"station_id":"ce4bgnh2rcd13ifvqc0g","pricing_plan_id":"cebpf4jnsgd1na2vs0mg"},{"bike_id":"9445cf03-28a5-426f-8670-8a7b11f59909","system_id":"levelo_inurba_marseille","lat":43.29573,"lon":5.367355,"is_reserved":false,"is_disabled":false,"rental_uris":{"android":"levelo://app?vid=9445cf03-28a5-426f-8670-8a7b11f59909","ios":"levelo://app?vid=9445cf03-28a5-426f-8670-8a7b11f59909"},"vehicle_type_id":"4","last_reported":1713805581,"current_range_meters":31200,"station_id":"ce4bgph2rcd13ifvqc2g","pricing_plan_id":"cebpf4jnsgd1na2vs0mg"},{"bike_id":"63224632-a719-4d15-a37e-8d2f1d5e153f","system_id":"levelo_inurba_marseille","lat":43.295169,"lon":5.390426,"is_reserved":false,"is_disabled":false,"rental_uris":{"android":"levelo://app?vid=63224632-a719-4d15-a37e-8d2f1d5e153f","ios":"levelo://app?vid=63224632-a719-4d15-a37e-8d2f1d5e153f"},"vehicle_type_id":"4","last_reported":1713805581,"current_range_meters":28800,"station_id":"ce4bh3p2rcd13ifvqdp0","pricing_plan_id":"cebpf4jnsgd1na2vs0mg"},{"bike_id":"22ee16ca-a245-4dc1-ad8a-db06da73955c","system_id":"levelo_inurba_marseille","lat":43.295889,"lon":5.3688,"is_reserved":false,"is_disabled":false,"rental_uris":{"android":"levelo://app?vid=22ee16ca-a245-4dc1-ad8a-db06da73955c","ios":"levelo://app?vid=22ee16ca-a245-4dc1-ad8a-db06da73955c"},"vehicle_type_id":"4","last_reported":1713805581,"current_range_meters":17600,"station_id":"","pricing_plan_id":"cebpf4jnsgd1na2vs0mg"},{"bike_id":"6515f4a7-63b1-470d-b960-2a3e60fe9117","system_id":"levelo_inurba_marseille","lat":43.29573,"lon":5.367355,"is_reserved":false,"is_disabled":false,"rental_uris":{"android":"levelo://app?vid=6515f4a7-63b1-470d-b960-2a3e60fe9117","ios":"levelo://app?vid=6515f4a7-63b1-470d-b960-2a3e60fe9117"},"vehicle_type_id":"4","last_reported":1713805581,"current_range_meters":28400,"station_id":"ce4bgph2rcd13ifvqc2g","pricing_plan_id":"cebpf4jnsgd1na2vs0mg"},{"bike_id":"5ef29f9b-890e-455d-b388-556b3d69c9ba","system_id":"levelo_inurba_marseille","lat":43.29573,"lon":5.367355,"is_reserved":false,"is_disabled":false,"rental_uris":{"android":"levelo://app?vid=5ef29f9b-890e-455d-b388-556b3d69c9ba","ios":"levelo://app?vid=5ef29f9b-890e-455d-b388-556b3d69c9ba"},"vehicle_type_id":"4","last_reported":1713805581,"current_range_meters":28000,"station_id":"ce4bgph2rcd13ifvqc2g","pricing_plan_id":"cebpf4jnsgd1na2vs0mg"},{"bike_id":"b2eefbbc-2201-45db-a915-b600a0f78876","system_id":"levelo_inurba_marseille","lat":43.29573,"lon":5.367355,"is_reserved":false,"is_disabled":false,"rental_uris":{"android":"levelo://app?vid=b2eefbbc-2201-45db-a915-b600a0f78876","ios":"levelo://app?vid=b2eefbbc-2201-45db-a915-b600a0f78876"},"vehicle_type_id":"4","last_reported":1713805581,"current_range_meters":25200,"station_id":"ce4bgph2rcd13ifvqc2g","pricing_plan_id":"cebpf4jnsgd1na2vs0mg"},{"bike_id":"c4444999-21e2-4628-b5bb-1601b8d5132b","system_id":"levelo_inurba_marseille","lat":43.295789,"lon":5.367207,"is_reserved":false,"is_disabled":false,"rental_uris":{"android":"levelo://app?vid=c4444999-21e2-4628-b5bb-1601b8d5132b","ios":"levelo://app?vid=c4444999-21e2-4628-b5bb-1601b8d5132b"},"vehicle_type_id":"4","last_reported":1713805581,"current_range_meters":21600,"station_id":"ce4bgph2rcd13ifvqc2g","pricing_plan_id":"cebpf4jnsgd1na2vs0mg"},{"bike_id":"a31b6fc8-fcac-4546-ba0f-56c9af268b79","system_id":"levelo_inurba_marseille","lat":43.297193,"lon":5.376814,"is_reserved":false,"is_disabled":false,"rental_uris":{"android":"levelo://app?vid=a31b6fc8-fcac-4546-ba0f-56c9af268b79","ios":"levelo://app?vid=a31b6fc8-fcac-4546-ba0f-56c9af268b79"},"vehicle_type_id":"4","last_reported":1713805581,"current_range_meters":14400,"station_id":"ce4bgkh2rcd13ifvqbl0","pricing_plan_id":"cebpf4jnsgd1na2vs0mg"},{"bike_id":"59f7afc4-a51e-4771-93bf-4e09d98ecc3f","system_id":"levelo_inurba_marseille","lat":43.296921,"lon":5.376579,"is_reserved":false,"is_disabled":false,"rental_uris":{"android":"levelo://app?vid=59f7afc4-a51e-4771-93bf-4e09d98ecc3f","ios":"levelo://app?vid=59f7afc4-a51e-4771-93bf-4e09d98ecc3f"},"vehicle_type_id":"4","last_reported":1713805581,"current_range_meters":0,"station_id":"ce4bgkh2rcd13ifvqbl0","pricing_plan_id":"cebpf4jnsgd1na2vs0mg"},{"bike_id":"540027bc-e4e3-4351-ab2d-5c7b4fa37c30","system_id":"levelo_inurba_marseille","lat":43.296921,"lon":5.376579,"is_reserved":false,"is_disabled":false,"rental_uris":{"android":"levelo://app?vid=540027bc-e4e3-4351-ab2d-5c7b4fa37c30","ios":"levelo://app?vid=540027bc-e4e3-4351-ab2d-5c7b4fa37c30"},"vehicle_type_id":"4","last_reported":1713805581,"current_range_meters":26000,"station_id":"ce4bgkh2rcd13ifvqbl0","pricing_plan_id":"cebpf4jnsgd1na2vs0mg"},{"bike_id":"11246085-2ea5-4b58-b2e0-7e774ac54885","system_id":"levelo_inurba_marseille","lat":43.317557,"lon":5.390173,"is_reserved":false,"is_disabled":false,"rental_uris":{"android":"levelo://app?vid=11246085-2ea5-4b58-b2e0-7e774ac54885","ios":"levelo://app?vid=11246085-2ea5-4b58-b2e0-7e774ac54885"},"vehicle_type_id":"4","last_reported":1713805581,"current_range_meters":26400,"station_id":"ce4bhqp2rcd13ifvqhng","pricing_plan_id":"cebpf4jnsgd1na2vs0mg"},{"bike_id":"500be5b9-370c-4a43-9012-a490e0e0e229","system_id":"levelo_inurba_marseille","lat":43.317557,"lon":5.390173,"is_reserved":false,"is_disabled":false,"rental_uris":{"android":"levelo://app?vid=500be5b9-370c-4a43-9012-a490e0e0e229","ios":"levelo://app?vid=500be5b9-370c-4a43-9012-a490e0e0e229"},"vehicle_type_id":"4","last_reported":1713805581,"current_range_meters":18400,"station_id":"ce4bhqp2rcd13ifvqhng","pricing_plan_id":"cebpf4jnsgd1na2vs0mg"},{"bike_id":"d4281dc0-5178-4248-9b91-852cf98949de","system_id":"levelo_inurba_marseille","lat":43.317557,"lon":5.390173,"is_reserved":false,"is_disabled":false,"rental_uris":{"android":"levelo://app?vid=d4281dc0-5178-4248-9b91-852cf98949de","ios":"levelo://app?vid=d4281dc0-5178-4248-9b91-852cf98949de"},"vehicle_type_id":"4","last_reported":1713805581,"current_range_meters":12000,"station_id":"ce4bhqp2rcd13ifvqhng","pricing_plan_id":"cebpf4jnsgd1na2vs0mg"},{"bike_id":"e5e96777-b58d-4c12-a702-ce4e38968387","system_id":"levelo_inurba_marseille","lat":43.317557,"lon":5.390173,"is_reserved":false,"is_disabled":false,"rental_uris":{"android":"levelo://app?vid=e5e96777-b58d-4c12-a702-ce4e38968387","ios":"levelo://app?vid=e5e96777-b58d-4c12-a702-ce4e38968387"},"vehicle_type_id":"4","last_reported":1713805581,"current_range_meters":19200,"station_id":"ce4bhqp2rcd13ifvqhng","pricing_plan_id":"cebpf4jnsgd1na2vs0mg"},{"bike_id":"6d156540-28be-441b-be24-d4f7844984f2","system_id":"levelo_inurba_marseille","lat":43.317557,"lon":5.390173,"is_reserved":false,"is_disabled":false,"rental_uris":{"android":"levelo://app?vid=6d156540-28be-441b-be24-d4f7844984f2","ios":"levelo://app?vid=6d156540-28be-441b-be24-d4f7844984f2"},"vehicle_type_id":"4","last_reported":1713805581,"current_range_meters":8000,"station_id":"ce4bhqp2rcd13ifvqhng","pricing_plan_id":"cebpf4jnsgd1na2vs0mg"},{"bike_id":"b1b7754f-f689-4ce8-9ccf-16716f4a3dc1","system_id":"levelo_inurba_marseille","lat":43.298037,"lon":5.381066,"is_reserved":false,"is_disabled":false,"rental_uris":{"android":"levelo://app?vid=b1b7754f-f689-4ce8-9ccf-16716f4a3dc1","ios":"levelo://app?vid=b1b7754f-f689-4ce8-9ccf-16716f4a3dc1"},"vehicle_type_id":"4","last_reported":1713805581,"current_range_meters":0,"station_id":"ce4bgip2rcd13ifvqbb0","pricing_plan_id":"cebpf4jnsgd1na2vs0mg"},{"bike_id":"25a541eb-12e2-4c78-b1fb-a6c6b4762175","system_id":"levelo_inurba_marseille","lat":43.298037,"lon":5.381066,"is_reserved":false,"is_disabled":false,"rental_uris":{"android":"levelo://app?vid=25a541eb-12e2-4c78-b1fb-a6c6b4762175","ios":"levelo://app?vid=25a541eb-12e2-4c78-b1fb-a6c6b4762175"},"vehicle_type_id":"4","last_reported":1713805581,"current_range_meters":7200,"station_id":"ce4bgip2rcd13ifvqbb0","pricing_plan_id":"cebpf4jnsgd1na2vs0mg"},{"bike_id":"0caf303c-9e71-4c59-9ad7-4fc9ccf1f785","system_id":"levelo_inurba_marseille","lat":43.298037,"lon":5.381066,"is_reserved":false,"is_disabled":false,"rental_uris":{"android":"levelo://app?vid=0caf303c-9e71-4c59-9ad7-4fc9ccf1f785","ios":"levelo://app?vid=0caf303c-9e71-4c59-9ad7-4fc9ccf1f785"},"vehicle_type_id":"4","last_reported":1713805581,"current_range_meters":12000,"station_id":"ce4bgip2rcd13ifvqbb0","pricing_plan_id":"cebpf4jnsgd1na2vs0mg"},{"bike_id":"2d2f3f09-d4c6-48bc-8ae6-9fbc2600cfad","system_id":"levelo_inurba_marseille","lat":43.298037,"lon":5.381066,"is_reserved":false,"is_disabled":false,"rental_uris":{"android":"levelo://app?vid=2d2f3f09-d4c6-48bc-8ae6-9fbc2600cfad","ios":"levelo://app?vid=2d2f3f09-d4c6-48bc-8ae6-9fbc2600cfad"},"vehicle_type_id":"4","last_reported":1713805581,"current_range_meters":26800,"station_id":"ce4bgip2rcd13ifvqbb0","pricing_plan_id":"cebpf4jnsgd1na2vs0mg"},{"bike_id":"b37f8514-41c9-45d0-8560-04f4c255ade4","system_id":"levelo_inurba_marseille","lat":43.304274,"lon":5.388873,"is_reserved":false,"is_disabled":false,"rental_uris":{"android":"levelo://app?vid=b37f8514-41c9-45d0-8560-04f4c255ade4","ios":"levelo://app?vid=b37f8514-41c9-45d0-8560-04f4c255ade4"},"vehicle_type_id":"4","last_reported":1713805581,"current_range_meters":12000,"station_id":"ce4bgk12rcd13ifvqbi0","pricing_plan_id":"cebpf4jnsgd1na2vs0mg"},{"bike_id":"f0d063fb-23c1-4191-b184-449ecd4fafaf","system_id":"levelo_inurba_marseille","lat":43.298037,"lon":5.381066,"is_reserved":false,"is_disabled":false,"rental_uris":{"android":"levelo://app?vid=f0d063fb-23c1-4191-b184-449ecd4fafaf","ios":"levelo://app?vid=f0d063fb-23c1-4191-b184-449ecd4fafaf"},"vehicle_type_id":"4","last_reported":1713805581,"current_range_meters":26800,"station_id":"ce4bgip2rcd13ifvqbb0","pricing_plan_id":"cebpf4jnsgd1na2vs0mg"},{"bike_id":"38897cd2-e13d-485a-a250-0a4cd20243e0","system_id":"levelo_inurba_marseille","lat":43.298037,"lon":5.381066,"is_reserved":false,"is_disabled":false,"rental_uris":{"android":"levelo://app?vid=38897cd2-e13d-485a-a250-0a4cd20243e0","ios":"levelo://app?vid=38897cd2-e13d-485a-a250-0a4cd20243e0"},"vehicle_type_id":"4","last_reported":1713805581,"current_range_meters":6000,"station_id":"ce4bgip2rcd13ifvqbb0","pricing_plan_id":"cebpf4jnsgd1na2vs0mg"},{"bike_id":"7ef3683b-96e0-4043-a518-512a6ae803a7","system_id":"levelo_inurba_marseille","lat":43.29484,"lon":5.36326,"is_reserved":false,"is_disabled":false,"rental_uris":{"android":"levelo://app?vid=7ef3683b-96e0-4043-a518-512a6ae803a7","ios":"levelo://app?vid=7ef3683b-96e0-4043-a518-512a6ae803a7"},"vehicle_type_id":"4","last_reported":1713805581,"current_range_meters":22400,"station_id":"","pricing_plan_id":"cebpf4jnsgd1na2vs0mg"},{"bike_id":"5df79570-7845-48e0-9938-43216eb7371c","system_id":"levelo_inurba_marseille","lat":43.296223,"lon":5.377247,"is_reserved":false,"is_disabled":false,"rental_uris":{"android":"levelo://app?vid=5df79570-7845-48e0-9938-43216eb7371c","ios":"levelo://app?vid=5df79570-7845-48e0-9938-43216eb7371c"},"vehicle_type_id":"4","last_reported":1713805581,"current_range_meters":13200,"station_id":"ce4bgi92rcd13ifvqb90","pricing_plan_id":"cebpf4jnsgd1na2vs0mg"},{"bike_id":"8c0cb0c3-e9d8-4bbf-bee3-aa3da31018b7","system_id":"levelo_inurba_marseille","lat":43.296277,"lon":5.377108,"is_reserved":false,"is_disabled":false,"rental_uris":{"android":"levelo://app?vid=8c0cb0c3-e9d8-4bbf-bee3-aa3da31018b7","ios":"levelo://app?vid=8c0cb0c3-e9d8-4bbf-bee3-aa3da31018b7"},"vehicle_type_id":"4","last_reported":1713805581,"current_range_meters":28000,"station_id":"ce4bgi92rcd13ifvqb90","pricing_plan_id":"cebpf4jnsgd1na2vs0mg"},{"bike_id":"9ce8d301-3469-4899-a87c-dfc158d97b7d","system_id":"levelo_inurba_marseille","lat":43.299724,"lon":5.384848,"is_reserved":false,"is_disabled":false,"rental_uris":{"android":"levelo://app?vid=9ce8d301-3469-4899-a87c-dfc158d97b7d","ios":"levelo://app?vid=9ce8d301-3469-4899-a87c-dfc158d97b7d"},"vehicle_type_id":"4","last_reported":1713805581,"current_range_meters":20400,"station_id":"ce4bgj92rcd13ifvqbd0","pricing_plan_id":"cebpf4jnsgd1na2vs0mg"},{"bike_id":"46f314f8-48ac-432a-ba76-68bd243548cc","system_id":"levelo_inurba_marseille","lat":43.29976,"lon":5.38489,"is_reserved":false,"is_disabled":false,"rental_uris":{"android":"levelo://app?vid=46f314f8-48ac-432a-ba76-68bd243548cc","ios":"levelo://app?vid=46f314f8-48ac-432a-ba76-68bd243548cc"},"vehicle_type_id":"4","last_reported":1713805581,"current_range_meters":0,"station_id":"ce4bgj92rcd13ifvqbd0","pricing_plan_id":"cebpf4jnsgd1na2vs0mg"},{"bike_id":"afeae2fa-ff81-4fe0-8a2f-7081a9765343","system_id":"levelo_inurba_marseille","lat":43.299717,"lon":5.384845,"is_reserved":false,"is_disabled":false,"rental_uris":{"android":"levelo://app?vid=afeae2fa-ff81-4fe0-8a2f-7081a9765343","ios":"levelo://app?vid=afeae2fa-ff81-4fe0-8a2f-7081a9765343"},"vehicle_type_id":"4","last_reported":1713805581,"current_range_meters":0,"station_id":"ce4bgj92rcd13ifvqbd0","pricing_plan_id":"cebpf4jnsgd1na2vs0mg"},{"bike_id":"08431a16-80b3-4ad9-ae71-3c05a21ea062","system_id":"levelo_inurba_marseille","lat":43.299717,"lon":5.384845,"is_reserved":false,"is_disabled":false,"rental_uris":{"android":"levelo://app?vid=08431a16-80b3-4ad9-ae71-3c05a21ea062","ios":"levelo://app?vid=08431a16-80b3-4ad9-ae71-3c05a21ea062"},"vehicle_type_id":"4","last_reported":1713805581,"current_range_meters":0,"station_id":"ce4bgj92rcd13ifvqbd0","pricing_plan_id":"cebpf4jnsgd1na2vs0mg"},{"bike_id":"e27a0226-7e35-453a-97e4-077518c4d323","system_id":"levelo_inurba_marseille","lat":43.2968,"lon":5.37291,"is_reserved":false,"is_disabled":false,"rental_uris":{"android":"levelo://app?vid=e27a0226-7e35-453a-97e4-077518c4d323","ios":"levelo://app?vid=e27a0226-7e35-453a-97e4-077518c4d323"},"vehicle_type_id":"4","last_reported":1713805581,"current_range_meters":6000,"station_id":"ce4bgk12rcd13ifvqbj0","pricing_plan_id":"cebpf4jnsgd1na2vs0mg"},{"bike_id":"52649579-0901-428c-8ac5-2bcc7a963105","system_id":"levelo_inurba_marseille","lat":43.293009,"lon":5.374584,"is_reserved":false,"is_disabled":false,"rental_uris":{"android":"levelo://app?vid=52649579-0901-428c-8ac5-2bcc7a963105","ios":"levelo://app?vid=52649579-0901-428c-8ac5-2bcc7a963105"},"vehicle_type_id":"4","last_reported":1713805581,"current_range_meters":6400,"station_id":"ce4bgi12rcd13ifvqb70","pricing_plan_id":"cebpf4jnsgd1na2vs0mg"},{"bike_id":"c77c1a15-ff32-45e8-8c76-844676e4c928","system_id":"levelo_inurba_marseille","lat":43.32367,"lon":5.388836,"is_reserved":false,"is_disabled":false,"rental_uris":{"android":"levelo://app?vid=c77c1a15-ff32-45e8-8c76-844676e4c928","ios":"levelo://app?vid=c77c1a15-ff32-45e8-8c76-844676e4c928"},"vehicle_type_id":"4","last_reported":1713805581,"current_range_meters":6000,"station_id":"ce4bhqp2rcd13ifvqhog","pricing_plan_id":"cebpf4jnsgd1na2vs0mg"},{"bike_id":"4fb23bfa-003a-4a6f-bb18-dc6e3c6c5f0c","system_id":"levelo_inurba_marseille","lat":43.29602,"lon":5.381084,"is_reserved":false,"is_disabled":false,"rental_uris":{"android":"levelo://app?vid=4fb23bfa-003a-4a6f-bb18-dc6e3c6c5f0c","ios":"levelo://app?vid=4fb23bfa-003a-4a6f-bb18-dc6e3c6c5f0c"},"vehicle_type_id":"4","last_reported":1713805581,"current_range_meters":12400,"station_id":"ce4bgl12rcd13ifvqbo0","pricing_plan_id":"cebpf4jnsgd1na2vs0mg"},{"bike_id":"53ca3e23-fe8b-46c7-bd98-bd08f69d7319","system_id":"levelo_inurba_marseille","lat":43.29602,"lon":5.381084,"is_reserved":false,"is_disabled":false,"rental_uris":{"android":"levelo://app?vid=53ca3e23-fe8b-46c7-bd98-bd08f69d7319","ios":"levelo://app?vid=53ca3e23-fe8b-46c7-bd98-bd08f69d7319"},"vehicle_type_id":"4","last_reported":1713805581,"current_range_meters":11600,"station_id":"ce4bgl12rcd13ifvqbo0","pricing_plan_id":"cebpf4jnsgd1na2vs0mg"},{"bike_id":"fed3979c-7621-431c-859d-87fe831a33e5","system_id":"levelo_inurba_marseille","lat":43.29602,"lon":5.381084,"is_reserved":false,"is_disabled":false,"rental_uris":{"android":"levelo://app?vid=fed3979c-7621-431c-859d-87fe831a33e5","ios":"levelo://app?vid=fed3979c-7621-431c-859d-87fe831a33e5"},"vehicle_type_id":"4","last_reported":1713805581,"current_range_meters":23600,"station_id":"ce4bgl12rcd13ifvqbo0","pricing_plan_id":"cebpf4jnsgd1na2vs0mg"},{"bike_id":"1578cf13-01c2-4b3b-9bb5-8981641df2b3","system_id":"levelo_inurba_marseille","lat":43.29602,"lon":5.381084,"is_reserved":false,"is_disabled":false,"rental_uris":{"android":"levelo://app?vid=1578cf13-01c2-4b3b-9bb5-8981641df2b3","ios":"levelo://app?vid=1578cf13-01c2-4b3b-9bb5-8981641df2b3"},"vehicle_type_id":"4","last_reported":1713805581,"current_range_meters":13200,"station_id":"ce4bgl12rcd13ifvqbo0","pricing_plan_id":"cebpf4jnsgd1na2vs0mg"},{"bike_id":"81c1857c-115f-41df-a6e1-c4e077e0ff46","system_id":"levelo_inurba_marseille","lat":43.29602,"lon":5.381084,"is_reserved":false,"is_disabled":false,"rental_uris":{"android":"levelo://app?vid=81c1857c-115f-41df-a6e1-c4e077e0ff46","ios":"levelo://app?vid=81c1857c-115f-41df-a6e1-c4e077e0ff46"},"vehicle_type_id":"4","last_reported":1713805581,"current_range_meters":12400,"station_id":"ce4bgl12rcd13ifvqbo0","pricing_plan_id":"cebpf4jnsgd1na2vs0mg"},{"bike_id":"aef66f98-110b-45da-9242-fb5fc8289626","system_id":"levelo_inurba_marseille","lat":43.292749,"lon":5.368402,"is_reserved":false,"is_disabled":false,"rental_uris":{"android":"levelo://app?vid=aef66f98-110b-45da-9242-fb5fc8289626","ios":"levelo://app?vid=aef66f98-110b-45da-9242-fb5fc8289626"},"vehicle_type_id":"4","last_reported":1713805581,"current_range_meters":22800,"station_id":"ce4bhbp2rcd13ifvqesg","pricing_plan_id":"cebpf4jnsgd1na2vs0mg"},{"bike_id":"55647fe4-d0a8-454d-8d09-e3391fc88861","system_id":"levelo_inurba_marseille","lat":43.293009,"lon":5.374584,"is_reserved":false,"is_disabled":false,"rental_uris":{"android":"levelo://app?vid=55647fe4-d0a8-454d-8d09-e3391fc88861","ios":"levelo://app?vid=55647fe4-d0a8-454d-8d09-e3391fc88861"},"vehicle_type_id":"4","last_reported":1713805581,"current_range_meters":2000,"station_id":"ce4bgi12rcd13ifvqb70","pricing_plan_id":"cebpf4jnsgd1na2vs0mg"},{"bike_id":"b050ea8d-df45-467f-8084-f78cf8bb1771","system_id":"levelo_inurba_marseille","lat":43.293009,"lon":5.374584,"is_reserved":false,"is_disabled":false,"rental_uris":{"android":"levelo://app?vid=b050ea8d-df45-467f-8084-f78cf8bb1771","ios":"levelo://app?vid=b050ea8d-df45-467f-8084-f78cf8bb1771"},"vehicle_type_id":"4","last_reported":1713805581,"current_range_meters":3200,"station_id":"ce4bgi12rcd13ifvqb70","pricing_plan_id":"cebpf4jnsgd1na2vs0mg"},{"bike_id":"5e32f2e3-0c1e-49f8-acc3-f0453cc992c3","system_id":"levelo_inurba_marseille","lat":43.293009,"lon":5.374584,"is_reserved":false,"is_disabled":false,"rental_uris":{"android":"levelo://app?vid=5e32f2e3-0c1e-49f8-acc3-f0453cc992c3","ios":"levelo://app?vid=5e32f2e3-0c1e-49f8-acc3-f0453cc992c3"},"vehicle_type_id":"4","last_reported":1713805581,"current_range_meters":6800,"station_id":"ce4bgi12rcd13ifvqb70","pricing_plan_id":"cebpf4jnsgd1na2vs0mg"},{"bike_id":"b7ff6014-92d8-4b5d-99ef-545fa28cab4d","system_id":"levelo_inurba_marseille","lat":43.293009,"lon":5.374584,"is_reserved":false,"is_disabled":false,"rental_uris":{"android":"levelo://app?vid=b7ff6014-92d8-4b5d-99ef-545fa28cab4d","ios":"levelo://app?vid=b7ff6014-92d8-4b5d-99ef-545fa28cab4d"},"vehicle_type_id":"4","last_reported":1713805581,"current_range_meters":9600,"station_id":"ce4bgi12rcd13ifvqb70","pricing_plan_id":"cebpf4jnsgd1na2vs0mg"},{"bike_id":"7e1a5601-08ea-412f-bc94-078f8aaa8a58","system_id":"levelo_inurba_marseille","lat":43.305994,"lon":5.393687,"is_reserved":false,"is_disabled":false,"rental_uris":{"android":"levelo://app?vid=7e1a5601-08ea-412f-bc94-078f8aaa8a58","ios":"levelo://app?vid=7e1a5601-08ea-412f-bc94-078f8aaa8a58"},"vehicle_type_id":"4","last_reported":1713805581,"current_range_meters":0,"station_id":"ce4bh0p2rcd13ifvqd80","pricing_plan_id":"cebpf4jnsgd1na2vs0mg"},{"bike_id":"48a7e976-a416-4ce9-8116-93e7997ac847","system_id":"levelo_inurba_marseille","lat":43.303002,"lon":5.392142,"is_reserved":false,"is_disabled":false,"rental_uris":{"android":"levelo://app?vid=48a7e976-a416-4ce9-8116-93e7997ac847","ios":"levelo://app?vid=48a7e976-a416-4ce9-8116-93e7997ac847"},"vehicle_type_id":"4","last_reported":1713805581,"current_range_meters":0,"station_id":"ce4bgkh2rcd13ifvqbk0","pricing_plan_id":"cebpf4jnsgd1na2vs0mg"},{"bike_id":"7663e054-812e-40d4-aea6-f9ac13ae1a1a","system_id":"levelo_inurba_marseille","lat":43.303002,"lon":5.392142,"is_reserved":false,"is_disabled":false,"rental_uris":{"android":"levelo://app?vid=7663e054-812e-40d4-aea6-f9ac13ae1a1a","ios":"levelo://app?vid=7663e054-812e-40d4-aea6-f9ac13ae1a1a"},"vehicle_type_id":"4","last_reported":1713805581,"current_range_meters":0,"station_id":"ce4bgkh2rcd13ifvqbk0","pricing_plan_id":"cebpf4jnsgd1na2vs0mg"},{"bike_id":"fa68f599-76c6-4f54-912a-78d997126010","system_id":"levelo_inurba_marseille","lat":43.2936,"lon":5.37835,"is_reserved":false,"is_disabled":false,"rental_uris":{"android":"levelo://app?vid=fa68f599-76c6-4f54-912a-78d997126010","ios":"levelo://app?vid=fa68f599-76c6-4f54-912a-78d997126010"},"vehicle_type_id":"4","last_reported":1713805581,"current_range_meters":19200,"station_id":"ce4bgjh2rcd13ifvqbf0","pricing_plan_id":"cebpf4jnsgd1na2vs0mg"},{"bike_id":"33007b6d-5b1a-41f9-88ea-19dc7c641ea0","system_id":"levelo_inurba_marseille","lat":43.2936,"lon":5.37835,"is_reserved":false,"is_disabled":false,"rental_uris":{"android":"levelo://app?vid=33007b6d-5b1a-41f9-88ea-19dc7c641ea0","ios":"levelo://app?vid=33007b6d-5b1a-41f9-88ea-19dc7c641ea0"},"vehicle_type_id":"4","last_reported":1713805581,"current_range_meters":29600,"station_id":"ce4bgjh2rcd13ifvqbf0","pricing_plan_id":"cebpf4jnsgd1na2vs0mg"},{"bike_id":"46f80415-8b26-4cc9-94ca-3376583f72cc","system_id":"levelo_inurba_marseille","lat":43.292311,"lon":5.360731,"is_reserved":false,"is_disabled":false,"rental_uris":{"android":"levelo://app?vid=46f80415-8b26-4cc9-94ca-3376583f72cc","ios":"levelo://app?vid=46f80415-8b26-4cc9-94ca-3376583f72cc"},"vehicle_type_id":"4","last_reported":1713805581,"current_range_meters":0,"station_id":"ce4bhbh2rcd13ifvqeqg","pricing_plan_id":"cebpf4jnsgd1na2vs0mg"},{"bike_id":"0545cb67-7bdc-487e-963c-2ea1226b5379","system_id":"levelo_inurba_marseille","lat":43.292311,"lon":5.360731,"is_reserved":false,"is_disabled":false,"rental_uris":{"android":"levelo://app?vid=0545cb67-7bdc-487e-963c-2ea1226b5379","ios":"levelo://app?vid=0545cb67-7bdc-487e-963c-2ea1226b5379"},"vehicle_type_id":"4","last_reported":1713805581,"current_range_meters":10800,"station_id":"ce4bhbh2rcd13ifvqeqg","pricing_plan_id":"cebpf4jnsgd1na2vs0mg"},{"bike_id":"b4966cb8-bdc3-47cb-b7aa-9c5cfb84e004","system_id":"levelo_inurba_marseille","lat":43.30085,"lon":5.390856,"is_reserved":false,"is_disabled":false,"rental_uris":{"android":"levelo://app?vid=b4966cb8-bdc3-47cb-b7aa-9c5cfb84e004","ios":"levelo://app?vid=b4966cb8-bdc3-47cb-b7aa-9c5cfb84e004"},"vehicle_type_id":"4","last_reported":1713805581,"current_range_meters":19600,"station_id":"ce4bh192rcd13ifvqdb0","pricing_plan_id":"cebpf4jnsgd1na2vs0mg"},{"bike_id":"ac5a3b7d-dc0e-4b0c-a57e-0a53ae73b746","system_id":"levelo_inurba_marseille","lat":43.298764,"lon":5.388973,"is_reserved":false,"is_disabled":false,"rental_uris":{"android":"levelo://app?vid=ac5a3b7d-dc0e-4b0c-a57e-0a53ae73b746","ios":"levelo://app?vid=ac5a3b7d-dc0e-4b0c-a57e-0a53ae73b746"},"vehicle_type_id":"4","last_reported":1713805581,"current_range_meters":15600,"station_id":"ce4bh392rcd13ifvqdl0","pricing_plan_id":"cebpf4jnsgd1na2vs0mg"},{"bike_id":"f563b70c-4252-4ce5-b0f2-340d01af7e4c","system_id":"levelo_inurba_marseille","lat":43.298764,"lon":5.388973,"is_reserved":false,"is_disabled":false,"rental_uris":{"android":"levelo://app?vid=f563b70c-4252-4ce5-b0f2-340d01af7e4c","ios":"levelo://app?vid=f563b70c-4252-4ce5-b0f2-340d01af7e4c"},"vehicle_type_id":"4","last_reported":1713805581,"current_range_meters":6800,"station_id":"ce4bh392rcd13ifvqdl0","pricing_plan_id":"cebpf4jnsgd1na2vs0mg"},{"bike_id":"4327adbe-23ca-43d4-8c72-16173c38a67a","system_id":"levelo_inurba_marseille","lat":43.291675,"lon":5.371583,"is_reserved":false,"is_disabled":false,"rental_uris":{"android":"levelo://app?vid=4327adbe-23ca-43d4-8c72-16173c38a67a","ios":"levelo://app?vid=4327adbe-23ca-43d4-8c72-16173c38a67a"},"vehicle_type_id":"4","last_reported":1713805581,"current_range_meters":19600,"station_id":"ce4bha92rcd13ifvqeh0","pricing_plan_id":"cebpf4jnsgd1na2vs0mg"},{"bike_id":"53b0e129-cf05-4059-b3b7-47df5a5e1cba","system_id":"levelo_inurba_marseille","lat":43.298764,"lon":5.388973,"is_reserved":false,"is_disabled":false,"rental_uris":{"android":"levelo://app?vid=53b0e129-cf05-4059-b3b7-47df5a5e1cba","ios":"levelo://app?vid=53b0e129-cf05-4059-b3b7-47df5a5e1cba"},"vehicle_type_id":"4","last_reported":1713805581,"current_range_meters":400,"station_id":"ce4bh392rcd13ifvqdl0","pricing_plan_id":"cebpf4jnsgd1na2vs0mg"},{"bike_id":"eda12945-f4f0-4453-9f72-fc5f48b025bb","system_id":"levelo_inurba_marseille","lat":43.298764,"lon":5.388973,"is_reserved":false,"is_disabled":false,"rental_uris":{"android":"levelo://app?vid=eda12945-f4f0-4453-9f72-fc5f48b025bb","ios":"levelo://app?vid=eda12945-f4f0-4453-9f72-fc5f48b025bb"},"vehicle_type_id":"4","last_reported":1713805581,"current_range_meters":24800,"station_id":"ce4bh392rcd13ifvqdl0","pricing_plan_id":"cebpf4jnsgd1na2vs0mg"},{"bike_id":"9d2e3e02-189b-4e75-a2e8-46c08345821e","system_id":"levelo_inurba_marseille","lat":43.298764,"lon":5.388973,"is_reserved":false,"is_disabled":false,"rental_uris":{"android":"levelo://app?vid=9d2e3e02-189b-4e75-a2e8-46c08345821e","ios":"levelo://app?vid=9d2e3e02-189b-4e75-a2e8-46c08345821e"},"vehicle_type_id":"4","last_reported":1713805581,"current_range_meters":7600,"station_id":"ce4bh392rcd13ifvqdl0","pricing_plan_id":"cebpf4jnsgd1na2vs0mg"},{"bike_id":"8ca1668b-87c0-4300-8b62-8346ae23e915","system_id":"levelo_inurba_marseille","lat":43.292005,"lon":5.357875,"is_reserved":false,"is_disabled":false,"rental_uris":{"android":"levelo://app?vid=8ca1668b-87c0-4300-8b62-8346ae23e915","ios":"levelo://app?vid=8ca1668b-87c0-4300-8b62-8346ae23e915"},"vehicle_type_id":"4","last_reported":1713805581,"current_range_meters":7200,"station_id":"ce4bhb12rcd13ifvqel0","pricing_plan_id":"cebpf4jnsgd1na2vs0mg"},{"bike_id":"fe437976-0f30-40d1-8362-d1ee0607617a","system_id":"levelo_inurba_marseille","lat":43.313291,"lon":5.396838,"is_reserved":false,"is_disabled":false,"rental_uris":{"android":"levelo://app?vid=fe437976-0f30-40d1-8362-d1ee0607617a","ios":"levelo://app?vid=fe437976-0f30-40d1-8362-d1ee0607617a"},"vehicle_type_id":"4","last_reported":1713805581,"current_range_meters":18000,"station_id":"ce4bgvp2rcd13ifvqcu0","pricing_plan_id":"cebpf4jnsgd1na2vs0mg"},{"bike_id":"5a539623-4b7f-41d5-a9a2-a21121fad408","system_id":"levelo_inurba_marseille","lat":43.313291,"lon":5.396838,"is_reserved":false,"is_disabled":false,"rental_uris":{"android":"levelo://app?vid=5a539623-4b7f-41d5-a9a2-a21121fad408","ios":"levelo://app?vid=5a539623-4b7f-41d5-a9a2-a21121fad408"},"vehicle_type_id":"4","last_reported":1713805581,"current_range_meters":18400,"station_id":"ce4bgvp2rcd13ifvqcu0","pricing_plan_id":"cebpf4jnsgd1na2vs0mg"},{"bike_id":"11878e0d-6f1c-4a69-8eed-777a9bf9e561","system_id":"levelo_inurba_marseille","lat":43.313291,"lon":5.396838,"is_reserved":false,"is_disabled":false,"rental_uris":{"android":"levelo://app?vid=11878e0d-6f1c-4a69-8eed-777a9bf9e561","ios":"levelo://app?vid=11878e0d-6f1c-4a69-8eed-777a9bf9e561"},"vehicle_type_id":"4","last_reported":1713805581,"current_range_meters":0,"station_id":"ce4bgvp2rcd13ifvqcu0","pricing_plan_id":"cebpf4jnsgd1na2vs0mg"},{"bike_id":"a6212ecb-9aa3-46cb-81cc-898f2f91331a","system_id":"levelo_inurba_marseille","lat":43.309038,"lon":5.396546,"is_reserved":false,"is_disabled":false,"rental_uris":{"android":"levelo://app?vid=a6212ecb-9aa3-46cb-81cc-898f2f91331a","ios":"levelo://app?vid=a6212ecb-9aa3-46cb-81cc-898f2f91331a"},"vehicle_type_id":"4","last_reported":1713805581,"current_range_meters":2000,"station_id":"ce4bh012rcd13ifvqcv0","pricing_plan_id":"cebpf4jnsgd1na2vs0mg"},{"bike_id":"543a512c-c67f-45eb-ab93-2358117ca2fd","system_id":"levelo_inurba_marseille","lat":43.313291,"lon":5.396838,"is_reserved":false,"is_disabled":false,"rental_uris":{"android":"levelo://app?vid=543a512c-c67f-45eb-ab93-2358117ca2fd","ios":"levelo://app?vid=543a512c-c67f-45eb-ab93-2358117ca2fd"},"vehicle_type_id":"4","last_reported":1713805581,"current_range_meters":14400,"station_id":"ce4bgvp2rcd13ifvqcu0","pricing_plan_id":"cebpf4jnsgd1na2vs0mg"},{"bike_id":"3164f708-d683-478a-a841-4be13c9b015e","system_id":"levelo_inurba_marseille","lat":43.313291,"lon":5.396838,"is_reserved":false,"is_disabled":false,"rental_uris":{"android":"levelo://app?vid=3164f708-d683-478a-a841-4be13c9b015e","ios":"levelo://app?vid=3164f708-d683-478a-a841-4be13c9b015e"},"vehicle_type_id":"4","last_reported":1713805581,"current_range_meters":23200,"station_id":"ce4bgvp2rcd13ifvqcu0","pricing_plan_id":"cebpf4jnsgd1na2vs0mg"},{"bike_id":"c6c44270-f44e-4011-9e36-5b56fd688381","system_id":"levelo_inurba_marseille","lat":43.313291,"lon":5.396838,"is_reserved":false,"is_disabled":false,"rental_uris":{"android":"levelo://app?vid=c6c44270-f44e-4011-9e36-5b56fd688381","ios":"levelo://app?vid=c6c44270-f44e-4011-9e36-5b56fd688381"},"vehicle_type_id":"4","last_reported":1713805581,"current_range_meters":6000,"station_id":"ce4bgvp2rcd13ifvqcu0","pricing_plan_id":"cebpf4jnsgd1na2vs0mg"},{"bike_id":"430bdb4d-6b65-4f2e-92e4-512ef52ef177","system_id":"levelo_inurba_marseille","lat":43.313291,"lon":5.396838,"is_reserved":false,"is_disabled":false,"rental_uris":{"android":"levelo://app?vid=430bdb4d-6b65-4f2e-92e4-512ef52ef177","ios":"levelo://app?vid=430bdb4d-6b65-4f2e-92e4-512ef52ef177"},"vehicle_type_id":"4","last_reported":1713805581,"current_range_meters":22800,"station_id":"ce4bgvp2rcd13ifvqcu0","pricing_plan_id":"cebpf4jnsgd1na2vs0mg"},{"bike_id":"acf70660-b535-4129-bd9c-f476b7a642f2","system_id":"levelo_inurba_marseille","lat":43.313291,"lon":5.396838,"is_reserved":false,"is_disabled":false,"rental_uris":{"android":"levelo://app?vid=acf70660-b535-4129-bd9c-f476b7a642f2","ios":"levelo://app?vid=acf70660-b535-4129-bd9c-f476b7a642f2"},"vehicle_type_id":"4","last_reported":1713805581,"current_range_meters":11600,"station_id":"ce4bgvp2rcd13ifvqcu0","pricing_plan_id":"cebpf4jnsgd1na2vs0mg"},{"bike_id":"fdf103d3-19e6-4467-8acc-7565ab271e21","system_id":"levelo_inurba_marseille","lat":43.30887,"lon":5.39646,"is_reserved":false,"is_disabled":false,"rental_uris":{"android":"levelo://app?vid=fdf103d3-19e6-4467-8acc-7565ab271e21","ios":"levelo://app?vid=fdf103d3-19e6-4467-8acc-7565ab271e21"},"vehicle_type_id":"4","last_reported":1713805581,"current_range_meters":0,"station_id":"ce4bh012rcd13ifvqcv0","pricing_plan_id":"cebpf4jnsgd1na2vs0mg"},{"bike_id":"7cc17d6e-1627-4fa2-a565-622b7e16a0dc","system_id":"levelo_inurba_marseille","lat":43.309038,"lon":5.396546,"is_reserved":false,"is_disabled":false,"rental_uris":{"android":"levelo://app?vid=7cc17d6e-1627-4fa2-a565-622b7e16a0dc","ios":"levelo://app?vid=7cc17d6e-1627-4fa2-a565-622b7e16a0dc"},"vehicle_type_id":"4","last_reported":1713805581,"current_range_meters":20800,"station_id":"ce4bh012rcd13ifvqcv0","pricing_plan_id":"cebpf4jnsgd1na2vs0mg"},{"bike_id":"1a43f498-88dd-4eed-b33d-508a8f02c184","system_id":"levelo_inurba_marseille","lat":43.313291,"lon":5.396838,"is_reserved":false,"is_disabled":false,"rental_uris":{"android":"levelo://app?vid=1a43f498-88dd-4eed-b33d-508a8f02c184","ios":"levelo://app?vid=1a43f498-88dd-4eed-b33d-508a8f02c184"},"vehicle_type_id":"4","last_reported":1713805581,"current_range_meters":25200,"station_id":"ce4bgvp2rcd13ifvqcu0","pricing_plan_id":"cebpf4jnsgd1na2vs0mg"},{"bike_id":"86899d99-6e71-461e-957c-c7835c66ab2b","system_id":"levelo_inurba_marseille","lat":43.308704,"lon":5.396488,"is_reserved":false,"is_disabled":false,"rental_uris":{"android":"levelo://app?vid=86899d99-6e71-461e-957c-c7835c66ab2b","ios":"levelo://app?vid=86899d99-6e71-461e-957c-c7835c66ab2b"},"vehicle_type_id":"4","last_reported":1713805581,"current_range_meters":0,"station_id":"ce4bh012rcd13ifvqcv0","pricing_plan_id":"cebpf4jnsgd1na2vs0mg"},{"bike_id":"4b810822-a993-441b-a3ca-99d3460cbfa4","system_id":"levelo_inurba_marseille","lat":43.313291,"lon":5.396838,"is_reserved":false,"is_disabled":false,"rental_uris":{"android":"levelo://app?vid=4b810822-a993-441b-a3ca-99d3460cbfa4","ios":"levelo://app?vid=4b810822-a993-441b-a3ca-99d3460cbfa4"},"vehicle_type_id":"4","last_reported":1713805581,"current_range_meters":13200,"station_id":"ce4bgvp2rcd13ifvqcu0","pricing_plan_id":"cebpf4jnsgd1na2vs0mg"},{"bike_id":"ad585648-506e-42bb-a50a-0442f782050d","system_id":"levelo_inurba_marseille","lat":43.313291,"lon":5.396838,"is_reserved":false,"is_disabled":false,"rental_uris":{"android":"levelo://app?vid=ad585648-506e-42bb-a50a-0442f782050d","ios":"levelo://app?vid=ad585648-506e-42bb-a50a-0442f782050d"},"vehicle_type_id":"4","last_reported":1713805581,"current_range_meters":6400,"station_id":"ce4bgvp2rcd13ifvqcu0","pricing_plan_id":"cebpf4jnsgd1na2vs0mg"},{"bike_id":"e365c08e-9925-4194-96d2-f64d5156d5ad","system_id":"levelo_inurba_marseille","lat":43.309038,"lon":5.396546,"is_reserved":false,"is_disabled":false,"rental_uris":{"android":"levelo://app?vid=e365c08e-9925-4194-96d2-f64d5156d5ad","ios":"levelo://app?vid=e365c08e-9925-4194-96d2-f64d5156d5ad"},"vehicle_type_id":"4","last_reported":1713805581,"current_range_meters":10000,"station_id":"ce4bh012rcd13ifvqcv0","pricing_plan_id":"cebpf4jnsgd1na2vs0mg"},{"bike_id":"cba84523-138e-4d2e-8585-b186507a7290","system_id":"levelo_inurba_marseille","lat":43.29529,"lon":5.385581,"is_reserved":false,"is_disabled":false,"rental_uris":{"android":"levelo://app?vid=cba84523-138e-4d2e-8585-b186507a7290","ios":"levelo://app?vid=cba84523-138e-4d2e-8585-b186507a7290"},"vehicle_type_id":"4","last_reported":1713805581,"current_range_meters":19600,"station_id":"ce4bgih2rcd13ifvqba0","pricing_plan_id":"cebpf4jnsgd1na2vs0mg"},{"bike_id":"f5dd38a1-2246-4325-94ae-a49d31dab850","system_id":"levelo_inurba_marseille","lat":43.309038,"lon":5.396546,"is_reserved":false,"is_disabled":false,"rental_uris":{"android":"levelo://app?vid=f5dd38a1-2246-4325-94ae-a49d31dab850","ios":"levelo://app?vid=f5dd38a1-2246-4325-94ae-a49d31dab850"},"vehicle_type_id":"4","last_reported":1713805581,"current_range_meters":11600,"station_id":"ce4bh012rcd13ifvqcv0","pricing_plan_id":"cebpf4jnsgd1na2vs0mg"},{"bike_id":"06cdaaf5-2aa5-46f8-8e74-6547ef19878a","system_id":"levelo_inurba_marseille","lat":43.290779,"lon":5.371482,"is_reserved":false,"is_disabled":false,"rental_uris":{"android":"levelo://app?vid=06cdaaf5-2aa5-46f8-8e74-6547ef19878a","ios":"levelo://app?vid=06cdaaf5-2aa5-46f8-8e74-6547ef19878a"},"vehicle_type_id":"4","last_reported":1713805581,"current_range_meters":8000,"station_id":"ce4bh5p2rcd13ifvqe4g","pricing_plan_id":"cebpf4jnsgd1na2vs0mg"},{"bike_id":"677d0519-6ba7-4970-afae-9ee2590bbb38","system_id":"levelo_inurba_marseille","lat":43.290779,"lon":5.371482,"is_reserved":false,"is_disabled":false,"rental_uris":{"android":"levelo://app?vid=677d0519-6ba7-4970-afae-9ee2590bbb38","ios":"levelo://app?vid=677d0519-6ba7-4970-afae-9ee2590bbb38"},"vehicle_type_id":"4","last_reported":1713805581,"current_range_meters":17200,"station_id":"ce4bh5p2rcd13ifvqe4g","pricing_plan_id":"cebpf4jnsgd1na2vs0mg"},{"bike_id":"cf0d5b41-b957-4e9b-a08b-dcd63d03af35","system_id":"levelo_inurba_marseille","lat":43.302008,"lon":5.394694,"is_reserved":false,"is_disabled":false,"rental_uris":{"android":"levelo://app?vid=cf0d5b41-b957-4e9b-a08b-dcd63d03af35","ios":"levelo://app?vid=cf0d5b41-b957-4e9b-a08b-dcd63d03af35"},"vehicle_type_id":"4","last_reported":1713805581,"current_range_meters":16400,"station_id":"ce4bh0p2rcd13ifvqd70","pricing_plan_id":"cebpf4jnsgd1na2vs0mg"},{"bike_id":"caf26e94-38a4-4fd2-86d8-38bdca43f826","system_id":"levelo_inurba_marseille","lat":43.290624,"lon":5.359245,"is_reserved":false,"is_disabled":false,"rental_uris":{"android":"levelo://app?vid=caf26e94-38a4-4fd2-86d8-38bdca43f826","ios":"levelo://app?vid=caf26e94-38a4-4fd2-86d8-38bdca43f826"},"vehicle_type_id":"4","last_reported":1713805581,"current_range_meters":20000,"station_id":"ce4bha92rcd13ifvqeg0","pricing_plan_id":"cebpf4jnsgd1na2vs0mg"},{"bike_id":"5e652336-211e-41c1-aff7-2dd9648ac264","system_id":"levelo_inurba_marseille","lat":43.302008,"lon":5.394694,"is_reserved":false,"is_disabled":false,"rental_uris":{"android":"levelo://app?vid=5e652336-211e-41c1-aff7-2dd9648ac264","ios":"levelo://app?vid=5e652336-211e-41c1-aff7-2dd9648ac264"},"vehicle_type_id":"4","last_reported":1713805581,"current_range_meters":22400,"station_id":"ce4bh0p2rcd13ifvqd70","pricing_plan_id":"cebpf4jnsgd1na2vs0mg"},{"bike_id":"a7805b83-e4a1-4bf6-aeab-24e7ec27e5e4","system_id":"levelo_inurba_marseille","lat":43.290624,"lon":5.359245,"is_reserved":false,"is_disabled":false,"rental_uris":{"android":"levelo://app?vid=a7805b83-e4a1-4bf6-aeab-24e7ec27e5e4","ios":"levelo://app?vid=a7805b83-e4a1-4bf6-aeab-24e7ec27e5e4"},"vehicle_type_id":"4","last_reported":1713805581,"current_range_meters":9200,"station_id":"ce4bha92rcd13ifvqeg0","pricing_plan_id":"cebpf4jnsgd1na2vs0mg"},{"bike_id":"2b5f47b5-ab21-488d-ae9d-e00eda6f1795","system_id":"levelo_inurba_marseille","lat":43.302008,"lon":5.394694,"is_reserved":false,"is_disabled":false,"rental_uris":{"android":"levelo://app?vid=2b5f47b5-ab21-488d-ae9d-e00eda6f1795","ios":"levelo://app?vid=2b5f47b5-ab21-488d-ae9d-e00eda6f1795"},"vehicle_type_id":"4","last_reported":1713805581,"current_range_meters":11600,"station_id":"ce4bh0p2rcd13ifvqd70","pricing_plan_id":"cebpf4jnsgd1na2vs0mg"},{"bike_id":"dfd18bc3-b66d-47e8-92cf-54a2b691c728","system_id":"levelo_inurba_marseille","lat":43.290631,"lon":5.359244,"is_reserved":false,"is_disabled":false,"rental_uris":{"android":"levelo://app?vid=dfd18bc3-b66d-47e8-92cf-54a2b691c728","ios":"levelo://app?vid=dfd18bc3-b66d-47e8-92cf-54a2b691c728"},"vehicle_type_id":"4","last_reported":1713805581,"current_range_meters":18000,"station_id":"ce4bha92rcd13ifvqeg0","pricing_plan_id":"cebpf4jnsgd1na2vs0mg"},{"bike_id":"172c8be9-55de-4ef7-909b-fccabf955134","system_id":"levelo_inurba_marseille","lat":43.294153,"lon":5.386305,"is_reserved":false,"is_disabled":false,"rental_uris":{"android":"levelo://app?vid=172c8be9-55de-4ef7-909b-fccabf955134","ios":"levelo://app?vid=172c8be9-55de-4ef7-909b-fccabf955134"},"vehicle_type_id":"4","last_reported":1713805581,"current_range_meters":4000,"station_id":"ce4bh2h2rcd13ifvqdh0","pricing_plan_id":"cebpf4jnsgd1na2vs0mg"},{"bike_id":"db10a741-29f8-46a4-9845-c3b9ab14a261","system_id":"levelo_inurba_marseille","lat":43.294153,"lon":5.386305,"is_reserved":false,"is_disabled":false,"rental_uris":{"android":"levelo://app?vid=db10a741-29f8-46a4-9845-c3b9ab14a261","ios":"levelo://app?vid=db10a741-29f8-46a4-9845-c3b9ab14a261"},"vehicle_type_id":"4","last_reported":1713805581,"current_range_meters":14400,"station_id":"ce4bh2h2rcd13ifvqdh0","pricing_plan_id":"cebpf4jnsgd1na2vs0mg"},{"bike_id":"02e7f275-5b1a-44c8-8163-569c0d75421f","system_id":"levelo_inurba_marseille","lat":43.294197,"lon":5.386174,"is_reserved":false,"is_disabled":false,"rental_uris":{"android":"levelo://app?vid=02e7f275-5b1a-44c8-8163-569c0d75421f","ios":"levelo://app?vid=02e7f275-5b1a-44c8-8163-569c0d75421f"},"vehicle_type_id":"4","last_reported":1713805581,"current_range_meters":400,"station_id":"ce4bh2h2rcd13ifvqdh0","pricing_plan_id":"cebpf4jnsgd1na2vs0mg"},{"bike_id":"9188f438-0584-48ba-992e-59df023dc90c","system_id":"levelo_inurba_marseille","lat":43.2942,"lon":5.38622,"is_reserved":false,"is_disabled":false,"rental_uris":{"android":"levelo://app?vid=9188f438-0584-48ba-992e-59df023dc90c","ios":"levelo://app?vid=9188f438-0584-48ba-992e-59df023dc90c"},"vehicle_type_id":"4","last_reported":1713805581,"current_range_meters":23200,"station_id":"ce4bh2h2rcd13ifvqdh0","pricing_plan_id":"cebpf4jnsgd1na2vs0mg"},{"bike_id":"25e2f31f-5d68-474e-bae0-d1bc5e78c144","system_id":"levelo_inurba_marseille","lat":43.294153,"lon":5.386305,"is_reserved":false,"is_disabled":false,"rental_uris":{"android":"levelo://app?vid=25e2f31f-5d68-474e-bae0-d1bc5e78c144","ios":"levelo://app?vid=25e2f31f-5d68-474e-bae0-d1bc5e78c144"},"vehicle_type_id":"4","last_reported":1713805581,"current_range_meters":24400,"station_id":"ce4bh2h2rcd13ifvqdh0","pricing_plan_id":"cebpf4jnsgd1na2vs0mg"},{"bike_id":"9014e347-917f-4223-9247-a91ee75b0290","system_id":"levelo_inurba_marseille","lat":43.2942,"lon":5.38623,"is_reserved":false,"is_disabled":false,"rental_uris":{"android":"levelo://app?vid=9014e347-917f-4223-9247-a91ee75b0290","ios":"levelo://app?vid=9014e347-917f-4223-9247-a91ee75b0290"},"vehicle_type_id":"4","last_reported":1713805581,"current_range_meters":10400,"station_id":"ce4bh2h2rcd13ifvqdh0","pricing_plan_id":"cebpf4jnsgd1na2vs0mg"},{"bike_id":"613b788f-97a0-42b8-969b-39a9b589b47d","system_id":"levelo_inurba_marseille","lat":43.294153,"lon":5.386305,"is_reserved":false,"is_disabled":false,"rental_uris":{"android":"levelo://app?vid=613b788f-97a0-42b8-969b-39a9b589b47d","ios":"levelo://app?vid=613b788f-97a0-42b8-969b-39a9b589b47d"},"vehicle_type_id":"4","last_reported":1713805581,"current_range_meters":12000,"station_id":"ce4bh2h2rcd13ifvqdh0","pricing_plan_id":"cebpf4jnsgd1na2vs0mg"},{"bike_id":"4c078f82-ff78-4c11-86c1-fed91d4a4006","system_id":"levelo_inurba_marseille","lat":43.294153,"lon":5.386305,"is_reserved":false,"is_disabled":false,"rental_uris":{"android":"levelo://app?vid=4c078f82-ff78-4c11-86c1-fed91d4a4006","ios":"levelo://app?vid=4c078f82-ff78-4c11-86c1-fed91d4a4006"},"vehicle_type_id":"4","last_reported":1713805581,"current_range_meters":13600,"station_id":"ce4bh2h2rcd13ifvqdh0","pricing_plan_id":"cebpf4jnsgd1na2vs0mg"},{"bike_id":"560a6661-3a88-46f8-9e20-d0841849c557","system_id":"levelo_inurba_marseille","lat":43.29419,"lon":5.38625,"is_reserved":false,"is_disabled":false,"rental_uris":{"android":"levelo://app?vid=560a6661-3a88-46f8-9e20-d0841849c557","ios":"levelo://app?vid=560a6661-3a88-46f8-9e20-d0841849c557"},"vehicle_type_id":"4","last_reported":1713805581,"current_range_meters":22000,"station_id":"ce4bh2h2rcd13ifvqdh0","pricing_plan_id":"cebpf4jnsgd1na2vs0mg"},{"bike_id":"7a0896ea-c7e1-4f0d-b6dd-8c38715a8918","system_id":"levelo_inurba_marseille","lat":43.299724,"lon":5.384848,"is_reserved":false,"is_disabled":false,"rental_uris":{"android":"levelo://app?vid=7a0896ea-c7e1-4f0d-b6dd-8c38715a8918","ios":"levelo://app?vid=7a0896ea-c7e1-4f0d-b6dd-8c38715a8918"},"vehicle_type_id":"4","last_reported":1713805581,"current_range_meters":800,"station_id":"ce4bgj92rcd13ifvqbd0","pricing_plan_id":"cebpf4jnsgd1na2vs0mg"},{"bike_id":"7554ebf7-481c-47d6-b3f7-427251fcd44e","system_id":"levelo_inurba_marseille","lat":43.289184,"lon":5.366408,"is_reserved":false,"is_disabled":false,"rental_uris":{"android":"levelo://app?vid=7554ebf7-481c-47d6-b3f7-427251fcd44e","ios":"levelo://app?vid=7554ebf7-481c-47d6-b3f7-427251fcd44e"},"vehicle_type_id":"4","last_reported":1713805581,"current_range_meters":11600,"station_id":"ce4bhap2rcd13ifvqek0","pricing_plan_id":"cebpf4jnsgd1na2vs0mg"},{"bike_id":"486f131f-5263-4427-b77b-db680bb923fe","system_id":"levelo_inurba_marseille","lat":43.29416,"lon":5.38627,"is_reserved":false,"is_disabled":false,"rental_uris":{"android":"levelo://app?vid=486f131f-5263-4427-b77b-db680bb923fe","ios":"levelo://app?vid=486f131f-5263-4427-b77b-db680bb923fe"},"vehicle_type_id":"4","last_reported":1713805581,"current_range_meters":11600,"station_id":"ce4bh2h2rcd13ifvqdh0","pricing_plan_id":"cebpf4jnsgd1na2vs0mg"},{"bike_id":"aff2b6ea-260a-4a85-b6df-8c158a37536c","system_id":"levelo_inurba_marseille","lat":43.294153,"lon":5.386305,"is_reserved":false,"is_disabled":false,"rental_uris":{"android":"levelo://app?vid=aff2b6ea-260a-4a85-b6df-8c158a37536c","ios":"levelo://app?vid=aff2b6ea-260a-4a85-b6df-8c158a37536c"},"vehicle_type_id":"4","last_reported":1713805581,"current_range_meters":31200,"station_id":"ce4bh2h2rcd13ifvqdh0","pricing_plan_id":"cebpf4jnsgd1na2vs0mg"},{"bike_id":"11b85e08-50e1-4581-9a14-04b622cfc15d","system_id":"levelo_inurba_marseille","lat":43.294153,"lon":5.386305,"is_reserved":false,"is_disabled":false,"rental_uris":{"android":"levelo://app?vid=11b85e08-50e1-4581-9a14-04b622cfc15d","ios":"levelo://app?vid=11b85e08-50e1-4581-9a14-04b622cfc15d"},"vehicle_type_id":"4","last_reported":1713805581,"current_range_meters":30400,"station_id":"ce4bh2h2rcd13ifvqdh0","pricing_plan_id":"cebpf4jnsgd1na2vs0mg"},{"bike_id":"bc65e2c5-0148-4442-8b28-6066be1c2228","system_id":"levelo_inurba_marseille","lat":43.289468,"lon":5.363719,"is_reserved":false,"is_disabled":false,"rental_uris":{"android":"levelo://app?vid=bc65e2c5-0148-4442-8b28-6066be1c2228","ios":"levelo://app?vid=bc65e2c5-0148-4442-8b28-6066be1c2228"},"vehicle_type_id":"4","last_reported":1713805581,"current_range_meters":4400,"station_id":"ce4bhc92rcd13ifvqetg","pricing_plan_id":"cebpf4jnsgd1na2vs0mg"},{"bike_id":"39b40978-be65-4c90-b2a4-9eb6d93f96ea","system_id":"levelo_inurba_marseille","lat":43.292644,"lon":5.384257,"is_reserved":false,"is_disabled":false,"rental_uris":{"android":"levelo://app?vid=39b40978-be65-4c90-b2a4-9eb6d93f96ea","ios":"levelo://app?vid=39b40978-be65-4c90-b2a4-9eb6d93f96ea"},"vehicle_type_id":"4","last_reported":1713805581,"current_range_meters":23200,"station_id":"ce4bh692rcd13ifvqea0","pricing_plan_id":"cebpf4jnsgd1na2vs0mg"},{"bike_id":"1189171d-ad95-475c-9c22-1d9b3399336f","system_id":"levelo_inurba_marseille","lat":43.29026,"lon":5.37567,"is_reserved":false,"is_disabled":false,"rental_uris":{"android":"levelo://app?vid=1189171d-ad95-475c-9c22-1d9b3399336f","ios":"levelo://app?vid=1189171d-ad95-475c-9c22-1d9b3399336f"},"vehicle_type_id":"4","last_reported":1713805581,"current_range_meters":5600,"station_id":"ce4bh692rcd13ifvqe90","pricing_plan_id":"cebpf4jnsgd1na2vs0mg"},{"bike_id":"23a9b7ce-cef8-4a2b-bd0c-ae9b4cda0861","system_id":"levelo_inurba_marseille","lat":43.289184,"lon":5.366408,"is_reserved":false,"is_disabled":false,"rental_uris":{"android":"levelo://app?vid=23a9b7ce-cef8-4a2b-bd0c-ae9b4cda0861","ios":"levelo://app?vid=23a9b7ce-cef8-4a2b-bd0c-ae9b4cda0861"},"vehicle_type_id":"4","last_reported":1713805581,"current_range_meters":12000,"station_id":"ce4bhap2rcd13ifvqek0","pricing_plan_id":"cebpf4jnsgd1na2vs0mg"},{"bike_id":"d9707df7-42e7-470e-9029-914bffc1d23c","system_id":"levelo_inurba_marseille","lat":43.289184,"lon":5.366408,"is_reserved":false,"is_disabled":false,"rental_uris":{"android":"levelo://app?vid=d9707df7-42e7-470e-9029-914bffc1d23c","ios":"levelo://app?vid=d9707df7-42e7-470e-9029-914bffc1d23c"},"vehicle_type_id":"4","last_reported":1713805581,"current_range_meters":19200,"station_id":"ce4bhap2rcd13ifvqek0","pricing_plan_id":"cebpf4jnsgd1na2vs0mg"},{"bike_id":"26dfc8ef-adc7-4a23-aa8a-4b8a12372f12","system_id":"levelo_inurba_marseille","lat":43.289184,"lon":5.366408,"is_reserved":false,"is_disabled":false,"rental_uris":{"android":"levelo://app?vid=26dfc8ef-adc7-4a23-aa8a-4b8a12372f12","ios":"levelo://app?vid=26dfc8ef-adc7-4a23-aa8a-4b8a12372f12"},"vehicle_type_id":"4","last_reported":1713805581,"current_range_meters":11600,"station_id":"ce4bhap2rcd13ifvqek0","pricing_plan_id":"cebpf4jnsgd1na2vs0mg"},{"bike_id":"0d282c8d-8ce9-43aa-a7cb-6c21dba216f7","system_id":"levelo_inurba_marseille","lat":43.289468,"lon":5.363719,"is_reserved":false,"is_disabled":false,"rental_uris":{"android":"levelo://app?vid=0d282c8d-8ce9-43aa-a7cb-6c21dba216f7","ios":"levelo://app?vid=0d282c8d-8ce9-43aa-a7cb-6c21dba216f7"},"vehicle_type_id":"4","last_reported":1713805581,"current_range_meters":8400,"station_id":"ce4bhc92rcd13ifvqetg","pricing_plan_id":"cebpf4jnsgd1na2vs0mg"},{"bike_id":"8381606d-1fc6-479a-b8ad-e372892281ca","system_id":"levelo_inurba_marseille","lat":43.290104,"lon":5.356111,"is_reserved":false,"is_disabled":false,"rental_uris":{"android":"levelo://app?vid=8381606d-1fc6-479a-b8ad-e372892281ca","ios":"levelo://app?vid=8381606d-1fc6-479a-b8ad-e372892281ca"},"vehicle_type_id":"4","last_reported":1713805581,"current_range_meters":9200,"station_id":"ce4bhb92rcd13ifvqen0","pricing_plan_id":"cebpf4jnsgd1na2vs0mg"},{"bike_id":"0d90c3a9-5fa5-46c1-951a-60d244ae672c","system_id":"levelo_inurba_marseille","lat":43.292644,"lon":5.384257,"is_reserved":false,"is_disabled":false,"rental_uris":{"android":"levelo://app?vid=0d90c3a9-5fa5-46c1-951a-60d244ae672c","ios":"levelo://app?vid=0d90c3a9-5fa5-46c1-951a-60d244ae672c"},"vehicle_type_id":"4","last_reported":1713805581,"current_range_meters":14000,"station_id":"ce4bh692rcd13ifvqea0","pricing_plan_id":"cebpf4jnsgd1na2vs0mg"},{"bike_id":"d9598d6c-4cdf-49e9-baa4-64c21088003d","system_id":"levelo_inurba_marseille","lat":43.292644,"lon":5.384257,"is_reserved":false,"is_disabled":false,"rental_uris":{"android":"levelo://app?vid=d9598d6c-4cdf-49e9-baa4-64c21088003d","ios":"levelo://app?vid=d9598d6c-4cdf-49e9-baa4-64c21088003d"},"vehicle_type_id":"4","last_reported":1713805581,"current_range_meters":17200,"station_id":"ce4bh692rcd13ifvqea0","pricing_plan_id":"cebpf4jnsgd1na2vs0mg"},{"bike_id":"6081273d-d45d-4375-b737-6af402da3e68","system_id":"levelo_inurba_marseille","lat":43.29274,"lon":5.38432,"is_reserved":false,"is_disabled":false,"rental_uris":{"android":"levelo://app?vid=6081273d-d45d-4375-b737-6af402da3e68","ios":"levelo://app?vid=6081273d-d45d-4375-b737-6af402da3e68"},"vehicle_type_id":"4","last_reported":1713805581,"current_range_meters":10400,"station_id":"ce4bh692rcd13ifvqea0","pricing_plan_id":"cebpf4jnsgd1na2vs0mg"},{"bike_id":"256e031c-e6b6-4f8c-bf48-4c924838798b","system_id":"levelo_inurba_marseille","lat":43.304296,"lon":5.397513,"is_reserved":false,"is_disabled":false,"rental_uris":{"android":"levelo://app?vid=256e031c-e6b6-4f8c-bf48-4c924838798b","ios":"levelo://app?vid=256e031c-e6b6-4f8c-bf48-4c924838798b"},"vehicle_type_id":"4","last_reported":1713805581,"current_range_meters":10800,"station_id":"ce4bh092rcd13ifvqd20","pricing_plan_id":"cebpf4jnsgd1na2vs0mg"},{"bike_id":"93cba320-928e-4879-8e43-19248120ca65","system_id":"levelo_inurba_marseille","lat":43.292644,"lon":5.384257,"is_reserved":false,"is_disabled":false,"rental_uris":{"android":"levelo://app?vid=93cba320-928e-4879-8e43-19248120ca65","ios":"levelo://app?vid=93cba320-928e-4879-8e43-19248120ca65"},"vehicle_type_id":"4","last_reported":1713805581,"current_range_meters":12800,"station_id":"ce4bh692rcd13ifvqea0","pricing_plan_id":"cebpf4jnsgd1na2vs0mg"},{"bike_id":"872008a2-7b2e-4aec-9421-e4ffbd30f4c5","system_id":"levelo_inurba_marseille","lat":43.29262,"lon":5.38439,"is_reserved":false,"is_disabled":false,"rental_uris":{"android":"levelo://app?vid=872008a2-7b2e-4aec-9421-e4ffbd30f4c5","ios":"levelo://app?vid=872008a2-7b2e-4aec-9421-e4ffbd30f4c5"},"vehicle_type_id":"4","last_reported":1713805581,"current_range_meters":12400,"station_id":"ce4bh692rcd13ifvqea0","pricing_plan_id":"cebpf4jnsgd1na2vs0mg"},{"bike_id":"139ef8e9-017c-41fb-a982-1e43c0ffe20b","system_id":"levelo_inurba_marseille","lat":43.292642,"lon":5.384254,"is_reserved":false,"is_disabled":false,"rental_uris":{"android":"levelo://app?vid=139ef8e9-017c-41fb-a982-1e43c0ffe20b","ios":"levelo://app?vid=139ef8e9-017c-41fb-a982-1e43c0ffe20b"},"vehicle_type_id":"4","last_reported":1713805581,"current_range_meters":28400,"station_id":"ce4bh692rcd13ifvqea0","pricing_plan_id":"cebpf4jnsgd1na2vs0mg"},{"bike_id":"98e2f586-ac5d-459d-be8d-a585aaa34892","system_id":"levelo_inurba_marseille","lat":43.29261,"lon":5.384475,"is_reserved":false,"is_disabled":false,"rental_uris":{"android":"levelo://app?vid=98e2f586-ac5d-459d-be8d-a585aaa34892","ios":"levelo://app?vid=98e2f586-ac5d-459d-be8d-a585aaa34892"},"vehicle_type_id":"4","last_reported":1713805581,"current_range_meters":5200,"station_id":"ce4bh692rcd13ifvqea0","pricing_plan_id":"cebpf4jnsgd1na2vs0mg"},{"bike_id":"72c63dda-3479-4bf3-8b47-2113fea3dae1","system_id":"levelo_inurba_marseille","lat":43.291994,"lon":5.392907,"is_reserved":false,"is_disabled":false,"rental_uris":{"android":"levelo://app?vid=72c63dda-3479-4bf3-8b47-2113fea3dae1","ios":"levelo://app?vid=72c63dda-3479-4bf3-8b47-2113fea3dae1"},"vehicle_type_id":"4","last_reported":1713805581,"current_range_meters":8000,"station_id":"ce4bh192rcd13ifvqdd0","pricing_plan_id":"cebpf4jnsgd1na2vs0mg"},{"bike_id":"57d98ef7-ee58-4f8b-9701-77c0dc39999d","system_id":"levelo_inurba_marseille","lat":43.292642,"lon":5.384254,"is_reserved":false,"is_disabled":false,"rental_uris":{"android":"levelo://app?vid=57d98ef7-ee58-4f8b-9701-77c0dc39999d","ios":"levelo://app?vid=57d98ef7-ee58-4f8b-9701-77c0dc39999d"},"vehicle_type_id":"4","last_reported":1713805581,"current_range_meters":8800,"station_id":"ce4bh692rcd13ifvqea0","pricing_plan_id":"cebpf4jnsgd1na2vs0mg"},{"bike_id":"94a7ab22-0f4c-48b0-84f2-36da5c04938a","system_id":"levelo_inurba_marseille","lat":43.292642,"lon":5.384254,"is_reserved":false,"is_disabled":false,"rental_uris":{"android":"levelo://app?vid=94a7ab22-0f4c-48b0-84f2-36da5c04938a","ios":"levelo://app?vid=94a7ab22-0f4c-48b0-84f2-36da5c04938a"},"vehicle_type_id":"4","last_reported":1713805581,"current_range_meters":27200,"station_id":"ce4bh692rcd13ifvqea0","pricing_plan_id":"cebpf4jnsgd1na2vs0mg"},{"bike_id":"b35c8679-e07a-4fdc-81da-d4d8d95a4052","system_id":"levelo_inurba_marseille","lat":43.292642,"lon":5.384254,"is_reserved":false,"is_disabled":false,"rental_uris":{"android":"levelo://app?vid=b35c8679-e07a-4fdc-81da-d4d8d95a4052","ios":"levelo://app?vid=b35c8679-e07a-4fdc-81da-d4d8d95a4052"},"vehicle_type_id":"4","last_reported":1713805581,"current_range_meters":27200,"station_id":"ce4bh692rcd13ifvqea0","pricing_plan_id":"cebpf4jnsgd1na2vs0mg"},