{"last_updated":1735906621,"ttl":60,"version":"2.2","data":{"bikes":[{"bike_id":"982cb495-8435-48e0-af06-f84cff67dd28","system_id":"levelo_inurba_marseille","lat":43.24388,"lon":5.37059,"is_reserved":false,"is_disabled":false,"rental_uris":{"android":"levelo://app?vid=982cb495-8435-48e0-af06-f84cff67dd28","ios":"levelo://app?vid=982cb495-8435-48e0-af06-f84cff67dd28"},"vehicle_type_id":"4","last_reported":1735906621,"current_range_meters":14400,"station_id":"ce4bhhh2rcd13ifvqfk0","pricing_plan_id":"cebpf4jnsgd1na2vs0mg"},{"bike_id":"6d385c51-096d-4e1f-b9dc-fad4b4c50116","system_id":"levelo_inurba_marseille","lat":43.34156,"lon":5.40897,"is_reserved":false,"is_disabled":false,"rental_uris":{"android":"levelo://app?vid=6d385c51-096d-4e1f-b9dc-fad4b4c50116","ios":"levelo://app?vid=6d385c51-096d-4e1f-b9dc-fad4b4c50116"},"vehicle_type_id":"4","last_reported":1735906621,"current_range_meters":38800,"station_id":"ce4bhqh2rcd13ifvqhlg","pricing_plan_id":"cebpf4jnsgd1na2vs0mg"},{"bike_id":"172ccd61-d49f-41ee-9d70-c90aa70835fe","system_id":"levelo_inurba_marseille","lat":43.27369,"lon":5.39398,"is_reserved":false,"is_disabled":false,"rental_uris":{"android":"levelo://app?vid=172ccd61-d49f-41ee-9d70-c90aa70835fe","ios":"levelo://app?vid=172ccd61-d49f-41ee-9d70-c90aa70835fe"},"vehicle_type_id":"4","last_reported":1735906621,"current_range_meters":30000,"station_id":"ce4bhdp2rcd13ifvqf20","pricing_plan_id":"cebpf4jnsgd1na2vs0mg"},{"bike_id":"3042dbc1-c819-4040-80d9-b25d524d5dea","system_id":"levelo_inurba_marseille","lat":43.284858,"lon":5.384295,"is_reserved":false,"is_disabled":false,"rental_uris":{"android":"levelo://app?vid=3042dbc1-c819-4040-80d9-b25d524d5dea","ios":"levelo://app?vid=3042dbc1-c819-4040-80d9-b25d524d5dea"},"vehicle_type_id":"4","last_reported":1735906621,"current_range_meters":38000,"station_id":"ce4bh512rcd13ifvqe3g","pricing_plan_id":"cebpf4jnsgd1na2vs0mg"},{"bike_id":"52f8cf6c-b519-4916-a1b7-b2f1b13b9d64","system_id":"levelo_inurba_marseille","lat":43.29627,"lon":5.37432,"is_reserved":false,"is_disabled":false,"rental_uris":{"android":"levelo://app?vid=52f8cf6c-b519-4916-a1b7-b2f1b13b9d64","ios":"levelo://app?vid=52f8cf6c-b519-4916-a1b7-b2f1b13b9d64"},"vehicle_type_id":"4","last_reported":1735906621,"current_range_meters":27600,"station_id":"ce4bgs12rcd13ifvqcag","pricing_plan_id":"cebpf4jnsgd1na2vs0mg"},{"bike_id":"83cf3ed5-c352-4a39-821d-1f7d95dea627","system_id":"levelo_inurba_marseille","lat":43.26565,"lon":5.37293,"is_reserved":false,"is_disabled":false,"rental_uris":{"android":"levelo://app?vid=83cf3ed5-c352-4a39-821d-1f7d95dea627","ios":"levelo://app?vid=83cf3ed5-c352-4a39-821d-1f7d95dea627"},"vehicle_type_id":"4","last_reported":1735906621,"current_range_meters":22800,"station_id":"ce4bhg12rcd13ifvqf70","pricing_plan_id":"cebpf4jnsgd1na2vs0mg"},{"bike_id":"0f453fb7-3f08-4636-922c-a01a14218d99","system_id":"levelo_inurba_marseille","lat":43.2995,"lon":5.41334,"is_reserved":false,"is_disabled":false,"rental_uris":{"android":"levelo://app?vid=0f453fb7-3f08-4636-922c-a01a14218d99","ios":"levelo://app?vid=0f453fb7-3f08-4636-922c-a01a14218d99"},"vehicle_type_id":"4","last_reported":1735906621,"current_range_meters":36800,"station_id":"ce4bhp12rcd13ifvqh9g","pricing_plan_id":"cebpf4jnsgd1na2vs0mg"},{"bike_id":"1113b2b6-0da6-44b4-baac-2646c8bc2994","system_id":"levelo_inurba_marseille","lat":43.30306,"lon":5.36888,"is_reserved":false,"is_disabled":false,"rental_uris":{"android":"levelo://app?vid=1113b2b6-0da6-44b4-baac-2646c8bc2994","ios":"levelo://app?vid=1113b2b6-0da6-44b4-baac-2646c8bc2994"},"vehicle_type_id":"4","last_reported":1735906621,"current_range_meters":29600,"station_id":"ce4bgqh2rcd13ifvqc5g","pricing_plan_id":"cebpf4jnsgd1na2vs0mg"},{"bike_id":"6b5bd162-14d7-4a30-b085-5366f25fdd3a","system_id":"levelo_inurba_marseille","lat":43.29864,"lon":5.39749,"is_reserved":false,"is_disabled":false,"rental_uris":{"android":"levelo://app?vid=6b5bd162-14d7-4a30-b085-5366f25fdd3a","ios":"levelo://app?vid=6b5bd162-14d7-4a30-b085-5366f25fdd3a"},"vehicle_type_id":"4","last_reported":1735906621,"current_range_meters":39200,"station_id":"ce4bh0h2rcd13ifvqd50","pricing_plan_id":"cebpf4jnsgd1na2vs0mg"},{"bike_id":"36d0910b-d540-4d75-b065-f044cb5b6555","system_id":"levelo_inurba_marseille","lat":43.29602,"lon":5.36738,"is_reserved":false,"is_disabled":false,"rental_uris":{"android":"levelo://app?vid=36d0910b-d540-4d75-b065-f044cb5b6555","ios":"levelo://app?vid=36d0910b-d540-4d75-b065-f044cb5b6555"},"vehicle_type_id":"4","last_reported":1735906621,"current_range_meters":39200,"station_id":"ce4bgph2rcd13ifvqc2g","pricing_plan_id":"cebpf4jnsgd1na2vs0mg"},{"bike_id":"0cc226b6-5f36-4e90-9e5b-497bf45d78e0","system_id":"levelo_inurba_marseille","lat":43.27992,"lon":5.40056,"is_reserved":false,"is_disabled":false,"rental_uris":{"android":"levelo://app?vid=0cc226b6-5f36-4e90-9e5b-497bf45d78e0","ios":"levelo://app?vid=0cc226b6-5f36-4e90-9e5b-497bf45d78e0"},"vehicle_type_id":"4","last_reported":1735906621,"current_range_meters":28400,"station_id":"ce4bho92rcd13ifvqh4g","pricing_plan_id":"cebpf4jnsgd1na2vs0mg"},{"bike_id":"c5e1b750-323e-4bc1-8e13-1e7612457a06","system_id":"levelo_inurba_marseille","lat":43.27206,"lon":5.39192,"is_reserved":false,"is_disabled":false,"rental_uris":{"android":"levelo://app?vid=c5e1b750-323e-4bc1-8e13-1e7612457a06","ios":"levelo://app?vid=c5e1b750-323e-4bc1-8e13-1e7612457a06"},"vehicle_type_id":"4","last_reported":1735906621,"current_range_meters":31200,"station_id":"ce4bhhp2rcd13ifvqfm0","pricing_plan_id":"cebpf4jnsgd1na2vs0mg"},{"bike_id":"5b887eae-be24-4203-a80f-9808d4161e07","system_id":"levelo_inurba_marseille","lat":43.29727,"lon":5.37699,"is_reserved":false,"is_disabled":false,"rental_uris":{"android":"levelo://app?vid=5b887eae-be24-4203-a80f-9808d4161e07","ios":"levelo://app?vid=5b887eae-be24-4203-a80f-9808d4161e07"},"vehicle_type_id":"4","last_reported":1735906621,"current_range_meters":38800,"station_id":"ce4bgkh2rcd13ifvqbl0","pricing_plan_id":"cebpf4jnsgd1na2vs0mg"},{"bike_id":"59670ab4-3e62-4524-af80-7d34d16ab6a2","system_id":"levelo_inurba_marseille","lat":43.30438,"lon":5.39753,"is_reserved":false,"is_disabled":false,"rental_uris":{"android":"levelo://app?vid=59670ab4-3e62-4524-af80-7d34d16ab6a2","ios":"levelo://app?vid=59670ab4-3e62-4524-af80-7d34d16ab6a2"},"vehicle_type_id":"4","last_reported":1735906621,"current_range_meters":25200,"station_id":"ce4bh092rcd13ifvqd20","pricing_plan_id":"cebpf4jnsgd1na2vs0mg"},{"bike_id":"116f92ae-65b4-4f7c-a23b-1117c0a69b33","system_id":"levelo_inurba_marseille","lat":43.2861,"lon":5.35123,"is_reserved":false,"is_disabled":false,"rental_uris":{"android":"levelo://app?vid=116f92ae-65b4-4f7c-a23b-1117c0a69b33","ios":"levelo://app?vid=116f92ae-65b4-4f7c-a23b-1117c0a69b33"},"vehicle_type_id":"4","last_reported":1735906621,"current_range_meters":27600,"station_id":"ce4bhch2rcd13ifvqeug","pricing_plan_id":"cebpf4jnsgd1na2vs0mg"},{"bike_id":"cf9371cf-b4a6-4f3a-92f4-f898ea85e696","system_id":"levelo_inurba_marseille","lat":43.28539,"lon":5.39057,"is_reserved":false,"is_disabled":false,"rental_uris":{"android":"levelo://app?vid=cf9371cf-b4a6-4f3a-92f4-f898ea85e696","ios":"levelo://app?vid=cf9371cf-b4a6-4f3a-92f4-f898ea85e696"},"vehicle_type_id":"4","last_reported":1735906621,"current_range_meters":38000,"station_id":"","pricing_plan_id":"cebpf4jnsgd1na2vs0mg"},{"bike_id":"2b8ea8a9-0690-406c-a433-e73cfed24c7d","system_id":"levelo_inurba_marseille","lat":43.24698,"lon":5.38101,"is_reserved":false,"is_disabled":false,"rental_uris":{"android":"levelo://app?vid=2b8ea8a9-0690-406c-a433-e73cfed24c7d","ios":"levelo://app?vid=2b8ea8a9-0690-406c-a433-e73cfed24c7d"},"vehicle_type_id":"4","last_reported":1735906621,"current_range_meters":34000,"station_id":"","pricing_plan_id":"cebpf4jnsgd1na2vs0mg"},{"bike_id":"24ca3e2f-64a4-4b53-bdba-00c6e98625d8","system_id":"levelo_inurba_marseille","lat":43.29715,"lon":5.37697,"is_reserved":false,"is_disabled":false,"rental_uris":{"android":"levelo://app?vid=24ca3e2f-64a4-4b53-bdba-00c6e98625d8","ios":"levelo://app?vid=24ca3e2f-64a4-4b53-bdba-00c6e98625d8"},"vehicle_type_id":"4","last_reported":1735906621,"current_range_meters":38800,"station_id":"ce4bgkh2rcd13ifvqbl0","pricing_plan_id":"cebpf4jnsgd1na2vs0mg"},{"bike_id":"6d115562-da04-4a33-abc4-d2080183bd71","system_id":"levelo_inurba_marseille","lat":43.29609,"lon":5.38102,"is_reserved":false,"is_disabled":false,"rental_uris":{"android":"levelo://app?vid=6d115562-da04-4a33-abc4-d2080183bd71","ios":"levelo://app?vid=6d115562-da04-4a33-abc4-d2080183bd71"},"vehicle_type_id":"4","last_reported":1735906621,"current_range_meters":22400,"station_id":"ce4bgl12rcd13ifvqbo0","pricing_plan_id":"cebpf4jnsgd1na2vs0mg"},{"bike_id":"76d392c8-6dd4-4fbf-b626-27c2990c047b","system_id":"levelo_inurba_marseille","lat":43.28158,"lon":5.42811,"is_reserved":false,"is_disabled":false,"rental_uris":{"android":"levelo://app?vid=76d392c8-6dd4-4fbf-b626-27c2990c047b","ios":"levelo://app?vid=76d392c8-6dd4-4fbf-b626-27c2990c047b"},"vehicle_type_id":"4","last_reported":1735906621,"current_range_meters":18800,"station_id":"","pricing_plan_id":"cebpf4jnsgd1na2vs0mg"},{"bike_id":"ebb56956-e2e2-4f51-8f7a-80ccc26c078c","system_id":"levelo_inurba_marseille","lat":43.28154,"lon":5.42639,"is_reserved":false,"is_disabled":false,"rental_uris":{"android":"levelo://app?vid=ebb56956-e2e2-4f51-8f7a-80ccc26c078c","ios":"levelo://app?vid=ebb56956-e2e2-4f51-8f7a-80ccc26c078c"},"vehicle_type_id":"4","last_reported":1735906621,"current_range_meters":31200,"station_id":"ce4bhnh2rcd13ifvqgug","pricing_plan_id":"cebpf4jnsgd1na2vs0mg"},{"bike_id":"449e9d0f-fb13-4908-913f-2d43c33e9c78","system_id":"levelo_inurba_marseille","lat":43.33605,"lon":5.40998,"is_reserved":false,"is_disabled":false,"rental_uris":{"android":"levelo://app?vid=449e9d0f-fb13-4908-913f-2d43c33e9c78","ios":"levelo://app?vid=449e9d0f-fb13-4908-913f-2d43c33e9c78"},"vehicle_type_id":"4","last_reported":1735906621,"current_range_meters":38800,"station_id":"ce4bhqh2rcd13ifvqhmg","pricing_plan_id":"cebpf4jnsgd1na2vs0mg"},{"bike_id":"f94180ba-97a4-4ce7-98f7-63c65beb6272","system_id":"levelo_inurba_marseille","lat":43.264891,"lon":5.395514,"is_reserved":false,"is_disabled":false,"rental_uris":{"android":"levelo://app?vid=f94180ba-97a4-4ce7-98f7-63c65beb6272","ios":"levelo://app?vid=f94180ba-97a4-4ce7-98f7-63c65beb6272"},"vehicle_type_id":"4","last_reported":1735906621,"current_range_meters":38800,"station_id":"ce4bhi12rcd13ifvqfq0","pricing_plan_id":"cebpf4jnsgd1na2vs0mg"},{"bike_id":"24e02238-d92f-424f-8b72-85c062a83bbe","system_id":"levelo_inurba_marseille","lat":43.2771,"lon":5.38955,"is_reserved":false,"is_disabled":false,"rental_uris":{"android":"levelo://app?vid=24e02238-d92f-424f-8b72-85c062a83bbe","ios":"levelo://app?vid=24e02238-d92f-424f-8b72-85c062a83bbe"},"vehicle_type_id":"4","last_reported":1735906621,"current_range_meters":38800,"station_id":"","pricing_plan_id":"cebpf4jnsgd1na2vs0mg"},{"bike_id":"8b5eb1b9-707b-4e2e-a4e1-2ffc54ae1299","system_id":"levelo_inurba_marseille","lat":43.29262,"lon":5.38428,"is_reserved":false,"is_disabled":false,"rental_uris":{"android":"levelo://app?vid=8b5eb1b9-707b-4e2e-a4e1-2ffc54ae1299","ios":"levelo://app?vid=8b5eb1b9-707b-4e2e-a4e1-2ffc54ae1299"},"vehicle_type_id":"4","last_reported":1735906621,"current_range_meters":28000,"station_id":"ce4bh692rcd13ifvqea0","pricing_plan_id":"cebpf4jnsgd1na2vs0mg"},{"bike_id":"97717a3a-5240-48fe-b29e-9e7f0d2b5fba","system_id":"levelo_inurba_marseille","lat":43.31706,"lon":5.43717,"is_reserved":false,"is_disabled":false,"rental_uris":{"android":"levelo://app?vid=97717a3a-5240-48fe-b29e-9e7f0d2b5fba","ios":"levelo://app?vid=97717a3a-5240-48fe-b29e-9e7f0d2b5fba"},"vehicle_type_id":"4","last_reported":1735906621,"current_range_meters":39200,"station_id":"ce4bhp92rcd13ifvqhcg","pricing_plan_id":"cebpf4jnsgd1na2vs0mg"},{"bike_id":"944b5a17-7614-4f34-b24f-9cc5cebd0b0b","system_id":"levelo_inurba_marseille","lat":43.29547,"lon":5.37516,"is_reserved":false,"is_disabled":false,"rental_uris":{"android":"levelo://app?vid=944b5a17-7614-4f34-b24f-9cc5cebd0b0b","ios":"levelo://app?vid=944b5a17-7614-4f34-b24f-9cc5cebd0b0b"},"vehicle_type_id":"4","last_reported":1735906621,"current_range_meters":10000,"station_id":"ce4bgkp2rcd13ifvqbmg","pricing_plan_id":"cebpf4jnsgd1na2vs0mg"},{"bike_id":"b4fe4e0c-5b03-4373-9ca0-6f8f6eef3ef1","system_id":"levelo_inurba_marseille","lat":43.241593,"lon":5.364004,"is_reserved":false,"is_disabled":false,"rental_uris":{"android":"levelo://app?vid=b4fe4e0c-5b03-4373-9ca0-6f8f6eef3ef1","ios":"levelo://app?vid=b4fe4e0c-5b03-4373-9ca0-6f8f6eef3ef1"},"vehicle_type_id":"4","last_reported":1735906621,"current_range_meters":10000,"station_id":"cpo36qri1sfpv3e86is0","pricing_plan_id":"cebpf4jnsgd1na2vs0mg"},{"bike_id":"d2bef165-34df-48c0-b9b9-aca864c7e78d","system_id":"levelo_inurba_marseille","lat":43.28615,"lon":5.35108,"is_reserved":false,"is_disabled":false,"rental_uris":{"android":"levelo://app?vid=d2bef165-34df-48c0-b9b9-aca864c7e78d","ios":"levelo://app?vid=d2bef165-34df-48c0-b9b9-aca864c7e78d"},"vehicle_type_id":"4","last_reported":1735906621,"current_range_meters":32800,"station_id":"ce4bhch2rcd13ifvqeug","pricing_plan_id":"cebpf4jnsgd1na2vs0mg"},{"bike_id":"e1160721-ae87-4246-b0a8-51df8d89a5e4","system_id":"levelo_inurba_marseille","lat":43.27945,"lon":5.387,"is_reserved":false,"is_disabled":false,"rental_uris":{"android":"levelo://app?vid=e1160721-ae87-4246-b0a8-51df8d89a5e4","ios":"levelo://app?vid=e1160721-ae87-4246-b0a8-51df8d89a5e4"},"vehicle_type_id":"4","last_reported":1735906621,"current_range_meters":39200,"station_id":"ce4bhg12rcd13ifvqf80","pricing_plan_id":"cebpf4jnsgd1na2vs0mg"},{"bike_id":"be2053a8-1d36-46ea-956e-40bb04773ef8","system_id":"levelo_inurba_marseille","lat":43.29012,"lon":5.38134,"is_reserved":false,"is_disabled":false,"rental_uris":{"android":"levelo://app?vid=be2053a8-1d36-46ea-956e-40bb04773ef8","ios":"levelo://app?vid=be2053a8-1d36-46ea-956e-40bb04773ef8"},"vehicle_type_id":"4","last_reported":1735906621,"current_range_meters":26800,"station_id":"ce4bh4p2rcd13ifvqe1g","pricing_plan_id":"cebpf4jnsgd1na2vs0mg"},{"bike_id":"72bea843-e7a7-4197-9917-5a7a5c4f3ef4","system_id":"levelo_inurba_marseille","lat":43.30466,"lon":5.379093,"is_reserved":false,"is_disabled":false,"rental_uris":{"android":"levelo://app?vid=72bea843-e7a7-4197-9917-5a7a5c4f3ef4","ios":"levelo://app?vid=72bea843-e7a7-4197-9917-5a7a5c4f3ef4"},"vehicle_type_id":"4","last_reported":1735906621,"current_range_meters":27200,"station_id":"ce4bgup2rcd13ifvqcn0","pricing_plan_id":"cebpf4jnsgd1na2vs0mg"},{"bike_id":"184d229c-4cd1-494d-a823-d35eaf599909","system_id":"levelo_inurba_marseille","lat":43.28949,"lon":5.36639,"is_reserved":false,"is_disabled":false,"rental_uris":{"android":"levelo://app?vid=184d229c-4cd1-494d-a823-d35eaf599909","ios":"levelo://app?vid=184d229c-4cd1-494d-a823-d35eaf599909"},"vehicle_type_id":"4","last_reported":1735906621,"current_range_meters":22400,"station_id":"ce4bhap2rcd13ifvqek0","pricing_plan_id":"cebpf4jnsgd1na2vs0mg"},{"bike_id":"4a1ad4c0-f6d8-4f02-a755-37ff4cc1ad61","system_id":"levelo_inurba_marseille","lat":43.25828,"lon":5.39448,"is_reserved":false,"is_disabled":false,"rental_uris":{"android":"levelo://app?vid=4a1ad4c0-f6d8-4f02-a755-37ff4cc1ad61","ios":"levelo://app?vid=4a1ad4c0-f6d8-4f02-a755-37ff4cc1ad61"},"vehicle_type_id":"4","last_reported":1735906621,"current_range_meters":37600,"station_id":"ce4bhip2rcd13ifvqft0","pricing_plan_id":"cebpf4jnsgd1na2vs0mg"},{"bike_id":"1edca33b-8d82-4613-945e-057a682428fe","system_id":"levelo_inurba_marseille","lat":43.33111,"lon":5.38217,"is_reserved":false,"is_disabled":false,"rental_uris":{"android":"levelo://app?vid=1edca33b-8d82-4613-945e-057a682428fe","ios":"levelo://app?vid=1edca33b-8d82-4613-945e-057a682428fe"},"vehicle_type_id":"4","last_reported":1735906621,"current_range_meters":34000,"station_id":"","pricing_plan_id":"cebpf4jnsgd1na2vs0mg"},{"bike_id":"4ff02992-46d1-4939-b33e-7e9de4ef7281","system_id":"levelo_inurba_marseille","lat":43.25836,"lon":5.39434,"is_reserved":false,"is_disabled":false,"rental_uris":{"android":"levelo://app?vid=4ff02992-46d1-4939-b33e-7e9de4ef7281","ios":"levelo://app?vid=4ff02992-46d1-4939-b33e-7e9de4ef7281"},"vehicle_type_id":"4","last_reported":1735906621,"current_range_meters":27600,"station_id":"ce4bhip2rcd13ifvqft0","pricing_plan_id":"cebpf4jnsgd1na2vs0mg"},{"bike_id":"a9729bac-b14c-4f28-bb26-3ce80633fcc6","system_id":"levelo_inurba_marseille","lat":43.24674,"lon":5.38178,"is_reserved":false,"is_disabled":false,"rental_uris":{"android":"levelo://app?vid=a9729bac-b14c-4f28-bb26-3ce80633fcc6","ios":"levelo://app?vid=a9729bac-b14c-4f28-bb26-3ce80633fcc6"},"vehicle_type_id":"4","last_reported":1735906621,"current_range_meters":35600,"station_id":"ce4bhih2rcd13ifvqfr0","pricing_plan_id":"cebpf4jnsgd1na2vs0mg"},{"bike_id":"027085de-3c06-4c90-8099-b9537f78e863","system_id":"levelo_inurba_marseille","lat":43.23155,"lon":5.4371,"is_reserved":false,"is_disabled":false,"rental_uris":{"android":"levelo://app?vid=027085de-3c06-4c90-8099-b9537f78e863","ios":"levelo://app?vid=027085de-3c06-4c90-8099-b9537f78e863"},"vehicle_type_id":"4","last_reported":1735906621,"current_range_meters":26000,"station_id":"ce4bhmp2rcd13ifvqgog","pricing_plan_id":"cebpf4jnsgd1na2vs0mg"},{"bike_id":"4b6a41bf-6158-4f95-8733-20938233d170","system_id":"levelo_inurba_marseille","lat":43.25734,"lon":5.41164,"is_reserved":false,"is_disabled":false,"rental_uris":{"android":"levelo://app?vid=4b6a41bf-6158-4f95-8733-20938233d170","ios":"levelo://app?vid=4b6a41bf-6158-4f95-8733-20938233d170"},"vehicle_type_id":"4","last_reported":1735906621,"current_range_meters":38800,"station_id":"ce4bhkp2rcd13ifvqgd0","pricing_plan_id":"cebpf4jnsgd1na2vs0mg"},{"bike_id":"d936b726-436d-4e1d-883d-74d49ddbe842","system_id":"levelo_inurba_marseille","lat":43.315276,"lon":5.3803,"is_reserved":false,"is_disabled":false,"rental_uris":{"android":"levelo://app?vid=d936b726-436d-4e1d-883d-74d49ddbe842","ios":"levelo://app?vid=d936b726-436d-4e1d-883d-74d49ddbe842"},"vehicle_type_id":"4","last_reported":1735906621,"current_range_meters":13600,"station_id":"ce4bhsp2rcd13ifvqi50","pricing_plan_id":"cebpf4jnsgd1na2vs0mg"},{"bike_id":"6474cfa8-26d0-48d8-a3af-e66cb40c674c","system_id":"levelo_inurba_marseille","lat":43.29293,"lon":5.37466,"is_reserved":false,"is_disabled":false,"rental_uris":{"android":"levelo://app?vid=6474cfa8-26d0-48d8-a3af-e66cb40c674c","ios":"levelo://app?vid=6474cfa8-26d0-48d8-a3af-e66cb40c674c"},"vehicle_type_id":"4","last_reported":1735906621,"current_range_meters":16000,"station_id":"ce4bgi12rcd13ifvqb70","pricing_plan_id":"cebpf4jnsgd1na2vs0mg"},{"bike_id":"7a63d77d-b3e4-4713-9060-b918ad8247d2","system_id":"levelo_inurba_marseille","lat":43.22944,"lon":5.35376,"is_reserved":false,"is_disabled":false,"rental_uris":{"android":"levelo://app?vid=7a63d77d-b3e4-4713-9060-b918ad8247d2","ios":"levelo://app?vid=7a63d77d-b3e4-4713-9060-b918ad8247d2"},"vehicle_type_id":"4","last_reported":1735906621,"current_range_meters":36000,"station_id":"cpo3532slgdg3j2ikp40","pricing_plan_id":"cebpf4jnsgd1na2vs0mg"},{"bike_id":"d3d962ef-5c6c-4975-8119-78fb8dfdd62f","system_id":"levelo_inurba_marseille","lat":43.27213,"lon":5.39189,"is_reserved":false,"is_disabled":false,"rental_uris":{"android":"levelo://app?vid=d3d962ef-5c6c-4975-8119-78fb8dfdd62f","ios":"levelo://app?vid=d3d962ef-5c6c-4975-8119-78fb8dfdd62f"},"vehicle_type_id":"4","last_reported":1735906621,"current_range_meters":4800,"station_id":"ce4bhhp2rcd13ifvqfm0","pricing_plan_id":"cebpf4jnsgd1na2vs0mg"},{"bike_id":"12ae9a89-aeb1-4729-b14b-85d7426651eb","system_id":"levelo_inurba_marseille","lat":43.30141,"lon":5.37417,"is_reserved":false,"is_disabled":false,"rental_uris":{"android":"levelo://app?vid=12ae9a89-aeb1-4729-b14b-85d7426651eb","ios":"levelo://app?vid=12ae9a89-aeb1-4729-b14b-85d7426651eb"},"vehicle_type_id":"4","last_reported":1735906621,"current_range_meters":27600,"station_id":"ce4bgs92rcd13ifvqcc0","pricing_plan_id":"cebpf4jnsgd1na2vs0mg"},{"bike_id":"f421f149-12db-4d1c-aa37-4459fecb5d07","system_id":"levelo_inurba_marseille","lat":43.28837,"lon":5.35847,"is_reserved":false,"is_disabled":false,"rental_uris":{"android":"levelo://app?vid=f421f149-12db-4d1c-aa37-4459fecb5d07","ios":"levelo://app?vid=f421f149-12db-4d1c-aa37-4459fecb5d07"},"vehicle_type_id":"4","last_reported":1735906621,"current_range_meters":35600,"station_id":"ce4bhb12rcd13ifvqem0","pricing_plan_id":"cebpf4jnsgd1na2vs0mg"},{"bike_id":"3c7472a4-a45c-4f46-a692-aa44ebf92f21","system_id":"levelo_inurba_marseille","lat":43.27409,"lon":5.394,"is_reserved":false,"is_disabled":false,"rental_uris":{"android":"levelo://app?vid=3c7472a4-a45c-4f46-a692-aa44ebf92f21","ios":"levelo://app?vid=3c7472a4-a45c-4f46-a692-aa44ebf92f21"},"vehicle_type_id":"4","last_reported":1735906621,"current_range_meters":31200,"station_id":"ce4bhdp2rcd13ifvqf20","pricing_plan_id":"cebpf4jnsgd1na2vs0mg"},{"bike_id":"aa99a87f-5d71-465b-b420-4e7a58043ac5","system_id":"levelo_inurba_marseille","lat":43.30311,"lon":5.369,"is_reserved":false,"is_disabled":false,"rental_uris":{"android":"levelo://app?vid=aa99a87f-5d71-465b-b420-4e7a58043ac5","ios":"levelo://app?vid=aa99a87f-5d71-465b-b420-4e7a58043ac5"},"vehicle_type_id":"4","last_reported":1735906621,"current_range_meters":38000,"station_id":"ce4bgqh2rcd13ifvqc5g","pricing_plan_id":"cebpf4jnsgd1na2vs0mg"},{"bike_id":"c6cd8c67-5bf1-441d-ba21-2500cf530c98","system_id":"levelo_inurba_marseille","lat":43.29008,"lon":5.35607,"is_reserved":false,"is_disabled":false,"rental_uris":{"android":"levelo://app?vid=c6cd8c67-5bf1-441d-ba21-2500cf530c98","ios":"levelo://app?vid=c6cd8c67-5bf1-441d-ba21-2500cf530c98"},"vehicle_type_id":"4","last_reported":1735906621,"current_range_meters":34000,"station_id":"ce4bhb92rcd13ifvqen0","pricing_plan_id":"cebpf4jnsgd1na2vs0mg"},{"bike_id":"b5b2166a-b0b8-4fc4-9960-24fcf8dddf0c","system_id":"levelo_inurba_marseille","lat":43.30825,"lon":5.38059,"is_reserved":false,"is_disabled":false,"rental_uris":{"android":"levelo://app?vid=b5b2166a-b0b8-4fc4-9960-24fcf8dddf0c","ios":"levelo://app?vid=b5b2166a-b0b8-4fc4-9960-24fcf8dddf0c"},"vehicle_type_id":"4","last_reported":1735906621,"current_range_meters":14800,"station_id":"","pricing_plan_id":"cebpf4jnsgd1na2vs0mg"},{"bike_id":"ba45c32b-6d14-47e1-bb41-23c211513d59","system_id":"levelo_inurba_marseille","lat":43.30146,"lon":5.37398,"is_reserved":false,"is_disabled":false,"rental_uris":{"android":"levelo://app?vid=ba45c32b-6d14-47e1-bb41-23c211513d59","ios":"levelo://app?vid=ba45c32b-6d14-47e1-bb41-23c211513d59"},"vehicle_type_id":"4","last_reported":1735906621,"current_range_meters":24800,"station_id":"ce4bgs92rcd13ifvqcc0","pricing_plan_id":"cebpf4jnsgd1na2vs0mg"},{"bike_id":"d464b900-e8e1-412d-91fa-5358b80182c6","system_id":"levelo_inurba_marseille","lat":43.29061,"lon":5.3717,"is_reserved":false,"is_disabled":false,"rental_uris":{"android":"levelo://app?vid=d464b900-e8e1-412d-91fa-5358b80182c6","ios":"levelo://app?vid=d464b900-e8e1-412d-91fa-5358b80182c6"},"vehicle_type_id":"4","last_reported":1735906621,"current_range_meters":30400,"station_id":"ce4bh5p2rcd13ifvqe4g","pricing_plan_id":"cebpf4jnsgd1na2vs0mg"},{"bike_id":"2d37891b-3e35-407f-964b-7c262ae2b2d0","system_id":"levelo_inurba_marseille","lat":43.29403,"lon":5.38086,"is_reserved":false,"is_disabled":true,"rental_uris":{"android":"levelo://app?vid=2d37891b-3e35-407f-964b-7c262ae2b2d0","ios":"levelo://app?vid=2d37891b-3e35-407f-964b-7c262ae2b2d0"},"vehicle_type_id":"4","last_reported":1735906621,"current_range_meters":0,"station_id":"","pricing_plan_id":"cebpf4jnsgd1na2vs0mg"},{"bike_id":"49bb61fb-4420-4ddf-8622-f71b0161f5fe","system_id":"levelo_inurba_marseille","lat":43.23057,"lon":5.3551,"is_reserved":false,"is_disabled":false,"rental_uris":{"android":"levelo://app?vid=49bb61fb-4420-4ddf-8622-f71b0161f5fe","ios":"levelo://app?vid=49bb61fb-4420-4ddf-8622-f71b0161f5fe"},"vehicle_type_id":"4","last_reported":1735906621,"current_range_meters":25600,"station_id":"cpo3342slgdg3j2ifvpg","pricing_plan_id":"cebpf4jnsgd1na2vs0mg"},{"bike_id":"a704d00f-fa02-4fe3-91e2-2416c16951bb","system_id":"levelo_inurba_marseille","lat":43.24073,"lon":5.37739,"is_reserved":false,"is_disabled":false,"rental_uris":{"android":"levelo://app?vid=a704d00f-fa02-4fe3-91e2-2416c16951bb","ios":"levelo://app?vid=a704d00f-fa02-4fe3-91e2-2416c16951bb"},"vehicle_type_id":"4","last_reported":1735906621,"current_range_meters":38800,"station_id":"ce4bhnp2rcd13ifvqgvg","pricing_plan_id":"cebpf4jnsgd1na2vs0mg"},{"bike_id":"2332862a-3884-4317-af82-ee9793e9b62c","system_id":"levelo_inurba_marseille","lat":43.24083,"lon":5.37747,"is_reserved":false,"is_disabled":false,"rental_uris":{"android":"levelo://app?vid=2332862a-3884-4317-af82-ee9793e9b62c","ios":"levelo://app?vid=2332862a-3884-4317-af82-ee9793e9b62c"},"vehicle_type_id":"4","last_reported":1735906621,"current_range_meters":22400,"station_id":"ce4bhnp2rcd13ifvqgvg","pricing_plan_id":"cebpf4jnsgd1na2vs0mg"},{"bike_id":"78f86a53-0e54-4406-814f-c5d80e97535d","system_id":"levelo_inurba_marseille","lat":43.24065,"lon":5.37777,"is_reserved":false,"is_disabled":false,"rental_uris":{"android":"levelo://app?vid=78f86a53-0e54-4406-814f-c5d80e97535d","ios":"levelo://app?vid=78f86a53-0e54-4406-814f-c5d80e97535d"},"vehicle_type_id":"4","last_reported":1735906621,"current_range_meters":38000,"station_id":"ce4bhnp2rcd13ifvqgvg","pricing_plan_id":"cebpf4jnsgd1na2vs0mg"},{"bike_id":"e6fa8bd9-5f74-401a-b12e-57e85af877cf","system_id":"levelo_inurba_marseille","lat":43.331907,"lon":5.395563,"is_reserved":false,"is_disabled":false,"rental_uris":{"android":"levelo://app?vid=e6fa8bd9-5f74-401a-b12e-57e85af877cf","ios":"levelo://app?vid=e6fa8bd9-5f74-401a-b12e-57e85af877cf"},"vehicle_type_id":"4","last_reported":1735906621,"current_range_meters":25200,"station_id":"","pricing_plan_id":"cebpf4jnsgd1na2vs0mg"},{"bike_id":"4483098c-d27d-4534-ad16-c209ae457c9a","system_id":"levelo_inurba_marseille","lat":43.315269,"lon":5.380308,"is_reserved":false,"is_disabled":false,"rental_uris":{"android":"levelo://app?vid=4483098c-d27d-4534-ad16-c209ae457c9a","ios":"levelo://app?vid=4483098c-d27d-4534-ad16-c209ae457c9a"},"vehicle_type_id":"4","last_reported":1735906621,"current_range_meters":38800,"station_id":"ce4bhsp2rcd13ifvqi50","pricing_plan_id":"cebpf4jnsgd1na2vs0mg"},{"bike_id":"4497e684-d7f4-4006-bd1f-03b8bddbbfd3","system_id":"levelo_inurba_marseille","lat":43.3052,"lon":5.36568,"is_reserved":false,"is_disabled":false,"rental_uris":{"android":"levelo://app?vid=4497e684-d7f4-4006-bd1f-03b8bddbbfd3","ios":"levelo://app?vid=4497e684-d7f4-4006-bd1f-03b8bddbbfd3"},"vehicle_type_id":"4","last_reported":1735906621,"current_range_meters":38800,"station_id":"ce4bgs12rcd13ifvqcag","pricing_plan_id":"cebpf4jnsgd1na2vs0mg"},{"bike_id":"af6f5cf6-fe33-49d4-9b2b-a069d115dde7","system_id":"levelo_inurba_marseille","lat":43.29863,"lon":5.36289,"is_reserved":false,"is_disabled":false,"rental_uris":{"android":"levelo://app?vid=af6f5cf6-fe33-49d4-9b2b-a069d115dde7","ios":"levelo://app?vid=af6f5cf6-fe33-49d4-9b2b-a069d115dde7"},"vehicle_type_id":"4","last_reported":1735906621,"current_range_meters":24000,"station_id":"ce4bgpp2rcd13ifvqc3g","pricing_plan_id":"cebpf4jnsgd1na2vs0mg"},{"bike_id":"bd5f771f-8599-417f-92e1-2bc9c05d304e","system_id":"levelo_inurba_marseille","lat":43.325461,"lon":5.414549,"is_reserved":false,"is_disabled":false,"rental_uris":{"android":"levelo://app?vid=bd5f771f-8599-417f-92e1-2bc9c05d304e","ios":"levelo://app?vid=bd5f771f-8599-417f-92e1-2bc9c05d304e"},"vehicle_type_id":"4","last_reported":1735906621,"current_range_meters":38800,"station_id":"ce4bhq12rcd13ifvqhhg","pricing_plan_id":"cebpf4jnsgd1na2vs0mg"},{"bike_id":"2cad5e9d-f183-4c3f-a642-7c176e4884d1","system_id":"levelo_inurba_marseille","lat":43.25817,"lon":5.39371,"is_reserved":false,"is_disabled":false,"rental_uris":{"android":"levelo://app?vid=2cad5e9d-f183-4c3f-a642-7c176e4884d1","ios":"levelo://app?vid=2cad5e9d-f183-4c3f-a642-7c176e4884d1"},"vehicle_type_id":"4","last_reported":1735906621,"current_range_meters":36000,"station_id":"","pricing_plan_id":"cebpf4jnsgd1na2vs0mg"},{"bike_id":"491e76ae-77d0-46f8-a518-cc691ef7e672","system_id":"levelo_inurba_marseille","lat":43.29055,"lon":5.37575,"is_reserved":false,"is_disabled":false,"rental_uris":{"android":"levelo://app?vid=491e76ae-77d0-46f8-a518-cc691ef7e672","ios":"levelo://app?vid=491e76ae-77d0-46f8-a518-cc691ef7e672"},"vehicle_type_id":"4","last_reported":1735906621,"current_range_meters":30800,"station_id":"ce4bh692rcd13ifvqe90","pricing_plan_id":"cebpf4jnsgd1na2vs0mg"},{"bike_id":"6e2a80cc-e5aa-4bba-a6fa-3ce0492493c2","system_id":"levelo_inurba_marseille","lat":43.27401,"lon":5.394,"is_reserved":false,"is_disabled":false,"rental_uris":{"android":"levelo://app?vid=6e2a80cc-e5aa-4bba-a6fa-3ce0492493c2","ios":"levelo://app?vid=6e2a80cc-e5aa-4bba-a6fa-3ce0492493c2"},"vehicle_type_id":"4","last_reported":1735906621,"current_range_meters":37600,"station_id":"ce4bhdp2rcd13ifvqf20","pricing_plan_id":"cebpf4jnsgd1na2vs0mg"},{"bike_id":"1c062351-f698-4ee4-87ae-fce7281bfbb0","system_id":"levelo_inurba_marseille","lat":43.29525,"lon":5.38566,"is_reserved":false,"is_disabled":false,"rental_uris":{"android":"levelo://app?vid=1c062351-f698-4ee4-87ae-fce7281bfbb0","ios":"levelo://app?vid=1c062351-f698-4ee4-87ae-fce7281bfbb0"},"vehicle_type_id":"4","last_reported":1735906621,"current_range_meters":37600,"station_id":"ce4bgih2rcd13ifvqba0","pricing_plan_id":"cebpf4jnsgd1na2vs0mg"},{"bike_id":"411088da-8798-4245-afb0-3b9b66c1b22c","system_id":"levelo_inurba_marseille","lat":43.30356,"lon":5.41891,"is_reserved":false,"is_disabled":false,"rental_uris":{"android":"levelo://app?vid=411088da-8798-4245-afb0-3b9b66c1b22c","ios":"levelo://app?vid=411088da-8798-4245-afb0-3b9b66c1b22c"},"vehicle_type_id":"4","last_reported":1735906621,"current_range_meters":38800,"station_id":"ce4bhop2rcd13ifvqh7g","pricing_plan_id":"cebpf4jnsgd1na2vs0mg"},{"bike_id":"45a9706a-96de-4fd8-b40f-34a0d90a2183","system_id":"levelo_inurba_marseille","lat":43.313215,"lon":5.397026,"is_reserved":false,"is_disabled":true,"rental_uris":{"android":"levelo://app?vid=45a9706a-96de-4fd8-b40f-34a0d90a2183","ios":"levelo://app?vid=45a9706a-96de-4fd8-b40f-34a0d90a2183"},"vehicle_type_id":"4","last_reported":1735906621,"current_range_meters":1600,"station_id":"ce4bgvp2rcd13ifvqcu0","pricing_plan_id":"cebpf4jnsgd1na2vs0mg"},{"bike_id":"8c1a59b4-2c8f-4307-8a5a-eec2cd0e5913","system_id":"levelo_inurba_marseille","lat":43.30257,"lon":5.37714,"is_reserved":false,"is_disabled":false,"rental_uris":{"android":"levelo://app?vid=8c1a59b4-2c8f-4307-8a5a-eec2cd0e5913","ios":"levelo://app?vid=8c1a59b4-2c8f-4307-8a5a-eec2cd0e5913"},"vehicle_type_id":"4","last_reported":1735906621,"current_range_meters":38800,"station_id":"ce4bguh2rcd13ifvqcj0","pricing_plan_id":"cebpf4jnsgd1na2vs0mg"},{"bike_id":"c38119df-a0cc-4d53-851b-aebce98309d3","system_id":"levelo_inurba_marseille","lat":43.25008,"lon":5.38916,"is_reserved":false,"is_disabled":false,"rental_uris":{"android":"levelo://app?vid=c38119df-a0cc-4d53-851b-aebce98309d3","ios":"levelo://app?vid=c38119df-a0cc-4d53-851b-aebce98309d3"},"vehicle_type_id":"4","last_reported":1735906621,"current_range_meters":8800,"station_id":"ce4bhgp2rcd13ifvqfd0","pricing_plan_id":"cebpf4jnsgd1na2vs0mg"},{"bike_id":"738b5c89-8c76-42ea-8fde-470ed4498ba3","system_id":"levelo_inurba_marseille","lat":43.25931,"lon":5.40917,"is_reserved":false,"is_disabled":false,"rental_uris":{"android":"levelo://app?vid=738b5c89-8c76-42ea-8fde-470ed4498ba3","ios":"levelo://app?vid=738b5c89-8c76-42ea-8fde-470ed4498ba3"},"vehicle_type_id":"4","last_reported":1735906621,"current_range_meters":27200,"station_id":"ce4bhm92rcd13ifvqglg","pricing_plan_id":"cebpf4jnsgd1na2vs0mg"},{"bike_id":"9f6d2555-5760-4cf4-9e4c-7cc82724f0e8","system_id":"levelo_inurba_marseille","lat":43.29594,"lon":5.381,"is_reserved":false,"is_disabled":false,"rental_uris":{"android":"levelo://app?vid=9f6d2555-5760-4cf4-9e4c-7cc82724f0e8","ios":"levelo://app?vid=9f6d2555-5760-4cf4-9e4c-7cc82724f0e8"},"vehicle_type_id":"4","last_reported":1735906621,"current_range_meters":17200,"station_id":"ce4bgl12rcd13ifvqbo0","pricing_plan_id":"cebpf4jnsgd1na2vs0mg"},{"bike_id":"143446d0-6249-4abe-bef0-8e8cbab5d148","system_id":"levelo_inurba_marseille","lat":43.25089,"lon":5.39497,"is_reserved":false,"is_disabled":false,"rental_uris":{"android":"levelo://app?vid=143446d0-6249-4abe-bef0-8e8cbab5d148","ios":"levelo://app?vid=143446d0-6249-4abe-bef0-8e8cbab5d148"},"vehicle_type_id":"4","last_reported":1735906621,"current_range_meters":33600,"station_id":"ce4bhm12rcd13ifvqgkg","pricing_plan_id":"cebpf4jnsgd1na2vs0mg"},{"bike_id":"346da65a-0607-4ab8-afab-cd671c936ca6","system_id":"levelo_inurba_marseille","lat":43.324792,"lon":5.36565,"is_reserved":false,"is_disabled":false,"rental_uris":{"android":"levelo://app?vid=346da65a-0607-4ab8-afab-cd671c936ca6","ios":"levelo://app?vid=346da65a-0607-4ab8-afab-cd671c936ca6"},"vehicle_type_id":"4","last_reported":1735906621,"current_range_meters":17200,"station_id":"ce4bhs12rcd13ifvqhvg","pricing_plan_id":"cebpf4jnsgd1na2vs0mg"},{"bike_id":"5f1486d7-4fae-4801-9d26-fff2da0e4875","system_id":"levelo_inurba_marseille","lat":43.3201,"lon":5.38143,"is_reserved":false,"is_disabled":false,"rental_uris":{"android":"levelo://app?vid=5f1486d7-4fae-4801-9d26-fff2da0e4875","ios":"levelo://app?vid=5f1486d7-4fae-4801-9d26-fff2da0e4875"},"vehicle_type_id":"4","last_reported":1735906621,"current_range_meters":30800,"station_id":"ce4bhr12rcd13ifvqhpg","pricing_plan_id":"cebpf4jnsgd1na2vs0mg"},{"bike_id":"d61d619f-8d47-4240-b6bf-eadee5579c0c","system_id":"levelo_inurba_marseille","lat":43.28462,"lon":5.38464,"is_reserved":false,"is_disabled":false,"rental_uris":{"android":"levelo://app?vid=d61d619f-8d47-4240-b6bf-eadee5579c0c","ios":"levelo://app?vid=d61d619f-8d47-4240-b6bf-eadee5579c0c"},"vehicle_type_id":"4","last_reported":1735906621,"current_range_meters":14400,"station_id":"ce4bh512rcd13ifvqe3g","pricing_plan_id":"cebpf4jnsgd1na2vs0mg"},{"bike_id":"2f857458-45ae-4306-9ffb-5d94252d59a5","system_id":"levelo_inurba_marseille","lat":43.24649,"lon":5.38911,"is_reserved":false,"is_disabled":false,"rental_uris":{"android":"levelo://app?vid=2f857458-45ae-4306-9ffb-5d94252d59a5","ios":"levelo://app?vid=2f857458-45ae-4306-9ffb-5d94252d59a5"},"vehicle_type_id":"4","last_reported":1735906621,"current_range_meters":38800,"station_id":"ce4bhg12rcd13ifvqf60","pricing_plan_id":"cebpf4jnsgd1na2vs0mg"},{"bike_id":"0c44e8cb-6c44-450a-a3ff-5dfd7e18baf3","system_id":"levelo_inurba_marseille","lat":43.27996,"lon":5.41661,"is_reserved":false,"is_disabled":false,"rental_uris":{"android":"levelo://app?vid=0c44e8cb-6c44-450a-a3ff-5dfd7e18baf3","ios":"levelo://app?vid=0c44e8cb-6c44-450a-a3ff-5dfd7e18baf3"},"vehicle_type_id":"4","last_reported":1735906621,"current_range_meters":38000,"station_id":"ce4bho12rcd13ifvqh1g","pricing_plan_id":"cebpf4jnsgd1na2vs0mg"},{"bike_id":"25990fff-4e8a-4c9a-9f77-d0b15d680caa","system_id":"levelo_inurba_marseille","lat":43.26956,"lon":5.38651,"is_reserved":false,"is_disabled":true,"rental_uris":{"android":"levelo://app?vid=25990fff-4e8a-4c9a-9f77-d0b15d680caa","ios":"levelo://app?vid=25990fff-4e8a-4c9a-9f77-d0b15d680caa"},"vehicle_type_id":"4","last_reported":1735906621,"current_range_meters":17600,"station_id":"ce4bhh92rcd13ifvqfh0","pricing_plan_id":"cebpf4jnsgd1na2vs0mg"},{"bike_id":"771f7610-128b-4abb-a26e-a02270e77b57","system_id":"levelo_inurba_marseille","lat":43.29377,"lon":5.3786,"is_reserved":false,"is_disabled":false,"rental_uris":{"android":"levelo://app?vid=771f7610-128b-4abb-a26e-a02270e77b57","ios":"levelo://app?vid=771f7610-128b-4abb-a26e-a02270e77b57"},"vehicle_type_id":"4","last_reported":1735906621,"current_range_meters":22400,"station_id":"ce4bgjh2rcd13ifvqbf0","pricing_plan_id":"cebpf4jnsgd1na2vs0mg"},{"bike_id":"f3669c6f-6235-4041-8585-75f2e6f191ed","system_id":"levelo_inurba_marseille","lat":43.299184,"lon":5.374631,"is_reserved":false,"is_disabled":false,"rental_uris":{"android":"levelo://app?vid=f3669c6f-6235-4041-8585-75f2e6f191ed","ios":"levelo://app?vid=f3669c6f-6235-4041-8585-75f2e6f191ed"},"vehicle_type_id":"4","last_reported":1735906621,"current_range_meters":17200,"station_id":"ce4bgjh2rcd13ifvqbg0","pricing_plan_id":"cebpf4jnsgd1na2vs0mg"},{"bike_id":"db34218a-bf6f-45ed-b3b1-d950245c60a9","system_id":"levelo_inurba_marseille","lat":43.303118,"lon":5.368977,"is_reserved":false,"is_disabled":false,"rental_uris":{"android":"levelo://app?vid=db34218a-bf6f-45ed-b3b1-d950245c60a9","ios":"levelo://app?vid=db34218a-bf6f-45ed-b3b1-d950245c60a9"},"vehicle_type_id":"4","last_reported":1735906621,"current_range_meters":39200,"station_id":"ce4bgqh2rcd13ifvqc5g","pricing_plan_id":"cebpf4jnsgd1na2vs0mg"},{"bike_id":"51a124f2-b42f-4e40-8238-0704dc4213a9","system_id":"levelo_inurba_marseille","lat":43.29699,"lon":5.37664,"is_reserved":false,"is_disabled":false,"rental_uris":{"android":"levelo://app?vid=51a124f2-b42f-4e40-8238-0704dc4213a9","ios":"levelo://app?vid=51a124f2-b42f-4e40-8238-0704dc4213a9"},"vehicle_type_id":"4","last_reported":1735906621,"current_range_meters":38800,"station_id":"ce4bgkh2rcd13ifvqbl0","pricing_plan_id":"cebpf4jnsgd1na2vs0mg"},{"bike_id":"5455da32-2d63-4c3f-9dad-73627163389b","system_id":"levelo_inurba_marseille","lat":43.33764,"lon":5.37457,"is_reserved":false,"is_disabled":false,"rental_uris":{"android":"levelo://app?vid=5455da32-2d63-4c3f-9dad-73627163389b","ios":"levelo://app?vid=5455da32-2d63-4c3f-9dad-73627163389b"},"vehicle_type_id":"4","last_reported":1735906621,"current_range_meters":26000,"station_id":"","pricing_plan_id":"cebpf4jnsgd1na2vs0mg"},{"bike_id":"07914263-3d03-4738-b553-ee795a62a79e","system_id":"levelo_inurba_marseille","lat":43.25858,"lon":5.39906,"is_reserved":false,"is_disabled":false,"rental_uris":{"android":"levelo://app?vid=07914263-3d03-4738-b553-ee795a62a79e","ios":"levelo://app?vid=07914263-3d03-4738-b553-ee795a62a79e"},"vehicle_type_id":"4","last_reported":1735906621,"current_range_meters":26000,"station_id":"ce4bhl92rcd13ifvqghg","pricing_plan_id":"cebpf4jnsgd1na2vs0mg"},{"bike_id":"cb9ddef6-e3ca-4d83-8257-6a73eb8266c6","system_id":"levelo_inurba_marseille","lat":43.32658,"lon":5.40995,"is_reserved":false,"is_disabled":false,"rental_uris":{"android":"levelo://app?vid=cb9ddef6-e3ca-4d83-8257-6a73eb8266c6","ios":"levelo://app?vid=cb9ddef6-e3ca-4d83-8257-6a73eb8266c6"},"vehicle_type_id":"4","last_reported":1735906621,"current_range_meters":38800,"station_id":"ce4bhpp2rcd13ifvqhgg","pricing_plan_id":"cebpf4jnsgd1na2vs0mg"},{"bike_id":"974fc9b9-71eb-4999-9a60-2aa13412d0fe","system_id":"levelo_inurba_marseille","lat":43.29368,"lon":5.37825,"is_reserved":false,"is_disabled":false,"rental_uris":{"android":"levelo://app?vid=974fc9b9-71eb-4999-9a60-2aa13412d0fe","ios":"levelo://app?vid=974fc9b9-71eb-4999-9a60-2aa13412d0fe"},"vehicle_type_id":"4","last_reported":1735906621,"current_range_meters":14400,"station_id":"ce4bgjh2rcd13ifvqbf0","pricing_plan_id":"cebpf4jnsgd1na2vs0mg"},{"bike_id":"a85ff2bf-827a-45a1-a10f-61b33091278d","system_id":"levelo_inurba_marseille","lat":43.29984,"lon":5.41315,"is_reserved":false,"is_disabled":false,"rental_uris":{"android":"levelo://app?vid=a85ff2bf-827a-45a1-a10f-61b33091278d","ios":"levelo://app?vid=a85ff2bf-827a-45a1-a10f-61b33091278d"},"vehicle_type_id":"4","last_reported":1735906621,"current_range_meters":19200,"station_id":"ce4bhp12rcd13ifvqh9g","pricing_plan_id":"cebpf4jnsgd1na2vs0mg"},{"bike_id":"827b0813-db3a-45cd-9f07-276eb24a36dd","system_id":"levelo_inurba_marseille","lat":43.31395,"lon":5.36725,"is_reserved":false,"is_disabled":false,"rental_uris":{"android":"levelo://app?vid=827b0813-db3a-45cd-9f07-276eb24a36dd","ios":"levelo://app?vid=827b0813-db3a-45cd-9f07-276eb24a36dd"},"vehicle_type_id":"4","last_reported":1735906621,"current_range_meters":38800,"station_id":"ce4bgr92rcd13ifvqc6g","pricing_plan_id":"cebpf4jnsgd1na2vs0mg"},{"bike_id":"26a45da8-bc52-4d14-8c52-4b2ba66645b1","system_id":"levelo_inurba_marseille","lat":43.28476,"lon":5.38561,"is_reserved":false,"is_disabled":false,"rental_uris":{"android":"levelo://app?vid=26a45da8-bc52-4d14-8c52-4b2ba66645b1","ios":"levelo://app?vid=26a45da8-bc52-4d14-8c52-4b2ba66645b1"},"vehicle_type_id":"4","last_reported":1735906621,"current_range_meters":38800,"station_id":"ce4bh8p2rcd13ifvqeb0","pricing_plan_id":"cebpf4jnsgd1na2vs0mg"},{"bike_id":"23a3a450-3443-4298-8106-07e1fb9686f1","system_id":"levelo_inurba_marseille","lat":43.31388,"lon":5.36716,"is_reserved":false,"is_disabled":false,"rental_uris":{"android":"levelo://app?vid=23a3a450-3443-4298-8106-07e1fb9686f1","ios":"levelo://app?vid=23a3a450-3443-4298-8106-07e1fb9686f1"},"vehicle_type_id":"4","last_reported":1735906621,"current_range_meters":24000,"station_id":"ce4bgr92rcd13ifvqc6g","pricing_plan_id":"cebpf4jnsgd1na2vs0mg"},{"bike_id":"9085f317-eea3-445b-8bdd-28ff00ca8048","system_id":"levelo_inurba_marseille","lat":43.26693,"lon":5.38291,"is_reserved":false,"is_disabled":false,"rental_uris":{"android":"levelo://app?vid=9085f317-eea3-445b-8bdd-28ff00ca8048","ios":"levelo://app?vid=9085f317-eea3-445b-8bdd-28ff00ca8048"},"vehicle_type_id":"4","last_reported":1735906621,"current_range_meters":36400,"station_id":"ce4bhg92rcd13ifvqf90","pricing_plan_id":"cebpf4jnsgd1na2vs0mg"},{"bike_id":"a6f828f1-5f97-4da7-bf33-7d48a155db3e","system_id":"levelo_inurba_marseille","lat":43.27824,"lon":5.39206,"is_reserved":false,"is_disabled":false,"rental_uris":{"android":"levelo://app?vid=a6f828f1-5f97-4da7-bf33-7d48a155db3e","ios":"levelo://app?vid=a6f828f1-5f97-4da7-bf33-7d48a155db3e"},"vehicle_type_id":"4","last_reported":1735906621,"current_range_meters":30800,"station_id":"ce4bhjp2rcd13ifvqga0","pricing_plan_id":"cebpf4jnsgd1na2vs0mg"},{"bike_id":"3e3b1ec3-9ad8-4042-943e-28e74c8ae33f","system_id":"levelo_inurba_marseille","lat":43.31393,"lon":5.38486,"is_reserved":false,"is_disabled":false,"rental_uris":{"android":"levelo://app?vid=3e3b1ec3-9ad8-4042-943e-28e74c8ae33f","ios":"levelo://app?vid=3e3b1ec3-9ad8-4042-943e-28e74c8ae33f"},"vehicle_type_id":"4","last_reported":1735906621,"current_range_meters":38800,"station_id":"ce4bgt92rcd13ifvqcf0","pricing_plan_id":"cebpf4jnsgd1na2vs0mg"},{"bike_id":"2cb73bff-3a8c-4792-af59-167d685e0a29","system_id":"levelo_inurba_marseille","lat":43.31329,"lon":5.37502,"is_reserved":false,"is_disabled":false,"rental_uris":{"android":"levelo://app?vid=2cb73bff-3a8c-4792-af59-167d685e0a29","ios":"levelo://app?vid=2cb73bff-3a8c-4792-af59-167d685e0a29"},"vehicle_type_id":"4","last_reported":1735906621,"current_range_meters":36000,"station_id":"","pricing_plan_id":"cebpf4jnsgd1na2vs0mg"},{"bike_id":"03f24cb2-160b-4a7d-b55a-a5dd752a0817","system_id":"levelo_inurba_marseille","lat":43.28418,"lon":5.34978,"is_reserved":false,"is_disabled":false,"rental_uris":{"android":"levelo://app?vid=03f24cb2-160b-4a7d-b55a-a5dd752a0817","ios":"levelo://app?vid=03f24cb2-160b-4a7d-b55a-a5dd752a0817"},"vehicle_type_id":"4","last_reported":1735906621,"current_range_meters":29600,"station_id":"ce4bhbh2rcd13ifvqepg","pricing_plan_id":"cebpf4jnsgd1na2vs0mg"},{"bike_id":"798000dd-46a2-4078-be93-f63a78352ccc","system_id":"levelo_inurba_marseille","lat":43.2973,"lon":5.37696,"is_reserved":false,"is_disabled":false,"rental_uris":{"android":"levelo://app?vid=798000dd-46a2-4078-be93-f63a78352ccc","ios":"levelo://app?vid=798000dd-46a2-4078-be93-f63a78352ccc"},"vehicle_type_id":"4","last_reported":1735906621,"current_range_meters":33600,"station_id":"ce4bgkh2rcd13ifvqbl0","pricing_plan_id":"cebpf4jnsgd1na2vs0mg"},{"bike_id":"a674cf4e-6283-4ce6-8819-659a9495f9ad","system_id":"levelo_inurba_marseille","lat":43.29275,"lon":5.40915,"is_reserved":false,"is_disabled":false,"rental_uris":{"android":"levelo://app?vid=a674cf4e-6283-4ce6-8819-659a9495f9ad","ios":"levelo://app?vid=a674cf4e-6283-4ce6-8819-659a9495f9ad"},"vehicle_type_id":"4","last_reported":1735906621,"current_range_meters":31200,"station_id":"ce4bh192rcd13ifvqdc0","pricing_plan_id":"cebpf4jnsgd1na2vs0mg"},{"bike_id":"0fb09dc4-c559-469b-b944-d0167194cfca","system_id":"levelo_inurba_marseille","lat":43.27941,"lon":5.41053,"is_reserved":false,"is_disabled":true,"rental_uris":{"android":"levelo://app?vid=0fb09dc4-c559-469b-b944-d0167194cfca","ios":"levelo://app?vid=0fb09dc4-c559-469b-b944-d0167194cfca"},"vehicle_type_id":"4","last_reported":1735906621,"current_range_meters":1200,"station_id":"ce4bhnp2rcd13ifvqh0g","pricing_plan_id":"cebpf4jnsgd1na2vs0mg"},{"bike_id":"e763b9cf-65eb-4131-8b74-455e6f49dde4","system_id":"levelo_inurba_marseille","lat":43.32473,"lon":5.36563,"is_reserved":false,"is_disabled":false,"rental_uris":{"android":"levelo://app?vid=e763b9cf-65eb-4131-8b74-455e6f49dde4","ios":"levelo://app?vid=e763b9cf-65eb-4131-8b74-455e6f49dde4"},"vehicle_type_id":"4","last_reported":1735906621,"current_range_meters":11200,"station_id":"ce4bhs12rcd13ifvqhvg","pricing_plan_id":"cebpf4jnsgd1na2vs0mg"},{"bike_id":"5aa8a99e-4165-495b-8e30-7e69c2b58354","system_id":"levelo_inurba_marseille","lat":43.2672,"lon":5.38256,"is_reserved":false,"is_disabled":false,"rental_uris":{"android":"levelo://app?vid=5aa8a99e-4165-495b-8e30-7e69c2b58354","ios":"levelo://app?vid=5aa8a99e-4165-495b-8e30-7e69c2b58354"},"vehicle_type_id":"4","last_reported":1735906621,"current_range_meters":38800,"station_id":"ce4bhg92rcd13ifvqf90","pricing_plan_id":"cebpf4jnsgd1na2vs0mg"},{"bike_id":"f811a98b-9aa7-419d-8e74-1c4088ab1bbc","system_id":"levelo_inurba_marseille","lat":43.27071,"lon":5.4229,"is_reserved":false,"is_disabled":false,"rental_uris":{"android":"levelo://app?vid=f811a98b-9aa7-419d-8e74-1c4088ab1bbc","ios":"levelo://app?vid=f811a98b-9aa7-419d-8e74-1c4088ab1bbc"},"vehicle_type_id":"4","last_reported":1735906621,"current_range_meters":38800,"station_id":"ce4bhk92rcd13ifvqgb0","pricing_plan_id":"cebpf4jnsgd1na2vs0mg"},{"bike_id":"641d8acc-50b2-4173-ab23-c70f2a11d28e","system_id":"levelo_inurba_marseille","lat":43.28146,"lon":5.42644,"is_reserved":false,"is_disabled":true,"rental_uris":{"android":"levelo://app?vid=641d8acc-50b2-4173-ab23-c70f2a11d28e","ios":"levelo://app?vid=641d8acc-50b2-4173-ab23-c70f2a11d28e"},"vehicle_type_id":"4","last_reported":1735906621,"current_range_meters":38800,"station_id":"ce4bhnh2rcd13ifvqgug","pricing_plan_id":"cebpf4jnsgd1na2vs0mg"},{"bike_id":"f91168e5-3a6a-477b-824d-bfc9fbc12320","system_id":"levelo_inurba_marseille","lat":43.30314,"lon":5.369,"is_reserved":false,"is_disabled":false,"rental_uris":{"android":"levelo://app?vid=f91168e5-3a6a-477b-824d-bfc9fbc12320","ios":"levelo://app?vid=f91168e5-3a6a-477b-824d-bfc9fbc12320"},"vehicle_type_id":"4","last_reported":1735906621,"current_range_meters":39200,"station_id":"ce4bgqh2rcd13ifvqc5g","pricing_plan_id":"cebpf4jnsgd1na2vs0mg"},{"bike_id":"8e936699-fb94-4c05-a18e-6a31521ab968","system_id":"levelo_inurba_marseille","lat":43.28464,"lon":5.35895,"is_reserved":false,"is_disabled":true,"rental_uris":{"android":"levelo://app?vid=8e936699-fb94-4c05-a18e-6a31521ab968","ios":"levelo://app?vid=8e936699-fb94-4c05-a18e-6a31521ab968"},"vehicle_type_id":"4","last_reported":1735906621,"current_range_meters":36000,"station_id":"ce4bhah2rcd13ifvqei0","pricing_plan_id":"cebpf4jnsgd1na2vs0mg"},{"bike_id":"ce37f3ce-9264-4ff9-b558-5c1c06ce1d16","system_id":"levelo_inurba_marseille","lat":43.28704,"lon":5.37375,"is_reserved":false,"is_disabled":false,"rental_uris":{"android":"levelo://app?vid=ce37f3ce-9264-4ff9-b558-5c1c06ce1d16","ios":"levelo://app?vid=ce37f3ce-9264-4ff9-b558-5c1c06ce1d16"},"vehicle_type_id":"4","last_reported":1735906621,"current_range_meters":32000,"station_id":"ce4bh3p2rcd13ifvqdq0","pricing_plan_id":"cebpf4jnsgd1na2vs0mg"},{"bike_id":"d9039fb6-1526-43a5-ab47-bf6c74051347","system_id":"levelo_inurba_marseille","lat":43.28151,"lon":5.42665,"is_reserved":false,"is_disabled":false,"rental_uris":{"android":"levelo://app?vid=d9039fb6-1526-43a5-ab47-bf6c74051347","ios":"levelo://app?vid=d9039fb6-1526-43a5-ab47-bf6c74051347"},"vehicle_type_id":"4","last_reported":1735906621,"current_range_meters":37600,"station_id":"ce4bhnh2rcd13ifvqgug","pricing_plan_id":"cebpf4jnsgd1na2vs0mg"},{"bike_id":"4c5b21c9-cceb-4647-bd76-de90a80bb2e5","system_id":"levelo_inurba_marseille","lat":43.26675,"lon":5.38282,"is_reserved":false,"is_disabled":false,"rental_uris":{"android":"levelo://app?vid=4c5b21c9-cceb-4647-bd76-de90a80bb2e5","ios":"levelo://app?vid=4c5b21c9-cceb-4647-bd76-de90a80bb2e5"},"vehicle_type_id":"4","last_reported":1735906621,"current_range_meters":38800,"station_id":"ce4bhg92rcd13ifvqf90","pricing_plan_id":"cebpf4jnsgd1na2vs0mg"},{"bike_id":"e455576a-160a-4968-bd17-a0f8bcc0baae","system_id":"levelo_inurba_marseille","lat":43.28488,"lon":5.38435,"is_reserved":false,"is_disabled":false,"rental_uris":{"android":"levelo://app?vid=e455576a-160a-4968-bd17-a0f8bcc0baae","ios":"levelo://app?vid=e455576a-160a-4968-bd17-a0f8bcc0baae"},"vehicle_type_id":"4","last_reported":1735906621,"current_range_meters":31200,"station_id":"ce4bh512rcd13ifvqe3g","pricing_plan_id":"cebpf4jnsgd1na2vs0mg"},{"bike_id":"0672ed57-7d2e-45ac-a9be-79ab7dd676f5","system_id":"levelo_inurba_marseille","lat":43.28479,"lon":5.38431,"is_reserved":false,"is_disabled":false,"rental_uris":{"android":"levelo://app?vid=0672ed57-7d2e-45ac-a9be-79ab7dd676f5","ios":"levelo://app?vid=0672ed57-7d2e-45ac-a9be-79ab7dd676f5"},"vehicle_type_id":"4","last_reported":1735906621,"current_range_meters":35600,"station_id":"ce4bh512rcd13ifvqe3g","pricing_plan_id":"cebpf4jnsgd1na2vs0mg"},{"bike_id":"332371ec-f21d-4946-9a16-65b9efba6ecc","system_id":"levelo_inurba_marseille","lat":43.26223,"lon":5.37429,"is_reserved":false,"is_disabled":false,"rental_uris":{"android":"levelo://app?vid=332371ec-f21d-4946-9a16-65b9efba6ecc","ios":"levelo://app?vid=332371ec-f21d-4946-9a16-65b9efba6ecc"},"vehicle_type_id":"4","last_reported":1735906621,"current_range_meters":35200,"station_id":"ce4bhgp2rcd13ifvqfc0","pricing_plan_id":"cebpf4jnsgd1na2vs0mg"},{"bike_id":"5f97eee1-4bb9-43f4-8e6e-a0b21a58fdc8","system_id":"levelo_inurba_marseille","lat":43.318825,"lon":5.407305,"is_reserved":false,"is_disabled":false,"rental_uris":{"android":"levelo://app?vid=5f97eee1-4bb9-43f4-8e6e-a0b21a58fdc8","ios":"levelo://app?vid=5f97eee1-4bb9-43f4-8e6e-a0b21a58fdc8"},"vehicle_type_id":"4","last_reported":1735906621,"current_range_meters":38800,"station_id":"ce4bhq12rcd13ifvqhig","pricing_plan_id":"cebpf4jnsgd1na2vs0mg"},{"bike_id":"3ae31120-8eb0-4fad-8daf-2c2f7dd99836","system_id":"levelo_inurba_marseille","lat":43.29984,"lon":5.41295,"is_reserved":false,"is_disabled":false,"rental_uris":{"android":"levelo://app?vid=3ae31120-8eb0-4fad-8daf-2c2f7dd99836","ios":"levelo://app?vid=3ae31120-8eb0-4fad-8daf-2c2f7dd99836"},"vehicle_type_id":"4","last_reported":1735906621,"current_range_meters":26800,"station_id":"ce4bhp12rcd13ifvqh9g","pricing_plan_id":"cebpf4jnsgd1na2vs0mg"},{"bike_id":"3db5aeb0-8398-493e-9ecc-ac320e89f809","system_id":"levelo_inurba_marseille","lat":43.30592,"lon":5.36489,"is_reserved":false,"is_disabled":false,"rental_uris":{"android":"levelo://app?vid=3db5aeb0-8398-493e-9ecc-ac320e89f809","ios":"levelo://app?vid=3db5aeb0-8398-493e-9ecc-ac320e89f809"},"vehicle_type_id":"4","last_reported":1735906621,"current_range_meters":33600,"station_id":"ce4bgs12rcd13ifvqcag","pricing_plan_id":"cebpf4jnsgd1na2vs0mg"},{"bike_id":"fbee9c16-1cc7-4460-b653-41d924f15e3d","system_id":"levelo_inurba_marseille","lat":43.29985,"lon":5.4134,"is_reserved":false,"is_disabled":false,"rental_uris":{"android":"levelo://app?vid=fbee9c16-1cc7-4460-b653-41d924f15e3d","ios":"levelo://app?vid=fbee9c16-1cc7-4460-b653-41d924f15e3d"},"vehicle_type_id":"4","last_reported":1735906621,"current_range_meters":29600,"station_id":"ce4bhp12rcd13ifvqh9g","pricing_plan_id":"cebpf4jnsgd1na2vs0mg"},{"bike_id":"c142a247-dd9f-4d9f-a2f9-072e3030d7fa","system_id":"levelo_inurba_marseille","lat":43.3048,"lon":5.37902,"is_reserved":false,"is_disabled":false,"rental_uris":{"android":"levelo://app?vid=c142a247-dd9f-4d9f-a2f9-072e3030d7fa","ios":"levelo://app?vid=c142a247-dd9f-4d9f-a2f9-072e3030d7fa"},"vehicle_type_id":"4","last_reported":1735906621,"current_range_meters":38800,"station_id":"ce4bgup2rcd13ifvqcn0","pricing_plan_id":"cebpf4jnsgd1na2vs0mg"},{"bike_id":"526fef8f-bffd-4f4d-a333-54d6621ece46","system_id":"levelo_inurba_marseille","lat":43.30154,"lon":5.38095,"is_reserved":false,"is_disabled":false,"rental_uris":{"android":"levelo://app?vid=526fef8f-bffd-4f4d-a333-54d6621ece46","ios":"levelo://app?vid=526fef8f-bffd-4f4d-a333-54d6621ece46"},"vehicle_type_id":"4","last_reported":1735906621,"current_range_meters":38800,"station_id":"ce4bgjp2rcd13ifvqbh0","pricing_plan_id":"cebpf4jnsgd1na2vs0mg"},{"bike_id":"983a939f-0c90-4b41-8e07-1ba37a328643","system_id":"levelo_inurba_marseille","lat":43.241675,"lon":5.364093,"is_reserved":false,"is_disabled":false,"rental_uris":{"android":"levelo://app?vid=983a939f-0c90-4b41-8e07-1ba37a328643","ios":"levelo://app?vid=983a939f-0c90-4b41-8e07-1ba37a328643"},"vehicle_type_id":"4","last_reported":1735906621,"current_range_meters":28800,"station_id":"cpo36qri1sfpv3e86is0","pricing_plan_id":"cebpf4jnsgd1na2vs0mg"},{"bike_id":"4cbf4d20-cac6-455c-85de-8f0b001e42e9","system_id":"levelo_inurba_marseille","lat":43.299015,"lon":5.436697,"is_reserved":false,"is_disabled":false,"rental_uris":{"android":"levelo://app?vid=4cbf4d20-cac6-455c-85de-8f0b001e42e9","ios":"levelo://app?vid=4cbf4d20-cac6-455c-85de-8f0b001e42e9"},"vehicle_type_id":"4","last_reported":1735906621,"current_range_meters":37600,"station_id":"ce4bhpp2rcd13ifvqhfg","pricing_plan_id":"cebpf4jnsgd1na2vs0mg"},{"bike_id":"38010124-a2b0-4a82-bd2d-3d1c166f9f7c","system_id":"levelo_inurba_marseille","lat":43.27947,"lon":5.4104,"is_reserved":false,"is_disabled":false,"rental_uris":{"android":"levelo://app?vid=38010124-a2b0-4a82-bd2d-3d1c166f9f7c","ios":"levelo://app?vid=38010124-a2b0-4a82-bd2d-3d1c166f9f7c"},"vehicle_type_id":"4","last_reported":1735906621,"current_range_meters":4400,"station_id":"ce4bhnp2rcd13ifvqh0g","pricing_plan_id":"cebpf4jnsgd1na2vs0mg"},{"bike_id":"39ce2e6b-2931-4b52-8a04-b37c7c18e720","system_id":"levelo_inurba_marseille","lat":43.27219,"lon":5.392,"is_reserved":false,"is_disabled":false,"rental_uris":{"android":"levelo://app?vid=39ce2e6b-2931-4b52-8a04-b37c7c18e720","ios":"levelo://app?vid=39ce2e6b-2931-4b52-8a04-b37c7c18e720"},"vehicle_type_id":"4","last_reported":1735906621,"current_range_meters":37600,"station_id":"ce4bhhp2rcd13ifvqfm0","pricing_plan_id":"cebpf4jnsgd1na2vs0mg"},{"bike_id":"1df3f686-7a5b-4b27-a323-3ea93b91e5eb","system_id":"levelo_inurba_marseille","lat":43.28453,"lon":5.38429,"is_reserved":false,"is_disabled":true,"rental_uris":{"android":"levelo://app?vid=1df3f686-7a5b-4b27-a323-3ea93b91e5eb","ios":"levelo://app?vid=1df3f686-7a5b-4b27-a323-3ea93b91e5eb"},"vehicle_type_id":"4","last_reported":1735906621,"current_range_meters":32400,"station_id":"ce4bh512rcd13ifvqe3g","pricing_plan_id":"cebpf4jnsgd1na2vs0mg"},{"bike_id":"69451bb6-12be-4835-9bf5-ff7d6ca2b8b7","system_id":"levelo_inurba_marseille","lat":43.29293,"lon":5.36826,"is_reserved":false,"is_disabled":false,"rental_uris":{"android":"levelo://app?vid=69451bb6-12be-4835-9bf5-ff7d6ca2b8b7","ios":"levelo://app?vid=69451bb6-12be-4835-9bf5-ff7d6ca2b8b7"},"vehicle_type_id":"4","last_reported":1735906621,"current_range_meters":36000,"station_id":"ce4bhbp2rcd13ifvqesg","pricing_plan_id":"cebpf4jnsgd1na2vs0mg"},{"bike_id":"349a4ab8-6f13-4948-be71-abaadb9466ee","system_id":"levelo_inurba_marseille","lat":43.24059,"lon":5.37769,"is_reserved":false,"is_disabled":false,"rental_uris":{"android":"levelo://app?vid=349a4ab8-6f13-4948-be71-abaadb9466ee","ios":"levelo://app?vid=349a4ab8-6f13-4948-be71-abaadb9466ee"},"vehicle_type_id":"4","last_reported":1735906621,"current_range_meters":38000,"station_id":"ce4bhnp2rcd13ifvqgvg","pricing_plan_id":"cebpf4jnsgd1na2vs0mg"},{"bike_id":"90c49591-0d78-443b-82b7-0d05912252cb","system_id":"levelo_inurba_marseille","lat":43.2978,"lon":5.38098,"is_reserved":false,"is_disabled":false,"rental_uris":{"android":"levelo://app?vid=90c49591-0d78-443b-82b7-0d05912252cb","ios":"levelo://app?vid=90c49591-0d78-443b-82b7-0d05912252cb"},"vehicle_type_id":"4","last_reported":1735906621,"current_range_meters":20000,"station_id":"ce4bgip2rcd13ifvqbb0","pricing_plan_id":"cebpf4jnsgd1na2vs0mg"},{"bike_id":"97829712-45ed-44f4-98b1-03aec2ad37f0","system_id":"levelo_inurba_marseille","lat":43.26682,"lon":5.383,"is_reserved":false,"is_disabled":false,"rental_uris":{"android":"levelo://app?vid=97829712-45ed-44f4-98b1-03aec2ad37f0","ios":"levelo://app?vid=97829712-45ed-44f4-98b1-03aec2ad37f0"},"vehicle_type_id":"4","last_reported":1735906621,"current_range_meters":38800,"station_id":"ce4bhg92rcd13ifvqf90","pricing_plan_id":"cebpf4jnsgd1na2vs0mg"},{"bike_id":"918a7f3b-b978-4cce-be8e-a2d881ee9971","system_id":"levelo_inurba_marseille","lat":43.29551,"lon":5.42291,"is_reserved":false,"is_disabled":false,"rental_uris":{"android":"levelo://app?vid=918a7f3b-b978-4cce-be8e-a2d881ee9971","ios":"levelo://app?vid=918a7f3b-b978-4cce-be8e-a2d881ee9971"},"vehicle_type_id":"4","last_reported":1735906621,"current_range_meters":30000,"station_id":"ce4bhph2rcd13ifvqhdg","pricing_plan_id":"cebpf4jnsgd1na2vs0mg"},{"bike_id":"f3998a04-3b93-4948-8eb7-aa16047370fd","system_id":"levelo_inurba_marseille","lat":43.27951,"lon":5.41048,"is_reserved":false,"is_disabled":false,"rental_uris":{"android":"levelo://app?vid=f3998a04-3b93-4948-8eb7-aa16047370fd","ios":"levelo://app?vid=f3998a04-3b93-4948-8eb7-aa16047370fd"},"vehicle_type_id":"4","last_reported":1735906621,"current_range_meters":18000,"station_id":"ce4bhnp2rcd13ifvqh0g","pricing_plan_id":"cebpf4jnsgd1na2vs0mg"},{"bike_id":"d59d325a-1808-4de1-b6c1-8484888e38a3","system_id":"levelo_inurba_marseille","lat":43.30098,"lon":5.39094,"is_reserved":false,"is_disabled":true,"rental_uris":{"android":"levelo://app?vid=d59d325a-1808-4de1-b6c1-8484888e38a3","ios":"levelo://app?vid=d59d325a-1808-4de1-b6c1-8484888e38a3"},"vehicle_type_id":"4","last_reported":1735906621,"current_range_meters":34000,"station_id":"ce4bh192rcd13ifvqdb0","pricing_plan_id":"cebpf4jnsgd1na2vs0mg"},{"bike_id":"b8427470-c237-4b6a-a3e9-699cff2096e8","system_id":"levelo_inurba_marseille","lat":43.23963,"lon":5.36632,"is_reserved":false,"is_disabled":false,"rental_uris":{"android":"levelo://app?vid=b8427470-c237-4b6a-a3e9-699cff2096e8","ios":"levelo://app?vid=b8427470-c237-4b6a-a3e9-699cff2096e8"},"vehicle_type_id":"4","last_reported":1735906621,"current_range_meters":27200,"station_id":"ce4bhi12rcd13ifvqfp0","pricing_plan_id":"cebpf4jnsgd1na2vs0mg"},{"bike_id":"9a633b20-48e1-4d57-88ca-cc77983ef0f1","system_id":"levelo_inurba_marseille","lat":43.28147,"lon":5.42659,"is_reserved":false,"is_disabled":false,"rental_uris":{"android":"levelo://app?vid=9a633b20-48e1-4d57-88ca-cc77983ef0f1","ios":"levelo://app?vid=9a633b20-48e1-4d57-88ca-cc77983ef0f1"},"vehicle_type_id":"4","last_reported":1735906621,"current_range_meters":12000,"station_id":"ce4bhnh2rcd13ifvqgug","pricing_plan_id":"cebpf4jnsgd1na2vs0mg"},{"bike_id":"63bd9e51-f3f7-419c-aee7-3da94177a3d4","system_id":"levelo_inurba_marseille","lat":43.306073,"lon":5.3723,"is_reserved":false,"is_disabled":false,"rental_uris":{"android":"levelo://app?vid=63bd9e51-f3f7-419c-aee7-3da94177a3d4","ios":"levelo://app?vid=63bd9e51-f3f7-419c-aee7-3da94177a3d4"},"vehicle_type_id":"4","last_reported":1735906621,"current_range_meters":30000,"station_id":"ce4bgqh2rcd13ifvqc4g","pricing_plan_id":"cebpf4jnsgd1na2vs0mg"},{"bike_id":"2353e971-d701-4994-9e8e-54512b2a7747","system_id":"levelo_inurba_marseille","lat":43.30925,"lon":5.40146,"is_reserved":false,"is_disabled":false,"rental_uris":{"android":"levelo://app?vid=2353e971-d701-4994-9e8e-54512b2a7747","ios":"levelo://app?vid=2353e971-d701-4994-9e8e-54512b2a7747"},"vehicle_type_id":"4","last_reported":1735906621,"current_range_meters":35200,"station_id":"ce4bgvp2rcd13ifvqct0","pricing_plan_id":"cebpf4jnsgd1na2vs0mg"},{"bike_id":"eaecfcca-aa89-4e9a-8d17-c5be1539665b","system_id":"levelo_inurba_marseille","lat":43.28265,"lon":5.35073,"is_reserved":false,"is_disabled":true,"rental_uris":{"android":"levelo://app?vid=eaecfcca-aa89-4e9a-8d17-c5be1539665b","ios":"levelo://app?vid=eaecfcca-aa89-4e9a-8d17-c5be1539665b"},"vehicle_type_id":"4","last_reported":1735906621,"current_range_meters":10800,"station_id":"ce4bhbp2rcd13ifvqerg","pricing_plan_id":"cebpf4jnsgd1na2vs0mg"},{"bike_id":"43c64af5-9471-4260-89db-8ab112e03a32","system_id":"levelo_inurba_marseille","lat":43.27494,"lon":5.42456,"is_reserved":false,"is_disabled":false,"rental_uris":{"android":"levelo://app?vid=43c64af5-9471-4260-89db-8ab112e03a32","ios":"levelo://app?vid=43c64af5-9471-4260-89db-8ab112e03a32"},"vehicle_type_id":"4","last_reported":1735906621,"current_range_meters":38800,"station_id":"ce4bhn92rcd13ifvqgrg","pricing_plan_id":"cebpf4jnsgd1na2vs0mg"},{"bike_id":"c2dac5a0-dbf8-4381-84e9-a68d0e474b8c","system_id":"levelo_inurba_marseille","lat":43.29704,"lon":5.37712,"is_reserved":false,"is_disabled":false,"rental_uris":{"android":"levelo://app?vid=c2dac5a0-dbf8-4381-84e9-a68d0e474b8c","ios":"levelo://app?vid=c2dac5a0-dbf8-4381-84e9-a68d0e474b8c"},"vehicle_type_id":"4","last_reported":1735906621,"current_range_meters":19600,"station_id":"ce4bgkh2rcd13ifvqbl0","pricing_plan_id":"cebpf4jnsgd1na2vs0mg"},{"bike_id":"e3500b3e-9ccc-40ea-8412-2d1d00838d39","system_id":"levelo_inurba_marseille","lat":43.28719,"lon":5.40002,"is_reserved":false,"is_disabled":false,"rental_uris":{"android":"levelo://app?vid=e3500b3e-9ccc-40ea-8412-2d1d00838d39","ios":"levelo://app?vid=e3500b3e-9ccc-40ea-8412-2d1d00838d39"},"vehicle_type_id":"4","last_reported":1735906621,"current_range_meters":25600,"station_id":"ce4bho92rcd13ifvqh3g","pricing_plan_id":"cebpf4jnsgd1na2vs0mg"},{"bike_id":"6b9cfaf2-6082-4040-bcc2-aee3eda90336","system_id":"levelo_inurba_marseille","lat":43.30534,"lon":5.36549,"is_reserved":false,"is_disabled":false,"rental_uris":{"android":"levelo://app?vid=6b9cfaf2-6082-4040-bcc2-aee3eda90336","ios":"levelo://app?vid=6b9cfaf2-6082-4040-bcc2-aee3eda90336"},"vehicle_type_id":"4","last_reported":1735906621,"current_range_meters":36800,"station_id":"ce4bgs12rcd13ifvqcag","pricing_plan_id":"cebpf4jnsgd1na2vs0mg"},{"bike_id":"a106e2d5-d5f8-4132-b59f-a0b0becc7d1d","system_id":"levelo_inurba_marseille","lat":43.27989,"lon":5.40041,"is_reserved":false,"is_disabled":false,"rental_uris":{"android":"levelo://app?vid=a106e2d5-d5f8-4132-b59f-a0b0becc7d1d","ios":"levelo://app?vid=a106e2d5-d5f8-4132-b59f-a0b0becc7d1d"},"vehicle_type_id":"4","last_reported":1735906621,"current_range_meters":39200,"station_id":"ce4bho92rcd13ifvqh4g","pricing_plan_id":"cebpf4jnsgd1na2vs0mg"},{"bike_id":"1448f7c7-07f3-456e-9c17-066be45dc491","system_id":"levelo_inurba_marseille","lat":43.28373,"lon":5.38645,"is_reserved":false,"is_disabled":false,"rental_uris":{"android":"levelo://app?vid=1448f7c7-07f3-456e-9c17-066be45dc491","ios":"levelo://app?vid=1448f7c7-07f3-456e-9c17-066be45dc491"},"vehicle_type_id":"4","last_reported":1735906621,"current_range_meters":25600,"station_id":"ce4bh492rcd13ifvqdvg","pricing_plan_id":"cebpf4jnsgd1na2vs0mg"},{"bike_id":"f3c12ef4-82bd-48ff-8ba6-8f2c9a44f8b9","system_id":"levelo_inurba_marseille","lat":43.248055,"lon":5.374569,"is_reserved":false,"is_disabled":false,"rental_uris":{"android":"levelo://app?vid=f3c12ef4-82bd-48ff-8ba6-8f2c9a44f8b9","ios":"levelo://app?vid=f3c12ef4-82bd-48ff-8ba6-8f2c9a44f8b9"},"vehicle_type_id":"4","last_reported":1735906621,"current_range_meters":38800,"station_id":"ce4bhgh2rcd13ifvqfb0","pricing_plan_id":"cebpf4jnsgd1na2vs0mg"},{"bike_id":"def36ed6-f9e1-48ab-bc0b-b9c1311e69be","system_id":"levelo_inurba_marseille","lat":43.25486,"lon":5.37684,"is_reserved":false,"is_disabled":false,"rental_uris":{"android":"levelo://app?vid=def36ed6-f9e1-48ab-bc0b-b9c1311e69be","ios":"levelo://app?vid=def36ed6-f9e1-48ab-bc0b-b9c1311e69be"},"vehicle_type_id":"4","last_reported":1735906621,"current_range_meters":38800,"station_id":"ce4bhh12rcd13ifvqff0","pricing_plan_id":"cebpf4jnsgd1na2vs0mg"},{"bike_id":"660aed1d-cdeb-4a3c-a6d4-d19ef9a2563b","system_id":"levelo_inurba_marseille","lat":43.29893,"lon":5.43665,"is_reserved":false,"is_disabled":false,"rental_uris":{"android":"levelo://app?vid=660aed1d-cdeb-4a3c-a6d4-d19ef9a2563b","ios":"levelo://app?vid=660aed1d-cdeb-4a3c-a6d4-d19ef9a2563b"},"vehicle_type_id":"4","last_reported":1735906621,"current_range_meters":36400,"station_id":"ce4bhpp2rcd13ifvqhfg","pricing_plan_id":"cebpf4jnsgd1na2vs0mg"},{"bike_id":"725999bb-8b32-4e5b-95fc-d63880a1b626","system_id":"levelo_inurba_marseille","lat":43.32656,"lon":5.41009,"is_reserved":false,"is_disabled":false,"rental_uris":{"android":"levelo://app?vid=725999bb-8b32-4e5b-95fc-d63880a1b626","ios":"levelo://app?vid=725999bb-8b32-4e5b-95fc-d63880a1b626"},"vehicle_type_id":"4","last_reported":1735906621,"current_range_meters":39200,"station_id":"ce4bhpp2rcd13ifvqhgg","pricing_plan_id":"cebpf4jnsgd1na2vs0mg"},{"bike_id":"7884a4ce-2ee8-4ff7-9e9f-a95fec00f69b","system_id":"levelo_inurba_marseille","lat":43.28496,"lon":5.38428,"is_reserved":false,"is_disabled":false,"rental_uris":{"android":"levelo://app?vid=7884a4ce-2ee8-4ff7-9e9f-a95fec00f69b","ios":"levelo://app?vid=7884a4ce-2ee8-4ff7-9e9f-a95fec00f69b"},"vehicle_type_id":"4","last_reported":1735906621,"current_range_meters":24400,"station_id":"ce4bh512rcd13ifvqe3g","pricing_plan_id":"cebpf4jnsgd1na2vs0mg"},{"bike_id":"123a3880-66e4-4a19-a99e-7253f12bf50c","system_id":"levelo_inurba_marseille","lat":43.25932,"lon":5.40899,"is_reserved":false,"is_disabled":false,"rental_uris":{"android":"levelo://app?vid=123a3880-66e4-4a19-a99e-7253f12bf50c","ios":"levelo://app?vid=123a3880-66e4-4a19-a99e-7253f12bf50c"},"vehicle_type_id":"4","last_reported":1735906621,"current_range_meters":19600,"station_id":"ce4bhm92rcd13ifvqglg","pricing_plan_id":"cebpf4jnsgd1na2vs0mg"},{"bike_id":"e5886b56-b0a6-40de-ba9e-b9122806bd81","system_id":"levelo_inurba_marseille","lat":43.3266,"lon":5.40992,"is_reserved":false,"is_disabled":false,"rental_uris":{"android":"levelo://app?vid=e5886b56-b0a6-40de-ba9e-b9122806bd81","ios":"levelo://app?vid=e5886b56-b0a6-40de-ba9e-b9122806bd81"},"vehicle_type_id":"4","last_reported":1735906621,"current_range_meters":30800,"station_id":"ce4bhpp2rcd13ifvqhgg","pricing_plan_id":"cebpf4jnsgd1na2vs0mg"},{"bike_id":"96cb6bae-f2f5-4454-84e9-1e631669b024","system_id":"levelo_inurba_marseille","lat":43.28504,"lon":5.39111,"is_reserved":false,"is_disabled":false,"rental_uris":{"android":"levelo://app?vid=96cb6bae-f2f5-4454-84e9-1e631669b024","ios":"levelo://app?vid=96cb6bae-f2f5-4454-84e9-1e631669b024"},"vehicle_type_id":"4","last_reported":1735906621,"current_range_meters":38800,"station_id":"","pricing_plan_id":"cebpf4jnsgd1na2vs0mg"},{"bike_id":"24823ac4-a4c5-447f-be6c-22910c5d2703","system_id":"levelo_inurba_marseille","lat":43.28482,"lon":5.38419,"is_reserved":false,"is_disabled":false,"rental_uris":{"android":"levelo://app?vid=24823ac4-a4c5-447f-be6c-22910c5d2703","ios":"levelo://app?vid=24823ac4-a4c5-447f-be6c-22910c5d2703"},"vehicle_type_id":"4","last_reported":1735906621,"current_range_meters":24400,"station_id":"ce4bh512rcd13ifvqe3g","pricing_plan_id":"cebpf4jnsgd1na2vs0mg"},{"bike_id":"fdb25d5f-5042-41f0-ac5b-ae98153a6879","system_id":"levelo_inurba_marseille","lat":43.27988,"lon":5.40035,"is_reserved":false,"is_disabled":false,"rental_uris":{"android":"levelo://app?vid=fdb25d5f-5042-41f0-ac5b-ae98153a6879","ios":"levelo://app?vid=fdb25d5f-5042-41f0-ac5b-ae98153a6879"},"vehicle_type_id":"4","last_reported":1735906621,"current_range_meters":38400,"station_id":"ce4bho92rcd13ifvqh4g","pricing_plan_id":"cebpf4jnsgd1na2vs0mg"},{"bike_id":"8bc1d4de-ed7c-4f43-9f83-7b3427d7e227","system_id":"levelo_inurba_marseille","lat":43.30319,"lon":5.36896,"is_reserved":false,"is_disabled":false,"rental_uris":{"android":"levelo://app?vid=8bc1d4de-ed7c-4f43-9f83-7b3427d7e227","ios":"levelo://app?vid=8bc1d4de-ed7c-4f43-9f83-7b3427d7e227"},"vehicle_type_id":"4","last_reported":1735906621,"current_range_meters":38800,"station_id":"ce4bgqh2rcd13ifvqc5g","pricing_plan_id":"cebpf4jnsgd1na2vs0mg"},{"bike_id":"d9e7591d-4e69-4829-a945-5299a0d4f5d3","system_id":"levelo_inurba_marseille","lat":43.31889,"lon":5.40735,"is_reserved":false,"is_disabled":false,"rental_uris":{"android":"levelo://app?vid=d9e7591d-4e69-4829-a945-5299a0d4f5d3","ios":"levelo://app?vid=d9e7591d-4e69-4829-a945-5299a0d4f5d3"},"vehicle_type_id":"4","last_reported":1735906621,"current_range_meters":14800,"station_id":"ce4bhq12rcd13ifvqhig","pricing_plan_id":"cebpf4jnsgd1na2vs0mg"},{"bike_id":"4e2e926a-cc62-4529-8b24-3abbcf0f0be2","system_id":"levelo_inurba_marseille","lat":43.23195,"lon":5.35552,"is_reserved":false,"is_disabled":false,"rental_uris":{"android":"levelo://app?vid=4e2e926a-cc62-4529-8b24-3abbcf0f0be2","ios":"levelo://app?vid=4e2e926a-cc62-4529-8b24-3abbcf0f0be2"},"vehicle_type_id":"4","last_reported":1735906621,"current_range_meters":32800,"station_id":"ce4bhu92rcd13ifvqi70","pricing_plan_id":"cebpf4jnsgd1na2vs0mg"},{"bike_id":"4a89ebb6-73ff-49a0-aad9-480369e7d9f4","system_id":"levelo_inurba_marseille","lat":43.26205,"lon":5.37915,"is_reserved":false,"is_disabled":false,"rental_uris":{"android":"levelo://app?vid=4a89ebb6-73ff-49a0-aad9-480369e7d9f4","ios":"levelo://app?vid=4a89ebb6-73ff-49a0-aad9-480369e7d9f4"},"vehicle_type_id":"4","last_reported":1735906621,"current_range_meters":39200,"station_id":"ce4bhjp2rcd13ifvqg90","pricing_plan_id":"cebpf4jnsgd1na2vs0mg"},{"bike_id":"fad686cb-7028-4213-92df-743528ea5468","system_id":"levelo_inurba_marseille","lat":43.24193,"lon":5.39731,"is_reserved":false,"is_disabled":false,"rental_uris":{"android":"levelo://app?vid=fad686cb-7028-4213-92df-743528ea5468","ios":"levelo://app?vid=fad686cb-7028-4213-92df-743528ea5468"},"vehicle_type_id":"4","last_reported":1735906621,"current_range_meters":3200,"station_id":"ce4bhn12rcd13ifvqgpg","pricing_plan_id":"cebpf4jnsgd1na2vs0mg"},{"bike_id":"4099e364-d3d5-4e70-b9a6-6d1dbcbab17c","system_id":"levelo_inurba_marseille","lat":43.28095,"lon":5.39659,"is_reserved":false,"is_disabled":true,"rental_uris":{"android":"levelo://app?vid=4099e364-d3d5-4e70-b9a6-6d1dbcbab17c","ios":"levelo://app?vid=4099e364-d3d5-4e70-b9a6-6d1dbcbab17c"},"vehicle_type_id":"4","last_reported":1735906621,"current_range_meters":0,"station_id":"ce4bho12rcd13ifvqh2g","pricing_plan_id":"cebpf4jnsgd1na2vs0mg"},{"bike_id":"f09438e5-9609-461a-96a4-815373583260","system_id":"levelo_inurba_marseille","lat":43.29715,"lon":5.3769,"is_reserved":false,"is_disabled":false,"rental_uris":{"android":"levelo://app?vid=f09438e5-9609-461a-96a4-815373583260","ios":"levelo://app?vid=f09438e5-9609-461a-96a4-815373583260"},"vehicle_type_id":"4","last_reported":1735906621,"current_range_meters":25600,"station_id":"ce4bgkh2rcd13ifvqbl0","pricing_plan_id":"cebpf4jnsgd1na2vs0mg"},{"bike_id":"91bd215c-cf5d-49bb-b4b3-f2af815209eb","system_id":"levelo_inurba_marseille","lat":43.27617,"lon":5.36117,"is_reserved":false,"is_disabled":false,"rental_uris":{"android":"levelo://app?vid=91bd215c-cf5d-49bb-b4b3-f2af815209eb","ios":"levelo://app?vid=91bd215c-cf5d-49bb-b4b3-f2af815209eb"},"vehicle_type_id":"4","last_reported":1735906621,"current_range_meters":38800,"station_id":"ce4bgj92rcd13ifvqbe0","pricing_plan_id":"cebpf4jnsgd1na2vs0mg"},{"bike_id":"b7fa5b69-b97f-4e4c-bafc-6cdc4bb0414c","system_id":"levelo_inurba_marseille","lat":43.28681,"lon":5.38669,"is_reserved":false,"is_disabled":false,"rental_uris":{"android":"levelo://app?vid=b7fa5b69-b97f-4e4c-bafc-6cdc4bb0414c","ios":"levelo://app?vid=b7fa5b69-b97f-4e4c-bafc-6cdc4bb0414c"},"vehicle_type_id":"4","last_reported":1735906621,"current_range_meters":33600,"station_id":"ce4bh492rcd13ifvqdug","pricing_plan_id":"cebpf4jnsgd1na2vs0mg"},{"bike_id":"c345efe7-8167-4493-8411-2427ecfa0edc","system_id":"levelo_inurba_marseille","lat":43.23964,"lon":5.36628,"is_reserved":false,"is_disabled":false,"rental_uris":{"android":"levelo://app?vid=c345efe7-8167-4493-8411-2427ecfa0edc","ios":"levelo://app?vid=c345efe7-8167-4493-8411-2427ecfa0edc"},"vehicle_type_id":"4","last_reported":1735906621,"current_range_meters":14400,"station_id":"ce4bhi12rcd13ifvqfp0","pricing_plan_id":"cebpf4jnsgd1na2vs0mg"},{"bike_id":"20877931-d020-4d46-85f9-75614b926481","system_id":"levelo_inurba_marseille","lat":43.29524,"lon":5.375046,"is_reserved":false,"is_disabled":false,"rental_uris":{"android":"levelo://app?vid=20877931-d020-4d46-85f9-75614b926481","ios":"levelo://app?vid=20877931-d020-4d46-85f9-75614b926481"},"vehicle_type_id":"4","last_reported":1735906621,"current_range_meters":22800,"station_id":"ce4bgkp2rcd13ifvqbmg","pricing_plan_id":"cebpf4jnsgd1na2vs0mg"},{"bike_id":"660b7ace-c178-43e8-8a34-3d3581291e05","system_id":"levelo_inurba_marseille","lat":43.29791,"lon":5.38105,"is_reserved":false,"is_disabled":false,"rental_uris":{"android":"levelo://app?vid=660b7ace-c178-43e8-8a34-3d3581291e05","ios":"levelo://app?vid=660b7ace-c178-43e8-8a34-3d3581291e05"},"vehicle_type_id":"4","last_reported":1735906621,"current_range_meters":39200,"station_id":"ce4bgip2rcd13ifvqbb0","pricing_plan_id":"cebpf4jnsgd1na2vs0mg"},{"bike_id":"a10cb38b-c0a9-46c5-81e3-8b36eafcdd96","system_id":"levelo_inurba_marseille","lat":43.2895,"lon":5.37885,"is_reserved":false,"is_disabled":false,"rental_uris":{"android":"levelo://app?vid=a10cb38b-c0a9-46c5-81e3-8b36eafcdd96","ios":"levelo://app?vid=a10cb38b-c0a9-46c5-81e3-8b36eafcdd96"},"vehicle_type_id":"4","last_reported":1735906621,"current_range_meters":32000,"station_id":"ce4bh9p2rcd13ifvqed0","pricing_plan_id":"cebpf4jnsgd1na2vs0mg"},{"bike_id":"eb9e72f1-4b23-49f0-b4c5-641961bcb568","system_id":"levelo_inurba_marseille","lat":43.28151,"lon":5.42653,"is_reserved":false,"is_disabled":false,"rental_uris":{"android":"levelo://app?vid=eb9e72f1-4b23-49f0-b4c5-641961bcb568","ios":"levelo://app?vid=eb9e72f1-4b23-49f0-b4c5-641961bcb568"},"vehicle_type_id":"4","last_reported":1735906621,"current_range_meters":21600,"station_id":"ce4bhnh2rcd13ifvqgug","pricing_plan_id":"cebpf4jnsgd1na2vs0mg"},{"bike_id":"e86e8a6b-2981-4147-9bb2-a5ab92db9450","system_id":"levelo_inurba_marseille","lat":43.2816,"lon":5.42646,"is_reserved":false,"is_disabled":false,"rental_uris":{"android":"levelo://app?vid=e86e8a6b-2981-4147-9bb2-a5ab92db9450","ios":"levelo://app?vid=e86e8a6b-2981-4147-9bb2-a5ab92db9450"},"vehicle_type_id":"4","last_reported":1735906621,"current_range_meters":37600,"station_id":"ce4bhnh2rcd13ifvqgug","pricing_plan_id":"cebpf4jnsgd1na2vs0mg"},{"bike_id":"36f6af84-b4ea-4fc7-b4cf-bfa109fbf38e","system_id":"levelo_inurba_marseille","lat":43.281515,"lon":5.426435,"is_reserved":false,"is_disabled":false,"rental_uris":{"android":"levelo://app?vid=36f6af84-b4ea-4fc7-b4cf-bfa109fbf38e","ios":"levelo://app?vid=36f6af84-b4ea-4fc7-b4cf-bfa109fbf38e"},"vehicle_type_id":"4","last_reported":1735906621,"current_range_meters":38800,"station_id":"ce4bhnh2rcd13ifvqgug","pricing_plan_id":"cebpf4jnsgd1na2vs0mg"},{"bike_id":"9e355527-7ae0-4d5b-8166-e02ef3c11259","system_id":"levelo_inurba_marseille","lat":43.29539,"lon":5.3749,"is_reserved":false,"is_disabled":false,"rental_uris":{"android":"levelo://app?vid=9e355527-7ae0-4d5b-8166-e02ef3c11259","ios":"levelo://app?vid=9e355527-7ae0-4d5b-8166-e02ef3c11259"},"vehicle_type_id":"4","last_reported":1735906621,"current_range_meters":36800,"station_id":"ce4bgkp2rcd13ifvqbmg","pricing_plan_id":"cebpf4jnsgd1na2vs0mg"},{"bike_id":"5367a292-5564-4681-91cd-97babb89fc00","system_id":"levelo_inurba_marseille","lat":43.22912,"lon":5.354,"is_reserved":false,"is_disabled":false,"rental_uris":{"android":"levelo://app?vid=5367a292-5564-4681-91cd-97babb89fc00","ios":"levelo://app?vid=5367a292-5564-4681-91cd-97babb89fc00"},"vehicle_type_id":"4","last_reported":1735906621,"current_range_meters":11200,"station_id":"cpo3532slgdg3j2ikp40","pricing_plan_id":"cebpf4jnsgd1na2vs0mg"},{"bike_id":"e40b8873-a7cf-4e56-b106-d515344f64c4","system_id":"levelo_inurba_marseille","lat":43.23184,"lon":5.35591,"is_reserved":false,"is_disabled":false,"rental_uris":{"android":"levelo://app?vid=e40b8873-a7cf-4e56-b106-d515344f64c4","ios":"levelo://app?vid=e40b8873-a7cf-4e56-b106-d515344f64c4"},"vehicle_type_id":"4","last_reported":1735906621,"current_range_meters":38800,"station_id":"ce4bhu92rcd13ifvqi70","pricing_plan_id":"cebpf4jnsgd1na2vs0mg"},{"bike_id":"323b0c30-3f8d-4739-937d-d0cf8a2a71b6","system_id":"levelo_inurba_marseille","lat":43.24547,"lon":5.39544,"is_reserved":false,"is_disabled":false,"rental_uris":{"android":"levelo://app?vid=323b0c30-3f8d-4739-937d-d0cf8a2a71b6","ios":"levelo://app?vid=323b0c30-3f8d-4739-937d-d0cf8a2a71b6"},"vehicle_type_id":"4","last_reported":1735906621,"current_range_meters":38800,"station_id":"ce4bhlp2rcd13ifvqgjg","pricing_plan_id":"cebpf4jnsgd1na2vs0mg"},{"bike_id":"9027064e-6565-4c6d-8145-3a52c0a6a72f","system_id":"levelo_inurba_marseille","lat":43.29855,"lon":5.36296,"is_reserved":false,"is_disabled":true,"rental_uris":{"android":"levelo://app?vid=9027064e-6565-4c6d-8145-3a52c0a6a72f","ios":"levelo://app?vid=9027064e-6565-4c6d-8145-3a52c0a6a72f"},"vehicle_type_id":"4","last_reported":1735906621,"current_range_meters":38800,"station_id":"ce4bgpp2rcd13ifvqc3g","pricing_plan_id":"cebpf4jnsgd1na2vs0mg"},{"bike_id":"10f7e96c-9495-4a90-a087-b3792415cb05","system_id":"levelo_inurba_marseille","lat":43.30921,"lon":5.36847,"is_reserved":false,"is_disabled":false,"rental_uris":{"android":"levelo://app?vid=10f7e96c-9495-4a90-a087-b3792415cb05","ios":"levelo://app?vid=10f7e96c-9495-4a90-a087-b3792415cb05"},"vehicle_type_id":"4","last_reported":1735906621,"current_range_meters":38000,"station_id":"ce4bgn92rcd13ifvqbvg","pricing_plan_id":"cebpf4jnsgd1na2vs0mg"},{"bike_id":"02dd589b-40e9-44d6-8ae1-d20c3efc2085","system_id":"levelo_inurba_marseille","lat":43.27962,"lon":5.38714,"is_reserved":false,"is_disabled":false,"rental_uris":{"android":"levelo://app?vid=02dd589b-40e9-44d6-8ae1-d20c3efc2085","ios":"levelo://app?vid=02dd589b-40e9-44d6-8ae1-d20c3efc2085"},"vehicle_type_id":"4","last_reported":1735906621,"current_range_meters":35600,"station_id":"ce4bhg12rcd13ifvqf80","pricing_plan_id":"cebpf4jnsgd1na2vs0mg"},{"bike_id":"6fce06c9-9bfc-48fb-9d2e-249a3534e237","system_id":"levelo_inurba_marseille","lat":43.26553,"lon":5.39039,"is_reserved":false,"is_disabled":false,"rental_uris":{"android":"levelo://app?vid=6fce06c9-9bfc-48fb-9d2e-249a3534e237","ios":"levelo://app?vid=6fce06c9-9bfc-48fb-9d2e-249a3534e237"},"vehicle_type_id":"4","last_reported":1735906621,"current_range_meters":32400,"station_id":"ce4bhe12rcd13ifvqf30","pricing_plan_id":"cebpf4jnsgd1na2vs0mg"},{"bike_id":"7e569f70-c448-470b-8a8e-d29c17895b31","system_id":"levelo_inurba_marseille","lat":43.27809,"lon":5.40713,"is_reserved":false,"is_disabled":false,"rental_uris":{"android":"levelo://app?vid=7e569f70-c448-470b-8a8e-d29c17895b31","ios":"levelo://app?vid=7e569f70-c448-470b-8a8e-d29c17895b31"},"vehicle_type_id":"4","last_reported":1735906621,"current_range_meters":29600,"station_id":"ce4bhnh2rcd13ifvqgtg","pricing_plan_id":"cebpf4jnsgd1na2vs0mg"},{"bike_id":"53c9571f-f6e3-40df-871d-6ce2537d160b","system_id":"levelo_inurba_marseille","lat":43.31998,"lon":5.3817,"is_reserved":false,"is_disabled":false,"rental_uris":{"android":"levelo://app?vid=53c9571f-f6e3-40df-871d-6ce2537d160b","ios":"levelo://app?vid=53c9571f-f6e3-40df-871d-6ce2537d160b"},"vehicle_type_id":"4","last_reported":1735906621,"current_range_meters":16400,"station_id":"ce4bhr12rcd13ifvqhpg","pricing_plan_id":"cebpf4jnsgd1na2vs0mg"},{"bike_id":"a15e5a43-9048-4e25-98eb-1a488d49be6c","system_id":"levelo_inurba_marseille","lat":43.31301,"lon":5.36755,"is_reserved":false,"is_disabled":false,"rental_uris":{"android":"levelo://app?vid=a15e5a43-9048-4e25-98eb-1a488d49be6c","ios":"levelo://app?vid=a15e5a43-9048-4e25-98eb-1a488d49be6c"},"vehicle_type_id":"4","last_reported":1735906621,"current_range_meters":38800,"station_id":"ce4bgr92rcd13ifvqc6g","pricing_plan_id":"cebpf4jnsgd1na2vs0mg"},{"bike_id":"4b18fc74-124a-4026-8735-302c08bbdf7e","system_id":"levelo_inurba_marseille","lat":43.28675,"lon":5.38673,"is_reserved":false,"is_disabled":true,"rental_uris":{"android":"levelo://app?vid=4b18fc74-124a-4026-8735-302c08bbdf7e","ios":"levelo://app?vid=4b18fc74-124a-4026-8735-302c08bbdf7e"},"vehicle_type_id":"4","last_reported":1735906621,"current_range_meters":30400,"station_id":"ce4bh492rcd13ifvqdug","pricing_plan_id":"cebpf4jnsgd1na2vs0mg"},{"bike_id":"1c02ae40-e43c-4632-b75b-2df9308dc3fe","system_id":"levelo_inurba_marseille","lat":43.33758,"lon":5.37445,"is_reserved":false,"is_disabled":false,"rental_uris":{"android":"levelo://app?vid=1c02ae40-e43c-4632-b75b-2df9308dc3fe","ios":"levelo://app?vid=1c02ae40-e43c-4632-b75b-2df9308dc3fe"},"vehicle_type_id":"4","last_reported":1735906621,"current_range_meters":34800,"station_id":"","pricing_plan_id":"cebpf4jnsgd1na2vs0mg"},{"bike_id":"d6d536b0-4ac6-4939-abe9-58e35ebadb8f","system_id":"levelo_inurba_marseille","lat":43.28839,"lon":5.35846,"is_reserved":false,"is_disabled":false,"rental_uris":{"android":"levelo://app?vid=d6d536b0-4ac6-4939-abe9-58e35ebadb8f","ios":"levelo://app?vid=d6d536b0-4ac6-4939-abe9-58e35ebadb8f"},"vehicle_type_id":"4","last_reported":1735906621,"current_range_meters":38800,"station_id":"ce4bhb12rcd13ifvqem0","pricing_plan_id":"cebpf4jnsgd1na2vs0mg"},{"bike_id":"24049831-997c-4f9e-95e3-931d66cdb6df","system_id":"levelo_inurba_marseille","lat":43.2861,"lon":5.351094,"is_reserved":false,"is_disabled":false,"rental_uris":{"android":"levelo://app?vid=24049831-997c-4f9e-95e3-931d66cdb6df","ios":"levelo://app?vid=24049831-997c-4f9e-95e3-931d66cdb6df"},"vehicle_type_id":"4","last_reported":1735906621,"current_range_meters":28800,"station_id":"ce4bhch2rcd13ifvqeug","pricing_plan_id":"cebpf4jnsgd1na2vs0mg"},{"bike_id":"bb42e3a6-d2bb-4f8e-95c5-7157b273111e","system_id":"levelo_inurba_marseille","lat":43.29977,"lon":5.41309,"is_reserved":false,"is_disabled":false,"rental_uris":{"android":"levelo://app?vid=bb42e3a6-d2bb-4f8e-95c5-7157b273111e","ios":"levelo://app?vid=bb42e3a6-d2bb-4f8e-95c5-7157b273111e"},"vehicle_type_id":"4","last_reported":1735906621,"current_range_meters":36800,"station_id":"ce4bhp12rcd13ifvqh9g","pricing_plan_id":"cebpf4jnsgd1na2vs0mg"},{"bike_id":"58df8673-b75a-4120-a3bf-fdcfdd7526e5","system_id":"levelo_inurba_marseille","lat":43.29011,"lon":5.35619,"is_reserved":false,"is_disabled":false,"rental_uris":{"android":"levelo://app?vid=58df8673-b75a-4120-a3bf-fdcfdd7526e5","ios":"levelo://app?vid=58df8673-b75a-4120-a3bf-fdcfdd7526e5"},"vehicle_type_id":"4","last_reported":1735906621,"current_range_meters":38800,"station_id":"ce4bhb92rcd13ifvqen0","pricing_plan_id":"cebpf4jnsgd1na2vs0mg"},{"bike_id":"5da924b7-1d86-48f2-a906-f2fea708abbd","system_id":"levelo_inurba_marseille","lat":43.276744,"lon":5.389029,"is_reserved":false,"is_disabled":true,"rental_uris":{"android":"levelo://app?vid=5da924b7-1d86-48f2-a906-f2fea708abbd","ios":"levelo://app?vid=5da924b7-1d86-48f2-a906-f2fea708abbd"},"vehicle_type_id":"4","last_reported":1735906621,"current_range_meters":35600,"station_id":"ce4bhi12rcd13ifvqfo0","pricing_plan_id":"cebpf4jnsgd1na2vs0mg"},{"bike_id":"cebbe5f3-7ae5-4bdc-aa3b-26b68c8165c3","system_id":"levelo_inurba_marseille","lat":43.29174,"lon":5.37149,"is_reserved":false,"is_disabled":false,"rental_uris":{"android":"levelo://app?vid=cebbe5f3-7ae5-4bdc-aa3b-26b68c8165c3","ios":"levelo://app?vid=cebbe5f3-7ae5-4bdc-aa3b-26b68c8165c3"},"vehicle_type_id":"4","last_reported":1735906621,"current_range_meters":18000,"station_id":"ce4bha92rcd13ifvqeh0","pricing_plan_id":"cebpf4jnsgd1na2vs0mg"},{"bike_id":"d858f272-5396-4509-83f4-bf8d2e835b76","system_id":"levelo_inurba_marseille","lat":43.2467,"lon":5.38166,"is_reserved":false,"is_disabled":false,"rental_uris":{"android":"levelo://app?vid=d858f272-5396-4509-83f4-bf8d2e835b76","ios":"levelo://app?vid=d858f272-5396-4509-83f4-bf8d2e835b76"},"vehicle_type_id":"4","last_reported":1735906621,"current_range_meters":36000,"station_id":"ce4bhih2rcd13ifvqfr0","pricing_plan_id":"cebpf4jnsgd1na2vs0mg"},{"bike_id":"6014b1e2-35bf-4517-95c5-f4b2b2de8022","system_id":"levelo_inurba_marseille","lat":43.31059,"lon":5.3932,"is_reserved":false,"is_disabled":true,"rental_uris":{"android":"levelo://app?vid=6014b1e2-35bf-4517-95c5-f4b2b2de8022","ios":"levelo://app?vid=6014b1e2-35bf-4517-95c5-f4b2b2de8022"},"vehicle_type_id":"4","last_reported":1735906621,"current_range_meters":0,"station_id":"","pricing_plan_id":"cebpf4jnsgd1na2vs0mg"},{"bike_id":"d6727721-181e-477a-8814-e299c5d9e493","system_id":"levelo_inurba_marseille","lat":43.23964,"lon":5.36627,"is_reserved":false,"is_disabled":false,"rental_uris":{"android":"levelo://app?vid=d6727721-181e-477a-8814-e299c5d9e493","ios":"levelo://app?vid=d6727721-181e-477a-8814-e299c5d9e493"},"vehicle_type_id":"4","last_reported":1735906621,"current_range_meters":17200,"station_id":"ce4bhi12rcd13ifvqfp0","pricing_plan_id":"cebpf4jnsgd1na2vs0mg"},{"bike_id":"96d68a9c-0cc4-4ced-927c-b815d6c91283","system_id":"levelo_inurba_marseille","lat":43.23962,"lon":5.36645,"is_reserved":false,"is_disabled":false,"rental_uris":{"android":"levelo://app?vid=96d68a9c-0cc4-4ced-927c-b815d6c91283","ios":"levelo://app?vid=96d68a9c-0cc4-4ced-927c-b815d6c91283"},"vehicle_type_id":"4","last_reported":1735906621,"current_range_meters":18000,"station_id":"ce4bhi12rcd13ifvqfp0","pricing_plan_id":"cebpf4jnsgd1na2vs0mg"},{"bike_id":"e69bc6c0-094e-43a7-8d8d-88d19d00c68d","system_id":"levelo_inurba_marseille","lat":43.31494,"lon":5.3731,"is_reserved":false,"is_disabled":false,"rental_uris":{"android":"levelo://app?vid=e69bc6c0-094e-43a7-8d8d-88d19d00c68d","ios":"levelo://app?vid=e69bc6c0-094e-43a7-8d8d-88d19d00c68d"},"vehicle_type_id":"4","last_reported":1735906621,"current_range_meters":22800,"station_id":"ce4bgt12rcd13ifvqcd0","pricing_plan_id":"cebpf4jnsgd1na2vs0mg"},{"bike_id":"48dab017-3f42-472f-871a-513ce2bb3aac","system_id":"levelo_inurba_marseille","lat":43.23153,"lon":5.43721,"is_reserved":false,"is_disabled":false,"rental_uris":{"android":"levelo://app?vid=48dab017-3f42-472f-871a-513ce2bb3aac","ios":"levelo://app?vid=48dab017-3f42-472f-871a-513ce2bb3aac"},"vehicle_type_id":"4","last_reported":1735906621,"current_range_meters":38800,"station_id":"ce4bhmp2rcd13ifvqgog","pricing_plan_id":"cebpf4jnsgd1na2vs0mg"},{"bike_id":"3bb8ded2-41fa-4a12-9b0b-23eab45e9e71","system_id":"levelo_inurba_marseille","lat":43.28418,"lon":5.34994,"is_reserved":false,"is_disabled":false,"rental_uris":{"android":"levelo://app?vid=3bb8ded2-41fa-4a12-9b0b-23eab45e9e71","ios":"levelo://app?vid=3bb8ded2-41fa-4a12-9b0b-23eab45e9e71"},"vehicle_type_id":"4","last_reported":1735906621,"current_range_meters":6400,"station_id":"ce4bhbh2rcd13ifvqepg","pricing_plan_id":"cebpf4jnsgd1na2vs0mg"},{"bike_id":"38768a4f-6abd-4a93-a34d-58000a2de6a2","system_id":"levelo_inurba_marseille","lat":43.30935,"lon":5.36849,"is_reserved":false,"is_disabled":false,"rental_uris":{"android":"levelo://app?vid=38768a4f-6abd-4a93-a34d-58000a2de6a2","ios":"levelo://app?vid=38768a4f-6abd-4a93-a34d-58000a2de6a2"},"vehicle_type_id":"4","last_reported":1735906621,"current_range_meters":17200,"station_id":"ce4bgn92rcd13ifvqbvg","pricing_plan_id":"cebpf4jnsgd1na2vs0mg"},{"bike_id":"234b5537-6ac9-4e84-b503-75c7e8bca3bd","system_id":"levelo_inurba_marseille","lat":43.2937,"lon":5.37826,"is_reserved":false,"is_disabled":false,"rental_uris":{"android":"levelo://app?vid=234b5537-6ac9-4e84-b503-75c7e8bca3bd","ios":"levelo://app?vid=234b5537-6ac9-4e84-b503-75c7e8bca3bd"},"vehicle_type_id":"4","last_reported":1735906621,"current_range_meters":38800,"station_id":"ce4bgjh2rcd13ifvqbf0","pricing_plan_id":"cebpf4jnsgd1na2vs0mg"},{"bike_id":"d1beb9a8-96f0-4670-b386-16f558c8d088","system_id":"levelo_inurba_marseille","lat":43.25917,"lon":5.40879,"is_reserved":false,"is_disabled":false,"rental_uris":{"android":"levelo://app?vid=d1beb9a8-96f0-4670-b386-16f558c8d088","ios":"levelo://app?vid=d1beb9a8-96f0-4670-b386-16f558c8d088"},"vehicle_type_id":"4","last_reported":1735906621,"current_range_meters":8800,"station_id":"ce4bhm92rcd13ifvqglg","pricing_plan_id":"cebpf4jnsgd1na2vs0mg"},{"bike_id":"898ebcfa-1a27-4789-af7e-27b090bbcc03","system_id":"levelo_inurba_marseille","lat":43.28852,"lon":5.39349,"is_reserved":false,"is_disabled":true,"rental_uris":{"android":"levelo://app?vid=898ebcfa-1a27-4789-af7e-27b090bbcc03","ios":"levelo://app?vid=898ebcfa-1a27-4789-af7e-27b090bbcc03"},"vehicle_type_id":"4","last_reported":1735906621,"current_range_meters":13600,"station_id":"ce4bh2p2rcd13ifvqdi0","pricing_plan_id":"cebpf4jnsgd1na2vs0mg"},{"bike_id":"c14d1989-a72f-4241-a582-39661d0bcfcf","system_id":"levelo_inurba_marseille","lat":43.23206,"lon":5.35551,"is_reserved":false,"is_disabled":false,"rental_uris":{"android":"levelo://app?vid=c14d1989-a72f-4241-a582-39661d0bcfcf","ios":"levelo://app?vid=c14d1989-a72f-4241-a582-39661d0bcfcf"},"vehicle_type_id":"4","last_reported":1735906621,"current_range_meters":39200,"station_id":"ce4bhu92rcd13ifvqi70","pricing_plan_id":"cebpf4jnsgd1na2vs0mg"},{"bike_id":"ef72cdb4-465d-4178-b952-49906f159c48","system_id":"levelo_inurba_marseille","lat":43.2816,"lon":5.42646,"is_reserved":false,"is_disabled":false,"rental_uris":{"android":"levelo://app?vid=ef72cdb4-465d-4178-b952-49906f159c48","ios":"levelo://app?vid=ef72cdb4-465d-4178-b952-49906f159c48"},"vehicle_type_id":"4","last_reported":1735906621,"current_range_meters":22800,"station_id":"ce4bhnh2rcd13ifvqgug","pricing_plan_id":"cebpf4jnsgd1na2vs0mg"},{"bike_id":"cb7dac8e-36f6-4acb-9025-516ca8798c10","system_id":"levelo_inurba_marseille","lat":43.2407,"lon":5.37769,"is_reserved":false,"is_disabled":false,"rental_uris":{"android":"levelo://app?vid=cb7dac8e-36f6-4acb-9025-516ca8798c10","ios":"levelo://app?vid=cb7dac8e-36f6-4acb-9025-516ca8798c10"},"vehicle_type_id":"4","last_reported":1735906621,"current_range_meters":30000,"station_id":"ce4bhnp2rcd13ifvqgvg","pricing_plan_id":"cebpf4jnsgd1na2vs0mg"},{"bike_id":"cd799ed6-4897-449a-b65c-1cec7ac6afaf","system_id":"levelo_inurba_marseille","lat":43.30802,"lon":5.38158,"is_reserved":false,"is_disabled":true,"rental_uris":{"android":"levelo://app?vid=cd799ed6-4897-449a-b65c-1cec7ac6afaf","ios":"levelo://app?vid=cd799ed6-4897-449a-b65c-1cec7ac6afaf"},"vehicle_type_id":"4","last_reported":1735906621,"current_range_meters":26800,"station_id":"ce4bgt12rcd13ifvqce0","pricing_plan_id":"cebpf4jnsgd1na2vs0mg"},{"bike_id":"fff6da74-d48c-4937-a452-dd77602147ed","system_id":"levelo_inurba_marseille","lat":43.31471,"lon":5.38368,"is_reserved":false,"is_disabled":true,"rental_uris":{"android":"levelo://app?vid=fff6da74-d48c-4937-a452-dd77602147ed","ios":"levelo://app?vid=fff6da74-d48c-4937-a452-dd77602147ed"},"vehicle_type_id":"4","last_reported":1735906621,"current_range_meters":0,"station_id":"","pricing_plan_id":"cebpf4jnsgd1na2vs0mg"},{"bike_id":"cc443633-64c1-4b1c-befb-d25084b344bc","system_id":"levelo_inurba_marseille","lat":43.30917,"lon":5.36851,"is_reserved":false,"is_disabled":false,"rental_uris":{"android":"levelo://app?vid=cc443633-64c1-4b1c-befb-d25084b344bc","ios":"levelo://app?vid=cc443633-64c1-4b1c-befb-d25084b344bc"},"vehicle_type_id":"4","last_reported":1735906621,"current_range_meters":38000,"station_id":"ce4bgn92rcd13ifvqbvg","pricing_plan_id":"cebpf4jnsgd1na2vs0mg"},{"bike_id":"7bbed7be-28f4-4cc7-81bb-977c0d79552f","system_id":"levelo_inurba_marseille","lat":43.23066,"lon":5.35487,"is_reserved":false,"is_disabled":false,"rental_uris":{"android":"levelo://app?vid=7bbed7be-28f4-4cc7-81bb-977c0d79552f","ios":"levelo://app?vid=7bbed7be-28f4-4cc7-81bb-977c0d79552f"},"vehicle_type_id":"4","last_reported":1735906621,"current_range_meters":24000,"station_id":"cpo3342slgdg3j2ifvpg","pricing_plan_id":"cebpf4jnsgd1na2vs0mg"},{"bike_id":"44377e14-c431-47f9-879d-d27236127509","system_id":"levelo_inurba_marseille","lat":43.25837,"lon":5.39412,"is_reserved":false,"is_disabled":false,"rental_uris":{"android":"levelo://app?vid=44377e14-c431-47f9-879d-d27236127509","ios":"levelo://app?vid=44377e14-c431-47f9-879d-d27236127509"},"vehicle_type_id":"4","last_reported":1735906621,"current_range_meters":38800,"station_id":"ce4bhip2rcd13ifvqft0","pricing_plan_id":"cebpf4jnsgd1na2vs0mg"},{"bike_id":"cb18615b-aac8-4c1b-990d-8e270e01a275","system_id":"levelo_inurba_marseille","lat":43.290175,"lon":5.356237,"is_reserved":false,"is_disabled":false,"rental_uris":{"android":"levelo://app?vid=cb18615b-aac8-4c1b-990d-8e270e01a275","ios":"levelo://app?vid=cb18615b-aac8-4c1b-990d-8e270e01a275"},"vehicle_type_id":"4","last_reported":1735906621,"current_range_meters":34000,"station_id":"ce4bhb92rcd13ifvqen0","pricing_plan_id":"cebpf4jnsgd1na2vs0mg"},{"bike_id":"a5bb2f34-577c-481a-8c02-d24f93f5b1e1","system_id":"levelo_inurba_marseille","lat":43.29898,"lon":5.37476,"is_reserved":false,"is_disabled":false,"rental_uris":{"android":"levelo://app?vid=a5bb2f34-577c-481a-8c02-d24f93f5b1e1","ios":"levelo://app?vid=a5bb2f34-577c-481a-8c02-d24f93f5b1e1"},"vehicle_type_id":"4","last_reported":1735906621,"current_range_meters":27600,"station_id":"ce4bgjh2rcd13ifvqbg0","pricing_plan_id":"cebpf4jnsgd1na2vs0mg"},{"bike_id":"67e0435e-ee5d-49c3-9b21-9668ebf48c68","system_id":"levelo_inurba_marseille","lat":43.250022,"lon":5.389201,"is_reserved":false,"is_disabled":false,"rental_uris":{"android":"levelo://app?vid=67e0435e-ee5d-49c3-9b21-9668ebf48c68","ios":"levelo://app?vid=67e0435e-ee5d-49c3-9b21-9668ebf48c68"},"vehicle_type_id":"4","last_reported":1735906621,"current_range_meters":32800,"station_id":"ce4bhgp2rcd13ifvqfd0","pricing_plan_id":"cebpf4jnsgd1na2vs0mg"},{"bike_id":"5c0e6aff-a052-4a02-848f-c8e083c5996f","system_id":"levelo_inurba_marseille","lat":43.25496,"lon":5.37684,"is_reserved":false,"is_disabled":false,"rental_uris":{"android":"levelo://app?vid=5c0e6aff-a052-4a02-848f-c8e083c5996f","ios":"levelo://app?vid=5c0e6aff-a052-4a02-848f-c8e083c5996f"},"vehicle_type_id":"4","last_reported":1735906621,"current_range_meters":20400,"station_id":"ce4bhh12rcd13ifvqff0","pricing_plan_id":"cebpf4jnsgd1na2vs0mg"},{"bike_id":"78b7a00c-0ad2-40f4-9953-a74f3c8198bb","system_id":"levelo_inurba_marseille","lat":43.30162,"lon":5.37398,"is_reserved":false,"is_disabled":false,"rental_uris":{"android":"levelo://app?vid=78b7a00c-0ad2-40f4-9953-a74f3c8198bb","ios":"levelo://app?vid=78b7a00c-0ad2-40f4-9953-a74f3c8198bb"},"vehicle_type_id":"4","last_reported":1735906621,"current_range_meters":36400,"station_id":"ce4bgs92rcd13ifvqcc0","pricing_plan_id":"cebpf4jnsgd1na2vs0mg"},{"bike_id":"b96094ac-0a5f-4729-839a-d49f31a3587e","system_id":"levelo_inurba_marseille","lat":43.3016,"lon":5.38085,"is_reserved":false,"is_disabled":false,"rental_uris":{"android":"levelo://app?vid=b96094ac-0a5f-4729-839a-d49f31a3587e","ios":"levelo://app?vid=b96094ac-0a5f-4729-839a-d49f31a3587e"},"vehicle_type_id":"4","last_reported":1735906621,"current_range_meters":26000,"station_id":"ce4bgjp2rcd13ifvqbh0","pricing_plan_id":"cebpf4jnsgd1na2vs0mg"},{"bike_id":"f1d87bf5-3985-43c2-9fde-b818f1e41c2b","system_id":"levelo_inurba_marseille","lat":43.26033,"lon":5.37549,"is_reserved":false,"is_disabled":false,"rental_uris":{"android":"levelo://app?vid=f1d87bf5-3985-43c2-9fde-b818f1e41c2b","ios":"levelo://app?vid=f1d87bf5-3985-43c2-9fde-b818f1e41c2b"},"vehicle_type_id":"4","last_reported":1735906621,"current_range_meters":5600,"station_id":"ce4bhgh2rcd13ifvqfa0","pricing_plan_id":"cebpf4jnsgd1na2vs0mg"},{"bike_id":"a61314dc-3de2-4634-90f1-582d7aac14ec","system_id":"levelo_inurba_marseille","lat":43.23963,"lon":5.3664,"is_reserved":false,"is_disabled":false,"rental_uris":{"android":"levelo://app?vid=a61314dc-3de2-4634-90f1-582d7aac14ec","ios":"levelo://app?vid=a61314dc-3de2-4634-90f1-582d7aac14ec"},"vehicle_type_id":"4","last_reported":1735906621,"current_range_meters":9200,"station_id":"ce4bhi12rcd13ifvqfp0","pricing_plan_id":"cebpf4jnsgd1na2vs0mg"},{"bike_id":"e7bb10c5-9260-440d-8fc3-4952251aaf8e","system_id":"levelo_inurba_marseille","lat":43.30602,"lon":5.37198,"is_reserved":false,"is_disabled":false,"rental_uris":{"android":"levelo://app?vid=e7bb10c5-9260-440d-8fc3-4952251aaf8e","ios":"levelo://app?vid=e7bb10c5-9260-440d-8fc3-4952251aaf8e"},"vehicle_type_id":"4","last_reported":1735906621,"current_range_meters":18800,"station_id":"ce4bgqh2rcd13ifvqc4g","pricing_plan_id":"cebpf4jnsgd1na2vs0mg"},{"bike_id":"93ba8769-26c3-4754-b598-158e34f175fe","system_id":"levelo_inurba_marseille","lat":43.29251,"lon":5.40922,"is_reserved":false,"is_disabled":false,"rental_uris":{"android":"levelo://app?vid=93ba8769-26c3-4754-b598-158e34f175fe","ios":"levelo://app?vid=93ba8769-26c3-4754-b598-158e34f175fe"},"vehicle_type_id":"4","last_reported":1735906621,"current_range_meters":27600,"station_id":"ce4bh192rcd13ifvqdc0","pricing_plan_id":"cebpf4jnsgd1na2vs0mg"},{"bike_id":"1146d476-405b-4262-8adc-a354be44284c","system_id":"levelo_inurba_marseille","lat":43.29243,"lon":5.38447,"is_reserved":false,"is_disabled":false,"rental_uris":{"android":"levelo://app?vid=1146d476-405b-4262-8adc-a354be44284c","ios":"levelo://app?vid=1146d476-405b-4262-8adc-a354be44284c"},"vehicle_type_id":"4","last_reported":1735906621,"current_range_meters":30000,"station_id":"ce4bh692rcd13ifvqea0","pricing_plan_id":"cebpf4jnsgd1na2vs0mg"},{"bike_id":"18a0efa6-81cf-4ef1-ba9d-3a3bc0a3c5a0","system_id":"levelo_inurba_marseille","lat":43.297327,"lon":5.376935,"is_reserved":false,"is_disabled":false,"rental_uris":{"android":"levelo://app?vid=18a0efa6-81cf-4ef1-ba9d-3a3bc0a3c5a0","ios":"levelo://app?vid=18a0efa6-81cf-4ef1-ba9d-3a3bc0a3c5a0"},"vehicle_type_id":"4","last_reported":1735906621,"current_range_meters":38400,"station_id":"ce4bgkh2rcd13ifvqbl0","pricing_plan_id":"cebpf4jnsgd1na2vs0mg"},{"bike_id":"8c6f9946-777a-423e-b9a9-c6e40450e286","system_id":"levelo_inurba_marseille","lat":43.30406,"lon":5.41295,"is_reserved":false,"is_disabled":false,"rental_uris":{"android":"levelo://app?vid=8c6f9946-777a-423e-b9a9-c6e40450e286","ios":"levelo://app?vid=8c6f9946-777a-423e-b9a9-c6e40450e286"},"vehicle_type_id":"4","last_reported":1735906621,"current_range_meters":38800,"station_id":"ce4bhop2rcd13ifvqh8g","pricing_plan_id":"cebpf4jnsgd1na2vs0mg"},{"bike_id":"d87a92e4-ebc8-4993-8d44-f0f21c1c6533","system_id":"levelo_inurba_marseille","lat":43.31329,"lon":5.36742,"is_reserved":false,"is_disabled":false,"rental_uris":{"android":"levelo://app?vid=d87a92e4-ebc8-4993-8d44-f0f21c1c6533","ios":"levelo://app?vid=d87a92e4-ebc8-4993-8d44-f0f21c1c6533"},"vehicle_type_id":"4","last_reported":1735906621,"current_range_meters":32400,"station_id":"ce4bgr92rcd13ifvqc6g","pricing_plan_id":"cebpf4jnsgd1na2vs0mg"},{"bike_id":"d87a6d44-9d1b-4d7f-91b9-c877e7f626b4","system_id":"levelo_inurba_marseille","lat":43.29782,"lon":5.38115,"is_reserved":false,"is_disabled":false,"rental_uris":{"android":"levelo://app?vid=d87a6d44-9d1b-4d7f-91b9-c877e7f626b4","ios":"levelo://app?vid=d87a6d44-9d1b-4d7f-91b9-c877e7f626b4"},"vehicle_type_id":"4","last_reported":1735906621,"current_range_meters":34000,"station_id":"ce4bgip2rcd13ifvqbb0","pricing_plan_id":"cebpf4jnsgd1na2vs0mg"},{"bike_id":"5f5f7ba9-6657-41ba-a4d9-91df21ba5354","system_id":"levelo_inurba_marseille","lat":43.30456,"lon":5.37917,"is_reserved":false,"is_disabled":false,"rental_uris":{"android":"levelo://app?vid=5f5f7ba9-6657-41ba-a4d9-91df21ba5354","ios":"levelo://app?vid=5f5f7ba9-6657-41ba-a4d9-91df21ba5354"},"vehicle_type_id":"4","last_reported":1735906621,"current_range_meters":38800,"station_id":"ce4bgup2rcd13ifvqcn0","pricing_plan_id":"cebpf4jnsgd1na2vs0mg"},