{"last_updated":1740258492,"ttl":60,"version":"2.2","data":{"bikes":[{"bike_id":"5846d5db-a891-460a-a86c-609214d03bdc","system_id":"levelo_inurba_marseille","lat":43.23965,"lon":5.36635,"is_reserved":false,"is_disabled":false,"rental_uris":{"android":"levelo://app?vid=5846d5db-a891-460a-a86c-609214d03bdc","ios":"levelo://app?vid=5846d5db-a891-460a-a86c-609214d03bdc"},"vehicle_type_id":"4","last_reported":1740258492,"current_range_meters":3200,"station_id":"ce4bhi12rcd13ifvqfp0","pricing_plan_id":"cebpf4jnsgd1na2vs0mg"},{"bike_id":"f2e5b7dc-4ecb-4a89-afcd-161b852d64a0","system_id":"levelo_inurba_marseille","lat":43.29575,"lon":5.39937,"is_reserved":false,"is_disabled":true,"rental_uris":{"android":"levelo://app?vid=f2e5b7dc-4ecb-4a89-afcd-161b852d64a0","ios":"levelo://app?vid=f2e5b7dc-4ecb-4a89-afcd-161b852d64a0"},"vehicle_type_id":"4","last_reported":1740258492,"current_range_meters":3600,"station_id":"ce4bh312rcd13ifvqdj0","pricing_plan_id":"cebpf4jnsgd1na2vs0mg"},{"bike_id":"7c8f3d05-5401-4545-847e-9fcee9ea83d5","system_id":"levelo_inurba_marseille","lat":43.26577,"lon":5.39874,"is_reserved":false,"is_disabled":false,"rental_uris":{"android":"levelo://app?vid=7c8f3d05-5401-4545-847e-9fcee9ea83d5","ios":"levelo://app?vid=7c8f3d05-5401-4545-847e-9fcee9ea83d5"},"vehicle_type_id":"4","last_reported":1740258492,"current_range_meters":3600,"station_id":"","pricing_plan_id":"cebpf4jnsgd1na2vs0mg"},{"bike_id":"7513a470-27ae-4803-984c-3d01857f3acd","system_id":"levelo_inurba_marseille","lat":43.30832,"lon":5.37307,"is_reserved":false,"is_disabled":false,"rental_uris":{"android":"levelo://app?vid=7513a470-27ae-4803-984c-3d01857f3acd","ios":"levelo://app?vid=7513a470-27ae-4803-984c-3d01857f3acd"},"vehicle_type_id":"4","last_reported":1740258492,"current_range_meters":4000,"station_id":"","pricing_plan_id":"cebpf4jnsgd1na2vs0mg"},{"bike_id":"10aab324-8009-4b6e-b2a5-aa0f65cff837","system_id":"levelo_inurba_marseille","lat":43.28492,"lon":5.38589,"is_reserved":false,"is_disabled":false,"rental_uris":{"android":"levelo://app?vid=10aab324-8009-4b6e-b2a5-aa0f65cff837","ios":"levelo://app?vid=10aab324-8009-4b6e-b2a5-aa0f65cff837"},"vehicle_type_id":"4","last_reported":1740258492,"current_range_meters":4000,"station_id":"ce4bh8p2rcd13ifvqeb0","pricing_plan_id":"cebpf4jnsgd1na2vs0mg"},{"bike_id":"c428a377-df4a-4d69-8d27-1884b3e34b58","system_id":"levelo_inurba_marseille","lat":43.23172,"lon":5.43659,"is_reserved":false,"is_disabled":false,"rental_uris":{"android":"levelo://app?vid=c428a377-df4a-4d69-8d27-1884b3e34b58","ios":"levelo://app?vid=c428a377-df4a-4d69-8d27-1884b3e34b58"},"vehicle_type_id":"4","last_reported":1740258492,"current_range_meters":4000,"station_id":"ce4bhmp2rcd13ifvqgog","pricing_plan_id":"cebpf4jnsgd1na2vs0mg"},{"bike_id":"e06a5e51-884b-4021-a6aa-38076e5c4adf","system_id":"levelo_inurba_marseille","lat":43.29259,"lon":5.37555,"is_reserved":false,"is_disabled":false,"rental_uris":{"android":"levelo://app?vid=e06a5e51-884b-4021-a6aa-38076e5c4adf","ios":"levelo://app?vid=e06a5e51-884b-4021-a6aa-38076e5c4adf"},"vehicle_type_id":"4","last_reported":1740258492,"current_range_meters":4000,"station_id":"","pricing_plan_id":"cebpf4jnsgd1na2vs0mg"},{"bike_id":"ca4df272-5395-4c1a-ab10-52dae73f2f99","system_id":"levelo_inurba_marseille","lat":43.2706,"lon":5.40271,"is_reserved":false,"is_disabled":true,"rental_uris":{"android":"levelo://app?vid=ca4df272-5395-4c1a-ab10-52dae73f2f99","ios":"levelo://app?vid=ca4df272-5395-4c1a-ab10-52dae73f2f99"},"vehicle_type_id":"4","last_reported":1740258492,"current_range_meters":4400,"station_id":"","pricing_plan_id":"cebpf4jnsgd1na2vs0mg"},{"bike_id":"b93b1033-bd50-4c71-a874-b95e6307720c","system_id":"levelo_inurba_marseille","lat":43.28104,"lon":5.39648,"is_reserved":false,"is_disabled":false,"rental_uris":{"android":"levelo://app?vid=b93b1033-bd50-4c71-a874-b95e6307720c","ios":"levelo://app?vid=b93b1033-bd50-4c71-a874-b95e6307720c"},"vehicle_type_id":"4","last_reported":1740258492,"current_range_meters":4400,"station_id":"ce4bho12rcd13ifvqh2g","pricing_plan_id":"cebpf4jnsgd1na2vs0mg"},{"bike_id":"6ef7538b-7857-46cc-836a-e33106f279ee","system_id":"levelo_inurba_marseille","lat":43.30883,"lon":5.39655,"is_reserved":false,"is_disabled":false,"rental_uris":{"android":"levelo://app?vid=6ef7538b-7857-46cc-836a-e33106f279ee","ios":"levelo://app?vid=6ef7538b-7857-46cc-836a-e33106f279ee"},"vehicle_type_id":"4","last_reported":1740258492,"current_range_meters":4800,"station_id":"ce4bh012rcd13ifvqcv0","pricing_plan_id":"cebpf4jnsgd1na2vs0mg"},{"bike_id":"2064b8a2-a8f8-432a-b37c-e145a7989b4e","system_id":"levelo_inurba_marseille","lat":43.27185,"lon":5.40988,"is_reserved":false,"is_disabled":false,"rental_uris":{"android":"levelo://app?vid=2064b8a2-a8f8-432a-b37c-e145a7989b4e","ios":"levelo://app?vid=2064b8a2-a8f8-432a-b37c-e145a7989b4e"},"vehicle_type_id":"4","last_reported":1740258492,"current_range_meters":4800,"station_id":"ce4bhl12rcd13ifvqgf0","pricing_plan_id":"cebpf4jnsgd1na2vs0mg"},{"bike_id":"cb533fa1-27a0-45e8-865a-273bc58d3884","system_id":"levelo_inurba_marseille","lat":43.26569,"lon":5.38979,"is_reserved":false,"is_disabled":true,"rental_uris":{"android":"levelo://app?vid=cb533fa1-27a0-45e8-865a-273bc58d3884","ios":"levelo://app?vid=cb533fa1-27a0-45e8-865a-273bc58d3884"},"vehicle_type_id":"4","last_reported":1740258492,"current_range_meters":4800,"station_id":"ce4bhe12rcd13ifvqf30","pricing_plan_id":"cebpf4jnsgd1na2vs0mg"},{"bike_id":"ee88d55f-808a-4a94-8890-698c60b027e4","system_id":"levelo_inurba_marseille","lat":43.30917,"lon":5.36845,"is_reserved":false,"is_disabled":false,"rental_uris":{"android":"levelo://app?vid=ee88d55f-808a-4a94-8890-698c60b027e4","ios":"levelo://app?vid=ee88d55f-808a-4a94-8890-698c60b027e4"},"vehicle_type_id":"4","last_reported":1740258492,"current_range_meters":5600,"station_id":"ce4bgn92rcd13ifvqbvg","pricing_plan_id":"cebpf4jnsgd1na2vs0mg"},{"bike_id":"f18d1838-680b-457b-a152-6f1832c81492","system_id":"levelo_inurba_marseille","lat":43.23962,"lon":5.3663,"is_reserved":false,"is_disabled":false,"rental_uris":{"android":"levelo://app?vid=f18d1838-680b-457b-a152-6f1832c81492","ios":"levelo://app?vid=f18d1838-680b-457b-a152-6f1832c81492"},"vehicle_type_id":"4","last_reported":1740258492,"current_range_meters":5600,"station_id":"ce4bhi12rcd13ifvqfp0","pricing_plan_id":"cebpf4jnsgd1na2vs0mg"},{"bike_id":"f7489a28-db5b-48c2-975a-daaae2d251da","system_id":"levelo_inurba_marseille","lat":43.30144,"lon":5.39852,"is_reserved":false,"is_disabled":true,"rental_uris":{"android":"levelo://app?vid=f7489a28-db5b-48c2-975a-daaae2d251da","ios":"levelo://app?vid=f7489a28-db5b-48c2-975a-daaae2d251da"},"vehicle_type_id":"4","last_reported":1740258492,"current_range_meters":6000,"station_id":"ce4bh0h2rcd13ifvqd40","pricing_plan_id":"cebpf4jnsgd1na2vs0mg"},{"bike_id":"54392dcf-9098-4ade-a5f9-07d42853ec29","system_id":"levelo_inurba_marseille","lat":43.23968,"lon":5.36638,"is_reserved":false,"is_disabled":false,"rental_uris":{"android":"levelo://app?vid=54392dcf-9098-4ade-a5f9-07d42853ec29","ios":"levelo://app?vid=54392dcf-9098-4ade-a5f9-07d42853ec29"},"vehicle_type_id":"4","last_reported":1740258492,"current_range_meters":6000,"station_id":"ce4bhi12rcd13ifvqfp0","pricing_plan_id":"cebpf4jnsgd1na2vs0mg"},{"bike_id":"1e5b33c7-b617-4241-9c1e-2af8dfd8d94a","system_id":"levelo_inurba_marseille","lat":43.298821,"lon":5.388991,"is_reserved":false,"is_disabled":false,"rental_uris":{"android":"levelo://app?vid=1e5b33c7-b617-4241-9c1e-2af8dfd8d94a","ios":"levelo://app?vid=1e5b33c7-b617-4241-9c1e-2af8dfd8d94a"},"vehicle_type_id":"4","last_reported":1740258492,"current_range_meters":6400,"station_id":"ce4bh392rcd13ifvqdl0","pricing_plan_id":"cebpf4jnsgd1na2vs0mg"},{"bike_id":"caa3bb11-d9f3-41e0-b6ae-f8b61389c8cd","system_id":"levelo_inurba_marseille","lat":43.2817,"lon":5.42648,"is_reserved":false,"is_disabled":false,"rental_uris":{"android":"levelo://app?vid=caa3bb11-d9f3-41e0-b6ae-f8b61389c8cd","ios":"levelo://app?vid=caa3bb11-d9f3-41e0-b6ae-f8b61389c8cd"},"vehicle_type_id":"4","last_reported":1740258492,"current_range_meters":6400,"station_id":"ce4bhnh2rcd13ifvqgug","pricing_plan_id":"cebpf4jnsgd1na2vs0mg"},{"bike_id":"edd7c130-efd3-4cae-a7d5-7af978b85ab6","system_id":"levelo_inurba_marseille","lat":43.2952,"lon":5.39033,"is_reserved":false,"is_disabled":false,"rental_uris":{"android":"levelo://app?vid=edd7c130-efd3-4cae-a7d5-7af978b85ab6","ios":"levelo://app?vid=edd7c130-efd3-4cae-a7d5-7af978b85ab6"},"vehicle_type_id":"4","last_reported":1740258492,"current_range_meters":6400,"station_id":"ce4bh3p2rcd13ifvqdp0","pricing_plan_id":"cebpf4jnsgd1na2vs0mg"},{"bike_id":"2c5430a7-3583-4ae1-abd7-31976bb7717c","system_id":"levelo_inurba_marseille","lat":43.30328,"lon":5.41912,"is_reserved":false,"is_disabled":false,"rental_uris":{"android":"levelo://app?vid=2c5430a7-3583-4ae1-abd7-31976bb7717c","ios":"levelo://app?vid=2c5430a7-3583-4ae1-abd7-31976bb7717c"},"vehicle_type_id":"4","last_reported":1740258492,"current_range_meters":6400,"station_id":"ce4bhop2rcd13ifvqh7g","pricing_plan_id":"cebpf4jnsgd1na2vs0mg"},{"bike_id":"a796ac80-1911-4214-a458-24bc9f421151","system_id":"levelo_inurba_marseille","lat":43.31366,"lon":5.37393,"is_reserved":false,"is_disabled":false,"rental_uris":{"android":"levelo://app?vid=a796ac80-1911-4214-a458-24bc9f421151","ios":"levelo://app?vid=a796ac80-1911-4214-a458-24bc9f421151"},"vehicle_type_id":"4","last_reported":1740258492,"current_range_meters":6400,"station_id":"","pricing_plan_id":"cebpf4jnsgd1na2vs0mg"},{"bike_id":"551296f6-9c25-41a0-8804-ba4f656ebdc2","system_id":"levelo_inurba_marseille","lat":43.23184,"lon":5.39981,"is_reserved":false,"is_disabled":false,"rental_uris":{"android":"levelo://app?vid=551296f6-9c25-41a0-8804-ba4f656ebdc2","ios":"levelo://app?vid=551296f6-9c25-41a0-8804-ba4f656ebdc2"},"vehicle_type_id":"4","last_reported":1740258492,"current_range_meters":6800,"station_id":"ce4bhn12rcd13ifvqgqg","pricing_plan_id":"cebpf4jnsgd1na2vs0mg"},{"bike_id":"62c21f0c-2a3e-499d-9846-45c2859cbef5","system_id":"levelo_inurba_marseille","lat":43.29878,"lon":5.39728,"is_reserved":false,"is_disabled":false,"rental_uris":{"android":"levelo://app?vid=62c21f0c-2a3e-499d-9846-45c2859cbef5","ios":"levelo://app?vid=62c21f0c-2a3e-499d-9846-45c2859cbef5"},"vehicle_type_id":"4","last_reported":1740258492,"current_range_meters":6800,"station_id":"ce4bh0h2rcd13ifvqd50","pricing_plan_id":"cebpf4jnsgd1na2vs0mg"},{"bike_id":"b6dc0534-0339-4a3d-9b78-149ddf864163","system_id":"levelo_inurba_marseille","lat":43.29261,"lon":5.38441,"is_reserved":false,"is_disabled":false,"rental_uris":{"android":"levelo://app?vid=b6dc0534-0339-4a3d-9b78-149ddf864163","ios":"levelo://app?vid=b6dc0534-0339-4a3d-9b78-149ddf864163"},"vehicle_type_id":"4","last_reported":1740258492,"current_range_meters":6800,"station_id":"ce4bh692rcd13ifvqea0","pricing_plan_id":"cebpf4jnsgd1na2vs0mg"},{"bike_id":"9d71ebe6-e41e-48ac-9b9b-e0c8041e4287","system_id":"levelo_inurba_marseille","lat":43.28942,"lon":5.3664,"is_reserved":false,"is_disabled":false,"rental_uris":{"android":"levelo://app?vid=9d71ebe6-e41e-48ac-9b9b-e0c8041e4287","ios":"levelo://app?vid=9d71ebe6-e41e-48ac-9b9b-e0c8041e4287"},"vehicle_type_id":"4","last_reported":1740258492,"current_range_meters":6800,"station_id":"ce4bhap2rcd13ifvqek0","pricing_plan_id":"cebpf4jnsgd1na2vs0mg"},{"bike_id":"c3c30985-02be-4a13-90af-d702f6922290","system_id":"levelo_inurba_marseille","lat":43.23954,"lon":5.36641,"is_reserved":false,"is_disabled":false,"rental_uris":{"android":"levelo://app?vid=c3c30985-02be-4a13-90af-d702f6922290","ios":"levelo://app?vid=c3c30985-02be-4a13-90af-d702f6922290"},"vehicle_type_id":"4","last_reported":1740258492,"current_range_meters":7200,"station_id":"ce4bhi12rcd13ifvqfp0","pricing_plan_id":"cebpf4jnsgd1na2vs0mg"},{"bike_id":"2e7dd93b-d38e-4cae-9ed0-bea68b87add4","system_id":"levelo_inurba_marseille","lat":43.23964,"lon":5.36639,"is_reserved":false,"is_disabled":false,"rental_uris":{"android":"levelo://app?vid=2e7dd93b-d38e-4cae-9ed0-bea68b87add4","ios":"levelo://app?vid=2e7dd93b-d38e-4cae-9ed0-bea68b87add4"},"vehicle_type_id":"4","last_reported":1740258492,"current_range_meters":7200,"station_id":"ce4bhi12rcd13ifvqfp0","pricing_plan_id":"cebpf4jnsgd1na2vs0mg"},{"bike_id":"4d3023b6-8166-4b8e-9632-18161e21c5ca","system_id":"levelo_inurba_marseille","lat":43.27563,"lon":5.3844,"is_reserved":false,"is_disabled":false,"rental_uris":{"android":"levelo://app?vid=4d3023b6-8166-4b8e-9632-18161e21c5ca","ios":"levelo://app?vid=4d3023b6-8166-4b8e-9632-18161e21c5ca"},"vehicle_type_id":"4","last_reported":1740258492,"current_range_meters":7200,"station_id":"ce4bhh92rcd13ifvqfi0","pricing_plan_id":"cebpf4jnsgd1na2vs0mg"},{"bike_id":"91cd9c50-a708-4ca7-8c38-9684716b8855","system_id":"levelo_inurba_marseille","lat":43.33779,"lon":5.37432,"is_reserved":false,"is_disabled":false,"rental_uris":{"android":"levelo://app?vid=91cd9c50-a708-4ca7-8c38-9684716b8855","ios":"levelo://app?vid=91cd9c50-a708-4ca7-8c38-9684716b8855"},"vehicle_type_id":"4","last_reported":1740258492,"current_range_meters":7200,"station_id":"","pricing_plan_id":"cebpf4jnsgd1na2vs0mg"},{"bike_id":"d70eab69-1c78-44df-9931-e570f2cc3636","system_id":"levelo_inurba_marseille","lat":43.25717,"lon":5.41115,"is_reserved":false,"is_disabled":false,"rental_uris":{"android":"levelo://app?vid=d70eab69-1c78-44df-9931-e570f2cc3636","ios":"levelo://app?vid=d70eab69-1c78-44df-9931-e570f2cc3636"},"vehicle_type_id":"4","last_reported":1740258492,"current_range_meters":7200,"station_id":"ce4bhkp2rcd13ifvqgd0","pricing_plan_id":"cebpf4jnsgd1na2vs0mg"},{"bike_id":"35ec6f05-b64c-4e4d-8ca3-6066c738a1dd","system_id":"levelo_inurba_marseille","lat":43.26216,"lon":5.40442,"is_reserved":false,"is_disabled":false,"rental_uris":{"android":"levelo://app?vid=35ec6f05-b64c-4e4d-8ca3-6066c738a1dd","ios":"levelo://app?vid=35ec6f05-b64c-4e4d-8ca3-6066c738a1dd"},"vehicle_type_id":"4","last_reported":1740258492,"current_range_meters":7200,"station_id":"ce4bhmh2rcd13ifvqgmg","pricing_plan_id":"cebpf4jnsgd1na2vs0mg"},{"bike_id":"e011fc15-7223-4863-8dfc-d7268d6eab1a","system_id":"levelo_inurba_marseille","lat":43.31969,"lon":5.38652,"is_reserved":false,"is_disabled":false,"rental_uris":{"android":"levelo://app?vid=e011fc15-7223-4863-8dfc-d7268d6eab1a","ios":"levelo://app?vid=e011fc15-7223-4863-8dfc-d7268d6eab1a"},"vehicle_type_id":"4","last_reported":1740258492,"current_range_meters":7200,"station_id":"","pricing_plan_id":"cebpf4jnsgd1na2vs0mg"},{"bike_id":"a7787bdf-f967-4ec4-a4a5-aaabd53b1877","system_id":"levelo_inurba_marseille","lat":43.26183,"lon":5.42073,"is_reserved":false,"is_disabled":false,"rental_uris":{"android":"levelo://app?vid=a7787bdf-f967-4ec4-a4a5-aaabd53b1877","ios":"levelo://app?vid=a7787bdf-f967-4ec4-a4a5-aaabd53b1877"},"vehicle_type_id":"4","last_reported":1740258492,"current_range_meters":7200,"station_id":"","pricing_plan_id":"cebpf4jnsgd1na2vs0mg"},{"bike_id":"fa83beb1-2405-4db0-9826-c091cb751783","system_id":"levelo_inurba_marseille","lat":43.2511,"lon":5.40343,"is_reserved":false,"is_disabled":true,"rental_uris":{"android":"levelo://app?vid=fa83beb1-2405-4db0-9826-c091cb751783","ios":"levelo://app?vid=fa83beb1-2405-4db0-9826-c091cb751783"},"vehicle_type_id":"4","last_reported":1740258492,"current_range_meters":7200,"station_id":"ce4bhlh2rcd13ifvqgig","pricing_plan_id":"cebpf4jnsgd1na2vs0mg"},{"bike_id":"ab46b189-6bae-4129-a7fd-10b3ccd5a48e","system_id":"levelo_inurba_marseille","lat":43.27232,"lon":5.39993,"is_reserved":false,"is_disabled":false,"rental_uris":{"android":"levelo://app?vid=ab46b189-6bae-4129-a7fd-10b3ccd5a48e","ios":"levelo://app?vid=ab46b189-6bae-4129-a7fd-10b3ccd5a48e"},"vehicle_type_id":"4","last_reported":1740258492,"current_range_meters":8000,"station_id":"","pricing_plan_id":"cebpf4jnsgd1na2vs0mg"},{"bike_id":"8f3c383c-75bc-41ba-a096-f9a35c8fb567","system_id":"levelo_inurba_marseille","lat":43.305406,"lon":5.365558,"is_reserved":false,"is_disabled":false,"rental_uris":{"android":"levelo://app?vid=8f3c383c-75bc-41ba-a096-f9a35c8fb567","ios":"levelo://app?vid=8f3c383c-75bc-41ba-a096-f9a35c8fb567"},"vehicle_type_id":"4","last_reported":1740258492,"current_range_meters":8000,"station_id":"ce4bh492rcd13ifvqdug","pricing_plan_id":"cebpf4jnsgd1na2vs0mg"},{"bike_id":"91817d94-291a-47c9-91fa-831208abfdc7","system_id":"levelo_inurba_marseille","lat":43.230657,"lon":5.354862,"is_reserved":false,"is_disabled":false,"rental_uris":{"android":"levelo://app?vid=91817d94-291a-47c9-91fa-831208abfdc7","ios":"levelo://app?vid=91817d94-291a-47c9-91fa-831208abfdc7"},"vehicle_type_id":"4","last_reported":1740258492,"current_range_meters":8000,"station_id":"cpo3342slgdg3j2ifvpg","pricing_plan_id":"cebpf4jnsgd1na2vs0mg"},{"bike_id":"8c45eabb-5446-48da-859b-34b321f8d3c0","system_id":"levelo_inurba_marseille","lat":43.30893,"lon":5.37195,"is_reserved":false,"is_disabled":false,"rental_uris":{"android":"levelo://app?vid=8c45eabb-5446-48da-859b-34b321f8d3c0","ios":"levelo://app?vid=8c45eabb-5446-48da-859b-34b321f8d3c0"},"vehicle_type_id":"4","last_reported":1740258492,"current_range_meters":8000,"station_id":"ce4bguh2rcd13ifvqckg","pricing_plan_id":"cebpf4jnsgd1na2vs0mg"},{"bike_id":"496feeef-cfe5-4278-8e5f-e700a0f5d432","system_id":"levelo_inurba_marseille","lat":43.26197,"lon":5.37491,"is_reserved":false,"is_disabled":false,"rental_uris":{"android":"levelo://app?vid=496feeef-cfe5-4278-8e5f-e700a0f5d432","ios":"levelo://app?vid=496feeef-cfe5-4278-8e5f-e700a0f5d432"},"vehicle_type_id":"4","last_reported":1740258492,"current_range_meters":8400,"station_id":"ce4bhgp2rcd13ifvqfc0","pricing_plan_id":"cebpf4jnsgd1na2vs0mg"},{"bike_id":"f32fe46d-1120-4c2c-97c5-cdbf2de4ccec","system_id":"levelo_inurba_marseille","lat":43.25953,"lon":5.409,"is_reserved":false,"is_disabled":false,"rental_uris":{"android":"levelo://app?vid=f32fe46d-1120-4c2c-97c5-cdbf2de4ccec","ios":"levelo://app?vid=f32fe46d-1120-4c2c-97c5-cdbf2de4ccec"},"vehicle_type_id":"4","last_reported":1740258492,"current_range_meters":8400,"station_id":"ce4bhm92rcd13ifvqglg","pricing_plan_id":"cebpf4jnsgd1na2vs0mg"},{"bike_id":"ad08e6de-41ee-4798-9ec1-6aeb4129fbe3","system_id":"levelo_inurba_marseille","lat":43.29568,"lon":5.37528,"is_reserved":false,"is_disabled":false,"rental_uris":{"android":"levelo://app?vid=ad08e6de-41ee-4798-9ec1-6aeb4129fbe3","ios":"levelo://app?vid=ad08e6de-41ee-4798-9ec1-6aeb4129fbe3"},"vehicle_type_id":"4","last_reported":1740258492,"current_range_meters":8400,"station_id":"ce4bgh92rcd13ifvqb50","pricing_plan_id":"cebpf4jnsgd1na2vs0mg"},{"bike_id":"6d31838c-53f9-4375-96eb-6ea63dcd4ee2","system_id":"levelo_inurba_marseille","lat":43.26752,"lon":5.39459,"is_reserved":false,"is_disabled":false,"rental_uris":{"android":"levelo://app?vid=6d31838c-53f9-4375-96eb-6ea63dcd4ee2","ios":"levelo://app?vid=6d31838c-53f9-4375-96eb-6ea63dcd4ee2"},"vehicle_type_id":"4","last_reported":1740258492,"current_range_meters":8400,"station_id":"","pricing_plan_id":"cebpf4jnsgd1na2vs0mg"},{"bike_id":"098ba318-f0ee-4c81-991e-ba2f5a0cbad4","system_id":"levelo_inurba_marseille","lat":43.27607,"lon":5.36147,"is_reserved":false,"is_disabled":false,"rental_uris":{"android":"levelo://app?vid=098ba318-f0ee-4c81-991e-ba2f5a0cbad4","ios":"levelo://app?vid=098ba318-f0ee-4c81-991e-ba2f5a0cbad4"},"vehicle_type_id":"4","last_reported":1740258492,"current_range_meters":8400,"station_id":"ce4bgj92rcd13ifvqbe0","pricing_plan_id":"cebpf4jnsgd1na2vs0mg"},{"bike_id":"6d48938c-9b80-49b7-89e5-950ba7a6ce63","system_id":"levelo_inurba_marseille","lat":43.25926,"lon":5.40907,"is_reserved":false,"is_disabled":false,"rental_uris":{"android":"levelo://app?vid=6d48938c-9b80-49b7-89e5-950ba7a6ce63","ios":"levelo://app?vid=6d48938c-9b80-49b7-89e5-950ba7a6ce63"},"vehicle_type_id":"4","last_reported":1740258492,"current_range_meters":8400,"station_id":"ce4bhm92rcd13ifvqglg","pricing_plan_id":"cebpf4jnsgd1na2vs0mg"},{"bike_id":"f01bc604-d3fe-484b-ab17-16d012a9acf2","system_id":"levelo_inurba_marseille","lat":43.2799,"lon":5.41642,"is_reserved":false,"is_disabled":false,"rental_uris":{"android":"levelo://app?vid=f01bc604-d3fe-484b-ab17-16d012a9acf2","ios":"levelo://app?vid=f01bc604-d3fe-484b-ab17-16d012a9acf2"},"vehicle_type_id":"4","last_reported":1740258492,"current_range_meters":8400,"station_id":"ce4bho12rcd13ifvqh1g","pricing_plan_id":"cebpf4jnsgd1na2vs0mg"},{"bike_id":"4a2d4025-43d5-412e-8f09-8ffaadd19824","system_id":"levelo_inurba_marseille","lat":43.23199,"lon":5.35547,"is_reserved":false,"is_disabled":false,"rental_uris":{"android":"levelo://app?vid=4a2d4025-43d5-412e-8f09-8ffaadd19824","ios":"levelo://app?vid=4a2d4025-43d5-412e-8f09-8ffaadd19824"},"vehicle_type_id":"4","last_reported":1740258492,"current_range_meters":8800,"station_id":"ce4bhu92rcd13ifvqi70","pricing_plan_id":"cebpf4jnsgd1na2vs0mg"},{"bike_id":"f65e14d9-9d98-4273-878d-64aa1ddbd1a3","system_id":"levelo_inurba_marseille","lat":43.24072,"lon":5.37765,"is_reserved":false,"is_disabled":false,"rental_uris":{"android":"levelo://app?vid=f65e14d9-9d98-4273-878d-64aa1ddbd1a3","ios":"levelo://app?vid=f65e14d9-9d98-4273-878d-64aa1ddbd1a3"},"vehicle_type_id":"4","last_reported":1740258492,"current_range_meters":8800,"station_id":"ce4bhnp2rcd13ifvqgvg","pricing_plan_id":"cebpf4jnsgd1na2vs0mg"},{"bike_id":"db3aa99a-e629-4674-bf02-dac820a26dc2","system_id":"levelo_inurba_marseille","lat":43.26576,"lon":5.39017,"is_reserved":false,"is_disabled":false,"rental_uris":{"android":"levelo://app?vid=db3aa99a-e629-4674-bf02-dac820a26dc2","ios":"levelo://app?vid=db3aa99a-e629-4674-bf02-dac820a26dc2"},"vehicle_type_id":"4","last_reported":1740258492,"current_range_meters":9200,"station_id":"ce4bhe12rcd13ifvqf30","pricing_plan_id":"cebpf4jnsgd1na2vs0mg"},{"bike_id":"677087cb-142a-4c4c-b033-d39ff112c2e1","system_id":"levelo_inurba_marseille","lat":43.25112,"lon":5.40323,"is_reserved":false,"is_disabled":false,"rental_uris":{"android":"levelo://app?vid=677087cb-142a-4c4c-b033-d39ff112c2e1","ios":"levelo://app?vid=677087cb-142a-4c4c-b033-d39ff112c2e1"},"vehicle_type_id":"4","last_reported":1740258492,"current_range_meters":9200,"station_id":"ce4bhlh2rcd13ifvqgig","pricing_plan_id":"cebpf4jnsgd1na2vs0mg"},{"bike_id":"78ccc1b5-e05d-4c30-bc5b-473f9d97e2cd","system_id":"levelo_inurba_marseille","lat":43.30118,"lon":5.37764,"is_reserved":false,"is_disabled":false,"rental_uris":{"android":"levelo://app?vid=78ccc1b5-e05d-4c30-bc5b-473f9d97e2cd","ios":"levelo://app?vid=78ccc1b5-e05d-4c30-bc5b-473f9d97e2cd"},"vehicle_type_id":"4","last_reported":1740258492,"current_range_meters":9200,"station_id":"","pricing_plan_id":"cebpf4jnsgd1na2vs0mg"},{"bike_id":"ee3f6ee2-fff0-459b-b828-b81a84970235","system_id":"levelo_inurba_marseille","lat":43.25111,"lon":5.4032,"is_reserved":false,"is_disabled":false,"rental_uris":{"android":"levelo://app?vid=ee3f6ee2-fff0-459b-b828-b81a84970235","ios":"levelo://app?vid=ee3f6ee2-fff0-459b-b828-b81a84970235"},"vehicle_type_id":"4","last_reported":1740258492,"current_range_meters":9200,"station_id":"ce4bhlh2rcd13ifvqgig","pricing_plan_id":"cebpf4jnsgd1na2vs0mg"},{"bike_id":"06c7d04b-0c73-473f-9f55-ff858732e591","system_id":"levelo_inurba_marseille","lat":43.26558,"lon":5.39024,"is_reserved":false,"is_disabled":false,"rental_uris":{"android":"levelo://app?vid=06c7d04b-0c73-473f-9f55-ff858732e591","ios":"levelo://app?vid=06c7d04b-0c73-473f-9f55-ff858732e591"},"vehicle_type_id":"4","last_reported":1740258492,"current_range_meters":9200,"station_id":"ce4bhe12rcd13ifvqf30","pricing_plan_id":"cebpf4jnsgd1na2vs0mg"},{"bike_id":"7bf9524e-fea9-4ff8-800d-d66c5e1b6889","system_id":"levelo_inurba_marseille","lat":43.23171,"lon":5.43679,"is_reserved":false,"is_disabled":false,"rental_uris":{"android":"levelo://app?vid=7bf9524e-fea9-4ff8-800d-d66c5e1b6889","ios":"levelo://app?vid=7bf9524e-fea9-4ff8-800d-d66c5e1b6889"},"vehicle_type_id":"4","last_reported":1740258492,"current_range_meters":9200,"station_id":"ce4bhmp2rcd13ifvqgog","pricing_plan_id":"cebpf4jnsgd1na2vs0mg"},{"bike_id":"23bc9759-d26d-4f40-b4f4-88a9beb1aae8","system_id":"levelo_inurba_marseille","lat":43.25885,"lon":5.39844,"is_reserved":false,"is_disabled":false,"rental_uris":{"android":"levelo://app?vid=23bc9759-d26d-4f40-b4f4-88a9beb1aae8","ios":"levelo://app?vid=23bc9759-d26d-4f40-b4f4-88a9beb1aae8"},"vehicle_type_id":"4","last_reported":1740258492,"current_range_meters":9200,"station_id":"ce4bhl92rcd13ifvqghg","pricing_plan_id":"cebpf4jnsgd1na2vs0mg"},{"bike_id":"b985ad1f-1942-453b-b5eb-7462cafd1e31","system_id":"levelo_inurba_marseille","lat":43.231874,"lon":5.355581,"is_reserved":false,"is_disabled":false,"rental_uris":{"android":"levelo://app?vid=b985ad1f-1942-453b-b5eb-7462cafd1e31","ios":"levelo://app?vid=b985ad1f-1942-453b-b5eb-7462cafd1e31"},"vehicle_type_id":"4","last_reported":1740258492,"current_range_meters":9200,"station_id":"ce4bhu92rcd13ifvqi70","pricing_plan_id":"cebpf4jnsgd1na2vs0mg"},{"bike_id":"aeafc93e-d7a3-4386-a16b-6d5c2d21332b","system_id":"levelo_inurba_marseille","lat":43.29292,"lon":5.37475,"is_reserved":false,"is_disabled":false,"rental_uris":{"android":"levelo://app?vid=aeafc93e-d7a3-4386-a16b-6d5c2d21332b","ios":"levelo://app?vid=aeafc93e-d7a3-4386-a16b-6d5c2d21332b"},"vehicle_type_id":"4","last_reported":1740258492,"current_range_meters":9600,"station_id":"ce4bgi12rcd13ifvqb70","pricing_plan_id":"cebpf4jnsgd1na2vs0mg"},{"bike_id":"5d2d1a8c-deab-4dc2-9082-406187fb677f","system_id":"levelo_inurba_marseille","lat":43.27886,"lon":5.38003,"is_reserved":false,"is_disabled":false,"rental_uris":{"android":"levelo://app?vid=5d2d1a8c-deab-4dc2-9082-406187fb677f","ios":"levelo://app?vid=5d2d1a8c-deab-4dc2-9082-406187fb677f"},"vehicle_type_id":"4","last_reported":1740258492,"current_range_meters":9600,"station_id":"ce4bhf92rcd13ifvqf50","pricing_plan_id":"cebpf4jnsgd1na2vs0mg"},{"bike_id":"1f54a597-43d0-48aa-9bc3-b71a932d177c","system_id":"levelo_inurba_marseille","lat":43.25578,"lon":5.38227,"is_reserved":false,"is_disabled":false,"rental_uris":{"android":"levelo://app?vid=1f54a597-43d0-48aa-9bc3-b71a932d177c","ios":"levelo://app?vid=1f54a597-43d0-48aa-9bc3-b71a932d177c"},"vehicle_type_id":"4","last_reported":1740258492,"current_range_meters":9600,"station_id":"ce4bhih2rcd13ifvqfs0","pricing_plan_id":"cebpf4jnsgd1na2vs0mg"},{"bike_id":"142dd829-4ceb-4d8e-a91d-126b9ddb9899","system_id":"levelo_inurba_marseille","lat":43.29255,"lon":5.38428,"is_reserved":false,"is_disabled":false,"rental_uris":{"android":"levelo://app?vid=142dd829-4ceb-4d8e-a91d-126b9ddb9899","ios":"levelo://app?vid=142dd829-4ceb-4d8e-a91d-126b9ddb9899"},"vehicle_type_id":"4","last_reported":1740258492,"current_range_meters":9600,"station_id":"ce4bh692rcd13ifvqea0","pricing_plan_id":"cebpf4jnsgd1na2vs0mg"},{"bike_id":"f4c73116-43d3-41d9-88bb-9461dbbb405f","system_id":"levelo_inurba_marseille","lat":43.25344,"lon":5.41614,"is_reserved":false,"is_disabled":false,"rental_uris":{"android":"levelo://app?vid=f4c73116-43d3-41d9-88bb-9461dbbb405f","ios":"levelo://app?vid=f4c73116-43d3-41d9-88bb-9461dbbb405f"},"vehicle_type_id":"4","last_reported":1740258492,"current_range_meters":9600,"station_id":"","pricing_plan_id":"cebpf4jnsgd1na2vs0mg"},{"bike_id":"aa820ec7-7f35-4387-8fea-99b9db869428","system_id":"levelo_inurba_marseille","lat":43.296,"lon":5.38107,"is_reserved":false,"is_disabled":false,"rental_uris":{"android":"levelo://app?vid=aa820ec7-7f35-4387-8fea-99b9db869428","ios":"levelo://app?vid=aa820ec7-7f35-4387-8fea-99b9db869428"},"vehicle_type_id":"4","last_reported":1740258492,"current_range_meters":9600,"station_id":"ce4bgl12rcd13ifvqbo0","pricing_plan_id":"cebpf4jnsgd1na2vs0mg"},{"bike_id":"32e88e07-6d6f-480d-a26e-e7a1d227d6d5","system_id":"levelo_inurba_marseille","lat":43.30424,"lon":5.39756,"is_reserved":false,"is_disabled":false,"rental_uris":{"android":"levelo://app?vid=32e88e07-6d6f-480d-a26e-e7a1d227d6d5","ios":"levelo://app?vid=32e88e07-6d6f-480d-a26e-e7a1d227d6d5"},"vehicle_type_id":"4","last_reported":1740258492,"current_range_meters":9600,"station_id":"ce4bh092rcd13ifvqd20","pricing_plan_id":"cebpf4jnsgd1na2vs0mg"},{"bike_id":"827ec7e5-1ae5-45b8-890e-b6822ea9bc11","system_id":"levelo_inurba_marseille","lat":43.23961,"lon":5.36645,"is_reserved":false,"is_disabled":false,"rental_uris":{"android":"levelo://app?vid=827ec7e5-1ae5-45b8-890e-b6822ea9bc11","ios":"levelo://app?vid=827ec7e5-1ae5-45b8-890e-b6822ea9bc11"},"vehicle_type_id":"4","last_reported":1740258492,"current_range_meters":9600,"station_id":"ce4bhi12rcd13ifvqfp0","pricing_plan_id":"cebpf4jnsgd1na2vs0mg"},{"bike_id":"0254f4a0-e9a9-4d0b-962a-9f8e913bb370","system_id":"levelo_inurba_marseille","lat":43.29417,"lon":5.3863,"is_reserved":false,"is_disabled":false,"rental_uris":{"android":"levelo://app?vid=0254f4a0-e9a9-4d0b-962a-9f8e913bb370","ios":"levelo://app?vid=0254f4a0-e9a9-4d0b-962a-9f8e913bb370"},"vehicle_type_id":"4","last_reported":1740258492,"current_range_meters":10000,"station_id":"ce4bh2h2rcd13ifvqdh0","pricing_plan_id":"cebpf4jnsgd1na2vs0mg"},{"bike_id":"6d952517-9598-4ac6-8b62-3bfffbf52d62","system_id":"levelo_inurba_marseille","lat":43.29544,"lon":5.38552,"is_reserved":false,"is_disabled":false,"rental_uris":{"android":"levelo://app?vid=6d952517-9598-4ac6-8b62-3bfffbf52d62","ios":"levelo://app?vid=6d952517-9598-4ac6-8b62-3bfffbf52d62"},"vehicle_type_id":"4","last_reported":1740258492,"current_range_meters":10000,"station_id":"ce4bgih2rcd13ifvqba0","pricing_plan_id":"cebpf4jnsgd1na2vs0mg"},{"bike_id":"c6a1ef00-1084-493b-8248-9658c4452943","system_id":"levelo_inurba_marseille","lat":43.28295,"lon":5.3906,"is_reserved":false,"is_disabled":false,"rental_uris":{"android":"levelo://app?vid=c6a1ef00-1084-493b-8248-9658c4452943","ios":"levelo://app?vid=c6a1ef00-1084-493b-8248-9658c4452943"},"vehicle_type_id":"4","last_reported":1740258492,"current_range_meters":10000,"station_id":"","pricing_plan_id":"cebpf4jnsgd1na2vs0mg"},{"bike_id":"18cd1975-a0d8-4c4a-a2c1-27681d7705c0","system_id":"levelo_inurba_marseille","lat":43.27841,"lon":5.40716,"is_reserved":false,"is_disabled":false,"rental_uris":{"android":"levelo://app?vid=18cd1975-a0d8-4c4a-a2c1-27681d7705c0","ios":"levelo://app?vid=18cd1975-a0d8-4c4a-a2c1-27681d7705c0"},"vehicle_type_id":"4","last_reported":1740258492,"current_range_meters":10000,"station_id":"ce4bhnh2rcd13ifvqgtg","pricing_plan_id":"cebpf4jnsgd1na2vs0mg"},{"bike_id":"e17520b1-ddec-4578-ab87-aca665458e51","system_id":"levelo_inurba_marseille","lat":43.29607,"lon":5.38111,"is_reserved":false,"is_disabled":false,"rental_uris":{"android":"levelo://app?vid=e17520b1-ddec-4578-ab87-aca665458e51","ios":"levelo://app?vid=e17520b1-ddec-4578-ab87-aca665458e51"},"vehicle_type_id":"4","last_reported":1740258492,"current_range_meters":10000,"station_id":"ce4bgl12rcd13ifvqbo0","pricing_plan_id":"cebpf4jnsgd1na2vs0mg"},{"bike_id":"fd5fed38-ea8e-41f1-83d8-2273386a6471","system_id":"levelo_inurba_marseille","lat":43.29541,"lon":5.39397,"is_reserved":false,"is_disabled":false,"rental_uris":{"android":"levelo://app?vid=fd5fed38-ea8e-41f1-83d8-2273386a6471","ios":"levelo://app?vid=fd5fed38-ea8e-41f1-83d8-2273386a6471"},"vehicle_type_id":"4","last_reported":1740258492,"current_range_meters":10800,"station_id":"ce4bh292rcd13ifvqdf0","pricing_plan_id":"cebpf4jnsgd1na2vs0mg"},{"bike_id":"519c0d90-c598-4074-9c80-d5e1565ff705","system_id":"levelo_inurba_marseille","lat":43.23088,"lon":5.35456,"is_reserved":false,"is_disabled":false,"rental_uris":{"android":"levelo://app?vid=519c0d90-c598-4074-9c80-d5e1565ff705","ios":"levelo://app?vid=519c0d90-c598-4074-9c80-d5e1565ff705"},"vehicle_type_id":"4","last_reported":1740258492,"current_range_meters":10800,"station_id":"cpo3342slgdg3j2ifvpg","pricing_plan_id":"cebpf4jnsgd1na2vs0mg"},{"bike_id":"5d52fe5a-dfb3-40bb-a0d1-9a7b3f23529e","system_id":"levelo_inurba_marseille","lat":43.26225,"lon":5.4047,"is_reserved":false,"is_disabled":false,"rental_uris":{"android":"levelo://app?vid=5d52fe5a-dfb3-40bb-a0d1-9a7b3f23529e","ios":"levelo://app?vid=5d52fe5a-dfb3-40bb-a0d1-9a7b3f23529e"},"vehicle_type_id":"4","last_reported":1740258492,"current_range_meters":10800,"station_id":"ce4bhmh2rcd13ifvqgmg","pricing_plan_id":"cebpf4jnsgd1na2vs0mg"},{"bike_id":"b1e87215-ee39-431d-ba3d-9a559ec930cb","system_id":"levelo_inurba_marseille","lat":43.30257,"lon":5.40073,"is_reserved":false,"is_disabled":false,"rental_uris":{"android":"levelo://app?vid=b1e87215-ee39-431d-ba3d-9a559ec930cb","ios":"levelo://app?vid=b1e87215-ee39-431d-ba3d-9a559ec930cb"},"vehicle_type_id":"4","last_reported":1740258492,"current_range_meters":10800,"station_id":"ce4bgvh2rcd13ifvqcs0","pricing_plan_id":"cebpf4jnsgd1na2vs0mg"},{"bike_id":"e482ff47-0080-456b-9a80-220e98179454","system_id":"levelo_inurba_marseille","lat":43.295837,"lon":5.376053,"is_reserved":false,"is_disabled":false,"rental_uris":{"android":"levelo://app?vid=e482ff47-0080-456b-9a80-220e98179454","ios":"levelo://app?vid=e482ff47-0080-456b-9a80-220e98179454"},"vehicle_type_id":"4","last_reported":1740258492,"current_range_meters":10800,"station_id":"ce4bgh92rcd13ifvqb50","pricing_plan_id":"cebpf4jnsgd1na2vs0mg"},{"bike_id":"d8228868-aedc-4425-8d12-39248acb0f7f","system_id":"levelo_inurba_marseille","lat":43.289321,"lon":5.366419,"is_reserved":false,"is_disabled":false,"rental_uris":{"android":"levelo://app?vid=d8228868-aedc-4425-8d12-39248acb0f7f","ios":"levelo://app?vid=d8228868-aedc-4425-8d12-39248acb0f7f"},"vehicle_type_id":"4","last_reported":1740258492,"current_range_meters":10800,"station_id":"ce4bhap2rcd13ifvqek0","pricing_plan_id":"cebpf4jnsgd1na2vs0mg"},{"bike_id":"c76531ac-1214-4592-9c1c-6b2ce2bc0cf8","system_id":"levelo_inurba_marseille","lat":43.23208,"lon":5.35554,"is_reserved":false,"is_disabled":false,"rental_uris":{"android":"levelo://app?vid=c76531ac-1214-4592-9c1c-6b2ce2bc0cf8","ios":"levelo://app?vid=c76531ac-1214-4592-9c1c-6b2ce2bc0cf8"},"vehicle_type_id":"4","last_reported":1740258492,"current_range_meters":10800,"station_id":"ce4bhu92rcd13ifvqi70","pricing_plan_id":"cebpf4jnsgd1na2vs0mg"},{"bike_id":"548a47c0-ba06-4c06-9b22-56c419bef6a0","system_id":"levelo_inurba_marseille","lat":43.29413,"lon":5.38623,"is_reserved":false,"is_disabled":false,"rental_uris":{"android":"levelo://app?vid=548a47c0-ba06-4c06-9b22-56c419bef6a0","ios":"levelo://app?vid=548a47c0-ba06-4c06-9b22-56c419bef6a0"},"vehicle_type_id":"4","last_reported":1740258492,"current_range_meters":10800,"station_id":"ce4bh2h2rcd13ifvqdh0","pricing_plan_id":"cebpf4jnsgd1na2vs0mg"},{"bike_id":"bb127142-502c-4b61-b74c-d7410317905c","system_id":"levelo_inurba_marseille","lat":43.2682,"lon":5.40254,"is_reserved":false,"is_disabled":false,"rental_uris":{"android":"levelo://app?vid=bb127142-502c-4b61-b74c-d7410317905c","ios":"levelo://app?vid=bb127142-502c-4b61-b74c-d7410317905c"},"vehicle_type_id":"4","last_reported":1740258492,"current_range_meters":11200,"station_id":"ce501612rcd8frsf0b60","pricing_plan_id":"cebpf4jnsgd1na2vs0mg"},{"bike_id":"9d49efd4-a238-4a72-8787-13c506ac8d9b","system_id":"levelo_inurba_marseille","lat":43.27184,"lon":5.40987,"is_reserved":false,"is_disabled":false,"rental_uris":{"android":"levelo://app?vid=9d49efd4-a238-4a72-8787-13c506ac8d9b","ios":"levelo://app?vid=9d49efd4-a238-4a72-8787-13c506ac8d9b"},"vehicle_type_id":"4","last_reported":1740258492,"current_range_meters":11200,"station_id":"ce4bhl12rcd13ifvqgf0","pricing_plan_id":"cebpf4jnsgd1na2vs0mg"},{"bike_id":"ddb48cd1-bcb3-4cac-8164-1ae412ca1019","system_id":"levelo_inurba_marseille","lat":43.29334,"lon":5.3724,"is_reserved":false,"is_disabled":false,"rental_uris":{"android":"levelo://app?vid=ddb48cd1-bcb3-4cac-8164-1ae412ca1019","ios":"levelo://app?vid=ddb48cd1-bcb3-4cac-8164-1ae412ca1019"},"vehicle_type_id":"4","last_reported":1740258492,"current_range_meters":11200,"station_id":"","pricing_plan_id":"cebpf4jnsgd1na2vs0mg"},{"bike_id":"2bb7b4d0-b8b9-4e29-b1ca-e38f92914e06","system_id":"levelo_inurba_marseille","lat":43.27373,"lon":5.36266,"is_reserved":false,"is_disabled":false,"rental_uris":{"android":"levelo://app?vid=2bb7b4d0-b8b9-4e29-b1ca-e38f92914e06","ios":"levelo://app?vid=2bb7b4d0-b8b9-4e29-b1ca-e38f92914e06"},"vehicle_type_id":"4","last_reported":1740258492,"current_range_meters":10800,"station_id":"ce4bhbh2rcd13ifvqeo0","pricing_plan_id":"cebpf4jnsgd1na2vs0mg"},{"bike_id":"c3b9be2e-b257-4f64-8882-ea41b3bf3812","system_id":"levelo_inurba_marseille","lat":43.32305,"lon":5.39238,"is_reserved":false,"is_disabled":false,"rental_uris":{"android":"levelo://app?vid=c3b9be2e-b257-4f64-8882-ea41b3bf3812","ios":"levelo://app?vid=c3b9be2e-b257-4f64-8882-ea41b3bf3812"},"vehicle_type_id":"4","last_reported":1740258492,"current_range_meters":11200,"station_id":"","pricing_plan_id":"cebpf4jnsgd1na2vs0mg"},{"bike_id":"16af35a1-8e31-4d8c-94b1-b1f2399dcd76","system_id":"levelo_inurba_marseille","lat":43.29539,"lon":5.39055,"is_reserved":false,"is_disabled":false,"rental_uris":{"android":"levelo://app?vid=16af35a1-8e31-4d8c-94b1-b1f2399dcd76","ios":"levelo://app?vid=16af35a1-8e31-4d8c-94b1-b1f2399dcd76"},"vehicle_type_id":"4","last_reported":1740258492,"current_range_meters":11600,"station_id":"ce4bh3p2rcd13ifvqdp0","pricing_plan_id":"cebpf4jnsgd1na2vs0mg"},{"bike_id":"09486dc5-7654-4904-afc6-3b8a40308aeb","system_id":"levelo_inurba_marseille","lat":43.25417,"lon":5.41581,"is_reserved":false,"is_disabled":false,"rental_uris":{"android":"levelo://app?vid=09486dc5-7654-4904-afc6-3b8a40308aeb","ios":"levelo://app?vid=09486dc5-7654-4904-afc6-3b8a40308aeb"},"vehicle_type_id":"4","last_reported":1740258492,"current_range_meters":11600,"station_id":"","pricing_plan_id":"cebpf4jnsgd1na2vs0mg"},{"bike_id":"0b35ef10-1d1d-4e8a-949e-c3122c5e3874","system_id":"levelo_inurba_marseille","lat":43.23956,"lon":5.36635,"is_reserved":false,"is_disabled":false,"rental_uris":{"android":"levelo://app?vid=0b35ef10-1d1d-4e8a-949e-c3122c5e3874","ios":"levelo://app?vid=0b35ef10-1d1d-4e8a-949e-c3122c5e3874"},"vehicle_type_id":"4","last_reported":1740258492,"current_range_meters":11600,"station_id":"ce4bhi12rcd13ifvqfp0","pricing_plan_id":"cebpf4jnsgd1na2vs0mg"},{"bike_id":"c530e3dd-0467-4802-9c56-86f2eaf16573","system_id":"levelo_inurba_marseille","lat":43.26249,"lon":5.40464,"is_reserved":false,"is_disabled":false,"rental_uris":{"android":"levelo://app?vid=c530e3dd-0467-4802-9c56-86f2eaf16573","ios":"levelo://app?vid=c530e3dd-0467-4802-9c56-86f2eaf16573"},"vehicle_type_id":"4","last_reported":1740258492,"current_range_meters":11600,"station_id":"ce4bhmh2rcd13ifvqgmg","pricing_plan_id":"cebpf4jnsgd1na2vs0mg"},{"bike_id":"10194f0a-5c40-4d9f-9b03-56f212c35f22","system_id":"levelo_inurba_marseille","lat":43.30931,"lon":5.40144,"is_reserved":false,"is_disabled":false,"rental_uris":{"android":"levelo://app?vid=10194f0a-5c40-4d9f-9b03-56f212c35f22","ios":"levelo://app?vid=10194f0a-5c40-4d9f-9b03-56f212c35f22"},"vehicle_type_id":"4","last_reported":1740258492,"current_range_meters":11600,"station_id":"ce4bgvp2rcd13ifvqct0","pricing_plan_id":"cebpf4jnsgd1na2vs0mg"},{"bike_id":"580cd37a-010c-47d8-955d-e1bf99f50654","system_id":"levelo_inurba_marseille","lat":43.28377,"lon":5.38664,"is_reserved":false,"is_disabled":false,"rental_uris":{"android":"levelo://app?vid=580cd37a-010c-47d8-955d-e1bf99f50654","ios":"levelo://app?vid=580cd37a-010c-47d8-955d-e1bf99f50654"},"vehicle_type_id":"4","last_reported":1740258492,"current_range_meters":11600,"station_id":"ce4bh492rcd13ifvqdvg","pricing_plan_id":"cebpf4jnsgd1na2vs0mg"},{"bike_id":"26a2d076-f5f2-45a7-98f5-29542790fe7d","system_id":"levelo_inurba_marseille","lat":43.32367,"lon":5.36763,"is_reserved":false,"is_disabled":false,"rental_uris":{"android":"levelo://app?vid=26a2d076-f5f2-45a7-98f5-29542790fe7d","ios":"levelo://app?vid=26a2d076-f5f2-45a7-98f5-29542790fe7d"},"vehicle_type_id":"4","last_reported":1740258492,"current_range_meters":11600,"station_id":"ce4bhsh2rcd13ifvqi2g","pricing_plan_id":"cebpf4jnsgd1na2vs0mg"},{"bike_id":"218ed1fe-3a68-4f22-8391-c1bf4192d7cb","system_id":"levelo_inurba_marseille","lat":43.29303,"lon":5.37179,"is_reserved":false,"is_disabled":false,"rental_uris":{"android":"levelo://app?vid=218ed1fe-3a68-4f22-8391-c1bf4192d7cb","ios":"levelo://app?vid=218ed1fe-3a68-4f22-8391-c1bf4192d7cb"},"vehicle_type_id":"4","last_reported":1740258492,"current_range_meters":12000,"station_id":"ce4bgh92rcd13ifvqb40","pricing_plan_id":"cebpf4jnsgd1na2vs0mg"},{"bike_id":"de0bedb1-68db-432f-8eac-3955c6def879","system_id":"levelo_inurba_marseille","lat":43.29515,"lon":5.39041,"is_reserved":false,"is_disabled":false,"rental_uris":{"android":"levelo://app?vid=de0bedb1-68db-432f-8eac-3955c6def879","ios":"levelo://app?vid=de0bedb1-68db-432f-8eac-3955c6def879"},"vehicle_type_id":"4","last_reported":1740258492,"current_range_meters":12000,"station_id":"ce4bh3p2rcd13ifvqdp0","pricing_plan_id":"cebpf4jnsgd1na2vs0mg"},{"bike_id":"cff200f3-97e2-4e66-ad78-44b83886c127","system_id":"levelo_inurba_marseille","lat":43.296,"lon":5.38111,"is_reserved":false,"is_disabled":false,"rental_uris":{"android":"levelo://app?vid=cff200f3-97e2-4e66-ad78-44b83886c127","ios":"levelo://app?vid=cff200f3-97e2-4e66-ad78-44b83886c127"},"vehicle_type_id":"4","last_reported":1740258492,"current_range_meters":12000,"station_id":"ce4bgl12rcd13ifvqbo0","pricing_plan_id":"cebpf4jnsgd1na2vs0mg"},{"bike_id":"ff994de1-f754-405f-81b6-dfb25d8dad20","system_id":"levelo_inurba_marseille","lat":43.29968,"lon":5.38564,"is_reserved":false,"is_disabled":false,"rental_uris":{"android":"levelo://app?vid=ff994de1-f754-405f-81b6-dfb25d8dad20","ios":"levelo://app?vid=ff994de1-f754-405f-81b6-dfb25d8dad20"},"vehicle_type_id":"4","last_reported":1740258492,"current_range_meters":12000,"station_id":"","pricing_plan_id":"cebpf4jnsgd1na2vs0mg"},{"bike_id":"1b0d6542-f74d-4dd5-b78b-1cd1115ff80b","system_id":"levelo_inurba_marseille","lat":43.30607,"lon":5.37416,"is_reserved":false,"is_disabled":false,"rental_uris":{"android":"levelo://app?vid=1b0d6542-f74d-4dd5-b78b-1cd1115ff80b","ios":"levelo://app?vid=1b0d6542-f74d-4dd5-b78b-1cd1115ff80b"},"vehicle_type_id":"4","last_reported":1740258492,"current_range_meters":12400,"station_id":"","pricing_plan_id":"cebpf4jnsgd1na2vs0mg"},{"bike_id":"51be5869-b3e7-4121-b4de-155f4b63e784","system_id":"levelo_inurba_marseille","lat":43.29258,"lon":5.38436,"is_reserved":false,"is_disabled":false,"rental_uris":{"android":"levelo://app?vid=51be5869-b3e7-4121-b4de-155f4b63e784","ios":"levelo://app?vid=51be5869-b3e7-4121-b4de-155f4b63e784"},"vehicle_type_id":"4","last_reported":1740258492,"current_range_meters":12400,"station_id":"ce4bh692rcd13ifvqea0","pricing_plan_id":"cebpf4jnsgd1na2vs0mg"},{"bike_id":"ab8e4fa1-a748-4b68-9f46-2fdc2afb052f","system_id":"levelo_inurba_marseille","lat":43.25836,"lon":5.39414,"is_reserved":false,"is_disabled":false,"rental_uris":{"android":"levelo://app?vid=ab8e4fa1-a748-4b68-9f46-2fdc2afb052f","ios":"levelo://app?vid=ab8e4fa1-a748-4b68-9f46-2fdc2afb052f"},"vehicle_type_id":"4","last_reported":1740258492,"current_range_meters":12400,"station_id":"ce4bhip2rcd13ifvqft0","pricing_plan_id":"cebpf4jnsgd1na2vs0mg"},{"bike_id":"f6d78434-f92e-4320-8e1c-29737f7310f3","system_id":"levelo_inurba_marseille","lat":43.29394,"lon":5.38635,"is_reserved":false,"is_disabled":false,"rental_uris":{"android":"levelo://app?vid=f6d78434-f92e-4320-8e1c-29737f7310f3","ios":"levelo://app?vid=f6d78434-f92e-4320-8e1c-29737f7310f3"},"vehicle_type_id":"4","last_reported":1740258492,"current_range_meters":12400,"station_id":"ce4bh2h2rcd13ifvqdh0","pricing_plan_id":"cebpf4jnsgd1na2vs0mg"},{"bike_id":"8dece042-db0f-46b3-853f-c4c961bdd134","system_id":"levelo_inurba_marseille","lat":43.29426,"lon":5.38639,"is_reserved":false,"is_disabled":false,"rental_uris":{"android":"levelo://app?vid=8dece042-db0f-46b3-853f-c4c961bdd134","ios":"levelo://app?vid=8dece042-db0f-46b3-853f-c4c961bdd134"},"vehicle_type_id":"4","last_reported":1740258492,"current_range_meters":12400,"station_id":"ce4bh2h2rcd13ifvqdh0","pricing_plan_id":"cebpf4jnsgd1na2vs0mg"},{"bike_id":"d88699b9-7a50-415c-9cdb-a35fdc00ed80","system_id":"levelo_inurba_marseille","lat":43.29934,"lon":5.37193,"is_reserved":false,"is_disabled":false,"rental_uris":{"android":"levelo://app?vid=d88699b9-7a50-415c-9cdb-a35fdc00ed80","ios":"levelo://app?vid=d88699b9-7a50-415c-9cdb-a35fdc00ed80"},"vehicle_type_id":"4","last_reported":1740258492,"current_range_meters":12400,"station_id":"","pricing_plan_id":"cebpf4jnsgd1na2vs0mg"},{"bike_id":"5e8691a8-f2ed-4a5d-8ce2-b5c17291ce24","system_id":"levelo_inurba_marseille","lat":43.29273,"lon":5.38415,"is_reserved":false,"is_disabled":false,"rental_uris":{"android":"levelo://app?vid=5e8691a8-f2ed-4a5d-8ce2-b5c17291ce24","ios":"levelo://app?vid=5e8691a8-f2ed-4a5d-8ce2-b5c17291ce24"},"vehicle_type_id":"4","last_reported":1740258492,"current_range_meters":12400,"station_id":"ce4bh692rcd13ifvqea0","pricing_plan_id":"cebpf4jnsgd1na2vs0mg"},{"bike_id":"292b83ea-3c02-4eb0-953b-bc59d714524a","system_id":"levelo_inurba_marseille","lat":43.27824,"lon":5.40722,"is_reserved":false,"is_disabled":false,"rental_uris":{"android":"levelo://app?vid=292b83ea-3c02-4eb0-953b-bc59d714524a","ios":"levelo://app?vid=292b83ea-3c02-4eb0-953b-bc59d714524a"},"vehicle_type_id":"4","last_reported":1740258492,"current_range_meters":12000,"station_id":"ce4bhnh2rcd13ifvqgtg","pricing_plan_id":"cebpf4jnsgd1na2vs0mg"},{"bike_id":"1f7411cd-9379-4bab-a8bc-411b928d8602","system_id":"levelo_inurba_marseille","lat":43.27489,"lon":5.42458,"is_reserved":false,"is_disabled":false,"rental_uris":{"android":"levelo://app?vid=1f7411cd-9379-4bab-a8bc-411b928d8602","ios":"levelo://app?vid=1f7411cd-9379-4bab-a8bc-411b928d8602"},"vehicle_type_id":"4","last_reported":1740258492,"current_range_meters":12800,"station_id":"ce4bhn92rcd13ifvqgrg","pricing_plan_id":"cebpf4jnsgd1na2vs0mg"},{"bike_id":"8dc51aab-29d3-43fa-a37e-6c47cc4c2e69","system_id":"levelo_inurba_marseille","lat":43.24159,"lon":5.36399,"is_reserved":false,"is_disabled":false,"rental_uris":{"android":"levelo://app?vid=8dc51aab-29d3-43fa-a37e-6c47cc4c2e69","ios":"levelo://app?vid=8dc51aab-29d3-43fa-a37e-6c47cc4c2e69"},"vehicle_type_id":"4","last_reported":1740258492,"current_range_meters":12800,"station_id":"cpo36qri1sfpv3e86is0","pricing_plan_id":"cebpf4jnsgd1na2vs0mg"},{"bike_id":"5e1f590c-ff22-4f77-8074-0c74992cc5a9","system_id":"levelo_inurba_marseille","lat":43.29294,"lon":5.37138,"is_reserved":false,"is_disabled":false,"rental_uris":{"android":"levelo://app?vid=5e1f590c-ff22-4f77-8074-0c74992cc5a9","ios":"levelo://app?vid=5e1f590c-ff22-4f77-8074-0c74992cc5a9"},"vehicle_type_id":"4","last_reported":1740258492,"current_range_meters":12800,"station_id":"ce4bgh92rcd13ifvqb40","pricing_plan_id":"cebpf4jnsgd1na2vs0mg"},{"bike_id":"b8475183-5154-41cf-80bf-61e450ea67d0","system_id":"levelo_inurba_marseille","lat":43.31493,"lon":5.37301,"is_reserved":false,"is_disabled":false,"rental_uris":{"android":"levelo://app?vid=b8475183-5154-41cf-80bf-61e450ea67d0","ios":"levelo://app?vid=b8475183-5154-41cf-80bf-61e450ea67d0"},"vehicle_type_id":"4","last_reported":1740258492,"current_range_meters":12800,"station_id":"ce4bgt12rcd13ifvqcd0","pricing_plan_id":"cebpf4jnsgd1na2vs0mg"},{"bike_id":"1b86abed-1130-4660-a683-d3dde56c7cf4","system_id":"levelo_inurba_marseille","lat":43.29606,"lon":5.38098,"is_reserved":false,"is_disabled":false,"rental_uris":{"android":"levelo://app?vid=1b86abed-1130-4660-a683-d3dde56c7cf4","ios":"levelo://app?vid=1b86abed-1130-4660-a683-d3dde56c7cf4"},"vehicle_type_id":"4","last_reported":1740258492,"current_range_meters":12800,"station_id":"ce4bgl12rcd13ifvqbo0","pricing_plan_id":"cebpf4jnsgd1na2vs0mg"},{"bike_id":"8f7662e6-3e5d-4bc0-89fa-0eb99bd33295","system_id":"levelo_inurba_marseille","lat":43.29982,"lon":5.385,"is_reserved":false,"is_disabled":false,"rental_uris":{"android":"levelo://app?vid=8f7662e6-3e5d-4bc0-89fa-0eb99bd33295","ios":"levelo://app?vid=8f7662e6-3e5d-4bc0-89fa-0eb99bd33295"},"vehicle_type_id":"4","last_reported":1740258492,"current_range_meters":12800,"station_id":"ce4bgj92rcd13ifvqbd0","pricing_plan_id":"cebpf4jnsgd1na2vs0mg"},{"bike_id":"f88c0f92-077e-4709-ac4f-32e5f99ec8fa","system_id":"levelo_inurba_marseille","lat":43.29534,"lon":5.38556,"is_reserved":false,"is_disabled":false,"rental_uris":{"android":"levelo://app?vid=f88c0f92-077e-4709-ac4f-32e5f99ec8fa","ios":"levelo://app?vid=f88c0f92-077e-4709-ac4f-32e5f99ec8fa"},"vehicle_type_id":"4","last_reported":1740258492,"current_range_meters":12800,"station_id":"ce4bgih2rcd13ifvqba0","pricing_plan_id":"cebpf4jnsgd1na2vs0mg"},{"bike_id":"6c6000dd-d631-4057-b372-f83b5c6fd465","system_id":"levelo_inurba_marseille","lat":43.26578,"lon":5.39018,"is_reserved":false,"is_disabled":false,"rental_uris":{"android":"levelo://app?vid=6c6000dd-d631-4057-b372-f83b5c6fd465","ios":"levelo://app?vid=6c6000dd-d631-4057-b372-f83b5c6fd465"},"vehicle_type_id":"4","last_reported":1740258492,"current_range_meters":12800,"station_id":"ce4bhe12rcd13ifvqf30","pricing_plan_id":"cebpf4jnsgd1na2vs0mg"},{"bike_id":"8a198aec-4bb7-44b4-aa58-2bd9675d6041","system_id":"levelo_inurba_marseille","lat":43.29184,"lon":5.35812,"is_reserved":false,"is_disabled":false,"rental_uris":{"android":"levelo://app?vid=8a198aec-4bb7-44b4-aa58-2bd9675d6041","ios":"levelo://app?vid=8a198aec-4bb7-44b4-aa58-2bd9675d6041"},"vehicle_type_id":"4","last_reported":1740258492,"current_range_meters":13600,"station_id":"ce4bhb12rcd13ifvqel0","pricing_plan_id":"cebpf4jnsgd1na2vs0mg"},{"bike_id":"f72aaa30-e111-425f-aa7e-bff51a5de9b5","system_id":"levelo_inurba_marseille","lat":43.29469,"lon":5.38634,"is_reserved":false,"is_disabled":false,"rental_uris":{"android":"levelo://app?vid=f72aaa30-e111-425f-aa7e-bff51a5de9b5","ios":"levelo://app?vid=f72aaa30-e111-425f-aa7e-bff51a5de9b5"},"vehicle_type_id":"4","last_reported":1740258492,"current_range_meters":13600,"station_id":"","pricing_plan_id":"cebpf4jnsgd1na2vs0mg"},{"bike_id":"3fd2a98c-7939-498c-8625-9658300a849b","system_id":"levelo_inurba_marseille","lat":43.259391,"lon":5.40902,"is_reserved":false,"is_disabled":false,"rental_uris":{"android":"levelo://app?vid=3fd2a98c-7939-498c-8625-9658300a849b","ios":"levelo://app?vid=3fd2a98c-7939-498c-8625-9658300a849b"},"vehicle_type_id":"4","last_reported":1740258492,"current_range_meters":13600,"station_id":"ce4bhm92rcd13ifvqglg","pricing_plan_id":"cebpf4jnsgd1na2vs0mg"},{"bike_id":"205903f3-7eb7-45a4-a2ac-125a5dae63b1","system_id":"levelo_inurba_marseille","lat":43.29255,"lon":5.38436,"is_reserved":false,"is_disabled":false,"rental_uris":{"android":"levelo://app?vid=205903f3-7eb7-45a4-a2ac-125a5dae63b1","ios":"levelo://app?vid=205903f3-7eb7-45a4-a2ac-125a5dae63b1"},"vehicle_type_id":"4","last_reported":1740258492,"current_range_meters":13600,"station_id":"ce4bh692rcd13ifvqea0","pricing_plan_id":"cebpf4jnsgd1na2vs0mg"},{"bike_id":"2938a310-6bba-49c0-8ed5-32054ec6baec","system_id":"levelo_inurba_marseille","lat":43.30889,"lon":5.37197,"is_reserved":false,"is_disabled":false,"rental_uris":{"android":"levelo://app?vid=2938a310-6bba-49c0-8ed5-32054ec6baec","ios":"levelo://app?vid=2938a310-6bba-49c0-8ed5-32054ec6baec"},"vehicle_type_id":"4","last_reported":1740258492,"current_range_meters":13600,"station_id":"ce4bguh2rcd13ifvqckg","pricing_plan_id":"cebpf4jnsgd1na2vs0mg"},{"bike_id":"f2ed0af5-6dfd-44bd-b5b5-7b05902817a0","system_id":"levelo_inurba_marseille","lat":43.28381,"lon":5.38645,"is_reserved":false,"is_disabled":false,"rental_uris":{"android":"levelo://app?vid=f2ed0af5-6dfd-44bd-b5b5-7b05902817a0","ios":"levelo://app?vid=f2ed0af5-6dfd-44bd-b5b5-7b05902817a0"},"vehicle_type_id":"4","last_reported":1740258492,"current_range_meters":13600,"station_id":"ce4bh492rcd13ifvqdvg","pricing_plan_id":"cebpf4jnsgd1na2vs0mg"},{"bike_id":"65a2b506-9f18-4086-90d7-6bbdf970a117","system_id":"levelo_inurba_marseille","lat":43.29544,"lon":5.38541,"is_reserved":false,"is_disabled":false,"rental_uris":{"android":"levelo://app?vid=65a2b506-9f18-4086-90d7-6bbdf970a117","ios":"levelo://app?vid=65a2b506-9f18-4086-90d7-6bbdf970a117"},"vehicle_type_id":"4","last_reported":1740258492,"current_range_meters":14000,"station_id":"ce4bgih2rcd13ifvqba0","pricing_plan_id":"cebpf4jnsgd1na2vs0mg"},{"bike_id":"1796031d-99bb-46c1-814d-0f321800c8fe","system_id":"levelo_inurba_marseille","lat":43.29898,"lon":5.38924,"is_reserved":false,"is_disabled":false,"rental_uris":{"android":"levelo://app?vid=1796031d-99bb-46c1-814d-0f321800c8fe","ios":"levelo://app?vid=1796031d-99bb-46c1-814d-0f321800c8fe"},"vehicle_type_id":"4","last_reported":1740258492,"current_range_meters":14000,"station_id":"ce4bh392rcd13ifvqdl0","pricing_plan_id":"cebpf4jnsgd1na2vs0mg"},{"bike_id":"8e403f8a-b998-4fb1-bb90-54bf70e024a5","system_id":"levelo_inurba_marseille","lat":43.26935,"lon":5.389166,"is_reserved":false,"is_disabled":false,"rental_uris":{"android":"levelo://app?vid=8e403f8a-b998-4fb1-bb90-54bf70e024a5","ios":"levelo://app?vid=8e403f8a-b998-4fb1-bb90-54bf70e024a5"},"vehicle_type_id":"4","last_reported":1740258492,"current_range_meters":14000,"station_id":"ce4bhhh2rcd13ifvqfl0","pricing_plan_id":"cebpf4jnsgd1na2vs0mg"},{"bike_id":"1e3ac436-4cb3-4e99-aef6-41fc63be494d","system_id":"levelo_inurba_marseille","lat":43.29889,"lon":5.3747,"is_reserved":false,"is_disabled":false,"rental_uris":{"android":"levelo://app?vid=1e3ac436-4cb3-4e99-aef6-41fc63be494d","ios":"levelo://app?vid=1e3ac436-4cb3-4e99-aef6-41fc63be494d"},"vehicle_type_id":"4","last_reported":1740258492,"current_range_meters":14000,"station_id":"ce4bgjh2rcd13ifvqbg0","pricing_plan_id":"cebpf4jnsgd1na2vs0mg"},{"bike_id":"d3cd63fd-fc06-4f5b-a773-80e68b7da5d0","system_id":"levelo_inurba_marseille","lat":43.31125,"lon":5.37767,"is_reserved":false,"is_disabled":false,"rental_uris":{"android":"levelo://app?vid=d3cd63fd-fc06-4f5b-a773-80e68b7da5d0","ios":"levelo://app?vid=d3cd63fd-fc06-4f5b-a773-80e68b7da5d0"},"vehicle_type_id":"4","last_reported":1740258492,"current_range_meters":14400,"station_id":"ce4bgt92rcd13ifvqcg0","pricing_plan_id":"cebpf4jnsgd1na2vs0mg"},{"bike_id":"10da2d87-3144-449d-aec0-922f0e1d2594","system_id":"levelo_inurba_marseille","lat":43.28364,"lon":5.38648,"is_reserved":false,"is_disabled":false,"rental_uris":{"android":"levelo://app?vid=10da2d87-3144-449d-aec0-922f0e1d2594","ios":"levelo://app?vid=10da2d87-3144-449d-aec0-922f0e1d2594"},"vehicle_type_id":"4","last_reported":1740258492,"current_range_meters":14800,"station_id":"ce4bh492rcd13ifvqdvg","pricing_plan_id":"cebpf4jnsgd1na2vs0mg"},{"bike_id":"842465dc-64f0-4437-9323-84b2a88c4758","system_id":"levelo_inurba_marseille","lat":43.29534,"lon":5.39026,"is_reserved":false,"is_disabled":false,"rental_uris":{"android":"levelo://app?vid=842465dc-64f0-4437-9323-84b2a88c4758","ios":"levelo://app?vid=842465dc-64f0-4437-9323-84b2a88c4758"},"vehicle_type_id":"4","last_reported":1740258492,"current_range_meters":14800,"station_id":"ce4bh3p2rcd13ifvqdp0","pricing_plan_id":"cebpf4jnsgd1na2vs0mg"},{"bike_id":"bf955d35-f5d5-4c7a-acee-2eb7e71c40f9","system_id":"levelo_inurba_marseille","lat":43.26687,"lon":5.38274,"is_reserved":false,"is_disabled":false,"rental_uris":{"android":"levelo://app?vid=bf955d35-f5d5-4c7a-acee-2eb7e71c40f9","ios":"levelo://app?vid=bf955d35-f5d5-4c7a-acee-2eb7e71c40f9"},"vehicle_type_id":"4","last_reported":1740258492,"current_range_meters":14800,"station_id":"ce4bhg92rcd13ifvqf90","pricing_plan_id":"cebpf4jnsgd1na2vs0mg"},{"bike_id":"a32db01c-f31e-44d9-86ce-f982de71749a","system_id":"levelo_inurba_marseille","lat":43.257279,"lon":5.41108,"is_reserved":false,"is_disabled":false,"rental_uris":{"android":"levelo://app?vid=a32db01c-f31e-44d9-86ce-f982de71749a","ios":"levelo://app?vid=a32db01c-f31e-44d9-86ce-f982de71749a"},"vehicle_type_id":"4","last_reported":1740258492,"current_range_meters":14800,"station_id":"ce4bhkp2rcd13ifvqgd0","pricing_plan_id":"cebpf4jnsgd1na2vs0mg"},{"bike_id":"095d5026-b6cb-411c-ab71-6c60703e2b2f","system_id":"levelo_inurba_marseille","lat":43.2307,"lon":5.35484,"is_reserved":false,"is_disabled":true,"rental_uris":{"android":"levelo://app?vid=095d5026-b6cb-411c-ab71-6c60703e2b2f","ios":"levelo://app?vid=095d5026-b6cb-411c-ab71-6c60703e2b2f"},"vehicle_type_id":"4","last_reported":1740258492,"current_range_meters":14800,"station_id":"cpo3342slgdg3j2ifvpg","pricing_plan_id":"cebpf4jnsgd1na2vs0mg"},{"bike_id":"49f0cfbd-4a05-40e7-84e3-188b77d24ee2","system_id":"levelo_inurba_marseille","lat":43.29378,"lon":5.37155,"is_reserved":false,"is_disabled":false,"rental_uris":{"android":"levelo://app?vid=49f0cfbd-4a05-40e7-84e3-188b77d24ee2","ios":"levelo://app?vid=49f0cfbd-4a05-40e7-84e3-188b77d24ee2"},"vehicle_type_id":"4","last_reported":1740258492,"current_range_meters":14800,"station_id":"","pricing_plan_id":"cebpf4jnsgd1na2vs0mg"},{"bike_id":"fcbc11fc-1005-4201-ab8a-295309eb1390","system_id":"levelo_inurba_marseille","lat":43.28002,"lon":5.41659,"is_reserved":false,"is_disabled":false,"rental_uris":{"android":"levelo://app?vid=fcbc11fc-1005-4201-ab8a-295309eb1390","ios":"levelo://app?vid=fcbc11fc-1005-4201-ab8a-295309eb1390"},"vehicle_type_id":"4","last_reported":1740258492,"current_range_meters":14800,"station_id":"ce4bho12rcd13ifvqh1g","pricing_plan_id":"cebpf4jnsgd1na2vs0mg"},{"bike_id":"07e94c33-65a8-4be0-90bf-399fe126c10e","system_id":"levelo_inurba_marseille","lat":43.25027,"lon":5.38936,"is_reserved":false,"is_disabled":false,"rental_uris":{"android":"levelo://app?vid=07e94c33-65a8-4be0-90bf-399fe126c10e","ios":"levelo://app?vid=07e94c33-65a8-4be0-90bf-399fe126c10e"},"vehicle_type_id":"4","last_reported":1740258492,"current_range_meters":14800,"station_id":"ce4bhgp2rcd13ifvqfd0","pricing_plan_id":"cebpf4jnsgd1na2vs0mg"},{"bike_id":"cd1c00f0-c8b9-4e04-b4b5-658ee63fda16","system_id":"levelo_inurba_marseille","lat":43.29274,"lon":5.37618,"is_reserved":false,"is_disabled":false,"rental_uris":{"android":"levelo://app?vid=cd1c00f0-c8b9-4e04-b4b5-658ee63fda16","ios":"levelo://app?vid=cd1c00f0-c8b9-4e04-b4b5-658ee63fda16"},"vehicle_type_id":"4","last_reported":1740258492,"current_range_meters":14800,"station_id":"ce4bgi12rcd13ifvqb80","pricing_plan_id":"cebpf4jnsgd1na2vs0mg"},{"bike_id":"2132ed8f-161f-46d0-8222-4a3dda853a1d","system_id":"levelo_inurba_marseille","lat":43.29537,"lon":5.38551,"is_reserved":false,"is_disabled":false,"rental_uris":{"android":"levelo://app?vid=2132ed8f-161f-46d0-8222-4a3dda853a1d","ios":"levelo://app?vid=2132ed8f-161f-46d0-8222-4a3dda853a1d"},"vehicle_type_id":"4","last_reported":1740258492,"current_range_meters":15200,"station_id":"ce4bgih2rcd13ifvqba0","pricing_plan_id":"cebpf4jnsgd1na2vs0mg"},{"bike_id":"f5043b92-9d4a-4bb2-9e78-864d7e12fcea","system_id":"levelo_inurba_marseille","lat":43.28717,"lon":5.37388,"is_reserved":false,"is_disabled":false,"rental_uris":{"android":"levelo://app?vid=f5043b92-9d4a-4bb2-9e78-864d7e12fcea","ios":"levelo://app?vid=f5043b92-9d4a-4bb2-9e78-864d7e12fcea"},"vehicle_type_id":"4","last_reported":1740258492,"current_range_meters":15200,"station_id":"ce4bh3p2rcd13ifvqdq0","pricing_plan_id":"cebpf4jnsgd1na2vs0mg"},{"bike_id":"ea1ea19a-36b9-41cb-b6f7-565f583d6040","system_id":"levelo_inurba_marseille","lat":43.29293,"lon":5.37443,"is_reserved":false,"is_disabled":false,"rental_uris":{"android":"levelo://app?vid=ea1ea19a-36b9-41cb-b6f7-565f583d6040","ios":"levelo://app?vid=ea1ea19a-36b9-41cb-b6f7-565f583d6040"},"vehicle_type_id":"4","last_reported":1740258492,"current_range_meters":15200,"station_id":"ce4bgi12rcd13ifvqb70","pricing_plan_id":"cebpf4jnsgd1na2vs0mg"},{"bike_id":"8e6a5515-43a2-49dc-85b3-146d6e6e4935","system_id":"levelo_inurba_marseille","lat":43.29924,"lon":5.37484,"is_reserved":false,"is_disabled":false,"rental_uris":{"android":"levelo://app?vid=8e6a5515-43a2-49dc-85b3-146d6e6e4935","ios":"levelo://app?vid=8e6a5515-43a2-49dc-85b3-146d6e6e4935"},"vehicle_type_id":"4","last_reported":1740258492,"current_range_meters":15200,"station_id":"ce4bgjh2rcd13ifvqbg0","pricing_plan_id":"cebpf4jnsgd1na2vs0mg"},{"bike_id":"6dd077c7-5019-434d-96b5-8d45bc1517b1","system_id":"levelo_inurba_marseille","lat":43.30247,"lon":5.40091,"is_reserved":false,"is_disabled":false,"rental_uris":{"android":"levelo://app?vid=6dd077c7-5019-434d-96b5-8d45bc1517b1","ios":"levelo://app?vid=6dd077c7-5019-434d-96b5-8d45bc1517b1"},"vehicle_type_id":"4","last_reported":1740258492,"current_range_meters":16000,"station_id":"ce4bgvh2rcd13ifvqcs0","pricing_plan_id":"cebpf4jnsgd1na2vs0mg"},{"bike_id":"6cee15f5-f5b0-4f78-80d2-62dd5deb5a0a","system_id":"levelo_inurba_marseille","lat":43.26571,"lon":5.39009,"is_reserved":false,"is_disabled":false,"rental_uris":{"android":"levelo://app?vid=6cee15f5-f5b0-4f78-80d2-62dd5deb5a0a","ios":"levelo://app?vid=6cee15f5-f5b0-4f78-80d2-62dd5deb5a0a"},"vehicle_type_id":"4","last_reported":1740258492,"current_range_meters":16000,"station_id":"ce4bhe12rcd13ifvqf30","pricing_plan_id":"cebpf4jnsgd1na2vs0mg"},{"bike_id":"6e7453d3-b596-416f-a44e-21daef2820ad","system_id":"levelo_inurba_marseille","lat":43.25581,"lon":5.38254,"is_reserved":false,"is_disabled":false,"rental_uris":{"android":"levelo://app?vid=6e7453d3-b596-416f-a44e-21daef2820ad","ios":"levelo://app?vid=6e7453d3-b596-416f-a44e-21daef2820ad"},"vehicle_type_id":"4","last_reported":1740258492,"current_range_meters":16000,"station_id":"ce4bhih2rcd13ifvqfs0","pricing_plan_id":"cebpf4jnsgd1na2vs0mg"},{"bike_id":"1cd38b2f-589c-45ab-871e-cdb4d0ec0292","system_id":"levelo_inurba_marseille","lat":43.25124,"lon":5.40319,"is_reserved":false,"is_disabled":false,"rental_uris":{"android":"levelo://app?vid=1cd38b2f-589c-45ab-871e-cdb4d0ec0292","ios":"levelo://app?vid=1cd38b2f-589c-45ab-871e-cdb4d0ec0292"},"vehicle_type_id":"4","last_reported":1740258492,"current_range_meters":16000,"station_id":"ce4bhlh2rcd13ifvqgig","pricing_plan_id":"cebpf4jnsgd1na2vs0mg"},{"bike_id":"f3fcc730-cdc0-4a35-9472-678d95b28e69","system_id":"levelo_inurba_marseille","lat":43.29429,"lon":5.38644,"is_reserved":false,"is_disabled":false,"rental_uris":{"android":"levelo://app?vid=f3fcc730-cdc0-4a35-9472-678d95b28e69","ios":"levelo://app?vid=f3fcc730-cdc0-4a35-9472-678d95b28e69"},"vehicle_type_id":"4","last_reported":1740258492,"current_range_meters":16000,"station_id":"ce4bh2h2rcd13ifvqdh0","pricing_plan_id":"cebpf4jnsgd1na2vs0mg"},{"bike_id":"33cc0fcb-f6e1-44bc-9328-d3f75a5791c5","system_id":"levelo_inurba_marseille","lat":43.23192,"lon":5.35551,"is_reserved":false,"is_disabled":false,"rental_uris":{"android":"levelo://app?vid=33cc0fcb-f6e1-44bc-9328-d3f75a5791c5","ios":"levelo://app?vid=33cc0fcb-f6e1-44bc-9328-d3f75a5791c5"},"vehicle_type_id":"4","last_reported":1740258492,"current_range_meters":16000,"station_id":"ce4bhu92rcd13ifvqi70","pricing_plan_id":"cebpf4jnsgd1na2vs0mg"},{"bike_id":"7edad6f1-bb02-4747-8467-5494540e990b","system_id":"levelo_inurba_marseille","lat":43.25004,"lon":5.38923,"is_reserved":false,"is_disabled":false,"rental_uris":{"android":"levelo://app?vid=7edad6f1-bb02-4747-8467-5494540e990b","ios":"levelo://app?vid=7edad6f1-bb02-4747-8467-5494540e990b"},"vehicle_type_id":"4","last_reported":1740258492,"current_range_meters":16000,"station_id":"ce4bhgp2rcd13ifvqfd0","pricing_plan_id":"cebpf4jnsgd1na2vs0mg"},{"bike_id":"e92aa907-5852-4b8c-9c0a-cde3694824d5","system_id":"levelo_inurba_marseille","lat":43.29873,"lon":5.38888,"is_reserved":false,"is_disabled":false,"rental_uris":{"android":"levelo://app?vid=e92aa907-5852-4b8c-9c0a-cde3694824d5","ios":"levelo://app?vid=e92aa907-5852-4b8c-9c0a-cde3694824d5"},"vehicle_type_id":"4","last_reported":1740258492,"current_range_meters":16000,"station_id":"ce4bh392rcd13ifvqdl0","pricing_plan_id":"cebpf4jnsgd1na2vs0mg"},{"bike_id":"79aa7a94-fb11-48e1-9944-2b2a33ddee27","system_id":"levelo_inurba_marseille","lat":43.29169,"lon":5.37165,"is_reserved":false,"is_disabled":false,"rental_uris":{"android":"levelo://app?vid=79aa7a94-fb11-48e1-9944-2b2a33ddee27","ios":"levelo://app?vid=79aa7a94-fb11-48e1-9944-2b2a33ddee27"},"vehicle_type_id":"4","last_reported":1740258492,"current_range_meters":16000,"station_id":"ce4bha92rcd13ifvqeh0","pricing_plan_id":"cebpf4jnsgd1na2vs0mg"},{"bike_id":"ef73e067-e342-4ea1-a21d-5bab7be015a4","system_id":"levelo_inurba_marseille","lat":43.32312,"lon":5.39238,"is_reserved":false,"is_disabled":false,"rental_uris":{"android":"levelo://app?vid=ef73e067-e342-4ea1-a21d-5bab7be015a4","ios":"levelo://app?vid=ef73e067-e342-4ea1-a21d-5bab7be015a4"},"vehicle_type_id":"4","last_reported":1740258492,"current_range_meters":16400,"station_id":"","pricing_plan_id":"cebpf4jnsgd1na2vs0mg"},{"bike_id":"f70d95e9-31fc-483e-9035-08492e967092","system_id":"levelo_inurba_marseille","lat":43.29271,"lon":5.40116,"is_reserved":false,"is_disabled":false,"rental_uris":{"android":"levelo://app?vid=f70d95e9-31fc-483e-9035-08492e967092","ios":"levelo://app?vid=f70d95e9-31fc-483e-9035-08492e967092"},"vehicle_type_id":"4","last_reported":1740258492,"current_range_meters":16400,"station_id":"ce4bh312rcd13ifvqdk0","pricing_plan_id":"cebpf4jnsgd1na2vs0mg"},{"bike_id":"710424af-e5f9-463e-9718-b8c97608a471","system_id":"levelo_inurba_marseille","lat":43.29921,"lon":5.37475,"is_reserved":false,"is_disabled":false,"rental_uris":{"android":"levelo://app?vid=710424af-e5f9-463e-9718-b8c97608a471","ios":"levelo://app?vid=710424af-e5f9-463e-9718-b8c97608a471"},"vehicle_type_id":"4","last_reported":1740258492,"current_range_meters":16400,"station_id":"ce4bgjh2rcd13ifvqbg0","pricing_plan_id":"cebpf4jnsgd1na2vs0mg"},{"bike_id":"1640f694-8d82-4317-92a0-381978b48eed","system_id":"levelo_inurba_marseille","lat":43.29417,"lon":5.38643,"is_reserved":false,"is_disabled":false,"rental_uris":{"android":"levelo://app?vid=1640f694-8d82-4317-92a0-381978b48eed","ios":"levelo://app?vid=1640f694-8d82-4317-92a0-381978b48eed"},"vehicle_type_id":"4","last_reported":1740258492,"current_range_meters":16400,"station_id":"ce4bh2h2rcd13ifvqdh0","pricing_plan_id":"cebpf4jnsgd1na2vs0mg"},{"bike_id":"ff4766a5-b71e-472c-89ad-4801fabc312f","system_id":"levelo_inurba_marseille","lat":43.30651,"lon":5.4008,"is_reserved":false,"is_disabled":false,"rental_uris":{"android":"levelo://app?vid=ff4766a5-b71e-472c-89ad-4801fabc312f","ios":"levelo://app?vid=ff4766a5-b71e-472c-89ad-4801fabc312f"},"vehicle_type_id":"4","last_reported":1740258492,"current_range_meters":16400,"station_id":"ce4bh112rcd13ifvqda0","pricing_plan_id":"cebpf4jnsgd1na2vs0mg"},{"bike_id":"e26cf8ae-ed24-4cc0-b888-9c4f5c1be11e","system_id":"levelo_inurba_marseille","lat":43.27911,"lon":5.3801,"is_reserved":false,"is_disabled":false,"rental_uris":{"android":"levelo://app?vid=e26cf8ae-ed24-4cc0-b888-9c4f5c1be11e","ios":"levelo://app?vid=e26cf8ae-ed24-4cc0-b888-9c4f5c1be11e"},"vehicle_type_id":"4","last_reported":1740258492,"current_range_meters":16400,"station_id":"ce4bhf92rcd13ifvqf50","pricing_plan_id":"cebpf4jnsgd1na2vs0mg"},{"bike_id":"ee3c4999-b795-4d76-9103-876e8b41a022","system_id":"levelo_inurba_marseille","lat":43.2997,"lon":5.38494,"is_reserved":false,"is_disabled":false,"rental_uris":{"android":"levelo://app?vid=ee3c4999-b795-4d76-9103-876e8b41a022","ios":"levelo://app?vid=ee3c4999-b795-4d76-9103-876e8b41a022"},"vehicle_type_id":"4","last_reported":1740258492,"current_range_meters":16400,"station_id":"ce4bgj92rcd13ifvqbd0","pricing_plan_id":"cebpf4jnsgd1na2vs0mg"},{"bike_id":"9d9db6a2-7d28-4823-be9f-cc5c751a0e2d","system_id":"levelo_inurba_marseille","lat":43.29422,"lon":5.38625,"is_reserved":false,"is_disabled":false,"rental_uris":{"android":"levelo://app?vid=9d9db6a2-7d28-4823-be9f-cc5c751a0e2d","ios":"levelo://app?vid=9d9db6a2-7d28-4823-be9f-cc5c751a0e2d"},"vehicle_type_id":"4","last_reported":1740258492,"current_range_meters":16400,"station_id":"ce4bh2h2rcd13ifvqdh0","pricing_plan_id":"cebpf4jnsgd1na2vs0mg"},{"bike_id":"718c6a7a-aa81-4737-939d-829f8e817059","system_id":"levelo_inurba_marseille","lat":43.295492,"lon":5.386213,"is_reserved":false,"is_disabled":false,"rental_uris":{"android":"levelo://app?vid=718c6a7a-aa81-4737-939d-829f8e817059","ios":"levelo://app?vid=718c6a7a-aa81-4737-939d-829f8e817059"},"vehicle_type_id":"4","last_reported":1740258492,"current_range_meters":16800,"station_id":"ce4bgv92rcd13ifvqcq0","pricing_plan_id":"cebpf4jnsgd1na2vs0mg"},{"bike_id":"80e30e07-59ff-4807-b06b-c6dc1a9e08e2","system_id":"levelo_inurba_marseille","lat":43.33624,"lon":5.4097,"is_reserved":false,"is_disabled":true,"rental_uris":{"android":"levelo://app?vid=80e30e07-59ff-4807-b06b-c6dc1a9e08e2","ios":"levelo://app?vid=80e30e07-59ff-4807-b06b-c6dc1a9e08e2"},"vehicle_type_id":"4","last_reported":1740258492,"current_range_meters":16800,"station_id":"ce4bhqh2rcd13ifvqhmg","pricing_plan_id":"cebpf4jnsgd1na2vs0mg"},{"bike_id":"4caf490d-10e5-4073-8dae-a68a285775aa","system_id":"levelo_inurba_marseille","lat":43.24402,"lon":5.37074,"is_reserved":false,"is_disabled":false,"rental_uris":{"android":"levelo://app?vid=4caf490d-10e5-4073-8dae-a68a285775aa","ios":"levelo://app?vid=4caf490d-10e5-4073-8dae-a68a285775aa"},"vehicle_type_id":"4","last_reported":1740258492,"current_range_meters":16800,"station_id":"ce4bhhh2rcd13ifvqfk0","pricing_plan_id":"cebpf4jnsgd1na2vs0mg"},{"bike_id":"b1e8d3dc-6616-4fd6-bc3e-e91e02983171","system_id":"levelo_inurba_marseille","lat":43.29552,"lon":5.42266,"is_reserved":false,"is_disabled":false,"rental_uris":{"android":"levelo://app?vid=b1e8d3dc-6616-4fd6-bc3e-e91e02983171","ios":"levelo://app?vid=b1e8d3dc-6616-4fd6-bc3e-e91e02983171"},"vehicle_type_id":"4","last_reported":1740258492,"current_range_meters":16800,"station_id":"ce4bhph2rcd13ifvqhdg","pricing_plan_id":"cebpf4jnsgd1na2vs0mg"},{"bike_id":"e636832d-d31d-492b-9bcd-b899a106503d","system_id":"levelo_inurba_marseille","lat":43.2417,"lon":5.3639,"is_reserved":false,"is_disabled":false,"rental_uris":{"android":"levelo://app?vid=e636832d-d31d-492b-9bcd-b899a106503d","ios":"levelo://app?vid=e636832d-d31d-492b-9bcd-b899a106503d"},"vehicle_type_id":"4","last_reported":1740258492,"current_range_meters":16800,"station_id":"cpo36qri1sfpv3e86is0","pricing_plan_id":"cebpf4jnsgd1na2vs0mg"},{"bike_id":"f4fe54f8-7e2d-442b-b50c-1d0c64822e08","system_id":"levelo_inurba_marseille","lat":43.28696,"lon":5.38336,"is_reserved":false,"is_disabled":false,"rental_uris":{"android":"levelo://app?vid=f4fe54f8-7e2d-442b-b50c-1d0c64822e08","ios":"levelo://app?vid=f4fe54f8-7e2d-442b-b50c-1d0c64822e08"},"vehicle_type_id":"4","last_reported":1740258492,"current_range_meters":16800,"station_id":"","pricing_plan_id":"cebpf4jnsgd1na2vs0mg"},{"bike_id":"09ac4e47-93d3-4952-afbb-6e9dccf56d6a","system_id":"levelo_inurba_marseille","lat":43.29312,"lon":5.37173,"is_reserved":false,"is_disabled":false,"rental_uris":{"android":"levelo://app?vid=09ac4e47-93d3-4952-afbb-6e9dccf56d6a","ios":"levelo://app?vid=09ac4e47-93d3-4952-afbb-6e9dccf56d6a"},"vehicle_type_id":"4","last_reported":1740258492,"current_range_meters":16800,"station_id":"ce4bgh92rcd13ifvqb40","pricing_plan_id":"cebpf4jnsgd1na2vs0mg"},{"bike_id":"7d4b257a-c60d-48e8-85d7-7dc3f985241e","system_id":"levelo_inurba_marseille","lat":43.29629,"lon":5.38562,"is_reserved":false,"is_disabled":false,"rental_uris":{"android":"levelo://app?vid=7d4b257a-c60d-48e8-85d7-7dc3f985241e","ios":"levelo://app?vid=7d4b257a-c60d-48e8-85d7-7dc3f985241e"},"vehicle_type_id":"4","last_reported":1740258492,"current_range_meters":16800,"station_id":"","pricing_plan_id":"cebpf4jnsgd1na2vs0mg"},{"bike_id":"d53720bf-bb9a-493e-a965-c0754ac375f4","system_id":"levelo_inurba_marseille","lat":43.29255,"lon":5.38439,"is_reserved":false,"is_disabled":false,"rental_uris":{"android":"levelo://app?vid=d53720bf-bb9a-493e-a965-c0754ac375f4","ios":"levelo://app?vid=d53720bf-bb9a-493e-a965-c0754ac375f4"},"vehicle_type_id":"4","last_reported":1740258492,"current_range_meters":16800,"station_id":"ce4bh692rcd13ifvqea0","pricing_plan_id":"cebpf4jnsgd1na2vs0mg"},{"bike_id":"ac35e38f-342c-4802-b395-a37e42a10246","system_id":"levelo_inurba_marseille","lat":43.29255,"lon":5.38434,"is_reserved":false,"is_disabled":false,"rental_uris":{"android":"levelo://app?vid=ac35e38f-342c-4802-b395-a37e42a10246","ios":"levelo://app?vid=ac35e38f-342c-4802-b395-a37e42a10246"},"vehicle_type_id":"4","last_reported":1740258492,"current_range_meters":16800,"station_id":"ce4bh692rcd13ifvqea0","pricing_plan_id":"cebpf4jnsgd1na2vs0mg"},{"bike_id":"a3610751-bbe4-4d3e-a717-1a0eebd2fb2a","system_id":"levelo_inurba_marseille","lat":43.30663,"lon":5.37557,"is_reserved":false,"is_disabled":false,"rental_uris":{"android":"levelo://app?vid=a3610751-bbe4-4d3e-a717-1a0eebd2fb2a","ios":"levelo://app?vid=a3610751-bbe4-4d3e-a717-1a0eebd2fb2a"},"vehicle_type_id":"4","last_reported":1740258492,"current_range_meters":16800,"station_id":"","pricing_plan_id":"cebpf4jnsgd1na2vs0mg"},{"bike_id":"6d91493f-a330-4677-a999-237e75b47b61","system_id":"levelo_inurba_marseille","lat":43.29258,"lon":5.38449,"is_reserved":false,"is_disabled":false,"rental_uris":{"android":"levelo://app?vid=6d91493f-a330-4677-a999-237e75b47b61","ios":"levelo://app?vid=6d91493f-a330-4677-a999-237e75b47b61"},"vehicle_type_id":"4","last_reported":1740258492,"current_range_meters":16800,"station_id":"ce4bh692rcd13ifvqea0","pricing_plan_id":"cebpf4jnsgd1na2vs0mg"},{"bike_id":"3c59030b-89bf-4800-8074-8f961cb5a045","system_id":"levelo_inurba_marseille","lat":43.29263,"lon":5.38453,"is_reserved":false,"is_disabled":false,"rental_uris":{"android":"levelo://app?vid=3c59030b-89bf-4800-8074-8f961cb5a045","ios":"levelo://app?vid=3c59030b-89bf-4800-8074-8f961cb5a045"},"vehicle_type_id":"4","last_reported":1740258492,"current_range_meters":17200,"station_id":"ce4bh692rcd13ifvqea0","pricing_plan_id":"cebpf4jnsgd1na2vs0mg"},{"bike_id":"0960003d-eea6-4d26-a89e-510626acdaa2","system_id":"levelo_inurba_marseille","lat":43.281091,"lon":5.395987,"is_reserved":false,"is_disabled":false,"rental_uris":{"android":"levelo://app?vid=0960003d-eea6-4d26-a89e-510626acdaa2","ios":"levelo://app?vid=0960003d-eea6-4d26-a89e-510626acdaa2"},"vehicle_type_id":"4","last_reported":1740258492,"current_range_meters":17200,"station_id":"ce4bhnp2rcd13ifvqh0g","pricing_plan_id":"cebpf4jnsgd1na2vs0mg"},{"bike_id":"02b0a3a4-aed7-4356-a717-26680ebc2216","system_id":"levelo_inurba_marseille","lat":43.29417,"lon":5.38641,"is_reserved":false,"is_disabled":false,"rental_uris":{"android":"levelo://app?vid=02b0a3a4-aed7-4356-a717-26680ebc2216","ios":"levelo://app?vid=02b0a3a4-aed7-4356-a717-26680ebc2216"},"vehicle_type_id":"4","last_reported":1740258492,"current_range_meters":17200,"station_id":"ce4bh2h2rcd13ifvqdh0","pricing_plan_id":"cebpf4jnsgd1na2vs0mg"},{"bike_id":"855caca9-cd59-4c97-ad51-a64e28ee341f","system_id":"levelo_inurba_marseille","lat":43.30891,"lon":5.39572,"is_reserved":false,"is_disabled":true,"rental_uris":{"android":"levelo://app?vid=855caca9-cd59-4c97-ad51-a64e28ee341f","ios":"levelo://app?vid=855caca9-cd59-4c97-ad51-a64e28ee341f"},"vehicle_type_id":"4","last_reported":1740258492,"current_range_meters":17200,"station_id":"ce4bh012rcd13ifvqcv0","pricing_plan_id":"cebpf4jnsgd1na2vs0mg"},{"bike_id":"7330758a-b186-4c5c-af68-65980e50c2ac","system_id":"levelo_inurba_marseille","lat":43.28078,"lon":5.3696,"is_reserved":false,"is_disabled":false,"rental_uris":{"android":"levelo://app?vid=7330758a-b186-4c5c-af68-65980e50c2ac","ios":"levelo://app?vid=7330758a-b186-4c5c-af68-65980e50c2ac"},"vehicle_type_id":"4","last_reported":1740258492,"current_range_meters":17200,"station_id":"ce4bha12rcd13ifvqef0","pricing_plan_id":"cebpf4jnsgd1na2vs0mg"},{"bike_id":"61d23409-5051-4c66-8e2a-da18287c489b","system_id":"levelo_inurba_marseille","lat":43.29261,"lon":5.3844,"is_reserved":false,"is_disabled":false,"rental_uris":{"android":"levelo://app?vid=61d23409-5051-4c66-8e2a-da18287c489b","ios":"levelo://app?vid=61d23409-5051-4c66-8e2a-da18287c489b"},"vehicle_type_id":"4","last_reported":1740258492,"current_range_meters":17200,"station_id":"ce4bh692rcd13ifvqea0","pricing_plan_id":"cebpf4jnsgd1na2vs0mg"},{"bike_id":"31c04e3b-ed31-4ebf-b239-af65f76f849a","system_id":"levelo_inurba_marseille","lat":43.29594,"lon":5.38096,"is_reserved":false,"is_disabled":false,"rental_uris":{"android":"levelo://app?vid=31c04e3b-ed31-4ebf-b239-af65f76f849a","ios":"levelo://app?vid=31c04e3b-ed31-4ebf-b239-af65f76f849a"},"vehicle_type_id":"4","last_reported":1740258492,"current_range_meters":17200,"station_id":"ce4bgl12rcd13ifvqbo0","pricing_plan_id":"cebpf4jnsgd1na2vs0mg"},{"bike_id":"2500fa15-91ee-4850-8ce9-eb499fcb7083","system_id":"levelo_inurba_marseille","lat":43.29533,"lon":5.38555,"is_reserved":false,"is_disabled":false,"rental_uris":{"android":"levelo://app?vid=2500fa15-91ee-4850-8ce9-eb499fcb7083","ios":"levelo://app?vid=2500fa15-91ee-4850-8ce9-eb499fcb7083"},"vehicle_type_id":"4","last_reported":1740258492,"current_range_meters":17200,"station_id":"ce4bgih2rcd13ifvqba0","pricing_plan_id":"cebpf4jnsgd1na2vs0mg"},{"bike_id":"5745bb71-023a-4239-a022-693cbc8bf4e8","system_id":"levelo_inurba_marseille","lat":43.281559,"lon":5.426409,"is_reserved":false,"is_disabled":false,"rental_uris":{"android":"levelo://app?vid=5745bb71-023a-4239-a022-693cbc8bf4e8","ios":"levelo://app?vid=5745bb71-023a-4239-a022-693cbc8bf4e8"},"vehicle_type_id":"4","last_reported":1740258492,"current_range_meters":17200,"station_id":"ce4bgt92rcd13ifvqcf0","pricing_plan_id":"cebpf4jnsgd1na2vs0mg"},{"bike_id":"94d81672-f077-455d-ad5d-d4332136c2a8","system_id":"levelo_inurba_marseille","lat":43.22956,"lon":5.3539,"is_reserved":false,"is_disabled":false,"rental_uris":{"android":"levelo://app?vid=94d81672-f077-455d-ad5d-d4332136c2a8","ios":"levelo://app?vid=94d81672-f077-455d-ad5d-d4332136c2a8"},"vehicle_type_id":"4","last_reported":1740258492,"current_range_meters":17600,"station_id":"cpo3532slgdg3j2ikp40","pricing_plan_id":"cebpf4jnsgd1na2vs0mg"},{"bike_id":"db43dc5d-94a6-4bbb-95b6-f3b21a7adf00","system_id":"levelo_inurba_marseille","lat":43.29299,"lon":5.37173,"is_reserved":false,"is_disabled":false,"rental_uris":{"android":"levelo://app?vid=db43dc5d-94a6-4bbb-95b6-f3b21a7adf00","ios":"levelo://app?vid=db43dc5d-94a6-4bbb-95b6-f3b21a7adf00"},"vehicle_type_id":"4","last_reported":1740258492,"current_range_meters":17600,"station_id":"ce4bgh92rcd13ifvqb40","pricing_plan_id":"cebpf4jnsgd1na2vs0mg"},{"bike_id":"2e3de939-6274-41cd-bcb6-4a5daacc714a","system_id":"levelo_inurba_marseille","lat":43.3013,"lon":5.38789,"is_reserved":false,"is_disabled":false,"rental_uris":{"android":"levelo://app?vid=2e3de939-6274-41cd-bcb6-4a5daacc714a","ios":"levelo://app?vid=2e3de939-6274-41cd-bcb6-4a5daacc714a"},"vehicle_type_id":"4","last_reported":1740258492,"current_range_meters":17200,"station_id":"ce4bghh2rcd13ifvqb60","pricing_plan_id":"cebpf4jnsgd1na2vs0mg"},{"bike_id":"35f7fe5f-b05d-405c-a155-dda0758733e2","system_id":"levelo_inurba_marseille","lat":43.28201,"lon":5.4268,"is_reserved":false,"is_disabled":true,"rental_uris":{"android":"levelo://app?vid=35f7fe5f-b05d-405c-a155-dda0758733e2","ios":"levelo://app?vid=35f7fe5f-b05d-405c-a155-dda0758733e2"},"vehicle_type_id":"4","last_reported":1740258492,"current_range_meters":17600,"station_id":"","pricing_plan_id":"cebpf4jnsgd1na2vs0mg"},{"bike_id":"dc9cb108-4d44-47b4-b672-e9f2eacad6b3","system_id":"levelo_inurba_marseille","lat":43.270611,"lon":5.402576,"is_reserved":false,"is_disabled":false,"rental_uris":{"android":"levelo://app?vid=dc9cb108-4d44-47b4-b672-e9f2eacad6b3","ios":"levelo://app?vid=dc9cb108-4d44-47b4-b672-e9f2eacad6b3"},"vehicle_type_id":"4","last_reported":1740258492,"current_range_meters":17600,"station_id":"ce4bh9p2rcd13ifvqec0","pricing_plan_id":"cebpf4jnsgd1na2vs0mg"},{"bike_id":"47c58b1f-0f04-4a95-ba73-4d794abee5f2","system_id":"levelo_inurba_marseille","lat":43.3045,"lon":5.38906,"is_reserved":false,"is_disabled":true,"rental_uris":{"android":"levelo://app?vid=47c58b1f-0f04-4a95-ba73-4d794abee5f2","ios":"levelo://app?vid=47c58b1f-0f04-4a95-ba73-4d794abee5f2"},"vehicle_type_id":"4","last_reported":1740258492,"current_range_meters":18000,"station_id":"ce4bgk12rcd13ifvqbi0","pricing_plan_id":"cebpf4jnsgd1na2vs0mg"},{"bike_id":"a18ed4e9-994c-45dd-ad0a-8e66e1e9fae9","system_id":"levelo_inurba_marseille","lat":43.29542,"lon":5.38546,"is_reserved":false,"is_disabled":false,"rental_uris":{"android":"levelo://app?vid=a18ed4e9-994c-45dd-ad0a-8e66e1e9fae9","ios":"levelo://app?vid=a18ed4e9-994c-45dd-ad0a-8e66e1e9fae9"},"vehicle_type_id":"4","last_reported":1740258492,"current_range_meters":18000,"station_id":"ce4bgih2rcd13ifvqba0","pricing_plan_id":"cebpf4jnsgd1na2vs0mg"},{"bike_id":"a0c1b570-1fea-4062-97be-b318c2404cb4","system_id":"levelo_inurba_marseille","lat":43.29538,"lon":5.38551,"is_reserved":false,"is_disabled":false,"rental_uris":{"android":"levelo://app?vid=a0c1b570-1fea-4062-97be-b318c2404cb4","ios":"levelo://app?vid=a0c1b570-1fea-4062-97be-b318c2404cb4"},"vehicle_type_id":"4","last_reported":1740258492,"current_range_meters":18000,"station_id":"ce4bgih2rcd13ifvqba0","pricing_plan_id":"cebpf4jnsgd1na2vs0mg"},{"bike_id":"c6271dea-ad5c-4a8e-b572-f501cf0479cb","system_id":"levelo_inurba_marseille","lat":43.29549,"lon":5.3855,"is_reserved":false,"is_disabled":false,"rental_uris":{"android":"levelo://app?vid=c6271dea-ad5c-4a8e-b572-f501cf0479cb","ios":"levelo://app?vid=c6271dea-ad5c-4a8e-b572-f501cf0479cb"},"vehicle_type_id":"4","last_reported":1740258492,"current_range_meters":18000,"station_id":"ce4bgih2rcd13ifvqba0","pricing_plan_id":"cebpf4jnsgd1na2vs0mg"},{"bike_id":"6edc9f2f-6ecc-451e-b0c5-618061ff9a68","system_id":"levelo_inurba_marseille","lat":43.29426,"lon":5.38626,"is_reserved":false,"is_disabled":false,"rental_uris":{"android":"levelo://app?vid=6edc9f2f-6ecc-451e-b0c5-618061ff9a68","ios":"levelo://app?vid=6edc9f2f-6ecc-451e-b0c5-618061ff9a68"},"vehicle_type_id":"4","last_reported":1740258492,"current_range_meters":18000,"station_id":"ce4bh2h2rcd13ifvqdh0","pricing_plan_id":"cebpf4jnsgd1na2vs0mg"},{"bike_id":"9faf844a-413f-419f-bdea-64830f7f2bfb","system_id":"levelo_inurba_marseille","lat":43.29884,"lon":5.37851,"is_reserved":false,"is_disabled":false,"rental_uris":{"android":"levelo://app?vid=9faf844a-413f-419f-bdea-64830f7f2bfb","ios":"levelo://app?vid=9faf844a-413f-419f-bdea-64830f7f2bfb"},"vehicle_type_id":"4","last_reported":1740258492,"current_range_meters":18000,"station_id":"","pricing_plan_id":"cebpf4jnsgd1na2vs0mg"},{"bike_id":"85b5bbcd-7da2-4232-8e5a-a25680dad453","system_id":"levelo_inurba_marseille","lat":43.23963,"lon":5.3663,"is_reserved":false,"is_disabled":false,"rental_uris":{"android":"levelo://app?vid=85b5bbcd-7da2-4232-8e5a-a25680dad453","ios":"levelo://app?vid=85b5bbcd-7da2-4232-8e5a-a25680dad453"},"vehicle_type_id":"4","last_reported":1740258492,"current_range_meters":18000,"station_id":"ce4bhi12rcd13ifvqfp0","pricing_plan_id":"cebpf4jnsgd1na2vs0mg"},{"bike_id":"4d010e3f-2ec7-4a01-8125-cbf9711e77a8","system_id":"levelo_inurba_marseille","lat":43.304155,"lon":5.412925,"is_reserved":false,"is_disabled":false,"rental_uris":{"android":"levelo://app?vid=4d010e3f-2ec7-4a01-8125-cbf9711e77a8","ios":"levelo://app?vid=4d010e3f-2ec7-4a01-8125-cbf9711e77a8"},"vehicle_type_id":"4","last_reported":1740258492,"current_range_meters":17600,"station_id":"ce4bhop2rcd13ifvqh8g","pricing_plan_id":"cebpf4jnsgd1na2vs0mg"},{"bike_id":"7771fdde-9496-4c9c-9647-c7256be1dc15","system_id":"levelo_inurba_marseille","lat":43.29554,"lon":5.37497,"is_reserved":false,"is_disabled":false,"rental_uris":{"android":"levelo://app?vid=7771fdde-9496-4c9c-9647-c7256be1dc15","ios":"levelo://app?vid=7771fdde-9496-4c9c-9647-c7256be1dc15"},"vehicle_type_id":"4","last_reported":1740258492,"current_range_meters":18000,"station_id":"ce4bgkp2rcd13ifvqbmg","pricing_plan_id":"cebpf4jnsgd1na2vs0mg"},{"bike_id":"faeb2e28-4e2f-4cbb-aea8-2733d5daab0d","system_id":"levelo_inurba_marseille","lat":43.2872,"lon":5.37392,"is_reserved":false,"is_disabled":false,"rental_uris":{"android":"levelo://app?vid=faeb2e28-4e2f-4cbb-aea8-2733d5daab0d","ios":"levelo://app?vid=faeb2e28-4e2f-4cbb-aea8-2733d5daab0d"},"vehicle_type_id":"4","last_reported":1740258492,"current_range_meters":18000,"station_id":"ce4bh3p2rcd13ifvqdq0","pricing_plan_id":"cebpf4jnsgd1na2vs0mg"},{"bike_id":"e501be99-a171-4e91-9e5b-ac547e4c06f2","system_id":"levelo_inurba_marseille","lat":43.23205,"lon":5.35558,"is_reserved":false,"is_disabled":false,"rental_uris":{"android":"levelo://app?vid=e501be99-a171-4e91-9e5b-ac547e4c06f2","ios":"levelo://app?vid=e501be99-a171-4e91-9e5b-ac547e4c06f2"},"vehicle_type_id":"4","last_reported":1740258492,"current_range_meters":18000,"station_id":"ce4bhu92rcd13ifvqi70","pricing_plan_id":"cebpf4jnsgd1na2vs0mg"},{"bike_id":"7f16630f-c1f3-4f7c-96e6-87910328f480","system_id":"levelo_inurba_marseille","lat":43.29186,"lon":5.39304,"is_reserved":false,"is_disabled":false,"rental_uris":{"android":"levelo://app?vid=7f16630f-c1f3-4f7c-96e6-87910328f480","ios":"levelo://app?vid=7f16630f-c1f3-4f7c-96e6-87910328f480"},"vehicle_type_id":"4","last_reported":1740258492,"current_range_meters":18800,"station_id":"ce4bh192rcd13ifvqdd0","pricing_plan_id":"cebpf4jnsgd1na2vs0mg"},{"bike_id":"c8217d05-5638-4b95-a993-1cb72246335c","system_id":"levelo_inurba_marseille","lat":43.28459,"lon":5.35902,"is_reserved":false,"is_disabled":false,"rental_uris":{"android":"levelo://app?vid=c8217d05-5638-4b95-a993-1cb72246335c","ios":"levelo://app?vid=c8217d05-5638-4b95-a993-1cb72246335c"},"vehicle_type_id":"4","last_reported":1740258492,"current_range_meters":18800,"station_id":"ce4bhah2rcd13ifvqei0","pricing_plan_id":"cebpf4jnsgd1na2vs0mg"},{"bike_id":"5fbd35e1-23ba-4001-80ea-378474a3cd8d","system_id":"levelo_inurba_marseille","lat":43.30879,"lon":5.39656,"is_reserved":false,"is_disabled":false,"rental_uris":{"android":"levelo://app?vid=5fbd35e1-23ba-4001-80ea-378474a3cd8d","ios":"levelo://app?vid=5fbd35e1-23ba-4001-80ea-378474a3cd8d"},"vehicle_type_id":"4","last_reported":1740258492,"current_range_meters":18800,"station_id":"ce4bh012rcd13ifvqcv0","pricing_plan_id":"cebpf4jnsgd1na2vs0mg"},{"bike_id":"4fd90cf5-0719-47d5-a493-0ca6596204e5","system_id":"levelo_inurba_marseille","lat":43.27998,"lon":5.41662,"is_reserved":false,"is_disabled":false,"rental_uris":{"android":"levelo://app?vid=4fd90cf5-0719-47d5-a493-0ca6596204e5","ios":"levelo://app?vid=4fd90cf5-0719-47d5-a493-0ca6596204e5"},"vehicle_type_id":"4","last_reported":1740258492,"current_range_meters":18800,"station_id":"ce4bho12rcd13ifvqh1g","pricing_plan_id":"cebpf4jnsgd1na2vs0mg"},{"bike_id":"2ea0cbd8-6c8f-41dd-9444-c0db2867cbc2","system_id":"levelo_inurba_marseille","lat":43.23154,"lon":5.43714,"is_reserved":false,"is_disabled":false,"rental_uris":{"android":"levelo://app?vid=2ea0cbd8-6c8f-41dd-9444-c0db2867cbc2","ios":"levelo://app?vid=2ea0cbd8-6c8f-41dd-9444-c0db2867cbc2"},"vehicle_type_id":"4","last_reported":1740258492,"current_range_meters":18800,"station_id":"ce4bhmp2rcd13ifvqgog","pricing_plan_id":"cebpf4jnsgd1na2vs0mg"},{"bike_id":"e672cd00-72b0-400a-8535-9ab04e4611c6","system_id":"levelo_inurba_marseille","lat":43.243985,"lon":5.370651,"is_reserved":false,"is_disabled":false,"rental_uris":{"android":"levelo://app?vid=e672cd00-72b0-400a-8535-9ab04e4611c6","ios":"levelo://app?vid=e672cd00-72b0-400a-8535-9ab04e4611c6"},"vehicle_type_id":"4","last_reported":1740258492,"current_range_meters":18800,"station_id":"ce4bhhh2rcd13ifvqfk0","pricing_plan_id":"cebpf4jnsgd1na2vs0mg"},{"bike_id":"3b1fb618-e85e-4c4c-b930-33e451c4d0f9","system_id":"levelo_inurba_marseille","lat":43.30139,"lon":5.37407,"is_reserved":false,"is_disabled":false,"rental_uris":{"android":"levelo://app?vid=3b1fb618-e85e-4c4c-b930-33e451c4d0f9","ios":"levelo://app?vid=3b1fb618-e85e-4c4c-b930-33e451c4d0f9"},"vehicle_type_id":"4","last_reported":1740258492,"current_range_meters":18800,"station_id":"ce4bgs92rcd13ifvqcc0","pricing_plan_id":"cebpf4jnsgd1na2vs0mg"},{"bike_id":"6fbfea78-6d20-4662-918b-9af9b514e46f","system_id":"levelo_inurba_marseille","lat":43.29262,"lon":5.36845,"is_reserved":false,"is_disabled":false,"rental_uris":{"android":"levelo://app?vid=6fbfea78-6d20-4662-918b-9af9b514e46f","ios":"levelo://app?vid=6fbfea78-6d20-4662-918b-9af9b514e46f"},"vehicle_type_id":"4","last_reported":1740258492,"current_range_meters":18800,"station_id":"ce4bhbp2rcd13ifvqesg","pricing_plan_id":"cebpf4jnsgd1na2vs0mg"},{"bike_id":"5b528b49-1012-44a2-b621-604fe9ca9bca","system_id":"levelo_inurba_marseille","lat":43.29419,"lon":5.3864,"is_reserved":false,"is_disabled":false,"rental_uris":{"android":"levelo://app?vid=5b528b49-1012-44a2-b621-604fe9ca9bca","ios":"levelo://app?vid=5b528b49-1012-44a2-b621-604fe9ca9bca"},"vehicle_type_id":"4","last_reported":1740258492,"current_range_meters":18800,"station_id":"ce4bh2h2rcd13ifvqdh0","pricing_plan_id":"cebpf4jnsgd1na2vs0mg"},{"bike_id":"86d33660-9ca6-4773-8884-9e223fd2cf99","system_id":"levelo_inurba_marseille","lat":43.29244,"lon":5.38444,"is_reserved":false,"is_disabled":false,"rental_uris":{"android":"levelo://app?vid=86d33660-9ca6-4773-8884-9e223fd2cf99","ios":"levelo://app?vid=86d33660-9ca6-4773-8884-9e223fd2cf99"},"vehicle_type_id":"4","last_reported":1740258492,"current_range_meters":18800,"station_id":"ce4bh692rcd13ifvqea0","pricing_plan_id":"cebpf4jnsgd1na2vs0mg"},{"bike_id":"7ca466d0-2677-4595-86bb-61437de469fc","system_id":"levelo_inurba_marseille","lat":43.28072,"lon":5.39634,"is_reserved":false,"is_disabled":false,"rental_uris":{"android":"levelo://app?vid=7ca466d0-2677-4595-86bb-61437de469fc","ios":"levelo://app?vid=7ca466d0-2677-4595-86bb-61437de469fc"},"vehicle_type_id":"4","last_reported":1740258492,"current_range_meters":18800,"station_id":"ce4bho12rcd13ifvqh2g","pricing_plan_id":"cebpf4jnsgd1na2vs0mg"},{"bike_id":"1ccd9113-2c6d-422f-8913-a007c3362e1a","system_id":"levelo_inurba_marseille","lat":43.29548,"lon":5.42277,"is_reserved":false,"is_disabled":false,"rental_uris":{"android":"levelo://app?vid=1ccd9113-2c6d-422f-8913-a007c3362e1a","ios":"levelo://app?vid=1ccd9113-2c6d-422f-8913-a007c3362e1a"},"vehicle_type_id":"4","last_reported":1740258492,"current_range_meters":18800,"station_id":"ce4bhph2rcd13ifvqhdg","pricing_plan_id":"cebpf4jnsgd1na2vs0mg"},{"bike_id":"6866b5d5-41bf-40cc-8ac4-3a3c24f2b178","system_id":"levelo_inurba_marseille","lat":43.28723,"lon":5.37931,"is_reserved":false,"is_disabled":false,"rental_uris":{"android":"levelo://app?vid=6866b5d5-41bf-40cc-8ac4-3a3c24f2b178","ios":"levelo://app?vid=6866b5d5-41bf-40cc-8ac4-3a3c24f2b178"},"vehicle_type_id":"4","last_reported":1740258492,"current_range_meters":19200,"station_id":"ce4bh9p2rcd13ifvqec0","pricing_plan_id":"cebpf4jnsgd1na2vs0mg"},{"bike_id":"1ece6a0e-89d9-4d23-8dd7-cbbc31bbf3d8","system_id":"levelo_inurba_marseille","lat":43.31115,"lon":5.37777,"is_reserved":false,"is_disabled":false,"rental_uris":{"android":"levelo://app?vid=1ece6a0e-89d9-4d23-8dd7-cbbc31bbf3d8","ios":"levelo://app?vid=1ece6a0e-89d9-4d23-8dd7-cbbc31bbf3d8"},"vehicle_type_id":"4","last_reported":1740258492,"current_range_meters":19200,"station_id":"ce4bgt92rcd13ifvqcg0","pricing_plan_id":"cebpf4jnsgd1na2vs0mg"},{"bike_id":"9d7c969d-ee67-4fd6-9d50-a91ee3e019cb","system_id":"levelo_inurba_marseille","lat":43.289368,"lon":5.366468,"is_reserved":false,"is_disabled":false,"rental_uris":{"android":"levelo://app?vid=9d7c969d-ee67-4fd6-9d50-a91ee3e019cb","ios":"levelo://app?vid=9d7c969d-ee67-4fd6-9d50-a91ee3e019cb"},"vehicle_type_id":"4","last_reported":1740258492,"current_range_meters":19200,"station_id":"ce4bhn12rcd13ifvqgqg","pricing_plan_id":"cebpf4jnsgd1na2vs0mg"},{"bike_id":"cfeacc7f-9dab-4de3-bef2-de8a07a44e4e","system_id":"levelo_inurba_marseille","lat":43.2485,"lon":5.3743,"is_reserved":false,"is_disabled":false,"rental_uris":{"android":"levelo://app?vid=cfeacc7f-9dab-4de3-bef2-de8a07a44e4e","ios":"levelo://app?vid=cfeacc7f-9dab-4de3-bef2-de8a07a44e4e"},"vehicle_type_id":"4","last_reported":1740258492,"current_range_meters":19200,"station_id":"","pricing_plan_id":"cebpf4jnsgd1na2vs0mg"},{"bike_id":"773a5e71-38be-48ae-b0a0-cb74b563bf5e","system_id":"levelo_inurba_marseille","lat":43.29981,"lon":5.38507,"is_reserved":false,"is_disabled":false,"rental_uris":{"android":"levelo://app?vid=773a5e71-38be-48ae-b0a0-cb74b563bf5e","ios":"levelo://app?vid=773a5e71-38be-48ae-b0a0-cb74b563bf5e"},"vehicle_type_id":"4","last_reported":1740258492,"current_range_meters":19200,"station_id":"ce4bgj92rcd13ifvqbd0","pricing_plan_id":"cebpf4jnsgd1na2vs0mg"},{"bike_id":"bd13f35f-5962-4d3b-8852-0ca10be0eb90","system_id":"levelo_inurba_marseille","lat":43.27952,"lon":5.41042,"is_reserved":false,"is_disabled":false,"rental_uris":{"android":"levelo://app?vid=bd13f35f-5962-4d3b-8852-0ca10be0eb90","ios":"levelo://app?vid=bd13f35f-5962-4d3b-8852-0ca10be0eb90"},"vehicle_type_id":"4","last_reported":1740258492,"current_range_meters":19200,"station_id":"ce4bhnp2rcd13ifvqh0g","pricing_plan_id":"cebpf4jnsgd1na2vs0mg"},{"bike_id":"8442e44e-2c3e-4bf1-9bab-044b3b710359","system_id":"levelo_inurba_marseille","lat":43.29257,"lon":5.40911,"is_reserved":false,"is_disabled":false,"rental_uris":{"android":"levelo://app?vid=8442e44e-2c3e-4bf1-9bab-044b3b710359","ios":"levelo://app?vid=8442e44e-2c3e-4bf1-9bab-044b3b710359"},"vehicle_type_id":"4","last_reported":1740258492,"current_range_meters":19200,"station_id":"ce4bh192rcd13ifvqdc0","pricing_plan_id":"cebpf4jnsgd1na2vs0mg"},{"bike_id":"68c1cb49-7da1-4934-a025-4e78e338d091","system_id":"levelo_inurba_marseille","lat":43.337638,"lon":5.374412,"is_reserved":false,"is_disabled":false,"rental_uris":{"android":"levelo://app?vid=68c1cb49-7da1-4934-a025-4e78e338d091","ios":"levelo://app?vid=68c1cb49-7da1-4934-a025-4e78e338d091"},"vehicle_type_id":"4","last_reported":1740258492,"current_range_meters":19200,"station_id":"","pricing_plan_id":"cebpf4jnsgd1na2vs0mg"},{"bike_id":"420a9bb3-3bf6-491e-8318-f8074e31b3bd","system_id":"levelo_inurba_marseille","lat":43.29419,"lon":5.38615,"is_reserved":false,"is_disabled":false,"rental_uris":{"android":"levelo://app?vid=420a9bb3-3bf6-491e-8318-f8074e31b3bd","ios":"levelo://app?vid=420a9bb3-3bf6-491e-8318-f8074e31b3bd"},"vehicle_type_id":"4","last_reported":1740258492,"current_range_meters":19200,"station_id":"ce4bh2h2rcd13ifvqdh0","pricing_plan_id":"cebpf4jnsgd1na2vs0mg"},{"bike_id":"fc93a0cd-d658-4fe7-9e6a-52a49333f268","system_id":"levelo_inurba_marseille","lat":43.30821,"lon":5.38192,"is_reserved":false,"is_disabled":false,"rental_uris":{"android":"levelo://app?vid=fc93a0cd-d658-4fe7-9e6a-52a49333f268","ios":"levelo://app?vid=fc93a0cd-d658-4fe7-9e6a-52a49333f268"},"vehicle_type_id":"4","last_reported":1740258492,"current_range_meters":19200,"station_id":"ce4bgt12rcd13ifvqce0","pricing_plan_id":"cebpf4jnsgd1na2vs0mg"},{"bike_id":"4358c28d-2469-49b3-8ea0-9eea47120fd3","system_id":"levelo_inurba_marseille","lat":43.29548,"lon":5.38546,"is_reserved":false,"is_disabled":false,"rental_uris":{"android":"levelo://app?vid=4358c28d-2469-49b3-8ea0-9eea47120fd3","ios":"levelo://app?vid=4358c28d-2469-49b3-8ea0-9eea47120fd3"},"vehicle_type_id":"4","last_reported":1740258492,"current_range_meters":19600,"station_id":"ce4bgih2rcd13ifvqba0","pricing_plan_id":"cebpf4jnsgd1na2vs0mg"},{"bike_id":"061355d5-536a-40c5-8687-09e096cc14be","system_id":"levelo_inurba_marseille","lat":43.29603,"lon":5.37532,"is_reserved":false,"is_disabled":false,"rental_uris":{"android":"levelo://app?vid=061355d5-536a-40c5-8687-09e096cc14be","ios":"levelo://app?vid=061355d5-536a-40c5-8687-09e096cc14be"},"vehicle_type_id":"4","last_reported":1740258492,"current_range_meters":19600,"station_id":"ce4bgh92rcd13ifvqb50","pricing_plan_id":"cebpf4jnsgd1na2vs0mg"},{"bike_id":"2bb0e61e-894d-4bc4-9881-1e30f10aca01","system_id":"levelo_inurba_marseille","lat":43.28458,"lon":5.38418,"is_reserved":false,"is_disabled":false,"rental_uris":{"android":"levelo://app?vid=2bb0e61e-894d-4bc4-9881-1e30f10aca01","ios":"levelo://app?vid=2bb0e61e-894d-4bc4-9881-1e30f10aca01"},"vehicle_type_id":"4","last_reported":1740258492,"current_range_meters":19600,"station_id":"ce4bh512rcd13ifvqe3g","pricing_plan_id":"cebpf4jnsgd1na2vs0mg"},{"bike_id":"242d59e5-09a8-402a-868e-9e7bf77c3a17","system_id":"levelo_inurba_marseille","lat":43.2959,"lon":5.38136,"is_reserved":false,"is_disabled":false,"rental_uris":{"android":"levelo://app?vid=242d59e5-09a8-402a-868e-9e7bf77c3a17","ios":"levelo://app?vid=242d59e5-09a8-402a-868e-9e7bf77c3a17"},"vehicle_type_id":"4","last_reported":1740258492,"current_range_meters":19600,"station_id":"ce4bgl12rcd13ifvqbo0","pricing_plan_id":"cebpf4jnsgd1na2vs0mg"},{"bike_id":"8e5d8ee8-3ab6-431c-8183-aaf067d6c91b","system_id":"levelo_inurba_marseille","lat":43.25042,"lon":5.38913,"is_reserved":false,"is_disabled":false,"rental_uris":{"android":"levelo://app?vid=8e5d8ee8-3ab6-431c-8183-aaf067d6c91b","ios":"levelo://app?vid=8e5d8ee8-3ab6-431c-8183-aaf067d6c91b"},"vehicle_type_id":"4","last_reported":1740258492,"current_range_meters":19600,"station_id":"ce4bhgp2rcd13ifvqfd0","pricing_plan_id":"cebpf4jnsgd1na2vs0mg"},{"bike_id":"be2198f8-8a0e-4846-8b76-25e598e9b1ef","system_id":"levelo_inurba_marseille","lat":43.29554,"lon":5.42292,"is_reserved":false,"is_disabled":false,"rental_uris":{"android":"levelo://app?vid=be2198f8-8a0e-4846-8b76-25e598e9b1ef","ios":"levelo://app?vid=be2198f8-8a0e-4846-8b76-25e598e9b1ef"},"vehicle_type_id":"4","last_reported":1740258492,"current_range_meters":19600,"station_id":"ce4bhph2rcd13ifvqhdg","pricing_plan_id":"cebpf4jnsgd1na2vs0mg"},{"bike_id":"9add0b58-d142-4034-a4b8-91545025b1ed","system_id":"levelo_inurba_marseille","lat":43.28954,"lon":5.36628,"is_reserved":false,"is_disabled":false,"rental_uris":{"android":"levelo://app?vid=9add0b58-d142-4034-a4b8-91545025b1ed","ios":"levelo://app?vid=9add0b58-d142-4034-a4b8-91545025b1ed"},"vehicle_type_id":"4","last_reported":1740258492,"current_range_meters":19600,"station_id":"ce4bhap2rcd13ifvqek0","pricing_plan_id":"cebpf4jnsgd1na2vs0mg"},{"bike_id":"73f15213-bfd7-47fc-94bc-8e3d8ea04c3d","system_id":"levelo_inurba_marseille","lat":43.29426,"lon":5.38629,"is_reserved":false,"is_disabled":false,"rental_uris":{"android":"levelo://app?vid=73f15213-bfd7-47fc-94bc-8e3d8ea04c3d","ios":"levelo://app?vid=73f15213-bfd7-47fc-94bc-8e3d8ea04c3d"},"vehicle_type_id":"4","last_reported":1740258492,"current_range_meters":19600,"station_id":"ce4bh2h2rcd13ifvqdh0","pricing_plan_id":"cebpf4jnsgd1na2vs0mg"},{"bike_id":"0ab504d6-be02-4260-97ad-49e50043d7a4","system_id":"levelo_inurba_marseille","lat":43.29308,"lon":5.37199,"is_reserved":false,"is_disabled":false,"rental_uris":{"android":"levelo://app?vid=0ab504d6-be02-4260-97ad-49e50043d7a4","ios":"levelo://app?vid=0ab504d6-be02-4260-97ad-49e50043d7a4"},"vehicle_type_id":"4","last_reported":1740258492,"current_range_meters":19600,"station_id":"ce4bgh92rcd13ifvqb40","pricing_plan_id":"cebpf4jnsgd1na2vs0mg"},{"bike_id":"dc9ea1e7-efab-440d-acf1-1d02544eebf2","system_id":"levelo_inurba_marseille","lat":43.28703,"lon":5.39985,"is_reserved":false,"is_disabled":false,"rental_uris":{"android":"levelo://app?vid=dc9ea1e7-efab-440d-acf1-1d02544eebf2","ios":"levelo://app?vid=dc9ea1e7-efab-440d-acf1-1d02544eebf2"},"vehicle_type_id":"4","last_reported":1740258492,"current_range_meters":19600,"station_id":"ce4bho92rcd13ifvqh3g","pricing_plan_id":"cebpf4jnsgd1na2vs0mg"},{"bike_id":"ca73a5c7-80ce-45b0-8ecb-d840e6602f30","system_id":"levelo_inurba_marseille","lat":43.27999,"lon":5.40018,"is_reserved":false,"is_disabled":false,"rental_uris":{"android":"levelo://app?vid=ca73a5c7-80ce-45b0-8ecb-d840e6602f30","ios":"levelo://app?vid=ca73a5c7-80ce-45b0-8ecb-d840e6602f30"},"vehicle_type_id":"4","last_reported":1740258492,"current_range_meters":19600,"station_id":"ce4bho92rcd13ifvqh4g","pricing_plan_id":"cebpf4jnsgd1na2vs0mg"},{"bike_id":"34ac0783-9cba-49c4-ad00-33c6e19973f3","system_id":"levelo_inurba_marseille","lat":43.25858,"lon":5.39898,"is_reserved":false,"is_disabled":false,"rental_uris":{"android":"levelo://app?vid=34ac0783-9cba-49c4-ad00-33c6e19973f3","ios":"levelo://app?vid=34ac0783-9cba-49c4-ad00-33c6e19973f3"},"vehicle_type_id":"4","last_reported":1740258492,"current_range_meters":19600,"station_id":"ce4bhl92rcd13ifvqghg","pricing_plan_id":"cebpf4jnsgd1na2vs0mg"},