{"last_updated":1711299964,"ttl":30,"version":"2.2","data":{"bikes":[{"bike_id":"9bfcbd00-1afa-4560-8293-e7907599d600","system_id":"levelo_inurba_marseille","lat":43.312239,"lon":5.368562,"is_reserved":false,"is_disabled":false,"rental_uris":{"android":"levelo://app?vid=9bfcbd00-1afa-4560-8293-e7907599d600","ios":"levelo://app?vid=9bfcbd00-1afa-4560-8293-e7907599d600"},"vehicle_type_id":"4","last_reported":1711299964,"current_range_meters":1600,"station_id":"ce4bgl92rcd13ifvqbq0","pricing_plan_id":"cebpf4jnsgd1na2vs0mg"},{"bike_id":"81e01939-cb93-46fd-b73f-cb49d08c5fb3","system_id":"levelo_inurba_marseille","lat":43.309034,"lon":5.371783,"is_reserved":false,"is_disabled":false,"rental_uris":{"android":"levelo://app?vid=81e01939-cb93-46fd-b73f-cb49d08c5fb3","ios":"levelo://app?vid=81e01939-cb93-46fd-b73f-cb49d08c5fb3"},"vehicle_type_id":"4","last_reported":1711299964,"current_range_meters":2400,"station_id":"ce4bguh2rcd13ifvqckg","pricing_plan_id":"cebpf4jnsgd1na2vs0mg"},{"bike_id":"b68847aa-cbca-4231-9bfb-f7affb23c630","system_id":"levelo_inurba_marseille","lat":43.305484,"lon":5.365521,"is_reserved":false,"is_disabled":false,"rental_uris":{"android":"levelo://app?vid=b68847aa-cbca-4231-9bfb-f7affb23c630","ios":"levelo://app?vid=b68847aa-cbca-4231-9bfb-f7affb23c630"},"vehicle_type_id":"4","last_reported":1711299964,"current_range_meters":18000,"station_id":"ce4bgs12rcd13ifvqcag","pricing_plan_id":"cebpf4jnsgd1na2vs0mg"},{"bike_id":"4f006df7-4021-4894-a978-e7fbd68140e6","system_id":"levelo_inurba_marseille","lat":43.31365,"lon":5.377035,"is_reserved":false,"is_disabled":false,"rental_uris":{"android":"levelo://app?vid=4f006df7-4021-4894-a978-e7fbd68140e6","ios":"levelo://app?vid=4f006df7-4021-4894-a978-e7fbd68140e6"},"vehicle_type_id":"4","last_reported":1711299964,"current_range_meters":7600,"station_id":"","pricing_plan_id":"cebpf4jnsgd1na2vs0mg"},{"bike_id":"0561e4f6-509c-4c67-9be4-93524ae6fe54","system_id":"levelo_inurba_marseille","lat":43.305714,"lon":5.365633,"is_reserved":false,"is_disabled":false,"rental_uris":{"android":"levelo://app?vid=0561e4f6-509c-4c67-9be4-93524ae6fe54","ios":"levelo://app?vid=0561e4f6-509c-4c67-9be4-93524ae6fe54"},"vehicle_type_id":"4","last_reported":1711299964,"current_range_meters":800,"station_id":"ce4bgs12rcd13ifvqcag","pricing_plan_id":"cebpf4jnsgd1na2vs0mg"},{"bike_id":"56ae8809-b895-4d15-a7b7-e4d86fd3dbaf","system_id":"levelo_inurba_marseille","lat":43.305714,"lon":5.365633,"is_reserved":false,"is_disabled":false,"rental_uris":{"android":"levelo://app?vid=56ae8809-b895-4d15-a7b7-e4d86fd3dbaf","ios":"levelo://app?vid=56ae8809-b895-4d15-a7b7-e4d86fd3dbaf"},"vehicle_type_id":"4","last_reported":1711299964,"current_range_meters":0,"station_id":"ce4bgs12rcd13ifvqcag","pricing_plan_id":"cebpf4jnsgd1na2vs0mg"},{"bike_id":"c66db5b2-f289-4aa8-84d4-7147d3c084ec","system_id":"levelo_inurba_marseille","lat":43.311131,"lon":5.377651,"is_reserved":false,"is_disabled":false,"rental_uris":{"android":"levelo://app?vid=c66db5b2-f289-4aa8-84d4-7147d3c084ec","ios":"levelo://app?vid=c66db5b2-f289-4aa8-84d4-7147d3c084ec"},"vehicle_type_id":"4","last_reported":1711299964,"current_range_meters":21200,"station_id":"ce4bgt92rcd13ifvqcg0","pricing_plan_id":"cebpf4jnsgd1na2vs0mg"},{"bike_id":"1f3a9f86-641f-4f24-a4cd-610dfb2c0a11","system_id":"levelo_inurba_marseille","lat":43.317075,"lon":5.377367,"is_reserved":false,"is_disabled":false,"rental_uris":{"android":"levelo://app?vid=1f3a9f86-641f-4f24-a4cd-610dfb2c0a11","ios":"levelo://app?vid=1f3a9f86-641f-4f24-a4cd-610dfb2c0a11"},"vehicle_type_id":"4","last_reported":1711299964,"current_range_meters":0,"station_id":"ce4bgth2rcd13ifvqch0","pricing_plan_id":"cebpf4jnsgd1na2vs0mg"},{"bike_id":"3bf40f28-65db-4994-8742-ef4e4063f23f","system_id":"levelo_inurba_marseille","lat":43.307832,"lon":5.376502,"is_reserved":false,"is_disabled":false,"rental_uris":{"android":"levelo://app?vid=3bf40f28-65db-4994-8742-ef4e4063f23f","ios":"levelo://app?vid=3bf40f28-65db-4994-8742-ef4e4063f23f"},"vehicle_type_id":"4","last_reported":1711299964,"current_range_meters":0,"station_id":"ce4bgv92rcd13ifvqcq0","pricing_plan_id":"cebpf4jnsgd1na2vs0mg"},{"bike_id":"b916e65d-9470-4670-a63f-7acc05595928","system_id":"levelo_inurba_marseille","lat":43.31947,"lon":5.37414,"is_reserved":false,"is_disabled":false,"rental_uris":{"android":"levelo://app?vid=b916e65d-9470-4670-a63f-7acc05595928","ios":"levelo://app?vid=b916e65d-9470-4670-a63f-7acc05595928"},"vehicle_type_id":"4","last_reported":1711299964,"current_range_meters":20800,"station_id":"","pricing_plan_id":"cebpf4jnsgd1na2vs0mg"},{"bike_id":"6488f3de-3644-4fda-805b-57a4aee8b263","system_id":"levelo_inurba_marseille","lat":43.307945,"lon":5.376487,"is_reserved":false,"is_disabled":false,"rental_uris":{"android":"levelo://app?vid=6488f3de-3644-4fda-805b-57a4aee8b263","ios":"levelo://app?vid=6488f3de-3644-4fda-805b-57a4aee8b263"},"vehicle_type_id":"4","last_reported":1711299964,"current_range_meters":0,"station_id":"ce4bgv92rcd13ifvqcq0","pricing_plan_id":"cebpf4jnsgd1na2vs0mg"},{"bike_id":"9db12367-56c0-4744-be43-c88c2c01819b","system_id":"levelo_inurba_marseille","lat":43.31374,"lon":5.379323,"is_reserved":false,"is_disabled":false,"rental_uris":{"android":"levelo://app?vid=9db12367-56c0-4744-be43-c88c2c01819b","ios":"levelo://app?vid=9db12367-56c0-4744-be43-c88c2c01819b"},"vehicle_type_id":"4","last_reported":1711299964,"current_range_meters":22800,"station_id":"","pricing_plan_id":"cebpf4jnsgd1na2vs0mg"},{"bike_id":"238ecaa1-31b2-4d16-b3bb-7e6befbf3378","system_id":"levelo_inurba_marseille","lat":43.313637,"lon":5.379453,"is_reserved":false,"is_disabled":false,"rental_uris":{"android":"levelo://app?vid=238ecaa1-31b2-4d16-b3bb-7e6befbf3378","ios":"levelo://app?vid=238ecaa1-31b2-4d16-b3bb-7e6befbf3378"},"vehicle_type_id":"4","last_reported":1711299964,"current_range_meters":12400,"station_id":"","pricing_plan_id":"cebpf4jnsgd1na2vs0mg"},{"bike_id":"8af3293b-58c9-4f69-b9f9-edd74818d940","system_id":"levelo_inurba_marseille","lat":43.30304,"lon":5.368987,"is_reserved":false,"is_disabled":false,"rental_uris":{"android":"levelo://app?vid=8af3293b-58c9-4f69-b9f9-edd74818d940","ios":"levelo://app?vid=8af3293b-58c9-4f69-b9f9-edd74818d940"},"vehicle_type_id":"4","last_reported":1711299964,"current_range_meters":18800,"station_id":"ce4bgqh2rcd13ifvqc5g","pricing_plan_id":"cebpf4jnsgd1na2vs0mg"},{"bike_id":"0b217435-6b2b-44f0-a60a-d8a1450971aa","system_id":"levelo_inurba_marseille","lat":43.30304,"lon":5.368987,"is_reserved":false,"is_disabled":false,"rental_uris":{"android":"levelo://app?vid=0b217435-6b2b-44f0-a60a-d8a1450971aa","ios":"levelo://app?vid=0b217435-6b2b-44f0-a60a-d8a1450971aa"},"vehicle_type_id":"4","last_reported":1711299964,"current_range_meters":21600,"station_id":"ce4bgqh2rcd13ifvqc5g","pricing_plan_id":"cebpf4jnsgd1na2vs0mg"},{"bike_id":"61fe0eda-6ecb-41fe-a586-b8bd0eb84255","system_id":"levelo_inurba_marseille","lat":43.301939,"lon":5.366286,"is_reserved":false,"is_disabled":false,"rental_uris":{"android":"levelo://app?vid=61fe0eda-6ecb-41fe-a586-b8bd0eb84255","ios":"levelo://app?vid=61fe0eda-6ecb-41fe-a586-b8bd0eb84255"},"vehicle_type_id":"4","last_reported":1711299964,"current_range_meters":0,"station_id":"ce4bgrh2rcd13ifvqc8g","pricing_plan_id":"cebpf4jnsgd1na2vs0mg"},{"bike_id":"5eb8279f-f2a5-4836-8f4a-02483a552f81","system_id":"levelo_inurba_marseille","lat":43.308012,"lon":5.381511,"is_reserved":false,"is_disabled":false,"rental_uris":{"android":"levelo://app?vid=5eb8279f-f2a5-4836-8f4a-02483a552f81","ios":"levelo://app?vid=5eb8279f-f2a5-4836-8f4a-02483a552f81"},"vehicle_type_id":"4","last_reported":1711299964,"current_range_meters":0,"station_id":"ce4bgt12rcd13ifvqce0","pricing_plan_id":"cebpf4jnsgd1na2vs0mg"},{"bike_id":"8ac1b9e1-e1c6-433d-a380-216233cdd155","system_id":"levelo_inurba_marseille","lat":43.308012,"lon":5.381511,"is_reserved":false,"is_disabled":false,"rental_uris":{"android":"levelo://app?vid=8ac1b9e1-e1c6-433d-a380-216233cdd155","ios":"levelo://app?vid=8ac1b9e1-e1c6-433d-a380-216233cdd155"},"vehicle_type_id":"4","last_reported":1711299964,"current_range_meters":27600,"station_id":"ce4bgt12rcd13ifvqce0","pricing_plan_id":"cebpf4jnsgd1na2vs0mg"},{"bike_id":"c727a486-2064-4f38-998b-7ca045b1568c","system_id":"levelo_inurba_marseille","lat":43.308012,"lon":5.381511,"is_reserved":false,"is_disabled":false,"rental_uris":{"android":"levelo://app?vid=c727a486-2064-4f38-998b-7ca045b1568c","ios":"levelo://app?vid=c727a486-2064-4f38-998b-7ca045b1568c"},"vehicle_type_id":"4","last_reported":1711299964,"current_range_meters":19600,"station_id":"ce4bgt12rcd13ifvqce0","pricing_plan_id":"cebpf4jnsgd1na2vs0mg"},{"bike_id":"af85e3bd-9db7-4b6b-b166-1b08d51d53c2","system_id":"levelo_inurba_marseille","lat":43.304642,"lon":5.378988,"is_reserved":false,"is_disabled":false,"rental_uris":{"android":"levelo://app?vid=af85e3bd-9db7-4b6b-b166-1b08d51d53c2","ios":"levelo://app?vid=af85e3bd-9db7-4b6b-b166-1b08d51d53c2"},"vehicle_type_id":"4","last_reported":1711299964,"current_range_meters":0,"station_id":"ce4bgup2rcd13ifvqcn0","pricing_plan_id":"cebpf4jnsgd1na2vs0mg"},{"bike_id":"7da53701-90d3-4a38-995f-79eab59d821c","system_id":"levelo_inurba_marseille","lat":43.324771,"lon":5.36557,"is_reserved":false,"is_disabled":false,"rental_uris":{"android":"levelo://app?vid=7da53701-90d3-4a38-995f-79eab59d821c","ios":"levelo://app?vid=7da53701-90d3-4a38-995f-79eab59d821c"},"vehicle_type_id":"4","last_reported":1711299964,"current_range_meters":11200,"station_id":"ce4bhs12rcd13ifvqhvg","pricing_plan_id":"cebpf4jnsgd1na2vs0mg"},{"bike_id":"babf6083-0f90-4505-858c-3f405538acd2","system_id":"levelo_inurba_marseille","lat":43.324771,"lon":5.36557,"is_reserved":false,"is_disabled":false,"rental_uris":{"android":"levelo://app?vid=babf6083-0f90-4505-858c-3f405538acd2","ios":"levelo://app?vid=babf6083-0f90-4505-858c-3f405538acd2"},"vehicle_type_id":"4","last_reported":1711299964,"current_range_meters":3600,"station_id":"ce4bhs12rcd13ifvqhvg","pricing_plan_id":"cebpf4jnsgd1na2vs0mg"},{"bike_id":"1da5e40e-58a0-4d1b-a7e7-2641b7356d14","system_id":"levelo_inurba_marseille","lat":43.324792,"lon":5.365551,"is_reserved":false,"is_disabled":false,"rental_uris":{"android":"levelo://app?vid=1da5e40e-58a0-4d1b-a7e7-2641b7356d14","ios":"levelo://app?vid=1da5e40e-58a0-4d1b-a7e7-2641b7356d14"},"vehicle_type_id":"4","last_reported":1711299964,"current_range_meters":0,"station_id":"ce4bhs12rcd13ifvqhvg","pricing_plan_id":"cebpf4jnsgd1na2vs0mg"},{"bike_id":"b88553c7-39de-4a84-8d1f-6c11f9d43ddb","system_id":"levelo_inurba_marseille","lat":43.324771,"lon":5.36557,"is_reserved":false,"is_disabled":false,"rental_uris":{"android":"levelo://app?vid=b88553c7-39de-4a84-8d1f-6c11f9d43ddb","ios":"levelo://app?vid=b88553c7-39de-4a84-8d1f-6c11f9d43ddb"},"vehicle_type_id":"4","last_reported":1711299964,"current_range_meters":0,"station_id":"ce4bhs12rcd13ifvqhvg","pricing_plan_id":"cebpf4jnsgd1na2vs0mg"},{"bike_id":"10827d88-3ce2-49d6-ba24-4064271fb189","system_id":"levelo_inurba_marseille","lat":43.324809,"lon":5.365572,"is_reserved":false,"is_disabled":false,"rental_uris":{"android":"levelo://app?vid=10827d88-3ce2-49d6-ba24-4064271fb189","ios":"levelo://app?vid=10827d88-3ce2-49d6-ba24-4064271fb189"},"vehicle_type_id":"4","last_reported":1711299964,"current_range_meters":0,"station_id":"ce4bhs12rcd13ifvqhvg","pricing_plan_id":"cebpf4jnsgd1na2vs0mg"},{"bike_id":"fa05d3e5-f409-4e05-ace7-f6f819e528e8","system_id":"levelo_inurba_marseille","lat":43.32484,"lon":5.36573,"is_reserved":false,"is_disabled":false,"rental_uris":{"android":"levelo://app?vid=fa05d3e5-f409-4e05-ace7-f6f819e528e8","ios":"levelo://app?vid=fa05d3e5-f409-4e05-ace7-f6f819e528e8"},"vehicle_type_id":"4","last_reported":1711299964,"current_range_meters":400,"station_id":"ce4bhs12rcd13ifvqhvg","pricing_plan_id":"cebpf4jnsgd1na2vs0mg"},{"bike_id":"6cc20f86-eab6-4635-8f90-6882d139dbf5","system_id":"levelo_inurba_marseille","lat":43.324771,"lon":5.36557,"is_reserved":false,"is_disabled":false,"rental_uris":{"android":"levelo://app?vid=6cc20f86-eab6-4635-8f90-6882d139dbf5","ios":"levelo://app?vid=6cc20f86-eab6-4635-8f90-6882d139dbf5"},"vehicle_type_id":"4","last_reported":1711299964,"current_range_meters":24000,"station_id":"ce4bhs12rcd13ifvqhvg","pricing_plan_id":"cebpf4jnsgd1na2vs0mg"},{"bike_id":"891b0779-ede4-45b9-b9cd-ec3f50e06509","system_id":"levelo_inurba_marseille","lat":43.30418,"lon":5.3789,"is_reserved":false,"is_disabled":false,"rental_uris":{"android":"levelo://app?vid=891b0779-ede4-45b9-b9cd-ec3f50e06509","ios":"levelo://app?vid=891b0779-ede4-45b9-b9cd-ec3f50e06509"},"vehicle_type_id":"4","last_reported":1711299964,"current_range_meters":0,"station_id":"ce4bgup2rcd13ifvqcn0","pricing_plan_id":"cebpf4jnsgd1na2vs0mg"},{"bike_id":"8c6b2f5f-352c-4c04-ab35-3075bbf03e98","system_id":"levelo_inurba_marseille","lat":43.31079,"lon":5.383626,"is_reserved":false,"is_disabled":false,"rental_uris":{"android":"levelo://app?vid=8c6b2f5f-352c-4c04-ab35-3075bbf03e98","ios":"levelo://app?vid=8c6b2f5f-352c-4c04-ab35-3075bbf03e98"},"vehicle_type_id":"4","last_reported":1711299964,"current_range_meters":0,"station_id":"ce4bgv92rcd13ifvqcr0","pricing_plan_id":"cebpf4jnsgd1na2vs0mg"},{"bike_id":"f7f32de7-58ea-40af-aebb-b1c5a362bfcb","system_id":"levelo_inurba_marseille","lat":43.30277,"lon":5.37693,"is_reserved":false,"is_disabled":false,"rental_uris":{"android":"levelo://app?vid=f7f32de7-58ea-40af-aebb-b1c5a362bfcb","ios":"levelo://app?vid=f7f32de7-58ea-40af-aebb-b1c5a362bfcb"},"vehicle_type_id":"4","last_reported":1711299964,"current_range_meters":5600,"station_id":"ce4bguh2rcd13ifvqcj0","pricing_plan_id":"cebpf4jnsgd1na2vs0mg"},{"bike_id":"9f2386a2-e14f-43e0-bf94-3a6e7864d7a8","system_id":"levelo_inurba_marseille","lat":43.301429,"lon":5.37413,"is_reserved":false,"is_disabled":false,"rental_uris":{"android":"levelo://app?vid=9f2386a2-e14f-43e0-bf94-3a6e7864d7a8","ios":"levelo://app?vid=9f2386a2-e14f-43e0-bf94-3a6e7864d7a8"},"vehicle_type_id":"4","last_reported":1711299964,"current_range_meters":6800,"station_id":"ce4bgs92rcd13ifvqcc0","pricing_plan_id":"cebpf4jnsgd1na2vs0mg"},{"bike_id":"9fee9b9b-a740-46c5-96bd-8f0e79a39c23","system_id":"levelo_inurba_marseille","lat":43.319935,"lon":5.381699,"is_reserved":false,"is_disabled":false,"rental_uris":{"android":"levelo://app?vid=9fee9b9b-a740-46c5-96bd-8f0e79a39c23","ios":"levelo://app?vid=9fee9b9b-a740-46c5-96bd-8f0e79a39c23"},"vehicle_type_id":"4","last_reported":1711299964,"current_range_meters":0,"station_id":"ce4bhr12rcd13ifvqhpg","pricing_plan_id":"cebpf4jnsgd1na2vs0mg"},{"bike_id":"6c1e3c51-cd5a-469b-a350-c7f83832aa8a","system_id":"levelo_inurba_marseille","lat":43.319935,"lon":5.381699,"is_reserved":false,"is_disabled":false,"rental_uris":{"android":"levelo://app?vid=6c1e3c51-cd5a-469b-a350-c7f83832aa8a","ios":"levelo://app?vid=6c1e3c51-cd5a-469b-a350-c7f83832aa8a"},"vehicle_type_id":"4","last_reported":1711299964,"current_range_meters":4000,"station_id":"ce4bhr12rcd13ifvqhpg","pricing_plan_id":"cebpf4jnsgd1na2vs0mg"},{"bike_id":"ba709437-82b5-4c74-974c-4c50a356b816","system_id":"levelo_inurba_marseille","lat":43.319935,"lon":5.381699,"is_reserved":false,"is_disabled":false,"rental_uris":{"android":"levelo://app?vid=ba709437-82b5-4c74-974c-4c50a356b816","ios":"levelo://app?vid=ba709437-82b5-4c74-974c-4c50a356b816"},"vehicle_type_id":"4","last_reported":1711299964,"current_range_meters":14400,"station_id":"ce4bhr12rcd13ifvqhpg","pricing_plan_id":"cebpf4jnsgd1na2vs0mg"},{"bike_id":"fb2dbb66-bb42-4593-8a43-4d970a924dc3","system_id":"levelo_inurba_marseille","lat":43.319935,"lon":5.381699,"is_reserved":false,"is_disabled":false,"rental_uris":{"android":"levelo://app?vid=fb2dbb66-bb42-4593-8a43-4d970a924dc3","ios":"levelo://app?vid=fb2dbb66-bb42-4593-8a43-4d970a924dc3"},"vehicle_type_id":"4","last_reported":1711299964,"current_range_meters":3200,"station_id":"ce4bhr12rcd13ifvqhpg","pricing_plan_id":"cebpf4jnsgd1na2vs0mg"},{"bike_id":"23b0f80a-60c5-4f7d-be9c-858f81c52a7d","system_id":"levelo_inurba_marseille","lat":43.300131,"lon":5.371183,"is_reserved":false,"is_disabled":false,"rental_uris":{"android":"levelo://app?vid=23b0f80a-60c5-4f7d-be9c-858f81c52a7d","ios":"levelo://app?vid=23b0f80a-60c5-4f7d-be9c-858f81c52a7d"},"vehicle_type_id":"4","last_reported":1711299964,"current_range_meters":0,"station_id":"","pricing_plan_id":"cebpf4jnsgd1na2vs0mg"},{"bike_id":"d44deae4-b50f-4f07-b31e-5bac4d352fd9","system_id":"levelo_inurba_marseille","lat":43.304606,"lon":5.379026,"is_reserved":false,"is_disabled":false,"rental_uris":{"android":"levelo://app?vid=d44deae4-b50f-4f07-b31e-5bac4d352fd9","ios":"levelo://app?vid=d44deae4-b50f-4f07-b31e-5bac4d352fd9"},"vehicle_type_id":"4","last_reported":1711299964,"current_range_meters":13200,"station_id":"ce4bgup2rcd13ifvqcn0","pricing_plan_id":"cebpf4jnsgd1na2vs0mg"},{"bike_id":"87e73152-e8f1-41c2-9e0c-697b60c394f3","system_id":"levelo_inurba_marseille","lat":43.2998,"lon":5.37185,"is_reserved":false,"is_disabled":false,"rental_uris":{"android":"levelo://app?vid=87e73152-e8f1-41c2-9e0c-697b60c394f3","ios":"levelo://app?vid=87e73152-e8f1-41c2-9e0c-697b60c394f3"},"vehicle_type_id":"4","last_reported":1711299964,"current_range_meters":0,"station_id":"ce4bgr92rcd13ifvqc7g","pricing_plan_id":"cebpf4jnsgd1na2vs0mg"},{"bike_id":"b0e3ec81-2d48-47c0-b8a4-49f0787d4e67","system_id":"levelo_inurba_marseille","lat":43.29945,"lon":5.37153,"is_reserved":false,"is_disabled":false,"rental_uris":{"android":"levelo://app?vid=b0e3ec81-2d48-47c0-b8a4-49f0787d4e67","ios":"levelo://app?vid=b0e3ec81-2d48-47c0-b8a4-49f0787d4e67"},"vehicle_type_id":"4","last_reported":1711299964,"current_range_meters":2800,"station_id":"ce4bgr92rcd13ifvqc7g","pricing_plan_id":"cebpf4jnsgd1na2vs0mg"},{"bike_id":"c570446a-fc1a-4b8b-bae9-56d96ee5ffa1","system_id":"levelo_inurba_marseille","lat":43.298764,"lon":5.388973,"is_reserved":false,"is_disabled":false,"rental_uris":{"android":"levelo://app?vid=c570446a-fc1a-4b8b-bae9-56d96ee5ffa1","ios":"levelo://app?vid=c570446a-fc1a-4b8b-bae9-56d96ee5ffa1"},"vehicle_type_id":"4","last_reported":1711299964,"current_range_meters":0,"station_id":"ce4bh392rcd13ifvqdl0","pricing_plan_id":"cebpf4jnsgd1na2vs0mg"},{"bike_id":"db119a4e-103e-4dbd-8f48-55e7a49bf386","system_id":"levelo_inurba_marseille","lat":43.298433,"lon":5.362774,"is_reserved":false,"is_disabled":false,"rental_uris":{"android":"levelo://app?vid=db119a4e-103e-4dbd-8f48-55e7a49bf386","ios":"levelo://app?vid=db119a4e-103e-4dbd-8f48-55e7a49bf386"},"vehicle_type_id":"4","last_reported":1711299964,"current_range_meters":7600,"station_id":"ce4bgpp2rcd13ifvqc3g","pricing_plan_id":"cebpf4jnsgd1na2vs0mg"},{"bike_id":"feead7e7-9cee-4c57-94a6-da647512767c","system_id":"levelo_inurba_marseille","lat":43.322896,"lon":5.382515,"is_reserved":false,"is_disabled":false,"rental_uris":{"android":"levelo://app?vid=feead7e7-9cee-4c57-94a6-da647512767c","ios":"levelo://app?vid=feead7e7-9cee-4c57-94a6-da647512767c"},"vehicle_type_id":"4","last_reported":1711299964,"current_range_meters":2800,"station_id":"ce4bhr12rcd13ifvqhqg","pricing_plan_id":"cebpf4jnsgd1na2vs0mg"},{"bike_id":"5f24820b-6f11-4d7d-800a-ef3c0874d7ec","system_id":"levelo_inurba_marseille","lat":43.322901,"lon":5.38263,"is_reserved":false,"is_disabled":false,"rental_uris":{"android":"levelo://app?vid=5f24820b-6f11-4d7d-800a-ef3c0874d7ec","ios":"levelo://app?vid=5f24820b-6f11-4d7d-800a-ef3c0874d7ec"},"vehicle_type_id":"4","last_reported":1711299964,"current_range_meters":17600,"station_id":"ce4bhr12rcd13ifvqhqg","pricing_plan_id":"cebpf4jnsgd1na2vs0mg"},{"bike_id":"3ff125a5-dff1-4591-b6cc-449dc2424878","system_id":"levelo_inurba_marseille","lat":43.32289,"lon":5.38267,"is_reserved":false,"is_disabled":false,"rental_uris":{"android":"levelo://app?vid=3ff125a5-dff1-4591-b6cc-449dc2424878","ios":"levelo://app?vid=3ff125a5-dff1-4591-b6cc-449dc2424878"},"vehicle_type_id":"4","last_reported":1711299964,"current_range_meters":1200,"station_id":"ce4bhr12rcd13ifvqhqg","pricing_plan_id":"cebpf4jnsgd1na2vs0mg"},{"bike_id":"a7e62bc6-8c2b-459e-9b1c-8a3ce905028e","system_id":"levelo_inurba_marseille","lat":43.322872,"lon":5.382756,"is_reserved":false,"is_disabled":false,"rental_uris":{"android":"levelo://app?vid=a7e62bc6-8c2b-459e-9b1c-8a3ce905028e","ios":"levelo://app?vid=a7e62bc6-8c2b-459e-9b1c-8a3ce905028e"},"vehicle_type_id":"4","last_reported":1711299964,"current_range_meters":8400,"station_id":"ce4bhr12rcd13ifvqhqg","pricing_plan_id":"cebpf4jnsgd1na2vs0mg"},{"bike_id":"8b004ee8-7400-4db7-97a8-7a3b78ef5c51","system_id":"levelo_inurba_marseille","lat":43.322946,"lon":5.382617,"is_reserved":false,"is_disabled":false,"rental_uris":{"android":"levelo://app?vid=8b004ee8-7400-4db7-97a8-7a3b78ef5c51","ios":"levelo://app?vid=8b004ee8-7400-4db7-97a8-7a3b78ef5c51"},"vehicle_type_id":"4","last_reported":1711299964,"current_range_meters":24000,"station_id":"ce4bhr12rcd13ifvqhqg","pricing_plan_id":"cebpf4jnsgd1na2vs0mg"},{"bike_id":"452f5a12-5840-4928-8e50-d0aee6036731","system_id":"levelo_inurba_marseille","lat":43.32293,"lon":5.38264,"is_reserved":false,"is_disabled":false,"rental_uris":{"android":"levelo://app?vid=452f5a12-5840-4928-8e50-d0aee6036731","ios":"levelo://app?vid=452f5a12-5840-4928-8e50-d0aee6036731"},"vehicle_type_id":"4","last_reported":1711299964,"current_range_meters":6800,"station_id":"ce4bhr12rcd13ifvqhqg","pricing_plan_id":"cebpf4jnsgd1na2vs0mg"},{"bike_id":"207cdac5-b3e6-4d55-8f97-75f17398d943","system_id":"levelo_inurba_marseille","lat":43.322872,"lon":5.382756,"is_reserved":false,"is_disabled":false,"rental_uris":{"android":"levelo://app?vid=207cdac5-b3e6-4d55-8f97-75f17398d943","ios":"levelo://app?vid=207cdac5-b3e6-4d55-8f97-75f17398d943"},"vehicle_type_id":"4","last_reported":1711299964,"current_range_meters":6800,"station_id":"ce4bhr12rcd13ifvqhqg","pricing_plan_id":"cebpf4jnsgd1na2vs0mg"},{"bike_id":"9607cebd-f2b1-4cda-94e6-b812c1eeae5d","system_id":"levelo_inurba_marseille","lat":43.322872,"lon":5.382756,"is_reserved":false,"is_disabled":false,"rental_uris":{"android":"levelo://app?vid=9607cebd-f2b1-4cda-94e6-b812c1eeae5d","ios":"levelo://app?vid=9607cebd-f2b1-4cda-94e6-b812c1eeae5d"},"vehicle_type_id":"4","last_reported":1711299964,"current_range_meters":28800,"station_id":"ce4bhr12rcd13ifvqhqg","pricing_plan_id":"cebpf4jnsgd1na2vs0mg"},{"bike_id":"5d8768c3-c16c-4f03-812d-0467d2c881f1","system_id":"levelo_inurba_marseille","lat":43.322872,"lon":5.382756,"is_reserved":false,"is_disabled":false,"rental_uris":{"android":"levelo://app?vid=5d8768c3-c16c-4f03-812d-0467d2c881f1","ios":"levelo://app?vid=5d8768c3-c16c-4f03-812d-0467d2c881f1"},"vehicle_type_id":"4","last_reported":1711299964,"current_range_meters":19600,"station_id":"ce4bhr12rcd13ifvqhqg","pricing_plan_id":"cebpf4jnsgd1na2vs0mg"},{"bike_id":"85d4d71c-b2c1-426a-b0b8-be8461195f7e","system_id":"levelo_inurba_marseille","lat":43.322872,"lon":5.382756,"is_reserved":false,"is_disabled":false,"rental_uris":{"android":"levelo://app?vid=85d4d71c-b2c1-426a-b0b8-be8461195f7e","ios":"levelo://app?vid=85d4d71c-b2c1-426a-b0b8-be8461195f7e"},"vehicle_type_id":"4","last_reported":1711299964,"current_range_meters":31200,"station_id":"ce4bhr12rcd13ifvqhqg","pricing_plan_id":"cebpf4jnsgd1na2vs0mg"},{"bike_id":"a2ee1e43-dd55-4286-9b87-053cf67c3419","system_id":"levelo_inurba_marseille","lat":43.322872,"lon":5.382756,"is_reserved":false,"is_disabled":false,"rental_uris":{"android":"levelo://app?vid=a2ee1e43-dd55-4286-9b87-053cf67c3419","ios":"levelo://app?vid=a2ee1e43-dd55-4286-9b87-053cf67c3419"},"vehicle_type_id":"4","last_reported":1711299964,"current_range_meters":26000,"station_id":"ce4bhr12rcd13ifvqhqg","pricing_plan_id":"cebpf4jnsgd1na2vs0mg"},{"bike_id":"69999a80-52ef-43fd-9047-901c7ed12489","system_id":"levelo_inurba_marseille","lat":43.29703,"lon":5.36617,"is_reserved":false,"is_disabled":false,"rental_uris":{"android":"levelo://app?vid=69999a80-52ef-43fd-9047-901c7ed12489","ios":"levelo://app?vid=69999a80-52ef-43fd-9047-901c7ed12489"},"vehicle_type_id":"4","last_reported":1711299964,"current_range_meters":0,"station_id":"ce4bgn12rcd13ifvqbt0","pricing_plan_id":"cebpf4jnsgd1na2vs0mg"},{"bike_id":"cf1d3975-184f-474d-aba7-db05a3f3a32e","system_id":"levelo_inurba_marseille","lat":43.2968,"lon":5.37291,"is_reserved":false,"is_disabled":false,"rental_uris":{"android":"levelo://app?vid=cf1d3975-184f-474d-aba7-db05a3f3a32e","ios":"levelo://app?vid=cf1d3975-184f-474d-aba7-db05a3f3a32e"},"vehicle_type_id":"4","last_reported":1711299964,"current_range_meters":4800,"station_id":"ce4bgk12rcd13ifvqbj0","pricing_plan_id":"cebpf4jnsgd1na2vs0mg"},{"bike_id":"1901f0f5-4629-48f7-8d53-73ac64043666","system_id":"levelo_inurba_marseille","lat":43.296131,"lon":5.370791,"is_reserved":false,"is_disabled":false,"rental_uris":{"android":"levelo://app?vid=1901f0f5-4629-48f7-8d53-73ac64043666","ios":"levelo://app?vid=1901f0f5-4629-48f7-8d53-73ac64043666"},"vehicle_type_id":"4","last_reported":1711299964,"current_range_meters":3200,"station_id":"ce4bgnh2rcd13ifvqc0g","pricing_plan_id":"cebpf4jnsgd1na2vs0mg"},{"bike_id":"7eb03494-245d-4d7f-bbd4-19fb56121861","system_id":"levelo_inurba_marseille","lat":43.29583,"lon":5.36748,"is_reserved":false,"is_disabled":false,"rental_uris":{"android":"levelo://app?vid=7eb03494-245d-4d7f-bbd4-19fb56121861","ios":"levelo://app?vid=7eb03494-245d-4d7f-bbd4-19fb56121861"},"vehicle_type_id":"4","last_reported":1711299964,"current_range_meters":0,"station_id":"ce4bgph2rcd13ifvqc2g","pricing_plan_id":"cebpf4jnsgd1na2vs0mg"},{"bike_id":"87e33533-81fd-4c07-8e2f-85d8f1abda81","system_id":"levelo_inurba_marseille","lat":43.296935,"lon":5.376544,"is_reserved":false,"is_disabled":false,"rental_uris":{"android":"levelo://app?vid=87e33533-81fd-4c07-8e2f-85d8f1abda81","ios":"levelo://app?vid=87e33533-81fd-4c07-8e2f-85d8f1abda81"},"vehicle_type_id":"4","last_reported":1711299964,"current_range_meters":6400,"station_id":"ce4bgkh2rcd13ifvqbl0","pricing_plan_id":"cebpf4jnsgd1na2vs0mg"},{"bike_id":"2127399f-d128-416b-8ad4-76d643702b2b","system_id":"levelo_inurba_marseille","lat":43.317557,"lon":5.390173,"is_reserved":false,"is_disabled":false,"rental_uris":{"android":"levelo://app?vid=2127399f-d128-416b-8ad4-76d643702b2b","ios":"levelo://app?vid=2127399f-d128-416b-8ad4-76d643702b2b"},"vehicle_type_id":"4","last_reported":1711299964,"current_range_meters":17200,"station_id":"ce4bhqp2rcd13ifvqhng","pricing_plan_id":"cebpf4jnsgd1na2vs0mg"},{"bike_id":"6754a9e9-66e4-4669-85ef-d70f15e7e6a9","system_id":"levelo_inurba_marseille","lat":43.31751,"lon":5.39018,"is_reserved":false,"is_disabled":false,"rental_uris":{"android":"levelo://app?vid=6754a9e9-66e4-4669-85ef-d70f15e7e6a9","ios":"levelo://app?vid=6754a9e9-66e4-4669-85ef-d70f15e7e6a9"},"vehicle_type_id":"4","last_reported":1711299964,"current_range_meters":4800,"station_id":"ce4bhqp2rcd13ifvqhng","pricing_plan_id":"cebpf4jnsgd1na2vs0mg"},{"bike_id":"64faaf0e-8299-47ab-9335-1274f7d2f7f6","system_id":"levelo_inurba_marseille","lat":43.31749,"lon":5.39023,"is_reserved":false,"is_disabled":false,"rental_uris":{"android":"levelo://app?vid=64faaf0e-8299-47ab-9335-1274f7d2f7f6","ios":"levelo://app?vid=64faaf0e-8299-47ab-9335-1274f7d2f7f6"},"vehicle_type_id":"4","last_reported":1711299964,"current_range_meters":7200,"station_id":"ce4bhqp2rcd13ifvqhng","pricing_plan_id":"cebpf4jnsgd1na2vs0mg"},{"bike_id":"655aa1d0-cd5b-4fe3-baa3-fa62dfaf2660","system_id":"levelo_inurba_marseille","lat":43.317557,"lon":5.390173,"is_reserved":false,"is_disabled":false,"rental_uris":{"android":"levelo://app?vid=655aa1d0-cd5b-4fe3-baa3-fa62dfaf2660","ios":"levelo://app?vid=655aa1d0-cd5b-4fe3-baa3-fa62dfaf2660"},"vehicle_type_id":"4","last_reported":1711299964,"current_range_meters":24000,"station_id":"ce4bhqp2rcd13ifvqhng","pricing_plan_id":"cebpf4jnsgd1na2vs0mg"},{"bike_id":"a84494ff-e488-44c6-9347-0b89aeb12141","system_id":"levelo_inurba_marseille","lat":43.31756,"lon":5.390257,"is_reserved":false,"is_disabled":false,"rental_uris":{"android":"levelo://app?vid=a84494ff-e488-44c6-9347-0b89aeb12141","ios":"levelo://app?vid=a84494ff-e488-44c6-9347-0b89aeb12141"},"vehicle_type_id":"4","last_reported":1711299964,"current_range_meters":5200,"station_id":"ce4bhqp2rcd13ifvqhng","pricing_plan_id":"cebpf4jnsgd1na2vs0mg"},{"bike_id":"9c00e332-e493-41ed-bbf7-57fae36097c1","system_id":"levelo_inurba_marseille","lat":43.31752,"lon":5.39034,"is_reserved":false,"is_disabled":false,"rental_uris":{"android":"levelo://app?vid=9c00e332-e493-41ed-bbf7-57fae36097c1","ios":"levelo://app?vid=9c00e332-e493-41ed-bbf7-57fae36097c1"},"vehicle_type_id":"4","last_reported":1711299964,"current_range_meters":0,"station_id":"ce4bhqp2rcd13ifvqhng","pricing_plan_id":"cebpf4jnsgd1na2vs0mg"},{"bike_id":"2353a64b-05f9-4cdb-88e6-06cf6c8d8248","system_id":"levelo_inurba_marseille","lat":43.31762,"lon":5.39033,"is_reserved":false,"is_disabled":false,"rental_uris":{"android":"levelo://app?vid=2353a64b-05f9-4cdb-88e6-06cf6c8d8248","ios":"levelo://app?vid=2353a64b-05f9-4cdb-88e6-06cf6c8d8248"},"vehicle_type_id":"4","last_reported":1711299964,"current_range_meters":10000,"station_id":"ce4bhqp2rcd13ifvqhng","pricing_plan_id":"cebpf4jnsgd1na2vs0mg"},{"bike_id":"1f9ed8be-b2aa-4640-aa4a-0b336ed815ed","system_id":"levelo_inurba_marseille","lat":43.304278,"lon":5.388868,"is_reserved":false,"is_disabled":false,"rental_uris":{"android":"levelo://app?vid=1f9ed8be-b2aa-4640-aa4a-0b336ed815ed","ios":"levelo://app?vid=1f9ed8be-b2aa-4640-aa4a-0b336ed815ed"},"vehicle_type_id":"4","last_reported":1711299964,"current_range_meters":12000,"station_id":"ce4bgk12rcd13ifvqbi0","pricing_plan_id":"cebpf4jnsgd1na2vs0mg"},{"bike_id":"529e518f-5c85-4011-9b3f-4b8de4b917cc","system_id":"levelo_inurba_marseille","lat":43.296263,"lon":5.377094,"is_reserved":false,"is_disabled":false,"rental_uris":{"android":"levelo://app?vid=529e518f-5c85-4011-9b3f-4b8de4b917cc","ios":"levelo://app?vid=529e518f-5c85-4011-9b3f-4b8de4b917cc"},"vehicle_type_id":"4","last_reported":1711299964,"current_range_meters":0,"station_id":"ce4bgi92rcd13ifvqb90","pricing_plan_id":"cebpf4jnsgd1na2vs0mg"},{"bike_id":"d778cdff-7b19-4aa3-8030-1f67d2ab2b08","system_id":"levelo_inurba_marseille","lat":43.296167,"lon":5.377308,"is_reserved":false,"is_disabled":false,"rental_uris":{"android":"levelo://app?vid=d778cdff-7b19-4aa3-8030-1f67d2ab2b08","ios":"levelo://app?vid=d778cdff-7b19-4aa3-8030-1f67d2ab2b08"},"vehicle_type_id":"4","last_reported":1711299964,"current_range_meters":0,"station_id":"ce4bgi92rcd13ifvqb90","pricing_plan_id":"cebpf4jnsgd1na2vs0mg"},{"bike_id":"961473ba-ce14-4eeb-b226-8f4641b3045f","system_id":"levelo_inurba_marseille","lat":43.296263,"lon":5.377094,"is_reserved":false,"is_disabled":false,"rental_uris":{"android":"levelo://app?vid=961473ba-ce14-4eeb-b226-8f4641b3045f","ios":"levelo://app?vid=961473ba-ce14-4eeb-b226-8f4641b3045f"},"vehicle_type_id":"4","last_reported":1711299964,"current_range_meters":0,"station_id":"ce4bgi92rcd13ifvqb90","pricing_plan_id":"cebpf4jnsgd1na2vs0mg"},{"bike_id":"4de65222-69ad-4ae8-acbb-9d7a603043f1","system_id":"levelo_inurba_marseille","lat":43.295273,"lon":5.375017,"is_reserved":false,"is_disabled":false,"rental_uris":{"android":"levelo://app?vid=4de65222-69ad-4ae8-acbb-9d7a603043f1","ios":"levelo://app?vid=4de65222-69ad-4ae8-acbb-9d7a603043f1"},"vehicle_type_id":"4","last_reported":1711299964,"current_range_meters":0,"station_id":"ce4bgkp2rcd13ifvqbmg","pricing_plan_id":"cebpf4jnsgd1na2vs0mg"},{"bike_id":"617b0e6f-676e-40f0-bbaf-c9395e5b4dcd","system_id":"levelo_inurba_marseille","lat":43.314672,"lon":5.392154,"is_reserved":false,"is_disabled":false,"rental_uris":{"android":"levelo://app?vid=617b0e6f-676e-40f0-bbaf-c9395e5b4dcd","ios":"levelo://app?vid=617b0e6f-676e-40f0-bbaf-c9395e5b4dcd"},"vehicle_type_id":"4","last_reported":1711299964,"current_range_meters":6400,"station_id":"","pricing_plan_id":"cebpf4jnsgd1na2vs0mg"},{"bike_id":"bf9bf615-bce6-4b76-a67d-ae2385bcd89c","system_id":"levelo_inurba_marseille","lat":43.31461,"lon":5.39217,"is_reserved":false,"is_disabled":false,"rental_uris":{"android":"levelo://app?vid=bf9bf615-bce6-4b76-a67d-ae2385bcd89c","ios":"levelo://app?vid=bf9bf615-bce6-4b76-a67d-ae2385bcd89c"},"vehicle_type_id":"4","last_reported":1711299964,"current_range_meters":31200,"station_id":"","pricing_plan_id":"cebpf4jnsgd1na2vs0mg"},{"bike_id":"fdb92f23-fe11-4f52-a2c4-94a72c3ccce1","system_id":"levelo_inurba_marseille","lat":43.299724,"lon":5.384848,"is_reserved":false,"is_disabled":false,"rental_uris":{"android":"levelo://app?vid=fdb92f23-fe11-4f52-a2c4-94a72c3ccce1","ios":"levelo://app?vid=fdb92f23-fe11-4f52-a2c4-94a72c3ccce1"},"vehicle_type_id":"4","last_reported":1711299964,"current_range_meters":6800,"station_id":"ce4bgj92rcd13ifvqbd0","pricing_plan_id":"cebpf4jnsgd1na2vs0mg"},{"bike_id":"1ce2726e-1c0b-474b-8d4b-eaa4a4052289","system_id":"levelo_inurba_marseille","lat":43.299643,"lon":5.38489,"is_reserved":false,"is_disabled":false,"rental_uris":{"android":"levelo://app?vid=1ce2726e-1c0b-474b-8d4b-eaa4a4052289","ios":"levelo://app?vid=1ce2726e-1c0b-474b-8d4b-eaa4a4052289"},"vehicle_type_id":"4","last_reported":1711299964,"current_range_meters":0,"station_id":"ce4bgj92rcd13ifvqbd0","pricing_plan_id":"cebpf4jnsgd1na2vs0mg"},{"bike_id":"bd0507b4-7570-467a-9a6d-450ae4031047","system_id":"levelo_inurba_marseille","lat":43.295279,"lon":5.375048,"is_reserved":false,"is_disabled":false,"rental_uris":{"android":"levelo://app?vid=bd0507b4-7570-467a-9a6d-450ae4031047","ios":"levelo://app?vid=bd0507b4-7570-467a-9a6d-450ae4031047"},"vehicle_type_id":"4","last_reported":1711299964,"current_range_meters":20000,"station_id":"ce4bgkp2rcd13ifvqbmg","pricing_plan_id":"cebpf4jnsgd1na2vs0mg"},{"bike_id":"c8f702b1-80b0-4c2e-83de-2251f4361695","system_id":"levelo_inurba_marseille","lat":43.32367,"lon":5.388836,"is_reserved":false,"is_disabled":false,"rental_uris":{"android":"levelo://app?vid=c8f702b1-80b0-4c2e-83de-2251f4361695","ios":"levelo://app?vid=c8f702b1-80b0-4c2e-83de-2251f4361695"},"vehicle_type_id":"4","last_reported":1711299964,"current_range_meters":20800,"station_id":"ce4bhqp2rcd13ifvqhog","pricing_plan_id":"cebpf4jnsgd1na2vs0mg"},{"bike_id":"951e1549-57b3-4e87-bae5-f0eab5365413","system_id":"levelo_inurba_marseille","lat":43.32365,"lon":5.38879,"is_reserved":false,"is_disabled":false,"rental_uris":{"android":"levelo://app?vid=951e1549-57b3-4e87-bae5-f0eab5365413","ios":"levelo://app?vid=951e1549-57b3-4e87-bae5-f0eab5365413"},"vehicle_type_id":"4","last_reported":1711299964,"current_range_meters":1200,"station_id":"ce4bhqp2rcd13ifvqhog","pricing_plan_id":"cebpf4jnsgd1na2vs0mg"},{"bike_id":"00460c00-eba0-427e-980d-2efd78fc6f34","system_id":"levelo_inurba_marseille","lat":43.32366,"lon":5.38884,"is_reserved":false,"is_disabled":false,"rental_uris":{"android":"levelo://app?vid=00460c00-eba0-427e-980d-2efd78fc6f34","ios":"levelo://app?vid=00460c00-eba0-427e-980d-2efd78fc6f34"},"vehicle_type_id":"4","last_reported":1711299964,"current_range_meters":3200,"station_id":"ce4bhqp2rcd13ifvqhog","pricing_plan_id":"cebpf4jnsgd1na2vs0mg"},{"bike_id":"c9a3c98e-7cac-4856-b507-897618b57146","system_id":"levelo_inurba_marseille","lat":43.323672,"lon":5.388894,"is_reserved":false,"is_disabled":false,"rental_uris":{"android":"levelo://app?vid=c9a3c98e-7cac-4856-b507-897618b57146","ios":"levelo://app?vid=c9a3c98e-7cac-4856-b507-897618b57146"},"vehicle_type_id":"4","last_reported":1711299964,"current_range_meters":4400,"station_id":"ce4bhqp2rcd13ifvqhog","pricing_plan_id":"cebpf4jnsgd1na2vs0mg"},{"bike_id":"53194352-a2b9-45a3-9747-82eaf5aff1c5","system_id":"levelo_inurba_marseille","lat":43.32367,"lon":5.388836,"is_reserved":false,"is_disabled":false,"rental_uris":{"android":"levelo://app?vid=53194352-a2b9-45a3-9747-82eaf5aff1c5","ios":"levelo://app?vid=53194352-a2b9-45a3-9747-82eaf5aff1c5"},"vehicle_type_id":"4","last_reported":1711299964,"current_range_meters":19600,"station_id":"ce4bhqp2rcd13ifvqhog","pricing_plan_id":"cebpf4jnsgd1na2vs0mg"},{"bike_id":"1bfa7805-b0b4-49ac-ac4b-f31aa3513d5d","system_id":"levelo_inurba_marseille","lat":43.292837,"lon":5.368399,"is_reserved":false,"is_disabled":false,"rental_uris":{"android":"levelo://app?vid=1bfa7805-b0b4-49ac-ac4b-f31aa3513d5d","ios":"levelo://app?vid=1bfa7805-b0b4-49ac-ac4b-f31aa3513d5d"},"vehicle_type_id":"4","last_reported":1711299964,"current_range_meters":28400,"station_id":"ce4bhbp2rcd13ifvqesg","pricing_plan_id":"cebpf4jnsgd1na2vs0mg"},{"bike_id":"670a19e1-64d0-47cb-8d42-23fa9e025f05","system_id":"levelo_inurba_marseille","lat":43.293049,"lon":5.371707,"is_reserved":false,"is_disabled":false,"rental_uris":{"android":"levelo://app?vid=670a19e1-64d0-47cb-8d42-23fa9e025f05","ios":"levelo://app?vid=670a19e1-64d0-47cb-8d42-23fa9e025f05"},"vehicle_type_id":"4","last_reported":1711299964,"current_range_meters":20400,"station_id":"ce4bgh92rcd13ifvqb40","pricing_plan_id":"cebpf4jnsgd1na2vs0mg"},{"bike_id":"05659dea-55a9-4886-8655-f659ef3a5842","system_id":"levelo_inurba_marseille","lat":43.292749,"lon":5.368402,"is_reserved":false,"is_disabled":false,"rental_uris":{"android":"levelo://app?vid=05659dea-55a9-4886-8655-f659ef3a5842","ios":"levelo://app?vid=05659dea-55a9-4886-8655-f659ef3a5842"},"vehicle_type_id":"4","last_reported":1711299964,"current_range_meters":4400,"station_id":"ce4bhbp2rcd13ifvqesg","pricing_plan_id":"cebpf4jnsgd1na2vs0mg"},{"bike_id":"24b12840-b2e9-49b1-a1b9-a163a2bcafa2","system_id":"levelo_inurba_marseille","lat":43.29302,"lon":5.37174,"is_reserved":false,"is_disabled":false,"rental_uris":{"android":"levelo://app?vid=24b12840-b2e9-49b1-a1b9-a163a2bcafa2","ios":"levelo://app?vid=24b12840-b2e9-49b1-a1b9-a163a2bcafa2"},"vehicle_type_id":"4","last_reported":1711299964,"current_range_meters":27200,"station_id":"ce4bgh92rcd13ifvqb40","pricing_plan_id":"cebpf4jnsgd1na2vs0mg"},{"bike_id":"23fafb7a-725f-44b0-b8a4-1a0a8da13b81","system_id":"levelo_inurba_marseille","lat":43.292749,"lon":5.368402,"is_reserved":false,"is_disabled":false,"rental_uris":{"android":"levelo://app?vid=23fafb7a-725f-44b0-b8a4-1a0a8da13b81","ios":"levelo://app?vid=23fafb7a-725f-44b0-b8a4-1a0a8da13b81"},"vehicle_type_id":"4","last_reported":1711299964,"current_range_meters":10400,"station_id":"ce4bhbp2rcd13ifvqesg","pricing_plan_id":"cebpf4jnsgd1na2vs0mg"},{"bike_id":"69608f7e-d2a3-484c-96f8-ac0dee05d0f7","system_id":"levelo_inurba_marseille","lat":43.29272,"lon":5.36842,"is_reserved":false,"is_disabled":false,"rental_uris":{"android":"levelo://app?vid=69608f7e-d2a3-484c-96f8-ac0dee05d0f7","ios":"levelo://app?vid=69608f7e-d2a3-484c-96f8-ac0dee05d0f7"},"vehicle_type_id":"4","last_reported":1711299964,"current_range_meters":9200,"station_id":"ce4bhbp2rcd13ifvqesg","pricing_plan_id":"cebpf4jnsgd1na2vs0mg"},{"bike_id":"c9ecacdd-004c-4666-bf91-8f898127b694","system_id":"levelo_inurba_marseille","lat":43.292749,"lon":5.368402,"is_reserved":false,"is_disabled":false,"rental_uris":{"android":"levelo://app?vid=c9ecacdd-004c-4666-bf91-8f898127b694","ios":"levelo://app?vid=c9ecacdd-004c-4666-bf91-8f898127b694"},"vehicle_type_id":"4","last_reported":1711299964,"current_range_meters":10000,"station_id":"ce4bhbp2rcd13ifvqesg","pricing_plan_id":"cebpf4jnsgd1na2vs0mg"},{"bike_id":"47f55e8c-f09b-44f9-bd9d-c05b44b6d802","system_id":"levelo_inurba_marseille","lat":43.292749,"lon":5.368402,"is_reserved":false,"is_disabled":false,"rental_uris":{"android":"levelo://app?vid=47f55e8c-f09b-44f9-bd9d-c05b44b6d802","ios":"levelo://app?vid=47f55e8c-f09b-44f9-bd9d-c05b44b6d802"},"vehicle_type_id":"4","last_reported":1711299964,"current_range_meters":31200,"station_id":"ce4bhbp2rcd13ifvqesg","pricing_plan_id":"cebpf4jnsgd1na2vs0mg"},{"bike_id":"4ef27398-caa9-41eb-b2f7-f6d9f8cebff7","system_id":"levelo_inurba_marseille","lat":43.29263,"lon":5.36845,"is_reserved":false,"is_disabled":false,"rental_uris":{"android":"levelo://app?vid=4ef27398-caa9-41eb-b2f7-f6d9f8cebff7","ios":"levelo://app?vid=4ef27398-caa9-41eb-b2f7-f6d9f8cebff7"},"vehicle_type_id":"4","last_reported":1711299964,"current_range_meters":20800,"station_id":"ce4bhbp2rcd13ifvqesg","pricing_plan_id":"cebpf4jnsgd1na2vs0mg"},{"bike_id":"04b591b6-d38b-49a0-9288-b2ea04cb7481","system_id":"levelo_inurba_marseille","lat":43.303002,"lon":5.392142,"is_reserved":false,"is_disabled":false,"rental_uris":{"android":"levelo://app?vid=04b591b6-d38b-49a0-9288-b2ea04cb7481","ios":"levelo://app?vid=04b591b6-d38b-49a0-9288-b2ea04cb7481"},"vehicle_type_id":"4","last_reported":1711299964,"current_range_meters":0,"station_id":"ce4bgkh2rcd13ifvqbk0","pricing_plan_id":"cebpf4jnsgd1na2vs0mg"},{"bike_id":"68f62d67-e011-481f-9589-135fc50cb2c5","system_id":"levelo_inurba_marseille","lat":43.2936,"lon":5.37835,"is_reserved":false,"is_disabled":false,"rental_uris":{"android":"levelo://app?vid=68f62d67-e011-481f-9589-135fc50cb2c5","ios":"levelo://app?vid=68f62d67-e011-481f-9589-135fc50cb2c5"},"vehicle_type_id":"4","last_reported":1711299964,"current_range_meters":14400,"station_id":"ce4bgjh2rcd13ifvqbf0","pricing_plan_id":"cebpf4jnsgd1na2vs0mg"},{"bike_id":"0ffac2d3-b1e5-467a-97ab-881f5c9fc721","system_id":"levelo_inurba_marseille","lat":43.302992,"lon":5.392136,"is_reserved":false,"is_disabled":false,"rental_uris":{"android":"levelo://app?vid=0ffac2d3-b1e5-467a-97ab-881f5c9fc721","ios":"levelo://app?vid=0ffac2d3-b1e5-467a-97ab-881f5c9fc721"},"vehicle_type_id":"4","last_reported":1711299964,"current_range_meters":0,"station_id":"ce4bgkh2rcd13ifvqbk0","pricing_plan_id":"cebpf4jnsgd1na2vs0mg"},{"bike_id":"bff22092-ce1a-4099-a7fd-e3d7f762899f","system_id":"levelo_inurba_marseille","lat":43.29367,"lon":5.37833,"is_reserved":false,"is_disabled":false,"rental_uris":{"android":"levelo://app?vid=bff22092-ce1a-4099-a7fd-e3d7f762899f","ios":"levelo://app?vid=bff22092-ce1a-4099-a7fd-e3d7f762899f"},"vehicle_type_id":"4","last_reported":1711299964,"current_range_meters":0,"station_id":"ce4bgjh2rcd13ifvqbf0","pricing_plan_id":"cebpf4jnsgd1na2vs0mg"},{"bike_id":"d85ef13d-7328-4c2c-be55-38e76ad0cbc5","system_id":"levelo_inurba_marseille","lat":43.292302,"lon":5.361338,"is_reserved":false,"is_disabled":false,"rental_uris":{"android":"levelo://app?vid=d85ef13d-7328-4c2c-be55-38e76ad0cbc5","ios":"levelo://app?vid=d85ef13d-7328-4c2c-be55-38e76ad0cbc5"},"vehicle_type_id":"4","last_reported":1711299964,"current_range_meters":0,"station_id":"ce4bhbh2rcd13ifvqeqg","pricing_plan_id":"cebpf4jnsgd1na2vs0mg"},{"bike_id":"c507f5b8-c468-4dd7-b331-db52a69f86ea","system_id":"levelo_inurba_marseille","lat":43.300852,"lon":5.390859,"is_reserved":false,"is_disabled":false,"rental_uris":{"android":"levelo://app?vid=c507f5b8-c468-4dd7-b331-db52a69f86ea","ios":"levelo://app?vid=c507f5b8-c468-4dd7-b331-db52a69f86ea"},"vehicle_type_id":"4","last_reported":1711299964,"current_range_meters":1600,"station_id":"ce4bh192rcd13ifvqdb0","pricing_plan_id":"cebpf4jnsgd1na2vs0mg"},{"bike_id":"d5934614-056f-43cd-84d3-4122884f37ca","system_id":"levelo_inurba_marseille","lat":43.300852,"lon":5.390859,"is_reserved":false,"is_disabled":false,"rental_uris":{"android":"levelo://app?vid=d5934614-056f-43cd-84d3-4122884f37ca","ios":"levelo://app?vid=d5934614-056f-43cd-84d3-4122884f37ca"},"vehicle_type_id":"4","last_reported":1711299964,"current_range_meters":12800,"station_id":"ce4bh192rcd13ifvqdb0","pricing_plan_id":"cebpf4jnsgd1na2vs0mg"},{"bike_id":"bd40d3a8-2fc2-45d3-a865-c15a77343583","system_id":"levelo_inurba_marseille","lat":43.30085,"lon":5.390856,"is_reserved":false,"is_disabled":false,"rental_uris":{"android":"levelo://app?vid=bd40d3a8-2fc2-45d3-a865-c15a77343583","ios":"levelo://app?vid=bd40d3a8-2fc2-45d3-a865-c15a77343583"},"vehicle_type_id":"4","last_reported":1711299964,"current_range_meters":2400,"station_id":"ce4bh192rcd13ifvqdb0","pricing_plan_id":"cebpf4jnsgd1na2vs0mg"},{"bike_id":"7baadea4-9b8e-4ea0-bd0b-b14d5f74f9e0","system_id":"levelo_inurba_marseille","lat":43.292311,"lon":5.360731,"is_reserved":false,"is_disabled":false,"rental_uris":{"android":"levelo://app?vid=7baadea4-9b8e-4ea0-bd0b-b14d5f74f9e0","ios":"levelo://app?vid=7baadea4-9b8e-4ea0-bd0b-b14d5f74f9e0"},"vehicle_type_id":"4","last_reported":1711299964,"current_range_meters":17200,"station_id":"ce4bhbh2rcd13ifvqeqg","pricing_plan_id":"cebpf4jnsgd1na2vs0mg"},{"bike_id":"b17cee51-6893-4952-a023-0efd1bddc5f5","system_id":"levelo_inurba_marseille","lat":43.300852,"lon":5.390859,"is_reserved":false,"is_disabled":false,"rental_uris":{"android":"levelo://app?vid=b17cee51-6893-4952-a023-0efd1bddc5f5","ios":"levelo://app?vid=b17cee51-6893-4952-a023-0efd1bddc5f5"},"vehicle_type_id":"4","last_reported":1711299964,"current_range_meters":400,"station_id":"ce4bh192rcd13ifvqdb0","pricing_plan_id":"cebpf4jnsgd1na2vs0mg"},{"bike_id":"7542c9e5-7ecf-4d62-9209-b1c0faa1016a","system_id":"levelo_inurba_marseille","lat":43.30085,"lon":5.390856,"is_reserved":false,"is_disabled":false,"rental_uris":{"android":"levelo://app?vid=7542c9e5-7ecf-4d62-9209-b1c0faa1016a","ios":"levelo://app?vid=7542c9e5-7ecf-4d62-9209-b1c0faa1016a"},"vehicle_type_id":"4","last_reported":1711299964,"current_range_meters":26800,"station_id":"ce4bh192rcd13ifvqdb0","pricing_plan_id":"cebpf4jnsgd1na2vs0mg"},{"bike_id":"2376c016-25ff-4f2b-9eef-437d6066ce2c","system_id":"levelo_inurba_marseille","lat":43.300852,"lon":5.390859,"is_reserved":false,"is_disabled":false,"rental_uris":{"android":"levelo://app?vid=2376c016-25ff-4f2b-9eef-437d6066ce2c","ios":"levelo://app?vid=2376c016-25ff-4f2b-9eef-437d6066ce2c"},"vehicle_type_id":"4","last_reported":1711299964,"current_range_meters":11200,"station_id":"ce4bh192rcd13ifvqdb0","pricing_plan_id":"cebpf4jnsgd1na2vs0mg"},{"bike_id":"158d4fe9-838b-49b8-b4b2-49eafb7e2fce","system_id":"levelo_inurba_marseille","lat":43.298764,"lon":5.388973,"is_reserved":false,"is_disabled":false,"rental_uris":{"android":"levelo://app?vid=158d4fe9-838b-49b8-b4b2-49eafb7e2fce","ios":"levelo://app?vid=158d4fe9-838b-49b8-b4b2-49eafb7e2fce"},"vehicle_type_id":"4","last_reported":1711299964,"current_range_meters":5200,"station_id":"ce4bh392rcd13ifvqdl0","pricing_plan_id":"cebpf4jnsgd1na2vs0mg"},{"bike_id":"d451ee90-b1b0-43ff-a9fb-03231125795a","system_id":"levelo_inurba_marseille","lat":43.29889,"lon":5.38905,"is_reserved":false,"is_disabled":false,"rental_uris":{"android":"levelo://app?vid=d451ee90-b1b0-43ff-a9fb-03231125795a","ios":"levelo://app?vid=d451ee90-b1b0-43ff-a9fb-03231125795a"},"vehicle_type_id":"4","last_reported":1711299964,"current_range_meters":0,"station_id":"ce4bh392rcd13ifvqdl0","pricing_plan_id":"cebpf4jnsgd1na2vs0mg"},{"bike_id":"f3a6efd7-e073-44bc-8310-75ccbcadc4d1","system_id":"levelo_inurba_marseille","lat":43.291722,"lon":5.371503,"is_reserved":false,"is_disabled":false,"rental_uris":{"android":"levelo://app?vid=f3a6efd7-e073-44bc-8310-75ccbcadc4d1","ios":"levelo://app?vid=f3a6efd7-e073-44bc-8310-75ccbcadc4d1"},"vehicle_type_id":"4","last_reported":1711299964,"current_range_meters":0,"station_id":"ce4bha92rcd13ifvqeh0","pricing_plan_id":"cebpf4jnsgd1na2vs0mg"},{"bike_id":"271da28c-3fae-4ad4-88bd-2c6996299f21","system_id":"levelo_inurba_marseille","lat":43.29153,"lon":5.37147,"is_reserved":false,"is_disabled":false,"rental_uris":{"android":"levelo://app?vid=271da28c-3fae-4ad4-88bd-2c6996299f21","ios":"levelo://app?vid=271da28c-3fae-4ad4-88bd-2c6996299f21"},"vehicle_type_id":"4","last_reported":1711299964,"current_range_meters":4400,"station_id":"ce4bha92rcd13ifvqeh0","pricing_plan_id":"cebpf4jnsgd1na2vs0mg"},{"bike_id":"739ea645-cacf-436b-a383-15ab5ee37d04","system_id":"levelo_inurba_marseille","lat":43.31304,"lon":5.396765,"is_reserved":false,"is_disabled":false,"rental_uris":{"android":"levelo://app?vid=739ea645-cacf-436b-a383-15ab5ee37d04","ios":"levelo://app?vid=739ea645-cacf-436b-a383-15ab5ee37d04"},"vehicle_type_id":"4","last_reported":1711299964,"current_range_meters":0,"station_id":"ce4bgvp2rcd13ifvqcu0","pricing_plan_id":"cebpf4jnsgd1na2vs0mg"},{"bike_id":"5601043b-ff36-4004-b03e-70afee63d209","system_id":"levelo_inurba_marseille","lat":43.309038,"lon":5.396546,"is_reserved":false,"is_disabled":false,"rental_uris":{"android":"levelo://app?vid=5601043b-ff36-4004-b03e-70afee63d209","ios":"levelo://app?vid=5601043b-ff36-4004-b03e-70afee63d209"},"vehicle_type_id":"4","last_reported":1711299964,"current_range_meters":0,"station_id":"ce4bh012rcd13ifvqcv0","pricing_plan_id":"cebpf4jnsgd1na2vs0mg"},{"bike_id":"c4ed669e-9a6c-4427-98e0-3dc01782179a","system_id":"levelo_inurba_marseille","lat":43.308443,"lon":5.396563,"is_reserved":false,"is_disabled":false,"rental_uris":{"android":"levelo://app?vid=c4ed669e-9a6c-4427-98e0-3dc01782179a","ios":"levelo://app?vid=c4ed669e-9a6c-4427-98e0-3dc01782179a"},"vehicle_type_id":"4","last_reported":1711299964,"current_range_meters":6000,"station_id":"","pricing_plan_id":"cebpf4jnsgd1na2vs0mg"},{"bike_id":"514e4462-ab34-4efc-ba4f-3d0c1e97bdc0","system_id":"levelo_inurba_marseille","lat":43.298764,"lon":5.388973,"is_reserved":false,"is_disabled":false,"rental_uris":{"android":"levelo://app?vid=514e4462-ab34-4efc-ba4f-3d0c1e97bdc0","ios":"levelo://app?vid=514e4462-ab34-4efc-ba4f-3d0c1e97bdc0"},"vehicle_type_id":"4","last_reported":1711299964,"current_range_meters":6800,"station_id":"ce4bh392rcd13ifvqdl0","pricing_plan_id":"cebpf4jnsgd1na2vs0mg"},{"bike_id":"c4a23f0a-84bc-4894-b32b-a3ecb04039ea","system_id":"levelo_inurba_marseille","lat":43.29529,"lon":5.385581,"is_reserved":false,"is_disabled":false,"rental_uris":{"android":"levelo://app?vid=c4a23f0a-84bc-4894-b32b-a3ecb04039ea","ios":"levelo://app?vid=c4a23f0a-84bc-4894-b32b-a3ecb04039ea"},"vehicle_type_id":"4","last_reported":1711299964,"current_range_meters":12400,"station_id":"ce4bgih2rcd13ifvqba0","pricing_plan_id":"cebpf4jnsgd1na2vs0mg"},{"bike_id":"906df853-64b2-47ed-aa21-1b5b75aa2187","system_id":"levelo_inurba_marseille","lat":43.29529,"lon":5.385581,"is_reserved":false,"is_disabled":false,"rental_uris":{"android":"levelo://app?vid=906df853-64b2-47ed-aa21-1b5b75aa2187","ios":"levelo://app?vid=906df853-64b2-47ed-aa21-1b5b75aa2187"},"vehicle_type_id":"4","last_reported":1711299964,"current_range_meters":14000,"station_id":"ce4bgih2rcd13ifvqba0","pricing_plan_id":"cebpf4jnsgd1na2vs0mg"},{"bike_id":"553be6ba-c65d-4cef-80a9-9bd5e9dea82e","system_id":"levelo_inurba_marseille","lat":43.328077,"lon":5.388815,"is_reserved":false,"is_disabled":false,"rental_uris":{"android":"levelo://app?vid=553be6ba-c65d-4cef-80a9-9bd5e9dea82e","ios":"levelo://app?vid=553be6ba-c65d-4cef-80a9-9bd5e9dea82e"},"vehicle_type_id":"4","last_reported":1711299964,"current_range_meters":30800,"station_id":"","pricing_plan_id":"cebpf4jnsgd1na2vs0mg"},{"bike_id":"1e0e7557-36a1-4468-bc55-eb260fa16c82","system_id":"levelo_inurba_marseille","lat":43.290793,"lon":5.371546,"is_reserved":false,"is_disabled":false,"rental_uris":{"android":"levelo://app?vid=1e0e7557-36a1-4468-bc55-eb260fa16c82","ios":"levelo://app?vid=1e0e7557-36a1-4468-bc55-eb260fa16c82"},"vehicle_type_id":"4","last_reported":1711299964,"current_range_meters":0,"station_id":"ce4bh5p2rcd13ifvqe4g","pricing_plan_id":"cebpf4jnsgd1na2vs0mg"},{"bike_id":"8bc91653-44bc-4e8d-9461-dae6438d1123","system_id":"levelo_inurba_marseille","lat":43.296375,"lon":5.387806,"is_reserved":false,"is_disabled":false,"rental_uris":{"android":"levelo://app?vid=8bc91653-44bc-4e8d-9461-dae6438d1123","ios":"levelo://app?vid=8bc91653-44bc-4e8d-9461-dae6438d1123"},"vehicle_type_id":"4","last_reported":1711299964,"current_range_meters":19200,"station_id":"","pricing_plan_id":"cebpf4jnsgd1na2vs0mg"},{"bike_id":"122dc3b6-660a-41e3-8676-f2c86d572922","system_id":"levelo_inurba_marseille","lat":43.302008,"lon":5.394694,"is_reserved":false,"is_disabled":false,"rental_uris":{"android":"levelo://app?vid=122dc3b6-660a-41e3-8676-f2c86d572922","ios":"levelo://app?vid=122dc3b6-660a-41e3-8676-f2c86d572922"},"vehicle_type_id":"4","last_reported":1711299964,"current_range_meters":5600,"station_id":"ce4bh0p2rcd13ifvqd70","pricing_plan_id":"cebpf4jnsgd1na2vs0mg"},{"bike_id":"1c3d9b7c-cc7b-4c96-a6be-3d97f7f1e5ff","system_id":"levelo_inurba_marseille","lat":43.289935,"lon":5.37141,"is_reserved":false,"is_disabled":false,"rental_uris":{"android":"levelo://app?vid=1c3d9b7c-cc7b-4c96-a6be-3d97f7f1e5ff","ios":"levelo://app?vid=1c3d9b7c-cc7b-4c96-a6be-3d97f7f1e5ff"},"vehicle_type_id":"4","last_reported":1711299964,"current_range_meters":26000,"station_id":"ce4bh5p2rcd13ifvqe4g","pricing_plan_id":"cebpf4jnsgd1na2vs0mg"},{"bike_id":"8b43b029-ba34-4400-b313-646050312274","system_id":"levelo_inurba_marseille","lat":43.294153,"lon":5.386305,"is_reserved":false,"is_disabled":false,"rental_uris":{"android":"levelo://app?vid=8b43b029-ba34-4400-b313-646050312274","ios":"levelo://app?vid=8b43b029-ba34-4400-b313-646050312274"},"vehicle_type_id":"4","last_reported":1711299964,"current_range_meters":0,"station_id":"ce4bh2h2rcd13ifvqdh0","pricing_plan_id":"cebpf4jnsgd1na2vs0mg"},{"bike_id":"7fff1abf-615d-43bd-bcd2-26377ab3276a","system_id":"levelo_inurba_marseille","lat":43.294162,"lon":5.386292,"is_reserved":false,"is_disabled":false,"rental_uris":{"android":"levelo://app?vid=7fff1abf-615d-43bd-bcd2-26377ab3276a","ios":"levelo://app?vid=7fff1abf-615d-43bd-bcd2-26377ab3276a"},"vehicle_type_id":"4","last_reported":1711299964,"current_range_meters":12800,"station_id":"ce4bh2h2rcd13ifvqdh0","pricing_plan_id":"cebpf4jnsgd1na2vs0mg"},{"bike_id":"fe5a0e6a-f265-4b5e-ab60-41d99d2568fe","system_id":"levelo_inurba_marseille","lat":43.294162,"lon":5.386292,"is_reserved":false,"is_disabled":false,"rental_uris":{"android":"levelo://app?vid=fe5a0e6a-f265-4b5e-ab60-41d99d2568fe","ios":"levelo://app?vid=fe5a0e6a-f265-4b5e-ab60-41d99d2568fe"},"vehicle_type_id":"4","last_reported":1711299964,"current_range_meters":0,"station_id":"ce4bh2h2rcd13ifvqdh0","pricing_plan_id":"cebpf4jnsgd1na2vs0mg"},{"bike_id":"d4809ccc-83ef-46e8-996c-1a92f5dd399c","system_id":"levelo_inurba_marseille","lat":43.289184,"lon":5.366408,"is_reserved":false,"is_disabled":false,"rental_uris":{"android":"levelo://app?vid=d4809ccc-83ef-46e8-996c-1a92f5dd399c","ios":"levelo://app?vid=d4809ccc-83ef-46e8-996c-1a92f5dd399c"},"vehicle_type_id":"4","last_reported":1711299964,"current_range_meters":2800,"station_id":"ce4bhap2rcd13ifvqek0","pricing_plan_id":"cebpf4jnsgd1na2vs0mg"},{"bike_id":"61b89a7a-62ef-4857-ac68-dcf7c9016c51","system_id":"levelo_inurba_marseille","lat":43.28939,"lon":5.36638,"is_reserved":false,"is_disabled":false,"rental_uris":{"android":"levelo://app?vid=61b89a7a-62ef-4857-ac68-dcf7c9016c51","ios":"levelo://app?vid=61b89a7a-62ef-4857-ac68-dcf7c9016c51"},"vehicle_type_id":"4","last_reported":1711299964,"current_range_meters":10800,"station_id":"ce4bhap2rcd13ifvqek0","pricing_plan_id":"cebpf4jnsgd1na2vs0mg"},{"bike_id":"045d99f2-81e9-4f59-b59f-f5082a01697e","system_id":"levelo_inurba_marseille","lat":43.28938,"lon":5.3664,"is_reserved":false,"is_disabled":false,"rental_uris":{"android":"levelo://app?vid=045d99f2-81e9-4f59-b59f-f5082a01697e","ios":"levelo://app?vid=045d99f2-81e9-4f59-b59f-f5082a01697e"},"vehicle_type_id":"4","last_reported":1711299964,"current_range_meters":0,"station_id":"ce4bhap2rcd13ifvqek0","pricing_plan_id":"cebpf4jnsgd1na2vs0mg"},{"bike_id":"99737b14-fed4-41c9-ad31-51a4fe209db6","system_id":"levelo_inurba_marseille","lat":43.28936,"lon":5.366388,"is_reserved":false,"is_disabled":false,"rental_uris":{"android":"levelo://app?vid=99737b14-fed4-41c9-ad31-51a4fe209db6","ios":"levelo://app?vid=99737b14-fed4-41c9-ad31-51a4fe209db6"},"vehicle_type_id":"4","last_reported":1711299964,"current_range_meters":10800,"station_id":"ce4bhap2rcd13ifvqek0","pricing_plan_id":"cebpf4jnsgd1na2vs0mg"},{"bike_id":"dc7f7190-a8bc-4bcf-9641-576b4d72b15c","system_id":"levelo_inurba_marseille","lat":43.289184,"lon":5.366408,"is_reserved":false,"is_disabled":false,"rental_uris":{"android":"levelo://app?vid=dc7f7190-a8bc-4bcf-9641-576b4d72b15c","ios":"levelo://app?vid=dc7f7190-a8bc-4bcf-9641-576b4d72b15c"},"vehicle_type_id":"4","last_reported":1711299964,"current_range_meters":11200,"station_id":"ce4bhap2rcd13ifvqek0","pricing_plan_id":"cebpf4jnsgd1na2vs0mg"},{"bike_id":"d4129c03-1801-4d8e-8cad-cf86a8dbe9ed","system_id":"levelo_inurba_marseille","lat":43.289339,"lon":5.366371,"is_reserved":false,"is_disabled":false,"rental_uris":{"android":"levelo://app?vid=d4129c03-1801-4d8e-8cad-cf86a8dbe9ed","ios":"levelo://app?vid=d4129c03-1801-4d8e-8cad-cf86a8dbe9ed"},"vehicle_type_id":"4","last_reported":1711299964,"current_range_meters":0,"station_id":"ce4bh692rcd13ifvqe90","pricing_plan_id":"cebpf4jnsgd1na2vs0mg"},{"bike_id":"8e39a00b-f133-4fff-ae07-ce6d40344bf7","system_id":"levelo_inurba_marseille","lat":43.302674,"lon":5.396192,"is_reserved":false,"is_disabled":false,"rental_uris":{"android":"levelo://app?vid=8e39a00b-f133-4fff-ae07-ce6d40344bf7","ios":"levelo://app?vid=8e39a00b-f133-4fff-ae07-ce6d40344bf7"},"vehicle_type_id":"4","last_reported":1711299964,"current_range_meters":18400,"station_id":"","pricing_plan_id":"cebpf4jnsgd1na2vs0mg"},{"bike_id":"811bd1e2-3c42-4723-a542-be35ae32aaf1","system_id":"levelo_inurba_marseille","lat":43.297836,"lon":5.392812,"is_reserved":false,"is_disabled":false,"rental_uris":{"android":"levelo://app?vid=811bd1e2-3c42-4723-a542-be35ae32aaf1","ios":"levelo://app?vid=811bd1e2-3c42-4723-a542-be35ae32aaf1"},"vehicle_type_id":"4","last_reported":1711299964,"current_range_meters":0,"station_id":"","pricing_plan_id":"cebpf4jnsgd1na2vs0mg"},{"bike_id":"cb4682db-755d-4cc1-b4ce-2f342b45142f","system_id":"levelo_inurba_marseille","lat":43.290103,"lon":5.356114,"is_reserved":false,"is_disabled":false,"rental_uris":{"android":"levelo://app?vid=cb4682db-755d-4cc1-b4ce-2f342b45142f","ios":"levelo://app?vid=cb4682db-755d-4cc1-b4ce-2f342b45142f"},"vehicle_type_id":"4","last_reported":1711299964,"current_range_meters":0,"station_id":"ce4bhb92rcd13ifvqen0","pricing_plan_id":"cebpf4jnsgd1na2vs0mg"},{"bike_id":"0699dcdf-9903-4af9-bd7b-8ee86397e742","system_id":"levelo_inurba_marseille","lat":43.290995,"lon":5.381361,"is_reserved":false,"is_disabled":false,"rental_uris":{"android":"levelo://app?vid=0699dcdf-9903-4af9-bd7b-8ee86397e742","ios":"levelo://app?vid=0699dcdf-9903-4af9-bd7b-8ee86397e742"},"vehicle_type_id":"4","last_reported":1711299964,"current_range_meters":12800,"station_id":"ce4bh512rcd13ifvqe2g","pricing_plan_id":"cebpf4jnsgd1na2vs0mg"},{"bike_id":"5136113c-b518-436c-ae6d-b1a16595f172","system_id":"levelo_inurba_marseille","lat":43.297815,"lon":5.393548,"is_reserved":false,"is_disabled":false,"rental_uris":{"android":"levelo://app?vid=5136113c-b518-436c-ae6d-b1a16595f172","ios":"levelo://app?vid=5136113c-b518-436c-ae6d-b1a16595f172"},"vehicle_type_id":"4","last_reported":1711299964,"current_range_meters":6000,"station_id":"chh1huq6cuj3fo74tm60","pricing_plan_id":"cebpf4jnsgd1na2vs0mg"},{"bike_id":"86065eba-05d0-495c-8d42-ef0ba06a9da9","system_id":"levelo_inurba_marseille","lat":43.297765,"lon":5.393425,"is_reserved":false,"is_disabled":false,"rental_uris":{"android":"levelo://app?vid=86065eba-05d0-495c-8d42-ef0ba06a9da9","ios":"levelo://app?vid=86065eba-05d0-495c-8d42-ef0ba06a9da9"},"vehicle_type_id":"4","last_reported":1711299964,"current_range_meters":4400,"station_id":"chh1huq6cuj3fo74tm60","pricing_plan_id":"cebpf4jnsgd1na2vs0mg"},{"bike_id":"b936aa08-1447-4a5e-99ae-f6d3c8dfba2e","system_id":"levelo_inurba_marseille","lat":43.330442,"lon":5.389148,"is_reserved":false,"is_disabled":false,"rental_uris":{"android":"levelo://app?vid=b936aa08-1447-4a5e-99ae-f6d3c8dfba2e","ios":"levelo://app?vid=b936aa08-1447-4a5e-99ae-f6d3c8dfba2e"},"vehicle_type_id":"4","last_reported":1711299964,"current_range_meters":26400,"station_id":"ce4bhr92rcd13ifvqhrg","pricing_plan_id":"cebpf4jnsgd1na2vs0mg"},{"bike_id":"71cb1d59-c297-4a56-adb8-cc6999f0cbe6","system_id":"levelo_inurba_marseille","lat":43.330442,"lon":5.389148,"is_reserved":false,"is_disabled":false,"rental_uris":{"android":"levelo://app?vid=71cb1d59-c297-4a56-adb8-cc6999f0cbe6","ios":"levelo://app?vid=71cb1d59-c297-4a56-adb8-cc6999f0cbe6"},"vehicle_type_id":"4","last_reported":1711299964,"current_range_meters":30800,"station_id":"ce4bhr92rcd13ifvqhrg","pricing_plan_id":"cebpf4jnsgd1na2vs0mg"},{"bike_id":"92728e31-94f4-4791-8fa8-8be1c8ff688d","system_id":"levelo_inurba_marseille","lat":43.330442,"lon":5.389148,"is_reserved":false,"is_disabled":false,"rental_uris":{"android":"levelo://app?vid=92728e31-94f4-4791-8fa8-8be1c8ff688d","ios":"levelo://app?vid=92728e31-94f4-4791-8fa8-8be1c8ff688d"},"vehicle_type_id":"4","last_reported":1711299964,"current_range_meters":28000,"station_id":"ce4bhr92rcd13ifvqhrg","pricing_plan_id":"cebpf4jnsgd1na2vs0mg"},{"bike_id":"21018727-d0c4-4f1e-a884-5c9261106c4c","system_id":"levelo_inurba_marseille","lat":43.297815,"lon":5.393548,"is_reserved":false,"is_disabled":false,"rental_uris":{"android":"levelo://app?vid=21018727-d0c4-4f1e-a884-5c9261106c4c","ios":"levelo://app?vid=21018727-d0c4-4f1e-a884-5c9261106c4c"},"vehicle_type_id":"4","last_reported":1711299964,"current_range_meters":20800,"station_id":"chh1huq6cuj3fo74tm60","pricing_plan_id":"cebpf4jnsgd1na2vs0mg"},{"bike_id":"442a3cbb-852d-4a9e-a0bb-304a3907f10b","system_id":"levelo_inurba_marseille","lat":43.28856,"lon":5.358371,"is_reserved":false,"is_disabled":false,"rental_uris":{"android":"levelo://app?vid=442a3cbb-852d-4a9e-a0bb-304a3907f10b","ios":"levelo://app?vid=442a3cbb-852d-4a9e-a0bb-304a3907f10b"},"vehicle_type_id":"4","last_reported":1711299964,"current_range_meters":8400,"station_id":"ce4bhb12rcd13ifvqem0","pricing_plan_id":"cebpf4jnsgd1na2vs0mg"},{"bike_id":"0a511bf8-403b-4835-a69d-8845b0587042","system_id":"levelo_inurba_marseille","lat":43.33743,"lon":5.37474,"is_reserved":false,"is_disabled":false,"rental_uris":{"android":"levelo://app?vid=0a511bf8-403b-4835-a69d-8845b0587042","ios":"levelo://app?vid=0a511bf8-403b-4835-a69d-8845b0587042"},"vehicle_type_id":"4","last_reported":1711299964,"current_range_meters":10400,"station_id":"","pricing_plan_id":"cebpf4jnsgd1na2vs0mg"},{"bike_id":"9ea6c427-8174-4b41-8af2-caf1601c7932","system_id":"levelo_inurba_marseille","lat":43.312609,"lon":5.401662,"is_reserved":false,"is_disabled":false,"rental_uris":{"android":"levelo://app?vid=9ea6c427-8174-4b41-8af2-caf1601c7932","ios":"levelo://app?vid=9ea6c427-8174-4b41-8af2-caf1601c7932"},"vehicle_type_id":"4","last_reported":1711299964,"current_range_meters":15200,"station_id":"ce4bh092rcd13ifvqd30","pricing_plan_id":"cebpf4jnsgd1na2vs0mg"},{"bike_id":"2ef9ea24-646c-4c7e-89bc-f3b76a759b3d","system_id":"levelo_inurba_marseille","lat":43.306412,"lon":5.401035,"is_reserved":false,"is_disabled":false,"rental_uris":{"android":"levelo://app?vid=2ef9ea24-646c-4c7e-89bc-f3b76a759b3d","ios":"levelo://app?vid=2ef9ea24-646c-4c7e-89bc-f3b76a759b3d"},"vehicle_type_id":"4","last_reported":1711299964,"current_range_meters":16000,"station_id":"ce4bh112rcd13ifvqda0","pricing_plan_id":"cebpf4jnsgd1na2vs0mg"},{"bike_id":"805e1cd2-8969-4064-97ff-2988b0406f25","system_id":"levelo_inurba_marseille","lat":43.28727,"lon":5.36078,"is_reserved":false,"is_disabled":false,"rental_uris":{"android":"levelo://app?vid=805e1cd2-8969-4064-97ff-2988b0406f25","ios":"levelo://app?vid=805e1cd2-8969-4064-97ff-2988b0406f25"},"vehicle_type_id":"4","last_reported":1711299964,"current_range_meters":29200,"station_id":"cki0cbj6b192h4jlfktg","pricing_plan_id":"cebpf4jnsgd1na2vs0mg"},{"bike_id":"08896baf-c346-46c1-8481-749f6f7fc883","system_id":"levelo_inurba_marseille","lat":43.286591,"lon":5.363346,"is_reserved":false,"is_disabled":false,"rental_uris":{"android":"levelo://app?vid=08896baf-c346-46c1-8481-749f6f7fc883","ios":"levelo://app?vid=08896baf-c346-46c1-8481-749f6f7fc883"},"vehicle_type_id":"4","last_reported":1711299964,"current_range_meters":22000,"station_id":"ce4bhah2rcd13ifvqej0","pricing_plan_id":"cebpf4jnsgd1na2vs0mg"},{"bike_id":"4281ebc5-52ab-4773-8ec5-47ea985cf831","system_id":"levelo_inurba_marseille","lat":43.298681,"lon":5.397225,"is_reserved":false,"is_disabled":false,"rental_uris":{"android":"levelo://app?vid=4281ebc5-52ab-4773-8ec5-47ea985cf831","ios":"levelo://app?vid=4281ebc5-52ab-4773-8ec5-47ea985cf831"},"vehicle_type_id":"4","last_reported":1711299964,"current_range_meters":8000,"station_id":"ce4bh0h2rcd13ifvqd50","pricing_plan_id":"cebpf4jnsgd1na2vs0mg"},{"bike_id":"f4165c16-2887-43c0-a5af-fd1ee052ff63","system_id":"levelo_inurba_marseille","lat":43.286961,"lon":5.373785,"is_reserved":false,"is_disabled":false,"rental_uris":{"android":"levelo://app?vid=f4165c16-2887-43c0-a5af-fd1ee052ff63","ios":"levelo://app?vid=f4165c16-2887-43c0-a5af-fd1ee052ff63"},"vehicle_type_id":"4","last_reported":1711299964,"current_range_meters":13200,"station_id":"ce4bh3p2rcd13ifvqdq0","pricing_plan_id":"cebpf4jnsgd1na2vs0mg"},{"bike_id":"556c2dbb-2445-455f-83a1-39c1a20f8c92","system_id":"levelo_inurba_marseille","lat":43.295196,"lon":5.39397,"is_reserved":false,"is_disabled":false,"rental_uris":{"android":"levelo://app?vid=556c2dbb-2445-455f-83a1-39c1a20f8c92","ios":"levelo://app?vid=556c2dbb-2445-455f-83a1-39c1a20f8c92"},"vehicle_type_id":"4","last_reported":1711299964,"current_range_meters":0,"station_id":"ce4bh292rcd13ifvqdf0","pricing_plan_id":"cebpf4jnsgd1na2vs0mg"},{"bike_id":"b3d28df4-18ec-4ae4-82fa-c5cdda763adc","system_id":"levelo_inurba_marseille","lat":43.286961,"lon":5.373785,"is_reserved":false,"is_disabled":false,"rental_uris":{"android":"levelo://app?vid=b3d28df4-18ec-4ae4-82fa-c5cdda763adc","ios":"levelo://app?vid=b3d28df4-18ec-4ae4-82fa-c5cdda763adc"},"vehicle_type_id":"4","last_reported":1711299964,"current_range_meters":7200,"station_id":"ce4bh3p2rcd13ifvqdq0","pricing_plan_id":"cebpf4jnsgd1na2vs0mg"},{"bike_id":"8db38097-23a1-44a4-a339-6e68af1328c3","system_id":"levelo_inurba_marseille","lat":43.286593,"lon":5.363346,"is_reserved":false,"is_disabled":false,"rental_uris":{"android":"levelo://app?vid=8db38097-23a1-44a4-a339-6e68af1328c3","ios":"levelo://app?vid=8db38097-23a1-44a4-a339-6e68af1328c3"},"vehicle_type_id":"4","last_reported":1711299964,"current_range_meters":26000,"station_id":"ce4bhah2rcd13ifvqej0","pricing_plan_id":"cebpf4jnsgd1na2vs0mg"},{"bike_id":"34175fb0-5ba1-4dc9-9664-341712152649","system_id":"levelo_inurba_marseille","lat":43.286983,"lon":5.373903,"is_reserved":false,"is_disabled":false,"rental_uris":{"android":"levelo://app?vid=34175fb0-5ba1-4dc9-9664-341712152649","ios":"levelo://app?vid=34175fb0-5ba1-4dc9-9664-341712152649"},"vehicle_type_id":"4","last_reported":1711299964,"current_range_meters":0,"station_id":"ce4bh3p2rcd13ifvqdq0","pricing_plan_id":"cebpf4jnsgd1na2vs0mg"},{"bike_id":"482a286e-e6d6-49aa-a3ce-15a9d3fe3a5d","system_id":"levelo_inurba_marseille","lat":43.298681,"lon":5.397225,"is_reserved":false,"is_disabled":false,"rental_uris":{"android":"levelo://app?vid=482a286e-e6d6-49aa-a3ce-15a9d3fe3a5d","ios":"levelo://app?vid=482a286e-e6d6-49aa-a3ce-15a9d3fe3a5d"},"vehicle_type_id":"4","last_reported":1711299964,"current_range_meters":16800,"station_id":"ce4bh0h2rcd13ifvqd50","pricing_plan_id":"cebpf4jnsgd1na2vs0mg"},{"bike_id":"a9af45d8-af2e-4793-b41d-3581139da2d2","system_id":"levelo_inurba_marseille","lat":43.289307,"lon":5.38406,"is_reserved":false,"is_disabled":false,"rental_uris":{"android":"levelo://app?vid=a9af45d8-af2e-4793-b41d-3581139da2d2","ios":"levelo://app?vid=a9af45d8-af2e-4793-b41d-3581139da2d2"},"vehicle_type_id":"4","last_reported":1711299964,"current_range_meters":12400,"station_id":"ce4bh612rcd13ifvqe6g","pricing_plan_id":"cebpf4jnsgd1na2vs0mg"},{"bike_id":"f8289f54-275b-4961-bb9c-a78cd8b4ecd5","system_id":"levelo_inurba_marseille","lat":43.289307,"lon":5.38406,"is_reserved":false,"is_disabled":false,"rental_uris":{"android":"levelo://app?vid=f8289f54-275b-4961-bb9c-a78cd8b4ecd5","ios":"levelo://app?vid=f8289f54-275b-4961-bb9c-a78cd8b4ecd5"},"vehicle_type_id":"4","last_reported":1711299964,"current_range_meters":0,"station_id":"ce4bh612rcd13ifvqe6g","pricing_plan_id":"cebpf4jnsgd1na2vs0mg"},{"bike_id":"f6e239ef-336d-4cfb-81be-ca23c8f9ed36","system_id":"levelo_inurba_marseille","lat":43.290336,"lon":5.386425,"is_reserved":false,"is_disabled":false,"rental_uris":{"android":"levelo://app?vid=f6e239ef-336d-4cfb-81be-ca23c8f9ed36","ios":"levelo://app?vid=f6e239ef-336d-4cfb-81be-ca23c8f9ed36"},"vehicle_type_id":"4","last_reported":1711299964,"current_range_meters":14400,"station_id":"ce4bh4p2rcd13ifvqe0g","pricing_plan_id":"cebpf4jnsgd1na2vs0mg"},{"bike_id":"bc56f7b3-a880-4aec-abeb-4b05f378994c","system_id":"levelo_inurba_marseille","lat":43.289307,"lon":5.38406,"is_reserved":false,"is_disabled":false,"rental_uris":{"android":"levelo://app?vid=bc56f7b3-a880-4aec-abeb-4b05f378994c","ios":"levelo://app?vid=bc56f7b3-a880-4aec-abeb-4b05f378994c"},"vehicle_type_id":"4","last_reported":1711299964,"current_range_meters":4000,"station_id":"ce4bh612rcd13ifvqe6g","pricing_plan_id":"cebpf4jnsgd1na2vs0mg"},{"bike_id":"74e6b2c1-215e-4957-9d05-2af3665231c5","system_id":"levelo_inurba_marseille","lat":43.29025,"lon":5.38645,"is_reserved":false,"is_disabled":false,"rental_uris":{"android":"levelo://app?vid=74e6b2c1-215e-4957-9d05-2af3665231c5","ios":"levelo://app?vid=74e6b2c1-215e-4957-9d05-2af3665231c5"},"vehicle_type_id":"4","last_reported":1711299964,"current_range_meters":3600,"station_id":"ce4bh4p2rcd13ifvqe0g","pricing_plan_id":"cebpf4jnsgd1na2vs0mg"},{"bike_id":"0097c4cf-3d17-494b-b691-4fb17ca61745","system_id":"levelo_inurba_marseille","lat":43.29019,"lon":5.38644,"is_reserved":false,"is_disabled":false,"rental_uris":{"android":"levelo://app?vid=0097c4cf-3d17-494b-b691-4fb17ca61745","ios":"levelo://app?vid=0097c4cf-3d17-494b-b691-4fb17ca61745"},"vehicle_type_id":"4","last_reported":1711299964,"current_range_meters":0,"station_id":"ce4bh4p2rcd13ifvqe0g","pricing_plan_id":"cebpf4jnsgd1na2vs0mg"},{"bike_id":"19db43c1-7191-4db6-b7aa-968c08b9f3e5","system_id":"levelo_inurba_marseille","lat":43.29019,"lon":5.38644,"is_reserved":false,"is_disabled":false,"rental_uris":{"android":"levelo://app?vid=19db43c1-7191-4db6-b7aa-968c08b9f3e5","ios":"levelo://app?vid=19db43c1-7191-4db6-b7aa-968c08b9f3e5"},"vehicle_type_id":"4","last_reported":1711299964,"current_range_meters":28400,"station_id":"ce4bh4p2rcd13ifvqe0g","pricing_plan_id":"cebpf4jnsgd1na2vs0mg"},{"bike_id":"21d305f2-c827-46f9-8b61-35658a1de2d2","system_id":"levelo_inurba_marseille","lat":43.31695,"lon":5.40454,"is_reserved":false,"is_disabled":false,"rental_uris":{"android":"levelo://app?vid=21d305f2-c827-46f9-8b61-35658a1de2d2","ios":"levelo://app?vid=21d305f2-c827-46f9-8b61-35658a1de2d2"},"vehicle_type_id":"4","last_reported":1711299964,"current_range_meters":0,"station_id":"ce4bh012rcd13ifvqd00","pricing_plan_id":"cebpf4jnsgd1na2vs0mg"},{"bike_id":"13fde873-721a-4e9e-9be2-20af2198ee2a","system_id":"levelo_inurba_marseille","lat":43.284538,"lon":5.358657,"is_reserved":false,"is_disabled":false,"rental_uris":{"android":"levelo://app?vid=13fde873-721a-4e9e-9be2-20af2198ee2a","ios":"levelo://app?vid=13fde873-721a-4e9e-9be2-20af2198ee2a"},"vehicle_type_id":"4","last_reported":1711299964,"current_range_meters":2000,"station_id":"ce4bhah2rcd13ifvqei0","pricing_plan_id":"cebpf4jnsgd1na2vs0mg"},{"bike_id":"ec12c27c-20ca-4f2b-a7f8-269378b2f954","system_id":"levelo_inurba_marseille","lat":43.285091,"lon":5.359659,"is_reserved":false,"is_disabled":false,"rental_uris":{"android":"levelo://app?vid=ec12c27c-20ca-4f2b-a7f8-269378b2f954","ios":"levelo://app?vid=ec12c27c-20ca-4f2b-a7f8-269378b2f954"},"vehicle_type_id":"4","last_reported":1711299964,"current_range_meters":4000,"station_id":"","pricing_plan_id":"cebpf4jnsgd1na2vs0mg"},{"bike_id":"3d8fa888-e042-4465-b2f9-0f1bd80993b8","system_id":"levelo_inurba_marseille","lat":43.291994,"lon":5.392907,"is_reserved":false,"is_disabled":false,"rental_uris":{"android":"levelo://app?vid=3d8fa888-e042-4465-b2f9-0f1bd80993b8","ios":"levelo://app?vid=3d8fa888-e042-4465-b2f9-0f1bd80993b8"},"vehicle_type_id":"4","last_reported":1711299964,"current_range_meters":6800,"station_id":"ce4bh192rcd13ifvqdd0","pricing_plan_id":"cebpf4jnsgd1na2vs0mg"},{"bike_id":"310015ee-d953-4f28-966d-762a7d3462cf","system_id":"levelo_inurba_marseille","lat":43.29188,"lon":5.39315,"is_reserved":false,"is_disabled":false,"rental_uris":{"android":"levelo://app?vid=310015ee-d953-4f28-966d-762a7d3462cf","ios":"levelo://app?vid=310015ee-d953-4f28-966d-762a7d3462cf"},"vehicle_type_id":"4","last_reported":1711299964,"current_range_meters":21200,"station_id":"","pricing_plan_id":"cebpf4jnsgd1na2vs0mg"},{"bike_id":"00a125bf-d9a4-404d-9ad8-e0bf8423e66c","system_id":"levelo_inurba_marseille","lat":43.284538,"lon":5.358657,"is_reserved":false,"is_disabled":false,"rental_uris":{"android":"levelo://app?vid=00a125bf-d9a4-404d-9ad8-e0bf8423e66c","ios":"levelo://app?vid=00a125bf-d9a4-404d-9ad8-e0bf8423e66c"},"vehicle_type_id":"4","last_reported":1711299964,"current_range_meters":1600,"station_id":"ce4bhah2rcd13ifvqei0","pricing_plan_id":"cebpf4jnsgd1na2vs0mg"},{"bike_id":"70acf567-ccf9-48c4-a4ec-87fb45ab0dfe","system_id":"levelo_inurba_marseille","lat":43.284538,"lon":5.358657,"is_reserved":false,"is_disabled":false,"rental_uris":{"android":"levelo://app?vid=70acf567-ccf9-48c4-a4ec-87fb45ab0dfe","ios":"levelo://app?vid=70acf567-ccf9-48c4-a4ec-87fb45ab0dfe"},"vehicle_type_id":"4","last_reported":1711299964,"current_range_meters":31200,"station_id":"ce4bhah2rcd13ifvqei0","pricing_plan_id":"cebpf4jnsgd1na2vs0mg"},{"bike_id":"02263bfb-3236-4f15-8902-047024533f1f","system_id":"levelo_inurba_marseille","lat":43.284538,"lon":5.358657,"is_reserved":false,"is_disabled":false,"rental_uris":{"android":"levelo://app?vid=02263bfb-3236-4f15-8902-047024533f1f","ios":"levelo://app?vid=02263bfb-3236-4f15-8902-047024533f1f"},"vehicle_type_id":"4","last_reported":1711299964,"current_range_meters":12400,"station_id":"ce4bhah2rcd13ifvqei0","pricing_plan_id":"cebpf4jnsgd1na2vs0mg"},{"bike_id":"d1ce5c67-14e9-4ecc-ac63-be27a2c3c3b1","system_id":"levelo_inurba_marseille","lat":43.284534,"lon":5.358662,"is_reserved":false,"is_disabled":false,"rental_uris":{"android":"levelo://app?vid=d1ce5c67-14e9-4ecc-ac63-be27a2c3c3b1","ios":"levelo://app?vid=d1ce5c67-14e9-4ecc-ac63-be27a2c3c3b1"},"vehicle_type_id":"4","last_reported":1711299964,"current_range_meters":17200,"station_id":"ce4bhah2rcd13ifvqei0","pricing_plan_id":"cebpf4jnsgd1na2vs0mg"},{"bike_id":"6cdd680b-8e3c-471e-b2af-df1c6b891776","system_id":"levelo_inurba_marseille","lat":43.284534,"lon":5.358662,"is_reserved":false,"is_disabled":false,"rental_uris":{"android":"levelo://app?vid=6cdd680b-8e3c-471e-b2af-df1c6b891776","ios":"levelo://app?vid=6cdd680b-8e3c-471e-b2af-df1c6b891776"},"vehicle_type_id":"4","last_reported":1711299964,"current_range_meters":0,"station_id":"ce4bhah2rcd13ifvqei0","pricing_plan_id":"cebpf4jnsgd1na2vs0mg"},{"bike_id":"76d400cf-b5ed-4d89-b524-713f6f1980d1","system_id":"levelo_inurba_marseille","lat":43.294314,"lon":5.397498,"is_reserved":false,"is_disabled":false,"rental_uris":{"android":"levelo://app?vid=76d400cf-b5ed-4d89-b524-713f6f1980d1","ios":"levelo://app?vid=76d400cf-b5ed-4d89-b524-713f6f1980d1"},"vehicle_type_id":"4","last_reported":1711299964,"current_range_meters":0,"station_id":"ce4bh3h2rcd13ifvqdo0","pricing_plan_id":"cebpf4jnsgd1na2vs0mg"},{"bike_id":"20b8756b-8ce8-4d33-ac28-8acb844f5b8d","system_id":"levelo_inurba_marseille","lat":43.294314,"lon":5.397498,"is_reserved":false,"is_disabled":false,"rental_uris":{"android":"levelo://app?vid=20b8756b-8ce8-4d33-ac28-8acb844f5b8d","ios":"levelo://app?vid=20b8756b-8ce8-4d33-ac28-8acb844f5b8d"},"vehicle_type_id":"4","last_reported":1711299964,"current_range_meters":12800,"station_id":"ce4bh3h2rcd13ifvqdo0","pricing_plan_id":"cebpf4jnsgd1na2vs0mg"},{"bike_id":"2eb5faaf-8ee4-408a-a4a9-1918161295ad","system_id":"levelo_inurba_marseille","lat":43.285856,"lon":5.350771,"is_reserved":false,"is_disabled":false,"rental_uris":{"android":"levelo://app?vid=2eb5faaf-8ee4-408a-a4a9-1918161295ad","ios":"levelo://app?vid=2eb5faaf-8ee4-408a-a4a9-1918161295ad"},"vehicle_type_id":"4","last_reported":1711299964,"current_range_meters":0,"station_id":"ce4bhch2rcd13ifvqeug","pricing_plan_id":"cebpf4jnsgd1na2vs0mg"},{"bike_id":"c5884161-dc41-4436-a197-bd25b2e4642b","system_id":"levelo_inurba_marseille","lat":43.28617,"lon":5.35108,"is_reserved":false,"is_disabled":false,"rental_uris":{"android":"levelo://app?vid=c5884161-dc41-4436-a197-bd25b2e4642b","ios":"levelo://app?vid=c5884161-dc41-4436-a197-bd25b2e4642b"},"vehicle_type_id":"4","last_reported":1711299964,"current_range_meters":0,"station_id":"ce4bhch2rcd13ifvqeug","pricing_plan_id":"cebpf4jnsgd1na2vs0mg"},{"bike_id":"e1400d4c-63e1-496b-976b-a5729b42e7e8","system_id":"levelo_inurba_marseille","lat":43.28618,"lon":5.35103,"is_reserved":false,"is_disabled":false,"rental_uris":{"android":"levelo://app?vid=e1400d4c-63e1-496b-976b-a5729b42e7e8","ios":"levelo://app?vid=e1400d4c-63e1-496b-976b-a5729b42e7e8"},"vehicle_type_id":"4","last_reported":1711299964,"current_range_meters":0,"station_id":"ce4bhch2rcd13ifvqeug","pricing_plan_id":"cebpf4jnsgd1na2vs0mg"},{"bike_id":"870c0249-8310-4049-afcf-1e19d8206a86","system_id":"levelo_inurba_marseille","lat":43.285856,"lon":5.350771,"is_reserved":false,"is_disabled":false,"rental_uris":{"android":"levelo://app?vid=870c0249-8310-4049-afcf-1e19d8206a86","ios":"levelo://app?vid=870c0249-8310-4049-afcf-1e19d8206a86"},"vehicle_type_id":"4","last_reported":1711299964,"current_range_meters":0,"station_id":"ce4bhch2rcd13ifvqeug","pricing_plan_id":"cebpf4jnsgd1na2vs0mg"},{"bike_id":"b26d8f0b-6afc-4276-9109-940adc8ad051","system_id":"levelo_inurba_marseille","lat":43.285856,"lon":5.350771,"is_reserved":false,"is_disabled":false,"rental_uris":{"android":"levelo://app?vid=b26d8f0b-6afc-4276-9109-940adc8ad051","ios":"levelo://app?vid=b26d8f0b-6afc-4276-9109-940adc8ad051"},"vehicle_type_id":"4","last_reported":1711299964,"current_range_meters":0,"station_id":"ce4bhch2rcd13ifvqeug","pricing_plan_id":"cebpf4jnsgd1na2vs0mg"},{"bike_id":"8148c380-311f-4d9b-9e9a-bbb24500c4df","system_id":"levelo_inurba_marseille","lat":43.283998,"lon":5.375062,"is_reserved":false,"is_disabled":false,"rental_uris":{"android":"levelo://app?vid=8148c380-311f-4d9b-9e9a-bbb24500c4df","ios":"levelo://app?vid=8148c380-311f-4d9b-9e9a-bbb24500c4df"},"vehicle_type_id":"4","last_reported":1711299964,"current_range_meters":0,"station_id":"ce4bh412rcd13ifvqds0","pricing_plan_id":"cebpf4jnsgd1na2vs0mg"},{"bike_id":"a7c98adc-d2c1-4201-a183-cd27f2f011d2","system_id":"levelo_inurba_marseille","lat":43.289307,"lon":5.38406,"is_reserved":false,"is_disabled":false,"rental_uris":{"android":"levelo://app?vid=a7c98adc-d2c1-4201-a183-cd27f2f011d2","ios":"levelo://app?vid=a7c98adc-d2c1-4201-a183-cd27f2f011d2"},"vehicle_type_id":"4","last_reported":1711299964,"current_range_meters":0,"station_id":"ce4bh612rcd13ifvqe6g","pricing_plan_id":"cebpf4jnsgd1na2vs0mg"},{"bike_id":"f534eb0c-fc6a-414c-966e-075392c81de0","system_id":"levelo_inurba_marseille","lat":43.28684,"lon":5.38658,"is_reserved":false,"is_disabled":false,"rental_uris":{"android":"levelo://app?vid=f534eb0c-fc6a-414c-966e-075392c81de0","ios":"levelo://app?vid=f534eb0c-fc6a-414c-966e-075392c81de0"},"vehicle_type_id":"4","last_reported":1711299964,"current_range_meters":0,"station_id":"ce4bh492rcd13ifvqdug","pricing_plan_id":"cebpf4jnsgd1na2vs0mg"},{"bike_id":"3c9146a4-26de-44a6-8cba-10a54fa1602d","system_id":"levelo_inurba_marseille","lat":43.28673,"lon":5.38662,"is_reserved":false,"is_disabled":false,"rental_uris":{"android":"levelo://app?vid=3c9146a4-26de-44a6-8cba-10a54fa1602d","ios":"levelo://app?vid=3c9146a4-26de-44a6-8cba-10a54fa1602d"},"vehicle_type_id":"4","last_reported":1711299964,"current_range_meters":6400,"station_id":"ce4bh492rcd13ifvqdug","pricing_plan_id":"cebpf4jnsgd1na2vs0mg"},{"bike_id":"e193fffa-bfdf-4325-aa2f-630ac3c5dad6","system_id":"levelo_inurba_marseille","lat":43.28564,"lon":5.383826,"is_reserved":false,"is_disabled":false,"rental_uris":{"android":"levelo://app?vid=e193fffa-bfdf-4325-aa2f-630ac3c5dad6","ios":"levelo://app?vid=e193fffa-bfdf-4325-aa2f-630ac3c5dad6"},"vehicle_type_id":"4","last_reported":1711299964,"current_range_meters":0,"station_id":"ce4bh512rcd13ifvqe3g","pricing_plan_id":"cebpf4jnsgd1na2vs0mg"},{"bike_id":"94cf50bf-937c-42ab-b738-0a465410b9f1","system_id":"levelo_inurba_marseille","lat":43.286595,"lon":5.386795,"is_reserved":false,"is_disabled":false,"rental_uris":{"android":"levelo://app?vid=94cf50bf-937c-42ab-b738-0a465410b9f1","ios":"levelo://app?vid=94cf50bf-937c-42ab-b738-0a465410b9f1"},"vehicle_type_id":"4","last_reported":1711299964,"current_range_meters":12400,"station_id":"ce4bh492rcd13ifvqdug","pricing_plan_id":"cebpf4jnsgd1na2vs0mg"},{"bike_id":"e834b3e5-d044-43aa-a494-425ec40567b2","system_id":"levelo_inurba_marseille","lat":43.286595,"lon":5.386795,"is_reserved":false,"is_disabled":false,"rental_uris":{"android":"levelo://app?vid=e834b3e5-d044-43aa-a494-425ec40567b2","ios":"levelo://app?vid=e834b3e5-d044-43aa-a494-425ec40567b2"},"vehicle_type_id":"4","last_reported":1711299964,"current_range_meters":23600,"station_id":"ce4bh492rcd13ifvqdug","pricing_plan_id":"cebpf4jnsgd1na2vs0mg"},{"bike_id":"9c72135d-c458-41b0-893f-8a6f2477be54","system_id":"levelo_inurba_marseille","lat":43.319179,"lon":5.407725,"is_reserved":false,"is_disabled":false,"rental_uris":{"android":"levelo://app?vid=9c72135d-c458-41b0-893f-8a6f2477be54","ios":"levelo://app?vid=9c72135d-c458-41b0-893f-8a6f2477be54"},"vehicle_type_id":"4","last_reported":1711299964,"current_range_meters":14400,"station_id":"ce4bhq12rcd13ifvqhig","pricing_plan_id":"cebpf4jnsgd1na2vs0mg"},{"bike_id":"1ee8f471-cf0e-4190-88ea-1f0d8520c9bd","system_id":"levelo_inurba_marseille","lat":43.28795,"lon":5.39124,"is_reserved":false,"is_disabled":false,"rental_uris":{"android":"levelo://app?vid=1ee8f471-cf0e-4190-88ea-1f0d8520c9bd","ios":"levelo://app?vid=1ee8f471-cf0e-4190-88ea-1f0d8520c9bd"},"vehicle_type_id":"4","last_reported":1711299964,"current_range_meters":5600,"station_id":"","pricing_plan_id":"cebpf4jnsgd1na2vs0mg"},{"bike_id":"6e7f57d7-686a-465f-9d85-9d0765dd5a14","system_id":"levelo_inurba_marseille","lat":43.33724,"lon":5.3918,"is_reserved":false,"is_disabled":false,"rental_uris":{"android":"levelo://app?vid=6e7f57d7-686a-465f-9d85-9d0765dd5a14","ios":"levelo://app?vid=6e7f57d7-686a-465f-9d85-9d0765dd5a14"},"vehicle_type_id":"4","last_reported":1711299964,"current_range_meters":20800,"station_id":"ce4bhr92rcd13ifvqhsg","pricing_plan_id":"cebpf4jnsgd1na2vs0mg"},{"bike_id":"f985f5ea-0b66-4353-b89d-8acb1f834121","system_id":"levelo_inurba_marseille","lat":43.323464,"lon":5.406297,"is_reserved":false,"is_disabled":false,"rental_uris":{"android":"levelo://app?vid=f985f5ea-0b66-4353-b89d-8acb1f834121","ios":"levelo://app?vid=f985f5ea-0b66-4353-b89d-8acb1f834121"},"vehicle_type_id":"4","last_reported":1711299964,"current_range_meters":17200,"station_id":"ce4bhq92rcd13ifvqhjg","pricing_plan_id":"cebpf4jnsgd1na2vs0mg"},{"bike_id":"84a6993c-b599-4c79-b775-68ecba8a51f2","system_id":"levelo_inurba_marseille","lat":43.284793,"lon":5.384119,"is_reserved":false,"is_disabled":false,"rental_uris":{"android":"levelo://app?vid=84a6993c-b599-4c79-b775-68ecba8a51f2","ios":"levelo://app?vid=84a6993c-b599-4c79-b775-68ecba8a51f2"},"vehicle_type_id":"4","last_reported":1711299964,"current_range_meters":0,"station_id":"ce4bh512rcd13ifvqe3g","pricing_plan_id":"cebpf4jnsgd1na2vs0mg"},{"bike_id":"4432d159-299f-4b13-ad39-f791373d8348","system_id":"levelo_inurba_marseille","lat":43.283494,"lon":5.380945,"is_reserved":false,"is_disabled":false,"rental_uris":{"android":"levelo://app?vid=4432d159-299f-4b13-ad39-f791373d8348","ios":"levelo://app?vid=4432d159-299f-4b13-ad39-f791373d8348"},"vehicle_type_id":"4","last_reported":1711299964,"current_range_meters":4000,"station_id":"ce4bh412rcd13ifvqdr0","pricing_plan_id":"cebpf4jnsgd1na2vs0mg"},{"bike_id":"900d6b68-bc75-499c-9739-9fba1f1a5c80","system_id":"levelo_inurba_marseille","lat":43.283494,"lon":5.380945,"is_reserved":false,"is_disabled":false,"rental_uris":{"android":"levelo://app?vid=900d6b68-bc75-499c-9739-9fba1f1a5c80","ios":"levelo://app?vid=900d6b68-bc75-499c-9739-9fba1f1a5c80"},"vehicle_type_id":"4","last_reported":1711299964,"current_range_meters":17200,"station_id":"ce4bh412rcd13ifvqdr0","pricing_plan_id":"cebpf4jnsgd1na2vs0mg"},{"bike_id":"36f0b027-05f8-4f30-af51-8e2c61b27a6f","system_id":"levelo_inurba_marseille","lat":43.283498,"lon":5.380948,"is_reserved":false,"is_disabled":false,"rental_uris":{"android":"levelo://app?vid=36f0b027-05f8-4f30-af51-8e2c61b27a6f","ios":"levelo://app?vid=36f0b027-05f8-4f30-af51-8e2c61b27a6f"},"vehicle_type_id":"4","last_reported":1711299964,"current_range_meters":1600,"station_id":"ce4bh412rcd13ifvqdr0","pricing_plan_id":"cebpf4jnsgd1na2vs0mg"},{"bike_id":"e38bb7c3-70bb-4c25-bb6d-9c9ca4fce9d5","system_id":"levelo_inurba_marseille","lat":43.283494,"lon":5.380945,"is_reserved":false,"is_disabled":false,"rental_uris":{"android":"levelo://app?vid=e38bb7c3-70bb-4c25-bb6d-9c9ca4fce9d5","ios":"levelo://app?vid=e38bb7c3-70bb-4c25-bb6d-9c9ca4fce9d5"},"vehicle_type_id":"4","last_reported":1711299964,"current_range_meters":0,"station_id":"ce4bh412rcd13ifvqdr0","pricing_plan_id":"cebpf4jnsgd1na2vs0mg"},{"bike_id":"0436ea1d-4cfa-40a6-bd34-db405a311f1f","system_id":"levelo_inurba_marseille","lat":43.284219,"lon":5.3497,"is_reserved":false,"is_disabled":false,"rental_uris":{"android":"levelo://app?vid=0436ea1d-4cfa-40a6-bd34-db405a311f1f","ios":"levelo://app?vid=0436ea1d-4cfa-40a6-bd34-db405a311f1f"},"vehicle_type_id":"4","last_reported":1711299964,"current_range_meters":0,"station_id":"ce4bhbh2rcd13ifvqepg","pricing_plan_id":"cebpf4jnsgd1na2vs0mg"},{"bike_id":"13fad94e-a984-45fc-a32f-77a78fbbda0a","system_id":"levelo_inurba_marseille","lat":43.284219,"lon":5.3497,"is_reserved":false,"is_disabled":false,"rental_uris":{"android":"levelo://app?vid=13fad94e-a984-45fc-a32f-77a78fbbda0a","ios":"levelo://app?vid=13fad94e-a984-45fc-a32f-77a78fbbda0a"},"vehicle_type_id":"4","last_reported":1711299964,"current_range_meters":5600,"station_id":"ce4bhbh2rcd13ifvqepg","pricing_plan_id":"cebpf4jnsgd1na2vs0mg"},{"bike_id":"bab2b702-94e8-46f2-927d-c02df4d208c0","system_id":"levelo_inurba_marseille","lat":43.284214,"lon":5.349706,"is_reserved":false,"is_disabled":false,"rental_uris":{"android":"levelo://app?vid=bab2b702-94e8-46f2-927d-c02df4d208c0","ios":"levelo://app?vid=bab2b702-94e8-46f2-927d-c02df4d208c0"},"vehicle_type_id":"4","last_reported":1711299964,"current_range_meters":0,"station_id":"ce4bhbh2rcd13ifvqepg","pricing_plan_id":"cebpf4jnsgd1na2vs0mg"},{"bike_id":"77608d68-4b95-4dfb-95ac-65643acdcd6c","system_id":"levelo_inurba_marseille","lat":43.284156,"lon":5.349771,"is_reserved":false,"is_disabled":false,"rental_uris":{"android":"levelo://app?vid=77608d68-4b95-4dfb-95ac-65643acdcd6c","ios":"levelo://app?vid=77608d68-4b95-4dfb-95ac-65643acdcd6c"},"vehicle_type_id":"4","last_reported":1711299964,"current_range_meters":0,"station_id":"","pricing_plan_id":"cebpf4jnsgd1na2vs0mg"},{"bike_id":"244e9cb4-f5de-42b7-80e6-ffb3f7715a6e","system_id":"levelo_inurba_marseille","lat":43.29281,"lon":5.40124,"is_reserved":false,"is_disabled":false,"rental_uris":{"android":"levelo://app?vid=244e9cb4-f5de-42b7-80e6-ffb3f7715a6e","ios":"levelo://app?vid=244e9cb4-f5de-42b7-80e6-ffb3f7715a6e"},"vehicle_type_id":"4","last_reported":1711299964,"current_range_meters":0,"station_id":"ce4bh312rcd13ifvqdk0","pricing_plan_id":"cebpf4jnsgd1na2vs0mg"},{"bike_id":"062167f5-3163-4c9b-8b73-7c59c09de0a3","system_id":"levelo_inurba_marseille","lat":43.292724,"lon":5.401131,"is_reserved":false,"is_disabled":false,"rental_uris":{"android":"levelo://app?vid=062167f5-3163-4c9b-8b73-7c59c09de0a3","ios":"levelo://app?vid=062167f5-3163-4c9b-8b73-7c59c09de0a3"},"vehicle_type_id":"4","last_reported":1711299964,"current_range_meters":16400,"station_id":"ce4bh312rcd13ifvqdk0","pricing_plan_id":"cebpf4jnsgd1na2vs0mg"},{"bike_id":"813c0907-2cef-4708-ae8a-e156b62c3a52","system_id":"levelo_inurba_marseille","lat":43.282754,"lon":5.350519,"is_reserved":false,"is_disabled":false,"rental_uris":{"android":"levelo://app?vid=813c0907-2cef-4708-ae8a-e156b62c3a52","ios":"levelo://app?vid=813c0907-2cef-4708-ae8a-e156b62c3a52"},"vehicle_type_id":"4","last_reported":1711299964,"current_range_meters":10000,"station_id":"ce4bhbp2rcd13ifvqerg","pricing_plan_id":"cebpf4jnsgd1na2vs0mg"},{"bike_id":"e280e724-99b5-41c0-8c64-c4367c105511","system_id":"levelo_inurba_marseille","lat":43.282737,"lon":5.350727,"is_reserved":false,"is_disabled":false,"rental_uris":{"android":"levelo://app?vid=e280e724-99b5-41c0-8c64-c4367c105511","ios":"levelo://app?vid=e280e724-99b5-41c0-8c64-c4367c105511"},"vehicle_type_id":"4","last_reported":1711299964,"current_range_meters":0,"station_id":"ce4bhbp2rcd13ifvqerg","pricing_plan_id":"cebpf4jnsgd1na2vs0mg"},{"bike_id":"91b5e9f9-56cc-4674-a335-120278f8ef22","system_id":"levelo_inurba_marseille","lat":43.282713,"lon":5.350656,"is_reserved":false,"is_disabled":false,"rental_uris":{"android":"levelo://app?vid=91b5e9f9-56cc-4674-a335-120278f8ef22","ios":"levelo://app?vid=91b5e9f9-56cc-4674-a335-120278f8ef22"},"vehicle_type_id":"4","last_reported":1711299964,"current_range_meters":0,"station_id":"ce4bhbp2rcd13ifvqerg","pricing_plan_id":"cebpf4jnsgd1na2vs0mg"},{"bike_id":"78b6fc29-2894-48b3-809d-904410b27f58","system_id":"levelo_inurba_marseille","lat":43.28269,"lon":5.35073,"is_reserved":false,"is_disabled":false,"rental_uris":{"android":"levelo://app?vid=78b6fc29-2894-48b3-809d-904410b27f58","ios":"levelo://app?vid=78b6fc29-2894-48b3-809d-904410b27f58"},"vehicle_type_id":"4","last_reported":1711299964,"current_range_meters":8400,"station_id":"ce4bhbp2rcd13ifvqerg","pricing_plan_id":"cebpf4jnsgd1na2vs0mg"},{"bike_id":"857881fe-10c5-4517-856a-eb44f4d2bc88","system_id":"levelo_inurba_marseille","lat":43.2827,"lon":5.35059,"is_reserved":false,"is_disabled":false,"rental_uris":{"android":"levelo://app?vid=857881fe-10c5-4517-856a-eb44f4d2bc88","ios":"levelo://app?vid=857881fe-10c5-4517-856a-eb44f4d2bc88"},"vehicle_type_id":"4","last_reported":1711299964,"current_range_meters":0,"station_id":"ce4bhbp2rcd13ifvqerg","pricing_plan_id":"cebpf4jnsgd1na2vs0mg"},{"bike_id":"8786a2fc-4657-499b-8708-01e8aabfc45a","system_id":"levelo_inurba_marseille","lat":43.28264,"lon":5.35078,"is_reserved":false,"is_disabled":false,"rental_uris":{"android":"levelo://app?vid=8786a2fc-4657-499b-8708-01e8aabfc45a","ios":"levelo://app?vid=8786a2fc-4657-499b-8708-01e8aabfc45a"},"vehicle_type_id":"4","last_reported":1711299964,"current_range_meters":0,"station_id":"ce4bhbp2rcd13ifvqerg","pricing_plan_id":"cebpf4jnsgd1na2vs0mg"},{"bike_id":"7867b683-7d10-4f8e-95bc-2a6cfcc989fd","system_id":"levelo_inurba_marseille","lat":43.28265,"lon":5.350657,"is_reserved":false,"is_disabled":false,"rental_uris":{"android":"levelo://app?vid=7867b683-7d10-4f8e-95bc-2a6cfcc989fd","ios":"levelo://app?vid=7867b683-7d10-4f8e-95bc-2a6cfcc989fd"},"vehicle_type_id":"4","last_reported":1711299964,"current_range_meters":0,"station_id":"ce4bhbp2rcd13ifvqerg","pricing_plan_id":"cebpf4jnsgd1na2vs0mg"},{"bike_id":"32c37032-634c-4cc6-9243-e12de6cec8c9","system_id":"levelo_inurba_marseille","lat":43.282655,"lon":5.350625,"is_reserved":false,"is_disabled":false,"rental_uris":{"android":"levelo://app?vid=32c37032-634c-4cc6-9243-e12de6cec8c9","ios":"levelo://app?vid=32c37032-634c-4cc6-9243-e12de6cec8c9"},"vehicle_type_id":"4","last_reported":1711299964,"current_range_meters":0,"station_id":"ce4bhbp2rcd13ifvqerg","pricing_plan_id":"cebpf4jnsgd1na2vs0mg"},{"bike_id":"d3f7a6e1-7864-4611-8556-aabca79a1964","system_id":"levelo_inurba_marseille","lat":43.28044,"lon":5.3694,"is_reserved":false,"is_disabled":false,"rental_uris":{"android":"levelo://app?vid=d3f7a6e1-7864-4611-8556-aabca79a1964","ios":"levelo://app?vid=d3f7a6e1-7864-4611-8556-aabca79a1964"},"vehicle_type_id":"4","last_reported":1711299964,"current_range_meters":0,"station_id":"ce4bha12rcd13ifvqef0","pricing_plan_id":"cebpf4jnsgd1na2vs0mg"},{"bike_id":"c7d41808-ff53-4904-ac5c-f868ce2f51f3","system_id":"levelo_inurba_marseille","lat":43.283502,"lon":5.386471,"is_reserved":false,"is_disabled":false,"rental_uris":{"android":"levelo://app?vid=c7d41808-ff53-4904-ac5c-f868ce2f51f3","ios":"levelo://app?vid=c7d41808-ff53-4904-ac5c-f868ce2f51f3"},"vehicle_type_id":"4","last_reported":1711299964,"current_range_meters":0,"station_id":"ce4bh492rcd13ifvqdvg","pricing_plan_id":"cebpf4jnsgd1na2vs0mg"},{"bike_id":"db57f11b-e414-4336-b5c9-b9d86a56de86","system_id":"levelo_inurba_marseille","lat":43.28042,"lon":5.36942,"is_reserved":false,"is_disabled":false,"rental_uris":{"android":"levelo://app?vid=db57f11b-e414-4336-b5c9-b9d86a56de86","ios":"levelo://app?vid=db57f11b-e414-4336-b5c9-b9d86a56de86"},"vehicle_type_id":"4","last_reported":1711299964,"current_range_meters":2800,"station_id":"ce4bha12rcd13ifvqef0","pricing_plan_id":"cebpf4jnsgd1na2vs0mg"},{"bike_id":"b0cd4aee-1aaf-4cdf-86b2-ee4a36378493","system_id":"levelo_inurba_marseille","lat":43.28034,"lon":5.36936,"is_reserved":false,"is_disabled":false,"rental_uris":{"android":"levelo://app?vid=b0cd4aee-1aaf-4cdf-86b2-ee4a36378493","ios":"levelo://app?vid=b0cd4aee-1aaf-4cdf-86b2-ee4a36378493"},"vehicle_type_id":"4","last_reported":1711299964,"current_range_meters":12400,"station_id":"ce4bha12rcd13ifvqef0","pricing_plan_id":"cebpf4jnsgd1na2vs0mg"},{"bike_id":"81f24765-e996-4d94-9639-54a26fc5d040","system_id":"levelo_inurba_marseille","lat":43.28032,"lon":5.36945,"is_reserved":false,"is_disabled":false,"rental_uris":{"android":"levelo://app?vid=81f24765-e996-4d94-9639-54a26fc5d040","ios":"levelo://app?vid=81f24765-e996-4d94-9639-54a26fc5d040"},"vehicle_type_id":"4","last_reported":1711299964,"current_range_meters":0,"station_id":"ce4bha12rcd13ifvqef0","pricing_plan_id":"cebpf4jnsgd1na2vs0mg"},{"bike_id":"cac8c84a-7d20-460f-b921-61ceb8ef1729","system_id":"levelo_inurba_marseille","lat":43.28032,"lon":5.36945,"is_reserved":false,"is_disabled":false,"rental_uris":{"android":"levelo://app?vid=cac8c84a-7d20-460f-b921-61ceb8ef1729","ios":"levelo://app?vid=cac8c84a-7d20-460f-b921-61ceb8ef1729"},"vehicle_type_id":"4","last_reported":1711299964,"current_range_meters":0,"station_id":"ce4bha12rcd13ifvqef0","pricing_plan_id":"cebpf4jnsgd1na2vs0mg"},{"bike_id":"6fbcc48f-31d4-4425-9415-46821e3ccee0","system_id":"levelo_inurba_marseille","lat":43.29041,"lon":5.399634,"is_reserved":false,"is_disabled":false,"rental_uris":{"android":"levelo://app?vid=6fbcc48f-31d4-4425-9415-46821e3ccee0","ios":"levelo://app?vid=6fbcc48f-31d4-4425-9415-46821e3ccee0"},"vehicle_type_id":"4","last_reported":1711299964,"current_range_meters":0,"station_id":"ce4bh392rcd13ifvqdm0","pricing_plan_id":"cebpf4jnsgd1na2vs0mg"},{"bike_id":"6c69fae6-3930-4717-a4a3-58230a0e00b9","system_id":"levelo_inurba_marseille","lat":43.29041,"lon":5.399634,"is_reserved":false,"is_disabled":false,"rental_uris":{"android":"levelo://app?vid=6c69fae6-3930-4717-a4a3-58230a0e00b9","ios":"levelo://app?vid=6c69fae6-3930-4717-a4a3-58230a0e00b9"},"vehicle_type_id":"4","last_reported":1711299964,"current_range_meters":400,"station_id":"ce4bh392rcd13ifvqdm0","pricing_plan_id":"cebpf4jnsgd1na2vs0mg"},{"bike_id":"1002835d-32d4-47b6-b20c-6fa0eecda942","system_id":"levelo_inurba_marseille","lat":43.29041,"lon":5.399634,"is_reserved":false,"is_disabled":false,"rental_uris":{"android":"levelo://app?vid=1002835d-32d4-47b6-b20c-6fa0eecda942","ios":"levelo://app?vid=1002835d-32d4-47b6-b20c-6fa0eecda942"},"vehicle_type_id":"4","last_reported":1711299964,"current_range_meters":16400,"station_id":"ce4bh392rcd13ifvqdm0","pricing_plan_id":"cebpf4jnsgd1na2vs0mg"},{"bike_id":"e85f4bc8-5d87-48ac-b549-fee26e1ab87f","system_id":"levelo_inurba_marseille","lat":43.28123,"lon":5.38199,"is_reserved":false,"is_disabled":false,"rental_uris":{"android":"levelo://app?vid=e85f4bc8-5d87-48ac-b549-fee26e1ab87f","ios":"levelo://app?vid=e85f4bc8-5d87-48ac-b549-fee26e1ab87f"},"vehicle_type_id":"4","last_reported":1711299964,"current_range_meters":22800,"station_id":"","pricing_plan_id":"cebpf4jnsgd1na2vs0mg"},{"bike_id":"456720b5-b0a7-4c44-a734-c11c09879747","system_id":"levelo_inurba_marseille","lat":43.2932,"lon":5.404189,"is_reserved":false,"is_disabled":false,"rental_uris":{"android":"levelo://app?vid=456720b5-b0a7-4c44-a734-c11c09879747","ios":"levelo://app?vid=456720b5-b0a7-4c44-a734-c11c09879747"},"vehicle_type_id":"4","last_reported":1711299964,"current_range_meters":20000,"station_id":"","pricing_plan_id":"cebpf4jnsgd1na2vs0mg"},{"bike_id":"c479c4ca-d9e7-4999-bfa3-22a6f49abbbd","system_id":"levelo_inurba_marseille","lat":43.284462,"lon":5.392121,"is_reserved":false,"is_disabled":false,"rental_uris":{"android":"levelo://app?vid=c479c4ca-d9e7-4999-bfa3-22a6f49abbbd","ios":"levelo://app?vid=c479c4ca-d9e7-4999-bfa3-22a6f49abbbd"},"vehicle_type_id":"4","last_reported":1711299964,"current_range_meters":0,"station_id":"ce4bhoh2rcd13ifvqh5g","pricing_plan_id":"cebpf4jnsgd1na2vs0mg"},{"bike_id":"9ff1dd70-5d52-4c22-b0b2-4338c3bd2a2d","system_id":"levelo_inurba_marseille","lat":43.284462,"lon":5.392121,"is_reserved":false,"is_disabled":false,"rental_uris":{"android":"levelo://app?vid=9ff1dd70-5d52-4c22-b0b2-4338c3bd2a2d","ios":"levelo://app?vid=9ff1dd70-5d52-4c22-b0b2-4338c3bd2a2d"},"vehicle_type_id":"4","last_reported":1711299964,"current_range_meters":6800,"station_id":"ce4bhoh2rcd13ifvqh5g","pricing_plan_id":"cebpf4jnsgd1na2vs0mg"},{"bike_id":"6ce25e15-b150-49a8-a801-529a2c4870ee","system_id":"levelo_inurba_marseille","lat":43.284462,"lon":5.392121,"is_reserved":false,"is_disabled":false,"rental_uris":{"android":"levelo://app?vid=6ce25e15-b150-49a8-a801-529a2c4870ee","ios":"levelo://app?vid=6ce25e15-b150-49a8-a801-529a2c4870ee"},"vehicle_type_id":"4","last_reported":1711299964,"current_range_meters":30000,"station_id":"ce4bhoh2rcd13ifvqh5g","pricing_plan_id":"cebpf4jnsgd1na2vs0mg"},{"bike_id":"91920982-1175-4288-a951-ef6f7662e4b3","system_id":"levelo_inurba_marseille","lat":43.284462,"lon":5.392121,"is_reserved":false,"is_disabled":false,"rental_uris":{"android":"levelo://app?vid=91920982-1175-4288-a951-ef6f7662e4b3","ios":"levelo://app?vid=91920982-1175-4288-a951-ef6f7662e4b3"},"vehicle_type_id":"4","last_reported":1711299964,"current_range_meters":11200,"station_id":"ce4bhoh2rcd13ifvqh5g","pricing_plan_id":"cebpf4jnsgd1na2vs0mg"},{"bike_id":"b3ec2095-6571-40fc-8e46-868c6b1af32a","system_id":"levelo_inurba_marseille","lat":43.285742,"lon":5.395004,"is_reserved":false,"is_disabled":false,"rental_uris":{"android":"levelo://app?vid=b3ec2095-6571-40fc-8e46-868c6b1af32a","ios":"levelo://app?vid=b3ec2095-6571-40fc-8e46-868c6b1af32a"},"vehicle_type_id":"4","last_reported":1711299964,"current_range_meters":2000,"station_id":"ce4bh292rcd13ifvqdg0","pricing_plan_id":"cebpf4jnsgd1na2vs0mg"},{"bike_id":"52a3d7db-a0da-4157-b41e-eef9f5fd81d8","system_id":"levelo_inurba_marseille","lat":43.28573,"lon":5.394992,"is_reserved":false,"is_disabled":false,"rental_uris":{"android":"levelo://app?vid=52a3d7db-a0da-4157-b41e-eef9f5fd81d8","ios":"levelo://app?vid=52a3d7db-a0da-4157-b41e-eef9f5fd81d8"},"vehicle_type_id":"4","last_reported":1711299964,"current_range_meters":10400,"station_id":"ce4bh292rcd13ifvqdg0","pricing_plan_id":"cebpf4jnsgd1na2vs0mg"},{"bike_id":"06b72e7d-4b9f-466d-9735-045f1d9f0d44","system_id":"levelo_inurba_marseille","lat":43.285742,"lon":5.395004,"is_reserved":false,"is_disabled":false,"rental_uris":{"android":"levelo://app?vid=06b72e7d-4b9f-466d-9735-045f1d9f0d44","ios":"levelo://app?vid=06b72e7d-4b9f-466d-9735-045f1d9f0d44"},"vehicle_type_id":"4","last_reported":1711299964,"current_range_meters":400,"station_id":"ce4bh292rcd13ifvqdg0","pricing_plan_id":"cebpf4jnsgd1na2vs0mg"},