{"last_updated":1700604398,"ttl":30,"version":"2.2","data":{"bikes":[{"bike_id":"452d0500-0114-4433-86a9-63d9b0ac3b65","system_id":"levelo_inurba_marseille","lat":43.313391,"lon":5.36706,"is_reserved":false,"is_disabled":false,"rental_uris":{"android":"levelo://app?vid=452d0500-0114-4433-86a9-63d9b0ac3b65","ios":"levelo://app?vid=452d0500-0114-4433-86a9-63d9b0ac3b65"},"vehicle_type_id":"4","last_reported":1700604398,"current_range_meters":28800,"station_id":"ce4bgr92rcd13ifvqc6g","pricing_plan_id":"free"},{"bike_id":"9287ebcd-15be-4598-af60-a950959562a0","system_id":"levelo_inurba_marseille","lat":43.312239,"lon":5.368562,"is_reserved":false,"is_disabled":false,"rental_uris":{"android":"levelo://app?vid=9287ebcd-15be-4598-af60-a950959562a0","ios":"levelo://app?vid=9287ebcd-15be-4598-af60-a950959562a0"},"vehicle_type_id":"4","last_reported":1700604398,"current_range_meters":6800,"station_id":"ce4bgl92rcd13ifvqbq0","pricing_plan_id":"free"},{"bike_id":"8edbf2d4-c498-48e5-9656-b32fb4d46fed","system_id":"levelo_inurba_marseille","lat":43.312239,"lon":5.368562,"is_reserved":false,"is_disabled":false,"rental_uris":{"android":"levelo://app?vid=8edbf2d4-c498-48e5-9656-b32fb4d46fed","ios":"levelo://app?vid=8edbf2d4-c498-48e5-9656-b32fb4d46fed"},"vehicle_type_id":"4","last_reported":1700604398,"current_range_meters":22800,"station_id":"ce4bgl92rcd13ifvqbq0","pricing_plan_id":"free"},{"bike_id":"eeef4dbc-7602-4f26-b2c1-c3771c9b5dae","system_id":"levelo_inurba_marseille","lat":43.3115,"lon":5.36889,"is_reserved":false,"is_disabled":false,"rental_uris":{"android":"levelo://app?vid=eeef4dbc-7602-4f26-b2c1-c3771c9b5dae","ios":"levelo://app?vid=eeef4dbc-7602-4f26-b2c1-c3771c9b5dae"},"vehicle_type_id":"4","last_reported":1700604398,"current_range_meters":0,"station_id":"","pricing_plan_id":"free"},{"bike_id":"a4a0d620-cfe6-4db8-9fe3-8e684ff0361d","system_id":"levelo_inurba_marseille","lat":43.309076,"lon":5.368465,"is_reserved":false,"is_disabled":false,"rental_uris":{"android":"levelo://app?vid=a4a0d620-cfe6-4db8-9fe3-8e684ff0361d","ios":"levelo://app?vid=a4a0d620-cfe6-4db8-9fe3-8e684ff0361d"},"vehicle_type_id":"4","last_reported":1700604398,"current_range_meters":13200,"station_id":"ce4bgn92rcd13ifvqbvg","pricing_plan_id":"free"},{"bike_id":"69059c00-90fb-4196-8324-2a4710665389","system_id":"levelo_inurba_marseille","lat":43.314811,"lon":5.373103,"is_reserved":false,"is_disabled":false,"rental_uris":{"android":"levelo://app?vid=69059c00-90fb-4196-8324-2a4710665389","ios":"levelo://app?vid=69059c00-90fb-4196-8324-2a4710665389"},"vehicle_type_id":"4","last_reported":1700604398,"current_range_meters":2000,"station_id":"ce4bgt12rcd13ifvqcd0","pricing_plan_id":"free"},{"bike_id":"2bc311dc-da0b-403e-8cae-84f8764bc67c","system_id":"levelo_inurba_marseille","lat":43.30679,"lon":5.3679,"is_reserved":false,"is_disabled":false,"rental_uris":{"android":"levelo://app?vid=2bc311dc-da0b-403e-8cae-84f8764bc67c","ios":"levelo://app?vid=2bc311dc-da0b-403e-8cae-84f8764bc67c"},"vehicle_type_id":"4","last_reported":1700604398,"current_range_meters":1600,"station_id":"","pricing_plan_id":"free"},{"bike_id":"790d8068-0ca3-4ee2-ac94-5b1995eb78d3","system_id":"levelo_inurba_marseille","lat":43.319631,"lon":5.37055,"is_reserved":false,"is_disabled":false,"rental_uris":{"android":"levelo://app?vid=790d8068-0ca3-4ee2-ac94-5b1995eb78d3","ios":"levelo://app?vid=790d8068-0ca3-4ee2-ac94-5b1995eb78d3"},"vehicle_type_id":"4","last_reported":1700604398,"current_range_meters":0,"station_id":"","pricing_plan_id":"free"},{"bike_id":"89db5ab1-631a-4788-bcf8-d5e1560619c3","system_id":"levelo_inurba_marseille","lat":43.305989,"lon":5.37225,"is_reserved":false,"is_disabled":false,"rental_uris":{"android":"levelo://app?vid=89db5ab1-631a-4788-bcf8-d5e1560619c3","ios":"levelo://app?vid=89db5ab1-631a-4788-bcf8-d5e1560619c3"},"vehicle_type_id":"4","last_reported":1700604398,"current_range_meters":14000,"station_id":"ce4bgqh2rcd13ifvqc4g","pricing_plan_id":"free"},{"bike_id":"e1dbae1e-ca54-4a2c-8935-2dcc21708e33","system_id":"levelo_inurba_marseille","lat":43.305989,"lon":5.37225,"is_reserved":false,"is_disabled":false,"rental_uris":{"android":"levelo://app?vid=e1dbae1e-ca54-4a2c-8935-2dcc21708e33","ios":"levelo://app?vid=e1dbae1e-ca54-4a2c-8935-2dcc21708e33"},"vehicle_type_id":"4","last_reported":1700604398,"current_range_meters":23600,"station_id":"ce4bgqh2rcd13ifvqc4g","pricing_plan_id":"free"},{"bike_id":"bb2bfbcb-eaed-460c-8340-65b8c0a995f2","system_id":"levelo_inurba_marseille","lat":43.305989,"lon":5.37225,"is_reserved":false,"is_disabled":false,"rental_uris":{"android":"levelo://app?vid=bb2bfbcb-eaed-460c-8340-65b8c0a995f2","ios":"levelo://app?vid=bb2bfbcb-eaed-460c-8340-65b8c0a995f2"},"vehicle_type_id":"4","last_reported":1700604398,"current_range_meters":13600,"station_id":"ce4bgqh2rcd13ifvqc4g","pricing_plan_id":"free"},{"bike_id":"becd60c2-af99-4693-9537-74284e313a72","system_id":"levelo_inurba_marseille","lat":43.311125,"lon":5.377624,"is_reserved":false,"is_disabled":false,"rental_uris":{"android":"levelo://app?vid=becd60c2-af99-4693-9537-74284e313a72","ios":"levelo://app?vid=becd60c2-af99-4693-9537-74284e313a72"},"vehicle_type_id":"4","last_reported":1700604398,"current_range_meters":16800,"station_id":"ce4bgt92rcd13ifvqcg0","pricing_plan_id":"free"},{"bike_id":"cf206130-73d5-49c7-bb79-d9d5864fb487","system_id":"levelo_inurba_marseille","lat":43.31116,"lon":5.37771,"is_reserved":false,"is_disabled":false,"rental_uris":{"android":"levelo://app?vid=cf206130-73d5-49c7-bb79-d9d5864fb487","ios":"levelo://app?vid=cf206130-73d5-49c7-bb79-d9d5864fb487"},"vehicle_type_id":"4","last_reported":1700604398,"current_range_meters":23200,"station_id":"ce4bgt92rcd13ifvqcg0","pricing_plan_id":"free"},{"bike_id":"06284047-1e80-4933-bc3c-a8606f20a4a9","system_id":"levelo_inurba_marseille","lat":43.308181,"lon":5.376533,"is_reserved":false,"is_disabled":false,"rental_uris":{"android":"levelo://app?vid=06284047-1e80-4933-bc3c-a8606f20a4a9","ios":"levelo://app?vid=06284047-1e80-4933-bc3c-a8606f20a4a9"},"vehicle_type_id":"4","last_reported":1700604398,"current_range_meters":18400,"station_id":"ce4bgv92rcd13ifvqcq0","pricing_plan_id":"free"},{"bike_id":"07b3c161-e357-43af-bcf7-eee5965b408d","system_id":"levelo_inurba_marseille","lat":43.307945,"lon":5.376487,"is_reserved":false,"is_disabled":false,"rental_uris":{"android":"levelo://app?vid=07b3c161-e357-43af-bcf7-eee5965b408d","ios":"levelo://app?vid=07b3c161-e357-43af-bcf7-eee5965b408d"},"vehicle_type_id":"4","last_reported":1700604398,"current_range_meters":15600,"station_id":"ce4bgv92rcd13ifvqcq0","pricing_plan_id":"free"},{"bike_id":"062b335d-abb8-4a60-8451-39007cb58897","system_id":"levelo_inurba_marseille","lat":43.307945,"lon":5.376487,"is_reserved":false,"is_disabled":false,"rental_uris":{"android":"levelo://app?vid=062b335d-abb8-4a60-8451-39007cb58897","ios":"levelo://app?vid=062b335d-abb8-4a60-8451-39007cb58897"},"vehicle_type_id":"4","last_reported":1700604398,"current_range_meters":12400,"station_id":"ce4bgv92rcd13ifvqcq0","pricing_plan_id":"free"},{"bike_id":"5fea0269-92b2-44b8-a422-d6265cf46649","system_id":"levelo_inurba_marseille","lat":43.301939,"lon":5.366286,"is_reserved":false,"is_disabled":false,"rental_uris":{"android":"levelo://app?vid=5fea0269-92b2-44b8-a422-d6265cf46649","ios":"levelo://app?vid=5fea0269-92b2-44b8-a422-d6265cf46649"},"vehicle_type_id":"4","last_reported":1700604398,"current_range_meters":22000,"station_id":"ce4bgrh2rcd13ifvqc8g","pricing_plan_id":"free"},{"bike_id":"0327687b-f51e-4077-bf49-2ec73a6de092","system_id":"levelo_inurba_marseille","lat":43.322333,"lon":5.375583,"is_reserved":false,"is_disabled":false,"rental_uris":{"android":"levelo://app?vid=0327687b-f51e-4077-bf49-2ec73a6de092","ios":"levelo://app?vid=0327687b-f51e-4077-bf49-2ec73a6de092"},"vehicle_type_id":"4","last_reported":1700604398,"current_range_meters":19200,"station_id":"","pricing_plan_id":"free"},{"bike_id":"02029300-6e86-46dc-9d58-86eee0a0e8e6","system_id":"levelo_inurba_marseille","lat":43.30798,"lon":5.3815,"is_reserved":false,"is_disabled":false,"rental_uris":{"android":"levelo://app?vid=02029300-6e86-46dc-9d58-86eee0a0e8e6","ios":"levelo://app?vid=02029300-6e86-46dc-9d58-86eee0a0e8e6"},"vehicle_type_id":"4","last_reported":1700604398,"current_range_meters":0,"station_id":"ce4bgt12rcd13ifvqce0","pricing_plan_id":"free"},{"bike_id":"c0fb4fe0-c71d-48d1-bdbc-c868a80cc97d","system_id":"levelo_inurba_marseille","lat":43.308012,"lon":5.381511,"is_reserved":false,"is_disabled":false,"rental_uris":{"android":"levelo://app?vid=c0fb4fe0-c71d-48d1-bdbc-c868a80cc97d","ios":"levelo://app?vid=c0fb4fe0-c71d-48d1-bdbc-c868a80cc97d"},"vehicle_type_id":"4","last_reported":1700604398,"current_range_meters":23600,"station_id":"ce4bgt12rcd13ifvqce0","pricing_plan_id":"free"},{"bike_id":"95c99d2a-5710-4b85-a3a4-85afeb6b644e","system_id":"levelo_inurba_marseille","lat":43.308007,"lon":5.38159,"is_reserved":false,"is_disabled":false,"rental_uris":{"android":"levelo://app?vid=95c99d2a-5710-4b85-a3a4-85afeb6b644e","ios":"levelo://app?vid=95c99d2a-5710-4b85-a3a4-85afeb6b644e"},"vehicle_type_id":"4","last_reported":1700604398,"current_range_meters":400,"station_id":"ce4bgt12rcd13ifvqce0","pricing_plan_id":"free"},{"bike_id":"9228ac2c-515c-4b28-9e78-7d51b484165d","system_id":"levelo_inurba_marseille","lat":43.308012,"lon":5.381511,"is_reserved":false,"is_disabled":false,"rental_uris":{"android":"levelo://app?vid=9228ac2c-515c-4b28-9e78-7d51b484165d","ios":"levelo://app?vid=9228ac2c-515c-4b28-9e78-7d51b484165d"},"vehicle_type_id":"4","last_reported":1700604398,"current_range_meters":20400,"station_id":"ce4bgt12rcd13ifvqce0","pricing_plan_id":"free"},{"bike_id":"3b8c06f7-c389-4cd1-91ab-043ba837e953","system_id":"levelo_inurba_marseille","lat":43.30798,"lon":5.38159,"is_reserved":false,"is_disabled":false,"rental_uris":{"android":"levelo://app?vid=3b8c06f7-c389-4cd1-91ab-043ba837e953","ios":"levelo://app?vid=3b8c06f7-c389-4cd1-91ab-043ba837e953"},"vehicle_type_id":"4","last_reported":1700604398,"current_range_meters":22800,"station_id":"ce4bgt12rcd13ifvqce0","pricing_plan_id":"free"},{"bike_id":"52526aa5-82a0-4e01-a863-ed674137994b","system_id":"levelo_inurba_marseille","lat":43.304606,"lon":5.379026,"is_reserved":false,"is_disabled":false,"rental_uris":{"android":"levelo://app?vid=52526aa5-82a0-4e01-a863-ed674137994b","ios":"levelo://app?vid=52526aa5-82a0-4e01-a863-ed674137994b"},"vehicle_type_id":"4","last_reported":1700604398,"current_range_meters":0,"station_id":"ce4bgup2rcd13ifvqcn0","pricing_plan_id":"free"},{"bike_id":"afa921fc-ca50-4532-aeb1-1de14ee2fe50","system_id":"levelo_inurba_marseille","lat":43.32476,"lon":5.3656,"is_reserved":false,"is_disabled":false,"rental_uris":{"android":"levelo://app?vid=afa921fc-ca50-4532-aeb1-1de14ee2fe50","ios":"levelo://app?vid=afa921fc-ca50-4532-aeb1-1de14ee2fe50"},"vehicle_type_id":"4","last_reported":1700604398,"current_range_meters":24800,"station_id":"ce4bhs12rcd13ifvqhvg","pricing_plan_id":"free"},{"bike_id":"a037806c-504f-410e-8380-5102d23eea79","system_id":"levelo_inurba_marseille","lat":43.324771,"lon":5.36557,"is_reserved":false,"is_disabled":false,"rental_uris":{"android":"levelo://app?vid=a037806c-504f-410e-8380-5102d23eea79","ios":"levelo://app?vid=a037806c-504f-410e-8380-5102d23eea79"},"vehicle_type_id":"4","last_reported":1700604398,"current_range_meters":29200,"station_id":"ce4bhs12rcd13ifvqhvg","pricing_plan_id":"free"},{"bike_id":"14052cf1-6fa6-41e3-a003-8f8e37e1f8af","system_id":"levelo_inurba_marseille","lat":43.302784,"lon":5.377158,"is_reserved":false,"is_disabled":false,"rental_uris":{"android":"levelo://app?vid=14052cf1-6fa6-41e3-a003-8f8e37e1f8af","ios":"levelo://app?vid=14052cf1-6fa6-41e3-a003-8f8e37e1f8af"},"vehicle_type_id":"4","last_reported":1700604398,"current_range_meters":7200,"station_id":"ce4bguh2rcd13ifvqcj0","pricing_plan_id":"free"},{"bike_id":"510d0105-b866-48bb-8bdb-59b0079c0d7a","system_id":"levelo_inurba_marseille","lat":43.31991,"lon":5.38147,"is_reserved":false,"is_disabled":false,"rental_uris":{"android":"levelo://app?vid=510d0105-b866-48bb-8bdb-59b0079c0d7a","ios":"levelo://app?vid=510d0105-b866-48bb-8bdb-59b0079c0d7a"},"vehicle_type_id":"4","last_reported":1700604398,"current_range_meters":25200,"station_id":"ce4bhr12rcd13ifvqhpg","pricing_plan_id":"free"},{"bike_id":"4b4fe3d7-722a-45a1-81fc-9a019167f268","system_id":"levelo_inurba_marseille","lat":43.31998,"lon":5.38157,"is_reserved":false,"is_disabled":false,"rental_uris":{"android":"levelo://app?vid=4b4fe3d7-722a-45a1-81fc-9a019167f268","ios":"levelo://app?vid=4b4fe3d7-722a-45a1-81fc-9a019167f268"},"vehicle_type_id":"4","last_reported":1700604398,"current_range_meters":24800,"station_id":"ce4bhr12rcd13ifvqhpg","pricing_plan_id":"free"},{"bike_id":"b6bef19b-9ba8-4d51-8b70-c38bf53a3315","system_id":"levelo_inurba_marseille","lat":43.31999,"lon":5.38157,"is_reserved":false,"is_disabled":false,"rental_uris":{"android":"levelo://app?vid=b6bef19b-9ba8-4d51-8b70-c38bf53a3315","ios":"levelo://app?vid=b6bef19b-9ba8-4d51-8b70-c38bf53a3315"},"vehicle_type_id":"4","last_reported":1700604398,"current_range_meters":10400,"station_id":"ce4bhr12rcd13ifvqhpg","pricing_plan_id":"free"},{"bike_id":"b4e7e8a5-429b-4fa9-b969-621639380068","system_id":"levelo_inurba_marseille","lat":43.313571,"lon":5.384829,"is_reserved":false,"is_disabled":false,"rental_uris":{"android":"levelo://app?vid=b4e7e8a5-429b-4fa9-b969-621639380068","ios":"levelo://app?vid=b4e7e8a5-429b-4fa9-b969-621639380068"},"vehicle_type_id":"4","last_reported":1700604398,"current_range_meters":10400,"station_id":"ce4bgt92rcd13ifvqcf0","pricing_plan_id":"free"},{"bike_id":"60b2ded0-d1a7-45db-9839-4414089d9055","system_id":"levelo_inurba_marseille","lat":43.313571,"lon":5.384829,"is_reserved":false,"is_disabled":false,"rental_uris":{"android":"levelo://app?vid=60b2ded0-d1a7-45db-9839-4414089d9055","ios":"levelo://app?vid=60b2ded0-d1a7-45db-9839-4414089d9055"},"vehicle_type_id":"4","last_reported":1700604398,"current_range_meters":28000,"station_id":"ce4bgt92rcd13ifvqcf0","pricing_plan_id":"free"},{"bike_id":"d44db64d-89f3-4e22-bc23-cdbd9c34a2b1","system_id":"levelo_inurba_marseille","lat":43.313571,"lon":5.384829,"is_reserved":false,"is_disabled":false,"rental_uris":{"android":"levelo://app?vid=d44db64d-89f3-4e22-bc23-cdbd9c34a2b1","ios":"levelo://app?vid=d44db64d-89f3-4e22-bc23-cdbd9c34a2b1"},"vehicle_type_id":"4","last_reported":1700604398,"current_range_meters":17600,"station_id":"ce4bgt92rcd13ifvqcf0","pricing_plan_id":"free"},{"bike_id":"75dbf869-f2eb-4cfe-aa7b-56dd6192ae47","system_id":"levelo_inurba_marseille","lat":43.299222,"lon":5.365554,"is_reserved":false,"is_disabled":false,"rental_uris":{"android":"levelo://app?vid=75dbf869-f2eb-4cfe-aa7b-56dd6192ae47","ios":"levelo://app?vid=75dbf869-f2eb-4cfe-aa7b-56dd6192ae47"},"vehicle_type_id":"4","last_reported":1700604398,"current_range_meters":0,"station_id":"ce4bgm92rcd13ifvqbr0","pricing_plan_id":"free"},{"bike_id":"c4d62be2-2c9f-411d-9f2f-5f836e1834e3","system_id":"levelo_inurba_marseille","lat":43.298433,"lon":5.362774,"is_reserved":false,"is_disabled":false,"rental_uris":{"android":"levelo://app?vid=c4d62be2-2c9f-411d-9f2f-5f836e1834e3","ios":"levelo://app?vid=c4d62be2-2c9f-411d-9f2f-5f836e1834e3"},"vehicle_type_id":"4","last_reported":1700604398,"current_range_meters":19600,"station_id":"ce4bgpp2rcd13ifvqc3g","pricing_plan_id":"free"},{"bike_id":"fba27455-dee1-4b26-877d-b9bd46efd025","system_id":"levelo_inurba_marseille","lat":43.311722,"lon":5.387247,"is_reserved":false,"is_disabled":false,"rental_uris":{"android":"levelo://app?vid=fba27455-dee1-4b26-877d-b9bd46efd025","ios":"levelo://app?vid=fba27455-dee1-4b26-877d-b9bd46efd025"},"vehicle_type_id":"4","last_reported":1700604398,"current_range_meters":16000,"station_id":"ce4bgv12rcd13ifvqcp0","pricing_plan_id":"free"},{"bike_id":"572a0db2-7ee4-49e3-bc13-bd5516e5135f","system_id":"levelo_inurba_marseille","lat":43.31173,"lon":5.38712,"is_reserved":false,"is_disabled":false,"rental_uris":{"android":"levelo://app?vid=572a0db2-7ee4-49e3-bc13-bd5516e5135f","ios":"levelo://app?vid=572a0db2-7ee4-49e3-bc13-bd5516e5135f"},"vehicle_type_id":"4","last_reported":1700604398,"current_range_meters":25200,"station_id":"ce4bgv12rcd13ifvqcp0","pricing_plan_id":"free"},{"bike_id":"71b2aab1-81c2-4370-a0ce-f83b4b3193a1","system_id":"levelo_inurba_marseille","lat":43.31173,"lon":5.38714,"is_reserved":false,"is_disabled":false,"rental_uris":{"android":"levelo://app?vid=71b2aab1-81c2-4370-a0ce-f83b4b3193a1","ios":"levelo://app?vid=71b2aab1-81c2-4370-a0ce-f83b4b3193a1"},"vehicle_type_id":"4","last_reported":1700604398,"current_range_meters":11600,"station_id":"ce4bgv12rcd13ifvqcp0","pricing_plan_id":"free"},{"bike_id":"fa9d0a30-5ff5-4db8-88cb-95e64695ccc9","system_id":"levelo_inurba_marseille","lat":43.311722,"lon":5.387247,"is_reserved":false,"is_disabled":false,"rental_uris":{"android":"levelo://app?vid=fa9d0a30-5ff5-4db8-88cb-95e64695ccc9","ios":"levelo://app?vid=fa9d0a30-5ff5-4db8-88cb-95e64695ccc9"},"vehicle_type_id":"4","last_reported":1700604398,"current_range_meters":10000,"station_id":"ce4bgv12rcd13ifvqcp0","pricing_plan_id":"free"},{"bike_id":"89b29b5a-d802-43db-962f-ffe92f87d98e","system_id":"levelo_inurba_marseille","lat":43.2996,"lon":5.37775,"is_reserved":false,"is_disabled":false,"rental_uris":{"android":"levelo://app?vid=89b29b5a-d802-43db-962f-ffe92f87d98e","ios":"levelo://app?vid=89b29b5a-d802-43db-962f-ffe92f87d98e"},"vehicle_type_id":"4","last_reported":1700604398,"current_range_meters":20400,"station_id":"","pricing_plan_id":"free"},{"bike_id":"02e5d19a-9e76-457a-89b5-da160f5a5ac3","system_id":"levelo_inurba_marseille","lat":43.322872,"lon":5.382756,"is_reserved":false,"is_disabled":false,"rental_uris":{"android":"levelo://app?vid=02e5d19a-9e76-457a-89b5-da160f5a5ac3","ios":"levelo://app?vid=02e5d19a-9e76-457a-89b5-da160f5a5ac3"},"vehicle_type_id":"4","last_reported":1700604398,"current_range_meters":18400,"station_id":"ce4bhr12rcd13ifvqhqg","pricing_plan_id":"free"},{"bike_id":"24256210-dd9b-4e06-8284-ac9b4520be6f","system_id":"levelo_inurba_marseille","lat":43.32827,"lon":5.36673,"is_reserved":false,"is_disabled":false,"rental_uris":{"android":"levelo://app?vid=24256210-dd9b-4e06-8284-ac9b4520be6f","ios":"levelo://app?vid=24256210-dd9b-4e06-8284-ac9b4520be6f"},"vehicle_type_id":"4","last_reported":1700604398,"current_range_meters":0,"station_id":"ce4bhs92rcd13ifvqi0g","pricing_plan_id":"free"},{"bike_id":"fb594123-193c-4ab2-aed3-df8f690c0992","system_id":"levelo_inurba_marseille","lat":43.2968,"lon":5.37291,"is_reserved":false,"is_disabled":false,"rental_uris":{"android":"levelo://app?vid=fb594123-193c-4ab2-aed3-df8f690c0992","ios":"levelo://app?vid=fb594123-193c-4ab2-aed3-df8f690c0992"},"vehicle_type_id":"4","last_reported":1700604398,"current_range_meters":26000,"station_id":"ce4bgk12rcd13ifvqbj0","pricing_plan_id":"free"},{"bike_id":"2e0636b9-27d4-4deb-94cf-9c8e48b5d7eb","system_id":"levelo_inurba_marseille","lat":43.29583,"lon":5.36795,"is_reserved":false,"is_disabled":false,"rental_uris":{"android":"levelo://app?vid=2e0636b9-27d4-4deb-94cf-9c8e48b5d7eb","ios":"levelo://app?vid=2e0636b9-27d4-4deb-94cf-9c8e48b5d7eb"},"vehicle_type_id":"4","last_reported":1700604398,"current_range_meters":16000,"station_id":"ce4bgph2rcd13ifvqc2g","pricing_plan_id":"free"},{"bike_id":"79752503-88c3-4b9f-8c4c-612bbba7a6fe","system_id":"levelo_inurba_marseille","lat":43.309589,"lon":5.390258,"is_reserved":false,"is_disabled":false,"rental_uris":{"android":"levelo://app?vid=79752503-88c3-4b9f-8c4c-612bbba7a6fe","ios":"levelo://app?vid=79752503-88c3-4b9f-8c4c-612bbba7a6fe"},"vehicle_type_id":"4","last_reported":1700604398,"current_range_meters":21600,"station_id":"ce4bgup2rcd13ifvqco0","pricing_plan_id":"free"},{"bike_id":"4cd1260a-e1f4-4a32-89d8-e927f052a29d","system_id":"levelo_inurba_marseille","lat":43.299028,"lon":5.381509,"is_reserved":false,"is_disabled":false,"rental_uris":{"android":"levelo://app?vid=4cd1260a-e1f4-4a32-89d8-e927f052a29d","ios":"levelo://app?vid=4cd1260a-e1f4-4a32-89d8-e927f052a29d"},"vehicle_type_id":"4","last_reported":1700604398,"current_range_meters":26800,"station_id":"ce4bgj12rcd13ifvqbc0","pricing_plan_id":"free"},{"bike_id":"3b090d5e-89d4-4e9a-98bc-2ca9ddcd46fc","system_id":"levelo_inurba_marseille","lat":43.299028,"lon":5.381509,"is_reserved":false,"is_disabled":false,"rental_uris":{"android":"levelo://app?vid=3b090d5e-89d4-4e9a-98bc-2ca9ddcd46fc","ios":"levelo://app?vid=3b090d5e-89d4-4e9a-98bc-2ca9ddcd46fc"},"vehicle_type_id":"4","last_reported":1700604398,"current_range_meters":800,"station_id":"ce4bgj12rcd13ifvqbc0","pricing_plan_id":"free"},{"bike_id":"9fb402a7-7a41-4473-81d2-1fec663a6035","system_id":"levelo_inurba_marseille","lat":43.305572,"lon":5.388687,"is_reserved":false,"is_disabled":false,"rental_uris":{"android":"levelo://app?vid=9fb402a7-7a41-4473-81d2-1fec663a6035","ios":"levelo://app?vid=9fb402a7-7a41-4473-81d2-1fec663a6035"},"vehicle_type_id":"4","last_reported":1700604398,"current_range_meters":28000,"station_id":"","pricing_plan_id":"free"},{"bike_id":"f5687d22-4f10-4dd8-8227-485b35abf619","system_id":"levelo_inurba_marseille","lat":43.317557,"lon":5.390173,"is_reserved":false,"is_disabled":false,"rental_uris":{"android":"levelo://app?vid=f5687d22-4f10-4dd8-8227-485b35abf619","ios":"levelo://app?vid=f5687d22-4f10-4dd8-8227-485b35abf619"},"vehicle_type_id":"4","last_reported":1700604398,"current_range_meters":23600,"station_id":"ce4bhqp2rcd13ifvqhng","pricing_plan_id":"free"},{"bike_id":"79dacdf6-a1f2-4eb4-8209-f5e43bda8af7","system_id":"levelo_inurba_marseille","lat":43.317557,"lon":5.390173,"is_reserved":false,"is_disabled":false,"rental_uris":{"android":"levelo://app?vid=79dacdf6-a1f2-4eb4-8209-f5e43bda8af7","ios":"levelo://app?vid=79dacdf6-a1f2-4eb4-8209-f5e43bda8af7"},"vehicle_type_id":"4","last_reported":1700604398,"current_range_meters":27200,"station_id":"ce4bhqp2rcd13ifvqhng","pricing_plan_id":"free"},{"bike_id":"53708ff1-1e30-4a05-9bb9-f9c63d91fb67","system_id":"levelo_inurba_marseille","lat":43.29785,"lon":5.38111,"is_reserved":false,"is_disabled":false,"rental_uris":{"android":"levelo://app?vid=53708ff1-1e30-4a05-9bb9-f9c63d91fb67","ios":"levelo://app?vid=53708ff1-1e30-4a05-9bb9-f9c63d91fb67"},"vehicle_type_id":"4","last_reported":1700604398,"current_range_meters":0,"station_id":"ce4bgip2rcd13ifvqbb0","pricing_plan_id":"free"},{"bike_id":"3059d4c1-3d42-4321-a339-0fea9a03ef82","system_id":"levelo_inurba_marseille","lat":43.328154,"lon":5.380034,"is_reserved":false,"is_disabled":false,"rental_uris":{"android":"levelo://app?vid=3059d4c1-3d42-4321-a339-0fea9a03ef82","ios":"levelo://app?vid=3059d4c1-3d42-4321-a339-0fea9a03ef82"},"vehicle_type_id":"4","last_reported":1700604398,"current_range_meters":0,"station_id":"","pricing_plan_id":"free"},{"bike_id":"740734f0-9713-4b8a-8810-5364172e83f2","system_id":"levelo_inurba_marseille","lat":43.297566,"lon":5.38101,"is_reserved":false,"is_disabled":false,"rental_uris":{"android":"levelo://app?vid=740734f0-9713-4b8a-8810-5364172e83f2","ios":"levelo://app?vid=740734f0-9713-4b8a-8810-5364172e83f2"},"vehicle_type_id":"4","last_reported":1700604398,"current_range_meters":0,"station_id":"","pricing_plan_id":"free"},{"bike_id":"6b621983-5e9e-42f7-990d-ad5a093820d2","system_id":"levelo_inurba_marseille","lat":43.293801,"lon":5.363066,"is_reserved":false,"is_disabled":false,"rental_uris":{"android":"levelo://app?vid=6b621983-5e9e-42f7-990d-ad5a093820d2","ios":"levelo://app?vid=6b621983-5e9e-42f7-990d-ad5a093820d2"},"vehicle_type_id":"4","last_reported":1700604398,"current_range_meters":14800,"station_id":"","pricing_plan_id":"free"},{"bike_id":"7d95fc07-5490-4155-81f0-4ed34361d11a","system_id":"levelo_inurba_marseille","lat":43.32366,"lon":5.38878,"is_reserved":false,"is_disabled":false,"rental_uris":{"android":"levelo://app?vid=7d95fc07-5490-4155-81f0-4ed34361d11a","ios":"levelo://app?vid=7d95fc07-5490-4155-81f0-4ed34361d11a"},"vehicle_type_id":"4","last_reported":1700604398,"current_range_meters":9200,"station_id":"ce4bhqp2rcd13ifvqhog","pricing_plan_id":"free"},{"bike_id":"a8278f43-2fa1-44bf-950c-bb3486f33882","system_id":"levelo_inurba_marseille","lat":43.32369,"lon":5.38879,"is_reserved":false,"is_disabled":false,"rental_uris":{"android":"levelo://app?vid=a8278f43-2fa1-44bf-950c-bb3486f33882","ios":"levelo://app?vid=a8278f43-2fa1-44bf-950c-bb3486f33882"},"vehicle_type_id":"4","last_reported":1700604398,"current_range_meters":0,"station_id":"ce4bhqp2rcd13ifvqhog","pricing_plan_id":"free"},{"bike_id":"4e4fe3b3-1944-48b4-b9da-2069b851783e","system_id":"levelo_inurba_marseille","lat":43.32367,"lon":5.388836,"is_reserved":false,"is_disabled":false,"rental_uris":{"android":"levelo://app?vid=4e4fe3b3-1944-48b4-b9da-2069b851783e","ios":"levelo://app?vid=4e4fe3b3-1944-48b4-b9da-2069b851783e"},"vehicle_type_id":"4","last_reported":1700604398,"current_range_meters":14400,"station_id":"ce4bhqp2rcd13ifvqhog","pricing_plan_id":"free"},{"bike_id":"f00193c2-5784-4660-955b-b60ffa09b900","system_id":"levelo_inurba_marseille","lat":43.32368,"lon":5.38881,"is_reserved":false,"is_disabled":false,"rental_uris":{"android":"levelo://app?vid=f00193c2-5784-4660-955b-b60ffa09b900","ios":"levelo://app?vid=f00193c2-5784-4660-955b-b60ffa09b900"},"vehicle_type_id":"4","last_reported":1700604398,"current_range_meters":0,"station_id":"ce4bhqp2rcd13ifvqhog","pricing_plan_id":"free"},{"bike_id":"1bbc2d9f-5c4d-493a-9b7a-c6f432a37c58","system_id":"levelo_inurba_marseille","lat":43.32367,"lon":5.38885,"is_reserved":false,"is_disabled":false,"rental_uris":{"android":"levelo://app?vid=1bbc2d9f-5c4d-493a-9b7a-c6f432a37c58","ios":"levelo://app?vid=1bbc2d9f-5c4d-493a-9b7a-c6f432a37c58"},"vehicle_type_id":"4","last_reported":1700604398,"current_range_meters":1600,"station_id":"ce4bhqp2rcd13ifvqhog","pricing_plan_id":"free"},{"bike_id":"9848a84a-e002-4f14-90ee-18e4e6536af8","system_id":"levelo_inurba_marseille","lat":43.32366,"lon":5.38887,"is_reserved":false,"is_disabled":false,"rental_uris":{"android":"levelo://app?vid=9848a84a-e002-4f14-90ee-18e4e6536af8","ios":"levelo://app?vid=9848a84a-e002-4f14-90ee-18e4e6536af8"},"vehicle_type_id":"4","last_reported":1700604398,"current_range_meters":0,"station_id":"ce4bhqp2rcd13ifvqhog","pricing_plan_id":"free"},{"bike_id":"18d12119-6832-40e8-a839-85af965c5a22","system_id":"levelo_inurba_marseille","lat":43.32369,"lon":5.38885,"is_reserved":false,"is_disabled":false,"rental_uris":{"android":"levelo://app?vid=18d12119-6832-40e8-a839-85af965c5a22","ios":"levelo://app?vid=18d12119-6832-40e8-a839-85af965c5a22"},"vehicle_type_id":"4","last_reported":1700604398,"current_range_meters":0,"station_id":"ce4bhqp2rcd13ifvqhog","pricing_plan_id":"free"},{"bike_id":"d08f04bf-d1cb-49fb-9aa7-04e7f7676b3c","system_id":"levelo_inurba_marseille","lat":43.32337,"lon":5.38974,"is_reserved":false,"is_disabled":false,"rental_uris":{"android":"levelo://app?vid=d08f04bf-d1cb-49fb-9aa7-04e7f7676b3c","ios":"levelo://app?vid=d08f04bf-d1cb-49fb-9aa7-04e7f7676b3c"},"vehicle_type_id":"4","last_reported":1700604398,"current_range_meters":0,"station_id":"","pricing_plan_id":"free"},{"bike_id":"55c6d86c-99cf-4404-bdbb-45b03c40755b","system_id":"levelo_inurba_marseille","lat":43.293249,"lon":5.371578,"is_reserved":false,"is_disabled":false,"rental_uris":{"android":"levelo://app?vid=55c6d86c-99cf-4404-bdbb-45b03c40755b","ios":"levelo://app?vid=55c6d86c-99cf-4404-bdbb-45b03c40755b"},"vehicle_type_id":"4","last_reported":1700604398,"current_range_meters":8800,"station_id":"ce4bgh92rcd13ifvqb40","pricing_plan_id":"free"},{"bike_id":"01611403-7e34-40ce-969a-9047d825448d","system_id":"levelo_inurba_marseille","lat":43.305994,"lon":5.393687,"is_reserved":false,"is_disabled":false,"rental_uris":{"android":"levelo://app?vid=01611403-7e34-40ce-969a-9047d825448d","ios":"levelo://app?vid=01611403-7e34-40ce-969a-9047d825448d"},"vehicle_type_id":"4","last_reported":1700604398,"current_range_meters":24800,"station_id":"ce4bh0p2rcd13ifvqd80","pricing_plan_id":"free"},{"bike_id":"0ecca30a-19a0-4244-bbb6-5a36d12f1055","system_id":"levelo_inurba_marseille","lat":43.30306,"lon":5.39202,"is_reserved":false,"is_disabled":false,"rental_uris":{"android":"levelo://app?vid=0ecca30a-19a0-4244-bbb6-5a36d12f1055","ios":"levelo://app?vid=0ecca30a-19a0-4244-bbb6-5a36d12f1055"},"vehicle_type_id":"4","last_reported":1700604398,"current_range_meters":0,"station_id":"ce4bgkh2rcd13ifvqbk0","pricing_plan_id":"free"},{"bike_id":"594807c5-8def-41df-9c35-ef565df59c66","system_id":"levelo_inurba_marseille","lat":43.2936,"lon":5.37835,"is_reserved":false,"is_disabled":false,"rental_uris":{"android":"levelo://app?vid=594807c5-8def-41df-9c35-ef565df59c66","ios":"levelo://app?vid=594807c5-8def-41df-9c35-ef565df59c66"},"vehicle_type_id":"4","last_reported":1700604398,"current_range_meters":8000,"station_id":"ce4bgjh2rcd13ifvqbf0","pricing_plan_id":"free"},{"bike_id":"6d28f2b0-860d-4374-9b43-b7a33baa6c6d","system_id":"levelo_inurba_marseille","lat":43.302992,"lon":5.392136,"is_reserved":false,"is_disabled":false,"rental_uris":{"android":"levelo://app?vid=6d28f2b0-860d-4374-9b43-b7a33baa6c6d","ios":"levelo://app?vid=6d28f2b0-860d-4374-9b43-b7a33baa6c6d"},"vehicle_type_id":"4","last_reported":1700604398,"current_range_meters":0,"station_id":"ce4bgkh2rcd13ifvqbk0","pricing_plan_id":"free"},{"bike_id":"5a56b82b-8092-47e0-8af5-b214a5291254","system_id":"levelo_inurba_marseille","lat":43.30087,"lon":5.39069,"is_reserved":false,"is_disabled":false,"rental_uris":{"android":"levelo://app?vid=5a56b82b-8092-47e0-8af5-b214a5291254","ios":"levelo://app?vid=5a56b82b-8092-47e0-8af5-b214a5291254"},"vehicle_type_id":"4","last_reported":1700604398,"current_range_meters":23200,"station_id":"ce4bh192rcd13ifvqdb0","pricing_plan_id":"free"},{"bike_id":"64668e37-95c5-4917-8d8d-f9d5721ec48f","system_id":"levelo_inurba_marseille","lat":43.300852,"lon":5.390859,"is_reserved":false,"is_disabled":false,"rental_uris":{"android":"levelo://app?vid=64668e37-95c5-4917-8d8d-f9d5721ec48f","ios":"levelo://app?vid=64668e37-95c5-4917-8d8d-f9d5721ec48f"},"vehicle_type_id":"4","last_reported":1700604398,"current_range_meters":400,"station_id":"ce4bh192rcd13ifvqdb0","pricing_plan_id":"free"},{"bike_id":"cb33dfcd-9a60-46f4-871d-6659c3334182","system_id":"levelo_inurba_marseille","lat":43.30977,"lon":5.3962,"is_reserved":false,"is_disabled":false,"rental_uris":{"android":"levelo://app?vid=cb33dfcd-9a60-46f4-871d-6659c3334182","ios":"levelo://app?vid=cb33dfcd-9a60-46f4-871d-6659c3334182"},"vehicle_type_id":"4","last_reported":1700604398,"current_range_meters":10800,"station_id":"","pricing_plan_id":"free"},{"bike_id":"db0adf43-bf36-4b36-9fae-b882b22583a6","system_id":"levelo_inurba_marseille","lat":43.309038,"lon":5.396546,"is_reserved":false,"is_disabled":false,"rental_uris":{"android":"levelo://app?vid=db0adf43-bf36-4b36-9fae-b882b22583a6","ios":"levelo://app?vid=db0adf43-bf36-4b36-9fae-b882b22583a6"},"vehicle_type_id":"4","last_reported":1700604398,"current_range_meters":31200,"station_id":"ce4bh012rcd13ifvqcv0","pricing_plan_id":"free"},{"bike_id":"6033fabe-deb9-4d9c-b84a-7b55cb07c336","system_id":"levelo_inurba_marseille","lat":43.309038,"lon":5.396546,"is_reserved":false,"is_disabled":false,"rental_uris":{"android":"levelo://app?vid=6033fabe-deb9-4d9c-b84a-7b55cb07c336","ios":"levelo://app?vid=6033fabe-deb9-4d9c-b84a-7b55cb07c336"},"vehicle_type_id":"4","last_reported":1700604398,"current_range_meters":31200,"station_id":"ce4bh012rcd13ifvqcv0","pricing_plan_id":"free"},{"bike_id":"fbfed483-aabb-48b3-a2ba-6b821d7fe5c9","system_id":"levelo_inurba_marseille","lat":43.309038,"lon":5.396546,"is_reserved":false,"is_disabled":false,"rental_uris":{"android":"levelo://app?vid=fbfed483-aabb-48b3-a2ba-6b821d7fe5c9","ios":"levelo://app?vid=fbfed483-aabb-48b3-a2ba-6b821d7fe5c9"},"vehicle_type_id":"4","last_reported":1700604398,"current_range_meters":31200,"station_id":"ce4bh012rcd13ifvqcv0","pricing_plan_id":"free"},{"bike_id":"f92a19e5-0f90-44dc-a5c5-efc441e3ba16","system_id":"levelo_inurba_marseille","lat":43.309038,"lon":5.396546,"is_reserved":false,"is_disabled":false,"rental_uris":{"android":"levelo://app?vid=f92a19e5-0f90-44dc-a5c5-efc441e3ba16","ios":"levelo://app?vid=f92a19e5-0f90-44dc-a5c5-efc441e3ba16"},"vehicle_type_id":"4","last_reported":1700604398,"current_range_meters":21600,"station_id":"ce4bh012rcd13ifvqcv0","pricing_plan_id":"free"},{"bike_id":"56938589-587c-46c8-b9ae-1bb243dd044e","system_id":"levelo_inurba_marseille","lat":43.309047,"lon":5.396551,"is_reserved":false,"is_disabled":false,"rental_uris":{"android":"levelo://app?vid=56938589-587c-46c8-b9ae-1bb243dd044e","ios":"levelo://app?vid=56938589-587c-46c8-b9ae-1bb243dd044e"},"vehicle_type_id":"4","last_reported":1700604398,"current_range_meters":28800,"station_id":"ce4bh012rcd13ifvqcv0","pricing_plan_id":"free"},{"bike_id":"6d84f195-20fd-4657-b77a-d13c1b7a9220","system_id":"levelo_inurba_marseille","lat":43.309047,"lon":5.396551,"is_reserved":false,"is_disabled":false,"rental_uris":{"android":"levelo://app?vid=6d84f195-20fd-4657-b77a-d13c1b7a9220","ios":"levelo://app?vid=6d84f195-20fd-4657-b77a-d13c1b7a9220"},"vehicle_type_id":"4","last_reported":1700604398,"current_range_meters":31200,"station_id":"ce4bh012rcd13ifvqcv0","pricing_plan_id":"free"},{"bike_id":"eca9d464-6432-40fc-a29a-36bcf5ef2c45","system_id":"levelo_inurba_marseille","lat":43.309038,"lon":5.396546,"is_reserved":false,"is_disabled":false,"rental_uris":{"android":"levelo://app?vid=eca9d464-6432-40fc-a29a-36bcf5ef2c45","ios":"levelo://app?vid=eca9d464-6432-40fc-a29a-36bcf5ef2c45"},"vehicle_type_id":"4","last_reported":1700604398,"current_range_meters":30800,"station_id":"ce4bh012rcd13ifvqcv0","pricing_plan_id":"free"},{"bike_id":"96bad10b-4446-46c8-825f-dc225d0f8e25","system_id":"levelo_inurba_marseille","lat":43.309038,"lon":5.396546,"is_reserved":false,"is_disabled":false,"rental_uris":{"android":"levelo://app?vid=96bad10b-4446-46c8-825f-dc225d0f8e25","ios":"levelo://app?vid=96bad10b-4446-46c8-825f-dc225d0f8e25"},"vehicle_type_id":"4","last_reported":1700604398,"current_range_meters":31200,"station_id":"ce4bh012rcd13ifvqcv0","pricing_plan_id":"free"},{"bike_id":"1d7e09cf-8b88-45d4-9191-3b2fcad601f7","system_id":"levelo_inurba_marseille","lat":43.309047,"lon":5.396551,"is_reserved":false,"is_disabled":false,"rental_uris":{"android":"levelo://app?vid=1d7e09cf-8b88-45d4-9191-3b2fcad601f7","ios":"levelo://app?vid=1d7e09cf-8b88-45d4-9191-3b2fcad601f7"},"vehicle_type_id":"4","last_reported":1700604398,"current_range_meters":20400,"station_id":"ce4bh012rcd13ifvqcv0","pricing_plan_id":"free"},{"bike_id":"39afb53c-6587-42d7-a92c-37a798f86640","system_id":"levelo_inurba_marseille","lat":43.309038,"lon":5.396546,"is_reserved":false,"is_disabled":false,"rental_uris":{"android":"levelo://app?vid=39afb53c-6587-42d7-a92c-37a798f86640","ios":"levelo://app?vid=39afb53c-6587-42d7-a92c-37a798f86640"},"vehicle_type_id":"4","last_reported":1700604398,"current_range_meters":17600,"station_id":"ce4bh012rcd13ifvqcv0","pricing_plan_id":"free"},{"bike_id":"1d10a1b1-d55f-4279-928a-9c6858f32ca9","system_id":"levelo_inurba_marseille","lat":43.33231,"lon":5.380687,"is_reserved":false,"is_disabled":false,"rental_uris":{"android":"levelo://app?vid=1d10a1b1-d55f-4279-928a-9c6858f32ca9","ios":"levelo://app?vid=1d10a1b1-d55f-4279-928a-9c6858f32ca9"},"vehicle_type_id":"4","last_reported":1700604398,"current_range_meters":2000,"station_id":"","pricing_plan_id":"free"},{"bike_id":"66058901-7a57-481e-8d94-1cf150f1c151","system_id":"levelo_inurba_marseille","lat":43.297612,"lon":5.389722,"is_reserved":false,"is_disabled":false,"rental_uris":{"android":"levelo://app?vid=66058901-7a57-481e-8d94-1cf150f1c151","ios":"levelo://app?vid=66058901-7a57-481e-8d94-1cf150f1c151"},"vehicle_type_id":"4","last_reported":1700604398,"current_range_meters":14400,"station_id":"","pricing_plan_id":"free"},{"bike_id":"6819c6bb-a582-4c25-83a0-c33dc968d8b7","system_id":"levelo_inurba_marseille","lat":43.290631,"lon":5.359244,"is_reserved":false,"is_disabled":false,"rental_uris":{"android":"levelo://app?vid=6819c6bb-a582-4c25-83a0-c33dc968d8b7","ios":"levelo://app?vid=6819c6bb-a582-4c25-83a0-c33dc968d8b7"},"vehicle_type_id":"4","last_reported":1700604398,"current_range_meters":20400,"station_id":"ce4bha92rcd13ifvqeg0","pricing_plan_id":"free"},{"bike_id":"b55ca6a5-b9a1-45fa-96b3-c6b1ec5ab0ab","system_id":"levelo_inurba_marseille","lat":43.294162,"lon":5.386292,"is_reserved":false,"is_disabled":false,"rental_uris":{"android":"levelo://app?vid=b55ca6a5-b9a1-45fa-96b3-c6b1ec5ab0ab","ios":"levelo://app?vid=b55ca6a5-b9a1-45fa-96b3-c6b1ec5ab0ab"},"vehicle_type_id":"4","last_reported":1700604398,"current_range_meters":24400,"station_id":"ce4bh2h2rcd13ifvqdh0","pricing_plan_id":"free"},{"bike_id":"5ce87cfa-c1b1-40e5-a452-e503d1fcba2a","system_id":"levelo_inurba_marseille","lat":43.289184,"lon":5.366408,"is_reserved":false,"is_disabled":false,"rental_uris":{"android":"levelo://app?vid=5ce87cfa-c1b1-40e5-a452-e503d1fcba2a","ios":"levelo://app?vid=5ce87cfa-c1b1-40e5-a452-e503d1fcba2a"},"vehicle_type_id":"4","last_reported":1700604398,"current_range_meters":10400,"station_id":"ce4bhap2rcd13ifvqek0","pricing_plan_id":"free"},{"bike_id":"f71bdbbc-1be1-4d52-b4a2-d5aefb40634e","system_id":"levelo_inurba_marseille","lat":43.289184,"lon":5.366408,"is_reserved":false,"is_disabled":false,"rental_uris":{"android":"levelo://app?vid=f71bdbbc-1be1-4d52-b4a2-d5aefb40634e","ios":"levelo://app?vid=f71bdbbc-1be1-4d52-b4a2-d5aefb40634e"},"vehicle_type_id":"4","last_reported":1700604398,"current_range_meters":11200,"station_id":"ce4bhap2rcd13ifvqek0","pricing_plan_id":"free"},{"bike_id":"d8be73c0-672b-4461-be5b-c63a50657c95","system_id":"levelo_inurba_marseille","lat":43.304296,"lon":5.397513,"is_reserved":false,"is_disabled":false,"rental_uris":{"android":"levelo://app?vid=d8be73c0-672b-4461-be5b-c63a50657c95","ios":"levelo://app?vid=d8be73c0-672b-4461-be5b-c63a50657c95"},"vehicle_type_id":"4","last_reported":1700604398,"current_range_meters":12400,"station_id":"ce4bh092rcd13ifvqd20","pricing_plan_id":"free"},{"bike_id":"9cf0aa2c-b555-4788-8f5d-129a418516a7","system_id":"levelo_inurba_marseille","lat":43.304296,"lon":5.397513,"is_reserved":false,"is_disabled":false,"rental_uris":{"android":"levelo://app?vid=9cf0aa2c-b555-4788-8f5d-129a418516a7","ios":"levelo://app?vid=9cf0aa2c-b555-4788-8f5d-129a418516a7"},"vehicle_type_id":"4","last_reported":1700604398,"current_range_meters":3200,"station_id":"ce4bh092rcd13ifvqd20","pricing_plan_id":"free"},{"bike_id":"3d17e0e9-6f81-49be-ac3d-ef480f488b6c","system_id":"levelo_inurba_marseille","lat":43.330442,"lon":5.389148,"is_reserved":false,"is_disabled":false,"rental_uris":{"android":"levelo://app?vid=3d17e0e9-6f81-49be-ac3d-ef480f488b6c","ios":"levelo://app?vid=3d17e0e9-6f81-49be-ac3d-ef480f488b6c"},"vehicle_type_id":"4","last_reported":1700604398,"current_range_meters":0,"station_id":"ce4bhr92rcd13ifvqhrg","pricing_plan_id":"free"},{"bike_id":"c0691913-4d43-42af-9fa5-975aa1a8621b","system_id":"levelo_inurba_marseille","lat":43.290927,"lon":5.38155,"is_reserved":false,"is_disabled":false,"rental_uris":{"android":"levelo://app?vid=c0691913-4d43-42af-9fa5-975aa1a8621b","ios":"levelo://app?vid=c0691913-4d43-42af-9fa5-975aa1a8621b"},"vehicle_type_id":"4","last_reported":1700604398,"current_range_meters":0,"station_id":"ce4bh512rcd13ifvqe2g","pricing_plan_id":"free"},{"bike_id":"1cde64dd-3df6-4cb7-8f9f-e91ddab09a8b","system_id":"levelo_inurba_marseille","lat":43.295169,"lon":5.390426,"is_reserved":false,"is_disabled":false,"rental_uris":{"android":"levelo://app?vid=1cde64dd-3df6-4cb7-8f9f-e91ddab09a8b","ios":"levelo://app?vid=1cde64dd-3df6-4cb7-8f9f-e91ddab09a8b"},"vehicle_type_id":"4","last_reported":1700604398,"current_range_meters":2000,"station_id":"ce4bh3p2rcd13ifvqdp0","pricing_plan_id":"free"},{"bike_id":"56ae1ae3-2366-4a70-8b2d-f5360d93553f","system_id":"levelo_inurba_marseille","lat":43.28856,"lon":5.358371,"is_reserved":false,"is_disabled":false,"rental_uris":{"android":"levelo://app?vid=56ae1ae3-2366-4a70-8b2d-f5360d93553f","ios":"levelo://app?vid=56ae1ae3-2366-4a70-8b2d-f5360d93553f"},"vehicle_type_id":"4","last_reported":1700604398,"current_range_meters":24800,"station_id":"ce4bhb12rcd13ifvqem0","pricing_plan_id":"free"},{"bike_id":"aad9a792-6976-4183-919a-aef819ff2e25","system_id":"levelo_inurba_marseille","lat":43.31251,"lon":5.40162,"is_reserved":false,"is_disabled":false,"rental_uris":{"android":"levelo://app?vid=aad9a792-6976-4183-919a-aef819ff2e25","ios":"levelo://app?vid=aad9a792-6976-4183-919a-aef819ff2e25"},"vehicle_type_id":"4","last_reported":1700604398,"current_range_meters":2000,"station_id":"","pricing_plan_id":"free"},{"bike_id":"345b42fd-1851-433c-89b7-a66455945f21","system_id":"levelo_inurba_marseille","lat":43.30926,"lon":5.40142,"is_reserved":false,"is_disabled":false,"rental_uris":{"android":"levelo://app?vid=345b42fd-1851-433c-89b7-a66455945f21","ios":"levelo://app?vid=345b42fd-1851-433c-89b7-a66455945f21"},"vehicle_type_id":"4","last_reported":1700604398,"current_range_meters":30400,"station_id":"ce4bgvp2rcd13ifvqct0","pricing_plan_id":"free"},{"bike_id":"a5f30c18-250c-4a83-a23e-a923967d5bb2","system_id":"levelo_inurba_marseille","lat":43.309285,"lon":5.401435,"is_reserved":false,"is_disabled":false,"rental_uris":{"android":"levelo://app?vid=a5f30c18-250c-4a83-a23e-a923967d5bb2","ios":"levelo://app?vid=a5f30c18-250c-4a83-a23e-a923967d5bb2"},"vehicle_type_id":"4","last_reported":1700604398,"current_range_meters":28400,"station_id":"ce4bgvp2rcd13ifvqct0","pricing_plan_id":"free"},{"bike_id":"4166f851-581a-4a7f-944e-d13829034fa9","system_id":"levelo_inurba_marseille","lat":43.309371,"lon":5.401449,"is_reserved":false,"is_disabled":false,"rental_uris":{"android":"levelo://app?vid=4166f851-581a-4a7f-944e-d13829034fa9","ios":"levelo://app?vid=4166f851-581a-4a7f-944e-d13829034fa9"},"vehicle_type_id":"4","last_reported":1700604398,"current_range_meters":31200,"station_id":"ce4bgvp2rcd13ifvqct0","pricing_plan_id":"free"},{"bike_id":"f0e45f3a-3a31-4b84-b7f2-770281ff8b6b","system_id":"levelo_inurba_marseille","lat":43.309079,"lon":5.401573,"is_reserved":false,"is_disabled":false,"rental_uris":{"android":"levelo://app?vid=f0e45f3a-3a31-4b84-b7f2-770281ff8b6b","ios":"levelo://app?vid=f0e45f3a-3a31-4b84-b7f2-770281ff8b6b"},"vehicle_type_id":"4","last_reported":1700604398,"current_range_meters":0,"station_id":"","pricing_plan_id":"free"},{"bike_id":"4c0cd722-0125-473a-9a4c-d36bf5346891","system_id":"levelo_inurba_marseille","lat":43.30644,"lon":5.40086,"is_reserved":false,"is_disabled":false,"rental_uris":{"android":"levelo://app?vid=4c0cd722-0125-473a-9a4c-d36bf5346891","ios":"levelo://app?vid=4c0cd722-0125-473a-9a4c-d36bf5346891"},"vehicle_type_id":"4","last_reported":1700604398,"current_range_meters":24400,"station_id":"ce4bh112rcd13ifvqda0","pricing_plan_id":"free"},{"bike_id":"34d79e5a-dca6-41fd-92e0-56a8fdd76781","system_id":"levelo_inurba_marseille","lat":43.306412,"lon":5.401035,"is_reserved":false,"is_disabled":false,"rental_uris":{"android":"levelo://app?vid=34d79e5a-dca6-41fd-92e0-56a8fdd76781","ios":"levelo://app?vid=34d79e5a-dca6-41fd-92e0-56a8fdd76781"},"vehicle_type_id":"4","last_reported":1700604398,"current_range_meters":28000,"station_id":"ce4bh112rcd13ifvqda0","pricing_plan_id":"free"},{"bike_id":"29b4743a-25f5-4cbe-9722-f60c772008ce","system_id":"levelo_inurba_marseille","lat":43.306368,"lon":5.40088,"is_reserved":false,"is_disabled":false,"rental_uris":{"android":"levelo://app?vid=29b4743a-25f5-4cbe-9722-f60c772008ce","ios":"levelo://app?vid=29b4743a-25f5-4cbe-9722-f60c772008ce"},"vehicle_type_id":"4","last_reported":1700604398,"current_range_meters":800,"station_id":"ce4bh112rcd13ifvqda0","pricing_plan_id":"free"},{"bike_id":"794e65da-cfad-45b6-b3fc-4a90fb21fd3f","system_id":"levelo_inurba_marseille","lat":43.30634,"lon":5.4009,"is_reserved":false,"is_disabled":false,"rental_uris":{"android":"levelo://app?vid=794e65da-cfad-45b6-b3fc-4a90fb21fd3f","ios":"levelo://app?vid=794e65da-cfad-45b6-b3fc-4a90fb21fd3f"},"vehicle_type_id":"4","last_reported":1700604398,"current_range_meters":15600,"station_id":"ce4bh112rcd13ifvqda0","pricing_plan_id":"free"},{"bike_id":"83de3c75-a46c-431d-b09b-e0c1e6d4bfa1","system_id":"levelo_inurba_marseille","lat":43.30645,"lon":5.40095,"is_reserved":false,"is_disabled":false,"rental_uris":{"android":"levelo://app?vid=83de3c75-a46c-431d-b09b-e0c1e6d4bfa1","ios":"levelo://app?vid=83de3c75-a46c-431d-b09b-e0c1e6d4bfa1"},"vehicle_type_id":"4","last_reported":1700604398,"current_range_meters":13600,"station_id":"ce4bh112rcd13ifvqda0","pricing_plan_id":"free"},{"bike_id":"b4b62222-1470-409f-9911-0b9f31add303","system_id":"levelo_inurba_marseille","lat":43.306412,"lon":5.401035,"is_reserved":false,"is_disabled":false,"rental_uris":{"android":"levelo://app?vid=b4b62222-1470-409f-9911-0b9f31add303","ios":"levelo://app?vid=b4b62222-1470-409f-9911-0b9f31add303"},"vehicle_type_id":"4","last_reported":1700604398,"current_range_meters":24400,"station_id":"ce4bh112rcd13ifvqda0","pricing_plan_id":"free"},{"bike_id":"3e8cb82c-83a5-413f-8d1d-f5d344d41e78","system_id":"levelo_inurba_marseille","lat":43.30651,"lon":5.40103,"is_reserved":false,"is_disabled":false,"rental_uris":{"android":"levelo://app?vid=3e8cb82c-83a5-413f-8d1d-f5d344d41e78","ios":"levelo://app?vid=3e8cb82c-83a5-413f-8d1d-f5d344d41e78"},"vehicle_type_id":"4","last_reported":1700604398,"current_range_meters":24000,"station_id":"","pricing_plan_id":"free"},{"bike_id":"1e5f9b7c-ce69-4d52-80d0-edbd66d45f4f","system_id":"levelo_inurba_marseille","lat":43.28727,"lon":5.36078,"is_reserved":false,"is_disabled":false,"rental_uris":{"android":"levelo://app?vid=1e5f9b7c-ce69-4d52-80d0-edbd66d45f4f","ios":"levelo://app?vid=1e5f9b7c-ce69-4d52-80d0-edbd66d45f4f"},"vehicle_type_id":"4","last_reported":1700604398,"current_range_meters":30400,"station_id":"cki0cbj6b192h4jlfktg","pricing_plan_id":"free"},{"bike_id":"70bf1fd8-c051-4161-a10e-c760b71856cd","system_id":"levelo_inurba_marseille","lat":43.287241,"lon":5.360921,"is_reserved":false,"is_disabled":false,"rental_uris":{"android":"levelo://app?vid=70bf1fd8-c051-4161-a10e-c760b71856cd","ios":"levelo://app?vid=70bf1fd8-c051-4161-a10e-c760b71856cd"},"vehicle_type_id":"4","last_reported":1700604398,"current_range_meters":22000,"station_id":"cki0cbj6b192h4jlfktg","pricing_plan_id":"free"},{"bike_id":"06838c61-dff1-492f-9e47-b56de5108922","system_id":"levelo_inurba_marseille","lat":43.28722,"lon":5.36098,"is_reserved":false,"is_disabled":false,"rental_uris":{"android":"levelo://app?vid=06838c61-dff1-492f-9e47-b56de5108922","ios":"levelo://app?vid=06838c61-dff1-492f-9e47-b56de5108922"},"vehicle_type_id":"4","last_reported":1700604398,"current_range_meters":6800,"station_id":"cki0cbj6b192h4jlfktg","pricing_plan_id":"free"},{"bike_id":"5aa8ff98-98bc-4b95-a8fc-ba24aab95f38","system_id":"levelo_inurba_marseille","lat":43.287236,"lon":5.36079,"is_reserved":false,"is_disabled":false,"rental_uris":{"android":"levelo://app?vid=5aa8ff98-98bc-4b95-a8fc-ba24aab95f38","ios":"levelo://app?vid=5aa8ff98-98bc-4b95-a8fc-ba24aab95f38"},"vehicle_type_id":"4","last_reported":1700604398,"current_range_meters":8800,"station_id":"cki0cbj6b192h4jlfktg","pricing_plan_id":"free"},{"bike_id":"39708262-1435-437e-ad5e-1d060b4fbaa0","system_id":"levelo_inurba_marseille","lat":43.287203,"lon":5.360817,"is_reserved":false,"is_disabled":false,"rental_uris":{"android":"levelo://app?vid=39708262-1435-437e-ad5e-1d060b4fbaa0","ios":"levelo://app?vid=39708262-1435-437e-ad5e-1d060b4fbaa0"},"vehicle_type_id":"4","last_reported":1700604398,"current_range_meters":4800,"station_id":"cki0cbj6b192h4jlfktg","pricing_plan_id":"free"},{"bike_id":"54bafbc3-ecf7-48c0-a614-f8ace818ec52","system_id":"levelo_inurba_marseille","lat":43.287187,"lon":5.360901,"is_reserved":false,"is_disabled":false,"rental_uris":{"android":"levelo://app?vid=54bafbc3-ecf7-48c0-a614-f8ace818ec52","ios":"levelo://app?vid=54bafbc3-ecf7-48c0-a614-f8ace818ec52"},"vehicle_type_id":"4","last_reported":1700604398,"current_range_meters":4000,"station_id":"cki0cbj6b192h4jlfktg","pricing_plan_id":"free"},{"bike_id":"768feafc-f143-41fb-af29-de32a72b0505","system_id":"levelo_inurba_marseille","lat":43.298681,"lon":5.397225,"is_reserved":false,"is_disabled":false,"rental_uris":{"android":"levelo://app?vid=768feafc-f143-41fb-af29-de32a72b0505","ios":"levelo://app?vid=768feafc-f143-41fb-af29-de32a72b0505"},"vehicle_type_id":"4","last_reported":1700604398,"current_range_meters":3200,"station_id":"ce4bh0h2rcd13ifvqd50","pricing_plan_id":"free"},{"bike_id":"7570e3da-651d-475a-8350-99e7c14bdbd0","system_id":"levelo_inurba_marseille","lat":43.298681,"lon":5.397225,"is_reserved":false,"is_disabled":false,"rental_uris":{"android":"levelo://app?vid=7570e3da-651d-475a-8350-99e7c14bdbd0","ios":"levelo://app?vid=7570e3da-651d-475a-8350-99e7c14bdbd0"},"vehicle_type_id":"4","last_reported":1700604398,"current_range_meters":13200,"station_id":"ce4bh0h2rcd13ifvqd50","pricing_plan_id":"free"},{"bike_id":"af911b3b-e063-44b1-b42e-59cc6a5ca4ac","system_id":"levelo_inurba_marseille","lat":43.298681,"lon":5.397225,"is_reserved":false,"is_disabled":false,"rental_uris":{"android":"levelo://app?vid=af911b3b-e063-44b1-b42e-59cc6a5ca4ac","ios":"levelo://app?vid=af911b3b-e063-44b1-b42e-59cc6a5ca4ac"},"vehicle_type_id":"4","last_reported":1700604398,"current_range_meters":0,"station_id":"ce4bh0h2rcd13ifvqd50","pricing_plan_id":"free"},{"bike_id":"e83324f8-e9c7-4b22-aa7f-026221ad8a14","system_id":"levelo_inurba_marseille","lat":43.298681,"lon":5.397225,"is_reserved":false,"is_disabled":false,"rental_uris":{"android":"levelo://app?vid=e83324f8-e9c7-4b22-aa7f-026221ad8a14","ios":"levelo://app?vid=e83324f8-e9c7-4b22-aa7f-026221ad8a14"},"vehicle_type_id":"4","last_reported":1700604398,"current_range_meters":24800,"station_id":"ce4bh0h2rcd13ifvqd50","pricing_plan_id":"free"},{"bike_id":"22ea8213-4d84-400c-aece-3f6fd6226cb1","system_id":"levelo_inurba_marseille","lat":43.286591,"lon":5.363346,"is_reserved":false,"is_disabled":false,"rental_uris":{"android":"levelo://app?vid=22ea8213-4d84-400c-aece-3f6fd6226cb1","ios":"levelo://app?vid=22ea8213-4d84-400c-aece-3f6fd6226cb1"},"vehicle_type_id":"4","last_reported":1700604398,"current_range_meters":23600,"station_id":"ce4bhah2rcd13ifvqej0","pricing_plan_id":"free"},{"bike_id":"6977911e-4586-4dfe-9827-04286aab24fd","system_id":"levelo_inurba_marseille","lat":43.2988,"lon":5.397415,"is_reserved":false,"is_disabled":false,"rental_uris":{"android":"levelo://app?vid=6977911e-4586-4dfe-9827-04286aab24fd","ios":"levelo://app?vid=6977911e-4586-4dfe-9827-04286aab24fd"},"vehicle_type_id":"4","last_reported":1700604398,"current_range_meters":31200,"station_id":"ce4bh0h2rcd13ifvqd50","pricing_plan_id":"free"},{"bike_id":"d7785c20-5e3b-48aa-a0ff-7081a0d46569","system_id":"levelo_inurba_marseille","lat":43.286591,"lon":5.363346,"is_reserved":false,"is_disabled":false,"rental_uris":{"android":"levelo://app?vid=d7785c20-5e3b-48aa-a0ff-7081a0d46569","ios":"levelo://app?vid=d7785c20-5e3b-48aa-a0ff-7081a0d46569"},"vehicle_type_id":"4","last_reported":1700604398,"current_range_meters":11200,"station_id":"ce4bhah2rcd13ifvqej0","pricing_plan_id":"free"},{"bike_id":"34b59785-c597-4fb5-94fe-0a149b62522d","system_id":"levelo_inurba_marseille","lat":43.286591,"lon":5.363346,"is_reserved":false,"is_disabled":false,"rental_uris":{"android":"levelo://app?vid=34b59785-c597-4fb5-94fe-0a149b62522d","ios":"levelo://app?vid=34b59785-c597-4fb5-94fe-0a149b62522d"},"vehicle_type_id":"4","last_reported":1700604398,"current_range_meters":17200,"station_id":"ce4bhah2rcd13ifvqej0","pricing_plan_id":"free"},{"bike_id":"a4500033-e3e4-4d88-935a-536b611e4210","system_id":"levelo_inurba_marseille","lat":43.286961,"lon":5.373785,"is_reserved":false,"is_disabled":false,"rental_uris":{"android":"levelo://app?vid=a4500033-e3e4-4d88-935a-536b611e4210","ios":"levelo://app?vid=a4500033-e3e4-4d88-935a-536b611e4210"},"vehicle_type_id":"4","last_reported":1700604398,"current_range_meters":27200,"station_id":"ce4bh3p2rcd13ifvqdq0","pricing_plan_id":"free"},{"bike_id":"cb9495c2-5520-4068-a36b-748139656237","system_id":"levelo_inurba_marseille","lat":43.286593,"lon":5.363346,"is_reserved":false,"is_disabled":false,"rental_uris":{"android":"levelo://app?vid=cb9495c2-5520-4068-a36b-748139656237","ios":"levelo://app?vid=cb9495c2-5520-4068-a36b-748139656237"},"vehicle_type_id":"4","last_reported":1700604398,"current_range_meters":27200,"station_id":"ce4bhah2rcd13ifvqej0","pricing_plan_id":"free"},{"bike_id":"5a3914f8-6d02-4163-91fb-3288bc9a951d","system_id":"levelo_inurba_marseille","lat":43.29022,"lon":5.38636,"is_reserved":false,"is_disabled":false,"rental_uris":{"android":"levelo://app?vid=5a3914f8-6d02-4163-91fb-3288bc9a951d","ios":"levelo://app?vid=5a3914f8-6d02-4163-91fb-3288bc9a951d"},"vehicle_type_id":"4","last_reported":1700604398,"current_range_meters":14000,"station_id":"","pricing_plan_id":"free"},{"bike_id":"e4fe9bfe-c19c-4f53-810f-f315f80ec4be","system_id":"levelo_inurba_marseille","lat":43.290237,"lon":5.386417,"is_reserved":false,"is_disabled":false,"rental_uris":{"android":"levelo://app?vid=e4fe9bfe-c19c-4f53-810f-f315f80ec4be","ios":"levelo://app?vid=e4fe9bfe-c19c-4f53-810f-f315f80ec4be"},"vehicle_type_id":"4","last_reported":1700604398,"current_range_meters":28000,"station_id":"","pricing_plan_id":"free"},{"bike_id":"7f747f99-2551-4a7d-91bc-bd240437708e","system_id":"levelo_inurba_marseille","lat":43.29018,"lon":5.3863,"is_reserved":false,"is_disabled":false,"rental_uris":{"android":"levelo://app?vid=7f747f99-2551-4a7d-91bc-bd240437708e","ios":"levelo://app?vid=7f747f99-2551-4a7d-91bc-bd240437708e"},"vehicle_type_id":"4","last_reported":1700604398,"current_range_meters":16000,"station_id":"","pricing_plan_id":"free"},{"bike_id":"97936d4e-91cb-424e-b8a3-15188a873752","system_id":"levelo_inurba_marseille","lat":43.302759,"lon":5.400793,"is_reserved":false,"is_disabled":false,"rental_uris":{"android":"levelo://app?vid=97936d4e-91cb-424e-b8a3-15188a873752","ios":"levelo://app?vid=97936d4e-91cb-424e-b8a3-15188a873752"},"vehicle_type_id":"4","last_reported":1700604398,"current_range_meters":26000,"station_id":"ce4bgvh2rcd13ifvqcs0","pricing_plan_id":"free"},{"bike_id":"587797ad-7dfe-49a2-9404-a32255c8619a","system_id":"levelo_inurba_marseille","lat":43.286152,"lon":5.370623,"is_reserved":false,"is_disabled":false,"rental_uris":{"android":"levelo://app?vid=587797ad-7dfe-49a2-9404-a32255c8619a","ios":"levelo://app?vid=587797ad-7dfe-49a2-9404-a32255c8619a"},"vehicle_type_id":"4","last_reported":1700604398,"current_range_meters":22800,"station_id":"ce4bht12rcd13ifvqi60","pricing_plan_id":"free"},{"bike_id":"103037f0-b8c2-4b7e-bb4e-0c3ed55d65e6","system_id":"levelo_inurba_marseille","lat":43.286098,"lon":5.370624,"is_reserved":false,"is_disabled":false,"rental_uris":{"android":"levelo://app?vid=103037f0-b8c2-4b7e-bb4e-0c3ed55d65e6","ios":"levelo://app?vid=103037f0-b8c2-4b7e-bb4e-0c3ed55d65e6"},"vehicle_type_id":"4","last_reported":1700604398,"current_range_meters":17200,"station_id":"ce4bht12rcd13ifvqi60","pricing_plan_id":"free"},{"bike_id":"e20842cd-8eea-4741-8c73-0475dbb8d81a","system_id":"levelo_inurba_marseille","lat":43.286039,"lon":5.370681,"is_reserved":false,"is_disabled":false,"rental_uris":{"android":"levelo://app?vid=e20842cd-8eea-4741-8c73-0475dbb8d81a","ios":"levelo://app?vid=e20842cd-8eea-4741-8c73-0475dbb8d81a"},"vehicle_type_id":"4","last_reported":1700604398,"current_range_meters":30800,"station_id":"ce4bht12rcd13ifvqi60","pricing_plan_id":"free"},{"bike_id":"3206d052-1b0b-402d-a995-3d403a54ef80","system_id":"levelo_inurba_marseille","lat":43.287185,"lon":5.379373,"is_reserved":false,"is_disabled":false,"rental_uris":{"android":"levelo://app?vid=3206d052-1b0b-402d-a995-3d403a54ef80","ios":"levelo://app?vid=3206d052-1b0b-402d-a995-3d403a54ef80"},"vehicle_type_id":"4","last_reported":1700604398,"current_range_meters":30800,"station_id":"ce4bh9p2rcd13ifvqec0","pricing_plan_id":"free"},{"bike_id":"712e721b-a4f4-4beb-b810-500a2a4d0091","system_id":"levelo_inurba_marseille","lat":43.28464,"lon":5.358833,"is_reserved":false,"is_disabled":false,"rental_uris":{"android":"levelo://app?vid=712e721b-a4f4-4beb-b810-500a2a4d0091","ios":"levelo://app?vid=712e721b-a4f4-4beb-b810-500a2a4d0091"},"vehicle_type_id":"4","last_reported":1700604398,"current_range_meters":800,"station_id":"ce4bhah2rcd13ifvqei0","pricing_plan_id":"free"},{"bike_id":"abb0ea22-75eb-4892-ab8a-b6710ca00125","system_id":"levelo_inurba_marseille","lat":43.28462,"lon":5.35893,"is_reserved":false,"is_disabled":false,"rental_uris":{"android":"levelo://app?vid=abb0ea22-75eb-4892-ab8a-b6710ca00125","ios":"levelo://app?vid=abb0ea22-75eb-4892-ab8a-b6710ca00125"},"vehicle_type_id":"4","last_reported":1700604398,"current_range_meters":31200,"station_id":"ce4bhah2rcd13ifvqei0","pricing_plan_id":"free"},{"bike_id":"c657ac86-030e-435d-9dcb-b0f1c15fc09d","system_id":"levelo_inurba_marseille","lat":43.284614,"lon":5.358922,"is_reserved":false,"is_disabled":false,"rental_uris":{"android":"levelo://app?vid=c657ac86-030e-435d-9dcb-b0f1c15fc09d","ios":"levelo://app?vid=c657ac86-030e-435d-9dcb-b0f1c15fc09d"},"vehicle_type_id":"4","last_reported":1700604398,"current_range_meters":24000,"station_id":"ce4bhah2rcd13ifvqei0","pricing_plan_id":"free"},{"bike_id":"f07b624c-3125-42af-9ff3-7da16be40258","system_id":"levelo_inurba_marseille","lat":43.284534,"lon":5.358662,"is_reserved":false,"is_disabled":false,"rental_uris":{"android":"levelo://app?vid=f07b624c-3125-42af-9ff3-7da16be40258","ios":"levelo://app?vid=f07b624c-3125-42af-9ff3-7da16be40258"},"vehicle_type_id":"4","last_reported":1700604398,"current_range_meters":9200,"station_id":"ce4bhah2rcd13ifvqei0","pricing_plan_id":"free"},{"bike_id":"8f32b0ce-57ff-44cb-9774-721f197214c2","system_id":"levelo_inurba_marseille","lat":43.28461,"lon":5.3589,"is_reserved":false,"is_disabled":false,"rental_uris":{"android":"levelo://app?vid=8f32b0ce-57ff-44cb-9774-721f197214c2","ios":"levelo://app?vid=8f32b0ce-57ff-44cb-9774-721f197214c2"},"vehicle_type_id":"4","last_reported":1700604398,"current_range_meters":25200,"station_id":"ce4bhah2rcd13ifvqei0","pricing_plan_id":"free"},{"bike_id":"3c7792f7-7e92-4b8f-bd4a-9b98fdfc5346","system_id":"levelo_inurba_marseille","lat":43.28459,"lon":5.35895,"is_reserved":false,"is_disabled":false,"rental_uris":{"android":"levelo://app?vid=3c7792f7-7e92-4b8f-bd4a-9b98fdfc5346","ios":"levelo://app?vid=3c7792f7-7e92-4b8f-bd4a-9b98fdfc5346"},"vehicle_type_id":"4","last_reported":1700604398,"current_range_meters":29600,"station_id":"ce4bhah2rcd13ifvqei0","pricing_plan_id":"free"},{"bike_id":"c4899c4c-8199-4647-bf2c-fc8c8282ade6","system_id":"levelo_inurba_marseille","lat":43.28459,"lon":5.35891,"is_reserved":false,"is_disabled":false,"rental_uris":{"android":"levelo://app?vid=c4899c4c-8199-4647-bf2c-fc8c8282ade6","ios":"levelo://app?vid=c4899c4c-8199-4647-bf2c-fc8c8282ade6"},"vehicle_type_id":"4","last_reported":1700604398,"current_range_meters":30000,"station_id":"ce4bhah2rcd13ifvqei0","pricing_plan_id":"free"},{"bike_id":"453fab20-5e89-48c3-b143-9d8335682de2","system_id":"levelo_inurba_marseille","lat":43.284596,"lon":5.358869,"is_reserved":false,"is_disabled":false,"rental_uris":{"android":"levelo://app?vid=453fab20-5e89-48c3-b143-9d8335682de2","ios":"levelo://app?vid=453fab20-5e89-48c3-b143-9d8335682de2"},"vehicle_type_id":"4","last_reported":1700604398,"current_range_meters":31200,"station_id":"ce4bhah2rcd13ifvqei0","pricing_plan_id":"free"},{"bike_id":"15ddadbb-0047-44fb-8c71-ff7ebd3ae4d3","system_id":"levelo_inurba_marseille","lat":43.284534,"lon":5.358662,"is_reserved":false,"is_disabled":false,"rental_uris":{"android":"levelo://app?vid=15ddadbb-0047-44fb-8c71-ff7ebd3ae4d3","ios":"levelo://app?vid=15ddadbb-0047-44fb-8c71-ff7ebd3ae4d3"},"vehicle_type_id":"4","last_reported":1700604398,"current_range_meters":31200,"station_id":"ce4bhah2rcd13ifvqei0","pricing_plan_id":"free"},{"bike_id":"e726453c-f0df-48ae-913a-222f08f0c172","system_id":"levelo_inurba_marseille","lat":43.28458,"lon":5.3589,"is_reserved":false,"is_disabled":false,"rental_uris":{"android":"levelo://app?vid=e726453c-f0df-48ae-913a-222f08f0c172","ios":"levelo://app?vid=e726453c-f0df-48ae-913a-222f08f0c172"},"vehicle_type_id":"4","last_reported":1700604398,"current_range_meters":30400,"station_id":"ce4bhah2rcd13ifvqei0","pricing_plan_id":"free"},{"bike_id":"d21dce6e-3361-44c3-8f60-8f3ad7dc7a3d","system_id":"levelo_inurba_marseille","lat":43.284534,"lon":5.358662,"is_reserved":false,"is_disabled":false,"rental_uris":{"android":"levelo://app?vid=d21dce6e-3361-44c3-8f60-8f3ad7dc7a3d","ios":"levelo://app?vid=d21dce6e-3361-44c3-8f60-8f3ad7dc7a3d"},"vehicle_type_id":"4","last_reported":1700604398,"current_range_meters":5600,"station_id":"ce4bhah2rcd13ifvqei0","pricing_plan_id":"free"},{"bike_id":"1e3253fe-acc7-479d-b14a-1fe8a141183c","system_id":"levelo_inurba_marseille","lat":43.284534,"lon":5.358662,"is_reserved":false,"is_disabled":false,"rental_uris":{"android":"levelo://app?vid=1e3253fe-acc7-479d-b14a-1fe8a141183c","ios":"levelo://app?vid=1e3253fe-acc7-479d-b14a-1fe8a141183c"},"vehicle_type_id":"4","last_reported":1700604398,"current_range_meters":30400,"station_id":"ce4bhah2rcd13ifvqei0","pricing_plan_id":"free"},{"bike_id":"1230b657-e005-4dad-b234-311363cb0927","system_id":"levelo_inurba_marseille","lat":43.284534,"lon":5.358662,"is_reserved":false,"is_disabled":false,"rental_uris":{"android":"levelo://app?vid=1230b657-e005-4dad-b234-311363cb0927","ios":"levelo://app?vid=1230b657-e005-4dad-b234-311363cb0927"},"vehicle_type_id":"4","last_reported":1700604398,"current_range_meters":30000,"station_id":"ce4bhah2rcd13ifvqei0","pricing_plan_id":"free"},{"bike_id":"278e215b-8d4d-4543-a0fb-76752307b930","system_id":"levelo_inurba_marseille","lat":43.28454,"lon":5.35884,"is_reserved":false,"is_disabled":false,"rental_uris":{"android":"levelo://app?vid=278e215b-8d4d-4543-a0fb-76752307b930","ios":"levelo://app?vid=278e215b-8d4d-4543-a0fb-76752307b930"},"vehicle_type_id":"4","last_reported":1700604398,"current_range_meters":30000,"station_id":"ce4bhah2rcd13ifvqei0","pricing_plan_id":"free"},{"bike_id":"32d0c4b3-4975-4c54-b911-a5834e4d69b1","system_id":"levelo_inurba_marseille","lat":43.2845,"lon":5.35902,"is_reserved":false,"is_disabled":false,"rental_uris":{"android":"levelo://app?vid=32d0c4b3-4975-4c54-b911-a5834e4d69b1","ios":"levelo://app?vid=32d0c4b3-4975-4c54-b911-a5834e4d69b1"},"vehicle_type_id":"4","last_reported":1700604398,"current_range_meters":31200,"station_id":"ce4bhah2rcd13ifvqei0","pricing_plan_id":"free"},{"bike_id":"ce6948d1-e0ba-432a-8972-6a74ab291470","system_id":"levelo_inurba_marseille","lat":43.28617,"lon":5.35108,"is_reserved":false,"is_disabled":false,"rental_uris":{"android":"levelo://app?vid=ce6948d1-e0ba-432a-8972-6a74ab291470","ios":"levelo://app?vid=ce6948d1-e0ba-432a-8972-6a74ab291470"},"vehicle_type_id":"4","last_reported":1700604398,"current_range_meters":30400,"station_id":"ce4bhch2rcd13ifvqeug","pricing_plan_id":"free"},{"bike_id":"36043778-724e-41cd-9ad0-4790e36fb65d","system_id":"levelo_inurba_marseille","lat":43.285848,"lon":5.350787,"is_reserved":false,"is_disabled":false,"rental_uris":{"android":"levelo://app?vid=36043778-724e-41cd-9ad0-4790e36fb65d","ios":"levelo://app?vid=36043778-724e-41cd-9ad0-4790e36fb65d"},"vehicle_type_id":"4","last_reported":1700604398,"current_range_meters":30400,"station_id":"ce4bhch2rcd13ifvqeug","pricing_plan_id":"free"},{"bike_id":"47d82943-55b7-4d5f-81f3-ba919299497b","system_id":"levelo_inurba_marseille","lat":43.28612,"lon":5.35103,"is_reserved":false,"is_disabled":false,"rental_uris":{"android":"levelo://app?vid=47d82943-55b7-4d5f-81f3-ba919299497b","ios":"levelo://app?vid=47d82943-55b7-4d5f-81f3-ba919299497b"},"vehicle_type_id":"4","last_reported":1700604398,"current_range_meters":30000,"station_id":"ce4bhch2rcd13ifvqeug","pricing_plan_id":"free"},{"bike_id":"93591452-78a8-4deb-aa6d-58319e661151","system_id":"levelo_inurba_marseille","lat":43.286086,"lon":5.351127,"is_reserved":false,"is_disabled":false,"rental_uris":{"android":"levelo://app?vid=93591452-78a8-4deb-aa6d-58319e661151","ios":"levelo://app?vid=93591452-78a8-4deb-aa6d-58319e661151"},"vehicle_type_id":"4","last_reported":1700604398,"current_range_meters":25600,"station_id":"ce4bhch2rcd13ifvqeug","pricing_plan_id":"free"},{"bike_id":"5aa87bae-5799-4cb9-9962-17bda26e06f3","system_id":"levelo_inurba_marseille","lat":43.295713,"lon":5.399639,"is_reserved":false,"is_disabled":false,"rental_uris":{"android":"levelo://app?vid=5aa87bae-5799-4cb9-9962-17bda26e06f3","ios":"levelo://app?vid=5aa87bae-5799-4cb9-9962-17bda26e06f3"},"vehicle_type_id":"4","last_reported":1700604398,"current_range_meters":25200,"station_id":"ce4bh312rcd13ifvqdj0","pricing_plan_id":"free"},{"bike_id":"acbb3f08-be93-413a-ad05-d6bf3384633c","system_id":"levelo_inurba_marseille","lat":43.283998,"lon":5.375062,"is_reserved":false,"is_disabled":false,"rental_uris":{"android":"levelo://app?vid=acbb3f08-be93-413a-ad05-d6bf3384633c","ios":"levelo://app?vid=acbb3f08-be93-413a-ad05-d6bf3384633c"},"vehicle_type_id":"4","last_reported":1700604398,"current_range_meters":6800,"station_id":"ce4bh412rcd13ifvqds0","pricing_plan_id":"free"},{"bike_id":"d11c92a5-279b-4b76-b017-1136ed05ba6b","system_id":"levelo_inurba_marseille","lat":43.283998,"lon":5.375062,"is_reserved":false,"is_disabled":false,"rental_uris":{"android":"levelo://app?vid=d11c92a5-279b-4b76-b017-1136ed05ba6b","ios":"levelo://app?vid=d11c92a5-279b-4b76-b017-1136ed05ba6b"},"vehicle_type_id":"4","last_reported":1700604398,"current_range_meters":16000,"station_id":"ce4bh412rcd13ifvqds0","pricing_plan_id":"free"},{"bike_id":"35b19955-8c3e-4374-b999-0b151664b0e8","system_id":"levelo_inurba_marseille","lat":43.33237,"lon":5.3985,"is_reserved":false,"is_disabled":false,"rental_uris":{"android":"levelo://app?vid=35b19955-8c3e-4374-b999-0b151664b0e8","ios":"levelo://app?vid=35b19955-8c3e-4374-b999-0b151664b0e8"},"vehicle_type_id":"4","last_reported":1700604398,"current_range_meters":0,"station_id":"","pricing_plan_id":"free"},{"bike_id":"b4319b18-5548-4691-90e2-2eac47989fae","system_id":"levelo_inurba_marseille","lat":43.323464,"lon":5.406297,"is_reserved":false,"is_disabled":false,"rental_uris":{"android":"levelo://app?vid=b4319b18-5548-4691-90e2-2eac47989fae","ios":"levelo://app?vid=b4319b18-5548-4691-90e2-2eac47989fae"},"vehicle_type_id":"4","last_reported":1700604398,"current_range_meters":31200,"station_id":"ce4bhq92rcd13ifvqhjg","pricing_plan_id":"free"},{"bike_id":"46dbde4e-825b-403f-b6b6-91f886c4539f","system_id":"levelo_inurba_marseille","lat":43.297946,"lon":5.404063,"is_reserved":false,"is_disabled":false,"rental_uris":{"android":"levelo://app?vid=46dbde4e-825b-403f-b6b6-91f886c4539f","ios":"levelo://app?vid=46dbde4e-825b-403f-b6b6-91f886c4539f"},"vehicle_type_id":"4","last_reported":1700604398,"current_range_meters":18400,"station_id":"ce4bh112rcd13ifvqd90","pricing_plan_id":"free"},{"bike_id":"8ec0cb9a-da90-48aa-8e6f-e70930bac7b1","system_id":"levelo_inurba_marseille","lat":43.28851,"lon":5.39334,"is_reserved":false,"is_disabled":false,"rental_uris":{"android":"levelo://app?vid=8ec0cb9a-da90-48aa-8e6f-e70930bac7b1","ios":"levelo://app?vid=8ec0cb9a-da90-48aa-8e6f-e70930bac7b1"},"vehicle_type_id":"4","last_reported":1700604398,"current_range_meters":16000,"station_id":"ce4bh2p2rcd13ifvqdi0","pricing_plan_id":"free"},{"bike_id":"5f5d2713-72b6-4a16-b8eb-02d8aedbe690","system_id":"levelo_inurba_marseille","lat":43.283498,"lon":5.380948,"is_reserved":false,"is_disabled":false,"rental_uris":{"android":"levelo://app?vid=5f5d2713-72b6-4a16-b8eb-02d8aedbe690","ios":"levelo://app?vid=5f5d2713-72b6-4a16-b8eb-02d8aedbe690"},"vehicle_type_id":"4","last_reported":1700604398,"current_range_meters":26800,"station_id":"ce4bh412rcd13ifvqdr0","pricing_plan_id":"free"},{"bike_id":"1be4f58a-6612-4c3b-ad1a-94125e9450d7","system_id":"levelo_inurba_marseille","lat":43.283498,"lon":5.380948,"is_reserved":false,"is_disabled":false,"rental_uris":{"android":"levelo://app?vid=1be4f58a-6612-4c3b-ad1a-94125e9450d7","ios":"levelo://app?vid=1be4f58a-6612-4c3b-ad1a-94125e9450d7"},"vehicle_type_id":"4","last_reported":1700604398,"current_range_meters":23200,"station_id":"ce4bh412rcd13ifvqdr0","pricing_plan_id":"free"},{"bike_id":"e57c9540-512f-4490-8f63-010ef0e8c825","system_id":"levelo_inurba_marseille","lat":43.284219,"lon":5.3497,"is_reserved":false,"is_disabled":false,"rental_uris":{"android":"levelo://app?vid=e57c9540-512f-4490-8f63-010ef0e8c825","ios":"levelo://app?vid=e57c9540-512f-4490-8f63-010ef0e8c825"},"vehicle_type_id":"4","last_reported":1700604398,"current_range_meters":28400,"station_id":"ce4bhbh2rcd13ifvqepg","pricing_plan_id":"free"},{"bike_id":"9d46c555-a24c-4ab2-b004-a425f60c0ce4","system_id":"levelo_inurba_marseille","lat":43.28425,"lon":5.34984,"is_reserved":false,"is_disabled":false,"rental_uris":{"android":"levelo://app?vid=9d46c555-a24c-4ab2-b004-a425f60c0ce4","ios":"levelo://app?vid=9d46c555-a24c-4ab2-b004-a425f60c0ce4"},"vehicle_type_id":"4","last_reported":1700604398,"current_range_meters":9600,"station_id":"ce4bhbh2rcd13ifvqepg","pricing_plan_id":"free"},{"bike_id":"d24f8d34-332e-4e65-bf5c-1ad9e528f1fa","system_id":"levelo_inurba_marseille","lat":43.288501,"lon":5.393087,"is_reserved":false,"is_disabled":false,"rental_uris":{"android":"levelo://app?vid=d24f8d34-332e-4e65-bf5c-1ad9e528f1fa","ios":"levelo://app?vid=d24f8d34-332e-4e65-bf5c-1ad9e528f1fa"},"vehicle_type_id":"4","last_reported":1700604398,"current_range_meters":28800,"station_id":"ce4bh2p2rcd13ifvqdi0","pricing_plan_id":"free"},{"bike_id":"a915fd1c-9128-4c2f-bc4f-b0c446622785","system_id":"levelo_inurba_marseille","lat":43.284217,"lon":5.349697,"is_reserved":false,"is_disabled":false,"rental_uris":{"android":"levelo://app?vid=a915fd1c-9128-4c2f-bc4f-b0c446622785","ios":"levelo://app?vid=a915fd1c-9128-4c2f-bc4f-b0c446622785"},"vehicle_type_id":"4","last_reported":1700604398,"current_range_meters":27600,"station_id":"ce4bhbh2rcd13ifvqepg","pricing_plan_id":"free"},{"bike_id":"4a2de906-22ae-4536-8388-16e1bd93a100","system_id":"levelo_inurba_marseille","lat":43.2842,"lon":5.34989,"is_reserved":false,"is_disabled":false,"rental_uris":{"android":"levelo://app?vid=4a2de906-22ae-4536-8388-16e1bd93a100","ios":"levelo://app?vid=4a2de906-22ae-4536-8388-16e1bd93a100"},"vehicle_type_id":"4","last_reported":1700604398,"current_range_meters":10000,"station_id":"ce4bhbh2rcd13ifvqepg","pricing_plan_id":"free"},{"bike_id":"2a41fac7-1f30-4d55-a6c5-5380cde75405","system_id":"levelo_inurba_marseille","lat":43.284217,"lon":5.349697,"is_reserved":false,"is_disabled":false,"rental_uris":{"android":"levelo://app?vid=2a41fac7-1f30-4d55-a6c5-5380cde75405","ios":"levelo://app?vid=2a41fac7-1f30-4d55-a6c5-5380cde75405"},"vehicle_type_id":"4","last_reported":1700604398,"current_range_meters":16800,"station_id":"ce4bhbh2rcd13ifvqepg","pricing_plan_id":"free"},{"bike_id":"c8cfd9ab-d3bf-4c62-a1f3-f8793f300892","system_id":"levelo_inurba_marseille","lat":43.284154,"lon":5.349927,"is_reserved":false,"is_disabled":false,"rental_uris":{"android":"levelo://app?vid=c8cfd9ab-d3bf-4c62-a1f3-f8793f300892","ios":"levelo://app?vid=c8cfd9ab-d3bf-4c62-a1f3-f8793f300892"},"vehicle_type_id":"4","last_reported":1700604398,"current_range_meters":30000,"station_id":"ce4bhbh2rcd13ifvqepg","pricing_plan_id":"free"},{"bike_id":"6d068ae4-8aba-4958-a002-11c2ac3f318a","system_id":"levelo_inurba_marseille","lat":43.282754,"lon":5.350519,"is_reserved":false,"is_disabled":false,"rental_uris":{"android":"levelo://app?vid=6d068ae4-8aba-4958-a002-11c2ac3f318a","ios":"levelo://app?vid=6d068ae4-8aba-4958-a002-11c2ac3f318a"},"vehicle_type_id":"4","last_reported":1700604398,"current_range_meters":30800,"station_id":"ce4bhbp2rcd13ifvqerg","pricing_plan_id":"free"},{"bike_id":"29b2d1ae-72bd-4a6b-9046-838ae37f2595","system_id":"levelo_inurba_marseille","lat":43.282754,"lon":5.350519,"is_reserved":false,"is_disabled":false,"rental_uris":{"android":"levelo://app?vid=29b2d1ae-72bd-4a6b-9046-838ae37f2595","ios":"levelo://app?vid=29b2d1ae-72bd-4a6b-9046-838ae37f2595"},"vehicle_type_id":"4","last_reported":1700604398,"current_range_meters":31200,"station_id":"ce4bhbp2rcd13ifvqerg","pricing_plan_id":"free"},{"bike_id":"f67f1079-4710-467e-8c34-9d2002a36f9b","system_id":"levelo_inurba_marseille","lat":43.282744,"lon":5.350533,"is_reserved":false,"is_disabled":false,"rental_uris":{"android":"levelo://app?vid=f67f1079-4710-467e-8c34-9d2002a36f9b","ios":"levelo://app?vid=f67f1079-4710-467e-8c34-9d2002a36f9b"},"vehicle_type_id":"4","last_reported":1700604398,"current_range_meters":24800,"station_id":"ce4bhbp2rcd13ifvqerg","pricing_plan_id":"free"},{"bike_id":"74e481aa-25b5-4f5b-b8cd-79b4a634f242","system_id":"levelo_inurba_marseille","lat":43.282666,"lon":5.350767,"is_reserved":false,"is_disabled":false,"rental_uris":{"android":"levelo://app?vid=74e481aa-25b5-4f5b-b8cd-79b4a634f242","ios":"levelo://app?vid=74e481aa-25b5-4f5b-b8cd-79b4a634f242"},"vehicle_type_id":"4","last_reported":1700604398,"current_range_meters":30800,"station_id":"ce4bhbp2rcd13ifvqerg","pricing_plan_id":"free"},{"bike_id":"49b4c011-618e-45f7-b321-5a2afe0f4e49","system_id":"levelo_inurba_marseille","lat":43.282754,"lon":5.350519,"is_reserved":false,"is_disabled":false,"rental_uris":{"android":"levelo://app?vid=49b4c011-618e-45f7-b321-5a2afe0f4e49","ios":"levelo://app?vid=49b4c011-618e-45f7-b321-5a2afe0f4e49"},"vehicle_type_id":"4","last_reported":1700604398,"current_range_meters":28800,"station_id":"ce4bhbp2rcd13ifvqerg","pricing_plan_id":"free"},{"bike_id":"0571e252-5acc-4741-aa6f-ba8321e320f8","system_id":"levelo_inurba_marseille","lat":43.282744,"lon":5.350533,"is_reserved":false,"is_disabled":false,"rental_uris":{"android":"levelo://app?vid=0571e252-5acc-4741-aa6f-ba8321e320f8","ios":"levelo://app?vid=0571e252-5acc-4741-aa6f-ba8321e320f8"},"vehicle_type_id":"4","last_reported":1700604398,"current_range_meters":31200,"station_id":"ce4bhbp2rcd13ifvqerg","pricing_plan_id":"free"},{"bike_id":"aa4139f5-27aa-49e1-a8f1-fc54a1da2de8","system_id":"levelo_inurba_marseille","lat":43.280343,"lon":5.369542,"is_reserved":false,"is_disabled":false,"rental_uris":{"android":"levelo://app?vid=aa4139f5-27aa-49e1-a8f1-fc54a1da2de8","ios":"levelo://app?vid=aa4139f5-27aa-49e1-a8f1-fc54a1da2de8"},"vehicle_type_id":"4","last_reported":1700604398,"current_range_meters":15200,"station_id":"ce4bha12rcd13ifvqef0","pricing_plan_id":"free"},{"bike_id":"eace2be8-2781-4338-ba7d-44b9df37bcb4","system_id":"levelo_inurba_marseille","lat":43.28032,"lon":5.36946,"is_reserved":false,"is_disabled":false,"rental_uris":{"android":"levelo://app?vid=eace2be8-2781-4338-ba7d-44b9df37bcb4","ios":"levelo://app?vid=eace2be8-2781-4338-ba7d-44b9df37bcb4"},"vehicle_type_id":"4","last_reported":1700604398,"current_range_meters":31200,"station_id":"ce4bha12rcd13ifvqef0","pricing_plan_id":"free"},{"bike_id":"15c37d9f-ad9f-4b2e-a894-6fdc82fe94a9","system_id":"levelo_inurba_marseille","lat":43.290412,"lon":5.399633,"is_reserved":false,"is_disabled":false,"rental_uris":{"android":"levelo://app?vid=15c37d9f-ad9f-4b2e-a894-6fdc82fe94a9","ios":"levelo://app?vid=15c37d9f-ad9f-4b2e-a894-6fdc82fe94a9"},"vehicle_type_id":"4","last_reported":1700604398,"current_range_meters":0,"station_id":"ce4bh392rcd13ifvqdm0","pricing_plan_id":"free"},{"bike_id":"a159dd57-ab7d-4e7a-a647-5c7a951913c7","system_id":"levelo_inurba_marseille","lat":43.290412,"lon":5.399633,"is_reserved":false,"is_disabled":false,"rental_uris":{"android":"levelo://app?vid=a159dd57-ab7d-4e7a-a647-5c7a951913c7","ios":"levelo://app?vid=a159dd57-ab7d-4e7a-a647-5c7a951913c7"},"vehicle_type_id":"4","last_reported":1700604398,"current_range_meters":28800,"station_id":"ce4bh392rcd13ifvqdm0","pricing_plan_id":"free"},{"bike_id":"142ea271-be6a-4753-b0cb-8addab54f2bc","system_id":"levelo_inurba_marseille","lat":43.29041,"lon":5.399634,"is_reserved":false,"is_disabled":false,"rental_uris":{"android":"levelo://app?vid=142ea271-be6a-4753-b0cb-8addab54f2bc","ios":"levelo://app?vid=142ea271-be6a-4753-b0cb-8addab54f2bc"},"vehicle_type_id":"4","last_reported":1700604398,"current_range_meters":29200,"station_id":"ce4bh392rcd13ifvqdm0","pricing_plan_id":"free"},{"bike_id":"0780b374-d5c0-4036-8053-99886234b3d5","system_id":"levelo_inurba_marseille","lat":43.29029,"lon":5.399688,"is_reserved":false,"is_disabled":false,"rental_uris":{"android":"levelo://app?vid=0780b374-d5c0-4036-8053-99886234b3d5","ios":"levelo://app?vid=0780b374-d5c0-4036-8053-99886234b3d5"},"vehicle_type_id":"4","last_reported":1700604398,"current_range_meters":24400,"station_id":"ce4bh392rcd13ifvqdm0","pricing_plan_id":"free"},{"bike_id":"68b4a913-1fda-4ca8-a2bb-7bb30dea75a0","system_id":"levelo_inurba_marseille","lat":43.290289,"lon":5.399691,"is_reserved":false,"is_disabled":false,"rental_uris":{"android":"levelo://app?vid=68b4a913-1fda-4ca8-a2bb-7bb30dea75a0","ios":"levelo://app?vid=68b4a913-1fda-4ca8-a2bb-7bb30dea75a0"},"vehicle_type_id":"4","last_reported":1700604398,"current_range_meters":8800,"station_id":"ce4bh392rcd13ifvqdm0","pricing_plan_id":"free"},{"bike_id":"63e539be-b666-48ff-99ee-98c7b45da2cf","system_id":"levelo_inurba_marseille","lat":43.29029,"lon":5.399697,"is_reserved":false,"is_disabled":false,"rental_uris":{"android":"levelo://app?vid=63e539be-b666-48ff-99ee-98c7b45da2cf","ios":"levelo://app?vid=63e539be-b666-48ff-99ee-98c7b45da2cf"},"vehicle_type_id":"4","last_reported":1700604398,"current_range_meters":9600,"station_id":"ce4bh392rcd13ifvqdm0","pricing_plan_id":"free"},{"bike_id":"94c65ee0-3187-4621-8a51-ebe2f39fe745","system_id":"levelo_inurba_marseille","lat":43.290289,"lon":5.399702,"is_reserved":false,"is_disabled":false,"rental_uris":{"android":"levelo://app?vid=94c65ee0-3187-4621-8a51-ebe2f39fe745","ios":"levelo://app?vid=94c65ee0-3187-4621-8a51-ebe2f39fe745"},"vehicle_type_id":"4","last_reported":1700604398,"current_range_meters":26400,"station_id":"ce4bh392rcd13ifvqdm0","pricing_plan_id":"free"},{"bike_id":"f0608072-d266-4828-bd66-c5519215f3c5","system_id":"levelo_inurba_marseille","lat":43.296263,"lon":5.40601,"is_reserved":false,"is_disabled":false,"rental_uris":{"android":"levelo://app?vid=f0608072-d266-4828-bd66-c5519215f3c5","ios":"levelo://app?vid=f0608072-d266-4828-bd66-c5519215f3c5"},"vehicle_type_id":"4","last_reported":1700604398,"current_range_meters":3200,"station_id":"ce4bh0h2rcd13ifvqd60","pricing_plan_id":"free"},{"bike_id":"5645c4d2-5495-4568-9ae0-b4eb2965e68f","system_id":"levelo_inurba_marseille","lat":43.284462,"lon":5.392121,"is_reserved":false,"is_disabled":false,"rental_uris":{"android":"levelo://app?vid=5645c4d2-5495-4568-9ae0-b4eb2965e68f","ios":"levelo://app?vid=5645c4d2-5495-4568-9ae0-b4eb2965e68f"},"vehicle_type_id":"4","last_reported":1700604398,"current_range_meters":20000,"station_id":"ce4bhoh2rcd13ifvqh5g","pricing_plan_id":"free"},{"bike_id":"627824b5-28d6-47b8-9b09-d7f7bf591a29","system_id":"levelo_inurba_marseille","lat":43.299579,"lon":5.413255,"is_reserved":false,"is_disabled":false,"rental_uris":{"android":"levelo://app?vid=627824b5-28d6-47b8-9b09-d7f7bf591a29","ios":"levelo://app?vid=627824b5-28d6-47b8-9b09-d7f7bf591a29"},"vehicle_type_id":"4","last_reported":1700604398,"current_range_meters":4400,"station_id":"ce4bhp12rcd13ifvqh9g","pricing_plan_id":"free"},{"bike_id":"d93a026b-5aa3-41f8-9040-ad4093540e65","system_id":"levelo_inurba_marseille","lat":43.279742,"lon":5.38744,"is_reserved":false,"is_disabled":false,"rental_uris":{"android":"levelo://app?vid=d93a026b-5aa3-41f8-9040-ad4093540e65","ios":"levelo://app?vid=d93a026b-5aa3-41f8-9040-ad4093540e65"},"vehicle_type_id":"4","last_reported":1700604398,"current_range_meters":17200,"station_id":"ce4bhg12rcd13ifvqf80","pricing_plan_id":"free"},{"bike_id":"626cc7ad-94cc-4bab-9e79-fa8984056575","system_id":"levelo_inurba_marseille","lat":43.279742,"lon":5.38744,"is_reserved":false,"is_disabled":false,"rental_uris":{"android":"levelo://app?vid=626cc7ad-94cc-4bab-9e79-fa8984056575","ios":"levelo://app?vid=626cc7ad-94cc-4bab-9e79-fa8984056575"},"vehicle_type_id":"4","last_reported":1700604398,"current_range_meters":12000,"station_id":"ce4bhg12rcd13ifvqf80","pricing_plan_id":"free"},{"bike_id":"4c80a4b8-c366-4e24-8a38-3e4c2f36eaae","system_id":"levelo_inurba_marseille","lat":43.27965,"lon":5.387405,"is_reserved":false,"is_disabled":false,"rental_uris":{"android":"levelo://app?vid=4c80a4b8-c366-4e24-8a38-3e4c2f36eaae","ios":"levelo://app?vid=4c80a4b8-c366-4e24-8a38-3e4c2f36eaae"},"vehicle_type_id":"4","last_reported":1700604398,"current_range_meters":6800,"station_id":"ce4bhg12rcd13ifvqf80","pricing_plan_id":"free"},{"bike_id":"cf7c6503-d761-4e4a-b826-f55f74848caf","system_id":"levelo_inurba_marseille","lat":43.34884,"lon":5.3751,"is_reserved":false,"is_disabled":false,"rental_uris":{"android":"levelo://app?vid=cf7c6503-d761-4e4a-b826-f55f74848caf","ios":"levelo://app?vid=cf7c6503-d761-4e4a-b826-f55f74848caf"},"vehicle_type_id":"4","last_reported":1700604398,"current_range_meters":7600,"station_id":"","pricing_plan_id":"free"},{"bike_id":"16d8f611-a9f7-4e62-9e33-6971cea3f574","system_id":"levelo_inurba_marseille","lat":43.292571,"lon":5.409107,"is_reserved":false,"is_disabled":false,"rental_uris":{"android":"levelo://app?vid=16d8f611-a9f7-4e62-9e33-6971cea3f574","ios":"levelo://app?vid=16d8f611-a9f7-4e62-9e33-6971cea3f574"},"vehicle_type_id":"4","last_reported":1700604398,"current_range_meters":0,"station_id":"ce4bh192rcd13ifvqdc0","pricing_plan_id":"free"},{"bike_id":"1e65c2e1-5116-4d4f-98cc-41f40c545542","system_id":"levelo_inurba_marseille","lat":43.292569,"lon":5.409107,"is_reserved":false,"is_disabled":false,"rental_uris":{"android":"levelo://app?vid=1e65c2e1-5116-4d4f-98cc-41f40c545542","ios":"levelo://app?vid=1e65c2e1-5116-4d4f-98cc-41f40c545542"},"vehicle_type_id":"4","last_reported":1700604398,"current_range_meters":20000,"station_id":"ce4bh192rcd13ifvqdc0","pricing_plan_id":"free"},{"bike_id":"e709c08e-6284-4689-a9d6-07caf9663a54","system_id":"levelo_inurba_marseille","lat":43.29256,"lon":5.40911,"is_reserved":false,"is_disabled":false,"rental_uris":{"android":"levelo://app?vid=e709c08e-6284-4689-a9d6-07caf9663a54","ios":"levelo://app?vid=e709c08e-6284-4689-a9d6-07caf9663a54"},"vehicle_type_id":"4","last_reported":1700604398,"current_range_meters":0,"station_id":"ce4bh192rcd13ifvqdc0","pricing_plan_id":"free"},{"bike_id":"736b1083-7c43-440b-ad19-86b49321d04b","system_id":"levelo_inurba_marseille","lat":43.279531,"lon":5.393176,"is_reserved":false,"is_disabled":false,"rental_uris":{"android":"levelo://app?vid=736b1083-7c43-440b-ad19-86b49321d04b","ios":"levelo://app?vid=736b1083-7c43-440b-ad19-86b49321d04b"},"vehicle_type_id":"4","last_reported":1700604398,"current_range_meters":0,"station_id":"","pricing_plan_id":"free"},{"bike_id":"99b7b3e2-fb47-4e03-b5b8-5bf5b8fd0d6c","system_id":"levelo_inurba_marseille","lat":43.29365,"lon":5.41261,"is_reserved":false,"is_disabled":false,"rental_uris":{"android":"levelo://app?vid=99b7b3e2-fb47-4e03-b5b8-5bf5b8fd0d6c","ios":"levelo://app?vid=99b7b3e2-fb47-4e03-b5b8-5bf5b8fd0d6c"},"vehicle_type_id":"4","last_reported":1700604398,"current_range_meters":3200,"station_id":"","pricing_plan_id":"free"},{"bike_id":"094903b1-167e-41c9-983f-be2bb2c37b6e","system_id":"levelo_inurba_marseille","lat":43.280784,"lon":5.396622,"is_reserved":false,"is_disabled":false,"rental_uris":{"android":"levelo://app?vid=094903b1-167e-41c9-983f-be2bb2c37b6e","ios":"levelo://app?vid=094903b1-167e-41c9-983f-be2bb2c37b6e"},"vehicle_type_id":"4","last_reported":1700604398,"current_range_meters":23600,"station_id":"ce4bho12rcd13ifvqh2g","pricing_plan_id":"free"},{"bike_id":"f82a2d6f-bf3a-4360-8f4b-d5ede153ebff","system_id":"levelo_inurba_marseille","lat":43.280784,"lon":5.396622,"is_reserved":false,"is_disabled":false,"rental_uris":{"android":"levelo://app?vid=f82a2d6f-bf3a-4360-8f4b-d5ede153ebff","ios":"levelo://app?vid=f82a2d6f-bf3a-4360-8f4b-d5ede153ebff"},"vehicle_type_id":"4","last_reported":1700604398,"current_range_meters":21200,"station_id":"ce4bho12rcd13ifvqh2g","pricing_plan_id":"free"},{"bike_id":"b1a2ce96-1aae-47e8-bccb-bd9f82b39540","system_id":"levelo_inurba_marseille","lat":43.30355,"lon":5.41884,"is_reserved":false,"is_disabled":false,"rental_uris":{"android":"levelo://app?vid=b1a2ce96-1aae-47e8-bccb-bd9f82b39540","ios":"levelo://app?vid=b1a2ce96-1aae-47e8-bccb-bd9f82b39540"},"vehicle_type_id":"4","last_reported":1700604398,"current_range_meters":0,"station_id":"ce4bhop2rcd13ifvqh7g","pricing_plan_id":"free"},{"bike_id":"e24b92ef-de16-49d7-be11-ad2f9092635e","system_id":"levelo_inurba_marseille","lat":43.278399,"lon":5.392139,"is_reserved":false,"is_disabled":false,"rental_uris":{"android":"levelo://app?vid=e24b92ef-de16-49d7-be11-ad2f9092635e","ios":"levelo://app?vid=e24b92ef-de16-49d7-be11-ad2f9092635e"},"vehicle_type_id":"4","last_reported":1700604398,"current_range_meters":8800,"station_id":"ce4bhjp2rcd13ifvqga0","pricing_plan_id":"free"},{"bike_id":"88fdd8f0-3689-4857-af04-f7263958a8f2","system_id":"levelo_inurba_marseille","lat":43.273609,"lon":5.362708,"is_reserved":false,"is_disabled":false,"rental_uris":{"android":"levelo://app?vid=88fdd8f0-3689-4857-af04-f7263958a8f2","ios":"levelo://app?vid=88fdd8f0-3689-4857-af04-f7263958a8f2"},"vehicle_type_id":"4","last_reported":1700604398,"current_range_meters":22800,"station_id":"ce4bhbh2rcd13ifvqeo0","pricing_plan_id":"free"},{"bike_id":"e1b55124-3678-4f35-bcd5-df0abc78cbb3","system_id":"levelo_inurba_marseille","lat":43.33612,"lon":5.410321,"is_reserved":false,"is_disabled":false,"rental_uris":{"android":"levelo://app?vid=e1b55124-3678-4f35-bcd5-df0abc78cbb3","ios":"levelo://app?vid=e1b55124-3678-4f35-bcd5-df0abc78cbb3"},"vehicle_type_id":"4","last_reported":1700604398,"current_range_meters":28800,"station_id":"ce4bhqh2rcd13ifvqhmg","pricing_plan_id":"free"},{"bike_id":"b65b13fd-935e-4127-a40c-20b40fa60eae","system_id":"levelo_inurba_marseille","lat":43.33612,"lon":5.410321,"is_reserved":false,"is_disabled":false,"rental_uris":{"android":"levelo://app?vid=b65b13fd-935e-4127-a40c-20b40fa60eae","ios":"levelo://app?vid=b65b13fd-935e-4127-a40c-20b40fa60eae"},"vehicle_type_id":"4","last_reported":1700604398,"current_range_meters":7200,"station_id":"ce4bhqh2rcd13ifvqhmg","pricing_plan_id":"free"},{"bike_id":"de78f607-a59c-4cbe-8b35-d5df823b73ff","system_id":"levelo_inurba_marseille","lat":43.336078,"lon":5.410328,"is_reserved":false,"is_disabled":false,"rental_uris":{"android":"levelo://app?vid=de78f607-a59c-4cbe-8b35-d5df823b73ff","ios":"levelo://app?vid=de78f607-a59c-4cbe-8b35-d5df823b73ff"},"vehicle_type_id":"4","last_reported":1700604398,"current_range_meters":4000,"station_id":"ce4bhqh2rcd13ifvqhmg","pricing_plan_id":"free"},{"bike_id":"0a4bf132-8537-41ed-a6ec-6aa3d7297d1c","system_id":"levelo_inurba_marseille","lat":43.276771,"lon":5.388799,"is_reserved":false,"is_disabled":false,"rental_uris":{"android":"levelo://app?vid=0a4bf132-8537-41ed-a6ec-6aa3d7297d1c","ios":"levelo://app?vid=0a4bf132-8537-41ed-a6ec-6aa3d7297d1c"},"vehicle_type_id":"4","last_reported":1700604398,"current_range_meters":2000,"station_id":"ce4bhi12rcd13ifvqfo0","pricing_plan_id":"free"},{"bike_id":"5a32121e-a742-4918-a78b-988b39cdf606","system_id":"levelo_inurba_marseille","lat":43.279952,"lon":5.400085,"is_reserved":false,"is_disabled":false,"rental_uris":{"android":"levelo://app?vid=5a32121e-a742-4918-a78b-988b39cdf606","ios":"levelo://app?vid=5a32121e-a742-4918-a78b-988b39cdf606"},"vehicle_type_id":"4","last_reported":1700604398,"current_range_meters":8800,"station_id":"ce4bho92rcd13ifvqh4g","pricing_plan_id":"free"},{"bike_id":"ac9bf6a1-c96f-4133-87a6-52d4b07e03ea","system_id":"levelo_inurba_marseille","lat":43.317121,"lon":5.423936,"is_reserved":false,"is_disabled":false,"rental_uris":{"android":"levelo://app?vid=ac9bf6a1-c96f-4133-87a6-52d4b07e03ea","ios":"levelo://app?vid=ac9bf6a1-c96f-4133-87a6-52d4b07e03ea"},"vehicle_type_id":"4","last_reported":1700604398,"current_range_meters":30000,"station_id":"ce4bhp92rcd13ifvqhbg","pricing_plan_id":"free"},{"bike_id":"114187af-32af-4dba-9a5b-7cf8db15d20c","system_id":"levelo_inurba_marseille","lat":43.310785,"lon":5.424305,"is_reserved":false,"is_disabled":false,"rental_uris":{"android":"levelo://app?vid=114187af-32af-4dba-9a5b-7cf8db15d20c","ios":"levelo://app?vid=114187af-32af-4dba-9a5b-7cf8db15d20c"},"vehicle_type_id":"4","last_reported":1700604398,"current_range_meters":30000,"station_id":"ce4bhp92rcd13ifvqhag","pricing_plan_id":"free"},{"bike_id":"685b64b8-b7bc-4da3-9f11-7c3d6189d529","system_id":"levelo_inurba_marseille","lat":43.310841,"lon":5.42434,"is_reserved":false,"is_disabled":false,"rental_uris":{"android":"levelo://app?vid=685b64b8-b7bc-4da3-9f11-7c3d6189d529","ios":"levelo://app?vid=685b64b8-b7bc-4da3-9f11-7c3d6189d529"},"vehicle_type_id":"4","last_reported":1700604398,"current_range_meters":0,"station_id":"ce4bhp92rcd13ifvqhag","pricing_plan_id":"free"},{"bike_id":"046a1592-e371-4373-8640-74aebd7f5e72","system_id":"levelo_inurba_marseille","lat":43.340804,"lon":5.410219,"is_reserved":false,"is_disabled":false,"rental_uris":{"android":"levelo://app?vid=046a1592-e371-4373-8640-74aebd7f5e72","ios":"levelo://app?vid=046a1592-e371-4373-8640-74aebd7f5e72"},"vehicle_type_id":"4","last_reported":1700604398,"current_range_meters":10800,"station_id":"ce4bhqh2rcd13ifvqhlg","pricing_plan_id":"free"},{"bike_id":"f592bd96-cc29-4f0f-b6af-90518383de8e","system_id":"levelo_inurba_marseille","lat":43.340804,"lon":5.410219,"is_reserved":false,"is_disabled":false,"rental_uris":{"android":"levelo://app?vid=f592bd96-cc29-4f0f-b6af-90518383de8e","ios":"levelo://app?vid=f592bd96-cc29-4f0f-b6af-90518383de8e"},"vehicle_type_id":"4","last_reported":1700604398,"current_range_meters":20800,"station_id":"ce4bhqh2rcd13ifvqhlg","pricing_plan_id":"free"},{"bike_id":"b8f8de69-b0ef-4a0a-8c6b-cd4d5e98bed4","system_id":"levelo_inurba_marseille","lat":43.340804,"lon":5.410219,"is_reserved":false,"is_disabled":false,"rental_uris":{"android":"levelo://app?vid=b8f8de69-b0ef-4a0a-8c6b-cd4d5e98bed4","ios":"levelo://app?vid=b8f8de69-b0ef-4a0a-8c6b-cd4d5e98bed4"},"vehicle_type_id":"4","last_reported":1700604398,"current_range_meters":800,"station_id":"ce4bhqh2rcd13ifvqhlg","pricing_plan_id":"free"},{"bike_id":"61d6d11b-ac8b-4c81-8380-d0ef96302c3b","system_id":"levelo_inurba_marseille","lat":43.274103,"lon":5.394016,"is_reserved":false,"is_disabled":false,"rental_uris":{"android":"levelo://app?vid=61d6d11b-ac8b-4c81-8380-d0ef96302c3b","ios":"levelo://app?vid=61d6d11b-ac8b-4c81-8380-d0ef96302c3b"},"vehicle_type_id":"4","last_reported":1700604398,"current_range_meters":26000,"station_id":"ce4bhdp2rcd13ifvqf20","pricing_plan_id":"free"},{"bike_id":"2cfaef90-1407-43a0-9074-96d3b3757cd2","system_id":"levelo_inurba_marseille","lat":43.295523,"lon":5.422926,"is_reserved":false,"is_disabled":false,"rental_uris":{"android":"levelo://app?vid=2cfaef90-1407-43a0-9074-96d3b3757cd2","ios":"levelo://app?vid=2cfaef90-1407-43a0-9074-96d3b3757cd2"},"vehicle_type_id":"4","last_reported":1700604398,"current_range_meters":21600,"station_id":"ce4bhph2rcd13ifvqhdg","pricing_plan_id":"free"},{"bike_id":"047064be-c3a7-4470-8d35-33830f8d085d","system_id":"levelo_inurba_marseille","lat":43.295511,"lon":5.422926,"is_reserved":false,"is_disabled":false,"rental_uris":{"android":"levelo://app?vid=047064be-c3a7-4470-8d35-33830f8d085d","ios":"levelo://app?vid=047064be-c3a7-4470-8d35-33830f8d085d"},"vehicle_type_id":"4","last_reported":1700604398,"current_range_meters":16800,"station_id":"ce4bhph2rcd13ifvqhdg","pricing_plan_id":"free"},{"bike_id":"54c01033-6121-43cd-99f3-7b0407a11e9f","system_id":"levelo_inurba_marseille","lat":43.295511,"lon":5.422926,"is_reserved":false,"is_disabled":false,"rental_uris":{"android":"levelo://app?vid=54c01033-6121-43cd-99f3-7b0407a11e9f","ios":"levelo://app?vid=54c01033-6121-43cd-99f3-7b0407a11e9f"},"vehicle_type_id":"4","last_reported":1700604398,"current_range_meters":28800,"station_id":"ce4bhph2rcd13ifvqhdg","pricing_plan_id":"free"},{"bike_id":"d63f0213-db4d-4ade-9fb5-b0161bcbc51a","system_id":"levelo_inurba_marseille","lat":43.272205,"lon":5.392638,"is_reserved":false,"is_disabled":false,"rental_uris":{"android":"levelo://app?vid=d63f0213-db4d-4ade-9fb5-b0161bcbc51a","ios":"levelo://app?vid=d63f0213-db4d-4ade-9fb5-b0161bcbc51a"},"vehicle_type_id":"4","last_reported":1700604398,"current_range_meters":0,"station_id":"","pricing_plan_id":"free"},{"bike_id":"d0bb53f7-f1b8-4609-a668-27efdac67f66","system_id":"levelo_inurba_marseille","lat":43.27198,"lon":5.3925,"is_reserved":false,"is_disabled":false,"rental_uris":{"android":"levelo://app?vid=d0bb53f7-f1b8-4609-a668-27efdac67f66","ios":"levelo://app?vid=d0bb53f7-f1b8-4609-a668-27efdac67f66"},"vehicle_type_id":"4","last_reported":1700604398,"current_range_meters":0,"station_id":"","pricing_plan_id":"free"},{"bike_id":"cbc2fb9f-e1d7-438a-87af-611b36f7eeb3","system_id":"levelo_inurba_marseille","lat":43.271891,"lon":5.392412,"is_reserved":false,"is_disabled":false,"rental_uris":{"android":"levelo://app?vid=cbc2fb9f-e1d7-438a-87af-611b36f7eeb3","ios":"levelo://app?vid=cbc2fb9f-e1d7-438a-87af-611b36f7eeb3"},"vehicle_type_id":"4","last_reported":1700604398,"current_range_meters":0,"station_id":"","pricing_plan_id":"free"},{"bike_id":"38c8ef2a-9778-459e-bc44-4209d3ca8425","system_id":"levelo_inurba_marseille","lat":43.2781,"lon":5.407026,"is_reserved":false,"is_disabled":false,"rental_uris":{"android":"levelo://app?vid=38c8ef2a-9778-459e-bc44-4209d3ca8425","ios":"levelo://app?vid=38c8ef2a-9778-459e-bc44-4209d3ca8425"},"vehicle_type_id":"4","last_reported":1700604398,"current_range_meters":31200,"station_id":"ce4bhnh2rcd13ifvqgtg","pricing_plan_id":"free"},{"bike_id":"32d94b9f-116c-4ef2-8fde-7564ce1f654f","system_id":"levelo_inurba_marseille","lat":43.278128,"lon":5.407195,"is_reserved":false,"is_disabled":false,"rental_uris":{"android":"levelo://app?vid=32d94b9f-116c-4ef2-8fde-7564ce1f654f","ios":"levelo://app?vid=32d94b9f-116c-4ef2-8fde-7564ce1f654f"},"vehicle_type_id":"4","last_reported":1700604398,"current_range_meters":31600,"station_id":"ce4bhnh2rcd13ifvqgtg","pricing_plan_id":"free"},{"bike_id":"92017e91-4f9b-4304-a3bb-3eb9a46e72b7","system_id":"levelo_inurba_marseille","lat":43.27808,"lon":5.40709,"is_reserved":false,"is_disabled":false,"rental_uris":{"android":"levelo://app?vid=92017e91-4f9b-4304-a3bb-3eb9a46e72b7","ios":"levelo://app?vid=92017e91-4f9b-4304-a3bb-3eb9a46e72b7"},"vehicle_type_id":"4","last_reported":1700604398,"current_range_meters":31200,"station_id":"ce4bhnh2rcd13ifvqgtg","pricing_plan_id":"free"},{"bike_id":"ee336c2d-38af-4a31-9719-77b8f462f745","system_id":"levelo_inurba_marseille","lat":43.278128,"lon":5.407195,"is_reserved":false,"is_disabled":false,"rental_uris":{"android":"levelo://app?vid=ee336c2d-38af-4a31-9719-77b8f462f745","ios":"levelo://app?vid=ee336c2d-38af-4a31-9719-77b8f462f745"},"vehicle_type_id":"4","last_reported":1700604398,"current_range_meters":2400,"station_id":"ce4bhnh2rcd13ifvqgtg","pricing_plan_id":"free"},{"bike_id":"ec166817-0bff-49c5-bade-210bd2da7e7a","system_id":"levelo_inurba_marseille","lat":43.27812,"lon":5.40718,"is_reserved":false,"is_disabled":false,"rental_uris":{"android":"levelo://app?vid=ec166817-0bff-49c5-bade-210bd2da7e7a","ios":"levelo://app?vid=ec166817-0bff-49c5-bade-210bd2da7e7a"},"vehicle_type_id":"4","last_reported":1700604398,"current_range_meters":12400,"station_id":"ce4bhnh2rcd13ifvqgtg","pricing_plan_id":"free"},{"bike_id":"60ca1b97-60e6-4d07-8bcb-938769ac789c","system_id":"levelo_inurba_marseille","lat":43.2781,"lon":5.40719,"is_reserved":false,"is_disabled":false,"rental_uris":{"android":"levelo://app?vid=60ca1b97-60e6-4d07-8bcb-938769ac789c","ios":"levelo://app?vid=60ca1b97-60e6-4d07-8bcb-938769ac789c"},"vehicle_type_id":"4","last_reported":1700604398,"current_range_meters":31200,"station_id":"ce4bhnh2rcd13ifvqgtg","pricing_plan_id":"free"},{"bike_id":"6fc9ab62-d9b2-4af4-9845-02af5df50bde","system_id":"levelo_inurba_marseille","lat":43.27717,"lon":5.40759,"is_reserved":false,"is_disabled":false,"rental_uris":{"android":"levelo://app?vid=6fc9ab62-d9b2-4af4-9845-02af5df50bde","ios":"levelo://app?vid=6fc9ab62-d9b2-4af4-9845-02af5df50bde"},"vehicle_type_id":"4","last_reported":1700604398,"current_range_meters":30400,"station_id":"","pricing_plan_id":"free"},{"bike_id":"be19b6bc-3f21-490e-92b7-2ed7d476706b","system_id":"levelo_inurba_marseille","lat":43.26565,"lon":5.37287,"is_reserved":false,"is_disabled":false,"rental_uris":{"android":"levelo://app?vid=be19b6bc-3f21-490e-92b7-2ed7d476706b","ios":"levelo://app?vid=be19b6bc-3f21-490e-92b7-2ed7d476706b"},"vehicle_type_id":"4","last_reported":1700604398,"current_range_meters":22400,"station_id":"ce4bhg12rcd13ifvqf70","pricing_plan_id":"free"},{"bike_id":"28e8ce00-6b21-4e06-9930-c7c4408cc650","system_id":"levelo_inurba_marseille","lat":43.326174,"lon":5.430584,"is_reserved":false,"is_disabled":false,"rental_uris":{"android":"levelo://app?vid=28e8ce00-6b21-4e06-9930-c7c4408cc650","ios":"levelo://app?vid=28e8ce00-6b21-4e06-9930-c7c4408cc650"},"vehicle_type_id":"4","last_reported":1700604398,"current_range_meters":9200,"station_id":"","pricing_plan_id":"free"},{"bike_id":"626263bd-3c7a-4198-bb60-0269a9e90976","system_id":"levelo_inurba_marseille","lat":43.27995,"lon":5.41663,"is_reserved":false,"is_disabled":false,"rental_uris":{"android":"levelo://app?vid=626263bd-3c7a-4198-bb60-0269a9e90976","ios":"levelo://app?vid=626263bd-3c7a-4198-bb60-0269a9e90976"},"vehicle_type_id":"4","last_reported":1700604398,"current_range_meters":30400,"station_id":"ce4bho12rcd13ifvqh1g","pricing_plan_id":"free"},{"bike_id":"1f6b953e-5841-4f5b-9a7b-9e601ebef2cc","system_id":"levelo_inurba_marseille","lat":43.30802,"lon":5.43519,"is_reserved":false,"is_disabled":false,"rental_uris":{"android":"levelo://app?vid=1f6b953e-5841-4f5b-9a7b-9e601ebef2cc","ios":"levelo://app?vid=1f6b953e-5841-4f5b-9a7b-9e601ebef2cc"},"vehicle_type_id":"4","last_reported":1700604398,"current_range_meters":23200,"station_id":"ce4bhph2rcd13ifvqheg","pricing_plan_id":"free"},{"bike_id":"1b901329-a95c-4dd3-a509-146900733f8b","system_id":"levelo_inurba_marseille","lat":43.26202,"lon":5.379299,"is_reserved":false,"is_disabled":false,"rental_uris":{"android":"levelo://app?vid=1b901329-a95c-4dd3-a509-146900733f8b","ios":"levelo://app?vid=1b901329-a95c-4dd3-a509-146900733f8b"},"vehicle_type_id":"4","last_reported":1700604398,"current_range_meters":24800,"station_id":"ce4bhjp2rcd13ifvqg90","pricing_plan_id":"free"},{"bike_id":"cbefe88e-b04c-48c4-96ea-54e4f93023be","system_id":"levelo_inurba_marseille","lat":43.271368,"lon":5.40928,"is_reserved":false,"is_disabled":false,"rental_uris":{"android":"levelo://app?vid=cbefe88e-b04c-48c4-96ea-54e4f93023be","ios":"levelo://app?vid=cbefe88e-b04c-48c4-96ea-54e4f93023be"},"vehicle_type_id":"4","last_reported":1700604398,"current_range_meters":9200,"station_id":"ce4bhl12rcd13ifvqgf0","pricing_plan_id":"free"},{"bike_id":"1cfcdc26-59d2-422f-a618-c6c4b1ff15c5","system_id":"levelo_inurba_marseille","lat":43.271388,"lon":5.409269,"is_reserved":false,"is_disabled":false,"rental_uris":{"android":"levelo://app?vid=1cfcdc26-59d2-422f-a618-c6c4b1ff15c5","ios":"levelo://app?vid=1cfcdc26-59d2-422f-a618-c6c4b1ff15c5"},"vehicle_type_id":"4","last_reported":1700604398,"current_range_meters":10000,"station_id":"ce4bhl12rcd13ifvqgf0","pricing_plan_id":"free"},