{"last_updated":1716725546,"ttl":30,"version":"2.2","data":{"bikes":[{"bike_id":"58caa6cc-1997-40a9-91ab-a36c91b50ffe","system_id":"levelo_inurba_marseille","lat":43.31341,"lon":5.367098,"is_reserved":false,"is_disabled":false,"rental_uris":{"android":"levelo://app?vid=58caa6cc-1997-40a9-91ab-a36c91b50ffe","ios":"levelo://app?vid=58caa6cc-1997-40a9-91ab-a36c91b50ffe"},"vehicle_type_id":"4","last_reported":1716725546,"current_range_meters":21200,"station_id":"ce4bgr92rcd13ifvqc6g","pricing_plan_id":"cebpf4jnsgd1na2vs0mg"},{"bike_id":"8e0f648f-eee9-4719-a93c-9efbb370a5db","system_id":"levelo_inurba_marseille","lat":43.31341,"lon":5.367098,"is_reserved":false,"is_disabled":false,"rental_uris":{"android":"levelo://app?vid=8e0f648f-eee9-4719-a93c-9efbb370a5db","ios":"levelo://app?vid=8e0f648f-eee9-4719-a93c-9efbb370a5db"},"vehicle_type_id":"4","last_reported":1716725546,"current_range_meters":16800,"station_id":"ce4bgr92rcd13ifvqc6g","pricing_plan_id":"cebpf4jnsgd1na2vs0mg"},{"bike_id":"47c47987-63ae-4bbe-86fb-daba7c87ec7f","system_id":"levelo_inurba_marseille","lat":43.312239,"lon":5.368562,"is_reserved":false,"is_disabled":false,"rental_uris":{"android":"levelo://app?vid=47c47987-63ae-4bbe-86fb-daba7c87ec7f","ios":"levelo://app?vid=47c47987-63ae-4bbe-86fb-daba7c87ec7f"},"vehicle_type_id":"4","last_reported":1716725546,"current_range_meters":12800,"station_id":"ce4bgl92rcd13ifvqbq0","pricing_plan_id":"cebpf4jnsgd1na2vs0mg"},{"bike_id":"0d9ac779-4bc4-4f4d-9c9d-c843fac090ab","system_id":"levelo_inurba_marseille","lat":43.312239,"lon":5.368562,"is_reserved":false,"is_disabled":false,"rental_uris":{"android":"levelo://app?vid=0d9ac779-4bc4-4f4d-9c9d-c843fac090ab","ios":"levelo://app?vid=0d9ac779-4bc4-4f4d-9c9d-c843fac090ab"},"vehicle_type_id":"4","last_reported":1716725546,"current_range_meters":18000,"station_id":"ce4bgl92rcd13ifvqbq0","pricing_plan_id":"cebpf4jnsgd1na2vs0mg"},{"bike_id":"dfe77dfa-8cb6-4e75-9211-9b8039266f5c","system_id":"levelo_inurba_marseille","lat":43.312239,"lon":5.368562,"is_reserved":false,"is_disabled":false,"rental_uris":{"android":"levelo://app?vid=dfe77dfa-8cb6-4e75-9211-9b8039266f5c","ios":"levelo://app?vid=dfe77dfa-8cb6-4e75-9211-9b8039266f5c"},"vehicle_type_id":"4","last_reported":1716725546,"current_range_meters":26800,"station_id":"ce4bgl92rcd13ifvqbq0","pricing_plan_id":"cebpf4jnsgd1na2vs0mg"},{"bike_id":"66e7bb78-51d9-4f32-92e5-c8f26b1235b6","system_id":"levelo_inurba_marseille","lat":43.312239,"lon":5.368562,"is_reserved":false,"is_disabled":false,"rental_uris":{"android":"levelo://app?vid=66e7bb78-51d9-4f32-92e5-c8f26b1235b6","ios":"levelo://app?vid=66e7bb78-51d9-4f32-92e5-c8f26b1235b6"},"vehicle_type_id":"4","last_reported":1716725546,"current_range_meters":25600,"station_id":"ce4bgl92rcd13ifvqbq0","pricing_plan_id":"cebpf4jnsgd1na2vs0mg"},{"bike_id":"a5ea7322-8cc0-4080-bb9b-9b973f392def","system_id":"levelo_inurba_marseille","lat":43.312239,"lon":5.368562,"is_reserved":false,"is_disabled":false,"rental_uris":{"android":"levelo://app?vid=a5ea7322-8cc0-4080-bb9b-9b973f392def","ios":"levelo://app?vid=a5ea7322-8cc0-4080-bb9b-9b973f392def"},"vehicle_type_id":"4","last_reported":1716725546,"current_range_meters":14000,"station_id":"ce4bgl92rcd13ifvqbq0","pricing_plan_id":"cebpf4jnsgd1na2vs0mg"},{"bike_id":"cb5d309c-b24d-42c5-a148-437811cbe9a3","system_id":"levelo_inurba_marseille","lat":43.312239,"lon":5.368562,"is_reserved":false,"is_disabled":false,"rental_uris":{"android":"levelo://app?vid=cb5d309c-b24d-42c5-a148-437811cbe9a3","ios":"levelo://app?vid=cb5d309c-b24d-42c5-a148-437811cbe9a3"},"vehicle_type_id":"4","last_reported":1716725546,"current_range_meters":9600,"station_id":"ce4bgl92rcd13ifvqbq0","pricing_plan_id":"cebpf4jnsgd1na2vs0mg"},{"bike_id":"47163bb2-592e-40e8-854f-ddee48868ba6","system_id":"levelo_inurba_marseille","lat":43.31223,"lon":5.3687,"is_reserved":false,"is_disabled":false,"rental_uris":{"android":"levelo://app?vid=47163bb2-592e-40e8-854f-ddee48868ba6","ios":"levelo://app?vid=47163bb2-592e-40e8-854f-ddee48868ba6"},"vehicle_type_id":"4","last_reported":1716725546,"current_range_meters":12800,"station_id":"ce4bgl92rcd13ifvqbq0","pricing_plan_id":"cebpf4jnsgd1na2vs0mg"},{"bike_id":"b08ecac8-196e-4708-8fff-9730b1760de3","system_id":"levelo_inurba_marseille","lat":43.309076,"lon":5.368465,"is_reserved":false,"is_disabled":false,"rental_uris":{"android":"levelo://app?vid=b08ecac8-196e-4708-8fff-9730b1760de3","ios":"levelo://app?vid=b08ecac8-196e-4708-8fff-9730b1760de3"},"vehicle_type_id":"4","last_reported":1716725546,"current_range_meters":15200,"station_id":"ce4bgn92rcd13ifvqbvg","pricing_plan_id":"cebpf4jnsgd1na2vs0mg"},{"bike_id":"e43c71e9-9097-4195-b6d5-a2ea79bfe5c8","system_id":"levelo_inurba_marseille","lat":43.314811,"lon":5.373103,"is_reserved":false,"is_disabled":false,"rental_uris":{"android":"levelo://app?vid=e43c71e9-9097-4195-b6d5-a2ea79bfe5c8","ios":"levelo://app?vid=e43c71e9-9097-4195-b6d5-a2ea79bfe5c8"},"vehicle_type_id":"4","last_reported":1716725546,"current_range_meters":26800,"station_id":"ce4bgt12rcd13ifvqcd0","pricing_plan_id":"cebpf4jnsgd1na2vs0mg"},{"bike_id":"c9f60e6a-165b-4b53-8a2d-95fc7ef763c9","system_id":"levelo_inurba_marseille","lat":43.305714,"lon":5.365633,"is_reserved":false,"is_disabled":false,"rental_uris":{"android":"levelo://app?vid=c9f60e6a-165b-4b53-8a2d-95fc7ef763c9","ios":"levelo://app?vid=c9f60e6a-165b-4b53-8a2d-95fc7ef763c9"},"vehicle_type_id":"4","last_reported":1716725546,"current_range_meters":4000,"station_id":"ce4bgs12rcd13ifvqcag","pricing_plan_id":"cebpf4jnsgd1na2vs0mg"},{"bike_id":"b498072e-b732-43ef-89b7-283f3da4509d","system_id":"levelo_inurba_marseille","lat":43.305714,"lon":5.365633,"is_reserved":false,"is_disabled":false,"rental_uris":{"android":"levelo://app?vid=b498072e-b732-43ef-89b7-283f3da4509d","ios":"levelo://app?vid=b498072e-b732-43ef-89b7-283f3da4509d"},"vehicle_type_id":"4","last_reported":1716725546,"current_range_meters":12000,"station_id":"ce4bgs12rcd13ifvqcag","pricing_plan_id":"cebpf4jnsgd1na2vs0mg"},{"bike_id":"3a56f35b-758e-42ec-9f69-577d7fd598a8","system_id":"levelo_inurba_marseille","lat":43.305706,"lon":5.365654,"is_reserved":false,"is_disabled":false,"rental_uris":{"android":"levelo://app?vid=3a56f35b-758e-42ec-9f69-577d7fd598a8","ios":"levelo://app?vid=3a56f35b-758e-42ec-9f69-577d7fd598a8"},"vehicle_type_id":"4","last_reported":1716725546,"current_range_meters":19600,"station_id":"ce4bgs12rcd13ifvqcag","pricing_plan_id":"cebpf4jnsgd1na2vs0mg"},{"bike_id":"50c26910-3687-48da-b3c9-d9ae09c426a5","system_id":"levelo_inurba_marseille","lat":43.305714,"lon":5.365633,"is_reserved":false,"is_disabled":false,"rental_uris":{"android":"levelo://app?vid=50c26910-3687-48da-b3c9-d9ae09c426a5","ios":"levelo://app?vid=50c26910-3687-48da-b3c9-d9ae09c426a5"},"vehicle_type_id":"4","last_reported":1716725546,"current_range_meters":26800,"station_id":"ce4bgs12rcd13ifvqcag","pricing_plan_id":"cebpf4jnsgd1na2vs0mg"},{"bike_id":"cfc6ed7f-ee48-4e3e-ad64-ebfbd30b5a27","system_id":"levelo_inurba_marseille","lat":43.305714,"lon":5.365633,"is_reserved":false,"is_disabled":false,"rental_uris":{"android":"levelo://app?vid=cfc6ed7f-ee48-4e3e-ad64-ebfbd30b5a27","ios":"levelo://app?vid=cfc6ed7f-ee48-4e3e-ad64-ebfbd30b5a27"},"vehicle_type_id":"4","last_reported":1716725546,"current_range_meters":28800,"station_id":"ce4bgs12rcd13ifvqcag","pricing_plan_id":"cebpf4jnsgd1na2vs0mg"},{"bike_id":"b062c8c7-9892-4177-91b2-94f944bb907f","system_id":"levelo_inurba_marseille","lat":43.30527,"lon":5.365437,"is_reserved":false,"is_disabled":false,"rental_uris":{"android":"levelo://app?vid=b062c8c7-9892-4177-91b2-94f944bb907f","ios":"levelo://app?vid=b062c8c7-9892-4177-91b2-94f944bb907f"},"vehicle_type_id":"4","last_reported":1716725546,"current_range_meters":0,"station_id":"ce4bgs12rcd13ifvqcag","pricing_plan_id":"cebpf4jnsgd1na2vs0mg"},{"bike_id":"085f8808-1d82-4a31-a42a-8e58df7e3717","system_id":"levelo_inurba_marseille","lat":43.305989,"lon":5.37225,"is_reserved":false,"is_disabled":false,"rental_uris":{"android":"levelo://app?vid=085f8808-1d82-4a31-a42a-8e58df7e3717","ios":"levelo://app?vid=085f8808-1d82-4a31-a42a-8e58df7e3717"},"vehicle_type_id":"4","last_reported":1716725546,"current_range_meters":31200,"station_id":"ce4bgqh2rcd13ifvqc4g","pricing_plan_id":"cebpf4jnsgd1na2vs0mg"},{"bike_id":"2cb8bf54-74b1-4d76-9d4c-4e4db24ea236","system_id":"levelo_inurba_marseille","lat":43.311131,"lon":5.377651,"is_reserved":false,"is_disabled":false,"rental_uris":{"android":"levelo://app?vid=2cb8bf54-74b1-4d76-9d4c-4e4db24ea236","ios":"levelo://app?vid=2cb8bf54-74b1-4d76-9d4c-4e4db24ea236"},"vehicle_type_id":"4","last_reported":1716725546,"current_range_meters":6000,"station_id":"ce4bgt92rcd13ifvqcg0","pricing_plan_id":"cebpf4jnsgd1na2vs0mg"},{"bike_id":"5055c8a2-cd8a-43db-b86d-5e6b9b0890ab","system_id":"levelo_inurba_marseille","lat":43.311125,"lon":5.377624,"is_reserved":false,"is_disabled":false,"rental_uris":{"android":"levelo://app?vid=5055c8a2-cd8a-43db-b86d-5e6b9b0890ab","ios":"levelo://app?vid=5055c8a2-cd8a-43db-b86d-5e6b9b0890ab"},"vehicle_type_id":"4","last_reported":1716725546,"current_range_meters":5200,"station_id":"ce4bgt92rcd13ifvqcg0","pricing_plan_id":"cebpf4jnsgd1na2vs0mg"},{"bike_id":"eacdf7f8-4119-446f-b067-c260d0e7fc80","system_id":"levelo_inurba_marseille","lat":43.305368,"lon":5.367343,"is_reserved":false,"is_disabled":false,"rental_uris":{"android":"levelo://app?vid=eacdf7f8-4119-446f-b067-c260d0e7fc80","ios":"levelo://app?vid=eacdf7f8-4119-446f-b067-c260d0e7fc80"},"vehicle_type_id":"4","last_reported":1716725546,"current_range_meters":9600,"station_id":"ce4bgrp2rcd13ifvqc9g","pricing_plan_id":"cebpf4jnsgd1na2vs0mg"},{"bike_id":"d0c1e84f-3b63-449e-b8d4-cad64f5066e7","system_id":"levelo_inurba_marseille","lat":43.30784,"lon":5.37651,"is_reserved":false,"is_disabled":false,"rental_uris":{"android":"levelo://app?vid=d0c1e84f-3b63-449e-b8d4-cad64f5066e7","ios":"levelo://app?vid=d0c1e84f-3b63-449e-b8d4-cad64f5066e7"},"vehicle_type_id":"4","last_reported":1716725546,"current_range_meters":4000,"station_id":"","pricing_plan_id":"cebpf4jnsgd1na2vs0mg"},{"bike_id":"ed08575a-4984-44c8-bed5-31b97e1ac2b7","system_id":"levelo_inurba_marseille","lat":43.30792,"lon":5.3766,"is_reserved":false,"is_disabled":false,"rental_uris":{"android":"levelo://app?vid=ed08575a-4984-44c8-bed5-31b97e1ac2b7","ios":"levelo://app?vid=ed08575a-4984-44c8-bed5-31b97e1ac2b7"},"vehicle_type_id":"4","last_reported":1716725546,"current_range_meters":13200,"station_id":"ce4bgv92rcd13ifvqcq0","pricing_plan_id":"cebpf4jnsgd1na2vs0mg"},{"bike_id":"5e90a2ae-9d93-4cd7-8b92-af22a43452f8","system_id":"levelo_inurba_marseille","lat":43.307945,"lon":5.376487,"is_reserved":false,"is_disabled":false,"rental_uris":{"android":"levelo://app?vid=5e90a2ae-9d93-4cd7-8b92-af22a43452f8","ios":"levelo://app?vid=5e90a2ae-9d93-4cd7-8b92-af22a43452f8"},"vehicle_type_id":"4","last_reported":1716725546,"current_range_meters":24000,"station_id":"ce4bgv92rcd13ifvqcq0","pricing_plan_id":"cebpf4jnsgd1na2vs0mg"},{"bike_id":"e185d042-b113-43b0-be4b-ae5eef04871e","system_id":"levelo_inurba_marseille","lat":43.317075,"lon":5.377367,"is_reserved":false,"is_disabled":false,"rental_uris":{"android":"levelo://app?vid=e185d042-b113-43b0-be4b-ae5eef04871e","ios":"levelo://app?vid=e185d042-b113-43b0-be4b-ae5eef04871e"},"vehicle_type_id":"4","last_reported":1716725546,"current_range_meters":22000,"station_id":"ce4bgth2rcd13ifvqch0","pricing_plan_id":"cebpf4jnsgd1na2vs0mg"},{"bike_id":"40a01379-f9cd-490e-93d8-cb4975533772","system_id":"levelo_inurba_marseille","lat":43.317075,"lon":5.377367,"is_reserved":false,"is_disabled":false,"rental_uris":{"android":"levelo://app?vid=40a01379-f9cd-490e-93d8-cb4975533772","ios":"levelo://app?vid=40a01379-f9cd-490e-93d8-cb4975533772"},"vehicle_type_id":"4","last_reported":1716725546,"current_range_meters":14800,"station_id":"ce4bgth2rcd13ifvqch0","pricing_plan_id":"cebpf4jnsgd1na2vs0mg"},{"bike_id":"8dd90826-411d-4f61-8b10-b9145950c518","system_id":"levelo_inurba_marseille","lat":43.317075,"lon":5.377367,"is_reserved":false,"is_disabled":false,"rental_uris":{"android":"levelo://app?vid=8dd90826-411d-4f61-8b10-b9145950c518","ios":"levelo://app?vid=8dd90826-411d-4f61-8b10-b9145950c518"},"vehicle_type_id":"4","last_reported":1716725546,"current_range_meters":28400,"station_id":"ce4bgth2rcd13ifvqch0","pricing_plan_id":"cebpf4jnsgd1na2vs0mg"},{"bike_id":"081499e4-206e-44e5-93c8-1a6bb47776d4","system_id":"levelo_inurba_marseille","lat":43.317075,"lon":5.377367,"is_reserved":false,"is_disabled":false,"rental_uris":{"android":"levelo://app?vid=081499e4-206e-44e5-93c8-1a6bb47776d4","ios":"levelo://app?vid=081499e4-206e-44e5-93c8-1a6bb47776d4"},"vehicle_type_id":"4","last_reported":1716725546,"current_range_meters":29600,"station_id":"ce4bgth2rcd13ifvqch0","pricing_plan_id":"cebpf4jnsgd1na2vs0mg"},{"bike_id":"7655e01f-4d2b-40be-8cd0-64703ee23026","system_id":"levelo_inurba_marseille","lat":43.317075,"lon":5.377367,"is_reserved":false,"is_disabled":false,"rental_uris":{"android":"levelo://app?vid=7655e01f-4d2b-40be-8cd0-64703ee23026","ios":"levelo://app?vid=7655e01f-4d2b-40be-8cd0-64703ee23026"},"vehicle_type_id":"4","last_reported":1716725546,"current_range_meters":29200,"station_id":"ce4bgth2rcd13ifvqch0","pricing_plan_id":"cebpf4jnsgd1na2vs0mg"},{"bike_id":"f4af1975-1a29-4db0-82c1-22393b1e1c8a","system_id":"levelo_inurba_marseille","lat":43.317075,"lon":5.377367,"is_reserved":false,"is_disabled":false,"rental_uris":{"android":"levelo://app?vid=f4af1975-1a29-4db0-82c1-22393b1e1c8a","ios":"levelo://app?vid=f4af1975-1a29-4db0-82c1-22393b1e1c8a"},"vehicle_type_id":"4","last_reported":1716725546,"current_range_meters":30000,"station_id":"ce4bgth2rcd13ifvqch0","pricing_plan_id":"cebpf4jnsgd1na2vs0mg"},{"bike_id":"cdd9b3eb-7a48-421e-9f19-e2e804a0675c","system_id":"levelo_inurba_marseille","lat":43.303046,"lon":5.368981,"is_reserved":false,"is_disabled":false,"rental_uris":{"android":"levelo://app?vid=cdd9b3eb-7a48-421e-9f19-e2e804a0675c","ios":"levelo://app?vid=cdd9b3eb-7a48-421e-9f19-e2e804a0675c"},"vehicle_type_id":"4","last_reported":1716725546,"current_range_meters":1600,"station_id":"ce4bgqh2rcd13ifvqc5g","pricing_plan_id":"cebpf4jnsgd1na2vs0mg"},{"bike_id":"22249600-f1ee-4a74-b333-cf84d632b691","system_id":"levelo_inurba_marseille","lat":43.30298,"lon":5.36885,"is_reserved":false,"is_disabled":false,"rental_uris":{"android":"levelo://app?vid=22249600-f1ee-4a74-b333-cf84d632b691","ios":"levelo://app?vid=22249600-f1ee-4a74-b333-cf84d632b691"},"vehicle_type_id":"4","last_reported":1716725546,"current_range_meters":12000,"station_id":"ce4bgqh2rcd13ifvqc5g","pricing_plan_id":"cebpf4jnsgd1na2vs0mg"},{"bike_id":"c6a626d8-7d83-4a7d-99b5-0b86b6f51b2d","system_id":"levelo_inurba_marseille","lat":43.315289,"lon":5.380349,"is_reserved":false,"is_disabled":false,"rental_uris":{"android":"levelo://app?vid=c6a626d8-7d83-4a7d-99b5-0b86b6f51b2d","ios":"levelo://app?vid=c6a626d8-7d83-4a7d-99b5-0b86b6f51b2d"},"vehicle_type_id":"4","last_reported":1716725546,"current_range_meters":31200,"station_id":"ce4bhsp2rcd13ifvqi50","pricing_plan_id":"cebpf4jnsgd1na2vs0mg"},{"bike_id":"edadceef-508d-4a5d-8edb-39a0d97be142","system_id":"levelo_inurba_marseille","lat":43.315293,"lon":5.380349,"is_reserved":false,"is_disabled":false,"rental_uris":{"android":"levelo://app?vid=edadceef-508d-4a5d-8edb-39a0d97be142","ios":"levelo://app?vid=edadceef-508d-4a5d-8edb-39a0d97be142"},"vehicle_type_id":"4","last_reported":1716725546,"current_range_meters":27600,"station_id":"ce4bhsp2rcd13ifvqi50","pricing_plan_id":"cebpf4jnsgd1na2vs0mg"},{"bike_id":"17f14376-e189-4db7-9164-08a45cdc28df","system_id":"levelo_inurba_marseille","lat":43.315289,"lon":5.380349,"is_reserved":false,"is_disabled":false,"rental_uris":{"android":"levelo://app?vid=17f14376-e189-4db7-9164-08a45cdc28df","ios":"levelo://app?vid=17f14376-e189-4db7-9164-08a45cdc28df"},"vehicle_type_id":"4","last_reported":1716725546,"current_range_meters":0,"station_id":"ce4bhsp2rcd13ifvqi50","pricing_plan_id":"cebpf4jnsgd1na2vs0mg"},{"bike_id":"356067b0-fc27-458f-a83f-00325bd1612f","system_id":"levelo_inurba_marseille","lat":43.315293,"lon":5.380349,"is_reserved":false,"is_disabled":false,"rental_uris":{"android":"levelo://app?vid=356067b0-fc27-458f-a83f-00325bd1612f","ios":"levelo://app?vid=356067b0-fc27-458f-a83f-00325bd1612f"},"vehicle_type_id":"4","last_reported":1716725546,"current_range_meters":19600,"station_id":"ce4bhsp2rcd13ifvqi50","pricing_plan_id":"cebpf4jnsgd1na2vs0mg"},{"bike_id":"ed38837c-dc88-46db-90f8-799b290a007b","system_id":"levelo_inurba_marseille","lat":43.30817,"lon":5.3815,"is_reserved":false,"is_disabled":false,"rental_uris":{"android":"levelo://app?vid=ed38837c-dc88-46db-90f8-799b290a007b","ios":"levelo://app?vid=ed38837c-dc88-46db-90f8-799b290a007b"},"vehicle_type_id":"4","last_reported":1716725546,"current_range_meters":18800,"station_id":"ce4bgt12rcd13ifvqce0","pricing_plan_id":"cebpf4jnsgd1na2vs0mg"},{"bike_id":"43a62eb9-f484-4612-a33d-ce7df29369a2","system_id":"levelo_inurba_marseille","lat":43.308012,"lon":5.381511,"is_reserved":false,"is_disabled":false,"rental_uris":{"android":"levelo://app?vid=43a62eb9-f484-4612-a33d-ce7df29369a2","ios":"levelo://app?vid=43a62eb9-f484-4612-a33d-ce7df29369a2"},"vehicle_type_id":"4","last_reported":1716725546,"current_range_meters":17200,"station_id":"ce4bgt12rcd13ifvqce0","pricing_plan_id":"cebpf4jnsgd1na2vs0mg"},{"bike_id":"3fbc34f4-61e3-4f3a-bbaf-b3e340ff99fc","system_id":"levelo_inurba_marseille","lat":43.304606,"lon":5.379026,"is_reserved":false,"is_disabled":false,"rental_uris":{"android":"levelo://app?vid=3fbc34f4-61e3-4f3a-bbaf-b3e340ff99fc","ios":"levelo://app?vid=3fbc34f4-61e3-4f3a-bbaf-b3e340ff99fc"},"vehicle_type_id":"4","last_reported":1716725546,"current_range_meters":10400,"station_id":"ce4bgup2rcd13ifvqcn0","pricing_plan_id":"cebpf4jnsgd1na2vs0mg"},{"bike_id":"0a2473e9-c51d-44d6-97cb-e4acd6ad45bb","system_id":"levelo_inurba_marseille","lat":43.304606,"lon":5.379026,"is_reserved":false,"is_disabled":false,"rental_uris":{"android":"levelo://app?vid=0a2473e9-c51d-44d6-97cb-e4acd6ad45bb","ios":"levelo://app?vid=0a2473e9-c51d-44d6-97cb-e4acd6ad45bb"},"vehicle_type_id":"4","last_reported":1716725546,"current_range_meters":27600,"station_id":"ce4bgup2rcd13ifvqcn0","pricing_plan_id":"cebpf4jnsgd1na2vs0mg"},{"bike_id":"0e5208a5-fc03-4bc7-8770-6cc5cb1a4bea","system_id":"levelo_inurba_marseille","lat":43.304606,"lon":5.379026,"is_reserved":false,"is_disabled":false,"rental_uris":{"android":"levelo://app?vid=0e5208a5-fc03-4bc7-8770-6cc5cb1a4bea","ios":"levelo://app?vid=0e5208a5-fc03-4bc7-8770-6cc5cb1a4bea"},"vehicle_type_id":"4","last_reported":1716725546,"current_range_meters":30000,"station_id":"ce4bgup2rcd13ifvqcn0","pricing_plan_id":"cebpf4jnsgd1na2vs0mg"},{"bike_id":"5fc74b4a-0a78-4ba2-be54-da22b3dbb08a","system_id":"levelo_inurba_marseille","lat":43.304606,"lon":5.379026,"is_reserved":false,"is_disabled":false,"rental_uris":{"android":"levelo://app?vid=5fc74b4a-0a78-4ba2-be54-da22b3dbb08a","ios":"levelo://app?vid=5fc74b4a-0a78-4ba2-be54-da22b3dbb08a"},"vehicle_type_id":"4","last_reported":1716725546,"current_range_meters":5600,"station_id":"ce4bgup2rcd13ifvqcn0","pricing_plan_id":"cebpf4jnsgd1na2vs0mg"},{"bike_id":"71a56a80-db24-465f-af67-8ee54602e2c2","system_id":"levelo_inurba_marseille","lat":43.324771,"lon":5.36557,"is_reserved":false,"is_disabled":false,"rental_uris":{"android":"levelo://app?vid=71a56a80-db24-465f-af67-8ee54602e2c2","ios":"levelo://app?vid=71a56a80-db24-465f-af67-8ee54602e2c2"},"vehicle_type_id":"4","last_reported":1716725546,"current_range_meters":17600,"station_id":"ce4bhs12rcd13ifvqhvg","pricing_plan_id":"cebpf4jnsgd1na2vs0mg"},{"bike_id":"72ba4090-3817-4ac9-a00a-506384b53c7f","system_id":"levelo_inurba_marseille","lat":43.32477,"lon":5.365848,"is_reserved":false,"is_disabled":false,"rental_uris":{"android":"levelo://app?vid=72ba4090-3817-4ac9-a00a-506384b53c7f","ios":"levelo://app?vid=72ba4090-3817-4ac9-a00a-506384b53c7f"},"vehicle_type_id":"4","last_reported":1716725546,"current_range_meters":30800,"station_id":"ce4bhs12rcd13ifvqhvg","pricing_plan_id":"cebpf4jnsgd1na2vs0mg"},{"bike_id":"1e27f010-3bdb-4762-a3d2-70f5517cc08d","system_id":"levelo_inurba_marseille","lat":43.324771,"lon":5.36557,"is_reserved":false,"is_disabled":false,"rental_uris":{"android":"levelo://app?vid=1e27f010-3bdb-4762-a3d2-70f5517cc08d","ios":"levelo://app?vid=1e27f010-3bdb-4762-a3d2-70f5517cc08d"},"vehicle_type_id":"4","last_reported":1716725546,"current_range_meters":28000,"station_id":"ce4bhs12rcd13ifvqhvg","pricing_plan_id":"cebpf4jnsgd1na2vs0mg"},{"bike_id":"5ba57246-381c-42a7-888f-31ff2c231548","system_id":"levelo_inurba_marseille","lat":43.324771,"lon":5.36557,"is_reserved":false,"is_disabled":false,"rental_uris":{"android":"levelo://app?vid=5ba57246-381c-42a7-888f-31ff2c231548","ios":"levelo://app?vid=5ba57246-381c-42a7-888f-31ff2c231548"},"vehicle_type_id":"4","last_reported":1716725546,"current_range_meters":30400,"station_id":"ce4bhs12rcd13ifvqhvg","pricing_plan_id":"cebpf4jnsgd1na2vs0mg"},{"bike_id":"4b71860f-08ca-44c4-8e6f-d2cf30cc0add","system_id":"levelo_inurba_marseille","lat":43.324771,"lon":5.36557,"is_reserved":false,"is_disabled":false,"rental_uris":{"android":"levelo://app?vid=4b71860f-08ca-44c4-8e6f-d2cf30cc0add","ios":"levelo://app?vid=4b71860f-08ca-44c4-8e6f-d2cf30cc0add"},"vehicle_type_id":"4","last_reported":1716725546,"current_range_meters":20000,"station_id":"ce4bhs12rcd13ifvqhvg","pricing_plan_id":"cebpf4jnsgd1na2vs0mg"},{"bike_id":"13a6372d-811a-4e38-bfdb-fbeba9a1c9d6","system_id":"levelo_inurba_marseille","lat":43.304606,"lon":5.379026,"is_reserved":false,"is_disabled":false,"rental_uris":{"android":"levelo://app?vid=13a6372d-811a-4e38-bfdb-fbeba9a1c9d6","ios":"levelo://app?vid=13a6372d-811a-4e38-bfdb-fbeba9a1c9d6"},"vehicle_type_id":"4","last_reported":1716725546,"current_range_meters":6800,"station_id":"ce4bgup2rcd13ifvqcn0","pricing_plan_id":"cebpf4jnsgd1na2vs0mg"},{"bike_id":"0fe1c741-31ef-4c42-ae4f-9fc5e42ec0c2","system_id":"levelo_inurba_marseille","lat":43.324771,"lon":5.36557,"is_reserved":false,"is_disabled":false,"rental_uris":{"android":"levelo://app?vid=0fe1c741-31ef-4c42-ae4f-9fc5e42ec0c2","ios":"levelo://app?vid=0fe1c741-31ef-4c42-ae4f-9fc5e42ec0c2"},"vehicle_type_id":"4","last_reported":1716725546,"current_range_meters":22000,"station_id":"ce4bhs12rcd13ifvqhvg","pricing_plan_id":"cebpf4jnsgd1na2vs0mg"},{"bike_id":"99a35186-da9f-462a-b777-ca5d239a806c","system_id":"levelo_inurba_marseille","lat":43.324771,"lon":5.36557,"is_reserved":false,"is_disabled":false,"rental_uris":{"android":"levelo://app?vid=99a35186-da9f-462a-b777-ca5d239a806c","ios":"levelo://app?vid=99a35186-da9f-462a-b777-ca5d239a806c"},"vehicle_type_id":"4","last_reported":1716725546,"current_range_meters":19600,"station_id":"ce4bhs12rcd13ifvqhvg","pricing_plan_id":"cebpf4jnsgd1na2vs0mg"},{"bike_id":"df9adbed-f2a9-4a89-929f-05e694fcb034","system_id":"levelo_inurba_marseille","lat":43.324771,"lon":5.36557,"is_reserved":false,"is_disabled":false,"rental_uris":{"android":"levelo://app?vid=df9adbed-f2a9-4a89-929f-05e694fcb034","ios":"levelo://app?vid=df9adbed-f2a9-4a89-929f-05e694fcb034"},"vehicle_type_id":"4","last_reported":1716725546,"current_range_meters":7600,"station_id":"ce4bhs12rcd13ifvqhvg","pricing_plan_id":"cebpf4jnsgd1na2vs0mg"},{"bike_id":"27e218a8-538f-4c3f-9de3-25438fba3434","system_id":"levelo_inurba_marseille","lat":43.324771,"lon":5.36557,"is_reserved":false,"is_disabled":false,"rental_uris":{"android":"levelo://app?vid=27e218a8-538f-4c3f-9de3-25438fba3434","ios":"levelo://app?vid=27e218a8-538f-4c3f-9de3-25438fba3434"},"vehicle_type_id":"4","last_reported":1716725546,"current_range_meters":29200,"station_id":"ce4bhs12rcd13ifvqhvg","pricing_plan_id":"cebpf4jnsgd1na2vs0mg"},{"bike_id":"11afafd0-4eff-440f-850c-1e17bea26cdf","system_id":"levelo_inurba_marseille","lat":43.324771,"lon":5.36557,"is_reserved":false,"is_disabled":false,"rental_uris":{"android":"levelo://app?vid=11afafd0-4eff-440f-850c-1e17bea26cdf","ios":"levelo://app?vid=11afafd0-4eff-440f-850c-1e17bea26cdf"},"vehicle_type_id":"4","last_reported":1716725546,"current_range_meters":17600,"station_id":"ce4bhs12rcd13ifvqhvg","pricing_plan_id":"cebpf4jnsgd1na2vs0mg"},{"bike_id":"509f52ef-5adc-4298-b948-6051f452a91f","system_id":"levelo_inurba_marseille","lat":43.310804,"lon":5.38359,"is_reserved":false,"is_disabled":false,"rental_uris":{"android":"levelo://app?vid=509f52ef-5adc-4298-b948-6051f452a91f","ios":"levelo://app?vid=509f52ef-5adc-4298-b948-6051f452a91f"},"vehicle_type_id":"4","last_reported":1716725546,"current_range_meters":2800,"station_id":"ce4bgv92rcd13ifvqcr0","pricing_plan_id":"cebpf4jnsgd1na2vs0mg"},{"bike_id":"dfa9439d-0f11-4a7d-b3c7-f7baef6141f9","system_id":"levelo_inurba_marseille","lat":43.310732,"lon":5.38357,"is_reserved":false,"is_disabled":false,"rental_uris":{"android":"levelo://app?vid=dfa9439d-0f11-4a7d-b3c7-f7baef6141f9","ios":"levelo://app?vid=dfa9439d-0f11-4a7d-b3c7-f7baef6141f9"},"vehicle_type_id":"4","last_reported":1716725546,"current_range_meters":400,"station_id":"ce4bgv92rcd13ifvqcr0","pricing_plan_id":"cebpf4jnsgd1na2vs0mg"},{"bike_id":"31350a20-ae87-48bf-9580-6ecfb165cca7","system_id":"levelo_inurba_marseille","lat":43.304606,"lon":5.379026,"is_reserved":false,"is_disabled":false,"rental_uris":{"android":"levelo://app?vid=31350a20-ae87-48bf-9580-6ecfb165cca7","ios":"levelo://app?vid=31350a20-ae87-48bf-9580-6ecfb165cca7"},"vehicle_type_id":"4","last_reported":1716725546,"current_range_meters":30400,"station_id":"ce4bgup2rcd13ifvqcn0","pricing_plan_id":"cebpf4jnsgd1na2vs0mg"},{"bike_id":"00a26df5-0b3c-4896-8884-5e0b0ecf6da6","system_id":"levelo_inurba_marseille","lat":43.302784,"lon":5.377158,"is_reserved":false,"is_disabled":false,"rental_uris":{"android":"levelo://app?vid=00a26df5-0b3c-4896-8884-5e0b0ecf6da6","ios":"levelo://app?vid=00a26df5-0b3c-4896-8884-5e0b0ecf6da6"},"vehicle_type_id":"4","last_reported":1716725546,"current_range_meters":18000,"station_id":"ce4bguh2rcd13ifvqcj0","pricing_plan_id":"cebpf4jnsgd1na2vs0mg"},{"bike_id":"dc72b69d-0148-4120-9a0c-70dd1a60dbc9","system_id":"levelo_inurba_marseille","lat":43.302784,"lon":5.377158,"is_reserved":false,"is_disabled":false,"rental_uris":{"android":"levelo://app?vid=dc72b69d-0148-4120-9a0c-70dd1a60dbc9","ios":"levelo://app?vid=dc72b69d-0148-4120-9a0c-70dd1a60dbc9"},"vehicle_type_id":"4","last_reported":1716725546,"current_range_meters":22800,"station_id":"ce4bguh2rcd13ifvqcj0","pricing_plan_id":"cebpf4jnsgd1na2vs0mg"},{"bike_id":"80e74d15-b14a-4ca6-a885-bcc9a5ffe152","system_id":"levelo_inurba_marseille","lat":43.301429,"lon":5.37413,"is_reserved":false,"is_disabled":false,"rental_uris":{"android":"levelo://app?vid=80e74d15-b14a-4ca6-a885-bcc9a5ffe152","ios":"levelo://app?vid=80e74d15-b14a-4ca6-a885-bcc9a5ffe152"},"vehicle_type_id":"4","last_reported":1716725546,"current_range_meters":12400,"station_id":"ce4bgs92rcd13ifvqcc0","pricing_plan_id":"cebpf4jnsgd1na2vs0mg"},{"bike_id":"0328e386-ad2d-406e-af35-30c1079a1ce1","system_id":"levelo_inurba_marseille","lat":43.319935,"lon":5.381699,"is_reserved":false,"is_disabled":false,"rental_uris":{"android":"levelo://app?vid=0328e386-ad2d-406e-af35-30c1079a1ce1","ios":"levelo://app?vid=0328e386-ad2d-406e-af35-30c1079a1ce1"},"vehicle_type_id":"4","last_reported":1716725546,"current_range_meters":7600,"station_id":"ce4bhr12rcd13ifvqhpg","pricing_plan_id":"cebpf4jnsgd1na2vs0mg"},{"bike_id":"aafc0813-e50e-40e2-b405-9e357e1ef979","system_id":"levelo_inurba_marseille","lat":43.313571,"lon":5.384829,"is_reserved":false,"is_disabled":false,"rental_uris":{"android":"levelo://app?vid=aafc0813-e50e-40e2-b405-9e357e1ef979","ios":"levelo://app?vid=aafc0813-e50e-40e2-b405-9e357e1ef979"},"vehicle_type_id":"4","last_reported":1716725546,"current_range_meters":19200,"station_id":"ce4bgt92rcd13ifvqcf0","pricing_plan_id":"cebpf4jnsgd1na2vs0mg"},{"bike_id":"91e3ce08-d30b-4e5d-bdaf-bb0d8d20a00a","system_id":"levelo_inurba_marseille","lat":43.313571,"lon":5.384829,"is_reserved":false,"is_disabled":false,"rental_uris":{"android":"levelo://app?vid=91e3ce08-d30b-4e5d-bdaf-bb0d8d20a00a","ios":"levelo://app?vid=91e3ce08-d30b-4e5d-bdaf-bb0d8d20a00a"},"vehicle_type_id":"4","last_reported":1716725546,"current_range_meters":14000,"station_id":"ce4bgt92rcd13ifvqcf0","pricing_plan_id":"cebpf4jnsgd1na2vs0mg"},{"bike_id":"2b14fb2c-2c79-40ed-bd8e-ad70ccec9c28","system_id":"levelo_inurba_marseille","lat":43.313571,"lon":5.384829,"is_reserved":false,"is_disabled":false,"rental_uris":{"android":"levelo://app?vid=2b14fb2c-2c79-40ed-bd8e-ad70ccec9c28","ios":"levelo://app?vid=2b14fb2c-2c79-40ed-bd8e-ad70ccec9c28"},"vehicle_type_id":"4","last_reported":1716725546,"current_range_meters":18400,"station_id":"ce4bgt92rcd13ifvqcf0","pricing_plan_id":"cebpf4jnsgd1na2vs0mg"},{"bike_id":"74be52a0-e747-4bf8-9c7b-d142f1bff01b","system_id":"levelo_inurba_marseille","lat":43.313571,"lon":5.384829,"is_reserved":false,"is_disabled":false,"rental_uris":{"android":"levelo://app?vid=74be52a0-e747-4bf8-9c7b-d142f1bff01b","ios":"levelo://app?vid=74be52a0-e747-4bf8-9c7b-d142f1bff01b"},"vehicle_type_id":"4","last_reported":1716725546,"current_range_meters":5600,"station_id":"ce4bgt92rcd13ifvqcf0","pricing_plan_id":"cebpf4jnsgd1na2vs0mg"},{"bike_id":"71c0bf64-c068-46c9-b655-2f269fa7e0f2","system_id":"levelo_inurba_marseille","lat":43.313918,"lon":5.384894,"is_reserved":false,"is_disabled":false,"rental_uris":{"android":"levelo://app?vid=71c0bf64-c068-46c9-b655-2f269fa7e0f2","ios":"levelo://app?vid=71c0bf64-c068-46c9-b655-2f269fa7e0f2"},"vehicle_type_id":"4","last_reported":1716725546,"current_range_meters":14800,"station_id":"ce4bgt92rcd13ifvqcf0","pricing_plan_id":"cebpf4jnsgd1na2vs0mg"},{"bike_id":"01f32060-5dfe-4563-a3af-0b33638fa92b","system_id":"levelo_inurba_marseille","lat":43.31356,"lon":5.38494,"is_reserved":false,"is_disabled":false,"rental_uris":{"android":"levelo://app?vid=01f32060-5dfe-4563-a3af-0b33638fa92b","ios":"levelo://app?vid=01f32060-5dfe-4563-a3af-0b33638fa92b"},"vehicle_type_id":"4","last_reported":1716725546,"current_range_meters":28400,"station_id":"ce4bgt92rcd13ifvqcf0","pricing_plan_id":"cebpf4jnsgd1na2vs0mg"},{"bike_id":"bb4c5070-d991-437a-9a16-f670827e9a7f","system_id":"levelo_inurba_marseille","lat":43.313571,"lon":5.384829,"is_reserved":false,"is_disabled":false,"rental_uris":{"android":"levelo://app?vid=bb4c5070-d991-437a-9a16-f670827e9a7f","ios":"levelo://app?vid=bb4c5070-d991-437a-9a16-f670827e9a7f"},"vehicle_type_id":"4","last_reported":1716725546,"current_range_meters":17200,"station_id":"ce4bgt92rcd13ifvqcf0","pricing_plan_id":"cebpf4jnsgd1na2vs0mg"},{"bike_id":"b9828eea-c766-4ddd-bad1-c2d1617a1442","system_id":"levelo_inurba_marseille","lat":43.313571,"lon":5.384829,"is_reserved":false,"is_disabled":false,"rental_uris":{"android":"levelo://app?vid=b9828eea-c766-4ddd-bad1-c2d1617a1442","ios":"levelo://app?vid=b9828eea-c766-4ddd-bad1-c2d1617a1442"},"vehicle_type_id":"4","last_reported":1716725546,"current_range_meters":0,"station_id":"ce4bgt92rcd13ifvqcf0","pricing_plan_id":"cebpf4jnsgd1na2vs0mg"},{"bike_id":"0b9c2499-028e-4b97-a984-e37c939afda4","system_id":"levelo_inurba_marseille","lat":43.313571,"lon":5.384829,"is_reserved":false,"is_disabled":false,"rental_uris":{"android":"levelo://app?vid=0b9c2499-028e-4b97-a984-e37c939afda4","ios":"levelo://app?vid=0b9c2499-028e-4b97-a984-e37c939afda4"},"vehicle_type_id":"4","last_reported":1716725546,"current_range_meters":10400,"station_id":"ce4bgt92rcd13ifvqcf0","pricing_plan_id":"cebpf4jnsgd1na2vs0mg"},{"bike_id":"63900ec7-403b-4cde-b5da-1b58041d14a8","system_id":"levelo_inurba_marseille","lat":43.313571,"lon":5.384829,"is_reserved":false,"is_disabled":false,"rental_uris":{"android":"levelo://app?vid=63900ec7-403b-4cde-b5da-1b58041d14a8","ios":"levelo://app?vid=63900ec7-403b-4cde-b5da-1b58041d14a8"},"vehicle_type_id":"4","last_reported":1716725546,"current_range_meters":16400,"station_id":"ce4bgt92rcd13ifvqcf0","pricing_plan_id":"cebpf4jnsgd1na2vs0mg"},{"bike_id":"d6505451-857a-4424-8f40-c706ed969e56","system_id":"levelo_inurba_marseille","lat":43.313571,"lon":5.384829,"is_reserved":false,"is_disabled":false,"rental_uris":{"android":"levelo://app?vid=d6505451-857a-4424-8f40-c706ed969e56","ios":"levelo://app?vid=d6505451-857a-4424-8f40-c706ed969e56"},"vehicle_type_id":"4","last_reported":1716725546,"current_range_meters":31200,"station_id":"ce4bgt92rcd13ifvqcf0","pricing_plan_id":"cebpf4jnsgd1na2vs0mg"},{"bike_id":"ea864d37-c0a4-4414-9373-be3429600f1f","system_id":"levelo_inurba_marseille","lat":43.313613,"lon":5.385065,"is_reserved":false,"is_disabled":false,"rental_uris":{"android":"levelo://app?vid=ea864d37-c0a4-4414-9373-be3429600f1f","ios":"levelo://app?vid=ea864d37-c0a4-4414-9373-be3429600f1f"},"vehicle_type_id":"4","last_reported":1716725546,"current_range_meters":23200,"station_id":"ce4bgt92rcd13ifvqcf0","pricing_plan_id":"cebpf4jnsgd1na2vs0mg"},{"bike_id":"31eab24c-e9b5-4bd2-8e32-89f5faf2b7b2","system_id":"levelo_inurba_marseille","lat":43.29936,"lon":5.3655,"is_reserved":false,"is_disabled":false,"rental_uris":{"android":"levelo://app?vid=31eab24c-e9b5-4bd2-8e32-89f5faf2b7b2","ios":"levelo://app?vid=31eab24c-e9b5-4bd2-8e32-89f5faf2b7b2"},"vehicle_type_id":"4","last_reported":1716725546,"current_range_meters":19200,"station_id":"","pricing_plan_id":"cebpf4jnsgd1na2vs0mg"},{"bike_id":"ef34f8db-b104-4a97-b0ea-515627ca084e","system_id":"levelo_inurba_marseille","lat":43.299222,"lon":5.365554,"is_reserved":false,"is_disabled":false,"rental_uris":{"android":"levelo://app?vid=ef34f8db-b104-4a97-b0ea-515627ca084e","ios":"levelo://app?vid=ef34f8db-b104-4a97-b0ea-515627ca084e"},"vehicle_type_id":"4","last_reported":1716725546,"current_range_meters":3600,"station_id":"ce4bgm92rcd13ifvqbr0","pricing_plan_id":"cebpf4jnsgd1na2vs0mg"},{"bike_id":"4e1e676c-e56b-4457-8114-0278213f89c3","system_id":"levelo_inurba_marseille","lat":43.299209,"lon":5.365547,"is_reserved":false,"is_disabled":false,"rental_uris":{"android":"levelo://app?vid=4e1e676c-e56b-4457-8114-0278213f89c3","ios":"levelo://app?vid=4e1e676c-e56b-4457-8114-0278213f89c3"},"vehicle_type_id":"4","last_reported":1716725546,"current_range_meters":27600,"station_id":"ce4bgm92rcd13ifvqbr0","pricing_plan_id":"cebpf4jnsgd1na2vs0mg"},{"bike_id":"0b55428f-7ac2-4f74-bce4-8a2ce503eeef","system_id":"levelo_inurba_marseille","lat":43.305364,"lon":5.384119,"is_reserved":false,"is_disabled":false,"rental_uris":{"android":"levelo://app?vid=0b55428f-7ac2-4f74-bce4-8a2ce503eeef","ios":"levelo://app?vid=0b55428f-7ac2-4f74-bce4-8a2ce503eeef"},"vehicle_type_id":"4","last_reported":1716725546,"current_range_meters":29200,"station_id":"ce4bgg92rcd13ifvqb30","pricing_plan_id":"cebpf4jnsgd1na2vs0mg"},{"bike_id":"94e1c8b4-d778-43e3-b4a4-ac009d54949e","system_id":"levelo_inurba_marseille","lat":43.298433,"lon":5.362774,"is_reserved":false,"is_disabled":false,"rental_uris":{"android":"levelo://app?vid=94e1c8b4-d778-43e3-b4a4-ac009d54949e","ios":"levelo://app?vid=94e1c8b4-d778-43e3-b4a4-ac009d54949e"},"vehicle_type_id":"4","last_reported":1716725546,"current_range_meters":20400,"station_id":"ce4bgpp2rcd13ifvqc3g","pricing_plan_id":"cebpf4jnsgd1na2vs0mg"},{"bike_id":"7c0279c4-785e-41cc-9875-11b1aa5697b0","system_id":"levelo_inurba_marseille","lat":43.298433,"lon":5.362774,"is_reserved":false,"is_disabled":false,"rental_uris":{"android":"levelo://app?vid=7c0279c4-785e-41cc-9875-11b1aa5697b0","ios":"levelo://app?vid=7c0279c4-785e-41cc-9875-11b1aa5697b0"},"vehicle_type_id":"4","last_reported":1716725546,"current_range_meters":31200,"station_id":"ce4bgpp2rcd13ifvqc3g","pricing_plan_id":"cebpf4jnsgd1na2vs0mg"},{"bike_id":"82940cd0-3cf2-4970-b919-63676ee56755","system_id":"levelo_inurba_marseille","lat":43.298433,"lon":5.362774,"is_reserved":false,"is_disabled":false,"rental_uris":{"android":"levelo://app?vid=82940cd0-3cf2-4970-b919-63676ee56755","ios":"levelo://app?vid=82940cd0-3cf2-4970-b919-63676ee56755"},"vehicle_type_id":"4","last_reported":1716725546,"current_range_meters":18800,"station_id":"ce4bgpp2rcd13ifvqc3g","pricing_plan_id":"cebpf4jnsgd1na2vs0mg"},{"bike_id":"90d6057f-599a-4d72-b5c2-ebff1496084a","system_id":"levelo_inurba_marseille","lat":43.299243,"lon":5.37481,"is_reserved":false,"is_disabled":false,"rental_uris":{"android":"levelo://app?vid=90d6057f-599a-4d72-b5c2-ebff1496084a","ios":"levelo://app?vid=90d6057f-599a-4d72-b5c2-ebff1496084a"},"vehicle_type_id":"4","last_reported":1716725546,"current_range_meters":26000,"station_id":"ce4bgjh2rcd13ifvqbg0","pricing_plan_id":"cebpf4jnsgd1na2vs0mg"},{"bike_id":"2f529cac-443b-447f-a63c-8d349572f155","system_id":"levelo_inurba_marseille","lat":43.298433,"lon":5.362774,"is_reserved":false,"is_disabled":false,"rental_uris":{"android":"levelo://app?vid=2f529cac-443b-447f-a63c-8d349572f155","ios":"levelo://app?vid=2f529cac-443b-447f-a63c-8d349572f155"},"vehicle_type_id":"4","last_reported":1716725546,"current_range_meters":12000,"station_id":"ce4bgpp2rcd13ifvqc3g","pricing_plan_id":"cebpf4jnsgd1na2vs0mg"},{"bike_id":"9130e4e6-abca-4cba-bcb8-9762b9e02cf9","system_id":"levelo_inurba_marseille","lat":43.298433,"lon":5.362774,"is_reserved":false,"is_disabled":false,"rental_uris":{"android":"levelo://app?vid=9130e4e6-abca-4cba-bcb8-9762b9e02cf9","ios":"levelo://app?vid=9130e4e6-abca-4cba-bcb8-9762b9e02cf9"},"vehicle_type_id":"4","last_reported":1716725546,"current_range_meters":8400,"station_id":"ce4bgpp2rcd13ifvqc3g","pricing_plan_id":"cebpf4jnsgd1na2vs0mg"},{"bike_id":"1452497d-a32e-4195-90d5-a1340b04a38a","system_id":"levelo_inurba_marseille","lat":43.299243,"lon":5.37481,"is_reserved":false,"is_disabled":false,"rental_uris":{"android":"levelo://app?vid=1452497d-a32e-4195-90d5-a1340b04a38a","ios":"levelo://app?vid=1452497d-a32e-4195-90d5-a1340b04a38a"},"vehicle_type_id":"4","last_reported":1716725546,"current_range_meters":27200,"station_id":"ce4bgjh2rcd13ifvqbg0","pricing_plan_id":"cebpf4jnsgd1na2vs0mg"},{"bike_id":"a7e675cf-f610-40dc-a0b4-7bf4f2496287","system_id":"levelo_inurba_marseille","lat":43.311722,"lon":5.387247,"is_reserved":false,"is_disabled":false,"rental_uris":{"android":"levelo://app?vid=a7e675cf-f610-40dc-a0b4-7bf4f2496287","ios":"levelo://app?vid=a7e675cf-f610-40dc-a0b4-7bf4f2496287"},"vehicle_type_id":"4","last_reported":1716725546,"current_range_meters":6000,"station_id":"ce4bgv12rcd13ifvqcp0","pricing_plan_id":"cebpf4jnsgd1na2vs0mg"},{"bike_id":"22a7f2ad-470e-4cdb-83ad-c2443feaa7e3","system_id":"levelo_inurba_marseille","lat":43.311722,"lon":5.387247,"is_reserved":false,"is_disabled":false,"rental_uris":{"android":"levelo://app?vid=22a7f2ad-470e-4cdb-83ad-c2443feaa7e3","ios":"levelo://app?vid=22a7f2ad-470e-4cdb-83ad-c2443feaa7e3"},"vehicle_type_id":"4","last_reported":1716725546,"current_range_meters":14400,"station_id":"ce4bgv12rcd13ifvqcp0","pricing_plan_id":"cebpf4jnsgd1na2vs0mg"},{"bike_id":"fcf38580-f789-4608-accb-ca2404d79202","system_id":"levelo_inurba_marseille","lat":43.311722,"lon":5.387247,"is_reserved":false,"is_disabled":false,"rental_uris":{"android":"levelo://app?vid=fcf38580-f789-4608-accb-ca2404d79202","ios":"levelo://app?vid=fcf38580-f789-4608-accb-ca2404d79202"},"vehicle_type_id":"4","last_reported":1716725546,"current_range_meters":17600,"station_id":"ce4bgv12rcd13ifvqcp0","pricing_plan_id":"cebpf4jnsgd1na2vs0mg"},{"bike_id":"a2afc8d4-0f84-4967-b8a3-39b7ef7ca6c6","system_id":"levelo_inurba_marseille","lat":43.297794,"lon":5.370888,"is_reserved":false,"is_disabled":false,"rental_uris":{"android":"levelo://app?vid=a2afc8d4-0f84-4967-b8a3-39b7ef7ca6c6","ios":"levelo://app?vid=a2afc8d4-0f84-4967-b8a3-39b7ef7ca6c6"},"vehicle_type_id":"4","last_reported":1716725546,"current_range_meters":5600,"station_id":"ce4bgop2rcd13ifvqc1g","pricing_plan_id":"cebpf4jnsgd1na2vs0mg"},{"bike_id":"ed492a4e-944e-43b3-bd26-4581a8e6f7a8","system_id":"levelo_inurba_marseille","lat":43.297794,"lon":5.370888,"is_reserved":false,"is_disabled":false,"rental_uris":{"android":"levelo://app?vid=ed492a4e-944e-43b3-bd26-4581a8e6f7a8","ios":"levelo://app?vid=ed492a4e-944e-43b3-bd26-4581a8e6f7a8"},"vehicle_type_id":"4","last_reported":1716725546,"current_range_meters":30000,"station_id":"ce4bgop2rcd13ifvqc1g","pricing_plan_id":"cebpf4jnsgd1na2vs0mg"},{"bike_id":"2501c28b-7496-4a54-b6cd-63053eac4d9b","system_id":"levelo_inurba_marseille","lat":43.297774,"lon":5.370875,"is_reserved":false,"is_disabled":false,"rental_uris":{"android":"levelo://app?vid=2501c28b-7496-4a54-b6cd-63053eac4d9b","ios":"levelo://app?vid=2501c28b-7496-4a54-b6cd-63053eac4d9b"},"vehicle_type_id":"4","last_reported":1716725546,"current_range_meters":30800,"station_id":"ce4bgop2rcd13ifvqc1g","pricing_plan_id":"cebpf4jnsgd1na2vs0mg"},{"bike_id":"527866fb-40d3-4bb1-9c65-0464d8d76d3c","system_id":"levelo_inurba_marseille","lat":43.322872,"lon":5.382756,"is_reserved":false,"is_disabled":false,"rental_uris":{"android":"levelo://app?vid=527866fb-40d3-4bb1-9c65-0464d8d76d3c","ios":"levelo://app?vid=527866fb-40d3-4bb1-9c65-0464d8d76d3c"},"vehicle_type_id":"4","last_reported":1716725546,"current_range_meters":23600,"station_id":"ce4bhr12rcd13ifvqhqg","pricing_plan_id":"cebpf4jnsgd1na2vs0mg"},{"bike_id":"44991ac8-d706-4f51-9a70-e44937b720db","system_id":"levelo_inurba_marseille","lat":43.30219,"lon":5.38261,"is_reserved":false,"is_disabled":false,"rental_uris":{"android":"levelo://app?vid=44991ac8-d706-4f51-9a70-e44937b720db","ios":"levelo://app?vid=44991ac8-d706-4f51-9a70-e44937b720db"},"vehicle_type_id":"4","last_reported":1716725546,"current_range_meters":6000,"station_id":"","pricing_plan_id":"cebpf4jnsgd1na2vs0mg"},{"bike_id":"44010604-67c5-49c4-932a-cebdf9ddbe4b","system_id":"levelo_inurba_marseille","lat":43.297163,"lon":5.365866,"is_reserved":false,"is_disabled":false,"rental_uris":{"android":"levelo://app?vid=44010604-67c5-49c4-932a-cebdf9ddbe4b","ios":"levelo://app?vid=44010604-67c5-49c4-932a-cebdf9ddbe4b"},"vehicle_type_id":"4","last_reported":1716725546,"current_range_meters":12800,"station_id":"ce4bgn12rcd13ifvqbt0","pricing_plan_id":"cebpf4jnsgd1na2vs0mg"},{"bike_id":"9642a4b8-0e1b-4030-b7e5-d14102228560","system_id":"levelo_inurba_marseille","lat":43.297163,"lon":5.365866,"is_reserved":false,"is_disabled":false,"rental_uris":{"android":"levelo://app?vid=9642a4b8-0e1b-4030-b7e5-d14102228560","ios":"levelo://app?vid=9642a4b8-0e1b-4030-b7e5-d14102228560"},"vehicle_type_id":"4","last_reported":1716725546,"current_range_meters":0,"station_id":"ce4bgn12rcd13ifvqbt0","pricing_plan_id":"cebpf4jnsgd1na2vs0mg"},{"bike_id":"426d3889-a3c2-4bbc-9786-c04941e7261d","system_id":"levelo_inurba_marseille","lat":43.299682,"lon":5.379645,"is_reserved":false,"is_disabled":false,"rental_uris":{"android":"levelo://app?vid=426d3889-a3c2-4bbc-9786-c04941e7261d","ios":"levelo://app?vid=426d3889-a3c2-4bbc-9786-c04941e7261d"},"vehicle_type_id":"4","last_reported":1716725546,"current_range_meters":25600,"station_id":"","pricing_plan_id":"cebpf4jnsgd1na2vs0mg"},{"bike_id":"b0181dbd-d16d-4347-9382-b450da867146","system_id":"levelo_inurba_marseille","lat":43.29657,"lon":5.36162,"is_reserved":false,"is_disabled":false,"rental_uris":{"android":"levelo://app?vid=b0181dbd-d16d-4347-9382-b450da867146","ios":"levelo://app?vid=b0181dbd-d16d-4347-9382-b450da867146"},"vehicle_type_id":"4","last_reported":1716725546,"current_range_meters":4800,"station_id":"","pricing_plan_id":"cebpf4jnsgd1na2vs0mg"},{"bike_id":"a822aa16-78a8-4b74-bff0-1f3c95dd2ef3","system_id":"levelo_inurba_marseille","lat":43.29573,"lon":5.367355,"is_reserved":false,"is_disabled":false,"rental_uris":{"android":"levelo://app?vid=a822aa16-78a8-4b74-bff0-1f3c95dd2ef3","ios":"levelo://app?vid=a822aa16-78a8-4b74-bff0-1f3c95dd2ef3"},"vehicle_type_id":"4","last_reported":1716725546,"current_range_meters":31600,"station_id":"ce4bgph2rcd13ifvqc2g","pricing_plan_id":"cebpf4jnsgd1na2vs0mg"},{"bike_id":"3f0e9c78-edc9-4a79-b631-b61750a426ce","system_id":"levelo_inurba_marseille","lat":43.29573,"lon":5.367355,"is_reserved":false,"is_disabled":false,"rental_uris":{"android":"levelo://app?vid=3f0e9c78-edc9-4a79-b631-b61750a426ce","ios":"levelo://app?vid=3f0e9c78-edc9-4a79-b631-b61750a426ce"},"vehicle_type_id":"4","last_reported":1716725546,"current_range_meters":26800,"station_id":"ce4bgph2rcd13ifvqc2g","pricing_plan_id":"cebpf4jnsgd1na2vs0mg"},{"bike_id":"4fad7822-c1d3-4611-8284-27f9d1e0f6b8","system_id":"levelo_inurba_marseille","lat":43.29573,"lon":5.367355,"is_reserved":false,"is_disabled":false,"rental_uris":{"android":"levelo://app?vid=4fad7822-c1d3-4611-8284-27f9d1e0f6b8","ios":"levelo://app?vid=4fad7822-c1d3-4611-8284-27f9d1e0f6b8"},"vehicle_type_id":"4","last_reported":1716725546,"current_range_meters":2800,"station_id":"ce4bgph2rcd13ifvqc2g","pricing_plan_id":"cebpf4jnsgd1na2vs0mg"},{"bike_id":"a6fcf19e-fc8b-487f-b097-73a825c68cb3","system_id":"levelo_inurba_marseille","lat":43.2958,"lon":5.3675,"is_reserved":false,"is_disabled":false,"rental_uris":{"android":"levelo://app?vid=a6fcf19e-fc8b-487f-b097-73a825c68cb3","ios":"levelo://app?vid=a6fcf19e-fc8b-487f-b097-73a825c68cb3"},"vehicle_type_id":"4","last_reported":1716725546,"current_range_meters":26000,"station_id":"ce4bgph2rcd13ifvqc2g","pricing_plan_id":"cebpf4jnsgd1na2vs0mg"},{"bike_id":"5808c87e-a488-4214-aec6-141f2ab79135","system_id":"levelo_inurba_marseille","lat":43.29573,"lon":5.367355,"is_reserved":false,"is_disabled":false,"rental_uris":{"android":"levelo://app?vid=5808c87e-a488-4214-aec6-141f2ab79135","ios":"levelo://app?vid=5808c87e-a488-4214-aec6-141f2ab79135"},"vehicle_type_id":"4","last_reported":1716725546,"current_range_meters":3600,"station_id":"ce4bgph2rcd13ifvqc2g","pricing_plan_id":"cebpf4jnsgd1na2vs0mg"},{"bike_id":"8d049839-6872-4443-a8c4-abcb9ba6686c","system_id":"levelo_inurba_marseille","lat":43.29573,"lon":5.367355,"is_reserved":false,"is_disabled":false,"rental_uris":{"android":"levelo://app?vid=8d049839-6872-4443-a8c4-abcb9ba6686c","ios":"levelo://app?vid=8d049839-6872-4443-a8c4-abcb9ba6686c"},"vehicle_type_id":"4","last_reported":1716725546,"current_range_meters":21200,"station_id":"ce4bgph2rcd13ifvqc2g","pricing_plan_id":"cebpf4jnsgd1na2vs0mg"},{"bike_id":"1ae4408a-a2bd-447e-bd9b-373f3b9beb85","system_id":"levelo_inurba_marseille","lat":43.296935,"lon":5.376544,"is_reserved":false,"is_disabled":false,"rental_uris":{"android":"levelo://app?vid=1ae4408a-a2bd-447e-bd9b-373f3b9beb85","ios":"levelo://app?vid=1ae4408a-a2bd-447e-bd9b-373f3b9beb85"},"vehicle_type_id":"4","last_reported":1716725546,"current_range_meters":10000,"station_id":"ce4bgkh2rcd13ifvqbl0","pricing_plan_id":"cebpf4jnsgd1na2vs0mg"},{"bike_id":"e8d2a154-cf0f-4e37-9166-dec2970c6972","system_id":"levelo_inurba_marseille","lat":43.296935,"lon":5.376544,"is_reserved":false,"is_disabled":false,"rental_uris":{"android":"levelo://app?vid=e8d2a154-cf0f-4e37-9166-dec2970c6972","ios":"levelo://app?vid=e8d2a154-cf0f-4e37-9166-dec2970c6972"},"vehicle_type_id":"4","last_reported":1716725546,"current_range_meters":5200,"station_id":"ce4bgkh2rcd13ifvqbl0","pricing_plan_id":"cebpf4jnsgd1na2vs0mg"},{"bike_id":"9a951f27-ab9c-4567-89d0-59ed2d58fb14","system_id":"levelo_inurba_marseille","lat":43.299028,"lon":5.381509,"is_reserved":false,"is_disabled":false,"rental_uris":{"android":"levelo://app?vid=9a951f27-ab9c-4567-89d0-59ed2d58fb14","ios":"levelo://app?vid=9a951f27-ab9c-4567-89d0-59ed2d58fb14"},"vehicle_type_id":"4","last_reported":1716725546,"current_range_meters":0,"station_id":"ce4bgj12rcd13ifvqbc0","pricing_plan_id":"cebpf4jnsgd1na2vs0mg"},{"bike_id":"d28e2edd-efd5-4255-b634-8c285371b6de","system_id":"levelo_inurba_marseille","lat":43.299028,"lon":5.381509,"is_reserved":false,"is_disabled":false,"rental_uris":{"android":"levelo://app?vid=d28e2edd-efd5-4255-b634-8c285371b6de","ios":"levelo://app?vid=d28e2edd-efd5-4255-b634-8c285371b6de"},"vehicle_type_id":"4","last_reported":1716725546,"current_range_meters":7600,"station_id":"ce4bgj12rcd13ifvqbc0","pricing_plan_id":"cebpf4jnsgd1na2vs0mg"},{"bike_id":"997f1ad3-607c-42b2-a83d-78179c1d7dfa","system_id":"levelo_inurba_marseille","lat":43.309589,"lon":5.390258,"is_reserved":false,"is_disabled":false,"rental_uris":{"android":"levelo://app?vid=997f1ad3-607c-42b2-a83d-78179c1d7dfa","ios":"levelo://app?vid=997f1ad3-607c-42b2-a83d-78179c1d7dfa"},"vehicle_type_id":"4","last_reported":1716725546,"current_range_meters":400,"station_id":"ce4bgup2rcd13ifvqco0","pricing_plan_id":"cebpf4jnsgd1na2vs0mg"},{"bike_id":"61e95b55-0325-457b-b882-90a70874cc9f","system_id":"levelo_inurba_marseille","lat":43.317557,"lon":5.390173,"is_reserved":false,"is_disabled":false,"rental_uris":{"android":"levelo://app?vid=61e95b55-0325-457b-b882-90a70874cc9f","ios":"levelo://app?vid=61e95b55-0325-457b-b882-90a70874cc9f"},"vehicle_type_id":"4","last_reported":1716725546,"current_range_meters":4000,"station_id":"ce4bhqp2rcd13ifvqhng","pricing_plan_id":"cebpf4jnsgd1na2vs0mg"},{"bike_id":"0d0c635d-5a5b-4f4b-bbd2-8bbc891aed33","system_id":"levelo_inurba_marseille","lat":43.317557,"lon":5.390173,"is_reserved":false,"is_disabled":false,"rental_uris":{"android":"levelo://app?vid=0d0c635d-5a5b-4f4b-bbd2-8bbc891aed33","ios":"levelo://app?vid=0d0c635d-5a5b-4f4b-bbd2-8bbc891aed33"},"vehicle_type_id":"4","last_reported":1716725546,"current_range_meters":31200,"station_id":"ce4bhqp2rcd13ifvqhng","pricing_plan_id":"cebpf4jnsgd1na2vs0mg"},{"bike_id":"12619c62-4f98-4bdd-9aa2-b46423e950a3","system_id":"levelo_inurba_marseille","lat":43.317557,"lon":5.390173,"is_reserved":false,"is_disabled":false,"rental_uris":{"android":"levelo://app?vid=12619c62-4f98-4bdd-9aa2-b46423e950a3","ios":"levelo://app?vid=12619c62-4f98-4bdd-9aa2-b46423e950a3"},"vehicle_type_id":"4","last_reported":1716725546,"current_range_meters":28000,"station_id":"ce4bhqp2rcd13ifvqhng","pricing_plan_id":"cebpf4jnsgd1na2vs0mg"},{"bike_id":"87825249-d632-4bcd-b442-bca06bc949ef","system_id":"levelo_inurba_marseille","lat":43.296687,"lon":5.37782,"is_reserved":false,"is_disabled":false,"rental_uris":{"android":"levelo://app?vid=87825249-d632-4bcd-b442-bca06bc949ef","ios":"levelo://app?vid=87825249-d632-4bcd-b442-bca06bc949ef"},"vehicle_type_id":"4","last_reported":1716725546,"current_range_meters":25600,"station_id":"","pricing_plan_id":"cebpf4jnsgd1na2vs0mg"},{"bike_id":"341b5379-6adb-412f-9dc8-21956a3e7313","system_id":"levelo_inurba_marseille","lat":43.295748,"lon":5.37522,"is_reserved":false,"is_disabled":false,"rental_uris":{"android":"levelo://app?vid=341b5379-6adb-412f-9dc8-21956a3e7313","ios":"levelo://app?vid=341b5379-6adb-412f-9dc8-21956a3e7313"},"vehicle_type_id":"4","last_reported":1716725546,"current_range_meters":0,"station_id":"ce4bgh92rcd13ifvqb50","pricing_plan_id":"cebpf4jnsgd1na2vs0mg"},{"bike_id":"338731ef-dfa5-4a85-829b-09e556e5ab0b","system_id":"levelo_inurba_marseille","lat":43.296263,"lon":5.377094,"is_reserved":false,"is_disabled":false,"rental_uris":{"android":"levelo://app?vid=338731ef-dfa5-4a85-829b-09e556e5ab0b","ios":"levelo://app?vid=338731ef-dfa5-4a85-829b-09e556e5ab0b"},"vehicle_type_id":"4","last_reported":1716725546,"current_range_meters":27200,"station_id":"ce4bgi92rcd13ifvqb90","pricing_plan_id":"cebpf4jnsgd1na2vs0mg"},{"bike_id":"910a4aa5-d726-4a8d-bea3-3556985a1354","system_id":"levelo_inurba_marseille","lat":43.295748,"lon":5.37522,"is_reserved":false,"is_disabled":false,"rental_uris":{"android":"levelo://app?vid=910a4aa5-d726-4a8d-bea3-3556985a1354","ios":"levelo://app?vid=910a4aa5-d726-4a8d-bea3-3556985a1354"},"vehicle_type_id":"4","last_reported":1716725546,"current_range_meters":19600,"station_id":"ce4bgh92rcd13ifvqb50","pricing_plan_id":"cebpf4jnsgd1na2vs0mg"},{"bike_id":"373d129f-272e-4035-9030-6c1bba4f52bf","system_id":"levelo_inurba_marseille","lat":43.296263,"lon":5.377094,"is_reserved":false,"is_disabled":false,"rental_uris":{"android":"levelo://app?vid=373d129f-272e-4035-9030-6c1bba4f52bf","ios":"levelo://app?vid=373d129f-272e-4035-9030-6c1bba4f52bf"},"vehicle_type_id":"4","last_reported":1716725546,"current_range_meters":1600,"station_id":"ce4bgi92rcd13ifvqb90","pricing_plan_id":"cebpf4jnsgd1na2vs0mg"},{"bike_id":"54c7a724-b844-4dbe-8fc1-76e861fba529","system_id":"levelo_inurba_marseille","lat":43.295279,"lon":5.375048,"is_reserved":false,"is_disabled":false,"rental_uris":{"android":"levelo://app?vid=54c7a724-b844-4dbe-8fc1-76e861fba529","ios":"levelo://app?vid=54c7a724-b844-4dbe-8fc1-76e861fba529"},"vehicle_type_id":"4","last_reported":1716725546,"current_range_meters":24000,"station_id":"ce4bgkp2rcd13ifvqbmg","pricing_plan_id":"cebpf4jnsgd1na2vs0mg"},{"bike_id":"02ea90d2-4e87-46ea-b919-c81ce8f4e660","system_id":"levelo_inurba_marseille","lat":43.299707,"lon":5.384859,"is_reserved":false,"is_disabled":false,"rental_uris":{"android":"levelo://app?vid=02ea90d2-4e87-46ea-b919-c81ce8f4e660","ios":"levelo://app?vid=02ea90d2-4e87-46ea-b919-c81ce8f4e660"},"vehicle_type_id":"4","last_reported":1716725546,"current_range_meters":0,"station_id":"ce4bgj92rcd13ifvqbd0","pricing_plan_id":"cebpf4jnsgd1na2vs0mg"},{"bike_id":"ced565f3-72cf-41d3-ad19-f415278c28ce","system_id":"levelo_inurba_marseille","lat":43.29973,"lon":5.38488,"is_reserved":false,"is_disabled":false,"rental_uris":{"android":"levelo://app?vid=ced565f3-72cf-41d3-ad19-f415278c28ce","ios":"levelo://app?vid=ced565f3-72cf-41d3-ad19-f415278c28ce"},"vehicle_type_id":"4","last_reported":1716725546,"current_range_meters":0,"station_id":"ce4bgj92rcd13ifvqbd0","pricing_plan_id":"cebpf4jnsgd1na2vs0mg"},{"bike_id":"d014cf3e-048b-41f0-8f75-4b7171a47831","system_id":"levelo_inurba_marseille","lat":43.299717,"lon":5.384845,"is_reserved":false,"is_disabled":false,"rental_uris":{"android":"levelo://app?vid=d014cf3e-048b-41f0-8f75-4b7171a47831","ios":"levelo://app?vid=d014cf3e-048b-41f0-8f75-4b7171a47831"},"vehicle_type_id":"4","last_reported":1716725546,"current_range_meters":31200,"station_id":"ce4bgj92rcd13ifvqbd0","pricing_plan_id":"cebpf4jnsgd1na2vs0mg"},{"bike_id":"ea5c8d42-c861-4802-a2ac-9f57d3bd183f","system_id":"levelo_inurba_marseille","lat":43.299724,"lon":5.384848,"is_reserved":false,"is_disabled":false,"rental_uris":{"android":"levelo://app?vid=ea5c8d42-c861-4802-a2ac-9f57d3bd183f","ios":"levelo://app?vid=ea5c8d42-c861-4802-a2ac-9f57d3bd183f"},"vehicle_type_id":"4","last_reported":1716725546,"current_range_meters":31200,"station_id":"ce4bgj92rcd13ifvqbd0","pricing_plan_id":"cebpf4jnsgd1na2vs0mg"},{"bike_id":"3a1d34f7-7881-4b75-a393-7061971202fe","system_id":"levelo_inurba_marseille","lat":43.292749,"lon":5.368402,"is_reserved":false,"is_disabled":false,"rental_uris":{"android":"levelo://app?vid=3a1d34f7-7881-4b75-a393-7061971202fe","ios":"levelo://app?vid=3a1d34f7-7881-4b75-a393-7061971202fe"},"vehicle_type_id":"4","last_reported":1716725546,"current_range_meters":0,"station_id":"ce4bhbp2rcd13ifvqesg","pricing_plan_id":"cebpf4jnsgd1na2vs0mg"},{"bike_id":"248143f8-589a-40a8-a9ae-fabf5a211e31","system_id":"levelo_inurba_marseille","lat":43.292311,"lon":5.360731,"is_reserved":false,"is_disabled":false,"rental_uris":{"android":"levelo://app?vid=248143f8-589a-40a8-a9ae-fabf5a211e31","ios":"levelo://app?vid=248143f8-589a-40a8-a9ae-fabf5a211e31"},"vehicle_type_id":"4","last_reported":1716725546,"current_range_meters":25200,"station_id":"ce4bhbh2rcd13ifvqeqg","pricing_plan_id":"cebpf4jnsgd1na2vs0mg"},{"bike_id":"593a216a-edb1-4f2e-b155-eb72d56529f5","system_id":"levelo_inurba_marseille","lat":43.292311,"lon":5.360731,"is_reserved":false,"is_disabled":false,"rental_uris":{"android":"levelo://app?vid=593a216a-edb1-4f2e-b155-eb72d56529f5","ios":"levelo://app?vid=593a216a-edb1-4f2e-b155-eb72d56529f5"},"vehicle_type_id":"4","last_reported":1716725546,"current_range_meters":22000,"station_id":"ce4bhbh2rcd13ifvqeqg","pricing_plan_id":"cebpf4jnsgd1na2vs0mg"},{"bike_id":"63dafa87-d0af-4f6f-8b3c-811d319d2551","system_id":"levelo_inurba_marseille","lat":43.292311,"lon":5.360731,"is_reserved":false,"is_disabled":false,"rental_uris":{"android":"levelo://app?vid=63dafa87-d0af-4f6f-8b3c-811d319d2551","ios":"levelo://app?vid=63dafa87-d0af-4f6f-8b3c-811d319d2551"},"vehicle_type_id":"4","last_reported":1716725546,"current_range_meters":10000,"station_id":"ce4bhbh2rcd13ifvqeqg","pricing_plan_id":"cebpf4jnsgd1na2vs0mg"},{"bike_id":"84ab59ca-c5cb-4572-895e-6a8c4b1d83b7","system_id":"levelo_inurba_marseille","lat":43.30085,"lon":5.390856,"is_reserved":false,"is_disabled":false,"rental_uris":{"android":"levelo://app?vid=84ab59ca-c5cb-4572-895e-6a8c4b1d83b7","ios":"levelo://app?vid=84ab59ca-c5cb-4572-895e-6a8c4b1d83b7"},"vehicle_type_id":"4","last_reported":1716725546,"current_range_meters":6800,"station_id":"ce4bh192rcd13ifvqdb0","pricing_plan_id":"cebpf4jnsgd1na2vs0mg"},{"bike_id":"27a2daa7-395a-4015-a567-b5497b0b1bf6","system_id":"levelo_inurba_marseille","lat":43.292311,"lon":5.360731,"is_reserved":false,"is_disabled":false,"rental_uris":{"android":"levelo://app?vid=27a2daa7-395a-4015-a567-b5497b0b1bf6","ios":"levelo://app?vid=27a2daa7-395a-4015-a567-b5497b0b1bf6"},"vehicle_type_id":"4","last_reported":1716725546,"current_range_meters":23200,"station_id":"ce4bhbh2rcd13ifvqeqg","pricing_plan_id":"cebpf4jnsgd1na2vs0mg"},{"bike_id":"d3c4ecfe-d862-4300-910e-c084e8c1aae8","system_id":"levelo_inurba_marseille","lat":43.29225,"lon":5.36047,"is_reserved":false,"is_disabled":false,"rental_uris":{"android":"levelo://app?vid=d3c4ecfe-d862-4300-910e-c084e8c1aae8","ios":"levelo://app?vid=d3c4ecfe-d862-4300-910e-c084e8c1aae8"},"vehicle_type_id":"4","last_reported":1716725546,"current_range_meters":25200,"station_id":"ce4bhbh2rcd13ifvqeqg","pricing_plan_id":"cebpf4jnsgd1na2vs0mg"},{"bike_id":"7c603f3a-4693-47bb-9c60-a226e392bb09","system_id":"levelo_inurba_marseille","lat":43.300852,"lon":5.390859,"is_reserved":false,"is_disabled":false,"rental_uris":{"android":"levelo://app?vid=7c603f3a-4693-47bb-9c60-a226e392bb09","ios":"levelo://app?vid=7c603f3a-4693-47bb-9c60-a226e392bb09"},"vehicle_type_id":"4","last_reported":1716725546,"current_range_meters":0,"station_id":"ce4bh192rcd13ifvqdb0","pricing_plan_id":"cebpf4jnsgd1na2vs0mg"},{"bike_id":"bb2a0e28-fc65-4d14-86e3-9752d8f36b6f","system_id":"levelo_inurba_marseille","lat":43.292311,"lon":5.360731,"is_reserved":false,"is_disabled":false,"rental_uris":{"android":"levelo://app?vid=bb2a0e28-fc65-4d14-86e3-9752d8f36b6f","ios":"levelo://app?vid=bb2a0e28-fc65-4d14-86e3-9752d8f36b6f"},"vehicle_type_id":"4","last_reported":1716725546,"current_range_meters":25200,"station_id":"ce4bhbh2rcd13ifvqeqg","pricing_plan_id":"cebpf4jnsgd1na2vs0mg"},{"bike_id":"2f3dfc12-1795-4328-9b69-8a3658e568e1","system_id":"levelo_inurba_marseille","lat":43.30085,"lon":5.390856,"is_reserved":false,"is_disabled":false,"rental_uris":{"android":"levelo://app?vid=2f3dfc12-1795-4328-9b69-8a3658e568e1","ios":"levelo://app?vid=2f3dfc12-1795-4328-9b69-8a3658e568e1"},"vehicle_type_id":"4","last_reported":1716725546,"current_range_meters":18000,"station_id":"ce4bh192rcd13ifvqdb0","pricing_plan_id":"cebpf4jnsgd1na2vs0mg"},{"bike_id":"0fd05cd7-e447-4983-b7ef-01632ff22983","system_id":"levelo_inurba_marseille","lat":43.298764,"lon":5.388973,"is_reserved":false,"is_disabled":false,"rental_uris":{"android":"levelo://app?vid=0fd05cd7-e447-4983-b7ef-01632ff22983","ios":"levelo://app?vid=0fd05cd7-e447-4983-b7ef-01632ff22983"},"vehicle_type_id":"4","last_reported":1716725546,"current_range_meters":27600,"station_id":"ce4bh392rcd13ifvqdl0","pricing_plan_id":"cebpf4jnsgd1na2vs0mg"},{"bike_id":"f4f02cf6-5697-4694-a79a-e6cbc79525aa","system_id":"levelo_inurba_marseille","lat":43.298764,"lon":5.388973,"is_reserved":false,"is_disabled":false,"rental_uris":{"android":"levelo://app?vid=f4f02cf6-5697-4694-a79a-e6cbc79525aa","ios":"levelo://app?vid=f4f02cf6-5697-4694-a79a-e6cbc79525aa"},"vehicle_type_id":"4","last_reported":1716725546,"current_range_meters":6400,"station_id":"ce4bh392rcd13ifvqdl0","pricing_plan_id":"cebpf4jnsgd1na2vs0mg"},{"bike_id":"d3dade83-554c-46a1-b667-81b4621d2b2f","system_id":"levelo_inurba_marseille","lat":43.298764,"lon":5.388973,"is_reserved":false,"is_disabled":false,"rental_uris":{"android":"levelo://app?vid=d3dade83-554c-46a1-b667-81b4621d2b2f","ios":"levelo://app?vid=d3dade83-554c-46a1-b667-81b4621d2b2f"},"vehicle_type_id":"4","last_reported":1716725546,"current_range_meters":26000,"station_id":"ce4bh392rcd13ifvqdl0","pricing_plan_id":"cebpf4jnsgd1na2vs0mg"},{"bike_id":"c4f76414-b14e-4efe-9ce1-39287146e5bd","system_id":"levelo_inurba_marseille","lat":43.298764,"lon":5.388973,"is_reserved":false,"is_disabled":false,"rental_uris":{"android":"levelo://app?vid=c4f76414-b14e-4efe-9ce1-39287146e5bd","ios":"levelo://app?vid=c4f76414-b14e-4efe-9ce1-39287146e5bd"},"vehicle_type_id":"4","last_reported":1716725546,"current_range_meters":27600,"station_id":"ce4bh392rcd13ifvqdl0","pricing_plan_id":"cebpf4jnsgd1na2vs0mg"},{"bike_id":"c0424479-cd74-4ee7-923a-4b7d9ed318dd","system_id":"levelo_inurba_marseille","lat":43.291675,"lon":5.371583,"is_reserved":false,"is_disabled":false,"rental_uris":{"android":"levelo://app?vid=c0424479-cd74-4ee7-923a-4b7d9ed318dd","ios":"levelo://app?vid=c0424479-cd74-4ee7-923a-4b7d9ed318dd"},"vehicle_type_id":"4","last_reported":1716725546,"current_range_meters":0,"station_id":"ce4bha92rcd13ifvqeh0","pricing_plan_id":"cebpf4jnsgd1na2vs0mg"},{"bike_id":"8b5bdfdf-fa26-4faa-a9ce-9165f1ec68c8","system_id":"levelo_inurba_marseille","lat":43.291671,"lon":5.371575,"is_reserved":false,"is_disabled":false,"rental_uris":{"android":"levelo://app?vid=8b5bdfdf-fa26-4faa-a9ce-9165f1ec68c8","ios":"levelo://app?vid=8b5bdfdf-fa26-4faa-a9ce-9165f1ec68c8"},"vehicle_type_id":"4","last_reported":1716725546,"current_range_meters":24400,"station_id":"ce4bha92rcd13ifvqeh0","pricing_plan_id":"cebpf4jnsgd1na2vs0mg"},{"bike_id":"612644d2-9f2a-4c1a-b4b9-de79315dae7e","system_id":"levelo_inurba_marseille","lat":43.292005,"lon":5.357875,"is_reserved":false,"is_disabled":false,"rental_uris":{"android":"levelo://app?vid=612644d2-9f2a-4c1a-b4b9-de79315dae7e","ios":"levelo://app?vid=612644d2-9f2a-4c1a-b4b9-de79315dae7e"},"vehicle_type_id":"4","last_reported":1716725546,"current_range_meters":9600,"station_id":"ce4bhb12rcd13ifvqel0","pricing_plan_id":"cebpf4jnsgd1na2vs0mg"},{"bike_id":"496ab2df-a644-48b9-ac15-e554c089e492","system_id":"levelo_inurba_marseille","lat":43.292005,"lon":5.357875,"is_reserved":false,"is_disabled":false,"rental_uris":{"android":"levelo://app?vid=496ab2df-a644-48b9-ac15-e554c089e492","ios":"levelo://app?vid=496ab2df-a644-48b9-ac15-e554c089e492"},"vehicle_type_id":"4","last_reported":1716725546,"current_range_meters":19600,"station_id":"ce4bhb12rcd13ifvqel0","pricing_plan_id":"cebpf4jnsgd1na2vs0mg"},{"bike_id":"0de39221-385d-42db-bda2-626e1fcb515e","system_id":"levelo_inurba_marseille","lat":43.292005,"lon":5.357875,"is_reserved":false,"is_disabled":false,"rental_uris":{"android":"levelo://app?vid=0de39221-385d-42db-bda2-626e1fcb515e","ios":"levelo://app?vid=0de39221-385d-42db-bda2-626e1fcb515e"},"vehicle_type_id":"4","last_reported":1716725546,"current_range_meters":2800,"station_id":"ce4bhb12rcd13ifvqel0","pricing_plan_id":"cebpf4jnsgd1na2vs0mg"},{"bike_id":"1af6628b-8ce9-4aa0-9b89-ec944b063521","system_id":"levelo_inurba_marseille","lat":43.292005,"lon":5.357875,"is_reserved":false,"is_disabled":false,"rental_uris":{"android":"levelo://app?vid=1af6628b-8ce9-4aa0-9b89-ec944b063521","ios":"levelo://app?vid=1af6628b-8ce9-4aa0-9b89-ec944b063521"},"vehicle_type_id":"4","last_reported":1716725546,"current_range_meters":8400,"station_id":"ce4bhb12rcd13ifvqel0","pricing_plan_id":"cebpf4jnsgd1na2vs0mg"},{"bike_id":"26166009-8c98-4306-83e5-1f07b0553e75","system_id":"levelo_inurba_marseille","lat":43.292005,"lon":5.357875,"is_reserved":false,"is_disabled":false,"rental_uris":{"android":"levelo://app?vid=26166009-8c98-4306-83e5-1f07b0553e75","ios":"levelo://app?vid=26166009-8c98-4306-83e5-1f07b0553e75"},"vehicle_type_id":"4","last_reported":1716725546,"current_range_meters":6400,"station_id":"ce4bhb12rcd13ifvqel0","pricing_plan_id":"cebpf4jnsgd1na2vs0mg"},{"bike_id":"980aea93-072b-49b1-ab93-6e700dc34348","system_id":"levelo_inurba_marseille","lat":43.292005,"lon":5.357875,"is_reserved":false,"is_disabled":false,"rental_uris":{"android":"levelo://app?vid=980aea93-072b-49b1-ab93-6e700dc34348","ios":"levelo://app?vid=980aea93-072b-49b1-ab93-6e700dc34348"},"vehicle_type_id":"4","last_reported":1716725546,"current_range_meters":23600,"station_id":"ce4bhb12rcd13ifvqel0","pricing_plan_id":"cebpf4jnsgd1na2vs0mg"},{"bike_id":"a63f32b0-ee01-4284-8b8c-a946a6c61566","system_id":"levelo_inurba_marseille","lat":43.291994,"lon":5.357886,"is_reserved":false,"is_disabled":false,"rental_uris":{"android":"levelo://app?vid=a63f32b0-ee01-4284-8b8c-a946a6c61566","ios":"levelo://app?vid=a63f32b0-ee01-4284-8b8c-a946a6c61566"},"vehicle_type_id":"4","last_reported":1716725546,"current_range_meters":1600,"station_id":"ce4bhb12rcd13ifvqel0","pricing_plan_id":"cebpf4jnsgd1na2vs0mg"},{"bike_id":"beb2e537-4f6b-4889-94da-46725393f39e","system_id":"levelo_inurba_marseille","lat":43.291994,"lon":5.357886,"is_reserved":false,"is_disabled":false,"rental_uris":{"android":"levelo://app?vid=beb2e537-4f6b-4889-94da-46725393f39e","ios":"levelo://app?vid=beb2e537-4f6b-4889-94da-46725393f39e"},"vehicle_type_id":"4","last_reported":1716725546,"current_range_meters":21600,"station_id":"ce4bhb12rcd13ifvqel0","pricing_plan_id":"cebpf4jnsgd1na2vs0mg"},{"bike_id":"ada6eb20-ea70-4601-aeb5-02102465873d","system_id":"levelo_inurba_marseille","lat":43.291994,"lon":5.357886,"is_reserved":false,"is_disabled":false,"rental_uris":{"android":"levelo://app?vid=ada6eb20-ea70-4601-aeb5-02102465873d","ios":"levelo://app?vid=ada6eb20-ea70-4601-aeb5-02102465873d"},"vehicle_type_id":"4","last_reported":1716725546,"current_range_meters":18400,"station_id":"ce4bhb12rcd13ifvqel0","pricing_plan_id":"cebpf4jnsgd1na2vs0mg"},{"bike_id":"295cddfc-815b-4898-a758-08c6f1e1900c","system_id":"levelo_inurba_marseille","lat":43.292005,"lon":5.357875,"is_reserved":false,"is_disabled":false,"rental_uris":{"android":"levelo://app?vid=295cddfc-815b-4898-a758-08c6f1e1900c","ios":"levelo://app?vid=295cddfc-815b-4898-a758-08c6f1e1900c"},"vehicle_type_id":"4","last_reported":1716725546,"current_range_meters":20000,"station_id":"ce4bhb12rcd13ifvqel0","pricing_plan_id":"cebpf4jnsgd1na2vs0mg"},{"bike_id":"af033347-e543-4d95-b8a0-6a77c8ccaed6","system_id":"levelo_inurba_marseille","lat":43.291994,"lon":5.357886,"is_reserved":false,"is_disabled":false,"rental_uris":{"android":"levelo://app?vid=af033347-e543-4d95-b8a0-6a77c8ccaed6","ios":"levelo://app?vid=af033347-e543-4d95-b8a0-6a77c8ccaed6"},"vehicle_type_id":"4","last_reported":1716725546,"current_range_meters":26400,"station_id":"ce4bhb12rcd13ifvqel0","pricing_plan_id":"cebpf4jnsgd1na2vs0mg"},{"bike_id":"c5d7b29d-1794-4bc6-9e03-430bb12859a7","system_id":"levelo_inurba_marseille","lat":43.291994,"lon":5.357886,"is_reserved":false,"is_disabled":false,"rental_uris":{"android":"levelo://app?vid=c5d7b29d-1794-4bc6-9e03-430bb12859a7","ios":"levelo://app?vid=c5d7b29d-1794-4bc6-9e03-430bb12859a7"},"vehicle_type_id":"4","last_reported":1716725546,"current_range_meters":18800,"station_id":"ce4bhb12rcd13ifvqel0","pricing_plan_id":"cebpf4jnsgd1na2vs0mg"},{"bike_id":"b7160b9e-b436-4cf2-a8ee-72a3387a528b","system_id":"levelo_inurba_marseille","lat":43.292005,"lon":5.357875,"is_reserved":false,"is_disabled":false,"rental_uris":{"android":"levelo://app?vid=b7160b9e-b436-4cf2-a8ee-72a3387a528b","ios":"levelo://app?vid=b7160b9e-b436-4cf2-a8ee-72a3387a528b"},"vehicle_type_id":"4","last_reported":1716725546,"current_range_meters":10400,"station_id":"ce4bhb12rcd13ifvqel0","pricing_plan_id":"cebpf4jnsgd1na2vs0mg"},{"bike_id":"67848fca-dfc3-4cd3-b9ae-d73aa8483b50","system_id":"levelo_inurba_marseille","lat":43.291994,"lon":5.357886,"is_reserved":false,"is_disabled":false,"rental_uris":{"android":"levelo://app?vid=67848fca-dfc3-4cd3-b9ae-d73aa8483b50","ios":"levelo://app?vid=67848fca-dfc3-4cd3-b9ae-d73aa8483b50"},"vehicle_type_id":"4","last_reported":1716725546,"current_range_meters":18800,"station_id":"ce4bhb12rcd13ifvqel0","pricing_plan_id":"cebpf4jnsgd1na2vs0mg"},{"bike_id":"59a0e8f4-ed21-48ce-a998-4402f1213184","system_id":"levelo_inurba_marseille","lat":43.291994,"lon":5.357886,"is_reserved":false,"is_disabled":false,"rental_uris":{"android":"levelo://app?vid=59a0e8f4-ed21-48ce-a998-4402f1213184","ios":"levelo://app?vid=59a0e8f4-ed21-48ce-a998-4402f1213184"},"vehicle_type_id":"4","last_reported":1716725546,"current_range_meters":16800,"station_id":"ce4bhb12rcd13ifvqel0","pricing_plan_id":"cebpf4jnsgd1na2vs0mg"},{"bike_id":"a85cba89-5726-44c6-af21-dd89a52b3ca7","system_id":"levelo_inurba_marseille","lat":43.291994,"lon":5.357886,"is_reserved":false,"is_disabled":false,"rental_uris":{"android":"levelo://app?vid=a85cba89-5726-44c6-af21-dd89a52b3ca7","ios":"levelo://app?vid=a85cba89-5726-44c6-af21-dd89a52b3ca7"},"vehicle_type_id":"4","last_reported":1716725546,"current_range_meters":10000,"station_id":"ce4bhb12rcd13ifvqel0","pricing_plan_id":"cebpf4jnsgd1na2vs0mg"},{"bike_id":"11f223e8-c252-4538-820c-09bc79afaf44","system_id":"levelo_inurba_marseille","lat":43.29529,"lon":5.385581,"is_reserved":false,"is_disabled":false,"rental_uris":{"android":"levelo://app?vid=11f223e8-c252-4538-820c-09bc79afaf44","ios":"levelo://app?vid=11f223e8-c252-4538-820c-09bc79afaf44"},"vehicle_type_id":"4","last_reported":1716725546,"current_range_meters":14800,"station_id":"ce4bgih2rcd13ifvqba0","pricing_plan_id":"cebpf4jnsgd1na2vs0mg"},{"bike_id":"8b7b405b-776d-42b4-8d1d-9a60d356254b","system_id":"levelo_inurba_marseille","lat":43.29529,"lon":5.385581,"is_reserved":false,"is_disabled":false,"rental_uris":{"android":"levelo://app?vid=8b7b405b-776d-42b4-8d1d-9a60d356254b","ios":"levelo://app?vid=8b7b405b-776d-42b4-8d1d-9a60d356254b"},"vehicle_type_id":"4","last_reported":1716725546,"current_range_meters":400,"station_id":"ce4bgih2rcd13ifvqba0","pricing_plan_id":"cebpf4jnsgd1na2vs0mg"},{"bike_id":"31b7a9d4-0314-4671-92f9-36fa8fdca324","system_id":"levelo_inurba_marseille","lat":43.29173,"lon":5.35635,"is_reserved":false,"is_disabled":false,"rental_uris":{"android":"levelo://app?vid=31b7a9d4-0314-4671-92f9-36fa8fdca324","ios":"levelo://app?vid=31b7a9d4-0314-4671-92f9-36fa8fdca324"},"vehicle_type_id":"4","last_reported":1716725546,"current_range_meters":12400,"station_id":"","pricing_plan_id":"cebpf4jnsgd1na2vs0mg"},{"bike_id":"31397991-355d-4220-912d-128d166674aa","system_id":"levelo_inurba_marseille","lat":43.290624,"lon":5.359245,"is_reserved":false,"is_disabled":false,"rental_uris":{"android":"levelo://app?vid=31397991-355d-4220-912d-128d166674aa","ios":"levelo://app?vid=31397991-355d-4220-912d-128d166674aa"},"vehicle_type_id":"4","last_reported":1716725546,"current_range_meters":9200,"station_id":"ce4bha92rcd13ifvqeg0","pricing_plan_id":"cebpf4jnsgd1na2vs0mg"},{"bike_id":"7e1695be-7699-4b2d-9490-254fa7e26758","system_id":"levelo_inurba_marseille","lat":43.290631,"lon":5.359244,"is_reserved":false,"is_disabled":false,"rental_uris":{"android":"levelo://app?vid=7e1695be-7699-4b2d-9490-254fa7e26758","ios":"levelo://app?vid=7e1695be-7699-4b2d-9490-254fa7e26758"},"vehicle_type_id":"4","last_reported":1716725546,"current_range_meters":15200,"station_id":"ce4bha92rcd13ifvqeg0","pricing_plan_id":"cebpf4jnsgd1na2vs0mg"},{"bike_id":"3482c492-59b5-409f-babd-978e2ed0150a","system_id":"levelo_inurba_marseille","lat":43.294162,"lon":5.386292,"is_reserved":false,"is_disabled":false,"rental_uris":{"android":"levelo://app?vid=3482c492-59b5-409f-babd-978e2ed0150a","ios":"levelo://app?vid=3482c492-59b5-409f-babd-978e2ed0150a"},"vehicle_type_id":"4","last_reported":1716725546,"current_range_meters":26400,"station_id":"ce4bh2h2rcd13ifvqdh0","pricing_plan_id":"cebpf4jnsgd1na2vs0mg"},{"bike_id":"dfbe2304-3038-409a-b759-5e7fc6e2d58a","system_id":"levelo_inurba_marseille","lat":43.28947,"lon":5.36636,"is_reserved":false,"is_disabled":false,"rental_uris":{"android":"levelo://app?vid=dfbe2304-3038-409a-b759-5e7fc6e2d58a","ios":"levelo://app?vid=dfbe2304-3038-409a-b759-5e7fc6e2d58a"},"vehicle_type_id":"4","last_reported":1716725546,"current_range_meters":0,"station_id":"ce4bhap2rcd13ifvqek0","pricing_plan_id":"cebpf4jnsgd1na2vs0mg"},{"bike_id":"d9db8d20-c976-46f3-83f9-2940c7cfa4f9","system_id":"levelo_inurba_marseille","lat":43.290327,"lon":5.375711,"is_reserved":false,"is_disabled":false,"rental_uris":{"android":"levelo://app?vid=d9db8d20-c976-46f3-83f9-2940c7cfa4f9","ios":"levelo://app?vid=d9db8d20-c976-46f3-83f9-2940c7cfa4f9"},"vehicle_type_id":"4","last_reported":1716725546,"current_range_meters":26800,"station_id":"ce4bh692rcd13ifvqe90","pricing_plan_id":"cebpf4jnsgd1na2vs0mg"},{"bike_id":"9fa2bb2e-5269-47bf-a91e-d667d35c76c6","system_id":"levelo_inurba_marseille","lat":43.28941,"lon":5.36634,"is_reserved":false,"is_disabled":false,"rental_uris":{"android":"levelo://app?vid=9fa2bb2e-5269-47bf-a91e-d667d35c76c6","ios":"levelo://app?vid=9fa2bb2e-5269-47bf-a91e-d667d35c76c6"},"vehicle_type_id":"4","last_reported":1716725546,"current_range_meters":12800,"station_id":"ce4bhap2rcd13ifvqek0","pricing_plan_id":"cebpf4jnsgd1na2vs0mg"},{"bike_id":"6bfb0dec-ffa7-4e5a-b4b4-6d9ae1af840a","system_id":"levelo_inurba_marseille","lat":43.2894,"lon":5.36635,"is_reserved":false,"is_disabled":false,"rental_uris":{"android":"levelo://app?vid=6bfb0dec-ffa7-4e5a-b4b4-6d9ae1af840a","ios":"levelo://app?vid=6bfb0dec-ffa7-4e5a-b4b4-6d9ae1af840a"},"vehicle_type_id":"4","last_reported":1716725546,"current_range_meters":0,"station_id":"ce4bhap2rcd13ifvqek0","pricing_plan_id":"cebpf4jnsgd1na2vs0mg"},{"bike_id":"6fb9a9a9-d38a-4b21-a155-42f592e90a06","system_id":"levelo_inurba_marseille","lat":43.293778,"lon":5.385802,"is_reserved":false,"is_disabled":false,"rental_uris":{"android":"levelo://app?vid=6fb9a9a9-d38a-4b21-a155-42f592e90a06","ios":"levelo://app?vid=6fb9a9a9-d38a-4b21-a155-42f592e90a06"},"vehicle_type_id":"4","last_reported":1716725546,"current_range_meters":4400,"station_id":"","pricing_plan_id":"cebpf4jnsgd1na2vs0mg"},{"bike_id":"9378baa5-f3fa-43e5-b005-1205996e9a8c","system_id":"levelo_inurba_marseille","lat":43.289233,"lon":5.366889,"is_reserved":false,"is_disabled":false,"rental_uris":{"android":"levelo://app?vid=9378baa5-f3fa-43e5-b005-1205996e9a8c","ios":"levelo://app?vid=9378baa5-f3fa-43e5-b005-1205996e9a8c"},"vehicle_type_id":"4","last_reported":1716725546,"current_range_meters":0,"station_id":"ce4bhap2rcd13ifvqek0","pricing_plan_id":"cebpf4jnsgd1na2vs0mg"},{"bike_id":"fd6f30aa-ea15-4aeb-a88d-2eed91159344","system_id":"levelo_inurba_marseille","lat":43.29013,"lon":5.35617,"is_reserved":false,"is_disabled":false,"rental_uris":{"android":"levelo://app?vid=fd6f30aa-ea15-4aeb-a88d-2eed91159344","ios":"levelo://app?vid=fd6f30aa-ea15-4aeb-a88d-2eed91159344"},"vehicle_type_id":"4","last_reported":1716725546,"current_range_meters":31200,"station_id":"ce4bhb92rcd13ifvqen0","pricing_plan_id":"cebpf4jnsgd1na2vs0mg"},{"bike_id":"d0ed2611-f7c4-485f-959e-a5c4060ed1dd","system_id":"levelo_inurba_marseille","lat":43.29013,"lon":5.35601,"is_reserved":false,"is_disabled":false,"rental_uris":{"android":"levelo://app?vid=d0ed2611-f7c4-485f-959e-a5c4060ed1dd","ios":"levelo://app?vid=d0ed2611-f7c4-485f-959e-a5c4060ed1dd"},"vehicle_type_id":"4","last_reported":1716725546,"current_range_meters":10800,"station_id":"ce4bhb92rcd13ifvqen0","pricing_plan_id":"cebpf4jnsgd1na2vs0mg"},{"bike_id":"e9693fdb-add9-48f8-aa4b-bdf93d724d10","system_id":"levelo_inurba_marseille","lat":43.290103,"lon":5.356114,"is_reserved":false,"is_disabled":false,"rental_uris":{"android":"levelo://app?vid=e9693fdb-add9-48f8-aa4b-bdf93d724d10","ios":"levelo://app?vid=e9693fdb-add9-48f8-aa4b-bdf93d724d10"},"vehicle_type_id":"4","last_reported":1716725546,"current_range_meters":12400,"station_id":"ce4bhb92rcd13ifvqen0","pricing_plan_id":"cebpf4jnsgd1na2vs0mg"},{"bike_id":"0e3be77d-d412-411a-8725-6a65a02e4848","system_id":"levelo_inurba_marseille","lat":43.290035,"lon":5.356312,"is_reserved":false,"is_disabled":false,"rental_uris":{"android":"levelo://app?vid=0e3be77d-d412-411a-8725-6a65a02e4848","ios":"levelo://app?vid=0e3be77d-d412-411a-8725-6a65a02e4848"},"vehicle_type_id":"4","last_reported":1716725546,"current_range_meters":6800,"station_id":"ce4bhb92rcd13ifvqen0","pricing_plan_id":"cebpf4jnsgd1na2vs0mg"},{"bike_id":"35d70aa9-7b97-4a6b-97b0-f1cdfd36274b","system_id":"levelo_inurba_marseille","lat":43.290104,"lon":5.356111,"is_reserved":false,"is_disabled":false,"rental_uris":{"android":"levelo://app?vid=35d70aa9-7b97-4a6b-97b0-f1cdfd36274b","ios":"levelo://app?vid=35d70aa9-7b97-4a6b-97b0-f1cdfd36274b"},"vehicle_type_id":"4","last_reported":1716725546,"current_range_meters":26000,"station_id":"ce4bhb92rcd13ifvqen0","pricing_plan_id":"cebpf4jnsgd1na2vs0mg"},{"bike_id":"f1671e9f-6765-4ffb-a9e1-d501df9ff8dc","system_id":"levelo_inurba_marseille","lat":43.29005,"lon":5.35616,"is_reserved":false,"is_disabled":false,"rental_uris":{"android":"levelo://app?vid=f1671e9f-6765-4ffb-a9e1-d501df9ff8dc","ios":"levelo://app?vid=f1671e9f-6765-4ffb-a9e1-d501df9ff8dc"},"vehicle_type_id":"4","last_reported":1716725546,"current_range_meters":7600,"station_id":"ce4bhb92rcd13ifvqen0","pricing_plan_id":"cebpf4jnsgd1na2vs0mg"},{"bike_id":"b2617a59-981e-45ce-b018-e974e4304dc1","system_id":"levelo_inurba_marseille","lat":43.290104,"lon":5.356111,"is_reserved":false,"is_disabled":false,"rental_uris":{"android":"levelo://app?vid=b2617a59-981e-45ce-b018-e974e4304dc1","ios":"levelo://app?vid=b2617a59-981e-45ce-b018-e974e4304dc1"},"vehicle_type_id":"4","last_reported":1716725546,"current_range_meters":31600,"station_id":"ce4bhb92rcd13ifvqen0","pricing_plan_id":"cebpf4jnsgd1na2vs0mg"},{"bike_id":"ebddfa96-3a53-44e0-8667-7119e194f12b","system_id":"levelo_inurba_marseille","lat":43.29005,"lon":5.35608,"is_reserved":false,"is_disabled":false,"rental_uris":{"android":"levelo://app?vid=ebddfa96-3a53-44e0-8667-7119e194f12b","ios":"levelo://app?vid=ebddfa96-3a53-44e0-8667-7119e194f12b"},"vehicle_type_id":"4","last_reported":1716725546,"current_range_meters":14400,"station_id":"ce4bhb92rcd13ifvqen0","pricing_plan_id":"cebpf4jnsgd1na2vs0mg"},{"bike_id":"660e2975-99db-47d1-9257-d754fc14ffbe","system_id":"levelo_inurba_marseille","lat":43.29003,"lon":5.35614,"is_reserved":false,"is_disabled":false,"rental_uris":{"android":"levelo://app?vid=660e2975-99db-47d1-9257-d754fc14ffbe","ios":"levelo://app?vid=660e2975-99db-47d1-9257-d754fc14ffbe"},"vehicle_type_id":"4","last_reported":1716725546,"current_range_meters":22800,"station_id":"ce4bhb92rcd13ifvqen0","pricing_plan_id":"cebpf4jnsgd1na2vs0mg"},{"bike_id":"25495d93-fb6e-4bcc-9a79-33a7de5f0273","system_id":"levelo_inurba_marseille","lat":43.29005,"lon":5.35606,"is_reserved":false,"is_disabled":false,"rental_uris":{"android":"levelo://app?vid=25495d93-fb6e-4bcc-9a79-33a7de5f0273","ios":"levelo://app?vid=25495d93-fb6e-4bcc-9a79-33a7de5f0273"},"vehicle_type_id":"4","last_reported":1716725546,"current_range_meters":31200,"station_id":"ce4bhb92rcd13ifvqen0","pricing_plan_id":"cebpf4jnsgd1na2vs0mg"},{"bike_id":"31a4c36e-6ca5-45ad-952c-fbad36c5eb52","system_id":"levelo_inurba_marseille","lat":43.290104,"lon":5.356111,"is_reserved":false,"is_disabled":false,"rental_uris":{"android":"levelo://app?vid=31a4c36e-6ca5-45ad-952c-fbad36c5eb52","ios":"levelo://app?vid=31a4c36e-6ca5-45ad-952c-fbad36c5eb52"},"vehicle_type_id":"4","last_reported":1716725546,"current_range_meters":24000,"station_id":"ce4bhb92rcd13ifvqen0","pricing_plan_id":"cebpf4jnsgd1na2vs0mg"},{"bike_id":"641cf4b9-cd4c-431e-8e24-739a52ab9c80","system_id":"levelo_inurba_marseille","lat":43.330442,"lon":5.389148,"is_reserved":false,"is_disabled":false,"rental_uris":{"android":"levelo://app?vid=641cf4b9-cd4c-431e-8e24-739a52ab9c80","ios":"levelo://app?vid=641cf4b9-cd4c-431e-8e24-739a52ab9c80"},"vehicle_type_id":"4","last_reported":1716725546,"current_range_meters":28800,"station_id":"ce4bhr92rcd13ifvqhrg","pricing_plan_id":"cebpf4jnsgd1na2vs0mg"},{"bike_id":"ba7bba16-c57b-44f6-9f9c-c9839289854f","system_id":"levelo_inurba_marseille","lat":43.31065,"lon":5.40081,"is_reserved":false,"is_disabled":false,"rental_uris":{"android":"levelo://app?vid=ba7bba16-c57b-44f6-9f9c-c9839289854f","ios":"levelo://app?vid=ba7bba16-c57b-44f6-9f9c-c9839289854f"},"vehicle_type_id":"4","last_reported":1716725546,"current_range_meters":10400,"station_id":"","pricing_plan_id":"cebpf4jnsgd1na2vs0mg"},{"bike_id":"27034b89-6a89-4c2e-97c8-041d23a0a9d8","system_id":"levelo_inurba_marseille","lat":43.2901,"lon":5.381269,"is_reserved":false,"is_disabled":false,"rental_uris":{"android":"levelo://app?vid=27034b89-6a89-4c2e-97c8-041d23a0a9d8","ios":"levelo://app?vid=27034b89-6a89-4c2e-97c8-041d23a0a9d8"},"vehicle_type_id":"4","last_reported":1716725546,"current_range_meters":20800,"station_id":"ce4bh4p2rcd13ifvqe1g","pricing_plan_id":"cebpf4jnsgd1na2vs0mg"},{"bike_id":"1a1505af-a805-4e97-b6c5-ef86c8ad33ae","system_id":"levelo_inurba_marseille","lat":43.310718,"lon":5.400998,"is_reserved":false,"is_disabled":false,"rental_uris":{"android":"levelo://app?vid=1a1505af-a805-4e97-b6c5-ef86c8ad33ae","ios":"levelo://app?vid=1a1505af-a805-4e97-b6c5-ef86c8ad33ae"},"vehicle_type_id":"4","last_reported":1716725546,"current_range_meters":400,"station_id":"","pricing_plan_id":"cebpf4jnsgd1na2vs0mg"},{"bike_id":"64d4da75-90d1-4b74-9737-9c57fd4c197a","system_id":"levelo_inurba_marseille","lat":43.28856,"lon":5.358371,"is_reserved":false,"is_disabled":false,"rental_uris":{"android":"levelo://app?vid=64d4da75-90d1-4b74-9737-9c57fd4c197a","ios":"levelo://app?vid=64d4da75-90d1-4b74-9737-9c57fd4c197a"},"vehicle_type_id":"4","last_reported":1716725546,"current_range_meters":12800,"station_id":"ce4bhb12rcd13ifvqem0","pricing_plan_id":"cebpf4jnsgd1na2vs0mg"},{"bike_id":"c817be8a-4d3f-428e-9e83-fb97be659edc","system_id":"levelo_inurba_marseille","lat":43.33739,"lon":5.37443,"is_reserved":false,"is_disabled":false,"rental_uris":{"android":"levelo://app?vid=c817be8a-4d3f-428e-9e83-fb97be659edc","ios":"levelo://app?vid=c817be8a-4d3f-428e-9e83-fb97be659edc"},"vehicle_type_id":"4","last_reported":1716725546,"current_range_meters":21200,"station_id":"","pricing_plan_id":"cebpf4jnsgd1na2vs0mg"},{"bike_id":"5e08015a-b315-49d5-b067-121fc243166b","system_id":"levelo_inurba_marseille","lat":43.33752,"lon":5.37436,"is_reserved":false,"is_disabled":false,"rental_uris":{"android":"levelo://app?vid=5e08015a-b315-49d5-b067-121fc243166b","ios":"levelo://app?vid=5e08015a-b315-49d5-b067-121fc243166b"},"vehicle_type_id":"4","last_reported":1716725546,"current_range_meters":16000,"station_id":"","pricing_plan_id":"cebpf4jnsgd1na2vs0mg"},{"bike_id":"4baa171a-6f41-4b4c-bcc1-759d97c52644","system_id":"levelo_inurba_marseille","lat":43.337567,"lon":5.374574,"is_reserved":false,"is_disabled":false,"rental_uris":{"android":"levelo://app?vid=4baa171a-6f41-4b4c-bcc1-759d97c52644","ios":"levelo://app?vid=4baa171a-6f41-4b4c-bcc1-759d97c52644"},"vehicle_type_id":"4","last_reported":1716725546,"current_range_meters":18800,"station_id":"","pricing_plan_id":"cebpf4jnsgd1na2vs0mg"},{"bike_id":"4d476eee-4013-46a3-be70-3fc5198fa0f9","system_id":"levelo_inurba_marseille","lat":43.33763,"lon":5.374318,"is_reserved":false,"is_disabled":false,"rental_uris":{"android":"levelo://app?vid=4d476eee-4013-46a3-be70-3fc5198fa0f9","ios":"levelo://app?vid=4d476eee-4013-46a3-be70-3fc5198fa0f9"},"vehicle_type_id":"4","last_reported":1716725546,"current_range_meters":12800,"station_id":"","pricing_plan_id":"cebpf4jnsgd1na2vs0mg"},{"bike_id":"732798ba-2b9a-45ce-babd-a4bca6a10e63","system_id":"levelo_inurba_marseille","lat":43.337625,"lon":5.374405,"is_reserved":false,"is_disabled":false,"rental_uris":{"android":"levelo://app?vid=732798ba-2b9a-45ce-babd-a4bca6a10e63","ios":"levelo://app?vid=732798ba-2b9a-45ce-babd-a4bca6a10e63"},"vehicle_type_id":"4","last_reported":1716725546,"current_range_meters":12800,"station_id":"","pricing_plan_id":"cebpf4jnsgd1na2vs0mg"},{"bike_id":"de609f3b-f2e7-4b37-96b4-3315c7ebe8bb","system_id":"levelo_inurba_marseille","lat":43.33764,"lon":5.37471,"is_reserved":false,"is_disabled":false,"rental_uris":{"android":"levelo://app?vid=de609f3b-f2e7-4b37-96b4-3315c7ebe8bb","ios":"levelo://app?vid=de609f3b-f2e7-4b37-96b4-3315c7ebe8bb"},"vehicle_type_id":"4","last_reported":1716725546,"current_range_meters":15200,"station_id":"","pricing_plan_id":"cebpf4jnsgd1na2vs0mg"},{"bike_id":"825fa8d8-f677-44ea-959e-e28a76bf9c1f","system_id":"levelo_inurba_marseille","lat":43.33781,"lon":5.37472,"is_reserved":false,"is_disabled":false,"rental_uris":{"android":"levelo://app?vid=825fa8d8-f677-44ea-959e-e28a76bf9c1f","ios":"levelo://app?vid=825fa8d8-f677-44ea-959e-e28a76bf9c1f"},"vehicle_type_id":"4","last_reported":1716725546,"current_range_meters":16000,"station_id":"","pricing_plan_id":"cebpf4jnsgd1na2vs0mg"},{"bike_id":"c4967ba4-06df-45b2-9f2b-bb8b4fb4fbf2","system_id":"levelo_inurba_marseille","lat":43.286961,"lon":5.373785,"is_reserved":false,"is_disabled":false,"rental_uris":{"android":"levelo://app?vid=c4967ba4-06df-45b2-9f2b-bb8b4fb4fbf2","ios":"levelo://app?vid=c4967ba4-06df-45b2-9f2b-bb8b4fb4fbf2"},"vehicle_type_id":"4","last_reported":1716725546,"current_range_meters":16400,"station_id":"ce4bh3p2rcd13ifvqdq0","pricing_plan_id":"cebpf4jnsgd1na2vs0mg"},{"bike_id":"2d43594d-e8be-4276-893c-de8ee8aa0f00","system_id":"levelo_inurba_marseille","lat":43.286591,"lon":5.363346,"is_reserved":false,"is_disabled":false,"rental_uris":{"android":"levelo://app?vid=2d43594d-e8be-4276-893c-de8ee8aa0f00","ios":"levelo://app?vid=2d43594d-e8be-4276-893c-de8ee8aa0f00"},"vehicle_type_id":"4","last_reported":1716725546,"current_range_meters":10000,"station_id":"ce4bhah2rcd13ifvqej0","pricing_plan_id":"cebpf4jnsgd1na2vs0mg"},{"bike_id":"e6e16703-2725-4355-8be7-37c03319e545","system_id":"levelo_inurba_marseille","lat":43.286593,"lon":5.363346,"is_reserved":false,"is_disabled":false,"rental_uris":{"android":"levelo://app?vid=e6e16703-2725-4355-8be7-37c03319e545","ios":"levelo://app?vid=e6e16703-2725-4355-8be7-37c03319e545"},"vehicle_type_id":"4","last_reported":1716725546,"current_range_meters":5600,"station_id":"ce4bhah2rcd13ifvqej0","pricing_plan_id":"cebpf4jnsgd1na2vs0mg"},{"bike_id":"b4406cf7-7385-4681-8581-9ff4a0258a35","system_id":"levelo_inurba_marseille","lat":43.286591,"lon":5.363346,"is_reserved":false,"is_disabled":false,"rental_uris":{"android":"levelo://app?vid=b4406cf7-7385-4681-8581-9ff4a0258a35","ios":"levelo://app?vid=b4406cf7-7385-4681-8581-9ff4a0258a35"},"vehicle_type_id":"4","last_reported":1716725546,"current_range_meters":17600,"station_id":"ce4bhah2rcd13ifvqej0","pricing_plan_id":"cebpf4jnsgd1na2vs0mg"},{"bike_id":"7981a3ce-454b-422d-9578-0b32ae0c4bc5","system_id":"levelo_inurba_marseille","lat":43.290336,"lon":5.386425,"is_reserved":false,"is_disabled":false,"rental_uris":{"android":"levelo://app?vid=7981a3ce-454b-422d-9578-0b32ae0c4bc5","ios":"levelo://app?vid=7981a3ce-454b-422d-9578-0b32ae0c4bc5"},"vehicle_type_id":"4","last_reported":1716725546,"current_range_meters":9200,"station_id":"ce4bh4p2rcd13ifvqe0g","pricing_plan_id":"cebpf4jnsgd1na2vs0mg"},{"bike_id":"f6c258d9-bd7d-426b-b484-6f259077efd8","system_id":"levelo_inurba_marseille","lat":43.302759,"lon":5.400793,"is_reserved":false,"is_disabled":false,"rental_uris":{"android":"levelo://app?vid=f6c258d9-bd7d-426b-b484-6f259077efd8","ios":"levelo://app?vid=f6c258d9-bd7d-426b-b484-6f259077efd8"},"vehicle_type_id":"4","last_reported":1716725546,"current_range_meters":3200,"station_id":"ce4bgvh2rcd13ifvqcs0","pricing_plan_id":"cebpf4jnsgd1na2vs0mg"},{"bike_id":"0fc7211b-63eb-4382-8dee-d13beb6b2b17","system_id":"levelo_inurba_marseille","lat":43.286039,"lon":5.370681,"is_reserved":false,"is_disabled":false,"rental_uris":{"android":"levelo://app?vid=0fc7211b-63eb-4382-8dee-d13beb6b2b17","ios":"levelo://app?vid=0fc7211b-63eb-4382-8dee-d13beb6b2b17"},"vehicle_type_id":"4","last_reported":1716725546,"current_range_meters":14800,"station_id":"ce4bht12rcd13ifvqi60","pricing_plan_id":"cebpf4jnsgd1na2vs0mg"},{"bike_id":"c671f234-9d57-4e71-a065-f084c08bcb83","system_id":"levelo_inurba_marseille","lat":43.287184,"lon":5.37937,"is_reserved":false,"is_disabled":false,"rental_uris":{"android":"levelo://app?vid=c671f234-9d57-4e71-a065-f084c08bcb83","ios":"levelo://app?vid=c671f234-9d57-4e71-a065-f084c08bcb83"},"vehicle_type_id":"4","last_reported":1716725546,"current_range_meters":20400,"station_id":"ce4bh9p2rcd13ifvqec0","pricing_plan_id":"cebpf4jnsgd1na2vs0mg"},{"bike_id":"239ace96-8392-4800-83ae-66bfc6697732","system_id":"levelo_inurba_marseille","lat":43.287185,"lon":5.379373,"is_reserved":false,"is_disabled":false,"rental_uris":{"android":"levelo://app?vid=239ace96-8392-4800-83ae-66bfc6697732","ios":"levelo://app?vid=239ace96-8392-4800-83ae-66bfc6697732"},"vehicle_type_id":"4","last_reported":1716725546,"current_range_meters":1600,"station_id":"ce4bh9p2rcd13ifvqec0","pricing_plan_id":"cebpf4jnsgd1na2vs0mg"},{"bike_id":"fc5d79a9-980f-4a3d-9e13-156c55858555","system_id":"levelo_inurba_marseille","lat":43.31689,"lon":5.4047,"is_reserved":false,"is_disabled":false,"rental_uris":{"android":"levelo://app?vid=fc5d79a9-980f-4a3d-9e13-156c55858555","ios":"levelo://app?vid=fc5d79a9-980f-4a3d-9e13-156c55858555"},"vehicle_type_id":"4","last_reported":1716725546,"current_range_meters":0,"station_id":"ce4bh012rcd13ifvqd00","pricing_plan_id":"cebpf4jnsgd1na2vs0mg"},{"bike_id":"f0fc7b35-1f13-4177-a483-7e36733dfa33","system_id":"levelo_inurba_marseille","lat":43.33717,"lon":5.391857,"is_reserved":false,"is_disabled":false,"rental_uris":{"android":"levelo://app?vid=f0fc7b35-1f13-4177-a483-7e36733dfa33","ios":"levelo://app?vid=f0fc7b35-1f13-4177-a483-7e36733dfa33"},"vehicle_type_id":"4","last_reported":1716725546,"current_range_meters":26000,"station_id":"ce4bhr92rcd13ifvqhsg","pricing_plan_id":"cebpf4jnsgd1na2vs0mg"},{"bike_id":"f7c5efad-92bb-4c68-8ca8-5d025ff72da7","system_id":"levelo_inurba_marseille","lat":43.28675,"lon":5.35165,"is_reserved":false,"is_disabled":false,"rental_uris":{"android":"levelo://app?vid=f7c5efad-92bb-4c68-8ca8-5d025ff72da7","ios":"levelo://app?vid=f7c5efad-92bb-4c68-8ca8-5d025ff72da7"},"vehicle_type_id":"4","last_reported":1716725546,"current_range_meters":15600,"station_id":"ce4bhch2rcd13ifvqeug","pricing_plan_id":"cebpf4jnsgd1na2vs0mg"},{"bike_id":"351f2286-cdfa-4448-a368-9cce05a090d3","system_id":"levelo_inurba_marseille","lat":43.286385,"lon":5.351335,"is_reserved":false,"is_disabled":false,"rental_uris":{"android":"levelo://app?vid=351f2286-cdfa-4448-a368-9cce05a090d3","ios":"levelo://app?vid=351f2286-cdfa-4448-a368-9cce05a090d3"},"vehicle_type_id":"4","last_reported":1716725546,"current_range_meters":18800,"station_id":"ce4bhch2rcd13ifvqeug","pricing_plan_id":"cebpf4jnsgd1na2vs0mg"},{"bike_id":"e2d3a8f7-437f-4cd1-b285-5401de9cc6cc","system_id":"levelo_inurba_marseille","lat":43.285856,"lon":5.350771,"is_reserved":false,"is_disabled":false,"rental_uris":{"android":"levelo://app?vid=e2d3a8f7-437f-4cd1-b285-5401de9cc6cc","ios":"levelo://app?vid=e2d3a8f7-437f-4cd1-b285-5401de9cc6cc"},"vehicle_type_id":"4","last_reported":1716725546,"current_range_meters":15600,"station_id":"ce4bhch2rcd13ifvqeug","pricing_plan_id":"cebpf4jnsgd1na2vs0mg"},{"bike_id":"7358c03a-2078-4e3e-aac0-133092e57354","system_id":"levelo_inurba_marseille","lat":43.28625,"lon":5.35098,"is_reserved":false,"is_disabled":false,"rental_uris":{"android":"levelo://app?vid=7358c03a-2078-4e3e-aac0-133092e57354","ios":"levelo://app?vid=7358c03a-2078-4e3e-aac0-133092e57354"},"vehicle_type_id":"4","last_reported":1716725546,"current_range_meters":31200,"station_id":"ce4bhch2rcd13ifvqeug","pricing_plan_id":"cebpf4jnsgd1na2vs0mg"},{"bike_id":"a4cba0e1-7626-4d4f-888f-38ff57fc41d1","system_id":"levelo_inurba_marseille","lat":43.285856,"lon":5.350771,"is_reserved":false,"is_disabled":false,"rental_uris":{"android":"levelo://app?vid=a4cba0e1-7626-4d4f-888f-38ff57fc41d1","ios":"levelo://app?vid=a4cba0e1-7626-4d4f-888f-38ff57fc41d1"},"vehicle_type_id":"4","last_reported":1716725546,"current_range_meters":13200,"station_id":"ce4bhch2rcd13ifvqeug","pricing_plan_id":"cebpf4jnsgd1na2vs0mg"},{"bike_id":"1c291e56-10d9-472a-bfc7-e83bb6ff264b","system_id":"levelo_inurba_marseille","lat":43.285856,"lon":5.350771,"is_reserved":false,"is_disabled":false,"rental_uris":{"android":"levelo://app?vid=1c291e56-10d9-472a-bfc7-e83bb6ff264b","ios":"levelo://app?vid=1c291e56-10d9-472a-bfc7-e83bb6ff264b"},"vehicle_type_id":"4","last_reported":1716725546,"current_range_meters":7600,"station_id":"ce4bhch2rcd13ifvqeug","pricing_plan_id":"cebpf4jnsgd1na2vs0mg"},{"bike_id":"614afec8-fae8-49aa-abc9-85fee65ee069","system_id":"levelo_inurba_marseille","lat":43.285856,"lon":5.350771,"is_reserved":false,"is_disabled":false,"rental_uris":{"android":"levelo://app?vid=614afec8-fae8-49aa-abc9-85fee65ee069","ios":"levelo://app?vid=614afec8-fae8-49aa-abc9-85fee65ee069"},"vehicle_type_id":"4","last_reported":1716725546,"current_range_meters":25200,"station_id":"ce4bhch2rcd13ifvqeug","pricing_plan_id":"cebpf4jnsgd1na2vs0mg"},{"bike_id":"0552d5e0-c8cc-4aba-937b-b80775d6e267","system_id":"levelo_inurba_marseille","lat":43.285848,"lon":5.350787,"is_reserved":false,"is_disabled":false,"rental_uris":{"android":"levelo://app?vid=0552d5e0-c8cc-4aba-937b-b80775d6e267","ios":"levelo://app?vid=0552d5e0-c8cc-4aba-937b-b80775d6e267"},"vehicle_type_id":"4","last_reported":1716725546,"current_range_meters":29200,"station_id":"ce4bhch2rcd13ifvqeug","pricing_plan_id":"cebpf4jnsgd1na2vs0mg"},{"bike_id":"9a3dc110-bdf0-46ac-9dc6-90859b9efef5","system_id":"levelo_inurba_marseille","lat":43.28619,"lon":5.35104,"is_reserved":false,"is_disabled":false,"rental_uris":{"android":"levelo://app?vid=9a3dc110-bdf0-46ac-9dc6-90859b9efef5","ios":"levelo://app?vid=9a3dc110-bdf0-46ac-9dc6-90859b9efef5"},"vehicle_type_id":"4","last_reported":1716725546,"current_range_meters":1600,"station_id":"ce4bhch2rcd13ifvqeug","pricing_plan_id":"cebpf4jnsgd1na2vs0mg"},{"bike_id":"915cb0d5-dd89-4d6f-98e4-745590702d24","system_id":"levelo_inurba_marseille","lat":43.28618,"lon":5.35107,"is_reserved":false,"is_disabled":false,"rental_uris":{"android":"levelo://app?vid=915cb0d5-dd89-4d6f-98e4-745590702d24","ios":"levelo://app?vid=915cb0d5-dd89-4d6f-98e4-745590702d24"},"vehicle_type_id":"4","last_reported":1716725546,"current_range_meters":31200,"station_id":"ce4bhch2rcd13ifvqeug","pricing_plan_id":"cebpf4jnsgd1na2vs0mg"},{"bike_id":"8d86c262-2b11-424c-86cb-fa9d69ab86e8","system_id":"levelo_inurba_marseille","lat":43.285856,"lon":5.350771,"is_reserved":false,"is_disabled":false,"rental_uris":{"android":"levelo://app?vid=8d86c262-2b11-424c-86cb-fa9d69ab86e8","ios":"levelo://app?vid=8d86c262-2b11-424c-86cb-fa9d69ab86e8"},"vehicle_type_id":"4","last_reported":1716725546,"current_range_meters":400,"station_id":"ce4bhch2rcd13ifvqeug","pricing_plan_id":"cebpf4jnsgd1na2vs0mg"},{"bike_id":"924245bf-95b7-4c90-810e-d631cc1485af","system_id":"levelo_inurba_marseille","lat":43.285848,"lon":5.350787,"is_reserved":false,"is_disabled":false,"rental_uris":{"android":"levelo://app?vid=924245bf-95b7-4c90-810e-d631cc1485af","ios":"levelo://app?vid=924245bf-95b7-4c90-810e-d631cc1485af"},"vehicle_type_id":"4","last_reported":1716725546,"current_range_meters":13600,"station_id":"ce4bhch2rcd13ifvqeug","pricing_plan_id":"cebpf4jnsgd1na2vs0mg"},{"bike_id":"9a644746-e872-419d-868d-b3f28a64fc80","system_id":"levelo_inurba_marseille","lat":43.28617,"lon":5.35105,"is_reserved":false,"is_disabled":false,"rental_uris":{"android":"levelo://app?vid=9a644746-e872-419d-868d-b3f28a64fc80","ios":"levelo://app?vid=9a644746-e872-419d-868d-b3f28a64fc80"},"vehicle_type_id":"4","last_reported":1716725546,"current_range_meters":20800,"station_id":"ce4bhch2rcd13ifvqeug","pricing_plan_id":"cebpf4jnsgd1na2vs0mg"},{"bike_id":"526297d6-20e2-46df-93b5-52636d29bf7e","system_id":"levelo_inurba_marseille","lat":43.28616,"lon":5.35106,"is_reserved":false,"is_disabled":false,"rental_uris":{"android":"levelo://app?vid=526297d6-20e2-46df-93b5-52636d29bf7e","ios":"levelo://app?vid=526297d6-20e2-46df-93b5-52636d29bf7e"},"vehicle_type_id":"4","last_reported":1716725546,"current_range_meters":8000,"station_id":"ce4bhch2rcd13ifvqeug","pricing_plan_id":"cebpf4jnsgd1na2vs0mg"},{"bike_id":"0d1fd9da-8a1c-4734-8d9b-110c489aa56f","system_id":"levelo_inurba_marseille","lat":43.285856,"lon":5.350771,"is_reserved":false,"is_disabled":false,"rental_uris":{"android":"levelo://app?vid=0d1fd9da-8a1c-4734-8d9b-110c489aa56f","ios":"levelo://app?vid=0d1fd9da-8a1c-4734-8d9b-110c489aa56f"},"vehicle_type_id":"4","last_reported":1716725546,"current_range_meters":16000,"station_id":"ce4bhch2rcd13ifvqeug","pricing_plan_id":"cebpf4jnsgd1na2vs0mg"},{"bike_id":"656300b1-4f85-44f5-8079-d58cbad3fdf4","system_id":"levelo_inurba_marseille","lat":43.285848,"lon":5.350787,"is_reserved":false,"is_disabled":false,"rental_uris":{"android":"levelo://app?vid=656300b1-4f85-44f5-8079-d58cbad3fdf4","ios":"levelo://app?vid=656300b1-4f85-44f5-8079-d58cbad3fdf4"},"vehicle_type_id":"4","last_reported":1716725546,"current_range_meters":18400,"station_id":"ce4bhch2rcd13ifvqeug","pricing_plan_id":"cebpf4jnsgd1na2vs0mg"},{"bike_id":"78fa18ef-4109-4c14-be4b-dbe183225dfc","system_id":"levelo_inurba_marseille","lat":43.285848,"lon":5.350787,"is_reserved":false,"is_disabled":false,"rental_uris":{"android":"levelo://app?vid=78fa18ef-4109-4c14-be4b-dbe183225dfc","ios":"levelo://app?vid=78fa18ef-4109-4c14-be4b-dbe183225dfc"},"vehicle_type_id":"4","last_reported":1716725546,"current_range_meters":23600,"station_id":"ce4bhch2rcd13ifvqeug","pricing_plan_id":"cebpf4jnsgd1na2vs0mg"},{"bike_id":"6bebd36a-6551-486e-976f-ff557e49e29f","system_id":"levelo_inurba_marseille","lat":43.28615,"lon":5.35103,"is_reserved":false,"is_disabled":false,"rental_uris":{"android":"levelo://app?vid=6bebd36a-6551-486e-976f-ff557e49e29f","ios":"levelo://app?vid=6bebd36a-6551-486e-976f-ff557e49e29f"},"vehicle_type_id":"4","last_reported":1716725546,"current_range_meters":14000,"station_id":"ce4bhch2rcd13ifvqeug","pricing_plan_id":"cebpf4jnsgd1na2vs0mg"},{"bike_id":"269443b2-8c01-46a4-af98-8d859a0b5f97","system_id":"levelo_inurba_marseille","lat":43.285848,"lon":5.350787,"is_reserved":false,"is_disabled":false,"rental_uris":{"android":"levelo://app?vid=269443b2-8c01-46a4-af98-8d859a0b5f97","ios":"levelo://app?vid=269443b2-8c01-46a4-af98-8d859a0b5f97"},"vehicle_type_id":"4","last_reported":1716725546,"current_range_meters":2400,"station_id":"ce4bhch2rcd13ifvqeug","pricing_plan_id":"cebpf4jnsgd1na2vs0mg"},{"bike_id":"83af8d46-c3ac-4766-b158-1c03704238c0","system_id":"levelo_inurba_marseille","lat":43.28614,"lon":5.35103,"is_reserved":false,"is_disabled":false,"rental_uris":{"android":"levelo://app?vid=83af8d46-c3ac-4766-b158-1c03704238c0","ios":"levelo://app?vid=83af8d46-c3ac-4766-b158-1c03704238c0"},"vehicle_type_id":"4","last_reported":1716725546,"current_range_meters":2000,"station_id":"ce4bhch2rcd13ifvqeug","pricing_plan_id":"cebpf4jnsgd1na2vs0mg"},{"bike_id":"10d63305-217c-4f52-97ed-a26a02f0aae7","system_id":"levelo_inurba_marseille","lat":43.28614,"lon":5.35103,"is_reserved":false,"is_disabled":false,"rental_uris":{"android":"levelo://app?vid=10d63305-217c-4f52-97ed-a26a02f0aae7","ios":"levelo://app?vid=10d63305-217c-4f52-97ed-a26a02f0aae7"},"vehicle_type_id":"4","last_reported":1716725546,"current_range_meters":24800,"station_id":"ce4bhch2rcd13ifvqeug","pricing_plan_id":"cebpf4jnsgd1na2vs0mg"},{"bike_id":"c7143b3a-a228-4c04-b08d-1e0e97145613","system_id":"levelo_inurba_marseille","lat":43.28615,"lon":5.35099,"is_reserved":false,"is_disabled":false,"rental_uris":{"android":"levelo://app?vid=c7143b3a-a228-4c04-b08d-1e0e97145613","ios":"levelo://app?vid=c7143b3a-a228-4c04-b08d-1e0e97145613"},