{"last_updated":1702991357,"ttl":30,"version":"2.2","data":{"bikes":[{"bike_id":"8768c17e-0864-4553-a3ef-1a7ffb7e1385","system_id":"levelo_inurba_marseille","lat":43.313391,"lon":5.36706,"is_reserved":false,"is_disabled":false,"rental_uris":{"android":"levelo://app?vid=8768c17e-0864-4553-a3ef-1a7ffb7e1385","ios":"levelo://app?vid=8768c17e-0864-4553-a3ef-1a7ffb7e1385"},"vehicle_type_id":"4","last_reported":1702991358,"current_range_meters":17600,"station_id":"ce4bgr92rcd13ifvqc6g","pricing_plan_id":"free"},{"bike_id":"3f7dc61e-a25c-421d-91ac-f04b1b7609b9","system_id":"levelo_inurba_marseille","lat":43.31341,"lon":5.367098,"is_reserved":false,"is_disabled":false,"rental_uris":{"android":"levelo://app?vid=3f7dc61e-a25c-421d-91ac-f04b1b7609b9","ios":"levelo://app?vid=3f7dc61e-a25c-421d-91ac-f04b1b7609b9"},"vehicle_type_id":"4","last_reported":1702991358,"current_range_meters":31600,"station_id":"ce4bgr92rcd13ifvqc6g","pricing_plan_id":"free"},{"bike_id":"8577d4cf-5788-4527-9bed-3c037715ab1b","system_id":"levelo_inurba_marseille","lat":43.31341,"lon":5.367098,"is_reserved":false,"is_disabled":false,"rental_uris":{"android":"levelo://app?vid=8577d4cf-5788-4527-9bed-3c037715ab1b","ios":"levelo://app?vid=8577d4cf-5788-4527-9bed-3c037715ab1b"},"vehicle_type_id":"4","last_reported":1702991358,"current_range_meters":12800,"station_id":"ce4bgr92rcd13ifvqc6g","pricing_plan_id":"free"},{"bike_id":"98b2581b-cd7f-4d2c-bdb0-c5d5dda1ec69","system_id":"levelo_inurba_marseille","lat":43.312239,"lon":5.368562,"is_reserved":false,"is_disabled":false,"rental_uris":{"android":"levelo://app?vid=98b2581b-cd7f-4d2c-bdb0-c5d5dda1ec69","ios":"levelo://app?vid=98b2581b-cd7f-4d2c-bdb0-c5d5dda1ec69"},"vehicle_type_id":"4","last_reported":1702991358,"current_range_meters":800,"station_id":"ce4bgl92rcd13ifvqbq0","pricing_plan_id":"free"},{"bike_id":"56942475-59c1-439c-8e50-627af8ca56cf","system_id":"levelo_inurba_marseille","lat":43.309076,"lon":5.368465,"is_reserved":false,"is_disabled":false,"rental_uris":{"android":"levelo://app?vid=56942475-59c1-439c-8e50-627af8ca56cf","ios":"levelo://app?vid=56942475-59c1-439c-8e50-627af8ca56cf"},"vehicle_type_id":"4","last_reported":1702991358,"current_range_meters":21600,"station_id":"ce4bgn92rcd13ifvqbvg","pricing_plan_id":"free"},{"bike_id":"f31a7d60-e81f-4391-b6d1-bbd084faf696","system_id":"levelo_inurba_marseille","lat":43.309076,"lon":5.368465,"is_reserved":false,"is_disabled":false,"rental_uris":{"android":"levelo://app?vid=f31a7d60-e81f-4391-b6d1-bbd084faf696","ios":"levelo://app?vid=f31a7d60-e81f-4391-b6d1-bbd084faf696"},"vehicle_type_id":"4","last_reported":1702991358,"current_range_meters":19600,"station_id":"ce4bgn92rcd13ifvqbvg","pricing_plan_id":"free"},{"bike_id":"c728b12e-6bd4-494e-b03e-151fb25674c0","system_id":"levelo_inurba_marseille","lat":43.309076,"lon":5.368465,"is_reserved":false,"is_disabled":false,"rental_uris":{"android":"levelo://app?vid=c728b12e-6bd4-494e-b03e-151fb25674c0","ios":"levelo://app?vid=c728b12e-6bd4-494e-b03e-151fb25674c0"},"vehicle_type_id":"4","last_reported":1702991358,"current_range_meters":14800,"station_id":"ce4bgn92rcd13ifvqbvg","pricing_plan_id":"free"},{"bike_id":"b1a0dc0e-c3f2-4e83-8ede-7c6b7664ea77","system_id":"levelo_inurba_marseille","lat":43.309076,"lon":5.368465,"is_reserved":false,"is_disabled":false,"rental_uris":{"android":"levelo://app?vid=b1a0dc0e-c3f2-4e83-8ede-7c6b7664ea77","ios":"levelo://app?vid=b1a0dc0e-c3f2-4e83-8ede-7c6b7664ea77"},"vehicle_type_id":"4","last_reported":1702991358,"current_range_meters":28800,"station_id":"ce4bgn92rcd13ifvqbvg","pricing_plan_id":"free"},{"bike_id":"8f03345a-e255-4e13-89b4-931ff3497b93","system_id":"levelo_inurba_marseille","lat":43.309076,"lon":5.368465,"is_reserved":false,"is_disabled":false,"rental_uris":{"android":"levelo://app?vid=8f03345a-e255-4e13-89b4-931ff3497b93","ios":"levelo://app?vid=8f03345a-e255-4e13-89b4-931ff3497b93"},"vehicle_type_id":"4","last_reported":1702991358,"current_range_meters":17200,"station_id":"ce4bgn92rcd13ifvqbvg","pricing_plan_id":"free"},{"bike_id":"db370d0d-5934-45c4-932e-779b3b456932","system_id":"levelo_inurba_marseille","lat":43.314811,"lon":5.373104,"is_reserved":false,"is_disabled":false,"rental_uris":{"android":"levelo://app?vid=db370d0d-5934-45c4-932e-779b3b456932","ios":"levelo://app?vid=db370d0d-5934-45c4-932e-779b3b456932"},"vehicle_type_id":"4","last_reported":1702991358,"current_range_meters":30400,"station_id":"ce4bgt12rcd13ifvqcd0","pricing_plan_id":"free"},{"bike_id":"3de6a2c0-32c4-46fd-a747-63f28d27606d","system_id":"levelo_inurba_marseille","lat":43.309039,"lon":5.371797,"is_reserved":false,"is_disabled":false,"rental_uris":{"android":"levelo://app?vid=3de6a2c0-32c4-46fd-a747-63f28d27606d","ios":"levelo://app?vid=3de6a2c0-32c4-46fd-a747-63f28d27606d"},"vehicle_type_id":"4","last_reported":1702991358,"current_range_meters":5600,"station_id":"ce4bguh2rcd13ifvqckg","pricing_plan_id":"free"},{"bike_id":"574c5893-0279-4d65-9c48-693bafd7fac9","system_id":"levelo_inurba_marseille","lat":43.309039,"lon":5.371797,"is_reserved":false,"is_disabled":false,"rental_uris":{"android":"levelo://app?vid=574c5893-0279-4d65-9c48-693bafd7fac9","ios":"levelo://app?vid=574c5893-0279-4d65-9c48-693bafd7fac9"},"vehicle_type_id":"4","last_reported":1702991358,"current_range_meters":28400,"station_id":"ce4bguh2rcd13ifvqckg","pricing_plan_id":"free"},{"bike_id":"bd8c3752-f3c4-493e-9d25-08cba5842efc","system_id":"levelo_inurba_marseille","lat":43.309039,"lon":5.371797,"is_reserved":false,"is_disabled":false,"rental_uris":{"android":"levelo://app?vid=bd8c3752-f3c4-493e-9d25-08cba5842efc","ios":"levelo://app?vid=bd8c3752-f3c4-493e-9d25-08cba5842efc"},"vehicle_type_id":"4","last_reported":1702991358,"current_range_meters":31600,"station_id":"ce4bguh2rcd13ifvqckg","pricing_plan_id":"free"},{"bike_id":"93439fac-9a67-4684-a137-c168f7455979","system_id":"levelo_inurba_marseille","lat":43.309039,"lon":5.371797,"is_reserved":false,"is_disabled":false,"rental_uris":{"android":"levelo://app?vid=93439fac-9a67-4684-a137-c168f7455979","ios":"levelo://app?vid=93439fac-9a67-4684-a137-c168f7455979"},"vehicle_type_id":"4","last_reported":1702991358,"current_range_meters":21600,"station_id":"ce4bguh2rcd13ifvqckg","pricing_plan_id":"free"},{"bike_id":"ade59dfb-aae8-4793-9f56-cb61ed5b3d96","system_id":"levelo_inurba_marseille","lat":43.305368,"lon":5.367343,"is_reserved":false,"is_disabled":false,"rental_uris":{"android":"levelo://app?vid=ade59dfb-aae8-4793-9f56-cb61ed5b3d96","ios":"levelo://app?vid=ade59dfb-aae8-4793-9f56-cb61ed5b3d96"},"vehicle_type_id":"4","last_reported":1702991358,"current_range_meters":28800,"station_id":"ce4bgrp2rcd13ifvqc9g","pricing_plan_id":"free"},{"bike_id":"1116e87c-ffc1-4009-a215-2b1e00e745f2","system_id":"levelo_inurba_marseille","lat":43.305392,"lon":5.366988,"is_reserved":false,"is_disabled":false,"rental_uris":{"android":"levelo://app?vid=1116e87c-ffc1-4009-a215-2b1e00e745f2","ios":"levelo://app?vid=1116e87c-ffc1-4009-a215-2b1e00e745f2"},"vehicle_type_id":"4","last_reported":1702991358,"current_range_meters":25600,"station_id":"","pricing_plan_id":"free"},{"bike_id":"ef654af0-4965-4832-9831-2e8e5b6af509","system_id":"levelo_inurba_marseille","lat":43.305323,"lon":5.365433,"is_reserved":false,"is_disabled":false,"rental_uris":{"android":"levelo://app?vid=ef654af0-4965-4832-9831-2e8e5b6af509","ios":"levelo://app?vid=ef654af0-4965-4832-9831-2e8e5b6af509"},"vehicle_type_id":"4","last_reported":1702991358,"current_range_meters":0,"station_id":"ce4bgs12rcd13ifvqcag","pricing_plan_id":"free"},{"bike_id":"274dcdb0-d28c-4362-960b-f13b02ff3ff8","system_id":"levelo_inurba_marseille","lat":43.305706,"lon":5.365654,"is_reserved":false,"is_disabled":false,"rental_uris":{"android":"levelo://app?vid=274dcdb0-d28c-4362-960b-f13b02ff3ff8","ios":"levelo://app?vid=274dcdb0-d28c-4362-960b-f13b02ff3ff8"},"vehicle_type_id":"4","last_reported":1702991358,"current_range_meters":31600,"station_id":"ce4bgs12rcd13ifvqcag","pricing_plan_id":"free"},{"bike_id":"385e4d82-36f1-435d-969a-2ae8c4ebc0d2","system_id":"levelo_inurba_marseille","lat":43.305989,"lon":5.37225,"is_reserved":false,"is_disabled":false,"rental_uris":{"android":"levelo://app?vid=385e4d82-36f1-435d-969a-2ae8c4ebc0d2","ios":"levelo://app?vid=385e4d82-36f1-435d-969a-2ae8c4ebc0d2"},"vehicle_type_id":"4","last_reported":1702991358,"current_range_meters":10400,"station_id":"ce4bgqh2rcd13ifvqc4g","pricing_plan_id":"free"},{"bike_id":"a240d4cc-580b-47b9-a388-57403e15f121","system_id":"levelo_inurba_marseille","lat":43.305989,"lon":5.37225,"is_reserved":false,"is_disabled":false,"rental_uris":{"android":"levelo://app?vid=a240d4cc-580b-47b9-a388-57403e15f121","ios":"levelo://app?vid=a240d4cc-580b-47b9-a388-57403e15f121"},"vehicle_type_id":"4","last_reported":1702991358,"current_range_meters":14800,"station_id":"ce4bgqh2rcd13ifvqc4g","pricing_plan_id":"free"},{"bike_id":"8d6cb720-708b-4d35-adbb-9126e86b6bc5","system_id":"levelo_inurba_marseille","lat":43.305989,"lon":5.37225,"is_reserved":false,"is_disabled":false,"rental_uris":{"android":"levelo://app?vid=8d6cb720-708b-4d35-adbb-9126e86b6bc5","ios":"levelo://app?vid=8d6cb720-708b-4d35-adbb-9126e86b6bc5"},"vehicle_type_id":"4","last_reported":1702991358,"current_range_meters":17600,"station_id":"ce4bgqh2rcd13ifvqc4g","pricing_plan_id":"free"},{"bike_id":"915a838d-62ab-45c7-88a6-5f5aa7c4f86b","system_id":"levelo_inurba_marseille","lat":43.317075,"lon":5.377367,"is_reserved":false,"is_disabled":false,"rental_uris":{"android":"levelo://app?vid=915a838d-62ab-45c7-88a6-5f5aa7c4f86b","ios":"levelo://app?vid=915a838d-62ab-45c7-88a6-5f5aa7c4f86b"},"vehicle_type_id":"4","last_reported":1702991358,"current_range_meters":6400,"station_id":"ce4bgth2rcd13ifvqch0","pricing_plan_id":"free"},{"bike_id":"c98faa47-3a8e-45ab-b200-4d981e2d488f","system_id":"levelo_inurba_marseille","lat":43.317075,"lon":5.377367,"is_reserved":false,"is_disabled":false,"rental_uris":{"android":"levelo://app?vid=c98faa47-3a8e-45ab-b200-4d981e2d488f","ios":"levelo://app?vid=c98faa47-3a8e-45ab-b200-4d981e2d488f"},"vehicle_type_id":"4","last_reported":1702991358,"current_range_meters":30800,"station_id":"ce4bgth2rcd13ifvqch0","pricing_plan_id":"free"},{"bike_id":"5f23c249-f347-4937-b25a-40218e88c627","system_id":"levelo_inurba_marseille","lat":43.317075,"lon":5.377367,"is_reserved":false,"is_disabled":false,"rental_uris":{"android":"levelo://app?vid=5f23c249-f347-4937-b25a-40218e88c627","ios":"levelo://app?vid=5f23c249-f347-4937-b25a-40218e88c627"},"vehicle_type_id":"4","last_reported":1702991358,"current_range_meters":31600,"station_id":"ce4bgth2rcd13ifvqch0","pricing_plan_id":"free"},{"bike_id":"87346902-5ae4-4073-a045-a7ecb7759049","system_id":"levelo_inurba_marseille","lat":43.30304,"lon":5.368987,"is_reserved":false,"is_disabled":false,"rental_uris":{"android":"levelo://app?vid=87346902-5ae4-4073-a045-a7ecb7759049","ios":"levelo://app?vid=87346902-5ae4-4073-a045-a7ecb7759049"},"vehicle_type_id":"4","last_reported":1702991358,"current_range_meters":24000,"station_id":"ce4bgqh2rcd13ifvqc5g","pricing_plan_id":"free"},{"bike_id":"c65e4bfa-e984-4ad0-8eb4-31a89cac9e86","system_id":"levelo_inurba_marseille","lat":43.303046,"lon":5.368981,"is_reserved":false,"is_disabled":false,"rental_uris":{"android":"levelo://app?vid=c65e4bfa-e984-4ad0-8eb4-31a89cac9e86","ios":"levelo://app?vid=c65e4bfa-e984-4ad0-8eb4-31a89cac9e86"},"vehicle_type_id":"4","last_reported":1702991358,"current_range_meters":6800,"station_id":"ce4bgqh2rcd13ifvqc5g","pricing_plan_id":"free"},{"bike_id":"d959c63d-86dc-4389-af00-dec3f42887c0","system_id":"levelo_inurba_marseille","lat":43.303046,"lon":5.368981,"is_reserved":false,"is_disabled":false,"rental_uris":{"android":"levelo://app?vid=d959c63d-86dc-4389-af00-dec3f42887c0","ios":"levelo://app?vid=d959c63d-86dc-4389-af00-dec3f42887c0"},"vehicle_type_id":"4","last_reported":1702991358,"current_range_meters":10400,"station_id":"ce4bgqh2rcd13ifvqc5g","pricing_plan_id":"free"},{"bike_id":"650b412e-4157-4e50-8652-7de42175f66f","system_id":"levelo_inurba_marseille","lat":43.31523,"lon":5.38036,"is_reserved":false,"is_disabled":false,"rental_uris":{"android":"levelo://app?vid=650b412e-4157-4e50-8652-7de42175f66f","ios":"levelo://app?vid=650b412e-4157-4e50-8652-7de42175f66f"},"vehicle_type_id":"4","last_reported":1702991358,"current_range_meters":30400,"station_id":"ce4bhsp2rcd13ifvqi50","pricing_plan_id":"free"},{"bike_id":"9e136129-b6fd-4b49-b37d-e38975c711ee","system_id":"levelo_inurba_marseille","lat":43.308012,"lon":5.381511,"is_reserved":false,"is_disabled":false,"rental_uris":{"android":"levelo://app?vid=9e136129-b6fd-4b49-b37d-e38975c711ee","ios":"levelo://app?vid=9e136129-b6fd-4b49-b37d-e38975c711ee"},"vehicle_type_id":"4","last_reported":1702991358,"current_range_meters":20400,"station_id":"ce4bgt12rcd13ifvqce0","pricing_plan_id":"free"},{"bike_id":"2e7328cb-9767-441f-91dd-00fca8f50b5f","system_id":"levelo_inurba_marseille","lat":43.304606,"lon":5.379026,"is_reserved":false,"is_disabled":false,"rental_uris":{"android":"levelo://app?vid=2e7328cb-9767-441f-91dd-00fca8f50b5f","ios":"levelo://app?vid=2e7328cb-9767-441f-91dd-00fca8f50b5f"},"vehicle_type_id":"4","last_reported":1702991358,"current_range_meters":13600,"station_id":"ce4bgup2rcd13ifvqcn0","pricing_plan_id":"free"},{"bike_id":"6064141f-ac2e-4369-b630-d2323403c1b7","system_id":"levelo_inurba_marseille","lat":43.304606,"lon":5.379026,"is_reserved":false,"is_disabled":false,"rental_uris":{"android":"levelo://app?vid=6064141f-ac2e-4369-b630-d2323403c1b7","ios":"levelo://app?vid=6064141f-ac2e-4369-b630-d2323403c1b7"},"vehicle_type_id":"4","last_reported":1702991358,"current_range_meters":400,"station_id":"ce4bgup2rcd13ifvqcn0","pricing_plan_id":"free"},{"bike_id":"a1b78531-5cf6-4198-a010-fb950897641c","system_id":"levelo_inurba_marseille","lat":43.304606,"lon":5.379026,"is_reserved":false,"is_disabled":false,"rental_uris":{"android":"levelo://app?vid=a1b78531-5cf6-4198-a010-fb950897641c","ios":"levelo://app?vid=a1b78531-5cf6-4198-a010-fb950897641c"},"vehicle_type_id":"4","last_reported":1702991358,"current_range_meters":24000,"station_id":"ce4bgup2rcd13ifvqcn0","pricing_plan_id":"free"},{"bike_id":"555e56ed-bc3a-4fef-978d-37dca8954621","system_id":"levelo_inurba_marseille","lat":43.324771,"lon":5.36557,"is_reserved":false,"is_disabled":false,"rental_uris":{"android":"levelo://app?vid=555e56ed-bc3a-4fef-978d-37dca8954621","ios":"levelo://app?vid=555e56ed-bc3a-4fef-978d-37dca8954621"},"vehicle_type_id":"4","last_reported":1702991358,"current_range_meters":4000,"station_id":"ce4bhs12rcd13ifvqhvg","pricing_plan_id":"free"},{"bike_id":"5906c69d-2b81-4df5-a73c-6e8881f44758","system_id":"levelo_inurba_marseille","lat":43.324771,"lon":5.36557,"is_reserved":false,"is_disabled":false,"rental_uris":{"android":"levelo://app?vid=5906c69d-2b81-4df5-a73c-6e8881f44758","ios":"levelo://app?vid=5906c69d-2b81-4df5-a73c-6e8881f44758"},"vehicle_type_id":"4","last_reported":1702991358,"current_range_meters":14000,"station_id":"ce4bhs12rcd13ifvqhvg","pricing_plan_id":"free"},{"bike_id":"e61e5bc4-6d99-4a99-89b9-edf4a241b9c0","system_id":"levelo_inurba_marseille","lat":43.302784,"lon":5.377158,"is_reserved":false,"is_disabled":false,"rental_uris":{"android":"levelo://app?vid=e61e5bc4-6d99-4a99-89b9-edf4a241b9c0","ios":"levelo://app?vid=e61e5bc4-6d99-4a99-89b9-edf4a241b9c0"},"vehicle_type_id":"4","last_reported":1702991358,"current_range_meters":26000,"station_id":"ce4bguh2rcd13ifvqcj0","pricing_plan_id":"free"},{"bike_id":"7ee55227-c2ea-4ddb-a9b5-18227e950e84","system_id":"levelo_inurba_marseille","lat":43.3014,"lon":5.37424,"is_reserved":false,"is_disabled":false,"rental_uris":{"android":"levelo://app?vid=7ee55227-c2ea-4ddb-a9b5-18227e950e84","ios":"levelo://app?vid=7ee55227-c2ea-4ddb-a9b5-18227e950e84"},"vehicle_type_id":"4","last_reported":1702991358,"current_range_meters":23200,"station_id":"ce4bgs92rcd13ifvqcc0","pricing_plan_id":"free"},{"bike_id":"f41f508c-ea2c-404a-a715-7f446535004b","system_id":"levelo_inurba_marseille","lat":43.30143,"lon":5.37413,"is_reserved":false,"is_disabled":false,"rental_uris":{"android":"levelo://app?vid=f41f508c-ea2c-404a-a715-7f446535004b","ios":"levelo://app?vid=f41f508c-ea2c-404a-a715-7f446535004b"},"vehicle_type_id":"4","last_reported":1702991358,"current_range_meters":30800,"station_id":"ce4bgs92rcd13ifvqcc0","pricing_plan_id":"free"},{"bike_id":"5aedd5d4-1db2-480b-9d9d-bb1aad1f60cf","system_id":"levelo_inurba_marseille","lat":43.313571,"lon":5.384829,"is_reserved":false,"is_disabled":false,"rental_uris":{"android":"levelo://app?vid=5aedd5d4-1db2-480b-9d9d-bb1aad1f60cf","ios":"levelo://app?vid=5aedd5d4-1db2-480b-9d9d-bb1aad1f60cf"},"vehicle_type_id":"4","last_reported":1702991358,"current_range_meters":25200,"station_id":"ce4bgt92rcd13ifvqcf0","pricing_plan_id":"free"},{"bike_id":"9ba98b26-e12e-48fb-a575-24e5c6bef54e","system_id":"levelo_inurba_marseille","lat":43.313571,"lon":5.384829,"is_reserved":false,"is_disabled":false,"rental_uris":{"android":"levelo://app?vid=9ba98b26-e12e-48fb-a575-24e5c6bef54e","ios":"levelo://app?vid=9ba98b26-e12e-48fb-a575-24e5c6bef54e"},"vehicle_type_id":"4","last_reported":1702991358,"current_range_meters":11600,"station_id":"ce4bgt92rcd13ifvqcf0","pricing_plan_id":"free"},{"bike_id":"80fa643c-9d2c-4038-a030-3535ff376c46","system_id":"levelo_inurba_marseille","lat":43.313571,"lon":5.384829,"is_reserved":false,"is_disabled":false,"rental_uris":{"android":"levelo://app?vid=80fa643c-9d2c-4038-a030-3535ff376c46","ios":"levelo://app?vid=80fa643c-9d2c-4038-a030-3535ff376c46"},"vehicle_type_id":"4","last_reported":1702991358,"current_range_meters":16000,"station_id":"ce4bgt92rcd13ifvqcf0","pricing_plan_id":"free"},{"bike_id":"aa6ddebe-6647-4d42-bb5d-25fdb80e2831","system_id":"levelo_inurba_marseille","lat":43.313571,"lon":5.384829,"is_reserved":false,"is_disabled":false,"rental_uris":{"android":"levelo://app?vid=aa6ddebe-6647-4d42-bb5d-25fdb80e2831","ios":"levelo://app?vid=aa6ddebe-6647-4d42-bb5d-25fdb80e2831"},"vehicle_type_id":"4","last_reported":1702991358,"current_range_meters":24000,"station_id":"ce4bgt92rcd13ifvqcf0","pricing_plan_id":"free"},{"bike_id":"eddd300a-234d-44df-9716-1a2d1e5f61d5","system_id":"levelo_inurba_marseille","lat":43.299724,"lon":5.371829,"is_reserved":false,"is_disabled":false,"rental_uris":{"android":"levelo://app?vid=eddd300a-234d-44df-9716-1a2d1e5f61d5","ios":"levelo://app?vid=eddd300a-234d-44df-9716-1a2d1e5f61d5"},"vehicle_type_id":"4","last_reported":1702991358,"current_range_meters":8000,"station_id":"ce4bgr92rcd13ifvqc7g","pricing_plan_id":"free"},{"bike_id":"0b75c770-fc21-47f4-99bc-4bc5215e55fb","system_id":"levelo_inurba_marseille","lat":43.299222,"lon":5.365554,"is_reserved":false,"is_disabled":false,"rental_uris":{"android":"levelo://app?vid=0b75c770-fc21-47f4-99bc-4bc5215e55fb","ios":"levelo://app?vid=0b75c770-fc21-47f4-99bc-4bc5215e55fb"},"vehicle_type_id":"4","last_reported":1702991358,"current_range_meters":19600,"station_id":"ce4bgm92rcd13ifvqbr0","pricing_plan_id":"free"},{"bike_id":"4417c717-0909-45ae-8a19-5cef9a4aecb4","system_id":"levelo_inurba_marseille","lat":43.298433,"lon":5.362774,"is_reserved":false,"is_disabled":false,"rental_uris":{"android":"levelo://app?vid=4417c717-0909-45ae-8a19-5cef9a4aecb4","ios":"levelo://app?vid=4417c717-0909-45ae-8a19-5cef9a4aecb4"},"vehicle_type_id":"4","last_reported":1702991358,"current_range_meters":27200,"station_id":"ce4bgpp2rcd13ifvqc3g","pricing_plan_id":"free"},{"bike_id":"410f9c14-64dd-41dd-b134-ebc24a0b1a35","system_id":"levelo_inurba_marseille","lat":43.298433,"lon":5.362774,"is_reserved":false,"is_disabled":false,"rental_uris":{"android":"levelo://app?vid=410f9c14-64dd-41dd-b134-ebc24a0b1a35","ios":"levelo://app?vid=410f9c14-64dd-41dd-b134-ebc24a0b1a35"},"vehicle_type_id":"4","last_reported":1702991358,"current_range_meters":28000,"station_id":"ce4bgpp2rcd13ifvqc3g","pricing_plan_id":"free"},{"bike_id":"ca0834b0-077b-48e5-8d61-d563b65c06e3","system_id":"levelo_inurba_marseille","lat":43.305468,"lon":5.384345,"is_reserved":false,"is_disabled":false,"rental_uris":{"android":"levelo://app?vid=ca0834b0-077b-48e5-8d61-d563b65c06e3","ios":"levelo://app?vid=ca0834b0-077b-48e5-8d61-d563b65c06e3"},"vehicle_type_id":"4","last_reported":1702991358,"current_range_meters":3200,"station_id":"ce4bgg92rcd13ifvqb30","pricing_plan_id":"free"},{"bike_id":"c6542e82-37ef-4c57-bdac-f7823c69555a","system_id":"levelo_inurba_marseille","lat":43.305364,"lon":5.384119,"is_reserved":false,"is_disabled":false,"rental_uris":{"android":"levelo://app?vid=c6542e82-37ef-4c57-bdac-f7823c69555a","ios":"levelo://app?vid=c6542e82-37ef-4c57-bdac-f7823c69555a"},"vehicle_type_id":"4","last_reported":1702991358,"current_range_meters":26800,"station_id":"ce4bgg92rcd13ifvqb30","pricing_plan_id":"free"},{"bike_id":"b9ba1f14-f291-422d-a3e5-a902b66e58c4","system_id":"levelo_inurba_marseille","lat":43.305364,"lon":5.384119,"is_reserved":false,"is_disabled":false,"rental_uris":{"android":"levelo://app?vid=b9ba1f14-f291-422d-a3e5-a902b66e58c4","ios":"levelo://app?vid=b9ba1f14-f291-422d-a3e5-a902b66e58c4"},"vehicle_type_id":"4","last_reported":1702991358,"current_range_meters":30000,"station_id":"ce4bgg92rcd13ifvqb30","pricing_plan_id":"free"},{"bike_id":"121a0cf9-aa82-45b1-9f05-6aecb696637a","system_id":"levelo_inurba_marseille","lat":43.311722,"lon":5.387247,"is_reserved":false,"is_disabled":false,"rental_uris":{"android":"levelo://app?vid=121a0cf9-aa82-45b1-9f05-6aecb696637a","ios":"levelo://app?vid=121a0cf9-aa82-45b1-9f05-6aecb696637a"},"vehicle_type_id":"4","last_reported":1702991358,"current_range_meters":0,"station_id":"ce4bgv12rcd13ifvqcp0","pricing_plan_id":"free"},{"bike_id":"5649f106-735a-418b-8ee1-415b2ffd0efb","system_id":"levelo_inurba_marseille","lat":43.311722,"lon":5.387247,"is_reserved":false,"is_disabled":false,"rental_uris":{"android":"levelo://app?vid=5649f106-735a-418b-8ee1-415b2ffd0efb","ios":"levelo://app?vid=5649f106-735a-418b-8ee1-415b2ffd0efb"},"vehicle_type_id":"4","last_reported":1702991358,"current_range_meters":24400,"station_id":"ce4bgv12rcd13ifvqcp0","pricing_plan_id":"free"},{"bike_id":"91ebca5b-5282-482d-9767-93e6eef18439","system_id":"levelo_inurba_marseille","lat":43.328371,"lon":5.366909,"is_reserved":false,"is_disabled":false,"rental_uris":{"android":"levelo://app?vid=91ebca5b-5282-482d-9767-93e6eef18439","ios":"levelo://app?vid=91ebca5b-5282-482d-9767-93e6eef18439"},"vehicle_type_id":"4","last_reported":1702991358,"current_range_meters":12800,"station_id":"ce4bhs92rcd13ifvqi0g","pricing_plan_id":"free"},{"bike_id":"d83fbae2-5f8f-42f4-8ccf-5b712fffb999","system_id":"levelo_inurba_marseille","lat":43.328371,"lon":5.366909,"is_reserved":false,"is_disabled":false,"rental_uris":{"android":"levelo://app?vid=d83fbae2-5f8f-42f4-8ccf-5b712fffb999","ios":"levelo://app?vid=d83fbae2-5f8f-42f4-8ccf-5b712fffb999"},"vehicle_type_id":"4","last_reported":1702991358,"current_range_meters":26800,"station_id":"ce4bhs92rcd13ifvqi0g","pricing_plan_id":"free"},{"bike_id":"4c4d66d4-8876-451f-bce6-a22a4f774c84","system_id":"levelo_inurba_marseille","lat":43.2968,"lon":5.37291,"is_reserved":false,"is_disabled":false,"rental_uris":{"android":"levelo://app?vid=4c4d66d4-8876-451f-bce6-a22a4f774c84","ios":"levelo://app?vid=4c4d66d4-8876-451f-bce6-a22a4f774c84"},"vehicle_type_id":"4","last_reported":1702991358,"current_range_meters":30800,"station_id":"ce4bgk12rcd13ifvqbj0","pricing_plan_id":"free"},{"bike_id":"aca62c6d-f373-41e8-9f45-10e4ac9d22be","system_id":"levelo_inurba_marseille","lat":43.29573,"lon":5.367355,"is_reserved":false,"is_disabled":false,"rental_uris":{"android":"levelo://app?vid=aca62c6d-f373-41e8-9f45-10e4ac9d22be","ios":"levelo://app?vid=aca62c6d-f373-41e8-9f45-10e4ac9d22be"},"vehicle_type_id":"4","last_reported":1702991358,"current_range_meters":31200,"station_id":"ce4bgph2rcd13ifvqc2g","pricing_plan_id":"free"},{"bike_id":"e36a4bb1-feec-4e1c-8511-3e9756a59dcc","system_id":"levelo_inurba_marseille","lat":43.29573,"lon":5.367355,"is_reserved":false,"is_disabled":false,"rental_uris":{"android":"levelo://app?vid=e36a4bb1-feec-4e1c-8511-3e9756a59dcc","ios":"levelo://app?vid=e36a4bb1-feec-4e1c-8511-3e9756a59dcc"},"vehicle_type_id":"4","last_reported":1702991358,"current_range_meters":28400,"station_id":"ce4bgph2rcd13ifvqc2g","pricing_plan_id":"free"},{"bike_id":"309db6cf-4790-4899-9bd8-eefef5168cc1","system_id":"levelo_inurba_marseille","lat":43.299028,"lon":5.381509,"is_reserved":false,"is_disabled":false,"rental_uris":{"android":"levelo://app?vid=309db6cf-4790-4899-9bd8-eefef5168cc1","ios":"levelo://app?vid=309db6cf-4790-4899-9bd8-eefef5168cc1"},"vehicle_type_id":"4","last_reported":1702991358,"current_range_meters":30000,"station_id":"ce4bgj12rcd13ifvqbc0","pricing_plan_id":"free"},{"bike_id":"6640187f-bca6-44da-abe8-752f42bbbf63","system_id":"levelo_inurba_marseille","lat":43.309589,"lon":5.390258,"is_reserved":false,"is_disabled":false,"rental_uris":{"android":"levelo://app?vid=6640187f-bca6-44da-abe8-752f42bbbf63","ios":"levelo://app?vid=6640187f-bca6-44da-abe8-752f42bbbf63"},"vehicle_type_id":"4","last_reported":1702991358,"current_range_meters":24800,"station_id":"ce4bgup2rcd13ifvqco0","pricing_plan_id":"free"},{"bike_id":"a4a7be2b-6935-42fc-807c-e0f9ca289e8a","system_id":"levelo_inurba_marseille","lat":43.317557,"lon":5.390173,"is_reserved":false,"is_disabled":false,"rental_uris":{"android":"levelo://app?vid=a4a7be2b-6935-42fc-807c-e0f9ca289e8a","ios":"levelo://app?vid=a4a7be2b-6935-42fc-807c-e0f9ca289e8a"},"vehicle_type_id":"4","last_reported":1702991358,"current_range_meters":26000,"station_id":"ce4bhqp2rcd13ifvqhng","pricing_plan_id":"free"},{"bike_id":"747fc29e-9666-4086-a57f-a7db5edb7267","system_id":"levelo_inurba_marseille","lat":43.317557,"lon":5.390173,"is_reserved":false,"is_disabled":false,"rental_uris":{"android":"levelo://app?vid=747fc29e-9666-4086-a57f-a7db5edb7267","ios":"levelo://app?vid=747fc29e-9666-4086-a57f-a7db5edb7267"},"vehicle_type_id":"4","last_reported":1702991358,"current_range_meters":11200,"station_id":"ce4bhqp2rcd13ifvqhng","pricing_plan_id":"free"},{"bike_id":"40554fe8-87bf-41d5-b75a-7fd0e2ec929c","system_id":"levelo_inurba_marseille","lat":43.317557,"lon":5.390173,"is_reserved":false,"is_disabled":false,"rental_uris":{"android":"levelo://app?vid=40554fe8-87bf-41d5-b75a-7fd0e2ec929c","ios":"levelo://app?vid=40554fe8-87bf-41d5-b75a-7fd0e2ec929c"},"vehicle_type_id":"4","last_reported":1702991358,"current_range_meters":31600,"station_id":"ce4bhqp2rcd13ifvqhng","pricing_plan_id":"free"},{"bike_id":"462eb5c2-65fd-4cb1-a977-f7c6e7dfbd1c","system_id":"levelo_inurba_marseille","lat":43.295748,"lon":5.37522,"is_reserved":false,"is_disabled":false,"rental_uris":{"android":"levelo://app?vid=462eb5c2-65fd-4cb1-a977-f7c6e7dfbd1c","ios":"levelo://app?vid=462eb5c2-65fd-4cb1-a977-f7c6e7dfbd1c"},"vehicle_type_id":"4","last_reported":1702991358,"current_range_meters":16000,"station_id":"ce4bgh92rcd13ifvqb50","pricing_plan_id":"free"},{"bike_id":"87b59408-da92-4465-8856-ec5b4ad3e01b","system_id":"levelo_inurba_marseille","lat":43.304278,"lon":5.388868,"is_reserved":false,"is_disabled":false,"rental_uris":{"android":"levelo://app?vid=87b59408-da92-4465-8856-ec5b4ad3e01b","ios":"levelo://app?vid=87b59408-da92-4465-8856-ec5b4ad3e01b"},"vehicle_type_id":"4","last_reported":1702991358,"current_range_meters":29200,"station_id":"ce4bgk12rcd13ifvqbi0","pricing_plan_id":"free"},{"bike_id":"2efdb04a-5c09-4526-8dfb-d6ae7e1f4073","system_id":"levelo_inurba_marseille","lat":43.298037,"lon":5.381066,"is_reserved":false,"is_disabled":false,"rental_uris":{"android":"levelo://app?vid=2efdb04a-5c09-4526-8dfb-d6ae7e1f4073","ios":"levelo://app?vid=2efdb04a-5c09-4526-8dfb-d6ae7e1f4073"},"vehicle_type_id":"4","last_reported":1702991358,"current_range_meters":22400,"station_id":"ce4bgip2rcd13ifvqbb0","pricing_plan_id":"free"},{"bike_id":"a97d1b3d-8a94-47f6-a438-36d0565744b2","system_id":"levelo_inurba_marseille","lat":43.304278,"lon":5.388868,"is_reserved":false,"is_disabled":false,"rental_uris":{"android":"levelo://app?vid=a97d1b3d-8a94-47f6-a438-36d0565744b2","ios":"levelo://app?vid=a97d1b3d-8a94-47f6-a438-36d0565744b2"},"vehicle_type_id":"4","last_reported":1702991358,"current_range_meters":29600,"station_id":"ce4bgk12rcd13ifvqbi0","pricing_plan_id":"free"},{"bike_id":"5d142832-272b-49c9-9906-024dae65614c","system_id":"levelo_inurba_marseille","lat":43.304278,"lon":5.388868,"is_reserved":false,"is_disabled":false,"rental_uris":{"android":"levelo://app?vid=5d142832-272b-49c9-9906-024dae65614c","ios":"levelo://app?vid=5d142832-272b-49c9-9906-024dae65614c"},"vehicle_type_id":"4","last_reported":1702991358,"current_range_meters":1600,"station_id":"ce4bgk12rcd13ifvqbi0","pricing_plan_id":"free"},{"bike_id":"3c5963c7-059c-47a4-af14-91c18dd7c746","system_id":"levelo_inurba_marseille","lat":43.304278,"lon":5.388868,"is_reserved":false,"is_disabled":false,"rental_uris":{"android":"levelo://app?vid=3c5963c7-059c-47a4-af14-91c18dd7c746","ios":"levelo://app?vid=3c5963c7-059c-47a4-af14-91c18dd7c746"},"vehicle_type_id":"4","last_reported":1702991358,"current_range_meters":31600,"station_id":"ce4bgk12rcd13ifvqbi0","pricing_plan_id":"free"},{"bike_id":"934167ed-184b-429e-af48-f2cff62d3c15","system_id":"levelo_inurba_marseille","lat":43.304278,"lon":5.388868,"is_reserved":false,"is_disabled":false,"rental_uris":{"android":"levelo://app?vid=934167ed-184b-429e-af48-f2cff62d3c15","ios":"levelo://app?vid=934167ed-184b-429e-af48-f2cff62d3c15"},"vehicle_type_id":"4","last_reported":1702991358,"current_range_meters":31600,"station_id":"ce4bgk12rcd13ifvqbi0","pricing_plan_id":"free"},{"bike_id":"da3a838e-556d-4a8b-898d-a327f40b05b0","system_id":"levelo_inurba_marseille","lat":43.296277,"lon":5.377108,"is_reserved":false,"is_disabled":false,"rental_uris":{"android":"levelo://app?vid=da3a838e-556d-4a8b-898d-a327f40b05b0","ios":"levelo://app?vid=da3a838e-556d-4a8b-898d-a327f40b05b0"},"vehicle_type_id":"4","last_reported":1702991358,"current_range_meters":22800,"station_id":"ce4bgi92rcd13ifvqb90","pricing_plan_id":"free"},{"bike_id":"95f0321f-5172-4923-bba4-10b5182fba36","system_id":"levelo_inurba_marseille","lat":43.304274,"lon":5.388873,"is_reserved":false,"is_disabled":false,"rental_uris":{"android":"levelo://app?vid=95f0321f-5172-4923-bba4-10b5182fba36","ios":"levelo://app?vid=95f0321f-5172-4923-bba4-10b5182fba36"},"vehicle_type_id":"4","last_reported":1702991358,"current_range_meters":30400,"station_id":"ce4bgk12rcd13ifvqbi0","pricing_plan_id":"free"},{"bike_id":"4d5e6877-b613-448e-b6d1-e6eb0000dce4","system_id":"levelo_inurba_marseille","lat":43.296263,"lon":5.377094,"is_reserved":false,"is_disabled":false,"rental_uris":{"android":"levelo://app?vid=4d5e6877-b613-448e-b6d1-e6eb0000dce4","ios":"levelo://app?vid=4d5e6877-b613-448e-b6d1-e6eb0000dce4"},"vehicle_type_id":"4","last_reported":1702991358,"current_range_meters":3200,"station_id":"ce4bgi92rcd13ifvqb90","pricing_plan_id":"free"},{"bike_id":"65bc9d1a-9ffe-401b-8771-906f0a694d96","system_id":"levelo_inurba_marseille","lat":43.304274,"lon":5.388873,"is_reserved":false,"is_disabled":false,"rental_uris":{"android":"levelo://app?vid=65bc9d1a-9ffe-401b-8771-906f0a694d96","ios":"levelo://app?vid=65bc9d1a-9ffe-401b-8771-906f0a694d96"},"vehicle_type_id":"4","last_reported":1702991358,"current_range_meters":16000,"station_id":"ce4bgk12rcd13ifvqbi0","pricing_plan_id":"free"},{"bike_id":"67b5da0b-61c4-4dc5-9a6c-c0182c0e5693","system_id":"levelo_inurba_marseille","lat":43.32367,"lon":5.388836,"is_reserved":false,"is_disabled":false,"rental_uris":{"android":"levelo://app?vid=67b5da0b-61c4-4dc5-9a6c-c0182c0e5693","ios":"levelo://app?vid=67b5da0b-61c4-4dc5-9a6c-c0182c0e5693"},"vehicle_type_id":"4","last_reported":1702991358,"current_range_meters":26800,"station_id":"ce4bhqp2rcd13ifvqhog","pricing_plan_id":"free"},{"bike_id":"58df5e74-010f-4d32-bbbb-c12e52b6a7e7","system_id":"levelo_inurba_marseille","lat":43.313571,"lon":5.384829,"is_reserved":false,"is_disabled":false,"rental_uris":{"android":"levelo://app?vid=58df5e74-010f-4d32-bbbb-c12e52b6a7e7","ios":"levelo://app?vid=58df5e74-010f-4d32-bbbb-c12e52b6a7e7"},"vehicle_type_id":"4","last_reported":1702991358,"current_range_meters":30000,"station_id":"ce4bgt92rcd13ifvqcf0","pricing_plan_id":"free"},{"bike_id":"dc86e159-b90d-4486-99c0-b4e2868f31e3","system_id":"levelo_inurba_marseille","lat":43.293031,"lon":5.371746,"is_reserved":false,"is_disabled":false,"rental_uris":{"android":"levelo://app?vid=dc86e159-b90d-4486-99c0-b4e2868f31e3","ios":"levelo://app?vid=dc86e159-b90d-4486-99c0-b4e2868f31e3"},"vehicle_type_id":"4","last_reported":1702991358,"current_range_meters":26400,"station_id":"ce4bgh92rcd13ifvqb40","pricing_plan_id":"free"},{"bike_id":"e88df140-c426-46e6-a073-9fcc9339bc89","system_id":"levelo_inurba_marseille","lat":43.293259,"lon":5.371586,"is_reserved":false,"is_disabled":false,"rental_uris":{"android":"levelo://app?vid=e88df140-c426-46e6-a073-9fcc9339bc89","ios":"levelo://app?vid=e88df140-c426-46e6-a073-9fcc9339bc89"},"vehicle_type_id":"4","last_reported":1702991358,"current_range_meters":22400,"station_id":"ce4bgh92rcd13ifvqb40","pricing_plan_id":"free"},{"bike_id":"1dfac9d9-5966-4a3c-b863-b862bcda3b5c","system_id":"levelo_inurba_marseille","lat":43.293259,"lon":5.371586,"is_reserved":false,"is_disabled":false,"rental_uris":{"android":"levelo://app?vid=1dfac9d9-5966-4a3c-b863-b862bcda3b5c","ios":"levelo://app?vid=1dfac9d9-5966-4a3c-b863-b862bcda3b5c"},"vehicle_type_id":"4","last_reported":1702991358,"current_range_meters":16800,"station_id":"ce4bgh92rcd13ifvqb40","pricing_plan_id":"free"},{"bike_id":"d0f6db2f-a00b-477e-9366-12cb92e9d303","system_id":"levelo_inurba_marseille","lat":43.293009,"lon":5.374584,"is_reserved":false,"is_disabled":false,"rental_uris":{"android":"levelo://app?vid=d0f6db2f-a00b-477e-9366-12cb92e9d303","ios":"levelo://app?vid=d0f6db2f-a00b-477e-9366-12cb92e9d303"},"vehicle_type_id":"4","last_reported":1702991358,"current_range_meters":0,"station_id":"ce4bgi12rcd13ifvqb70","pricing_plan_id":"free"},{"bike_id":"c87f945c-3595-4541-8c39-5553fb12f78c","system_id":"levelo_inurba_marseille","lat":43.302992,"lon":5.392136,"is_reserved":false,"is_disabled":false,"rental_uris":{"android":"levelo://app?vid=c87f945c-3595-4541-8c39-5553fb12f78c","ios":"levelo://app?vid=c87f945c-3595-4541-8c39-5553fb12f78c"},"vehicle_type_id":"4","last_reported":1702991358,"current_range_meters":30400,"station_id":"ce4bgkh2rcd13ifvqbk0","pricing_plan_id":"free"},{"bike_id":"c6c2e409-89ef-45ee-a14f-3a31d87f8c47","system_id":"levelo_inurba_marseille","lat":43.300961,"lon":5.390836,"is_reserved":false,"is_disabled":false,"rental_uris":{"android":"levelo://app?vid=c6c2e409-89ef-45ee-a14f-3a31d87f8c47","ios":"levelo://app?vid=c6c2e409-89ef-45ee-a14f-3a31d87f8c47"},"vehicle_type_id":"4","last_reported":1702991358,"current_range_meters":28800,"station_id":"","pricing_plan_id":"free"},{"bike_id":"4181b9fe-3088-41a3-b413-4a9deb28e4f7","system_id":"levelo_inurba_marseille","lat":43.29261,"lon":5.37618,"is_reserved":false,"is_disabled":false,"rental_uris":{"android":"levelo://app?vid=4181b9fe-3088-41a3-b413-4a9deb28e4f7","ios":"levelo://app?vid=4181b9fe-3088-41a3-b413-4a9deb28e4f7"},"vehicle_type_id":"4","last_reported":1702991358,"current_range_meters":25600,"station_id":"","pricing_plan_id":"free"},{"bike_id":"7e8b3985-76c9-4896-a9ed-80d83c5668ed","system_id":"levelo_inurba_marseille","lat":43.29247,"lon":5.37632,"is_reserved":false,"is_disabled":false,"rental_uris":{"android":"levelo://app?vid=7e8b3985-76c9-4896-a9ed-80d83c5668ed","ios":"levelo://app?vid=7e8b3985-76c9-4896-a9ed-80d83c5668ed"},"vehicle_type_id":"4","last_reported":1702991358,"current_range_meters":23200,"station_id":"","pricing_plan_id":"free"},{"bike_id":"a7f369a6-bb7f-4919-8cc7-7974838cf1e5","system_id":"levelo_inurba_marseille","lat":43.291671,"lon":5.371575,"is_reserved":false,"is_disabled":false,"rental_uris":{"android":"levelo://app?vid=a7f369a6-bb7f-4919-8cc7-7974838cf1e5","ios":"levelo://app?vid=a7f369a6-bb7f-4919-8cc7-7974838cf1e5"},"vehicle_type_id":"4","last_reported":1702991358,"current_range_meters":26000,"station_id":"ce4bha92rcd13ifvqeh0","pricing_plan_id":"free"},{"bike_id":"ded75acb-f27a-4285-b5e1-139f7f36e50f","system_id":"levelo_inurba_marseille","lat":43.29529,"lon":5.385581,"is_reserved":false,"is_disabled":false,"rental_uris":{"android":"levelo://app?vid=ded75acb-f27a-4285-b5e1-139f7f36e50f","ios":"levelo://app?vid=ded75acb-f27a-4285-b5e1-139f7f36e50f"},"vehicle_type_id":"4","last_reported":1702991358,"current_range_meters":8800,"station_id":"ce4bgih2rcd13ifvqba0","pricing_plan_id":"free"},{"bike_id":"aa39e4d7-2b60-4360-ae36-82650be9e075","system_id":"levelo_inurba_marseille","lat":43.289184,"lon":5.366408,"is_reserved":false,"is_disabled":false,"rental_uris":{"android":"levelo://app?vid=aa39e4d7-2b60-4360-ae36-82650be9e075","ios":"levelo://app?vid=aa39e4d7-2b60-4360-ae36-82650be9e075"},"vehicle_type_id":"4","last_reported":1702991358,"current_range_meters":10800,"station_id":"ce4bhap2rcd13ifvqek0","pricing_plan_id":"free"},{"bike_id":"41a8b255-d5b3-4884-a4e2-c50c33d015bd","system_id":"levelo_inurba_marseille","lat":43.290327,"lon":5.375711,"is_reserved":false,"is_disabled":false,"rental_uris":{"android":"levelo://app?vid=41a8b255-d5b3-4884-a4e2-c50c33d015bd","ios":"levelo://app?vid=41a8b255-d5b3-4884-a4e2-c50c33d015bd"},"vehicle_type_id":"4","last_reported":1702991358,"current_range_meters":15200,"station_id":"ce4bh692rcd13ifvqe90","pricing_plan_id":"free"},{"bike_id":"5d347d9e-7f44-4825-a501-ff462d12f4d7","system_id":"levelo_inurba_marseille","lat":43.290327,"lon":5.375711,"is_reserved":false,"is_disabled":false,"rental_uris":{"android":"levelo://app?vid=5d347d9e-7f44-4825-a501-ff462d12f4d7","ios":"levelo://app?vid=5d347d9e-7f44-4825-a501-ff462d12f4d7"},"vehicle_type_id":"4","last_reported":1702991358,"current_range_meters":16400,"station_id":"ce4bh692rcd13ifvqe90","pricing_plan_id":"free"},{"bike_id":"04055d22-c332-42ea-b9bf-439cef4077c1","system_id":"levelo_inurba_marseille","lat":43.304296,"lon":5.397513,"is_reserved":false,"is_disabled":false,"rental_uris":{"android":"levelo://app?vid=04055d22-c332-42ea-b9bf-439cef4077c1","ios":"levelo://app?vid=04055d22-c332-42ea-b9bf-439cef4077c1"},"vehicle_type_id":"4","last_reported":1702991358,"current_range_meters":28000,"station_id":"ce4bh092rcd13ifvqd20","pricing_plan_id":"free"},{"bike_id":"f16a7363-728e-46ee-bfc7-dae640cce21b","system_id":"levelo_inurba_marseille","lat":43.29012,"lon":5.35615,"is_reserved":false,"is_disabled":false,"rental_uris":{"android":"levelo://app?vid=f16a7363-728e-46ee-bfc7-dae640cce21b","ios":"levelo://app?vid=f16a7363-728e-46ee-bfc7-dae640cce21b"},"vehicle_type_id":"4","last_reported":1702991358,"current_range_meters":27200,"station_id":"","pricing_plan_id":"free"},{"bike_id":"b835a878-3c7c-4409-ba39-5f0e6cf66239","system_id":"levelo_inurba_marseille","lat":43.330442,"lon":5.389148,"is_reserved":false,"is_disabled":false,"rental_uris":{"android":"levelo://app?vid=b835a878-3c7c-4409-ba39-5f0e6cf66239","ios":"levelo://app?vid=b835a878-3c7c-4409-ba39-5f0e6cf66239"},"vehicle_type_id":"4","last_reported":1702991358,"current_range_meters":25200,"station_id":"ce4bhr92rcd13ifvqhrg","pricing_plan_id":"free"},{"bike_id":"208297bc-3d30-4364-baa4-33c727500ac6","system_id":"levelo_inurba_marseille","lat":43.330442,"lon":5.389148,"is_reserved":false,"is_disabled":false,"rental_uris":{"android":"levelo://app?vid=208297bc-3d30-4364-baa4-33c727500ac6","ios":"levelo://app?vid=208297bc-3d30-4364-baa4-33c727500ac6"},"vehicle_type_id":"4","last_reported":1702991358,"current_range_meters":6000,"station_id":"ce4bhr92rcd13ifvqhrg","pricing_plan_id":"free"},{"bike_id":"549f20c7-e694-4409-88f8-e9c1555d154b","system_id":"levelo_inurba_marseille","lat":43.330442,"lon":5.389148,"is_reserved":false,"is_disabled":false,"rental_uris":{"android":"levelo://app?vid=549f20c7-e694-4409-88f8-e9c1555d154b","ios":"levelo://app?vid=549f20c7-e694-4409-88f8-e9c1555d154b"},"vehicle_type_id":"4","last_reported":1702991358,"current_range_meters":22000,"station_id":"ce4bhr92rcd13ifvqhrg","pricing_plan_id":"free"},{"bike_id":"fb541042-ca34-42cc-9403-1629f61ffdf5","system_id":"levelo_inurba_marseille","lat":43.33045,"lon":5.38918,"is_reserved":false,"is_disabled":false,"rental_uris":{"android":"levelo://app?vid=fb541042-ca34-42cc-9403-1629f61ffdf5","ios":"levelo://app?vid=fb541042-ca34-42cc-9403-1629f61ffdf5"},"vehicle_type_id":"4","last_reported":1702991358,"current_range_meters":28800,"station_id":"ce4bhr92rcd13ifvqhrg","pricing_plan_id":"free"},{"bike_id":"9d7dd379-e734-482a-a237-6d1888ce180a","system_id":"levelo_inurba_marseille","lat":43.290104,"lon":5.356111,"is_reserved":false,"is_disabled":false,"rental_uris":{"android":"levelo://app?vid=9d7dd379-e734-482a-a237-6d1888ce180a","ios":"levelo://app?vid=9d7dd379-e734-482a-a237-6d1888ce180a"},"vehicle_type_id":"4","last_reported":1702991358,"current_range_meters":18400,"station_id":"ce4bhb92rcd13ifvqen0","pricing_plan_id":"free"},{"bike_id":"69517462-ed1e-4394-ab8f-e079f481ca2c","system_id":"levelo_inurba_marseille","lat":43.290104,"lon":5.356111,"is_reserved":false,"is_disabled":false,"rental_uris":{"android":"levelo://app?vid=69517462-ed1e-4394-ab8f-e079f481ca2c","ios":"levelo://app?vid=69517462-ed1e-4394-ab8f-e079f481ca2c"},"vehicle_type_id":"4","last_reported":1702991358,"current_range_meters":17600,"station_id":"ce4bhb92rcd13ifvqen0","pricing_plan_id":"free"},{"bike_id":"04eda9e7-2085-4ca5-ac3c-c787c74580c5","system_id":"levelo_inurba_marseille","lat":43.297815,"lon":5.393548,"is_reserved":false,"is_disabled":false,"rental_uris":{"android":"levelo://app?vid=04eda9e7-2085-4ca5-ac3c-c787c74580c5","ios":"levelo://app?vid=04eda9e7-2085-4ca5-ac3c-c787c74580c5"},"vehicle_type_id":"4","last_reported":1702991358,"current_range_meters":27600,"station_id":"chh1huq6cuj3fo74tm60","pricing_plan_id":"free"},{"bike_id":"456ebaa2-dfed-474d-baad-d32bd403d23a","system_id":"levelo_inurba_marseille","lat":43.29779,"lon":5.39344,"is_reserved":false,"is_disabled":false,"rental_uris":{"android":"levelo://app?vid=456ebaa2-dfed-474d-baad-d32bd403d23a","ios":"levelo://app?vid=456ebaa2-dfed-474d-baad-d32bd403d23a"},"vehicle_type_id":"4","last_reported":1702991358,"current_range_meters":25200,"station_id":"chh1huq6cuj3fo74tm60","pricing_plan_id":"free"},{"bike_id":"e5d4261d-5161-4489-abc8-da72e93ccc2a","system_id":"levelo_inurba_marseille","lat":43.289741,"lon":5.378306,"is_reserved":false,"is_disabled":false,"rental_uris":{"android":"levelo://app?vid=e5d4261d-5161-4489-abc8-da72e93ccc2a","ios":"levelo://app?vid=e5d4261d-5161-4489-abc8-da72e93ccc2a"},"vehicle_type_id":"4","last_reported":1702991358,"current_range_meters":22000,"station_id":"ce4bh9p2rcd13ifvqed0","pricing_plan_id":"free"},{"bike_id":"3890ee72-20a1-4d47-b953-ae69c0024e16","system_id":"levelo_inurba_marseille","lat":43.295169,"lon":5.390426,"is_reserved":false,"is_disabled":false,"rental_uris":{"android":"levelo://app?vid=3890ee72-20a1-4d47-b953-ae69c0024e16","ios":"levelo://app?vid=3890ee72-20a1-4d47-b953-ae69c0024e16"},"vehicle_type_id":"4","last_reported":1702991358,"current_range_meters":16800,"station_id":"ce4bh3p2rcd13ifvqdp0","pricing_plan_id":"free"},{"bike_id":"09051a11-f7b3-49b0-9763-6990c0ceb88a","system_id":"levelo_inurba_marseille","lat":43.289743,"lon":5.378304,"is_reserved":false,"is_disabled":false,"rental_uris":{"android":"levelo://app?vid=09051a11-f7b3-49b0-9763-6990c0ceb88a","ios":"levelo://app?vid=09051a11-f7b3-49b0-9763-6990c0ceb88a"},"vehicle_type_id":"4","last_reported":1702991358,"current_range_meters":12000,"station_id":"ce4bh9p2rcd13ifvqed0","pricing_plan_id":"free"},{"bike_id":"a8fafcb0-2717-43e0-8a39-ade74cb0413a","system_id":"levelo_inurba_marseille","lat":43.289743,"lon":5.378304,"is_reserved":false,"is_disabled":false,"rental_uris":{"android":"levelo://app?vid=a8fafcb0-2717-43e0-8a39-ade74cb0413a","ios":"levelo://app?vid=a8fafcb0-2717-43e0-8a39-ade74cb0413a"},"vehicle_type_id":"4","last_reported":1702991358,"current_range_meters":13200,"station_id":"ce4bh9p2rcd13ifvqed0","pricing_plan_id":"free"},{"bike_id":"f34126ed-4cd4-41b8-9f66-fa201f9ee008","system_id":"levelo_inurba_marseille","lat":43.28856,"lon":5.358371,"is_reserved":false,"is_disabled":false,"rental_uris":{"android":"levelo://app?vid=f34126ed-4cd4-41b8-9f66-fa201f9ee008","ios":"levelo://app?vid=f34126ed-4cd4-41b8-9f66-fa201f9ee008"},"vehicle_type_id":"4","last_reported":1702991358,"current_range_meters":18000,"station_id":"ce4bhb12rcd13ifvqem0","pricing_plan_id":"free"},{"bike_id":"0e132a50-97af-456f-a072-2e02b755bf0f","system_id":"levelo_inurba_marseille","lat":43.29166,"lon":5.38603,"is_reserved":false,"is_disabled":false,"rental_uris":{"android":"levelo://app?vid=0e132a50-97af-456f-a072-2e02b755bf0f","ios":"levelo://app?vid=0e132a50-97af-456f-a072-2e02b755bf0f"},"vehicle_type_id":"4","last_reported":1702991358,"current_range_meters":14000,"station_id":"","pricing_plan_id":"free"},{"bike_id":"3625afae-4279-47ca-94c0-c2a4b30bcfa8","system_id":"levelo_inurba_marseille","lat":43.33744,"lon":5.37455,"is_reserved":false,"is_disabled":false,"rental_uris":{"android":"levelo://app?vid=3625afae-4279-47ca-94c0-c2a4b30bcfa8","ios":"levelo://app?vid=3625afae-4279-47ca-94c0-c2a4b30bcfa8"},"vehicle_type_id":"4","last_reported":1702991358,"current_range_meters":29600,"station_id":"","pricing_plan_id":"free"},{"bike_id":"1b661c53-839b-4f41-8d7f-0614e8dd80e1","system_id":"levelo_inurba_marseille","lat":43.33763,"lon":5.37464,"is_reserved":false,"is_disabled":false,"rental_uris":{"android":"levelo://app?vid=1b661c53-839b-4f41-8d7f-0614e8dd80e1","ios":"levelo://app?vid=1b661c53-839b-4f41-8d7f-0614e8dd80e1"},"vehicle_type_id":"4","last_reported":1702991358,"current_range_meters":30400,"station_id":"","pricing_plan_id":"free"},{"bike_id":"c3c3cbbb-aa08-4874-94d9-d40777882ceb","system_id":"levelo_inurba_marseille","lat":43.337694,"lon":5.374289,"is_reserved":false,"is_disabled":false,"rental_uris":{"android":"levelo://app?vid=c3c3cbbb-aa08-4874-94d9-d40777882ceb","ios":"levelo://app?vid=c3c3cbbb-aa08-4874-94d9-d40777882ceb"},"vehicle_type_id":"4","last_reported":1702991358,"current_range_meters":9200,"station_id":"","pricing_plan_id":"free"},{"bike_id":"c895bede-74bf-4547-92cc-4b07db62068a","system_id":"levelo_inurba_marseille","lat":43.28727,"lon":5.36078,"is_reserved":false,"is_disabled":false,"rental_uris":{"android":"levelo://app?vid=c895bede-74bf-4547-92cc-4b07db62068a","ios":"levelo://app?vid=c895bede-74bf-4547-92cc-4b07db62068a"},"vehicle_type_id":"4","last_reported":1702991358,"current_range_meters":26800,"station_id":"cki0cbj6b192h4jlfktg","pricing_plan_id":"free"},{"bike_id":"b42f0338-2e3e-4398-9cb2-d39d779e9e8f","system_id":"levelo_inurba_marseille","lat":43.28715,"lon":5.37379,"is_reserved":false,"is_disabled":false,"rental_uris":{"android":"levelo://app?vid=b42f0338-2e3e-4398-9cb2-d39d779e9e8f","ios":"levelo://app?vid=b42f0338-2e3e-4398-9cb2-d39d779e9e8f"},"vehicle_type_id":"4","last_reported":1702991358,"current_range_meters":6000,"station_id":"ce4bh3p2rcd13ifvqdq0","pricing_plan_id":"free"},{"bike_id":"e69c2b82-2443-4043-9def-a85d3ef28b3c","system_id":"levelo_inurba_marseille","lat":43.298681,"lon":5.397225,"is_reserved":false,"is_disabled":false,"rental_uris":{"android":"levelo://app?vid=e69c2b82-2443-4043-9def-a85d3ef28b3c","ios":"levelo://app?vid=e69c2b82-2443-4043-9def-a85d3ef28b3c"},"vehicle_type_id":"4","last_reported":1702991358,"current_range_meters":20800,"station_id":"ce4bh0h2rcd13ifvqd50","pricing_plan_id":"free"},{"bike_id":"ad9e74c1-70ca-4415-af05-b5c092b8b9f1","system_id":"levelo_inurba_marseille","lat":43.298681,"lon":5.397225,"is_reserved":false,"is_disabled":false,"rental_uris":{"android":"levelo://app?vid=ad9e74c1-70ca-4415-af05-b5c092b8b9f1","ios":"levelo://app?vid=ad9e74c1-70ca-4415-af05-b5c092b8b9f1"},"vehicle_type_id":"4","last_reported":1702991358,"current_range_meters":28400,"station_id":"ce4bh0h2rcd13ifvqd50","pricing_plan_id":"free"},{"bike_id":"25048e9b-e408-41b0-b7a5-646f494fa890","system_id":"levelo_inurba_marseille","lat":43.28693,"lon":5.3739,"is_reserved":false,"is_disabled":false,"rental_uris":{"android":"levelo://app?vid=25048e9b-e408-41b0-b7a5-646f494fa890","ios":"levelo://app?vid=25048e9b-e408-41b0-b7a5-646f494fa890"},"vehicle_type_id":"4","last_reported":1702991358,"current_range_meters":16000,"station_id":"ce4bh3p2rcd13ifvqdq0","pricing_plan_id":"free"},{"bike_id":"dd5cb910-46f8-4448-bc84-76ae64d96a70","system_id":"levelo_inurba_marseille","lat":43.28691,"lon":5.37404,"is_reserved":false,"is_disabled":false,"rental_uris":{"android":"levelo://app?vid=dd5cb910-46f8-4448-bc84-76ae64d96a70","ios":"levelo://app?vid=dd5cb910-46f8-4448-bc84-76ae64d96a70"},"vehicle_type_id":"4","last_reported":1702991358,"current_range_meters":18000,"station_id":"ce4bh3p2rcd13ifvqdq0","pricing_plan_id":"free"},{"bike_id":"7d68eac5-1bca-4a09-bf11-b2dfc85d8675","system_id":"levelo_inurba_marseille","lat":43.29027,"lon":5.386513,"is_reserved":false,"is_disabled":false,"rental_uris":{"android":"levelo://app?vid=7d68eac5-1bca-4a09-bf11-b2dfc85d8675","ios":"levelo://app?vid=7d68eac5-1bca-4a09-bf11-b2dfc85d8675"},"vehicle_type_id":"4","last_reported":1702991358,"current_range_meters":0,"station_id":"","pricing_plan_id":"free"},{"bike_id":"41501bbc-b034-45ad-b316-c32409342290","system_id":"levelo_inurba_marseille","lat":43.286039,"lon":5.370679,"is_reserved":false,"is_disabled":false,"rental_uris":{"android":"levelo://app?vid=41501bbc-b034-45ad-b316-c32409342290","ios":"levelo://app?vid=41501bbc-b034-45ad-b316-c32409342290"},"vehicle_type_id":"4","last_reported":1702991358,"current_range_meters":31200,"station_id":"ce4bht12rcd13ifvqi60","pricing_plan_id":"free"},{"bike_id":"041e8ef1-7c4a-49dd-89c2-4a69bdfcd042","system_id":"levelo_inurba_marseille","lat":43.286105,"lon":5.37063,"is_reserved":false,"is_disabled":false,"rental_uris":{"android":"levelo://app?vid=041e8ef1-7c4a-49dd-89c2-4a69bdfcd042","ios":"levelo://app?vid=041e8ef1-7c4a-49dd-89c2-4a69bdfcd042"},"vehicle_type_id":"4","last_reported":1702991358,"current_range_meters":26800,"station_id":"ce4bht12rcd13ifvqi60","pricing_plan_id":"free"},{"bike_id":"c0d3194b-37be-4429-8b32-c11d7d729dcb","system_id":"levelo_inurba_marseille","lat":43.285848,"lon":5.350787,"is_reserved":false,"is_disabled":false,"rental_uris":{"android":"levelo://app?vid=c0d3194b-37be-4429-8b32-c11d7d729dcb","ios":"levelo://app?vid=c0d3194b-37be-4429-8b32-c11d7d729dcb"},"vehicle_type_id":"4","last_reported":1702991358,"current_range_meters":12800,"station_id":"ce4bhch2rcd13ifvqeug","pricing_plan_id":"free"},{"bike_id":"29b63deb-2f14-454b-acdc-a315adf4b066","system_id":"levelo_inurba_marseille","lat":43.283998,"lon":5.375062,"is_reserved":false,"is_disabled":false,"rental_uris":{"android":"levelo://app?vid=29b63deb-2f14-454b-acdc-a315adf4b066","ios":"levelo://app?vid=29b63deb-2f14-454b-acdc-a315adf4b066"},"vehicle_type_id":"4","last_reported":1702991358,"current_range_meters":7200,"station_id":"ce4bh412rcd13ifvqds0","pricing_plan_id":"free"},{"bike_id":"8538e6dd-dbef-4a5a-a119-9a857fd021ad","system_id":"levelo_inurba_marseille","lat":43.33218,"lon":5.397067,"is_reserved":false,"is_disabled":false,"rental_uris":{"android":"levelo://app?vid=8538e6dd-dbef-4a5a-a119-9a857fd021ad","ios":"levelo://app?vid=8538e6dd-dbef-4a5a-a119-9a857fd021ad"},"vehicle_type_id":"4","last_reported":1702991358,"current_range_meters":1600,"station_id":"","pricing_plan_id":"free"},{"bike_id":"5259c82c-ff9e-40cf-8cc3-ed85bbca43d1","system_id":"levelo_inurba_marseille","lat":43.283998,"lon":5.375062,"is_reserved":false,"is_disabled":false,"rental_uris":{"android":"levelo://app?vid=5259c82c-ff9e-40cf-8cc3-ed85bbca43d1","ios":"levelo://app?vid=5259c82c-ff9e-40cf-8cc3-ed85bbca43d1"},"vehicle_type_id":"4","last_reported":1702991358,"current_range_meters":22000,"station_id":"ce4bh412rcd13ifvqds0","pricing_plan_id":"free"},{"bike_id":"96bf667b-fc7a-4276-8634-e50a2d06e943","system_id":"levelo_inurba_marseille","lat":43.33717,"lon":5.391857,"is_reserved":false,"is_disabled":false,"rental_uris":{"android":"levelo://app?vid=96bf667b-fc7a-4276-8634-e50a2d06e943","ios":"levelo://app?vid=96bf667b-fc7a-4276-8634-e50a2d06e943"},"vehicle_type_id":"4","last_reported":1702991358,"current_range_meters":30400,"station_id":"ce4bhr92rcd13ifvqhsg","pricing_plan_id":"free"},{"bike_id":"cb8da506-0c61-4efc-a37a-fcf8db806d53","system_id":"levelo_inurba_marseille","lat":43.337168,"lon":5.391825,"is_reserved":false,"is_disabled":false,"rental_uris":{"android":"levelo://app?vid=cb8da506-0c61-4efc-a37a-fcf8db806d53","ios":"levelo://app?vid=cb8da506-0c61-4efc-a37a-fcf8db806d53"},"vehicle_type_id":"4","last_reported":1702991358,"current_range_meters":28000,"station_id":"ce4bhr92rcd13ifvqhsg","pricing_plan_id":"free"},{"bike_id":"836b9d28-e887-4e99-8264-d9906b920159","system_id":"levelo_inurba_marseille","lat":43.284793,"lon":5.384119,"is_reserved":false,"is_disabled":false,"rental_uris":{"android":"levelo://app?vid=836b9d28-e887-4e99-8264-d9906b920159","ios":"levelo://app?vid=836b9d28-e887-4e99-8264-d9906b920159"},"vehicle_type_id":"4","last_reported":1702991358,"current_range_meters":24800,"station_id":"ce4bh512rcd13ifvqe3g","pricing_plan_id":"free"},{"bike_id":"cdf9e153-d398-40bc-9d57-55e85ec49718","system_id":"levelo_inurba_marseille","lat":43.288501,"lon":5.393087,"is_reserved":false,"is_disabled":false,"rental_uris":{"android":"levelo://app?vid=cdf9e153-d398-40bc-9d57-55e85ec49718","ios":"levelo://app?vid=cdf9e153-d398-40bc-9d57-55e85ec49718"},"vehicle_type_id":"4","last_reported":1702991358,"current_range_meters":20400,"station_id":"ce4bh2p2rcd13ifvqdi0","pricing_plan_id":"free"},{"bike_id":"9bf575a8-a17e-464a-8a18-7b06fc743837","system_id":"levelo_inurba_marseille","lat":43.288501,"lon":5.393087,"is_reserved":false,"is_disabled":false,"rental_uris":{"android":"levelo://app?vid=9bf575a8-a17e-464a-8a18-7b06fc743837","ios":"levelo://app?vid=9bf575a8-a17e-464a-8a18-7b06fc743837"},"vehicle_type_id":"4","last_reported":1702991358,"current_range_meters":14400,"station_id":"ce4bh2p2rcd13ifvqdi0","pricing_plan_id":"free"},{"bike_id":"f5332b34-8259-4323-952e-7bd465eb247c","system_id":"levelo_inurba_marseille","lat":43.29795,"lon":5.404086,"is_reserved":false,"is_disabled":false,"rental_uris":{"android":"levelo://app?vid=f5332b34-8259-4323-952e-7bd465eb247c","ios":"levelo://app?vid=f5332b34-8259-4323-952e-7bd465eb247c"},"vehicle_type_id":"4","last_reported":1702991358,"current_range_meters":400,"station_id":"ce4bh112rcd13ifvqd90","pricing_plan_id":"free"},{"bike_id":"72f2c269-0deb-48ea-86c7-8d25f3fff045","system_id":"levelo_inurba_marseille","lat":43.284219,"lon":5.3497,"is_reserved":false,"is_disabled":false,"rental_uris":{"android":"levelo://app?vid=72f2c269-0deb-48ea-86c7-8d25f3fff045","ios":"levelo://app?vid=72f2c269-0deb-48ea-86c7-8d25f3fff045"},"vehicle_type_id":"4","last_reported":1702991358,"current_range_meters":11200,"station_id":"ce4bhbh2rcd13ifvqepg","pricing_plan_id":"free"},{"bike_id":"35e5c977-c3ec-4302-85e4-7f44ba15ca6f","system_id":"levelo_inurba_marseille","lat":43.306412,"lon":5.401035,"is_reserved":false,"is_disabled":false,"rental_uris":{"android":"levelo://app?vid=35e5c977-c3ec-4302-85e4-7f44ba15ca6f","ios":"levelo://app?vid=35e5c977-c3ec-4302-85e4-7f44ba15ca6f"},"vehicle_type_id":"4","last_reported":1702991358,"current_range_meters":23200,"station_id":"ce4bh112rcd13ifvqda0","pricing_plan_id":"free"},{"bike_id":"5b412b18-8334-42fc-8007-8b0cc2dd767c","system_id":"levelo_inurba_marseille","lat":43.289363,"lon":5.396322,"is_reserved":false,"is_disabled":false,"rental_uris":{"android":"levelo://app?vid=5b412b18-8334-42fc-8007-8b0cc2dd767c","ios":"levelo://app?vid=5b412b18-8334-42fc-8007-8b0cc2dd767c"},"vehicle_type_id":"4","last_reported":1702991358,"current_range_meters":14400,"station_id":"ce4bh3h2rcd13ifvqdn0","pricing_plan_id":"free"},{"bike_id":"75b0fbf0-20d2-4c1f-8f95-3252c8d8ed41","system_id":"levelo_inurba_marseille","lat":43.281044,"lon":5.378308,"is_reserved":false,"is_disabled":false,"rental_uris":{"android":"levelo://app?vid=75b0fbf0-20d2-4c1f-8f95-3252c8d8ed41","ios":"levelo://app?vid=75b0fbf0-20d2-4c1f-8f95-3252c8d8ed41"},"vehicle_type_id":"4","last_reported":1702991358,"current_range_meters":16000,"station_id":"ce4bha12rcd13ifvqee0","pricing_plan_id":"free"},{"bike_id":"5f6c0259-732e-4ce9-95a1-0674d644b40b","system_id":"levelo_inurba_marseille","lat":43.296263,"lon":5.40601,"is_reserved":false,"is_disabled":false,"rental_uris":{"android":"levelo://app?vid=5f6c0259-732e-4ce9-95a1-0674d644b40b","ios":"levelo://app?vid=5f6c0259-732e-4ce9-95a1-0674d644b40b"},"vehicle_type_id":"4","last_reported":1702991358,"current_range_meters":15200,"station_id":"ce4bh0h2rcd13ifvqd60","pricing_plan_id":"free"},{"bike_id":"d0884f12-71bc-4a20-86aa-cacf7145ba7b","system_id":"levelo_inurba_marseille","lat":43.28433,"lon":5.39196,"is_reserved":false,"is_disabled":false,"rental_uris":{"android":"levelo://app?vid=d0884f12-71bc-4a20-86aa-cacf7145ba7b","ios":"levelo://app?vid=d0884f12-71bc-4a20-86aa-cacf7145ba7b"},"vehicle_type_id":"4","last_reported":1702991358,"current_range_meters":26800,"station_id":"ce4bhoh2rcd13ifvqh5g","pricing_plan_id":"free"},{"bike_id":"c2fb944a-f700-4248-bcb3-4a2a91272089","system_id":"levelo_inurba_marseille","lat":43.326605,"lon":5.409903,"is_reserved":false,"is_disabled":false,"rental_uris":{"android":"levelo://app?vid=c2fb944a-f700-4248-bcb3-4a2a91272089","ios":"levelo://app?vid=c2fb944a-f700-4248-bcb3-4a2a91272089"},"vehicle_type_id":"4","last_reported":1702991358,"current_range_meters":25600,"station_id":"ce4bhpp2rcd13ifvqhgg","pricing_plan_id":"free"},{"bike_id":"8b433efa-9e2a-440c-b054-2b5b50ff748f","system_id":"levelo_inurba_marseille","lat":43.279087,"lon":5.380114,"is_reserved":false,"is_disabled":false,"rental_uris":{"android":"levelo://app?vid=8b433efa-9e2a-440c-b054-2b5b50ff748f","ios":"levelo://app?vid=8b433efa-9e2a-440c-b054-2b5b50ff748f"},"vehicle_type_id":"4","last_reported":1702991358,"current_range_meters":30800,"station_id":"ce4bhf92rcd13ifvqf50","pricing_plan_id":"free"},{"bike_id":"40c8cc61-1e7b-4386-9f31-35f2c212180b","system_id":"levelo_inurba_marseille","lat":43.279087,"lon":5.380114,"is_reserved":false,"is_disabled":false,"rental_uris":{"android":"levelo://app?vid=40c8cc61-1e7b-4386-9f31-35f2c212180b","ios":"levelo://app?vid=40c8cc61-1e7b-4386-9f31-35f2c212180b"},"vehicle_type_id":"4","last_reported":1702991358,"current_range_meters":24400,"station_id":"ce4bhf92rcd13ifvqf50","pricing_plan_id":"free"},{"bike_id":"1b2798d9-8ed3-4921-9c45-aa1565b3a176","system_id":"levelo_inurba_marseille","lat":43.287154,"lon":5.399979,"is_reserved":false,"is_disabled":false,"rental_uris":{"android":"levelo://app?vid=1b2798d9-8ed3-4921-9c45-aa1565b3a176","ios":"levelo://app?vid=1b2798d9-8ed3-4921-9c45-aa1565b3a176"},"vehicle_type_id":"4","last_reported":1702991358,"current_range_meters":9200,"station_id":"ce4bho92rcd13ifvqh3g","pricing_plan_id":"free"},{"bike_id":"f8241e31-c249-4d2c-97b8-6e6043d7a053","system_id":"levelo_inurba_marseille","lat":43.287154,"lon":5.399979,"is_reserved":false,"is_disabled":false,"rental_uris":{"android":"levelo://app?vid=f8241e31-c249-4d2c-97b8-6e6043d7a053","ios":"levelo://app?vid=f8241e31-c249-4d2c-97b8-6e6043d7a053"},"vehicle_type_id":"4","last_reported":1702991358,"current_range_meters":8400,"station_id":"ce4bho92rcd13ifvqh3g","pricing_plan_id":"free"},{"bike_id":"cb0668d4-d46c-4efe-a7e0-185ebe495ab4","system_id":"levelo_inurba_marseille","lat":43.28055,"lon":5.389263,"is_reserved":false,"is_disabled":false,"rental_uris":{"android":"levelo://app?vid=cb0668d4-d46c-4efe-a7e0-185ebe495ab4","ios":"levelo://app?vid=cb0668d4-d46c-4efe-a7e0-185ebe495ab4"},"vehicle_type_id":"4","last_reported":1702991358,"current_range_meters":12400,"station_id":"","pricing_plan_id":"free"},{"bike_id":"4f31e2e8-76e1-43ba-91c9-700f66889563","system_id":"levelo_inurba_marseille","lat":43.279742,"lon":5.38744,"is_reserved":false,"is_disabled":false,"rental_uris":{"android":"levelo://app?vid=4f31e2e8-76e1-43ba-91c9-700f66889563","ios":"levelo://app?vid=4f31e2e8-76e1-43ba-91c9-700f66889563"},"vehicle_type_id":"4","last_reported":1702991358,"current_range_meters":19600,"station_id":"ce4bhg12rcd13ifvqf80","pricing_plan_id":"free"},{"bike_id":"1835fe76-0be9-4191-b05c-64510f821282","system_id":"levelo_inurba_marseille","lat":43.303837,"lon":5.418724,"is_reserved":false,"is_disabled":false,"rental_uris":{"android":"levelo://app?vid=1835fe76-0be9-4191-b05c-64510f821282","ios":"levelo://app?vid=1835fe76-0be9-4191-b05c-64510f821282"},"vehicle_type_id":"4","last_reported":1702991358,"current_range_meters":25200,"station_id":"ce4bhop2rcd13ifvqh7g","pricing_plan_id":"free"},{"bike_id":"8f472ae6-d7a2-4ffe-984d-bc6821ab101d","system_id":"levelo_inurba_marseille","lat":43.325243,"lon":5.414326,"is_reserved":false,"is_disabled":false,"rental_uris":{"android":"levelo://app?vid=8f472ae6-d7a2-4ffe-984d-bc6821ab101d","ios":"levelo://app?vid=8f472ae6-d7a2-4ffe-984d-bc6821ab101d"},"vehicle_type_id":"4","last_reported":1702991358,"current_range_meters":28800,"station_id":"ce4bhq12rcd13ifvqhhg","pricing_plan_id":"free"},{"bike_id":"bdec3685-3e7c-43e5-9a07-26a2ada5ac26","system_id":"levelo_inurba_marseille","lat":43.325383,"lon":5.414306,"is_reserved":false,"is_disabled":false,"rental_uris":{"android":"levelo://app?vid=bdec3685-3e7c-43e5-9a07-26a2ada5ac26","ios":"levelo://app?vid=bdec3685-3e7c-43e5-9a07-26a2ada5ac26"},"vehicle_type_id":"4","last_reported":1702991358,"current_range_meters":18000,"station_id":"ce4bhq12rcd13ifvqhhg","pricing_plan_id":"free"},{"bike_id":"91ddb42c-2452-47e4-8249-b1b2ba74f01f","system_id":"levelo_inurba_marseille","lat":43.292571,"lon":5.409107,"is_reserved":false,"is_disabled":false,"rental_uris":{"android":"levelo://app?vid=91ddb42c-2452-47e4-8249-b1b2ba74f01f","ios":"levelo://app?vid=91ddb42c-2452-47e4-8249-b1b2ba74f01f"},"vehicle_type_id":"4","last_reported":1702991358,"current_range_meters":17200,"station_id":"ce4bh192rcd13ifvqdc0","pricing_plan_id":"free"},{"bike_id":"27036c87-a858-4b77-aede-88f4be208859","system_id":"levelo_inurba_marseille","lat":43.292569,"lon":5.409107,"is_reserved":false,"is_disabled":false,"rental_uris":{"android":"levelo://app?vid=27036c87-a858-4b77-aede-88f4be208859","ios":"levelo://app?vid=27036c87-a858-4b77-aede-88f4be208859"},"vehicle_type_id":"4","last_reported":1702991358,"current_range_meters":28000,"station_id":"ce4bh192rcd13ifvqdc0","pricing_plan_id":"free"},{"bike_id":"e671f877-1555-4986-b679-38a8083c4d95","system_id":"levelo_inurba_marseille","lat":43.325233,"lon":5.414318,"is_reserved":false,"is_disabled":false,"rental_uris":{"android":"levelo://app?vid=e671f877-1555-4986-b679-38a8083c4d95","ios":"levelo://app?vid=e671f877-1555-4986-b679-38a8083c4d95"},"vehicle_type_id":"4","last_reported":1702991358,"current_range_meters":10400,"station_id":"ce4bhq12rcd13ifvqhhg","pricing_plan_id":"free"},{"bike_id":"b73b1dc9-66f1-4f8b-9dc1-65b99e7137a5","system_id":"levelo_inurba_marseille","lat":43.325233,"lon":5.414318,"is_reserved":false,"is_disabled":false,"rental_uris":{"android":"levelo://app?vid=b73b1dc9-66f1-4f8b-9dc1-65b99e7137a5","ios":"levelo://app?vid=b73b1dc9-66f1-4f8b-9dc1-65b99e7137a5"},"vehicle_type_id":"4","last_reported":1702991358,"current_range_meters":31600,"station_id":"ce4bhq12rcd13ifvqhhg","pricing_plan_id":"free"},{"bike_id":"40686c10-84a4-405a-9cd7-375127e2b02d","system_id":"levelo_inurba_marseille","lat":43.325233,"lon":5.414318,"is_reserved":false,"is_disabled":false,"rental_uris":{"android":"levelo://app?vid=40686c10-84a4-405a-9cd7-375127e2b02d","ios":"levelo://app?vid=40686c10-84a4-405a-9cd7-375127e2b02d"},"vehicle_type_id":"4","last_reported":1702991358,"current_range_meters":23600,"station_id":"ce4bhq12rcd13ifvqhhg","pricing_plan_id":"free"},{"bike_id":"28d01513-5ba1-4aa3-8b9b-9c005827d108","system_id":"levelo_inurba_marseille","lat":43.276179,"lon":5.361009,"is_reserved":false,"is_disabled":false,"rental_uris":{"android":"levelo://app?vid=28d01513-5ba1-4aa3-8b9b-9c005827d108","ios":"levelo://app?vid=28d01513-5ba1-4aa3-8b9b-9c005827d108"},"vehicle_type_id":"4","last_reported":1702991358,"current_range_meters":31200,"station_id":"ce4bgj92rcd13ifvqbe0","pricing_plan_id":"free"},{"bike_id":"515f769e-2e59-42b6-9eb0-2430d5764e18","system_id":"levelo_inurba_marseille","lat":43.276179,"lon":5.361009,"is_reserved":false,"is_disabled":false,"rental_uris":{"android":"levelo://app?vid=515f769e-2e59-42b6-9eb0-2430d5764e18","ios":"levelo://app?vid=515f769e-2e59-42b6-9eb0-2430d5764e18"},"vehicle_type_id":"4","last_reported":1702991358,"current_range_meters":22000,"station_id":"ce4bgj92rcd13ifvqbe0","pricing_plan_id":"free"},{"bike_id":"5b65099a-813a-49e7-a309-6e1e0570963f","system_id":"levelo_inurba_marseille","lat":43.280784,"lon":5.396622,"is_reserved":false,"is_disabled":false,"rental_uris":{"android":"levelo://app?vid=5b65099a-813a-49e7-a309-6e1e0570963f","ios":"levelo://app?vid=5b65099a-813a-49e7-a309-6e1e0570963f"},"vehicle_type_id":"4","last_reported":1702991358,"current_range_meters":31200,"station_id":"ce4bho12rcd13ifvqh2g","pricing_plan_id":"free"},{"bike_id":"a63a9a8c-d8f2-4ab6-af75-824df4a268f7","system_id":"levelo_inurba_marseille","lat":43.303837,"lon":5.418724,"is_reserved":false,"is_disabled":false,"rental_uris":{"android":"levelo://app?vid=a63a9a8c-d8f2-4ab6-af75-824df4a268f7","ios":"levelo://app?vid=a63a9a8c-d8f2-4ab6-af75-824df4a268f7"},"vehicle_type_id":"4","last_reported":1702991358,"current_range_meters":6000,"station_id":"ce4bhop2rcd13ifvqh7g","pricing_plan_id":"free"},{"bike_id":"b6498581-bdca-4f9e-a518-c75e351f2e68","system_id":"levelo_inurba_marseille","lat":43.273613,"lon":5.362705,"is_reserved":false,"is_disabled":false,"rental_uris":{"android":"levelo://app?vid=b6498581-bdca-4f9e-a518-c75e351f2e68","ios":"levelo://app?vid=b6498581-bdca-4f9e-a518-c75e351f2e68"},"vehicle_type_id":"4","last_reported":1702991358,"current_range_meters":30800,"station_id":"ce4bhbh2rcd13ifvqeo0","pricing_plan_id":"free"},{"bike_id":"b3eaa62a-1f61-4693-b327-8aea5afe4b05","system_id":"levelo_inurba_marseille","lat":43.273613,"lon":5.362705,"is_reserved":false,"is_disabled":false,"rental_uris":{"android":"levelo://app?vid=b3eaa62a-1f61-4693-b327-8aea5afe4b05","ios":"levelo://app?vid=b3eaa62a-1f61-4693-b327-8aea5afe4b05"},"vehicle_type_id":"4","last_reported":1702991358,"current_range_meters":31200,"station_id":"ce4bhbh2rcd13ifvqeo0","pricing_plan_id":"free"},{"bike_id":"17cdfe70-35df-4ec3-9250-83e8d3197aa8","system_id":"levelo_inurba_marseille","lat":43.273613,"lon":5.362705,"is_reserved":false,"is_disabled":false,"rental_uris":{"android":"levelo://app?vid=17cdfe70-35df-4ec3-9250-83e8d3197aa8","ios":"levelo://app?vid=17cdfe70-35df-4ec3-9250-83e8d3197aa8"},"vehicle_type_id":"4","last_reported":1702991358,"current_range_meters":19200,"station_id":"ce4bhbh2rcd13ifvqeo0","pricing_plan_id":"free"},{"bike_id":"15f826d3-ae76-4fba-968e-b76953699e67","system_id":"levelo_inurba_marseille","lat":43.275625,"lon":5.384392,"is_reserved":false,"is_disabled":false,"rental_uris":{"android":"levelo://app?vid=15f826d3-ae76-4fba-968e-b76953699e67","ios":"levelo://app?vid=15f826d3-ae76-4fba-968e-b76953699e67"},"vehicle_type_id":"4","last_reported":1702991358,"current_range_meters":30400,"station_id":"ce4bhh92rcd13ifvqfi0","pricing_plan_id":"free"},{"bike_id":"cefa3127-bfdf-4d81-8414-8a3deb3f6e18","system_id":"levelo_inurba_marseille","lat":43.273613,"lon":5.362705,"is_reserved":false,"is_disabled":false,"rental_uris":{"android":"levelo://app?vid=cefa3127-bfdf-4d81-8414-8a3deb3f6e18","ios":"levelo://app?vid=cefa3127-bfdf-4d81-8414-8a3deb3f6e18"},"vehicle_type_id":"4","last_reported":1702991358,"current_range_meters":31600,"station_id":"ce4bhbh2rcd13ifvqeo0","pricing_plan_id":"free"},{"bike_id":"d57e72f9-0e61-44ce-8419-5eac27f16a62","system_id":"levelo_inurba_marseille","lat":43.276769,"lon":5.388787,"is_reserved":false,"is_disabled":false,"rental_uris":{"android":"levelo://app?vid=d57e72f9-0e61-44ce-8419-5eac27f16a62","ios":"levelo://app?vid=d57e72f9-0e61-44ce-8419-5eac27f16a62"},"vehicle_type_id":"4","last_reported":1702991358,"current_range_meters":22400,"station_id":"ce4bhi12rcd13ifvqfo0","pricing_plan_id":"free"},{"bike_id":"e6856b7c-5450-471a-9f7e-94a6480f1771","system_id":"levelo_inurba_marseille","lat":43.276771,"lon":5.388799,"is_reserved":false,"is_disabled":false,"rental_uris":{"android":"levelo://app?vid=e6856b7c-5450-471a-9f7e-94a6480f1771","ios":"levelo://app?vid=e6856b7c-5450-471a-9f7e-94a6480f1771"},"vehicle_type_id":"4","last_reported":1702991358,"current_range_meters":12400,"station_id":"ce4bhi12rcd13ifvqfo0","pricing_plan_id":"free"},{"bike_id":"94caef83-52d6-479b-b617-82a8de5de65c","system_id":"levelo_inurba_marseille","lat":43.279975,"lon":5.40009,"is_reserved":false,"is_disabled":false,"rental_uris":{"android":"levelo://app?vid=94caef83-52d6-479b-b617-82a8de5de65c","ios":"levelo://app?vid=94caef83-52d6-479b-b617-82a8de5de65c"},"vehicle_type_id":"4","last_reported":1702991358,"current_range_meters":24800,"station_id":"ce4bho92rcd13ifvqh4g","pricing_plan_id":"free"},{"bike_id":"84561153-a8ae-4223-b8b0-3797567fb9b5","system_id":"levelo_inurba_marseille","lat":43.310785,"lon":5.424305,"is_reserved":false,"is_disabled":false,"rental_uris":{"android":"levelo://app?vid=84561153-a8ae-4223-b8b0-3797567fb9b5","ios":"levelo://app?vid=84561153-a8ae-4223-b8b0-3797567fb9b5"},"vehicle_type_id":"4","last_reported":1702991358,"current_range_meters":21600,"station_id":"ce4bhp92rcd13ifvqhag","pricing_plan_id":"free"},{"bike_id":"dcabf257-f11b-4907-b200-68471ff6fce9","system_id":"levelo_inurba_marseille","lat":43.340804,"lon":5.410219,"is_reserved":false,"is_disabled":false,"rental_uris":{"android":"levelo://app?vid=dcabf257-f11b-4907-b200-68471ff6fce9","ios":"levelo://app?vid=dcabf257-f11b-4907-b200-68471ff6fce9"},"vehicle_type_id":"4","last_reported":1702991358,"current_range_meters":26000,"station_id":"ce4bhqh2rcd13ifvqhlg","pricing_plan_id":"free"},{"bike_id":"974dc7db-ff3c-4554-8964-132f9db52d9b","system_id":"levelo_inurba_marseille","lat":43.276092,"lon":5.395289,"is_reserved":false,"is_disabled":false,"rental_uris":{"android":"levelo://app?vid=974dc7db-ff3c-4554-8964-132f9db52d9b","ios":"levelo://app?vid=974dc7db-ff3c-4554-8964-132f9db52d9b"},"vehicle_type_id":"4","last_reported":1702991358,"current_range_meters":7200,"station_id":"","pricing_plan_id":"free"},{"bike_id":"e4d4f5a3-2a7c-4e8b-ab3e-6c72252ba345","system_id":"levelo_inurba_marseille","lat":43.273125,"lon":5.390731,"is_reserved":false,"is_disabled":false,"rental_uris":{"android":"levelo://app?vid=e4d4f5a3-2a7c-4e8b-ab3e-6c72252ba345","ios":"levelo://app?vid=e4d4f5a3-2a7c-4e8b-ab3e-6c72252ba345"},"vehicle_type_id":"4","last_reported":1702991358,"current_range_meters":9200,"station_id":"ce4bhgp2rcd13ifvqfe0","pricing_plan_id":"free"},{"bike_id":"9b2ebb1c-0d1c-4f0d-8ad4-327a3964a4b5","system_id":"levelo_inurba_marseille","lat":43.273129,"lon":5.390725,"is_reserved":false,"is_disabled":false,"rental_uris":{"android":"levelo://app?vid=9b2ebb1c-0d1c-4f0d-8ad4-327a3964a4b5","ios":"levelo://app?vid=9b2ebb1c-0d1c-4f0d-8ad4-327a3964a4b5"},"vehicle_type_id":"4","last_reported":1702991358,"current_range_meters":4000,"station_id":"ce4bhgp2rcd13ifvqfe0","pricing_plan_id":"free"},{"bike_id":"e056d5ef-7bc9-47f9-8d7d-d79261ce5333","system_id":"levelo_inurba_marseille","lat":43.304096,"lon":5.425385,"is_reserved":false,"is_disabled":false,"rental_uris":{"android":"levelo://app?vid=e056d5ef-7bc9-47f9-8d7d-d79261ce5333","ios":"levelo://app?vid=e056d5ef-7bc9-47f9-8d7d-d79261ce5333"},"vehicle_type_id":"4","last_reported":1702991358,"current_range_meters":23600,"station_id":"ce4bhoh2rcd13ifvqh6g","pricing_plan_id":"free"},{"bike_id":"6542aed4-75b9-46f5-b187-1cc094614630","system_id":"levelo_inurba_marseille","lat":43.30416,"lon":5.425383,"is_reserved":false,"is_disabled":false,"rental_uris":{"android":"levelo://app?vid=6542aed4-75b9-46f5-b187-1cc094614630","ios":"levelo://app?vid=6542aed4-75b9-46f5-b187-1cc094614630"},"vehicle_type_id":"4","last_reported":1702991358,"current_range_meters":0,"station_id":"","pricing_plan_id":"free"},{"bike_id":"0c64b054-d16b-4184-a0d9-97b7fdc4bc96","system_id":"levelo_inurba_marseille","lat":43.304096,"lon":5.425385,"is_reserved":false,"is_disabled":false,"rental_uris":{"android":"levelo://app?vid=0c64b054-d16b-4184-a0d9-97b7fdc4bc96","ios":"levelo://app?vid=0c64b054-d16b-4184-a0d9-97b7fdc4bc96"},"vehicle_type_id":"4","last_reported":1702991358,"current_range_meters":29200,"station_id":"ce4bhoh2rcd13ifvqh6g","pricing_plan_id":"free"},{"bike_id":"cba248b0-f7de-4610-ae71-801a42bf5c59","system_id":"levelo_inurba_marseille","lat":43.304096,"lon":5.425385,"is_reserved":false,"is_disabled":false,"rental_uris":{"android":"levelo://app?vid=cba248b0-f7de-4610-ae71-801a42bf5c59","ios":"levelo://app?vid=cba248b0-f7de-4610-ae71-801a42bf5c59"},"vehicle_type_id":"4","last_reported":1702991358,"current_range_meters":20400,"station_id":"ce4bhoh2rcd13ifvqh6g","pricing_plan_id":"free"},{"bike_id":"3cfccba8-f3c6-422f-bec0-1d7a4825ad24","system_id":"levelo_inurba_marseille","lat":43.304096,"lon":5.425385,"is_reserved":false,"is_disabled":false,"rental_uris":{"android":"levelo://app?vid=3cfccba8-f3c6-422f-bec0-1d7a4825ad24","ios":"levelo://app?vid=3cfccba8-f3c6-422f-bec0-1d7a4825ad24"},"vehicle_type_id":"4","last_reported":1702991358,"current_range_meters":30000,"station_id":"ce4bhoh2rcd13ifvqh6g","pricing_plan_id":"free"},{"bike_id":"f0d927f9-4d81-4a61-9e75-257d4a0281cb","system_id":"levelo_inurba_marseille","lat":43.295524,"lon":5.422769,"is_reserved":false,"is_disabled":false,"rental_uris":{"android":"levelo://app?vid=f0d927f9-4d81-4a61-9e75-257d4a0281cb","ios":"levelo://app?vid=f0d927f9-4d81-4a61-9e75-257d4a0281cb"},"vehicle_type_id":"4","last_reported":1702991358,"current_range_meters":23200,"station_id":"ce4bhph2rcd13ifvqhdg","pricing_plan_id":"free"},{"bike_id":"b52ed3b8-5e6b-469c-9a28-752d38c3f626","system_id":"levelo_inurba_marseille","lat":43.295523,"lon":5.422926,"is_reserved":false,"is_disabled":false,"rental_uris":{"android":"levelo://app?vid=b52ed3b8-5e6b-469c-9a28-752d38c3f626","ios":"levelo://app?vid=b52ed3b8-5e6b-469c-9a28-752d38c3f626"},"vehicle_type_id":"4","last_reported":1702991358,"current_range_meters":30000,"station_id":"ce4bhph2rcd13ifvqhdg","pricing_plan_id":"free"},{"bike_id":"ca314493-3848-477b-95b3-e1722a7aef04","system_id":"levelo_inurba_marseille","lat":43.295169,"lon":5.422658,"is_reserved":false,"is_disabled":false,"rental_uris":{"android":"levelo://app?vid=ca314493-3848-477b-95b3-e1722a7aef04","ios":"levelo://app?vid=ca314493-3848-477b-95b3-e1722a7aef04"},"vehicle_type_id":"4","last_reported":1702991358,"current_range_meters":16000,"station_id":"ce4bhph2rcd13ifvqhdg","pricing_plan_id":"free"},{"bike_id":"1aaeade2-16f7-4c2d-b598-dfecd6c04985","system_id":"levelo_inurba_marseille","lat":43.295511,"lon":5.422871,"is_reserved":false,"is_disabled":false,"rental_uris":{"android":"levelo://app?vid=1aaeade2-16f7-4c2d-b598-dfecd6c04985","ios":"levelo://app?vid=1aaeade2-16f7-4c2d-b598-dfecd6c04985"},"vehicle_type_id":"4","last_reported":1702991358,"current_range_meters":19200,"station_id":"ce4bhph2rcd13ifvqhdg","pricing_plan_id":"free"},{"bike_id":"f4189273-862e-426e-9a94-d3926cf17be2","system_id":"levelo_inurba_marseille","lat":43.278128,"lon":5.407195,"is_reserved":false,"is_disabled":false,"rental_uris":{"android":"levelo://app?vid=f4189273-862e-426e-9a94-d3926cf17be2","ios":"levelo://app?vid=f4189273-862e-426e-9a94-d3926cf17be2"},"vehicle_type_id":"4","last_reported":1702991358,"current_range_meters":19200,"station_id":"ce4bhnh2rcd13ifvqgtg","pricing_plan_id":"free"},{"bike_id":"9516b638-b510-4b7a-900d-e7b8c20d2532","system_id":"levelo_inurba_marseille","lat":43.269467,"lon":5.386439,"is_reserved":false,"is_disabled":false,"rental_uris":{"android":"levelo://app?vid=9516b638-b510-4b7a-900d-e7b8c20d2532","ios":"levelo://app?vid=9516b638-b510-4b7a-900d-e7b8c20d2532"},"vehicle_type_id":"4","last_reported":1702991358,"current_range_meters":31200,"station_id":"ce4bhh92rcd13ifvqfh0","pricing_plan_id":"free"},{"bike_id":"a8246e0b-77ae-4381-b0b4-6f31eced4fb3","system_id":"levelo_inurba_marseille","lat":43.269467,"lon":5.386439,"is_reserved":false,"is_disabled":false,"rental_uris":{"android":"levelo://app?vid=a8246e0b-77ae-4381-b0b4-6f31eced4fb3","ios":"levelo://app?vid=a8246e0b-77ae-4381-b0b4-6f31eced4fb3"},"vehicle_type_id":"4","last_reported":1702991358,"current_range_meters":25600,"station_id":"ce4bhh92rcd13ifvqfh0","pricing_plan_id":"free"},{"bike_id":"3c799b4a-34d2-4a91-a4fe-05bd8c0c0236","system_id":"levelo_inurba_marseille","lat":43.269467,"lon":5.386439,"is_reserved":false,"is_disabled":false,"rental_uris":{"android":"levelo://app?vid=3c799b4a-34d2-4a91-a4fe-05bd8c0c0236","ios":"levelo://app?vid=3c799b4a-34d2-4a91-a4fe-05bd8c0c0236"},"vehicle_type_id":"4","last_reported":1702991358,"current_range_meters":30000,"station_id":"ce4bhh92rcd13ifvqfh0","pricing_plan_id":"free"},{"bike_id":"02b1d3f0-c498-44d6-93a0-0a038898d815","system_id":"levelo_inurba_marseille","lat":43.26681,"lon":5.382694,"is_reserved":false,"is_disabled":false,"rental_uris":{"android":"levelo://app?vid=02b1d3f0-c498-44d6-93a0-0a038898d815","ios":"levelo://app?vid=02b1d3f0-c498-44d6-93a0-0a038898d815"},"vehicle_type_id":"4","last_reported":1702991358,"current_range_meters":31200,"station_id":"ce4bhg92rcd13ifvqf90","pricing_plan_id":"free"},{"bike_id":"4332ea30-0649-4a88-a8f9-46d7928b6f43","system_id":"levelo_inurba_marseille","lat":43.26681,"lon":5.382694,"is_reserved":false,"is_disabled":false,"rental_uris":{"android":"levelo://app?vid=4332ea30-0649-4a88-a8f9-46d7928b6f43","ios":"levelo://app?vid=4332ea30-0649-4a88-a8f9-46d7928b6f43"},"vehicle_type_id":"4","last_reported":1702991358,"current_range_meters":31600,"station_id":"ce4bhg92rcd13ifvqf90","pricing_plan_id":"free"},{"bike_id":"b14c10a9-5c53-45e3-b347-a8126550dcac","system_id":"levelo_inurba_marseille","lat":43.26681,"lon":5.382694,"is_reserved":false,"is_disabled":false,"rental_uris":{"android":"levelo://app?vid=b14c10a9-5c53-45e3-b347-a8126550dcac","ios":"levelo://app?vid=b14c10a9-5c53-45e3-b347-a8126550dcac"},"vehicle_type_id":"4","last_reported":1702991358,"current_range_meters":26000,"station_id":"ce4bhg92rcd13ifvqf90","pricing_plan_id":"free"},{"bike_id":"ac8d2520-91cc-4adc-97cd-0b51dabb02dc","system_id":"levelo_inurba_marseille","lat":43.265714,"lon":5.372891,"is_reserved":false,"is_disabled":false,"rental_uris":{"android":"levelo://app?vid=ac8d2520-91cc-4adc-97cd-0b51dabb02dc","ios":"levelo://app?vid=ac8d2520-91cc-4adc-97cd-0b51dabb02dc"},"vehicle_type_id":"4","last_reported":1702991358,"current_range_meters":16000,"station_id":"ce4bhg12rcd13ifvqf70","pricing_plan_id":"free"},{"bike_id":"0581642b-cb83-42ba-8b5f-432d2f96ccf4","system_id":"levelo_inurba_marseille","lat":43.27996,"lon":5.416624,"is_reserved":false,"is_disabled":false,"rental_uris":{"android":"levelo://app?vid=0581642b-cb83-42ba-8b5f-432d2f96ccf4","ios":"levelo://app?vid=0581642b-cb83-42ba-8b5f-432d2f96ccf4"},"vehicle_type_id":"4","last_reported":1702991358,"current_range_meters":400,"station_id":"ce4bho12rcd13ifvqh1g","pricing_plan_id":"free"},{"bike_id":"550e611b-4dac-4b28-9b1b-f33ffb133e47","system_id":"levelo_inurba_marseille","lat":43.265714,"lon":5.372891,"is_reserved":false,"is_disabled":false,"rental_uris":{"android":"levelo://app?vid=550e611b-4dac-4b28-9b1b-f33ffb133e47","ios":"levelo://app?vid=550e611b-4dac-4b28-9b1b-f33ffb133e47"},"vehicle_type_id":"4","last_reported":1702991358,"current_range_meters":28800,"station_id":"ce4bhg12rcd13ifvqf70","pricing_plan_id":"free"},{"bike_id":"d83d4560-bdc1-43c7-9304-2adf7780ee19","system_id":"levelo_inurba_marseille","lat":43.267966,"lon":5.393976,"is_reserved":false,"is_disabled":false,"rental_uris":{"android":"levelo://app?vid=d83d4560-bdc1-43c7-9304-2adf7780ee19","ios":"levelo://app?vid=d83d4560-bdc1-43c7-9304-2adf7780ee19"},"vehicle_type_id":"4","last_reported":1702991358,"current_range_meters":15600,"station_id":"ce4bhh12rcd13ifvqfg0","pricing_plan_id":"free"},{"bike_id":"dad568ae-23e4-4725-8ecd-7f066ec0b4ec","system_id":"levelo_inurba_marseille","lat":43.267966,"lon":5.393976,"is_reserved":false,"is_disabled":false,"rental_uris":{"android":"levelo://app?vid=dad568ae-23e4-4725-8ecd-7f066ec0b4ec","ios":"levelo://app?vid=dad568ae-23e4-4725-8ecd-7f066ec0b4ec"},"vehicle_type_id":"4","last_reported":1702991358,"current_range_meters":21200,"station_id":"ce4bhh12rcd13ifvqfg0","pricing_plan_id":"free"},{"bike_id":"b66b4b5c-cb91-459d-a193-ef981ae9fcc3","system_id":"levelo_inurba_marseille","lat":43.265569,"lon":5.390047,"is_reserved":false,"is_disabled":false,"rental_uris":{"android":"levelo://app?vid=b66b4b5c-cb91-459d-a193-ef981ae9fcc3","ios":"levelo://app?vid=b66b4b5c-cb91-459d-a193-ef981ae9fcc3"},"vehicle_type_id":"4","last_reported":1702991358,"current_range_meters":22000,"station_id":"ce4bhe12rcd13ifvqf30","pricing_plan_id":"free"},{"bike_id":"edeb0ef8-e2ec-42f9-9e84-6592b281e3db","system_id":"levelo_inurba_marseille","lat":43.26949,"lon":5.40262,"is_reserved":false,"is_disabled":false,"rental_uris":{"android":"levelo://app?vid=edeb0ef8-e2ec-42f9-9e84-6592b281e3db","ios":"levelo://app?vid=edeb0ef8-e2ec-42f9-9e84-6592b281e3db"},"vehicle_type_id":"4","last_reported":1702991358,"current_range_meters":17200,"station_id":"cjm6bp8fraef2m0cb0m0","pricing_plan_id":"free"},{"bike_id":"7cd01c5d-a4b4-47d2-a9be-31dd0049aea8","system_id":"levelo_inurba_marseille","lat":43.26949,"lon":5.40262,"is_reserved":false,"is_disabled":false,"rental_uris":{"android":"levelo://app?vid=7cd01c5d-a4b4-47d2-a9be-31dd0049aea8","ios":"levelo://app?vid=7cd01c5d-a4b4-47d2-a9be-31dd0049aea8"},"vehicle_type_id":"4","last_reported":1702991358,"current_range_meters":17200,"station_id":"cjm6bp8fraef2m0cb0m0","pricing_plan_id":"free"},{"bike_id":"2a9a9fb5-0da2-4ea1-b25f-2900b975bc62","system_id":"levelo_inurba_marseille","lat":43.261782,"lon":5.374515,"is_reserved":false,"is_disabled":false,"rental_uris":{"android":"levelo://app?vid=2a9a9fb5-0da2-4ea1-b25f-2900b975bc62","ios":"levelo://app?vid=2a9a9fb5-0da2-4ea1-b25f-2900b975bc62"},"vehicle_type_id":"4","last_reported":1702991358,"current_range_meters":26400,"station_id":"ce4bhgp2rcd13ifvqfc0","pricing_plan_id":"free"},{"bike_id":"80910aa8-0b36-46c5-b32e-6fd4fcf175d5","system_id":"levelo_inurba_marseille","lat":43.261782,"lon":5.374515,"is_reserved":false,"is_disabled":false,"rental_uris":{"android":"levelo://app?vid=80910aa8-0b36-46c5-b32e-6fd4fcf175d5","ios":"levelo://app?vid=80910aa8-0b36-46c5-b32e-6fd4fcf175d5"},"vehicle_type_id":"4","last_reported":1702991358,"current_range_meters":31600,"station_id":"ce4bhgp2rcd13ifvqfc0","pricing_plan_id":"free"},{"bike_id":"af773fba-0514-4085-aaa6-9a24022684ec","system_id":"levelo_inurba_marseille","lat":43.271388,"lon":5.409269,"is_reserved":false,"is_disabled":false,"rental_uris":{"android":"levelo://app?vid=af773fba-0514-4085-aaa6-9a24022684ec","ios":"levelo://app?vid=af773fba-0514-4085-aaa6-9a24022684ec"},"vehicle_type_id":"4","last_reported":1702991358,"current_range_meters":31200,"station_id":"ce4bhl12rcd13ifvqgf0","pricing_plan_id":"free"},{"bike_id":"9545216d-af81-4cd5-aa01-549e07cee63d","system_id":"levelo_inurba_marseille","lat":43.260225,"lon":5.375455,"is_reserved":false,"is_disabled":false,"rental_uris":{"android":"levelo://app?vid=9545216d-af81-4cd5-aa01-549e07cee63d","ios":"levelo://app?vid=9545216d-af81-4cd5-aa01-549e07cee63d"},"vehicle_type_id":"4","last_reported":1702991358,"current_range_meters":31600,"station_id":"ce4bhgh2rcd13ifvqfa0","pricing_plan_id":"free"},{"bike_id":"473ad542-d152-44a0-8b05-a545ac18d3ff","system_id":"levelo_inurba_marseille","lat":43.260219,"lon":5.37546,"is_reserved":false,"is_disabled":false,"rental_uris":{"android":"levelo://app?vid=473ad542-d152-44a0-8b05-a545ac18d3ff","ios":"levelo://app?vid=473ad542-d152-44a0-8b05-a545ac18d3ff"},"vehicle_type_id":"4","last_reported":1702991358,"current_range_meters":30800,"station_id":"ce4bhgh2rcd13ifvqfa0","pricing_plan_id":"free"},{"bike_id":"06c02f3d-de9c-4824-93fb-b378ec59d0fb","system_id":"levelo_inurba_marseille","lat":43.260219,"lon":5.37546,"is_reserved":false,"is_disabled":false,"rental_uris":{"android":"levelo://app?vid=06c02f3d-de9c-4824-93fb-b378ec59d0fb","ios":"levelo://app?vid=06c02f3d-de9c-4824-93fb-b378ec59d0fb"},"vehicle_type_id":"4","last_reported":1702991358,"current_range_meters":10400,"station_id":"ce4bhgh2rcd13ifvqfa0","pricing_plan_id":"free"},{"bike_id":"bed4464d-91c8-4a72-930e-d8ca8ee11286","system_id":"levelo_inurba_marseille","lat":43.281548,"lon":5.42643,"is_reserved":false,"is_disabled":false,"rental_uris":{"android":"levelo://app?vid=bed4464d-91c8-4a72-930e-d8ca8ee11286","ios":"levelo://app?vid=bed4464d-91c8-4a72-930e-d8ca8ee11286"},"vehicle_type_id":"4","last_reported":1702991358,"current_range_meters":30000,"station_id":"ce4bhnh2rcd13ifvqgug","pricing_plan_id":"free"},{"bike_id":"0ac78daa-80e0-4da7-9421-091ef36057c7","system_id":"levelo_inurba_marseille","lat":43.27497,"lon":5.42449,"is_reserved":false,"is_disabled":false,"rental_uris":{"android":"levelo://app?vid=0ac78daa-80e0-4da7-9421-091ef36057c7","ios":"levelo://app?vid=0ac78daa-80e0-4da7-9421-091ef36057c7"},"vehicle_type_id":"4","last_reported":1702991358,"current_range_meters":20000,"station_id":"ce4bhn92rcd13ifvqgrg","pricing_plan_id":"free"},{"bike_id":"8522c370-1ba4-40c4-baef-01b0b19354a8","system_id":"levelo_inurba_marseille","lat":43.275028,"lon":5.424534,"is_reserved":false,"is_disabled":false,"rental_uris":{"android":"levelo://app?vid=8522c370-1ba4-40c4-baef-01b0b19354a8","ios":"levelo://app?vid=8522c370-1ba4-40c4-baef-01b0b19354a8"},"vehicle_type_id":"4","last_reported":1702991358,"current_range_meters":20800,"station_id":"ce4bhn92rcd13ifvqgrg","pricing_plan_id":"free"},{"bike_id":"1c1f9cf6-f7a1-45f2-8f68-fad4c454897f","system_id":"levelo_inurba_marseille","lat":43.27495,"lon":5.42451,"is_reserved":false,"is_disabled":false,"rental_uris":{"android":"levelo://app?vid=1c1f9cf6-f7a1-45f2-8f68-fad4c454897f","ios":"levelo://app?vid=1c1f9cf6-f7a1-45f2-8f68-fad4c454897f"},"vehicle_type_id":"4","last_reported":1702991358,"current_range_meters":1600,"station_id":"ce4bhn92rcd13ifvqgrg","pricing_plan_id":"free"},{"bike_id":"cb4d3e36-4f44-4b4e-a270-0fa307f66f40","system_id":"levelo_inurba_marseille","lat":43.275028,"lon":5.424534,"is_reserved":false,"is_disabled":false,"rental_uris":{"android":"levelo://app?vid=cb4d3e36-4f44-4b4e-a270-0fa307f66f40","ios":"levelo://app?vid=cb4d3e36-4f44-4b4e-a270-0fa307f66f40"},"vehicle_type_id":"4","last_reported":1702991358,"current_range_meters":14800,"station_id":"ce4bhn92rcd13ifvqgrg","pricing_plan_id":"free"},{"bike_id":"e5c0e845-5529-4741-88ec-85be98a6be97","system_id":"levelo_inurba_marseille","lat":43.275028,"lon":5.424534,"is_reserved":false,"is_disabled":false,"rental_uris":{"android":"levelo://app?vid=e5c0e845-5529-4741-88ec-85be98a6be97","ios":"levelo://app?vid=e5c0e845-5529-4741-88ec-85be98a6be97"},"vehicle_type_id":"4","last_reported":1702991358,"current_range_meters":24800,"station_id":"ce4bhn92rcd13ifvqgrg","pricing_plan_id":"free"},{"bike_id":"d6f435ba-4bf8-46a2-8514-9e919c5ff01a","system_id":"levelo_inurba_marseille","lat":43.275028,"lon":5.424534,"is_reserved":false,"is_disabled":false,"rental_uris":{"android":"levelo://app?vid=d6f435ba-4bf8-46a2-8514-9e919c5ff01a","ios":"levelo://app?vid=d6f435ba-4bf8-46a2-8514-9e919c5ff01a"},"vehicle_type_id":"4","last_reported":1702991358,"current_range_meters":30000,"station_id":"ce4bhn92rcd13ifvqgrg","pricing_plan_id":"free"},{"bike_id":"3b3f4c5c-2522-4a5c-a457-891155ce9028","system_id":"levelo_inurba_marseille","lat":43.27495,"lon":5.42458,"is_reserved":false,"is_disabled":false,"rental_uris":{"android":"levelo://app?vid=3b3f4c5c-2522-4a5c-a457-891155ce9028","ios":"levelo://app?vid=3b3f4c5c-2522-4a5c-a457-891155ce9028"},"vehicle_type_id":"4","last_reported":1702991358,"current_range_meters":20400,"station_id":"ce4bhn92rcd13ifvqgrg","pricing_plan_id":"free"},{"bike_id":"f27de55b-24dc-49f6-a978-077789efb37d","system_id":"levelo_inurba_marseille","lat":43.274926,"lon":5.424551,"is_reserved":false,"is_disabled":false,"rental_uris":{"android":"levelo://app?vid=f27de55b-24dc-49f6-a978-077789efb37d","ios":"levelo://app?vid=f27de55b-24dc-49f6-a978-077789efb37d"},"vehicle_type_id":"4","last_reported":1702991358,"current_range_meters":28400,"station_id":"ce4bhn92rcd13ifvqgrg","pricing_plan_id":"free"},{"bike_id":"c4473f4c-d6b6-4314-9df6-434f3f1f360e","system_id":"levelo_inurba_marseille","lat":43.27494,"lon":5.42459,"is_reserved":false,"is_disabled":false,"rental_uris":{"android":"levelo://app?vid=c4473f4c-d6b6-4314-9df6-434f3f1f360e","ios":"levelo://app?vid=c4473f4c-d6b6-4314-9df6-434f3f1f360e"},"vehicle_type_id":"4","last_reported":1702991358,"current_range_meters":24800,"station_id":"ce4bhn92rcd13ifvqgrg","pricing_plan_id":"free"},{"bike_id":"c0304c10-42b7-4fa4-b6c8-caae3b7a8e3e","system_id":"levelo_inurba_marseille","lat":43.275028,"lon":5.424534,"is_reserved":false,"is_disabled":false,"rental_uris":{"android":"levelo://app?vid=c0304c10-42b7-4fa4-b6c8-caae3b7a8e3e","ios":"levelo://app?vid=c0304c10-42b7-4fa4-b6c8-caae3b7a8e3e"},"vehicle_type_id":"4","last_reported":1702991358,"current_range_meters":31600,"station_id":"ce4bhn92rcd13ifvqgrg","pricing_plan_id":"free"},{"bike_id":"c3edfa4f-4167-4cea-b580-bd2ce26019c7","system_id":"levelo_inurba_marseille","lat":43.258224,"lon":5.394369,"is_reserved":false,"is_disabled":false,"rental_uris":{"android":"levelo://app?vid=c3edfa4f-4167-4cea-b580-bd2ce26019c7","ios":"levelo://app?vid=c3edfa4f-4167-4cea-b580-bd2ce26019c7"},"vehicle_type_id":"4","last_reported":1702991358,"current_range_meters":20000,"station_id":"ce4bhip2rcd13ifvqft0","pricing_plan_id":"free"},{"bike_id":"804f8995-f1e5-482c-897e-4cf11c1d732b","system_id":"levelo_inurba_marseille","lat":43.25581,"lon":5.38228,"is_reserved":false,"is_disabled":false,"rental_uris":{"android":"levelo://app?vid=804f8995-f1e5-482c-897e-4cf11c1d732b","ios":"levelo://app?vid=804f8995-f1e5-482c-897e-4cf11c1d732b"},"vehicle_type_id":"4","last_reported":1702991358,"current_range_meters":20400,"station_id":"ce4bhih2rcd13ifvqfs0","pricing_plan_id":"free"},{"bike_id":"dc8783d1-f86d-4651-969e-6ebdb1904dc7","system_id":"levelo_inurba_marseille","lat":43.25825,"lon":5.39437,"is_reserved":false,"is_disabled":false,"rental_uris":{"android":"levelo://app?vid=dc8783d1-f86d-4651-969e-6ebdb1904dc7","ios":"levelo://app?vid=dc8783d1-f86d-4651-969e-6ebdb1904dc7"},"vehicle_type_id":"4","last_reported":1702991358,"current_range_meters":0,"station_id":"ce4bhip2rcd13ifvqft0","pricing_plan_id":"free"},{"bike_id":"3c7609fe-5cbf-484c-be43-aacc8e953f7b","system_id":"levelo_inurba_marseille","lat":43.258224,"lon":5.394369,"is_reserved":false,"is_disabled":false,"rental_uris":{"android":"levelo://app?vid=3c7609fe-5cbf-484c-be43-aacc8e953f7b","ios":"levelo://app?vid=3c7609fe-5cbf-484c-be43-aacc8e953f7b"},"vehicle_type_id":"4","last_reported":1702991358,"current_range_meters":31600,"station_id":"ce4bhip2rcd13ifvqft0","pricing_plan_id":"free"},{"bike_id":"8973d893-d357-41d2-ba84-3c7a761ec031","system_id":"levelo_inurba_marseille","lat":43.258224,"lon":5.394369,"is_reserved":false,"is_disabled":false,"rental_uris":{"android":"levelo://app?vid=8973d893-d357-41d2-ba84-3c7a761ec031","ios":"levelo://app?vid=8973d893-d357-41d2-ba84-3c7a761ec031"},"vehicle_type_id":"4","last_reported":1702991358,"current_range_meters":22400,"station_id":"ce4bhip2rcd13ifvqft0","pricing_plan_id":"free"},{"bike_id":"dd7084f3-1a71-4bec-b83c-5ddfe17f5167","system_id":"levelo_inurba_marseille","lat":43.26681,"lon":5.382694,"is_reserved":false,"is_disabled":false,"rental_uris":{"android":"levelo://app?vid=dd7084f3-1a71-4bec-b83c-5ddfe17f5167","ios":"levelo://app?vid=dd7084f3-1a71-4bec-b83c-5ddfe17f5167"},"vehicle_type_id":"4","last_reported":1702991358,"current_range_meters":17200,"station_id":"ce4bhg92rcd13ifvqf90","pricing_plan_id":"free"},{"bike_id":"1cdc7c9b-5784-4896-9cba-1bc4f33c1b25","system_id":"levelo_inurba_marseille","lat":43.254947,"lon":5.376454,"is_reserved":false,"is_disabled":false,"rental_uris":{"android":"levelo://app?vid=1cdc7c9b-5784-4896-9cba-1bc4f33c1b25","ios":"levelo://app?vid=1cdc7c9b-5784-4896-9cba-1bc4f33c1b25"},"vehicle_type_id":"4","last_reported":1702991358,"current_range_meters":20800,"station_id":"ce4bhh12rcd13ifvqff0","pricing_plan_id":"free"},{"bike_id":"997e48cc-0789-45e3-9e1b-e65b63d193c2","system_id":"levelo_inurba_marseille","lat":43.254947,"lon":5.376454,"is_reserved":false,"is_disabled":false,"rental_uris":{"android":"levelo://app?vid=997e48cc-0789-45e3-9e1b-e65b63d193c2","ios":"levelo://app?vid=997e48cc-0789-45e3-9e1b-e65b63d193c2"},"vehicle_type_id":"4","last_reported":1702991358,"current_range_meters":11200,"station_id":"ce4bhh12rcd13ifvqff0","pricing_plan_id":"free"},{"bike_id":"c89c3d11-38e4-42f3-8376-c64b3ca4d353","system_id":"levelo_inurba_marseille","lat":43.254947,"lon":5.376454,"is_reserved":false,"is_disabled":false,"rental_uris":{"android":"levelo://app?vid=c89c3d11-38e4-42f3-8376-c64b3ca4d353","ios":"levelo://app?vid=c89c3d11-38e4-42f3-8376-c64b3ca4d353"},"vehicle_type_id":"4","last_reported":1702991358,"current_range_meters":16000,"station_id":"ce4bhh12rcd13ifvqff0","pricing_plan_id":"free"},{"bike_id":"8046536d-cd85-4381-9c70-3d1572654f25","system_id":"levelo_inurba_marseille","lat":43.2549,"lon":5.37648,"is_reserved":false,"is_disabled":false,"rental_uris":{"android":"levelo://app?vid=8046536d-cd85-4381-9c70-3d1572654f25","ios":"levelo://app?vid=8046536d-cd85-4381-9c70-3d1572654f25"},"vehicle_type_id":"4","last_reported":1702991358,"current_range_meters":28400,"station_id":"ce4bhh12rcd13ifvqff0","pricing_plan_id":"free"},{"bike_id":"4a762271-1773-4590-a6ad-4000d66d6bb8","system_id":"levelo_inurba_marseille","lat":43.258658,"lon":5.398935,"is_reserved":false,"is_disabled":false,"rental_uris":{"android":"levelo://app?vid=4a762271-1773-4590-a6ad-4000d66d6bb8","ios":"levelo://app?vid=4a762271-1773-4590-a6ad-4000d66d6bb8"},"vehicle_type_id":"4","last_reported":1702991358,"current_range_meters":19200,"station_id":"ce4bhl92rcd13ifvqghg","pricing_plan_id":"free"},{"bike_id":"00b4317e-de2b-46aa-9a0f-80fa7fe59b36","system_id":"levelo_inurba_marseille","lat":43.258658,"lon":5.398935,"is_reserved":false,"is_disabled":false,"rental_uris":{"android":"levelo://app?vid=00b4317e-de2b-46aa-9a0f-80fa7fe59b36","ios":"levelo://app?vid=00b4317e-de2b-46aa-9a0f-80fa7fe59b36"},"vehicle_type_id":"4","last_reported":1702991358,"current_range_meters":29600,"station_id":"ce4bhl92rcd13ifvqghg","pricing_plan_id":"free"},{"bike_id":"00fc2920-f1ef-493e-86c6-2773d644ccb6","system_id":"levelo_inurba_marseille","lat":43.259009,"lon":5.40929,"is_reserved":false,"is_disabled":false,"rental_uris":{"android":"levelo://app?vid=00fc2920-f1ef-493e-86c6-2773d644ccb6","ios":"levelo://app?vid=00fc2920-f1ef-493e-86c6-2773d644ccb6"},"vehicle_type_id":"4","last_reported":1702991358,"current_range_meters":20800,"station_id":"ce4bhm92rcd13ifvqglg","pricing_plan_id":"free"},{"bike_id":"50d8603a-af94-4721-afae-17e9532c6c45","system_id":"levelo_inurba_marseille","lat":43.259009,"lon":5.40929,"is_reserved":false,"is_disabled":false,"rental_uris":{"android":"levelo://app?vid=50d8603a-af94-4721-afae-17e9532c6c45","ios":"levelo://app?vid=50d8603a-af94-4721-afae-17e9532c6c45"},"vehicle_type_id":"4","last_reported":1702991358,"current_range_meters":20000,"station_id":"ce4bhm92rcd13ifvqglg","pricing_plan_id":"free"},{"bike_id":"7b82dafe-89a8-4784-a511-36d4e04272f8","system_id":"levelo_inurba_marseille","lat":43.259009,"lon":5.40929,"is_reserved":false,"is_disabled":false,"rental_uris":{"android":"levelo://app?vid=7b82dafe-89a8-4784-a511-36d4e04272f8","ios":"levelo://app?vid=7b82dafe-89a8-4784-a511-36d4e04272f8"},"vehicle_type_id":"4","last_reported":1702991358,"current_range_meters":22000,"station_id":"ce4bhm92rcd13ifvqglg","pricing_plan_id":"free"},{"bike_id":"bec2a237-ec91-4b74-86ef-288c8bcb5bba","system_id":"levelo_inurba_marseille","lat":43.259009,"lon":5.40929,"is_reserved":false,"is_disabled":false,"rental_uris":{"android":"levelo://app?vid=bec2a237-ec91-4b74-86ef-288c8bcb5bba","ios":"levelo://app?vid=bec2a237-ec91-4b74-86ef-288c8bcb5bba"},"vehicle_type_id":"4","last_reported":1702991358,"current_range_meters":23600,"station_id":"ce4bhm92rcd13ifvqglg","pricing_plan_id":"free"},{"bike_id":"5875cf93-dde1-453f-9bfc-673ef43a1ef0","system_id":"levelo_inurba_marseille","lat":43.259009,"lon":5.40929,"is_reserved":false,"is_disabled":false,"rental_uris":{"android":"levelo://app?vid=5875cf93-dde1-453f-9bfc-673ef43a1ef0","ios":"levelo://app?vid=5875cf93-dde1-453f-9bfc-673ef43a1ef0"},"vehicle_type_id":"4","last_reported":1702991358,"current_range_meters":21200,"station_id":"ce4bhm92rcd13ifvqglg","pricing_plan_id":"free"},{"bike_id":"df0097ff-8019-424b-bb8e-3d519d31aeb1","system_id":"levelo_inurba_marseille","lat":43.250009,"lon":5.389195,"is_reserved":false,"is_disabled":false,"rental_uris":{"android":"levelo://app?vid=df0097ff-8019-424b-bb8e-3d519d31aeb1","ios":"levelo://app?vid=df0097ff-8019-424b-bb8e-3d519d31aeb1"},"vehicle_type_id":"4","last_reported":1702991358,"current_range_meters":31600,"station_id":"ce4bhgp2rcd13ifvqfd0","pricing_plan_id":"free"},{"bike_id":"a0ac69fa-f31a-42c1-84e4-5fa21efb7b59","system_id":"levelo_inurba_marseille","lat":43.250009,"lon":5.389195,"is_reserved":false,"is_disabled":false,"rental_uris":{"android":"levelo://app?vid=a0ac69fa-f31a-42c1-84e4-5fa21efb7b59","ios":"levelo://app?vid=a0ac69fa-f31a-42c1-84e4-5fa21efb7b59"},"vehicle_type_id":"4","last_reported":1702991358,"current_range_meters":15600,"station_id":"ce4bhgp2rcd13ifvqfd0","pricing_plan_id":"free"},{"bike_id":"942e00e3-a44b-4171-8ef2-4972e8d85b6a","system_id":"levelo_inurba_marseille","lat":43.250009,"lon":5.389195,"is_reserved":false,"is_disabled":false,"rental_uris":{"android":"levelo://app?vid=942e00e3-a44b-4171-8ef2-4972e8d85b6a","ios":"levelo://app?vid=942e00e3-a44b-4171-8ef2-4972e8d85b6a"},"vehicle_type_id":"4","last_reported":1702991358,"current_range_meters":30400,"station_id":"ce4bhgp2rcd13ifvqfd0","pricing_plan_id":"free"},{"bike_id":"d764306f-f208-4435-996a-7a362c4c8fcf","system_id":"levelo_inurba_marseille","lat":43.2479,"lon":5.374457,"is_reserved":false,"is_disabled":false,"rental_uris":{"android":"levelo://app?vid=d764306f-f208-4435-996a-7a362c4c8fcf","ios":"levelo://app?vid=d764306f-f208-4435-996a-7a362c4c8fcf"},"vehicle_type_id":"4","last_reported":1702991358,"current_range_meters":10000,"station_id":"ce4bhgh2rcd13ifvqfb0","pricing_plan_id":"free"},{"bike_id":"343708bb-afe7-4141-b4ec-20edc1ffdf8d","system_id":"levelo_inurba_marseille","lat":43.250023,"lon":5.38919,"is_reserved":false,"is_disabled":false,"rental_uris":{"android":"levelo://app?vid=343708bb-afe7-4141-b4ec-20edc1ffdf8d","ios":"levelo://app?vid=343708bb-afe7-4141-b4ec-20edc1ffdf8d"},"vehicle_type_id":"4","last_reported":1702991358,"current_range_meters":9600,"station_id":"ce4bhgp2rcd13ifvqfd0","pricing_plan_id":"free"},{"bike_id":"899e3e19-1e90-4d71-9a0b-b95b6b95ecad","system_id":"levelo_inurba_marseille","lat":43.250966,"lon":5.395186,"is_reserved":false,"is_disabled":false,"rental_uris":{"android":"levelo://app?vid=899e3e19-1e90-4d71-9a0b-b95b6b95ecad","ios":"levelo://app?vid=899e3e19-1e90-4d71-9a0b-b95b6b95ecad"},"vehicle_type_id":"4","last_reported":1702991358,"current_range_meters":13200,"station_id":"ce4bhm12rcd13ifvqgkg","pricing_plan_id":"free"},