{"last_updated":1700464032,"ttl":30,"version":"2.2","data":{"bikes":[{"bike_id":"9e7fa473-3b6f-43ae-87eb-cce154c59988","system_id":"levelo_inurba_marseille","lat":43.313391,"lon":5.36706,"is_reserved":false,"is_disabled":false,"rental_uris":{"android":"levelo://app?vid=9e7fa473-3b6f-43ae-87eb-cce154c59988","ios":"levelo://app?vid=9e7fa473-3b6f-43ae-87eb-cce154c59988"},"vehicle_type_id":"4","last_reported":1700464032,"current_range_meters":2800,"station_id":"ce4bgr92rcd13ifvqc6g","pricing_plan_id":"free"},{"bike_id":"f874da3e-b17e-47f0-a499-90fd16b42a65","system_id":"levelo_inurba_marseille","lat":43.311574,"lon":5.368844,"is_reserved":false,"is_disabled":false,"rental_uris":{"android":"levelo://app?vid=f874da3e-b17e-47f0-a499-90fd16b42a65","ios":"levelo://app?vid=f874da3e-b17e-47f0-a499-90fd16b42a65"},"vehicle_type_id":"4","last_reported":1700464032,"current_range_meters":0,"station_id":"","pricing_plan_id":"free"},{"bike_id":"3475d204-43b6-43d9-b615-ca1d0d58200e","system_id":"levelo_inurba_marseille","lat":43.30679,"lon":5.3679,"is_reserved":false,"is_disabled":false,"rental_uris":{"android":"levelo://app?vid=3475d204-43b6-43d9-b615-ca1d0d58200e","ios":"levelo://app?vid=3475d204-43b6-43d9-b615-ca1d0d58200e"},"vehicle_type_id":"4","last_reported":1700464032,"current_range_meters":8000,"station_id":"","pricing_plan_id":"free"},{"bike_id":"34c2e47c-93fb-4085-a86b-02aed4c7542f","system_id":"levelo_inurba_marseille","lat":43.305489,"lon":5.367048,"is_reserved":false,"is_disabled":false,"rental_uris":{"android":"levelo://app?vid=34c2e47c-93fb-4085-a86b-02aed4c7542f","ios":"levelo://app?vid=34c2e47c-93fb-4085-a86b-02aed4c7542f"},"vehicle_type_id":"4","last_reported":1700464032,"current_range_meters":0,"station_id":"ce4bgrp2rcd13ifvqc9g","pricing_plan_id":"free"},{"bike_id":"20e61284-66c8-4e3c-b9a9-4601a49f2e5d","system_id":"levelo_inurba_marseille","lat":43.305712,"lon":5.365641,"is_reserved":false,"is_disabled":false,"rental_uris":{"android":"levelo://app?vid=20e61284-66c8-4e3c-b9a9-4601a49f2e5d","ios":"levelo://app?vid=20e61284-66c8-4e3c-b9a9-4601a49f2e5d"},"vehicle_type_id":"4","last_reported":1700464032,"current_range_meters":31600,"station_id":"ce4bgs12rcd13ifvqcag","pricing_plan_id":"free"},{"bike_id":"4bbcd7f7-a9fe-4a50-9867-0705d1d98e75","system_id":"levelo_inurba_marseille","lat":43.305712,"lon":5.365641,"is_reserved":false,"is_disabled":false,"rental_uris":{"android":"levelo://app?vid=4bbcd7f7-a9fe-4a50-9867-0705d1d98e75","ios":"levelo://app?vid=4bbcd7f7-a9fe-4a50-9867-0705d1d98e75"},"vehicle_type_id":"4","last_reported":1700464032,"current_range_meters":9600,"station_id":"ce4bgs12rcd13ifvqcag","pricing_plan_id":"free"},{"bike_id":"7443302a-20ce-4d02-af77-3fa7ae3026ae","system_id":"levelo_inurba_marseille","lat":43.305368,"lon":5.367343,"is_reserved":false,"is_disabled":false,"rental_uris":{"android":"levelo://app?vid=7443302a-20ce-4d02-af77-3fa7ae3026ae","ios":"levelo://app?vid=7443302a-20ce-4d02-af77-3fa7ae3026ae"},"vehicle_type_id":"4","last_reported":1700464032,"current_range_meters":0,"station_id":"ce4bgrp2rcd13ifvqc9g","pricing_plan_id":"free"},{"bike_id":"82a742ba-fe05-48d0-8f1a-221ee866fef8","system_id":"levelo_inurba_marseille","lat":43.305714,"lon":5.365633,"is_reserved":false,"is_disabled":false,"rental_uris":{"android":"levelo://app?vid=82a742ba-fe05-48d0-8f1a-221ee866fef8","ios":"levelo://app?vid=82a742ba-fe05-48d0-8f1a-221ee866fef8"},"vehicle_type_id":"4","last_reported":1700464032,"current_range_meters":23200,"station_id":"ce4bgs12rcd13ifvqcag","pricing_plan_id":"free"},{"bike_id":"b03e7659-7ec7-41ca-abc1-732fc5f62f98","system_id":"levelo_inurba_marseille","lat":43.305706,"lon":5.365654,"is_reserved":false,"is_disabled":false,"rental_uris":{"android":"levelo://app?vid=b03e7659-7ec7-41ca-abc1-732fc5f62f98","ios":"levelo://app?vid=b03e7659-7ec7-41ca-abc1-732fc5f62f98"},"vehicle_type_id":"4","last_reported":1700464032,"current_range_meters":9200,"station_id":"ce4bgs12rcd13ifvqcag","pricing_plan_id":"free"},{"bike_id":"eb60b594-5121-4262-a9bb-930c6e7979c4","system_id":"levelo_inurba_marseille","lat":43.305706,"lon":5.365654,"is_reserved":false,"is_disabled":false,"rental_uris":{"android":"levelo://app?vid=eb60b594-5121-4262-a9bb-930c6e7979c4","ios":"levelo://app?vid=eb60b594-5121-4262-a9bb-930c6e7979c4"},"vehicle_type_id":"4","last_reported":1700464032,"current_range_meters":28800,"station_id":"ce4bgs12rcd13ifvqcag","pricing_plan_id":"free"},{"bike_id":"405263ae-d107-4a37-a5b5-b0d4ee34e7cb","system_id":"levelo_inurba_marseille","lat":43.305706,"lon":5.365654,"is_reserved":false,"is_disabled":false,"rental_uris":{"android":"levelo://app?vid=405263ae-d107-4a37-a5b5-b0d4ee34e7cb","ios":"levelo://app?vid=405263ae-d107-4a37-a5b5-b0d4ee34e7cb"},"vehicle_type_id":"4","last_reported":1700464032,"current_range_meters":31600,"station_id":"ce4bgs12rcd13ifvqcag","pricing_plan_id":"free"},{"bike_id":"9bd3ad0a-ab1f-4368-a3b2-08cd4ec74456","system_id":"levelo_inurba_marseille","lat":43.305706,"lon":5.365654,"is_reserved":false,"is_disabled":false,"rental_uris":{"android":"levelo://app?vid=9bd3ad0a-ab1f-4368-a3b2-08cd4ec74456","ios":"levelo://app?vid=9bd3ad0a-ab1f-4368-a3b2-08cd4ec74456"},"vehicle_type_id":"4","last_reported":1700464032,"current_range_meters":31200,"station_id":"ce4bgs12rcd13ifvqcag","pricing_plan_id":"free"},{"bike_id":"71daf461-54af-4349-bbd9-ca4f1853e5fe","system_id":"levelo_inurba_marseille","lat":43.311131,"lon":5.377651,"is_reserved":false,"is_disabled":false,"rental_uris":{"android":"levelo://app?vid=71daf461-54af-4349-bbd9-ca4f1853e5fe","ios":"levelo://app?vid=71daf461-54af-4349-bbd9-ca4f1853e5fe"},"vehicle_type_id":"4","last_reported":1700464032,"current_range_meters":23200,"station_id":"ce4bgt92rcd13ifvqcg0","pricing_plan_id":"free"},{"bike_id":"9309ee71-2e1a-4cfb-a93e-8bae5a928dc1","system_id":"levelo_inurba_marseille","lat":43.308169,"lon":5.376521,"is_reserved":false,"is_disabled":false,"rental_uris":{"android":"levelo://app?vid=9309ee71-2e1a-4cfb-a93e-8bae5a928dc1","ios":"levelo://app?vid=9309ee71-2e1a-4cfb-a93e-8bae5a928dc1"},"vehicle_type_id":"4","last_reported":1700464032,"current_range_meters":7600,"station_id":"ce4bgv92rcd13ifvqcq0","pricing_plan_id":"free"},{"bike_id":"fbaa9447-65aa-4b63-9105-264a624f5891","system_id":"levelo_inurba_marseille","lat":43.307945,"lon":5.376487,"is_reserved":false,"is_disabled":false,"rental_uris":{"android":"levelo://app?vid=fbaa9447-65aa-4b63-9105-264a624f5891","ios":"levelo://app?vid=fbaa9447-65aa-4b63-9105-264a624f5891"},"vehicle_type_id":"4","last_reported":1700464032,"current_range_meters":1200,"station_id":"ce4bgv92rcd13ifvqcq0","pricing_plan_id":"free"},{"bike_id":"004c6a0a-6c76-4333-858b-d5e65cbfe59a","system_id":"levelo_inurba_marseille","lat":43.317075,"lon":5.377367,"is_reserved":false,"is_disabled":false,"rental_uris":{"android":"levelo://app?vid=004c6a0a-6c76-4333-858b-d5e65cbfe59a","ios":"levelo://app?vid=004c6a0a-6c76-4333-858b-d5e65cbfe59a"},"vehicle_type_id":"4","last_reported":1700464032,"current_range_meters":31600,"station_id":"ce4bgth2rcd13ifvqch0","pricing_plan_id":"free"},{"bike_id":"163d0eaa-4989-4fee-9d42-cdafd2692469","system_id":"levelo_inurba_marseille","lat":43.317075,"lon":5.377367,"is_reserved":false,"is_disabled":false,"rental_uris":{"android":"levelo://app?vid=163d0eaa-4989-4fee-9d42-cdafd2692469","ios":"levelo://app?vid=163d0eaa-4989-4fee-9d42-cdafd2692469"},"vehicle_type_id":"4","last_reported":1700464032,"current_range_meters":16400,"station_id":"ce4bgth2rcd13ifvqch0","pricing_plan_id":"free"},{"bike_id":"72e3dc43-5c81-4663-b294-6f2fabfde433","system_id":"levelo_inurba_marseille","lat":43.317075,"lon":5.377367,"is_reserved":false,"is_disabled":false,"rental_uris":{"android":"levelo://app?vid=72e3dc43-5c81-4663-b294-6f2fabfde433","ios":"levelo://app?vid=72e3dc43-5c81-4663-b294-6f2fabfde433"},"vehicle_type_id":"4","last_reported":1700464032,"current_range_meters":23600,"station_id":"ce4bgth2rcd13ifvqch0","pricing_plan_id":"free"},{"bike_id":"39c7dbab-4c41-4198-8508-8954a3b3d043","system_id":"levelo_inurba_marseille","lat":43.303046,"lon":5.368981,"is_reserved":false,"is_disabled":false,"rental_uris":{"android":"levelo://app?vid=39c7dbab-4c41-4198-8508-8954a3b3d043","ios":"levelo://app?vid=39c7dbab-4c41-4198-8508-8954a3b3d043"},"vehicle_type_id":"4","last_reported":1700464032,"current_range_meters":8400,"station_id":"ce4bgqh2rcd13ifvqc5g","pricing_plan_id":"free"},{"bike_id":"87c6860e-dbaf-402c-9be6-640876a18db7","system_id":"levelo_inurba_marseille","lat":43.303005,"lon":5.369135,"is_reserved":false,"is_disabled":false,"rental_uris":{"android":"levelo://app?vid=87c6860e-dbaf-402c-9be6-640876a18db7","ios":"levelo://app?vid=87c6860e-dbaf-402c-9be6-640876a18db7"},"vehicle_type_id":"4","last_reported":1700464032,"current_range_meters":24800,"station_id":"ce4bgqh2rcd13ifvqc5g","pricing_plan_id":"free"},{"bike_id":"4b76abc4-8871-4786-99df-fcf78866e28c","system_id":"levelo_inurba_marseille","lat":43.307931,"lon":5.381529,"is_reserved":false,"is_disabled":false,"rental_uris":{"android":"levelo://app?vid=4b76abc4-8871-4786-99df-fcf78866e28c","ios":"levelo://app?vid=4b76abc4-8871-4786-99df-fcf78866e28c"},"vehicle_type_id":"4","last_reported":1700464032,"current_range_meters":5200,"station_id":"ce4bgt12rcd13ifvqce0","pricing_plan_id":"free"},{"bike_id":"c5e23211-d76c-4c86-9568-db203e681012","system_id":"levelo_inurba_marseille","lat":43.304606,"lon":5.379026,"is_reserved":false,"is_disabled":false,"rental_uris":{"android":"levelo://app?vid=c5e23211-d76c-4c86-9568-db203e681012","ios":"levelo://app?vid=c5e23211-d76c-4c86-9568-db203e681012"},"vehicle_type_id":"4","last_reported":1700464032,"current_range_meters":31600,"station_id":"ce4bgup2rcd13ifvqcn0","pricing_plan_id":"free"},{"bike_id":"5e457378-59e6-47ed-a640-a4e666fba5c6","system_id":"levelo_inurba_marseille","lat":43.304606,"lon":5.379026,"is_reserved":false,"is_disabled":false,"rental_uris":{"android":"levelo://app?vid=5e457378-59e6-47ed-a640-a4e666fba5c6","ios":"levelo://app?vid=5e457378-59e6-47ed-a640-a4e666fba5c6"},"vehicle_type_id":"4","last_reported":1700464032,"current_range_meters":31600,"station_id":"ce4bgup2rcd13ifvqcn0","pricing_plan_id":"free"},{"bike_id":"3c3113e6-2f81-4292-b445-ed20760f3950","system_id":"levelo_inurba_marseille","lat":43.304606,"lon":5.379026,"is_reserved":false,"is_disabled":false,"rental_uris":{"android":"levelo://app?vid=3c3113e6-2f81-4292-b445-ed20760f3950","ios":"levelo://app?vid=3c3113e6-2f81-4292-b445-ed20760f3950"},"vehicle_type_id":"4","last_reported":1700464032,"current_range_meters":25200,"station_id":"ce4bgup2rcd13ifvqcn0","pricing_plan_id":"free"},{"bike_id":"b2c51e6c-8215-4acf-bbef-0793e2dd5a79","system_id":"levelo_inurba_marseille","lat":43.30457,"lon":5.37891,"is_reserved":false,"is_disabled":false,"rental_uris":{"android":"levelo://app?vid=b2c51e6c-8215-4acf-bbef-0793e2dd5a79","ios":"levelo://app?vid=b2c51e6c-8215-4acf-bbef-0793e2dd5a79"},"vehicle_type_id":"4","last_reported":1700464032,"current_range_meters":16800,"station_id":"ce4bgup2rcd13ifvqcn0","pricing_plan_id":"free"},{"bike_id":"b6bccf00-af74-4a2b-b4d4-18ed8aa89baa","system_id":"levelo_inurba_marseille","lat":43.304606,"lon":5.379026,"is_reserved":false,"is_disabled":false,"rental_uris":{"android":"levelo://app?vid=b6bccf00-af74-4a2b-b4d4-18ed8aa89baa","ios":"levelo://app?vid=b6bccf00-af74-4a2b-b4d4-18ed8aa89baa"},"vehicle_type_id":"4","last_reported":1700464032,"current_range_meters":11200,"station_id":"ce4bgup2rcd13ifvqcn0","pricing_plan_id":"free"},{"bike_id":"a200fc99-595a-462a-83f9-5c44415830e4","system_id":"levelo_inurba_marseille","lat":43.304606,"lon":5.379026,"is_reserved":false,"is_disabled":false,"rental_uris":{"android":"levelo://app?vid=a200fc99-595a-462a-83f9-5c44415830e4","ios":"levelo://app?vid=a200fc99-595a-462a-83f9-5c44415830e4"},"vehicle_type_id":"4","last_reported":1700464032,"current_range_meters":17200,"station_id":"ce4bgup2rcd13ifvqcn0","pricing_plan_id":"free"},{"bike_id":"c1264497-9de6-44ef-8687-b4a685527e1b","system_id":"levelo_inurba_marseille","lat":43.304606,"lon":5.379026,"is_reserved":false,"is_disabled":false,"rental_uris":{"android":"levelo://app?vid=c1264497-9de6-44ef-8687-b4a685527e1b","ios":"levelo://app?vid=c1264497-9de6-44ef-8687-b4a685527e1b"},"vehicle_type_id":"4","last_reported":1700464032,"current_range_meters":28800,"station_id":"ce4bgup2rcd13ifvqcn0","pricing_plan_id":"free"},{"bike_id":"986b2261-b3f5-425b-a19c-d3266368d746","system_id":"levelo_inurba_marseille","lat":43.304606,"lon":5.379026,"is_reserved":false,"is_disabled":false,"rental_uris":{"android":"levelo://app?vid=986b2261-b3f5-425b-a19c-d3266368d746","ios":"levelo://app?vid=986b2261-b3f5-425b-a19c-d3266368d746"},"vehicle_type_id":"4","last_reported":1700464032,"current_range_meters":20400,"station_id":"ce4bgup2rcd13ifvqcn0","pricing_plan_id":"free"},{"bike_id":"28760a91-830f-4a37-bf99-41fde3351fbf","system_id":"levelo_inurba_marseille","lat":43.304606,"lon":5.379026,"is_reserved":false,"is_disabled":false,"rental_uris":{"android":"levelo://app?vid=28760a91-830f-4a37-bf99-41fde3351fbf","ios":"levelo://app?vid=28760a91-830f-4a37-bf99-41fde3351fbf"},"vehicle_type_id":"4","last_reported":1700464032,"current_range_meters":31600,"station_id":"ce4bgup2rcd13ifvqcn0","pricing_plan_id":"free"},{"bike_id":"2f150f50-714d-4964-86f7-776aea829379","system_id":"levelo_inurba_marseille","lat":43.304594,"lon":5.37898,"is_reserved":false,"is_disabled":false,"rental_uris":{"android":"levelo://app?vid=2f150f50-714d-4964-86f7-776aea829379","ios":"levelo://app?vid=2f150f50-714d-4964-86f7-776aea829379"},"vehicle_type_id":"4","last_reported":1700464032,"current_range_meters":24000,"station_id":"ce4bgup2rcd13ifvqcn0","pricing_plan_id":"free"},{"bike_id":"c2958899-8b00-4188-8f46-e28498d229cb","system_id":"levelo_inurba_marseille","lat":43.304606,"lon":5.379026,"is_reserved":false,"is_disabled":false,"rental_uris":{"android":"levelo://app?vid=c2958899-8b00-4188-8f46-e28498d229cb","ios":"levelo://app?vid=c2958899-8b00-4188-8f46-e28498d229cb"},"vehicle_type_id":"4","last_reported":1700464032,"current_range_meters":13200,"station_id":"ce4bgup2rcd13ifvqcn0","pricing_plan_id":"free"},{"bike_id":"d9eafd86-28e7-4609-b093-79a61fa1af0b","system_id":"levelo_inurba_marseille","lat":43.304606,"lon":5.379026,"is_reserved":false,"is_disabled":false,"rental_uris":{"android":"levelo://app?vid=d9eafd86-28e7-4609-b093-79a61fa1af0b","ios":"levelo://app?vid=d9eafd86-28e7-4609-b093-79a61fa1af0b"},"vehicle_type_id":"4","last_reported":1700464032,"current_range_meters":21600,"station_id":"ce4bgup2rcd13ifvqcn0","pricing_plan_id":"free"},{"bike_id":"e5cacde2-0093-4a80-813e-38399ebe060c","system_id":"levelo_inurba_marseille","lat":43.304606,"lon":5.379026,"is_reserved":false,"is_disabled":false,"rental_uris":{"android":"levelo://app?vid=e5cacde2-0093-4a80-813e-38399ebe060c","ios":"levelo://app?vid=e5cacde2-0093-4a80-813e-38399ebe060c"},"vehicle_type_id":"4","last_reported":1700464032,"current_range_meters":31600,"station_id":"ce4bgup2rcd13ifvqcn0","pricing_plan_id":"free"},{"bike_id":"0a32301b-cdfe-480d-b8e3-0ce0aa768b65","system_id":"levelo_inurba_marseille","lat":43.304606,"lon":5.379026,"is_reserved":false,"is_disabled":false,"rental_uris":{"android":"levelo://app?vid=0a32301b-cdfe-480d-b8e3-0ce0aa768b65","ios":"levelo://app?vid=0a32301b-cdfe-480d-b8e3-0ce0aa768b65"},"vehicle_type_id":"4","last_reported":1700464032,"current_range_meters":30400,"station_id":"ce4bgup2rcd13ifvqcn0","pricing_plan_id":"free"},{"bike_id":"a48e3e72-fc9c-475d-a947-29126e11dda5","system_id":"levelo_inurba_marseille","lat":43.304606,"lon":5.379026,"is_reserved":false,"is_disabled":false,"rental_uris":{"android":"levelo://app?vid=a48e3e72-fc9c-475d-a947-29126e11dda5","ios":"levelo://app?vid=a48e3e72-fc9c-475d-a947-29126e11dda5"},"vehicle_type_id":"4","last_reported":1700464032,"current_range_meters":29200,"station_id":"ce4bgup2rcd13ifvqcn0","pricing_plan_id":"free"},{"bike_id":"bbfbb62d-65e5-485a-973c-6402854f4ce1","system_id":"levelo_inurba_marseille","lat":43.304606,"lon":5.379026,"is_reserved":false,"is_disabled":false,"rental_uris":{"android":"levelo://app?vid=bbfbb62d-65e5-485a-973c-6402854f4ce1","ios":"levelo://app?vid=bbfbb62d-65e5-485a-973c-6402854f4ce1"},"vehicle_type_id":"4","last_reported":1700464032,"current_range_meters":14000,"station_id":"ce4bgup2rcd13ifvqcn0","pricing_plan_id":"free"},{"bike_id":"138035fd-07de-450a-98a1-e282fccf002a","system_id":"levelo_inurba_marseille","lat":43.304606,"lon":5.379026,"is_reserved":false,"is_disabled":false,"rental_uris":{"android":"levelo://app?vid=138035fd-07de-450a-98a1-e282fccf002a","ios":"levelo://app?vid=138035fd-07de-450a-98a1-e282fccf002a"},"vehicle_type_id":"4","last_reported":1700464032,"current_range_meters":28000,"station_id":"ce4bgup2rcd13ifvqcn0","pricing_plan_id":"free"},{"bike_id":"096bef77-3dc2-440d-a5d7-664b3edfff0b","system_id":"levelo_inurba_marseille","lat":43.304606,"lon":5.379026,"is_reserved":false,"is_disabled":false,"rental_uris":{"android":"levelo://app?vid=096bef77-3dc2-440d-a5d7-664b3edfff0b","ios":"levelo://app?vid=096bef77-3dc2-440d-a5d7-664b3edfff0b"},"vehicle_type_id":"4","last_reported":1700464032,"current_range_meters":6000,"station_id":"ce4bgup2rcd13ifvqcn0","pricing_plan_id":"free"},{"bike_id":"cad43488-ebc4-49b7-b395-c5bb02169fcc","system_id":"levelo_inurba_marseille","lat":43.304606,"lon":5.379026,"is_reserved":false,"is_disabled":false,"rental_uris":{"android":"levelo://app?vid=cad43488-ebc4-49b7-b395-c5bb02169fcc","ios":"levelo://app?vid=cad43488-ebc4-49b7-b395-c5bb02169fcc"},"vehicle_type_id":"4","last_reported":1700464032,"current_range_meters":24400,"station_id":"ce4bgup2rcd13ifvqcn0","pricing_plan_id":"free"},{"bike_id":"1e5ee3f9-8bf8-494b-9c36-3cc4914beffc","system_id":"levelo_inurba_marseille","lat":43.304606,"lon":5.379026,"is_reserved":false,"is_disabled":false,"rental_uris":{"android":"levelo://app?vid=1e5ee3f9-8bf8-494b-9c36-3cc4914beffc","ios":"levelo://app?vid=1e5ee3f9-8bf8-494b-9c36-3cc4914beffc"},"vehicle_type_id":"4","last_reported":1700464032,"current_range_meters":20800,"station_id":"ce4bgup2rcd13ifvqcn0","pricing_plan_id":"free"},{"bike_id":"ced8dd53-1143-4842-b247-4ba08efb19da","system_id":"levelo_inurba_marseille","lat":43.304606,"lon":5.379026,"is_reserved":false,"is_disabled":false,"rental_uris":{"android":"levelo://app?vid=ced8dd53-1143-4842-b247-4ba08efb19da","ios":"levelo://app?vid=ced8dd53-1143-4842-b247-4ba08efb19da"},"vehicle_type_id":"4","last_reported":1700464032,"current_range_meters":26400,"station_id":"ce4bgup2rcd13ifvqcn0","pricing_plan_id":"free"},{"bike_id":"ea27bf37-3a38-44da-baec-641341210ba6","system_id":"levelo_inurba_marseille","lat":43.304606,"lon":5.379026,"is_reserved":false,"is_disabled":false,"rental_uris":{"android":"levelo://app?vid=ea27bf37-3a38-44da-baec-641341210ba6","ios":"levelo://app?vid=ea27bf37-3a38-44da-baec-641341210ba6"},"vehicle_type_id":"4","last_reported":1700464032,"current_range_meters":25200,"station_id":"ce4bgup2rcd13ifvqcn0","pricing_plan_id":"free"},{"bike_id":"8ece3423-1b4d-4908-95f9-0b56666fc3e3","system_id":"levelo_inurba_marseille","lat":43.304606,"lon":5.379026,"is_reserved":false,"is_disabled":false,"rental_uris":{"android":"levelo://app?vid=8ece3423-1b4d-4908-95f9-0b56666fc3e3","ios":"levelo://app?vid=8ece3423-1b4d-4908-95f9-0b56666fc3e3"},"vehicle_type_id":"4","last_reported":1700464032,"current_range_meters":12800,"station_id":"ce4bgup2rcd13ifvqcn0","pricing_plan_id":"free"},{"bike_id":"53656e38-3a71-451d-83b7-764bcc702576","system_id":"levelo_inurba_marseille","lat":43.304606,"lon":5.379026,"is_reserved":false,"is_disabled":false,"rental_uris":{"android":"levelo://app?vid=53656e38-3a71-451d-83b7-764bcc702576","ios":"levelo://app?vid=53656e38-3a71-451d-83b7-764bcc702576"},"vehicle_type_id":"4","last_reported":1700464032,"current_range_meters":4800,"station_id":"ce4bgup2rcd13ifvqcn0","pricing_plan_id":"free"},{"bike_id":"7b26df81-b8ba-456e-a476-eb226f508a9d","system_id":"levelo_inurba_marseille","lat":43.301429,"lon":5.37413,"is_reserved":false,"is_disabled":false,"rental_uris":{"android":"levelo://app?vid=7b26df81-b8ba-456e-a476-eb226f508a9d","ios":"levelo://app?vid=7b26df81-b8ba-456e-a476-eb226f508a9d"},"vehicle_type_id":"4","last_reported":1700464032,"current_range_meters":16000,"station_id":"ce4bgs92rcd13ifvqcc0","pricing_plan_id":"free"},{"bike_id":"666a447b-0e75-4e37-ac9f-9997cdce2c33","system_id":"levelo_inurba_marseille","lat":43.30143,"lon":5.37413,"is_reserved":false,"is_disabled":false,"rental_uris":{"android":"levelo://app?vid=666a447b-0e75-4e37-ac9f-9997cdce2c33","ios":"levelo://app?vid=666a447b-0e75-4e37-ac9f-9997cdce2c33"},"vehicle_type_id":"4","last_reported":1700464032,"current_range_meters":25200,"station_id":"ce4bgs92rcd13ifvqcc0","pricing_plan_id":"free"},{"bike_id":"cb9aaf1e-c165-4477-b766-07ed6f860aa9","system_id":"levelo_inurba_marseille","lat":43.31988,"lon":5.38117,"is_reserved":false,"is_disabled":false,"rental_uris":{"android":"levelo://app?vid=cb9aaf1e-c165-4477-b766-07ed6f860aa9","ios":"levelo://app?vid=cb9aaf1e-c165-4477-b766-07ed6f860aa9"},"vehicle_type_id":"4","last_reported":1700464032,"current_range_meters":0,"station_id":"ce4bhr12rcd13ifvqhpg","pricing_plan_id":"free"},{"bike_id":"5138d4f7-7a8c-45bd-af07-3d10bd0a2f46","system_id":"levelo_inurba_marseille","lat":43.301429,"lon":5.37413,"is_reserved":false,"is_disabled":false,"rental_uris":{"android":"levelo://app?vid=5138d4f7-7a8c-45bd-af07-3d10bd0a2f46","ios":"levelo://app?vid=5138d4f7-7a8c-45bd-af07-3d10bd0a2f46"},"vehicle_type_id":"4","last_reported":1700464032,"current_range_meters":20800,"station_id":"ce4bgs92rcd13ifvqcc0","pricing_plan_id":"free"},{"bike_id":"b86bd29c-7dae-4d1a-900b-90742660a871","system_id":"levelo_inurba_marseille","lat":43.31993,"lon":5.38147,"is_reserved":false,"is_disabled":false,"rental_uris":{"android":"levelo://app?vid=b86bd29c-7dae-4d1a-900b-90742660a871","ios":"levelo://app?vid=b86bd29c-7dae-4d1a-900b-90742660a871"},"vehicle_type_id":"4","last_reported":1700464032,"current_range_meters":22800,"station_id":"ce4bhr12rcd13ifvqhpg","pricing_plan_id":"free"},{"bike_id":"dd260d4e-76d8-4af9-a4e3-50239086a00e","system_id":"levelo_inurba_marseille","lat":43.30143,"lon":5.37413,"is_reserved":false,"is_disabled":false,"rental_uris":{"android":"levelo://app?vid=dd260d4e-76d8-4af9-a4e3-50239086a00e","ios":"levelo://app?vid=dd260d4e-76d8-4af9-a4e3-50239086a00e"},"vehicle_type_id":"4","last_reported":1700464032,"current_range_meters":18400,"station_id":"ce4bgs92rcd13ifvqcc0","pricing_plan_id":"free"},{"bike_id":"773c06ac-5628-43b6-bc5f-1aefef30848b","system_id":"levelo_inurba_marseille","lat":43.305364,"lon":5.384119,"is_reserved":false,"is_disabled":false,"rental_uris":{"android":"levelo://app?vid=773c06ac-5628-43b6-bc5f-1aefef30848b","ios":"levelo://app?vid=773c06ac-5628-43b6-bc5f-1aefef30848b"},"vehicle_type_id":"4","last_reported":1700464032,"current_range_meters":20000,"station_id":"ce4bgg92rcd13ifvqb30","pricing_plan_id":"free"},{"bike_id":"fa4f1cd2-7b60-49c6-bbc2-323eb16d8293","system_id":"levelo_inurba_marseille","lat":43.29928,"lon":5.37449,"is_reserved":false,"is_disabled":false,"rental_uris":{"android":"levelo://app?vid=fa4f1cd2-7b60-49c6-bbc2-323eb16d8293","ios":"levelo://app?vid=fa4f1cd2-7b60-49c6-bbc2-323eb16d8293"},"vehicle_type_id":"4","last_reported":1700464032,"current_range_meters":25200,"station_id":"ce4bgjh2rcd13ifvqbg0","pricing_plan_id":"free"},{"bike_id":"b223af4a-c571-4204-ac67-711cb8d69c23","system_id":"levelo_inurba_marseille","lat":43.298433,"lon":5.362774,"is_reserved":false,"is_disabled":false,"rental_uris":{"android":"levelo://app?vid=b223af4a-c571-4204-ac67-711cb8d69c23","ios":"levelo://app?vid=b223af4a-c571-4204-ac67-711cb8d69c23"},"vehicle_type_id":"4","last_reported":1700464032,"current_range_meters":28000,"station_id":"ce4bgpp2rcd13ifvqc3g","pricing_plan_id":"free"},{"bike_id":"0ecb8469-7970-4159-a370-87612aa3f3c9","system_id":"levelo_inurba_marseille","lat":43.31182,"lon":5.38715,"is_reserved":false,"is_disabled":false,"rental_uris":{"android":"levelo://app?vid=0ecb8469-7970-4159-a370-87612aa3f3c9","ios":"levelo://app?vid=0ecb8469-7970-4159-a370-87612aa3f3c9"},"vehicle_type_id":"4","last_reported":1700464032,"current_range_meters":0,"station_id":"ce4bgv12rcd13ifvqcp0","pricing_plan_id":"free"},{"bike_id":"1bf91ad7-40ee-448a-bb0e-ba4575b978ef","system_id":"levelo_inurba_marseille","lat":43.311722,"lon":5.387247,"is_reserved":false,"is_disabled":false,"rental_uris":{"android":"levelo://app?vid=1bf91ad7-40ee-448a-bb0e-ba4575b978ef","ios":"levelo://app?vid=1bf91ad7-40ee-448a-bb0e-ba4575b978ef"},"vehicle_type_id":"4","last_reported":1700464032,"current_range_meters":23200,"station_id":"ce4bgv12rcd13ifvqcp0","pricing_plan_id":"free"},{"bike_id":"0e6b9db4-d181-4367-a30e-2cde0bb5ced7","system_id":"levelo_inurba_marseille","lat":43.299243,"lon":5.37481,"is_reserved":false,"is_disabled":false,"rental_uris":{"android":"levelo://app?vid=0e6b9db4-d181-4367-a30e-2cde0bb5ced7","ios":"levelo://app?vid=0e6b9db4-d181-4367-a30e-2cde0bb5ced7"},"vehicle_type_id":"4","last_reported":1700464032,"current_range_meters":23600,"station_id":"ce4bgjh2rcd13ifvqbg0","pricing_plan_id":"free"},{"bike_id":"6a39162c-e492-4006-ac88-ecec59ca91a0","system_id":"levelo_inurba_marseille","lat":43.297864,"lon":5.371022,"is_reserved":false,"is_disabled":false,"rental_uris":{"android":"levelo://app?vid=6a39162c-e492-4006-ac88-ecec59ca91a0","ios":"levelo://app?vid=6a39162c-e492-4006-ac88-ecec59ca91a0"},"vehicle_type_id":"4","last_reported":1700464032,"current_range_meters":0,"station_id":"ce4bgop2rcd13ifvqc1g","pricing_plan_id":"free"},{"bike_id":"52431b66-3af6-4782-a9ac-dc8aa16e1db3","system_id":"levelo_inurba_marseille","lat":43.297794,"lon":5.370888,"is_reserved":false,"is_disabled":false,"rental_uris":{"android":"levelo://app?vid=52431b66-3af6-4782-a9ac-dc8aa16e1db3","ios":"levelo://app?vid=52431b66-3af6-4782-a9ac-dc8aa16e1db3"},"vehicle_type_id":"4","last_reported":1700464032,"current_range_meters":24000,"station_id":"ce4bgop2rcd13ifvqc1g","pricing_plan_id":"free"},{"bike_id":"70f9c171-39a3-4ebe-a5e0-1d902b9734f9","system_id":"levelo_inurba_marseille","lat":43.328371,"lon":5.366912,"is_reserved":false,"is_disabled":false,"rental_uris":{"android":"levelo://app?vid=70f9c171-39a3-4ebe-a5e0-1d902b9734f9","ios":"levelo://app?vid=70f9c171-39a3-4ebe-a5e0-1d902b9734f9"},"vehicle_type_id":"4","last_reported":1700464032,"current_range_meters":22000,"station_id":"ce4bhs92rcd13ifvqi0g","pricing_plan_id":"free"},{"bike_id":"de22f57b-085f-4571-b5f3-f5640ec7a2d7","system_id":"levelo_inurba_marseille","lat":43.310855,"lon":5.38847,"is_reserved":false,"is_disabled":false,"rental_uris":{"android":"levelo://app?vid=de22f57b-085f-4571-b5f3-f5640ec7a2d7","ios":"levelo://app?vid=de22f57b-085f-4571-b5f3-f5640ec7a2d7"},"vehicle_type_id":"4","last_reported":1700464032,"current_range_meters":24800,"station_id":"","pricing_plan_id":"free"},{"bike_id":"bbba92a3-ba6e-4621-a390-1b142f7c7c2b","system_id":"levelo_inurba_marseille","lat":43.296282,"lon":5.371538,"is_reserved":false,"is_disabled":false,"rental_uris":{"android":"levelo://app?vid=bbba92a3-ba6e-4621-a390-1b142f7c7c2b","ios":"levelo://app?vid=bbba92a3-ba6e-4621-a390-1b142f7c7c2b"},"vehicle_type_id":"4","last_reported":1700464032,"current_range_meters":29600,"station_id":"ce4bgnh2rcd13ifvqc0g","pricing_plan_id":"free"},{"bike_id":"ed8c1f45-10f5-414d-81b3-b06491835906","system_id":"levelo_inurba_marseille","lat":43.29624,"lon":5.37149,"is_reserved":false,"is_disabled":false,"rental_uris":{"android":"levelo://app?vid=ed8c1f45-10f5-414d-81b3-b06491835906","ios":"levelo://app?vid=ed8c1f45-10f5-414d-81b3-b06491835906"},"vehicle_type_id":"4","last_reported":1700464032,"current_range_meters":31200,"station_id":"ce4bgk12rcd13ifvqbj0","pricing_plan_id":"free"},{"bike_id":"3ae72b9a-0131-4c61-88af-66fd3897507a","system_id":"levelo_inurba_marseille","lat":43.297291,"lon":5.376867,"is_reserved":false,"is_disabled":false,"rental_uris":{"android":"levelo://app?vid=3ae72b9a-0131-4c61-88af-66fd3897507a","ios":"levelo://app?vid=3ae72b9a-0131-4c61-88af-66fd3897507a"},"vehicle_type_id":"4","last_reported":1700464032,"current_range_meters":28400,"station_id":"ce4bgkh2rcd13ifvqbl0","pricing_plan_id":"free"},{"bike_id":"f73e4b62-db53-41c8-9427-31b1dc519812","system_id":"levelo_inurba_marseille","lat":43.297253,"lon":5.376837,"is_reserved":false,"is_disabled":false,"rental_uris":{"android":"levelo://app?vid=f73e4b62-db53-41c8-9427-31b1dc519812","ios":"levelo://app?vid=f73e4b62-db53-41c8-9427-31b1dc519812"},"vehicle_type_id":"4","last_reported":1700464032,"current_range_meters":21200,"station_id":"ce4bgkh2rcd13ifvqbl0","pricing_plan_id":"free"},{"bike_id":"a82dd9c4-72ab-4d81-bde1-2e2ad924b834","system_id":"levelo_inurba_marseille","lat":43.299028,"lon":5.381509,"is_reserved":false,"is_disabled":false,"rental_uris":{"android":"levelo://app?vid=a82dd9c4-72ab-4d81-bde1-2e2ad924b834","ios":"levelo://app?vid=a82dd9c4-72ab-4d81-bde1-2e2ad924b834"},"vehicle_type_id":"4","last_reported":1700464032,"current_range_meters":27200,"station_id":"ce4bgj12rcd13ifvqbc0","pricing_plan_id":"free"},{"bike_id":"ee990c7d-0b7b-4e74-8882-5e28653e344d","system_id":"levelo_inurba_marseille","lat":43.298037,"lon":5.381066,"is_reserved":false,"is_disabled":false,"rental_uris":{"android":"levelo://app?vid=ee990c7d-0b7b-4e74-8882-5e28653e344d","ios":"levelo://app?vid=ee990c7d-0b7b-4e74-8882-5e28653e344d"},"vehicle_type_id":"4","last_reported":1700464032,"current_range_meters":23600,"station_id":"ce4bgip2rcd13ifvqbb0","pricing_plan_id":"free"},{"bike_id":"ad83cfcf-83ee-4aff-834f-f13612300bf8","system_id":"levelo_inurba_marseille","lat":43.304274,"lon":5.388873,"is_reserved":false,"is_disabled":false,"rental_uris":{"android":"levelo://app?vid=ad83cfcf-83ee-4aff-834f-f13612300bf8","ios":"levelo://app?vid=ad83cfcf-83ee-4aff-834f-f13612300bf8"},"vehicle_type_id":"4","last_reported":1700464032,"current_range_meters":27200,"station_id":"ce4bgk12rcd13ifvqbi0","pricing_plan_id":"free"},{"bike_id":"3e3e92fe-39b7-4933-99ff-3747b28b5d69","system_id":"levelo_inurba_marseille","lat":43.328154,"lon":5.380034,"is_reserved":false,"is_disabled":false,"rental_uris":{"android":"levelo://app?vid=3e3e92fe-39b7-4933-99ff-3747b28b5d69","ios":"levelo://app?vid=3e3e92fe-39b7-4933-99ff-3747b28b5d69"},"vehicle_type_id":"4","last_reported":1700464032,"current_range_meters":3200,"station_id":"","pricing_plan_id":"free"},{"bike_id":"67ffd28a-0325-489b-a10f-d90500122751","system_id":"levelo_inurba_marseille","lat":43.295748,"lon":5.37522,"is_reserved":false,"is_disabled":false,"rental_uris":{"android":"levelo://app?vid=67ffd28a-0325-489b-a10f-d90500122751","ios":"levelo://app?vid=67ffd28a-0325-489b-a10f-d90500122751"},"vehicle_type_id":"4","last_reported":1700464032,"current_range_meters":30400,"station_id":"ce4bgh92rcd13ifvqb50","pricing_plan_id":"free"},{"bike_id":"b3b74663-b3cb-43d6-bed6-e9a86533e078","system_id":"levelo_inurba_marseille","lat":43.304274,"lon":5.388873,"is_reserved":false,"is_disabled":false,"rental_uris":{"android":"levelo://app?vid=b3b74663-b3cb-43d6-bed6-e9a86533e078","ios":"levelo://app?vid=b3b74663-b3cb-43d6-bed6-e9a86533e078"},"vehicle_type_id":"4","last_reported":1700464032,"current_range_meters":29200,"station_id":"ce4bgk12rcd13ifvqbi0","pricing_plan_id":"free"},{"bike_id":"c5388730-86a7-47d6-8a35-ea1808e84fe1","system_id":"levelo_inurba_marseille","lat":43.296131,"lon":5.377088,"is_reserved":false,"is_disabled":false,"rental_uris":{"android":"levelo://app?vid=c5388730-86a7-47d6-8a35-ea1808e84fe1","ios":"levelo://app?vid=c5388730-86a7-47d6-8a35-ea1808e84fe1"},"vehicle_type_id":"4","last_reported":1700464032,"current_range_meters":29600,"station_id":"ce4bgi92rcd13ifvqb90","pricing_plan_id":"free"},{"bike_id":"9aa78d9d-29c2-4d98-8175-931b644b3b3e","system_id":"levelo_inurba_marseille","lat":43.296165,"lon":5.377223,"is_reserved":false,"is_disabled":false,"rental_uris":{"android":"levelo://app?vid=9aa78d9d-29c2-4d98-8175-931b644b3b3e","ios":"levelo://app?vid=9aa78d9d-29c2-4d98-8175-931b644b3b3e"},"vehicle_type_id":"4","last_reported":1700464032,"current_range_meters":28000,"station_id":"","pricing_plan_id":"free"},{"bike_id":"d81c4363-315d-4cd7-b4f5-d49d22faf266","system_id":"levelo_inurba_marseille","lat":43.29619,"lon":5.377303,"is_reserved":false,"is_disabled":false,"rental_uris":{"android":"levelo://app?vid=d81c4363-315d-4cd7-b4f5-d49d22faf266","ios":"levelo://app?vid=d81c4363-315d-4cd7-b4f5-d49d22faf266"},"vehicle_type_id":"4","last_reported":1700464032,"current_range_meters":28000,"station_id":"ce4bgi92rcd13ifvqb90","pricing_plan_id":"free"},{"bike_id":"e295ea59-5f70-44b7-8c02-33290f1739aa","system_id":"levelo_inurba_marseille","lat":43.296118,"lon":5.377182,"is_reserved":false,"is_disabled":false,"rental_uris":{"android":"levelo://app?vid=e295ea59-5f70-44b7-8c02-33290f1739aa","ios":"levelo://app?vid=e295ea59-5f70-44b7-8c02-33290f1739aa"},"vehicle_type_id":"4","last_reported":1700464032,"current_range_meters":24400,"station_id":"ce4bgi92rcd13ifvqb90","pricing_plan_id":"free"},{"bike_id":"e096c9ae-f29c-4a7e-b651-9af2281dd0b8","system_id":"levelo_inurba_marseille","lat":43.2961,"lon":5.37715,"is_reserved":false,"is_disabled":false,"rental_uris":{"android":"levelo://app?vid=e096c9ae-f29c-4a7e-b651-9af2281dd0b8","ios":"levelo://app?vid=e096c9ae-f29c-4a7e-b651-9af2281dd0b8"},"vehicle_type_id":"4","last_reported":1700464032,"current_range_meters":22800,"station_id":"ce4bgi92rcd13ifvqb90","pricing_plan_id":"free"},{"bike_id":"c657266b-de91-49c5-a244-098fae6d8ab1","system_id":"levelo_inurba_marseille","lat":43.29613,"lon":5.37736,"is_reserved":false,"is_disabled":false,"rental_uris":{"android":"levelo://app?vid=c657266b-de91-49c5-a244-098fae6d8ab1","ios":"levelo://app?vid=c657266b-de91-49c5-a244-098fae6d8ab1"},"vehicle_type_id":"4","last_reported":1700464032,"current_range_meters":24800,"station_id":"ce4bgi92rcd13ifvqb90","pricing_plan_id":"free"},{"bike_id":"49b13a46-d50c-4b26-b800-3065917291cd","system_id":"levelo_inurba_marseille","lat":43.296063,"lon":5.377376,"is_reserved":false,"is_disabled":false,"rental_uris":{"android":"levelo://app?vid=49b13a46-d50c-4b26-b800-3065917291cd","ios":"levelo://app?vid=49b13a46-d50c-4b26-b800-3065917291cd"},"vehicle_type_id":"4","last_reported":1700464032,"current_range_meters":19600,"station_id":"ce4bgi92rcd13ifvqb90","pricing_plan_id":"free"},{"bike_id":"7e2dcf21-5769-4207-85c9-6f7e3ae1c1f8","system_id":"levelo_inurba_marseille","lat":43.29599,"lon":5.37725,"is_reserved":false,"is_disabled":false,"rental_uris":{"android":"levelo://app?vid=7e2dcf21-5769-4207-85c9-6f7e3ae1c1f8","ios":"levelo://app?vid=7e2dcf21-5769-4207-85c9-6f7e3ae1c1f8"},"vehicle_type_id":"4","last_reported":1700464032,"current_range_meters":10000,"station_id":"ce4bgi92rcd13ifvqb90","pricing_plan_id":"free"},{"bike_id":"1c3c5f1e-3b48-4c0d-9477-ed7c1342fcdc","system_id":"levelo_inurba_marseille","lat":43.295279,"lon":5.375048,"is_reserved":false,"is_disabled":false,"rental_uris":{"android":"levelo://app?vid=1c3c5f1e-3b48-4c0d-9477-ed7c1342fcdc","ios":"levelo://app?vid=1c3c5f1e-3b48-4c0d-9477-ed7c1342fcdc"},"vehicle_type_id":"4","last_reported":1700464032,"current_range_meters":25200,"station_id":"ce4bgkp2rcd13ifvqbmg","pricing_plan_id":"free"},{"bike_id":"61a9dc5b-a8d0-4beb-aab4-5fa9b9dd9e10","system_id":"levelo_inurba_marseille","lat":43.299717,"lon":5.384845,"is_reserved":false,"is_disabled":false,"rental_uris":{"android":"levelo://app?vid=61a9dc5b-a8d0-4beb-aab4-5fa9b9dd9e10","ios":"levelo://app?vid=61a9dc5b-a8d0-4beb-aab4-5fa9b9dd9e10"},"vehicle_type_id":"4","last_reported":1700464032,"current_range_meters":24000,"station_id":"ce4bgj92rcd13ifvqbd0","pricing_plan_id":"free"},{"bike_id":"25e97ca4-caac-4b29-9524-d02fab5f4e8a","system_id":"levelo_inurba_marseille","lat":43.31395,"lon":5.39294,"is_reserved":false,"is_disabled":false,"rental_uris":{"android":"levelo://app?vid=25e97ca4-caac-4b29-9524-d02fab5f4e8a","ios":"levelo://app?vid=25e97ca4-caac-4b29-9524-d02fab5f4e8a"},"vehicle_type_id":"4","last_reported":1700464032,"current_range_meters":19600,"station_id":"","pricing_plan_id":"free"},{"bike_id":"e145a3f7-00ac-4f8f-bfe5-435bc38ccaf7","system_id":"levelo_inurba_marseille","lat":43.293801,"lon":5.363066,"is_reserved":false,"is_disabled":false,"rental_uris":{"android":"levelo://app?vid=e145a3f7-00ac-4f8f-bfe5-435bc38ccaf7","ios":"levelo://app?vid=e145a3f7-00ac-4f8f-bfe5-435bc38ccaf7"},"vehicle_type_id":"4","last_reported":1700464032,"current_range_meters":20800,"station_id":"","pricing_plan_id":"free"},{"bike_id":"94f35869-741c-4e5f-8198-d4693fca93ce","system_id":"levelo_inurba_marseille","lat":43.323386,"lon":5.38964,"is_reserved":false,"is_disabled":false,"rental_uris":{"android":"levelo://app?vid=94f35869-741c-4e5f-8198-d4693fca93ce","ios":"levelo://app?vid=94f35869-741c-4e5f-8198-d4693fca93ce"},"vehicle_type_id":"4","last_reported":1700464032,"current_range_meters":0,"station_id":"","pricing_plan_id":"free"},{"bike_id":"68894c8b-2cff-4a7e-9b3e-629f276988a3","system_id":"levelo_inurba_marseille","lat":43.29601,"lon":5.381084,"is_reserved":false,"is_disabled":false,"rental_uris":{"android":"levelo://app?vid=68894c8b-2cff-4a7e-9b3e-629f276988a3","ios":"levelo://app?vid=68894c8b-2cff-4a7e-9b3e-629f276988a3"},"vehicle_type_id":"4","last_reported":1700464032,"current_range_meters":18000,"station_id":"ce4bgl12rcd13ifvqbo0","pricing_plan_id":"free"},{"bike_id":"56224e87-b76c-4552-ae94-145790882636","system_id":"levelo_inurba_marseille","lat":43.295943,"lon":5.381031,"is_reserved":false,"is_disabled":false,"rental_uris":{"android":"levelo://app?vid=56224e87-b76c-4552-ae94-145790882636","ios":"levelo://app?vid=56224e87-b76c-4552-ae94-145790882636"},"vehicle_type_id":"4","last_reported":1700464032,"current_range_meters":24000,"station_id":"ce4bgl12rcd13ifvqbo0","pricing_plan_id":"free"},{"bike_id":"1079dd62-0914-49a7-b707-bd746c4f995d","system_id":"levelo_inurba_marseille","lat":43.292749,"lon":5.368402,"is_reserved":false,"is_disabled":false,"rental_uris":{"android":"levelo://app?vid=1079dd62-0914-49a7-b707-bd746c4f995d","ios":"levelo://app?vid=1079dd62-0914-49a7-b707-bd746c4f995d"},"vehicle_type_id":"4","last_reported":1700464032,"current_range_meters":27600,"station_id":"ce4bhbp2rcd13ifvqesg","pricing_plan_id":"free"},{"bike_id":"5bf0267f-0708-4432-805a-722b1cc8d4c4","system_id":"levelo_inurba_marseille","lat":43.292761,"lon":5.368396,"is_reserved":false,"is_disabled":false,"rental_uris":{"android":"levelo://app?vid=5bf0267f-0708-4432-805a-722b1cc8d4c4","ios":"levelo://app?vid=5bf0267f-0708-4432-805a-722b1cc8d4c4"},"vehicle_type_id":"4","last_reported":1700464032,"current_range_meters":22800,"station_id":"ce4bhbp2rcd13ifvqesg","pricing_plan_id":"free"},{"bike_id":"7bfaab12-8b27-4ef6-88af-e5a7a0b52a27","system_id":"levelo_inurba_marseille","lat":43.292754,"lon":5.368404,"is_reserved":false,"is_disabled":false,"rental_uris":{"android":"levelo://app?vid=7bfaab12-8b27-4ef6-88af-e5a7a0b52a27","ios":"levelo://app?vid=7bfaab12-8b27-4ef6-88af-e5a7a0b52a27"},"vehicle_type_id":"4","last_reported":1700464032,"current_range_meters":30000,"station_id":"ce4bhbp2rcd13ifvqesg","pricing_plan_id":"free"},{"bike_id":"17caa0b4-1fcd-4596-9270-5d412834ea25","system_id":"levelo_inurba_marseille","lat":43.292749,"lon":5.368402,"is_reserved":false,"is_disabled":false,"rental_uris":{"android":"levelo://app?vid=17caa0b4-1fcd-4596-9270-5d412834ea25","ios":"levelo://app?vid=17caa0b4-1fcd-4596-9270-5d412834ea25"},"vehicle_type_id":"4","last_reported":1700464032,"current_range_meters":28000,"station_id":"ce4bhbp2rcd13ifvqesg","pricing_plan_id":"free"},{"bike_id":"d41deec9-7861-448e-a9e2-745a49f146dc","system_id":"levelo_inurba_marseille","lat":43.29264,"lon":5.36833,"is_reserved":false,"is_disabled":false,"rental_uris":{"android":"levelo://app?vid=d41deec9-7861-448e-a9e2-745a49f146dc","ios":"levelo://app?vid=d41deec9-7861-448e-a9e2-745a49f146dc"},"vehicle_type_id":"4","last_reported":1700464032,"current_range_meters":28800,"station_id":"ce4bhbp2rcd13ifvqesg","pricing_plan_id":"free"},{"bike_id":"3eaa2958-122c-4ba4-b541-37bb54b9f83f","system_id":"levelo_inurba_marseille","lat":43.305994,"lon":5.393687,"is_reserved":false,"is_disabled":false,"rental_uris":{"android":"levelo://app?vid=3eaa2958-122c-4ba4-b541-37bb54b9f83f","ios":"levelo://app?vid=3eaa2958-122c-4ba4-b541-37bb54b9f83f"},"vehicle_type_id":"4","last_reported":1700464032,"current_range_meters":24400,"station_id":"ce4bh0p2rcd13ifvqd80","pricing_plan_id":"free"},{"bike_id":"ad7b7cad-4cfb-4dad-b54d-e3a1494360b9","system_id":"levelo_inurba_marseille","lat":43.305994,"lon":5.393687,"is_reserved":false,"is_disabled":false,"rental_uris":{"android":"levelo://app?vid=ad7b7cad-4cfb-4dad-b54d-e3a1494360b9","ios":"levelo://app?vid=ad7b7cad-4cfb-4dad-b54d-e3a1494360b9"},"vehicle_type_id":"4","last_reported":1700464032,"current_range_meters":22400,"station_id":"ce4bh0p2rcd13ifvqd80","pricing_plan_id":"free"},{"bike_id":"66960680-476f-4901-b588-e3ca3c403f11","system_id":"levelo_inurba_marseille","lat":43.305994,"lon":5.393687,"is_reserved":false,"is_disabled":false,"rental_uris":{"android":"levelo://app?vid=66960680-476f-4901-b588-e3ca3c403f11","ios":"levelo://app?vid=66960680-476f-4901-b588-e3ca3c403f11"},"vehicle_type_id":"4","last_reported":1700464032,"current_range_meters":11200,"station_id":"ce4bh0p2rcd13ifvqd80","pricing_plan_id":"free"},{"bike_id":"d183580b-2bc8-4147-a54a-b49826e94be0","system_id":"levelo_inurba_marseille","lat":43.303002,"lon":5.392142,"is_reserved":false,"is_disabled":false,"rental_uris":{"android":"levelo://app?vid=d183580b-2bc8-4147-a54a-b49826e94be0","ios":"levelo://app?vid=d183580b-2bc8-4147-a54a-b49826e94be0"},"vehicle_type_id":"4","last_reported":1700464032,"current_range_meters":20400,"station_id":"ce4bgkh2rcd13ifvqbk0","pricing_plan_id":"free"},{"bike_id":"b4895ba3-9ee0-478b-83e5-204bcabc55c7","system_id":"levelo_inurba_marseille","lat":43.293672,"lon":5.378534,"is_reserved":false,"is_disabled":false,"rental_uris":{"android":"levelo://app?vid=b4895ba3-9ee0-478b-83e5-204bcabc55c7","ios":"levelo://app?vid=b4895ba3-9ee0-478b-83e5-204bcabc55c7"},"vehicle_type_id":"4","last_reported":1700464032,"current_range_meters":0,"station_id":"ce4bgjh2rcd13ifvqbf0","pricing_plan_id":"free"},{"bike_id":"0d857033-a59a-4c87-abc1-2d8380f449bf","system_id":"levelo_inurba_marseille","lat":43.29361,"lon":5.37846,"is_reserved":false,"is_disabled":false,"rental_uris":{"android":"levelo://app?vid=0d857033-a59a-4c87-abc1-2d8380f449bf","ios":"levelo://app?vid=0d857033-a59a-4c87-abc1-2d8380f449bf"},"vehicle_type_id":"4","last_reported":1700464032,"current_range_meters":0,"station_id":"ce4bgjh2rcd13ifvqbf0","pricing_plan_id":"free"},{"bike_id":"5a51e3fc-4a00-4be7-817a-21f6e21d89f4","system_id":"levelo_inurba_marseille","lat":43.2936,"lon":5.37835,"is_reserved":false,"is_disabled":false,"rental_uris":{"android":"levelo://app?vid=5a51e3fc-4a00-4be7-817a-21f6e21d89f4","ios":"levelo://app?vid=5a51e3fc-4a00-4be7-817a-21f6e21d89f4"},"vehicle_type_id":"4","last_reported":1700464032,"current_range_meters":27200,"station_id":"ce4bgjh2rcd13ifvqbf0","pricing_plan_id":"free"},{"bike_id":"7d7fb69c-2594-4d38-9af6-7f4297be0462","system_id":"levelo_inurba_marseille","lat":43.292311,"lon":5.360731,"is_reserved":false,"is_disabled":false,"rental_uris":{"android":"levelo://app?vid=7d7fb69c-2594-4d38-9af6-7f4297be0462","ios":"levelo://app?vid=7d7fb69c-2594-4d38-9af6-7f4297be0462"},"vehicle_type_id":"4","last_reported":1700464032,"current_range_meters":15200,"station_id":"ce4bhbh2rcd13ifvqeqg","pricing_plan_id":"free"},{"bike_id":"c0d82a05-cfc2-4c40-afb4-459cb4e7a3fb","system_id":"levelo_inurba_marseille","lat":43.292311,"lon":5.360731,"is_reserved":false,"is_disabled":false,"rental_uris":{"android":"levelo://app?vid=c0d82a05-cfc2-4c40-afb4-459cb4e7a3fb","ios":"levelo://app?vid=c0d82a05-cfc2-4c40-afb4-459cb4e7a3fb"},"vehicle_type_id":"4","last_reported":1700464032,"current_range_meters":27200,"station_id":"ce4bhbh2rcd13ifvqeqg","pricing_plan_id":"free"},{"bike_id":"5d96c0aa-544a-4c1d-99c1-1295b4beedc2","system_id":"levelo_inurba_marseille","lat":43.29212,"lon":5.36055,"is_reserved":false,"is_disabled":false,"rental_uris":{"android":"levelo://app?vid=5d96c0aa-544a-4c1d-99c1-1295b4beedc2","ios":"levelo://app?vid=5d96c0aa-544a-4c1d-99c1-1295b4beedc2"},"vehicle_type_id":"4","last_reported":1700464032,"current_range_meters":19600,"station_id":"ce4bhbh2rcd13ifvqeqg","pricing_plan_id":"free"},{"bike_id":"e7f31465-2a15-41cc-b519-899d554e560e","system_id":"levelo_inurba_marseille","lat":43.30085,"lon":5.390856,"is_reserved":false,"is_disabled":false,"rental_uris":{"android":"levelo://app?vid=e7f31465-2a15-41cc-b519-899d554e560e","ios":"levelo://app?vid=e7f31465-2a15-41cc-b519-899d554e560e"},"vehicle_type_id":"4","last_reported":1700464032,"current_range_meters":30400,"station_id":"ce4bh192rcd13ifvqdb0","pricing_plan_id":"free"},{"bike_id":"6cecd902-3c47-4f83-8244-6debc3f8fb91","system_id":"levelo_inurba_marseille","lat":43.298764,"lon":5.388973,"is_reserved":false,"is_disabled":false,"rental_uris":{"android":"levelo://app?vid=6cecd902-3c47-4f83-8244-6debc3f8fb91","ios":"levelo://app?vid=6cecd902-3c47-4f83-8244-6debc3f8fb91"},"vehicle_type_id":"4","last_reported":1700464032,"current_range_meters":26400,"station_id":"ce4bh392rcd13ifvqdl0","pricing_plan_id":"free"},{"bike_id":"e9cf43c3-6023-4c8b-a186-04514c11170b","system_id":"levelo_inurba_marseille","lat":43.291675,"lon":5.371583,"is_reserved":false,"is_disabled":false,"rental_uris":{"android":"levelo://app?vid=e9cf43c3-6023-4c8b-a186-04514c11170b","ios":"levelo://app?vid=e9cf43c3-6023-4c8b-a186-04514c11170b"},"vehicle_type_id":"4","last_reported":1700464032,"current_range_meters":28000,"station_id":"ce4bha92rcd13ifvqeh0","pricing_plan_id":"free"},{"bike_id":"725c311e-49c6-49d7-a593-d1933a81ff02","system_id":"levelo_inurba_marseille","lat":43.29531,"lon":5.38551,"is_reserved":false,"is_disabled":false,"rental_uris":{"android":"levelo://app?vid=725c311e-49c6-49d7-a593-d1933a81ff02","ios":"levelo://app?vid=725c311e-49c6-49d7-a593-d1933a81ff02"},"vehicle_type_id":"4","last_reported":1700464032,"current_range_meters":20800,"station_id":"ce4bgih2rcd13ifvqba0","pricing_plan_id":"free"},{"bike_id":"df42fb4b-e129-4938-9edd-59b33e8710a6","system_id":"levelo_inurba_marseille","lat":43.302008,"lon":5.394694,"is_reserved":false,"is_disabled":false,"rental_uris":{"android":"levelo://app?vid=df42fb4b-e129-4938-9edd-59b33e8710a6","ios":"levelo://app?vid=df42fb4b-e129-4938-9edd-59b33e8710a6"},"vehicle_type_id":"4","last_reported":1700464032,"current_range_meters":25600,"station_id":"ce4bh0p2rcd13ifvqd70","pricing_plan_id":"free"},{"bike_id":"96daea24-4845-4586-acb2-31eabd399abb","system_id":"levelo_inurba_marseille","lat":43.28954,"lon":5.36634,"is_reserved":false,"is_disabled":false,"rental_uris":{"android":"levelo://app?vid=96daea24-4845-4586-acb2-31eabd399abb","ios":"levelo://app?vid=96daea24-4845-4586-acb2-31eabd399abb"},"vehicle_type_id":"4","last_reported":1700464032,"current_range_meters":0,"station_id":"ce4bhap2rcd13ifvqek0","pricing_plan_id":"free"},{"bike_id":"37077c84-f968-4581-b9bb-5e3bdecaaea1","system_id":"levelo_inurba_marseille","lat":43.289184,"lon":5.366408,"is_reserved":false,"is_disabled":false,"rental_uris":{"android":"levelo://app?vid=37077c84-f968-4581-b9bb-5e3bdecaaea1","ios":"levelo://app?vid=37077c84-f968-4581-b9bb-5e3bdecaaea1"},"vehicle_type_id":"4","last_reported":1700464032,"current_range_meters":26400,"station_id":"ce4bhap2rcd13ifvqek0","pricing_plan_id":"free"},{"bike_id":"bde7dd06-baa8-44cf-b42e-76b661db65ea","system_id":"levelo_inurba_marseille","lat":43.29414,"lon":5.38626,"is_reserved":false,"is_disabled":false,"rental_uris":{"android":"levelo://app?vid=bde7dd06-baa8-44cf-b42e-76b661db65ea","ios":"levelo://app?vid=bde7dd06-baa8-44cf-b42e-76b661db65ea"},"vehicle_type_id":"4","last_reported":1700464032,"current_range_meters":31200,"station_id":"ce4bh2h2rcd13ifvqdh0","pricing_plan_id":"free"},{"bike_id":"d5848f31-58a3-4c74-bc49-bad9316ea6f9","system_id":"levelo_inurba_marseille","lat":43.289184,"lon":5.366408,"is_reserved":false,"is_disabled":false,"rental_uris":{"android":"levelo://app?vid=d5848f31-58a3-4c74-bc49-bad9316ea6f9","ios":"levelo://app?vid=d5848f31-58a3-4c74-bc49-bad9316ea6f9"},"vehicle_type_id":"4","last_reported":1700464032,"current_range_meters":17600,"station_id":"ce4bhap2rcd13ifvqek0","pricing_plan_id":"free"},{"bike_id":"2d79dbd8-a0b4-4bfa-b687-01346073c960","system_id":"levelo_inurba_marseille","lat":43.289363,"lon":5.396322,"is_reserved":false,"is_disabled":false,"rental_uris":{"android":"levelo://app?vid=2d79dbd8-a0b4-4bfa-b687-01346073c960","ios":"levelo://app?vid=2d79dbd8-a0b4-4bfa-b687-01346073c960"},"vehicle_type_id":"4","last_reported":1700464032,"current_range_meters":22000,"station_id":"ce4bh3h2rcd13ifvqdn0","pricing_plan_id":"free"},{"bike_id":"15c1608c-3e2b-4660-b347-d18a799903fc","system_id":"levelo_inurba_marseille","lat":43.289468,"lon":5.363719,"is_reserved":false,"is_disabled":false,"rental_uris":{"android":"levelo://app?vid=15c1608c-3e2b-4660-b347-d18a799903fc","ios":"levelo://app?vid=15c1608c-3e2b-4660-b347-d18a799903fc"},"vehicle_type_id":"4","last_reported":1700464032,"current_range_meters":23200,"station_id":"ce4bhc92rcd13ifvqetg","pricing_plan_id":"free"},{"bike_id":"54dd1707-857e-4938-93c6-dbd53af622c8","system_id":"levelo_inurba_marseille","lat":43.28927,"lon":5.36375,"is_reserved":false,"is_disabled":false,"rental_uris":{"android":"levelo://app?vid=54dd1707-857e-4938-93c6-dbd53af622c8","ios":"levelo://app?vid=54dd1707-857e-4938-93c6-dbd53af622c8"},"vehicle_type_id":"4","last_reported":1700464032,"current_range_meters":4800,"station_id":"ce4bhc92rcd13ifvqetg","pricing_plan_id":"free"},{"bike_id":"fdba319d-6337-4438-a921-76e8c1047baa","system_id":"levelo_inurba_marseille","lat":43.292642,"lon":5.384254,"is_reserved":false,"is_disabled":false,"rental_uris":{"android":"levelo://app?vid=fdba319d-6337-4438-a921-76e8c1047baa","ios":"levelo://app?vid=fdba319d-6337-4438-a921-76e8c1047baa"},"vehicle_type_id":"4","last_reported":1700464032,"current_range_meters":12800,"station_id":"ce4bh692rcd13ifvqea0","pricing_plan_id":"free"},{"bike_id":"0231289e-f0af-4e26-98c4-789c92235ce0","system_id":"levelo_inurba_marseille","lat":43.304274,"lon":5.397513,"is_reserved":false,"is_disabled":false,"rental_uris":{"android":"levelo://app?vid=0231289e-f0af-4e26-98c4-789c92235ce0","ios":"levelo://app?vid=0231289e-f0af-4e26-98c4-789c92235ce0"},"vehicle_type_id":"4","last_reported":1700464032,"current_range_meters":12800,"station_id":"ce4bh092rcd13ifvqd20","pricing_plan_id":"free"},{"bike_id":"b9f8993a-c3fa-4e2b-b420-139b637a3c52","system_id":"levelo_inurba_marseille","lat":43.284793,"lon":5.384119,"is_reserved":false,"is_disabled":false,"rental_uris":{"android":"levelo://app?vid=b9f8993a-c3fa-4e2b-b420-139b637a3c52","ios":"levelo://app?vid=b9f8993a-c3fa-4e2b-b420-139b637a3c52"},"vehicle_type_id":"4","last_reported":1700464032,"current_range_meters":17200,"station_id":"ce4bh512rcd13ifvqe3g","pricing_plan_id":"free"},{"bike_id":"c16593d8-d922-4173-8630-155356ced436","system_id":"levelo_inurba_marseille","lat":43.290995,"lon":5.381361,"is_reserved":false,"is_disabled":false,"rental_uris":{"android":"levelo://app?vid=c16593d8-d922-4173-8630-155356ced436","ios":"levelo://app?vid=c16593d8-d922-4173-8630-155356ced436"},"vehicle_type_id":"4","last_reported":1700464032,"current_range_meters":26000,"station_id":"ce4bh512rcd13ifvqe2g","pricing_plan_id":"free"},{"bike_id":"5eaf7b99-7ba5-4698-bde6-ee022b65ff15","system_id":"levelo_inurba_marseille","lat":43.290104,"lon":5.356111,"is_reserved":false,"is_disabled":false,"rental_uris":{"android":"levelo://app?vid=5eaf7b99-7ba5-4698-bde6-ee022b65ff15","ios":"levelo://app?vid=5eaf7b99-7ba5-4698-bde6-ee022b65ff15"},"vehicle_type_id":"4","last_reported":1700464032,"current_range_meters":24400,"station_id":"ce4bhb92rcd13ifvqen0","pricing_plan_id":"free"},{"bike_id":"5d56f7ce-3a2e-405f-88e1-fad40d4e0d92","system_id":"levelo_inurba_marseille","lat":43.290104,"lon":5.356111,"is_reserved":false,"is_disabled":false,"rental_uris":{"android":"levelo://app?vid=5d56f7ce-3a2e-405f-88e1-fad40d4e0d92","ios":"levelo://app?vid=5d56f7ce-3a2e-405f-88e1-fad40d4e0d92"},"vehicle_type_id":"4","last_reported":1700464032,"current_range_meters":24800,"station_id":"ce4bhb92rcd13ifvqen0","pricing_plan_id":"free"},{"bike_id":"326e9195-78e6-42e8-ad09-06ab41d43bdc","system_id":"levelo_inurba_marseille","lat":43.290995,"lon":5.381361,"is_reserved":false,"is_disabled":false,"rental_uris":{"android":"levelo://app?vid=326e9195-78e6-42e8-ad09-06ab41d43bdc","ios":"levelo://app?vid=326e9195-78e6-42e8-ad09-06ab41d43bdc"},"vehicle_type_id":"4","last_reported":1700464032,"current_range_meters":8000,"station_id":"ce4bh512rcd13ifvqe2g","pricing_plan_id":"free"},{"bike_id":"90cd6d0d-5456-439b-8b10-5d1af17dd18e","system_id":"levelo_inurba_marseille","lat":43.291017,"lon":5.381558,"is_reserved":false,"is_disabled":false,"rental_uris":{"android":"levelo://app?vid=90cd6d0d-5456-439b-8b10-5d1af17dd18e","ios":"levelo://app?vid=90cd6d0d-5456-439b-8b10-5d1af17dd18e"},"vehicle_type_id":"4","last_reported":1700464032,"current_range_meters":30400,"station_id":"ce4bh512rcd13ifvqe2g","pricing_plan_id":"free"},{"bike_id":"0329d817-c869-4aa1-8e50-d6a270e268d9","system_id":"levelo_inurba_marseille","lat":43.290995,"lon":5.381361,"is_reserved":false,"is_disabled":false,"rental_uris":{"android":"levelo://app?vid=0329d817-c869-4aa1-8e50-d6a270e268d9","ios":"levelo://app?vid=0329d817-c869-4aa1-8e50-d6a270e268d9"},"vehicle_type_id":"4","last_reported":1700464032,"current_range_meters":30400,"station_id":"ce4bh512rcd13ifvqe2g","pricing_plan_id":"free"},{"bike_id":"db36bf19-809a-43d6-89b3-a02362a882e1","system_id":"levelo_inurba_marseille","lat":43.29092,"lon":5.381513,"is_reserved":false,"is_disabled":false,"rental_uris":{"android":"levelo://app?vid=db36bf19-809a-43d6-89b3-a02362a882e1","ios":"levelo://app?vid=db36bf19-809a-43d6-89b3-a02362a882e1"},"vehicle_type_id":"4","last_reported":1700464032,"current_range_meters":31200,"station_id":"ce4bh512rcd13ifvqe2g","pricing_plan_id":"free"},{"bike_id":"7e49f5c0-3957-436d-856b-571f885565fe","system_id":"levelo_inurba_marseille","lat":43.289743,"lon":5.378304,"is_reserved":false,"is_disabled":false,"rental_uris":{"android":"levelo://app?vid=7e49f5c0-3957-436d-856b-571f885565fe","ios":"levelo://app?vid=7e49f5c0-3957-436d-856b-571f885565fe"},"vehicle_type_id":"4","last_reported":1700464032,"current_range_meters":9200,"station_id":"ce4bh9p2rcd13ifvqed0","pricing_plan_id":"free"},{"bike_id":"7e32be8a-f777-4c46-9ce9-34c4d4419e31","system_id":"levelo_inurba_marseille","lat":43.289741,"lon":5.378306,"is_reserved":false,"is_disabled":false,"rental_uris":{"android":"levelo://app?vid=7e32be8a-f777-4c46-9ce9-34c4d4419e31","ios":"levelo://app?vid=7e32be8a-f777-4c46-9ce9-34c4d4419e31"},"vehicle_type_id":"4","last_reported":1700464032,"current_range_meters":29200,"station_id":"ce4bh9p2rcd13ifvqed0","pricing_plan_id":"free"},{"bike_id":"bdf99bea-c672-4fa7-a5c2-6715cfa468a1","system_id":"levelo_inurba_marseille","lat":43.290094,"lon":5.381264,"is_reserved":false,"is_disabled":false,"rental_uris":{"android":"levelo://app?vid=bdf99bea-c672-4fa7-a5c2-6715cfa468a1","ios":"levelo://app?vid=bdf99bea-c672-4fa7-a5c2-6715cfa468a1"},"vehicle_type_id":"4","last_reported":1700464032,"current_range_meters":27200,"station_id":"ce4bh4p2rcd13ifvqe1g","pricing_plan_id":"free"},{"bike_id":"07202f70-50d7-46f0-a5bd-59712659d6a0","system_id":"levelo_inurba_marseille","lat":43.31251,"lon":5.40162,"is_reserved":false,"is_disabled":false,"rental_uris":{"android":"levelo://app?vid=07202f70-50d7-46f0-a5bd-59712659d6a0","ios":"levelo://app?vid=07202f70-50d7-46f0-a5bd-59712659d6a0"},"vehicle_type_id":"4","last_reported":1700464032,"current_range_meters":8000,"station_id":"","pricing_plan_id":"free"},{"bike_id":"89b48ee5-03b6-498d-b028-437a2392771f","system_id":"levelo_inurba_marseille","lat":43.309371,"lon":5.401449,"is_reserved":false,"is_disabled":false,"rental_uris":{"android":"levelo://app?vid=89b48ee5-03b6-498d-b028-437a2392771f","ios":"levelo://app?vid=89b48ee5-03b6-498d-b028-437a2392771f"},"vehicle_type_id":"4","last_reported":1700464032,"current_range_meters":30800,"station_id":"ce4bgvp2rcd13ifvqct0","pricing_plan_id":"free"},{"bike_id":"cfc9df73-0dff-470f-ae7a-631de9f2996f","system_id":"levelo_inurba_marseille","lat":43.278128,"lon":5.407195,"is_reserved":false,"is_disabled":false,"rental_uris":{"android":"levelo://app?vid=cfc9df73-0dff-470f-ae7a-631de9f2996f","ios":"levelo://app?vid=cfc9df73-0dff-470f-ae7a-631de9f2996f"},"vehicle_type_id":"4","last_reported":1700464032,"current_range_meters":13200,"station_id":"ce4bhnh2rcd13ifvqgtg","pricing_plan_id":"free"},{"bike_id":"7eee8781-f04f-41f7-95c3-880f41583029","system_id":"levelo_inurba_marseille","lat":43.30133,"lon":5.398794,"is_reserved":false,"is_disabled":false,"rental_uris":{"android":"levelo://app?vid=7eee8781-f04f-41f7-95c3-880f41583029","ios":"levelo://app?vid=7eee8781-f04f-41f7-95c3-880f41583029"},"vehicle_type_id":"4","last_reported":1700464032,"current_range_meters":12400,"station_id":"ce4bh0h2rcd13ifvqd40","pricing_plan_id":"free"},{"bike_id":"d36fffdd-302e-49a5-a8d7-2e227af2859e","system_id":"levelo_inurba_marseille","lat":43.286961,"lon":5.373785,"is_reserved":false,"is_disabled":false,"rental_uris":{"android":"levelo://app?vid=d36fffdd-302e-49a5-a8d7-2e227af2859e","ios":"levelo://app?vid=d36fffdd-302e-49a5-a8d7-2e227af2859e"},"vehicle_type_id":"4","last_reported":1700464032,"current_range_meters":1200,"station_id":"ce4bh3p2rcd13ifvqdq0","pricing_plan_id":"free"},{"bike_id":"668a58be-3b97-49b0-8ecb-a2d5b16ce93b","system_id":"levelo_inurba_marseille","lat":43.286591,"lon":5.363346,"is_reserved":false,"is_disabled":false,"rental_uris":{"android":"levelo://app?vid=668a58be-3b97-49b0-8ecb-a2d5b16ce93b","ios":"levelo://app?vid=668a58be-3b97-49b0-8ecb-a2d5b16ce93b"},"vehicle_type_id":"4","last_reported":1700464032,"current_range_meters":27200,"station_id":"ce4bhah2rcd13ifvqej0","pricing_plan_id":"free"},{"bike_id":"ac565028-1bb3-4216-89d9-edc3cef2e6b5","system_id":"levelo_inurba_marseille","lat":43.286961,"lon":5.373785,"is_reserved":false,"is_disabled":false,"rental_uris":{"android":"levelo://app?vid=ac565028-1bb3-4216-89d9-edc3cef2e6b5","ios":"levelo://app?vid=ac565028-1bb3-4216-89d9-edc3cef2e6b5"},"vehicle_type_id":"4","last_reported":1700464032,"current_range_meters":28800,"station_id":"ce4bh3p2rcd13ifvqdq0","pricing_plan_id":"free"},{"bike_id":"af9aefbe-b235-473b-9bcf-e66df04474ee","system_id":"levelo_inurba_marseille","lat":43.302759,"lon":5.400793,"is_reserved":false,"is_disabled":false,"rental_uris":{"android":"levelo://app?vid=af9aefbe-b235-473b-9bcf-e66df04474ee","ios":"levelo://app?vid=af9aefbe-b235-473b-9bcf-e66df04474ee"},"vehicle_type_id":"4","last_reported":1700464032,"current_range_meters":17600,"station_id":"ce4bgvh2rcd13ifvqcs0","pricing_plan_id":"free"},{"bike_id":"f59957d6-9ed1-464f-8593-d819bbbb30b2","system_id":"levelo_inurba_marseille","lat":43.29043,"lon":5.38619,"is_reserved":false,"is_disabled":false,"rental_uris":{"android":"levelo://app?vid=f59957d6-9ed1-464f-8593-d819bbbb30b2","ios":"levelo://app?vid=f59957d6-9ed1-464f-8593-d819bbbb30b2"},"vehicle_type_id":"4","last_reported":1700464032,"current_range_meters":7200,"station_id":"ce4bh4p2rcd13ifvqe0g","pricing_plan_id":"free"},{"bike_id":"36b8cb03-7fdc-4f59-bb54-bddff51e4ed1","system_id":"levelo_inurba_marseille","lat":43.29041,"lon":5.38633,"is_reserved":false,"is_disabled":false,"rental_uris":{"android":"levelo://app?vid=36b8cb03-7fdc-4f59-bb54-bddff51e4ed1","ios":"levelo://app?vid=36b8cb03-7fdc-4f59-bb54-bddff51e4ed1"},"vehicle_type_id":"4","last_reported":1700464032,"current_range_meters":24800,"station_id":"ce4bh4p2rcd13ifvqe0g","pricing_plan_id":"free"},{"bike_id":"54d65b00-44a6-4bd0-afcc-58a3dcf3be4d","system_id":"levelo_inurba_marseille","lat":43.290318,"lon":5.386319,"is_reserved":false,"is_disabled":false,"rental_uris":{"android":"levelo://app?vid=54d65b00-44a6-4bd0-afcc-58a3dcf3be4d","ios":"levelo://app?vid=54d65b00-44a6-4bd0-afcc-58a3dcf3be4d"},"vehicle_type_id":"4","last_reported":1700464032,"current_range_meters":24000,"station_id":"ce4bh4p2rcd13ifvqe0g","pricing_plan_id":"free"},{"bike_id":"6e65880d-414e-4771-8b8f-4db54365c8b7","system_id":"levelo_inurba_marseille","lat":43.290315,"lon":5.38635,"is_reserved":false,"is_disabled":false,"rental_uris":{"android":"levelo://app?vid=6e65880d-414e-4771-8b8f-4db54365c8b7","ios":"levelo://app?vid=6e65880d-414e-4771-8b8f-4db54365c8b7"},"vehicle_type_id":"4","last_reported":1700464032,"current_range_meters":31600,"station_id":"ce4bh4p2rcd13ifvqe0g","pricing_plan_id":"free"},{"bike_id":"d05e158e-0ac1-49f8-95e0-a69beeb39669","system_id":"levelo_inurba_marseille","lat":43.287184,"lon":5.37937,"is_reserved":false,"is_disabled":false,"rental_uris":{"android":"levelo://app?vid=d05e158e-0ac1-49f8-95e0-a69beeb39669","ios":"levelo://app?vid=d05e158e-0ac1-49f8-95e0-a69beeb39669"},"vehicle_type_id":"4","last_reported":1700464032,"current_range_meters":29600,"station_id":"ce4bh9p2rcd13ifvqec0","pricing_plan_id":"free"},{"bike_id":"92027e4c-40f4-4d4f-8297-e8f99f4fffd5","system_id":"levelo_inurba_marseille","lat":43.302759,"lon":5.400793,"is_reserved":false,"is_disabled":false,"rental_uris":{"android":"levelo://app?vid=92027e4c-40f4-4d4f-8297-e8f99f4fffd5","ios":"levelo://app?vid=92027e4c-40f4-4d4f-8297-e8f99f4fffd5"},"vehicle_type_id":"4","last_reported":1700464032,"current_range_meters":21600,"station_id":"ce4bgvh2rcd13ifvqcs0","pricing_plan_id":"free"},{"bike_id":"0b10bde5-2250-45ff-800b-b81f53caf4c1","system_id":"levelo_inurba_marseille","lat":43.302759,"lon":5.400793,"is_reserved":false,"is_disabled":false,"rental_uris":{"android":"levelo://app?vid=0b10bde5-2250-45ff-800b-b81f53caf4c1","ios":"levelo://app?vid=0b10bde5-2250-45ff-800b-b81f53caf4c1"},"vehicle_type_id":"4","last_reported":1700464032,"current_range_meters":26800,"station_id":"ce4bgvh2rcd13ifvqcs0","pricing_plan_id":"free"},{"bike_id":"fe52ad3c-5597-4e56-bcbd-867295a79b15","system_id":"levelo_inurba_marseille","lat":43.302759,"lon":5.400793,"is_reserved":false,"is_disabled":false,"rental_uris":{"android":"levelo://app?vid=fe52ad3c-5597-4e56-bcbd-867295a79b15","ios":"levelo://app?vid=fe52ad3c-5597-4e56-bcbd-867295a79b15"},"vehicle_type_id":"4","last_reported":1700464032,"current_range_meters":27600,"station_id":"ce4bgvh2rcd13ifvqcs0","pricing_plan_id":"free"},{"bike_id":"10846c1c-adac-4b3e-b6f3-5f02ec764ad7","system_id":"levelo_inurba_marseille","lat":43.28732,"lon":5.37934,"is_reserved":false,"is_disabled":false,"rental_uris":{"android":"levelo://app?vid=10846c1c-adac-4b3e-b6f3-5f02ec764ad7","ios":"levelo://app?vid=10846c1c-adac-4b3e-b6f3-5f02ec764ad7"},"vehicle_type_id":"4","last_reported":1700464032,"current_range_meters":30800,"station_id":"ce4bh9p2rcd13ifvqec0","pricing_plan_id":"free"},{"bike_id":"912e2028-e554-429e-8cf8-059f5d0e89b5","system_id":"levelo_inurba_marseille","lat":43.287184,"lon":5.37937,"is_reserved":false,"is_disabled":false,"rental_uris":{"android":"levelo://app?vid=912e2028-e554-429e-8cf8-059f5d0e89b5","ios":"levelo://app?vid=912e2028-e554-429e-8cf8-059f5d0e89b5"},"vehicle_type_id":"4","last_reported":1700464032,"current_range_meters":28000,"station_id":"ce4bh9p2rcd13ifvqec0","pricing_plan_id":"free"},{"bike_id":"f68835ac-3180-4382-b03d-23b22ed38a1f","system_id":"levelo_inurba_marseille","lat":43.287185,"lon":5.379373,"is_reserved":false,"is_disabled":false,"rental_uris":{"android":"levelo://app?vid=f68835ac-3180-4382-b03d-23b22ed38a1f","ios":"levelo://app?vid=f68835ac-3180-4382-b03d-23b22ed38a1f"},"vehicle_type_id":"4","last_reported":1700464032,"current_range_meters":28400,"station_id":"ce4bh9p2rcd13ifvqec0","pricing_plan_id":"free"},{"bike_id":"c8311cde-a50e-4e9d-bee0-d4a84baa4120","system_id":"levelo_inurba_marseille","lat":43.28728,"lon":5.37934,"is_reserved":false,"is_disabled":false,"rental_uris":{"android":"levelo://app?vid=c8311cde-a50e-4e9d-bee0-d4a84baa4120","ios":"levelo://app?vid=c8311cde-a50e-4e9d-bee0-d4a84baa4120"},"vehicle_type_id":"4","last_reported":1700464032,"current_range_meters":16800,"station_id":"ce4bh9p2rcd13ifvqec0","pricing_plan_id":"free"},{"bike_id":"5c379e7f-5bef-4a63-a227-84cb384a65f9","system_id":"levelo_inurba_marseille","lat":43.287185,"lon":5.379373,"is_reserved":false,"is_disabled":false,"rental_uris":{"android":"levelo://app?vid=5c379e7f-5bef-4a63-a227-84cb384a65f9","ios":"levelo://app?vid=5c379e7f-5bef-4a63-a227-84cb384a65f9"},"vehicle_type_id":"4","last_reported":1700464032,"current_range_meters":23600,"station_id":"ce4bh9p2rcd13ifvqec0","pricing_plan_id":"free"},{"bike_id":"fae6cca4-43cd-415f-8d18-806d272f4928","system_id":"levelo_inurba_marseille","lat":43.287184,"lon":5.37937,"is_reserved":false,"is_disabled":false,"rental_uris":{"android":"levelo://app?vid=fae6cca4-43cd-415f-8d18-806d272f4928","ios":"levelo://app?vid=fae6cca4-43cd-415f-8d18-806d272f4928"},"vehicle_type_id":"4","last_reported":1700464032,"current_range_meters":26400,"station_id":"ce4bh9p2rcd13ifvqec0","pricing_plan_id":"free"},{"bike_id":"86396883-b8ed-47db-ad5d-36e93ff75633","system_id":"levelo_inurba_marseille","lat":43.28617,"lon":5.35101,"is_reserved":false,"is_disabled":false,"rental_uris":{"android":"levelo://app?vid=86396883-b8ed-47db-ad5d-36e93ff75633","ios":"levelo://app?vid=86396883-b8ed-47db-ad5d-36e93ff75633"},"vehicle_type_id":"4","last_reported":1700464032,"current_range_meters":14800,"station_id":"ce4bhch2rcd13ifvqeug","pricing_plan_id":"free"},{"bike_id":"38a9956c-e9e2-49db-bda6-2d7b54a9aa53","system_id":"levelo_inurba_marseille","lat":43.28615,"lon":5.35098,"is_reserved":false,"is_disabled":false,"rental_uris":{"android":"levelo://app?vid=38a9956c-e9e2-49db-bda6-2d7b54a9aa53","ios":"levelo://app?vid=38a9956c-e9e2-49db-bda6-2d7b54a9aa53"},"vehicle_type_id":"4","last_reported":1700464032,"current_range_meters":30400,"station_id":"ce4bhch2rcd13ifvqeug","pricing_plan_id":"free"},{"bike_id":"f0fb4e2c-cadf-42e0-a900-ac5de8fa229a","system_id":"levelo_inurba_marseille","lat":43.283998,"lon":5.375062,"is_reserved":false,"is_disabled":false,"rental_uris":{"android":"levelo://app?vid=f0fb4e2c-cadf-42e0-a900-ac5de8fa229a","ios":"levelo://app?vid=f0fb4e2c-cadf-42e0-a900-ac5de8fa229a"},"vehicle_type_id":"4","last_reported":1700464032,"current_range_meters":25200,"station_id":"ce4bh412rcd13ifvqds0","pricing_plan_id":"free"},{"bike_id":"01ff1e4f-1706-466c-9dc2-c4efe5e8bf45","system_id":"levelo_inurba_marseille","lat":43.283998,"lon":5.375062,"is_reserved":false,"is_disabled":false,"rental_uris":{"android":"levelo://app?vid=01ff1e4f-1706-466c-9dc2-c4efe5e8bf45","ios":"levelo://app?vid=01ff1e4f-1706-466c-9dc2-c4efe5e8bf45"},"vehicle_type_id":"4","last_reported":1700464032,"current_range_meters":19200,"station_id":"ce4bh412rcd13ifvqds0","pricing_plan_id":"free"},{"bike_id":"acd67b90-ef89-4f8f-a0fd-c873501b44de","system_id":"levelo_inurba_marseille","lat":43.283998,"lon":5.375062,"is_reserved":false,"is_disabled":false,"rental_uris":{"android":"levelo://app?vid=acd67b90-ef89-4f8f-a0fd-c873501b44de","ios":"levelo://app?vid=acd67b90-ef89-4f8f-a0fd-c873501b44de"},"vehicle_type_id":"4","last_reported":1700464032,"current_range_meters":17600,"station_id":"ce4bh412rcd13ifvqds0","pricing_plan_id":"free"},{"bike_id":"e7c4b01d-d4b4-49a9-8cd6-a0c00760cd3f","system_id":"levelo_inurba_marseille","lat":43.283997,"lon":5.37517,"is_reserved":false,"is_disabled":false,"rental_uris":{"android":"levelo://app?vid=e7c4b01d-d4b4-49a9-8cd6-a0c00760cd3f","ios":"levelo://app?vid=e7c4b01d-d4b4-49a9-8cd6-a0c00760cd3f"},"vehicle_type_id":"4","last_reported":1700464032,"current_range_meters":28800,"station_id":"ce4bh412rcd13ifvqds0","pricing_plan_id":"free"},{"bike_id":"cdaeb6fa-46e5-4032-8641-3efe562a40aa","system_id":"levelo_inurba_marseille","lat":43.29573,"lon":5.39983,"is_reserved":false,"is_disabled":false,"rental_uris":{"android":"levelo://app?vid=cdaeb6fa-46e5-4032-8641-3efe562a40aa","ios":"levelo://app?vid=cdaeb6fa-46e5-4032-8641-3efe562a40aa"},"vehicle_type_id":"4","last_reported":1700464032,"current_range_meters":27600,"station_id":"ce4bh312rcd13ifvqdj0","pricing_plan_id":"free"},{"bike_id":"039edd45-a835-483f-b522-cb0437295e34","system_id":"levelo_inurba_marseille","lat":43.286595,"lon":5.386795,"is_reserved":false,"is_disabled":false,"rental_uris":{"android":"levelo://app?vid=039edd45-a835-483f-b522-cb0437295e34","ios":"levelo://app?vid=039edd45-a835-483f-b522-cb0437295e34"},"vehicle_type_id":"4","last_reported":1700464032,"current_range_meters":26800,"station_id":"ce4bh492rcd13ifvqdug","pricing_plan_id":"free"},{"bike_id":"5974ad3b-da81-42ca-a08b-1b3632a47afa","system_id":"levelo_inurba_marseille","lat":43.33237,"lon":5.3985,"is_reserved":false,"is_disabled":false,"rental_uris":{"android":"levelo://app?vid=5974ad3b-da81-42ca-a08b-1b3632a47afa","ios":"levelo://app?vid=5974ad3b-da81-42ca-a08b-1b3632a47afa"},"vehicle_type_id":"4","last_reported":1700464032,"current_range_meters":0,"station_id":"","pricing_plan_id":"free"},{"bike_id":"ac20fa4e-d139-4a96-86cb-96e6dcb87eb2","system_id":"levelo_inurba_marseille","lat":43.292687,"lon":5.398337,"is_reserved":false,"is_disabled":false,"rental_uris":{"android":"levelo://app?vid=ac20fa4e-d139-4a96-86cb-96e6dcb87eb2","ios":"levelo://app?vid=ac20fa4e-d139-4a96-86cb-96e6dcb87eb2"},"vehicle_type_id":"4","last_reported":1700464032,"current_range_meters":11200,"station_id":"","pricing_plan_id":"free"},{"bike_id":"a494d297-e5a7-4c5d-ac18-9b2ea750f50d","system_id":"levelo_inurba_marseille","lat":43.288501,"lon":5.393087,"is_reserved":false,"is_disabled":false,"rental_uris":{"android":"levelo://app?vid=a494d297-e5a7-4c5d-ac18-9b2ea750f50d","ios":"levelo://app?vid=a494d297-e5a7-4c5d-ac18-9b2ea750f50d"},"vehicle_type_id":"4","last_reported":1700464032,"current_range_meters":31600,"station_id":"ce4bh2p2rcd13ifvqdi0","pricing_plan_id":"free"},{"bike_id":"9afd52b0-65a7-46e2-b169-1624a92f3802","system_id":"levelo_inurba_marseille","lat":43.283498,"lon":5.380948,"is_reserved":false,"is_disabled":false,"rental_uris":{"android":"levelo://app?vid=9afd52b0-65a7-46e2-b169-1624a92f3802","ios":"levelo://app?vid=9afd52b0-65a7-46e2-b169-1624a92f3802"},"vehicle_type_id":"4","last_reported":1700464032,"current_range_meters":10000,"station_id":"ce4bh412rcd13ifvqdr0","pricing_plan_id":"free"},{"bike_id":"264119a7-3380-4856-9cfb-58d28739e0bc","system_id":"levelo_inurba_marseille","lat":43.288501,"lon":5.393087,"is_reserved":false,"is_disabled":false,"rental_uris":{"android":"levelo://app?vid=264119a7-3380-4856-9cfb-58d28739e0bc","ios":"levelo://app?vid=264119a7-3380-4856-9cfb-58d28739e0bc"},"vehicle_type_id":"4","last_reported":1700464032,"current_range_meters":24800,"station_id":"ce4bh2p2rcd13ifvqdi0","pricing_plan_id":"free"},{"bike_id":"151b92e6-1a6a-433a-b3ac-98f2fce5ea0c","system_id":"levelo_inurba_marseille","lat":43.288497,"lon":5.393089,"is_reserved":false,"is_disabled":false,"rental_uris":{"android":"levelo://app?vid=151b92e6-1a6a-433a-b3ac-98f2fce5ea0c","ios":"levelo://app?vid=151b92e6-1a6a-433a-b3ac-98f2fce5ea0c"},"vehicle_type_id":"4","last_reported":1700464032,"current_range_meters":30800,"station_id":"ce4bh2p2rcd13ifvqdi0","pricing_plan_id":"free"},{"bike_id":"0ca4804c-80db-4971-b28c-e6f206ef7314","system_id":"levelo_inurba_marseille","lat":43.288497,"lon":5.393089,"is_reserved":false,"is_disabled":false,"rental_uris":{"android":"levelo://app?vid=0ca4804c-80db-4971-b28c-e6f206ef7314","ios":"levelo://app?vid=0ca4804c-80db-4971-b28c-e6f206ef7314"},"vehicle_type_id":"4","last_reported":1700464032,"current_range_meters":30000,"station_id":"ce4bh2p2rcd13ifvqdi0","pricing_plan_id":"free"},{"bike_id":"fcf41ffd-c555-4c01-8cd2-0104b46eaa8e","system_id":"levelo_inurba_marseille","lat":43.283494,"lon":5.380945,"is_reserved":false,"is_disabled":false,"rental_uris":{"android":"levelo://app?vid=fcf41ffd-c555-4c01-8cd2-0104b46eaa8e","ios":"levelo://app?vid=fcf41ffd-c555-4c01-8cd2-0104b46eaa8e"},"vehicle_type_id":"4","last_reported":1700464032,"current_range_meters":31600,"station_id":"ce4bh412rcd13ifvqdr0","pricing_plan_id":"free"},{"bike_id":"ed762195-4813-4eef-921b-9719722fcd80","system_id":"levelo_inurba_marseille","lat":43.288501,"lon":5.393087,"is_reserved":false,"is_disabled":false,"rental_uris":{"android":"levelo://app?vid=ed762195-4813-4eef-921b-9719722fcd80","ios":"levelo://app?vid=ed762195-4813-4eef-921b-9719722fcd80"},"vehicle_type_id":"4","last_reported":1700464032,"current_range_meters":32000,"station_id":"ce4bh2p2rcd13ifvqdi0","pricing_plan_id":"free"},{"bike_id":"9cb3374d-88b0-487e-987b-7ca530a3e4a2","system_id":"levelo_inurba_marseille","lat":43.343618,"lon":5.375029,"is_reserved":false,"is_disabled":false,"rental_uris":{"android":"levelo://app?vid=9cb3374d-88b0-487e-987b-7ca530a3e4a2","ios":"levelo://app?vid=9cb3374d-88b0-487e-987b-7ca530a3e4a2"},"vehicle_type_id":"4","last_reported":1700464032,"current_range_meters":0,"station_id":"","pricing_plan_id":"free"},{"bike_id":"9d9e5263-49d6-4daf-9761-e3e41e2f1db8","system_id":"levelo_inurba_marseille","lat":43.289363,"lon":5.396322,"is_reserved":false,"is_disabled":false,"rental_uris":{"android":"levelo://app?vid=9d9e5263-49d6-4daf-9761-e3e41e2f1db8","ios":"levelo://app?vid=9d9e5263-49d6-4daf-9761-e3e41e2f1db8"},"vehicle_type_id":"4","last_reported":1700464032,"current_range_meters":26400,"station_id":"ce4bh3h2rcd13ifvqdn0","pricing_plan_id":"free"},{"bike_id":"2175f213-0e7f-4d1e-b870-98a55b714a24","system_id":"levelo_inurba_marseille","lat":43.289363,"lon":5.396322,"is_reserved":false,"is_disabled":false,"rental_uris":{"android":"levelo://app?vid=2175f213-0e7f-4d1e-b870-98a55b714a24","ios":"levelo://app?vid=2175f213-0e7f-4d1e-b870-98a55b714a24"},"vehicle_type_id":"4","last_reported":1700464032,"current_range_meters":27600,"station_id":"ce4bh3h2rcd13ifvqdn0","pricing_plan_id":"free"},{"bike_id":"c57eac92-e705-465b-9261-9774186b4f78","system_id":"levelo_inurba_marseille","lat":43.289363,"lon":5.396322,"is_reserved":false,"is_disabled":false,"rental_uris":{"android":"levelo://app?vid=c57eac92-e705-465b-9261-9774186b4f78","ios":"levelo://app?vid=c57eac92-e705-465b-9261-9774186b4f78"},"vehicle_type_id":"4","last_reported":1700464032,"current_range_meters":26000,"station_id":"ce4bh3h2rcd13ifvqdn0","pricing_plan_id":"free"},{"bike_id":"0cbd030b-5d80-408c-ac69-138c84b75b21","system_id":"levelo_inurba_marseille","lat":43.289363,"lon":5.396322,"is_reserved":false,"is_disabled":false,"rental_uris":{"android":"levelo://app?vid=0cbd030b-5d80-408c-ac69-138c84b75b21","ios":"levelo://app?vid=0cbd030b-5d80-408c-ac69-138c84b75b21"},"vehicle_type_id":"4","last_reported":1700464032,"current_range_meters":31600,"station_id":"ce4bh3h2rcd13ifvqdn0","pricing_plan_id":"free"},{"bike_id":"20ff667f-7c37-40da-be73-5fe0fe32c75d","system_id":"levelo_inurba_marseille","lat":43.289363,"lon":5.396322,"is_reserved":false,"is_disabled":false,"rental_uris":{"android":"levelo://app?vid=20ff667f-7c37-40da-be73-5fe0fe32c75d","ios":"levelo://app?vid=20ff667f-7c37-40da-be73-5fe0fe32c75d"},"vehicle_type_id":"4","last_reported":1700464032,"current_range_meters":23600,"station_id":"ce4bh3h2rcd13ifvqdn0","pricing_plan_id":"free"},{"bike_id":"825bcf00-9d63-488c-8e57-b31253eb4179","system_id":"levelo_inurba_marseille","lat":43.289363,"lon":5.396322,"is_reserved":false,"is_disabled":false,"rental_uris":{"android":"levelo://app?vid=825bcf00-9d63-488c-8e57-b31253eb4179","ios":"levelo://app?vid=825bcf00-9d63-488c-8e57-b31253eb4179"},"vehicle_type_id":"4","last_reported":1700464032,"current_range_meters":28000,"station_id":"ce4bh3h2rcd13ifvqdn0","pricing_plan_id":"free"},{"bike_id":"e003a1ff-b42f-4d30-a343-78bf2c1a3af4","system_id":"levelo_inurba_marseille","lat":43.292724,"lon":5.401131,"is_reserved":false,"is_disabled":false,"rental_uris":{"android":"levelo://app?vid=e003a1ff-b42f-4d30-a343-78bf2c1a3af4","ios":"levelo://app?vid=e003a1ff-b42f-4d30-a343-78bf2c1a3af4"},"vehicle_type_id":"4","last_reported":1700464032,"current_range_meters":30000,"station_id":"ce4bh312rcd13ifvqdk0","pricing_plan_id":"free"},{"bike_id":"c6349d37-cb23-4e90-9d51-81f7fb6f5687","system_id":"levelo_inurba_marseille","lat":43.29273,"lon":5.4012,"is_reserved":false,"is_disabled":false,"rental_uris":{"android":"levelo://app?vid=c6349d37-cb23-4e90-9d51-81f7fb6f5687","ios":"levelo://app?vid=c6349d37-cb23-4e90-9d51-81f7fb6f5687"},"vehicle_type_id":"4","last_reported":1700464032,"current_range_meters":25200,"station_id":"ce4bh312rcd13ifvqdk0","pricing_plan_id":"free"},{"bike_id":"80934082-2303-4408-948c-0d44a11e3d58","system_id":"levelo_inurba_marseille","lat":43.283502,"lon":5.386471,"is_reserved":false,"is_disabled":false,"rental_uris":{"android":"levelo://app?vid=80934082-2303-4408-948c-0d44a11e3d58","ios":"levelo://app?vid=80934082-2303-4408-948c-0d44a11e3d58"},"vehicle_type_id":"4","last_reported":1700464032,"current_range_meters":13600,"station_id":"ce4bh492rcd13ifvqdvg","pricing_plan_id":"free"},{"bike_id":"7d138bf8-dee6-44ee-98ab-84d3fd56c891","system_id":"levelo_inurba_marseille","lat":43.29048,"lon":5.39962,"is_reserved":false,"is_disabled":false,"rental_uris":{"android":"levelo://app?vid=7d138bf8-dee6-44ee-98ab-84d3fd56c891","ios":"levelo://app?vid=7d138bf8-dee6-44ee-98ab-84d3fd56c891"},"vehicle_type_id":"4","last_reported":1700464032,"current_range_meters":30800,"station_id":"ce4bh392rcd13ifvqdm0","pricing_plan_id":"free"},{"bike_id":"f9e6cfdd-4e03-460b-9395-ef058901da6d","system_id":"levelo_inurba_marseille","lat":43.290412,"lon":5.399633,"is_reserved":false,"is_disabled":false,"rental_uris":{"android":"levelo://app?vid=f9e6cfdd-4e03-460b-9395-ef058901da6d","ios":"levelo://app?vid=f9e6cfdd-4e03-460b-9395-ef058901da6d"},"vehicle_type_id":"4","last_reported":1700464032,"current_range_meters":18800,"station_id":"ce4bh392rcd13ifvqdm0","pricing_plan_id":"free"},{"bike_id":"dfd1488e-0be7-49d2-afcc-b9da42221aa3","system_id":"levelo_inurba_marseille","lat":43.29045,"lon":5.39959,"is_reserved":false,"is_disabled":false,"rental_uris":{"android":"levelo://app?vid=dfd1488e-0be7-49d2-afcc-b9da42221aa3","ios":"levelo://app?vid=dfd1488e-0be7-49d2-afcc-b9da42221aa3"},"vehicle_type_id":"4","last_reported":1700464032,"current_range_meters":31200,"station_id":"ce4bh392rcd13ifvqdm0","pricing_plan_id":"free"},{"bike_id":"a2ea8988-ebf9-4fc3-8992-07eee6a4c459","system_id":"levelo_inurba_marseille","lat":43.290412,"lon":5.399633,"is_reserved":false,"is_disabled":false,"rental_uris":{"android":"levelo://app?vid=a2ea8988-ebf9-4fc3-8992-07eee6a4c459","ios":"levelo://app?vid=a2ea8988-ebf9-4fc3-8992-07eee6a4c459"},"vehicle_type_id":"4","last_reported":1700464032,"current_range_meters":25200,"station_id":"ce4bh392rcd13ifvqdm0","pricing_plan_id":"free"},{"bike_id":"60822cf1-c7f4-42d0-86ec-85a6425f12da","system_id":"levelo_inurba_marseille","lat":43.290412,"lon":5.399633,"is_reserved":false,"is_disabled":false,"rental_uris":{"android":"levelo://app?vid=60822cf1-c7f4-42d0-86ec-85a6425f12da","ios":"levelo://app?vid=60822cf1-c7f4-42d0-86ec-85a6425f12da"},"vehicle_type_id":"4","last_reported":1700464032,"current_range_meters":30000,"station_id":"ce4bh392rcd13ifvqdm0","pricing_plan_id":"free"},{"bike_id":"bb47c0f9-1026-455d-ade8-dcd415592edd","system_id":"levelo_inurba_marseille","lat":43.290412,"lon":5.399633,"is_reserved":false,"is_disabled":false,"rental_uris":{"android":"levelo://app?vid=bb47c0f9-1026-455d-ade8-dcd415592edd","ios":"levelo://app?vid=bb47c0f9-1026-455d-ade8-dcd415592edd"},"vehicle_type_id":"4","last_reported":1700464032,"current_range_meters":12000,"station_id":"ce4bh392rcd13ifvqdm0","pricing_plan_id":"free"},{"bike_id":"acd5761d-bc86-4258-9b09-c5f5739ac12f","system_id":"levelo_inurba_marseille","lat":43.29041,"lon":5.399634,"is_reserved":false,"is_disabled":false,"rental_uris":{"android":"levelo://app?vid=acd5761d-bc86-4258-9b09-c5f5739ac12f","ios":"levelo://app?vid=acd5761d-bc86-4258-9b09-c5f5739ac12f"},"vehicle_type_id":"4","last_reported":1700464032,"current_range_meters":26400,"station_id":"ce4bh392rcd13ifvqdm0","pricing_plan_id":"free"},{"bike_id":"ed2874d3-93d6-4739-8b4b-7964174ababa","system_id":"levelo_inurba_marseille","lat":43.29041,"lon":5.399634,"is_reserved":false,"is_disabled":false,"rental_uris":{"android":"levelo://app?vid=ed2874d3-93d6-4739-8b4b-7964174ababa","ios":"levelo://app?vid=ed2874d3-93d6-4739-8b4b-7964174ababa"},"vehicle_type_id":"4","last_reported":1700464032,"current_range_meters":21200,"station_id":"ce4bh392rcd13ifvqdm0","pricing_plan_id":"free"},{"bike_id":"d657505b-179e-43bb-beea-358aaea96978","system_id":"levelo_inurba_marseille","lat":43.29041,"lon":5.399634,"is_reserved":false,"is_disabled":false,"rental_uris":{"android":"levelo://app?vid=d657505b-179e-43bb-beea-358aaea96978","ios":"levelo://app?vid=d657505b-179e-43bb-beea-358aaea96978"},"vehicle_type_id":"4","last_reported":1700464032,"current_range_meters":21600,"station_id":"ce4bh392rcd13ifvqdm0","pricing_plan_id":"free"},{"bike_id":"be66e0d8-7130-4be7-8acf-a55e55051919","system_id":"levelo_inurba_marseille","lat":43.29041,"lon":5.399634,"is_reserved":false,"is_disabled":false,"rental_uris":{"android":"levelo://app?vid=be66e0d8-7130-4be7-8acf-a55e55051919","ios":"levelo://app?vid=be66e0d8-7130-4be7-8acf-a55e55051919"},"vehicle_type_id":"4","last_reported":1700464032,"current_range_meters":31600,"station_id":"ce4bh392rcd13ifvqdm0","pricing_plan_id":"free"},{"bike_id":"69c848b6-a8b9-4974-b02c-b28db64b29f0","system_id":"levelo_inurba_marseille","lat":43.29041,"lon":5.399634,"is_reserved":false,"is_disabled":false,"rental_uris":{"android":"levelo://app?vid=69c848b6-a8b9-4974-b02c-b28db64b29f0","ios":"levelo://app?vid=69c848b6-a8b9-4974-b02c-b28db64b29f0"},"vehicle_type_id":"4","last_reported":1700464032,"current_range_meters":29200,"station_id":"ce4bh392rcd13ifvqdm0","pricing_plan_id":"free"},{"bike_id":"64617f47-5d4b-4431-acc9-c0e2c1a66c9e","system_id":"levelo_inurba_marseille","lat":43.296263,"lon":5.40601,"is_reserved":false,"is_disabled":false,"rental_uris":{"android":"levelo://app?vid=64617f47-5d4b-4431-acc9-c0e2c1a66c9e","ios":"levelo://app?vid=64617f47-5d4b-4431-acc9-c0e2c1a66c9e"},"vehicle_type_id":"4","last_reported":1700464032,"current_range_meters":26800,"station_id":"ce4bh0h2rcd13ifvqd60","pricing_plan_id":"free"},{"bike_id":"ccf9b17e-2fb6-47d5-b5cb-73ea08fcb6e5","system_id":"levelo_inurba_marseille","lat":43.28575,"lon":5.39498,"is_reserved":false,"is_disabled":false,"rental_uris":{"android":"levelo://app?vid=ccf9b17e-2fb6-47d5-b5cb-73ea08fcb6e5","ios":"levelo://app?vid=ccf9b17e-2fb6-47d5-b5cb-73ea08fcb6e5"},"vehicle_type_id":"4","last_reported":1700464032,"current_range_meters":0,"station_id":"ce4bh292rcd13ifvqdg0","pricing_plan_id":"free"},{"bike_id":"a7274e12-19cc-40d7-ab81-f7d1b24dca53","system_id":"levelo_inurba_marseille","lat":43.287154,"lon":5.399979,"is_reserved":false,"is_disabled":false,"rental_uris":{"android":"levelo://app?vid=a7274e12-19cc-40d7-ab81-f7d1b24dca53","ios":"levelo://app?vid=a7274e12-19cc-40d7-ab81-f7d1b24dca53"},"vehicle_type_id":"4","last_reported":1700464032,"current_range_meters":22800,"station_id":"ce4bho92rcd13ifvqh3g","pricing_plan_id":"free"},{"bike_id":"2836fb25-90fd-419f-ab95-f049a7d008c0","system_id":"levelo_inurba_marseille","lat":43.287154,"lon":5.399979,"is_reserved":false,"is_disabled":false,"rental_uris":{"android":"levelo://app?vid=2836fb25-90fd-419f-ab95-f049a7d008c0","ios":"levelo://app?vid=2836fb25-90fd-419f-ab95-f049a7d008c0"},"vehicle_type_id":"4","last_reported":1700464032,"current_range_meters":31600,"station_id":"ce4bho92rcd13ifvqh3g","pricing_plan_id":"free"},{"bike_id":"6b686fd8-6af4-4d87-acca-58335e891be3","system_id":"levelo_inurba_marseille","lat":43.287154,"lon":5.399979,"is_reserved":false,"is_disabled":false,"rental_uris":{"android":"levelo://app?vid=6b686fd8-6af4-4d87-acca-58335e891be3","ios":"levelo://app?vid=6b686fd8-6af4-4d87-acca-58335e891be3"},"vehicle_type_id":"4","last_reported":1700464032,"current_range_meters":31200,"station_id":"ce4bho92rcd13ifvqh3g","pricing_plan_id":"free"},{"bike_id":"06f93a46-1679-4511-8ebe-6ae0c0a2869f","system_id":"levelo_inurba_marseille","lat":43.287154,"lon":5.399979,"is_reserved":false,"is_disabled":false,"rental_uris":{"android":"levelo://app?vid=06f93a46-1679-4511-8ebe-6ae0c0a2869f","ios":"levelo://app?vid=06f93a46-1679-4511-8ebe-6ae0c0a2869f"},"vehicle_type_id":"4","last_reported":1700464032,"current_range_meters":24800,"station_id":"ce4bho92rcd13ifvqh3g","pricing_plan_id":"free"},{"bike_id":"65802287-7c87-47a7-8e62-4373867234ce","system_id":"levelo_inurba_marseille","lat":43.283494,"lon":5.380945,"is_reserved":false,"is_disabled":false,"rental_uris":{"android":"levelo://app?vid=65802287-7c87-47a7-8e62-4373867234ce","ios":"levelo://app?vid=65802287-7c87-47a7-8e62-4373867234ce"},"vehicle_type_id":"4","last_reported":1700464032,"current_range_meters":25200,"station_id":"ce4bh412rcd13ifvqdr0","pricing_plan_id":"free"},{"bike_id":"59c21b93-4531-4fa3-88ab-f8b658605935","system_id":"levelo_inurba_marseille","lat":43.27605,"lon":5.36115,"is_reserved":false,"is_disabled":false,"rental_uris":{"android":"levelo://app?vid=59c21b93-4531-4fa3-88ab-f8b658605935","ios":"levelo://app?vid=59c21b93-4531-4fa3-88ab-f8b658605935"},"vehicle_type_id":"4","last_reported":1700464032,"current_range_meters":11200,"station_id":"ce4bgj92rcd13ifvqbe0","pricing_plan_id":"free"},{"bike_id":"0c887b59-ce69-452e-9ee2-8078ee0f0bb3","system_id":"levelo_inurba_marseille","lat":43.32705,"lon":5.41384,"is_reserved":false,"is_disabled":false,"rental_uris":{"android":"levelo://app?vid=0c887b59-ce69-452e-9ee2-8078ee0f0bb3","ios":"levelo://app?vid=0c887b59-ce69-452e-9ee2-8078ee0f0bb3"},"vehicle_type_id":"4","last_reported":1700464032,"current_range_meters":19200,"station_id":"","pricing_plan_id":"free"},{"bike_id":"bafb28e5-36fa-48da-82b8-15fb365d0616","system_id":"levelo_inurba_marseille","lat":43.33612,"lon":5.410321,"is_reserved":false,"is_disabled":false,"rental_uris":{"android":"levelo://app?vid=bafb28e5-36fa-48da-82b8-15fb365d0616","ios":"levelo://app?vid=bafb28e5-36fa-48da-82b8-15fb365d0616"},"vehicle_type_id":"4","last_reported":1700464032,"current_range_meters":25200,"station_id":"ce4bhqh2rcd13ifvqhmg","pricing_plan_id":"free"},{"bike_id":"fc4a5f87-0956-487e-a67d-cf61b02b233f","system_id":"levelo_inurba_marseille","lat":43.275625,"lon":5.384392,"is_reserved":false,"is_disabled":false,"rental_uris":{"android":"levelo://app?vid=fc4a5f87-0956-487e-a67d-cf61b02b233f","ios":"levelo://app?vid=fc4a5f87-0956-487e-a67d-cf61b02b233f"},"vehicle_type_id":"4","last_reported":1700464032,"current_range_meters":21600,"station_id":"ce4bhh92rcd13ifvqfi0","pricing_plan_id":"free"},{"bike_id":"944943d4-31d8-44a4-89cd-6f4f23936394","system_id":"levelo_inurba_marseille","lat":43.336134,"lon":5.410341,"is_reserved":false,"is_disabled":false,"rental_uris":{"android":"levelo://app?vid=944943d4-31d8-44a4-89cd-6f4f23936394","ios":"levelo://app?vid=944943d4-31d8-44a4-89cd-6f4f23936394"},"vehicle_type_id":"4","last_reported":1700464032,"current_range_meters":8800,"station_id":"ce4bhqh2rcd13ifvqhmg","pricing_plan_id":"free"},{"bike_id":"d29ba1d7-97d8-4f22-8896-821e48318223","system_id":"levelo_inurba_marseille","lat":43.27382,"lon":5.3625,"is_reserved":false,"is_disabled":false,"rental_uris":{"android":"levelo://app?vid=d29ba1d7-97d8-4f22-8896-821e48318223","ios":"levelo://app?vid=d29ba1d7-97d8-4f22-8896-821e48318223"},"vehicle_type_id":"4","last_reported":1700464032,"current_range_meters":29200,"station_id":"ce4bhbh2rcd13ifvqeo0","pricing_plan_id":"free"},{"bike_id":"8b7656ce-00bc-4804-aad0-dee2ca34f7ef","system_id":"levelo_inurba_marseille","lat":43.2738,"lon":5.36256,"is_reserved":false,"is_disabled":false,"rental_uris":{"android":"levelo://app?vid=8b7656ce-00bc-4804-aad0-dee2ca34f7ef","ios":"levelo://app?vid=8b7656ce-00bc-4804-aad0-dee2ca34f7ef"},"vehicle_type_id":"4","last_reported":1700464032,"current_range_meters":29200,"station_id":"ce4bhbh2rcd13ifvqeo0","pricing_plan_id":"free"},{"bike_id":"01ed7991-eaca-4c39-b3f9-40b4ebe9e070","system_id":"levelo_inurba_marseille","lat":43.27379,"lon":5.36248,"is_reserved":false,"is_disabled":false,"rental_uris":{"android":"levelo://app?vid=01ed7991-eaca-4c39-b3f9-40b4ebe9e070","ios":"levelo://app?vid=01ed7991-eaca-4c39-b3f9-40b4ebe9e070"},"vehicle_type_id":"4","last_reported":1700464032,"current_range_meters":30400,"station_id":"ce4bhbh2rcd13ifvqeo0","pricing_plan_id":"free"},{"bike_id":"5581f9e8-504c-4d2f-a780-7465313f92c2","system_id":"levelo_inurba_marseille","lat":43.336134,"lon":5.410341,"is_reserved":false,"is_disabled":false,"rental_uris":{"android":"levelo://app?vid=5581f9e8-504c-4d2f-a780-7465313f92c2","ios":"levelo://app?vid=5581f9e8-504c-4d2f-a780-7465313f92c2"},"vehicle_type_id":"4","last_reported":1700464032,"current_range_meters":27600,"station_id":"ce4bhqh2rcd13ifvqhmg","pricing_plan_id":"free"},{"bike_id":"80ddf41a-b509-4fa5-8cd4-45a79dd68338","system_id":"levelo_inurba_marseille","lat":43.33612,"lon":5.410321,"is_reserved":false,"is_disabled":false,"rental_uris":{"android":"levelo://app?vid=80ddf41a-b509-4fa5-8cd4-45a79dd68338","ios":"levelo://app?vid=80ddf41a-b509-4fa5-8cd4-45a79dd68338"},"vehicle_type_id":"4","last_reported":1700464032,"current_range_meters":16800,"station_id":"ce4bhqh2rcd13ifvqhmg","pricing_plan_id":"free"},{"bike_id":"bcb5f275-d6d1-4be5-8e7d-9370304160fa","system_id":"levelo_inurba_marseille","lat":43.33612,"lon":5.410321,"is_reserved":false,"is_disabled":false,"rental_uris":{"android":"levelo://app?vid=bcb5f275-d6d1-4be5-8e7d-9370304160fa","ios":"levelo://app?vid=bcb5f275-d6d1-4be5-8e7d-9370304160fa"},"vehicle_type_id":"4","last_reported":1700464032,"current_range_meters":11600,"station_id":"ce4bhqh2rcd13ifvqhmg","pricing_plan_id":"free"},{"bike_id":"1f10309b-758e-4ccc-82b9-097fcbae1bc7","system_id":"levelo_inurba_marseille","lat":43.336148,"lon":5.410349,"is_reserved":false,"is_disabled":false,"rental_uris":{"android":"levelo://app?vid=1f10309b-758e-4ccc-82b9-097fcbae1bc7","ios":"levelo://app?vid=1f10309b-758e-4ccc-82b9-097fcbae1bc7"},"vehicle_type_id":"4","last_reported":1700464032,"current_range_meters":4800,"station_id":"ce4bhqh2rcd13ifvqhmg","pricing_plan_id":"free"},{"bike_id":"6a93a014-1427-427d-b06c-a403bacb72b2","system_id":"levelo_inurba_marseille","lat":43.336134,"lon":5.410341,"is_reserved":false,"is_disabled":false,"rental_uris":{"android":"levelo://app?vid=6a93a014-1427-427d-b06c-a403bacb72b2","ios":"levelo://app?vid=6a93a014-1427-427d-b06c-a403bacb72b2"},"vehicle_type_id":"4","last_reported":1700464032,"current_range_meters":29600,"station_id":"ce4bhqh2rcd13ifvqhmg","pricing_plan_id":"free"},{"bike_id":"6eba890a-d21e-476a-8433-140c529a976a","system_id":"levelo_inurba_marseille","lat":43.276771,"lon":5.388799,"is_reserved":false,"is_disabled":false,"rental_uris":{"android":"levelo://app?vid=6eba890a-d21e-476a-8433-140c529a976a","ios":"levelo://app?vid=6eba890a-d21e-476a-8433-140c529a976a"},"vehicle_type_id":"4","last_reported":1700464032,"current_range_meters":30000,"station_id":"ce4bhi12rcd13ifvqfo0","pricing_plan_id":"free"},{"bike_id":"3ce8bf64-f661-4999-9de5-2f2749e697bf","system_id":"levelo_inurba_marseille","lat":43.276771,"lon":5.388799,"is_reserved":false,"is_disabled":false,"rental_uris":{"android":"levelo://app?vid=3ce8bf64-f661-4999-9de5-2f2749e697bf","ios":"levelo://app?vid=3ce8bf64-f661-4999-9de5-2f2749e697bf"},"vehicle_type_id":"4","last_reported":1700464032,"current_range_meters":16800,"station_id":"ce4bhi12rcd13ifvqfo0","pricing_plan_id":"free"},{"bike_id":"3c78d9de-232f-49a2-a67c-e089cbd81991","system_id":"levelo_inurba_marseille","lat":43.276771,"lon":5.388799,"is_reserved":false,"is_disabled":false,"rental_uris":{"android":"levelo://app?vid=3c78d9de-232f-49a2-a67c-e089cbd81991","ios":"levelo://app?vid=3c78d9de-232f-49a2-a67c-e089cbd81991"},"vehicle_type_id":"4","last_reported":1700464032,"current_range_meters":8800,"station_id":"ce4bhi12rcd13ifvqfo0","pricing_plan_id":"free"},{"bike_id":"f8739f71-af6b-47c1-8011-c9c54a374e80","system_id":"levelo_inurba_marseille","lat":43.310785,"lon":5.424305,"is_reserved":false,"is_disabled":false,"rental_uris":{"android":"levelo://app?vid=f8739f71-af6b-47c1-8011-c9c54a374e80","ios":"levelo://app?vid=f8739f71-af6b-47c1-8011-c9c54a374e80"},"vehicle_type_id":"4","last_reported":1700464032,"current_range_meters":23600,"station_id":"ce4bhp92rcd13ifvqhag","pricing_plan_id":"free"},{"bike_id":"688f2ddb-1e95-4b48-8bd8-5915d7fcec35","system_id":"levelo_inurba_marseille","lat":43.340804,"lon":5.410219,"is_reserved":false,"is_disabled":false,"rental_uris":{"android":"levelo://app?vid=688f2ddb-1e95-4b48-8bd8-5915d7fcec35","ios":"levelo://app?vid=688f2ddb-1e95-4b48-8bd8-5915d7fcec35"},"vehicle_type_id":"4","last_reported":1700464032,"current_range_meters":20400,"station_id":"ce4bhqh2rcd13ifvqhlg","pricing_plan_id":"free"},{"bike_id":"65fff83f-e6a3-4b98-84b8-69bfc8556310","system_id":"levelo_inurba_marseille","lat":43.295593,"lon":5.422943,"is_reserved":false,"is_disabled":false,"rental_uris":{"android":"levelo://app?vid=65fff83f-e6a3-4b98-84b8-69bfc8556310","ios":"levelo://app?vid=65fff83f-e6a3-4b98-84b8-69bfc8556310"},"vehicle_type_id":"4","last_reported":1700464032,"current_range_meters":10000,"station_id":"ce4bhph2rcd13ifvqhdg","pricing_plan_id":"free"},{"bike_id":"4160a8c8-6855-4ac2-be13-b1670230faac","system_id":"levelo_inurba_marseille","lat":43.295523,"lon":5.422926,"is_reserved":false,"is_disabled":false,"rental_uris":{"android":"levelo://app?vid=4160a8c8-6855-4ac2-be13-b1670230faac","ios":"levelo://app?vid=4160a8c8-6855-4ac2-be13-b1670230faac"},"vehicle_type_id":"4","last_reported":1700464032,"current_range_meters":10000,"station_id":"ce4bhph2rcd13ifvqhdg","pricing_plan_id":"free"},{"bike_id":"f8f5619a-a183-461d-b100-453fb972fcd4","system_id":"levelo_inurba_marseille","lat":43.272118,"lon":5.391758,"is_reserved":false,"is_disabled":false,"rental_uris":{"android":"levelo://app?vid=f8f5619a-a183-461d-b100-453fb972fcd4","ios":"levelo://app?vid=f8f5619a-a183-461d-b100-453fb972fcd4"},"vehicle_type_id":"4","last_reported":1700464032,"current_range_meters":14000,"station_id":"ce4bhhp2rcd13ifvqfm0","pricing_plan_id":"free"},{"bike_id":"233c21b2-f56c-4dfc-b29e-fb4791efcfbf","system_id":"levelo_inurba_marseille","lat":43.272124,"lon":5.391768,"is_reserved":false,"is_disabled":false,"rental_uris":{"android":"levelo://app?vid=233c21b2-f56c-4dfc-b29e-fb4791efcfbf","ios":"levelo://app?vid=233c21b2-f56c-4dfc-b29e-fb4791efcfbf"},"vehicle_type_id":"4","last_reported":1700464032,"current_range_meters":0,"station_id":"ce4bhhp2rcd13ifvqfm0","pricing_plan_id":"free"},{"bike_id":"f0ed4531-078e-42fb-a007-3ed80505eb54","system_id":"levelo_inurba_marseille","lat":43.271891,"lon":5.392412,"is_reserved":false,"is_disabled":false,"rental_uris":{"android":"levelo://app?vid=f0ed4531-078e-42fb-a007-3ed80505eb54","ios":"levelo://app?vid=f0ed4531-078e-42fb-a007-3ed80505eb54"},"vehicle_type_id":"4","last_reported":1700464032,"current_range_meters":400,"station_id":"","pricing_plan_id":"free"},{"bike_id":"e8e0b2b6-a452-4c5b-a42e-75fe2c2ff459","system_id":"levelo_inurba_marseille","lat":43.27818,"lon":5.40711,"is_reserved":false,"is_disabled":false,"rental_uris":{"android":"levelo://app?vid=e8e0b2b6-a452-4c5b-a42e-75fe2c2ff459","ios":"levelo://app?vid=e8e0b2b6-a452-4c5b-a42e-75fe2c2ff459"},"vehicle_type_id":"4","last_reported":1700464032,"current_range_meters":30800,"station_id":"ce4bhnh2rcd13ifvqgtg","pricing_plan_id":"free"},{"bike_id":"c905e957-df4d-418d-9b89-4091e59f9c28","system_id":"levelo_inurba_marseille","lat":43.278128,"lon":5.407195,"is_reserved":false,"is_disabled":false,"rental_uris":{"android":"levelo://app?vid=c905e957-df4d-418d-9b89-4091e59f9c28","ios":"levelo://app?vid=c905e957-df4d-418d-9b89-4091e59f9c28"},"vehicle_type_id":"4","last_reported":1700464032,"current_range_meters":29200,"station_id":"ce4bhnh2rcd13ifvqgtg","pricing_plan_id":"free"},{"bike_id":"794bf16f-04e7-4a6f-9130-f5905776f145","system_id":"levelo_inurba_marseille","lat":43.269467,"lon":5.386439,"is_reserved":false,"is_disabled":false,"rental_uris":{"android":"levelo://app?vid=794bf16f-04e7-4a6f-9130-f5905776f145","ios":"levelo://app?vid=794bf16f-04e7-4a6f-9130-f5905776f145"},"vehicle_type_id":"4","last_reported":1700464032,"current_range_meters":29600,"station_id":"ce4bhh92rcd13ifvqfh0","pricing_plan_id":"free"},{"bike_id":"139753b1-0b83-4c3a-80f1-5052bac15461","system_id":"levelo_inurba_marseille","lat":43.271036,"lon":5.393378,"is_reserved":false,"is_disabled":false,"rental_uris":{"android":"levelo://app?vid=139753b1-0b83-4c3a-80f1-5052bac15461","ios":"levelo://app?vid=139753b1-0b83-4c3a-80f1-5052bac15461"},"vehicle_type_id":"4","last_reported":1700464032,"current_range_meters":9600,"station_id":"","pricing_plan_id":"free"},{"bike_id":"f93e7e0d-6d89-431f-9bc7-2e81d276a326","system_id":"levelo_inurba_marseille","lat":43.26681,"lon":5.38275,"is_reserved":false,"is_disabled":false,"rental_uris":{"android":"levelo://app?vid=f93e7e0d-6d89-431f-9bc7-2e81d276a326","ios":"levelo://app?vid=f93e7e0d-6d89-431f-9bc7-2e81d276a326"},"vehicle_type_id":"4","last_reported":1700464032,"current_range_meters":22800,"station_id":"ce4bhg92rcd13ifvqf90","pricing_plan_id":"free"},{"bike_id":"5726a9f2-22f1-4cd6-8f03-c9dc1381e6de","system_id":"levelo_inurba_marseille","lat":43.26677,"lon":5.38262,"is_reserved":false,"is_disabled":false,"rental_uris":{"android":"levelo://app?vid=5726a9f2-22f1-4cd6-8f03-c9dc1381e6de","ios":"levelo://app?vid=5726a9f2-22f1-4cd6-8f03-c9dc1381e6de"},"vehicle_type_id":"4","last_reported":1700464032,"current_range_meters":30800,"station_id":"ce4bhg92rcd13ifvqf90","pricing_plan_id":"free"},{"bike_id":"c7758cb2-2a45-4f89-aa5c-0e391d845c76","system_id":"levelo_inurba_marseille","lat":43.326053,"lon":5.429943,"is_reserved":false,"is_disabled":false,"rental_uris":{"android":"levelo://app?vid=c7758cb2-2a45-4f89-aa5c-0e391d845c76","ios":"levelo://app?vid=c7758cb2-2a45-4f89-aa5c-0e391d845c76"},"vehicle_type_id":"4","last_reported":1700464032,"current_range_meters":0,"station_id":"","pricing_plan_id":"free"},{"bike_id":"42871d3b-8c03-490f-baf1-f4b57c44a331","system_id":"levelo_inurba_marseille","lat":43.326174,"lon":5.430584,"is_reserved":false,"is_disabled":false,"rental_uris":{"android":"levelo://app?vid=42871d3b-8c03-490f-baf1-f4b57c44a331","ios":"levelo://app?vid=42871d3b-8c03-490f-baf1-f4b57c44a331"},"vehicle_type_id":"4","last_reported":1700464032,"current_range_meters":15200,"station_id":"","pricing_plan_id":"free"},{"bike_id":"430b37fc-7a8b-442b-8989-cf57d8b4df6c","system_id":"levelo_inurba_marseille","lat":43.27996,"lon":5.416624,"is_reserved":false,"is_disabled":false,"rental_uris":{"android":"levelo://app?vid=430b37fc-7a8b-442b-8989-cf57d8b4df6c","ios":"levelo://app?vid=430b37fc-7a8b-442b-8989-cf57d8b4df6c"},"vehicle_type_id":"4","last_reported":1700464032,"current_range_meters":31600,"station_id":"ce4bho12rcd13ifvqh1g","pricing_plan_id":"free"},{"bike_id":"87a6878c-3d21-4a6e-af61-fcb7168fae7f","system_id":"levelo_inurba_marseille","lat":43.27996,"lon":5.416624,"is_reserved":false,"is_disabled":false,"rental_uris":{"android":"levelo://app?vid=87a6878c-3d21-4a6e-af61-fcb7168fae7f","ios":"levelo://app?vid=87a6878c-3d21-4a6e-af61-fcb7168fae7f"},"vehicle_type_id":"4","last_reported":1700464032,"current_range_meters":31600,"station_id":"ce4bho12rcd13ifvqh1g","pricing_plan_id":"free"},{"bike_id":"5096911b-e41d-4f59-8ffe-0d263238e0fc","system_id":"levelo_inurba_marseille","lat":43.279896,"lon":5.416604,"is_reserved":false,"is_disabled":false,"rental_uris":{"android":"levelo://app?vid=5096911b-e41d-4f59-8ffe-0d263238e0fc","ios":"levelo://app?vid=5096911b-e41d-4f59-8ffe-0d263238e0fc"},