{"last_updated":1742306991,"ttl":60,"version":"2.2","data":{"bikes":[{"bike_id":"23a4bdfb-b1ac-4a22-973c-8f32b8da9c23","system_id":"levelo_inurba_marseille","lat":43.23155,"lon":5.4372,"is_reserved":false,"is_disabled":false,"rental_uris":{"android":"levelo://app?vid=23a4bdfb-b1ac-4a22-973c-8f32b8da9c23","ios":"levelo://app?vid=23a4bdfb-b1ac-4a22-973c-8f32b8da9c23"},"vehicle_type_id":"4","last_reported":1742306992,"current_range_meters":2800,"station_id":"ce4bhmp2rcd13ifvqgog","pricing_plan_id":"cebpf4jnsgd1na2vs0mg"},{"bike_id":"784d9120-add7-4963-ab75-e1eb7c983ec3","system_id":"levelo_inurba_marseille","lat":43.32475,"lon":5.36582,"is_reserved":false,"is_disabled":false,"rental_uris":{"android":"levelo://app?vid=784d9120-add7-4963-ab75-e1eb7c983ec3","ios":"levelo://app?vid=784d9120-add7-4963-ab75-e1eb7c983ec3"},"vehicle_type_id":"4","last_reported":1742306992,"current_range_meters":2800,"station_id":"ce4bhs12rcd13ifvqhvg","pricing_plan_id":"cebpf4jnsgd1na2vs0mg"},{"bike_id":"e39f083d-4542-4f7b-9173-1e8fe9e09597","system_id":"levelo_inurba_marseille","lat":43.2749,"lon":5.42457,"is_reserved":false,"is_disabled":true,"rental_uris":{"android":"levelo://app?vid=e39f083d-4542-4f7b-9173-1e8fe9e09597","ios":"levelo://app?vid=e39f083d-4542-4f7b-9173-1e8fe9e09597"},"vehicle_type_id":"4","last_reported":1742306992,"current_range_meters":2800,"station_id":"ce4bhn92rcd13ifvqgrg","pricing_plan_id":"cebpf4jnsgd1na2vs0mg"},{"bike_id":"67bd65ec-d516-4389-8270-5079567bc944","system_id":"levelo_inurba_marseille","lat":43.23157,"lon":5.43724,"is_reserved":false,"is_disabled":false,"rental_uris":{"android":"levelo://app?vid=67bd65ec-d516-4389-8270-5079567bc944","ios":"levelo://app?vid=67bd65ec-d516-4389-8270-5079567bc944"},"vehicle_type_id":"4","last_reported":1742306992,"current_range_meters":2800,"station_id":"ce4bhmp2rcd13ifvqgog","pricing_plan_id":"cebpf4jnsgd1na2vs0mg"},{"bike_id":"6f933b9b-79ec-46cb-83ee-855b37da7b39","system_id":"levelo_inurba_marseille","lat":43.24071,"lon":5.37767,"is_reserved":false,"is_disabled":false,"rental_uris":{"android":"levelo://app?vid=6f933b9b-79ec-46cb-83ee-855b37da7b39","ios":"levelo://app?vid=6f933b9b-79ec-46cb-83ee-855b37da7b39"},"vehicle_type_id":"4","last_reported":1742306992,"current_range_meters":2000,"station_id":"ce4bhnp2rcd13ifvqgvg","pricing_plan_id":"cebpf4jnsgd1na2vs0mg"},{"bike_id":"3b789b3b-34e9-4d76-bd12-53a73db3b211","system_id":"levelo_inurba_marseille","lat":43.28666,"lon":5.3868,"is_reserved":false,"is_disabled":false,"rental_uris":{"android":"levelo://app?vid=3b789b3b-34e9-4d76-bd12-53a73db3b211","ios":"levelo://app?vid=3b789b3b-34e9-4d76-bd12-53a73db3b211"},"vehicle_type_id":"4","last_reported":1742306992,"current_range_meters":2800,"station_id":"ce4bh492rcd13ifvqdug","pricing_plan_id":"cebpf4jnsgd1na2vs0mg"},{"bike_id":"91109253-40b6-4071-bd40-c96317203c57","system_id":"levelo_inurba_marseille","lat":43.27998,"lon":5.41666,"is_reserved":false,"is_disabled":false,"rental_uris":{"android":"levelo://app?vid=91109253-40b6-4071-bd40-c96317203c57","ios":"levelo://app?vid=91109253-40b6-4071-bd40-c96317203c57"},"vehicle_type_id":"4","last_reported":1742306992,"current_range_meters":2800,"station_id":"ce4bho12rcd13ifvqh1g","pricing_plan_id":"cebpf4jnsgd1na2vs0mg"},{"bike_id":"55ba7983-7669-435c-9daa-d84960f8c444","system_id":"levelo_inurba_marseille","lat":43.32085,"lon":5.36797,"is_reserved":false,"is_disabled":false,"rental_uris":{"android":"levelo://app?vid=55ba7983-7669-435c-9daa-d84960f8c444","ios":"levelo://app?vid=55ba7983-7669-435c-9daa-d84960f8c444"},"vehicle_type_id":"4","last_reported":1742306992,"current_range_meters":2800,"station_id":"ce4bhrh2rcd13ifvqhug","pricing_plan_id":"cebpf4jnsgd1na2vs0mg"},{"bike_id":"40ede74d-ff93-4049-a630-17c5a647fbf7","system_id":"levelo_inurba_marseille","lat":43.27067,"lon":5.42257,"is_reserved":false,"is_disabled":false,"rental_uris":{"android":"levelo://app?vid=40ede74d-ff93-4049-a630-17c5a647fbf7","ios":"levelo://app?vid=40ede74d-ff93-4049-a630-17c5a647fbf7"},"vehicle_type_id":"4","last_reported":1742306992,"current_range_meters":3200,"station_id":"ce4bhk92rcd13ifvqgb0","pricing_plan_id":"cebpf4jnsgd1na2vs0mg"},{"bike_id":"cfa8254a-4fd1-4e39-bcd4-08290560c4f1","system_id":"levelo_inurba_marseille","lat":43.29792,"lon":5.40405,"is_reserved":false,"is_disabled":false,"rental_uris":{"android":"levelo://app?vid=cfa8254a-4fd1-4e39-bcd4-08290560c4f1","ios":"levelo://app?vid=cfa8254a-4fd1-4e39-bcd4-08290560c4f1"},"vehicle_type_id":"4","last_reported":1742306992,"current_range_meters":6000,"station_id":"ce4bh112rcd13ifvqd90","pricing_plan_id":"cebpf4jnsgd1na2vs0mg"},{"bike_id":"e687940f-3c9c-4a24-82d3-cc513234d0f2","system_id":"levelo_inurba_marseille","lat":43.26226,"lon":5.40454,"is_reserved":false,"is_disabled":false,"rental_uris":{"android":"levelo://app?vid=e687940f-3c9c-4a24-82d3-cc513234d0f2","ios":"levelo://app?vid=e687940f-3c9c-4a24-82d3-cc513234d0f2"},"vehicle_type_id":"4","last_reported":1742306992,"current_range_meters":3200,"station_id":"ce4bhmh2rcd13ifvqgmg","pricing_plan_id":"cebpf4jnsgd1na2vs0mg"},{"bike_id":"c869a08e-31bb-4b3b-855d-5547b736ee84","system_id":"levelo_inurba_marseille","lat":43.28414,"lon":5.34985,"is_reserved":false,"is_disabled":false,"rental_uris":{"android":"levelo://app?vid=c869a08e-31bb-4b3b-855d-5547b736ee84","ios":"levelo://app?vid=c869a08e-31bb-4b3b-855d-5547b736ee84"},"vehicle_type_id":"4","last_reported":1742306992,"current_range_meters":3200,"station_id":"ce4bhbh2rcd13ifvqepg","pricing_plan_id":"cebpf4jnsgd1na2vs0mg"},{"bike_id":"558ab4fd-8d49-432d-a3ea-02229c3af17f","system_id":"levelo_inurba_marseille","lat":43.3249,"lon":5.36584,"is_reserved":false,"is_disabled":true,"rental_uris":{"android":"levelo://app?vid=558ab4fd-8d49-432d-a3ea-02229c3af17f","ios":"levelo://app?vid=558ab4fd-8d49-432d-a3ea-02229c3af17f"},"vehicle_type_id":"4","last_reported":1742306992,"current_range_meters":3200,"station_id":"ce4bhs12rcd13ifvqhvg","pricing_plan_id":"cebpf4jnsgd1na2vs0mg"},{"bike_id":"05e84000-c49a-4c5a-a587-ea87359d67c1","system_id":"levelo_inurba_marseille","lat":43.26066,"lon":5.39399,"is_reserved":false,"is_disabled":false,"rental_uris":{"android":"levelo://app?vid=05e84000-c49a-4c5a-a587-ea87359d67c1","ios":"levelo://app?vid=05e84000-c49a-4c5a-a587-ea87359d67c1"},"vehicle_type_id":"4","last_reported":1742306992,"current_range_meters":3200,"station_id":"ce4bhh92rcd13ifvqfj0","pricing_plan_id":"cebpf4jnsgd1na2vs0mg"},{"bike_id":"2620d77c-9822-456c-b6a1-d24fdd674fd0","system_id":"levelo_inurba_marseille","lat":43.33025,"lon":5.3904,"is_reserved":false,"is_disabled":false,"rental_uris":{"android":"levelo://app?vid=2620d77c-9822-456c-b6a1-d24fdd674fd0","ios":"levelo://app?vid=2620d77c-9822-456c-b6a1-d24fdd674fd0"},"vehicle_type_id":"4","last_reported":1742306992,"current_range_meters":3200,"station_id":"ce4bhr92rcd13ifvqhrg","pricing_plan_id":"cebpf4jnsgd1na2vs0mg"},{"bike_id":"163cca63-19ab-477f-b726-7f36872b44fa","system_id":"levelo_inurba_marseille","lat":43.24185,"lon":5.39742,"is_reserved":false,"is_disabled":false,"rental_uris":{"android":"levelo://app?vid=163cca63-19ab-477f-b726-7f36872b44fa","ios":"levelo://app?vid=163cca63-19ab-477f-b726-7f36872b44fa"},"vehicle_type_id":"4","last_reported":1742306992,"current_range_meters":3600,"station_id":"ce4bhn12rcd13ifvqgpg","pricing_plan_id":"cebpf4jnsgd1na2vs0mg"},{"bike_id":"6ebb0fe5-a6ad-4206-a5ae-7164148f8d2e","system_id":"levelo_inurba_marseille","lat":43.3149,"lon":5.37326,"is_reserved":false,"is_disabled":false,"rental_uris":{"android":"levelo://app?vid=6ebb0fe5-a6ad-4206-a5ae-7164148f8d2e","ios":"levelo://app?vid=6ebb0fe5-a6ad-4206-a5ae-7164148f8d2e"},"vehicle_type_id":"4","last_reported":1742306992,"current_range_meters":3600,"station_id":"ce4bgt12rcd13ifvqcd0","pricing_plan_id":"cebpf4jnsgd1na2vs0mg"},{"bike_id":"9498b8d1-1a26-4adb-94b7-abf5278caff7","system_id":"levelo_inurba_marseille","lat":43.25874,"lon":5.39913,"is_reserved":false,"is_disabled":false,"rental_uris":{"android":"levelo://app?vid=9498b8d1-1a26-4adb-94b7-abf5278caff7","ios":"levelo://app?vid=9498b8d1-1a26-4adb-94b7-abf5278caff7"},"vehicle_type_id":"4","last_reported":1742306992,"current_range_meters":3600,"station_id":"ce4bhl92rcd13ifvqghg","pricing_plan_id":"cebpf4jnsgd1na2vs0mg"},{"bike_id":"13030fe0-f542-4016-b5c9-0b3ccfd48774","system_id":"levelo_inurba_marseille","lat":43.31216,"lon":5.36882,"is_reserved":false,"is_disabled":false,"rental_uris":{"android":"levelo://app?vid=13030fe0-f542-4016-b5c9-0b3ccfd48774","ios":"levelo://app?vid=13030fe0-f542-4016-b5c9-0b3ccfd48774"},"vehicle_type_id":"4","last_reported":1742306992,"current_range_meters":4000,"station_id":"ce4bgl92rcd13ifvqbq0","pricing_plan_id":"cebpf4jnsgd1na2vs0mg"},{"bike_id":"2264141f-0b15-4656-9b35-77ae7fcfb6d7","system_id":"levelo_inurba_marseille","lat":43.29604,"lon":5.38108,"is_reserved":false,"is_disabled":false,"rental_uris":{"android":"levelo://app?vid=2264141f-0b15-4656-9b35-77ae7fcfb6d7","ios":"levelo://app?vid=2264141f-0b15-4656-9b35-77ae7fcfb6d7"},"vehicle_type_id":"4","last_reported":1742306992,"current_range_meters":4400,"station_id":"ce4bgl12rcd13ifvqbo0","pricing_plan_id":"cebpf4jnsgd1na2vs0mg"},{"bike_id":"6c6e5693-f098-4bb7-966b-91c38ee2d48f","system_id":"levelo_inurba_marseille","lat":43.30478,"lon":5.37887,"is_reserved":false,"is_disabled":false,"rental_uris":{"android":"levelo://app?vid=6c6e5693-f098-4bb7-966b-91c38ee2d48f","ios":"levelo://app?vid=6c6e5693-f098-4bb7-966b-91c38ee2d48f"},"vehicle_type_id":"4","last_reported":1742306992,"current_range_meters":4800,"station_id":"ce4bgup2rcd13ifvqcn0","pricing_plan_id":"cebpf4jnsgd1na2vs0mg"},{"bike_id":"3580772a-41dd-4f68-afcf-a7f5389b00fb","system_id":"levelo_inurba_marseille","lat":43.2587,"lon":5.39909,"is_reserved":false,"is_disabled":false,"rental_uris":{"android":"levelo://app?vid=3580772a-41dd-4f68-afcf-a7f5389b00fb","ios":"levelo://app?vid=3580772a-41dd-4f68-afcf-a7f5389b00fb"},"vehicle_type_id":"4","last_reported":1742306992,"current_range_meters":4800,"station_id":"ce4bhl92rcd13ifvqghg","pricing_plan_id":"cebpf4jnsgd1na2vs0mg"},{"bike_id":"4d991a99-362b-4560-a8b9-73bb7596b4dd","system_id":"levelo_inurba_marseille","lat":43.302292,"lon":5.39469,"is_reserved":false,"is_disabled":false,"rental_uris":{"android":"levelo://app?vid=4d991a99-362b-4560-a8b9-73bb7596b4dd","ios":"levelo://app?vid=4d991a99-362b-4560-a8b9-73bb7596b4dd"},"vehicle_type_id":"4","last_reported":1742306992,"current_range_meters":4800,"station_id":"","pricing_plan_id":"cebpf4jnsgd1na2vs0mg"},{"bike_id":"7b9a2db8-c945-4a9f-8181-f14f7288557c","system_id":"levelo_inurba_marseille","lat":43.28956,"lon":5.36646,"is_reserved":false,"is_disabled":false,"rental_uris":{"android":"levelo://app?vid=7b9a2db8-c945-4a9f-8181-f14f7288557c","ios":"levelo://app?vid=7b9a2db8-c945-4a9f-8181-f14f7288557c"},"vehicle_type_id":"4","last_reported":1742306992,"current_range_meters":4800,"station_id":"ce4bhap2rcd13ifvqek0","pricing_plan_id":"cebpf4jnsgd1na2vs0mg"},{"bike_id":"0a9634d8-c7fe-4ae2-8acf-40ccedbea817","system_id":"levelo_inurba_marseille","lat":43.30431,"lon":5.38888,"is_reserved":false,"is_disabled":false,"rental_uris":{"android":"levelo://app?vid=0a9634d8-c7fe-4ae2-8acf-40ccedbea817","ios":"levelo://app?vid=0a9634d8-c7fe-4ae2-8acf-40ccedbea817"},"vehicle_type_id":"4","last_reported":1742306992,"current_range_meters":4800,"station_id":"ce4bgk12rcd13ifvqbi0","pricing_plan_id":"cebpf4jnsgd1na2vs0mg"},{"bike_id":"e95151cd-abc4-4dae-8ab5-1de4cba734f5","system_id":"levelo_inurba_marseille","lat":43.24186,"lon":5.39717,"is_reserved":false,"is_disabled":false,"rental_uris":{"android":"levelo://app?vid=e95151cd-abc4-4dae-8ab5-1de4cba734f5","ios":"levelo://app?vid=e95151cd-abc4-4dae-8ab5-1de4cba734f5"},"vehicle_type_id":"4","last_reported":1742306992,"current_range_meters":5600,"station_id":"ce4bhn12rcd13ifvqgpg","pricing_plan_id":"cebpf4jnsgd1na2vs0mg"},{"bike_id":"c5a3a776-82c1-4712-807a-5fc2d949bea6","system_id":"levelo_inurba_marseille","lat":43.28467,"lon":5.35877,"is_reserved":false,"is_disabled":false,"rental_uris":{"android":"levelo://app?vid=c5a3a776-82c1-4712-807a-5fc2d949bea6","ios":"levelo://app?vid=c5a3a776-82c1-4712-807a-5fc2d949bea6"},"vehicle_type_id":"4","last_reported":1742306992,"current_range_meters":5600,"station_id":"ce4bhah2rcd13ifvqei0","pricing_plan_id":"cebpf4jnsgd1na2vs0mg"},{"bike_id":"f4ec4873-32b9-41d1-8f10-13c67d308725","system_id":"levelo_inurba_marseille","lat":43.29573,"lon":5.37541,"is_reserved":false,"is_disabled":false,"rental_uris":{"android":"levelo://app?vid=f4ec4873-32b9-41d1-8f10-13c67d308725","ios":"levelo://app?vid=f4ec4873-32b9-41d1-8f10-13c67d308725"},"vehicle_type_id":"4","last_reported":1742306992,"current_range_meters":5600,"station_id":"ce4bgh92rcd13ifvqb50","pricing_plan_id":"cebpf4jnsgd1na2vs0mg"},{"bike_id":"11f5b5e7-a29d-4a01-9caf-a099971075ad","system_id":"levelo_inurba_marseille","lat":43.26277,"lon":5.37861,"is_reserved":false,"is_disabled":false,"rental_uris":{"android":"levelo://app?vid=11f5b5e7-a29d-4a01-9caf-a099971075ad","ios":"levelo://app?vid=11f5b5e7-a29d-4a01-9caf-a099971075ad"},"vehicle_type_id":"4","last_reported":1742306992,"current_range_meters":5600,"station_id":"","pricing_plan_id":"cebpf4jnsgd1na2vs0mg"},{"bike_id":"10a54d18-7dcc-4b52-9f93-f5dbe25a6fec","system_id":"levelo_inurba_marseille","lat":43.2919,"lon":5.35739,"is_reserved":false,"is_disabled":false,"rental_uris":{"android":"levelo://app?vid=10a54d18-7dcc-4b52-9f93-f5dbe25a6fec","ios":"levelo://app?vid=10a54d18-7dcc-4b52-9f93-f5dbe25a6fec"},"vehicle_type_id":"4","last_reported":1742306992,"current_range_meters":6000,"station_id":"ce4bhb92rcd13ifvqen0","pricing_plan_id":"cebpf4jnsgd1na2vs0mg"},{"bike_id":"057c4299-c24d-4a02-8ede-b4bf9523726b","system_id":"levelo_inurba_marseille","lat":43.23152,"lon":5.43714,"is_reserved":false,"is_disabled":true,"rental_uris":{"android":"levelo://app?vid=057c4299-c24d-4a02-8ede-b4bf9523726b","ios":"levelo://app?vid=057c4299-c24d-4a02-8ede-b4bf9523726b"},"vehicle_type_id":"4","last_reported":1742306992,"current_range_meters":6000,"station_id":"ce4bhmp2rcd13ifvqgog","pricing_plan_id":"cebpf4jnsgd1na2vs0mg"},{"bike_id":"fa5f15ab-8994-45e1-84de-31aa4c8b3ced","system_id":"levelo_inurba_marseille","lat":43.23198,"lon":5.35562,"is_reserved":false,"is_disabled":false,"rental_uris":{"android":"levelo://app?vid=fa5f15ab-8994-45e1-84de-31aa4c8b3ced","ios":"levelo://app?vid=fa5f15ab-8994-45e1-84de-31aa4c8b3ced"},"vehicle_type_id":"4","last_reported":1742306992,"current_range_meters":6000,"station_id":"ce4bhu92rcd13ifvqi70","pricing_plan_id":"cebpf4jnsgd1na2vs0mg"},{"bike_id":"b54a649d-2707-4569-87ee-d2c230e19409","system_id":"levelo_inurba_marseille","lat":43.27471,"lon":5.40887,"is_reserved":false,"is_disabled":false,"rental_uris":{"android":"levelo://app?vid=b54a649d-2707-4569-87ee-d2c230e19409","ios":"levelo://app?vid=b54a649d-2707-4569-87ee-d2c230e19409"},"vehicle_type_id":"4","last_reported":1742306992,"current_range_meters":6000,"station_id":"","pricing_plan_id":"cebpf4jnsgd1na2vs0mg"},{"bike_id":"4754067c-1424-4e49-adfc-54b87e00a987","system_id":"levelo_inurba_marseille","lat":43.30882,"lon":5.37201,"is_reserved":false,"is_disabled":false,"rental_uris":{"android":"levelo://app?vid=4754067c-1424-4e49-adfc-54b87e00a987","ios":"levelo://app?vid=4754067c-1424-4e49-adfc-54b87e00a987"},"vehicle_type_id":"4","last_reported":1742306992,"current_range_meters":6000,"station_id":"ce4bguh2rcd13ifvqckg","pricing_plan_id":"cebpf4jnsgd1na2vs0mg"},{"bike_id":"73032ec1-67b4-404a-bd04-890cc9d47870","system_id":"levelo_inurba_marseille","lat":43.265558,"lon":5.3729,"is_reserved":false,"is_disabled":false,"rental_uris":{"android":"levelo://app?vid=73032ec1-67b4-404a-bd04-890cc9d47870","ios":"levelo://app?vid=73032ec1-67b4-404a-bd04-890cc9d47870"},"vehicle_type_id":"4","last_reported":1742306992,"current_range_meters":12800,"station_id":"ce4bho92rcd13ifvqh3g","pricing_plan_id":"cebpf4jnsgd1na2vs0mg"},{"bike_id":"dd117a7c-a536-40a1-91af-43693b0b8fe5","system_id":"levelo_inurba_marseille","lat":43.25943,"lon":5.409,"is_reserved":false,"is_disabled":false,"rental_uris":{"android":"levelo://app?vid=dd117a7c-a536-40a1-91af-43693b0b8fe5","ios":"levelo://app?vid=dd117a7c-a536-40a1-91af-43693b0b8fe5"},"vehicle_type_id":"4","last_reported":1742306992,"current_range_meters":6000,"station_id":"ce4bhm92rcd13ifvqglg","pricing_plan_id":"cebpf4jnsgd1na2vs0mg"},{"bike_id":"d1676c12-45d0-460a-ab7d-e6bd42a8628c","system_id":"levelo_inurba_marseille","lat":43.25941,"lon":5.40902,"is_reserved":false,"is_disabled":false,"rental_uris":{"android":"levelo://app?vid=d1676c12-45d0-460a-ab7d-e6bd42a8628c","ios":"levelo://app?vid=d1676c12-45d0-460a-ab7d-e6bd42a8628c"},"vehicle_type_id":"4","last_reported":1742306992,"current_range_meters":6400,"station_id":"ce4bhm92rcd13ifvqglg","pricing_plan_id":"cebpf4jnsgd1na2vs0mg"},{"bike_id":"2d09f959-a102-4e82-81e5-f5242077dd37","system_id":"levelo_inurba_marseille","lat":43.26953,"lon":5.38642,"is_reserved":false,"is_disabled":false,"rental_uris":{"android":"levelo://app?vid=2d09f959-a102-4e82-81e5-f5242077dd37","ios":"levelo://app?vid=2d09f959-a102-4e82-81e5-f5242077dd37"},"vehicle_type_id":"4","last_reported":1742306992,"current_range_meters":6400,"station_id":"ce4bhh92rcd13ifvqfh0","pricing_plan_id":"cebpf4jnsgd1na2vs0mg"},{"bike_id":"694e2550-26c1-4e5d-b544-75ec19648790","system_id":"levelo_inurba_marseille","lat":43.32359,"lon":5.36766,"is_reserved":false,"is_disabled":false,"rental_uris":{"android":"levelo://app?vid=694e2550-26c1-4e5d-b544-75ec19648790","ios":"levelo://app?vid=694e2550-26c1-4e5d-b544-75ec19648790"},"vehicle_type_id":"4","last_reported":1742306992,"current_range_meters":6800,"station_id":"ce4bhsh2rcd13ifvqi2g","pricing_plan_id":"cebpf4jnsgd1na2vs0mg"},{"bike_id":"25e73a09-0202-4d58-940a-553229993c3b","system_id":"levelo_inurba_marseille","lat":43.25935,"lon":5.40898,"is_reserved":false,"is_disabled":false,"rental_uris":{"android":"levelo://app?vid=25e73a09-0202-4d58-940a-553229993c3b","ios":"levelo://app?vid=25e73a09-0202-4d58-940a-553229993c3b"},"vehicle_type_id":"4","last_reported":1742306992,"current_range_meters":6800,"station_id":"ce4bhm92rcd13ifvqglg","pricing_plan_id":"cebpf4jnsgd1na2vs0mg"},{"bike_id":"1c75c6b1-aadc-4645-8695-2aa87290e132","system_id":"levelo_inurba_marseille","lat":43.24999,"lon":5.38939,"is_reserved":false,"is_disabled":false,"rental_uris":{"android":"levelo://app?vid=1c75c6b1-aadc-4645-8695-2aa87290e132","ios":"levelo://app?vid=1c75c6b1-aadc-4645-8695-2aa87290e132"},"vehicle_type_id":"4","last_reported":1742306992,"current_range_meters":6800,"station_id":"ce4bhgp2rcd13ifvqfd0","pricing_plan_id":"cebpf4jnsgd1na2vs0mg"},{"bike_id":"09f8050c-ce4d-4548-9c05-e837f6d69040","system_id":"levelo_inurba_marseille","lat":43.30224,"lon":5.39467,"is_reserved":false,"is_disabled":false,"rental_uris":{"android":"levelo://app?vid=09f8050c-ce4d-4548-9c05-e837f6d69040","ios":"levelo://app?vid=09f8050c-ce4d-4548-9c05-e837f6d69040"},"vehicle_type_id":"4","last_reported":1742306992,"current_range_meters":6800,"station_id":"ce4bh0p2rcd13ifvqd70","pricing_plan_id":"cebpf4jnsgd1na2vs0mg"},{"bike_id":"2665cc4b-07ed-4ae6-a66f-2b09983c709d","system_id":"levelo_inurba_marseille","lat":43.33761,"lon":5.37489,"is_reserved":false,"is_disabled":false,"rental_uris":{"android":"levelo://app?vid=2665cc4b-07ed-4ae6-a66f-2b09983c709d","ios":"levelo://app?vid=2665cc4b-07ed-4ae6-a66f-2b09983c709d"},"vehicle_type_id":"4","last_reported":1742306992,"current_range_meters":6800,"station_id":"","pricing_plan_id":"cebpf4jnsgd1na2vs0mg"},{"bike_id":"632c2221-e019-48de-aac3-9d806f0056f4","system_id":"levelo_inurba_marseille","lat":43.24177,"lon":5.39739,"is_reserved":false,"is_disabled":false,"rental_uris":{"android":"levelo://app?vid=632c2221-e019-48de-aac3-9d806f0056f4","ios":"levelo://app?vid=632c2221-e019-48de-aac3-9d806f0056f4"},"vehicle_type_id":"4","last_reported":1742306992,"current_range_meters":6800,"station_id":"ce4bhn12rcd13ifvqgpg","pricing_plan_id":"cebpf4jnsgd1na2vs0mg"},{"bike_id":"beb4990c-c762-4b6f-aaf5-95a30fff471a","system_id":"levelo_inurba_marseille","lat":43.31076,"lon":5.38367,"is_reserved":false,"is_disabled":false,"rental_uris":{"android":"levelo://app?vid=beb4990c-c762-4b6f-aaf5-95a30fff471a","ios":"levelo://app?vid=beb4990c-c762-4b6f-aaf5-95a30fff471a"},"vehicle_type_id":"4","last_reported":1742306992,"current_range_meters":7200,"station_id":"ce4bgv92rcd13ifvqcr0","pricing_plan_id":"cebpf4jnsgd1na2vs0mg"},{"bike_id":"42982b0f-a385-4376-b0b6-b754155d5882","system_id":"levelo_inurba_marseille","lat":43.27378,"lon":5.36259,"is_reserved":false,"is_disabled":false,"rental_uris":{"android":"levelo://app?vid=42982b0f-a385-4376-b0b6-b754155d5882","ios":"levelo://app?vid=42982b0f-a385-4376-b0b6-b754155d5882"},"vehicle_type_id":"4","last_reported":1742306992,"current_range_meters":6800,"station_id":"ce4bhbh2rcd13ifvqeo0","pricing_plan_id":"cebpf4jnsgd1na2vs0mg"},{"bike_id":"b1b41327-66f3-4983-ac80-93a6af2a034d","system_id":"levelo_inurba_marseille","lat":43.2308,"lon":5.35503,"is_reserved":false,"is_disabled":false,"rental_uris":{"android":"levelo://app?vid=b1b41327-66f3-4983-ac80-93a6af2a034d","ios":"levelo://app?vid=b1b41327-66f3-4983-ac80-93a6af2a034d"},"vehicle_type_id":"4","last_reported":1742306992,"current_range_meters":7200,"station_id":"cpo3342slgdg3j2ifvpg","pricing_plan_id":"cebpf4jnsgd1na2vs0mg"},{"bike_id":"4e98cc9a-2c15-4e32-9793-e01bc10451a4","system_id":"levelo_inurba_marseille","lat":43.26952,"lon":5.38651,"is_reserved":false,"is_disabled":false,"rental_uris":{"android":"levelo://app?vid=4e98cc9a-2c15-4e32-9793-e01bc10451a4","ios":"levelo://app?vid=4e98cc9a-2c15-4e32-9793-e01bc10451a4"},"vehicle_type_id":"4","last_reported":1742306992,"current_range_meters":7200,"station_id":"ce4bhh92rcd13ifvqfh0","pricing_plan_id":"cebpf4jnsgd1na2vs0mg"},{"bike_id":"6d8e8090-a4c7-4966-a3f4-a833922b9e5a","system_id":"levelo_inurba_marseille","lat":43.23207,"lon":5.35552,"is_reserved":false,"is_disabled":false,"rental_uris":{"android":"levelo://app?vid=6d8e8090-a4c7-4966-a3f4-a833922b9e5a","ios":"levelo://app?vid=6d8e8090-a4c7-4966-a3f4-a833922b9e5a"},"vehicle_type_id":"4","last_reported":1742306992,"current_range_meters":7200,"station_id":"ce4bhu92rcd13ifvqi70","pricing_plan_id":"cebpf4jnsgd1na2vs0mg"},{"bike_id":"6aed93c0-bb32-4569-b0ba-5debbba8cd5e","system_id":"levelo_inurba_marseille","lat":43.30258,"lon":5.37727,"is_reserved":false,"is_disabled":false,"rental_uris":{"android":"levelo://app?vid=6aed93c0-bb32-4569-b0ba-5debbba8cd5e","ios":"levelo://app?vid=6aed93c0-bb32-4569-b0ba-5debbba8cd5e"},"vehicle_type_id":"4","last_reported":1742306992,"current_range_meters":7200,"station_id":"ce4bguh2rcd13ifvqcj0","pricing_plan_id":"cebpf4jnsgd1na2vs0mg"},{"bike_id":"0d3accb9-853e-4df0-b9d8-4607b8048f46","system_id":"levelo_inurba_marseille","lat":43.24152,"lon":5.36421,"is_reserved":false,"is_disabled":false,"rental_uris":{"android":"levelo://app?vid=0d3accb9-853e-4df0-b9d8-4607b8048f46","ios":"levelo://app?vid=0d3accb9-853e-4df0-b9d8-4607b8048f46"},"vehicle_type_id":"4","last_reported":1742306992,"current_range_meters":7200,"station_id":"cpo36qri1sfpv3e86is0","pricing_plan_id":"cebpf4jnsgd1na2vs0mg"},{"bike_id":"7d731d78-45c0-4678-986e-ebfa303faba2","system_id":"levelo_inurba_marseille","lat":43.28141,"lon":5.37842,"is_reserved":false,"is_disabled":false,"rental_uris":{"android":"levelo://app?vid=7d731d78-45c0-4678-986e-ebfa303faba2","ios":"levelo://app?vid=7d731d78-45c0-4678-986e-ebfa303faba2"},"vehicle_type_id":"4","last_reported":1742306992,"current_range_meters":7200,"station_id":"ce4bha12rcd13ifvqee0","pricing_plan_id":"cebpf4jnsgd1na2vs0mg"},{"bike_id":"700b44cc-da28-4bb1-b5a0-510d23fecc78","system_id":"levelo_inurba_marseille","lat":43.2471,"lon":5.40733,"is_reserved":false,"is_disabled":false,"rental_uris":{"android":"levelo://app?vid=700b44cc-da28-4bb1-b5a0-510d23fecc78","ios":"levelo://app?vid=700b44cc-da28-4bb1-b5a0-510d23fecc78"},"vehicle_type_id":"4","last_reported":1742306992,"current_range_meters":7200,"station_id":"","pricing_plan_id":"cebpf4jnsgd1na2vs0mg"},{"bike_id":"551cc65b-fe42-4531-8213-651475bbd808","system_id":"levelo_inurba_marseille","lat":43.25024,"lon":5.38933,"is_reserved":false,"is_disabled":false,"rental_uris":{"android":"levelo://app?vid=551cc65b-fe42-4531-8213-651475bbd808","ios":"levelo://app?vid=551cc65b-fe42-4531-8213-651475bbd808"},"vehicle_type_id":"4","last_reported":1742306992,"current_range_meters":7200,"station_id":"ce4bhgp2rcd13ifvqfd0","pricing_plan_id":"cebpf4jnsgd1na2vs0mg"},{"bike_id":"e113ab42-ac6c-409f-a210-0c652769b4aa","system_id":"levelo_inurba_marseille","lat":43.2502,"lon":5.38903,"is_reserved":false,"is_disabled":false,"rental_uris":{"android":"levelo://app?vid=e113ab42-ac6c-409f-a210-0c652769b4aa","ios":"levelo://app?vid=e113ab42-ac6c-409f-a210-0c652769b4aa"},"vehicle_type_id":"4","last_reported":1742306992,"current_range_meters":7200,"station_id":"ce4bhgp2rcd13ifvqfd0","pricing_plan_id":"cebpf4jnsgd1na2vs0mg"},{"bike_id":"0414c92c-7144-48ed-abc0-69cdccd9ea5d","system_id":"levelo_inurba_marseille","lat":43.24176,"lon":5.39712,"is_reserved":false,"is_disabled":false,"rental_uris":{"android":"levelo://app?vid=0414c92c-7144-48ed-abc0-69cdccd9ea5d","ios":"levelo://app?vid=0414c92c-7144-48ed-abc0-69cdccd9ea5d"},"vehicle_type_id":"4","last_reported":1742306992,"current_range_meters":8000,"station_id":"ce4bhn12rcd13ifvqgpg","pricing_plan_id":"cebpf4jnsgd1na2vs0mg"},{"bike_id":"35695dd4-791c-4486-b261-10bd7a9e52e9","system_id":"levelo_inurba_marseille","lat":43.26223,"lon":5.40448,"is_reserved":false,"is_disabled":true,"rental_uris":{"android":"levelo://app?vid=35695dd4-791c-4486-b261-10bd7a9e52e9","ios":"levelo://app?vid=35695dd4-791c-4486-b261-10bd7a9e52e9"},"vehicle_type_id":"4","last_reported":1742306992,"current_range_meters":8000,"station_id":"ce4bhmh2rcd13ifvqgmg","pricing_plan_id":"cebpf4jnsgd1na2vs0mg"},{"bike_id":"a317b9f6-b2a5-4f94-aaa9-119e36f525b2","system_id":"levelo_inurba_marseille","lat":43.29915,"lon":5.38142,"is_reserved":false,"is_disabled":false,"rental_uris":{"android":"levelo://app?vid=a317b9f6-b2a5-4f94-aaa9-119e36f525b2","ios":"levelo://app?vid=a317b9f6-b2a5-4f94-aaa9-119e36f525b2"},"vehicle_type_id":"4","last_reported":1742306992,"current_range_meters":8000,"station_id":"ce4bgj12rcd13ifvqbc0","pricing_plan_id":"cebpf4jnsgd1na2vs0mg"},{"bike_id":"a14bcbfb-67d9-465e-b627-470c231309f7","system_id":"levelo_inurba_marseille","lat":43.31715,"lon":5.40449,"is_reserved":false,"is_disabled":false,"rental_uris":{"android":"levelo://app?vid=a14bcbfb-67d9-465e-b627-470c231309f7","ios":"levelo://app?vid=a14bcbfb-67d9-465e-b627-470c231309f7"},"vehicle_type_id":"4","last_reported":1742306992,"current_range_meters":8000,"station_id":"ce4bh012rcd13ifvqd00","pricing_plan_id":"cebpf4jnsgd1na2vs0mg"},{"bike_id":"a30b7f2e-5ea1-4024-bcaf-25da1b976137","system_id":"levelo_inurba_marseille","lat":43.28673,"lon":5.36356,"is_reserved":false,"is_disabled":false,"rental_uris":{"android":"levelo://app?vid=a30b7f2e-5ea1-4024-bcaf-25da1b976137","ios":"levelo://app?vid=a30b7f2e-5ea1-4024-bcaf-25da1b976137"},"vehicle_type_id":"4","last_reported":1742306992,"current_range_meters":8000,"station_id":"ce4bhah2rcd13ifvqej0","pricing_plan_id":"cebpf4jnsgd1na2vs0mg"},{"bike_id":"5bc5cd7b-66a7-4d77-847e-cc94e937d665","system_id":"levelo_inurba_marseille","lat":43.26214,"lon":5.37443,"is_reserved":false,"is_disabled":false,"rental_uris":{"android":"levelo://app?vid=5bc5cd7b-66a7-4d77-847e-cc94e937d665","ios":"levelo://app?vid=5bc5cd7b-66a7-4d77-847e-cc94e937d665"},"vehicle_type_id":"4","last_reported":1742306992,"current_range_meters":8000,"station_id":"ce4bhgp2rcd13ifvqfc0","pricing_plan_id":"cebpf4jnsgd1na2vs0mg"},{"bike_id":"13e1feeb-8341-47a8-8f2b-0492640ac0cb","system_id":"levelo_inurba_marseille","lat":43.30354,"lon":5.37294,"is_reserved":false,"is_disabled":false,"rental_uris":{"android":"levelo://app?vid=13e1feeb-8341-47a8-8f2b-0492640ac0cb","ios":"levelo://app?vid=13e1feeb-8341-47a8-8f2b-0492640ac0cb"},"vehicle_type_id":"4","last_reported":1742306992,"current_range_meters":8000,"station_id":"ce4bgt12rcd13ifvqcd0","pricing_plan_id":"cebpf4jnsgd1na2vs0mg"},{"bike_id":"8fe7e33b-57fc-439c-ba02-015988635c80","system_id":"levelo_inurba_marseille","lat":43.27074,"lon":5.42285,"is_reserved":false,"is_disabled":true,"rental_uris":{"android":"levelo://app?vid=8fe7e33b-57fc-439c-ba02-015988635c80","ios":"levelo://app?vid=8fe7e33b-57fc-439c-ba02-015988635c80"},"vehicle_type_id":"4","last_reported":1742306992,"current_range_meters":8000,"station_id":"ce4bhk92rcd13ifvqgb0","pricing_plan_id":"cebpf4jnsgd1na2vs0mg"},{"bike_id":"8b47e242-36c2-4968-ba43-3579a3760cf7","system_id":"levelo_inurba_marseille","lat":43.26227,"lon":5.4044,"is_reserved":false,"is_disabled":false,"rental_uris":{"android":"levelo://app?vid=8b47e242-36c2-4968-ba43-3579a3760cf7","ios":"levelo://app?vid=8b47e242-36c2-4968-ba43-3579a3760cf7"},"vehicle_type_id":"4","last_reported":1742306992,"current_range_meters":8000,"station_id":"ce4bhmh2rcd13ifvqgmg","pricing_plan_id":"cebpf4jnsgd1na2vs0mg"},{"bike_id":"bf53558a-323c-40e3-9c37-ac64ba388e1c","system_id":"levelo_inurba_marseille","lat":43.23963,"lon":5.36628,"is_reserved":false,"is_disabled":false,"rental_uris":{"android":"levelo://app?vid=bf53558a-323c-40e3-9c37-ac64ba388e1c","ios":"levelo://app?vid=bf53558a-323c-40e3-9c37-ac64ba388e1c"},"vehicle_type_id":"4","last_reported":1742306992,"current_range_meters":8000,"station_id":"ce4bhi12rcd13ifvqfp0","pricing_plan_id":"cebpf4jnsgd1na2vs0mg"},{"bike_id":"82d3dad7-63f3-4a7e-8219-54f8cb3f7636","system_id":"levelo_inurba_marseille","lat":43.23152,"lon":5.43725,"is_reserved":false,"is_disabled":false,"rental_uris":{"android":"levelo://app?vid=82d3dad7-63f3-4a7e-8219-54f8cb3f7636","ios":"levelo://app?vid=82d3dad7-63f3-4a7e-8219-54f8cb3f7636"},"vehicle_type_id":"4","last_reported":1742306992,"current_range_meters":8400,"station_id":"ce4bhmp2rcd13ifvqgog","pricing_plan_id":"cebpf4jnsgd1na2vs0mg"},{"bike_id":"5acfff0d-6883-40b9-90d2-621af333cea4","system_id":"levelo_inurba_marseille","lat":43.25945,"lon":5.40903,"is_reserved":false,"is_disabled":false,"rental_uris":{"android":"levelo://app?vid=5acfff0d-6883-40b9-90d2-621af333cea4","ios":"levelo://app?vid=5acfff0d-6883-40b9-90d2-621af333cea4"},"vehicle_type_id":"4","last_reported":1742306992,"current_range_meters":8400,"station_id":"ce4bhm92rcd13ifvqglg","pricing_plan_id":"cebpf4jnsgd1na2vs0mg"},{"bike_id":"d836e1e3-7163-4c7c-935a-f932daf50caa","system_id":"levelo_inurba_marseille","lat":43.25117,"lon":5.40327,"is_reserved":false,"is_disabled":false,"rental_uris":{"android":"levelo://app?vid=d836e1e3-7163-4c7c-935a-f932daf50caa","ios":"levelo://app?vid=d836e1e3-7163-4c7c-935a-f932daf50caa"},"vehicle_type_id":"4","last_reported":1742306992,"current_range_meters":8400,"station_id":"ce4bhlh2rcd13ifvqgig","pricing_plan_id":"cebpf4jnsgd1na2vs0mg"},{"bike_id":"dcaf4a78-9578-4c55-ad86-195b8f6ec236","system_id":"levelo_inurba_marseille","lat":43.32111,"lon":5.36773,"is_reserved":false,"is_disabled":false,"rental_uris":{"android":"levelo://app?vid=dcaf4a78-9578-4c55-ad86-195b8f6ec236","ios":"levelo://app?vid=dcaf4a78-9578-4c55-ad86-195b8f6ec236"},"vehicle_type_id":"4","last_reported":1742306992,"current_range_meters":8400,"station_id":"ce4bhrh2rcd13ifvqhug","pricing_plan_id":"cebpf4jnsgd1na2vs0mg"},{"bike_id":"2d2cc216-0298-408d-9222-9bdc662aa771","system_id":"levelo_inurba_marseille","lat":43.31229,"lon":5.3687,"is_reserved":false,"is_disabled":false,"rental_uris":{"android":"levelo://app?vid=2d2cc216-0298-408d-9222-9bdc662aa771","ios":"levelo://app?vid=2d2cc216-0298-408d-9222-9bdc662aa771"},"vehicle_type_id":"4","last_reported":1742306992,"current_range_meters":8400,"station_id":"ce4bgl92rcd13ifvqbq0","pricing_plan_id":"cebpf4jnsgd1na2vs0mg"},{"bike_id":"b0e2fd3b-ed1a-4ac1-96a1-1bab6e2dcf15","system_id":"levelo_inurba_marseille","lat":43.3014,"lon":5.39883,"is_reserved":false,"is_disabled":false,"rental_uris":{"android":"levelo://app?vid=b0e2fd3b-ed1a-4ac1-96a1-1bab6e2dcf15","ios":"levelo://app?vid=b0e2fd3b-ed1a-4ac1-96a1-1bab6e2dcf15"},"vehicle_type_id":"4","last_reported":1742306992,"current_range_meters":8400,"station_id":"ce4bh0h2rcd13ifvqd40","pricing_plan_id":"cebpf4jnsgd1na2vs0mg"},{"bike_id":"97a1e633-c2b3-487e-8569-9036bf18d175","system_id":"levelo_inurba_marseille","lat":43.24173,"lon":5.36429,"is_reserved":false,"is_disabled":false,"rental_uris":{"android":"levelo://app?vid=97a1e633-c2b3-487e-8569-9036bf18d175","ios":"levelo://app?vid=97a1e633-c2b3-487e-8569-9036bf18d175"},"vehicle_type_id":"4","last_reported":1742306992,"current_range_meters":8400,"station_id":"cpo36qri1sfpv3e86is0","pricing_plan_id":"cebpf4jnsgd1na2vs0mg"},{"bike_id":"c7210302-a7fc-4dd4-8df3-138bbb26d5f3","system_id":"levelo_inurba_marseille","lat":43.24998,"lon":5.38942,"is_reserved":false,"is_disabled":false,"rental_uris":{"android":"levelo://app?vid=c7210302-a7fc-4dd4-8df3-138bbb26d5f3","ios":"levelo://app?vid=c7210302-a7fc-4dd4-8df3-138bbb26d5f3"},"vehicle_type_id":"4","last_reported":1742306992,"current_range_meters":8400,"station_id":"ce4bhgp2rcd13ifvqfd0","pricing_plan_id":"cebpf4jnsgd1na2vs0mg"},{"bike_id":"26adb19a-7d50-40d1-bccc-5cb45985cf1b","system_id":"levelo_inurba_marseille","lat":43.30545,"lon":5.36541,"is_reserved":false,"is_disabled":false,"rental_uris":{"android":"levelo://app?vid=26adb19a-7d50-40d1-bccc-5cb45985cf1b","ios":"levelo://app?vid=26adb19a-7d50-40d1-bccc-5cb45985cf1b"},"vehicle_type_id":"4","last_reported":1742306992,"current_range_meters":6800,"station_id":"ce4bgs12rcd13ifvqcag","pricing_plan_id":"cebpf4jnsgd1na2vs0mg"},{"bike_id":"f73ba149-3151-40b1-8750-d5ff63fd4adb","system_id":"levelo_inurba_marseille","lat":43.30509,"lon":5.37907,"is_reserved":false,"is_disabled":false,"rental_uris":{"android":"levelo://app?vid=f73ba149-3151-40b1-8750-d5ff63fd4adb","ios":"levelo://app?vid=f73ba149-3151-40b1-8750-d5ff63fd4adb"},"vehicle_type_id":"4","last_reported":1742306992,"current_range_meters":8400,"station_id":"ce4bgup2rcd13ifvqcn0","pricing_plan_id":"cebpf4jnsgd1na2vs0mg"},{"bike_id":"b6ed82ed-6cc5-42ba-803e-53ce8f49405d","system_id":"levelo_inurba_marseille","lat":43.25011,"lon":5.38929,"is_reserved":false,"is_disabled":false,"rental_uris":{"android":"levelo://app?vid=b6ed82ed-6cc5-42ba-803e-53ce8f49405d","ios":"levelo://app?vid=b6ed82ed-6cc5-42ba-803e-53ce8f49405d"},"vehicle_type_id":"4","last_reported":1742306992,"current_range_meters":8400,"station_id":"ce4bhgp2rcd13ifvqfd0","pricing_plan_id":"cebpf4jnsgd1na2vs0mg"},{"bike_id":"52de12b4-a047-4b9e-95e0-d24af5c13d93","system_id":"levelo_inurba_marseille","lat":43.28445,"lon":5.39193,"is_reserved":false,"is_disabled":false,"rental_uris":{"android":"levelo://app?vid=52de12b4-a047-4b9e-95e0-d24af5c13d93","ios":"levelo://app?vid=52de12b4-a047-4b9e-95e0-d24af5c13d93"},"vehicle_type_id":"4","last_reported":1742306992,"current_range_meters":8400,"station_id":"ce4bhoh2rcd13ifvqh5g","pricing_plan_id":"cebpf4jnsgd1na2vs0mg"},{"bike_id":"5f45fabe-4370-4661-8c5d-1ccb3acdd2c3","system_id":"levelo_inurba_marseille","lat":43.32388,"lon":5.38884,"is_reserved":false,"is_disabled":false,"rental_uris":{"android":"levelo://app?vid=5f45fabe-4370-4661-8c5d-1ccb3acdd2c3","ios":"levelo://app?vid=5f45fabe-4370-4661-8c5d-1ccb3acdd2c3"},"vehicle_type_id":"4","last_reported":1742306992,"current_range_meters":8400,"station_id":"ce4bhqp2rcd13ifvqhog","pricing_plan_id":"cebpf4jnsgd1na2vs0mg"},{"bike_id":"317c7955-a83a-49f1-ba7c-ef504832753c","system_id":"levelo_inurba_marseille","lat":43.29006,"lon":5.35603,"is_reserved":false,"is_disabled":false,"rental_uris":{"android":"levelo://app?vid=317c7955-a83a-49f1-ba7c-ef504832753c","ios":"levelo://app?vid=317c7955-a83a-49f1-ba7c-ef504832753c"},"vehicle_type_id":"4","last_reported":1742306992,"current_range_meters":3200,"station_id":"ce4bhb92rcd13ifvqen0","pricing_plan_id":"cebpf4jnsgd1na2vs0mg"},{"bike_id":"dadc97dc-9ed1-4c31-8142-ec721a050f0d","system_id":"levelo_inurba_marseille","lat":43.3093,"lon":5.4016,"is_reserved":false,"is_disabled":false,"rental_uris":{"android":"levelo://app?vid=dadc97dc-9ed1-4c31-8142-ec721a050f0d","ios":"levelo://app?vid=dadc97dc-9ed1-4c31-8142-ec721a050f0d"},"vehicle_type_id":"4","last_reported":1742306992,"current_range_meters":8800,"station_id":"ce4bgvp2rcd13ifvqct0","pricing_plan_id":"cebpf4jnsgd1na2vs0mg"},{"bike_id":"eb11b094-bf47-43ab-bffd-d6c6fa0bddc2","system_id":"levelo_inurba_marseille","lat":43.25004,"lon":5.38926,"is_reserved":false,"is_disabled":false,"rental_uris":{"android":"levelo://app?vid=eb11b094-bf47-43ab-bffd-d6c6fa0bddc2","ios":"levelo://app?vid=eb11b094-bf47-43ab-bffd-d6c6fa0bddc2"},"vehicle_type_id":"4","last_reported":1742306992,"current_range_meters":8800,"station_id":"ce4bhgp2rcd13ifvqfd0","pricing_plan_id":"cebpf4jnsgd1na2vs0mg"},{"bike_id":"fb0ffda9-5a26-4999-bb9e-ea956bf8766e","system_id":"levelo_inurba_marseille","lat":43.29852,"lon":5.36284,"is_reserved":false,"is_disabled":false,"rental_uris":{"android":"levelo://app?vid=fb0ffda9-5a26-4999-bb9e-ea956bf8766e","ios":"levelo://app?vid=fb0ffda9-5a26-4999-bb9e-ea956bf8766e"},"vehicle_type_id":"4","last_reported":1742306992,"current_range_meters":8800,"station_id":"ce4bgpp2rcd13ifvqc3g","pricing_plan_id":"cebpf4jnsgd1na2vs0mg"},{"bike_id":"b73d4104-b747-4b3f-9858-c508f4b18edd","system_id":"levelo_inurba_marseille","lat":43.32479,"lon":5.36595,"is_reserved":false,"is_disabled":false,"rental_uris":{"android":"levelo://app?vid=b73d4104-b747-4b3f-9858-c508f4b18edd","ios":"levelo://app?vid=b73d4104-b747-4b3f-9858-c508f4b18edd"},"vehicle_type_id":"4","last_reported":1742306992,"current_range_meters":8800,"station_id":"ce4bhs12rcd13ifvqhvg","pricing_plan_id":"cebpf4jnsgd1na2vs0mg"},{"bike_id":"1ebf2e8f-468e-4ae8-a2d3-09b3b1d8cbbd","system_id":"levelo_inurba_marseille","lat":43.32482,"lon":5.36569,"is_reserved":false,"is_disabled":false,"rental_uris":{"android":"levelo://app?vid=1ebf2e8f-468e-4ae8-a2d3-09b3b1d8cbbd","ios":"levelo://app?vid=1ebf2e8f-468e-4ae8-a2d3-09b3b1d8cbbd"},"vehicle_type_id":"4","last_reported":1742306992,"current_range_meters":8800,"station_id":"ce4bhs12rcd13ifvqhvg","pricing_plan_id":"cebpf4jnsgd1na2vs0mg"},{"bike_id":"644c4d03-ef9e-4a83-8b4d-64f8bdeb2a8c","system_id":"levelo_inurba_marseille","lat":43.23156,"lon":5.43725,"is_reserved":false,"is_disabled":false,"rental_uris":{"android":"levelo://app?vid=644c4d03-ef9e-4a83-8b4d-64f8bdeb2a8c","ios":"levelo://app?vid=644c4d03-ef9e-4a83-8b4d-64f8bdeb2a8c"},"vehicle_type_id":"4","last_reported":1742306992,"current_range_meters":8800,"station_id":"ce4bhmp2rcd13ifvqgog","pricing_plan_id":"cebpf4jnsgd1na2vs0mg"},{"bike_id":"64ec1f7b-80b6-4b55-802d-ff36e8c801b9","system_id":"levelo_inurba_marseille","lat":43.28862,"lon":5.3588,"is_reserved":false,"is_disabled":false,"rental_uris":{"android":"levelo://app?vid=64ec1f7b-80b6-4b55-802d-ff36e8c801b9","ios":"levelo://app?vid=64ec1f7b-80b6-4b55-802d-ff36e8c801b9"},"vehicle_type_id":"4","last_reported":1742306992,"current_range_meters":9200,"station_id":"ce4bhb12rcd13ifvqem0","pricing_plan_id":"cebpf4jnsgd1na2vs0mg"},{"bike_id":"661a2d81-b09c-4d0c-838c-66e9c2b686b5","system_id":"levelo_inurba_marseille","lat":43.26494,"lon":5.3955,"is_reserved":false,"is_disabled":false,"rental_uris":{"android":"levelo://app?vid=661a2d81-b09c-4d0c-838c-66e9c2b686b5","ios":"levelo://app?vid=661a2d81-b09c-4d0c-838c-66e9c2b686b5"},"vehicle_type_id":"4","last_reported":1742306992,"current_range_meters":9200,"station_id":"ce4bhi12rcd13ifvqfq0","pricing_plan_id":"cebpf4jnsgd1na2vs0mg"},{"bike_id":"88a59591-0c64-4e7c-826d-6b9574c6f954","system_id":"levelo_inurba_marseille","lat":43.24383,"lon":5.37067,"is_reserved":false,"is_disabled":false,"rental_uris":{"android":"levelo://app?vid=88a59591-0c64-4e7c-826d-6b9574c6f954","ios":"levelo://app?vid=88a59591-0c64-4e7c-826d-6b9574c6f954"},"vehicle_type_id":"4","last_reported":1742306992,"current_range_meters":9200,"station_id":"ce4bhhh2rcd13ifvqfk0","pricing_plan_id":"cebpf4jnsgd1na2vs0mg"},{"bike_id":"09be20b3-ccfa-43d5-8616-036d82fe33a0","system_id":"levelo_inurba_marseille","lat":43.24986,"lon":5.38926,"is_reserved":false,"is_disabled":false,"rental_uris":{"android":"levelo://app?vid=09be20b3-ccfa-43d5-8616-036d82fe33a0","ios":"levelo://app?vid=09be20b3-ccfa-43d5-8616-036d82fe33a0"},"vehicle_type_id":"4","last_reported":1742306992,"current_range_meters":9200,"station_id":"ce4bhgp2rcd13ifvqfd0","pricing_plan_id":"cebpf4jnsgd1na2vs0mg"},{"bike_id":"bd9b416b-17de-405d-b3e2-6e2bd0d8c654","system_id":"levelo_inurba_marseille","lat":43.29042,"lon":5.3757,"is_reserved":false,"is_disabled":false,"rental_uris":{"android":"levelo://app?vid=bd9b416b-17de-405d-b3e2-6e2bd0d8c654","ios":"levelo://app?vid=bd9b416b-17de-405d-b3e2-6e2bd0d8c654"},"vehicle_type_id":"4","last_reported":1742306992,"current_range_meters":9200,"station_id":"ce4bh692rcd13ifvqe90","pricing_plan_id":"cebpf4jnsgd1na2vs0mg"},{"bike_id":"278d1bda-e0ab-4cb2-8482-0398539226d8","system_id":"levelo_inurba_marseille","lat":43.29173,"lon":5.37163,"is_reserved":false,"is_disabled":false,"rental_uris":{"android":"levelo://app?vid=278d1bda-e0ab-4cb2-8482-0398539226d8","ios":"levelo://app?vid=278d1bda-e0ab-4cb2-8482-0398539226d8"},"vehicle_type_id":"4","last_reported":1742306992,"current_range_meters":9200,"station_id":"ce4bha92rcd13ifvqeh0","pricing_plan_id":"cebpf4jnsgd1na2vs0mg"},{"bike_id":"580a5bb0-70fc-4109-9102-1af7428b7a2e","system_id":"levelo_inurba_marseille","lat":43.28465,"lon":5.35898,"is_reserved":false,"is_disabled":false,"rental_uris":{"android":"levelo://app?vid=580a5bb0-70fc-4109-9102-1af7428b7a2e","ios":"levelo://app?vid=580a5bb0-70fc-4109-9102-1af7428b7a2e"},"vehicle_type_id":"4","last_reported":1742306992,"current_range_meters":9200,"station_id":"ce4bhah2rcd13ifvqei0","pricing_plan_id":"cebpf4jnsgd1na2vs0mg"},{"bike_id":"f15037cb-8e7a-400d-b4bc-bd332e9bb5c5","system_id":"levelo_inurba_marseille","lat":43.31775,"lon":5.3902,"is_reserved":false,"is_disabled":false,"rental_uris":{"android":"levelo://app?vid=f15037cb-8e7a-400d-b4bc-bd332e9bb5c5","ios":"levelo://app?vid=f15037cb-8e7a-400d-b4bc-bd332e9bb5c5"},"vehicle_type_id":"4","last_reported":1742306992,"current_range_meters":9200,"station_id":"ce4bhqp2rcd13ifvqhng","pricing_plan_id":"cebpf4jnsgd1na2vs0mg"},{"bike_id":"741d391f-90d7-4181-bd12-a5dd4665e554","system_id":"levelo_inurba_marseille","lat":43.25928,"lon":5.40898,"is_reserved":false,"is_disabled":false,"rental_uris":{"android":"levelo://app?vid=741d391f-90d7-4181-bd12-a5dd4665e554","ios":"levelo://app?vid=741d391f-90d7-4181-bd12-a5dd4665e554"},"vehicle_type_id":"4","last_reported":1742306992,"current_range_meters":9200,"station_id":"ce4bhm92rcd13ifvqglg","pricing_plan_id":"cebpf4jnsgd1na2vs0mg"},{"bike_id":"13ee90d6-43f1-4f5d-94d8-e0b0679e9a53","system_id":"levelo_inurba_marseille","lat":43.32122,"lon":5.36785,"is_reserved":false,"is_disabled":false,"rental_uris":{"android":"levelo://app?vid=13ee90d6-43f1-4f5d-94d8-e0b0679e9a53","ios":"levelo://app?vid=13ee90d6-43f1-4f5d-94d8-e0b0679e9a53"},"vehicle_type_id":"4","last_reported":1742306992,"current_range_meters":9200,"station_id":"ce4bhrh2rcd13ifvqhug","pricing_plan_id":"cebpf4jnsgd1na2vs0mg"},{"bike_id":"60b51ac5-12f7-407a-b44a-0edddd5fe7ad","system_id":"levelo_inurba_marseille","lat":43.27065,"lon":5.42285,"is_reserved":false,"is_disabled":false,"rental_uris":{"android":"levelo://app?vid=60b51ac5-12f7-407a-b44a-0edddd5fe7ad","ios":"levelo://app?vid=60b51ac5-12f7-407a-b44a-0edddd5fe7ad"},"vehicle_type_id":"4","last_reported":1742306992,"current_range_meters":9200,"station_id":"ce4bhk92rcd13ifvqgb0","pricing_plan_id":"cebpf4jnsgd1na2vs0mg"},{"bike_id":"0b60e72b-d8b1-4266-9b63-b94b87c1ad4b","system_id":"levelo_inurba_marseille","lat":43.232,"lon":5.39986,"is_reserved":false,"is_disabled":false,"rental_uris":{"android":"levelo://app?vid=0b60e72b-d8b1-4266-9b63-b94b87c1ad4b","ios":"levelo://app?vid=0b60e72b-d8b1-4266-9b63-b94b87c1ad4b"},"vehicle_type_id":"4","last_reported":1742306992,"current_range_meters":9600,"station_id":"ce4bhn12rcd13ifvqgqg","pricing_plan_id":"cebpf4jnsgd1na2vs0mg"},{"bike_id":"7fe9f16c-c075-4ff2-ae35-21088eff4b11","system_id":"levelo_inurba_marseille","lat":43.29897,"lon":5.43672,"is_reserved":false,"is_disabled":false,"rental_uris":{"android":"levelo://app?vid=7fe9f16c-c075-4ff2-ae35-21088eff4b11","ios":"levelo://app?vid=7fe9f16c-c075-4ff2-ae35-21088eff4b11"},"vehicle_type_id":"4","last_reported":1742306992,"current_range_meters":9600,"station_id":"ce4bhpp2rcd13ifvqhfg","pricing_plan_id":"cebpf4jnsgd1na2vs0mg"},{"bike_id":"9a6ef679-dbe9-4fb7-9f1c-7d1d1d539349","system_id":"levelo_inurba_marseille","lat":43.30876,"lon":5.3723,"is_reserved":false,"is_disabled":false,"rental_uris":{"android":"levelo://app?vid=9a6ef679-dbe9-4fb7-9f1c-7d1d1d539349","ios":"levelo://app?vid=9a6ef679-dbe9-4fb7-9f1c-7d1d1d539349"},"vehicle_type_id":"4","last_reported":1742306992,"current_range_meters":9600,"station_id":"ce4bguh2rcd13ifvqckg","pricing_plan_id":"cebpf4jnsgd1na2vs0mg"},{"bike_id":"d0ecd06f-b344-485c-8550-9fa5bf448f53","system_id":"levelo_inurba_marseille","lat":43.2583,"lon":5.39429,"is_reserved":false,"is_disabled":false,"rental_uris":{"android":"levelo://app?vid=d0ecd06f-b344-485c-8550-9fa5bf448f53","ios":"levelo://app?vid=d0ecd06f-b344-485c-8550-9fa5bf448f53"},"vehicle_type_id":"4","last_reported":1742306992,"current_range_meters":9600,"station_id":"ce4bhip2rcd13ifvqft0","pricing_plan_id":"cebpf4jnsgd1na2vs0mg"},{"bike_id":"5b9cb4fb-da91-4a94-9225-43feed2c2457","system_id":"levelo_inurba_marseille","lat":43.25698,"lon":5.41117,"is_reserved":false,"is_disabled":false,"rental_uris":{"android":"levelo://app?vid=5b9cb4fb-da91-4a94-9225-43feed2c2457","ios":"levelo://app?vid=5b9cb4fb-da91-4a94-9225-43feed2c2457"},"vehicle_type_id":"4","last_reported":1742306992,"current_range_meters":9600,"station_id":"ce4bhkp2rcd13ifvqgd0","pricing_plan_id":"cebpf4jnsgd1na2vs0mg"},{"bike_id":"5b4883a5-cc0d-4a8f-a3b0-f0bd3027717b","system_id":"levelo_inurba_marseille","lat":43.30137,"lon":5.37422,"is_reserved":false,"is_disabled":false,"rental_uris":{"android":"levelo://app?vid=5b4883a5-cc0d-4a8f-a3b0-f0bd3027717b","ios":"levelo://app?vid=5b4883a5-cc0d-4a8f-a3b0-f0bd3027717b"},"vehicle_type_id":"4","last_reported":1742306992,"current_range_meters":9600,"station_id":"ce4bgs92rcd13ifvqcc0","pricing_plan_id":"cebpf4jnsgd1na2vs0mg"},{"bike_id":"f342b0d4-cb0d-4ce7-b9c8-03bda0464781","system_id":"levelo_inurba_marseille","lat":43.273165,"lon":5.390895,"is_reserved":false,"is_disabled":false,"rental_uris":{"android":"levelo://app?vid=f342b0d4-cb0d-4ce7-b9c8-03bda0464781","ios":"levelo://app?vid=f342b0d4-cb0d-4ce7-b9c8-03bda0464781"},"vehicle_type_id":"4","last_reported":1742306992,"current_range_meters":9600,"station_id":"ce4bhgp2rcd13ifvqfe0","pricing_plan_id":"cebpf4jnsgd1na2vs0mg"},{"bike_id":"3c546118-a6ba-4812-8845-06fc414c6fcd","system_id":"levelo_inurba_marseille","lat":43.29263,"lon":5.40904,"is_reserved":false,"is_disabled":false,"rental_uris":{"android":"levelo://app?vid=3c546118-a6ba-4812-8845-06fc414c6fcd","ios":"levelo://app?vid=3c546118-a6ba-4812-8845-06fc414c6fcd"},"vehicle_type_id":"4","last_reported":1742306992,"current_range_meters":9200,"station_id":"ce4bh192rcd13ifvqdc0","pricing_plan_id":"cebpf4jnsgd1na2vs0mg"},{"bike_id":"9331b619-4b30-4212-b267-c04dc023b135","system_id":"levelo_inurba_marseille","lat":43.33012,"lon":5.39033,"is_reserved":false,"is_disabled":false,"rental_uris":{"android":"levelo://app?vid=9331b619-4b30-4212-b267-c04dc023b135","ios":"levelo://app?vid=9331b619-4b30-4212-b267-c04dc023b135"},"vehicle_type_id":"4","last_reported":1742306992,"current_range_meters":9600,"station_id":"ce4bhr92rcd13ifvqhrg","pricing_plan_id":"cebpf4jnsgd1na2vs0mg"},{"bike_id":"a9786130-b201-45fc-89f6-6a48d52266f8","system_id":"levelo_inurba_marseille","lat":43.27972,"lon":5.38729,"is_reserved":false,"is_disabled":false,"rental_uris":{"android":"levelo://app?vid=a9786130-b201-45fc-89f6-6a48d52266f8","ios":"levelo://app?vid=a9786130-b201-45fc-89f6-6a48d52266f8"},"vehicle_type_id":"4","last_reported":1742306992,"current_range_meters":9600,"station_id":"ce4bhg12rcd13ifvqf80","pricing_plan_id":"cebpf4jnsgd1na2vs0mg"},{"bike_id":"2fc9495d-c829-4229-a4db-5c8674880d7a","system_id":"levelo_inurba_marseille","lat":43.23057,"lon":5.35489,"is_reserved":false,"is_disabled":false,"rental_uris":{"android":"levelo://app?vid=2fc9495d-c829-4229-a4db-5c8674880d7a","ios":"levelo://app?vid=2fc9495d-c829-4229-a4db-5c8674880d7a"},"vehicle_type_id":"4","last_reported":1742306992,"current_range_meters":9600,"station_id":"cpo3342slgdg3j2ifvpg","pricing_plan_id":"cebpf4jnsgd1na2vs0mg"},{"bike_id":"c8ec36a5-437f-4c43-85c2-16be4786799c","system_id":"levelo_inurba_marseille","lat":43.2455,"lon":5.39524,"is_reserved":false,"is_disabled":false,"rental_uris":{"android":"levelo://app?vid=c8ec36a5-437f-4c43-85c2-16be4786799c","ios":"levelo://app?vid=c8ec36a5-437f-4c43-85c2-16be4786799c"},"vehicle_type_id":"4","last_reported":1742306992,"current_range_meters":9200,"station_id":"ce4bhlp2rcd13ifvqgjg","pricing_plan_id":"cebpf4jnsgd1na2vs0mg"},{"bike_id":"4e950670-b096-4049-8c8c-3012830ea5a4","system_id":"levelo_inurba_marseille","lat":43.24395,"lon":5.37067,"is_reserved":false,"is_disabled":false,"rental_uris":{"android":"levelo://app?vid=4e950670-b096-4049-8c8c-3012830ea5a4","ios":"levelo://app?vid=4e950670-b096-4049-8c8c-3012830ea5a4"},"vehicle_type_id":"4","last_reported":1742306992,"current_range_meters":9600,"station_id":"ce4bhhh2rcd13ifvqfk0","pricing_plan_id":"cebpf4jnsgd1na2vs0mg"},{"bike_id":"244972ac-6b8e-496c-8ff7-a07dcecb25e0","system_id":"levelo_inurba_marseille","lat":43.28079,"lon":5.39671,"is_reserved":false,"is_disabled":false,"rental_uris":{"android":"levelo://app?vid=244972ac-6b8e-496c-8ff7-a07dcecb25e0","ios":"levelo://app?vid=244972ac-6b8e-496c-8ff7-a07dcecb25e0"},"vehicle_type_id":"4","last_reported":1742306992,"current_range_meters":9600,"station_id":"ce4bho12rcd13ifvqh2g","pricing_plan_id":"cebpf4jnsgd1na2vs0mg"},{"bike_id":"6ae6f76c-6a01-4d75-9d3f-dfa610803a78","system_id":"levelo_inurba_marseille","lat":43.23073,"lon":5.35494,"is_reserved":false,"is_disabled":false,"rental_uris":{"android":"levelo://app?vid=6ae6f76c-6a01-4d75-9d3f-dfa610803a78","ios":"levelo://app?vid=6ae6f76c-6a01-4d75-9d3f-dfa610803a78"},"vehicle_type_id":"4","last_reported":1742306992,"current_range_meters":10000,"station_id":"cpo3342slgdg3j2ifvpg","pricing_plan_id":"cebpf4jnsgd1na2vs0mg"},{"bike_id":"519efbbc-7577-4063-8eac-658ef30e98a3","system_id":"levelo_inurba_marseille","lat":43.25002,"lon":5.38928,"is_reserved":false,"is_disabled":false,"rental_uris":{"android":"levelo://app?vid=519efbbc-7577-4063-8eac-658ef30e98a3","ios":"levelo://app?vid=519efbbc-7577-4063-8eac-658ef30e98a3"},"vehicle_type_id":"4","last_reported":1742306992,"current_range_meters":10000,"station_id":"ce4bhgp2rcd13ifvqfd0","pricing_plan_id":"cebpf4jnsgd1na2vs0mg"},{"bike_id":"b611c071-f0bb-41a2-aa25-420b921bc079","system_id":"levelo_inurba_marseille","lat":43.2307,"lon":5.35489,"is_reserved":false,"is_disabled":false,"rental_uris":{"android":"levelo://app?vid=b611c071-f0bb-41a2-aa25-420b921bc079","ios":"levelo://app?vid=b611c071-f0bb-41a2-aa25-420b921bc079"},"vehicle_type_id":"4","last_reported":1742306992,"current_range_meters":10000,"station_id":"cpo3342slgdg3j2ifvpg","pricing_plan_id":"cebpf4jnsgd1na2vs0mg"},{"bike_id":"794247f9-0198-41ae-9af5-991ded60b492","system_id":"levelo_inurba_marseille","lat":43.24672,"lon":5.38143,"is_reserved":false,"is_disabled":false,"rental_uris":{"android":"levelo://app?vid=794247f9-0198-41ae-9af5-991ded60b492","ios":"levelo://app?vid=794247f9-0198-41ae-9af5-991ded60b492"},"vehicle_type_id":"4","last_reported":1742306992,"current_range_meters":10000,"station_id":"ce4bhih2rcd13ifvqfr0","pricing_plan_id":"cebpf4jnsgd1na2vs0mg"},{"bike_id":"89a9a07a-5569-426e-baa6-da72a98a25be","system_id":"levelo_inurba_marseille","lat":43.32373,"lon":5.38891,"is_reserved":false,"is_disabled":false,"rental_uris":{"android":"levelo://app?vid=89a9a07a-5569-426e-baa6-da72a98a25be","ios":"levelo://app?vid=89a9a07a-5569-426e-baa6-da72a98a25be"},"vehicle_type_id":"4","last_reported":1742306992,"current_range_meters":10000,"station_id":"ce4bhqp2rcd13ifvqhog","pricing_plan_id":"cebpf4jnsgd1na2vs0mg"},{"bike_id":"b885f75f-3c96-46ec-8caf-25e821eabbb9","system_id":"levelo_inurba_marseille","lat":43.23149,"lon":5.43695,"is_reserved":false,"is_disabled":false,"rental_uris":{"android":"levelo://app?vid=b885f75f-3c96-46ec-8caf-25e821eabbb9","ios":"levelo://app?vid=b885f75f-3c96-46ec-8caf-25e821eabbb9"},"vehicle_type_id":"4","last_reported":1742306992,"current_range_meters":10000,"station_id":"ce4bhmp2rcd13ifvqgog","pricing_plan_id":"cebpf4jnsgd1na2vs0mg"},{"bike_id":"9f69a720-4702-4ad6-9c86-1a70782f9985","system_id":"levelo_inurba_marseille","lat":43.29977,"lon":5.38542,"is_reserved":false,"is_disabled":false,"rental_uris":{"android":"levelo://app?vid=9f69a720-4702-4ad6-9c86-1a70782f9985","ios":"levelo://app?vid=9f69a720-4702-4ad6-9c86-1a70782f9985"},"vehicle_type_id":"4","last_reported":1742306992,"current_range_meters":10800,"station_id":"ce4bgj92rcd13ifvqbd0","pricing_plan_id":"cebpf4jnsgd1na2vs0mg"},{"bike_id":"181e3e56-f011-4aab-956d-9d49d55e063c","system_id":"levelo_inurba_marseille","lat":43.32357,"lon":5.36758,"is_reserved":false,"is_disabled":false,"rental_uris":{"android":"levelo://app?vid=181e3e56-f011-4aab-956d-9d49d55e063c","ios":"levelo://app?vid=181e3e56-f011-4aab-956d-9d49d55e063c"},"vehicle_type_id":"4","last_reported":1742306992,"current_range_meters":10800,"station_id":"ce4bhsh2rcd13ifvqi2g","pricing_plan_id":"cebpf4jnsgd1na2vs0mg"},{"bike_id":"f158cb0f-0380-45cd-a82f-e7d941bda018","system_id":"levelo_inurba_marseille","lat":43.31714,"lon":5.43701,"is_reserved":false,"is_disabled":false,"rental_uris":{"android":"levelo://app?vid=f158cb0f-0380-45cd-a82f-e7d941bda018","ios":"levelo://app?vid=f158cb0f-0380-45cd-a82f-e7d941bda018"},"vehicle_type_id":"4","last_reported":1742306992,"current_range_meters":10800,"station_id":"ce4bhp92rcd13ifvqhcg","pricing_plan_id":"cebpf4jnsgd1na2vs0mg"},{"bike_id":"d88717fb-c201-404b-aef8-f29f5a01efb1","system_id":"levelo_inurba_marseille","lat":43.28155,"lon":5.42648,"is_reserved":false,"is_disabled":false,"rental_uris":{"android":"levelo://app?vid=d88717fb-c201-404b-aef8-f29f5a01efb1","ios":"levelo://app?vid=d88717fb-c201-404b-aef8-f29f5a01efb1"},"vehicle_type_id":"4","last_reported":1742306992,"current_range_meters":10800,"station_id":"ce4bhnh2rcd13ifvqgug","pricing_plan_id":"cebpf4jnsgd1na2vs0mg"},{"bike_id":"7f2d3a10-fb38-49e6-9c91-ea2286af82e2","system_id":"levelo_inurba_marseille","lat":43.25932,"lon":5.40911,"is_reserved":false,"is_disabled":false,"rental_uris":{"android":"levelo://app?vid=7f2d3a10-fb38-49e6-9c91-ea2286af82e2","ios":"levelo://app?vid=7f2d3a10-fb38-49e6-9c91-ea2286af82e2"},"vehicle_type_id":"4","last_reported":1742306992,"current_range_meters":10800,"station_id":"ce4bhm92rcd13ifvqglg","pricing_plan_id":"cebpf4jnsgd1na2vs0mg"},{"bike_id":"fe78a566-04ec-4269-a62f-23329583c7d4","system_id":"levelo_inurba_marseille","lat":43.32488,"lon":5.36577,"is_reserved":false,"is_disabled":false,"rental_uris":{"android":"levelo://app?vid=fe78a566-04ec-4269-a62f-23329583c7d4","ios":"levelo://app?vid=fe78a566-04ec-4269-a62f-23329583c7d4"},"vehicle_type_id":"4","last_reported":1742306992,"current_range_meters":10800,"station_id":"ce4bhs12rcd13ifvqhvg","pricing_plan_id":"cebpf4jnsgd1na2vs0mg"},{"bike_id":"85e5375e-de83-408d-9f4f-6aca724e20a6","system_id":"levelo_inurba_marseille","lat":43.28953,"lon":5.36648,"is_reserved":false,"is_disabled":false,"rental_uris":{"android":"levelo://app?vid=85e5375e-de83-408d-9f4f-6aca724e20a6","ios":"levelo://app?vid=85e5375e-de83-408d-9f4f-6aca724e20a6"},"vehicle_type_id":"4","last_reported":1742306992,"current_range_meters":11200,"station_id":"ce4bhap2rcd13ifvqek0","pricing_plan_id":"cebpf4jnsgd1na2vs0mg"},{"bike_id":"ad21d957-c0ea-4c86-82f5-b3682e2201c9","system_id":"levelo_inurba_marseille","lat":43.24185,"lon":5.39739,"is_reserved":false,"is_disabled":false,"rental_uris":{"android":"levelo://app?vid=ad21d957-c0ea-4c86-82f5-b3682e2201c9","ios":"levelo://app?vid=ad21d957-c0ea-4c86-82f5-b3682e2201c9"},"vehicle_type_id":"4","last_reported":1742306992,"current_range_meters":11200,"station_id":"ce4bhn12rcd13ifvqgpg","pricing_plan_id":"cebpf4jnsgd1na2vs0mg"},{"bike_id":"c4fa1600-28c7-4ded-8f21-822e986887d7","system_id":"levelo_inurba_marseille","lat":43.33605,"lon":5.40993,"is_reserved":false,"is_disabled":false,"rental_uris":{"android":"levelo://app?vid=c4fa1600-28c7-4ded-8f21-822e986887d7","ios":"levelo://app?vid=c4fa1600-28c7-4ded-8f21-822e986887d7"},"vehicle_type_id":"4","last_reported":1742306992,"current_range_meters":11600,"station_id":"ce4bhqh2rcd13ifvqhmg","pricing_plan_id":"cebpf4jnsgd1na2vs0mg"},{"bike_id":"d00028dc-9b0d-47df-ad9d-778d21fb21b2","system_id":"levelo_inurba_marseille","lat":43.23192,"lon":5.35562,"is_reserved":false,"is_disabled":false,"rental_uris":{"android":"levelo://app?vid=d00028dc-9b0d-47df-ad9d-778d21fb21b2","ios":"levelo://app?vid=d00028dc-9b0d-47df-ad9d-778d21fb21b2"},"vehicle_type_id":"4","last_reported":1742306992,"current_range_meters":11600,"station_id":"ce4bhu92rcd13ifvqi70","pricing_plan_id":"cebpf4jnsgd1na2vs0mg"},{"bike_id":"2a7732f0-15b2-49e8-ac26-649e8dacd454","system_id":"levelo_inurba_marseille","lat":43.3056,"lon":5.3656,"is_reserved":false,"is_disabled":false,"rental_uris":{"android":"levelo://app?vid=2a7732f0-15b2-49e8-ac26-649e8dacd454","ios":"levelo://app?vid=2a7732f0-15b2-49e8-ac26-649e8dacd454"},"vehicle_type_id":"4","last_reported":1742306992,"current_range_meters":11600,"station_id":"ce4bgs12rcd13ifvqcag","pricing_plan_id":"cebpf4jnsgd1na2vs0mg"},{"bike_id":"ca1c0a28-8faf-435f-9d8b-370c3a07ff34","system_id":"levelo_inurba_marseille","lat":43.2417,"lon":5.36401,"is_reserved":false,"is_disabled":false,"rental_uris":{"android":"levelo://app?vid=ca1c0a28-8faf-435f-9d8b-370c3a07ff34","ios":"levelo://app?vid=ca1c0a28-8faf-435f-9d8b-370c3a07ff34"},"vehicle_type_id":"4","last_reported":1742306992,"current_range_meters":11600,"station_id":"cpo36qri1sfpv3e86is0","pricing_plan_id":"cebpf4jnsgd1na2vs0mg"},{"bike_id":"539fc8c4-24e6-4af1-852f-0f9aae2257a1","system_id":"levelo_inurba_marseille","lat":43.23189,"lon":5.35566,"is_reserved":false,"is_disabled":false,"rental_uris":{"android":"levelo://app?vid=539fc8c4-24e6-4af1-852f-0f9aae2257a1","ios":"levelo://app?vid=539fc8c4-24e6-4af1-852f-0f9aae2257a1"},"vehicle_type_id":"4","last_reported":1742306992,"current_range_meters":11600,"station_id":"ce4bhu92rcd13ifvqi70","pricing_plan_id":"cebpf4jnsgd1na2vs0mg"},{"bike_id":"5457bffc-09e4-4fb6-9ccb-4637f6549971","system_id":"levelo_inurba_marseille","lat":43.30144,"lon":5.37435,"is_reserved":false,"is_disabled":false,"rental_uris":{"android":"levelo://app?vid=5457bffc-09e4-4fb6-9ccb-4637f6549971","ios":"levelo://app?vid=5457bffc-09e4-4fb6-9ccb-4637f6549971"},"vehicle_type_id":"4","last_reported":1742306992,"current_range_meters":11600,"station_id":"ce4bgs92rcd13ifvqcc0","pricing_plan_id":"cebpf4jnsgd1na2vs0mg"},{"bike_id":"8581e34a-e545-4ecd-94c3-9ab5366e4794","system_id":"levelo_inurba_marseille","lat":43.27498,"lon":5.42454,"is_reserved":false,"is_disabled":false,"rental_uris":{"android":"levelo://app?vid=8581e34a-e545-4ecd-94c3-9ab5366e4794","ios":"levelo://app?vid=8581e34a-e545-4ecd-94c3-9ab5366e4794"},"vehicle_type_id":"4","last_reported":1742306992,"current_range_meters":11600,"station_id":"ce4bhn92rcd13ifvqgrg","pricing_plan_id":"cebpf4jnsgd1na2vs0mg"},{"bike_id":"4d9ae2f3-a796-49dc-a321-2b64b628a9e2","system_id":"levelo_inurba_marseille","lat":43.24085,"lon":5.3775,"is_reserved":false,"is_disabled":false,"rental_uris":{"android":"levelo://app?vid=4d9ae2f3-a796-49dc-a321-2b64b628a9e2","ios":"levelo://app?vid=4d9ae2f3-a796-49dc-a321-2b64b628a9e2"},"vehicle_type_id":"4","last_reported":1742306992,"current_range_meters":11600,"station_id":"ce4bhnp2rcd13ifvqgvg","pricing_plan_id":"cebpf4jnsgd1na2vs0mg"},{"bike_id":"e5cb52c8-d833-41bc-b3a6-06d8699ae9ae","system_id":"levelo_inurba_marseille","lat":43.23158,"lon":5.43704,"is_reserved":false,"is_disabled":false,"rental_uris":{"android":"levelo://app?vid=e5cb52c8-d833-41bc-b3a6-06d8699ae9ae","ios":"levelo://app?vid=e5cb52c8-d833-41bc-b3a6-06d8699ae9ae"},"vehicle_type_id":"4","last_reported":1742306992,"current_range_meters":11600,"station_id":"ce4bhmp2rcd13ifvqgog","pricing_plan_id":"cebpf4jnsgd1na2vs0mg"},{"bike_id":"8237cd2c-40d5-4f92-bf44-83fcaa49a848","system_id":"levelo_inurba_marseille","lat":43.24082,"lon":5.37755,"is_reserved":false,"is_disabled":false,"rental_uris":{"android":"levelo://app?vid=8237cd2c-40d5-4f92-bf44-83fcaa49a848","ios":"levelo://app?vid=8237cd2c-40d5-4f92-bf44-83fcaa49a848"},"vehicle_type_id":"4","last_reported":1742306992,"current_range_meters":12000,"station_id":"ce4bhnp2rcd13ifvqgvg","pricing_plan_id":"cebpf4jnsgd1na2vs0mg"},{"bike_id":"2fa5754c-ba4c-4be7-abf6-9b7abdbb3735","system_id":"levelo_inurba_marseille","lat":43.24088,"lon":5.37752,"is_reserved":false,"is_disabled":false,"rental_uris":{"android":"levelo://app?vid=2fa5754c-ba4c-4be7-abf6-9b7abdbb3735","ios":"levelo://app?vid=2fa5754c-ba4c-4be7-abf6-9b7abdbb3735"},"vehicle_type_id":"4","last_reported":1742306992,"current_range_meters":12000,"station_id":"ce4bhnp2rcd13ifvqgvg","pricing_plan_id":"cebpf4jnsgd1na2vs0mg"},{"bike_id":"a1a51917-b6b3-4d1f-a2ec-3217fd18d626","system_id":"levelo_inurba_marseille","lat":43.26124,"lon":5.41476,"is_reserved":false,"is_disabled":false,"rental_uris":{"android":"levelo://app?vid=a1a51917-b6b3-4d1f-a2ec-3217fd18d626","ios":"levelo://app?vid=a1a51917-b6b3-4d1f-a2ec-3217fd18d626"},"vehicle_type_id":"4","last_reported":1742306992,"current_range_meters":12000,"station_id":"","pricing_plan_id":"cebpf4jnsgd1na2vs0mg"},{"bike_id":"a4e61b46-aded-4535-9f18-34c3ad8f6822","system_id":"levelo_inurba_marseille","lat":43.29636,"lon":5.40602,"is_reserved":false,"is_disabled":false,"rental_uris":{"android":"levelo://app?vid=a4e61b46-aded-4535-9f18-34c3ad8f6822","ios":"levelo://app?vid=a4e61b46-aded-4535-9f18-34c3ad8f6822"},"vehicle_type_id":"4","last_reported":1742306992,"current_range_meters":12000,"station_id":"ce4bh0h2rcd13ifvqd60","pricing_plan_id":"cebpf4jnsgd1na2vs0mg"},{"bike_id":"0cb439ba-c73c-4e00-a10d-d81c8bff11ec","system_id":"levelo_inurba_marseille","lat":43.32495,"lon":5.3655,"is_reserved":false,"is_disabled":false,"rental_uris":{"android":"levelo://app?vid=0cb439ba-c73c-4e00-a10d-d81c8bff11ec","ios":"levelo://app?vid=0cb439ba-c73c-4e00-a10d-d81c8bff11ec"},"vehicle_type_id":"4","last_reported":1742306992,"current_range_meters":12000,"station_id":"ce4bhs12rcd13ifvqhvg","pricing_plan_id":"cebpf4jnsgd1na2vs0mg"},{"bike_id":"882d5b04-baa2-4dc9-9e53-64f01cb7663b","system_id":"levelo_inurba_marseille","lat":43.30148,"lon":5.37444,"is_reserved":false,"is_disabled":false,"rental_uris":{"android":"levelo://app?vid=882d5b04-baa2-4dc9-9e53-64f01cb7663b","ios":"levelo://app?vid=882d5b04-baa2-4dc9-9e53-64f01cb7663b"},"vehicle_type_id":"4","last_reported":1742306992,"current_range_meters":12000,"station_id":"ce4bgs92rcd13ifvqcc0","pricing_plan_id":"cebpf4jnsgd1na2vs0mg"},{"bike_id":"ab11fa9b-759f-447f-a4f1-b143e2360775","system_id":"levelo_inurba_marseille","lat":43.31353,"lon":5.39163,"is_reserved":false,"is_disabled":false,"rental_uris":{"android":"levelo://app?vid=ab11fa9b-759f-447f-a4f1-b143e2360775","ios":"levelo://app?vid=ab11fa9b-759f-447f-a4f1-b143e2360775"},"vehicle_type_id":"4","last_reported":1742306992,"current_range_meters":12000,"station_id":"","pricing_plan_id":"cebpf4jnsgd1na2vs0mg"},{"bike_id":"d36c89e8-07d2-4942-be59-0b2e43ed175d","system_id":"levelo_inurba_marseille","lat":43.25924,"lon":5.40896,"is_reserved":false,"is_disabled":false,"rental_uris":{"android":"levelo://app?vid=d36c89e8-07d2-4942-be59-0b2e43ed175d","ios":"levelo://app?vid=d36c89e8-07d2-4942-be59-0b2e43ed175d"},"vehicle_type_id":"4","last_reported":1742306992,"current_range_meters":12000,"station_id":"ce4bhm92rcd13ifvqglg","pricing_plan_id":"cebpf4jnsgd1na2vs0mg"},{"bike_id":"082e1457-2464-4328-9a48-30dcdef2e3b4","system_id":"levelo_inurba_marseille","lat":43.29283,"lon":5.40136,"is_reserved":false,"is_disabled":false,"rental_uris":{"android":"levelo://app?vid=082e1457-2464-4328-9a48-30dcdef2e3b4","ios":"levelo://app?vid=082e1457-2464-4328-9a48-30dcdef2e3b4"},"vehicle_type_id":"4","last_reported":1742306992,"current_range_meters":15200,"station_id":"ce4bh312rcd13ifvqdk0","pricing_plan_id":"cebpf4jnsgd1na2vs0mg"},{"bike_id":"781e4351-b84f-4e5d-b7b2-8ba5b0f9e09b","system_id":"levelo_inurba_marseille","lat":43.29718,"lon":5.37694,"is_reserved":false,"is_disabled":false,"rental_uris":{"android":"levelo://app?vid=781e4351-b84f-4e5d-b7b2-8ba5b0f9e09b","ios":"levelo://app?vid=781e4351-b84f-4e5d-b7b2-8ba5b0f9e09b"},"vehicle_type_id":"4","last_reported":1742306992,"current_range_meters":11600,"station_id":"ce4bgkh2rcd13ifvqbl0","pricing_plan_id":"cebpf4jnsgd1na2vs0mg"},{"bike_id":"737d5dda-9d4c-470d-b606-bcb0cfc5aeab","system_id":"levelo_inurba_marseille","lat":43.28943,"lon":5.36669,"is_reserved":false,"is_disabled":false,"rental_uris":{"android":"levelo://app?vid=737d5dda-9d4c-470d-b606-bcb0cfc5aeab","ios":"levelo://app?vid=737d5dda-9d4c-470d-b606-bcb0cfc5aeab"},"vehicle_type_id":"4","last_reported":1742306992,"current_range_meters":12000,"station_id":"ce4bhap2rcd13ifvqek0","pricing_plan_id":"cebpf4jnsgd1na2vs0mg"},{"bike_id":"8fcebb31-b88a-4f8a-8f75-28a67eaab6c5","system_id":"levelo_inurba_marseille","lat":43.30219,"lon":5.39466,"is_reserved":false,"is_disabled":false,"rental_uris":{"android":"levelo://app?vid=8fcebb31-b88a-4f8a-8f75-28a67eaab6c5","ios":"levelo://app?vid=8fcebb31-b88a-4f8a-8f75-28a67eaab6c5"},"vehicle_type_id":"4","last_reported":1742306992,"current_range_meters":12400,"station_id":"ce4bh0p2rcd13ifvqd70","pricing_plan_id":"cebpf4jnsgd1na2vs0mg"},{"bike_id":"4a038e92-3cbf-4f3f-8faf-a6cb09ab3765","system_id":"levelo_inurba_marseille","lat":43.25728,"lon":5.41112,"is_reserved":false,"is_disabled":false,"rental_uris":{"android":"levelo://app?vid=4a038e92-3cbf-4f3f-8faf-a6cb09ab3765","ios":"levelo://app?vid=4a038e92-3cbf-4f3f-8faf-a6cb09ab3765"},"vehicle_type_id":"4","last_reported":1742306992,"current_range_meters":12400,"station_id":"ce4bhkp2rcd13ifvqgd0","pricing_plan_id":"cebpf4jnsgd1na2vs0mg"},{"bike_id":"7f61d7be-d227-44df-9b33-b8f4965e514f","system_id":"levelo_inurba_marseille","lat":43.292971,"lon":5.37468,"is_reserved":false,"is_disabled":false,"rental_uris":{"android":"levelo://app?vid=7f61d7be-d227-44df-9b33-b8f4965e514f","ios":"levelo://app?vid=7f61d7be-d227-44df-9b33-b8f4965e514f"},"vehicle_type_id":"4","last_reported":1742306992,"current_range_meters":12400,"station_id":"ce4bhu92rcd13ifvqi70","pricing_plan_id":"cebpf4jnsgd1na2vs0mg"},{"bike_id":"b59dcec8-37cb-424d-a257-1df19beff6cb","system_id":"levelo_inurba_marseille","lat":43.30905,"lon":5.3692,"is_reserved":false,"is_disabled":false,"rental_uris":{"android":"levelo://app?vid=b59dcec8-37cb-424d-a257-1df19beff6cb","ios":"levelo://app?vid=b59dcec8-37cb-424d-a257-1df19beff6cb"},"vehicle_type_id":"4","last_reported":1742306992,"current_range_meters":12400,"station_id":"","pricing_plan_id":"cebpf4jnsgd1na2vs0mg"},{"bike_id":"ff73407b-17af-424b-a129-8e633a3de618","system_id":"levelo_inurba_marseille","lat":43.24563,"lon":5.39534,"is_reserved":false,"is_disabled":false,"rental_uris":{"android":"levelo://app?vid=ff73407b-17af-424b-a129-8e633a3de618","ios":"levelo://app?vid=ff73407b-17af-424b-a129-8e633a3de618"},"vehicle_type_id":"4","last_reported":1742306992,"current_range_meters":12400,"station_id":"ce4bhlp2rcd13ifvqgjg","pricing_plan_id":"cebpf4jnsgd1na2vs0mg"},{"bike_id":"ffeb7b93-583a-4026-8a15-1fd7eaf75cb9","system_id":"levelo_inurba_marseille","lat":43.26684,"lon":5.38267,"is_reserved":false,"is_disabled":false,"rental_uris":{"android":"levelo://app?vid=ffeb7b93-583a-4026-8a15-1fd7eaf75cb9","ios":"levelo://app?vid=ffeb7b93-583a-4026-8a15-1fd7eaf75cb9"},"vehicle_type_id":"4","last_reported":1742306992,"current_range_meters":12400,"station_id":"ce4bhg92rcd13ifvqf90","pricing_plan_id":"cebpf4jnsgd1na2vs0mg"},{"bike_id":"32a9ea3c-58cc-427f-b7b6-4bd58278d60c","system_id":"levelo_inurba_marseille","lat":43.2749,"lon":5.42465,"is_reserved":false,"is_disabled":false,"rental_uris":{"android":"levelo://app?vid=32a9ea3c-58cc-427f-b7b6-4bd58278d60c","ios":"levelo://app?vid=32a9ea3c-58cc-427f-b7b6-4bd58278d60c"},"vehicle_type_id":"4","last_reported":1742306992,"current_range_meters":12400,"station_id":"ce4bhn92rcd13ifvqgrg","pricing_plan_id":"cebpf4jnsgd1na2vs0mg"},{"bike_id":"08058f9b-5fd7-489c-a6cd-58711359da60","system_id":"levelo_inurba_marseille","lat":43.32569,"lon":5.41454,"is_reserved":false,"is_disabled":false,"rental_uris":{"android":"levelo://app?vid=08058f9b-5fd7-489c-a6cd-58711359da60","ios":"levelo://app?vid=08058f9b-5fd7-489c-a6cd-58711359da60"},"vehicle_type_id":"4","last_reported":1742306992,"current_range_meters":12400,"station_id":"","pricing_plan_id":"cebpf4jnsgd1na2vs0mg"},{"bike_id":"2fded74f-c9fe-49f9-b276-bb92d3d10470","system_id":"levelo_inurba_marseille","lat":43.23155,"lon":5.4371,"is_reserved":false,"is_disabled":false,"rental_uris":{"android":"levelo://app?vid=2fded74f-c9fe-49f9-b276-bb92d3d10470","ios":"levelo://app?vid=2fded74f-c9fe-49f9-b276-bb92d3d10470"},"vehicle_type_id":"4","last_reported":1742306992,"current_range_meters":10800,"station_id":"ce4bhmp2rcd13ifvqgog","pricing_plan_id":"cebpf4jnsgd1na2vs0mg"},{"bike_id":"89cb3140-d211-4c4d-97ca-7e01c3c4da90","system_id":"levelo_inurba_marseille","lat":43.23193,"lon":5.35559,"is_reserved":false,"is_disabled":false,"rental_uris":{"android":"levelo://app?vid=89cb3140-d211-4c4d-97ca-7e01c3c4da90","ios":"levelo://app?vid=89cb3140-d211-4c4d-97ca-7e01c3c4da90"},"vehicle_type_id":"4","last_reported":1742306992,"current_range_meters":12400,"station_id":"ce4bhu92rcd13ifvqi70","pricing_plan_id":"cebpf4jnsgd1na2vs0mg"},{"bike_id":"62bc6c18-042d-4867-9295-784a2b23b8e3","system_id":"levelo_inurba_marseille","lat":43.32039,"lon":5.41552,"is_reserved":false,"is_disabled":false,"rental_uris":{"android":"levelo://app?vid=62bc6c18-042d-4867-9295-784a2b23b8e3","ios":"levelo://app?vid=62bc6c18-042d-4867-9295-784a2b23b8e3"},"vehicle_type_id":"4","last_reported":1742306992,"current_range_meters":12400,"station_id":"ce4bhq92rcd13ifvqhkg","pricing_plan_id":"cebpf4jnsgd1na2vs0mg"},{"bike_id":"934a38f2-8427-4e81-acd6-bf27b71dbb3e","system_id":"levelo_inurba_marseille","lat":43.29271,"lon":5.40919,"is_reserved":false,"is_disabled":false,"rental_uris":{"android":"levelo://app?vid=934a38f2-8427-4e81-acd6-bf27b71dbb3e","ios":"levelo://app?vid=934a38f2-8427-4e81-acd6-bf27b71dbb3e"},"vehicle_type_id":"4","last_reported":1742306992,"current_range_meters":12800,"station_id":"ce4bh192rcd13ifvqdc0","pricing_plan_id":"cebpf4jnsgd1na2vs0mg"},{"bike_id":"4bd37884-9350-4772-a649-c832e75e091a","system_id":"levelo_inurba_marseille","lat":43.27499,"lon":5.42454,"is_reserved":false,"is_disabled":false,"rental_uris":{"android":"levelo://app?vid=4bd37884-9350-4772-a649-c832e75e091a","ios":"levelo://app?vid=4bd37884-9350-4772-a649-c832e75e091a"},"vehicle_type_id":"4","last_reported":1742306992,"current_range_meters":12800,"station_id":"ce4bhn92rcd13ifvqgrg","pricing_plan_id":"cebpf4jnsgd1na2vs0mg"},{"bike_id":"80352524-42cd-42a0-9692-c3382a370bec","system_id":"levelo_inurba_marseille","lat":43.30912,"lon":5.36867,"is_reserved":false,"is_disabled":false,"rental_uris":{"android":"levelo://app?vid=80352524-42cd-42a0-9692-c3382a370bec","ios":"levelo://app?vid=80352524-42cd-42a0-9692-c3382a370bec"},"vehicle_type_id":"4","last_reported":1742306992,"current_range_meters":12800,"station_id":"ce4bgn92rcd13ifvqbvg","pricing_plan_id":"cebpf4jnsgd1na2vs0mg"},{"bike_id":"e3651e13-0c88-4710-a38d-4721b805369c","system_id":"levelo_inurba_marseille","lat":43.2848,"lon":5.38566,"is_reserved":false,"is_disabled":false,"rental_uris":{"android":"levelo://app?vid=e3651e13-0c88-4710-a38d-4721b805369c","ios":"levelo://app?vid=e3651e13-0c88-4710-a38d-4721b805369c"},"vehicle_type_id":"4","last_reported":1742306992,"current_range_meters":12800,"station_id":"ce4bh8p2rcd13ifvqeb0","pricing_plan_id":"cebpf4jnsgd1na2vs0mg"},{"bike_id":"db8607b2-c834-4dae-95f5-c6688340d7af","system_id":"levelo_inurba_marseille","lat":43.30141,"lon":5.37427,"is_reserved":false,"is_disabled":false,"rental_uris":{"android":"levelo://app?vid=db8607b2-c834-4dae-95f5-c6688340d7af","ios":"levelo://app?vid=db8607b2-c834-4dae-95f5-c6688340d7af"},"vehicle_type_id":"4","last_reported":1742306992,"current_range_meters":12800,"station_id":"ce4bgs92rcd13ifvqcc0","pricing_plan_id":"cebpf4jnsgd1na2vs0mg"},{"bike_id":"6ae282b9-d978-41d7-9848-3239671b5019","system_id":"levelo_inurba_marseille","lat":43.23058,"lon":5.35501,"is_reserved":false,"is_disabled":false,"rental_uris":{"android":"levelo://app?vid=6ae282b9-d978-41d7-9848-3239671b5019","ios":"levelo://app?vid=6ae282b9-d978-41d7-9848-3239671b5019"},"vehicle_type_id":"4","last_reported":1742306992,"current_range_meters":13600,"station_id":"cpo3342slgdg3j2ifvpg","pricing_plan_id":"cebpf4jnsgd1na2vs0mg"},{"bike_id":"2e5ecf31-30b5-467e-9117-e49fe2c181fc","system_id":"levelo_inurba_marseille","lat":43.24664,"lon":5.38167,"is_reserved":false,"is_disabled":false,"rental_uris":{"android":"levelo://app?vid=2e5ecf31-30b5-467e-9117-e49fe2c181fc","ios":"levelo://app?vid=2e5ecf31-30b5-467e-9117-e49fe2c181fc"},"vehicle_type_id":"4","last_reported":1742306992,"current_range_meters":13600,"station_id":"ce4bhih2rcd13ifvqfr0","pricing_plan_id":"cebpf4jnsgd1na2vs0mg"},{"bike_id":"078e0aaf-3199-435b-a83a-e8cc8367a500","system_id":"levelo_inurba_marseille","lat":43.24185,"lon":5.39734,"is_reserved":false,"is_disabled":false,"rental_uris":{"android":"levelo://app?vid=078e0aaf-3199-435b-a83a-e8cc8367a500","ios":"levelo://app?vid=078e0aaf-3199-435b-a83a-e8cc8367a500"},"vehicle_type_id":"4","last_reported":1742306992,"current_range_meters":13600,"station_id":"ce4bhn12rcd13ifvqgpg","pricing_plan_id":"cebpf4jnsgd1na2vs0mg"},{"bike_id":"6853df74-7d56-4132-9406-d5f5a5121396","system_id":"levelo_inurba_marseille","lat":43.30278,"lon":5.37715,"is_reserved":false,"is_disabled":false,"rental_uris":{"android":"levelo://app?vid=6853df74-7d56-4132-9406-d5f5a5121396","ios":"levelo://app?vid=6853df74-7d56-4132-9406-d5f5a5121396"},"vehicle_type_id":"4","last_reported":1742306992,"current_range_meters":13600,"station_id":"ce4bguh2rcd13ifvqcj0","pricing_plan_id":"cebpf4jnsgd1na2vs0mg"},{"bike_id":"f142dc05-f5d3-4cbc-afe5-c54cd3d760d6","system_id":"levelo_inurba_marseille","lat":43.28192,"lon":5.39454,"is_reserved":false,"is_disabled":false,"rental_uris":{"android":"levelo://app?vid=f142dc05-f5d3-4cbc-afe5-c54cd3d760d6","ios":"levelo://app?vid=f142dc05-f5d3-4cbc-afe5-c54cd3d760d6"},"vehicle_type_id":"4","last_reported":1742306992,"current_range_meters":13600,"station_id":"","pricing_plan_id":"cebpf4jnsgd1na2vs0mg"},{"bike_id":"12e6b414-43d2-4df4-8334-243f4fe9e0c9","system_id":"levelo_inurba_marseille","lat":43.27969,"lon":5.3871,"is_reserved":false,"is_disabled":false,"rental_uris":{"android":"levelo://app?vid=12e6b414-43d2-4df4-8334-243f4fe9e0c9","ios":"levelo://app?vid=12e6b414-43d2-4df4-8334-243f4fe9e0c9"},"vehicle_type_id":"4","last_reported":1742306992,"current_range_meters":13600,"station_id":"ce4bhg12rcd13ifvqf80","pricing_plan_id":"cebpf4jnsgd1na2vs0mg"},{"bike_id":"33fe3b78-a5dc-438d-befd-ac5b01db2e11","system_id":"levelo_inurba_marseille","lat":43.29604,"lon":5.38112,"is_reserved":false,"is_disabled":false,"rental_uris":{"android":"levelo://app?vid=33fe3b78-a5dc-438d-befd-ac5b01db2e11","ios":"levelo://app?vid=33fe3b78-a5dc-438d-befd-ac5b01db2e11"},"vehicle_type_id":"4","last_reported":1742306992,"current_range_meters":14000,"station_id":"ce4bgl12rcd13ifvqbo0","pricing_plan_id":"cebpf4jnsgd1na2vs0mg"},{"bike_id":"ef1c1528-aa7a-46e8-a577-9de7cbd990cb","system_id":"levelo_inurba_marseille","lat":43.24173,"lon":5.36406,"is_reserved":false,"is_disabled":false,"rental_uris":{"android":"levelo://app?vid=ef1c1528-aa7a-46e8-a577-9de7cbd990cb","ios":"levelo://app?vid=ef1c1528-aa7a-46e8-a577-9de7cbd990cb"},"vehicle_type_id":"4","last_reported":1742306992,"current_range_meters":14000,"station_id":"cpo36qri1sfpv3e86is0","pricing_plan_id":"cebpf4jnsgd1na2vs0mg"},{"bike_id":"5e9b0c5e-a87d-4be4-ab47-e3ac30bd5af8","system_id":"levelo_inurba_marseille","lat":43.29903,"lon":5.38506,"is_reserved":false,"is_disabled":false,"rental_uris":{"android":"levelo://app?vid=5e9b0c5e-a87d-4be4-ab47-e3ac30bd5af8","ios":"levelo://app?vid=5e9b0c5e-a87d-4be4-ab47-e3ac30bd5af8"},"vehicle_type_id":"4","last_reported":1742306992,"current_range_meters":14000,"station_id":"ce4bgj92rcd13ifvqbd0","pricing_plan_id":"cebpf4jnsgd1na2vs0mg"},{"bike_id":"1b816da1-b5df-49f9-9180-41dff3e2b872","system_id":"levelo_inurba_marseille","lat":43.24174,"lon":5.39737,"is_reserved":false,"is_disabled":false,"rental_uris":{"android":"levelo://app?vid=1b816da1-b5df-49f9-9180-41dff3e2b872","ios":"levelo://app?vid=1b816da1-b5df-49f9-9180-41dff3e2b872"},"vehicle_type_id":"4","last_reported":1742306992,"current_range_meters":14000,"station_id":"ce4bhn12rcd13ifvqgpg","pricing_plan_id":"cebpf4jnsgd1na2vs0mg"},{"bike_id":"623b1d48-fe8c-4a6a-b45e-f5a8ef1ac996","system_id":"levelo_inurba_marseille","lat":43.305433,"lon":5.365394,"is_reserved":false,"is_disabled":false,"rental_uris":{"android":"levelo://app?vid=623b1d48-fe8c-4a6a-b45e-f5a8ef1ac996","ios":"levelo://app?vid=623b1d48-fe8c-4a6a-b45e-f5a8ef1ac996"},"vehicle_type_id":"4","last_reported":1742306992,"current_range_meters":14000,"station_id":"ce4bgs12rcd13ifvqcag","pricing_plan_id":"cebpf4jnsgd1na2vs0mg"},{"bike_id":"d8c1ae52-2a9e-4470-a363-aadad54f73dd","system_id":"levelo_inurba_marseille","lat":43.26221,"lon":5.40441,"is_reserved":false,"is_disabled":false,"rental_uris":{"android":"levelo://app?vid=d8c1ae52-2a9e-4470-a363-aadad54f73dd","ios":"levelo://app?vid=d8c1ae52-2a9e-4470-a363-aadad54f73dd"},"vehicle_type_id":"4","last_reported":1742306992,"current_range_meters":14000,"station_id":"ce4bhmh2rcd13ifvqgmg","pricing_plan_id":"cebpf4jnsgd1na2vs0mg"},{"bike_id":"857dedd1-9288-4d0b-b333-dd8cf2730932","system_id":"levelo_inurba_marseille","lat":43.28942,"lon":5.36645,"is_reserved":false,"is_disabled":false,"rental_uris":{"android":"levelo://app?vid=857dedd1-9288-4d0b-b333-dd8cf2730932","ios":"levelo://app?vid=857dedd1-9288-4d0b-b333-dd8cf2730932"},"vehicle_type_id":"4","last_reported":1742306992,"current_range_meters":13600,"station_id":"ce4bhap2rcd13ifvqek0","pricing_plan_id":"cebpf4jnsgd1na2vs0mg"},{"bike_id":"97b12af0-87f3-4dda-ac23-c6857013e333","system_id":"levelo_inurba_marseille","lat":43.29262,"lon":5.38434,"is_reserved":false,"is_disabled":true,"rental_uris":{"android":"levelo://app?vid=97b12af0-87f3-4dda-ac23-c6857013e333","ios":"levelo://app?vid=97b12af0-87f3-4dda-ac23-c6857013e333"},"vehicle_type_id":"4","last_reported":1742306992,"current_range_meters":14400,"station_id":"ce4bh692rcd13ifvqea0","pricing_plan_id":"cebpf4jnsgd1na2vs0mg"},{"bike_id":"d8ba7d21-d123-4caa-8b75-a1d9fe596805","system_id":"levelo_inurba_marseille","lat":43.28711,"lon":5.37367,"is_reserved":false,"is_disabled":false,"rental_uris":{"android":"levelo://app?vid=d8ba7d21-d123-4caa-8b75-a1d9fe596805","ios":"levelo://app?vid=d8ba7d21-d123-4caa-8b75-a1d9fe596805"},"vehicle_type_id":"4","last_reported":1742306992,"current_range_meters":14000,"station_id":"ce4bh3p2rcd13ifvqdq0","pricing_plan_id":"cebpf4jnsgd1na2vs0mg"},{"bike_id":"ff037ac5-a7ea-45e6-93cf-7d394f2f7759","system_id":"levelo_inurba_marseille","lat":43.30521,"lon":5.36531,"is_reserved":false,"is_disabled":false,"rental_uris":{"android":"levelo://app?vid=ff037ac5-a7ea-45e6-93cf-7d394f2f7759","ios":"levelo://app?vid=ff037ac5-a7ea-45e6-93cf-7d394f2f7759"},"vehicle_type_id":"4","last_reported":1742306992,"current_range_meters":14400,"station_id":"","pricing_plan_id":"cebpf4jnsgd1na2vs0mg"},{"bike_id":"c0e99777-caf4-4d58-9e22-5dab55dc9256","system_id":"levelo_inurba_marseille","lat":43.30541,"lon":5.36548,"is_reserved":false,"is_disabled":false,"rental_uris":{"android":"levelo://app?vid=c0e99777-caf4-4d58-9e22-5dab55dc9256","ios":"levelo://app?vid=c0e99777-caf4-4d58-9e22-5dab55dc9256"},"vehicle_type_id":"4","last_reported":1742306992,"current_range_meters":14400,"station_id":"ce4bgs12rcd13ifvqcag","pricing_plan_id":"cebpf4jnsgd1na2vs0mg"},{"bike_id":"a9fe332c-9cfd-4b48-bc18-1ca59644784c","system_id":"levelo_inurba_marseille","lat":43.23151,"lon":5.43705,"is_reserved":false,"is_disabled":false,"rental_uris":{"android":"levelo://app?vid=a9fe332c-9cfd-4b48-bc18-1ca59644784c","ios":"levelo://app?vid=a9fe332c-9cfd-4b48-bc18-1ca59644784c"},"vehicle_type_id":"4","last_reported":1742306992,"current_range_meters":14400,"station_id":"ce4bhmp2rcd13ifvqgog","pricing_plan_id":"cebpf4jnsgd1na2vs0mg"},{"bike_id":"e6fe1b28-fd41-4ffa-b137-88055d185311","system_id":"levelo_inurba_marseille","lat":43.3169,"lon":5.4048,"is_reserved":false,"is_disabled":false,"rental_uris":{"android":"levelo://app?vid=e6fe1b28-fd41-4ffa-b137-88055d185311","ios":"levelo://app?vid=e6fe1b28-fd41-4ffa-b137-88055d185311"},"vehicle_type_id":"4","last_reported":1742306992,"current_range_meters":14400,"station_id":"ce4bh012rcd13ifvqd00","pricing_plan_id":"cebpf4jnsgd1na2vs0mg"},{"bike_id":"9e75fe6b-6ce9-4e3d-a490-6479434c734a","system_id":"levelo_inurba_marseille","lat":43.29262,"lon":5.36844,"is_reserved":false,"is_disabled":false,"rental_uris":{"android":"levelo://app?vid=9e75fe6b-6ce9-4e3d-a490-6479434c734a","ios":"levelo://app?vid=9e75fe6b-6ce9-4e3d-a490-6479434c734a"},"vehicle_type_id":"4","last_reported":1742306992,"current_range_meters":14400,"station_id":"ce4bhbp2rcd13ifvqesg","pricing_plan_id":"cebpf4jnsgd1na2vs0mg"},{"bike_id":"f5b5b897-b776-4f00-9f85-b4d42ed7205c","system_id":"levelo_inurba_marseille","lat":43.25931,"lon":5.40882,"is_reserved":false,"is_disabled":false,"rental_uris":{"android":"levelo://app?vid=f5b5b897-b776-4f00-9f85-b4d42ed7205c","ios":"levelo://app?vid=f5b5b897-b776-4f00-9f85-b4d42ed7205c"},"vehicle_type_id":"4","last_reported":1742306992,"current_range_meters":14400,"station_id":"ce4bhm92rcd13ifvqglg","pricing_plan_id":"cebpf4jnsgd1na2vs0mg"},{"bike_id":"2a338030-1ec0-4296-abd3-e1edae15227d","system_id":"levelo_inurba_marseille","lat":43.24171,"lon":5.39714,"is_reserved":false,"is_disabled":false,"rental_uris":{"android":"levelo://app?vid=2a338030-1ec0-4296-abd3-e1edae15227d","ios":"levelo://app?vid=2a338030-1ec0-4296-abd3-e1edae15227d"},"vehicle_type_id":"4","last_reported":1742306992,"current_range_meters":14400,"station_id":"ce4bhn12rcd13ifvqgpg","pricing_plan_id":"cebpf4jnsgd1na2vs0mg"},{"bike_id":"7341297d-d43a-4895-907f-c3efe66c169b","system_id":"levelo_inurba_marseille","lat":43.30279,"lon":5.37686,"is_reserved":false,"is_disabled":false,"rental_uris":{"android":"levelo://app?vid=7341297d-d43a-4895-907f-c3efe66c169b","ios":"levelo://app?vid=7341297d-d43a-4895-907f-c3efe66c169b"},"vehicle_type_id":"4","last_reported":1742306992,"current_range_meters":14400,"station_id":"ce4bguh2rcd13ifvqcj0","pricing_plan_id":"cebpf4jnsgd1na2vs0mg"},{"bike_id":"59e595fe-de7d-42e0-bb03-a7369f5a76b7","system_id":"levelo_inurba_marseille","lat":43.23964,"lon":5.36625,"is_reserved":false,"is_disabled":false,"rental_uris":{"android":"levelo://app?vid=59e595fe-de7d-42e0-bb03-a7369f5a76b7","ios":"levelo://app?vid=59e595fe-de7d-42e0-bb03-a7369f5a76b7"},"vehicle_type_id":"4","last_reported":1742306992,"current_range_meters":14400,"station_id":"ce4bhi12rcd13ifvqfp0","pricing_plan_id":"cebpf4jnsgd1na2vs0mg"},{"bike_id":"e60c1153-ceb4-4f72-92cd-2dc1051b5e4c","system_id":"levelo_inurba_marseille","lat":43.26066,"lon":5.39392,"is_reserved":false,"is_disabled":true,"rental_uris":{"android":"levelo://app?vid=e60c1153-ceb4-4f72-92cd-2dc1051b5e4c","ios":"levelo://app?vid=e60c1153-ceb4-4f72-92cd-2dc1051b5e4c"},"vehicle_type_id":"4","last_reported":1742306992,"current_range_meters":14800,"station_id":"ce4bhh92rcd13ifvqfj0","pricing_plan_id":"cebpf4jnsgd1na2vs0mg"},{"bike_id":"daf49d6d-d37d-4465-a01f-e92e9deb21de","system_id":"levelo_inurba_marseille","lat":43.2468,"lon":5.38158,"is_reserved":false,"is_disabled":false,"rental_uris":{"android":"levelo://app?vid=daf49d6d-d37d-4465-a01f-e92e9deb21de","ios":"levelo://app?vid=daf49d6d-d37d-4465-a01f-e92e9deb21de"},"vehicle_type_id":"4","last_reported":1742306992,"current_range_meters":14800,"station_id":"ce4bhih2rcd13ifvqfr0","pricing_plan_id":"cebpf4jnsgd1na2vs0mg"},{"bike_id":"43370f50-31e1-441c-a25f-74e13a64b653","system_id":"levelo_inurba_marseille","lat":43.29858,"lon":5.36297,"is_reserved":false,"is_disabled":false,"rental_uris":{"android":"levelo://app?vid=43370f50-31e1-441c-a25f-74e13a64b653","ios":"levelo://app?vid=43370f50-31e1-441c-a25f-74e13a64b653"},"vehicle_type_id":"4","last_reported":1742306992,"current_range_meters":14800,"station_id":"ce4bgpp2rcd13ifvqc3g","pricing_plan_id":"cebpf4jnsgd1na2vs0mg"},{"bike_id":"b73b3612-f28f-42f9-8f28-9568bcd3623a","system_id":"levelo_inurba_marseille","lat":43.30159,"lon":5.37395,"is_reserved":false,"is_disabled":false,"rental_uris":{"android":"levelo://app?vid=b73b3612-f28f-42f9-8f28-9568bcd3623a","ios":"levelo://app?vid=b73b3612-f28f-42f9-8f28-9568bcd3623a"},"vehicle_type_id":"4","last_reported":1742306992,"current_range_meters":14800,"station_id":"ce4bgs92rcd13ifvqcc0","pricing_plan_id":"cebpf4jnsgd1na2vs0mg"},{"bike_id":"eb7b95e9-ee48-48d0-be53-ffb301657218","system_id":"levelo_inurba_marseille","lat":43.25171,"lon":5.39476,"is_reserved":false,"is_disabled":false,"rental_uris":{"android":"levelo://app?vid=eb7b95e9-ee48-48d0-be53-ffb301657218","ios":"levelo://app?vid=eb7b95e9-ee48-48d0-be53-ffb301657218"},"vehicle_type_id":"4","last_reported":1742306992,"current_range_meters":14800,"station_id":"ce4bhm12rcd13ifvqgkg","pricing_plan_id":"cebpf4jnsgd1na2vs0mg"},{"bike_id":"ac3a929b-8ed5-4740-a44c-8d1cddaa95b7","system_id":"levelo_inurba_marseille","lat":43.29623,"lon":5.37172,"is_reserved":false,"is_disabled":false,"rental_uris":{"android":"levelo://app?vid=ac3a929b-8ed5-4740-a44c-8d1cddaa95b7","ios":"levelo://app?vid=ac3a929b-8ed5-4740-a44c-8d1cddaa95b7"},"vehicle_type_id":"4","last_reported":1742306992,"current_range_meters":14800,"station_id":"ce4bgnh2rcd13ifvqc0g","pricing_plan_id":"cebpf4jnsgd1na2vs0mg"},{"bike_id":"17509cd5-8a6c-4f3a-9bed-cbd695c6c3a4","system_id":"levelo_inurba_marseille","lat":43.33021,"lon":5.39035,"is_reserved":false,"is_disabled":false,"rental_uris":{"android":"levelo://app?vid=17509cd5-8a6c-4f3a-9bed-cbd695c6c3a4","ios":"levelo://app?vid=17509cd5-8a6c-4f3a-9bed-cbd695c6c3a4"},"vehicle_type_id":"4","last_reported":1742306992,"current_range_meters":14800,"station_id":"ce4bhr92rcd13ifvqhrg","pricing_plan_id":"cebpf4jnsgd1na2vs0mg"},{"bike_id":"8de11a8b-fb2a-4b45-bab5-f46fbb0a1147","system_id":"levelo_inurba_marseille","lat":43.2319,"lon":5.35554,"is_reserved":false,"is_disabled":false,"rental_uris":{"android":"levelo://app?vid=8de11a8b-fb2a-4b45-bab5-f46fbb0a1147","ios":"levelo://app?vid=8de11a8b-fb2a-4b45-bab5-f46fbb0a1147"},"vehicle_type_id":"4","last_reported":1742306992,"current_range_meters":14800,"station_id":"ce4bhu92rcd13ifvqi70","pricing_plan_id":"cebpf4jnsgd1na2vs0mg"},{"bike_id":"6f35d8d6-c03c-45a9-903a-ccee5c078165","system_id":"levelo_inurba_marseille","lat":43.28975,"lon":5.37847,"is_reserved":false,"is_disabled":false,"rental_uris":{"android":"levelo://app?vid=6f35d8d6-c03c-45a9-903a-ccee5c078165","ios":"levelo://app?vid=6f35d8d6-c03c-45a9-903a-ccee5c078165"},"vehicle_type_id":"4","last_reported":1742306992,"current_range_meters":15200,"station_id":"ce4bh9p2rcd13ifvqed0","pricing_plan_id":"cebpf4jnsgd1na2vs0mg"},{"bike_id":"3455258b-4135-46b9-9a26-10bf95160e40","system_id":"levelo_inurba_marseille","lat":43.23195,"lon":5.35556,"is_reserved":false,"is_disabled":false,"rental_uris":{"android":"levelo://app?vid=3455258b-4135-46b9-9a26-10bf95160e40","ios":"levelo://app?vid=3455258b-4135-46b9-9a26-10bf95160e40"},"vehicle_type_id":"4","last_reported":1742306992,"current_range_meters":15200,"station_id":"ce4bhu92rcd13ifvqi70","pricing_plan_id":"cebpf4jnsgd1na2vs0mg"},{"bike_id":"3be393f2-8f72-4cf8-8f85-0924c921a235","system_id":"levelo_inurba_marseille","lat":43.28998,"lon":5.35591,"is_reserved":false,"is_disabled":false,"rental_uris":{"android":"levelo://app?vid=3be393f2-8f72-4cf8-8f85-0924c921a235","ios":"levelo://app?vid=3be393f2-8f72-4cf8-8f85-0924c921a235"},"vehicle_type_id":"4","last_reported":1742306992,"current_range_meters":15200,"station_id":"ce4bhb92rcd13ifvqen0","pricing_plan_id":"cebpf4jnsgd1na2vs0mg"},{"bike_id":"2ebdd665-45bc-41e4-ba36-29ebf27d9e85","system_id":"levelo_inurba_marseille","lat":43.25948,"lon":5.40909,"is_reserved":false,"is_disabled":false,"rental_uris":{"android":"levelo://app?vid=2ebdd665-45bc-41e4-ba36-29ebf27d9e85","ios":"levelo://app?vid=2ebdd665-45bc-41e4-ba36-29ebf27d9e85"},"vehicle_type_id":"4","last_reported":1742306992,"current_range_meters":15200,"station_id":"ce4bhm92rcd13ifvqglg","pricing_plan_id":"cebpf4jnsgd1na2vs0mg"},{"bike_id":"10fa4735-2b13-4883-ab62-cffdd772164f","system_id":"levelo_inurba_marseille","lat":43.23192,"lon":5.39991,"is_reserved":false,"is_disabled":false,"rental_uris":{"android":"levelo://app?vid=10fa4735-2b13-4883-ab62-cffdd772164f","ios":"levelo://app?vid=10fa4735-2b13-4883-ab62-cffdd772164f"},"vehicle_type_id":"4","last_reported":1742306992,"current_range_meters":15200,"station_id":"ce4bhl92rcd13ifvqghg","pricing_plan_id":"cebpf4jnsgd1na2vs0mg"},{"bike_id":"de804e4c-d326-4ddb-bc68-1692d10fe8a6","system_id":"levelo_inurba_marseille","lat":43.27078,"lon":5.42283,"is_reserved":false,"is_disabled":false,"rental_uris":{"android":"levelo://app?vid=de804e4c-d326-4ddb-bc68-1692d10fe8a6","ios":"levelo://app?vid=de804e4c-d326-4ddb-bc68-1692d10fe8a6"},"vehicle_type_id":"4","last_reported":1742306992,"current_range_meters":15200,"station_id":"ce4bhk92rcd13ifvqgb0","pricing_plan_id":"cebpf4jnsgd1na2vs0mg"},{"bike_id":"6193b074-5ac2-48ec-901d-c6a58dee7e36","system_id":"levelo_inurba_marseille","lat":43.30144,"lon":5.37411,"is_reserved":false,"is_disabled":false,"rental_uris":{"android":"levelo://app?vid=6193b074-5ac2-48ec-901d-c6a58dee7e36","ios":"levelo://app?vid=6193b074-5ac2-48ec-901d-c6a58dee7e36"},"vehicle_type_id":"4","last_reported":1742306992,"current_range_meters":16000,"station_id":"ce4bgs92rcd13ifvqcc0","pricing_plan_id":"cebpf4jnsgd1na2vs0mg"},{"bike_id":"a2e55a99-87c6-4fc7-a9da-cd2189293e68","system_id":"levelo_inurba_marseille","lat":43.30205,"lon":5.39467,"is_reserved":false,"is_disabled":false,"rental_uris":{"android":"levelo://app?vid=a2e55a99-87c6-4fc7-a9da-cd2189293e68","ios":"levelo://app?vid=a2e55a99-87c6-4fc7-a9da-cd2189293e68"},"vehicle_type_id":"4","last_reported":1742306992,"current_range_meters":16000,"station_id":"ce4bh0p2rcd13ifvqd70","pricing_plan_id":"cebpf4jnsgd1na2vs0mg"},{"bike_id":"d8034985-34fa-4ca7-8845-72b93cc4e622","system_id":"levelo_inurba_marseille","lat":43.3013,"lon":5.37416,"is_reserved":false,"is_disabled":false,"rental_uris":{"android":"levelo://app?vid=d8034985-34fa-4ca7-8845-72b93cc4e622","ios":"levelo://app?vid=d8034985-34fa-4ca7-8845-72b93cc4e622"},"vehicle_type_id":"4","last_reported":1742306992,"current_range_meters":16000,"station_id":"ce4bgs92rcd13ifvqcc0","pricing_plan_id":"cebpf4jnsgd1na2vs0mg"},{"bike_id":"36f5e068-26e9-485b-84a3-fa1ce5017122","system_id":"levelo_inurba_marseille","lat":43.26939,"lon":5.38908,"is_reserved":false,"is_disabled":false,"rental_uris":{"android":"levelo://app?vid=36f5e068-26e9-485b-84a3-fa1ce5017122","ios":"levelo://app?vid=36f5e068-26e9-485b-84a3-fa1ce5017122"},"vehicle_type_id":"4","last_reported":1742306992,"current_range_meters":16000,"station_id":"ce4bhhh2rcd13ifvqfl0","pricing_plan_id":"cebpf4jnsgd1na2vs0mg"},{"bike_id":"c62d7dbf-ca03-4bab-9b97-cde7d6498f87","system_id":"levelo_inurba_marseille","lat":43.3089,"lon":5.39629,"is_reserved":false,"is_disabled":false,"rental_uris":{"android":"levelo://app?vid=c62d7dbf-ca03-4bab-9b97-cde7d6498f87","ios":"levelo://app?vid=c62d7dbf-ca03-4bab-9b97-cde7d6498f87"},"vehicle_type_id":"4","last_reported":1742306992,"current_range_meters":16000,"station_id":"ce4bh012rcd13ifvqcv0","pricing_plan_id":"cebpf4jnsgd1na2vs0mg"},{"bike_id":"eccc84c1-c39a-4ab0-a8c1-c3e617929bb4","system_id":"levelo_inurba_marseille","lat":43.28464,"lon":5.35895,"is_reserved":false,"is_disabled":false,"rental_uris":{"android":"levelo://app?vid=eccc84c1-c39a-4ab0-a8c1-c3e617929bb4","ios":"levelo://app?vid=eccc84c1-c39a-4ab0-a8c1-c3e617929bb4"},"vehicle_type_id":"4","last_reported":1742306992,"current_range_meters":16000,"station_id":"ce4bhah2rcd13ifvqei0","pricing_plan_id":"cebpf4jnsgd1na2vs0mg"},{"bike_id":"b1363475-9844-44dc-a7f2-7f615e06087c","system_id":"levelo_inurba_marseille","lat":43.30474,"lon":5.37911,"is_reserved":false,"is_disabled":false,"rental_uris":{"android":"levelo://app?vid=b1363475-9844-44dc-a7f2-7f615e06087c","ios":"levelo://app?vid=b1363475-9844-44dc-a7f2-7f615e06087c"},"vehicle_type_id":"4","last_reported":1742306992,"current_range_meters":16000,"station_id":"ce4bgup2rcd13ifvqcn0","pricing_plan_id":"cebpf4jnsgd1na2vs0mg"},{"bike_id":"40519983-510e-4b9a-9562-e0995123f6e0","system_id":"levelo_inurba_marseille","lat":43.23198,"lon":5.35555,"is_reserved":false,"is_disabled":false,"rental_uris":{"android":"levelo://app?vid=40519983-510e-4b9a-9562-e0995123f6e0","ios":"levelo://app?vid=40519983-510e-4b9a-9562-e0995123f6e0"},"vehicle_type_id":"4","last_reported":1742306992,"current_range_meters":16000,"station_id":"ce4bhu92rcd13ifvqi70","pricing_plan_id":"cebpf4jnsgd1na2vs0mg"},{"bike_id":"cea65a7f-f052-41b8-97a0-ff59764da2fc","system_id":"levelo_inurba_marseille","lat":43.30291,"lon":5.37718,"is_reserved":false,"is_disabled":false,"rental_uris":{"android":"levelo://app?vid=cea65a7f-f052-41b8-97a0-ff59764da2fc","ios":"levelo://app?vid=cea65a7f-f052-41b8-97a0-ff59764da2fc"},"vehicle_type_id":"4","last_reported":1742306992,"current_range_meters":16000,"station_id":"ce4bguh2rcd13ifvqcj0","pricing_plan_id":"cebpf4jnsgd1na2vs0mg"},{"bike_id":"b8ed7ee3-7b1f-40a3-9fc7-97d3c747ad93","system_id":"levelo_inurba_marseille","lat":43.27811,"lon":5.40723,"is_reserved":false,"is_disabled":false,"rental_uris":{"android":"levelo://app?vid=b8ed7ee3-7b1f-40a3-9fc7-97d3c747ad93","ios":"levelo://app?vid=b8ed7ee3-7b1f-40a3-9fc7-97d3c747ad93"},"vehicle_type_id":"4","last_reported":1742306992,"current_range_meters":16000,"station_id":"ce4bhnh2rcd13ifvqgtg","pricing_plan_id":"cebpf4jnsgd1na2vs0mg"},{"bike_id":"753ed126-c4bf-411f-88e3-dc86e83703ff","system_id":"levelo_inurba_marseille","lat":43.31485,"lon":5.37309,"is_reserved":false,"is_disabled":false,"rental_uris":{"android":"levelo://app?vid=753ed126-c4bf-411f-88e3-dc86e83703ff","ios":"levelo://app?vid=753ed126-c4bf-411f-88e3-dc86e83703ff"},"vehicle_type_id":"4","last_reported":1742306992,"current_range_meters":16400,"station_id":"ce4bgt12rcd13ifvqcd0","pricing_plan_id":"cebpf4jnsgd1na2vs0mg"},{"bike_id":"a83ca9d0-5872-4013-895d-be832d230319","system_id":"levelo_inurba_marseille","lat":43.2959,"lon":5.36744,"is_reserved":false,"is_disabled":false,"rental_uris":{"android":"levelo://app?vid=a83ca9d0-5872-4013-895d-be832d230319","ios":"levelo://app?vid=a83ca9d0-5872-4013-895d-be832d230319"},"vehicle_type_id":"4","last_reported":1742306992,"current_range_meters":16400,"station_id":"ce4bgph2rcd13ifvqc2g","pricing_plan_id":"cebpf4jnsgd1na2vs0mg"},{"bike_id":"0d8be51d-5d60-4768-b79c-08d207c22ec7","system_id":"levelo_inurba_marseille","lat":43.25928,"lon":5.40896,"is_reserved":false,"is_disabled":false,"rental_uris":{"android":"levelo://app?vid=0d8be51d-5d60-4768-b79c-08d207c22ec7","ios":"levelo://app?vid=0d8be51d-5d60-4768-b79c-08d207c22ec7"},"vehicle_type_id":"4","last_reported":1742306992,"current_range_meters":16400,"station_id":"ce4bhm92rcd13ifvqglg","pricing_plan_id":"cebpf4jnsgd1na2vs0mg"},{"bike_id":"c6c10228-bdaf-4675-8ed7-8f34a9c87c34","system_id":"levelo_inurba_marseille","lat":43.28109,"lon":5.37836,"is_reserved":false,"is_disabled":false,"rental_uris":{"android":"levelo://app?vid=c6c10228-bdaf-4675-8ed7-8f34a9c87c34","ios":"levelo://app?vid=c6c10228-bdaf-4675-8ed7-8f34a9c87c34"},"vehicle_type_id":"4","last_reported":1742306992,"current_range_meters":16400,"station_id":"ce4bha12rcd13ifvqee0","pricing_plan_id":"cebpf4jnsgd1na2vs0mg"},{"bike_id":"95f28da3-ba24-4f59-96a4-78e2d7cd063b","system_id":"levelo_inurba_marseille","lat":43.23153,"lon":5.43713,"is_reserved":false,"is_disabled":false,"rental_uris":{"android":"levelo://app?vid=95f28da3-ba24-4f59-96a4-78e2d7cd063b","ios":"levelo://app?vid=95f28da3-ba24-4f59-96a4-78e2d7cd063b"},"vehicle_type_id":"4","last_reported":1742306992,"current_range_meters":16400,"station_id":"ce4bhmp2rcd13ifvqgog","pricing_plan_id":"cebpf4jnsgd1na2vs0mg"},{"bike_id":"dbecd861-9911-4686-a88a-b6bc117d87cf","system_id":"levelo_inurba_marseille","lat":43.29919,"lon":5.37488,"is_reserved":false,"is_disabled":false,"rental_uris":{"android":"levelo://app?vid=dbecd861-9911-4686-a88a-b6bc117d87cf","ios":"levelo://app?vid=dbecd861-9911-4686-a88a-b6bc117d87cf"},"vehicle_type_id":"4","last_reported":1742306992,"current_range_meters":16400,"station_id":"ce4bgjh2rcd13ifvqbg0","pricing_plan_id":"cebpf4jnsgd1na2vs0mg"},{"bike_id":"ab9cad4b-ce40-425c-85cd-6d9e44473cdc","system_id":"levelo_inurba_marseille","lat":43.290348,"lon":5.399704,"is_reserved":false,"is_disabled":false,"rental_uris":{"android":"levelo://app?vid=ab9cad4b-ce40-425c-85cd-6d9e44473cdc","ios":"levelo://app?vid=ab9cad4b-ce40-425c-85cd-6d9e44473cdc"},"vehicle_type_id":"4","last_reported":1742306992,"current_range_meters":16000,"station_id":"ce4bh9p2rcd13ifvqed0","pricing_plan_id":"cebpf4jnsgd1na2vs0mg"},{"bike_id":"a9e37662-e2a0-4e06-a7a5-09d3f55e57ea","system_id":"levelo_inurba_marseille","lat":43.26221,"lon":5.40483,"is_reserved":false,"is_disabled":false,"rental_uris":{"android":"levelo://app?vid=a9e37662-e2a0-4e06-a7a5-09d3f55e57ea","ios":"levelo://app?vid=a9e37662-e2a0-4e06-a7a5-09d3f55e57ea"},"vehicle_type_id":"4","last_reported":1742306992,"current_range_meters":16400,"station_id":"ce4bhmh2rcd13ifvqgmg","pricing_plan_id":"cebpf4jnsgd1na2vs0mg"},{"bike_id":"c4ab908c-6ae9-4ef1-9805-1daecd563f02","system_id":"levelo_inurba_marseille","lat":43.30276,"lon":5.37684,"is_reserved":false,"is_disabled":false,"rental_uris":{"android":"levelo://app?vid=c4ab908c-6ae9-4ef1-9805-1daecd563f02","ios":"levelo://app?vid=c4ab908c-6ae9-4ef1-9805-1daecd563f02"},"vehicle_type_id":"4","last_reported":1742306992,"current_range_meters":16400,"station_id":"ce4bguh2rcd13ifvqcj0","pricing_plan_id":"cebpf4jnsgd1na2vs0mg"},{"bike_id":"ba833c35-bbfe-4636-b15b-f49bf29d31c6","system_id":"levelo_inurba_marseille","lat":43.2979,"lon":5.39346,"is_reserved":false,"is_disabled":false,"rental_uris":{"android":"levelo://app?vid=ba833c35-bbfe-4636-b15b-f49bf29d31c6","ios":"levelo://app?vid=ba833c35-bbfe-4636-b15b-f49bf29d31c6"},"vehicle_type_id":"4","last_reported":1742306992,"current_range_meters":16800,"station_id":"chh1huq6cuj3fo74tm60","pricing_plan_id":"cebpf4jnsgd1na2vs0mg"},{"bike_id":"4b0e6985-ae51-4bbd-98f6-7facaba9af74","system_id":"levelo_inurba_marseille","lat":43.25913,"lon":5.40949,"is_reserved":false,"is_disabled":false,"rental_uris":{"android":"levelo://app?vid=4b0e6985-ae51-4bbd-98f6-7facaba9af74","ios":"levelo://app?vid=4b0e6985-ae51-4bbd-98f6-7facaba9af74"},"vehicle_type_id":"4","last_reported":1742306992,"current_range_meters":16800,"station_id":"ce4bhm92rcd13ifvqglg","pricing_plan_id":"cebpf4jnsgd1na2vs0mg"},