{"last_updated":1753729948,"ttl":60,"version":"2.2","data":{"bikes":[{"bike_id":"e593a2ef-2c46-424e-91f9-746679704ec6","system_id":"levelo_inurba_marseille","lat":43.29037,"lon":5.39944,"is_reserved":false,"is_disabled":false,"rental_uris":{"android":"levelo://app?vid=e593a2ef-2c46-424e-91f9-746679704ec6","ios":"levelo://app?vid=e593a2ef-2c46-424e-91f9-746679704ec6"},"vehicle_type_id":"4","last_reported":1753729948,"current_range_meters":2800,"station_id":"ce4bh392rcd13ifvqdm0","pricing_plan_id":"cebpf4jnsgd1na2vs0mg"},{"bike_id":"b0bb319c-3445-4784-863d-1e35e56aa2dd","system_id":"levelo_inurba_marseille","lat":43.28673,"lon":5.3635,"is_reserved":false,"is_disabled":false,"rental_uris":{"android":"levelo://app?vid=b0bb319c-3445-4784-863d-1e35e56aa2dd","ios":"levelo://app?vid=b0bb319c-3445-4784-863d-1e35e56aa2dd"},"vehicle_type_id":"4","last_reported":1753729948,"current_range_meters":3200,"station_id":"ce4bhah2rcd13ifvqej0","pricing_plan_id":"cebpf4jnsgd1na2vs0mg"},{"bike_id":"32106864-7484-4af1-a31d-c990eddab6a0","system_id":"levelo_inurba_marseille","lat":43.29532,"lon":5.39035,"is_reserved":false,"is_disabled":false,"rental_uris":{"android":"levelo://app?vid=32106864-7484-4af1-a31d-c990eddab6a0","ios":"levelo://app?vid=32106864-7484-4af1-a31d-c990eddab6a0"},"vehicle_type_id":"4","last_reported":1753729948,"current_range_meters":3600,"station_id":"ce4bh3p2rcd13ifvqdp0","pricing_plan_id":"cebpf4jnsgd1na2vs0mg"},{"bike_id":"042a8476-d3c4-476b-9557-f32c03e9d625","system_id":"levelo_inurba_marseille","lat":43.33954,"lon":5.35686,"is_reserved":false,"is_disabled":false,"rental_uris":{"android":"levelo://app?vid=042a8476-d3c4-476b-9557-f32c03e9d625","ios":"levelo://app?vid=042a8476-d3c4-476b-9557-f32c03e9d625"},"vehicle_type_id":"4","last_reported":1753729948,"current_range_meters":3600,"station_id":"","pricing_plan_id":"cebpf4jnsgd1na2vs0mg"},{"bike_id":"b421b07f-1427-4c6a-961a-3845855122c9","system_id":"levelo_inurba_marseille","lat":43.30531,"lon":5.36551,"is_reserved":false,"is_disabled":false,"rental_uris":{"android":"levelo://app?vid=b421b07f-1427-4c6a-961a-3845855122c9","ios":"levelo://app?vid=b421b07f-1427-4c6a-961a-3845855122c9"},"vehicle_type_id":"4","last_reported":1753729948,"current_range_meters":3600,"station_id":"ce4bgs12rcd13ifvqcag","pricing_plan_id":"cebpf4jnsgd1na2vs0mg"},{"bike_id":"9b9f3fe9-163b-4d8b-9372-dd927a44a936","system_id":"levelo_inurba_marseille","lat":43.31362,"lon":5.38508,"is_reserved":false,"is_disabled":false,"rental_uris":{"android":"levelo://app?vid=9b9f3fe9-163b-4d8b-9372-dd927a44a936","ios":"levelo://app?vid=9b9f3fe9-163b-4d8b-9372-dd927a44a936"},"vehicle_type_id":"4","last_reported":1753729948,"current_range_meters":4000,"station_id":"ce4bgt92rcd13ifvqcf0","pricing_plan_id":"cebpf4jnsgd1na2vs0mg"},{"bike_id":"a4a413df-1288-496d-9f99-553fd49989d0","system_id":"levelo_inurba_marseille","lat":43.30137,"lon":5.37414,"is_reserved":false,"is_disabled":false,"rental_uris":{"android":"levelo://app?vid=a4a413df-1288-496d-9f99-553fd49989d0","ios":"levelo://app?vid=a4a413df-1288-496d-9f99-553fd49989d0"},"vehicle_type_id":"4","last_reported":1753729948,"current_range_meters":4000,"station_id":"ce4bgs92rcd13ifvqcc0","pricing_plan_id":"cebpf4jnsgd1na2vs0mg"},{"bike_id":"72e03784-0704-41e0-b1f1-3eacc06d2c0c","system_id":"levelo_inurba_marseille","lat":43.30903,"lon":5.37187,"is_reserved":false,"is_disabled":false,"rental_uris":{"android":"levelo://app?vid=72e03784-0704-41e0-b1f1-3eacc06d2c0c","ios":"levelo://app?vid=72e03784-0704-41e0-b1f1-3eacc06d2c0c"},"vehicle_type_id":"4","last_reported":1753729948,"current_range_meters":4000,"station_id":"ce4bguh2rcd13ifvqckg","pricing_plan_id":"cebpf4jnsgd1na2vs0mg"},{"bike_id":"7e65c5ea-0429-45f5-a396-bd32e67f0744","system_id":"levelo_inurba_marseille","lat":43.334723,"lon":5.400455,"is_reserved":false,"is_disabled":false,"rental_uris":{"android":"levelo://app?vid=7e65c5ea-0429-45f5-a396-bd32e67f0744","ios":"levelo://app?vid=7e65c5ea-0429-45f5-a396-bd32e67f0744"},"vehicle_type_id":"4","last_reported":1753729948,"current_range_meters":4400,"station_id":"","pricing_plan_id":"cebpf4jnsgd1na2vs0mg"},{"bike_id":"a811fe01-b1a3-4b1e-9fbc-ce73b014f38f","system_id":"levelo_inurba_marseille","lat":43.27844,"lon":5.39202,"is_reserved":false,"is_disabled":false,"rental_uris":{"android":"levelo://app?vid=a811fe01-b1a3-4b1e-9fbc-ce73b014f38f","ios":"levelo://app?vid=a811fe01-b1a3-4b1e-9fbc-ce73b014f38f"},"vehicle_type_id":"4","last_reported":1753729948,"current_range_meters":4800,"station_id":"ce4bhjp2rcd13ifvqga0","pricing_plan_id":"cebpf4jnsgd1na2vs0mg"},{"bike_id":"59e824ae-d814-4c81-a7b8-fe0e1d505499","system_id":"levelo_inurba_marseille","lat":43.27474,"lon":5.42488,"is_reserved":false,"is_disabled":false,"rental_uris":{"android":"levelo://app?vid=59e824ae-d814-4c81-a7b8-fe0e1d505499","ios":"levelo://app?vid=59e824ae-d814-4c81-a7b8-fe0e1d505499"},"vehicle_type_id":"4","last_reported":1753729948,"current_range_meters":5600,"station_id":"ce4bhn92rcd13ifvqgrg","pricing_plan_id":"cebpf4jnsgd1na2vs0mg"},{"bike_id":"e174f2e4-2062-45df-8ccf-de0a9e7e0b78","system_id":"levelo_inurba_marseille","lat":43.297835,"lon":5.39346,"is_reserved":false,"is_disabled":false,"rental_uris":{"android":"levelo://app?vid=e174f2e4-2062-45df-8ccf-de0a9e7e0b78","ios":"levelo://app?vid=e174f2e4-2062-45df-8ccf-de0a9e7e0b78"},"vehicle_type_id":"4","last_reported":1753729948,"current_range_meters":5600,"station_id":"ce4bgi12rcd13ifvqb70","pricing_plan_id":"cebpf4jnsgd1na2vs0mg"},{"bike_id":"d59755b3-120c-43b6-832b-a215f4b495c7","system_id":"levelo_inurba_marseille","lat":43.25724,"lon":5.4111,"is_reserved":false,"is_disabled":false,"rental_uris":{"android":"levelo://app?vid=d59755b3-120c-43b6-832b-a215f4b495c7","ios":"levelo://app?vid=d59755b3-120c-43b6-832b-a215f4b495c7"},"vehicle_type_id":"4","last_reported":1753729948,"current_range_meters":6000,"station_id":"ce4bhkp2rcd13ifvqgd0","pricing_plan_id":"cebpf4jnsgd1na2vs0mg"},{"bike_id":"156e744b-94c9-4be0-9dfd-d007398890ce","system_id":"levelo_inurba_marseille","lat":43.32351,"lon":5.36792,"is_reserved":false,"is_disabled":false,"rental_uris":{"android":"levelo://app?vid=156e744b-94c9-4be0-9dfd-d007398890ce","ios":"levelo://app?vid=156e744b-94c9-4be0-9dfd-d007398890ce"},"vehicle_type_id":"4","last_reported":1753729948,"current_range_meters":6400,"station_id":"ce4bhsh2rcd13ifvqi2g","pricing_plan_id":"cebpf4jnsgd1na2vs0mg"},{"bike_id":"078f11b0-bb56-4df0-87db-0c5d635cc500","system_id":"levelo_inurba_marseille","lat":43.22471,"lon":5.34759,"is_reserved":false,"is_disabled":false,"rental_uris":{"android":"levelo://app?vid=078f11b0-bb56-4df0-87db-0c5d635cc500","ios":"levelo://app?vid=078f11b0-bb56-4df0-87db-0c5d635cc500"},"vehicle_type_id":"4","last_reported":1753729948,"current_range_meters":6400,"station_id":"st_cvj5dfep6f1abm77gieg","pricing_plan_id":"cebpf4jnsgd1na2vs0mg"},{"bike_id":"198a8a48-9082-408a-ac7c-20dca32fbf4e","system_id":"levelo_inurba_marseille","lat":43.32084,"lon":5.40939,"is_reserved":false,"is_disabled":false,"rental_uris":{"android":"levelo://app?vid=198a8a48-9082-408a-ac7c-20dca32fbf4e","ios":"levelo://app?vid=198a8a48-9082-408a-ac7c-20dca32fbf4e"},"vehicle_type_id":"4","last_reported":1753729948,"current_range_meters":6400,"station_id":"","pricing_plan_id":"cebpf4jnsgd1na2vs0mg"},{"bike_id":"56bf0055-e112-4078-b5aa-ffa4580277bd","system_id":"levelo_inurba_marseille","lat":43.31644,"lon":5.37787,"is_reserved":false,"is_disabled":false,"rental_uris":{"android":"levelo://app?vid=56bf0055-e112-4078-b5aa-ffa4580277bd","ios":"levelo://app?vid=56bf0055-e112-4078-b5aa-ffa4580277bd"},"vehicle_type_id":"4","last_reported":1753729948,"current_range_meters":6800,"station_id":"","pricing_plan_id":"cebpf4jnsgd1na2vs0mg"},{"bike_id":"57d2148b-4900-48dc-9253-f8ca7d2e9d8a","system_id":"levelo_inurba_marseille","lat":43.303122,"lon":5.405017,"is_reserved":false,"is_disabled":false,"rental_uris":{"android":"levelo://app?vid=57d2148b-4900-48dc-9253-f8ca7d2e9d8a","ios":"levelo://app?vid=57d2148b-4900-48dc-9253-f8ca7d2e9d8a"},"vehicle_type_id":"4","last_reported":1753729948,"current_range_meters":6800,"station_id":"","pricing_plan_id":"cebpf4jnsgd1na2vs0mg"},{"bike_id":"65e6d50a-2714-4b16-bb69-1b190817426c","system_id":"levelo_inurba_marseille","lat":43.299652,"lon":5.38498,"is_reserved":false,"is_disabled":false,"rental_uris":{"android":"levelo://app?vid=65e6d50a-2714-4b16-bb69-1b190817426c","ios":"levelo://app?vid=65e6d50a-2714-4b16-bb69-1b190817426c"},"vehicle_type_id":"4","last_reported":1753729948,"current_range_meters":6800,"station_id":"ce4bgj92rcd13ifvqbd0","pricing_plan_id":"cebpf4jnsgd1na2vs0mg"},{"bike_id":"6a984069-aaa3-498c-8986-d9ec2f206ce0","system_id":"levelo_inurba_marseille","lat":43.31166,"lon":5.38716,"is_reserved":false,"is_disabled":false,"rental_uris":{"android":"levelo://app?vid=6a984069-aaa3-498c-8986-d9ec2f206ce0","ios":"levelo://app?vid=6a984069-aaa3-498c-8986-d9ec2f206ce0"},"vehicle_type_id":"4","last_reported":1753729948,"current_range_meters":7200,"station_id":"ce4bgv12rcd13ifvqcp0","pricing_plan_id":"cebpf4jnsgd1na2vs0mg"},{"bike_id":"04461263-af40-4d20-9513-9b03c23acd65","system_id":"levelo_inurba_marseille","lat":43.29229,"lon":5.36065,"is_reserved":false,"is_disabled":false,"rental_uris":{"android":"levelo://app?vid=04461263-af40-4d20-9513-9b03c23acd65","ios":"levelo://app?vid=04461263-af40-4d20-9513-9b03c23acd65"},"vehicle_type_id":"4","last_reported":1753729948,"current_range_meters":7200,"station_id":"ce4bhbh2rcd13ifvqeqg","pricing_plan_id":"cebpf4jnsgd1na2vs0mg"},{"bike_id":"64fd8720-2ae1-44eb-a3aa-4e50e5e2f5f0","system_id":"levelo_inurba_marseille","lat":43.30873,"lon":5.39651,"is_reserved":false,"is_disabled":false,"rental_uris":{"android":"levelo://app?vid=64fd8720-2ae1-44eb-a3aa-4e50e5e2f5f0","ios":"levelo://app?vid=64fd8720-2ae1-44eb-a3aa-4e50e5e2f5f0"},"vehicle_type_id":"4","last_reported":1753729948,"current_range_meters":7200,"station_id":"ce4bh012rcd13ifvqcv0","pricing_plan_id":"cebpf4jnsgd1na2vs0mg"},{"bike_id":"463e03fe-b9b0-4212-a764-9bd6d78e3c2e","system_id":"levelo_inurba_marseille","lat":43.31014,"lon":5.38137,"is_reserved":false,"is_disabled":false,"rental_uris":{"android":"levelo://app?vid=463e03fe-b9b0-4212-a764-9bd6d78e3c2e","ios":"levelo://app?vid=463e03fe-b9b0-4212-a764-9bd6d78e3c2e"},"vehicle_type_id":"4","last_reported":1753729948,"current_range_meters":8000,"station_id":"","pricing_plan_id":"cebpf4jnsgd1na2vs0mg"},{"bike_id":"ff914294-a9ca-4746-a37b-9e050b6bd9f9","system_id":"levelo_inurba_marseille","lat":43.29309,"lon":5.37176,"is_reserved":false,"is_disabled":false,"rental_uris":{"android":"levelo://app?vid=ff914294-a9ca-4746-a37b-9e050b6bd9f9","ios":"levelo://app?vid=ff914294-a9ca-4746-a37b-9e050b6bd9f9"},"vehicle_type_id":"4","last_reported":1753729948,"current_range_meters":8000,"station_id":"ce4bgh92rcd13ifvqb40","pricing_plan_id":"cebpf4jnsgd1na2vs0mg"},{"bike_id":"561aef5f-b214-454c-8228-0b8149c00b80","system_id":"levelo_inurba_marseille","lat":43.2842,"lon":5.34984,"is_reserved":false,"is_disabled":false,"rental_uris":{"android":"levelo://app?vid=561aef5f-b214-454c-8228-0b8149c00b80","ios":"levelo://app?vid=561aef5f-b214-454c-8228-0b8149c00b80"},"vehicle_type_id":"4","last_reported":1753729948,"current_range_meters":8000,"station_id":"ce4bhbh2rcd13ifvqepg","pricing_plan_id":"cebpf4jnsgd1na2vs0mg"},{"bike_id":"84b09b33-871c-4532-9225-0bd04646fe70","system_id":"levelo_inurba_marseille","lat":43.29963,"lon":5.38498,"is_reserved":false,"is_disabled":false,"rental_uris":{"android":"levelo://app?vid=84b09b33-871c-4532-9225-0bd04646fe70","ios":"levelo://app?vid=84b09b33-871c-4532-9225-0bd04646fe70"},"vehicle_type_id":"4","last_reported":1753729948,"current_range_meters":8000,"station_id":"ce4bgj92rcd13ifvqbd0","pricing_plan_id":"cebpf4jnsgd1na2vs0mg"},{"bike_id":"f11d5c36-c7b9-4fc1-92df-c7e100615396","system_id":"levelo_inurba_marseille","lat":43.29566,"lon":5.423,"is_reserved":false,"is_disabled":false,"rental_uris":{"android":"levelo://app?vid=f11d5c36-c7b9-4fc1-92df-c7e100615396","ios":"levelo://app?vid=f11d5c36-c7b9-4fc1-92df-c7e100615396"},"vehicle_type_id":"4","last_reported":1753729948,"current_range_meters":8000,"station_id":"ce4bhph2rcd13ifvqhdg","pricing_plan_id":"cebpf4jnsgd1na2vs0mg"},{"bike_id":"da0dea9a-07a2-4249-aa7c-2489e28d40de","system_id":"levelo_inurba_marseille","lat":43.29667,"lon":5.36239,"is_reserved":false,"is_disabled":false,"rental_uris":{"android":"levelo://app?vid=da0dea9a-07a2-4249-aa7c-2489e28d40de","ios":"levelo://app?vid=da0dea9a-07a2-4249-aa7c-2489e28d40de"},"vehicle_type_id":"4","last_reported":1753729948,"current_range_meters":8400,"station_id":"","pricing_plan_id":"cebpf4jnsgd1na2vs0mg"},{"bike_id":"24e4fbdb-edb3-4f7d-8c37-f4ec34322a64","system_id":"levelo_inurba_marseille","lat":43.30896,"lon":5.37194,"is_reserved":false,"is_disabled":false,"rental_uris":{"android":"levelo://app?vid=24e4fbdb-edb3-4f7d-8c37-f4ec34322a64","ios":"levelo://app?vid=24e4fbdb-edb3-4f7d-8c37-f4ec34322a64"},"vehicle_type_id":"4","last_reported":1753729948,"current_range_meters":8400,"station_id":"ce4bguh2rcd13ifvqckg","pricing_plan_id":"cebpf4jnsgd1na2vs0mg"},{"bike_id":"488e836c-a185-4879-ba5b-d23cf279e698","system_id":"levelo_inurba_marseille","lat":43.26779,"lon":5.39418,"is_reserved":false,"is_disabled":false,"rental_uris":{"android":"levelo://app?vid=488e836c-a185-4879-ba5b-d23cf279e698","ios":"levelo://app?vid=488e836c-a185-4879-ba5b-d23cf279e698"},"vehicle_type_id":"4","last_reported":1753729948,"current_range_meters":8400,"station_id":"ce4bhh12rcd13ifvqfg0","pricing_plan_id":"cebpf4jnsgd1na2vs0mg"},{"bike_id":"c4b5428a-10ac-4bb9-8720-27b495adcad8","system_id":"levelo_inurba_marseille","lat":43.2861,"lon":5.35102,"is_reserved":false,"is_disabled":false,"rental_uris":{"android":"levelo://app?vid=c4b5428a-10ac-4bb9-8720-27b495adcad8","ios":"levelo://app?vid=c4b5428a-10ac-4bb9-8720-27b495adcad8"},"vehicle_type_id":"4","last_reported":1753729948,"current_range_meters":8400,"station_id":"ce4bhch2rcd13ifvqeug","pricing_plan_id":"cebpf4jnsgd1na2vs0mg"},{"bike_id":"bf8edf1f-eb15-4a03-afd0-c90d08b51054","system_id":"levelo_inurba_marseille","lat":43.28677,"lon":5.38675,"is_reserved":false,"is_disabled":false,"rental_uris":{"android":"levelo://app?vid=bf8edf1f-eb15-4a03-afd0-c90d08b51054","ios":"levelo://app?vid=bf8edf1f-eb15-4a03-afd0-c90d08b51054"},"vehicle_type_id":"4","last_reported":1753729948,"current_range_meters":8800,"station_id":"ce4bh492rcd13ifvqdug","pricing_plan_id":"cebpf4jnsgd1na2vs0mg"},{"bike_id":"d1ee7493-1c8a-469d-8c3c-eed7b0a6afe5","system_id":"levelo_inurba_marseille","lat":43.299683,"lon":5.386239,"is_reserved":false,"is_disabled":false,"rental_uris":{"android":"levelo://app?vid=d1ee7493-1c8a-469d-8c3c-eed7b0a6afe5","ios":"levelo://app?vid=d1ee7493-1c8a-469d-8c3c-eed7b0a6afe5"},"vehicle_type_id":"4","last_reported":1753729948,"current_range_meters":9200,"station_id":"","pricing_plan_id":"cebpf4jnsgd1na2vs0mg"},{"bike_id":"e38608e3-1a89-4b7b-9ecc-368b9eb3fe47","system_id":"levelo_inurba_marseille","lat":43.301525,"lon":5.401318,"is_reserved":false,"is_disabled":false,"rental_uris":{"android":"levelo://app?vid=e38608e3-1a89-4b7b-9ecc-368b9eb3fe47","ios":"levelo://app?vid=e38608e3-1a89-4b7b-9ecc-368b9eb3fe47"},"vehicle_type_id":"4","last_reported":1753729948,"current_range_meters":9200,"station_id":"ce4bgvh2rcd13ifvqcs0","pricing_plan_id":"cebpf4jnsgd1na2vs0mg"},{"bike_id":"bf295fbf-1f72-4e1a-a8f1-f319bb5fd736","system_id":"levelo_inurba_marseille","lat":43.29314,"lon":5.37035,"is_reserved":false,"is_disabled":false,"rental_uris":{"android":"levelo://app?vid=bf295fbf-1f72-4e1a-a8f1-f319bb5fd736","ios":"levelo://app?vid=bf295fbf-1f72-4e1a-a8f1-f319bb5fd736"},"vehicle_type_id":"4","last_reported":1753729948,"current_range_meters":9200,"station_id":"","pricing_plan_id":"cebpf4jnsgd1na2vs0mg"},{"bike_id":"e93b5b1a-31c9-4ad5-b9f2-f5b52c7aabbd","system_id":"levelo_inurba_marseille","lat":43.28152,"lon":5.42649,"is_reserved":false,"is_disabled":false,"rental_uris":{"android":"levelo://app?vid=e93b5b1a-31c9-4ad5-b9f2-f5b52c7aabbd","ios":"levelo://app?vid=e93b5b1a-31c9-4ad5-b9f2-f5b52c7aabbd"},"vehicle_type_id":"4","last_reported":1753729948,"current_range_meters":9200,"station_id":"ce4bhnh2rcd13ifvqgug","pricing_plan_id":"cebpf4jnsgd1na2vs0mg"},{"bike_id":"4f020d92-8765-4eac-adb3-6d0daf9ec32d","system_id":"levelo_inurba_marseille","lat":43.28425,"lon":5.3499,"is_reserved":false,"is_disabled":false,"rental_uris":{"android":"levelo://app?vid=4f020d92-8765-4eac-adb3-6d0daf9ec32d","ios":"levelo://app?vid=4f020d92-8765-4eac-adb3-6d0daf9ec32d"},"vehicle_type_id":"4","last_reported":1753729948,"current_range_meters":9600,"station_id":"ce4bhbh2rcd13ifvqepg","pricing_plan_id":"cebpf4jnsgd1na2vs0mg"},{"bike_id":"fb45cff3-08fa-4cc9-bf53-0d8295f6b8d1","system_id":"levelo_inurba_marseille","lat":43.2791,"lon":5.42805,"is_reserved":false,"is_disabled":false,"rental_uris":{"android":"levelo://app?vid=fb45cff3-08fa-4cc9-bf53-0d8295f6b8d1","ios":"levelo://app?vid=fb45cff3-08fa-4cc9-bf53-0d8295f6b8d1"},"vehicle_type_id":"4","last_reported":1753729948,"current_range_meters":9600,"station_id":"","pricing_plan_id":"cebpf4jnsgd1na2vs0mg"},{"bike_id":"eac438a9-250c-4f80-b97e-66e585adbfcf","system_id":"levelo_inurba_marseille","lat":43.225,"lon":5.34773,"is_reserved":false,"is_disabled":false,"rental_uris":{"android":"levelo://app?vid=eac438a9-250c-4f80-b97e-66e585adbfcf","ios":"levelo://app?vid=eac438a9-250c-4f80-b97e-66e585adbfcf"},"vehicle_type_id":"4","last_reported":1753729948,"current_range_meters":9600,"station_id":"st_cvj5dfep6f1abm77gieg","pricing_plan_id":"cebpf4jnsgd1na2vs0mg"},{"bike_id":"11ff0ea7-dcb0-4f21-9b41-143bbae49e3a","system_id":"levelo_inurba_marseille","lat":43.29529,"lon":5.38545,"is_reserved":false,"is_disabled":false,"rental_uris":{"android":"levelo://app?vid=11ff0ea7-dcb0-4f21-9b41-143bbae49e3a","ios":"levelo://app?vid=11ff0ea7-dcb0-4f21-9b41-143bbae49e3a"},"vehicle_type_id":"4","last_reported":1753729948,"current_range_meters":9600,"station_id":"ce4bgih2rcd13ifvqba0","pricing_plan_id":"cebpf4jnsgd1na2vs0mg"},{"bike_id":"3152576e-d602-4c3f-980e-717f41aed773","system_id":"levelo_inurba_marseille","lat":43.33737,"lon":5.37465,"is_reserved":false,"is_disabled":false,"rental_uris":{"android":"levelo://app?vid=3152576e-d602-4c3f-980e-717f41aed773","ios":"levelo://app?vid=3152576e-d602-4c3f-980e-717f41aed773"},"vehicle_type_id":"4","last_reported":1753729948,"current_range_meters":9600,"station_id":"","pricing_plan_id":"cebpf4jnsgd1na2vs0mg"},{"bike_id":"3d653a40-69b7-4c62-87e6-2033ac4c7835","system_id":"levelo_inurba_marseille","lat":43.29601,"lon":5.38097,"is_reserved":false,"is_disabled":false,"rental_uris":{"android":"levelo://app?vid=3d653a40-69b7-4c62-87e6-2033ac4c7835","ios":"levelo://app?vid=3d653a40-69b7-4c62-87e6-2033ac4c7835"},"vehicle_type_id":"4","last_reported":1753729948,"current_range_meters":10000,"station_id":"ce4bgl12rcd13ifvqbo0","pricing_plan_id":"cebpf4jnsgd1na2vs0mg"},{"bike_id":"dbb38c9b-6ee9-4a11-9717-0bd62d679eb2","system_id":"levelo_inurba_marseille","lat":43.260296,"lon":5.37549,"is_reserved":false,"is_disabled":false,"rental_uris":{"android":"levelo://app?vid=dbb38c9b-6ee9-4a11-9717-0bd62d679eb2","ios":"levelo://app?vid=dbb38c9b-6ee9-4a11-9717-0bd62d679eb2"},"vehicle_type_id":"4","last_reported":1753729948,"current_range_meters":10000,"station_id":"ce4bhgh2rcd13ifvqfa0","pricing_plan_id":"cebpf4jnsgd1na2vs0mg"},{"bike_id":"92995e75-acdc-4cd4-ab92-5c3564a22d5a","system_id":"levelo_inurba_marseille","lat":43.2959,"lon":5.38084,"is_reserved":false,"is_disabled":false,"rental_uris":{"android":"levelo://app?vid=92995e75-acdc-4cd4-ab92-5c3564a22d5a","ios":"levelo://app?vid=92995e75-acdc-4cd4-ab92-5c3564a22d5a"},"vehicle_type_id":"4","last_reported":1753729948,"current_range_meters":10000,"station_id":"ce4bgl12rcd13ifvqbo0","pricing_plan_id":"cebpf4jnsgd1na2vs0mg"},{"bike_id":"f078f85b-29cc-469a-b7a1-13876bebe32b","system_id":"levelo_inurba_marseille","lat":43.29605,"lon":5.36737,"is_reserved":false,"is_disabled":false,"rental_uris":{"android":"levelo://app?vid=f078f85b-29cc-469a-b7a1-13876bebe32b","ios":"levelo://app?vid=f078f85b-29cc-469a-b7a1-13876bebe32b"},"vehicle_type_id":"4","last_reported":1753729948,"current_range_meters":10000,"station_id":"ce4bgph2rcd13ifvqc2g","pricing_plan_id":"cebpf4jnsgd1na2vs0mg"},{"bike_id":"c9f358c6-3f63-4448-88e0-a96588afc829","system_id":"levelo_inurba_marseille","lat":43.28935,"lon":5.39626,"is_reserved":false,"is_disabled":false,"rental_uris":{"android":"levelo://app?vid=c9f358c6-3f63-4448-88e0-a96588afc829","ios":"levelo://app?vid=c9f358c6-3f63-4448-88e0-a96588afc829"},"vehicle_type_id":"4","last_reported":1753729948,"current_range_meters":10000,"station_id":"ce4bh3h2rcd13ifvqdn0","pricing_plan_id":"cebpf4jnsgd1na2vs0mg"},{"bike_id":"c702ad60-8eed-49db-9314-27a99b9d6103","system_id":"levelo_inurba_marseille","lat":43.27946,"lon":5.38706,"is_reserved":false,"is_disabled":false,"rental_uris":{"android":"levelo://app?vid=c702ad60-8eed-49db-9314-27a99b9d6103","ios":"levelo://app?vid=c702ad60-8eed-49db-9314-27a99b9d6103"},"vehicle_type_id":"4","last_reported":1753729948,"current_range_meters":10800,"station_id":"ce4bhg12rcd13ifvqf80","pricing_plan_id":"cebpf4jnsgd1na2vs0mg"},{"bike_id":"87a4d710-c859-4883-a056-db27db09862e","system_id":"levelo_inurba_marseille","lat":43.277585,"lon":5.355971,"is_reserved":false,"is_disabled":false,"rental_uris":{"android":"levelo://app?vid=87a4d710-c859-4883-a056-db27db09862e","ios":"levelo://app?vid=87a4d710-c859-4883-a056-db27db09862e"},"vehicle_type_id":"4","last_reported":1753729948,"current_range_meters":10800,"station_id":"","pricing_plan_id":"cebpf4jnsgd1na2vs0mg"},{"bike_id":"6973ef58-78c9-4458-bebb-10b3cfb8c46b","system_id":"levelo_inurba_marseille","lat":43.29581,"lon":5.36744,"is_reserved":false,"is_disabled":false,"rental_uris":{"android":"levelo://app?vid=6973ef58-78c9-4458-bebb-10b3cfb8c46b","ios":"levelo://app?vid=6973ef58-78c9-4458-bebb-10b3cfb8c46b"},"vehicle_type_id":"4","last_reported":1753729948,"current_range_meters":10800,"station_id":"ce4bgph2rcd13ifvqc2g","pricing_plan_id":"cebpf4jnsgd1na2vs0mg"},{"bike_id":"64f8a771-9f35-4a5f-b507-5d9eb2840faf","system_id":"levelo_inurba_marseille","lat":43.27804,"lon":5.39198,"is_reserved":false,"is_disabled":false,"rental_uris":{"android":"levelo://app?vid=64f8a771-9f35-4a5f-b507-5d9eb2840faf","ios":"levelo://app?vid=64f8a771-9f35-4a5f-b507-5d9eb2840faf"},"vehicle_type_id":"4","last_reported":1753729948,"current_range_meters":10800,"station_id":"ce4bhjp2rcd13ifvqga0","pricing_plan_id":"cebpf4jnsgd1na2vs0mg"},{"bike_id":"c3815923-44f6-4bc1-9569-4c33519a2689","system_id":"levelo_inurba_marseille","lat":43.32094,"lon":5.36775,"is_reserved":false,"is_disabled":false,"rental_uris":{"android":"levelo://app?vid=c3815923-44f6-4bc1-9569-4c33519a2689","ios":"levelo://app?vid=c3815923-44f6-4bc1-9569-4c33519a2689"},"vehicle_type_id":"4","last_reported":1753729948,"current_range_meters":10800,"station_id":"ce4bhrh2rcd13ifvqhug","pricing_plan_id":"cebpf4jnsgd1na2vs0mg"},{"bike_id":"5137e5c8-fae9-4531-85b9-df7423feb303","system_id":"levelo_inurba_marseille","lat":43.33124,"lon":5.38941,"is_reserved":false,"is_disabled":false,"rental_uris":{"android":"levelo://app?vid=5137e5c8-fae9-4531-85b9-df7423feb303","ios":"levelo://app?vid=5137e5c8-fae9-4531-85b9-df7423feb303"},"vehicle_type_id":"4","last_reported":1753729948,"current_range_meters":10800,"station_id":"","pricing_plan_id":"cebpf4jnsgd1na2vs0mg"},{"bike_id":"feb40379-0815-4a68-aadb-305942f11d04","system_id":"levelo_inurba_marseille","lat":43.24944,"lon":5.38992,"is_reserved":false,"is_disabled":false,"rental_uris":{"android":"levelo://app?vid=feb40379-0815-4a68-aadb-305942f11d04","ios":"levelo://app?vid=feb40379-0815-4a68-aadb-305942f11d04"},"vehicle_type_id":"4","last_reported":1753729948,"current_range_meters":10800,"station_id":"","pricing_plan_id":"cebpf4jnsgd1na2vs0mg"},{"bike_id":"d6cb83e2-b4a2-4552-82ff-0d01819bb76b","system_id":"levelo_inurba_marseille","lat":43.29035,"lon":5.386,"is_reserved":false,"is_disabled":false,"rental_uris":{"android":"levelo://app?vid=d6cb83e2-b4a2-4552-82ff-0d01819bb76b","ios":"levelo://app?vid=d6cb83e2-b4a2-4552-82ff-0d01819bb76b"},"vehicle_type_id":"4","last_reported":1753729948,"current_range_meters":11200,"station_id":"ce4bh4p2rcd13ifvqe0g","pricing_plan_id":"cebpf4jnsgd1na2vs0mg"},{"bike_id":"b0562e78-62b2-42dc-bb1e-2da442cdc296","system_id":"levelo_inurba_marseille","lat":43.28553,"lon":5.35132,"is_reserved":false,"is_disabled":false,"rental_uris":{"android":"levelo://app?vid=b0562e78-62b2-42dc-bb1e-2da442cdc296","ios":"levelo://app?vid=b0562e78-62b2-42dc-bb1e-2da442cdc296"},"vehicle_type_id":"4","last_reported":1753729948,"current_range_meters":11200,"station_id":"","pricing_plan_id":"cebpf4jnsgd1na2vs0mg"},{"bike_id":"22709049-0d39-445f-b228-d9eaa5759f44","system_id":"levelo_inurba_marseille","lat":43.28418,"lon":5.34986,"is_reserved":false,"is_disabled":false,"rental_uris":{"android":"levelo://app?vid=22709049-0d39-445f-b228-d9eaa5759f44","ios":"levelo://app?vid=22709049-0d39-445f-b228-d9eaa5759f44"},"vehicle_type_id":"4","last_reported":1753729948,"current_range_meters":11200,"station_id":"ce4bhbh2rcd13ifvqepg","pricing_plan_id":"cebpf4jnsgd1na2vs0mg"},{"bike_id":"b718c82c-c13f-4521-9b7e-fcc6394b6189","system_id":"levelo_inurba_marseille","lat":43.28353,"lon":5.38108,"is_reserved":false,"is_disabled":false,"rental_uris":{"android":"levelo://app?vid=b718c82c-c13f-4521-9b7e-fcc6394b6189","ios":"levelo://app?vid=b718c82c-c13f-4521-9b7e-fcc6394b6189"},"vehicle_type_id":"4","last_reported":1753729948,"current_range_meters":11200,"station_id":"ce4bh412rcd13ifvqdr0","pricing_plan_id":"cebpf4jnsgd1na2vs0mg"},{"bike_id":"2cf31370-d3b0-4cb4-bcf0-8f69a04b3bc3","system_id":"levelo_inurba_marseille","lat":43.28634,"lon":5.35063,"is_reserved":false,"is_disabled":false,"rental_uris":{"android":"levelo://app?vid=2cf31370-d3b0-4cb4-bcf0-8f69a04b3bc3","ios":"levelo://app?vid=2cf31370-d3b0-4cb4-bcf0-8f69a04b3bc3"},"vehicle_type_id":"4","last_reported":1753729948,"current_range_meters":11200,"station_id":"ce4bhch2rcd13ifvqeug","pricing_plan_id":"cebpf4jnsgd1na2vs0mg"},{"bike_id":"6fd9f2a0-6850-4205-90a2-7ab088ae5e9a","system_id":"levelo_inurba_marseille","lat":43.2893,"lon":5.36623,"is_reserved":false,"is_disabled":false,"rental_uris":{"android":"levelo://app?vid=6fd9f2a0-6850-4205-90a2-7ab088ae5e9a","ios":"levelo://app?vid=6fd9f2a0-6850-4205-90a2-7ab088ae5e9a"},"vehicle_type_id":"4","last_reported":1753729948,"current_range_meters":11600,"station_id":"ce4bhap2rcd13ifvqek0","pricing_plan_id":"cebpf4jnsgd1na2vs0mg"},{"bike_id":"0d079687-545f-4bf6-8076-1fab5fa9e33c","system_id":"levelo_inurba_marseille","lat":43.26203,"lon":5.37444,"is_reserved":false,"is_disabled":false,"rental_uris":{"android":"levelo://app?vid=0d079687-545f-4bf6-8076-1fab5fa9e33c","ios":"levelo://app?vid=0d079687-545f-4bf6-8076-1fab5fa9e33c"},"vehicle_type_id":"4","last_reported":1753729948,"current_range_meters":11600,"station_id":"ce4bhgp2rcd13ifvqfc0","pricing_plan_id":"cebpf4jnsgd1na2vs0mg"},{"bike_id":"62352c01-8fb4-4193-baea-87d4bf79c6cc","system_id":"levelo_inurba_marseille","lat":43.28465,"lon":5.35901,"is_reserved":false,"is_disabled":false,"rental_uris":{"android":"levelo://app?vid=62352c01-8fb4-4193-baea-87d4bf79c6cc","ios":"levelo://app?vid=62352c01-8fb4-4193-baea-87d4bf79c6cc"},"vehicle_type_id":"4","last_reported":1753729948,"current_range_meters":11200,"station_id":"ce4bhah2rcd13ifvqei0","pricing_plan_id":"cebpf4jnsgd1na2vs0mg"},{"bike_id":"9a53c405-7cae-4213-857e-35d22ee808a3","system_id":"levelo_inurba_marseille","lat":43.28417,"lon":5.3498,"is_reserved":false,"is_disabled":false,"rental_uris":{"android":"levelo://app?vid=9a53c405-7cae-4213-857e-35d22ee808a3","ios":"levelo://app?vid=9a53c405-7cae-4213-857e-35d22ee808a3"},"vehicle_type_id":"4","last_reported":1753729948,"current_range_meters":11600,"station_id":"ce4bhbh2rcd13ifvqepg","pricing_plan_id":"cebpf4jnsgd1na2vs0mg"},{"bike_id":"c490285a-ad86-41e9-a650-bc7838a33af4","system_id":"levelo_inurba_marseille","lat":43.23053,"lon":5.3549,"is_reserved":false,"is_disabled":false,"rental_uris":{"android":"levelo://app?vid=c490285a-ad86-41e9-a650-bc7838a33af4","ios":"levelo://app?vid=c490285a-ad86-41e9-a650-bc7838a33af4"},"vehicle_type_id":"4","last_reported":1753729948,"current_range_meters":11600,"station_id":"cpo3342slgdg3j2ifvpg","pricing_plan_id":"cebpf4jnsgd1na2vs0mg"},{"bike_id":"8e37ef79-bd01-46c2-9d9e-3d3f7741a07a","system_id":"levelo_inurba_marseille","lat":43.297302,"lon":5.374166,"is_reserved":false,"is_disabled":false,"rental_uris":{"android":"levelo://app?vid=8e37ef79-bd01-46c2-9d9e-3d3f7741a07a","ios":"levelo://app?vid=8e37ef79-bd01-46c2-9d9e-3d3f7741a07a"},"vehicle_type_id":"4","last_reported":1753729948,"current_range_meters":11600,"station_id":"","pricing_plan_id":"cebpf4jnsgd1na2vs0mg"},{"bike_id":"9514fa58-9fdd-4b3a-9360-6b53e6b97010","system_id":"levelo_inurba_marseille","lat":43.27998,"lon":5.41663,"is_reserved":false,"is_disabled":false,"rental_uris":{"android":"levelo://app?vid=9514fa58-9fdd-4b3a-9360-6b53e6b97010","ios":"levelo://app?vid=9514fa58-9fdd-4b3a-9360-6b53e6b97010"},"vehicle_type_id":"4","last_reported":1753729948,"current_range_meters":11600,"station_id":"ce4bho12rcd13ifvqh1g","pricing_plan_id":"cebpf4jnsgd1na2vs0mg"},{"bike_id":"7bbabe21-41fb-474d-b751-cfd2cc7ea973","system_id":"levelo_inurba_marseille","lat":43.26082,"lon":5.39376,"is_reserved":false,"is_disabled":false,"rental_uris":{"android":"levelo://app?vid=7bbabe21-41fb-474d-b751-cfd2cc7ea973","ios":"levelo://app?vid=7bbabe21-41fb-474d-b751-cfd2cc7ea973"},"vehicle_type_id":"4","last_reported":1753729948,"current_range_meters":11600,"station_id":"ce4bhh92rcd13ifvqfj0","pricing_plan_id":"cebpf4jnsgd1na2vs0mg"},{"bike_id":"3efe99ad-0b45-4c18-92ca-96f6cb43a670","system_id":"levelo_inurba_marseille","lat":43.32363,"lon":5.36738,"is_reserved":false,"is_disabled":true,"rental_uris":{"android":"levelo://app?vid=3efe99ad-0b45-4c18-92ca-96f6cb43a670","ios":"levelo://app?vid=3efe99ad-0b45-4c18-92ca-96f6cb43a670"},"vehicle_type_id":"4","last_reported":1753729948,"current_range_meters":11600,"station_id":"ce4bhsh2rcd13ifvqi2g","pricing_plan_id":"cebpf4jnsgd1na2vs0mg"},{"bike_id":"28a46342-4835-4ef4-a561-63d01bab106c","system_id":"levelo_inurba_marseille","lat":43.28618,"lon":5.35105,"is_reserved":false,"is_disabled":false,"rental_uris":{"android":"levelo://app?vid=28a46342-4835-4ef4-a561-63d01bab106c","ios":"levelo://app?vid=28a46342-4835-4ef4-a561-63d01bab106c"},"vehicle_type_id":"4","last_reported":1753729948,"current_range_meters":11600,"station_id":"ce4bhch2rcd13ifvqeug","pricing_plan_id":"cebpf4jnsgd1na2vs0mg"},{"bike_id":"c85546d4-3ea8-44da-9c2d-e6b7bf575831","system_id":"levelo_inurba_marseille","lat":43.28421,"lon":5.35008,"is_reserved":false,"is_disabled":false,"rental_uris":{"android":"levelo://app?vid=c85546d4-3ea8-44da-9c2d-e6b7bf575831","ios":"levelo://app?vid=c85546d4-3ea8-44da-9c2d-e6b7bf575831"},"vehicle_type_id":"4","last_reported":1753729948,"current_range_meters":11600,"station_id":"ce4bhbh2rcd13ifvqepg","pricing_plan_id":"cebpf4jnsgd1na2vs0mg"},{"bike_id":"ba19fae0-44ee-437f-913a-8c915df8c368","system_id":"levelo_inurba_marseille","lat":43.28412,"lon":5.34975,"is_reserved":false,"is_disabled":false,"rental_uris":{"android":"levelo://app?vid=ba19fae0-44ee-437f-913a-8c915df8c368","ios":"levelo://app?vid=ba19fae0-44ee-437f-913a-8c915df8c368"},"vehicle_type_id":"4","last_reported":1753729948,"current_range_meters":11600,"station_id":"ce4bhbh2rcd13ifvqepg","pricing_plan_id":"cebpf4jnsgd1na2vs0mg"},{"bike_id":"0710cc23-964c-41f9-b259-8bd1211f7d6e","system_id":"levelo_inurba_marseille","lat":43.28498,"lon":5.35208,"is_reserved":false,"is_disabled":false,"rental_uris":{"android":"levelo://app?vid=0710cc23-964c-41f9-b259-8bd1211f7d6e","ios":"levelo://app?vid=0710cc23-964c-41f9-b259-8bd1211f7d6e"},"vehicle_type_id":"4","last_reported":1753729948,"current_range_meters":12000,"station_id":"","pricing_plan_id":"cebpf4jnsgd1na2vs0mg"},{"bike_id":"8aa18e66-280a-4f01-b345-0fe49bf1c71a","system_id":"levelo_inurba_marseille","lat":43.28673,"lon":5.36336,"is_reserved":false,"is_disabled":false,"rental_uris":{"android":"levelo://app?vid=8aa18e66-280a-4f01-b345-0fe49bf1c71a","ios":"levelo://app?vid=8aa18e66-280a-4f01-b345-0fe49bf1c71a"},"vehicle_type_id":"4","last_reported":1753729948,"current_range_meters":12000,"station_id":"ce4bhah2rcd13ifvqej0","pricing_plan_id":"cebpf4jnsgd1na2vs0mg"},{"bike_id":"5a3d5c19-c10f-4e83-aed3-bc03bdf5166b","system_id":"levelo_inurba_marseille","lat":43.29222,"lon":5.36064,"is_reserved":false,"is_disabled":false,"rental_uris":{"android":"levelo://app?vid=5a3d5c19-c10f-4e83-aed3-bc03bdf5166b","ios":"levelo://app?vid=5a3d5c19-c10f-4e83-aed3-bc03bdf5166b"},"vehicle_type_id":"4","last_reported":1753729948,"current_range_meters":12000,"station_id":"ce4bhbh2rcd13ifvqeqg","pricing_plan_id":"cebpf4jnsgd1na2vs0mg"},{"bike_id":"3d7bd2df-1620-4d2f-8a21-1ea51448f90e","system_id":"levelo_inurba_marseille","lat":43.28619,"lon":5.3511,"is_reserved":false,"is_disabled":false,"rental_uris":{"android":"levelo://app?vid=3d7bd2df-1620-4d2f-8a21-1ea51448f90e","ios":"levelo://app?vid=3d7bd2df-1620-4d2f-8a21-1ea51448f90e"},"vehicle_type_id":"4","last_reported":1753729948,"current_range_meters":12000,"station_id":"ce4bhch2rcd13ifvqeug","pricing_plan_id":"cebpf4jnsgd1na2vs0mg"},{"bike_id":"775a819b-09ff-4836-83e4-9dbbc0df3a81","system_id":"levelo_inurba_marseille","lat":43.29795,"lon":5.3809,"is_reserved":false,"is_disabled":false,"rental_uris":{"android":"levelo://app?vid=775a819b-09ff-4836-83e4-9dbbc0df3a81","ios":"levelo://app?vid=775a819b-09ff-4836-83e4-9dbbc0df3a81"},"vehicle_type_id":"4","last_reported":1753729948,"current_range_meters":12000,"station_id":"ce4bgip2rcd13ifvqbb0","pricing_plan_id":"cebpf4jnsgd1na2vs0mg"},{"bike_id":"467035e7-1dac-427b-869f-c900d457faf0","system_id":"levelo_inurba_marseille","lat":43.29265,"lon":5.38448,"is_reserved":false,"is_disabled":false,"rental_uris":{"android":"levelo://app?vid=467035e7-1dac-427b-869f-c900d457faf0","ios":"levelo://app?vid=467035e7-1dac-427b-869f-c900d457faf0"},"vehicle_type_id":"4","last_reported":1753729948,"current_range_meters":12000,"station_id":"ce4bh692rcd13ifvqea0","pricing_plan_id":"cebpf4jnsgd1na2vs0mg"},{"bike_id":"95dd70e4-879c-49e7-b318-a6c71b22a43e","system_id":"levelo_inurba_marseille","lat":43.2703,"lon":5.39295,"is_reserved":false,"is_disabled":false,"rental_uris":{"android":"levelo://app?vid=95dd70e4-879c-49e7-b318-a6c71b22a43e","ios":"levelo://app?vid=95dd70e4-879c-49e7-b318-a6c71b22a43e"},"vehicle_type_id":"4","last_reported":1753729948,"current_range_meters":12000,"station_id":"","pricing_plan_id":"cebpf4jnsgd1na2vs0mg"},{"bike_id":"033daf27-4a13-4a3f-8af0-ba01e18c00f4","system_id":"levelo_inurba_marseille","lat":43.30309,"lon":5.39212,"is_reserved":false,"is_disabled":false,"rental_uris":{"android":"levelo://app?vid=033daf27-4a13-4a3f-8af0-ba01e18c00f4","ios":"levelo://app?vid=033daf27-4a13-4a3f-8af0-ba01e18c00f4"},"vehicle_type_id":"4","last_reported":1753729948,"current_range_meters":12000,"station_id":"ce4bgkh2rcd13ifvqbk0","pricing_plan_id":"cebpf4jnsgd1na2vs0mg"},{"bike_id":"65e3db07-f188-422b-b687-3d06cfe2bcf8","system_id":"levelo_inurba_marseille","lat":43.28057,"lon":5.34999,"is_reserved":false,"is_disabled":false,"rental_uris":{"android":"levelo://app?vid=65e3db07-f188-422b-b687-3d06cfe2bcf8","ios":"levelo://app?vid=65e3db07-f188-422b-b687-3d06cfe2bcf8"},"vehicle_type_id":"4","last_reported":1753729948,"current_range_meters":12000,"station_id":"","pricing_plan_id":"cebpf4jnsgd1na2vs0mg"},{"bike_id":"84036e62-78c0-42e9-a5c2-ad3d3703bc8c","system_id":"levelo_inurba_marseille","lat":43.27954,"lon":5.41038,"is_reserved":false,"is_disabled":true,"rental_uris":{"android":"levelo://app?vid=84036e62-78c0-42e9-a5c2-ad3d3703bc8c","ios":"levelo://app?vid=84036e62-78c0-42e9-a5c2-ad3d3703bc8c"},"vehicle_type_id":"4","last_reported":1753729948,"current_range_meters":12000,"station_id":"ce4bhnp2rcd13ifvqh0g","pricing_plan_id":"cebpf4jnsgd1na2vs0mg"},{"bike_id":"da8a121b-dd93-4a31-8254-38a795a66238","system_id":"levelo_inurba_marseille","lat":43.24061,"lon":5.37749,"is_reserved":false,"is_disabled":false,"rental_uris":{"android":"levelo://app?vid=da8a121b-dd93-4a31-8254-38a795a66238","ios":"levelo://app?vid=da8a121b-dd93-4a31-8254-38a795a66238"},"vehicle_type_id":"4","last_reported":1753729948,"current_range_meters":12000,"station_id":"ce4bhnp2rcd13ifvqgvg","pricing_plan_id":"cebpf4jnsgd1na2vs0mg"},{"bike_id":"a60cfa8f-4852-4dbe-8636-c427ddb59196","system_id":"levelo_inurba_marseille","lat":43.29575,"lon":5.36737,"is_reserved":false,"is_disabled":false,"rental_uris":{"android":"levelo://app?vid=a60cfa8f-4852-4dbe-8636-c427ddb59196","ios":"levelo://app?vid=a60cfa8f-4852-4dbe-8636-c427ddb59196"},"vehicle_type_id":"4","last_reported":1753729948,"current_range_meters":12000,"station_id":"ce4bgph2rcd13ifvqc2g","pricing_plan_id":"cebpf4jnsgd1na2vs0mg"},{"bike_id":"149fbe11-3bce-47a0-b584-c7c7bd6bb12f","system_id":"levelo_inurba_marseille","lat":43.21642,"lon":5.34461,"is_reserved":false,"is_disabled":false,"rental_uris":{"android":"levelo://app?vid=149fbe11-3bce-47a0-b584-c7c7bd6bb12f","ios":"levelo://app?vid=149fbe11-3bce-47a0-b584-c7c7bd6bb12f"},"vehicle_type_id":"4","last_reported":1753729948,"current_range_meters":12000,"station_id":"","pricing_plan_id":"cebpf4jnsgd1na2vs0mg"},{"bike_id":"209c73e6-1f69-4d13-9fed-77cb46eecd05","system_id":"levelo_inurba_marseille","lat":43.34681,"lon":5.38065,"is_reserved":false,"is_disabled":false,"rental_uris":{"android":"levelo://app?vid=209c73e6-1f69-4d13-9fed-77cb46eecd05","ios":"levelo://app?vid=209c73e6-1f69-4d13-9fed-77cb46eecd05"},"vehicle_type_id":"4","last_reported":1753729948,"current_range_meters":12000,"station_id":"","pricing_plan_id":"cebpf4jnsgd1na2vs0mg"},{"bike_id":"465af1c6-94fa-401b-ad2c-153493985e44","system_id":"levelo_inurba_marseille","lat":43.31708,"lon":5.37797,"is_reserved":false,"is_disabled":false,"rental_uris":{"android":"levelo://app?vid=465af1c6-94fa-401b-ad2c-153493985e44","ios":"levelo://app?vid=465af1c6-94fa-401b-ad2c-153493985e44"},"vehicle_type_id":"4","last_reported":1753729948,"current_range_meters":12000,"station_id":"ce4bgth2rcd13ifvqch0","pricing_plan_id":"cebpf4jnsgd1na2vs0mg"},{"bike_id":"9a2e7068-1d81-4b50-8a83-2fef61dc2770","system_id":"levelo_inurba_marseille","lat":43.30587,"lon":5.39354,"is_reserved":false,"is_disabled":false,"rental_uris":{"android":"levelo://app?vid=9a2e7068-1d81-4b50-8a83-2fef61dc2770","ios":"levelo://app?vid=9a2e7068-1d81-4b50-8a83-2fef61dc2770"},"vehicle_type_id":"4","last_reported":1753729948,"current_range_meters":12000,"station_id":"ce4bh0p2rcd13ifvqd80","pricing_plan_id":"cebpf4jnsgd1na2vs0mg"},{"bike_id":"d68f005b-a113-40ab-b864-ae13d182dcb7","system_id":"levelo_inurba_marseille","lat":43.31357,"lon":5.38493,"is_reserved":false,"is_disabled":false,"rental_uris":{"android":"levelo://app?vid=d68f005b-a113-40ab-b864-ae13d182dcb7","ios":"levelo://app?vid=d68f005b-a113-40ab-b864-ae13d182dcb7"},"vehicle_type_id":"4","last_reported":1753729948,"current_range_meters":12400,"station_id":"ce4bgt92rcd13ifvqcf0","pricing_plan_id":"cebpf4jnsgd1na2vs0mg"},{"bike_id":"108b3875-9677-473a-96fe-c1ecf75f4b39","system_id":"levelo_inurba_marseille","lat":43.25725,"lon":5.41131,"is_reserved":false,"is_disabled":false,"rental_uris":{"android":"levelo://app?vid=108b3875-9677-473a-96fe-c1ecf75f4b39","ios":"levelo://app?vid=108b3875-9677-473a-96fe-c1ecf75f4b39"},"vehicle_type_id":"4","last_reported":1753729948,"current_range_meters":12400,"station_id":"ce4bhkp2rcd13ifvqgd0","pricing_plan_id":"cebpf4jnsgd1na2vs0mg"},{"bike_id":"d2fb7974-d83c-4e24-a23e-ecbcf0165bf4","system_id":"levelo_inurba_marseille","lat":43.29596,"lon":5.38102,"is_reserved":false,"is_disabled":false,"rental_uris":{"android":"levelo://app?vid=d2fb7974-d83c-4e24-a23e-ecbcf0165bf4","ios":"levelo://app?vid=d2fb7974-d83c-4e24-a23e-ecbcf0165bf4"},"vehicle_type_id":"4","last_reported":1753729948,"current_range_meters":12400,"station_id":"ce4bgl12rcd13ifvqbo0","pricing_plan_id":"cebpf4jnsgd1na2vs0mg"},{"bike_id":"09773cbf-3729-4177-aded-49eef1b02f4a","system_id":"levelo_inurba_marseille","lat":43.32486,"lon":5.36555,"is_reserved":false,"is_disabled":false,"rental_uris":{"android":"levelo://app?vid=09773cbf-3729-4177-aded-49eef1b02f4a","ios":"levelo://app?vid=09773cbf-3729-4177-aded-49eef1b02f4a"},"vehicle_type_id":"4","last_reported":1753729948,"current_range_meters":12400,"station_id":"ce4bhs12rcd13ifvqhvg","pricing_plan_id":"cebpf4jnsgd1na2vs0mg"},{"bike_id":"ca425fb8-69b4-4a55-9c4c-4e9feb648469","system_id":"levelo_inurba_marseille","lat":43.31997,"lon":5.38173,"is_reserved":false,"is_disabled":false,"rental_uris":{"android":"levelo://app?vid=ca425fb8-69b4-4a55-9c4c-4e9feb648469","ios":"levelo://app?vid=ca425fb8-69b4-4a55-9c4c-4e9feb648469"},"vehicle_type_id":"4","last_reported":1753729948,"current_range_meters":12400,"station_id":"ce4bhr12rcd13ifvqhpg","pricing_plan_id":"cebpf4jnsgd1na2vs0mg"},{"bike_id":"4a769e3b-29bf-451a-9f2c-2df91ce8f0bb","system_id":"levelo_inurba_marseille","lat":43.28602,"lon":5.37069,"is_reserved":false,"is_disabled":false,"rental_uris":{"android":"levelo://app?vid=4a769e3b-29bf-451a-9f2c-2df91ce8f0bb","ios":"levelo://app?vid=4a769e3b-29bf-451a-9f2c-2df91ce8f0bb"},"vehicle_type_id":"4","last_reported":1753729948,"current_range_meters":12400,"station_id":"ce4bht12rcd13ifvqi60","pricing_plan_id":"cebpf4jnsgd1na2vs0mg"},{"bike_id":"e6a2e5ba-3aeb-4cab-8dd2-a8e17c148d1b","system_id":"levelo_inurba_marseille","lat":43.29982,"lon":5.38513,"is_reserved":false,"is_disabled":false,"rental_uris":{"android":"levelo://app?vid=e6a2e5ba-3aeb-4cab-8dd2-a8e17c148d1b","ios":"levelo://app?vid=e6a2e5ba-3aeb-4cab-8dd2-a8e17c148d1b"},"vehicle_type_id":"4","last_reported":1753729948,"current_range_meters":12400,"station_id":"ce4bgj92rcd13ifvqbd0","pricing_plan_id":"cebpf4jnsgd1na2vs0mg"},{"bike_id":"8156ba1c-79d1-400d-96a0-33669bb7caeb","system_id":"levelo_inurba_marseille","lat":43.32608,"lon":5.41135,"is_reserved":false,"is_disabled":false,"rental_uris":{"android":"levelo://app?vid=8156ba1c-79d1-400d-96a0-33669bb7caeb","ios":"levelo://app?vid=8156ba1c-79d1-400d-96a0-33669bb7caeb"},"vehicle_type_id":"4","last_reported":1753729948,"current_range_meters":12400,"station_id":"","pricing_plan_id":"cebpf4jnsgd1na2vs0mg"},{"bike_id":"6b1b7aef-4f90-4e2b-86b6-14ccc7f2c376","system_id":"levelo_inurba_marseille","lat":43.27941,"lon":5.41047,"is_reserved":false,"is_disabled":false,"rental_uris":{"android":"levelo://app?vid=6b1b7aef-4f90-4e2b-86b6-14ccc7f2c376","ios":"levelo://app?vid=6b1b7aef-4f90-4e2b-86b6-14ccc7f2c376"},"vehicle_type_id":"4","last_reported":1753729948,"current_range_meters":12400,"station_id":"ce4bhnp2rcd13ifvqh0g","pricing_plan_id":"cebpf4jnsgd1na2vs0mg"},{"bike_id":"395819e8-b8aa-481e-8b1c-4b068e8dd3f3","system_id":"levelo_inurba_marseille","lat":43.29255,"lon":5.38452,"is_reserved":false,"is_disabled":false,"rental_uris":{"android":"levelo://app?vid=395819e8-b8aa-481e-8b1c-4b068e8dd3f3","ios":"levelo://app?vid=395819e8-b8aa-481e-8b1c-4b068e8dd3f3"},"vehicle_type_id":"4","last_reported":1753729948,"current_range_meters":12800,"station_id":"ce4bh692rcd13ifvqea0","pricing_plan_id":"cebpf4jnsgd1na2vs0mg"},{"bike_id":"3dd2b2f9-64bc-4f1c-ad06-386f2ab19894","system_id":"levelo_inurba_marseille","lat":43.29742,"lon":5.36434,"is_reserved":false,"is_disabled":false,"rental_uris":{"android":"levelo://app?vid=3dd2b2f9-64bc-4f1c-ad06-386f2ab19894","ios":"levelo://app?vid=3dd2b2f9-64bc-4f1c-ad06-386f2ab19894"},"vehicle_type_id":"4","last_reported":1753729948,"current_range_meters":12800,"station_id":"","pricing_plan_id":"cebpf4jnsgd1na2vs0mg"},{"bike_id":"ce0c42fe-f62e-4943-8979-97f7b10d3e23","system_id":"levelo_inurba_marseille","lat":43.32654,"lon":5.40998,"is_reserved":false,"is_disabled":false,"rental_uris":{"android":"levelo://app?vid=ce0c42fe-f62e-4943-8979-97f7b10d3e23","ios":"levelo://app?vid=ce0c42fe-f62e-4943-8979-97f7b10d3e23"},"vehicle_type_id":"4","last_reported":1753729948,"current_range_meters":12800,"station_id":"ce4bhpp2rcd13ifvqhgg","pricing_plan_id":"cebpf4jnsgd1na2vs0mg"},{"bike_id":"3179abad-e0fe-4492-a29d-de7e91426623","system_id":"levelo_inurba_marseille","lat":43.2828,"lon":5.35068,"is_reserved":false,"is_disabled":true,"rental_uris":{"android":"levelo://app?vid=3179abad-e0fe-4492-a29d-de7e91426623","ios":"levelo://app?vid=3179abad-e0fe-4492-a29d-de7e91426623"},"vehicle_type_id":"4","last_reported":1753729948,"current_range_meters":12800,"station_id":"ce4bhbp2rcd13ifvqerg","pricing_plan_id":"cebpf4jnsgd1na2vs0mg"},{"bike_id":"724e9319-d1a3-4312-928c-e404fc7f9b9f","system_id":"levelo_inurba_marseille","lat":43.293,"lon":5.37455,"is_reserved":false,"is_disabled":false,"rental_uris":{"android":"levelo://app?vid=724e9319-d1a3-4312-928c-e404fc7f9b9f","ios":"levelo://app?vid=724e9319-d1a3-4312-928c-e404fc7f9b9f"},"vehicle_type_id":"4","last_reported":1753729948,"current_range_meters":13600,"station_id":"ce4bgi12rcd13ifvqb70","pricing_plan_id":"cebpf4jnsgd1na2vs0mg"},{"bike_id":"978af847-6d99-4854-a15b-46de05aa92a8","system_id":"levelo_inurba_marseille","lat":43.30302,"lon":5.39215,"is_reserved":false,"is_disabled":false,"rental_uris":{"android":"levelo://app?vid=978af847-6d99-4854-a15b-46de05aa92a8","ios":"levelo://app?vid=978af847-6d99-4854-a15b-46de05aa92a8"},"vehicle_type_id":"4","last_reported":1753729948,"current_range_meters":13600,"station_id":"ce4bgkh2rcd13ifvqbk0","pricing_plan_id":"cebpf4jnsgd1na2vs0mg"},{"bike_id":"c5d6c16c-667e-4c61-9e09-b5efae6e86bc","system_id":"levelo_inurba_marseille","lat":43.299133,"lon":5.436695,"is_reserved":false,"is_disabled":false,"rental_uris":{"android":"levelo://app?vid=c5d6c16c-667e-4c61-9e09-b5efae6e86bc","ios":"levelo://app?vid=c5d6c16c-667e-4c61-9e09-b5efae6e86bc"},"vehicle_type_id":"4","last_reported":1753729948,"current_range_meters":13600,"station_id":"ce4bhpp2rcd13ifvqhfg","pricing_plan_id":"cebpf4jnsgd1na2vs0mg"},{"bike_id":"d7b9ec22-3872-4294-b5ba-8b389cc8d421","system_id":"levelo_inurba_marseille","lat":43.292,"lon":5.35808,"is_reserved":false,"is_disabled":false,"rental_uris":{"android":"levelo://app?vid=d7b9ec22-3872-4294-b5ba-8b389cc8d421","ios":"levelo://app?vid=d7b9ec22-3872-4294-b5ba-8b389cc8d421"},"vehicle_type_id":"4","last_reported":1753729948,"current_range_meters":13600,"station_id":"ce4bhb12rcd13ifvqel0","pricing_plan_id":"cebpf4jnsgd1na2vs0mg"},{"bike_id":"aafba76e-3da3-4ebb-9332-0bac111897c0","system_id":"levelo_inurba_marseille","lat":43.229227,"lon":5.353729,"is_reserved":false,"is_disabled":false,"rental_uris":{"android":"levelo://app?vid=aafba76e-3da3-4ebb-9332-0bac111897c0","ios":"levelo://app?vid=aafba76e-3da3-4ebb-9332-0bac111897c0"},"vehicle_type_id":"4","last_reported":1753729948,"current_range_meters":13600,"station_id":"cpo3532slgdg3j2ikp40","pricing_plan_id":"cebpf4jnsgd1na2vs0mg"},{"bike_id":"947cf9dd-0905-42a3-aafb-8e1c05b7ea7a","system_id":"levelo_inurba_marseille","lat":43.30716,"lon":5.38424,"is_reserved":false,"is_disabled":false,"rental_uris":{"android":"levelo://app?vid=947cf9dd-0905-42a3-aafb-8e1c05b7ea7a","ios":"levelo://app?vid=947cf9dd-0905-42a3-aafb-8e1c05b7ea7a"},"vehicle_type_id":"4","last_reported":1753729948,"current_range_meters":13600,"station_id":"","pricing_plan_id":"cebpf4jnsgd1na2vs0mg"},{"bike_id":"882bdff1-651a-41c1-9ab0-596f43205cf1","system_id":"levelo_inurba_marseille","lat":43.337444,"lon":5.374475,"is_reserved":false,"is_disabled":false,"rental_uris":{"android":"levelo://app?vid=882bdff1-651a-41c1-9ab0-596f43205cf1","ios":"levelo://app?vid=882bdff1-651a-41c1-9ab0-596f43205cf1"},"vehicle_type_id":"4","last_reported":1753729948,"current_range_meters":14000,"station_id":"ce4bgkp2rcd13ifvqbmg","pricing_plan_id":"cebpf4jnsgd1na2vs0mg"},{"bike_id":"d2394e52-d319-4cdd-8b10-8bfe8e582b21","system_id":"levelo_inurba_marseille","lat":43.29971,"lon":5.38495,"is_reserved":false,"is_disabled":false,"rental_uris":{"android":"levelo://app?vid=d2394e52-d319-4cdd-8b10-8bfe8e582b21","ios":"levelo://app?vid=d2394e52-d319-4cdd-8b10-8bfe8e582b21"},"vehicle_type_id":"4","last_reported":1753729948,"current_range_meters":14000,"station_id":"ce4bgj92rcd13ifvqbd0","pricing_plan_id":"cebpf4jnsgd1na2vs0mg"},{"bike_id":"7dd1a394-ac3b-45ae-8f59-195d372bf63b","system_id":"levelo_inurba_marseille","lat":43.30099,"lon":5.38056,"is_reserved":false,"is_disabled":true,"rental_uris":{"android":"levelo://app?vid=7dd1a394-ac3b-45ae-8f59-195d372bf63b","ios":"levelo://app?vid=7dd1a394-ac3b-45ae-8f59-195d372bf63b"},"vehicle_type_id":"4","last_reported":1753729948,"current_range_meters":14000,"station_id":"","pricing_plan_id":"cebpf4jnsgd1na2vs0mg"},{"bike_id":"2e5375f8-08a7-487f-817d-77abeddc7343","system_id":"levelo_inurba_marseille","lat":43.29171,"lon":5.37154,"is_reserved":false,"is_disabled":false,"rental_uris":{"android":"levelo://app?vid=2e5375f8-08a7-487f-817d-77abeddc7343","ios":"levelo://app?vid=2e5375f8-08a7-487f-817d-77abeddc7343"},"vehicle_type_id":"4","last_reported":1753729948,"current_range_meters":14000,"station_id":"ce4bha92rcd13ifvqeh0","pricing_plan_id":"cebpf4jnsgd1na2vs0mg"},{"bike_id":"a1b97484-32f0-47ed-8a3b-b44c9a0d45d8","system_id":"levelo_inurba_marseille","lat":43.2978,"lon":5.39335,"is_reserved":false,"is_disabled":false,"rental_uris":{"android":"levelo://app?vid=a1b97484-32f0-47ed-8a3b-b44c9a0d45d8","ios":"levelo://app?vid=a1b97484-32f0-47ed-8a3b-b44c9a0d45d8"},"vehicle_type_id":"4","last_reported":1753729948,"current_range_meters":14000,"station_id":"chh1huq6cuj3fo74tm60","pricing_plan_id":"cebpf4jnsgd1na2vs0mg"},{"bike_id":"2a3a9f20-00d1-4c95-a093-ba8e28724bc0","system_id":"levelo_inurba_marseille","lat":43.30642,"lon":5.37585,"is_reserved":false,"is_disabled":false,"rental_uris":{"android":"levelo://app?vid=2a3a9f20-00d1-4c95-a093-ba8e28724bc0","ios":"levelo://app?vid=2a3a9f20-00d1-4c95-a093-ba8e28724bc0"},"vehicle_type_id":"4","last_reported":1753729948,"current_range_meters":14400,"station_id":"","pricing_plan_id":"cebpf4jnsgd1na2vs0mg"},{"bike_id":"c13ce413-660f-4ff8-9547-d17d0704485e","system_id":"levelo_inurba_marseille","lat":43.21153,"lon":5.35086,"is_reserved":false,"is_disabled":false,"rental_uris":{"android":"levelo://app?vid=c13ce413-660f-4ff8-9547-d17d0704485e","ios":"levelo://app?vid=c13ce413-660f-4ff8-9547-d17d0704485e"},"vehicle_type_id":"4","last_reported":1753729948,"current_range_meters":14400,"station_id":"","pricing_plan_id":"cebpf4jnsgd1na2vs0mg"},{"bike_id":"a9825f87-f223-4367-b468-ecf662eae7ce","system_id":"levelo_inurba_marseille","lat":43.29196,"lon":5.3579,"is_reserved":false,"is_disabled":false,"rental_uris":{"android":"levelo://app?vid=a9825f87-f223-4367-b468-ecf662eae7ce","ios":"levelo://app?vid=a9825f87-f223-4367-b468-ecf662eae7ce"},"vehicle_type_id":"4","last_reported":1753729948,"current_range_meters":14400,"station_id":"ce4bhb12rcd13ifvqel0","pricing_plan_id":"cebpf4jnsgd1na2vs0mg"},{"bike_id":"74f39557-f7a9-44ac-999f-87f3652a57ba","system_id":"levelo_inurba_marseille","lat":43.30921,"lon":5.36778,"is_reserved":false,"is_disabled":false,"rental_uris":{"android":"levelo://app?vid=74f39557-f7a9-44ac-999f-87f3652a57ba","ios":"levelo://app?vid=74f39557-f7a9-44ac-999f-87f3652a57ba"},"vehicle_type_id":"4","last_reported":1753729948,"current_range_meters":14400,"station_id":"ce4bgn92rcd13ifvqbvg","pricing_plan_id":"cebpf4jnsgd1na2vs0mg"},{"bike_id":"d4b0442d-37e3-4887-8827-87b59f4e9086","system_id":"levelo_inurba_marseille","lat":43.2977,"lon":5.38108,"is_reserved":false,"is_disabled":false,"rental_uris":{"android":"levelo://app?vid=d4b0442d-37e3-4887-8827-87b59f4e9086","ios":"levelo://app?vid=d4b0442d-37e3-4887-8827-87b59f4e9086"},"vehicle_type_id":"4","last_reported":1753729948,"current_range_meters":14400,"station_id":"","pricing_plan_id":"cebpf4jnsgd1na2vs0mg"},{"bike_id":"a0757552-cef1-4156-a44e-da8e0ad06a62","system_id":"levelo_inurba_marseille","lat":43.22931,"lon":5.35375,"is_reserved":false,"is_disabled":false,"rental_uris":{"android":"levelo://app?vid=a0757552-cef1-4156-a44e-da8e0ad06a62","ios":"levelo://app?vid=a0757552-cef1-4156-a44e-da8e0ad06a62"},"vehicle_type_id":"4","last_reported":1753729948,"current_range_meters":14400,"station_id":"","pricing_plan_id":"cebpf4jnsgd1na2vs0mg"},{"bike_id":"2fff0963-a9c2-4145-b00f-e7e3f781128c","system_id":"levelo_inurba_marseille","lat":43.30318,"lon":5.40435,"is_reserved":false,"is_disabled":false,"rental_uris":{"android":"levelo://app?vid=2fff0963-a9c2-4145-b00f-e7e3f781128c","ios":"levelo://app?vid=2fff0963-a9c2-4145-b00f-e7e3f781128c"},"vehicle_type_id":"4","last_reported":1753729948,"current_range_meters":14400,"station_id":"ce4bh012rcd13ifvqd10","pricing_plan_id":"cebpf4jnsgd1na2vs0mg"},{"bike_id":"f3a966e2-19dd-49de-b6c1-723e730f338c","system_id":"levelo_inurba_marseille","lat":43.28937,"lon":5.36636,"is_reserved":false,"is_disabled":false,"rental_uris":{"android":"levelo://app?vid=f3a966e2-19dd-49de-b6c1-723e730f338c","ios":"levelo://app?vid=f3a966e2-19dd-49de-b6c1-723e730f338c"},"vehicle_type_id":"4","last_reported":1753729948,"current_range_meters":14400,"station_id":"ce4bhap2rcd13ifvqek0","pricing_plan_id":"cebpf4jnsgd1na2vs0mg"},{"bike_id":"f297ecb0-f504-4ce2-a698-235b8f25b26b","system_id":"levelo_inurba_marseille","lat":43.2416,"lon":5.36395,"is_reserved":false,"is_disabled":false,"rental_uris":{"android":"levelo://app?vid=f297ecb0-f504-4ce2-a698-235b8f25b26b","ios":"levelo://app?vid=f297ecb0-f504-4ce2-a698-235b8f25b26b"},"vehicle_type_id":"4","last_reported":1753729948,"current_range_meters":14400,"station_id":"cpo36qri1sfpv3e86is0","pricing_plan_id":"cebpf4jnsgd1na2vs0mg"},{"bike_id":"3f496ed7-9a33-4d4a-8a33-a653e8bae2fd","system_id":"levelo_inurba_marseille","lat":43.32345,"lon":5.40586,"is_reserved":false,"is_disabled":false,"rental_uris":{"android":"levelo://app?vid=3f496ed7-9a33-4d4a-8a33-a653e8bae2fd","ios":"levelo://app?vid=3f496ed7-9a33-4d4a-8a33-a653e8bae2fd"},"vehicle_type_id":"4","last_reported":1753729948,"current_range_meters":14400,"station_id":"ce4bhq92rcd13ifvqhjg","pricing_plan_id":"cebpf4jnsgd1na2vs0mg"},{"bike_id":"e0ce0053-71c4-4b07-8b9e-379e7ce2bf22","system_id":"levelo_inurba_marseille","lat":43.30278,"lon":5.39795,"is_reserved":false,"is_disabled":false,"rental_uris":{"android":"levelo://app?vid=e0ce0053-71c4-4b07-8b9e-379e7ce2bf22","ios":"levelo://app?vid=e0ce0053-71c4-4b07-8b9e-379e7ce2bf22"},"vehicle_type_id":"4","last_reported":1753729948,"current_range_meters":14400,"station_id":"","pricing_plan_id":"cebpf4jnsgd1na2vs0mg"},{"bike_id":"c1ed0047-371a-402e-a73a-0992f7f3ab1a","system_id":"levelo_inurba_marseille","lat":43.27175,"lon":5.40976,"is_reserved":false,"is_disabled":true,"rental_uris":{"android":"levelo://app?vid=c1ed0047-371a-402e-a73a-0992f7f3ab1a","ios":"levelo://app?vid=c1ed0047-371a-402e-a73a-0992f7f3ab1a"},"vehicle_type_id":"4","last_reported":1753729948,"current_range_meters":14800,"station_id":"ce4bhl12rcd13ifvqgf0","pricing_plan_id":"cebpf4jnsgd1na2vs0mg"},{"bike_id":"249ad6a4-18ac-4906-b791-64d293f7b7c5","system_id":"levelo_inurba_marseille","lat":43.28864,"lon":5.39333,"is_reserved":false,"is_disabled":false,"rental_uris":{"android":"levelo://app?vid=249ad6a4-18ac-4906-b791-64d293f7b7c5","ios":"levelo://app?vid=249ad6a4-18ac-4906-b791-64d293f7b7c5"},"vehicle_type_id":"4","last_reported":1753729948,"current_range_meters":14800,"station_id":"ce4bh2p2rcd13ifvqdi0","pricing_plan_id":"cebpf4jnsgd1na2vs0mg"},{"bike_id":"b47394be-66b0-49b3-9fa5-ad23c5559521","system_id":"levelo_inurba_marseille","lat":43.29306,"lon":5.3718,"is_reserved":false,"is_disabled":false,"rental_uris":{"android":"levelo://app?vid=b47394be-66b0-49b3-9fa5-ad23c5559521","ios":"levelo://app?vid=b47394be-66b0-49b3-9fa5-ad23c5559521"},"vehicle_type_id":"4","last_reported":1753729948,"current_range_meters":14800,"station_id":"ce4bgh92rcd13ifvqb40","pricing_plan_id":"cebpf4jnsgd1na2vs0mg"},{"bike_id":"3c552e5c-02ca-4d60-893f-b4238415c9e4","system_id":"levelo_inurba_marseille","lat":43.27982,"lon":5.38716,"is_reserved":false,"is_disabled":false,"rental_uris":{"android":"levelo://app?vid=3c552e5c-02ca-4d60-893f-b4238415c9e4","ios":"levelo://app?vid=3c552e5c-02ca-4d60-893f-b4238415c9e4"},"vehicle_type_id":"4","last_reported":1753729948,"current_range_meters":14800,"station_id":"ce4bhg12rcd13ifvqf80","pricing_plan_id":"cebpf4jnsgd1na2vs0mg"},{"bike_id":"bf044f05-dea4-40b0-94dc-961fe3d334b7","system_id":"levelo_inurba_marseille","lat":43.262024,"lon":5.374863,"is_reserved":false,"is_disabled":false,"rental_uris":{"android":"levelo://app?vid=bf044f05-dea4-40b0-94dc-961fe3d334b7","ios":"levelo://app?vid=bf044f05-dea4-40b0-94dc-961fe3d334b7"},"vehicle_type_id":"4","last_reported":1753729948,"current_range_meters":14800,"station_id":"ce4bhgp2rcd13ifvqfc0","pricing_plan_id":"cebpf4jnsgd1na2vs0mg"},{"bike_id":"f300057d-7ab5-4146-a741-d20b49532b99","system_id":"levelo_inurba_marseille","lat":43.2998,"lon":5.37173,"is_reserved":false,"is_disabled":true,"rental_uris":{"android":"levelo://app?vid=f300057d-7ab5-4146-a741-d20b49532b99","ios":"levelo://app?vid=f300057d-7ab5-4146-a741-d20b49532b99"},"vehicle_type_id":"4","last_reported":1753729948,"current_range_meters":14800,"station_id":"ce4bgr92rcd13ifvqc7g","pricing_plan_id":"cebpf4jnsgd1na2vs0mg"},{"bike_id":"3c6d990b-d853-4774-9e68-ab11c54c28bf","system_id":"levelo_inurba_marseille","lat":43.28429,"lon":5.34965,"is_reserved":false,"is_disabled":false,"rental_uris":{"android":"levelo://app?vid=3c6d990b-d853-4774-9e68-ab11c54c28bf","ios":"levelo://app?vid=3c6d990b-d853-4774-9e68-ab11c54c28bf"},"vehicle_type_id":"4","last_reported":1753729948,"current_range_meters":14800,"station_id":"ce4bhbh2rcd13ifvqepg","pricing_plan_id":"cebpf4jnsgd1na2vs0mg"},{"bike_id":"2fd1d214-1c01-4d21-8950-f90bd8d495c7","system_id":"levelo_inurba_marseille","lat":43.2885,"lon":5.39301,"is_reserved":false,"is_disabled":false,"rental_uris":{"android":"levelo://app?vid=2fd1d214-1c01-4d21-8950-f90bd8d495c7","ios":"levelo://app?vid=2fd1d214-1c01-4d21-8950-f90bd8d495c7"},"vehicle_type_id":"4","last_reported":1753729948,"current_range_meters":14800,"station_id":"ce4bh2p2rcd13ifvqdi0","pricing_plan_id":"cebpf4jnsgd1na2vs0mg"},{"bike_id":"06943e41-0870-4a54-a54a-7a2b9ba02564","system_id":"levelo_inurba_marseille","lat":43.29931,"lon":5.37507,"is_reserved":false,"is_disabled":false,"rental_uris":{"android":"levelo://app?vid=06943e41-0870-4a54-a54a-7a2b9ba02564","ios":"levelo://app?vid=06943e41-0870-4a54-a54a-7a2b9ba02564"},"vehicle_type_id":"4","last_reported":1753729948,"current_range_meters":14800,"station_id":"","pricing_plan_id":"cebpf4jnsgd1na2vs0mg"},{"bike_id":"52fa2f88-6678-4b0d-bdeb-77d5e9331688","system_id":"levelo_inurba_marseille","lat":43.21188,"lon":5.35081,"is_reserved":false,"is_disabled":false,"rental_uris":{"android":"levelo://app?vid=52fa2f88-6678-4b0d-bdeb-77d5e9331688","ios":"levelo://app?vid=52fa2f88-6678-4b0d-bdeb-77d5e9331688"},"vehicle_type_id":"4","last_reported":1753729948,"current_range_meters":14800,"station_id":"st_cvj6sg6p6f1abm77japg","pricing_plan_id":"cebpf4jnsgd1na2vs0mg"},{"bike_id":"11648341-5a9b-4630-b256-1b937e7ffd66","system_id":"levelo_inurba_marseille","lat":43.289253,"lon":5.384685,"is_reserved":false,"is_disabled":false,"rental_uris":{"android":"levelo://app?vid=11648341-5a9b-4630-b256-1b937e7ffd66","ios":"levelo://app?vid=11648341-5a9b-4630-b256-1b937e7ffd66"},"vehicle_type_id":"4","last_reported":1753729948,"current_range_meters":14800,"station_id":"","pricing_plan_id":"cebpf4jnsgd1na2vs0mg"},{"bike_id":"d83c4d0a-f4a7-4c3c-b198-f78a8d9102c3","system_id":"levelo_inurba_marseille","lat":43.24793,"lon":5.37456,"is_reserved":false,"is_disabled":false,"rental_uris":{"android":"levelo://app?vid=d83c4d0a-f4a7-4c3c-b198-f78a8d9102c3","ios":"levelo://app?vid=d83c4d0a-f4a7-4c3c-b198-f78a8d9102c3"},"vehicle_type_id":"4","last_reported":1753729948,"current_range_meters":15200,"station_id":"ce4bhgh2rcd13ifvqfb0","pricing_plan_id":"cebpf4jnsgd1na2vs0mg"},{"bike_id":"659618b2-3483-4d2a-a7ae-6e324d61d2b0","system_id":"levelo_inurba_marseille","lat":43.30798,"lon":5.43525,"is_reserved":false,"is_disabled":false,"rental_uris":{"android":"levelo://app?vid=659618b2-3483-4d2a-a7ae-6e324d61d2b0","ios":"levelo://app?vid=659618b2-3483-4d2a-a7ae-6e324d61d2b0"},"vehicle_type_id":"4","last_reported":1753729948,"current_range_meters":15200,"station_id":"ce4bhph2rcd13ifvqheg","pricing_plan_id":"cebpf4jnsgd1na2vs0mg"},{"bike_id":"32826f34-8228-4d4b-815c-cc490d99eb72","system_id":"levelo_inurba_marseille","lat":43.22507,"lon":5.34776,"is_reserved":false,"is_disabled":false,"rental_uris":{"android":"levelo://app?vid=32826f34-8228-4d4b-815c-cc490d99eb72","ios":"levelo://app?vid=32826f34-8228-4d4b-815c-cc490d99eb72"},"vehicle_type_id":"4","last_reported":1753729948,"current_range_meters":15200,"station_id":"st_cvj5dfep6f1abm77gieg","pricing_plan_id":"cebpf4jnsgd1na2vs0mg"},{"bike_id":"326e3f80-9d9e-4a28-82b8-7b240fccb8f5","system_id":"levelo_inurba_marseille","lat":43.288571,"lon":5.358642,"is_reserved":false,"is_disabled":false,"rental_uris":{"android":"levelo://app?vid=326e3f80-9d9e-4a28-82b8-7b240fccb8f5","ios":"levelo://app?vid=326e3f80-9d9e-4a28-82b8-7b240fccb8f5"},"vehicle_type_id":"4","last_reported":1753729948,"current_range_meters":15200,"station_id":"ce4bhb12rcd13ifvqem0","pricing_plan_id":"cebpf4jnsgd1na2vs0mg"},{"bike_id":"2c05888a-7ae8-44a4-a376-fc4db5630c25","system_id":"levelo_inurba_marseille","lat":43.28618,"lon":5.35109,"is_reserved":false,"is_disabled":false,"rental_uris":{"android":"levelo://app?vid=2c05888a-7ae8-44a4-a376-fc4db5630c25","ios":"levelo://app?vid=2c05888a-7ae8-44a4-a376-fc4db5630c25"},"vehicle_type_id":"4","last_reported":1753729948,"current_range_meters":15200,"station_id":"ce4bhch2rcd13ifvqeug","pricing_plan_id":"cebpf4jnsgd1na2vs0mg"},{"bike_id":"b97ffecd-6455-4c53-ac00-08f3870ed1f7","system_id":"levelo_inurba_marseille","lat":43.300205,"lon":5.376413,"is_reserved":false,"is_disabled":false,"rental_uris":{"android":"levelo://app?vid=b97ffecd-6455-4c53-ac00-08f3870ed1f7","ios":"levelo://app?vid=b97ffecd-6455-4c53-ac00-08f3870ed1f7"},"vehicle_type_id":"4","last_reported":1753729948,"current_range_meters":15200,"station_id":"","pricing_plan_id":"cebpf4jnsgd1na2vs0mg"},{"bike_id":"0938e41e-f961-425a-8c0f-36baf4215fb9","system_id":"levelo_inurba_marseille","lat":43.27072,"lon":5.42293,"is_reserved":false,"is_disabled":false,"rental_uris":{"android":"levelo://app?vid=0938e41e-f961-425a-8c0f-36baf4215fb9","ios":"levelo://app?vid=0938e41e-f961-425a-8c0f-36baf4215fb9"},"vehicle_type_id":"4","last_reported":1753729948,"current_range_meters":15200,"station_id":"ce4bhk92rcd13ifvqgb0","pricing_plan_id":"cebpf4jnsgd1na2vs0mg"},{"bike_id":"466ed295-6bec-43c6-8b11-8e96c2beac8d","system_id":"levelo_inurba_marseille","lat":43.22516,"lon":5.34774,"is_reserved":false,"is_disabled":false,"rental_uris":{"android":"levelo://app?vid=466ed295-6bec-43c6-8b11-8e96c2beac8d","ios":"levelo://app?vid=466ed295-6bec-43c6-8b11-8e96c2beac8d"},"vehicle_type_id":"4","last_reported":1753729948,"current_range_meters":16000,"station_id":"","pricing_plan_id":"cebpf4jnsgd1na2vs0mg"},{"bike_id":"a627f6a2-5d66-4596-8946-e15c15639b0b","system_id":"levelo_inurba_marseille","lat":43.24669,"lon":5.3816,"is_reserved":false,"is_disabled":false,"rental_uris":{"android":"levelo://app?vid=a627f6a2-5d66-4596-8946-e15c15639b0b","ios":"levelo://app?vid=a627f6a2-5d66-4596-8946-e15c15639b0b"},"vehicle_type_id":"4","last_reported":1753729948,"current_range_meters":16000,"station_id":"ce4bhih2rcd13ifvqfr0","pricing_plan_id":"cebpf4jnsgd1na2vs0mg"},{"bike_id":"1d599ca9-96fe-4939-8af9-7954ed58ad38","system_id":"levelo_inurba_marseille","lat":43.23531,"lon":5.36031,"is_reserved":false,"is_disabled":false,"rental_uris":{"android":"levelo://app?vid=1d599ca9-96fe-4939-8af9-7954ed58ad38","ios":"levelo://app?vid=1d599ca9-96fe-4939-8af9-7954ed58ad38"},"vehicle_type_id":"4","last_reported":1753729948,"current_range_meters":16000,"station_id":"","pricing_plan_id":"cebpf4jnsgd1na2vs0mg"},{"bike_id":"40523d3c-3186-4c9d-bf57-cc5e90987418","system_id":"levelo_inurba_marseille","lat":43.24647,"lon":5.38139,"is_reserved":false,"is_disabled":false,"rental_uris":{"android":"levelo://app?vid=40523d3c-3186-4c9d-bf57-cc5e90987418","ios":"levelo://app?vid=40523d3c-3186-4c9d-bf57-cc5e90987418"},"vehicle_type_id":"4","last_reported":1753729948,"current_range_meters":16000,"station_id":"ce4bhih2rcd13ifvqfr0","pricing_plan_id":"cebpf4jnsgd1na2vs0mg"},{"bike_id":"f935bdfe-ce07-40e9-9f05-f13806b2bee8","system_id":"levelo_inurba_marseille","lat":43.22499,"lon":5.34778,"is_reserved":false,"is_disabled":false,"rental_uris":{"android":"levelo://app?vid=f935bdfe-ce07-40e9-9f05-f13806b2bee8","ios":"levelo://app?vid=f935bdfe-ce07-40e9-9f05-f13806b2bee8"},"vehicle_type_id":"4","last_reported":1753729948,"current_range_meters":16000,"station_id":"st_cvj5dfep6f1abm77gieg","pricing_plan_id":"cebpf4jnsgd1na2vs0mg"},{"bike_id":"e883b3c2-be15-44fe-b8fb-8aa2b6b18b9a","system_id":"levelo_inurba_marseille","lat":43.26189,"lon":5.37447,"is_reserved":false,"is_disabled":false,"rental_uris":{"android":"levelo://app?vid=e883b3c2-be15-44fe-b8fb-8aa2b6b18b9a","ios":"levelo://app?vid=e883b3c2-be15-44fe-b8fb-8aa2b6b18b9a"},"vehicle_type_id":"4","last_reported":1753729948,"current_range_meters":16000,"station_id":"ce4bhgp2rcd13ifvqfc0","pricing_plan_id":"cebpf4jnsgd1na2vs0mg"},{"bike_id":"4f0d56f5-e54c-465b-a15e-32b747ab0912","system_id":"levelo_inurba_marseille","lat":43.31702,"lon":5.40482,"is_reserved":false,"is_disabled":true,"rental_uris":{"android":"levelo://app?vid=4f0d56f5-e54c-465b-a15e-32b747ab0912","ios":"levelo://app?vid=4f0d56f5-e54c-465b-a15e-32b747ab0912"},"vehicle_type_id":"4","last_reported":1753729948,"current_range_meters":16000,"station_id":"ce4bh012rcd13ifvqd00","pricing_plan_id":"cebpf4jnsgd1na2vs0mg"},{"bike_id":"4bfaa48f-84dd-4da8-8f81-81b4a794ffc8","system_id":"levelo_inurba_marseille","lat":43.243946,"lon":5.3706,"is_reserved":false,"is_disabled":false,"rental_uris":{"android":"levelo://app?vid=4bfaa48f-84dd-4da8-8f81-81b4a794ffc8","ios":"levelo://app?vid=4bfaa48f-84dd-4da8-8f81-81b4a794ffc8"},"vehicle_type_id":"4","last_reported":1753729948,"current_range_meters":16000,"station_id":"ce4bhhh2rcd13ifvqfk0","pricing_plan_id":"cebpf4jnsgd1na2vs0mg"},{"bike_id":"01a8e307-f9de-4eb5-a307-55559ca42c36","system_id":"levelo_inurba_marseille","lat":43.22485,"lon":5.34786,"is_reserved":false,"is_disabled":false,"rental_uris":{"android":"levelo://app?vid=01a8e307-f9de-4eb5-a307-55559ca42c36","ios":"levelo://app?vid=01a8e307-f9de-4eb5-a307-55559ca42c36"},"vehicle_type_id":"4","last_reported":1753729948,"current_range_meters":16000,"station_id":"st_cvj5dfep6f1abm77gieg","pricing_plan_id":"cebpf4jnsgd1na2vs0mg"},{"bike_id":"7d0bc366-7472-4dec-a2f3-a1ab117a465c","system_id":"levelo_inurba_marseille","lat":43.322951,"lon":5.38264,"is_reserved":false,"is_disabled":false,"rental_uris":{"android":"levelo://app?vid=7d0bc366-7472-4dec-a2f3-a1ab117a465c","ios":"levelo://app?vid=7d0bc366-7472-4dec-a2f3-a1ab117a465c"},"vehicle_type_id":"4","last_reported":1753729948,"current_range_meters":16000,"station_id":"ce4bhr12rcd13ifvqhqg","pricing_plan_id":"cebpf4jnsgd1na2vs0mg"},{"bike_id":"298447c3-6b17-4e0e-808a-8b426d2c229d","system_id":"levelo_inurba_marseille","lat":43.32478,"lon":5.3657,"is_reserved":false,"is_disabled":false,"rental_uris":{"android":"levelo://app?vid=298447c3-6b17-4e0e-808a-8b426d2c229d","ios":"levelo://app?vid=298447c3-6b17-4e0e-808a-8b426d2c229d"},"vehicle_type_id":"4","last_reported":1753729948,"current_range_meters":15200,"station_id":"ce4bhs12rcd13ifvqhvg","pricing_plan_id":"cebpf4jnsgd1na2vs0mg"},{"bike_id":"fb20ac4c-ff7b-44a5-8bc1-3dadc0880714","system_id":"levelo_inurba_marseille","lat":43.27614,"lon":5.36121,"is_reserved":false,"is_disabled":false,"rental_uris":{"android":"levelo://app?vid=fb20ac4c-ff7b-44a5-8bc1-3dadc0880714","ios":"levelo://app?vid=fb20ac4c-ff7b-44a5-8bc1-3dadc0880714"},"vehicle_type_id":"4","last_reported":1753729948,"current_range_meters":16400,"station_id":"ce4bgj92rcd13ifvqbe0","pricing_plan_id":"cebpf4jnsgd1na2vs0mg"},{"bike_id":"905576ef-66ce-426e-9600-566828c3b671","system_id":"levelo_inurba_marseille","lat":43.21738,"lon":5.34604,"is_reserved":false,"is_disabled":true,"rental_uris":{"android":"levelo://app?vid=905576ef-66ce-426e-9600-566828c3b671","ios":"levelo://app?vid=905576ef-66ce-426e-9600-566828c3b671"},"vehicle_type_id":"4","last_reported":1753729948,"current_range_meters":16400,"station_id":"","pricing_plan_id":"cebpf4jnsgd1na2vs0mg"},{"bike_id":"edc93c31-35c3-4bc5-aec7-fdf1428c4e79","system_id":"levelo_inurba_marseille","lat":43.26178,"lon":5.3743,"is_reserved":false,"is_disabled":false,"rental_uris":{"android":"levelo://app?vid=edc93c31-35c3-4bc5-aec7-fdf1428c4e79","ios":"levelo://app?vid=edc93c31-35c3-4bc5-aec7-fdf1428c4e79"},"vehicle_type_id":"4","last_reported":1753729948,"current_range_meters":16400,"station_id":"ce4bhgp2rcd13ifvqfc0","pricing_plan_id":"cebpf4jnsgd1na2vs0mg"},{"bike_id":"cbf2ee68-2dd8-4605-a963-0b5b2914203d","system_id":"levelo_inurba_marseille","lat":43.2481,"lon":5.37458,"is_reserved":false,"is_disabled":false,"rental_uris":{"android":"levelo://app?vid=cbf2ee68-2dd8-4605-a963-0b5b2914203d","ios":"levelo://app?vid=cbf2ee68-2dd8-4605-a963-0b5b2914203d"},"vehicle_type_id":"4","last_reported":1753729948,"current_range_meters":16400,"station_id":"ce4bhgh2rcd13ifvqfb0","pricing_plan_id":"cebpf4jnsgd1na2vs0mg"},{"bike_id":"68d2f619-3e92-43cb-be22-0dc999659fb8","system_id":"levelo_inurba_marseille","lat":43.28672,"lon":5.38678,"is_reserved":false,"is_disabled":false,"rental_uris":{"android":"levelo://app?vid=68d2f619-3e92-43cb-be22-0dc999659fb8","ios":"levelo://app?vid=68d2f619-3e92-43cb-be22-0dc999659fb8"},"vehicle_type_id":"4","last_reported":1753729948,"current_range_meters":16400,"station_id":"ce4bh492rcd13ifvqdug","pricing_plan_id":"cebpf4jnsgd1na2vs0mg"},{"bike_id":"0dd63cba-5864-4ccf-a4d2-c66db249c9c3","system_id":"levelo_inurba_marseille","lat":43.29866,"lon":5.39727,"is_reserved":false,"is_disabled":false,"rental_uris":{"android":"levelo://app?vid=0dd63cba-5864-4ccf-a4d2-c66db249c9c3","ios":"levelo://app?vid=0dd63cba-5864-4ccf-a4d2-c66db249c9c3"},"vehicle_type_id":"4","last_reported":1753729948,"current_range_meters":16400,"station_id":"ce4bh0h2rcd13ifvqd50","pricing_plan_id":"cebpf4jnsgd1na2vs0mg"},{"bike_id":"fe1e01f8-d4ce-40a3-9bef-dc35d4f0ebf5","system_id":"levelo_inurba_marseille","lat":43.28419,"lon":5.3498,"is_reserved":false,"is_disabled":true,"rental_uris":{"android":"levelo://app?vid=fe1e01f8-d4ce-40a3-9bef-dc35d4f0ebf5","ios":"levelo://app?vid=fe1e01f8-d4ce-40a3-9bef-dc35d4f0ebf5"},"vehicle_type_id":"4","last_reported":1753729948,"current_range_meters":16400,"station_id":"ce4bhbh2rcd13ifvqepg","pricing_plan_id":"cebpf4jnsgd1na2vs0mg"},{"bike_id":"978250d6-89e4-43d2-82a2-187bf4c07df4","system_id":"levelo_inurba_marseille","lat":43.26558,"lon":5.37283,"is_reserved":false,"is_disabled":false,"rental_uris":{"android":"levelo://app?vid=978250d6-89e4-43d2-82a2-187bf4c07df4","ios":"levelo://app?vid=978250d6-89e4-43d2-82a2-187bf4c07df4"},"vehicle_type_id":"4","last_reported":1753729948,"current_range_meters":16400,"station_id":"ce4bhg12rcd13ifvqf70","pricing_plan_id":"cebpf4jnsgd1na2vs0mg"},{"bike_id":"06d24496-c448-4f38-9136-8a8bbeabd961","system_id":"levelo_inurba_marseille","lat":43.21176,"lon":5.35084,"is_reserved":false,"is_disabled":false,"rental_uris":{"android":"levelo://app?vid=06d24496-c448-4f38-9136-8a8bbeabd961","ios":"levelo://app?vid=06d24496-c448-4f38-9136-8a8bbeabd961"},"vehicle_type_id":"4","last_reported":1753729948,"current_range_meters":16400,"station_id":"st_cvj6sg6p6f1abm77japg","pricing_plan_id":"cebpf4jnsgd1na2vs0mg"},{"bike_id":"57a14804-707e-4743-8fdc-ee255b7e6e88","system_id":"levelo_inurba_marseille","lat":43.2861,"lon":5.35103,"is_reserved":false,"is_disabled":false,"rental_uris":{"android":"levelo://app?vid=57a14804-707e-4743-8fdc-ee255b7e6e88","ios":"levelo://app?vid=57a14804-707e-4743-8fdc-ee255b7e6e88"},"vehicle_type_id":"4","last_reported":1753729948,"current_range_meters":16800,"station_id":"ce4bhch2rcd13ifvqeug","pricing_plan_id":"cebpf4jnsgd1na2vs0mg"},{"bike_id":"f7d60fad-0a86-490c-b830-28669403cd61","system_id":"levelo_inurba_marseille","lat":43.2954,"lon":5.38531,"is_reserved":false,"is_disabled":false,"rental_uris":{"android":"levelo://app?vid=f7d60fad-0a86-490c-b830-28669403cd61","ios":"levelo://app?vid=f7d60fad-0a86-490c-b830-28669403cd61"},"vehicle_type_id":"4","last_reported":1753729948,"current_range_meters":16800,"station_id":"ce4bgih2rcd13ifvqba0","pricing_plan_id":"cebpf4jnsgd1na2vs0mg"},{"bike_id":"738ff0c3-201c-4f8b-a602-517eb2bfae9a","system_id":"levelo_inurba_marseille","lat":43.3031,"lon":5.39685,"is_reserved":false,"is_disabled":false,"rental_uris":{"android":"levelo://app?vid=738ff0c3-201c-4f8b-a602-517eb2bfae9a","ios":"levelo://app?vid=738ff0c3-201c-4f8b-a602-517eb2bfae9a"},"vehicle_type_id":"4","last_reported":1753729948,"current_range_meters":16800,"station_id":"","pricing_plan_id":"cebpf4jnsgd1na2vs0mg"},{"bike_id":"8f346c07-df4f-459b-ac59-d111eb9f0783","system_id":"levelo_inurba_marseille","lat":43.22499,"lon":5.34756,"is_reserved":false,"is_disabled":false,"rental_uris":{"android":"levelo://app?vid=8f346c07-df4f-459b-ac59-d111eb9f0783","ios":"levelo://app?vid=8f346c07-df4f-459b-ac59-d111eb9f0783"},"vehicle_type_id":"4","last_reported":1753729948,"current_range_meters":16800,"station_id":"st_cvj5dfep6f1abm77gieg","pricing_plan_id":"cebpf4jnsgd1na2vs0mg"},{"bike_id":"83c6212d-a0bf-4d4e-bde6-96915621a2f6","system_id":"levelo_inurba_marseille","lat":43.2707,"lon":5.40267,"is_reserved":false,"is_disabled":false,"rental_uris":{"android":"levelo://app?vid=83c6212d-a0bf-4d4e-bde6-96915621a2f6","ios":"levelo://app?vid=83c6212d-a0bf-4d4e-bde6-96915621a2f6"},"vehicle_type_id":"4","last_reported":1753729948,"current_range_meters":16800,"station_id":"ce4bhk92rcd13ifvqgc0","pricing_plan_id":"cebpf4jnsgd1na2vs0mg"},{"bike_id":"839cb358-c777-49a7-9b10-9da2596c35a1","system_id":"levelo_inurba_marseille","lat":43.33771,"lon":5.37479,"is_reserved":false,"is_disabled":false,"rental_uris":{"android":"levelo://app?vid=839cb358-c777-49a7-9b10-9da2596c35a1","ios":"levelo://app?vid=839cb358-c777-49a7-9b10-9da2596c35a1"},"vehicle_type_id":"4","last_reported":1753729948,"current_range_meters":16800,"station_id":"","pricing_plan_id":"cebpf4jnsgd1na2vs0mg"},{"bike_id":"73da2ba0-87d7-4b99-ab59-197a71ae22ea","system_id":"levelo_inurba_marseille","lat":43.3132,"lon":5.39695,"is_reserved":false,"is_disabled":false,"rental_uris":{"android":"levelo://app?vid=73da2ba0-87d7-4b99-ab59-197a71ae22ea","ios":"levelo://app?vid=73da2ba0-87d7-4b99-ab59-197a71ae22ea"},"vehicle_type_id":"4","last_reported":1753729948,"current_range_meters":16800,"station_id":"ce4bgvp2rcd13ifvqcu0","pricing_plan_id":"cebpf4jnsgd1na2vs0mg"},{"bike_id":"18d9d1bb-3481-4fe6-8e41-40913fa9f69c","system_id":"levelo_inurba_marseille","lat":43.24814,"lon":5.37473,"is_reserved":false,"is_disabled":false,"rental_uris":{"android":"levelo://app?vid=18d9d1bb-3481-4fe6-8e41-40913fa9f69c","ios":"levelo://app?vid=18d9d1bb-3481-4fe6-8e41-40913fa9f69c"},"vehicle_type_id":"4","last_reported":1753729948,"current_range_meters":16800,"station_id":"ce4bhgh2rcd13ifvqfb0","pricing_plan_id":"cebpf4jnsgd1na2vs0mg"},{"bike_id":"10d081c1-273e-4901-9c1f-64e9f8f6e8dc","system_id":"levelo_inurba_marseille","lat":43.29986,"lon":5.38496,"is_reserved":false,"is_disabled":false,"rental_uris":{"android":"levelo://app?vid=10d081c1-273e-4901-9c1f-64e9f8f6e8dc","ios":"levelo://app?vid=10d081c1-273e-4901-9c1f-64e9f8f6e8dc"},"vehicle_type_id":"4","last_reported":1753729948,"current_range_meters":16800,"station_id":"ce4bgj92rcd13ifvqbd0","pricing_plan_id":"cebpf4jnsgd1na2vs0mg"},{"bike_id":"88255ee3-5bdb-4dfb-bc09-6ade39a110e2","system_id":"levelo_inurba_marseille","lat":43.23963,"lon":5.36628,"is_reserved":false,"is_disabled":false,"rental_uris":{"android":"levelo://app?vid=88255ee3-5bdb-4dfb-bc09-6ade39a110e2","ios":"levelo://app?vid=88255ee3-5bdb-4dfb-bc09-6ade39a110e2"},"vehicle_type_id":"4","last_reported":1753729948,"current_range_meters":16800,"station_id":"ce4bhi12rcd13ifvqfp0","pricing_plan_id":"cebpf4jnsgd1na2vs0mg"},{"bike_id":"35c04ed3-3f32-4bf9-8a1e-9f2898086490","system_id":"levelo_inurba_marseille","lat":43.33776,"lon":5.37428,"is_reserved":false,"is_disabled":false,"rental_uris":{"android":"levelo://app?vid=35c04ed3-3f32-4bf9-8a1e-9f2898086490","ios":"levelo://app?vid=35c04ed3-3f32-4bf9-8a1e-9f2898086490"},"vehicle_type_id":"4","last_reported":1753729948,"current_range_meters":17200,"station_id":"","pricing_plan_id":"cebpf4jnsgd1na2vs0mg"},{"bike_id":"4a789262-50b7-4dff-96a3-d59dd4ab1de0","system_id":"levelo_inurba_marseille","lat":43.28838,"lon":5.35841,"is_reserved":false,"is_disabled":false,"rental_uris":{"android":"levelo://app?vid=4a789262-50b7-4dff-96a3-d59dd4ab1de0","ios":"levelo://app?vid=4a789262-50b7-4dff-96a3-d59dd4ab1de0"},"vehicle_type_id":"4","last_reported":1753729948,"current_range_meters":17200,"station_id":"ce4bhb12rcd13ifvqem0","pricing_plan_id":"cebpf4jnsgd1na2vs0mg"},{"bike_id":"eb3ae23f-014a-46db-a37c-b317f14b02ed","system_id":"levelo_inurba_marseille","lat":43.3148,"lon":5.3731,"is_reserved":false,"is_disabled":false,"rental_uris":{"android":"levelo://app?vid=eb3ae23f-014a-46db-a37c-b317f14b02ed","ios":"levelo://app?vid=eb3ae23f-014a-46db-a37c-b317f14b02ed"},"vehicle_type_id":"4","last_reported":1753729948,"current_range_meters":17200,"station_id":"ce4bgt12rcd13ifvqcd0","pricing_plan_id":"cebpf4jnsgd1na2vs0mg"},{"bike_id":"cfd954a5-e2d7-4986-8aef-ba5bf5bf4866","system_id":"levelo_inurba_marseille","lat":43.28922,"lon":5.36625,"is_reserved":false,"is_disabled":false,"rental_uris":{"android":"levelo://app?vid=cfd954a5-e2d7-4986-8aef-ba5bf5bf4866","ios":"levelo://app?vid=cfd954a5-e2d7-4986-8aef-ba5bf5bf4866"},"vehicle_type_id":"4","last_reported":1753729948,"current_range_meters":17200,"station_id":"ce4bhap2rcd13ifvqek0","pricing_plan_id":"cebpf4jnsgd1na2vs0mg"},{"bike_id":"50ddb991-132a-407b-b3f1-2adbe5e9db55","system_id":"levelo_inurba_marseille","lat":43.30926,"lon":5.40183,"is_reserved":false,"is_disabled":true,"rental_uris":{"android":"levelo://app?vid=50ddb991-132a-407b-b3f1-2adbe5e9db55","ios":"levelo://app?vid=50ddb991-132a-407b-b3f1-2adbe5e9db55"},"vehicle_type_id":"4","last_reported":1753729948,"current_range_meters":17200,"station_id":"ce4bgvp2rcd13ifvqct0","pricing_plan_id":"cebpf4jnsgd1na2vs0mg"},{"bike_id":"29057baa-d1da-4965-af00-f85ccf986851","system_id":"levelo_inurba_marseille","lat":43.299777,"lon":5.384832,"is_reserved":false,"is_disabled":false,"rental_uris":{"android":"levelo://app?vid=29057baa-d1da-4965-af00-f85ccf986851","ios":"levelo://app?vid=29057baa-d1da-4965-af00-f85ccf986851"},"vehicle_type_id":"4","last_reported":1753729948,"current_range_meters":17200,"station_id":"ce4bgj92rcd13ifvqbd0","pricing_plan_id":"cebpf4jnsgd1na2vs0mg"},{"bike_id":"49491b9e-bc95-484f-b8e1-371ec4848922","system_id":"levelo_inurba_marseille","lat":43.229218,"lon":5.353708,"is_reserved":false,"is_disabled":false,"rental_uris":{"android":"levelo://app?vid=49491b9e-bc95-484f-b8e1-371ec4848922","ios":"levelo://app?vid=49491b9e-bc95-484f-b8e1-371ec4848922"},"vehicle_type_id":"4","last_reported":1753729948,"current_range_meters":17200,"station_id":"cpo3532slgdg3j2ikp40","pricing_plan_id":"cebpf4jnsgd1na2vs0mg"},{"bike_id":"20da142f-6258-4095-bc8b-dfe61dd27075","system_id":"levelo_inurba_marseille","lat":43.30169,"lon":5.38094,"is_reserved":false,"is_disabled":false,"rental_uris":{"android":"levelo://app?vid=20da142f-6258-4095-bc8b-dfe61dd27075","ios":"levelo://app?vid=20da142f-6258-4095-bc8b-dfe61dd27075"},"vehicle_type_id":"4","last_reported":1753729948,"current_range_meters":16800,"station_id":"ce4bgjp2rcd13ifvqbh0","pricing_plan_id":"cebpf4jnsgd1na2vs0mg"},{"bike_id":"de7a02f5-fdaf-4fd7-90bc-8f34669b86bf","system_id":"levelo_inurba_marseille","lat":43.280815,"lon":5.396626,"is_reserved":false,"is_disabled":false,"rental_uris":{"android":"levelo://app?vid=de7a02f5-fdaf-4fd7-90bc-8f34669b86bf","ios":"levelo://app?vid=de7a02f5-fdaf-4fd7-90bc-8f34669b86bf"},"vehicle_type_id":"4","last_reported":1753729948,"current_range_meters":17200,"station_id":"","pricing_plan_id":"cebpf4jnsgd1na2vs0mg"},{"bike_id":"3d9f2061-7fb9-4387-9262-8d2451911c2b","system_id":"levelo_inurba_marseille","lat":43.22923,"lon":5.35382,"is_reserved":false,"is_disabled":false,"rental_uris":{"android":"levelo://app?vid=3d9f2061-7fb9-4387-9262-8d2451911c2b","ios":"levelo://app?vid=3d9f2061-7fb9-4387-9262-8d2451911c2b"},"vehicle_type_id":"4","last_reported":1753729948,"current_range_meters":17200,"station_id":"cpo3532slgdg3j2ikp40","pricing_plan_id":"cebpf4jnsgd1na2vs0mg"},{"bike_id":"c11f4789-7d37-4722-9529-2b6d43a6d56c","system_id":"levelo_inurba_marseille","lat":43.28199,"lon":5.42605,"is_reserved":false,"is_disabled":true,"rental_uris":{"android":"levelo://app?vid=c11f4789-7d37-4722-9529-2b6d43a6d56c","ios":"levelo://app?vid=c11f4789-7d37-4722-9529-2b6d43a6d56c"},"vehicle_type_id":"4","last_reported":1753729948,"current_range_meters":17200,"station_id":"","pricing_plan_id":"cebpf4jnsgd1na2vs0mg"},{"bike_id":"92fb6ac0-23dc-47f9-9358-bdcac2abbaaa","system_id":"levelo_inurba_marseille","lat":43.29526,"lon":5.38535,"is_reserved":false,"is_disabled":false,"rental_uris":{"android":"levelo://app?vid=92fb6ac0-23dc-47f9-9358-bdcac2abbaaa","ios":"levelo://app?vid=92fb6ac0-23dc-47f9-9358-bdcac2abbaaa"},"vehicle_type_id":"4","last_reported":1753729948,"current_range_meters":17200,"station_id":"ce4bgih2rcd13ifvqba0","pricing_plan_id":"cebpf4jnsgd1na2vs0mg"},{"bike_id":"b7f55e5c-6bc9-4051-80ed-39f6e1e81991","system_id":"levelo_inurba_marseille","lat":43.28027,"lon":5.36933,"is_reserved":false,"is_disabled":false,"rental_uris":{"android":"levelo://app?vid=b7f55e5c-6bc9-4051-80ed-39f6e1e81991","ios":"levelo://app?vid=b7f55e5c-6bc9-4051-80ed-39f6e1e81991"},"vehicle_type_id":"4","last_reported":1753729948,"current_range_meters":17200,"station_id":"ce4bha12rcd13ifvqef0","pricing_plan_id":"cebpf4jnsgd1na2vs0mg"},{"bike_id":"831f27ce-03ee-4aac-a5ae-0204f29e7e74","system_id":"levelo_inurba_marseille","lat":43.24649,"lon":5.3889,"is_reserved":false,"is_disabled":false,"rental_uris":{"android":"levelo://app?vid=831f27ce-03ee-4aac-a5ae-0204f29e7e74","ios":"levelo://app?vid=831f27ce-03ee-4aac-a5ae-0204f29e7e74"},"vehicle_type_id":"4","last_reported":1753729948,"current_range_meters":17200,"station_id":"ce4bhg12rcd13ifvqf60","pricing_plan_id":"cebpf4jnsgd1na2vs0mg"},{"bike_id":"b3a63f3b-4a58-4879-bd4d-3632c9cfec73","system_id":"levelo_inurba_marseille","lat":43.29527,"lon":5.38567,"is_reserved":false,"is_disabled":false,"rental_uris":{"android":"levelo://app?vid=b3a63f3b-4a58-4879-bd4d-3632c9cfec73","ios":"levelo://app?vid=b3a63f3b-4a58-4879-bd4d-3632c9cfec73"},"vehicle_type_id":"4","last_reported":1753729948,"current_range_meters":17200,"station_id":"ce4bgih2rcd13ifvqba0","pricing_plan_id":"cebpf4jnsgd1na2vs0mg"},{"bike_id":"d08b6ea0-1fd3-4c34-817f-960720a8c326","system_id":"levelo_inurba_marseille","lat":43.293146,"lon":5.385417,"is_reserved":false,"is_disabled":false,"rental_uris":{"android":"levelo://app?vid=d08b6ea0-1fd3-4c34-817f-960720a8c326","ios":"levelo://app?vid=d08b6ea0-1fd3-4c34-817f-960720a8c326"},"vehicle_type_id":"4","last_reported":1753729948,"current_range_meters":17200,"station_id":"","pricing_plan_id":"cebpf4jnsgd1na2vs0mg"},{"bike_id":"f26efa5e-65eb-49c1-ac45-4876b46677f5","system_id":"levelo_inurba_marseille","lat":43.27192,"lon":5.41017,"is_reserved":false,"is_disabled":false,"rental_uris":{"android":"levelo://app?vid=f26efa5e-65eb-49c1-ac45-4876b46677f5","ios":"levelo://app?vid=f26efa5e-65eb-49c1-ac45-4876b46677f5"},"vehicle_type_id":"4","last_reported":1753729948,"current_range_meters":17200,"station_id":"ce4bhl12rcd13ifvqgf0","pricing_plan_id":"cebpf4jnsgd1na2vs0mg"},{"bike_id":"57927d23-89e7-4ddd-a64f-277b3ded0af3","system_id":"levelo_inurba_marseille","lat":43.24062,"lon":5.37727,"is_reserved":false,"is_disabled":false,"rental_uris":{"android":"levelo://app?vid=57927d23-89e7-4ddd-a64f-277b3ded0af3","ios":"levelo://app?vid=57927d23-89e7-4ddd-a64f-277b3ded0af3"},"vehicle_type_id":"4","last_reported":1753729948,"current_range_meters":17600,"station_id":"ce4bhnp2rcd13ifvqgvg","pricing_plan_id":"cebpf4jnsgd1na2vs0mg"},{"bike_id":"eb899311-9461-4d06-8287-47c6d7fd9b65","system_id":"levelo_inurba_marseille","lat":43.28479,"lon":5.38466,"is_reserved":false,"is_disabled":true,"rental_uris":{"android":"levelo://app?vid=eb899311-9461-4d06-8287-47c6d7fd9b65","ios":"levelo://app?vid=eb899311-9461-4d06-8287-47c6d7fd9b65"},"vehicle_type_id":"4","last_reported":1753729948,"current_range_meters":18000,"station_id":"ce4bh512rcd13ifvqe3g","pricing_plan_id":"cebpf4jnsgd1na2vs0mg"},{"bike_id":"6f7ccb69-bf92-486d-92b3-1d25f0d6e17f","system_id":"levelo_inurba_marseille","lat":43.26201,"lon":5.37438,"is_reserved":false,"is_disabled":false,"rental_uris":{"android":"levelo://app?vid=6f7ccb69-bf92-486d-92b3-1d25f0d6e17f","ios":"levelo://app?vid=6f7ccb69-bf92-486d-92b3-1d25f0d6e17f"},"vehicle_type_id":"4","last_reported":1753729948,"current_range_meters":17600,"station_id":"ce4bhgp2rcd13ifvqfc0","pricing_plan_id":"cebpf4jnsgd1na2vs0mg"},{"bike_id":"5dfabdc2-b806-44aa-94b4-47dba92b8204","system_id":"levelo_inurba_marseille","lat":43.2293,"lon":5.35368,"is_reserved":false,"is_disabled":false,"rental_uris":{"android":"levelo://app?vid=5dfabdc2-b806-44aa-94b4-47dba92b8204","ios":"levelo://app?vid=5dfabdc2-b806-44aa-94b4-47dba92b8204"},"vehicle_type_id":"4","last_reported":1753729948,"current_range_meters":17600,"station_id":"cpo3532slgdg3j2ikp40","pricing_plan_id":"cebpf4jnsgd1na2vs0mg"},{"bike_id":"91537505-647d-4cb4-91b8-0413c7806ae6","system_id":"levelo_inurba_marseille","lat":43.28847,"lon":5.39314,"is_reserved":false,"is_disabled":false,"rental_uris":{"android":"levelo://app?vid=91537505-647d-4cb4-91b8-0413c7806ae6","ios":"levelo://app?vid=91537505-647d-4cb4-91b8-0413c7806ae6"},"vehicle_type_id":"4","last_reported":1753729948,"current_range_meters":17600,"station_id":"ce4bh2p2rcd13ifvqdi0","pricing_plan_id":"cebpf4jnsgd1na2vs0mg"},{"bike_id":"84381d51-d8bf-4e0c-b58a-542cf5fe160c","system_id":"levelo_inurba_marseille","lat":43.3025,"lon":5.4008,"is_reserved":false,"is_disabled":false,"rental_uris":{"android":"levelo://app?vid=84381d51-d8bf-4e0c-b58a-542cf5fe160c","ios":"levelo://app?vid=84381d51-d8bf-4e0c-b58a-542cf5fe160c"},"vehicle_type_id":"4","last_reported":1753729948,"current_range_meters":17600,"station_id":"ce4bgvh2rcd13ifvqcs0","pricing_plan_id":"cebpf4jnsgd1na2vs0mg"},{"bike_id":"8d456a32-f5e7-4d9d-ae9d-a2a9a58546f8","system_id":"levelo_inurba_marseille","lat":43.295261,"lon":5.385424,"is_reserved":false,"is_disabled":false,"rental_uris":{"android":"levelo://app?vid=8d456a32-f5e7-4d9d-ae9d-a2a9a58546f8","ios":"levelo://app?vid=8d456a32-f5e7-4d9d-ae9d-a2a9a58546f8"},"vehicle_type_id":"4","last_reported":1753729948,"current_range_meters":17600,"station_id":"ce4bgih2rcd13ifvqba0","pricing_plan_id":"cebpf4jnsgd1na2vs0mg"},{"bike_id":"c22f96f1-a3b2-4bd7-817d-6b1bb836e1a4","system_id":"levelo_inurba_marseille","lat":43.29599,"lon":5.3809,"is_reserved":false,"is_disabled":false,"rental_uris":{"android":"levelo://app?vid=c22f96f1-a3b2-4bd7-817d-6b1bb836e1a4","ios":"levelo://app?vid=c22f96f1-a3b2-4bd7-817d-6b1bb836e1a4"},"vehicle_type_id":"4","last_reported":1753729948,"current_range_meters":17600,"station_id":"ce4bgl12rcd13ifvqbo0","pricing_plan_id":"cebpf4jnsgd1na2vs0mg"},{"bike_id":"b5a9c95c-b3e9-4464-908a-30684a2d7b90","system_id":"levelo_inurba_marseille","lat":43.28974,"lon":5.35631,"is_reserved":false,"is_disabled":false,"rental_uris":{"android":"levelo://app?vid=b5a9c95c-b3e9-4464-908a-30684a2d7b90","ios":"levelo://app?vid=b5a9c95c-b3e9-4464-908a-30684a2d7b90"},"vehicle_type_id":"4","last_reported":1753729948,"current_range_meters":17600,"station_id":"ce4bhb92rcd13ifvqen0","pricing_plan_id":"cebpf4jnsgd1na2vs0mg"},{"bike_id":"62e54455-0cad-476e-836b-6efe5dee6c34","system_id":"levelo_inurba_marseille","lat":43.225062,"lon":5.3478,"is_reserved":false,"is_disabled":false,"rental_uris":{"android":"levelo://app?vid=62e54455-0cad-476e-836b-6efe5dee6c34","ios":"levelo://app?vid=62e54455-0cad-476e-836b-6efe5dee6c34"},"vehicle_type_id":"4","last_reported":1753729948,"current_range_meters":17600,"station_id":"st_cvj5dfep6f1abm77gieg","pricing_plan_id":"cebpf4jnsgd1na2vs0mg"},{"bike_id":"75c073ec-9535-4d35-886a-7cda86424558","system_id":"levelo_inurba_marseille","lat":43.30102,"lon":5.39095,"is_reserved":false,"is_disabled":false,"rental_uris":{"android":"levelo://app?vid=75c073ec-9535-4d35-886a-7cda86424558","ios":"levelo://app?vid=75c073ec-9535-4d35-886a-7cda86424558"},"vehicle_type_id":"4","last_reported":1753729948,"current_range_meters":17600,"station_id":"ce4bh192rcd13ifvqdb0","pricing_plan_id":"cebpf4jnsgd1na2vs0mg"},{"bike_id":"90d7df2a-251b-43b9-9339-5d650e173049","system_id":"levelo_inurba_marseille","lat":43.22934,"lon":5.35384,"is_reserved":false,"is_disabled":false,"rental_uris":{"android":"levelo://app?vid=90d7df2a-251b-43b9-9339-5d650e173049","ios":"levelo://app?vid=90d7df2a-251b-43b9-9339-5d650e173049"},"vehicle_type_id":"4","last_reported":1753729948,"current_range_meters":17600,"station_id":"cpo3532slgdg3j2ikp40","pricing_plan_id":"cebpf4jnsgd1na2vs0mg"},{"bike_id":"39080695-4aff-4fdf-b171-11c07b4b0950","system_id":"levelo_inurba_marseille","lat":43.24668,"lon":5.38151,"is_reserved":false,"is_disabled":false,"rental_uris":{"android":"levelo://app?vid=39080695-4aff-4fdf-b171-11c07b4b0950","ios":"levelo://app?vid=39080695-4aff-4fdf-b171-11c07b4b0950"},"vehicle_type_id":"4","last_reported":1753729948,"current_range_meters":17600,"station_id":"ce4bhih2rcd13ifvqfr0","pricing_plan_id":"cebpf4jnsgd1na2vs0mg"},{"bike_id":"4ffc9d79-d56a-482d-b7d9-a5892348f435","system_id":"levelo_inurba_marseille","lat":43.28414,"lon":5.34963,"is_reserved":false,"is_disabled":false,"rental_uris":{"android":"levelo://app?vid=4ffc9d79-d56a-482d-b7d9-a5892348f435","ios":"levelo://app?vid=4ffc9d79-d56a-482d-b7d9-a5892348f435"},"vehicle_type_id":"4","last_reported":1753729948,"current_range_meters":18000,"station_id":"ce4bhbh2rcd13ifvqepg","pricing_plan_id":"cebpf4jnsgd1na2vs0mg"},{"bike_id":"1cc77f6b-acca-47ea-9df0-2949b5801636","system_id":"levelo_inurba_marseille","lat":43.28034,"lon":5.36948,"is_reserved":false,"is_disabled":false,"rental_uris":{"android":"levelo://app?vid=1cc77f6b-acca-47ea-9df0-2949b5801636","ios":"levelo://app?vid=1cc77f6b-acca-47ea-9df0-2949b5801636"},"vehicle_type_id":"4","last_reported":1753729948,"current_range_meters":18000,"station_id":"ce4bha12rcd13ifvqef0","pricing_plan_id":"cebpf4jnsgd1na2vs0mg"},{"bike_id":"c9761c62-8989-4059-bb1c-609dfa2cde40","system_id":"levelo_inurba_marseille","lat":43.29792,"lon":5.37113,"is_reserved":false,"is_disabled":false,"rental_uris":{"android":"levelo://app?vid=c9761c62-8989-4059-bb1c-609dfa2cde40","ios":"levelo://app?vid=c9761c62-8989-4059-bb1c-609dfa2cde40"},"vehicle_type_id":"4","last_reported":1753729948,"current_range_meters":18000,"station_id":"ce4bgop2rcd13ifvqc1g","pricing_plan_id":"cebpf4jnsgd1na2vs0mg"},{"bike_id":"efa8f473-7836-4bed-9532-c3b4f53536ee","system_id":"levelo_inurba_marseille","lat":43.29258,"lon":5.38441,"is_reserved":false,"is_disabled":false,"rental_uris":{"android":"levelo://app?vid=efa8f473-7836-4bed-9532-c3b4f53536ee","ios":"levelo://app?vid=efa8f473-7836-4bed-9532-c3b4f53536ee"},"vehicle_type_id":"4","last_reported":1753729948,"current_range_meters":18000,"station_id":"ce4bh692rcd13ifvqea0","pricing_plan_id":"cebpf4jnsgd1na2vs0mg"},{"bike_id":"75aa074a-8804-4fec-88d9-260a8abf5ca1","system_id":"levelo_inurba_marseille","lat":43.265499,"lon":5.372772,"is_reserved":false,"is_disabled":false,"rental_uris":{"android":"levelo://app?vid=75aa074a-8804-4fec-88d9-260a8abf5ca1","ios":"levelo://app?vid=75aa074a-8804-4fec-88d9-260a8abf5ca1"},"vehicle_type_id":"4","last_reported":1753729948,"current_range_meters":18000,"station_id":"ce4bhg12rcd13ifvqf70","pricing_plan_id":"cebpf4jnsgd1na2vs0mg"},{"bike_id":"f678aa4b-31eb-4ee2-8d31-92d2cbeb67ef","system_id":"levelo_inurba_marseille","lat":43.29298,"lon":5.37456,"is_reserved":false,"is_disabled":false,"rental_uris":{"android":"levelo://app?vid=f678aa4b-31eb-4ee2-8d31-92d2cbeb67ef","ios":"levelo://app?vid=f678aa4b-31eb-4ee2-8d31-92d2cbeb67ef"},"vehicle_type_id":"4","last_reported":1753729948,"current_range_meters":18000,"station_id":"ce4bgi12rcd13ifvqb70","pricing_plan_id":"cebpf4jnsgd1na2vs0mg"},{"bike_id":"8600117f-2868-4874-a87b-44da40a3eccd","system_id":"levelo_inurba_marseille","lat":43.2294,"lon":5.35391,"is_reserved":false,"is_disabled":false,"rental_uris":{"android":"levelo://app?vid=8600117f-2868-4874-a87b-44da40a3eccd","ios":"levelo://app?vid=8600117f-2868-4874-a87b-44da40a3eccd"},"vehicle_type_id":"4","last_reported":1753729948,"current_range_meters":18000,"station_id":"cpo3532slgdg3j2ikp40","pricing_plan_id":"cebpf4jnsgd1na2vs0mg"},{"bike_id":"0284b153-ed18-4aff-854a-398618bd67fc","system_id":"levelo_inurba_marseille","lat":43.28426,"lon":5.34987,"is_reserved":false,"is_disabled":false,"rental_uris":{"android":"levelo://app?vid=0284b153-ed18-4aff-854a-398618bd67fc","ios":"levelo://app?vid=0284b153-ed18-4aff-854a-398618bd67fc"},"vehicle_type_id":"4","last_reported":1753729948,"current_range_meters":18000,"station_id":"ce4bhbh2rcd13ifvqepg","pricing_plan_id":"cebpf4jnsgd1na2vs0mg"},{"bike_id":"f2bbbcad-be60-49b0-8ff2-cde2cb45c129","system_id":"levelo_inurba_marseille","lat":43.29031,"lon":5.38639,"is_reserved":false,"is_disabled":false,"rental_uris":{"android":"levelo://app?vid=f2bbbcad-be60-49b0-8ff2-cde2cb45c129","ios":"levelo://app?vid=f2bbbcad-be60-49b0-8ff2-cde2cb45c129"},"vehicle_type_id":"4","last_reported":1753729948,"current_range_meters":20000,"station_id":"ce4bh4p2rcd13ifvqe0g","pricing_plan_id":"cebpf4jnsgd1na2vs0mg"},{"bike_id":"dd1608c3-7811-445b-aaed-91023b37697c","system_id":"levelo_inurba_marseille","lat":43.29269,"lon":5.38451,"is_reserved":false,"is_disabled":false,"rental_uris":{"android":"levelo://app?vid=dd1608c3-7811-445b-aaed-91023b37697c","ios":"levelo://app?vid=dd1608c3-7811-445b-aaed-91023b37697c"},"vehicle_type_id":"4","last_reported":1753729948,"current_range_meters":18000,"station_id":"ce4bh692rcd13ifvqea0","pricing_plan_id":"cebpf4jnsgd1na2vs0mg"},{"bike_id":"f0340f21-7c93-4b9d-b48f-b4c080f4dbe6","system_id":"levelo_inurba_marseille","lat":43.2908,"lon":5.37191,"is_reserved":false,"is_disabled":false,"rental_uris":{"android":"levelo://app?vid=f0340f21-7c93-4b9d-b48f-b4c080f4dbe6","ios":"levelo://app?vid=f0340f21-7c93-4b9d-b48f-b4c080f4dbe6"},"vehicle_type_id":"4","last_reported":1753729948,"current_range_meters":18000,"station_id":"ce4bh5p2rcd13ifvqe4g","pricing_plan_id":"cebpf4jnsgd1na2vs0mg"},{"bike_id":"0d2b62a3-62e5-4e4e-a2fa-c7d6d6f1b1b0","system_id":"levelo_inurba_marseille","lat":43.29196,"lon":5.35804,"is_reserved":false,"is_disabled":false,"rental_uris":{"android":"levelo://app?vid=0d2b62a3-62e5-4e4e-a2fa-c7d6d6f1b1b0","ios":"levelo://app?vid=0d2b62a3-62e5-4e4e-a2fa-c7d6d6f1b1b0"},"vehicle_type_id":"4","last_reported":1753729948,"current_range_meters":18800,"station_id":"ce4bhb12rcd13ifvqel0","pricing_plan_id":"cebpf4jnsgd1na2vs0mg"},{"bike_id":"5d57ebcf-2331-4742-b553-56b444588875","system_id":"levelo_inurba_marseille","lat":43.26204,"lon":5.37465,"is_reserved":false,"is_disabled":false,"rental_uris":{"android":"levelo://app?vid=5d57ebcf-2331-4742-b553-56b444588875","ios":"levelo://app?vid=5d57ebcf-2331-4742-b553-56b444588875"},"vehicle_type_id":"4","last_reported":1753729948,"current_range_meters":18800,"station_id":"ce4bhgp2rcd13ifvqfc0","pricing_plan_id":"cebpf4jnsgd1na2vs0mg"},{"bike_id":"df59e2f2-ebcb-4b5d-884c-2c743fa57461","system_id":"levelo_inurba_marseille","lat":43.2862,"lon":5.35088,"is_reserved":false,"is_disabled":false,"rental_uris":{"android":"levelo://app?vid=df59e2f2-ebcb-4b5d-884c-2c743fa57461","ios":"levelo://app?vid=df59e2f2-ebcb-4b5d-884c-2c743fa57461"},"vehicle_type_id":"4","last_reported":1753729948,"current_range_meters":18800,"station_id":"ce4bhch2rcd13ifvqeug","pricing_plan_id":"cebpf4jnsgd1na2vs0mg"},{"bike_id":"57c25787-5337-4fe9-8a83-3851365c86d4","system_id":"levelo_inurba_marseille","lat":43.28572,"lon":5.35127,"is_reserved":false,"is_disabled":false,"rental_uris":{"android":"levelo://app?vid=57c25787-5337-4fe9-8a83-3851365c86d4","ios":"levelo://app?vid=57c25787-5337-4fe9-8a83-3851365c86d4"},"vehicle_type_id":"4","last_reported":1753729948,"current_range_meters":18800,"station_id":"","pricing_plan_id":"cebpf4jnsgd1na2vs0mg"},{"bike_id":"227ddd15-53c8-4af5-ac55-2be36ae48567","system_id":"levelo_inurba_marseille","lat":43.30127,"lon":5.39866,"is_reserved":false,"is_disabled":false,"rental_uris":{"android":"levelo://app?vid=227ddd15-53c8-4af5-ac55-2be36ae48567","ios":"levelo://app?vid=227ddd15-53c8-4af5-ac55-2be36ae48567"},"vehicle_type_id":"4","last_reported":1753729948,"current_range_meters":18800,"station_id":"ce4bh0h2rcd13ifvqd40","pricing_plan_id":"cebpf4jnsgd1na2vs0mg"},{"bike_id":"b7234136-bf62-4ef1-9964-a9c43529d354","system_id":"levelo_inurba_marseille","lat":43.31802,"lon":5.39455,"is_reserved":false,"is_disabled":false,"rental_uris":{"android":"levelo://app?vid=b7234136-bf62-4ef1-9964-a9c43529d354","ios":"levelo://app?vid=b7234136-bf62-4ef1-9964-a9c43529d354"},"vehicle_type_id":"4","last_reported":1753729948,"current_range_meters":18800,"station_id":"","pricing_plan_id":"cebpf4jnsgd1na2vs0mg"},{"bike_id":"d25e1574-af04-46a7-9df2-df909a2763bd","system_id":"levelo_inurba_marseille","lat":43.23178,"lon":5.39993,"is_reserved":false,"is_disabled":false,"rental_uris":{"android":"levelo://app?vid=d25e1574-af04-46a7-9df2-df909a2763bd","ios":"levelo://app?vid=d25e1574-af04-46a7-9df2-df909a2763bd"},"vehicle_type_id":"4","last_reported":1753729948,"current_range_meters":18000,"station_id":"ce4bhn12rcd13ifvqgqg","pricing_plan_id":"cebpf4jnsgd1na2vs0mg"},{"bike_id":"d8e6094c-0de7-412e-bab8-3969f4a35524","system_id":"levelo_inurba_marseille","lat":43.29847,"lon":5.37574,"is_reserved":false,"is_disabled":false,"rental_uris":{"android":"levelo://app?vid=d8e6094c-0de7-412e-bab8-3969f4a35524","ios":"levelo://app?vid=d8e6094c-0de7-412e-bab8-3969f4a35524"},"vehicle_type_id":"4","last_reported":1753729948,"current_range_meters":18800,"station_id":"","pricing_plan_id":"cebpf4jnsgd1na2vs0mg"},{"bike_id":"6a572c23-a95b-4f4a-8a53-33876eff2ac0","system_id":"levelo_inurba_marseille","lat":43.27162,"lon":5.4099,"is_reserved":false,"is_disabled":false,"rental_uris":{"android":"levelo://app?vid=6a572c23-a95b-4f4a-8a53-33876eff2ac0","ios":"levelo://app?vid=6a572c23-a95b-4f4a-8a53-33876eff2ac0"},"vehicle_type_id":"4","last_reported":1753729948,"current_range_meters":18800,"station_id":"ce4bhl12rcd13ifvqgf0","pricing_plan_id":"cebpf4jnsgd1na2vs0mg"},{"bike_id":"d04f5f6f-9894-42ef-a48e-c7223c9346d9","system_id":"levelo_inurba_marseille","lat":43.31348,"lon":5.38463,"is_reserved":false,"is_disabled":true,"rental_uris":{"android":"levelo://app?vid=d04f5f6f-9894-42ef-a48e-c7223c9346d9","ios":"levelo://app?vid=d04f5f6f-9894-42ef-a48e-c7223c9346d9"},"vehicle_type_id":"4","last_reported":1753729948,"current_range_meters":18800,"station_id":"ce4bgt92rcd13ifvqcf0","pricing_plan_id":"cebpf4jnsgd1na2vs0mg"},{"bike_id":"0f68d53e-64c9-4951-ab8c-fa4722897173","system_id":"levelo_inurba_marseille","lat":43.30133,"lon":5.38785,"is_reserved":false,"is_disabled":false,"rental_uris":{"android":"levelo://app?vid=0f68d53e-64c9-4951-ab8c-fa4722897173","ios":"levelo://app?vid=0f68d53e-64c9-4951-ab8c-fa4722897173"},