{"last_updated":1767784298,"ttl":60,"version":"2.2","data":{"bikes":[{"bike_id":"ca5878b7-4d61-44ab-9910-3276a0f855bc","system_id":"levelo_inurba_marseille","lat":43.29689,"lon":5.37696,"is_reserved":false,"is_disabled":false,"rental_uris":{"android":"levelo://app?vid=ca5878b7-4d61-44ab-9910-3276a0f855bc","ios":"levelo://app?vid=ca5878b7-4d61-44ab-9910-3276a0f855bc"},"vehicle_type_id":"4","last_reported":1767784298,"current_range_meters":2800,"station_id":"ce4bgkh2rcd13ifvqbl0","pricing_plan_id":"cebpf4jnsgd1na2vs0mg"},{"bike_id":"28710909-6836-4051-8df5-ac7ea21a74d1","system_id":"levelo_inurba_marseille","lat":43.31498,"lon":5.38633,"is_reserved":false,"is_disabled":false,"rental_uris":{"android":"levelo://app?vid=28710909-6836-4051-8df5-ac7ea21a74d1","ios":"levelo://app?vid=28710909-6836-4051-8df5-ac7ea21a74d1"},"vehicle_type_id":"4","last_reported":1767784298,"current_range_meters":2800,"station_id":"","pricing_plan_id":"cebpf4jnsgd1na2vs0mg"},{"bike_id":"5ec1f8c3-0e16-411f-9afb-0b32d03d3548","system_id":"levelo_inurba_marseille","lat":43.31348,"lon":5.4055,"is_reserved":false,"is_disabled":false,"rental_uris":{"android":"levelo://app?vid=5ec1f8c3-0e16-411f-9afb-0b32d03d3548","ios":"levelo://app?vid=5ec1f8c3-0e16-411f-9afb-0b32d03d3548"},"vehicle_type_id":"4","last_reported":1767784298,"current_range_meters":2800,"station_id":"","pricing_plan_id":"cebpf4jnsgd1na2vs0mg"},{"bike_id":"78093284-500a-4e8a-910d-5d3f22d1a75b","system_id":"levelo_inurba_marseille","lat":43.24065,"lon":5.37779,"is_reserved":false,"is_disabled":false,"rental_uris":{"android":"levelo://app?vid=78093284-500a-4e8a-910d-5d3f22d1a75b","ios":"levelo://app?vid=78093284-500a-4e8a-910d-5d3f22d1a75b"},"vehicle_type_id":"4","last_reported":1767784298,"current_range_meters":2800,"station_id":"ce4bhnp2rcd13ifvqgvg","pricing_plan_id":"cebpf4jnsgd1na2vs0mg"},{"bike_id":"6953ac33-6fcc-4362-b1f8-115bfde9627c","system_id":"levelo_inurba_marseille","lat":43.29043,"lon":5.3593,"is_reserved":false,"is_disabled":false,"rental_uris":{"android":"levelo://app?vid=6953ac33-6fcc-4362-b1f8-115bfde9627c","ios":"levelo://app?vid=6953ac33-6fcc-4362-b1f8-115bfde9627c"},"vehicle_type_id":"4","last_reported":1767784298,"current_range_meters":2800,"station_id":"ce4bha92rcd13ifvqeg0","pricing_plan_id":"cebpf4jnsgd1na2vs0mg"},{"bike_id":"f102bd43-6db6-4e90-adaa-b9724efc04b8","system_id":"levelo_inurba_marseille","lat":43.24677,"lon":5.38167,"is_reserved":false,"is_disabled":false,"rental_uris":{"android":"levelo://app?vid=f102bd43-6db6-4e90-adaa-b9724efc04b8","ios":"levelo://app?vid=f102bd43-6db6-4e90-adaa-b9724efc04b8"},"vehicle_type_id":"4","last_reported":1767784298,"current_range_meters":2800,"station_id":"ce4bhih2rcd13ifvqfr0","pricing_plan_id":"cebpf4jnsgd1na2vs0mg"},{"bike_id":"b852f698-ccdb-4682-8542-a52da041a0a8","system_id":"levelo_inurba_marseille","lat":43.292584,"lon":5.408938,"is_reserved":false,"is_disabled":false,"rental_uris":{"android":"levelo://app?vid=b852f698-ccdb-4682-8542-a52da041a0a8","ios":"levelo://app?vid=b852f698-ccdb-4682-8542-a52da041a0a8"},"vehicle_type_id":"4","last_reported":1767784298,"current_range_meters":2800,"station_id":"ce4bh192rcd13ifvqdc0","pricing_plan_id":"cebpf4jnsgd1na2vs0mg"},{"bike_id":"565f99b7-e9e2-4b44-8331-6450d9ae6732","system_id":"levelo_inurba_marseille","lat":43.32095,"lon":5.36795,"is_reserved":false,"is_disabled":false,"rental_uris":{"android":"levelo://app?vid=565f99b7-e9e2-4b44-8331-6450d9ae6732","ios":"levelo://app?vid=565f99b7-e9e2-4b44-8331-6450d9ae6732"},"vehicle_type_id":"4","last_reported":1767784298,"current_range_meters":3200,"station_id":"ce4bhrh2rcd13ifvqhug","pricing_plan_id":"cebpf4jnsgd1na2vs0mg"},{"bike_id":"969b1719-3fa2-4d7b-b48c-3f3c994a3da7","system_id":"levelo_inurba_marseille","lat":43.2918,"lon":5.39546,"is_reserved":false,"is_disabled":false,"rental_uris":{"android":"levelo://app?vid=969b1719-3fa2-4d7b-b48c-3f3c994a3da7","ios":"levelo://app?vid=969b1719-3fa2-4d7b-b48c-3f3c994a3da7"},"vehicle_type_id":"4","last_reported":1767784298,"current_range_meters":3200,"station_id":"","pricing_plan_id":"cebpf4jnsgd1na2vs0mg"},{"bike_id":"68ecef4a-3d03-4b87-95fa-e44657e4c2a6","system_id":"levelo_inurba_marseille","lat":43.29758,"lon":5.42772,"is_reserved":false,"is_disabled":false,"rental_uris":{"android":"levelo://app?vid=68ecef4a-3d03-4b87-95fa-e44657e4c2a6","ios":"levelo://app?vid=68ecef4a-3d03-4b87-95fa-e44657e4c2a6"},"vehicle_type_id":"4","last_reported":1767784298,"current_range_meters":3200,"station_id":"st_d3md5207bmas73dh9klg","pricing_plan_id":"cebpf4jnsgd1na2vs0mg"},{"bike_id":"8015c7a3-ca99-4bed-b795-854d89867176","system_id":"levelo_inurba_marseille","lat":43.300345,"lon":5.373509,"is_reserved":false,"is_disabled":false,"rental_uris":{"android":"levelo://app?vid=8015c7a3-ca99-4bed-b795-854d89867176","ios":"levelo://app?vid=8015c7a3-ca99-4bed-b795-854d89867176"},"vehicle_type_id":"4","last_reported":1767784298,"current_range_meters":3200,"station_id":"","pricing_plan_id":"cebpf4jnsgd1na2vs0mg"},{"bike_id":"71c53044-c0ca-48e9-968f-ab1ba6524736","system_id":"levelo_inurba_marseille","lat":43.23972,"lon":5.36642,"is_reserved":false,"is_disabled":false,"rental_uris":{"android":"levelo://app?vid=71c53044-c0ca-48e9-968f-ab1ba6524736","ios":"levelo://app?vid=71c53044-c0ca-48e9-968f-ab1ba6524736"},"vehicle_type_id":"4","last_reported":1767784298,"current_range_meters":3200,"station_id":"ce4bhi12rcd13ifvqfp0","pricing_plan_id":"cebpf4jnsgd1na2vs0mg"},{"bike_id":"f7266f96-97df-4d00-8894-b574c422868e","system_id":"levelo_inurba_marseille","lat":43.2871,"lon":5.36113,"is_reserved":false,"is_disabled":false,"rental_uris":{"android":"levelo://app?vid=f7266f96-97df-4d00-8894-b574c422868e","ios":"levelo://app?vid=f7266f96-97df-4d00-8894-b574c422868e"},"vehicle_type_id":"4","last_reported":1767784298,"current_range_meters":3600,"station_id":"cki0cbj6b192h4jlfktg","pricing_plan_id":"cebpf4jnsgd1na2vs0mg"},{"bike_id":"0b3848bc-ace3-4892-af77-7c0b65d867b0","system_id":"levelo_inurba_marseille","lat":43.299825,"lon":5.371921,"is_reserved":false,"is_disabled":false,"rental_uris":{"android":"levelo://app?vid=0b3848bc-ace3-4892-af77-7c0b65d867b0","ios":"levelo://app?vid=0b3848bc-ace3-4892-af77-7c0b65d867b0"},"vehicle_type_id":"4","last_reported":1767784298,"current_range_meters":3600,"station_id":"ce4bgr92rcd13ifvqc7g","pricing_plan_id":"cebpf4jnsgd1na2vs0mg"},{"bike_id":"d599e143-3cfd-4dd2-ba0d-054f2e412eda","system_id":"levelo_inurba_marseille","lat":43.28263,"lon":5.35085,"is_reserved":false,"is_disabled":false,"rental_uris":{"android":"levelo://app?vid=d599e143-3cfd-4dd2-ba0d-054f2e412eda","ios":"levelo://app?vid=d599e143-3cfd-4dd2-ba0d-054f2e412eda"},"vehicle_type_id":"4","last_reported":1767784298,"current_range_meters":3600,"station_id":"ce4bhbp2rcd13ifvqerg","pricing_plan_id":"cebpf4jnsgd1na2vs0mg"},{"bike_id":"5c78052d-8b4f-4e51-8ddb-87be6fb225ca","system_id":"levelo_inurba_marseille","lat":43.23197,"lon":5.35564,"is_reserved":false,"is_disabled":false,"rental_uris":{"android":"levelo://app?vid=5c78052d-8b4f-4e51-8ddb-87be6fb225ca","ios":"levelo://app?vid=5c78052d-8b4f-4e51-8ddb-87be6fb225ca"},"vehicle_type_id":"4","last_reported":1767784298,"current_range_meters":3600,"station_id":"ce4bhu92rcd13ifvqi70","pricing_plan_id":"cebpf4jnsgd1na2vs0mg"},{"bike_id":"9543aad1-f2c5-4f3f-ab6a-e1b8918ce8ce","system_id":"levelo_inurba_marseille","lat":43.29899,"lon":5.38499,"is_reserved":false,"is_disabled":false,"rental_uris":{"android":"levelo://app?vid=9543aad1-f2c5-4f3f-ab6a-e1b8918ce8ce","ios":"levelo://app?vid=9543aad1-f2c5-4f3f-ab6a-e1b8918ce8ce"},"vehicle_type_id":"4","last_reported":1767784298,"current_range_meters":3600,"station_id":"","pricing_plan_id":"cebpf4jnsgd1na2vs0mg"},{"bike_id":"70c2f004-9590-4f0b-96aa-f0620dcde761","system_id":"levelo_inurba_marseille","lat":43.24539,"lon":5.39535,"is_reserved":false,"is_disabled":false,"rental_uris":{"android":"levelo://app?vid=70c2f004-9590-4f0b-96aa-f0620dcde761","ios":"levelo://app?vid=70c2f004-9590-4f0b-96aa-f0620dcde761"},"vehicle_type_id":"4","last_reported":1767784298,"current_range_meters":3600,"station_id":"ce4bhlp2rcd13ifvqgjg","pricing_plan_id":"cebpf4jnsgd1na2vs0mg"},{"bike_id":"fad68b58-3feb-4a99-9f33-50e6502be28a","system_id":"levelo_inurba_marseille","lat":43.3286,"lon":5.37506,"is_reserved":false,"is_disabled":false,"rental_uris":{"android":"levelo://app?vid=fad68b58-3feb-4a99-9f33-50e6502be28a","ios":"levelo://app?vid=fad68b58-3feb-4a99-9f33-50e6502be28a"},"vehicle_type_id":"4","last_reported":1767784298,"current_range_meters":3600,"station_id":"","pricing_plan_id":"cebpf4jnsgd1na2vs0mg"},{"bike_id":"c773f61c-a83f-41d9-bdd4-df8791dcab70","system_id":"levelo_inurba_marseille","lat":43.29782,"lon":5.3774,"is_reserved":false,"is_disabled":false,"rental_uris":{"android":"levelo://app?vid=c773f61c-a83f-41d9-bdd4-df8791dcab70","ios":"levelo://app?vid=c773f61c-a83f-41d9-bdd4-df8791dcab70"},"vehicle_type_id":"4","last_reported":1767784298,"current_range_meters":3600,"station_id":"","pricing_plan_id":"cebpf4jnsgd1na2vs0mg"},{"bike_id":"51bab64f-1b87-4acc-8f72-1bf6c05e5090","system_id":"levelo_inurba_marseille","lat":43.231917,"lon":5.355514,"is_reserved":false,"is_disabled":false,"rental_uris":{"android":"levelo://app?vid=51bab64f-1b87-4acc-8f72-1bf6c05e5090","ios":"levelo://app?vid=51bab64f-1b87-4acc-8f72-1bf6c05e5090"},"vehicle_type_id":"4","last_reported":1767784298,"current_range_meters":3600,"station_id":"ce4bhu92rcd13ifvqi70","pricing_plan_id":"cebpf4jnsgd1na2vs0mg"},{"bike_id":"bf0a0489-ec91-406d-a7a0-4b4e36bfc3bb","system_id":"levelo_inurba_marseille","lat":43.229333,"lon":5.353798,"is_reserved":false,"is_disabled":false,"rental_uris":{"android":"levelo://app?vid=bf0a0489-ec91-406d-a7a0-4b4e36bfc3bb","ios":"levelo://app?vid=bf0a0489-ec91-406d-a7a0-4b4e36bfc3bb"},"vehicle_type_id":"4","last_reported":1767784298,"current_range_meters":3600,"station_id":"cpo3532slgdg3j2ikp40","pricing_plan_id":"cebpf4jnsgd1na2vs0mg"},{"bike_id":"79050b2d-51dd-4422-b5f7-33cfc5837f53","system_id":"levelo_inurba_marseille","lat":43.31278,"lon":5.37752,"is_reserved":false,"is_disabled":false,"rental_uris":{"android":"levelo://app?vid=79050b2d-51dd-4422-b5f7-33cfc5837f53","ios":"levelo://app?vid=79050b2d-51dd-4422-b5f7-33cfc5837f53"},"vehicle_type_id":"4","last_reported":1767784298,"current_range_meters":3600,"station_id":"","pricing_plan_id":"cebpf4jnsgd1na2vs0mg"},{"bike_id":"999e74f3-d4b2-444d-89bc-239d909db7d5","system_id":"levelo_inurba_marseille","lat":43.30101,"lon":5.36953,"is_reserved":false,"is_disabled":false,"rental_uris":{"android":"levelo://app?vid=999e74f3-d4b2-444d-89bc-239d909db7d5","ios":"levelo://app?vid=999e74f3-d4b2-444d-89bc-239d909db7d5"},"vehicle_type_id":"4","last_reported":1767784298,"current_range_meters":3600,"station_id":"","pricing_plan_id":"cebpf4jnsgd1na2vs0mg"},{"bike_id":"ca63ac5e-4977-4cc4-9a3c-1e1e37d19fea","system_id":"levelo_inurba_marseille","lat":43.27187,"lon":5.39243,"is_reserved":false,"is_disabled":false,"rental_uris":{"android":"levelo://app?vid=ca63ac5e-4977-4cc4-9a3c-1e1e37d19fea","ios":"levelo://app?vid=ca63ac5e-4977-4cc4-9a3c-1e1e37d19fea"},"vehicle_type_id":"4","last_reported":1767784298,"current_range_meters":3600,"station_id":"ce4bhhp2rcd13ifvqfm0","pricing_plan_id":"cebpf4jnsgd1na2vs0mg"},{"bike_id":"9265da08-af6b-41f8-a564-a7a5e4a8d66e","system_id":"levelo_inurba_marseille","lat":43.2848,"lon":5.48396,"is_reserved":false,"is_disabled":false,"rental_uris":{"android":"levelo://app?vid=9265da08-af6b-41f8-a564-a7a5e4a8d66e","ios":"levelo://app?vid=9265da08-af6b-41f8-a564-a7a5e4a8d66e"},"vehicle_type_id":"4","last_reported":1767784298,"current_range_meters":3600,"station_id":"","pricing_plan_id":"cebpf4jnsgd1na2vs0mg"},{"bike_id":"3bc88049-fe85-4f81-88f2-4fe0073c7893","system_id":"levelo_inurba_marseille","lat":43.29819,"lon":5.3904,"is_reserved":false,"is_disabled":false,"rental_uris":{"android":"levelo://app?vid=3bc88049-fe85-4f81-88f2-4fe0073c7893","ios":"levelo://app?vid=3bc88049-fe85-4f81-88f2-4fe0073c7893"},"vehicle_type_id":"4","last_reported":1767784298,"current_range_meters":3600,"station_id":"ce4bgqh2rcd13ifvqc5g","pricing_plan_id":"cebpf4jnsgd1na2vs0mg"},{"bike_id":"c92f9eb1-4edf-4277-a16e-c93cc6295b90","system_id":"levelo_inurba_marseille","lat":43.31402,"lon":5.40429,"is_reserved":false,"is_disabled":false,"rental_uris":{"android":"levelo://app?vid=c92f9eb1-4edf-4277-a16e-c93cc6295b90","ios":"levelo://app?vid=c92f9eb1-4edf-4277-a16e-c93cc6295b90"},"vehicle_type_id":"4","last_reported":1767784298,"current_range_meters":3600,"station_id":"","pricing_plan_id":"cebpf4jnsgd1na2vs0mg"},{"bike_id":"e39e909d-a3c5-43e0-be4e-6cfc87e9605c","system_id":"levelo_inurba_marseille","lat":43.27715,"lon":5.38885,"is_reserved":false,"is_disabled":false,"rental_uris":{"android":"levelo://app?vid=e39e909d-a3c5-43e0-be4e-6cfc87e9605c","ios":"levelo://app?vid=e39e909d-a3c5-43e0-be4e-6cfc87e9605c"},"vehicle_type_id":"4","last_reported":1767784298,"current_range_meters":3600,"station_id":"ce4bhi12rcd13ifvqfo0","pricing_plan_id":"cebpf4jnsgd1na2vs0mg"},{"bike_id":"ad9c57a4-d8a7-41c0-8bf9-21a179390ca8","system_id":"levelo_inurba_marseille","lat":43.28532,"lon":5.44096,"is_reserved":false,"is_disabled":false,"rental_uris":{"android":"levelo://app?vid=ad9c57a4-d8a7-41c0-8bf9-21a179390ca8","ios":"levelo://app?vid=ad9c57a4-d8a7-41c0-8bf9-21a179390ca8"},"vehicle_type_id":"4","last_reported":1767784298,"current_range_meters":3600,"station_id":"st_d3j3df2ikq2c7380ej80","pricing_plan_id":"cebpf4jnsgd1na2vs0mg"},{"bike_id":"cb160781-6f91-4de0-bc7d-1c259304a6fa","system_id":"levelo_inurba_marseille","lat":43.26684,"lon":5.38268,"is_reserved":false,"is_disabled":false,"rental_uris":{"android":"levelo://app?vid=cb160781-6f91-4de0-bc7d-1c259304a6fa","ios":"levelo://app?vid=cb160781-6f91-4de0-bc7d-1c259304a6fa"},"vehicle_type_id":"4","last_reported":1767784298,"current_range_meters":3600,"station_id":"ce4bhg92rcd13ifvqf90","pricing_plan_id":"cebpf4jnsgd1na2vs0mg"},{"bike_id":"d22d9ece-62b8-40c6-881b-8ad44e1a6b0e","system_id":"levelo_inurba_marseille","lat":43.26203,"lon":5.3747,"is_reserved":false,"is_disabled":false,"rental_uris":{"android":"levelo://app?vid=d22d9ece-62b8-40c6-881b-8ad44e1a6b0e","ios":"levelo://app?vid=d22d9ece-62b8-40c6-881b-8ad44e1a6b0e"},"vehicle_type_id":"4","last_reported":1767784298,"current_range_meters":4000,"station_id":"ce4bhgp2rcd13ifvqfc0","pricing_plan_id":"cebpf4jnsgd1na2vs0mg"},{"bike_id":"0c06ee89-a23c-4de7-ad02-722fd9dfce80","system_id":"levelo_inurba_marseille","lat":43.23146,"lon":5.43722,"is_reserved":false,"is_disabled":false,"rental_uris":{"android":"levelo://app?vid=0c06ee89-a23c-4de7-ad02-722fd9dfce80","ios":"levelo://app?vid=0c06ee89-a23c-4de7-ad02-722fd9dfce80"},"vehicle_type_id":"4","last_reported":1767784298,"current_range_meters":4000,"station_id":"ce4bhmp2rcd13ifvqgog","pricing_plan_id":"cebpf4jnsgd1na2vs0mg"},{"bike_id":"b2bf8f93-af04-463d-b424-98c34e1a8754","system_id":"levelo_inurba_marseille","lat":43.31351,"lon":5.36729,"is_reserved":false,"is_disabled":false,"rental_uris":{"android":"levelo://app?vid=b2bf8f93-af04-463d-b424-98c34e1a8754","ios":"levelo://app?vid=b2bf8f93-af04-463d-b424-98c34e1a8754"},"vehicle_type_id":"4","last_reported":1767784298,"current_range_meters":4000,"station_id":"ce4bgr92rcd13ifvqc6g","pricing_plan_id":"cebpf4jnsgd1na2vs0mg"},{"bike_id":"a3da1827-148b-41c2-bd04-cbeb3bb21a64","system_id":"levelo_inurba_marseille","lat":43.2796,"lon":5.38734,"is_reserved":false,"is_disabled":false,"rental_uris":{"android":"levelo://app?vid=a3da1827-148b-41c2-bd04-cbeb3bb21a64","ios":"levelo://app?vid=a3da1827-148b-41c2-bd04-cbeb3bb21a64"},"vehicle_type_id":"4","last_reported":1767784298,"current_range_meters":4000,"station_id":"ce4bhg12rcd13ifvqf80","pricing_plan_id":"cebpf4jnsgd1na2vs0mg"},{"bike_id":"59f38118-6a4d-4e62-8844-f6df1659fc07","system_id":"levelo_inurba_marseille","lat":43.29889,"lon":5.43675,"is_reserved":false,"is_disabled":false,"rental_uris":{"android":"levelo://app?vid=59f38118-6a4d-4e62-8844-f6df1659fc07","ios":"levelo://app?vid=59f38118-6a4d-4e62-8844-f6df1659fc07"},"vehicle_type_id":"4","last_reported":1767784298,"current_range_meters":4000,"station_id":"ce4bhpp2rcd13ifvqhfg","pricing_plan_id":"cebpf4jnsgd1na2vs0mg"},{"bike_id":"d2d5c922-3ec7-47cf-bb49-4d3b2b6af0f3","system_id":"levelo_inurba_marseille","lat":43.2764,"lon":5.38947,"is_reserved":false,"is_disabled":false,"rental_uris":{"android":"levelo://app?vid=d2d5c922-3ec7-47cf-bb49-4d3b2b6af0f3","ios":"levelo://app?vid=d2d5c922-3ec7-47cf-bb49-4d3b2b6af0f3"},"vehicle_type_id":"4","last_reported":1767784298,"current_range_meters":4000,"station_id":"ce4bhi12rcd13ifvqfo0","pricing_plan_id":"cebpf4jnsgd1na2vs0mg"},{"bike_id":"27d9b984-914c-44c6-abe9-2fee68ccfc43","system_id":"levelo_inurba_marseille","lat":43.33152,"lon":5.37704,"is_reserved":false,"is_disabled":false,"rental_uris":{"android":"levelo://app?vid=27d9b984-914c-44c6-abe9-2fee68ccfc43","ios":"levelo://app?vid=27d9b984-914c-44c6-abe9-2fee68ccfc43"},"vehicle_type_id":"4","last_reported":1767784298,"current_range_meters":4000,"station_id":"st_d46cu089ee8s73dldbu0","pricing_plan_id":"cebpf4jnsgd1na2vs0mg"},{"bike_id":"8d229d77-a482-488e-960c-7124092b66ec","system_id":"levelo_inurba_marseille","lat":43.29039,"lon":5.35931,"is_reserved":false,"is_disabled":false,"rental_uris":{"android":"levelo://app?vid=8d229d77-a482-488e-960c-7124092b66ec","ios":"levelo://app?vid=8d229d77-a482-488e-960c-7124092b66ec"},"vehicle_type_id":"4","last_reported":1767784298,"current_range_meters":4000,"station_id":"ce4bha92rcd13ifvqeg0","pricing_plan_id":"cebpf4jnsgd1na2vs0mg"},{"bike_id":"2b249141-87e2-4eaa-8d21-183c28a1a8bb","system_id":"levelo_inurba_marseille","lat":43.29733,"lon":5.42801,"is_reserved":false,"is_disabled":false,"rental_uris":{"android":"levelo://app?vid=2b249141-87e2-4eaa-8d21-183c28a1a8bb","ios":"levelo://app?vid=2b249141-87e2-4eaa-8d21-183c28a1a8bb"},"vehicle_type_id":"4","last_reported":1767784298,"current_range_meters":4000,"station_id":"st_d3md5207bmas73dh9klg","pricing_plan_id":"cebpf4jnsgd1na2vs0mg"},{"bike_id":"ccf217cd-c9f5-4bc1-98d3-1a2b90cbecdc","system_id":"levelo_inurba_marseille","lat":43.30177,"lon":5.36645,"is_reserved":false,"is_disabled":false,"rental_uris":{"android":"levelo://app?vid=ccf217cd-c9f5-4bc1-98d3-1a2b90cbecdc","ios":"levelo://app?vid=ccf217cd-c9f5-4bc1-98d3-1a2b90cbecdc"},"vehicle_type_id":"4","last_reported":1767784298,"current_range_meters":4400,"station_id":"ce4bgrh2rcd13ifvqc8g","pricing_plan_id":"cebpf4jnsgd1na2vs0mg"},{"bike_id":"676e009e-64a4-4c3a-982d-3996c5d570b7","system_id":"levelo_inurba_marseille","lat":43.27916,"lon":5.39582,"is_reserved":false,"is_disabled":false,"rental_uris":{"android":"levelo://app?vid=676e009e-64a4-4c3a-982d-3996c5d570b7","ios":"levelo://app?vid=676e009e-64a4-4c3a-982d-3996c5d570b7"},"vehicle_type_id":"4","last_reported":1767784298,"current_range_meters":4400,"station_id":"ce4bhf92rcd13ifvqf40","pricing_plan_id":"cebpf4jnsgd1na2vs0mg"},{"bike_id":"9429cadb-a739-4f5f-8c2b-cc91a27439eb","system_id":"levelo_inurba_marseille","lat":43.2768,"lon":5.42046,"is_reserved":false,"is_disabled":false,"rental_uris":{"android":"levelo://app?vid=9429cadb-a739-4f5f-8c2b-cc91a27439eb","ios":"levelo://app?vid=9429cadb-a739-4f5f-8c2b-cc91a27439eb"},"vehicle_type_id":"4","last_reported":1767784298,"current_range_meters":4400,"station_id":"","pricing_plan_id":"cebpf4jnsgd1na2vs0mg"},{"bike_id":"b66bb4c1-f725-4e39-bc75-35c0d2bffeae","system_id":"levelo_inurba_marseille","lat":43.30191,"lon":5.38097,"is_reserved":false,"is_disabled":false,"rental_uris":{"android":"levelo://app?vid=b66bb4c1-f725-4e39-bc75-35c0d2bffeae","ios":"levelo://app?vid=b66bb4c1-f725-4e39-bc75-35c0d2bffeae"},"vehicle_type_id":"4","last_reported":1767784298,"current_range_meters":4400,"station_id":"","pricing_plan_id":"cebpf4jnsgd1na2vs0mg"},{"bike_id":"c873afc9-fc9d-4302-8c14-5d9f18759889","system_id":"levelo_inurba_marseille","lat":43.28609,"lon":5.39875,"is_reserved":false,"is_disabled":false,"rental_uris":{"android":"levelo://app?vid=c873afc9-fc9d-4302-8c14-5d9f18759889","ios":"levelo://app?vid=c873afc9-fc9d-4302-8c14-5d9f18759889"},"vehicle_type_id":"4","last_reported":1767784298,"current_range_meters":4400,"station_id":"st_d4a7ka997mjs738ck50g","pricing_plan_id":"cebpf4jnsgd1na2vs0mg"},{"bike_id":"6a37a502-8a4f-4bc7-83bd-16348e8cf97e","system_id":"levelo_inurba_marseille","lat":43.32086,"lon":5.36763,"is_reserved":false,"is_disabled":false,"rental_uris":{"android":"levelo://app?vid=6a37a502-8a4f-4bc7-83bd-16348e8cf97e","ios":"levelo://app?vid=6a37a502-8a4f-4bc7-83bd-16348e8cf97e"},"vehicle_type_id":"4","last_reported":1767784298,"current_range_meters":4400,"station_id":"ce4bhrh2rcd13ifvqhug","pricing_plan_id":"cebpf4jnsgd1na2vs0mg"},{"bike_id":"2af0ce7c-ca3c-4dfe-9ab3-190f23e26597","system_id":"levelo_inurba_marseille","lat":43.238731,"lon":5.365227,"is_reserved":false,"is_disabled":false,"rental_uris":{"android":"levelo://app?vid=2af0ce7c-ca3c-4dfe-9ab3-190f23e26597","ios":"levelo://app?vid=2af0ce7c-ca3c-4dfe-9ab3-190f23e26597"},"vehicle_type_id":"4","last_reported":1767784298,"current_range_meters":4400,"station_id":"","pricing_plan_id":"cebpf4jnsgd1na2vs0mg"},{"bike_id":"1cc14a4e-8f2c-4bea-9c25-f855a4eff001","system_id":"levelo_inurba_marseille","lat":43.28629,"lon":5.35096,"is_reserved":false,"is_disabled":false,"rental_uris":{"android":"levelo://app?vid=1cc14a4e-8f2c-4bea-9c25-f855a4eff001","ios":"levelo://app?vid=1cc14a4e-8f2c-4bea-9c25-f855a4eff001"},"vehicle_type_id":"4","last_reported":1767784298,"current_range_meters":4400,"station_id":"ce4bhch2rcd13ifvqeug","pricing_plan_id":"cebpf4jnsgd1na2vs0mg"},{"bike_id":"b873d448-1951-4df5-bd2c-5e9d96c8aae5","system_id":"levelo_inurba_marseille","lat":43.23785,"lon":5.3663,"is_reserved":false,"is_disabled":false,"rental_uris":{"android":"levelo://app?vid=b873d448-1951-4df5-bd2c-5e9d96c8aae5","ios":"levelo://app?vid=b873d448-1951-4df5-bd2c-5e9d96c8aae5"},"vehicle_type_id":"4","last_reported":1767784298,"current_range_meters":4400,"station_id":"st_d3nk18o9ro0c73en2l3g","pricing_plan_id":"cebpf4jnsgd1na2vs0mg"},{"bike_id":"174e0a88-28ce-484e-8861-adcbe3a929da","system_id":"levelo_inurba_marseille","lat":43.28485,"lon":5.48388,"is_reserved":false,"is_disabled":false,"rental_uris":{"android":"levelo://app?vid=174e0a88-28ce-484e-8861-adcbe3a929da","ios":"levelo://app?vid=174e0a88-28ce-484e-8861-adcbe3a929da"},"vehicle_type_id":"4","last_reported":1767784298,"current_range_meters":4400,"station_id":"st_d3svhcjqgbts73a3dn0g","pricing_plan_id":"cebpf4jnsgd1na2vs0mg"},{"bike_id":"9b21424a-1587-45e4-bf2a-4284accabf77","system_id":"levelo_inurba_marseille","lat":43.28477,"lon":5.48416,"is_reserved":false,"is_disabled":false,"rental_uris":{"android":"levelo://app?vid=9b21424a-1587-45e4-bf2a-4284accabf77","ios":"levelo://app?vid=9b21424a-1587-45e4-bf2a-4284accabf77"},"vehicle_type_id":"4","last_reported":1767784298,"current_range_meters":4400,"station_id":"","pricing_plan_id":"cebpf4jnsgd1na2vs0mg"},{"bike_id":"b8cf98ec-4e7b-45be-a805-02d539b0c532","system_id":"levelo_inurba_marseille","lat":43.30976,"lon":5.39085,"is_reserved":false,"is_disabled":false,"rental_uris":{"android":"levelo://app?vid=b8cf98ec-4e7b-45be-a805-02d539b0c532","ios":"levelo://app?vid=b8cf98ec-4e7b-45be-a805-02d539b0c532"},"vehicle_type_id":"4","last_reported":1767784298,"current_range_meters":4400,"station_id":"ce4bgup2rcd13ifvqco0","pricing_plan_id":"cebpf4jnsgd1na2vs0mg"},{"bike_id":"a360cc81-80ba-4568-a86b-440c7cf3dafc","system_id":"levelo_inurba_marseille","lat":43.284664,"lon":5.358853,"is_reserved":false,"is_disabled":false,"rental_uris":{"android":"levelo://app?vid=a360cc81-80ba-4568-a86b-440c7cf3dafc","ios":"levelo://app?vid=a360cc81-80ba-4568-a86b-440c7cf3dafc"},"vehicle_type_id":"4","last_reported":1767784298,"current_range_meters":4800,"station_id":"ce4bhah2rcd13ifvqei0","pricing_plan_id":"cebpf4jnsgd1na2vs0mg"},{"bike_id":"a60e859d-20a7-4efc-ab94-0c4ccc8ad025","system_id":"levelo_inurba_marseille","lat":43.30624,"lon":5.36617,"is_reserved":false,"is_disabled":false,"rental_uris":{"android":"levelo://app?vid=a60e859d-20a7-4efc-ab94-0c4ccc8ad025","ios":"levelo://app?vid=a60e859d-20a7-4efc-ab94-0c4ccc8ad025"},"vehicle_type_id":"4","last_reported":1767784298,"current_range_meters":4800,"station_id":"","pricing_plan_id":"cebpf4jnsgd1na2vs0mg"},{"bike_id":"73b7ffc9-4bed-4e99-bfa7-6d859db78ae7","system_id":"levelo_inurba_marseille","lat":43.26558,"lon":5.40333,"is_reserved":false,"is_disabled":false,"rental_uris":{"android":"levelo://app?vid=73b7ffc9-4bed-4e99-bfa7-6d859db78ae7","ios":"levelo://app?vid=73b7ffc9-4bed-4e99-bfa7-6d859db78ae7"},"vehicle_type_id":"4","last_reported":1767784298,"current_range_meters":4800,"station_id":"ce4bhmp2rcd13ifvqgng","pricing_plan_id":"cebpf4jnsgd1na2vs0mg"},{"bike_id":"15bf6c3d-bc89-4e44-bfe7-ef27538e093c","system_id":"levelo_inurba_marseille","lat":43.24625,"lon":5.43161,"is_reserved":false,"is_disabled":false,"rental_uris":{"android":"levelo://app?vid=15bf6c3d-bc89-4e44-bfe7-ef27538e093c","ios":"levelo://app?vid=15bf6c3d-bc89-4e44-bfe7-ef27538e093c"},"vehicle_type_id":"4","last_reported":1767784298,"current_range_meters":4800,"station_id":"st_d2m6c4gdas8pm72e190g","pricing_plan_id":"cebpf4jnsgd1na2vs0mg"},{"bike_id":"671729d8-1472-46e6-9234-dc84c6097a13","system_id":"levelo_inurba_marseille","lat":43.24548,"lon":5.3953,"is_reserved":false,"is_disabled":false,"rental_uris":{"android":"levelo://app?vid=671729d8-1472-46e6-9234-dc84c6097a13","ios":"levelo://app?vid=671729d8-1472-46e6-9234-dc84c6097a13"},"vehicle_type_id":"4","last_reported":1767784298,"current_range_meters":4800,"station_id":"ce4bhlp2rcd13ifvqgjg","pricing_plan_id":"cebpf4jnsgd1na2vs0mg"},{"bike_id":"82f6d72a-169c-46dc-bf44-f03a21f411bf","system_id":"levelo_inurba_marseille","lat":43.24468,"lon":5.42536,"is_reserved":false,"is_disabled":false,"rental_uris":{"android":"levelo://app?vid=82f6d72a-169c-46dc-bf44-f03a21f411bf","ios":"levelo://app?vid=82f6d72a-169c-46dc-bf44-f03a21f411bf"},"vehicle_type_id":"4","last_reported":1767784298,"current_range_meters":4800,"station_id":"st_d4a3vfp97mjs738cd8kg","pricing_plan_id":"cebpf4jnsgd1na2vs0mg"},{"bike_id":"1206a4a8-f4d1-423c-a34f-7b8c1b1bbace","system_id":"levelo_inurba_marseille","lat":43.30239,"lon":5.40569,"is_reserved":false,"is_disabled":false,"rental_uris":{"android":"levelo://app?vid=1206a4a8-f4d1-423c-a34f-7b8c1b1bbace","ios":"levelo://app?vid=1206a4a8-f4d1-423c-a34f-7b8c1b1bbace"},"vehicle_type_id":"4","last_reported":1767784298,"current_range_meters":4800,"station_id":"","pricing_plan_id":"cebpf4jnsgd1na2vs0mg"},{"bike_id":"4b6e7f8f-0ef6-442a-a007-b2bfa5ddaf90","system_id":"levelo_inurba_marseille","lat":43.26778,"lon":5.39442,"is_reserved":false,"is_disabled":false,"rental_uris":{"android":"levelo://app?vid=4b6e7f8f-0ef6-442a-a007-b2bfa5ddaf90","ios":"levelo://app?vid=4b6e7f8f-0ef6-442a-a007-b2bfa5ddaf90"},"vehicle_type_id":"4","last_reported":1767784298,"current_range_meters":4800,"station_id":"ce4bhh12rcd13ifvqfg0","pricing_plan_id":"cebpf4jnsgd1na2vs0mg"},{"bike_id":"c50f334f-1e66-4878-a664-9e4a75db668f","system_id":"levelo_inurba_marseille","lat":43.31167,"lon":5.38706,"is_reserved":false,"is_disabled":false,"rental_uris":{"android":"levelo://app?vid=c50f334f-1e66-4878-a664-9e4a75db668f","ios":"levelo://app?vid=c50f334f-1e66-4878-a664-9e4a75db668f"},"vehicle_type_id":"4","last_reported":1767784298,"current_range_meters":5600,"station_id":"","pricing_plan_id":"cebpf4jnsgd1na2vs0mg"},{"bike_id":"5e72df6a-f014-4ea4-ad60-94057d8db01a","system_id":"levelo_inurba_marseille","lat":43.259334,"lon":5.409143,"is_reserved":false,"is_disabled":false,"rental_uris":{"android":"levelo://app?vid=5e72df6a-f014-4ea4-ad60-94057d8db01a","ios":"levelo://app?vid=5e72df6a-f014-4ea4-ad60-94057d8db01a"},"vehicle_type_id":"4","last_reported":1767784298,"current_range_meters":5600,"station_id":"ce4bhm92rcd13ifvqglg","pricing_plan_id":"cebpf4jnsgd1na2vs0mg"},{"bike_id":"03bb26cc-5abe-463b-b42d-df12dfc80fb1","system_id":"levelo_inurba_marseille","lat":43.27989,"lon":5.40025,"is_reserved":false,"is_disabled":false,"rental_uris":{"android":"levelo://app?vid=03bb26cc-5abe-463b-b42d-df12dfc80fb1","ios":"levelo://app?vid=03bb26cc-5abe-463b-b42d-df12dfc80fb1"},"vehicle_type_id":"4","last_reported":1767784298,"current_range_meters":5600,"station_id":"ce4bho92rcd13ifvqh4g","pricing_plan_id":"cebpf4jnsgd1na2vs0mg"},{"bike_id":"ab6fe2ee-200d-418c-a693-20bf0b5f3548","system_id":"levelo_inurba_marseille","lat":43.260668,"lon":5.393931,"is_reserved":false,"is_disabled":false,"rental_uris":{"android":"levelo://app?vid=ab6fe2ee-200d-418c-a693-20bf0b5f3548","ios":"levelo://app?vid=ab6fe2ee-200d-418c-a693-20bf0b5f3548"},"vehicle_type_id":"4","last_reported":1767784298,"current_range_meters":5600,"station_id":"","pricing_plan_id":"cebpf4jnsgd1na2vs0mg"},{"bike_id":"e9e6f93f-566e-422e-9b71-a79556ab8c5d","system_id":"levelo_inurba_marseille","lat":43.30286,"lon":5.45653,"is_reserved":false,"is_disabled":false,"rental_uris":{"android":"levelo://app?vid=e9e6f93f-566e-422e-9b71-a79556ab8c5d","ios":"levelo://app?vid=e9e6f93f-566e-422e-9b71-a79556ab8c5d"},"vehicle_type_id":"4","last_reported":1767784298,"current_range_meters":5600,"station_id":"","pricing_plan_id":"cebpf4jnsgd1na2vs0mg"},{"bike_id":"63931dd9-5e9c-4cb5-b5fe-d5d26fe59f6e","system_id":"levelo_inurba_marseille","lat":43.24168,"lon":5.36397,"is_reserved":false,"is_disabled":false,"rental_uris":{"android":"levelo://app?vid=63931dd9-5e9c-4cb5-b5fe-d5d26fe59f6e","ios":"levelo://app?vid=63931dd9-5e9c-4cb5-b5fe-d5d26fe59f6e"},"vehicle_type_id":"4","last_reported":1767784298,"current_range_meters":5600,"station_id":"cpo36qri1sfpv3e86is0","pricing_plan_id":"cebpf4jnsgd1na2vs0mg"},{"bike_id":"9664c604-c49f-4e11-935f-20095d606ade","system_id":"levelo_inurba_marseille","lat":43.278114,"lon":5.407185,"is_reserved":false,"is_disabled":false,"rental_uris":{"android":"levelo://app?vid=9664c604-c49f-4e11-935f-20095d606ade","ios":"levelo://app?vid=9664c604-c49f-4e11-935f-20095d606ade"},"vehicle_type_id":"4","last_reported":1767784298,"current_range_meters":5600,"station_id":"ce4bhnh2rcd13ifvqgtg","pricing_plan_id":"cebpf4jnsgd1na2vs0mg"},{"bike_id":"b8408ccb-17d0-4ba3-b31e-918a33cf6e7d","system_id":"levelo_inurba_marseille","lat":43.2467,"lon":5.38181,"is_reserved":false,"is_disabled":true,"rental_uris":{"android":"levelo://app?vid=b8408ccb-17d0-4ba3-b31e-918a33cf6e7d","ios":"levelo://app?vid=b8408ccb-17d0-4ba3-b31e-918a33cf6e7d"},"vehicle_type_id":"4","last_reported":1767784298,"current_range_meters":5600,"station_id":"ce4bhih2rcd13ifvqfr0","pricing_plan_id":"cebpf4jnsgd1na2vs0mg"},{"bike_id":"d2201747-bdee-4fca-872c-80a5ab417c3a","system_id":"levelo_inurba_marseille","lat":43.27204,"lon":5.39207,"is_reserved":false,"is_disabled":false,"rental_uris":{"android":"levelo://app?vid=d2201747-bdee-4fca-872c-80a5ab417c3a","ios":"levelo://app?vid=d2201747-bdee-4fca-872c-80a5ab417c3a"},"vehicle_type_id":"4","last_reported":1767784298,"current_range_meters":5600,"station_id":"ce4bhhp2rcd13ifvqfm0","pricing_plan_id":"cebpf4jnsgd1na2vs0mg"},{"bike_id":"104320d5-b81c-4894-85f8-707fc2689655","system_id":"levelo_inurba_marseille","lat":43.308916,"lon":5.396598,"is_reserved":false,"is_disabled":false,"rental_uris":{"android":"levelo://app?vid=104320d5-b81c-4894-85f8-707fc2689655","ios":"levelo://app?vid=104320d5-b81c-4894-85f8-707fc2689655"},"vehicle_type_id":"4","last_reported":1767784298,"current_range_meters":5600,"station_id":"ce4bh012rcd13ifvqcv0","pricing_plan_id":"cebpf4jnsgd1na2vs0mg"},{"bike_id":"06992c46-6889-40f3-a5d1-edc32d603bfb","system_id":"levelo_inurba_marseille","lat":43.28618,"lon":5.39904,"is_reserved":false,"is_disabled":false,"rental_uris":{"android":"levelo://app?vid=06992c46-6889-40f3-a5d1-edc32d603bfb","ios":"levelo://app?vid=06992c46-6889-40f3-a5d1-edc32d603bfb"},"vehicle_type_id":"4","last_reported":1767784298,"current_range_meters":5600,"station_id":"ce4bho92rcd13ifvqh3g","pricing_plan_id":"cebpf4jnsgd1na2vs0mg"},{"bike_id":"459ee04e-7967-4830-998f-9d391834d978","system_id":"levelo_inurba_marseille","lat":43.253346,"lon":5.42182,"is_reserved":false,"is_disabled":false,"rental_uris":{"android":"levelo://app?vid=459ee04e-7967-4830-998f-9d391834d978","ios":"levelo://app?vid=459ee04e-7967-4830-998f-9d391834d978"},"vehicle_type_id":"4","last_reported":1767784298,"current_range_meters":6000,"station_id":"st_d2m65c5bi1j21697t3ng","pricing_plan_id":"cebpf4jnsgd1na2vs0mg"},{"bike_id":"a12d0214-d901-4a7d-b315-4d327e206f7f","system_id":"levelo_inurba_marseille","lat":43.265488,"lon":5.372913,"is_reserved":false,"is_disabled":true,"rental_uris":{"android":"levelo://app?vid=a12d0214-d901-4a7d-b315-4d327e206f7f","ios":"levelo://app?vid=a12d0214-d901-4a7d-b315-4d327e206f7f"},"vehicle_type_id":"4","last_reported":1767784298,"current_range_meters":6000,"station_id":"ce4bhg12rcd13ifvqf70","pricing_plan_id":"cebpf4jnsgd1na2vs0mg"},{"bike_id":"72ba40ff-3811-448f-9824-0a29539e09d4","system_id":"levelo_inurba_marseille","lat":43.22572,"lon":5.41637,"is_reserved":false,"is_disabled":false,"rental_uris":{"android":"levelo://app?vid=72ba40ff-3811-448f-9824-0a29539e09d4","ios":"levelo://app?vid=72ba40ff-3811-448f-9824-0a29539e09d4"},"vehicle_type_id":"4","last_reported":1767784298,"current_range_meters":6000,"station_id":"st_d2o4gvlbi1j2169b742g","pricing_plan_id":"cebpf4jnsgd1na2vs0mg"},{"bike_id":"1ed1136a-6d18-431b-ac67-f90736592795","system_id":"levelo_inurba_marseille","lat":43.29076,"lon":5.39992,"is_reserved":false,"is_disabled":false,"rental_uris":{"android":"levelo://app?vid=1ed1136a-6d18-431b-ac67-f90736592795","ios":"levelo://app?vid=1ed1136a-6d18-431b-ac67-f90736592795"},"vehicle_type_id":"4","last_reported":1767784298,"current_range_meters":6000,"station_id":"ce4bh392rcd13ifvqdm0","pricing_plan_id":"cebpf4jnsgd1na2vs0mg"},{"bike_id":"e01fcde9-0e8b-4aff-ba4c-1ffad72d7e3b","system_id":"levelo_inurba_marseille","lat":43.3014,"lon":5.3878,"is_reserved":false,"is_disabled":false,"rental_uris":{"android":"levelo://app?vid=e01fcde9-0e8b-4aff-ba4c-1ffad72d7e3b","ios":"levelo://app?vid=e01fcde9-0e8b-4aff-ba4c-1ffad72d7e3b"},"vehicle_type_id":"4","last_reported":1767784298,"current_range_meters":6000,"station_id":"ce4bghh2rcd13ifvqb60","pricing_plan_id":"cebpf4jnsgd1na2vs0mg"},{"bike_id":"3a06b232-b926-45fd-b54a-fef9d9bcff5d","system_id":"levelo_inurba_marseille","lat":43.270569,"lon":5.402692,"is_reserved":false,"is_disabled":false,"rental_uris":{"android":"levelo://app?vid=3a06b232-b926-45fd-b54a-fef9d9bcff5d","ios":"levelo://app?vid=3a06b232-b926-45fd-b54a-fef9d9bcff5d"},"vehicle_type_id":"4","last_reported":1767784298,"current_range_meters":6000,"station_id":"ce4bhk92rcd13ifvqgc0","pricing_plan_id":"cebpf4jnsgd1na2vs0mg"},{"bike_id":"05913a82-5d97-49fd-869e-011fe384b874","system_id":"levelo_inurba_marseille","lat":43.29843,"lon":5.378312,"is_reserved":false,"is_disabled":false,"rental_uris":{"android":"levelo://app?vid=05913a82-5d97-49fd-869e-011fe384b874","ios":"levelo://app?vid=05913a82-5d97-49fd-869e-011fe384b874"},"vehicle_type_id":"4","last_reported":1767784298,"current_range_meters":6000,"station_id":"","pricing_plan_id":"cebpf4jnsgd1na2vs0mg"},{"bike_id":"3f2f1631-23db-4e01-a38b-0daabcdf369a","system_id":"levelo_inurba_marseille","lat":43.2992,"lon":5.40208,"is_reserved":false,"is_disabled":false,"rental_uris":{"android":"levelo://app?vid=3f2f1631-23db-4e01-a38b-0daabcdf369a","ios":"levelo://app?vid=3f2f1631-23db-4e01-a38b-0daabcdf369a"},"vehicle_type_id":"4","last_reported":1767784298,"current_range_meters":6000,"station_id":"","pricing_plan_id":"cebpf4jnsgd1na2vs0mg"},{"bike_id":"4b02a8d2-87b0-4ad1-9463-8088094b1434","system_id":"levelo_inurba_marseille","lat":43.292992,"lon":5.378021,"is_reserved":false,"is_disabled":false,"rental_uris":{"android":"levelo://app?vid=4b02a8d2-87b0-4ad1-9463-8088094b1434","ios":"levelo://app?vid=4b02a8d2-87b0-4ad1-9463-8088094b1434"},"vehicle_type_id":"4","last_reported":1767784298,"current_range_meters":6000,"station_id":"","pricing_plan_id":"cebpf4jnsgd1na2vs0mg"},{"bike_id":"62cb22d9-379f-4a14-9307-a2357290642a","system_id":"levelo_inurba_marseille","lat":43.29984,"lon":5.37892,"is_reserved":false,"is_disabled":false,"rental_uris":{"android":"levelo://app?vid=62cb22d9-379f-4a14-9307-a2357290642a","ios":"levelo://app?vid=62cb22d9-379f-4a14-9307-a2357290642a"},"vehicle_type_id":"4","last_reported":1767784298,"current_range_meters":6000,"station_id":"","pricing_plan_id":"cebpf4jnsgd1na2vs0mg"},{"bike_id":"c3ce25e5-7b9a-4f7c-9d64-705bab43819a","system_id":"levelo_inurba_marseille","lat":43.26937,"lon":5.38929,"is_reserved":false,"is_disabled":false,"rental_uris":{"android":"levelo://app?vid=c3ce25e5-7b9a-4f7c-9d64-705bab43819a","ios":"levelo://app?vid=c3ce25e5-7b9a-4f7c-9d64-705bab43819a"},"vehicle_type_id":"4","last_reported":1767784298,"current_range_meters":6000,"station_id":"ce4bhhh2rcd13ifvqfl0","pricing_plan_id":"cebpf4jnsgd1na2vs0mg"},{"bike_id":"43202f37-6be1-41f0-9b97-207602d4e411","system_id":"levelo_inurba_marseille","lat":43.265714,"lon":5.390546,"is_reserved":false,"is_disabled":true,"rental_uris":{"android":"levelo://app?vid=43202f37-6be1-41f0-9b97-207602d4e411","ios":"levelo://app?vid=43202f37-6be1-41f0-9b97-207602d4e411"},"vehicle_type_id":"4","last_reported":1767784298,"current_range_meters":6000,"station_id":"","pricing_plan_id":"cebpf4jnsgd1na2vs0mg"},{"bike_id":"f356eddc-c976-4bb7-b535-4561fede7d37","system_id":"levelo_inurba_marseille","lat":43.26201,"lon":5.37933,"is_reserved":false,"is_disabled":false,"rental_uris":{"android":"levelo://app?vid=f356eddc-c976-4bb7-b535-4561fede7d37","ios":"levelo://app?vid=f356eddc-c976-4bb7-b535-4561fede7d37"},"vehicle_type_id":"4","last_reported":1767784298,"current_range_meters":6000,"station_id":"ce4bhjp2rcd13ifvqg90","pricing_plan_id":"cebpf4jnsgd1na2vs0mg"},{"bike_id":"c4f17ea1-3d13-44a1-922d-ca39b1f92478","system_id":"levelo_inurba_marseille","lat":43.29619,"lon":5.37188,"is_reserved":false,"is_disabled":true,"rental_uris":{"android":"levelo://app?vid=c4f17ea1-3d13-44a1-922d-ca39b1f92478","ios":"levelo://app?vid=c4f17ea1-3d13-44a1-922d-ca39b1f92478"},"vehicle_type_id":"4","last_reported":1767784298,"current_range_meters":6400,"station_id":"ce4bgnh2rcd13ifvqc0g","pricing_plan_id":"cebpf4jnsgd1na2vs0mg"},{"bike_id":"bc2eb7b0-bb23-4973-8afa-e645fdad0791","system_id":"levelo_inurba_marseille","lat":43.29828,"lon":5.44066,"is_reserved":false,"is_disabled":true,"rental_uris":{"android":"levelo://app?vid=bc2eb7b0-bb23-4973-8afa-e645fdad0791","ios":"levelo://app?vid=bc2eb7b0-bb23-4973-8afa-e645fdad0791"},"vehicle_type_id":"4","last_reported":1767784298,"current_range_meters":6400,"station_id":"st_d3jp68qikq2c7381ktn0","pricing_plan_id":"cebpf4jnsgd1na2vs0mg"},{"bike_id":"7f8f8133-4c5b-4469-8602-47a2aed54586","system_id":"levelo_inurba_marseille","lat":43.30216,"lon":5.43536,"is_reserved":false,"is_disabled":false,"rental_uris":{"android":"levelo://app?vid=7f8f8133-4c5b-4469-8602-47a2aed54586","ios":"levelo://app?vid=7f8f8133-4c5b-4469-8602-47a2aed54586"},"vehicle_type_id":"4","last_reported":1767784298,"current_range_meters":6400,"station_id":"","pricing_plan_id":"cebpf4jnsgd1na2vs0mg"},{"bike_id":"84f7691c-2bc8-49bf-9255-f72e6562e90e","system_id":"levelo_inurba_marseille","lat":43.28627,"lon":5.35113,"is_reserved":false,"is_disabled":true,"rental_uris":{"android":"levelo://app?vid=84f7691c-2bc8-49bf-9255-f72e6562e90e","ios":"levelo://app?vid=84f7691c-2bc8-49bf-9255-f72e6562e90e"},"vehicle_type_id":"4","last_reported":1767784298,"current_range_meters":6400,"station_id":"ce4bhch2rcd13ifvqeug","pricing_plan_id":"cebpf4jnsgd1na2vs0mg"},{"bike_id":"d4cb7d87-6e05-4a12-a6a8-801515607d75","system_id":"levelo_inurba_marseille","lat":43.32096,"lon":5.3677,"is_reserved":false,"is_disabled":false,"rental_uris":{"android":"levelo://app?vid=d4cb7d87-6e05-4a12-a6a8-801515607d75","ios":"levelo://app?vid=d4cb7d87-6e05-4a12-a6a8-801515607d75"},"vehicle_type_id":"4","last_reported":1767784298,"current_range_meters":6400,"station_id":"ce4bhrh2rcd13ifvqhug","pricing_plan_id":"cebpf4jnsgd1na2vs0mg"},{"bike_id":"5ba0d7cc-04c8-45fb-a3f0-023a6c7d5f3b","system_id":"levelo_inurba_marseille","lat":43.25916,"lon":5.40894,"is_reserved":false,"is_disabled":false,"rental_uris":{"android":"levelo://app?vid=5ba0d7cc-04c8-45fb-a3f0-023a6c7d5f3b","ios":"levelo://app?vid=5ba0d7cc-04c8-45fb-a3f0-023a6c7d5f3b"},"vehicle_type_id":"4","last_reported":1767784298,"current_range_meters":6400,"station_id":"ce4bhm92rcd13ifvqglg","pricing_plan_id":"cebpf4jnsgd1na2vs0mg"},{"bike_id":"9eb913cd-2db4-48fc-a9eb-2256ba745c47","system_id":"levelo_inurba_marseille","lat":43.31704,"lon":5.437,"is_reserved":false,"is_disabled":false,"rental_uris":{"android":"levelo://app?vid=9eb913cd-2db4-48fc-a9eb-2256ba745c47","ios":"levelo://app?vid=9eb913cd-2db4-48fc-a9eb-2256ba745c47"},"vehicle_type_id":"4","last_reported":1767784298,"current_range_meters":6400,"station_id":"ce4bhp92rcd13ifvqhcg","pricing_plan_id":"cebpf4jnsgd1na2vs0mg"},{"bike_id":"3275b859-c08d-4706-afc8-86a6bdcab3a2","system_id":"levelo_inurba_marseille","lat":43.24397,"lon":5.37053,"is_reserved":false,"is_disabled":false,"rental_uris":{"android":"levelo://app?vid=3275b859-c08d-4706-afc8-86a6bdcab3a2","ios":"levelo://app?vid=3275b859-c08d-4706-afc8-86a6bdcab3a2"},"vehicle_type_id":"4","last_reported":1767784298,"current_range_meters":6400,"station_id":"ce4bhhh2rcd13ifvqfk0","pricing_plan_id":"cebpf4jnsgd1na2vs0mg"},{"bike_id":"26471476-0788-4cdb-9b4d-9f0b3e686ab5","system_id":"levelo_inurba_marseille","lat":43.31311,"lon":5.3868,"is_reserved":false,"is_disabled":false,"rental_uris":{"android":"levelo://app?vid=26471476-0788-4cdb-9b4d-9f0b3e686ab5","ios":"levelo://app?vid=26471476-0788-4cdb-9b4d-9f0b3e686ab5"},"vehicle_type_id":"4","last_reported":1767784298,"current_range_meters":6400,"station_id":"","pricing_plan_id":"cebpf4jnsgd1na2vs0mg"},{"bike_id":"a8c0279b-cecb-4e93-80e9-e7068e192000","system_id":"levelo_inurba_marseille","lat":43.30556,"lon":5.36564,"is_reserved":false,"is_disabled":false,"rental_uris":{"android":"levelo://app?vid=a8c0279b-cecb-4e93-80e9-e7068e192000","ios":"levelo://app?vid=a8c0279b-cecb-4e93-80e9-e7068e192000"},"vehicle_type_id":"4","last_reported":1767784298,"current_range_meters":6400,"station_id":"ce4bgs12rcd13ifvqcag","pricing_plan_id":"cebpf4jnsgd1na2vs0mg"},{"bike_id":"f5e7e1f2-33c5-4813-86da-3c7d45f6a313","system_id":"levelo_inurba_marseille","lat":43.2716,"lon":5.362827,"is_reserved":false,"is_disabled":false,"rental_uris":{"android":"levelo://app?vid=f5e7e1f2-33c5-4813-86da-3c7d45f6a313","ios":"levelo://app?vid=f5e7e1f2-33c5-4813-86da-3c7d45f6a313"},"vehicle_type_id":"4","last_reported":1767784298,"current_range_meters":6400,"station_id":"","pricing_plan_id":"cebpf4jnsgd1na2vs0mg"},{"bike_id":"ebd154d9-3c73-4ee5-82b1-4b840ea78ef2","system_id":"levelo_inurba_marseille","lat":43.26031,"lon":5.37555,"is_reserved":false,"is_disabled":false,"rental_uris":{"android":"levelo://app?vid=ebd154d9-3c73-4ee5-82b1-4b840ea78ef2","ios":"levelo://app?vid=ebd154d9-3c73-4ee5-82b1-4b840ea78ef2"},"vehicle_type_id":"4","last_reported":1767784298,"current_range_meters":6400,"station_id":"ce4bhgh2rcd13ifvqfa0","pricing_plan_id":"cebpf4jnsgd1na2vs0mg"},{"bike_id":"ab04393d-6fa3-4001-a0f9-e3f858f95f81","system_id":"levelo_inurba_marseille","lat":43.30464,"lon":5.37913,"is_reserved":false,"is_disabled":false,"rental_uris":{"android":"levelo://app?vid=ab04393d-6fa3-4001-a0f9-e3f858f95f81","ios":"levelo://app?vid=ab04393d-6fa3-4001-a0f9-e3f858f95f81"},"vehicle_type_id":"4","last_reported":1767784298,"current_range_meters":6400,"station_id":"ce4bgup2rcd13ifvqcn0","pricing_plan_id":"cebpf4jnsgd1na2vs0mg"},{"bike_id":"00ea198f-1513-4ae8-9202-e0794b524e8a","system_id":"levelo_inurba_marseille","lat":43.29812,"lon":5.4409,"is_reserved":false,"is_disabled":false,"rental_uris":{"android":"levelo://app?vid=00ea198f-1513-4ae8-9202-e0794b524e8a","ios":"levelo://app?vid=00ea198f-1513-4ae8-9202-e0794b524e8a"},"vehicle_type_id":"4","last_reported":1767784298,"current_range_meters":6400,"station_id":"st_d3jp68qikq2c7381ktn0","pricing_plan_id":"cebpf4jnsgd1na2vs0mg"},{"bike_id":"25bcfc78-3f0b-4981-8911-91eda9adaaf9","system_id":"levelo_inurba_marseille","lat":43.283591,"lon":5.416663,"is_reserved":false,"is_disabled":false,"rental_uris":{"android":"levelo://app?vid=25bcfc78-3f0b-4981-8911-91eda9adaaf9","ios":"levelo://app?vid=25bcfc78-3f0b-4981-8911-91eda9adaaf9"},"vehicle_type_id":"4","last_reported":1767784298,"current_range_meters":6400,"station_id":"","pricing_plan_id":"cebpf4jnsgd1na2vs0mg"},{"bike_id":"3a1a012f-e2cb-489c-8aaa-49659e7dafd1","system_id":"levelo_inurba_marseille","lat":43.29233,"lon":5.36073,"is_reserved":false,"is_disabled":false,"rental_uris":{"android":"levelo://app?vid=3a1a012f-e2cb-489c-8aaa-49659e7dafd1","ios":"levelo://app?vid=3a1a012f-e2cb-489c-8aaa-49659e7dafd1"},"vehicle_type_id":"4","last_reported":1767784298,"current_range_meters":6400,"station_id":"ce4bhbh2rcd13ifvqeqg","pricing_plan_id":"cebpf4jnsgd1na2vs0mg"},{"bike_id":"74f27556-65f0-49e9-b46e-233e5338da94","system_id":"levelo_inurba_marseille","lat":43.29199,"lon":5.39331,"is_reserved":false,"is_disabled":false,"rental_uris":{"android":"levelo://app?vid=74f27556-65f0-49e9-b46e-233e5338da94","ios":"levelo://app?vid=74f27556-65f0-49e9-b46e-233e5338da94"},"vehicle_type_id":"4","last_reported":1767784298,"current_range_meters":6400,"station_id":"ce4bh192rcd13ifvqdd0","pricing_plan_id":"cebpf4jnsgd1na2vs0mg"},{"bike_id":"1ac84a2f-834c-4512-8844-a6504078a505","system_id":"levelo_inurba_marseille","lat":43.292308,"lon":5.36073,"is_reserved":false,"is_disabled":false,"rental_uris":{"android":"levelo://app?vid=1ac84a2f-834c-4512-8844-a6504078a505","ios":"levelo://app?vid=1ac84a2f-834c-4512-8844-a6504078a505"},"vehicle_type_id":"4","last_reported":1767784298,"current_range_meters":6800,"station_id":"ce4bhbh2rcd13ifvqeqg","pricing_plan_id":"cebpf4jnsgd1na2vs0mg"},{"bike_id":"032b3963-2994-4f10-a389-50b512ea6caa","system_id":"levelo_inurba_marseille","lat":43.29262,"lon":5.37627,"is_reserved":false,"is_disabled":false,"rental_uris":{"android":"levelo://app?vid=032b3963-2994-4f10-a389-50b512ea6caa","ios":"levelo://app?vid=032b3963-2994-4f10-a389-50b512ea6caa"},"vehicle_type_id":"4","last_reported":1767784298,"current_range_meters":6800,"station_id":"ce4bgi12rcd13ifvqb80","pricing_plan_id":"cebpf4jnsgd1na2vs0mg"},{"bike_id":"255f6a83-686a-42d7-b59b-0886f81cf758","system_id":"levelo_inurba_marseille","lat":43.23149,"lon":5.43715,"is_reserved":false,"is_disabled":false,"rental_uris":{"android":"levelo://app?vid=255f6a83-686a-42d7-b59b-0886f81cf758","ios":"levelo://app?vid=255f6a83-686a-42d7-b59b-0886f81cf758"},"vehicle_type_id":"4","last_reported":1767784298,"current_range_meters":6800,"station_id":"ce4bhmp2rcd13ifvqgog","pricing_plan_id":"cebpf4jnsgd1na2vs0mg"},{"bike_id":"5b1e28d0-cfd4-4f63-bcd7-e389c7a33f6a","system_id":"levelo_inurba_marseille","lat":43.24641,"lon":5.43148,"is_reserved":false,"is_disabled":false,"rental_uris":{"android":"levelo://app?vid=5b1e28d0-cfd4-4f63-bcd7-e389c7a33f6a","ios":"levelo://app?vid=5b1e28d0-cfd4-4f63-bcd7-e389c7a33f6a"},"vehicle_type_id":"4","last_reported":1767784298,"current_range_meters":6800,"station_id":"st_d2m6c4gdas8pm72e190g","pricing_plan_id":"cebpf4jnsgd1na2vs0mg"},{"bike_id":"184adeb8-9203-4f19-b080-ca451c49fd36","system_id":"levelo_inurba_marseille","lat":43.29159,"lon":5.37164,"is_reserved":false,"is_disabled":false,"rental_uris":{"android":"levelo://app?vid=184adeb8-9203-4f19-b080-ca451c49fd36","ios":"levelo://app?vid=184adeb8-9203-4f19-b080-ca451c49fd36"},"vehicle_type_id":"4","last_reported":1767784298,"current_range_meters":6800,"station_id":"ce4bha92rcd13ifvqeh0","pricing_plan_id":"cebpf4jnsgd1na2vs0mg"},{"bike_id":"4e9944d7-ff17-431f-9506-b409b96c8161","system_id":"levelo_inurba_marseille","lat":43.25575,"lon":5.3824,"is_reserved":false,"is_disabled":false,"rental_uris":{"android":"levelo://app?vid=4e9944d7-ff17-431f-9506-b409b96c8161","ios":"levelo://app?vid=4e9944d7-ff17-431f-9506-b409b96c8161"},"vehicle_type_id":"4","last_reported":1767784298,"current_range_meters":6800,"station_id":"ce4bhih2rcd13ifvqfs0","pricing_plan_id":"cebpf4jnsgd1na2vs0mg"},{"bike_id":"9a691121-12fd-4cca-979d-5612306aa64f","system_id":"levelo_inurba_marseille","lat":43.29127,"lon":5.40068,"is_reserved":false,"is_disabled":false,"rental_uris":{"android":"levelo://app?vid=9a691121-12fd-4cca-979d-5612306aa64f","ios":"levelo://app?vid=9a691121-12fd-4cca-979d-5612306aa64f"},"vehicle_type_id":"4","last_reported":1767784298,"current_range_meters":6800,"station_id":"","pricing_plan_id":"cebpf4jnsgd1na2vs0mg"},{"bike_id":"d94a94f4-003c-473b-87bc-9cd8d9c889e2","system_id":"levelo_inurba_marseille","lat":43.32362,"lon":5.36756,"is_reserved":false,"is_disabled":false,"rental_uris":{"android":"levelo://app?vid=d94a94f4-003c-473b-87bc-9cd8d9c889e2","ios":"levelo://app?vid=d94a94f4-003c-473b-87bc-9cd8d9c889e2"},"vehicle_type_id":"4","last_reported":1767784298,"current_range_meters":6800,"station_id":"ce4bhsh2rcd13ifvqi2g","pricing_plan_id":"cebpf4jnsgd1na2vs0mg"},{"bike_id":"e48ed4b7-2354-4459-8181-4757b045c649","system_id":"levelo_inurba_marseille","lat":43.3021,"lon":5.39475,"is_reserved":false,"is_disabled":false,"rental_uris":{"android":"levelo://app?vid=e48ed4b7-2354-4459-8181-4757b045c649","ios":"levelo://app?vid=e48ed4b7-2354-4459-8181-4757b045c649"},"vehicle_type_id":"4","last_reported":1767784298,"current_range_meters":6800,"station_id":"ce4bh0p2rcd13ifvqd70","pricing_plan_id":"cebpf4jnsgd1na2vs0mg"},{"bike_id":"7042a0e8-d2ac-44ca-802a-793de3db9458","system_id":"levelo_inurba_marseille","lat":43.31513,"lon":5.37305,"is_reserved":false,"is_disabled":false,"rental_uris":{"android":"levelo://app?vid=7042a0e8-d2ac-44ca-802a-793de3db9458","ios":"levelo://app?vid=7042a0e8-d2ac-44ca-802a-793de3db9458"},"vehicle_type_id":"4","last_reported":1767784298,"current_range_meters":6800,"station_id":"ce4bgt12rcd13ifvqcd0","pricing_plan_id":"cebpf4jnsgd1na2vs0mg"},{"bike_id":"a31ba797-d219-4a65-a019-17190c6343b6","system_id":"levelo_inurba_marseille","lat":43.31945,"lon":5.37606,"is_reserved":false,"is_disabled":false,"rental_uris":{"android":"levelo://app?vid=a31ba797-d219-4a65-a019-17190c6343b6","ios":"levelo://app?vid=a31ba797-d219-4a65-a019-17190c6343b6"},"vehicle_type_id":"4","last_reported":1767784298,"current_range_meters":6800,"station_id":"","pricing_plan_id":"cebpf4jnsgd1na2vs0mg"},{"bike_id":"221b61c8-85a2-4ffd-9c75-1f413db19f98","system_id":"levelo_inurba_marseille","lat":43.26556,"lon":5.37293,"is_reserved":false,"is_disabled":false,"rental_uris":{"android":"levelo://app?vid=221b61c8-85a2-4ffd-9c75-1f413db19f98","ios":"levelo://app?vid=221b61c8-85a2-4ffd-9c75-1f413db19f98"},"vehicle_type_id":"4","last_reported":1767784298,"current_range_meters":6800,"station_id":"ce4bhg12rcd13ifvqf70","pricing_plan_id":"cebpf4jnsgd1na2vs0mg"},{"bike_id":"533ded1c-f64a-40a7-987e-c996af8b74ed","system_id":"levelo_inurba_marseille","lat":43.2378,"lon":5.36649,"is_reserved":false,"is_disabled":false,"rental_uris":{"android":"levelo://app?vid=533ded1c-f64a-40a7-987e-c996af8b74ed","ios":"levelo://app?vid=533ded1c-f64a-40a7-987e-c996af8b74ed"},"vehicle_type_id":"4","last_reported":1767784298,"current_range_meters":6800,"station_id":"st_d3nk18o9ro0c73en2l3g","pricing_plan_id":"cebpf4jnsgd1na2vs0mg"},{"bike_id":"f9df9e6f-a0a3-4f00-bdd5-4f719e90ce2c","system_id":"levelo_inurba_marseille","lat":43.26958,"lon":5.38645,"is_reserved":false,"is_disabled":false,"rental_uris":{"android":"levelo://app?vid=f9df9e6f-a0a3-4f00-bdd5-4f719e90ce2c","ios":"levelo://app?vid=f9df9e6f-a0a3-4f00-bdd5-4f719e90ce2c"},"vehicle_type_id":"4","last_reported":1767784298,"current_range_meters":6800,"station_id":"ce4bhh92rcd13ifvqfh0","pricing_plan_id":"cebpf4jnsgd1na2vs0mg"},{"bike_id":"b27311a9-546d-4d78-b9e4-44f92db4bf7e","system_id":"levelo_inurba_marseille","lat":43.30131,"lon":5.37437,"is_reserved":false,"is_disabled":false,"rental_uris":{"android":"levelo://app?vid=b27311a9-546d-4d78-b9e4-44f92db4bf7e","ios":"levelo://app?vid=b27311a9-546d-4d78-b9e4-44f92db4bf7e"},"vehicle_type_id":"4","last_reported":1767784298,"current_range_meters":6800,"station_id":"ce4bgs92rcd13ifvqcc0","pricing_plan_id":"cebpf4jnsgd1na2vs0mg"},{"bike_id":"8c1d60c4-e1db-4678-bbeb-96e85b234dd8","system_id":"levelo_inurba_marseille","lat":43.31333,"lon":5.36693,"is_reserved":false,"is_disabled":false,"rental_uris":{"android":"levelo://app?vid=8c1d60c4-e1db-4678-bbeb-96e85b234dd8","ios":"levelo://app?vid=8c1d60c4-e1db-4678-bbeb-96e85b234dd8"},"vehicle_type_id":"4","last_reported":1767784298,"current_range_meters":6800,"station_id":"ce4bgr92rcd13ifvqc6g","pricing_plan_id":"cebpf4jnsgd1na2vs0mg"},{"bike_id":"1511a012-c085-4f38-8ab1-d9eee4c01f86","system_id":"levelo_inurba_marseille","lat":43.24168,"lon":5.36417,"is_reserved":false,"is_disabled":false,"rental_uris":{"android":"levelo://app?vid=1511a012-c085-4f38-8ab1-d9eee4c01f86","ios":"levelo://app?vid=1511a012-c085-4f38-8ab1-d9eee4c01f86"},"vehicle_type_id":"4","last_reported":1767784298,"current_range_meters":7200,"station_id":"cpo36qri1sfpv3e86is0","pricing_plan_id":"cebpf4jnsgd1na2vs0mg"},{"bike_id":"a0baeed8-1c2d-4b3d-a98c-a841d5f11ee9","system_id":"levelo_inurba_marseille","lat":43.23143,"lon":5.43732,"is_reserved":false,"is_disabled":false,"rental_uris":{"android":"levelo://app?vid=a0baeed8-1c2d-4b3d-a98c-a841d5f11ee9","ios":"levelo://app?vid=a0baeed8-1c2d-4b3d-a98c-a841d5f11ee9"},"vehicle_type_id":"4","last_reported":1767784298,"current_range_meters":7200,"station_id":"ce4bhmp2rcd13ifvqgog","pricing_plan_id":"cebpf4jnsgd1na2vs0mg"},{"bike_id":"a93752c9-cf25-499c-87ae-14212d84ea11","system_id":"levelo_inurba_marseille","lat":43.28984,"lon":5.38131,"is_reserved":false,"is_disabled":false,"rental_uris":{"android":"levelo://app?vid=a93752c9-cf25-499c-87ae-14212d84ea11","ios":"levelo://app?vid=a93752c9-cf25-499c-87ae-14212d84ea11"},"vehicle_type_id":"4","last_reported":1767784298,"current_range_meters":7200,"station_id":"ce4bh4p2rcd13ifvqe1g","pricing_plan_id":"cebpf4jnsgd1na2vs0mg"},{"bike_id":"16df7d25-4261-47b4-bcb3-b0edbc0538d3","system_id":"levelo_inurba_marseille","lat":43.29016,"lon":5.37558,"is_reserved":false,"is_disabled":false,"rental_uris":{"android":"levelo://app?vid=16df7d25-4261-47b4-bcb3-b0edbc0538d3","ios":"levelo://app?vid=16df7d25-4261-47b4-bcb3-b0edbc0538d3"},"vehicle_type_id":"4","last_reported":1767784298,"current_range_meters":7200,"station_id":"ce4bh692rcd13ifvqe90","pricing_plan_id":"cebpf4jnsgd1na2vs0mg"},{"bike_id":"0e7be8fb-8b4e-4f31-b6a9-c9720e32396b","system_id":"levelo_inurba_marseille","lat":43.26839,"lon":5.39433,"is_reserved":false,"is_disabled":false,"rental_uris":{"android":"levelo://app?vid=0e7be8fb-8b4e-4f31-b6a9-c9720e32396b","ios":"levelo://app?vid=0e7be8fb-8b4e-4f31-b6a9-c9720e32396b"},"vehicle_type_id":"4","last_reported":1767784298,"current_range_meters":7200,"station_id":"ce4bhh12rcd13ifvqfg0","pricing_plan_id":"cebpf4jnsgd1na2vs0mg"},{"bike_id":"a99e879b-653e-4f58-85d1-9175f3a06c5b","system_id":"levelo_inurba_marseille","lat":43.2998,"lon":5.38501,"is_reserved":false,"is_disabled":false,"rental_uris":{"android":"levelo://app?vid=a99e879b-653e-4f58-85d1-9175f3a06c5b","ios":"levelo://app?vid=a99e879b-653e-4f58-85d1-9175f3a06c5b"},"vehicle_type_id":"4","last_reported":1767784298,"current_range_meters":7200,"station_id":"ce4bgj92rcd13ifvqbd0","pricing_plan_id":"cebpf4jnsgd1na2vs0mg"},{"bike_id":"3a3979a9-13de-42fb-b2b5-459d626be407","system_id":"levelo_inurba_marseille","lat":43.26069,"lon":5.39408,"is_reserved":false,"is_disabled":false,"rental_uris":{"android":"levelo://app?vid=3a3979a9-13de-42fb-b2b5-459d626be407","ios":"levelo://app?vid=3a3979a9-13de-42fb-b2b5-459d626be407"},"vehicle_type_id":"4","last_reported":1767784298,"current_range_meters":7200,"station_id":"ce4bhh92rcd13ifvqfj0","pricing_plan_id":"cebpf4jnsgd1na2vs0mg"},{"bike_id":"754e4108-4c57-4763-b08c-1bdebeea8ce2","system_id":"levelo_inurba_marseille","lat":43.28692,"lon":5.38627,"is_reserved":false,"is_disabled":false,"rental_uris":{"android":"levelo://app?vid=754e4108-4c57-4763-b08c-1bdebeea8ce2","ios":"levelo://app?vid=754e4108-4c57-4763-b08c-1bdebeea8ce2"},"vehicle_type_id":"4","last_reported":1767784298,"current_range_meters":7200,"station_id":"","pricing_plan_id":"cebpf4jnsgd1na2vs0mg"},{"bike_id":"067ca337-309a-4444-a755-1124e864d8c9","system_id":"levelo_inurba_marseille","lat":43.29516,"lon":5.39408,"is_reserved":false,"is_disabled":true,"rental_uris":{"android":"levelo://app?vid=067ca337-309a-4444-a755-1124e864d8c9","ios":"levelo://app?vid=067ca337-309a-4444-a755-1124e864d8c9"},"vehicle_type_id":"4","last_reported":1767784298,"current_range_meters":7200,"station_id":"ce4bh292rcd13ifvqdf0","pricing_plan_id":"cebpf4jnsgd1na2vs0mg"},{"bike_id":"7159e6a5-a318-480f-adc2-dc04a9a524b6","system_id":"levelo_inurba_marseille","lat":43.28371,"lon":5.38632,"is_reserved":false,"is_disabled":false,"rental_uris":{"android":"levelo://app?vid=7159e6a5-a318-480f-adc2-dc04a9a524b6","ios":"levelo://app?vid=7159e6a5-a318-480f-adc2-dc04a9a524b6"},"vehicle_type_id":"4","last_reported":1767784298,"current_range_meters":7200,"station_id":"ce4bh492rcd13ifvqdvg","pricing_plan_id":"cebpf4jnsgd1na2vs0mg"},{"bike_id":"6174981e-bed3-4bbe-a3fa-13b0fcc75de4","system_id":"levelo_inurba_marseille","lat":43.23143,"lon":5.43712,"is_reserved":false,"is_disabled":true,"rental_uris":{"android":"levelo://app?vid=6174981e-bed3-4bbe-a3fa-13b0fcc75de4","ios":"levelo://app?vid=6174981e-bed3-4bbe-a3fa-13b0fcc75de4"},"vehicle_type_id":"4","last_reported":1767784298,"current_range_meters":7200,"station_id":"","pricing_plan_id":"cebpf4jnsgd1na2vs0mg"},{"bike_id":"fa22967a-e8a3-4285-a901-cb3fb5280fde","system_id":"levelo_inurba_marseille","lat":43.30372,"lon":5.42496,"is_reserved":false,"is_disabled":false,"rental_uris":{"android":"levelo://app?vid=fa22967a-e8a3-4285-a901-cb3fb5280fde","ios":"levelo://app?vid=fa22967a-e8a3-4285-a901-cb3fb5280fde"},"vehicle_type_id":"4","last_reported":1767784298,"current_range_meters":7200,"station_id":"ce4bhoh2rcd13ifvqh6g","pricing_plan_id":"cebpf4jnsgd1na2vs0mg"},{"bike_id":"51544288-d5a0-4361-bc11-e83754a3df8d","system_id":"levelo_inurba_marseille","lat":43.30537,"lon":5.3655,"is_reserved":false,"is_disabled":false,"rental_uris":{"android":"levelo://app?vid=51544288-d5a0-4361-bc11-e83754a3df8d","ios":"levelo://app?vid=51544288-d5a0-4361-bc11-e83754a3df8d"},"vehicle_type_id":"4","last_reported":1767784298,"current_range_meters":7200,"station_id":"ce4bgs12rcd13ifvqcag","pricing_plan_id":"cebpf4jnsgd1na2vs0mg"},{"bike_id":"2a72016b-e107-4594-9228-a75e8e173f08","system_id":"levelo_inurba_marseille","lat":43.31227,"lon":5.36882,"is_reserved":false,"is_disabled":false,"rental_uris":{"android":"levelo://app?vid=2a72016b-e107-4594-9228-a75e8e173f08","ios":"levelo://app?vid=2a72016b-e107-4594-9228-a75e8e173f08"},"vehicle_type_id":"4","last_reported":1767784298,"current_range_meters":7200,"station_id":"ce4bgl92rcd13ifvqbq0","pricing_plan_id":"cebpf4jnsgd1na2vs0mg"},{"bike_id":"990829c5-72c3-49fa-a9fc-41696aef8e3c","system_id":"levelo_inurba_marseille","lat":43.28275,"lon":5.35072,"is_reserved":false,"is_disabled":false,"rental_uris":{"android":"levelo://app?vid=990829c5-72c3-49fa-a9fc-41696aef8e3c","ios":"levelo://app?vid=990829c5-72c3-49fa-a9fc-41696aef8e3c"},"vehicle_type_id":"4","last_reported":1767784298,"current_range_meters":7200,"station_id":"ce4bhbp2rcd13ifvqerg","pricing_plan_id":"cebpf4jnsgd1na2vs0mg"},{"bike_id":"28119d97-7102-4d29-b6d8-83d7d4b56a13","system_id":"levelo_inurba_marseille","lat":43.32372,"lon":5.36666,"is_reserved":false,"is_disabled":false,"rental_uris":{"android":"levelo://app?vid=28119d97-7102-4d29-b6d8-83d7d4b56a13","ios":"levelo://app?vid=28119d97-7102-4d29-b6d8-83d7d4b56a13"},"vehicle_type_id":"4","last_reported":1767784298,"current_range_meters":7200,"station_id":"ce4bhsh2rcd13ifvqi2g","pricing_plan_id":"cebpf4jnsgd1na2vs0mg"},{"bike_id":"d5b0c4ed-7646-45b9-b9d3-d49c57b897b7","system_id":"levelo_inurba_marseille","lat":43.29774,"lon":5.42767,"is_reserved":false,"is_disabled":false,"rental_uris":{"android":"levelo://app?vid=d5b0c4ed-7646-45b9-b9d3-d49c57b897b7","ios":"levelo://app?vid=d5b0c4ed-7646-45b9-b9d3-d49c57b897b7"},"vehicle_type_id":"4","last_reported":1767784298,"current_range_meters":7200,"station_id":"st_d3md5207bmas73dh9klg","pricing_plan_id":"cebpf4jnsgd1na2vs0mg"},{"bike_id":"35c3cbbb-0469-478d-b4da-bfb159e2f13b","system_id":"levelo_inurba_marseille","lat":43.259357,"lon":5.409096,"is_reserved":false,"is_disabled":true,"rental_uris":{"android":"levelo://app?vid=35c3cbbb-0469-478d-b4da-bfb159e2f13b","ios":"levelo://app?vid=35c3cbbb-0469-478d-b4da-bfb159e2f13b"},"vehicle_type_id":"4","last_reported":1767784298,"current_range_meters":7200,"station_id":"ce4bhm92rcd13ifvqglg","pricing_plan_id":"cebpf4jnsgd1na2vs0mg"},{"bike_id":"8f9c263f-7889-4a85-9933-e07749969bb3","system_id":"levelo_inurba_marseille","lat":43.25577,"lon":5.38234,"is_reserved":false,"is_disabled":false,"rental_uris":{"android":"levelo://app?vid=8f9c263f-7889-4a85-9933-e07749969bb3","ios":"levelo://app?vid=8f9c263f-7889-4a85-9933-e07749969bb3"},"vehicle_type_id":"4","last_reported":1767784298,"current_range_meters":7200,"station_id":"ce4bhih2rcd13ifvqfs0","pricing_plan_id":"cebpf4jnsgd1na2vs0mg"},{"bike_id":"222badfd-5695-4c5f-8b12-a4274837eb6d","system_id":"levelo_inurba_marseille","lat":43.26222,"lon":5.40454,"is_reserved":false,"is_disabled":false,"rental_uris":{"android":"levelo://app?vid=222badfd-5695-4c5f-8b12-a4274837eb6d","ios":"levelo://app?vid=222badfd-5695-4c5f-8b12-a4274837eb6d"},"vehicle_type_id":"4","last_reported":1767784298,"current_range_meters":7200,"station_id":"ce4bhmh2rcd13ifvqgmg","pricing_plan_id":"cebpf4jnsgd1na2vs0mg"},{"bike_id":"dcf4f571-8a85-4bc7-8f47-c2f115200254","system_id":"levelo_inurba_marseille","lat":43.31225,"lon":5.36888,"is_reserved":false,"is_disabled":false,"rental_uris":{"android":"levelo://app?vid=dcf4f571-8a85-4bc7-8f47-c2f115200254","ios":"levelo://app?vid=dcf4f571-8a85-4bc7-8f47-c2f115200254"},"vehicle_type_id":"4","last_reported":1767784298,"current_range_meters":7200,"station_id":"ce4bgl92rcd13ifvqbq0","pricing_plan_id":"cebpf4jnsgd1na2vs0mg"},{"bike_id":"ec9151c6-ee9c-4077-aff2-0feb9119b58e","system_id":"levelo_inurba_marseille","lat":43.26832,"lon":5.40678,"is_reserved":false,"is_disabled":false,"rental_uris":{"android":"levelo://app?vid=ec9151c6-ee9c-4077-aff2-0feb9119b58e","ios":"levelo://app?vid=ec9151c6-ee9c-4077-aff2-0feb9119b58e"},"vehicle_type_id":"4","last_reported":1767784298,"current_range_meters":7200,"station_id":"","pricing_plan_id":"cebpf4jnsgd1na2vs0mg"},{"bike_id":"a62578c6-37b2-4327-b052-05b6ba4b07c2","system_id":"levelo_inurba_marseille","lat":43.24548,"lon":5.39531,"is_reserved":false,"is_disabled":false,"rental_uris":{"android":"levelo://app?vid=a62578c6-37b2-4327-b052-05b6ba4b07c2","ios":"levelo://app?vid=a62578c6-37b2-4327-b052-05b6ba4b07c2"},"vehicle_type_id":"4","last_reported":1767784298,"current_range_meters":7200,"station_id":"ce4bhlp2rcd13ifvqgjg","pricing_plan_id":"cebpf4jnsgd1na2vs0mg"},{"bike_id":"20bfaf98-2999-426d-b7f7-c7562b0dd26b","system_id":"levelo_inurba_marseille","lat":43.2862,"lon":5.35119,"is_reserved":false,"is_disabled":false,"rental_uris":{"android":"levelo://app?vid=20bfaf98-2999-426d-b7f7-c7562b0dd26b","ios":"levelo://app?vid=20bfaf98-2999-426d-b7f7-c7562b0dd26b"},"vehicle_type_id":"4","last_reported":1767784298,"current_range_meters":8000,"station_id":"ce4bhch2rcd13ifvqeug","pricing_plan_id":"cebpf4jnsgd1na2vs0mg"},{"bike_id":"d563daa9-a26a-468e-96ac-aa24a58d4870","system_id":"levelo_inurba_marseille","lat":43.27246,"lon":5.39164,"is_reserved":false,"is_disabled":false,"rental_uris":{"android":"levelo://app?vid=d563daa9-a26a-468e-96ac-aa24a58d4870","ios":"levelo://app?vid=d563daa9-a26a-468e-96ac-aa24a58d4870"},"vehicle_type_id":"4","last_reported":1767784298,"current_range_meters":8000,"station_id":"ce4bhhp2rcd13ifvqfm0","pricing_plan_id":"cebpf4jnsgd1na2vs0mg"},{"bike_id":"0622f7c5-ee76-4fc8-a5df-57e2aa3c0085","system_id":"levelo_inurba_marseille","lat":43.29897,"lon":5.38089,"is_reserved":false,"is_disabled":false,"rental_uris":{"android":"levelo://app?vid=0622f7c5-ee76-4fc8-a5df-57e2aa3c0085","ios":"levelo://app?vid=0622f7c5-ee76-4fc8-a5df-57e2aa3c0085"},"vehicle_type_id":"4","last_reported":1767784298,"current_range_meters":8000,"station_id":"","pricing_plan_id":"cebpf4jnsgd1na2vs0mg"},{"bike_id":"42d7f82f-3557-4ba7-9974-9f02193f22cc","system_id":"levelo_inurba_marseille","lat":43.295262,"lon":5.375011,"is_reserved":false,"is_disabled":true,"rental_uris":{"android":"levelo://app?vid=42d7f82f-3557-4ba7-9974-9f02193f22cc","ios":"levelo://app?vid=42d7f82f-3557-4ba7-9974-9f02193f22cc"},"vehicle_type_id":"4","last_reported":1767784298,"current_range_meters":8000,"station_id":"","pricing_plan_id":"cebpf4jnsgd1na2vs0mg"},{"bike_id":"ee33983f-10d1-4d63-8bde-105556f6242d","system_id":"levelo_inurba_marseille","lat":43.26197,"lon":5.37917,"is_reserved":false,"is_disabled":false,"rental_uris":{"android":"levelo://app?vid=ee33983f-10d1-4d63-8bde-105556f6242d","ios":"levelo://app?vid=ee33983f-10d1-4d63-8bde-105556f6242d"},"vehicle_type_id":"4","last_reported":1767784298,"current_range_meters":8000,"station_id":"ce4bhjp2rcd13ifvqg90","pricing_plan_id":"cebpf4jnsgd1na2vs0mg"},{"bike_id":"d4aa93f0-043b-4bba-9e4c-d0386c2a86d0","system_id":"levelo_inurba_marseille","lat":43.23749,"lon":5.36629,"is_reserved":false,"is_disabled":false,"rental_uris":{"android":"levelo://app?vid=d4aa93f0-043b-4bba-9e4c-d0386c2a86d0","ios":"levelo://app?vid=d4aa93f0-043b-4bba-9e4c-d0386c2a86d0"},"vehicle_type_id":"4","last_reported":1767784298,"current_range_meters":8000,"station_id":"st_d3nk18o9ro0c73en2l3g","pricing_plan_id":"cebpf4jnsgd1na2vs0mg"},{"bike_id":"37dc455b-6bec-4838-8bba-f2eb31c9a25b","system_id":"levelo_inurba_marseille","lat":43.2558,"lon":5.38227,"is_reserved":false,"is_disabled":false,"rental_uris":{"android":"levelo://app?vid=37dc455b-6bec-4838-8bba-f2eb31c9a25b","ios":"levelo://app?vid=37dc455b-6bec-4838-8bba-f2eb31c9a25b"},"vehicle_type_id":"4","last_reported":1767784298,"current_range_meters":8000,"station_id":"ce4bhih2rcd13ifvqfs0","pricing_plan_id":"cebpf4jnsgd1na2vs0mg"},{"bike_id":"7fc53fa6-f85c-423c-86d5-704a6cda6137","system_id":"levelo_inurba_marseille","lat":43.31246,"lon":5.3687,"is_reserved":false,"is_disabled":false,"rental_uris":{"android":"levelo://app?vid=7fc53fa6-f85c-423c-86d5-704a6cda6137","ios":"levelo://app?vid=7fc53fa6-f85c-423c-86d5-704a6cda6137"},"vehicle_type_id":"4","last_reported":1767784298,"current_range_meters":8000,"station_id":"ce4bgl92rcd13ifvqbq0","pricing_plan_id":"cebpf4jnsgd1na2vs0mg"},{"bike_id":"c0c8695a-5dc1-437f-a20b-09acef88b652","system_id":"levelo_inurba_marseille","lat":43.28338,"lon":5.3507,"is_reserved":false,"is_disabled":false,"rental_uris":{"android":"levelo://app?vid=c0c8695a-5dc1-437f-a20b-09acef88b652","ios":"levelo://app?vid=c0c8695a-5dc1-437f-a20b-09acef88b652"},"vehicle_type_id":"4","last_reported":1767784298,"current_range_meters":8000,"station_id":"","pricing_plan_id":"cebpf4jnsgd1na2vs0mg"},{"bike_id":"44fa942a-7f3c-4db8-b498-e46e05b08cc0","system_id":"levelo_inurba_marseille","lat":43.26451,"lon":5.39624,"is_reserved":false,"is_disabled":false,"rental_uris":{"android":"levelo://app?vid=44fa942a-7f3c-4db8-b498-e46e05b08cc0","ios":"levelo://app?vid=44fa942a-7f3c-4db8-b498-e46e05b08cc0"},"vehicle_type_id":"4","last_reported":1767784298,"current_range_meters":8000,"station_id":"","pricing_plan_id":"cebpf4jnsgd1na2vs0mg"},{"bike_id":"b88c2fda-8114-4cde-9e36-ff0ee5a29605","system_id":"levelo_inurba_marseille","lat":43.28448,"lon":5.39165,"is_reserved":false,"is_disabled":false,"rental_uris":{"android":"levelo://app?vid=b88c2fda-8114-4cde-9e36-ff0ee5a29605","ios":"levelo://app?vid=b88c2fda-8114-4cde-9e36-ff0ee5a29605"},"vehicle_type_id":"4","last_reported":1767784298,"current_range_meters":8000,"station_id":"ce4bhoh2rcd13ifvqh5g","pricing_plan_id":"cebpf4jnsgd1na2vs0mg"},{"bike_id":"98790e95-c908-4bc9-9227-66e899c0bc97","system_id":"levelo_inurba_marseille","lat":43.2894,"lon":5.36636,"is_reserved":false,"is_disabled":true,"rental_uris":{"android":"levelo://app?vid=98790e95-c908-4bc9-9227-66e899c0bc97","ios":"levelo://app?vid=98790e95-c908-4bc9-9227-66e899c0bc97"},"vehicle_type_id":"4","last_reported":1767784298,"current_range_meters":8000,"station_id":"","pricing_plan_id":"cebpf4jnsgd1na2vs0mg"},{"bike_id":"44833d54-0e08-4546-b788-0c7150b05378","system_id":"levelo_inurba_marseille","lat":43.28482,"lon":5.48404,"is_reserved":false,"is_disabled":false,"rental_uris":{"android":"levelo://app?vid=44833d54-0e08-4546-b788-0c7150b05378","ios":"levelo://app?vid=44833d54-0e08-4546-b788-0c7150b05378"},"vehicle_type_id":"4","last_reported":1767784298,"current_range_meters":8000,"station_id":"st_d3svhcjqgbts73a3dn0g","pricing_plan_id":"cebpf4jnsgd1na2vs0mg"},{"bike_id":"e93b9aae-c8c6-4131-b213-c37952396f7c","system_id":"levelo_inurba_marseille","lat":43.29315,"lon":5.37184,"is_reserved":false,"is_disabled":false,"rental_uris":{"android":"levelo://app?vid=e93b9aae-c8c6-4131-b213-c37952396f7c","ios":"levelo://app?vid=e93b9aae-c8c6-4131-b213-c37952396f7c"},"vehicle_type_id":"4","last_reported":1767784298,"current_range_meters":8000,"station_id":"ce4bgh92rcd13ifvqb40","pricing_plan_id":"cebpf4jnsgd1na2vs0mg"},{"bike_id":"9559f2f9-61e3-48aa-ad73-3f6e90d25a6d","system_id":"levelo_inurba_marseille","lat":43.30545,"lon":5.36558,"is_reserved":false,"is_disabled":false,"rental_uris":{"android":"levelo://app?vid=9559f2f9-61e3-48aa-ad73-3f6e90d25a6d","ios":"levelo://app?vid=9559f2f9-61e3-48aa-ad73-3f6e90d25a6d"},"vehicle_type_id":"4","last_reported":1767784298,"current_range_meters":8000,"station_id":"ce4bgs12rcd13ifvqcag","pricing_plan_id":"cebpf4jnsgd1na2vs0mg"},{"bike_id":"ddfc6a9c-692b-499f-b476-b4d9b6fe8c85","system_id":"levelo_inurba_marseille","lat":43.30947,"lon":5.39052,"is_reserved":false,"is_disabled":false,"rental_uris":{"android":"levelo://app?vid=ddfc6a9c-692b-499f-b476-b4d9b6fe8c85","ios":"levelo://app?vid=ddfc6a9c-692b-499f-b476-b4d9b6fe8c85"},"vehicle_type_id":"4","last_reported":1767784298,"current_range_meters":8000,"station_id":"","pricing_plan_id":"cebpf4jnsgd1na2vs0mg"},{"bike_id":"3e49cea2-bd33-4ac2-8cd0-87582e06fb0a","system_id":"levelo_inurba_marseille","lat":43.29628,"lon":5.37183,"is_reserved":false,"is_disabled":false,"rental_uris":{"android":"levelo://app?vid=3e49cea2-bd33-4ac2-8cd0-87582e06fb0a","ios":"levelo://app?vid=3e49cea2-bd33-4ac2-8cd0-87582e06fb0a"},"vehicle_type_id":"4","last_reported":1767784298,"current_range_meters":8000,"station_id":"ce4bgnh2rcd13ifvqc0g","pricing_plan_id":"cebpf4jnsgd1na2vs0mg"},{"bike_id":"35f085a3-e56f-4686-aebb-d9e576fd73b4","system_id":"levelo_inurba_marseille","lat":43.28463,"lon":5.3591,"is_reserved":false,"is_disabled":true,"rental_uris":{"android":"levelo://app?vid=35f085a3-e56f-4686-aebb-d9e576fd73b4","ios":"levelo://app?vid=35f085a3-e56f-4686-aebb-d9e576fd73b4"},"vehicle_type_id":"4","last_reported":1767784298,"current_range_meters":8000,"station_id":"ce4bhah2rcd13ifvqei0","pricing_plan_id":"cebpf4jnsgd1na2vs0mg"},{"bike_id":"663c6ec3-cdff-49a2-861d-91b77b2f8ef0","system_id":"levelo_inurba_marseille","lat":43.26345,"lon":5.40121,"is_reserved":false,"is_disabled":false,"rental_uris":{"android":"levelo://app?vid=663c6ec3-cdff-49a2-861d-91b77b2f8ef0","ios":"levelo://app?vid=663c6ec3-cdff-49a2-861d-91b77b2f8ef0"},"vehicle_type_id":"4","last_reported":1767784298,"current_range_meters":8000,"station_id":"","pricing_plan_id":"cebpf4jnsgd1na2vs0mg"},{"bike_id":"98249e23-d727-42e2-bc64-1013f35aedc9","system_id":"levelo_inurba_marseille","lat":43.23046,"lon":5.35505,"is_reserved":false,"is_disabled":false,"rental_uris":{"android":"levelo://app?vid=98249e23-d727-42e2-bc64-1013f35aedc9","ios":"levelo://app?vid=98249e23-d727-42e2-bc64-1013f35aedc9"},"vehicle_type_id":"4","last_reported":1767784298,"current_range_meters":8400,"station_id":"cpo3342slgdg3j2ifvpg","pricing_plan_id":"cebpf4jnsgd1na2vs0mg"},{"bike_id":"f9694d4b-6e2f-4fc5-ae06-59dad6b1ea4d","system_id":"levelo_inurba_marseille","lat":43.25024,"lon":5.37517,"is_reserved":false,"is_disabled":false,"rental_uris":{"android":"levelo://app?vid=f9694d4b-6e2f-4fc5-ae06-59dad6b1ea4d","ios":"levelo://app?vid=f9694d4b-6e2f-4fc5-ae06-59dad6b1ea4d"},"vehicle_type_id":"4","last_reported":1767784298,"current_range_meters":8400,"station_id":"","pricing_plan_id":"cebpf4jnsgd1na2vs0mg"},{"bike_id":"d94b07c2-0fc2-4a09-94f3-ef5c79a50c5f","system_id":"levelo_inurba_marseille","lat":43.29042,"lon":5.37562,"is_reserved":false,"is_disabled":false,"rental_uris":{"android":"levelo://app?vid=d94b07c2-0fc2-4a09-94f3-ef5c79a50c5f","ios":"levelo://app?vid=d94b07c2-0fc2-4a09-94f3-ef5c79a50c5f"},"vehicle_type_id":"4","last_reported":1767784298,"current_range_meters":8400,"station_id":"ce4bh692rcd13ifvqe90","pricing_plan_id":"cebpf4jnsgd1na2vs0mg"},{"bike_id":"eec7f246-2540-4ab7-b168-ea7ca4ebb9e0","system_id":"levelo_inurba_marseille","lat":43.313586,"lon":5.367504,"is_reserved":false,"is_disabled":false,"rental_uris":{"android":"levelo://app?vid=eec7f246-2540-4ab7-b168-ea7ca4ebb9e0","ios":"levelo://app?vid=eec7f246-2540-4ab7-b168-ea7ca4ebb9e0"},"vehicle_type_id":"4","last_reported":1767784298,"current_range_meters":8400,"station_id":"ce4bgr92rcd13ifvqc6g","pricing_plan_id":"cebpf4jnsgd1na2vs0mg"},{"bike_id":"ace77be5-aec7-4f00-b993-49a23cac1569","system_id":"levelo_inurba_marseille","lat":43.25568,"lon":5.38258,"is_reserved":false,"is_disabled":false,"rental_uris":{"android":"levelo://app?vid=ace77be5-aec7-4f00-b993-49a23cac1569","ios":"levelo://app?vid=ace77be5-aec7-4f00-b993-49a23cac1569"},"vehicle_type_id":"4","last_reported":1767784298,"current_range_meters":8400,"station_id":"ce4bhih2rcd13ifvqfs0","pricing_plan_id":"cebpf4jnsgd1na2vs0mg"},{"bike_id":"d3a628e7-e861-43cf-a3b2-a9ffaeb8a9de","system_id":"levelo_inurba_marseille","lat":43.29885,"lon":5.38894,"is_reserved":false,"is_disabled":false,"rental_uris":{"android":"levelo://app?vid=d3a628e7-e861-43cf-a3b2-a9ffaeb8a9de","ios":"levelo://app?vid=d3a628e7-e861-43cf-a3b2-a9ffaeb8a9de"},"vehicle_type_id":"4","last_reported":1767784298,"current_range_meters":8400,"station_id":"ce4bh392rcd13ifvqdl0","pricing_plan_id":"cebpf4jnsgd1na2vs0mg"},{"bike_id":"772bf3b5-2fb2-4abd-a529-fdf3012df8cc","system_id":"levelo_inurba_marseille","lat":43.25191,"lon":5.40595,"is_reserved":false,"is_disabled":false,"rental_uris":{"android":"levelo://app?vid=772bf3b5-2fb2-4abd-a529-fdf3012df8cc","ios":"levelo://app?vid=772bf3b5-2fb2-4abd-a529-fdf3012df8cc"},"vehicle_type_id":"4","last_reported":1767784298,"current_range_meters":8400,"station_id":"","pricing_plan_id":"cebpf4jnsgd1na2vs0mg"},{"bike_id":"f323eec5-f654-4bdf-8118-8c8db52565b4","system_id":"levelo_inurba_marseille","lat":43.28569,"lon":5.38619,"is_reserved":false,"is_disabled":false,"rental_uris":{"android":"levelo://app?vid=f323eec5-f654-4bdf-8118-8c8db52565b4","ios":"levelo://app?vid=f323eec5-f654-4bdf-8118-8c8db52565b4"},"vehicle_type_id":"4","last_reported":1767784298,"current_range_meters":8400,"station_id":"","pricing_plan_id":"cebpf4jnsgd1na2vs0mg"},{"bike_id":"c5a08515-36c2-4e55-b1a8-edb92b0fe596","system_id":"levelo_inurba_marseille","lat":43.27692,"lon":5.38902,"is_reserved":false,"is_disabled":false,"rental_uris":{"android":"levelo://app?vid=c5a08515-36c2-4e55-b1a8-edb92b0fe596","ios":"levelo://app?vid=c5a08515-36c2-4e55-b1a8-edb92b0fe596"},"vehicle_type_id":"4","last_reported":1767784298,"current_range_meters":8400,"station_id":"ce4bhi12rcd13ifvqfo0","pricing_plan_id":"cebpf4jnsgd1na2vs0mg"},{"bike_id":"d311e83f-a1e3-4e4b-bc51-98ee46938913","system_id":"levelo_inurba_marseille","lat":43.29029,"lon":5.39986,"is_reserved":false,"is_disabled":false,"rental_uris":{"android":"levelo://app?vid=d311e83f-a1e3-4e4b-bc51-98ee46938913","ios":"levelo://app?vid=d311e83f-a1e3-4e4b-bc51-98ee46938913"},"vehicle_type_id":"4","last_reported":1767784298,"current_range_meters":8400,"station_id":"ce4bh392rcd13ifvqdm0","pricing_plan_id":"cebpf4jnsgd1na2vs0mg"},{"bike_id":"8e9cd320-222e-4849-8f3f-db8fcd5c5954","system_id":"levelo_inurba_marseille","lat":43.31815,"lon":5.36865,"is_reserved":false,"is_disabled":false,"rental_uris":{"android":"levelo://app?vid=8e9cd320-222e-4849-8f3f-db8fcd5c5954","ios":"levelo://app?vid=8e9cd320-222e-4849-8f3f-db8fcd5c5954"},"vehicle_type_id":"4","last_reported":1767784298,"current_range_meters":8400,"station_id":"","pricing_plan_id":"cebpf4jnsgd1na2vs0mg"},{"bike_id":"9a6bcb44-e334-4131-b81f-1fe3b2f62c5f","system_id":"levelo_inurba_marseille","lat":43.232333,"lon":5.436689,"is_reserved":false,"is_disabled":false,"rental_uris":{"android":"levelo://app?vid=9a6bcb44-e334-4131-b81f-1fe3b2f62c5f","ios":"levelo://app?vid=9a6bcb44-e334-4131-b81f-1fe3b2f62c5f"},"vehicle_type_id":"4","last_reported":1767784298,"current_range_meters":8400,"station_id":"","pricing_plan_id":"cebpf4jnsgd1na2vs0mg"},{"bike_id":"f0200f6d-0992-4e28-b5d9-384057d8264b","system_id":"levelo_inurba_marseille","lat":43.29258,"lon":5.36863,"is_reserved":false,"is_disabled":false,"rental_uris":{"android":"levelo://app?vid=f0200f6d-0992-4e28-b5d9-384057d8264b","ios":"levelo://app?vid=f0200f6d-0992-4e28-b5d9-384057d8264b"},"vehicle_type_id":"4","last_reported":1767784298,"current_range_meters":8400,"station_id":"ce4bhbp2rcd13ifvqesg","pricing_plan_id":"cebpf4jnsgd1na2vs0mg"},{"bike_id":"bf3c5452-0238-43e2-b338-8c19911c88fc","system_id":"levelo_inurba_marseille","lat":43.22533,"lon":5.348305,"is_reserved":false,"is_disabled":false,"rental_uris":{"android":"levelo://app?vid=bf3c5452-0238-43e2-b338-8c19911c88fc","ios":"levelo://app?vid=bf3c5452-0238-43e2-b338-8c19911c88fc"},"vehicle_type_id":"4","last_reported":1767784298,"current_range_meters":8400,"station_id":"st_cvj6r9ubvosntc0bgbag","pricing_plan_id":"cebpf4jnsgd1na2vs0mg"},{"bike_id":"ea651389-8d86-4469-a721-0d7140af898b","system_id":"levelo_inurba_marseille","lat":43.27993,"lon":5.41667,"is_reserved":false,"is_disabled":false,"rental_uris":{"android":"levelo://app?vid=ea651389-8d86-4469-a721-0d7140af898b","ios":"levelo://app?vid=ea651389-8d86-4469-a721-0d7140af898b"},"vehicle_type_id":"4","last_reported":1767784298,"current_range_meters":8400,"station_id":"ce4bho12rcd13ifvqh1g","pricing_plan_id":"cebpf4jnsgd1na2vs0mg"},{"bike_id":"b9a3e9c9-335c-4595-ad2f-788e1cfb6ee9","system_id":"levelo_inurba_marseille","lat":43.299683,"lon":5.371787,"is_reserved":false,"is_disabled":false,"rental_uris":{"android":"levelo://app?vid=b9a3e9c9-335c-4595-ad2f-788e1cfb6ee9","ios":"levelo://app?vid=b9a3e9c9-335c-4595-ad2f-788e1cfb6ee9"},"vehicle_type_id":"4","last_reported":1767784298,"current_range_meters":8400,"station_id":"ce4bgr92rcd13ifvqc7g","pricing_plan_id":"cebpf4jnsgd1na2vs0mg"},{"bike_id":"865283d9-7468-4c7f-b0c5-3cfacbe37880","system_id":"levelo_inurba_marseille","lat":43.26014,"lon":5.37588,"is_reserved":false,"is_disabled":false,"rental_uris":{"android":"levelo://app?vid=865283d9-7468-4c7f-b0c5-3cfacbe37880","ios":"levelo://app?vid=865283d9-7468-4c7f-b0c5-3cfacbe37880"},"vehicle_type_id":"4","last_reported":1767784298,"current_range_meters":8800,"station_id":"ce4bhgh2rcd13ifvqfa0","pricing_plan_id":"cebpf4jnsgd1na2vs0mg"},{"bike_id":"7bed6c7f-598e-48e9-bae3-214e5eee84f3","system_id":"levelo_inurba_marseille","lat":43.24465,"lon":5.42537,"is_reserved":false,"is_disabled":false,"rental_uris":{"android":"levelo://app?vid=7bed6c7f-598e-48e9-bae3-214e5eee84f3","ios":"levelo://app?vid=7bed6c7f-598e-48e9-bae3-214e5eee84f3"},"vehicle_type_id":"4","last_reported":1767784298,"current_range_meters":8800,"station_id":"st_d4a3vfp97mjs738cd8kg","pricing_plan_id":"cebpf4jnsgd1na2vs0mg"},{"bike_id":"cb4606a4-ce77-419c-9379-1b48a89b0fcb","system_id":"levelo_inurba_marseille","lat":43.29144,"lon":5.40037,"is_reserved":false,"is_disabled":false,"rental_uris":{"android":"levelo://app?vid=cb4606a4-ce77-419c-9379-1b48a89b0fcb","ios":"levelo://app?vid=cb4606a4-ce77-419c-9379-1b48a89b0fcb"},"vehicle_type_id":"4","last_reported":1767784298,"current_range_meters":8800,"station_id":"","pricing_plan_id":"cebpf4jnsgd1na2vs0mg"},{"bike_id":"58225b8d-28fd-4cc2-91f8-83ea7f334d78","system_id":"levelo_inurba_marseille","lat":43.31178,"lon":5.36823,"is_reserved":false,"is_disabled":false,"rental_uris":{"android":"levelo://app?vid=58225b8d-28fd-4cc2-91f8-83ea7f334d78","ios":"levelo://app?vid=58225b8d-28fd-4cc2-91f8-83ea7f334d78"},"vehicle_type_id":"4","last_reported":1767784298,"current_range_meters":8800,"station_id":"ce4bgl92rcd13ifvqbq0","pricing_plan_id":"cebpf4jnsgd1na2vs0mg"},{"bike_id":"d293f938-06f4-47c6-ae6d-906beae764af","system_id":"levelo_inurba_marseille","lat":43.2799,"lon":5.40034,"is_reserved":false,"is_disabled":false,"rental_uris":{"android":"levelo://app?vid=d293f938-06f4-47c6-ae6d-906beae764af","ios":"levelo://app?vid=d293f938-06f4-47c6-ae6d-906beae764af"},"vehicle_type_id":"4","last_reported":1767784298,"current_range_meters":8800,"station_id":"ce4bho92rcd13ifvqh4g","pricing_plan_id":"cebpf4jnsgd1na2vs0mg"},{"bike_id":"be75706c-d84a-4279-b5a3-376dba45c6a6","system_id":"levelo_inurba_marseille","lat":43.24811,"lon":5.37462,"is_reserved":false,"is_disabled":false,"rental_uris":{"android":"levelo://app?vid=be75706c-d84a-4279-b5a3-376dba45c6a6","ios":"levelo://app?vid=be75706c-d84a-4279-b5a3-376dba45c6a6"},"vehicle_type_id":"4","last_reported":1767784298,"current_range_meters":8800,"station_id":"ce4bhgh2rcd13ifvqfb0","pricing_plan_id":"cebpf4jnsgd1na2vs0mg"},{"bike_id":"6780348f-fb93-4884-95fc-676ab6258ce9","system_id":"levelo_inurba_marseille","lat":43.2708,"lon":5.3829,"is_reserved":false,"is_disabled":true,"rental_uris":{"android":"levelo://app?vid=6780348f-fb93-4884-95fc-676ab6258ce9","ios":"levelo://app?vid=6780348f-fb93-4884-95fc-676ab6258ce9"},"vehicle_type_id":"4","last_reported":1767784298,"current_range_meters":8800,"station_id":"st_d3n2fo6cfp8s73cte1j0","pricing_plan_id":"cebpf4jnsgd1na2vs0mg"},{"bike_id":"6161915a-379c-47d1-a0b6-32b98cda77f1","system_id":"levelo_inurba_marseille","lat":43.32444,"lon":5.38953,"is_reserved":false,"is_disabled":false,"rental_uris":{"android":"levelo://app?vid=6161915a-379c-47d1-a0b6-32b98cda77f1","ios":"levelo://app?vid=6161915a-379c-47d1-a0b6-32b98cda77f1"},"vehicle_type_id":"4","last_reported":1767784298,"current_range_meters":8800,"station_id":"","pricing_plan_id":"cebpf4jnsgd1na2vs0mg"},{"bike_id":"318ab7ee-cd4e-4fbb-a198-dc67360e53a7","system_id":"levelo_inurba_marseille","lat":43.22921,"lon":5.35373,"is_reserved":false,"is_disabled":false,"rental_uris":{"android":"levelo://app?vid=318ab7ee-cd4e-4fbb-a198-dc67360e53a7","ios":"levelo://app?vid=318ab7ee-cd4e-4fbb-a198-dc67360e53a7"},"vehicle_type_id":"4","last_reported":1767784298,"current_range_meters":8800,"station_id":"cpo3532slgdg3j2ikp40","pricing_plan_id":"cebpf4jnsgd1na2vs0mg"},{"bike_id":"a897355a-e9d2-40ac-9bcd-6664d85cf531","system_id":"levelo_inurba_marseille","lat":43.297925,"lon":5.381105,"is_reserved":false,"is_disabled":false,"rental_uris":{"android":"levelo://app?vid=a897355a-e9d2-40ac-9bcd-6664d85cf531","ios":"levelo://app?vid=a897355a-e9d2-40ac-9bcd-6664d85cf531"},"vehicle_type_id":"4","last_reported":1767784298,"current_range_meters":8800,"station_id":"ce4bgip2rcd13ifvqbb0","pricing_plan_id":"cebpf4jnsgd1na2vs0mg"},{"bike_id":"0b08096c-4995-449d-9715-13377335d815","system_id":"levelo_inurba_marseille","lat":43.225639,"lon":5.416292,"is_reserved":false,"is_disabled":false,"rental_uris":{"android":"levelo://app?vid=0b08096c-4995-449d-9715-13377335d815","ios":"levelo://app?vid=0b08096c-4995-449d-9715-13377335d815"},"vehicle_type_id":"4","last_reported":1767784298,"current_range_meters":8800,"station_id":"st_d2o4gvlbi1j2169b742g","pricing_plan_id":"cebpf4jnsgd1na2vs0mg"},{"bike_id":"037f3da2-a9a4-448b-9f35-b11f69d80e0e","system_id":"levelo_inurba_marseille","lat":43.29736,"lon":5.37699,"is_reserved":false,"is_disabled":false,"rental_uris":{"android":"levelo://app?vid=037f3da2-a9a4-448b-9f35-b11f69d80e0e","ios":"levelo://app?vid=037f3da2-a9a4-448b-9f35-b11f69d80e0e"},"vehicle_type_id":"4","last_reported":1767784298,"current_range_meters":8800,"station_id":"ce4bgkh2rcd13ifvqbl0","pricing_plan_id":"cebpf4jnsgd1na2vs0mg"},{"bike_id":"c6f10462-8307-466f-9305-8cd885bef393","system_id":"levelo_inurba_marseille","lat":43.29683,"lon":5.37276,"is_reserved":false,"is_disabled":false,"rental_uris":{"android":"levelo://app?vid=c6f10462-8307-466f-9305-8cd885bef393","ios":"levelo://app?vid=c6f10462-8307-466f-9305-8cd885bef393"},"vehicle_type_id":"4","last_reported":1767784298,"current_range_meters":8800,"station_id":"ce4bgk12rcd13ifvqbj0","pricing_plan_id":"cebpf4jnsgd1na2vs0mg"},{"bike_id":"070b27e1-efa1-46b5-911c-0f7ae30687f2","system_id":"levelo_inurba_marseille","lat":43.26209,"lon":5.37445,"is_reserved":false,"is_disabled":false,"rental_uris":{"android":"levelo://app?vid=070b27e1-efa1-46b5-911c-0f7ae30687f2","ios":"levelo://app?vid=070b27e1-efa1-46b5-911c-0f7ae30687f2"},"vehicle_type_id":"4","last_reported":1767784298,"current_range_meters":8800,"station_id":"ce4bhgp2rcd13ifvqfc0","pricing_plan_id":"cebpf4jnsgd1na2vs0mg"},{"bike_id":"1adc3559-caf4-41bc-8e48-2363b7a9cdd0","system_id":"levelo_inurba_marseille","lat":43.29536,"lon":5.37511,"is_reserved":false,"is_disabled":false,"rental_uris":{"android":"levelo://app?vid=1adc3559-caf4-41bc-8e48-2363b7a9cdd0","ios":"levelo://app?vid=1adc3559-caf4-41bc-8e48-2363b7a9cdd0"},"vehicle_type_id":"4","last_reported":1767784298,"current_range_meters":8800,"station_id":"ce4bgkp2rcd13ifvqbmg","pricing_plan_id":"cebpf4jnsgd1na2vs0mg"},{"bike_id":"eb39fb16-d062-4734-870c-9cd5b095e541","system_id":"levelo_inurba_marseille","lat":43.335385,"lon":5.374694,"is_reserved":false,"is_disabled":false,"rental_uris":{"android":"levelo://app?vid=eb39fb16-d062-4734-870c-9cd5b095e541","ios":"levelo://app?vid=eb39fb16-d062-4734-870c-9cd5b095e541"},"vehicle_type_id":"4","last_reported":1767784298,"current_range_meters":8800,"station_id":"st_d46tts09ee8s73dlu43g","pricing_plan_id":"cebpf4jnsgd1na2vs0mg"},{"bike_id":"31ee1072-44ae-4f71-b06c-c86c3965fcef","system_id":"levelo_inurba_marseille","lat":43.26537,"lon":5.37342,"is_reserved":false,"is_disabled":false,"rental_uris":{"android":"levelo://app?vid=31ee1072-44ae-4f71-b06c-c86c3965fcef","ios":"levelo://app?vid=31ee1072-44ae-4f71-b06c-c86c3965fcef"},"vehicle_type_id":"4","last_reported":1767784298,"current_range_meters":8800,"station_id":"ce4bhg12rcd13ifvqf70","pricing_plan_id":"cebpf4jnsgd1na2vs0mg"},{"bike_id":"e333ef92-9481-476e-a416-b4070e2823b7","system_id":"levelo_inurba_marseille","lat":43.25483,"lon":5.37672,"is_reserved":false,"is_disabled":false,"rental_uris":{"android":"levelo://app?vid=e333ef92-9481-476e-a416-b4070e2823b7","ios":"levelo://app?vid=e333ef92-9481-476e-a416-b4070e2823b7"},"vehicle_type_id":"4","last_reported":1767784298,"current_range_meters":8800,"station_id":"ce4bhh12rcd13ifvqff0","pricing_plan_id":"cebpf4jnsgd1na2vs0mg"},{"bike_id":"1bdc8d33-6828-47d3-a712-d5d2feeb8a1f","system_id":"levelo_inurba_marseille","lat":43.27945,"lon":5.41061,"is_reserved":false,"is_disabled":false,"rental_uris":{"android":"levelo://app?vid=1bdc8d33-6828-47d3-a712-d5d2feeb8a1f","ios":"levelo://app?vid=1bdc8d33-6828-47d3-a712-d5d2feeb8a1f"},"vehicle_type_id":"4","last_reported":1767784298,"current_range_meters":8800,"station_id":"ce4bhnp2rcd13ifvqh0g","pricing_plan_id":"cebpf4jnsgd1na2vs0mg"},{"bike_id":"a19c9616-438c-4eef-92be-d7a1608a9cc7","system_id":"levelo_inurba_marseille","lat":43.30389,"lon":5.42681,"is_reserved":false,"is_disabled":false,"rental_uris":{"android":"levelo://app?vid=a19c9616-438c-4eef-92be-d7a1608a9cc7","ios":"levelo://app?vid=a19c9616-438c-4eef-92be-d7a1608a9cc7"},"vehicle_type_id":"4","last_reported":1767784298,"current_range_meters":8800,"station_id":"","pricing_plan_id":"cebpf4jnsgd1na2vs0mg"},{"bike_id":"47c0d34a-7479-493b-aa7e-a0c586f4d5b7","system_id":"levelo_inurba_marseille","lat":43.269221,"lon":5.388845,"is_reserved":false,"is_disabled":false,"rental_uris":{"android":"levelo://app?vid=47c0d34a-7479-493b-aa7e-a0c586f4d5b7","ios":"levelo://app?vid=47c0d34a-7479-493b-aa7e-a0c586f4d5b7"},"vehicle_type_id":"4","last_reported":1767784298,"current_range_meters":8800,"station_id":"ce4bhhh2rcd13ifvqfl0","pricing_plan_id":"cebpf4jnsgd1na2vs0mg"},{"bike_id":"d0d67774-3af3-4c86-b7b6-8109c321647b","system_id":"levelo_inurba_marseille","lat":43.22949,"lon":5.35375,"is_reserved":false,"is_disabled":false,"rental_uris":{"android":"levelo://app?vid=d0d67774-3af3-4c86-b7b6-8109c321647b","ios":"levelo://app?vid=d0d67774-3af3-4c86-b7b6-8109c321647b"},"vehicle_type_id":"4","last_reported":1767784298,"current_range_meters":8800,"station_id":"cpo3532slgdg3j2ikp40","pricing_plan_id":"cebpf4jnsgd1na2vs0mg"},{"bike_id":"5a1a9e9a-f0a6-4d0e-aace-29e5adbf7f6f","system_id":"levelo_inurba_marseille","lat":43.24467,"lon":5.42542,"is_reserved":false,"is_disabled":false,"rental_uris":{"android":"levelo://app?vid=5a1a9e9a-f0a6-4d0e-aace-29e5adbf7f6f","ios":"levelo://app?vid=5a1a9e9a-f0a6-4d0e-aace-29e5adbf7f6f"},"vehicle_type_id":"4","last_reported":1767784298,"current_range_meters":8800,"station_id":"st_d4a3vfp97mjs738cd8kg","pricing_plan_id":"cebpf4jnsgd1na2vs0mg"},{"bike_id":"fdba7477-673a-4b6a-b82e-c5d6ceae84fa","system_id":"levelo_inurba_marseille","lat":43.30951,"lon":5.39064,"is_reserved":false,"is_disabled":false,"rental_uris":{"android":"levelo://app?vid=fdba7477-673a-4b6a-b82e-c5d6ceae84fa","ios":"levelo://app?vid=fdba7477-673a-4b6a-b82e-c5d6ceae84fa"},"vehicle_type_id":"4","last_reported":1767784298,"current_range_meters":8800,"station_id":"ce4bgup2rcd13ifvqco0","pricing_plan_id":"cebpf4jnsgd1na2vs0mg"},{"bike_id":"5a68ff48-3ca4-4b8d-81f5-0545c9e06ce5","system_id":"levelo_inurba_marseille","lat":43.2887,"lon":5.42528,"is_reserved":false,"is_disabled":false,"rental_uris":{"android":"levelo://app?vid=5a68ff48-3ca4-4b8d-81f5-0545c9e06ce5","ios":"levelo://app?vid=5a68ff48-3ca4-4b8d-81f5-0545c9e06ce5"},"vehicle_type_id":"4","last_reported":1767784298,"current_range_meters":9200,"station_id":"st_d3b462108ojc7389ooeg","pricing_plan_id":"cebpf4jnsgd1na2vs0mg"},{"bike_id":"1c4b26ae-7723-4cf2-bb68-ee4f35274dcd","system_id":"levelo_inurba_marseille","lat":43.29519,"lon":5.37507,"is_reserved":false,"is_disabled":false,"rental_uris":{"android":"levelo://app?vid=1c4b26ae-7723-4cf2-bb68-ee4f35274dcd","ios":"levelo://app?vid=1c4b26ae-7723-4cf2-bb68-ee4f35274dcd"},"vehicle_type_id":"4","last_reported":1767784298,"current_range_meters":9200,"station_id":"ce4bgkp2rcd13ifvqbmg","pricing_plan_id":"cebpf4jnsgd1na2vs0mg"},{"bike_id":"f6c1d545-d8df-48a4-b906-098a561f57c6","system_id":"levelo_inurba_marseille","lat":43.29496,"lon":5.43323,"is_reserved":false,"is_disabled":false,"rental_uris":{"android":"levelo://app?vid=f6c1d545-d8df-48a4-b906-098a561f57c6","ios":"levelo://app?vid=f6c1d545-d8df-48a4-b906-098a561f57c6"},"vehicle_type_id":"4","last_reported":1767784298,"current_range_meters":9200,"station_id":"st_d3j5ugp08ojc73fj9d10","pricing_plan_id":"cebpf4jnsgd1na2vs0mg"},{"bike_id":"19e15d06-cf4c-459d-8887-b3feaa0bcacf","system_id":"levelo_inurba_marseille","lat":43.32878,"lon":5.40531,"is_reserved":false,"is_disabled":false,"rental_uris":{"android":"levelo://app?vid=19e15d06-cf4c-459d-8887-b3feaa0bcacf","ios":"levelo://app?vid=19e15d06-cf4c-459d-8887-b3feaa0bcacf"},"vehicle_type_id":"4","last_reported":1767784298,"current_range_meters":9200,"station_id":"ce4bhq92rcd13ifvqhkg","pricing_plan_id":"cebpf4jnsgd1na2vs0mg"},{"bike_id":"842fcc96-d751-4bb7-a69b-92e82162fd5c","system_id":"levelo_inurba_marseille","lat":43.28456,"lon":5.35929,"is_reserved":false,"is_disabled":true,"rental_uris":{"android":"levelo://app?vid=842fcc96-d751-4bb7-a69b-92e82162fd5c","ios":"levelo://app?vid=842fcc96-d751-4bb7-a69b-92e82162fd5c"},"vehicle_type_id":"4","last_reported":1767784298,"current_range_meters":9200,"station_id":"","pricing_plan_id":"cebpf4jnsgd1na2vs0mg"},{"bike_id":"fff3f068-c1e3-4ab2-a40f-e4ac951b41a1","system_id":"levelo_inurba_marseille","lat":43.258206,"lon":5.394206,"is_reserved":false,"is_disabled":false,"rental_uris":{"android":"levelo://app?vid=fff3f068-c1e3-4ab2-a40f-e4ac951b41a1","ios":"levelo://app?vid=fff3f068-c1e3-4ab2-a40f-e4ac951b41a1"},"vehicle_type_id":"4","last_reported":1767784298,"current_range_meters":9200,"station_id":"ce4bhip2rcd13ifvqft0","pricing_plan_id":"cebpf4jnsgd1na2vs0mg"},{"bike_id":"8af7f5e7-ad96-4b48-b9a1-4d3f47692c34","system_id":"levelo_inurba_marseille","lat":43.2621,"lon":5.37984,"is_reserved":false,"is_disabled":true,"rental_uris":{"android":"levelo://app?vid=8af7f5e7-ad96-4b48-b9a1-4d3f47692c34","ios":"levelo://app?vid=8af7f5e7-ad96-4b48-b9a1-4d3f47692c34"},"vehicle_type_id":"4","last_reported":1767784298,"current_range_meters":9200,"station_id":"ce4bhjp2rcd13ifvqg90","pricing_plan_id":"cebpf4jnsgd1na2vs0mg"},{"bike_id":"948bd2ed-8fdc-4ef6-9827-a943cc835e12","system_id":"levelo_inurba_marseille","lat":43.301295,"lon":5.431136,"is_reserved":false,"is_disabled":false,"rental_uris":{"android":"levelo://app?vid=948bd2ed-8fdc-4ef6-9827-a943cc835e12","ios":"levelo://app?vid=948bd2ed-8fdc-4ef6-9827-a943cc835e12"},"vehicle_type_id":"4","last_reported":1767784298,"current_range_meters":9200,"station_id":"st_d3js3co5814s73ftftug","pricing_plan_id":"cebpf4jnsgd1na2vs0mg"},{"bike_id":"7e56ead6-0dcc-483d-86d1-d4af73c68e4a","system_id":"levelo_inurba_marseille","lat":43.2939,"lon":5.38614,"is_reserved":false,"is_disabled":true,"rental_uris":{"android":"levelo://app?vid=7e56ead6-0dcc-483d-86d1-d4af73c68e4a","ios":"levelo://app?vid=7e56ead6-0dcc-483d-86d1-d4af73c68e4a"},"vehicle_type_id":"4","last_reported":1767784298,"current_range_meters":9200,"station_id":"","pricing_plan_id":"cebpf4jnsgd1na2vs0mg"},{"bike_id":"4aabd3c7-a850-4421-adb8-405a6c9e2c28","system_id":"levelo_inurba_marseille","lat":43.237821,"lon":5.366338,"is_reserved":false,"is_disabled":false,"rental_uris":{"android":"levelo://app?vid=4aabd3c7-a850-4421-adb8-405a6c9e2c28","ios":"levelo://app?vid=4aabd3c7-a850-4421-adb8-405a6c9e2c28"},"vehicle_type_id":"4","last_reported":1767784298,"current_range_meters":9200,"station_id":"st_d3nk18o9ro0c73en2l3g","pricing_plan_id":"cebpf4jnsgd1na2vs0mg"},{"bike_id":"17ffc005-fa72-4d1f-9413-b31aab6a3fd6","system_id":"levelo_inurba_marseille","lat":43.32344,"lon":5.36756,"is_reserved":false,"is_disabled":false,"rental_uris":{"android":"levelo://app?vid=17ffc005-fa72-4d1f-9413-b31aab6a3fd6","ios":"levelo://app?vid=17ffc005-fa72-4d1f-9413-b31aab6a3fd6"},"vehicle_type_id":"4","last_reported":1767784298,"current_range_meters":9200,"station_id":"ce4bhsh2rcd13ifvqi2g","pricing_plan_id":"cebpf4jnsgd1na2vs0mg"},{"bike_id":"e3ffb854-e428-4a18-904d-ea5ddd084e10","system_id":"levelo_inurba_marseille","lat":43.323493,"lon":5.367326,"is_reserved":false,"is_disabled":false,"rental_uris":{"android":"levelo://app?vid=e3ffb854-e428-4a18-904d-ea5ddd084e10","ios":"levelo://app?vid=e3ffb854-e428-4a18-904d-ea5ddd084e10"},"vehicle_type_id":"4","last_reported":1767784298,"current_range_meters":9200,"station_id":"ce4bhsh2rcd13ifvqi2g","pricing_plan_id":"cebpf4jnsgd1na2vs0mg"},{"bike_id":"505c851b-40c8-484d-bf20-ce58a025a1f3","system_id":"levelo_inurba_marseille","lat":43.301613,"lon":5.374172,"is_reserved":false,"is_disabled":false,"rental_uris":{"android":"levelo://app?vid=505c851b-40c8-484d-bf20-ce58a025a1f3","ios":"levelo://app?vid=505c851b-40c8-484d-bf20-ce58a025a1f3"},"vehicle_type_id":"4","last_reported":1767784298,"current_range_meters":9200,"station_id":"ce4bgs92rcd13ifvqcc0","pricing_plan_id":"cebpf4jnsgd1na2vs0mg"},{"bike_id":"385d5b67-82b2-470e-a513-f915a9996239","system_id":"levelo_inurba_marseille","lat":43.31666,"lon":5.43722,"is_reserved":false,"is_disabled":false,"rental_uris":{"android":"levelo://app?vid=385d5b67-82b2-470e-a513-f915a9996239","ios":"levelo://app?vid=385d5b67-82b2-470e-a513-f915a9996239"},"vehicle_type_id":"4","last_reported":1767784298,"current_range_meters":9200,"station_id":"","pricing_plan_id":"cebpf4jnsgd1na2vs0mg"},{"bike_id":"3e26c528-1f84-4478-bd0b-621b5de341ac","system_id":"levelo_inurba_marseille","lat":43.25339,"lon":5.42179,"is_reserved":false,"is_disabled":false,"rental_uris":{"android":"levelo://app?vid=3e26c528-1f84-4478-bd0b-621b5de341ac","ios":"levelo://app?vid=3e26c528-1f84-4478-bd0b-621b5de341ac"},"vehicle_type_id":"4","last_reported":1767784298,"current_range_meters":9200,"station_id":"st_d2m65c5bi1j21697t3ng","pricing_plan_id":"cebpf4jnsgd1na2vs0mg"},{"bike_id":"1983b4ce-e602-45b0-b9a9-e0bf20ee0a25","system_id":"levelo_inurba_marseille","lat":43.33548,"lon":5.37487,"is_reserved":false,"is_disabled":false,"rental_uris":{"android":"levelo://app?vid=1983b4ce-e602-45b0-b9a9-e0bf20ee0a25","ios":"levelo://app?vid=1983b4ce-e602-45b0-b9a9-e0bf20ee0a25"},"vehicle_type_id":"4","last_reported":1767784298,"current_range_meters":9200,"station_id":"st_d46tts09ee8s73dlu43g","pricing_plan_id":"cebpf4jnsgd1na2vs0mg"},{"bike_id":"9b9e7c0d-8b05-4d0a-9b2e-71cd579eefc9","system_id":"levelo_inurba_marseille","lat":43.32359,"lon":5.36753,"is_reserved":false,"is_disabled":false,"rental_uris":{"android":"levelo://app?vid=9b9e7c0d-8b05-4d0a-9b2e-71cd579eefc9","ios":"levelo://app?vid=9b9e7c0d-8b05-4d0a-9b2e-71cd579eefc9"},"vehicle_type_id":"4","last_reported":1767784298,"current_range_meters":9200,"station_id":"ce4bhsh2rcd13ifvqi2g","pricing_plan_id":"cebpf4jnsgd1na2vs0mg"},{"bike_id":"12d41d42-0df1-44df-b48f-62c73404ec27","system_id":"levelo_inurba_marseille","lat":43.2707,"lon":5.38309,"is_reserved":false,"is_disabled":false,"rental_uris":{"android":"levelo://app?vid=12d41d42-0df1-44df-b48f-62c73404ec27","ios":"levelo://app?vid=12d41d42-0df1-44df-b48f-62c73404ec27"},"vehicle_type_id":"4","last_reported":1767784298,"current_range_meters":9200,"station_id":"st_d3n2fo6cfp8s73cte1j0","pricing_plan_id":"cebpf4jnsgd1na2vs0mg"},{"bike_id":"58001d0e-10f4-4489-82b1-11f6e56df68b","system_id":"levelo_inurba_marseille","lat":43.33158,"lon":5.37693,"is_reserved":false,"is_disabled":false,"rental_uris":{"android":"levelo://app?vid=58001d0e-10f4-4489-82b1-11f6e56df68b","ios":"levelo://app?vid=58001d0e-10f4-4489-82b1-11f6e56df68b"},"vehicle_type_id":"4","last_reported":1767784298,"current_range_meters":9200,"station_id":"st_d46cu089ee8s73dldbu0","pricing_plan_id":"cebpf4jnsgd1na2vs0mg"},{"bike_id":"8b64629a-01ea-4bd1-b790-2de771fc862a","system_id":"levelo_inurba_marseille","lat":43.31487,"lon":5.37312,"is_reserved":false,"is_disabled":false,"rental_uris":{"android":"levelo://app?vid=8b64629a-01ea-4bd1-b790-2de771fc862a","ios":"levelo://app?vid=8b64629a-01ea-4bd1-b790-2de771fc862a"},"vehicle_type_id":"4","last_reported":1767784298,"current_range_meters":9200,"station_id":"ce4bgt12rcd13ifvqcd0","pricing_plan_id":"cebpf4jnsgd1na2vs0mg"},{"bike_id":"d819fa67-b871-433d-9523-b06a424195d3","system_id":"levelo_inurba_marseille","lat":43.29711,"lon":5.37695,"is_reserved":false,"is_disabled":false,"rental_uris":{"android":"levelo://app?vid=d819fa67-b871-433d-9523-b06a424195d3","ios":"levelo://app?vid=d819fa67-b871-433d-9523-b06a424195d3"},"vehicle_type_id":"4","last_reported":1767784298,"current_range_meters":9200,"station_id":"ce4bgkh2rcd13ifvqbl0","pricing_plan_id":"cebpf4jnsgd1na2vs0mg"},{"bike_id":"47d0a8b3-c4fc-4d20-befe-0d9c69ad92a9","system_id":"levelo_inurba_marseille","lat":43.238017,"lon":5.36647,"is_reserved":false,"is_disabled":false,"rental_uris":{"android":"levelo://app?vid=47d0a8b3-c4fc-4d20-befe-0d9c69ad92a9","ios":"levelo://app?vid=47d0a8b3-c4fc-4d20-befe-0d9c69ad92a9"},"vehicle_type_id":"4","last_reported":1767784298,"current_range_meters":9200,"station_id":"st_d3nk18o9ro0c73en2l3g","pricing_plan_id":"cebpf4jnsgd1na2vs0mg"},