{"last_updated":1734206998,"ttl":60,"version":"2.2","data":{"bikes":[{"bike_id":"45c22bfb-3859-46ca-bbdd-b43970628095","system_id":"levelo_inurba_marseille","lat":43.23184,"lon":5.39985,"is_reserved":false,"is_disabled":false,"rental_uris":{"android":"levelo://app?vid=45c22bfb-3859-46ca-bbdd-b43970628095","ios":"levelo://app?vid=45c22bfb-3859-46ca-bbdd-b43970628095"},"vehicle_type_id":"4","last_reported":1734206998,"current_range_meters":20400,"station_id":"ce4bhn12rcd13ifvqgqg","pricing_plan_id":"cebpf4jnsgd1na2vs0mg"},{"bike_id":"646d615d-b8ef-4796-822a-34bd6dbc380a","system_id":"levelo_inurba_marseille","lat":43.26777,"lon":5.39432,"is_reserved":false,"is_disabled":true,"rental_uris":{"android":"levelo://app?vid=646d615d-b8ef-4796-822a-34bd6dbc380a","ios":"levelo://app?vid=646d615d-b8ef-4796-822a-34bd6dbc380a"},"vehicle_type_id":"4","last_reported":1734206998,"current_range_meters":800,"station_id":"ce4bhh12rcd13ifvqfg0","pricing_plan_id":"cebpf4jnsgd1na2vs0mg"},{"bike_id":"656bbcae-1f36-4362-9994-c0c7137eb4a5","system_id":"levelo_inurba_marseille","lat":43.30476,"lon":5.37906,"is_reserved":false,"is_disabled":false,"rental_uris":{"android":"levelo://app?vid=656bbcae-1f36-4362-9994-c0c7137eb4a5","ios":"levelo://app?vid=656bbcae-1f36-4362-9994-c0c7137eb4a5"},"vehicle_type_id":"4","last_reported":1734206998,"current_range_meters":16000,"station_id":"ce4bgup2rcd13ifvqcn0","pricing_plan_id":"cebpf4jnsgd1na2vs0mg"},{"bike_id":"50b3a443-a67d-4bc4-85df-95f6908841be","system_id":"levelo_inurba_marseille","lat":43.23192,"lon":5.35562,"is_reserved":false,"is_disabled":false,"rental_uris":{"android":"levelo://app?vid=50b3a443-a67d-4bc4-85df-95f6908841be","ios":"levelo://app?vid=50b3a443-a67d-4bc4-85df-95f6908841be"},"vehicle_type_id":"4","last_reported":1734206998,"current_range_meters":17200,"station_id":"ce4bhu92rcd13ifvqi70","pricing_plan_id":"cebpf4jnsgd1na2vs0mg"},{"bike_id":"2c32be52-e73c-42a8-8020-183210c211c7","system_id":"levelo_inurba_marseille","lat":43.28711,"lon":5.37944,"is_reserved":false,"is_disabled":false,"rental_uris":{"android":"levelo://app?vid=2c32be52-e73c-42a8-8020-183210c211c7","ios":"levelo://app?vid=2c32be52-e73c-42a8-8020-183210c211c7"},"vehicle_type_id":"4","last_reported":1734206998,"current_range_meters":24000,"station_id":"ce4bh9p2rcd13ifvqec0","pricing_plan_id":"cebpf4jnsgd1na2vs0mg"},{"bike_id":"ed9edba7-d3f1-4e95-8555-1252dbf70dce","system_id":"levelo_inurba_marseille","lat":43.27556,"lon":5.38406,"is_reserved":false,"is_disabled":true,"rental_uris":{"android":"levelo://app?vid=ed9edba7-d3f1-4e95-8555-1252dbf70dce","ios":"levelo://app?vid=ed9edba7-d3f1-4e95-8555-1252dbf70dce"},"vehicle_type_id":"4","last_reported":1734206998,"current_range_meters":38800,"station_id":"ce4bhh92rcd13ifvqfi0","pricing_plan_id":"cebpf4jnsgd1na2vs0mg"},{"bike_id":"d6115e4e-7df7-4ecf-9d0f-dd3a267f1633","system_id":"levelo_inurba_marseille","lat":43.31481,"lon":5.37299,"is_reserved":false,"is_disabled":false,"rental_uris":{"android":"levelo://app?vid=d6115e4e-7df7-4ecf-9d0f-dd3a267f1633","ios":"levelo://app?vid=d6115e4e-7df7-4ecf-9d0f-dd3a267f1633"},"vehicle_type_id":"4","last_reported":1734206998,"current_range_meters":3600,"station_id":"ce4bgt12rcd13ifvqcd0","pricing_plan_id":"cebpf4jnsgd1na2vs0mg"},{"bike_id":"35642114-ba9f-4cd0-9d6f-a2edaa6e597b","system_id":"levelo_inurba_marseille","lat":43.30462,"lon":5.37899,"is_reserved":false,"is_disabled":false,"rental_uris":{"android":"levelo://app?vid=35642114-ba9f-4cd0-9d6f-a2edaa6e597b","ios":"levelo://app?vid=35642114-ba9f-4cd0-9d6f-a2edaa6e597b"},"vehicle_type_id":"4","last_reported":1734206998,"current_range_meters":11600,"station_id":"ce4bgup2rcd13ifvqcn0","pricing_plan_id":"cebpf4jnsgd1na2vs0mg"},{"bike_id":"b9909b1b-7dc0-43e0-9eac-af3c1c280ed0","system_id":"levelo_inurba_marseille","lat":43.29064,"lon":5.35773,"is_reserved":false,"is_disabled":false,"rental_uris":{"android":"levelo://app?vid=b9909b1b-7dc0-43e0-9eac-af3c1c280ed0","ios":"levelo://app?vid=b9909b1b-7dc0-43e0-9eac-af3c1c280ed0"},"vehicle_type_id":"4","last_reported":1734206998,"current_range_meters":11600,"station_id":"","pricing_plan_id":"cebpf4jnsgd1na2vs0mg"},{"bike_id":"a5df68ae-5bff-4473-86b9-d03b0d9fbbc3","system_id":"levelo_inurba_marseille","lat":43.28935,"lon":5.36646,"is_reserved":false,"is_disabled":false,"rental_uris":{"android":"levelo://app?vid=a5df68ae-5bff-4473-86b9-d03b0d9fbbc3","ios":"levelo://app?vid=a5df68ae-5bff-4473-86b9-d03b0d9fbbc3"},"vehicle_type_id":"4","last_reported":1734206998,"current_range_meters":24000,"station_id":"ce4bhap2rcd13ifvqek0","pricing_plan_id":"cebpf4jnsgd1na2vs0mg"},{"bike_id":"8f321a28-62a0-4466-94c4-46cd8efe4b2e","system_id":"levelo_inurba_marseille","lat":43.31501,"lon":5.3727,"is_reserved":false,"is_disabled":false,"rental_uris":{"android":"levelo://app?vid=8f321a28-62a0-4466-94c4-46cd8efe4b2e","ios":"levelo://app?vid=8f321a28-62a0-4466-94c4-46cd8efe4b2e"},"vehicle_type_id":"4","last_reported":1734206998,"current_range_meters":24000,"station_id":"ce4bgt12rcd13ifvqcd0","pricing_plan_id":"cebpf4jnsgd1na2vs0mg"},{"bike_id":"799ba256-798f-4516-af3f-4dec620033a8","system_id":"levelo_inurba_marseille","lat":43.31322,"lon":5.39691,"is_reserved":false,"is_disabled":false,"rental_uris":{"android":"levelo://app?vid=799ba256-798f-4516-af3f-4dec620033a8","ios":"levelo://app?vid=799ba256-798f-4516-af3f-4dec620033a8"},"vehicle_type_id":"4","last_reported":1734206998,"current_range_meters":38000,"station_id":"ce4bgvp2rcd13ifvqcu0","pricing_plan_id":"cebpf4jnsgd1na2vs0mg"},{"bike_id":"2aabb9e3-ae45-4b17-b10d-af50e235d80a","system_id":"levelo_inurba_marseille","lat":43.26783,"lon":5.39928,"is_reserved":false,"is_disabled":true,"rental_uris":{"android":"levelo://app?vid=2aabb9e3-ae45-4b17-b10d-af50e235d80a","ios":"levelo://app?vid=2aabb9e3-ae45-4b17-b10d-af50e235d80a"},"vehicle_type_id":"4","last_reported":1734206998,"current_range_meters":0,"station_id":"","pricing_plan_id":"cebpf4jnsgd1na2vs0mg"},{"bike_id":"707fb3ca-9aaa-4891-90ae-4a971299a89a","system_id":"levelo_inurba_marseille","lat":43.2988,"lon":5.38911,"is_reserved":false,"is_disabled":false,"rental_uris":{"android":"levelo://app?vid=707fb3ca-9aaa-4891-90ae-4a971299a89a","ios":"levelo://app?vid=707fb3ca-9aaa-4891-90ae-4a971299a89a"},"vehicle_type_id":"4","last_reported":1734206998,"current_range_meters":36800,"station_id":"ce4bh392rcd13ifvqdl0","pricing_plan_id":"cebpf4jnsgd1na2vs0mg"},{"bike_id":"41d45927-b34b-4b55-be0d-a31d21631e28","system_id":"levelo_inurba_marseille","lat":43.29098,"lon":5.38137,"is_reserved":false,"is_disabled":false,"rental_uris":{"android":"levelo://app?vid=41d45927-b34b-4b55-be0d-a31d21631e28","ios":"levelo://app?vid=41d45927-b34b-4b55-be0d-a31d21631e28"},"vehicle_type_id":"4","last_reported":1734206998,"current_range_meters":39200,"station_id":"ce4bh512rcd13ifvqe2g","pricing_plan_id":"cebpf4jnsgd1na2vs0mg"},{"bike_id":"a839feba-19e0-43dc-accc-15584f393366","system_id":"levelo_inurba_marseille","lat":43.28466,"lon":5.3589,"is_reserved":false,"is_disabled":false,"rental_uris":{"android":"levelo://app?vid=a839feba-19e0-43dc-accc-15584f393366","ios":"levelo://app?vid=a839feba-19e0-43dc-accc-15584f393366"},"vehicle_type_id":"4","last_reported":1734206998,"current_range_meters":36000,"station_id":"ce4bhah2rcd13ifvqei0","pricing_plan_id":"cebpf4jnsgd1na2vs0mg"},{"bike_id":"3595e955-9243-4ebf-a4ff-5df2907e8d74","system_id":"levelo_inurba_marseille","lat":43.32289,"lon":5.38276,"is_reserved":false,"is_disabled":false,"rental_uris":{"android":"levelo://app?vid=3595e955-9243-4ebf-a4ff-5df2907e8d74","ios":"levelo://app?vid=3595e955-9243-4ebf-a4ff-5df2907e8d74"},"vehicle_type_id":"4","last_reported":1734206998,"current_range_meters":39200,"station_id":"ce4bhr12rcd13ifvqhqg","pricing_plan_id":"cebpf4jnsgd1na2vs0mg"},{"bike_id":"74fd2f2d-9002-46a2-97fb-83a607590ba6","system_id":"levelo_inurba_marseille","lat":43.29566,"lon":5.39965,"is_reserved":false,"is_disabled":true,"rental_uris":{"android":"levelo://app?vid=74fd2f2d-9002-46a2-97fb-83a607590ba6","ios":"levelo://app?vid=74fd2f2d-9002-46a2-97fb-83a607590ba6"},"vehicle_type_id":"4","last_reported":1734206998,"current_range_meters":0,"station_id":"ce4bh312rcd13ifvqdj0","pricing_plan_id":"cebpf4jnsgd1na2vs0mg"},{"bike_id":"cb47fd63-819c-4333-b162-d5bb992b76ed","system_id":"levelo_inurba_marseille","lat":43.29077,"lon":5.37171,"is_reserved":false,"is_disabled":false,"rental_uris":{"android":"levelo://app?vid=cb47fd63-819c-4333-b162-d5bb992b76ed","ios":"levelo://app?vid=cb47fd63-819c-4333-b162-d5bb992b76ed"},"vehicle_type_id":"4","last_reported":1734206998,"current_range_meters":3200,"station_id":"ce4bh5p2rcd13ifvqe4g","pricing_plan_id":"cebpf4jnsgd1na2vs0mg"},{"bike_id":"e9331878-b569-4e7d-b055-fbf811863e8b","system_id":"levelo_inurba_marseille","lat":43.29532,"lon":5.38541,"is_reserved":false,"is_disabled":false,"rental_uris":{"android":"levelo://app?vid=e9331878-b569-4e7d-b055-fbf811863e8b","ios":"levelo://app?vid=e9331878-b569-4e7d-b055-fbf811863e8b"},"vehicle_type_id":"4","last_reported":1734206998,"current_range_meters":32400,"station_id":"ce4bgih2rcd13ifvqba0","pricing_plan_id":"cebpf4jnsgd1na2vs0mg"},{"bike_id":"496b9119-850a-49b3-bf98-295bb079ca7c","system_id":"levelo_inurba_marseille","lat":43.28188,"lon":5.44564,"is_reserved":false,"is_disabled":false,"rental_uris":{"android":"levelo://app?vid=496b9119-850a-49b3-bf98-295bb079ca7c","ios":"levelo://app?vid=496b9119-850a-49b3-bf98-295bb079ca7c"},"vehicle_type_id":"4","last_reported":1734206998,"current_range_meters":8400,"station_id":"","pricing_plan_id":"cebpf4jnsgd1na2vs0mg"},{"bike_id":"a69c5411-492e-42df-a8b6-8bc1c611aeb2","system_id":"levelo_inurba_marseille","lat":43.28003,"lon":5.4166,"is_reserved":false,"is_disabled":false,"rental_uris":{"android":"levelo://app?vid=a69c5411-492e-42df-a8b6-8bc1c611aeb2","ios":"levelo://app?vid=a69c5411-492e-42df-a8b6-8bc1c611aeb2"},"vehicle_type_id":"4","last_reported":1734206998,"current_range_meters":36800,"station_id":"ce4bho12rcd13ifvqh1g","pricing_plan_id":"cebpf4jnsgd1na2vs0mg"},{"bike_id":"03ff3e32-27a0-4629-8f34-4101ea444023","system_id":"levelo_inurba_marseille","lat":43.28423,"lon":5.37524,"is_reserved":false,"is_disabled":false,"rental_uris":{"android":"levelo://app?vid=03ff3e32-27a0-4629-8f34-4101ea444023","ios":"levelo://app?vid=03ff3e32-27a0-4629-8f34-4101ea444023"},"vehicle_type_id":"4","last_reported":1734206998,"current_range_meters":26800,"station_id":"ce4bh412rcd13ifvqds0","pricing_plan_id":"cebpf4jnsgd1na2vs0mg"},{"bike_id":"27000a9c-82af-41a5-82d0-e57d423e1b26","system_id":"levelo_inurba_marseille","lat":43.25112,"lon":5.40309,"is_reserved":false,"is_disabled":false,"rental_uris":{"android":"levelo://app?vid=27000a9c-82af-41a5-82d0-e57d423e1b26","ios":"levelo://app?vid=27000a9c-82af-41a5-82d0-e57d423e1b26"},"vehicle_type_id":"4","last_reported":1734206998,"current_range_meters":33200,"station_id":"ce4bhlh2rcd13ifvqgig","pricing_plan_id":"cebpf4jnsgd1na2vs0mg"},{"bike_id":"c2d73d9a-a75e-4567-83ca-9b3ad9c335b7","system_id":"levelo_inurba_marseille","lat":43.28154,"lon":5.42643,"is_reserved":false,"is_disabled":true,"rental_uris":{"android":"levelo://app?vid=c2d73d9a-a75e-4567-83ca-9b3ad9c335b7","ios":"levelo://app?vid=c2d73d9a-a75e-4567-83ca-9b3ad9c335b7"},"vehicle_type_id":"4","last_reported":1734206998,"current_range_meters":0,"station_id":"ce4bhnh2rcd13ifvqgug","pricing_plan_id":"cebpf4jnsgd1na2vs0mg"},{"bike_id":"243d8a32-8675-42ff-8a0a-1d7d8c05b7b1","system_id":"levelo_inurba_marseille","lat":43.32656,"lon":5.40997,"is_reserved":false,"is_disabled":false,"rental_uris":{"android":"levelo://app?vid=243d8a32-8675-42ff-8a0a-1d7d8c05b7b1","ios":"levelo://app?vid=243d8a32-8675-42ff-8a0a-1d7d8c05b7b1"},"vehicle_type_id":"4","last_reported":1734206998,"current_range_meters":9600,"station_id":"ce4bhpp2rcd13ifvqhgg","pricing_plan_id":"cebpf4jnsgd1na2vs0mg"},{"bike_id":"d5c89c1f-3bad-4af2-9449-e04c277a4696","system_id":"levelo_inurba_marseille","lat":43.29991,"lon":5.41328,"is_reserved":false,"is_disabled":true,"rental_uris":{"android":"levelo://app?vid=d5c89c1f-3bad-4af2-9449-e04c277a4696","ios":"levelo://app?vid=d5c89c1f-3bad-4af2-9449-e04c277a4696"},"vehicle_type_id":"4","last_reported":1734206998,"current_range_meters":38400,"station_id":"ce4bhp12rcd13ifvqh9g","pricing_plan_id":"cebpf4jnsgd1na2vs0mg"},{"bike_id":"e6c17fa1-6fd0-4ca1-9951-48e979ee6abc","system_id":"levelo_inurba_marseille","lat":43.26564,"lon":5.37274,"is_reserved":false,"is_disabled":true,"rental_uris":{"android":"levelo://app?vid=e6c17fa1-6fd0-4ca1-9951-48e979ee6abc","ios":"levelo://app?vid=e6c17fa1-6fd0-4ca1-9951-48e979ee6abc"},"vehicle_type_id":"4","last_reported":1734206998,"current_range_meters":0,"station_id":"ce4bhg12rcd13ifvqf70","pricing_plan_id":"cebpf4jnsgd1na2vs0mg"},{"bike_id":"faef79eb-6f02-4263-bf1b-339ee6233ddd","system_id":"levelo_inurba_marseille","lat":43.30442,"lon":5.39712,"is_reserved":false,"is_disabled":false,"rental_uris":{"android":"levelo://app?vid=faef79eb-6f02-4263-bf1b-339ee6233ddd","ios":"levelo://app?vid=faef79eb-6f02-4263-bf1b-339ee6233ddd"},"vehicle_type_id":"4","last_reported":1734206998,"current_range_meters":29600,"station_id":"ce4bh092rcd13ifvqd20","pricing_plan_id":"cebpf4jnsgd1na2vs0mg"},{"bike_id":"5dcb142e-3766-4e2c-b1fe-c9ebbc5d3c50","system_id":"levelo_inurba_marseille","lat":43.32003,"lon":5.38137,"is_reserved":false,"is_disabled":false,"rental_uris":{"android":"levelo://app?vid=5dcb142e-3766-4e2c-b1fe-c9ebbc5d3c50","ios":"levelo://app?vid=5dcb142e-3766-4e2c-b1fe-c9ebbc5d3c50"},"vehicle_type_id":"4","last_reported":1734206998,"current_range_meters":38400,"station_id":"ce4bhr12rcd13ifvqhpg","pricing_plan_id":"cebpf4jnsgd1na2vs0mg"},{"bike_id":"af84f0d6-0da8-41c2-b16a-2d81040dffb1","system_id":"levelo_inurba_marseille","lat":43.24174,"lon":5.39731,"is_reserved":false,"is_disabled":false,"rental_uris":{"android":"levelo://app?vid=af84f0d6-0da8-41c2-b16a-2d81040dffb1","ios":"levelo://app?vid=af84f0d6-0da8-41c2-b16a-2d81040dffb1"},"vehicle_type_id":"4","last_reported":1734206998,"current_range_meters":28400,"station_id":"ce4bhn12rcd13ifvqgpg","pricing_plan_id":"cebpf4jnsgd1na2vs0mg"},{"bike_id":"02c69dbb-d120-40bb-a7e6-764a58f5e97b","system_id":"levelo_inurba_marseille","lat":43.29786,"lon":5.39331,"is_reserved":false,"is_disabled":false,"rental_uris":{"android":"levelo://app?vid=02c69dbb-d120-40bb-a7e6-764a58f5e97b","ios":"levelo://app?vid=02c69dbb-d120-40bb-a7e6-764a58f5e97b"},"vehicle_type_id":"4","last_reported":1734206998,"current_range_meters":38000,"station_id":"chh1huq6cuj3fo74tm60","pricing_plan_id":"cebpf4jnsgd1na2vs0mg"},{"bike_id":"89c28168-9e53-422f-a68c-5ee6ccf55d1e","system_id":"levelo_inurba_marseille","lat":43.29722,"lon":5.37671,"is_reserved":false,"is_disabled":false,"rental_uris":{"android":"levelo://app?vid=89c28168-9e53-422f-a68c-5ee6ccf55d1e","ios":"levelo://app?vid=89c28168-9e53-422f-a68c-5ee6ccf55d1e"},"vehicle_type_id":"4","last_reported":1734206998,"current_range_meters":38800,"station_id":"ce4bgkh2rcd13ifvqbl0","pricing_plan_id":"cebpf4jnsgd1na2vs0mg"},{"bike_id":"dfb7fccf-f568-4fd2-900e-38a48ee64204","system_id":"levelo_inurba_marseille","lat":43.29008,"lon":5.35602,"is_reserved":false,"is_disabled":false,"rental_uris":{"android":"levelo://app?vid=dfb7fccf-f568-4fd2-900e-38a48ee64204","ios":"levelo://app?vid=dfb7fccf-f568-4fd2-900e-38a48ee64204"},"vehicle_type_id":"4","last_reported":1734206998,"current_range_meters":39200,"station_id":"ce4bhb92rcd13ifvqen0","pricing_plan_id":"cebpf4jnsgd1na2vs0mg"},{"bike_id":"8bc2629d-782c-426d-a834-8e5e7d2d5eae","system_id":"levelo_inurba_marseille","lat":43.31329,"lon":5.39708,"is_reserved":false,"is_disabled":false,"rental_uris":{"android":"levelo://app?vid=8bc2629d-782c-426d-a834-8e5e7d2d5eae","ios":"levelo://app?vid=8bc2629d-782c-426d-a834-8e5e7d2d5eae"},"vehicle_type_id":"4","last_reported":1734206998,"current_range_meters":38800,"station_id":"ce4bgvp2rcd13ifvqcu0","pricing_plan_id":"cebpf4jnsgd1na2vs0mg"},{"bike_id":"30b36864-5077-4537-84ad-57948ffea159","system_id":"levelo_inurba_marseille","lat":43.30881,"lon":5.39641,"is_reserved":false,"is_disabled":false,"rental_uris":{"android":"levelo://app?vid=30b36864-5077-4537-84ad-57948ffea159","ios":"levelo://app?vid=30b36864-5077-4537-84ad-57948ffea159"},"vehicle_type_id":"4","last_reported":1734206998,"current_range_meters":6000,"station_id":"ce4bh012rcd13ifvqcv0","pricing_plan_id":"cebpf4jnsgd1na2vs0mg"},{"bike_id":"d73fd242-71d9-4951-a797-6f754b8a00c6","system_id":"levelo_inurba_marseille","lat":43.31312,"lon":5.36737,"is_reserved":false,"is_disabled":false,"rental_uris":{"android":"levelo://app?vid=d73fd242-71d9-4951-a797-6f754b8a00c6","ios":"levelo://app?vid=d73fd242-71d9-4951-a797-6f754b8a00c6"},"vehicle_type_id":"4","last_reported":1734206998,"current_range_meters":38000,"station_id":"ce4bh0p2rcd13ifvqd70","pricing_plan_id":"cebpf4jnsgd1na2vs0mg"},{"bike_id":"b6f421b1-3fe8-4110-ba05-58f4276bc64e","system_id":"levelo_inurba_marseille","lat":43.2955,"lon":5.42297,"is_reserved":false,"is_disabled":false,"rental_uris":{"android":"levelo://app?vid=b6f421b1-3fe8-4110-ba05-58f4276bc64e","ios":"levelo://app?vid=b6f421b1-3fe8-4110-ba05-58f4276bc64e"},"vehicle_type_id":"4","last_reported":1734206998,"current_range_meters":24800,"station_id":"ce4bhph2rcd13ifvqhdg","pricing_plan_id":"cebpf4jnsgd1na2vs0mg"},{"bike_id":"03af2219-0349-436f-b3be-90d657d4b2e0","system_id":"levelo_inurba_marseille","lat":43.29793,"lon":5.38115,"is_reserved":false,"is_disabled":false,"rental_uris":{"android":"levelo://app?vid=03af2219-0349-436f-b3be-90d657d4b2e0","ios":"levelo://app?vid=03af2219-0349-436f-b3be-90d657d4b2e0"},"vehicle_type_id":"4","last_reported":1734206998,"current_range_meters":38800,"station_id":"ce4bgip2rcd13ifvqbb0","pricing_plan_id":"cebpf4jnsgd1na2vs0mg"},{"bike_id":"69d22519-30af-4cfc-91c4-c524af85c0be","system_id":"levelo_inurba_marseille","lat":43.2954,"lon":5.38543,"is_reserved":false,"is_disabled":false,"rental_uris":{"android":"levelo://app?vid=69d22519-30af-4cfc-91c4-c524af85c0be","ios":"levelo://app?vid=69d22519-30af-4cfc-91c4-c524af85c0be"},"vehicle_type_id":"4","last_reported":1734206998,"current_range_meters":9600,"station_id":"ce4bgih2rcd13ifvqba0","pricing_plan_id":"cebpf4jnsgd1na2vs0mg"},{"bike_id":"3258e1ab-e0b5-4f3b-9b62-7836d94eb61a","system_id":"levelo_inurba_marseille","lat":43.32658,"lon":5.40993,"is_reserved":false,"is_disabled":false,"rental_uris":{"android":"levelo://app?vid=3258e1ab-e0b5-4f3b-9b62-7836d94eb61a","ios":"levelo://app?vid=3258e1ab-e0b5-4f3b-9b62-7836d94eb61a"},"vehicle_type_id":"4","last_reported":1734206998,"current_range_meters":36800,"station_id":"ce4bhpp2rcd13ifvqhgg","pricing_plan_id":"cebpf4jnsgd1na2vs0mg"},{"bike_id":"e5bd221f-1031-4d6c-9010-e95ffe7a6e20","system_id":"levelo_inurba_marseille","lat":43.28445,"lon":5.39194,"is_reserved":false,"is_disabled":false,"rental_uris":{"android":"levelo://app?vid=e5bd221f-1031-4d6c-9010-e95ffe7a6e20","ios":"levelo://app?vid=e5bd221f-1031-4d6c-9010-e95ffe7a6e20"},"vehicle_type_id":"4","last_reported":1734206998,"current_range_meters":12000,"station_id":"ce4bhoh2rcd13ifvqh5g","pricing_plan_id":"cebpf4jnsgd1na2vs0mg"},{"bike_id":"e00d66cc-b150-49e8-ae6d-e9090bf6d114","system_id":"levelo_inurba_marseille","lat":43.29076,"lon":5.37174,"is_reserved":false,"is_disabled":false,"rental_uris":{"android":"levelo://app?vid=e00d66cc-b150-49e8-ae6d-e9090bf6d114","ios":"levelo://app?vid=e00d66cc-b150-49e8-ae6d-e9090bf6d114"},"vehicle_type_id":"4","last_reported":1734206998,"current_range_meters":12000,"station_id":"ce4bh5p2rcd13ifvqe4g","pricing_plan_id":"cebpf4jnsgd1na2vs0mg"},{"bike_id":"88341ea4-6ea4-4722-b434-08ec41b7663f","system_id":"levelo_inurba_marseille","lat":43.30598,"lon":5.3934,"is_reserved":false,"is_disabled":true,"rental_uris":{"android":"levelo://app?vid=88341ea4-6ea4-4722-b434-08ec41b7663f","ios":"levelo://app?vid=88341ea4-6ea4-4722-b434-08ec41b7663f"},"vehicle_type_id":"4","last_reported":1734206998,"current_range_meters":32000,"station_id":"ce4bh0p2rcd13ifvqd80","pricing_plan_id":"cebpf4jnsgd1na2vs0mg"},{"bike_id":"edaea664-24e0-4d6c-aa7a-497f5c5f88f6","system_id":"levelo_inurba_marseille","lat":43.270086,"lon":5.391403,"is_reserved":false,"is_disabled":true,"rental_uris":{"android":"levelo://app?vid=edaea664-24e0-4d6c-aa7a-497f5c5f88f6","ios":"levelo://app?vid=edaea664-24e0-4d6c-aa7a-497f5c5f88f6"},"vehicle_type_id":"4","last_reported":1734206998,"current_range_meters":0,"station_id":"","pricing_plan_id":"cebpf4jnsgd1na2vs0mg"},{"bike_id":"637f7e23-be3b-4aa9-87cb-5d394800192c","system_id":"levelo_inurba_marseille","lat":43.31711,"lon":5.43696,"is_reserved":false,"is_disabled":true,"rental_uris":{"android":"levelo://app?vid=637f7e23-be3b-4aa9-87cb-5d394800192c","ios":"levelo://app?vid=637f7e23-be3b-4aa9-87cb-5d394800192c"},"vehicle_type_id":"4","last_reported":1734206998,"current_range_meters":1200,"station_id":"ce4bhp92rcd13ifvqhcg","pricing_plan_id":"cebpf4jnsgd1na2vs0mg"},{"bike_id":"840517c9-5921-40ba-ade6-d8d7a768cdb5","system_id":"levelo_inurba_marseille","lat":43.28943,"lon":5.36644,"is_reserved":false,"is_disabled":false,"rental_uris":{"android":"levelo://app?vid=840517c9-5921-40ba-ade6-d8d7a768cdb5","ios":"levelo://app?vid=840517c9-5921-40ba-ade6-d8d7a768cdb5"},"vehicle_type_id":"4","last_reported":1734206998,"current_range_meters":28000,"station_id":"ce4bhap2rcd13ifvqek0","pricing_plan_id":"cebpf4jnsgd1na2vs0mg"},{"bike_id":"d913222b-9721-45c6-a224-2cb6a7f14261","system_id":"levelo_inurba_marseille","lat":43.29203,"lon":5.39327,"is_reserved":false,"is_disabled":false,"rental_uris":{"android":"levelo://app?vid=d913222b-9721-45c6-a224-2cb6a7f14261","ios":"levelo://app?vid=d913222b-9721-45c6-a224-2cb6a7f14261"},"vehicle_type_id":"4","last_reported":1734206998,"current_range_meters":38000,"station_id":"ce4bh192rcd13ifvqdd0","pricing_plan_id":"cebpf4jnsgd1na2vs0mg"},{"bike_id":"125ac0b2-4f5a-46b6-aa69-3b10ed7e657d","system_id":"levelo_inurba_marseille","lat":43.29544,"lon":5.38547,"is_reserved":false,"is_disabled":false,"rental_uris":{"android":"levelo://app?vid=125ac0b2-4f5a-46b6-aa69-3b10ed7e657d","ios":"levelo://app?vid=125ac0b2-4f5a-46b6-aa69-3b10ed7e657d"},"vehicle_type_id":"4","last_reported":1734206998,"current_range_meters":32400,"station_id":"ce4bgih2rcd13ifvqba0","pricing_plan_id":"cebpf4jnsgd1na2vs0mg"},{"bike_id":"4600372f-6b1d-4928-9068-2be3d7b0a63e","system_id":"levelo_inurba_marseille","lat":43.30136,"lon":5.39885,"is_reserved":false,"is_disabled":false,"rental_uris":{"android":"levelo://app?vid=4600372f-6b1d-4928-9068-2be3d7b0a63e","ios":"levelo://app?vid=4600372f-6b1d-4928-9068-2be3d7b0a63e"},"vehicle_type_id":"4","last_reported":1734206998,"current_range_meters":28800,"station_id":"ce4bh0h2rcd13ifvqd40","pricing_plan_id":"cebpf4jnsgd1na2vs0mg"},{"bike_id":"aec3eae1-5225-4efc-aee9-00de4403d09e","system_id":"levelo_inurba_marseille","lat":43.28272,"lon":5.35062,"is_reserved":false,"is_disabled":false,"rental_uris":{"android":"levelo://app?vid=aec3eae1-5225-4efc-aee9-00de4403d09e","ios":"levelo://app?vid=aec3eae1-5225-4efc-aee9-00de4403d09e"},"vehicle_type_id":"4","last_reported":1734206998,"current_range_meters":29600,"station_id":"ce4bhbp2rcd13ifvqerg","pricing_plan_id":"cebpf4jnsgd1na2vs0mg"},{"bike_id":"a5283d6f-a724-4464-95fb-daaae8de5389","system_id":"levelo_inurba_marseille","lat":43.30356,"lon":5.41881,"is_reserved":false,"is_disabled":false,"rental_uris":{"android":"levelo://app?vid=a5283d6f-a724-4464-95fb-daaae8de5389","ios":"levelo://app?vid=a5283d6f-a724-4464-95fb-daaae8de5389"},"vehicle_type_id":"4","last_reported":1734206998,"current_range_meters":38000,"station_id":"ce4bhop2rcd13ifvqh7g","pricing_plan_id":"cebpf4jnsgd1na2vs0mg"},{"bike_id":"9ef5ff88-aefa-4eda-b85a-6c00542972b7","system_id":"levelo_inurba_marseille","lat":43.28939,"lon":5.36645,"is_reserved":false,"is_disabled":false,"rental_uris":{"android":"levelo://app?vid=9ef5ff88-aefa-4eda-b85a-6c00542972b7","ios":"levelo://app?vid=9ef5ff88-aefa-4eda-b85a-6c00542972b7"},"vehicle_type_id":"4","last_reported":1734206998,"current_range_meters":27200,"station_id":"ce4bhap2rcd13ifvqek0","pricing_plan_id":"cebpf4jnsgd1na2vs0mg"},{"bike_id":"82d2deac-e154-4bd7-b34d-957379fd607c","system_id":"levelo_inurba_marseille","lat":43.322825,"lon":5.382784,"is_reserved":false,"is_disabled":false,"rental_uris":{"android":"levelo://app?vid=82d2deac-e154-4bd7-b34d-957379fd607c","ios":"levelo://app?vid=82d2deac-e154-4bd7-b34d-957379fd607c"},"vehicle_type_id":"4","last_reported":1734206998,"current_range_meters":11200,"station_id":"ce4bhr12rcd13ifvqhqg","pricing_plan_id":"cebpf4jnsgd1na2vs0mg"},{"bike_id":"eaf9baf6-a896-4ebe-b114-40c06575fe0d","system_id":"levelo_inurba_marseille","lat":43.29102,"lon":5.3814,"is_reserved":false,"is_disabled":true,"rental_uris":{"android":"levelo://app?vid=eaf9baf6-a896-4ebe-b114-40c06575fe0d","ios":"levelo://app?vid=eaf9baf6-a896-4ebe-b114-40c06575fe0d"},"vehicle_type_id":"4","last_reported":1734206998,"current_range_meters":400,"station_id":"ce4bh512rcd13ifvqe2g","pricing_plan_id":"cebpf4jnsgd1na2vs0mg"},{"bike_id":"4fe5b802-6d4a-478f-80f7-e4f6837b7ef9","system_id":"levelo_inurba_marseille","lat":43.26934,"lon":5.40262,"is_reserved":false,"is_disabled":true,"rental_uris":{"android":"levelo://app?vid=4fe5b802-6d4a-478f-80f7-e4f6837b7ef9","ios":"levelo://app?vid=4fe5b802-6d4a-478f-80f7-e4f6837b7ef9"},"vehicle_type_id":"4","last_reported":1734206998,"current_range_meters":0,"station_id":"cjm6bp8fraef2m0cb0m0","pricing_plan_id":"cebpf4jnsgd1na2vs0mg"},{"bike_id":"c2349124-c865-41c3-a153-6299b9ce50e4","system_id":"levelo_inurba_marseille","lat":43.30135,"lon":5.39884,"is_reserved":false,"is_disabled":false,"rental_uris":{"android":"levelo://app?vid=c2349124-c865-41c3-a153-6299b9ce50e4","ios":"levelo://app?vid=c2349124-c865-41c3-a153-6299b9ce50e4"},"vehicle_type_id":"4","last_reported":1734206998,"current_range_meters":39200,"station_id":"ce4bh0h2rcd13ifvqd40","pricing_plan_id":"cebpf4jnsgd1na2vs0mg"},{"bike_id":"dbbb1ad0-9518-4f73-a26a-d5ec2207b552","system_id":"levelo_inurba_marseille","lat":43.29439,"lon":5.38604,"is_reserved":false,"is_disabled":false,"rental_uris":{"android":"levelo://app?vid=dbbb1ad0-9518-4f73-a26a-d5ec2207b552","ios":"levelo://app?vid=dbbb1ad0-9518-4f73-a26a-d5ec2207b552"},"vehicle_type_id":"4","last_reported":1734206998,"current_range_meters":39200,"station_id":"ce4bh2h2rcd13ifvqdh0","pricing_plan_id":"cebpf4jnsgd1na2vs0mg"},{"bike_id":"fd4efec3-03a9-456d-9f3e-04aeb194cc68","system_id":"levelo_inurba_marseille","lat":43.2581,"lon":5.39404,"is_reserved":false,"is_disabled":false,"rental_uris":{"android":"levelo://app?vid=fd4efec3-03a9-456d-9f3e-04aeb194cc68","ios":"levelo://app?vid=fd4efec3-03a9-456d-9f3e-04aeb194cc68"},"vehicle_type_id":"4","last_reported":1734206998,"current_range_meters":33600,"station_id":"ce4bhip2rcd13ifvqft0","pricing_plan_id":"cebpf4jnsgd1na2vs0mg"},{"bike_id":"dfdefa1a-36e5-482a-aafa-f01de140dff1","system_id":"levelo_inurba_marseille","lat":43.2846,"lon":5.35879,"is_reserved":false,"is_disabled":false,"rental_uris":{"android":"levelo://app?vid=dfdefa1a-36e5-482a-aafa-f01de140dff1","ios":"levelo://app?vid=dfdefa1a-36e5-482a-aafa-f01de140dff1"},"vehicle_type_id":"4","last_reported":1734206998,"current_range_meters":28400,"station_id":"ce4bhah2rcd13ifvqei0","pricing_plan_id":"cebpf4jnsgd1na2vs0mg"},{"bike_id":"2431d69f-ea0f-46ad-97ab-31fb4322795c","system_id":"levelo_inurba_marseille","lat":43.315,"lon":5.37306,"is_reserved":false,"is_disabled":false,"rental_uris":{"android":"levelo://app?vid=2431d69f-ea0f-46ad-97ab-31fb4322795c","ios":"levelo://app?vid=2431d69f-ea0f-46ad-97ab-31fb4322795c"},"vehicle_type_id":"4","last_reported":1734206998,"current_range_meters":30000,"station_id":"ce4bgt12rcd13ifvqcd0","pricing_plan_id":"cebpf4jnsgd1na2vs0mg"},{"bike_id":"adc4ecf9-5f4c-49e0-915f-2787f3778b82","system_id":"levelo_inurba_marseille","lat":43.3228,"lon":5.38272,"is_reserved":false,"is_disabled":false,"rental_uris":{"android":"levelo://app?vid=adc4ecf9-5f4c-49e0-915f-2787f3778b82","ios":"levelo://app?vid=adc4ecf9-5f4c-49e0-915f-2787f3778b82"},"vehicle_type_id":"4","last_reported":1734206998,"current_range_meters":38800,"station_id":"ce4bhr12rcd13ifvqhqg","pricing_plan_id":"cebpf4jnsgd1na2vs0mg"},{"bike_id":"0d895078-dc15-4f70-84ce-e09208baeda4","system_id":"levelo_inurba_marseille","lat":43.31589,"lon":5.37901,"is_reserved":false,"is_disabled":false,"rental_uris":{"android":"levelo://app?vid=0d895078-dc15-4f70-84ce-e09208baeda4","ios":"levelo://app?vid=0d895078-dc15-4f70-84ce-e09208baeda4"},"vehicle_type_id":"4","last_reported":1734206998,"current_range_meters":17600,"station_id":"","pricing_plan_id":"cebpf4jnsgd1na2vs0mg"},{"bike_id":"2071f054-5a90-4b26-bab7-f4ec1d1dd648","system_id":"levelo_inurba_marseille","lat":43.28103,"lon":5.37846,"is_reserved":false,"is_disabled":false,"rental_uris":{"android":"levelo://app?vid=2071f054-5a90-4b26-bab7-f4ec1d1dd648","ios":"levelo://app?vid=2071f054-5a90-4b26-bab7-f4ec1d1dd648"},"vehicle_type_id":"4","last_reported":1734206998,"current_range_meters":37600,"station_id":"ce4bha12rcd13ifvqee0","pricing_plan_id":"cebpf4jnsgd1na2vs0mg"},{"bike_id":"0e6e5fe9-00fb-4612-a30a-a69ff66f7186","system_id":"levelo_inurba_marseille","lat":43.32656,"lon":5.40995,"is_reserved":false,"is_disabled":false,"rental_uris":{"android":"levelo://app?vid=0e6e5fe9-00fb-4612-a30a-a69ff66f7186","ios":"levelo://app?vid=0e6e5fe9-00fb-4612-a30a-a69ff66f7186"},"vehicle_type_id":"4","last_reported":1734206998,"current_range_meters":22400,"station_id":"ce4bhpp2rcd13ifvqhgg","pricing_plan_id":"cebpf4jnsgd1na2vs0mg"},{"bike_id":"5ff3a727-92b6-4366-86df-fcdbb4ab9812","system_id":"levelo_inurba_marseille","lat":43.28713,"lon":5.39983,"is_reserved":false,"is_disabled":false,"rental_uris":{"android":"levelo://app?vid=5ff3a727-92b6-4366-86df-fcdbb4ab9812","ios":"levelo://app?vid=5ff3a727-92b6-4366-86df-fcdbb4ab9812"},"vehicle_type_id":"4","last_reported":1734206998,"current_range_meters":3200,"station_id":"ce4bho92rcd13ifvqh3g","pricing_plan_id":"cebpf4jnsgd1na2vs0mg"},{"bike_id":"207de47b-5d4a-435d-b69a-40652c5439ce","system_id":"levelo_inurba_marseille","lat":43.29288,"lon":5.40119,"is_reserved":false,"is_disabled":false,"rental_uris":{"android":"levelo://app?vid=207de47b-5d4a-435d-b69a-40652c5439ce","ios":"levelo://app?vid=207de47b-5d4a-435d-b69a-40652c5439ce"},"vehicle_type_id":"4","last_reported":1734206998,"current_range_meters":3200,"station_id":"ce4bh312rcd13ifvqdk0","pricing_plan_id":"cebpf4jnsgd1na2vs0mg"},{"bike_id":"76060946-3671-40f3-b029-530fe406a34a","system_id":"levelo_inurba_marseille","lat":43.29267,"lon":5.38446,"is_reserved":false,"is_disabled":false,"rental_uris":{"android":"levelo://app?vid=76060946-3671-40f3-b029-530fe406a34a","ios":"levelo://app?vid=76060946-3671-40f3-b029-530fe406a34a"},"vehicle_type_id":"4","last_reported":1734206998,"current_range_meters":39200,"station_id":"ce4bh692rcd13ifvqea0","pricing_plan_id":"cebpf4jnsgd1na2vs0mg"},{"bike_id":"734b842e-fe55-4dc5-960a-e4074d2409b5","system_id":"levelo_inurba_marseille","lat":43.28712,"lon":5.37938,"is_reserved":false,"is_disabled":false,"rental_uris":{"android":"levelo://app?vid=734b842e-fe55-4dc5-960a-e4074d2409b5","ios":"levelo://app?vid=734b842e-fe55-4dc5-960a-e4074d2409b5"},"vehicle_type_id":"4","last_reported":1734206998,"current_range_meters":36800,"station_id":"ce4bh9p2rcd13ifvqec0","pricing_plan_id":"cebpf4jnsgd1na2vs0mg"},{"bike_id":"ae0bdd7b-187c-409c-b2b3-37aac32d4db3","system_id":"levelo_inurba_marseille","lat":43.3236,"lon":5.36745,"is_reserved":false,"is_disabled":false,"rental_uris":{"android":"levelo://app?vid=ae0bdd7b-187c-409c-b2b3-37aac32d4db3","ios":"levelo://app?vid=ae0bdd7b-187c-409c-b2b3-37aac32d4db3"},"vehicle_type_id":"4","last_reported":1734206998,"current_range_meters":38400,"station_id":"ce4bhsh2rcd13ifvqi2g","pricing_plan_id":"cebpf4jnsgd1na2vs0mg"},{"bike_id":"8cf0d3bd-e310-4319-ad37-50b72dcbcdd4","system_id":"levelo_inurba_marseille","lat":43.30486,"lon":5.37891,"is_reserved":false,"is_disabled":false,"rental_uris":{"android":"levelo://app?vid=8cf0d3bd-e310-4319-ad37-50b72dcbcdd4","ios":"levelo://app?vid=8cf0d3bd-e310-4319-ad37-50b72dcbcdd4"},"vehicle_type_id":"4","last_reported":1734206998,"current_range_meters":35600,"station_id":"ce4bgup2rcd13ifvqcn0","pricing_plan_id":"cebpf4jnsgd1na2vs0mg"},{"bike_id":"6ae97ad1-7374-43fe-bb25-66a838c7ea4a","system_id":"levelo_inurba_marseille","lat":43.29262,"lon":5.38435,"is_reserved":false,"is_disabled":false,"rental_uris":{"android":"levelo://app?vid=6ae97ad1-7374-43fe-bb25-66a838c7ea4a","ios":"levelo://app?vid=6ae97ad1-7374-43fe-bb25-66a838c7ea4a"},"vehicle_type_id":"4","last_reported":1734206998,"current_range_meters":17600,"station_id":"ce4bh692rcd13ifvqea0","pricing_plan_id":"cebpf4jnsgd1na2vs0mg"},{"bike_id":"9ad311dd-c450-4f09-933a-ef53d4559dc3","system_id":"levelo_inurba_marseille","lat":43.26979,"lon":5.39872,"is_reserved":false,"is_disabled":false,"rental_uris":{"android":"levelo://app?vid=9ad311dd-c450-4f09-933a-ef53d4559dc3","ios":"levelo://app?vid=9ad311dd-c450-4f09-933a-ef53d4559dc3"},"vehicle_type_id":"4","last_reported":1734206998,"current_range_meters":25600,"station_id":"","pricing_plan_id":"cebpf4jnsgd1na2vs0mg"},{"bike_id":"37456efc-92e9-4863-91c7-bd4d94a41119","system_id":"levelo_inurba_marseille","lat":43.28496,"lon":5.40183,"is_reserved":false,"is_disabled":false,"rental_uris":{"android":"levelo://app?vid=37456efc-92e9-4863-91c7-bd4d94a41119","ios":"levelo://app?vid=37456efc-92e9-4863-91c7-bd4d94a41119"},"vehicle_type_id":"4","last_reported":1734206998,"current_range_meters":12400,"station_id":"","pricing_plan_id":"cebpf4jnsgd1na2vs0mg"},{"bike_id":"123e146a-854c-4e79-886f-1db5d5371d0c","system_id":"levelo_inurba_marseille","lat":43.31994,"lon":5.38154,"is_reserved":false,"is_disabled":false,"rental_uris":{"android":"levelo://app?vid=123e146a-854c-4e79-886f-1db5d5371d0c","ios":"levelo://app?vid=123e146a-854c-4e79-886f-1db5d5371d0c"},"vehicle_type_id":"4","last_reported":1734206998,"current_range_meters":39200,"station_id":"ce4bhr12rcd13ifvqhpg","pricing_plan_id":"cebpf4jnsgd1na2vs0mg"},{"bike_id":"44db9a9d-ddc8-4756-b796-1d8de4c4d278","system_id":"levelo_inurba_marseille","lat":43.31993,"lon":5.38167,"is_reserved":false,"is_disabled":false,"rental_uris":{"android":"levelo://app?vid=44db9a9d-ddc8-4756-b796-1d8de4c4d278","ios":"levelo://app?vid=44db9a9d-ddc8-4756-b796-1d8de4c4d278"},"vehicle_type_id":"4","last_reported":1734206998,"current_range_meters":25200,"station_id":"ce4bhr12rcd13ifvqhpg","pricing_plan_id":"cebpf4jnsgd1na2vs0mg"},{"bike_id":"390801a6-ba4e-47c1-bdcd-ec0ffcf61495","system_id":"levelo_inurba_marseille","lat":43.2817,"lon":5.42648,"is_reserved":false,"is_disabled":false,"rental_uris":{"android":"levelo://app?vid=390801a6-ba4e-47c1-bdcd-ec0ffcf61495","ios":"levelo://app?vid=390801a6-ba4e-47c1-bdcd-ec0ffcf61495"},"vehicle_type_id":"4","last_reported":1734206998,"current_range_meters":26000,"station_id":"ce4bhnh2rcd13ifvqgug","pricing_plan_id":"cebpf4jnsgd1na2vs0mg"},{"bike_id":"af67ac53-ba21-4ff0-8334-95679e9ff2cc","system_id":"levelo_inurba_marseille","lat":43.278805,"lon":5.388003,"is_reserved":false,"is_disabled":true,"rental_uris":{"android":"levelo://app?vid=af67ac53-ba21-4ff0-8334-95679e9ff2cc","ios":"levelo://app?vid=af67ac53-ba21-4ff0-8334-95679e9ff2cc"},"vehicle_type_id":"4","last_reported":1734206998,"current_range_meters":800,"station_id":"","pricing_plan_id":"cebpf4jnsgd1na2vs0mg"},{"bike_id":"cc792cf1-5419-459c-a85e-0d5c0d4fbc94","system_id":"levelo_inurba_marseille","lat":43.29308,"lon":5.37461,"is_reserved":false,"is_disabled":false,"rental_uris":{"android":"levelo://app?vid=cc792cf1-5419-459c-a85e-0d5c0d4fbc94","ios":"levelo://app?vid=cc792cf1-5419-459c-a85e-0d5c0d4fbc94"},"vehicle_type_id":"4","last_reported":1734206998,"current_range_meters":11600,"station_id":"ce4bgi12rcd13ifvqb70","pricing_plan_id":"cebpf4jnsgd1na2vs0mg"},{"bike_id":"2bf9c4bd-ceae-4b38-84bd-06f0d3121cf5","system_id":"levelo_inurba_marseille","lat":43.26887,"lon":5.40368,"is_reserved":false,"is_disabled":false,"rental_uris":{"android":"levelo://app?vid=2bf9c4bd-ceae-4b38-84bd-06f0d3121cf5","ios":"levelo://app?vid=2bf9c4bd-ceae-4b38-84bd-06f0d3121cf5"},"vehicle_type_id":"4","last_reported":1734206998,"current_range_meters":6000,"station_id":"","pricing_plan_id":"cebpf4jnsgd1na2vs0mg"},{"bike_id":"a111abd2-7a0e-41e2-857a-0e5c3099eb92","system_id":"levelo_inurba_marseille","lat":43.29201,"lon":5.3933,"is_reserved":false,"is_disabled":false,"rental_uris":{"android":"levelo://app?vid=a111abd2-7a0e-41e2-857a-0e5c3099eb92","ios":"levelo://app?vid=a111abd2-7a0e-41e2-857a-0e5c3099eb92"},"vehicle_type_id":"4","last_reported":1734206998,"current_range_meters":24800,"station_id":"ce4bh192rcd13ifvqdd0","pricing_plan_id":"cebpf4jnsgd1na2vs0mg"},{"bike_id":"c3e03ce1-362f-4e8d-a05d-bab105a3e4a0","system_id":"levelo_inurba_marseille","lat":43.29372,"lon":5.37847,"is_reserved":false,"is_disabled":false,"rental_uris":{"android":"levelo://app?vid=c3e03ce1-362f-4e8d-a05d-bab105a3e4a0","ios":"levelo://app?vid=c3e03ce1-362f-4e8d-a05d-bab105a3e4a0"},"vehicle_type_id":"4","last_reported":1734206998,"current_range_meters":22800,"station_id":"ce4bgjh2rcd13ifvqbf0","pricing_plan_id":"cebpf4jnsgd1na2vs0mg"},{"bike_id":"a304f6de-89d5-41a3-81c4-88ffefb5fa1d","system_id":"levelo_inurba_marseille","lat":43.2439,"lon":5.37046,"is_reserved":false,"is_disabled":false,"rental_uris":{"android":"levelo://app?vid=a304f6de-89d5-41a3-81c4-88ffefb5fa1d","ios":"levelo://app?vid=a304f6de-89d5-41a3-81c4-88ffefb5fa1d"},"vehicle_type_id":"4","last_reported":1734206998,"current_range_meters":38800,"station_id":"ce4bhhh2rcd13ifvqfk0","pricing_plan_id":"cebpf4jnsgd1na2vs0mg"},{"bike_id":"0d86ceae-83de-4b8b-a8e8-caa0f82cc9cc","system_id":"levelo_inurba_marseille","lat":43.28722,"lon":5.37943,"is_reserved":false,"is_disabled":false,"rental_uris":{"android":"levelo://app?vid=0d86ceae-83de-4b8b-a8e8-caa0f82cc9cc","ios":"levelo://app?vid=0d86ceae-83de-4b8b-a8e8-caa0f82cc9cc"},"vehicle_type_id":"4","last_reported":1734206998,"current_range_meters":20000,"station_id":"ce4bh9p2rcd13ifvqec0","pricing_plan_id":"cebpf4jnsgd1na2vs0mg"},{"bike_id":"d9166aea-5a3d-40e7-bb72-7594fec97b82","system_id":"levelo_inurba_marseille","lat":43.31071,"lon":5.38356,"is_reserved":false,"is_disabled":false,"rental_uris":{"android":"levelo://app?vid=d9166aea-5a3d-40e7-bb72-7594fec97b82","ios":"levelo://app?vid=d9166aea-5a3d-40e7-bb72-7594fec97b82"},"vehicle_type_id":"4","last_reported":1734206998,"current_range_meters":22400,"station_id":"ce4bgv92rcd13ifvqcr0","pricing_plan_id":"cebpf4jnsgd1na2vs0mg"},{"bike_id":"d65fcea9-51ba-41f0-86fd-e798dfdd6f09","system_id":"levelo_inurba_marseille","lat":43.28705,"lon":5.383,"is_reserved":false,"is_disabled":true,"rental_uris":{"android":"levelo://app?vid=d65fcea9-51ba-41f0-86fd-e798dfdd6f09","ios":"levelo://app?vid=d65fcea9-51ba-41f0-86fd-e798dfdd6f09"},"vehicle_type_id":"4","last_reported":1734206998,"current_range_meters":0,"station_id":"","pricing_plan_id":"cebpf4jnsgd1na2vs0mg"},{"bike_id":"656d8740-9b85-4a93-86ce-9d32a0e761f7","system_id":"levelo_inurba_marseille","lat":43.31072,"lon":5.38347,"is_reserved":false,"is_disabled":true,"rental_uris":{"android":"levelo://app?vid=656d8740-9b85-4a93-86ce-9d32a0e761f7","ios":"levelo://app?vid=656d8740-9b85-4a93-86ce-9d32a0e761f7"},"vehicle_type_id":"4","last_reported":1734206998,"current_range_meters":28800,"station_id":"ce4bgv92rcd13ifvqcr0","pricing_plan_id":"cebpf4jnsgd1na2vs0mg"},{"bike_id":"30b09c14-5db6-4bdd-8ec0-8d8fd355bef3","system_id":"levelo_inurba_marseille","lat":43.29879,"lon":5.39735,"is_reserved":false,"is_disabled":true,"rental_uris":{"android":"levelo://app?vid=30b09c14-5db6-4bdd-8ec0-8d8fd355bef3","ios":"levelo://app?vid=30b09c14-5db6-4bdd-8ec0-8d8fd355bef3"},"vehicle_type_id":"4","last_reported":1734206998,"current_range_meters":5600,"station_id":"ce4bh0h2rcd13ifvqd50","pricing_plan_id":"cebpf4jnsgd1na2vs0mg"},{"bike_id":"f08c808c-af08-40b8-81c3-97739c995b77","system_id":"levelo_inurba_marseille","lat":43.30138,"lon":5.39881,"is_reserved":false,"is_disabled":true,"rental_uris":{"android":"levelo://app?vid=f08c808c-af08-40b8-81c3-97739c995b77","ios":"levelo://app?vid=f08c808c-af08-40b8-81c3-97739c995b77"},"vehicle_type_id":"4","last_reported":1734206998,"current_range_meters":31200,"station_id":"ce4bh0h2rcd13ifvqd40","pricing_plan_id":"cebpf4jnsgd1na2vs0mg"},{"bike_id":"86970bbe-b814-43c9-89a2-85f507f309fa","system_id":"levelo_inurba_marseille","lat":43.30535,"lon":5.3842,"is_reserved":false,"is_disabled":true,"rental_uris":{"android":"levelo://app?vid=86970bbe-b814-43c9-89a2-85f507f309fa","ios":"levelo://app?vid=86970bbe-b814-43c9-89a2-85f507f309fa"},"vehicle_type_id":"4","last_reported":1734206998,"current_range_meters":7200,"station_id":"ce4bgg92rcd13ifvqb30","pricing_plan_id":"cebpf4jnsgd1na2vs0mg"},{"bike_id":"1eb744c4-592e-49f4-bbfa-95dfc0f3d2e1","system_id":"levelo_inurba_marseille","lat":43.29615,"lon":5.37719,"is_reserved":false,"is_disabled":false,"rental_uris":{"android":"levelo://app?vid=1eb744c4-592e-49f4-bbfa-95dfc0f3d2e1","ios":"levelo://app?vid=1eb744c4-592e-49f4-bbfa-95dfc0f3d2e1"},"vehicle_type_id":"4","last_reported":1734206998,"current_range_meters":24800,"station_id":"ce4bgi92rcd13ifvqb90","pricing_plan_id":"cebpf4jnsgd1na2vs0mg"},{"bike_id":"96969163-05be-4d1c-a728-67794615bdfc","system_id":"levelo_inurba_marseille","lat":43.29016,"lon":5.39014,"is_reserved":false,"is_disabled":false,"rental_uris":{"android":"levelo://app?vid=96969163-05be-4d1c-a728-67794615bdfc","ios":"levelo://app?vid=96969163-05be-4d1c-a728-67794615bdfc"},"vehicle_type_id":"4","last_reported":1734206998,"current_range_meters":19600,"station_id":"","pricing_plan_id":"cebpf4jnsgd1na2vs0mg"},{"bike_id":"64203de9-e72b-4d66-9a84-7a315c7ed37f","system_id":"levelo_inurba_marseille","lat":43.29435,"lon":5.37427,"is_reserved":false,"is_disabled":true,"rental_uris":{"android":"levelo://app?vid=64203de9-e72b-4d66-9a84-7a315c7ed37f","ios":"levelo://app?vid=64203de9-e72b-4d66-9a84-7a315c7ed37f"},"vehicle_type_id":"4","last_reported":1734206998,"current_range_meters":0,"station_id":"","pricing_plan_id":"cebpf4jnsgd1na2vs0mg"},{"bike_id":"43a2fa1d-314c-4a4d-b7c9-aa2f198eb73b","system_id":"levelo_inurba_marseille","lat":43.30132,"lon":5.38779,"is_reserved":false,"is_disabled":true,"rental_uris":{"android":"levelo://app?vid=43a2fa1d-314c-4a4d-b7c9-aa2f198eb73b","ios":"levelo://app?vid=43a2fa1d-314c-4a4d-b7c9-aa2f198eb73b"},"vehicle_type_id":"4","last_reported":1734206998,"current_range_meters":33600,"station_id":"ce4bghh2rcd13ifvqb60","pricing_plan_id":"cebpf4jnsgd1na2vs0mg"},{"bike_id":"a7a3d59d-efb8-4f10-bede-7ad5c7676338","system_id":"levelo_inurba_marseille","lat":43.29445,"lon":5.3975,"is_reserved":false,"is_disabled":false,"rental_uris":{"android":"levelo://app?vid=a7a3d59d-efb8-4f10-bede-7ad5c7676338","ios":"levelo://app?vid=a7a3d59d-efb8-4f10-bede-7ad5c7676338"},"vehicle_type_id":"4","last_reported":1734206998,"current_range_meters":24400,"station_id":"ce4bh3h2rcd13ifvqdo0","pricing_plan_id":"cebpf4jnsgd1na2vs0mg"},{"bike_id":"ee86875a-7fd8-4803-839e-f9dfb16c4db6","system_id":"levelo_inurba_marseille","lat":43.23154,"lon":5.43719,"is_reserved":false,"is_disabled":false,"rental_uris":{"android":"levelo://app?vid=ee86875a-7fd8-4803-839e-f9dfb16c4db6","ios":"levelo://app?vid=ee86875a-7fd8-4803-839e-f9dfb16c4db6"},"vehicle_type_id":"4","last_reported":1734206998,"current_range_meters":8000,"station_id":"ce4bhmp2rcd13ifvqgog","pricing_plan_id":"cebpf4jnsgd1na2vs0mg"},{"bike_id":"d306d575-9bbb-45e5-8c3b-6966eaff1915","system_id":"levelo_inurba_marseille","lat":43.30886,"lon":5.39641,"is_reserved":false,"is_disabled":false,"rental_uris":{"android":"levelo://app?vid=d306d575-9bbb-45e5-8c3b-6966eaff1915","ios":"levelo://app?vid=d306d575-9bbb-45e5-8c3b-6966eaff1915"},"vehicle_type_id":"4","last_reported":1734206998,"current_range_meters":8000,"station_id":"ce4bh012rcd13ifvqcv0","pricing_plan_id":"cebpf4jnsgd1na2vs0mg"},{"bike_id":"b53dd27e-84fc-4ac2-8b41-8fa67b4e62ba","system_id":"levelo_inurba_marseille","lat":43.25502,"lon":5.37641,"is_reserved":false,"is_disabled":false,"rental_uris":{"android":"levelo://app?vid=b53dd27e-84fc-4ac2-8b41-8fa67b4e62ba","ios":"levelo://app?vid=b53dd27e-84fc-4ac2-8b41-8fa67b4e62ba"},"vehicle_type_id":"4","last_reported":1734206998,"current_range_meters":17600,"station_id":"ce4bhh12rcd13ifvqff0","pricing_plan_id":"cebpf4jnsgd1na2vs0mg"},{"bike_id":"289cfe98-77e1-4604-9ace-515c551e85b8","system_id":"levelo_inurba_marseille","lat":43.30306,"lon":5.39214,"is_reserved":false,"is_disabled":false,"rental_uris":{"android":"levelo://app?vid=289cfe98-77e1-4604-9ace-515c551e85b8","ios":"levelo://app?vid=289cfe98-77e1-4604-9ace-515c551e85b8"},"vehicle_type_id":"4","last_reported":1734206998,"current_range_meters":18800,"station_id":"ce4bgkh2rcd13ifvqbk0","pricing_plan_id":"cebpf4jnsgd1na2vs0mg"},{"bike_id":"e2200d13-01c2-4911-8571-0e3065ed5868","system_id":"levelo_inurba_marseille","lat":43.29169,"lon":5.37163,"is_reserved":false,"is_disabled":false,"rental_uris":{"android":"levelo://app?vid=e2200d13-01c2-4911-8571-0e3065ed5868","ios":"levelo://app?vid=e2200d13-01c2-4911-8571-0e3065ed5868"},"vehicle_type_id":"4","last_reported":1734206998,"current_range_meters":30000,"station_id":"ce4bha92rcd13ifvqeh0","pricing_plan_id":"cebpf4jnsgd1na2vs0mg"},{"bike_id":"a292a457-10f9-4b48-a0ef-624edd7a1383","system_id":"levelo_inurba_marseille","lat":43.3137,"lon":5.38489,"is_reserved":false,"is_disabled":false,"rental_uris":{"android":"levelo://app?vid=a292a457-10f9-4b48-a0ef-624edd7a1383","ios":"levelo://app?vid=a292a457-10f9-4b48-a0ef-624edd7a1383"},"vehicle_type_id":"4","last_reported":1734206998,"current_range_meters":10800,"station_id":"ce4bgt92rcd13ifvqcf0","pricing_plan_id":"cebpf4jnsgd1na2vs0mg"},{"bike_id":"7e5c8967-494c-4447-a2b6-a51a6fbceae3","system_id":"levelo_inurba_marseille","lat":43.27074,"lon":5.42288,"is_reserved":false,"is_disabled":false,"rental_uris":{"android":"levelo://app?vid=7e5c8967-494c-4447-a2b6-a51a6fbceae3","ios":"levelo://app?vid=7e5c8967-494c-4447-a2b6-a51a6fbceae3"},"vehicle_type_id":"4","last_reported":1734206998,"current_range_meters":32400,"station_id":"ce4bhk92rcd13ifvqgb0","pricing_plan_id":"cebpf4jnsgd1na2vs0mg"},{"bike_id":"943d4526-a125-4dbf-9f65-452bef323356","system_id":"levelo_inurba_marseille","lat":43.28711,"lon":5.37951,"is_reserved":false,"is_disabled":false,"rental_uris":{"android":"levelo://app?vid=943d4526-a125-4dbf-9f65-452bef323356","ios":"levelo://app?vid=943d4526-a125-4dbf-9f65-452bef323356"},"vehicle_type_id":"4","last_reported":1734206998,"current_range_meters":18000,"station_id":"ce4bh9p2rcd13ifvqec0","pricing_plan_id":"cebpf4jnsgd1na2vs0mg"},{"bike_id":"58b8774d-cfcd-4164-9528-e75b530f191f","system_id":"levelo_inurba_marseille","lat":43.27974,"lon":5.38744,"is_reserved":false,"is_disabled":false,"rental_uris":{"android":"levelo://app?vid=58b8774d-cfcd-4164-9528-e75b530f191f","ios":"levelo://app?vid=58b8774d-cfcd-4164-9528-e75b530f191f"},"vehicle_type_id":"4","last_reported":1734206998,"current_range_meters":22400,"station_id":"ce4bhg12rcd13ifvqf80","pricing_plan_id":"cebpf4jnsgd1na2vs0mg"},{"bike_id":"07154a6e-1aad-4b6f-8cd5-49a1da2b8e24","system_id":"levelo_inurba_marseille","lat":43.23164,"lon":5.43695,"is_reserved":false,"is_disabled":false,"rental_uris":{"android":"levelo://app?vid=07154a6e-1aad-4b6f-8cd5-49a1da2b8e24","ios":"levelo://app?vid=07154a6e-1aad-4b6f-8cd5-49a1da2b8e24"},"vehicle_type_id":"4","last_reported":1734206998,"current_range_meters":38400,"station_id":"ce4bhmp2rcd13ifvqgog","pricing_plan_id":"cebpf4jnsgd1na2vs0mg"},{"bike_id":"52d50459-25d4-4867-8eb6-1c70b1352f7f","system_id":"levelo_inurba_marseille","lat":43.29372,"lon":5.37864,"is_reserved":false,"is_disabled":false,"rental_uris":{"android":"levelo://app?vid=52d50459-25d4-4867-8eb6-1c70b1352f7f","ios":"levelo://app?vid=52d50459-25d4-4867-8eb6-1c70b1352f7f"},"vehicle_type_id":"4","last_reported":1734206998,"current_range_meters":6800,"station_id":"ce4bgjh2rcd13ifvqbf0","pricing_plan_id":"cebpf4jnsgd1na2vs0mg"},{"bike_id":"2fab9758-d6b5-43b2-a79b-bdec82a587fa","system_id":"levelo_inurba_marseille","lat":43.283936,"lon":5.375159,"is_reserved":false,"is_disabled":false,"rental_uris":{"android":"levelo://app?vid=2fab9758-d6b5-43b2-a79b-bdec82a587fa","ios":"levelo://app?vid=2fab9758-d6b5-43b2-a79b-bdec82a587fa"},"vehicle_type_id":"4","last_reported":1734206998,"current_range_meters":36800,"station_id":"ce4bh412rcd13ifvqds0","pricing_plan_id":"cebpf4jnsgd1na2vs0mg"},{"bike_id":"1c798d0a-1018-4e47-a96a-9636b74b447d","system_id":"levelo_inurba_marseille","lat":43.25108,"lon":5.40322,"is_reserved":false,"is_disabled":false,"rental_uris":{"android":"levelo://app?vid=1c798d0a-1018-4e47-a96a-9636b74b447d","ios":"levelo://app?vid=1c798d0a-1018-4e47-a96a-9636b74b447d"},"vehicle_type_id":"4","last_reported":1734206998,"current_range_meters":30400,"station_id":"ce4bhlh2rcd13ifvqgig","pricing_plan_id":"cebpf4jnsgd1na2vs0mg"},{"bike_id":"65017ba8-8236-47fb-a7f3-ab3e5509baf4","system_id":"levelo_inurba_marseille","lat":43.30327,"lon":5.40426,"is_reserved":false,"is_disabled":false,"rental_uris":{"android":"levelo://app?vid=65017ba8-8236-47fb-a7f3-ab3e5509baf4","ios":"levelo://app?vid=65017ba8-8236-47fb-a7f3-ab3e5509baf4"},"vehicle_type_id":"4","last_reported":1734206998,"current_range_meters":36000,"station_id":"ce4bh012rcd13ifvqd10","pricing_plan_id":"cebpf4jnsgd1na2vs0mg"},{"bike_id":"3b41faaf-c4fc-4138-996e-220fdfbb16fb","system_id":"levelo_inurba_marseille","lat":43.25106,"lon":5.40329,"is_reserved":false,"is_disabled":false,"rental_uris":{"android":"levelo://app?vid=3b41faaf-c4fc-4138-996e-220fdfbb16fb","ios":"levelo://app?vid=3b41faaf-c4fc-4138-996e-220fdfbb16fb"},"vehicle_type_id":"4","last_reported":1734206998,"current_range_meters":38800,"station_id":"ce4bhlh2rcd13ifvqgig","pricing_plan_id":"cebpf4jnsgd1na2vs0mg"},{"bike_id":"1679d1d9-b140-4566-96f2-04b05c5432ff","system_id":"levelo_inurba_marseille","lat":43.3138,"lon":5.38495,"is_reserved":false,"is_disabled":false,"rental_uris":{"android":"levelo://app?vid=1679d1d9-b140-4566-96f2-04b05c5432ff","ios":"levelo://app?vid=1679d1d9-b140-4566-96f2-04b05c5432ff"},"vehicle_type_id":"4","last_reported":1734206998,"current_range_meters":38800,"station_id":"ce4bgt92rcd13ifvqcf0","pricing_plan_id":"cebpf4jnsgd1na2vs0mg"},{"bike_id":"6b10d37b-3846-4f7e-8b9d-57ca79bbb675","system_id":"levelo_inurba_marseille","lat":43.29545,"lon":5.38551,"is_reserved":false,"is_disabled":true,"rental_uris":{"android":"levelo://app?vid=6b10d37b-3846-4f7e-8b9d-57ca79bbb675","ios":"levelo://app?vid=6b10d37b-3846-4f7e-8b9d-57ca79bbb675"},"vehicle_type_id":"4","last_reported":1734206998,"current_range_meters":36800,"station_id":"ce4bgih2rcd13ifvqba0","pricing_plan_id":"cebpf4jnsgd1na2vs0mg"},{"bike_id":"9703c418-561c-4947-909b-5280aa1605c3","system_id":"levelo_inurba_marseille","lat":43.24186,"lon":5.39718,"is_reserved":false,"is_disabled":false,"rental_uris":{"android":"levelo://app?vid=9703c418-561c-4947-909b-5280aa1605c3","ios":"levelo://app?vid=9703c418-561c-4947-909b-5280aa1605c3"},"vehicle_type_id":"4","last_reported":1734206998,"current_range_meters":38800,"station_id":"ce4bhn12rcd13ifvqgpg","pricing_plan_id":"cebpf4jnsgd1na2vs0mg"},{"bike_id":"ce9b1b58-619e-4dd4-b672-05949f911dc9","system_id":"levelo_inurba_marseille","lat":43.27568,"lon":5.38418,"is_reserved":false,"is_disabled":false,"rental_uris":{"android":"levelo://app?vid=ce9b1b58-619e-4dd4-b672-05949f911dc9","ios":"levelo://app?vid=ce9b1b58-619e-4dd4-b672-05949f911dc9"},"vehicle_type_id":"4","last_reported":1734206998,"current_range_meters":38000,"station_id":"ce4bhh92rcd13ifvqfi0","pricing_plan_id":"cebpf4jnsgd1na2vs0mg"},{"bike_id":"377ad416-b0ae-445f-b4f6-76ea4fd47056","system_id":"levelo_inurba_marseille","lat":43.27909,"lon":5.3797,"is_reserved":false,"is_disabled":false,"rental_uris":{"android":"levelo://app?vid=377ad416-b0ae-445f-b4f6-76ea4fd47056","ios":"levelo://app?vid=377ad416-b0ae-445f-b4f6-76ea4fd47056"},"vehicle_type_id":"4","last_reported":1734206998,"current_range_meters":14400,"station_id":"ce4bhf92rcd13ifvqf50","pricing_plan_id":"cebpf4jnsgd1na2vs0mg"},{"bike_id":"6e2c04c6-c0bd-4cf6-a732-4b8f0c2ca476","system_id":"levelo_inurba_marseille","lat":43.29592,"lon":5.38102,"is_reserved":false,"is_disabled":false,"rental_uris":{"android":"levelo://app?vid=6e2c04c6-c0bd-4cf6-a732-4b8f0c2ca476","ios":"levelo://app?vid=6e2c04c6-c0bd-4cf6-a732-4b8f0c2ca476"},"vehicle_type_id":"4","last_reported":1734206998,"current_range_meters":38800,"station_id":"ce4bgl12rcd13ifvqbo0","pricing_plan_id":"cebpf4jnsgd1na2vs0mg"},{"bike_id":"a8b03156-8e9c-402a-8ecd-2ac73dac9a97","system_id":"levelo_inurba_marseille","lat":43.28936,"lon":5.38377,"is_reserved":false,"is_disabled":false,"rental_uris":{"android":"levelo://app?vid=a8b03156-8e9c-402a-8ecd-2ac73dac9a97","ios":"levelo://app?vid=a8b03156-8e9c-402a-8ecd-2ac73dac9a97"},"vehicle_type_id":"4","last_reported":1734206998,"current_range_meters":31200,"station_id":"ce4bh612rcd13ifvqe6g","pricing_plan_id":"cebpf4jnsgd1na2vs0mg"},{"bike_id":"73a5e47c-cd4d-43db-8435-971a31f159ec","system_id":"levelo_inurba_marseille","lat":43.29314,"lon":5.37174,"is_reserved":false,"is_disabled":false,"rental_uris":{"android":"levelo://app?vid=73a5e47c-cd4d-43db-8435-971a31f159ec","ios":"levelo://app?vid=73a5e47c-cd4d-43db-8435-971a31f159ec"},"vehicle_type_id":"4","last_reported":1734206998,"current_range_meters":30400,"station_id":"ce4bgh92rcd13ifvqb40","pricing_plan_id":"cebpf4jnsgd1na2vs0mg"},{"bike_id":"c7100cf8-cc8e-43c5-9619-3c289e92afef","system_id":"levelo_inurba_marseille","lat":43.29166,"lon":5.37147,"is_reserved":false,"is_disabled":false,"rental_uris":{"android":"levelo://app?vid=c7100cf8-cc8e-43c5-9619-3c289e92afef","ios":"levelo://app?vid=c7100cf8-cc8e-43c5-9619-3c289e92afef"},"vehicle_type_id":"4","last_reported":1734206998,"current_range_meters":38800,"station_id":"ce4bha92rcd13ifvqeh0","pricing_plan_id":"cebpf4jnsgd1na2vs0mg"},{"bike_id":"a52e3bfb-ecfc-45af-9f17-2b2cde1b1cf7","system_id":"levelo_inurba_marseille","lat":43.256166,"lon":5.379396,"is_reserved":false,"is_disabled":false,"rental_uris":{"android":"levelo://app?vid=a52e3bfb-ecfc-45af-9f17-2b2cde1b1cf7","ios":"levelo://app?vid=a52e3bfb-ecfc-45af-9f17-2b2cde1b1cf7"},"vehicle_type_id":"4","last_reported":1734206998,"current_range_meters":33200,"station_id":"ce4bhgh2rcd13ifvqfb0","pricing_plan_id":"cebpf4jnsgd1na2vs0mg"},{"bike_id":"75b71d2c-14bb-4c7a-8787-93ce577f4627","system_id":"levelo_inurba_marseille","lat":43.299707,"lon":5.371658,"is_reserved":false,"is_disabled":false,"rental_uris":{"android":"levelo://app?vid=75b71d2c-14bb-4c7a-8787-93ce577f4627","ios":"levelo://app?vid=75b71d2c-14bb-4c7a-8787-93ce577f4627"},"vehicle_type_id":"4","last_reported":1734206998,"current_range_meters":25200,"station_id":"ce4bgr92rcd13ifvqc7g","pricing_plan_id":"cebpf4jnsgd1na2vs0mg"},{"bike_id":"6e3fd83e-e2f6-48b7-923a-ba6068a911e4","system_id":"levelo_inurba_marseille","lat":43.33014,"lon":5.39167,"is_reserved":false,"is_disabled":false,"rental_uris":{"android":"levelo://app?vid=6e3fd83e-e2f6-48b7-923a-ba6068a911e4","ios":"levelo://app?vid=6e3fd83e-e2f6-48b7-923a-ba6068a911e4"},"vehicle_type_id":"4","last_reported":1734206998,"current_range_meters":27600,"station_id":"","pricing_plan_id":"cebpf4jnsgd1na2vs0mg"},{"bike_id":"b4f28572-e9c3-4d89-a9c6-b22627fb6aff","system_id":"levelo_inurba_marseille","lat":43.32531,"lon":5.41452,"is_reserved":false,"is_disabled":false,"rental_uris":{"android":"levelo://app?vid=b4f28572-e9c3-4d89-a9c6-b22627fb6aff","ios":"levelo://app?vid=b4f28572-e9c3-4d89-a9c6-b22627fb6aff"},"vehicle_type_id":"4","last_reported":1734206998,"current_range_meters":24000,"station_id":"ce4bhq12rcd13ifvqhhg","pricing_plan_id":"cebpf4jnsgd1na2vs0mg"},{"bike_id":"1f3ac62a-d520-4164-b4bf-3ef0e677d0f0","system_id":"levelo_inurba_marseille","lat":43.29532,"lon":5.39394,"is_reserved":false,"is_disabled":false,"rental_uris":{"android":"levelo://app?vid=1f3ac62a-d520-4164-b4bf-3ef0e677d0f0","ios":"levelo://app?vid=1f3ac62a-d520-4164-b4bf-3ef0e677d0f0"},"vehicle_type_id":"4","last_reported":1734206998,"current_range_meters":3200,"station_id":"ce4bh292rcd13ifvqdf0","pricing_plan_id":"cebpf4jnsgd1na2vs0mg"},{"bike_id":"f98e7e7f-5920-4770-8e6a-e1e9626c2cb5","system_id":"levelo_inurba_marseille","lat":43.25821,"lon":5.39431,"is_reserved":false,"is_disabled":false,"rental_uris":{"android":"levelo://app?vid=f98e7e7f-5920-4770-8e6a-e1e9626c2cb5","ios":"levelo://app?vid=f98e7e7f-5920-4770-8e6a-e1e9626c2cb5"},"vehicle_type_id":"4","last_reported":1734206998,"current_range_meters":10800,"station_id":"ce4bhip2rcd13ifvqft0","pricing_plan_id":"cebpf4jnsgd1na2vs0mg"},{"bike_id":"23ce538d-4333-446a-ad4d-78cef8979d96","system_id":"levelo_inurba_marseille","lat":43.29067,"lon":5.37176,"is_reserved":false,"is_disabled":false,"rental_uris":{"android":"levelo://app?vid=23ce538d-4333-446a-ad4d-78cef8979d96","ios":"levelo://app?vid=23ce538d-4333-446a-ad4d-78cef8979d96"},"vehicle_type_id":"4","last_reported":1734206998,"current_range_meters":13600,"station_id":"ce4bh5p2rcd13ifvqe4g","pricing_plan_id":"cebpf4jnsgd1na2vs0mg"},{"bike_id":"4ed89fb3-49db-432f-94d6-dc56679cbedd","system_id":"levelo_inurba_marseille","lat":43.28979,"lon":5.37841,"is_reserved":false,"is_disabled":false,"rental_uris":{"android":"levelo://app?vid=4ed89fb3-49db-432f-94d6-dc56679cbedd","ios":"levelo://app?vid=4ed89fb3-49db-432f-94d6-dc56679cbedd"},"vehicle_type_id":"4","last_reported":1734206998,"current_range_meters":23200,"station_id":"ce4bh9p2rcd13ifvqed0","pricing_plan_id":"cebpf4jnsgd1na2vs0mg"},{"bike_id":"4e3eebec-f009-4887-809b-5f30495d5092","system_id":"levelo_inurba_marseille","lat":43.28691,"lon":5.37402,"is_reserved":false,"is_disabled":true,"rental_uris":{"android":"levelo://app?vid=4e3eebec-f009-4887-809b-5f30495d5092","ios":"levelo://app?vid=4e3eebec-f009-4887-809b-5f30495d5092"},"vehicle_type_id":"4","last_reported":1734206998,"current_range_meters":25200,"station_id":"ce4bh3p2rcd13ifvqdq0","pricing_plan_id":"cebpf4jnsgd1na2vs0mg"},{"bike_id":"eb1496f4-67ed-47fd-8660-60023378367f","system_id":"levelo_inurba_marseille","lat":43.294212,"lon":5.374322,"is_reserved":false,"is_disabled":true,"rental_uris":{"android":"levelo://app?vid=eb1496f4-67ed-47fd-8660-60023378367f","ios":"levelo://app?vid=eb1496f4-67ed-47fd-8660-60023378367f"},"vehicle_type_id":"4","last_reported":1734206998,"current_range_meters":0,"station_id":"","pricing_plan_id":"cebpf4jnsgd1na2vs0mg"},{"bike_id":"31c7c931-55e2-482c-9ee5-63e523f58659","system_id":"levelo_inurba_marseille","lat":43.29987,"lon":5.37168,"is_reserved":false,"is_disabled":false,"rental_uris":{"android":"levelo://app?vid=31c7c931-55e2-482c-9ee5-63e523f58659","ios":"levelo://app?vid=31c7c931-55e2-482c-9ee5-63e523f58659"},"vehicle_type_id":"4","last_reported":1734206998,"current_range_meters":37600,"station_id":"ce4bgr92rcd13ifvqc7g","pricing_plan_id":"cebpf4jnsgd1na2vs0mg"},{"bike_id":"826cffb0-1d22-4045-b72c-c178b8f3089b","system_id":"levelo_inurba_marseille","lat":43.29096,"lon":5.38121,"is_reserved":false,"is_disabled":false,"rental_uris":{"android":"levelo://app?vid=826cffb0-1d22-4045-b72c-c178b8f3089b","ios":"levelo://app?vid=826cffb0-1d22-4045-b72c-c178b8f3089b"},"vehicle_type_id":"4","last_reported":1734206998,"current_range_meters":37600,"station_id":"ce4bh512rcd13ifvqe2g","pricing_plan_id":"cebpf4jnsgd1na2vs0mg"},{"bike_id":"30ebf9e5-e6c0-48c8-b762-4f7bbd57689f","system_id":"levelo_inurba_marseille","lat":43.28945,"lon":5.36407,"is_reserved":false,"is_disabled":false,"rental_uris":{"android":"levelo://app?vid=30ebf9e5-e6c0-48c8-b762-4f7bbd57689f","ios":"levelo://app?vid=30ebf9e5-e6c0-48c8-b762-4f7bbd57689f"},"vehicle_type_id":"4","last_reported":1734206998,"current_range_meters":30000,"station_id":"ce4bhc92rcd13ifvqetg","pricing_plan_id":"cebpf4jnsgd1na2vs0mg"},{"bike_id":"e6eafff4-ddba-4140-9107-169451345b4f","system_id":"levelo_inurba_marseille","lat":43.29267,"lon":5.3844,"is_reserved":false,"is_disabled":false,"rental_uris":{"android":"levelo://app?vid=e6eafff4-ddba-4140-9107-169451345b4f","ios":"levelo://app?vid=e6eafff4-ddba-4140-9107-169451345b4f"},"vehicle_type_id":"4","last_reported":1734206998,"current_range_meters":21600,"station_id":"ce4bh692rcd13ifvqea0","pricing_plan_id":"cebpf4jnsgd1na2vs0mg"},{"bike_id":"f001b8d1-9f1a-4c6f-b330-5c242ce63fc5","system_id":"levelo_inurba_marseille","lat":43.24388,"lon":5.37055,"is_reserved":false,"is_disabled":false,"rental_uris":{"android":"levelo://app?vid=f001b8d1-9f1a-4c6f-b330-5c242ce63fc5","ios":"levelo://app?vid=f001b8d1-9f1a-4c6f-b330-5c242ce63fc5"},"vehicle_type_id":"4","last_reported":1734206998,"current_range_meters":28400,"station_id":"ce4bhhh2rcd13ifvqfk0","pricing_plan_id":"cebpf4jnsgd1na2vs0mg"},{"bike_id":"13dab97d-5001-4bcb-a1da-c4f99a81cde6","system_id":"levelo_inurba_marseille","lat":43.29415,"lon":5.38619,"is_reserved":false,"is_disabled":false,"rental_uris":{"android":"levelo://app?vid=13dab97d-5001-4bcb-a1da-c4f99a81cde6","ios":"levelo://app?vid=13dab97d-5001-4bcb-a1da-c4f99a81cde6"},"vehicle_type_id":"4","last_reported":1734206998,"current_range_meters":39200,"station_id":"ce4bh2h2rcd13ifvqdh0","pricing_plan_id":"cebpf4jnsgd1na2vs0mg"},{"bike_id":"7d1db28c-edeb-4a91-9b40-97c4e6901127","system_id":"levelo_inurba_marseille","lat":43.25722,"lon":5.41103,"is_reserved":false,"is_disabled":false,"rental_uris":{"android":"levelo://app?vid=7d1db28c-edeb-4a91-9b40-97c4e6901127","ios":"levelo://app?vid=7d1db28c-edeb-4a91-9b40-97c4e6901127"},"vehicle_type_id":"4","last_reported":1734206998,"current_range_meters":26800,"station_id":"ce4bhkp2rcd13ifvqgd0","pricing_plan_id":"cebpf4jnsgd1na2vs0mg"},{"bike_id":"e0051ea4-c427-4c4c-919e-0bff50ac576e","system_id":"levelo_inurba_marseille","lat":43.31164,"lon":5.38705,"is_reserved":false,"is_disabled":false,"rental_uris":{"android":"levelo://app?vid=e0051ea4-c427-4c4c-919e-0bff50ac576e","ios":"levelo://app?vid=e0051ea4-c427-4c4c-919e-0bff50ac576e"},"vehicle_type_id":"4","last_reported":1734206998,"current_range_meters":30800,"station_id":"ce4bgv12rcd13ifvqcp0","pricing_plan_id":"cebpf4jnsgd1na2vs0mg"},{"bike_id":"abdf81ec-e98d-4dee-9e25-ca8f28442f23","system_id":"levelo_inurba_marseille","lat":43.29722,"lon":5.40717,"is_reserved":false,"is_disabled":true,"rental_uris":{"android":"levelo://app?vid=abdf81ec-e98d-4dee-9e25-ca8f28442f23","ios":"levelo://app?vid=abdf81ec-e98d-4dee-9e25-ca8f28442f23"},"vehicle_type_id":"4","last_reported":1734206998,"current_range_meters":800,"station_id":"","pricing_plan_id":"cebpf4jnsgd1na2vs0mg"},{"bike_id":"64c303e4-3dc5-4230-9f13-741ecfc2b58d","system_id":"levelo_inurba_marseille","lat":43.31482,"lon":5.37313,"is_reserved":false,"is_disabled":false,"rental_uris":{"android":"levelo://app?vid=64c303e4-3dc5-4230-9f13-741ecfc2b58d","ios":"levelo://app?vid=64c303e4-3dc5-4230-9f13-741ecfc2b58d"},"vehicle_type_id":"4","last_reported":1734206998,"current_range_meters":28800,"station_id":"ce4bgt12rcd13ifvqcd0","pricing_plan_id":"cebpf4jnsgd1na2vs0mg"},{"bike_id":"90bbdf81-2797-4dc9-b126-276b0e13b70e","system_id":"levelo_inurba_marseille","lat":43.23192,"lon":5.35557,"is_reserved":false,"is_disabled":false,"rental_uris":{"android":"levelo://app?vid=90bbdf81-2797-4dc9-b126-276b0e13b70e","ios":"levelo://app?vid=90bbdf81-2797-4dc9-b126-276b0e13b70e"},"vehicle_type_id":"4","last_reported":1734206998,"current_range_meters":25600,"station_id":"ce4bhu92rcd13ifvqi70","pricing_plan_id":"cebpf4jnsgd1na2vs0mg"},{"bike_id":"4a10ded7-00ff-4ff3-bc89-44b487cf8699","system_id":"levelo_inurba_marseille","lat":43.25123,"lon":5.40326,"is_reserved":false,"is_disabled":false,"rental_uris":{"android":"levelo://app?vid=4a10ded7-00ff-4ff3-bc89-44b487cf8699","ios":"levelo://app?vid=4a10ded7-00ff-4ff3-bc89-44b487cf8699"},"vehicle_type_id":"4","last_reported":1734206998,"current_range_meters":38800,"station_id":"ce4bhlh2rcd13ifvqgig","pricing_plan_id":"cebpf4jnsgd1na2vs0mg"},{"bike_id":"53efc547-c97e-405a-988c-7bee962b65ce","system_id":"levelo_inurba_marseille","lat":43.3041,"lon":5.3977,"is_reserved":false,"is_disabled":false,"rental_uris":{"android":"levelo://app?vid=53efc547-c97e-405a-988c-7bee962b65ce","ios":"levelo://app?vid=53efc547-c97e-405a-988c-7bee962b65ce"},"vehicle_type_id":"4","last_reported":1734206998,"current_range_meters":36800,"station_id":"ce4bh092rcd13ifvqd20","pricing_plan_id":"cebpf4jnsgd1na2vs0mg"},{"bike_id":"3cc8694d-c27d-4d4a-ba3f-e4e25bedc974","system_id":"levelo_inurba_marseille","lat":43.29992,"lon":5.37188,"is_reserved":false,"is_disabled":false,"rental_uris":{"android":"levelo://app?vid=3cc8694d-c27d-4d4a-ba3f-e4e25bedc974","ios":"levelo://app?vid=3cc8694d-c27d-4d4a-ba3f-e4e25bedc974"},"vehicle_type_id":"4","last_reported":1734206998,"current_range_meters":38800,"station_id":"ce4bgr92rcd13ifvqc7g","pricing_plan_id":"cebpf4jnsgd1na2vs0mg"},{"bike_id":"ecbfcd56-e2e9-411a-916b-327a5fa7e43b","system_id":"levelo_inurba_marseille","lat":43.29789,"lon":5.37261,"is_reserved":false,"is_disabled":false,"rental_uris":{"android":"levelo://app?vid=ecbfcd56-e2e9-411a-916b-327a5fa7e43b","ios":"levelo://app?vid=ecbfcd56-e2e9-411a-916b-327a5fa7e43b"},"vehicle_type_id":"4","last_reported":1734206998,"current_range_meters":30000,"station_id":"","pricing_plan_id":"cebpf4jnsgd1na2vs0mg"},{"bike_id":"7bdde0b3-b592-41fc-9649-9bd6fe6ae294","system_id":"levelo_inurba_marseille","lat":43.29728,"lon":5.36663,"is_reserved":false,"is_disabled":false,"rental_uris":{"android":"levelo://app?vid=7bdde0b3-b592-41fc-9649-9bd6fe6ae294","ios":"levelo://app?vid=7bdde0b3-b592-41fc-9649-9bd6fe6ae294"},"vehicle_type_id":"4","last_reported":1734206998,"current_range_meters":38800,"station_id":"","pricing_plan_id":"cebpf4jnsgd1na2vs0mg"},{"bike_id":"a4ae9942-49d6-41ef-b7b4-79aee756b84f","system_id":"levelo_inurba_marseille","lat":43.31491,"lon":5.37301,"is_reserved":false,"is_disabled":false,"rental_uris":{"android":"levelo://app?vid=a4ae9942-49d6-41ef-b7b4-79aee756b84f","ios":"levelo://app?vid=a4ae9942-49d6-41ef-b7b4-79aee756b84f"},"vehicle_type_id":"4","last_reported":1734206998,"current_range_meters":9600,"station_id":"ce4bgt12rcd13ifvqcd0","pricing_plan_id":"cebpf4jnsgd1na2vs0mg"},{"bike_id":"a170ba40-17b7-4bf6-90f8-c07a5cf55709","system_id":"levelo_inurba_marseille","lat":43.24654,"lon":5.38896,"is_reserved":false,"is_disabled":true,"rental_uris":{"android":"levelo://app?vid=a170ba40-17b7-4bf6-90f8-c07a5cf55709","ios":"levelo://app?vid=a170ba40-17b7-4bf6-90f8-c07a5cf55709"},"vehicle_type_id":"4","last_reported":1734206998,"current_range_meters":0,"station_id":"ce4bhg12rcd13ifvqf60","pricing_plan_id":"cebpf4jnsgd1na2vs0mg"},{"bike_id":"b89cd02a-44c8-4fbb-83be-fee20ca926ec","system_id":"levelo_inurba_marseille","lat":43.25127,"lon":5.40322,"is_reserved":false,"is_disabled":false,"rental_uris":{"android":"levelo://app?vid=b89cd02a-44c8-4fbb-83be-fee20ca926ec","ios":"levelo://app?vid=b89cd02a-44c8-4fbb-83be-fee20ca926ec"},"vehicle_type_id":"4","last_reported":1734206998,"current_range_meters":8800,"station_id":"ce4bhlh2rcd13ifvqgig","pricing_plan_id":"cebpf4jnsgd1na2vs0mg"},{"bike_id":"b00f6b0f-a684-418a-b5a7-06ee9a0bd601","system_id":"levelo_inurba_marseille","lat":43.29528,"lon":5.38539,"is_reserved":false,"is_disabled":false,"rental_uris":{"android":"levelo://app?vid=b00f6b0f-a684-418a-b5a7-06ee9a0bd601","ios":"levelo://app?vid=b00f6b0f-a684-418a-b5a7-06ee9a0bd601"},"vehicle_type_id":"4","last_reported":1734206998,"current_range_meters":18800,"station_id":"ce4bgih2rcd13ifvqba0","pricing_plan_id":"cebpf4jnsgd1na2vs0mg"},{"bike_id":"2deb5894-c572-49a4-979c-fd1bb4e10cf1","system_id":"levelo_inurba_marseille","lat":43.28461,"lon":5.35879,"is_reserved":false,"is_disabled":false,"rental_uris":{"android":"levelo://app?vid=2deb5894-c572-49a4-979c-fd1bb4e10cf1","ios":"levelo://app?vid=2deb5894-c572-49a4-979c-fd1bb4e10cf1"},"vehicle_type_id":"4","last_reported":1734206998,"current_range_meters":21600,"station_id":"ce4bhah2rcd13ifvqei0","pricing_plan_id":"cebpf4jnsgd1na2vs0mg"},{"bike_id":"275ee744-5d9b-4ac8-bb35-a47c0223f564","system_id":"levelo_inurba_marseille","lat":43.3254,"lon":5.41424,"is_reserved":false,"is_disabled":false,"rental_uris":{"android":"levelo://app?vid=275ee744-5d9b-4ac8-bb35-a47c0223f564","ios":"levelo://app?vid=275ee744-5d9b-4ac8-bb35-a47c0223f564"},"vehicle_type_id":"4","last_reported":1734206998,"current_range_meters":16400,"station_id":"ce4bhq12rcd13ifvqhhg","pricing_plan_id":"cebpf4jnsgd1na2vs0mg"},{"bike_id":"c51154b5-1034-4fc0-8fac-d1d2e91dba39","system_id":"levelo_inurba_marseille","lat":43.23057,"lon":5.35494,"is_reserved":false,"is_disabled":false,"rental_uris":{"android":"levelo://app?vid=c51154b5-1034-4fc0-8fac-d1d2e91dba39","ios":"levelo://app?vid=c51154b5-1034-4fc0-8fac-d1d2e91dba39"},"vehicle_type_id":"4","last_reported":1734206998,"current_range_meters":9200,"station_id":"cpo3342slgdg3j2ifvpg","pricing_plan_id":"cebpf4jnsgd1na2vs0mg"},{"bike_id":"9c8cabb5-02fb-44ef-8b3e-adf6739f5510","system_id":"levelo_inurba_marseille","lat":43.30433,"lon":5.38888,"is_reserved":false,"is_disabled":false,"rental_uris":{"android":"levelo://app?vid=9c8cabb5-02fb-44ef-8b3e-adf6739f5510","ios":"levelo://app?vid=9c8cabb5-02fb-44ef-8b3e-adf6739f5510"},"vehicle_type_id":"4","last_reported":1734206998,"current_range_meters":20800,"station_id":"ce4bgk12rcd13ifvqbi0","pricing_plan_id":"cebpf4jnsgd1na2vs0mg"},{"bike_id":"e9cb7532-bf6e-47a4-b167-01230cb55edd","system_id":"levelo_inurba_marseille","lat":43.29534,"lon":5.42272,"is_reserved":false,"is_disabled":false,"rental_uris":{"android":"levelo://app?vid=e9cb7532-bf6e-47a4-b167-01230cb55edd","ios":"levelo://app?vid=e9cb7532-bf6e-47a4-b167-01230cb55edd"},"vehicle_type_id":"4","last_reported":1734206998,"current_range_meters":35200,"station_id":"ce4bhph2rcd13ifvqhdg","pricing_plan_id":"cebpf4jnsgd1na2vs0mg"},{"bike_id":"20f7e45b-27bc-4e22-892d-425566361011","system_id":"levelo_inurba_marseille","lat":43.31177,"lon":5.38722,"is_reserved":false,"is_disabled":false,"rental_uris":{"android":"levelo://app?vid=20f7e45b-27bc-4e22-892d-425566361011","ios":"levelo://app?vid=20f7e45b-27bc-4e22-892d-425566361011"},"vehicle_type_id":"4","last_reported":1734206998,"current_range_meters":21600,"station_id":"ce4bgv12rcd13ifvqcp0","pricing_plan_id":"cebpf4jnsgd1na2vs0mg"},{"bike_id":"266f7fca-62d8-462d-83ba-67663ab9bbef","system_id":"levelo_inurba_marseille","lat":43.251,"lon":5.40345,"is_reserved":false,"is_disabled":false,"rental_uris":{"android":"levelo://app?vid=266f7fca-62d8-462d-83ba-67663ab9bbef","ios":"levelo://app?vid=266f7fca-62d8-462d-83ba-67663ab9bbef"},"vehicle_type_id":"4","last_reported":1734206998,"current_range_meters":38000,"station_id":"ce4bhlh2rcd13ifvqgig","pricing_plan_id":"cebpf4jnsgd1na2vs0mg"},{"bike_id":"abe250a1-3d26-47a1-bae8-73bf3354b17a","system_id":"levelo_inurba_marseille","lat":43.27199,"lon":5.4099,"is_reserved":false,"is_disabled":false,"rental_uris":{"android":"levelo://app?vid=abe250a1-3d26-47a1-bae8-73bf3354b17a","ios":"levelo://app?vid=abe250a1-3d26-47a1-bae8-73bf3354b17a"},"vehicle_type_id":"4","last_reported":1734206998,"current_range_meters":9200,"station_id":"ce4bhl12rcd13ifvqgf0","pricing_plan_id":"cebpf4jnsgd1na2vs0mg"},{"bike_id":"e6daa3b0-d355-4eb9-8e91-304a7094997b","system_id":"levelo_inurba_marseille","lat":43.29891,"lon":5.43659,"is_reserved":false,"is_disabled":false,"rental_uris":{"android":"levelo://app?vid=e6daa3b0-d355-4eb9-8e91-304a7094997b","ios":"levelo://app?vid=e6daa3b0-d355-4eb9-8e91-304a7094997b"},"vehicle_type_id":"4","last_reported":1734206998,"current_range_meters":19200,"station_id":"ce4bhpp2rcd13ifvqhfg","pricing_plan_id":"cebpf4jnsgd1na2vs0mg"},{"bike_id":"5e868571-9a8e-410d-816e-7127b29e1e21","system_id":"levelo_inurba_marseille","lat":43.24996,"lon":5.3893,"is_reserved":false,"is_disabled":false,"rental_uris":{"android":"levelo://app?vid=5e868571-9a8e-410d-816e-7127b29e1e21","ios":"levelo://app?vid=5e868571-9a8e-410d-816e-7127b29e1e21"},"vehicle_type_id":"4","last_reported":1734206998,"current_range_meters":27200,"station_id":"ce4bhgp2rcd13ifvqfd0","pricing_plan_id":"cebpf4jnsgd1na2vs0mg"},{"bike_id":"fabc0430-593f-48af-8609-5df6565dc6c4","system_id":"levelo_inurba_marseille","lat":43.25117,"lon":5.40324,"is_reserved":false,"is_disabled":false,"rental_uris":{"android":"levelo://app?vid=fabc0430-593f-48af-8609-5df6565dc6c4","ios":"levelo://app?vid=fabc0430-593f-48af-8609-5df6565dc6c4"},"vehicle_type_id":"4","last_reported":1734206998,"current_range_meters":8000,"station_id":"ce4bhlh2rcd13ifvqgig","pricing_plan_id":"cebpf4jnsgd1na2vs0mg"},{"bike_id":"3056f016-3eca-4720-a1c2-e585a9157f9a","system_id":"levelo_inurba_marseille","lat":43.2893,"lon":5.38396,"is_reserved":false,"is_disabled":false,"rental_uris":{"android":"levelo://app?vid=3056f016-3eca-4720-a1c2-e585a9157f9a","ios":"levelo://app?vid=3056f016-3eca-4720-a1c2-e585a9157f9a"},"vehicle_type_id":"4","last_reported":1734206998,"current_range_meters":30400,"station_id":"ce4bh612rcd13ifvqe6g","pricing_plan_id":"cebpf4jnsgd1na2vs0mg"},{"bike_id":"5b11d79a-bd5a-4e63-a924-bd6703553c91","system_id":"levelo_inurba_marseille","lat":43.29253,"lon":5.40915,"is_reserved":false,"is_disabled":false,"rental_uris":{"android":"levelo://app?vid=5b11d79a-bd5a-4e63-a924-bd6703553c91","ios":"levelo://app?vid=5b11d79a-bd5a-4e63-a924-bd6703553c91"},"vehicle_type_id":"4","last_reported":1734206998,"current_range_meters":16800,"station_id":"ce4bh192rcd13ifvqdc0","pricing_plan_id":"cebpf4jnsgd1na2vs0mg"},{"bike_id":"ad652753-a13f-4839-be72-c818c7b2ba00","system_id":"levelo_inurba_marseille","lat":43.30101,"lon":5.39085,"is_reserved":false,"is_disabled":true,"rental_uris":{"android":"levelo://app?vid=ad652753-a13f-4839-be72-c818c7b2ba00","ios":"levelo://app?vid=ad652753-a13f-4839-be72-c818c7b2ba00"},"vehicle_type_id":"4","last_reported":1734206998,"current_range_meters":6400,"station_id":"ce4bh192rcd13ifvqdb0","pricing_plan_id":"cebpf4jnsgd1na2vs0mg"},{"bike_id":"47f19aef-b2fd-4399-87eb-c59939d56e58","system_id":"levelo_inurba_marseille","lat":43.24387,"lon":5.37061,"is_reserved":false,"is_disabled":false,"rental_uris":{"android":"levelo://app?vid=47f19aef-b2fd-4399-87eb-c59939d56e58","ios":"levelo://app?vid=47f19aef-b2fd-4399-87eb-c59939d56e58"},"vehicle_type_id":"4","last_reported":1734206998,"current_range_meters":37600,"station_id":"ce4bhhh2rcd13ifvqfk0","pricing_plan_id":"cebpf4jnsgd1na2vs0mg"},{"bike_id":"72bdc4f6-9d1d-42c9-ac9e-f6bf19c7da8a","system_id":"levelo_inurba_marseille","lat":43.24072,"lon":5.37764,"is_reserved":false,"is_disabled":false,"rental_uris":{"android":"levelo://app?vid=72bdc4f6-9d1d-42c9-ac9e-f6bf19c7da8a","ios":"levelo://app?vid=72bdc4f6-9d1d-42c9-ac9e-f6bf19c7da8a"},"vehicle_type_id":"4","last_reported":1734206998,"current_range_meters":38800,"station_id":"ce4bhnp2rcd13ifvqgvg","pricing_plan_id":"cebpf4jnsgd1na2vs0mg"},{"bike_id":"56266a76-ba72-4e71-8e56-13aed47b955b","system_id":"levelo_inurba_marseille","lat":43.24667,"lon":5.38164,"is_reserved":false,"is_disabled":false,"rental_uris":{"android":"levelo://app?vid=56266a76-ba72-4e71-8e56-13aed47b955b","ios":"levelo://app?vid=56266a76-ba72-4e71-8e56-13aed47b955b"},"vehicle_type_id":"4","last_reported":1734206998,"current_range_meters":16400,"station_id":"ce4bhih2rcd13ifvqfr0","pricing_plan_id":"cebpf4jnsgd1na2vs0mg"},{"bike_id":"ed5a9e6a-3a47-418d-9652-7744f07b8f43","system_id":"levelo_inurba_marseille","lat":43.25504,"lon":5.37649,"is_reserved":false,"is_disabled":false,"rental_uris":{"android":"levelo://app?vid=ed5a9e6a-3a47-418d-9652-7744f07b8f43","ios":"levelo://app?vid=ed5a9e6a-3a47-418d-9652-7744f07b8f43"},"vehicle_type_id":"4","last_reported":1734206998,"current_range_meters":38800,"station_id":"ce4bhh12rcd13ifvqff0","pricing_plan_id":"cebpf4jnsgd1na2vs0mg"},{"bike_id":"af5005fc-d058-4152-a2f0-a599ec2fe143","system_id":"levelo_inurba_marseille","lat":43.32285,"lon":5.3828,"is_reserved":false,"is_disabled":false,"rental_uris":{"android":"levelo://app?vid=af5005fc-d058-4152-a2f0-a599ec2fe143","ios":"levelo://app?vid=af5005fc-d058-4152-a2f0-a599ec2fe143"},"vehicle_type_id":"4","last_reported":1734206998,"current_range_meters":39200,"station_id":"ce4bhr12rcd13ifvqhqg","pricing_plan_id":"cebpf4jnsgd1na2vs0mg"},{"bike_id":"3650d84c-d2fd-4728-abeb-b9accdfa7210","system_id":"levelo_inurba_marseille","lat":43.30234,"lon":5.40061,"is_reserved":false,"is_disabled":true,"rental_uris":{"android":"levelo://app?vid=3650d84c-d2fd-4728-abeb-b9accdfa7210","ios":"levelo://app?vid=3650d84c-d2fd-4728-abeb-b9accdfa7210"},"vehicle_type_id":"4","last_reported":1734206998,"current_range_meters":25600,"station_id":"ce4bgvh2rcd13ifvqcs0","pricing_plan_id":"cebpf4jnsgd1na2vs0mg"},{"bike_id":"b76bfadb-6288-4939-8ca7-fc00e8227f70","system_id":"levelo_inurba_marseille","lat":43.31067,"lon":5.38357,"is_reserved":false,"is_disabled":true,"rental_uris":{"android":"levelo://app?vid=b76bfadb-6288-4939-8ca7-fc00e8227f70","ios":"levelo://app?vid=b76bfadb-6288-4939-8ca7-fc00e8227f70"},"vehicle_type_id":"4","last_reported":1734206998,"current_range_meters":0,"station_id":"ce4bgv92rcd13ifvqcr0","pricing_plan_id":"cebpf4jnsgd1na2vs0mg"},{"bike_id":"be3cc1f6-59b3-48d9-8415-8e7c09047a60","system_id":"levelo_inurba_marseille","lat":43.251122,"lon":5.403475,"is_reserved":false,"is_disabled":false,"rental_uris":{"android":"levelo://app?vid=be3cc1f6-59b3-48d9-8415-8e7c09047a60","ios":"levelo://app?vid=be3cc1f6-59b3-48d9-8415-8e7c09047a60"},"vehicle_type_id":"4","last_reported":1734206998,"current_range_meters":4400,"station_id":"ce4bhlh2rcd13ifvqgig","pricing_plan_id":"cebpf4jnsgd1na2vs0mg"},{"bike_id":"a79f2747-bec3-44df-9150-77ca49768c61","system_id":"levelo_inurba_marseille","lat":43.30537,"lon":5.38427,"is_reserved":false,"is_disabled":false,"rental_uris":{"android":"levelo://app?vid=a79f2747-bec3-44df-9150-77ca49768c61","ios":"levelo://app?vid=a79f2747-bec3-44df-9150-77ca49768c61"},"vehicle_type_id":"4","last_reported":1734206998,"current_range_meters":9600,"station_id":"ce4bgg92rcd13ifvqb30","pricing_plan_id":"cebpf4jnsgd1na2vs0mg"},{"bike_id":"18ecf20d-710e-4de4-81f8-f5c752c0ec80","system_id":"levelo_inurba_marseille","lat":43.28289,"lon":5.35056,"is_reserved":false,"is_disabled":false,"rental_uris":{"android":"levelo://app?vid=18ecf20d-710e-4de4-81f8-f5c752c0ec80","ios":"levelo://app?vid=18ecf20d-710e-4de4-81f8-f5c752c0ec80"},"vehicle_type_id":"4","last_reported":1734206998,"current_range_meters":17600,"station_id":"ce4bhbp2rcd13ifvqerg","pricing_plan_id":"cebpf4jnsgd1na2vs0mg"},{"bike_id":"425f721e-4481-4245-9dd4-65f65f07aa6c","system_id":"levelo_inurba_marseille","lat":43.28459,"lon":5.35886,"is_reserved":false,"is_disabled":false,"rental_uris":{"android":"levelo://app?vid=425f721e-4481-4245-9dd4-65f65f07aa6c","ios":"levelo://app?vid=425f721e-4481-4245-9dd4-65f65f07aa6c"},"vehicle_type_id":"4","last_reported":1734206998,"current_range_meters":28400,"station_id":"ce4bhah2rcd13ifvqei0","pricing_plan_id":"cebpf4jnsgd1na2vs0mg"},{"bike_id":"86e0f5e8-9d3c-42df-a272-14c031e5b90e","system_id":"levelo_inurba_marseille","lat":43.29277,"lon":5.36834,"is_reserved":false,"is_disabled":false,"rental_uris":{"android":"levelo://app?vid=86e0f5e8-9d3c-42df-a272-14c031e5b90e","ios":"levelo://app?vid=86e0f5e8-9d3c-42df-a272-14c031e5b90e"},"vehicle_type_id":"4","last_reported":1734206998,"current_range_meters":32800,"station_id":"ce4bhbp2rcd13ifvqesg","pricing_plan_id":"cebpf4jnsgd1na2vs0mg"},{"bike_id":"ab5c0b8b-1e60-424c-9881-b6c2af8578b6","system_id":"levelo_inurba_marseille","lat":43.32059,"lon":5.41526,"is_reserved":false,"is_disabled":false,"rental_uris":{"android":"levelo://app?vid=ab5c0b8b-1e60-424c-9881-b6c2af8578b6","ios":"levelo://app?vid=ab5c0b8b-1e60-424c-9881-b6c2af8578b6"},"vehicle_type_id":"4","last_reported":1734206998,"current_range_meters":19200,"station_id":"ce4bhq92rcd13ifvqhkg","pricing_plan_id":"cebpf4jnsgd1na2vs0mg"},{"bike_id":"f9a3a93d-897c-4514-96cb-ccacb8410486","system_id":"levelo_inurba_marseille","lat":43.23962,"lon":5.36627,"is_reserved":false,"is_disabled":false,"rental_uris":{"android":"levelo://app?vid=f9a3a93d-897c-4514-96cb-ccacb8410486","ios":"levelo://app?vid=f9a3a93d-897c-4514-96cb-ccacb8410486"},"vehicle_type_id":"4","last_reported":1734206998,"current_range_meters":32400,"station_id":"ce4bhi12rcd13ifvqfp0","pricing_plan_id":"cebpf4jnsgd1na2vs0mg"},{"bike_id":"a9dd58fb-b0a6-4eec-a5a1-c9728b329a3c","system_id":"levelo_inurba_marseille","lat":43.29365,"lon":5.37831,"is_reserved":false,"is_disabled":false,"rental_uris":{"android":"levelo://app?vid=a9dd58fb-b0a6-4eec-a5a1-c9728b329a3c","ios":"levelo://app?vid=a9dd58fb-b0a6-4eec-a5a1-c9728b329a3c"},"vehicle_type_id":"4","last_reported":1734206998,"current_range_meters":7200,"station_id":"ce4bgjh2rcd13ifvqbf0","pricing_plan_id":"cebpf4jnsgd1na2vs0mg"},{"bike_id":"6cb5f94f-eade-4b7c-b995-84c805be74f9","system_id":"levelo_inurba_marseille","lat":43.33779,"lon":5.37414,"is_reserved":false,"is_disabled":false,"rental_uris":{"android":"levelo://app?vid=6cb5f94f-eade-4b7c-b995-84c805be74f9","ios":"levelo://app?vid=6cb5f94f-eade-4b7c-b995-84c805be74f9"},"vehicle_type_id":"4","last_reported":1734206998,"current_range_meters":38000,"station_id":"","pricing_plan_id":"cebpf4jnsgd1na2vs0mg"},{"bike_id":"cc901eb7-dd26-44fb-96e8-ec63afabf5b7","system_id":"levelo_inurba_marseille","lat":43.3117,"lon":5.38719,"is_reserved":false,"is_disabled":false,"rental_uris":{"android":"levelo://app?vid=cc901eb7-dd26-44fb-96e8-ec63afabf5b7","ios":"levelo://app?vid=cc901eb7-dd26-44fb-96e8-ec63afabf5b7"},"vehicle_type_id":"4","last_reported":1734206998,"current_range_meters":6800,"station_id":"ce4bgv12rcd13ifvqcp0","pricing_plan_id":"cebpf4jnsgd1na2vs0mg"},{"bike_id":"e1fd12fa-99ce-4ad8-8247-08d52673cf20","system_id":"levelo_inurba_marseille","lat":43.29609,"lon":5.37728,"is_reserved":false,"is_disabled":false,"rental_uris":{"android":"levelo://app?vid=e1fd12fa-99ce-4ad8-8247-08d52673cf20","ios":"levelo://app?vid=e1fd12fa-99ce-4ad8-8247-08d52673cf20"},"vehicle_type_id":"4","last_reported":1734206998,"current_range_meters":36800,"station_id":"ce4bgi92rcd13ifvqb90","pricing_plan_id":"cebpf4jnsgd1na2vs0mg"},{"bike_id":"5698604e-aaa5-42b6-9f56-06778c2d2e5a","system_id":"levelo_inurba_marseille","lat":43.25111,"lon":5.40323,"is_reserved":false,"is_disabled":false,"rental_uris":{"android":"levelo://app?vid=5698604e-aaa5-42b6-9f56-06778c2d2e5a","ios":"levelo://app?vid=5698604e-aaa5-42b6-9f56-06778c2d2e5a"},"vehicle_type_id":"4","last_reported":1734206998,"current_range_meters":38800,"station_id":"ce4bhlh2rcd13ifvqgig","pricing_plan_id":"cebpf4jnsgd1na2vs0mg"},{"bike_id":"0a646241-c519-49e3-958d-6acd5fe9c130","system_id":"levelo_inurba_marseille","lat":43.3302,"lon":5.39041,"is_reserved":false,"is_disabled":false,"rental_uris":{"android":"levelo://app?vid=0a646241-c519-49e3-958d-6acd5fe9c130","ios":"levelo://app?vid=0a646241-c519-49e3-958d-6acd5fe9c130"},"vehicle_type_id":"4","last_reported":1734206998,"current_range_meters":38800,"station_id":"ce4bhr92rcd13ifvqhrg","pricing_plan_id":"cebpf4jnsgd1na2vs0mg"},{"bike_id":"16f1aabb-5cc1-4df9-b1e9-544a24091755","system_id":"levelo_inurba_marseille","lat":43.2955,"lon":5.42267,"is_reserved":false,"is_disabled":false,"rental_uris":{"android":"levelo://app?vid=16f1aabb-5cc1-4df9-b1e9-544a24091755","ios":"levelo://app?vid=16f1aabb-5cc1-4df9-b1e9-544a24091755"},"vehicle_type_id":"4","last_reported":1734206998,"current_range_meters":38000,"station_id":"ce4bhph2rcd13ifvqhdg","pricing_plan_id":"cebpf4jnsgd1na2vs0mg"},{"bike_id":"62be7227-74b7-4792-b3e9-793f45ae0003","system_id":"levelo_inurba_marseille","lat":43.2453,"lon":5.39497,"is_reserved":false,"is_disabled":false,"rental_uris":{"android":"levelo://app?vid=62be7227-74b7-4792-b3e9-793f45ae0003","ios":"levelo://app?vid=62be7227-74b7-4792-b3e9-793f45ae0003"},"vehicle_type_id":"4","last_reported":1734206998,"current_range_meters":33200,"station_id":"ce4bhlp2rcd13ifvqgjg","pricing_plan_id":"cebpf4jnsgd1na2vs0mg"},{"bike_id":"47d51823-b4b3-45b6-9ade-fc0f4eab7fa6","system_id":"levelo_inurba_marseille","lat":43.28943,"lon":5.36396,"is_reserved":false,"is_disabled":false,"rental_uris":{"android":"levelo://app?vid=47d51823-b4b3-45b6-9ade-fc0f4eab7fa6","ios":"levelo://app?vid=47d51823-b4b3-45b6-9ade-fc0f4eab7fa6"},"vehicle_type_id":"4","last_reported":1734206998,"current_range_meters":10800,"station_id":"ce4bhc92rcd13ifvqetg","pricing_plan_id":"cebpf4jnsgd1na2vs0mg"},{"bike_id":"ca59d865-1951-4846-a717-a349b9e50e7c","system_id":"levelo_inurba_marseille","lat":43.27622,"lon":5.36108,"is_reserved":false,"is_disabled":true,"rental_uris":{"android":"levelo://app?vid=ca59d865-1951-4846-a717-a349b9e50e7c","ios":"levelo://app?vid=ca59d865-1951-4846-a717-a349b9e50e7c"},"vehicle_type_id":"4","last_reported":1734206998,"current_range_meters":35600,"station_id":"ce4bgj92rcd13ifvqbe0","pricing_plan_id":"cebpf4jnsgd1na2vs0mg"},{"bike_id":"ac790da0-101d-4c64-a15f-c103215fe687","system_id":"levelo_inurba_marseille","lat":43.2319,"lon":5.35552,"is_reserved":false,"is_disabled":false,"rental_uris":{"android":"levelo://app?vid=ac790da0-101d-4c64-a15f-c103215fe687","ios":"levelo://app?vid=ac790da0-101d-4c64-a15f-c103215fe687"},"vehicle_type_id":"4","last_reported":1734206998,"current_range_meters":10800,"station_id":"ce4bhu92rcd13ifvqi70","pricing_plan_id":"cebpf4jnsgd1na2vs0mg"},{"bike_id":"ff9d8020-c3f1-4e0c-ad86-fc76981d239d","system_id":"levelo_inurba_marseille","lat":43.30297,"lon":5.39214,"is_reserved":false,"is_disabled":false,"rental_uris":{"android":"levelo://app?vid=ff9d8020-c3f1-4e0c-ad86-fc76981d239d","ios":"levelo://app?vid=ff9d8020-c3f1-4e0c-ad86-fc76981d239d"},"vehicle_type_id":"4","last_reported":1734206998,"current_range_meters":37600,"station_id":"ce4bgkh2rcd13ifvqbk0","pricing_plan_id":"cebpf4jnsgd1na2vs0mg"},{"bike_id":"283ec910-2b59-4ffd-bbff-9867d116f826","system_id":"levelo_inurba_marseille","lat":43.337444,"lon":5.374475,"is_reserved":false,"is_disabled":true,"rental_uris":{"android":"levelo://app?vid=283ec910-2b59-4ffd-bbff-9867d116f826","ios":"levelo://app?vid=283ec910-2b59-4ffd-bbff-9867d116f826"},"vehicle_type_id":"4","last_reported":1734206998,"current_range_meters":0,"station_id":"","pricing_plan_id":"cebpf4jnsgd1na2vs0mg"},{"bike_id":"44bb1ee1-6608-426b-ad9e-5efdc1a7eac0","system_id":"levelo_inurba_marseille","lat":43.33782,"lon":5.37403,"is_reserved":false,"is_disabled":false,"rental_uris":{"android":"levelo://app?vid=44bb1ee1-6608-426b-ad9e-5efdc1a7eac0","ios":"levelo://app?vid=44bb1ee1-6608-426b-ad9e-5efdc1a7eac0"},"vehicle_type_id":"4","last_reported":1734206998,"current_range_meters":24000,"station_id":"","pricing_plan_id":"cebpf4jnsgd1na2vs0mg"},{"bike_id":"455f54a7-2432-4963-93c1-c31377913a32","system_id":"levelo_inurba_marseille","lat":43.287,"lon":5.37925,"is_reserved":false,"is_disabled":false,"rental_uris":{"android":"levelo://app?vid=455f54a7-2432-4963-93c1-c31377913a32","ios":"levelo://app?vid=455f54a7-2432-4963-93c1-c31377913a32"},"vehicle_type_id":"4","last_reported":1734206998,"current_range_meters":30800,"station_id":"ce4bh9p2rcd13ifvqec0","pricing_plan_id":"cebpf4jnsgd1na2vs0mg"},{"bike_id":"a1f0b200-ed94-4d20-856b-87f79e7d999f","system_id":"levelo_inurba_marseille","lat":43.295237,"lon":5.374953,"is_reserved":false,"is_disabled":false,"rental_uris":{"android":"levelo://app?vid=a1f0b200-ed94-4d20-856b-87f79e7d999f","ios":"levelo://app?vid=a1f0b200-ed94-4d20-856b-87f79e7d999f"},"vehicle_type_id":"4","last_reported":1734206998,"current_range_meters":38800,"station_id":"ce4bgkp2rcd13ifvqbmg","pricing_plan_id":"cebpf4jnsgd1na2vs0mg"},{"bike_id":"bbffd889-750b-4762-ae94-78458d50ea91","system_id":"levelo_inurba_marseille","lat":43.33711,"lon":5.39188,"is_reserved":false,"is_disabled":false,"rental_uris":{"android":"levelo://app?vid=bbffd889-750b-4762-ae94-78458d50ea91","ios":"levelo://app?vid=bbffd889-750b-4762-ae94-78458d50ea91"},"vehicle_type_id":"4","last_reported":1734206998,"current_range_meters":37600,"station_id":"ce4bhr92rcd13ifvqhsg","pricing_plan_id":"cebpf4jnsgd1na2vs0mg"},{"bike_id":"6af93c5c-2369-4249-9874-540f27f0edd3","system_id":"levelo_inurba_marseille","lat":43.33719,"lon":5.39183,"is_reserved":false,"is_disabled":false,"rental_uris":{"android":"levelo://app?vid=6af93c5c-2369-4249-9874-540f27f0edd3","ios":"levelo://app?vid=6af93c5c-2369-4249-9874-540f27f0edd3"},"vehicle_type_id":"4","last_reported":1734206998,"current_range_meters":12400,"station_id":"ce4bhr92rcd13ifvqhsg","pricing_plan_id":"cebpf4jnsgd1na2vs0mg"},{"bike_id":"5c69bc25-82f2-42cf-aa6a-a52ba5074be9","system_id":"levelo_inurba_marseille","lat":43.30329,"lon":5.40442,"is_reserved":false,"is_disabled":false,"rental_uris":{"android":"levelo://app?vid=5c69bc25-82f2-42cf-aa6a-a52ba5074be9","ios":"levelo://app?vid=5c69bc25-82f2-42cf-aa6a-a52ba5074be9"},"vehicle_type_id":"4","last_reported":1734206998,"current_range_meters":32800,"station_id":"ce4bh012rcd13ifvqd10","pricing_plan_id":"cebpf4jnsgd1na2vs0mg"},{"bike_id":"c6234abb-f24f-4e51-8203-a434dd5a5cf7","system_id":"levelo_inurba_marseille","lat":43.27211,"lon":5.40985,"is_reserved":false,"is_disabled":false,"rental_uris":{"android":"levelo://app?vid=c6234abb-f24f-4e51-8203-a434dd5a5cf7","ios":"levelo://app?vid=c6234abb-f24f-4e51-8203-a434dd5a5cf7"},"vehicle_type_id":"4","last_reported":1734206998,"current_range_meters":36800,"station_id":"ce4bhl12rcd13ifvqgf0","pricing_plan_id":"cebpf4jnsgd1na2vs0mg"},{"bike_id":"6e6a004b-462d-4b03-aeaa-2611256f0d89","system_id":"levelo_inurba_marseille","lat":43.28114,"lon":5.38935,"is_reserved":false,"is_disabled":true,"rental_uris":{"android":"levelo://app?vid=6e6a004b-462d-4b03-aeaa-2611256f0d89","ios":"levelo://app?vid=6e6a004b-462d-4b03-aeaa-2611256f0d89"},"vehicle_type_id":"4","last_reported":1734206998,"current_range_meters":0,"station_id":"","pricing_plan_id":"cebpf4jnsgd1na2vs0mg"},{"bike_id":"a42f5994-229b-4ba6-b3f2-7045ec6149a1","system_id":"levelo_inurba_marseille","lat":43.24647,"lon":5.38889,"is_reserved":false,"is_disabled":false,"rental_uris":{"android":"levelo://app?vid=a42f5994-229b-4ba6-b3f2-7045ec6149a1","ios":"levelo://app?vid=a42f5994-229b-4ba6-b3f2-7045ec6149a1"},"vehicle_type_id":"4","last_reported":1734206998,"current_range_meters":11200,"station_id":"ce4bhg12rcd13ifvqf60","pricing_plan_id":"cebpf4jnsgd1na2vs0mg"},{"bike_id":"02aa21d6-f6c2-4f1c-953b-47e33b8bcdb6","system_id":"levelo_inurba_marseille","lat":43.31366,"lon":5.38502,"is_reserved":false,"is_disabled":false,"rental_uris":{"android":"levelo://app?vid=02aa21d6-f6c2-4f1c-953b-47e33b8bcdb6","ios":"levelo://app?vid=02aa21d6-f6c2-4f1c-953b-47e33b8bcdb6"},"vehicle_type_id":"4","last_reported":1734206998,"current_range_meters":7200,"station_id":"ce4bgt92rcd13ifvqcf0","pricing_plan_id":"cebpf4jnsgd1na2vs0mg"},{"bike_id":"ef05cb6e-237f-486f-8b9c-962c61754986","system_id":"levelo_inurba_marseille","lat":43.290384,"lon":5.375572,"is_reserved":false,"is_disabled":false,"rental_uris":{"android":"levelo://app?vid=ef05cb6e-237f-486f-8b9c-962c61754986","ios":"levelo://app?vid=ef05cb6e-237f-486f-8b9c-962c61754986"},"vehicle_type_id":"4","last_reported":1734206998,"current_range_meters":21600,"station_id":"ce4bh692rcd13ifvqe90","pricing_plan_id":"cebpf4jnsgd1na2vs0mg"},{"bike_id":"c47d7261-e3b5-46c3-92f2-9eaab2ccf51f","system_id":"levelo_inurba_marseille","lat":43.27376,"lon":5.36253,"is_reserved":false,"is_disabled":false,"rental_uris":{"android":"levelo://app?vid=c47d7261-e3b5-46c3-92f2-9eaab2ccf51f","ios":"levelo://app?vid=c47d7261-e3b5-46c3-92f2-9eaab2ccf51f"},"vehicle_type_id":"4","last_reported":1734206998,"current_range_meters":38800,"station_id":"ce4bhbh2rcd13ifvqeo0","pricing_plan_id":"cebpf4jnsgd1na2vs0mg"},{"bike_id":"36494939-acf1-4c9b-aade-f107fc1108d1","system_id":"levelo_inurba_marseille","lat":43.31495,"lon":5.3731,"is_reserved":false,"is_disabled":false,"rental_uris":{"android":"levelo://app?vid=36494939-acf1-4c9b-aade-f107fc1108d1","ios":"levelo://app?vid=36494939-acf1-4c9b-aade-f107fc1108d1"},"vehicle_type_id":"4","last_reported":1734206998,"current_range_meters":4400,"station_id":"ce4bgt12rcd13ifvqcd0","pricing_plan_id":"cebpf4jnsgd1na2vs0mg"},{"bike_id":"2486d544-0292-4cbc-abc8-324d72621448","system_id":"levelo_inurba_marseille","lat":43.31519,"lon":5.37287,"is_reserved":false,"is_disabled":false,"rental_uris":{"android":"levelo://app?vid=2486d544-0292-4cbc-abc8-324d72621448","ios":"levelo://app?vid=2486d544-0292-4cbc-abc8-324d72621448"},"vehicle_type_id":"4","last_reported":1734206998,"current_range_meters":36800,"station_id":"ce4bgt12rcd13ifvqcd0","pricing_plan_id":"cebpf4jnsgd1na2vs0mg"},{"bike_id":"e67bad9c-3af3-4a96-b576-1960031a95e6","system_id":"levelo_inurba_marseille","lat":43.31114,"lon":5.37772,"is_reserved":false,"is_disabled":false,"rental_uris":{"android":"levelo://app?vid=e67bad9c-3af3-4a96-b576-1960031a95e6","ios":"levelo://app?vid=e67bad9c-3af3-4a96-b576-1960031a95e6"},"vehicle_type_id":"4","last_reported":1734206998,"current_range_meters":18000,"station_id":"ce4bgt92rcd13ifvqcg0","pricing_plan_id":"cebpf4jnsgd1na2vs0mg"},{"bike_id":"924c4a0a-e91e-43bb-9107-ce44f113c62e","system_id":"levelo_inurba_marseille","lat":43.27072,"lon":5.42282,"is_reserved":false,"is_disabled":false,"rental_uris":{"android":"levelo://app?vid=924c4a0a-e91e-43bb-9107-ce44f113c62e","ios":"levelo://app?vid=924c4a0a-e91e-43bb-9107-ce44f113c62e"},"vehicle_type_id":"4","last_reported":1734206998,"current_range_meters":28800,"station_id":"ce4bhk92rcd13ifvqgb0","pricing_plan_id":"cebpf4jnsgd1na2vs0mg"},{"bike_id":"29a91378-2560-4774-91a7-e71512bdd40c","system_id":"levelo_inurba_marseille","lat":43.32049,"lon":5.41541,"is_reserved":false,"is_disabled":false,"rental_uris":{"android":"levelo://app?vid=29a91378-2560-4774-91a7-e71512bdd40c","ios":"levelo://app?vid=29a91378-2560-4774-91a7-e71512bdd40c"},"vehicle_type_id":"4","last_reported":1734206998,"current_range_meters":24400,"station_id":"ce4bhq92rcd13ifvqhkg","pricing_plan_id":"cebpf4jnsgd1na2vs0mg"},{"bike_id":"171aa4f7-d632-4409-8140-1a79d7dd4827","system_id":"levelo_inurba_marseille","lat":43.29912,"lon":5.37457,"is_reserved":false,"is_disabled":false,"rental_uris":{"android":"levelo://app?vid=171aa4f7-d632-4409-8140-1a79d7dd4827","ios":"levelo://app?vid=171aa4f7-d632-4409-8140-1a79d7dd4827"},"vehicle_type_id":"4","last_reported":1734206998,"current_range_meters":8000,"station_id":"ce4bgjh2rcd13ifvqbg0","pricing_plan_id":"cebpf4jnsgd1na2vs0mg"},{"bike_id":"299e54a2-4aa1-46ed-abd2-9ff34f25e086","system_id":"levelo_inurba_marseille","lat":43.30567,"lon":5.36551,"is_reserved":false,"is_disabled":false,"rental_uris":{"android":"levelo://app?vid=299e54a2-4aa1-46ed-abd2-9ff34f25e086","ios":"levelo://app?vid=299e54a2-4aa1-46ed-abd2-9ff34f25e086"},"vehicle_type_id":"4","last_reported":1734206998,"current_range_meters":17200,"station_id":"ce4bgs12rcd13ifvqcag","pricing_plan_id":"cebpf4jnsgd1na2vs0mg"},{"bike_id":"a7bdb0f9-f5a6-464f-9551-b706f6882dbb","system_id":"levelo_inurba_marseille","lat":43.27934,"lon":5.41043,"is_reserved":false,"is_disabled":false,"rental_uris":{"android":"levelo://app?vid=a7bdb0f9-f5a6-464f-9551-b706f6882dbb","ios":"levelo://app?vid=a7bdb0f9-f5a6-464f-9551-b706f6882dbb"},"vehicle_type_id":"4","last_reported":1734206998,"current_range_meters":30400,"station_id":"ce4bhnp2rcd13ifvqh0g","pricing_plan_id":"cebpf4jnsgd1na2vs0mg"},{"bike_id":"220d3085-600a-4a77-901d-324caa410e8a","system_id":"levelo_inurba_marseille","lat":43.28855,"lon":5.35859,"is_reserved":false,"is_disabled":false,"rental_uris":{"android":"levelo://app?vid=220d3085-600a-4a77-901d-324caa410e8a","ios":"levelo://app?vid=220d3085-600a-4a77-901d-324caa410e8a"},"vehicle_type_id":"4","last_reported":1734206998,"current_range_meters":11200,"station_id":"ce4bhb12rcd13ifvqem0","pricing_plan_id":"cebpf4jnsgd1na2vs0mg"},{"bike_id":"07aaffff-6c5a-4390-a6e5-b91a437396ec","system_id":"levelo_inurba_marseille","lat":43.241677,"lon":5.363893,"is_reserved":false,"is_disabled":false,"rental_uris":{"android":"levelo://app?vid=07aaffff-6c5a-4390-a6e5-b91a437396ec","ios":"levelo://app?vid=07aaffff-6c5a-4390-a6e5-b91a437396ec"},"vehicle_type_id":"4","last_reported":1734206998,"current_range_meters":9600,"station_id":"cpo36qri1sfpv3e86is0","pricing_plan_id":"cebpf4jnsgd1na2vs0mg"},{"bike_id":"171f5513-5f2f-4ab3-8b50-ea5fa30dcecc","system_id":"levelo_inurba_marseille","lat":43.29065,"lon":5.37149,"is_reserved":false,"is_disabled":false,"rental_uris":{"android":"levelo://app?vid=171f5513-5f2f-4ab3-8b50-ea5fa30dcecc","ios":"levelo://app?vid=171f5513-5f2f-4ab3-8b50-ea5fa30dcecc"},"vehicle_type_id":"4","last_reported":1734206998,"current_range_meters":38800,"station_id":"ce4bh5p2rcd13ifvqe4g","pricing_plan_id":"cebpf4jnsgd1na2vs0mg"},{"bike_id":"a36172b4-1d88-4dee-82f7-dfb2da414d3a","system_id":"levelo_inurba_marseille","lat":43.25084,"lon":5.39518,"is_reserved":false,"is_disabled":false,"rental_uris":{"android":"levelo://app?vid=a36172b4-1d88-4dee-82f7-dfb2da414d3a","ios":"levelo://app?vid=a36172b4-1d88-4dee-82f7-dfb2da414d3a"},"vehicle_type_id":"4","last_reported":1734206998,"current_range_meters":11200,"station_id":"ce4bhm12rcd13ifvqgkg","pricing_plan_id":"cebpf4jnsgd1na2vs0mg"},{"bike_id":"4f60e8db-2230-4556-bd82-9eac64b67738","system_id":"levelo_inurba_marseille","lat":43.29267,"lon":5.38451,"is_reserved":false,"is_disabled":false,"rental_uris":{"android":"levelo://app?vid=4f60e8db-2230-4556-bd82-9eac64b67738","ios":"levelo://app?vid=4f60e8db-2230-4556-bd82-9eac64b67738"},"vehicle_type_id":"4","last_reported":1734206998,"current_range_meters":30800,"station_id":"ce4bh692rcd13ifvqea0","pricing_plan_id":"cebpf4jnsgd1na2vs0mg"},{"bike_id":"ec992169-28ac-44ed-81d4-f57e15ed8930","system_id":"levelo_inurba_marseille","lat":43.29419,"lon":5.38604,"is_reserved":false,"is_disabled":false,"rental_uris":{"android":"levelo://app?vid=ec992169-28ac-44ed-81d4-f57e15ed8930","ios":"levelo://app?vid=ec992169-28ac-44ed-81d4-f57e15ed8930"},"vehicle_type_id":"4","last_reported":1734206998,"current_range_meters":23200,"station_id":"ce4bh2h2rcd13ifvqdh0","pricing_plan_id":"cebpf4jnsgd1na2vs0mg"},{"bike_id":"c1942122-ea78-486b-9fb1-65af818940fc","system_id":"levelo_inurba_marseille","lat":43.29072,"lon":5.37169,"is_reserved":false,"is_disabled":false,"rental_uris":{"android":"levelo://app?vid=c1942122-ea78-486b-9fb1-65af818940fc","ios":"levelo://app?vid=c1942122-ea78-486b-9fb1-65af818940fc"},"vehicle_type_id":"4","last_reported":1734206998,"current_range_meters":21600,"station_id":"ce4bh5p2rcd13ifvqe4g","pricing_plan_id":"cebpf4jnsgd1na2vs0mg"},{"bike_id":"c1f80541-c3a8-49f0-9704-465534aa49ce","system_id":"levelo_inurba_marseille","lat":43.30422,"lon":5.41275,"is_reserved":false,"is_disabled":false,"rental_uris":{"android":"levelo://app?vid=c1f80541-c3a8-49f0-9704-465534aa49ce","ios":"levelo://app?vid=c1f80541-c3a8-49f0-9704-465534aa49ce"},"vehicle_type_id":"4","last_reported":1734206998,"current_range_meters":23200,"station_id":"ce4bhop2rcd13ifvqh8g","pricing_plan_id":"cebpf4jnsgd1na2vs0mg"},{"bike_id":"1fd137ec-b2df-45ff-8b23-50f37290448d","system_id":"levelo_inurba_marseille","lat":43.2731,"lon":5.39082,"is_reserved":false,"is_disabled":true,"rental_uris":{"android":"levelo://app?vid=1fd137ec-b2df-45ff-8b23-50f37290448d","ios":"levelo://app?vid=1fd137ec-b2df-45ff-8b23-50f37290448d"},"vehicle_type_id":"4","last_reported":1734206998,"current_range_meters":0,"station_id":"ce4bhgp2rcd13ifvqfe0","pricing_plan_id":"cebpf4jnsgd1na2vs0mg"},{"bike_id":"37a5a3cf-e78d-432b-a69a-37cc2428e2b3","system_id":"levelo_inurba_marseille","lat":43.2827,"lon":5.35062,"is_reserved":false,"is_disabled":false,"rental_uris":{"android":"levelo://app?vid=37a5a3cf-e78d-432b-a69a-37cc2428e2b3","ios":"levelo://app?vid=37a5a3cf-e78d-432b-a69a-37cc2428e2b3"},