{"last_updated":1742764043,"ttl":60,"version":"2.2","data":{"bikes":[{"bike_id":"fec81fa0-e2ff-4d27-843f-7d537664bbf6","system_id":"levelo_inurba_marseille","lat":43.31685,"lon":5.40472,"is_reserved":false,"is_disabled":false,"rental_uris":{"android":"levelo://app?vid=fec81fa0-e2ff-4d27-843f-7d537664bbf6","ios":"levelo://app?vid=fec81fa0-e2ff-4d27-843f-7d537664bbf6"},"vehicle_type_id":"4","last_reported":1742764044,"current_range_meters":2800,"station_id":"ce4bh012rcd13ifvqd00","pricing_plan_id":"cebpf4jnsgd1na2vs0mg"},{"bike_id":"3273f40d-d327-4a96-a10b-bb064e299908","system_id":"levelo_inurba_marseille","lat":43.33077,"lon":5.40812,"is_reserved":false,"is_disabled":false,"rental_uris":{"android":"levelo://app?vid=3273f40d-d327-4a96-a10b-bb064e299908","ios":"levelo://app?vid=3273f40d-d327-4a96-a10b-bb064e299908"},"vehicle_type_id":"4","last_reported":1742764044,"current_range_meters":2800,"station_id":"","pricing_plan_id":"cebpf4jnsgd1na2vs0mg"},{"bike_id":"a102be94-3fc0-42f6-a20f-84c48b64392c","system_id":"levelo_inurba_marseille","lat":43.28897,"lon":5.46652,"is_reserved":false,"is_disabled":false,"rental_uris":{"android":"levelo://app?vid=a102be94-3fc0-42f6-a20f-84c48b64392c","ios":"levelo://app?vid=a102be94-3fc0-42f6-a20f-84c48b64392c"},"vehicle_type_id":"4","last_reported":1742764044,"current_range_meters":3200,"station_id":"","pricing_plan_id":"cebpf4jnsgd1na2vs0mg"},{"bike_id":"fe239f3d-5c83-42bd-8b99-e0b3f3784fb5","system_id":"levelo_inurba_marseille","lat":43.24615,"lon":5.38398,"is_reserved":false,"is_disabled":false,"rental_uris":{"android":"levelo://app?vid=fe239f3d-5c83-42bd-8b99-e0b3f3784fb5","ios":"levelo://app?vid=fe239f3d-5c83-42bd-8b99-e0b3f3784fb5"},"vehicle_type_id":"4","last_reported":1742764044,"current_range_meters":3600,"station_id":"","pricing_plan_id":"cebpf4jnsgd1na2vs0mg"},{"bike_id":"e22039fe-9930-4b79-8400-7d3a9b446c5b","system_id":"levelo_inurba_marseille","lat":43.32327,"lon":5.40611,"is_reserved":false,"is_disabled":false,"rental_uris":{"android":"levelo://app?vid=e22039fe-9930-4b79-8400-7d3a9b446c5b","ios":"levelo://app?vid=e22039fe-9930-4b79-8400-7d3a9b446c5b"},"vehicle_type_id":"4","last_reported":1742764044,"current_range_meters":4000,"station_id":"ce4bhq92rcd13ifvqhjg","pricing_plan_id":"cebpf4jnsgd1na2vs0mg"},{"bike_id":"3297d585-6045-4ee1-a6c1-995492af9c6d","system_id":"levelo_inurba_marseille","lat":43.2974,"lon":5.37622,"is_reserved":false,"is_disabled":false,"rental_uris":{"android":"levelo://app?vid=3297d585-6045-4ee1-a6c1-995492af9c6d","ios":"levelo://app?vid=3297d585-6045-4ee1-a6c1-995492af9c6d"},"vehicle_type_id":"4","last_reported":1742764044,"current_range_meters":4400,"station_id":"ce4bgkh2rcd13ifvqbl0","pricing_plan_id":"cebpf4jnsgd1na2vs0mg"},{"bike_id":"3bc17e9f-c28e-42ac-ab2f-a661d914a8b7","system_id":"levelo_inurba_marseille","lat":43.2508,"lon":5.39522,"is_reserved":false,"is_disabled":true,"rental_uris":{"android":"levelo://app?vid=3bc17e9f-c28e-42ac-ab2f-a661d914a8b7","ios":"levelo://app?vid=3bc17e9f-c28e-42ac-ab2f-a661d914a8b7"},"vehicle_type_id":"4","last_reported":1742764044,"current_range_meters":4400,"station_id":"ce4bhm12rcd13ifvqgkg","pricing_plan_id":"cebpf4jnsgd1na2vs0mg"},{"bike_id":"8d3ef3f2-f8b7-459f-8df7-06dc5a3fbeca","system_id":"levelo_inurba_marseille","lat":43.31069,"lon":5.38349,"is_reserved":false,"is_disabled":false,"rental_uris":{"android":"levelo://app?vid=8d3ef3f2-f8b7-459f-8df7-06dc5a3fbeca","ios":"levelo://app?vid=8d3ef3f2-f8b7-459f-8df7-06dc5a3fbeca"},"vehicle_type_id":"4","last_reported":1742764044,"current_range_meters":4800,"station_id":"ce4bgv92rcd13ifvqcr0","pricing_plan_id":"cebpf4jnsgd1na2vs0mg"},{"bike_id":"d8edcd8c-4f6a-4a41-b974-deb509bc067f","system_id":"levelo_inurba_marseille","lat":43.28606,"lon":5.35101,"is_reserved":false,"is_disabled":true,"rental_uris":{"android":"levelo://app?vid=d8edcd8c-4f6a-4a41-b974-deb509bc067f","ios":"levelo://app?vid=d8edcd8c-4f6a-4a41-b974-deb509bc067f"},"vehicle_type_id":"4","last_reported":1742764044,"current_range_meters":5600,"station_id":"ce4bhch2rcd13ifvqeug","pricing_plan_id":"cebpf4jnsgd1na2vs0mg"},{"bike_id":"affc0d8d-dd36-428d-a8ac-20865ac990b3","system_id":"levelo_inurba_marseille","lat":43.23957,"lon":5.36627,"is_reserved":false,"is_disabled":false,"rental_uris":{"android":"levelo://app?vid=affc0d8d-dd36-428d-a8ac-20865ac990b3","ios":"levelo://app?vid=affc0d8d-dd36-428d-a8ac-20865ac990b3"},"vehicle_type_id":"4","last_reported":1742764044,"current_range_meters":5600,"station_id":"ce4bhi12rcd13ifvqfp0","pricing_plan_id":"cebpf4jnsgd1na2vs0mg"},{"bike_id":"c8640b41-71c1-41c0-9a82-2e1c71db64f1","system_id":"levelo_inurba_marseille","lat":43.27917,"lon":5.39579,"is_reserved":false,"is_disabled":false,"rental_uris":{"android":"levelo://app?vid=c8640b41-71c1-41c0-9a82-2e1c71db64f1","ios":"levelo://app?vid=c8640b41-71c1-41c0-9a82-2e1c71db64f1"},"vehicle_type_id":"4","last_reported":1742764044,"current_range_meters":5600,"station_id":"ce4bhf92rcd13ifvqf40","pricing_plan_id":"cebpf4jnsgd1na2vs0mg"},{"bike_id":"46a24ee4-2008-468d-a93b-e5fe86858e55","system_id":"levelo_inurba_marseille","lat":43.26193,"lon":5.37927,"is_reserved":false,"is_disabled":false,"rental_uris":{"android":"levelo://app?vid=46a24ee4-2008-468d-a93b-e5fe86858e55","ios":"levelo://app?vid=46a24ee4-2008-468d-a93b-e5fe86858e55"},"vehicle_type_id":"4","last_reported":1742764044,"current_range_meters":5600,"station_id":"ce4bhjp2rcd13ifvqg90","pricing_plan_id":"cebpf4jnsgd1na2vs0mg"},{"bike_id":"6aa80e4f-8a3d-419f-a17c-e17a85aa50a1","system_id":"levelo_inurba_marseille","lat":43.2549,"lon":5.37637,"is_reserved":false,"is_disabled":false,"rental_uris":{"android":"levelo://app?vid=6aa80e4f-8a3d-419f-a17c-e17a85aa50a1","ios":"levelo://app?vid=6aa80e4f-8a3d-419f-a17c-e17a85aa50a1"},"vehicle_type_id":"4","last_reported":1742764044,"current_range_meters":5600,"station_id":"ce4bhh12rcd13ifvqff0","pricing_plan_id":"cebpf4jnsgd1na2vs0mg"},{"bike_id":"77bcb388-fa63-4e4d-957c-8c59b5ca2bd2","system_id":"levelo_inurba_marseille","lat":43.31891,"lon":5.40719,"is_reserved":false,"is_disabled":false,"rental_uris":{"android":"levelo://app?vid=77bcb388-fa63-4e4d-957c-8c59b5ca2bd2","ios":"levelo://app?vid=77bcb388-fa63-4e4d-957c-8c59b5ca2bd2"},"vehicle_type_id":"4","last_reported":1742764044,"current_range_meters":5600,"station_id":"ce4bhq12rcd13ifvqhig","pricing_plan_id":"cebpf4jnsgd1na2vs0mg"},{"bike_id":"14d71852-a8aa-4a56-aa2e-4af2b93db679","system_id":"levelo_inurba_marseille","lat":43.29905,"lon":5.43666,"is_reserved":false,"is_disabled":false,"rental_uris":{"android":"levelo://app?vid=14d71852-a8aa-4a56-aa2e-4af2b93db679","ios":"levelo://app?vid=14d71852-a8aa-4a56-aa2e-4af2b93db679"},"vehicle_type_id":"4","last_reported":1742764044,"current_range_meters":5600,"station_id":"ce4bhpp2rcd13ifvqhfg","pricing_plan_id":"cebpf4jnsgd1na2vs0mg"},{"bike_id":"529d4350-cf06-4849-927d-b43535494a24","system_id":"levelo_inurba_marseille","lat":43.28153,"lon":5.42642,"is_reserved":false,"is_disabled":false,"rental_uris":{"android":"levelo://app?vid=529d4350-cf06-4849-927d-b43535494a24","ios":"levelo://app?vid=529d4350-cf06-4849-927d-b43535494a24"},"vehicle_type_id":"4","last_reported":1742764044,"current_range_meters":5600,"station_id":"ce4bhnh2rcd13ifvqgug","pricing_plan_id":"cebpf4jnsgd1na2vs0mg"},{"bike_id":"5d4cc92c-eafe-478c-8820-ef016b1e9d02","system_id":"levelo_inurba_marseille","lat":43.29905,"lon":5.43622,"is_reserved":false,"is_disabled":false,"rental_uris":{"android":"levelo://app?vid=5d4cc92c-eafe-478c-8820-ef016b1e9d02","ios":"levelo://app?vid=5d4cc92c-eafe-478c-8820-ef016b1e9d02"},"vehicle_type_id":"4","last_reported":1742764044,"current_range_meters":6000,"station_id":"ce4bhpp2rcd13ifvqhfg","pricing_plan_id":"cebpf4jnsgd1na2vs0mg"},{"bike_id":"5294bd6a-aa3c-4d73-8575-d8c48204a8f4","system_id":"levelo_inurba_marseille","lat":43.24646,"lon":5.38898,"is_reserved":false,"is_disabled":false,"rental_uris":{"android":"levelo://app?vid=5294bd6a-aa3c-4d73-8575-d8c48204a8f4","ios":"levelo://app?vid=5294bd6a-aa3c-4d73-8575-d8c48204a8f4"},"vehicle_type_id":"4","last_reported":1742764044,"current_range_meters":6400,"station_id":"ce4bhg12rcd13ifvqf60","pricing_plan_id":"cebpf4jnsgd1na2vs0mg"},{"bike_id":"80cdb102-7f71-4247-acb2-4ea843c8f368","system_id":"levelo_inurba_marseille","lat":43.31687,"lon":5.40476,"is_reserved":false,"is_disabled":false,"rental_uris":{"android":"levelo://app?vid=80cdb102-7f71-4247-acb2-4ea843c8f368","ios":"levelo://app?vid=80cdb102-7f71-4247-acb2-4ea843c8f368"},"vehicle_type_id":"4","last_reported":1742764044,"current_range_meters":6400,"station_id":"","pricing_plan_id":"cebpf4jnsgd1na2vs0mg"},{"bike_id":"17df8f62-b113-4492-b441-757916e17546","system_id":"levelo_inurba_marseille","lat":43.28,"lon":5.41652,"is_reserved":false,"is_disabled":false,"rental_uris":{"android":"levelo://app?vid=17df8f62-b113-4492-b441-757916e17546","ios":"levelo://app?vid=17df8f62-b113-4492-b441-757916e17546"},"vehicle_type_id":"4","last_reported":1742764044,"current_range_meters":6400,"station_id":"ce4bho12rcd13ifvqh1g","pricing_plan_id":"cebpf4jnsgd1na2vs0mg"},{"bike_id":"85c637a4-8d12-4cd7-88c2-760ebfe72ffc","system_id":"levelo_inurba_marseille","lat":43.26227,"lon":5.37919,"is_reserved":false,"is_disabled":false,"rental_uris":{"android":"levelo://app?vid=85c637a4-8d12-4cd7-88c2-760ebfe72ffc","ios":"levelo://app?vid=85c637a4-8d12-4cd7-88c2-760ebfe72ffc"},"vehicle_type_id":"4","last_reported":1742764044,"current_range_meters":6400,"station_id":"ce4bhjp2rcd13ifvqg90","pricing_plan_id":"cebpf4jnsgd1na2vs0mg"},{"bike_id":"e61a30fa-9e69-41b4-b81a-28216ba903ec","system_id":"levelo_inurba_marseille","lat":43.29863,"lon":5.38911,"is_reserved":false,"is_disabled":false,"rental_uris":{"android":"levelo://app?vid=e61a30fa-9e69-41b4-b81a-28216ba903ec","ios":"levelo://app?vid=e61a30fa-9e69-41b4-b81a-28216ba903ec"},"vehicle_type_id":"4","last_reported":1742764044,"current_range_meters":6400,"station_id":"ce4bh392rcd13ifvqdl0","pricing_plan_id":"cebpf4jnsgd1na2vs0mg"},{"bike_id":"4bbee01b-80b4-497e-86e8-8fce287c4265","system_id":"levelo_inurba_marseille","lat":43.26205,"lon":5.37927,"is_reserved":false,"is_disabled":false,"rental_uris":{"android":"levelo://app?vid=4bbee01b-80b4-497e-86e8-8fce287c4265","ios":"levelo://app?vid=4bbee01b-80b4-497e-86e8-8fce287c4265"},"vehicle_type_id":"4","last_reported":1742764044,"current_range_meters":6400,"station_id":"ce4bhjp2rcd13ifvqg90","pricing_plan_id":"cebpf4jnsgd1na2vs0mg"},{"bike_id":"76a73682-e507-4679-ae6f-2820ae7d19f0","system_id":"levelo_inurba_marseille","lat":43.31712,"lon":5.40457,"is_reserved":false,"is_disabled":false,"rental_uris":{"android":"levelo://app?vid=76a73682-e507-4679-ae6f-2820ae7d19f0","ios":"levelo://app?vid=76a73682-e507-4679-ae6f-2820ae7d19f0"},"vehicle_type_id":"4","last_reported":1742764044,"current_range_meters":6400,"station_id":"ce4bh012rcd13ifvqd00","pricing_plan_id":"cebpf4jnsgd1na2vs0mg"},{"bike_id":"3ffabd3d-9e57-4f3b-a19e-fc6edcd39f1a","system_id":"levelo_inurba_marseille","lat":43.25722,"lon":5.41112,"is_reserved":false,"is_disabled":false,"rental_uris":{"android":"levelo://app?vid=3ffabd3d-9e57-4f3b-a19e-fc6edcd39f1a","ios":"levelo://app?vid=3ffabd3d-9e57-4f3b-a19e-fc6edcd39f1a"},"vehicle_type_id":"4","last_reported":1742764044,"current_range_meters":6400,"station_id":"ce4bhkp2rcd13ifvqgd0","pricing_plan_id":"cebpf4jnsgd1na2vs0mg"},{"bike_id":"1df0b3b2-8b10-4d59-a49f-c6ab72341a39","system_id":"levelo_inurba_marseille","lat":43.23058,"lon":5.35486,"is_reserved":false,"is_disabled":false,"rental_uris":{"android":"levelo://app?vid=1df0b3b2-8b10-4d59-a49f-c6ab72341a39","ios":"levelo://app?vid=1df0b3b2-8b10-4d59-a49f-c6ab72341a39"},"vehicle_type_id":"4","last_reported":1742764044,"current_range_meters":6400,"station_id":"cpo3342slgdg3j2ifvpg","pricing_plan_id":"cebpf4jnsgd1na2vs0mg"},{"bike_id":"e56a3d33-0582-4293-892b-cdc36c750052","system_id":"levelo_inurba_marseille","lat":43.31372,"lon":5.38484,"is_reserved":false,"is_disabled":false,"rental_uris":{"android":"levelo://app?vid=e56a3d33-0582-4293-892b-cdc36c750052","ios":"levelo://app?vid=e56a3d33-0582-4293-892b-cdc36c750052"},"vehicle_type_id":"4","last_reported":1742764044,"current_range_meters":6400,"station_id":"ce4bgt92rcd13ifvqcf0","pricing_plan_id":"cebpf4jnsgd1na2vs0mg"},{"bike_id":"768ca5e6-f1bb-42f2-ac3f-2632b474747d","system_id":"levelo_inurba_marseille","lat":43.25816,"lon":5.39436,"is_reserved":false,"is_disabled":false,"rental_uris":{"android":"levelo://app?vid=768ca5e6-f1bb-42f2-ac3f-2632b474747d","ios":"levelo://app?vid=768ca5e6-f1bb-42f2-ac3f-2632b474747d"},"vehicle_type_id":"4","last_reported":1742764044,"current_range_meters":6400,"station_id":"ce4bhip2rcd13ifvqft0","pricing_plan_id":"cebpf4jnsgd1na2vs0mg"},{"bike_id":"1ab8da82-9a45-4a50-b57f-fab1d1595a6c","system_id":"levelo_inurba_marseille","lat":43.27462,"lon":5.38812,"is_reserved":false,"is_disabled":false,"rental_uris":{"android":"levelo://app?vid=1ab8da82-9a45-4a50-b57f-fab1d1595a6c","ios":"levelo://app?vid=1ab8da82-9a45-4a50-b57f-fab1d1595a6c"},"vehicle_type_id":"4","last_reported":1742764044,"current_range_meters":6800,"station_id":"ce4bhgp2rcd13ifvqfe0","pricing_plan_id":"cebpf4jnsgd1na2vs0mg"},{"bike_id":"ca7b5ff0-70ee-4826-b357-b50fdefd8b05","system_id":"levelo_inurba_marseille","lat":43.32376,"lon":5.38879,"is_reserved":false,"is_disabled":false,"rental_uris":{"android":"levelo://app?vid=ca7b5ff0-70ee-4826-b357-b50fdefd8b05","ios":"levelo://app?vid=ca7b5ff0-70ee-4826-b357-b50fdefd8b05"},"vehicle_type_id":"4","last_reported":1742764044,"current_range_meters":6800,"station_id":"ce4bhqp2rcd13ifvqhog","pricing_plan_id":"cebpf4jnsgd1na2vs0mg"},{"bike_id":"014cf003-1505-49cd-ba72-06250a2191ab","system_id":"levelo_inurba_marseille","lat":43.23048,"lon":5.35499,"is_reserved":false,"is_disabled":false,"rental_uris":{"android":"levelo://app?vid=014cf003-1505-49cd-ba72-06250a2191ab","ios":"levelo://app?vid=014cf003-1505-49cd-ba72-06250a2191ab"},"vehicle_type_id":"4","last_reported":1742764044,"current_range_meters":6800,"station_id":"cpo3342slgdg3j2ifvpg","pricing_plan_id":"cebpf4jnsgd1na2vs0mg"},{"bike_id":"8ed1ac19-a2dd-4532-af16-423d1df5a6d4","system_id":"levelo_inurba_marseille","lat":43.23134,"lon":5.41389,"is_reserved":false,"is_disabled":false,"rental_uris":{"android":"levelo://app?vid=8ed1ac19-a2dd-4532-af16-423d1df5a6d4","ios":"levelo://app?vid=8ed1ac19-a2dd-4532-af16-423d1df5a6d4"},"vehicle_type_id":"4","last_reported":1742764044,"current_range_meters":6800,"station_id":"","pricing_plan_id":"cebpf4jnsgd1na2vs0mg"},{"bike_id":"7dff85bb-7bf0-4917-8369-193d79fcbd8a","system_id":"levelo_inurba_marseille","lat":43.29702,"lon":5.37687,"is_reserved":false,"is_disabled":false,"rental_uris":{"android":"levelo://app?vid=7dff85bb-7bf0-4917-8369-193d79fcbd8a","ios":"levelo://app?vid=7dff85bb-7bf0-4917-8369-193d79fcbd8a"},"vehicle_type_id":"4","last_reported":1742764044,"current_range_meters":6400,"station_id":"ce4bgkh2rcd13ifvqbl0","pricing_plan_id":"cebpf4jnsgd1na2vs0mg"},{"bike_id":"086984a9-402b-46fc-9422-f01c5a628037","system_id":"levelo_inurba_marseille","lat":43.30213,"lon":5.39465,"is_reserved":false,"is_disabled":false,"rental_uris":{"android":"levelo://app?vid=086984a9-402b-46fc-9422-f01c5a628037","ios":"levelo://app?vid=086984a9-402b-46fc-9422-f01c5a628037"},"vehicle_type_id":"4","last_reported":1742764044,"current_range_meters":7200,"station_id":"ce4bh0p2rcd13ifvqd70","pricing_plan_id":"cebpf4jnsgd1na2vs0mg"},{"bike_id":"ea375b77-5265-4f10-98eb-8a594992fa8c","system_id":"levelo_inurba_marseille","lat":43.23067,"lon":5.35501,"is_reserved":false,"is_disabled":false,"rental_uris":{"android":"levelo://app?vid=ea375b77-5265-4f10-98eb-8a594992fa8c","ios":"levelo://app?vid=ea375b77-5265-4f10-98eb-8a594992fa8c"},"vehicle_type_id":"4","last_reported":1742764044,"current_range_meters":7200,"station_id":"cpo3342slgdg3j2ifvpg","pricing_plan_id":"cebpf4jnsgd1na2vs0mg"},{"bike_id":"23aae21a-1ee8-4544-a323-476ec541691a","system_id":"levelo_inurba_marseille","lat":43.23186,"lon":5.39979,"is_reserved":false,"is_disabled":false,"rental_uris":{"android":"levelo://app?vid=23aae21a-1ee8-4544-a323-476ec541691a","ios":"levelo://app?vid=23aae21a-1ee8-4544-a323-476ec541691a"},"vehicle_type_id":"4","last_reported":1742764044,"current_range_meters":7200,"station_id":"ce4bhn12rcd13ifvqgqg","pricing_plan_id":"cebpf4jnsgd1na2vs0mg"},{"bike_id":"1d28abd9-379c-41d7-b58f-be68f6059004","system_id":"levelo_inurba_marseille","lat":43.32348,"lon":5.38876,"is_reserved":false,"is_disabled":false,"rental_uris":{"android":"levelo://app?vid=1d28abd9-379c-41d7-b58f-be68f6059004","ios":"levelo://app?vid=1d28abd9-379c-41d7-b58f-be68f6059004"},"vehicle_type_id":"4","last_reported":1742764044,"current_range_meters":7200,"station_id":"ce4bhqp2rcd13ifvqhog","pricing_plan_id":"cebpf4jnsgd1na2vs0mg"},{"bike_id":"5485cc78-0486-4586-9837-16b880c638d9","system_id":"levelo_inurba_marseille","lat":43.29296,"lon":5.3717,"is_reserved":false,"is_disabled":false,"rental_uris":{"android":"levelo://app?vid=5485cc78-0486-4586-9837-16b880c638d9","ios":"levelo://app?vid=5485cc78-0486-4586-9837-16b880c638d9"},"vehicle_type_id":"4","last_reported":1742764044,"current_range_meters":7200,"station_id":"ce4bgh92rcd13ifvqb40","pricing_plan_id":"cebpf4jnsgd1na2vs0mg"},{"bike_id":"3f3f99da-6673-441e-a5b3-6857219a400e","system_id":"levelo_inurba_marseille","lat":43.25015,"lon":5.38918,"is_reserved":false,"is_disabled":false,"rental_uris":{"android":"levelo://app?vid=3f3f99da-6673-441e-a5b3-6857219a400e","ios":"levelo://app?vid=3f3f99da-6673-441e-a5b3-6857219a400e"},"vehicle_type_id":"4","last_reported":1742764044,"current_range_meters":7200,"station_id":"ce4bhgp2rcd13ifvqfd0","pricing_plan_id":"cebpf4jnsgd1na2vs0mg"},{"bike_id":"7a2bfb8b-6c0f-4ce6-8daa-3a5e663ad3cf","system_id":"levelo_inurba_marseille","lat":43.31746,"lon":5.39016,"is_reserved":false,"is_disabled":false,"rental_uris":{"android":"levelo://app?vid=7a2bfb8b-6c0f-4ce6-8daa-3a5e663ad3cf","ios":"levelo://app?vid=7a2bfb8b-6c0f-4ce6-8daa-3a5e663ad3cf"},"vehicle_type_id":"4","last_reported":1742764044,"current_range_meters":7200,"station_id":"ce4bhqp2rcd13ifvqhng","pricing_plan_id":"cebpf4jnsgd1na2vs0mg"},{"bike_id":"5de93a4e-8597-44d3-b79a-a868c09960fb","system_id":"levelo_inurba_marseille","lat":43.26204,"lon":5.37442,"is_reserved":false,"is_disabled":true,"rental_uris":{"android":"levelo://app?vid=5de93a4e-8597-44d3-b79a-a868c09960fb","ios":"levelo://app?vid=5de93a4e-8597-44d3-b79a-a868c09960fb"},"vehicle_type_id":"4","last_reported":1742764044,"current_range_meters":7200,"station_id":"ce4bhgp2rcd13ifvqfc0","pricing_plan_id":"cebpf4jnsgd1na2vs0mg"},{"bike_id":"72123cf2-9d2b-41b8-9bee-4f35b0be3549","system_id":"levelo_inurba_marseille","lat":43.23085,"lon":5.35497,"is_reserved":false,"is_disabled":true,"rental_uris":{"android":"levelo://app?vid=72123cf2-9d2b-41b8-9bee-4f35b0be3549","ios":"levelo://app?vid=72123cf2-9d2b-41b8-9bee-4f35b0be3549"},"vehicle_type_id":"4","last_reported":1742764044,"current_range_meters":7200,"station_id":"cpo3342slgdg3j2ifvpg","pricing_plan_id":"cebpf4jnsgd1na2vs0mg"},{"bike_id":"f82d61b6-a985-4cdd-af91-32f19ae82d4c","system_id":"levelo_inurba_marseille","lat":43.26211,"lon":5.37431,"is_reserved":false,"is_disabled":false,"rental_uris":{"android":"levelo://app?vid=f82d61b6-a985-4cdd-af91-32f19ae82d4c","ios":"levelo://app?vid=f82d61b6-a985-4cdd-af91-32f19ae82d4c"},"vehicle_type_id":"4","last_reported":1742764044,"current_range_meters":8000,"station_id":"ce4bhgp2rcd13ifvqfc0","pricing_plan_id":"cebpf4jnsgd1na2vs0mg"},{"bike_id":"1db98baf-7e31-48e3-8a8a-dcfedb9e5490","system_id":"levelo_inurba_marseille","lat":43.23189,"lon":5.39974,"is_reserved":false,"is_disabled":false,"rental_uris":{"android":"levelo://app?vid=1db98baf-7e31-48e3-8a8a-dcfedb9e5490","ios":"levelo://app?vid=1db98baf-7e31-48e3-8a8a-dcfedb9e5490"},"vehicle_type_id":"4","last_reported":1742764044,"current_range_meters":8000,"station_id":"ce4bhn12rcd13ifvqgqg","pricing_plan_id":"cebpf4jnsgd1na2vs0mg"},{"bike_id":"a7a9d68a-b527-472d-b45c-c1363e8def55","system_id":"levelo_inurba_marseille","lat":43.26229,"lon":5.37426,"is_reserved":false,"is_disabled":true,"rental_uris":{"android":"levelo://app?vid=a7a9d68a-b527-472d-b45c-c1363e8def55","ios":"levelo://app?vid=a7a9d68a-b527-472d-b45c-c1363e8def55"},"vehicle_type_id":"4","last_reported":1742764044,"current_range_meters":8000,"station_id":"ce4bhgp2rcd13ifvqfc0","pricing_plan_id":"cebpf4jnsgd1na2vs0mg"},{"bike_id":"787fb028-74e3-4ece-a600-b719e0014a09","system_id":"levelo_inurba_marseille","lat":43.24655,"lon":5.38163,"is_reserved":false,"is_disabled":false,"rental_uris":{"android":"levelo://app?vid=787fb028-74e3-4ece-a600-b719e0014a09","ios":"levelo://app?vid=787fb028-74e3-4ece-a600-b719e0014a09"},"vehicle_type_id":"4","last_reported":1742764044,"current_range_meters":8000,"station_id":"ce4bhih2rcd13ifvqfr0","pricing_plan_id":"cebpf4jnsgd1na2vs0mg"},{"bike_id":"72503a27-a949-4a46-b139-c44d4f416a58","system_id":"levelo_inurba_marseille","lat":43.232,"lon":5.35556,"is_reserved":false,"is_disabled":false,"rental_uris":{"android":"levelo://app?vid=72503a27-a949-4a46-b139-c44d4f416a58","ios":"levelo://app?vid=72503a27-a949-4a46-b139-c44d4f416a58"},"vehicle_type_id":"4","last_reported":1742764044,"current_range_meters":8000,"station_id":"ce4bhu92rcd13ifvqi70","pricing_plan_id":"cebpf4jnsgd1na2vs0mg"},{"bike_id":"42dac74d-cb0b-441e-84af-c9fc6427c0c9","system_id":"levelo_inurba_marseille","lat":43.27964,"lon":5.38696,"is_reserved":false,"is_disabled":false,"rental_uris":{"android":"levelo://app?vid=42dac74d-cb0b-441e-84af-c9fc6427c0c9","ios":"levelo://app?vid=42dac74d-cb0b-441e-84af-c9fc6427c0c9"},"vehicle_type_id":"4","last_reported":1742764044,"current_range_meters":8000,"station_id":"ce4bhg12rcd13ifvqf80","pricing_plan_id":"cebpf4jnsgd1na2vs0mg"},{"bike_id":"cbb9986d-439a-4ca9-b314-7f94120c4a86","system_id":"levelo_inurba_marseille","lat":43.247,"lon":5.38145,"is_reserved":false,"is_disabled":false,"rental_uris":{"android":"levelo://app?vid=cbb9986d-439a-4ca9-b314-7f94120c4a86","ios":"levelo://app?vid=cbb9986d-439a-4ca9-b314-7f94120c4a86"},"vehicle_type_id":"4","last_reported":1742764044,"current_range_meters":8000,"station_id":"ce4bhih2rcd13ifvqfr0","pricing_plan_id":"cebpf4jnsgd1na2vs0mg"},{"bike_id":"ad263336-64b9-4f27-8f30-4a49fa7dcbf6","system_id":"levelo_inurba_marseille","lat":43.27717,"lon":5.42567,"is_reserved":false,"is_disabled":false,"rental_uris":{"android":"levelo://app?vid=ad263336-64b9-4f27-8f30-4a49fa7dcbf6","ios":"levelo://app?vid=ad263336-64b9-4f27-8f30-4a49fa7dcbf6"},"vehicle_type_id":"4","last_reported":1742764044,"current_range_meters":8000,"station_id":"","pricing_plan_id":"cebpf4jnsgd1na2vs0mg"},{"bike_id":"525e076a-3225-46f1-acfc-cf966b12abdd","system_id":"levelo_inurba_marseille","lat":43.24685,"lon":5.38158,"is_reserved":false,"is_disabled":false,"rental_uris":{"android":"levelo://app?vid=525e076a-3225-46f1-acfc-cf966b12abdd","ios":"levelo://app?vid=525e076a-3225-46f1-acfc-cf966b12abdd"},"vehicle_type_id":"4","last_reported":1742764044,"current_range_meters":8000,"station_id":"ce4bhih2rcd13ifvqfr0","pricing_plan_id":"cebpf4jnsgd1na2vs0mg"},{"bike_id":"65b84453-2ebb-466f-aa59-9e0dd1fa6abb","system_id":"levelo_inurba_marseille","lat":43.26537,"lon":5.39047,"is_reserved":false,"is_disabled":false,"rental_uris":{"android":"levelo://app?vid=65b84453-2ebb-466f-aa59-9e0dd1fa6abb","ios":"levelo://app?vid=65b84453-2ebb-466f-aa59-9e0dd1fa6abb"},"vehicle_type_id":"4","last_reported":1742764044,"current_range_meters":8000,"station_id":"ce4bhe12rcd13ifvqf30","pricing_plan_id":"cebpf4jnsgd1na2vs0mg"},{"bike_id":"97b13862-64cd-49d1-b4f1-989a03a88f74","system_id":"levelo_inurba_marseille","lat":43.27938,"lon":5.38749,"is_reserved":false,"is_disabled":false,"rental_uris":{"android":"levelo://app?vid=97b13862-64cd-49d1-b4f1-989a03a88f74","ios":"levelo://app?vid=97b13862-64cd-49d1-b4f1-989a03a88f74"},"vehicle_type_id":"4","last_reported":1742764044,"current_range_meters":8000,"station_id":"ce4bhg12rcd13ifvqf80","pricing_plan_id":"cebpf4jnsgd1na2vs0mg"},{"bike_id":"dded0294-32f1-470c-8a38-f64890dd987e","system_id":"levelo_inurba_marseille","lat":43.26202,"lon":5.3793,"is_reserved":false,"is_disabled":false,"rental_uris":{"android":"levelo://app?vid=dded0294-32f1-470c-8a38-f64890dd987e","ios":"levelo://app?vid=dded0294-32f1-470c-8a38-f64890dd987e"},"vehicle_type_id":"4","last_reported":1742764044,"current_range_meters":8400,"station_id":"ce4bhjp2rcd13ifvqg90","pricing_plan_id":"cebpf4jnsgd1na2vs0mg"},{"bike_id":"e0b04000-368b-457e-a37d-61db34c47a62","system_id":"levelo_inurba_marseille","lat":43.30308,"lon":5.36876,"is_reserved":false,"is_disabled":false,"rental_uris":{"android":"levelo://app?vid=e0b04000-368b-457e-a37d-61db34c47a62","ios":"levelo://app?vid=e0b04000-368b-457e-a37d-61db34c47a62"},"vehicle_type_id":"4","last_reported":1742764044,"current_range_meters":8400,"station_id":"ce4bgqh2rcd13ifvqc5g","pricing_plan_id":"cebpf4jnsgd1na2vs0mg"},{"bike_id":"75239504-6411-4c5a-918c-ff12c7d01c06","system_id":"levelo_inurba_marseille","lat":43.27828,"lon":5.40707,"is_reserved":false,"is_disabled":false,"rental_uris":{"android":"levelo://app?vid=75239504-6411-4c5a-918c-ff12c7d01c06","ios":"levelo://app?vid=75239504-6411-4c5a-918c-ff12c7d01c06"},"vehicle_type_id":"4","last_reported":1742764044,"current_range_meters":8400,"station_id":"ce4bhnh2rcd13ifvqgtg","pricing_plan_id":"cebpf4jnsgd1na2vs0mg"},{"bike_id":"2032e81a-8d24-4036-9cc6-bf67698b8322","system_id":"levelo_inurba_marseille","lat":43.24167,"lon":5.39735,"is_reserved":false,"is_disabled":false,"rental_uris":{"android":"levelo://app?vid=2032e81a-8d24-4036-9cc6-bf67698b8322","ios":"levelo://app?vid=2032e81a-8d24-4036-9cc6-bf67698b8322"},"vehicle_type_id":"4","last_reported":1742764044,"current_range_meters":8400,"station_id":"ce4bhn12rcd13ifvqgpg","pricing_plan_id":"cebpf4jnsgd1na2vs0mg"},{"bike_id":"47da6e73-560d-4cd2-b77a-557b0123e6c0","system_id":"levelo_inurba_marseille","lat":43.27812,"lon":5.40702,"is_reserved":false,"is_disabled":false,"rental_uris":{"android":"levelo://app?vid=47da6e73-560d-4cd2-b77a-557b0123e6c0","ios":"levelo://app?vid=47da6e73-560d-4cd2-b77a-557b0123e6c0"},"vehicle_type_id":"4","last_reported":1742764044,"current_range_meters":8400,"station_id":"ce4bhnh2rcd13ifvqgtg","pricing_plan_id":"cebpf4jnsgd1na2vs0mg"},{"bike_id":"52390db3-1658-4d95-8474-5735938b9643","system_id":"levelo_inurba_marseille","lat":43.26244,"lon":5.4045,"is_reserved":false,"is_disabled":false,"rental_uris":{"android":"levelo://app?vid=52390db3-1658-4d95-8474-5735938b9643","ios":"levelo://app?vid=52390db3-1658-4d95-8474-5735938b9643"},"vehicle_type_id":"4","last_reported":1742764044,"current_range_meters":8400,"station_id":"ce4bhmh2rcd13ifvqgmg","pricing_plan_id":"cebpf4jnsgd1na2vs0mg"},{"bike_id":"3a25e817-4bf9-4a63-915a-693e0c6f3e73","system_id":"levelo_inurba_marseille","lat":43.30925,"lon":5.40139,"is_reserved":false,"is_disabled":false,"rental_uris":{"android":"levelo://app?vid=3a25e817-4bf9-4a63-915a-693e0c6f3e73","ios":"levelo://app?vid=3a25e817-4bf9-4a63-915a-693e0c6f3e73"},"vehicle_type_id":"4","last_reported":1742764044,"current_range_meters":8800,"station_id":"ce4bgvp2rcd13ifvqct0","pricing_plan_id":"cebpf4jnsgd1na2vs0mg"},{"bike_id":"cd383773-4b9e-47b8-a0dc-4b9211546aa7","system_id":"levelo_inurba_marseille","lat":43.33582,"lon":5.41068,"is_reserved":false,"is_disabled":false,"rental_uris":{"android":"levelo://app?vid=cd383773-4b9e-47b8-a0dc-4b9211546aa7","ios":"levelo://app?vid=cd383773-4b9e-47b8-a0dc-4b9211546aa7"},"vehicle_type_id":"4","last_reported":1742764044,"current_range_meters":8800,"station_id":"ce4bhqh2rcd13ifvqhmg","pricing_plan_id":"cebpf4jnsgd1na2vs0mg"},{"bike_id":"2fd4d927-0f70-4f4e-9269-8cd3b232bcd8","system_id":"levelo_inurba_marseille","lat":43.2597,"lon":5.40909,"is_reserved":false,"is_disabled":false,"rental_uris":{"android":"levelo://app?vid=2fd4d927-0f70-4f4e-9269-8cd3b232bcd8","ios":"levelo://app?vid=2fd4d927-0f70-4f4e-9269-8cd3b232bcd8"},"vehicle_type_id":"4","last_reported":1742764044,"current_range_meters":8800,"station_id":"ce4bhm92rcd13ifvqglg","pricing_plan_id":"cebpf4jnsgd1na2vs0mg"},{"bike_id":"466b52b1-619d-4757-a4a2-7dbcc5ac0e91","system_id":"levelo_inurba_marseille","lat":43.303802,"lon":5.424925,"is_reserved":false,"is_disabled":false,"rental_uris":{"android":"levelo://app?vid=466b52b1-619d-4757-a4a2-7dbcc5ac0e91","ios":"levelo://app?vid=466b52b1-619d-4757-a4a2-7dbcc5ac0e91"},"vehicle_type_id":"4","last_reported":1742764044,"current_range_meters":8800,"station_id":"ce4bhoh2rcd13ifvqh6g","pricing_plan_id":"cebpf4jnsgd1na2vs0mg"},{"bike_id":"ca7ca978-1fef-4a0e-9aa2-95e430214d5b","system_id":"levelo_inurba_marseille","lat":43.24162,"lon":5.36414,"is_reserved":false,"is_disabled":false,"rental_uris":{"android":"levelo://app?vid=ca7ca978-1fef-4a0e-9aa2-95e430214d5b","ios":"levelo://app?vid=ca7ca978-1fef-4a0e-9aa2-95e430214d5b"},"vehicle_type_id":"4","last_reported":1742764044,"current_range_meters":8800,"station_id":"cpo36qri1sfpv3e86is0","pricing_plan_id":"cebpf4jnsgd1na2vs0mg"},{"bike_id":"3bb33489-a82f-4739-bc09-2fe3082e2e8c","system_id":"levelo_inurba_marseille","lat":43.30798,"lon":5.37343,"is_reserved":false,"is_disabled":false,"rental_uris":{"android":"levelo://app?vid=3bb33489-a82f-4739-bc09-2fe3082e2e8c","ios":"levelo://app?vid=3bb33489-a82f-4739-bc09-2fe3082e2e8c"},"vehicle_type_id":"4","last_reported":1742764044,"current_range_meters":8800,"station_id":"","pricing_plan_id":"cebpf4jnsgd1na2vs0mg"},{"bike_id":"80bd481f-76dd-47f5-8a33-ce4926e26fff","system_id":"levelo_inurba_marseille","lat":43.26204,"lon":5.37456,"is_reserved":false,"is_disabled":true,"rental_uris":{"android":"levelo://app?vid=80bd481f-76dd-47f5-8a33-ce4926e26fff","ios":"levelo://app?vid=80bd481f-76dd-47f5-8a33-ce4926e26fff"},"vehicle_type_id":"4","last_reported":1742764044,"current_range_meters":8800,"station_id":"ce4bhgp2rcd13ifvqfc0","pricing_plan_id":"cebpf4jnsgd1na2vs0mg"},{"bike_id":"90d741ab-af2e-4b2c-b7ab-5eaa4381d69c","system_id":"levelo_inurba_marseille","lat":43.29795,"lon":5.39332,"is_reserved":false,"is_disabled":false,"rental_uris":{"android":"levelo://app?vid=90d741ab-af2e-4b2c-b7ab-5eaa4381d69c","ios":"levelo://app?vid=90d741ab-af2e-4b2c-b7ab-5eaa4381d69c"},"vehicle_type_id":"4","last_reported":1742764044,"current_range_meters":9200,"station_id":"chh1huq6cuj3fo74tm60","pricing_plan_id":"cebpf4jnsgd1na2vs0mg"},{"bike_id":"cefa8367-d268-4736-bbb1-17473695ab1f","system_id":"levelo_inurba_marseille","lat":43.31724,"lon":5.40443,"is_reserved":false,"is_disabled":false,"rental_uris":{"android":"levelo://app?vid=cefa8367-d268-4736-bbb1-17473695ab1f","ios":"levelo://app?vid=cefa8367-d268-4736-bbb1-17473695ab1f"},"vehicle_type_id":"4","last_reported":1742764044,"current_range_meters":9200,"station_id":"ce4bh012rcd13ifvqd00","pricing_plan_id":"cebpf4jnsgd1na2vs0mg"},{"bike_id":"085ef65d-1c70-4528-b12f-795338c2d1da","system_id":"levelo_inurba_marseille","lat":43.32006,"lon":5.38119,"is_reserved":false,"is_disabled":false,"rental_uris":{"android":"levelo://app?vid=085ef65d-1c70-4528-b12f-795338c2d1da","ios":"levelo://app?vid=085ef65d-1c70-4528-b12f-795338c2d1da"},"vehicle_type_id":"4","last_reported":1742764044,"current_range_meters":9200,"station_id":"ce4bhr12rcd13ifvqhpg","pricing_plan_id":"cebpf4jnsgd1na2vs0mg"},{"bike_id":"e286c3ad-5aad-4e60-be2d-b5f6cad4b6bc","system_id":"levelo_inurba_marseille","lat":43.293026,"lon":5.374473,"is_reserved":false,"is_disabled":true,"rental_uris":{"android":"levelo://app?vid=e286c3ad-5aad-4e60-be2d-b5f6cad4b6bc","ios":"levelo://app?vid=e286c3ad-5aad-4e60-be2d-b5f6cad4b6bc"},"vehicle_type_id":"4","last_reported":1742764044,"current_range_meters":9200,"station_id":"ce4bgi12rcd13ifvqb70","pricing_plan_id":"cebpf4jnsgd1na2vs0mg"},{"bike_id":"751ff1ed-b498-4578-9bd4-943bf6c9d8eb","system_id":"levelo_inurba_marseille","lat":43.23219,"lon":5.35496,"is_reserved":false,"is_disabled":false,"rental_uris":{"android":"levelo://app?vid=751ff1ed-b498-4578-9bd4-943bf6c9d8eb","ios":"levelo://app?vid=751ff1ed-b498-4578-9bd4-943bf6c9d8eb"},"vehicle_type_id":"4","last_reported":1742764044,"current_range_meters":9200,"station_id":"ce4bhu92rcd13ifvqi70","pricing_plan_id":"cebpf4jnsgd1na2vs0mg"},{"bike_id":"f6c056a6-2322-4c01-af0a-8f6649999ef0","system_id":"levelo_inurba_marseille","lat":43.2757,"lon":5.38425,"is_reserved":false,"is_disabled":false,"rental_uris":{"android":"levelo://app?vid=f6c056a6-2322-4c01-af0a-8f6649999ef0","ios":"levelo://app?vid=f6c056a6-2322-4c01-af0a-8f6649999ef0"},"vehicle_type_id":"4","last_reported":1742764044,"current_range_meters":9200,"station_id":"ce4bhh92rcd13ifvqfi0","pricing_plan_id":"cebpf4jnsgd1na2vs0mg"},{"bike_id":"db96ab39-a5ac-46c4-b7dc-2e16e3f1c6e7","system_id":"levelo_inurba_marseille","lat":43.28503,"lon":5.35604,"is_reserved":false,"is_disabled":false,"rental_uris":{"android":"levelo://app?vid=db96ab39-a5ac-46c4-b7dc-2e16e3f1c6e7","ios":"levelo://app?vid=db96ab39-a5ac-46c4-b7dc-2e16e3f1c6e7"},"vehicle_type_id":"4","last_reported":1742764044,"current_range_meters":9200,"station_id":"","pricing_plan_id":"cebpf4jnsgd1na2vs0mg"},{"bike_id":"bdd85a69-2526-423f-83bc-580097d3e5b5","system_id":"levelo_inurba_marseille","lat":43.23054,"lon":5.35497,"is_reserved":false,"is_disabled":false,"rental_uris":{"android":"levelo://app?vid=bdd85a69-2526-423f-83bc-580097d3e5b5","ios":"levelo://app?vid=bdd85a69-2526-423f-83bc-580097d3e5b5"},"vehicle_type_id":"4","last_reported":1742764044,"current_range_meters":9200,"station_id":"cpo3342slgdg3j2ifvpg","pricing_plan_id":"cebpf4jnsgd1na2vs0mg"},{"bike_id":"d954b141-3cee-4de0-9c29-d5babd11cd82","system_id":"levelo_inurba_marseille","lat":43.25105,"lon":5.39506,"is_reserved":false,"is_disabled":false,"rental_uris":{"android":"levelo://app?vid=d954b141-3cee-4de0-9c29-d5babd11cd82","ios":"levelo://app?vid=d954b141-3cee-4de0-9c29-d5babd11cd82"},"vehicle_type_id":"4","last_reported":1742764044,"current_range_meters":9200,"station_id":"ce4bhm12rcd13ifvqgkg","pricing_plan_id":"cebpf4jnsgd1na2vs0mg"},{"bike_id":"801ac92f-133f-417e-90ff-e9cdca3569b0","system_id":"levelo_inurba_marseille","lat":43.24102,"lon":5.37747,"is_reserved":false,"is_disabled":false,"rental_uris":{"android":"levelo://app?vid=801ac92f-133f-417e-90ff-e9cdca3569b0","ios":"levelo://app?vid=801ac92f-133f-417e-90ff-e9cdca3569b0"},"vehicle_type_id":"4","last_reported":1742764044,"current_range_meters":9200,"station_id":"ce4bhnp2rcd13ifvqgvg","pricing_plan_id":"cebpf4jnsgd1na2vs0mg"},{"bike_id":"32472832-a93e-47a2-925d-c37093eefcdd","system_id":"levelo_inurba_marseille","lat":43.24063,"lon":5.37762,"is_reserved":false,"is_disabled":false,"rental_uris":{"android":"levelo://app?vid=32472832-a93e-47a2-925d-c37093eefcdd","ios":"levelo://app?vid=32472832-a93e-47a2-925d-c37093eefcdd"},"vehicle_type_id":"4","last_reported":1742764044,"current_range_meters":9200,"station_id":"ce4bhnp2rcd13ifvqgvg","pricing_plan_id":"cebpf4jnsgd1na2vs0mg"},{"bike_id":"edacdc83-363a-4270-9a6d-6584be10301e","system_id":"levelo_inurba_marseille","lat":43.25588,"lon":5.38239,"is_reserved":false,"is_disabled":true,"rental_uris":{"android":"levelo://app?vid=edacdc83-363a-4270-9a6d-6584be10301e","ios":"levelo://app?vid=edacdc83-363a-4270-9a6d-6584be10301e"},"vehicle_type_id":"4","last_reported":1742764044,"current_range_meters":9600,"station_id":"ce4bhih2rcd13ifvqfs0","pricing_plan_id":"cebpf4jnsgd1na2vs0mg"},{"bike_id":"a8054457-ef9c-4293-879f-1eab83000740","system_id":"levelo_inurba_marseille","lat":43.24168,"lon":5.36399,"is_reserved":false,"is_disabled":false,"rental_uris":{"android":"levelo://app?vid=a8054457-ef9c-4293-879f-1eab83000740","ios":"levelo://app?vid=a8054457-ef9c-4293-879f-1eab83000740"},"vehicle_type_id":"4","last_reported":1742764044,"current_range_meters":9600,"station_id":"cpo36qri1sfpv3e86is0","pricing_plan_id":"cebpf4jnsgd1na2vs0mg"},{"bike_id":"5932f5b5-0803-41be-ad57-2c62bb691349","system_id":"levelo_inurba_marseille","lat":43.246706,"lon":5.381684,"is_reserved":false,"is_disabled":false,"rental_uris":{"android":"levelo://app?vid=5932f5b5-0803-41be-ad57-2c62bb691349","ios":"levelo://app?vid=5932f5b5-0803-41be-ad57-2c62bb691349"},"vehicle_type_id":"4","last_reported":1742764044,"current_range_meters":9600,"station_id":"ce4bhih2rcd13ifvqfr0","pricing_plan_id":"cebpf4jnsgd1na2vs0mg"},{"bike_id":"8baa2ca8-9eb2-4942-ba47-ed90d166dad3","system_id":"levelo_inurba_marseille","lat":43.25374,"lon":5.40161,"is_reserved":false,"is_disabled":true,"rental_uris":{"android":"levelo://app?vid=8baa2ca8-9eb2-4942-ba47-ed90d166dad3","ios":"levelo://app?vid=8baa2ca8-9eb2-4942-ba47-ed90d166dad3"},"vehicle_type_id":"4","last_reported":1742764044,"current_range_meters":9600,"station_id":"","pricing_plan_id":"cebpf4jnsgd1na2vs0mg"},{"bike_id":"a439ff51-c110-4ed0-94d5-47739707a3bd","system_id":"levelo_inurba_marseille","lat":43.30136,"lon":5.37386,"is_reserved":false,"is_disabled":false,"rental_uris":{"android":"levelo://app?vid=a439ff51-c110-4ed0-94d5-47739707a3bd","ios":"levelo://app?vid=a439ff51-c110-4ed0-94d5-47739707a3bd"},"vehicle_type_id":"4","last_reported":1742764044,"current_range_meters":9600,"station_id":"ce4bgs92rcd13ifvqcc0","pricing_plan_id":"cebpf4jnsgd1na2vs0mg"},{"bike_id":"07541760-82c4-4d38-b58c-85ffff07e965","system_id":"levelo_inurba_marseille","lat":43.23953,"lon":5.36636,"is_reserved":false,"is_disabled":false,"rental_uris":{"android":"levelo://app?vid=07541760-82c4-4d38-b58c-85ffff07e965","ios":"levelo://app?vid=07541760-82c4-4d38-b58c-85ffff07e965"},"vehicle_type_id":"4","last_reported":1742764044,"current_range_meters":9600,"station_id":"ce4bhi12rcd13ifvqfp0","pricing_plan_id":"cebpf4jnsgd1na2vs0mg"},{"bike_id":"d19336df-f78d-467c-b46d-9799f2f84ee2","system_id":"levelo_inurba_marseille","lat":43.24684,"lon":5.38154,"is_reserved":false,"is_disabled":false,"rental_uris":{"android":"levelo://app?vid=d19336df-f78d-467c-b46d-9799f2f84ee2","ios":"levelo://app?vid=d19336df-f78d-467c-b46d-9799f2f84ee2"},"vehicle_type_id":"4","last_reported":1742764044,"current_range_meters":9600,"station_id":"ce4bhih2rcd13ifvqfr0","pricing_plan_id":"cebpf4jnsgd1na2vs0mg"},{"bike_id":"08fcbc8a-2ec7-4352-afeb-2a43a18f8a05","system_id":"levelo_inurba_marseille","lat":43.27604,"lon":5.36116,"is_reserved":false,"is_disabled":true,"rental_uris":{"android":"levelo://app?vid=08fcbc8a-2ec7-4352-afeb-2a43a18f8a05","ios":"levelo://app?vid=08fcbc8a-2ec7-4352-afeb-2a43a18f8a05"},"vehicle_type_id":"4","last_reported":1742764044,"current_range_meters":9600,"station_id":"ce4bgj92rcd13ifvqbe0","pricing_plan_id":"cebpf4jnsgd1na2vs0mg"},{"bike_id":"4c8a4056-48ac-48f3-aef0-9ae5cc16b399","system_id":"levelo_inurba_marseille","lat":43.27813,"lon":5.40708,"is_reserved":false,"is_disabled":false,"rental_uris":{"android":"levelo://app?vid=4c8a4056-48ac-48f3-aef0-9ae5cc16b399","ios":"levelo://app?vid=4c8a4056-48ac-48f3-aef0-9ae5cc16b399"},"vehicle_type_id":"4","last_reported":1742764044,"current_range_meters":9600,"station_id":"ce4bhnh2rcd13ifvqgtg","pricing_plan_id":"cebpf4jnsgd1na2vs0mg"},{"bike_id":"38d3b5e3-d4f1-42f7-a341-7b747360e486","system_id":"levelo_inurba_marseille","lat":43.30599,"lon":5.3723,"is_reserved":false,"is_disabled":false,"rental_uris":{"android":"levelo://app?vid=38d3b5e3-d4f1-42f7-a341-7b747360e486","ios":"levelo://app?vid=38d3b5e3-d4f1-42f7-a341-7b747360e486"},"vehicle_type_id":"4","last_reported":1742764044,"current_range_meters":9600,"station_id":"ce4bgqh2rcd13ifvqc4g","pricing_plan_id":"cebpf4jnsgd1na2vs0mg"},{"bike_id":"12f0fd96-1943-423b-9d91-d4222abe9e05","system_id":"levelo_inurba_marseille","lat":43.3089,"lon":5.37199,"is_reserved":false,"is_disabled":false,"rental_uris":{"android":"levelo://app?vid=12f0fd96-1943-423b-9d91-d4222abe9e05","ios":"levelo://app?vid=12f0fd96-1943-423b-9d91-d4222abe9e05"},"vehicle_type_id":"4","last_reported":1742764044,"current_range_meters":9600,"station_id":"ce4bguh2rcd13ifvqckg","pricing_plan_id":"cebpf4jnsgd1na2vs0mg"},{"bike_id":"196e5527-f8ec-47c9-88d8-c0c49611574a","system_id":"levelo_inurba_marseille","lat":43.23057,"lon":5.35486,"is_reserved":false,"is_disabled":false,"rental_uris":{"android":"levelo://app?vid=196e5527-f8ec-47c9-88d8-c0c49611574a","ios":"levelo://app?vid=196e5527-f8ec-47c9-88d8-c0c49611574a"},"vehicle_type_id":"4","last_reported":1742764044,"current_range_meters":9600,"station_id":"cpo3342slgdg3j2ifvpg","pricing_plan_id":"cebpf4jnsgd1na2vs0mg"},{"bike_id":"3186ae2a-056b-4e99-878b-faf4d473860b","system_id":"levelo_inurba_marseille","lat":43.30882,"lon":5.39655,"is_reserved":false,"is_disabled":false,"rental_uris":{"android":"levelo://app?vid=3186ae2a-056b-4e99-878b-faf4d473860b","ios":"levelo://app?vid=3186ae2a-056b-4e99-878b-faf4d473860b"},"vehicle_type_id":"4","last_reported":1742764044,"current_range_meters":10000,"station_id":"ce4bh012rcd13ifvqcv0","pricing_plan_id":"cebpf4jnsgd1na2vs0mg"},{"bike_id":"9f39ed43-46d0-459b-9c1a-8d899abe99b7","system_id":"levelo_inurba_marseille","lat":43.33605,"lon":5.41035,"is_reserved":false,"is_disabled":false,"rental_uris":{"android":"levelo://app?vid=9f39ed43-46d0-459b-9c1a-8d899abe99b7","ios":"levelo://app?vid=9f39ed43-46d0-459b-9c1a-8d899abe99b7"},"vehicle_type_id":"4","last_reported":1742764044,"current_range_meters":10000,"station_id":"ce4bhqh2rcd13ifvqhmg","pricing_plan_id":"cebpf4jnsgd1na2vs0mg"},{"bike_id":"769a31f7-6969-49ba-8b94-76d2acb92451","system_id":"levelo_inurba_marseille","lat":43.28454,"lon":5.35896,"is_reserved":false,"is_disabled":false,"rental_uris":{"android":"levelo://app?vid=769a31f7-6969-49ba-8b94-76d2acb92451","ios":"levelo://app?vid=769a31f7-6969-49ba-8b94-76d2acb92451"},"vehicle_type_id":"4","last_reported":1742764044,"current_range_meters":10000,"station_id":"ce4bhah2rcd13ifvqei0","pricing_plan_id":"cebpf4jnsgd1na2vs0mg"},{"bike_id":"8ac76298-3375-4b96-8a90-9315b1510fa4","system_id":"levelo_inurba_marseille","lat":43.27809,"lon":5.40719,"is_reserved":false,"is_disabled":true,"rental_uris":{"android":"levelo://app?vid=8ac76298-3375-4b96-8a90-9315b1510fa4","ios":"levelo://app?vid=8ac76298-3375-4b96-8a90-9315b1510fa4"},"vehicle_type_id":"4","last_reported":1742764044,"current_range_meters":10000,"station_id":"ce4bhnh2rcd13ifvqgtg","pricing_plan_id":"cebpf4jnsgd1na2vs0mg"},{"bike_id":"25a0ef6e-c80f-4158-b343-cd8c322162eb","system_id":"levelo_inurba_marseille","lat":43.29567,"lon":5.39965,"is_reserved":false,"is_disabled":true,"rental_uris":{"android":"levelo://app?vid=25a0ef6e-c80f-4158-b343-cd8c322162eb","ios":"levelo://app?vid=25a0ef6e-c80f-4158-b343-cd8c322162eb"},"vehicle_type_id":"4","last_reported":1742764044,"current_range_meters":10000,"station_id":"ce4bh312rcd13ifvqdj0","pricing_plan_id":"cebpf4jnsgd1na2vs0mg"},{"bike_id":"34ef24b7-c50d-49a2-b8c0-fe5632618554","system_id":"levelo_inurba_marseille","lat":43.2539,"lon":5.41861,"is_reserved":false,"is_disabled":false,"rental_uris":{"android":"levelo://app?vid=34ef24b7-c50d-49a2-b8c0-fe5632618554","ios":"levelo://app?vid=34ef24b7-c50d-49a2-b8c0-fe5632618554"},"vehicle_type_id":"4","last_reported":1742764044,"current_range_meters":10800,"station_id":"","pricing_plan_id":"cebpf4jnsgd1na2vs0mg"},{"bike_id":"e2b68c00-ea55-4d0f-ae98-6403b351276c","system_id":"levelo_inurba_marseille","lat":43.23031,"lon":5.35502,"is_reserved":false,"is_disabled":false,"rental_uris":{"android":"levelo://app?vid=e2b68c00-ea55-4d0f-ae98-6403b351276c","ios":"levelo://app?vid=e2b68c00-ea55-4d0f-ae98-6403b351276c"},"vehicle_type_id":"4","last_reported":1742764044,"current_range_meters":10800,"station_id":"cpo3342slgdg3j2ifvpg","pricing_plan_id":"cebpf4jnsgd1na2vs0mg"},{"bike_id":"2c23e571-6777-4280-9352-11236b35cc78","system_id":"levelo_inurba_marseille","lat":43.2509,"lon":5.39508,"is_reserved":false,"is_disabled":false,"rental_uris":{"android":"levelo://app?vid=2c23e571-6777-4280-9352-11236b35cc78","ios":"levelo://app?vid=2c23e571-6777-4280-9352-11236b35cc78"},"vehicle_type_id":"4","last_reported":1742764044,"current_range_meters":10800,"station_id":"ce4bhm12rcd13ifvqgkg","pricing_plan_id":"cebpf4jnsgd1na2vs0mg"},{"bike_id":"17238c44-02e8-4ba3-abe3-5ae6a9cab49f","system_id":"levelo_inurba_marseille","lat":43.31757,"lon":5.39023,"is_reserved":false,"is_disabled":true,"rental_uris":{"android":"levelo://app?vid=17238c44-02e8-4ba3-abe3-5ae6a9cab49f","ios":"levelo://app?vid=17238c44-02e8-4ba3-abe3-5ae6a9cab49f"},"vehicle_type_id":"4","last_reported":1742764044,"current_range_meters":10800,"station_id":"ce4bhqp2rcd13ifvqhng","pricing_plan_id":"cebpf4jnsgd1na2vs0mg"},{"bike_id":"60bc5ef2-d120-4be4-8b53-10f64fb77c9a","system_id":"levelo_inurba_marseille","lat":43.26564,"lon":5.39036,"is_reserved":false,"is_disabled":false,"rental_uris":{"android":"levelo://app?vid=60bc5ef2-d120-4be4-8b53-10f64fb77c9a","ios":"levelo://app?vid=60bc5ef2-d120-4be4-8b53-10f64fb77c9a"},"vehicle_type_id":"4","last_reported":1742764044,"current_range_meters":10800,"station_id":"ce4bhe12rcd13ifvqf30","pricing_plan_id":"cebpf4jnsgd1na2vs0mg"},{"bike_id":"4baf8c5d-e0fe-4a6c-97de-a71e960c5338","system_id":"levelo_inurba_marseille","lat":43.24161,"lon":5.36404,"is_reserved":false,"is_disabled":false,"rental_uris":{"android":"levelo://app?vid=4baf8c5d-e0fe-4a6c-97de-a71e960c5338","ios":"levelo://app?vid=4baf8c5d-e0fe-4a6c-97de-a71e960c5338"},"vehicle_type_id":"4","last_reported":1742764044,"current_range_meters":10800,"station_id":"cpo36qri1sfpv3e86is0","pricing_plan_id":"cebpf4jnsgd1na2vs0mg"},{"bike_id":"901ad870-67db-4efd-a3cc-2d5ce9510114","system_id":"levelo_inurba_marseille","lat":43.26794,"lon":5.39422,"is_reserved":false,"is_disabled":false,"rental_uris":{"android":"levelo://app?vid=901ad870-67db-4efd-a3cc-2d5ce9510114","ios":"levelo://app?vid=901ad870-67db-4efd-a3cc-2d5ce9510114"},"vehicle_type_id":"4","last_reported":1742764044,"current_range_meters":10800,"station_id":"ce4bhh12rcd13ifvqfg0","pricing_plan_id":"cebpf4jnsgd1na2vs0mg"},{"bike_id":"daf705b5-817b-4bbc-bd5a-5101c6aa000f","system_id":"levelo_inurba_marseille","lat":43.27804,"lon":5.40709,"is_reserved":false,"is_disabled":true,"rental_uris":{"android":"levelo://app?vid=daf705b5-817b-4bbc-bd5a-5101c6aa000f","ios":"levelo://app?vid=daf705b5-817b-4bbc-bd5a-5101c6aa000f"},"vehicle_type_id":"4","last_reported":1742764044,"current_range_meters":10800,"station_id":"ce4bhnh2rcd13ifvqgtg","pricing_plan_id":"cebpf4jnsgd1na2vs0mg"},{"bike_id":"ad233241-3078-4dca-86c6-f67c46ca86d5","system_id":"levelo_inurba_marseille","lat":43.31057,"lon":5.42448,"is_reserved":false,"is_disabled":false,"rental_uris":{"android":"levelo://app?vid=ad233241-3078-4dca-86c6-f67c46ca86d5","ios":"levelo://app?vid=ad233241-3078-4dca-86c6-f67c46ca86d5"},"vehicle_type_id":"4","last_reported":1742764044,"current_range_meters":11200,"station_id":"ce4bhp92rcd13ifvqhag","pricing_plan_id":"cebpf4jnsgd1na2vs0mg"},{"bike_id":"8d8f7989-ea5c-4906-9a7d-f53aba0d5c3b","system_id":"levelo_inurba_marseille","lat":43.29874,"lon":5.38361,"is_reserved":false,"is_disabled":false,"rental_uris":{"android":"levelo://app?vid=8d8f7989-ea5c-4906-9a7d-f53aba0d5c3b","ios":"levelo://app?vid=8d8f7989-ea5c-4906-9a7d-f53aba0d5c3b"},"vehicle_type_id":"4","last_reported":1742764044,"current_range_meters":11200,"station_id":"","pricing_plan_id":"cebpf4jnsgd1na2vs0mg"},{"bike_id":"034718de-67f9-4b03-9b14-13a8fc4858ac","system_id":"levelo_inurba_marseille","lat":43.23193,"lon":5.35571,"is_reserved":false,"is_disabled":false,"rental_uris":{"android":"levelo://app?vid=034718de-67f9-4b03-9b14-13a8fc4858ac","ios":"levelo://app?vid=034718de-67f9-4b03-9b14-13a8fc4858ac"},"vehicle_type_id":"4","last_reported":1742764044,"current_range_meters":11200,"station_id":"ce4bhu92rcd13ifvqi70","pricing_plan_id":"cebpf4jnsgd1na2vs0mg"},{"bike_id":"282809df-29b4-411f-b718-322266f75751","system_id":"levelo_inurba_marseille","lat":43.23067,"lon":5.35484,"is_reserved":false,"is_disabled":false,"rental_uris":{"android":"levelo://app?vid=282809df-29b4-411f-b718-322266f75751","ios":"levelo://app?vid=282809df-29b4-411f-b718-322266f75751"},"vehicle_type_id":"4","last_reported":1742764044,"current_range_meters":11200,"station_id":"cpo3342slgdg3j2ifvpg","pricing_plan_id":"cebpf4jnsgd1na2vs0mg"},{"bike_id":"d1275e34-17bb-457a-bd2d-af7a33ad43ca","system_id":"levelo_inurba_marseille","lat":43.31477,"lon":5.37306,"is_reserved":false,"is_disabled":false,"rental_uris":{"android":"levelo://app?vid=d1275e34-17bb-457a-bd2d-af7a33ad43ca","ios":"levelo://app?vid=d1275e34-17bb-457a-bd2d-af7a33ad43ca"},"vehicle_type_id":"4","last_reported":1742764044,"current_range_meters":11600,"station_id":"ce4bgt12rcd13ifvqcd0","pricing_plan_id":"cebpf4jnsgd1na2vs0mg"},{"bike_id":"9bd66c75-2d6b-4709-91e0-c8130478cce4","system_id":"levelo_inurba_marseille","lat":43.2594,"lon":5.40896,"is_reserved":false,"is_disabled":false,"rental_uris":{"android":"levelo://app?vid=9bd66c75-2d6b-4709-91e0-c8130478cce4","ios":"levelo://app?vid=9bd66c75-2d6b-4709-91e0-c8130478cce4"},"vehicle_type_id":"4","last_reported":1742764044,"current_range_meters":11600,"station_id":"ce4bhm92rcd13ifvqglg","pricing_plan_id":"cebpf4jnsgd1na2vs0mg"},{"bike_id":"e77d191c-b6c2-4af6-8798-46f31e387227","system_id":"levelo_inurba_marseille","lat":43.30171,"lon":5.37396,"is_reserved":false,"is_disabled":false,"rental_uris":{"android":"levelo://app?vid=e77d191c-b6c2-4af6-8798-46f31e387227","ios":"levelo://app?vid=e77d191c-b6c2-4af6-8798-46f31e387227"},"vehicle_type_id":"4","last_reported":1742764044,"current_range_meters":11600,"station_id":"ce4bgs92rcd13ifvqcc0","pricing_plan_id":"cebpf4jnsgd1na2vs0mg"},{"bike_id":"81c28995-a624-4bc5-ad4b-6d333e9d549b","system_id":"levelo_inurba_marseille","lat":43.2467,"lon":5.38175,"is_reserved":false,"is_disabled":false,"rental_uris":{"android":"levelo://app?vid=81c28995-a624-4bc5-ad4b-6d333e9d549b","ios":"levelo://app?vid=81c28995-a624-4bc5-ad4b-6d333e9d549b"},"vehicle_type_id":"4","last_reported":1742764044,"current_range_meters":11600,"station_id":"ce4bhih2rcd13ifvqfr0","pricing_plan_id":"cebpf4jnsgd1na2vs0mg"},{"bike_id":"034ee108-51e6-457e-ac57-73b1ca0dac93","system_id":"levelo_inurba_marseille","lat":43.29257,"lon":5.38436,"is_reserved":false,"is_disabled":false,"rental_uris":{"android":"levelo://app?vid=034ee108-51e6-457e-ac57-73b1ca0dac93","ios":"levelo://app?vid=034ee108-51e6-457e-ac57-73b1ca0dac93"},"vehicle_type_id":"4","last_reported":1742764044,"current_range_meters":11600,"station_id":"ce4bh692rcd13ifvqea0","pricing_plan_id":"cebpf4jnsgd1na2vs0mg"},{"bike_id":"91f3c8f5-ddd3-4ffa-b335-17ae90565c41","system_id":"levelo_inurba_marseille","lat":43.28476,"lon":5.35869,"is_reserved":false,"is_disabled":false,"rental_uris":{"android":"levelo://app?vid=91f3c8f5-ddd3-4ffa-b335-17ae90565c41","ios":"levelo://app?vid=91f3c8f5-ddd3-4ffa-b335-17ae90565c41"},"vehicle_type_id":"4","last_reported":1742764044,"current_range_meters":11600,"station_id":"ce4bhah2rcd13ifvqei0","pricing_plan_id":"cebpf4jnsgd1na2vs0mg"},{"bike_id":"e550c819-1679-406b-a3b2-ca325b910ab7","system_id":"levelo_inurba_marseille","lat":43.29304,"lon":5.3717,"is_reserved":false,"is_disabled":false,"rental_uris":{"android":"levelo://app?vid=e550c819-1679-406b-a3b2-ca325b910ab7","ios":"levelo://app?vid=e550c819-1679-406b-a3b2-ca325b910ab7"},"vehicle_type_id":"4","last_reported":1742764044,"current_range_meters":11600,"station_id":"ce4bgh92rcd13ifvqb40","pricing_plan_id":"cebpf4jnsgd1na2vs0mg"},{"bike_id":"a8b3cb95-f059-47ac-b672-1c7197ca6c51","system_id":"levelo_inurba_marseille","lat":43.28148,"lon":5.42643,"is_reserved":false,"is_disabled":false,"rental_uris":{"android":"levelo://app?vid=a8b3cb95-f059-47ac-b672-1c7197ca6c51","ios":"levelo://app?vid=a8b3cb95-f059-47ac-b672-1c7197ca6c51"},"vehicle_type_id":"4","last_reported":1742764044,"current_range_meters":12000,"station_id":"ce4bhnh2rcd13ifvqgug","pricing_plan_id":"cebpf4jnsgd1na2vs0mg"},{"bike_id":"0aa1afa8-3f49-4b42-a4e1-059e7d4df059","system_id":"levelo_inurba_marseille","lat":43.27947,"lon":5.3872,"is_reserved":false,"is_disabled":false,"rental_uris":{"android":"levelo://app?vid=0aa1afa8-3f49-4b42-a4e1-059e7d4df059","ios":"levelo://app?vid=0aa1afa8-3f49-4b42-a4e1-059e7d4df059"},"vehicle_type_id":"4","last_reported":1742764044,"current_range_meters":12000,"station_id":"ce4bhg12rcd13ifvqf80","pricing_plan_id":"cebpf4jnsgd1na2vs0mg"},{"bike_id":"83749387-4504-4259-a6ca-3b74b7ae7717","system_id":"levelo_inurba_marseille","lat":43.2315,"lon":5.437,"is_reserved":false,"is_disabled":false,"rental_uris":{"android":"levelo://app?vid=83749387-4504-4259-a6ca-3b74b7ae7717","ios":"levelo://app?vid=83749387-4504-4259-a6ca-3b74b7ae7717"},"vehicle_type_id":"4","last_reported":1742764044,"current_range_meters":12000,"station_id":"ce4bhmp2rcd13ifvqgog","pricing_plan_id":"cebpf4jnsgd1na2vs0mg"},{"bike_id":"b4033be0-5b35-45ca-9979-c7890f6c888e","system_id":"levelo_inurba_marseille","lat":43.311677,"lon":5.387185,"is_reserved":false,"is_disabled":false,"rental_uris":{"android":"levelo://app?vid=b4033be0-5b35-45ca-9979-c7890f6c888e","ios":"levelo://app?vid=b4033be0-5b35-45ca-9979-c7890f6c888e"},"vehicle_type_id":"4","last_reported":1742764044,"current_range_meters":12000,"station_id":"ce4bh612rcd13ifvqe6g","pricing_plan_id":"cebpf4jnsgd1na2vs0mg"},{"bike_id":"794fb38b-1d82-45e0-bfb3-5bbb935a3b94","system_id":"levelo_inurba_marseille","lat":43.26222,"lon":5.37451,"is_reserved":false,"is_disabled":false,"rental_uris":{"android":"levelo://app?vid=794fb38b-1d82-45e0-bfb3-5bbb935a3b94","ios":"levelo://app?vid=794fb38b-1d82-45e0-bfb3-5bbb935a3b94"},"vehicle_type_id":"4","last_reported":1742764044,"current_range_meters":12000,"station_id":"ce4bhgp2rcd13ifvqfc0","pricing_plan_id":"cebpf4jnsgd1na2vs0mg"},{"bike_id":"587c4b09-c6c3-4755-8011-d820e3904490","system_id":"levelo_inurba_marseille","lat":43.23956,"lon":5.36619,"is_reserved":false,"is_disabled":false,"rental_uris":{"android":"levelo://app?vid=587c4b09-c6c3-4755-8011-d820e3904490","ios":"levelo://app?vid=587c4b09-c6c3-4755-8011-d820e3904490"},"vehicle_type_id":"4","last_reported":1742764044,"current_range_meters":12000,"station_id":"ce4bhi12rcd13ifvqfp0","pricing_plan_id":"cebpf4jnsgd1na2vs0mg"},{"bike_id":"24b77e8f-4e9e-4342-9950-404af23a4ef7","system_id":"levelo_inurba_marseille","lat":43.23956,"lon":5.36631,"is_reserved":false,"is_disabled":false,"rental_uris":{"android":"levelo://app?vid=24b77e8f-4e9e-4342-9950-404af23a4ef7","ios":"levelo://app?vid=24b77e8f-4e9e-4342-9950-404af23a4ef7"},"vehicle_type_id":"4","last_reported":1742764044,"current_range_meters":12400,"station_id":"ce4bhi12rcd13ifvqfp0","pricing_plan_id":"cebpf4jnsgd1na2vs0mg"},{"bike_id":"73f24004-486a-42ce-8b4c-437345158989","system_id":"levelo_inurba_marseille","lat":43.2591,"lon":5.40949,"is_reserved":false,"is_disabled":false,"rental_uris":{"android":"levelo://app?vid=73f24004-486a-42ce-8b4c-437345158989","ios":"levelo://app?vid=73f24004-486a-42ce-8b4c-437345158989"},"vehicle_type_id":"4","last_reported":1742764044,"current_range_meters":12400,"station_id":"ce4bhm92rcd13ifvqglg","pricing_plan_id":"cebpf4jnsgd1na2vs0mg"},{"bike_id":"362ce256-d873-44d5-8d0c-8eb3060da6b1","system_id":"levelo_inurba_marseille","lat":43.28159,"lon":5.42633,"is_reserved":false,"is_disabled":false,"rental_uris":{"android":"levelo://app?vid=362ce256-d873-44d5-8d0c-8eb3060da6b1","ios":"levelo://app?vid=362ce256-d873-44d5-8d0c-8eb3060da6b1"},"vehicle_type_id":"4","last_reported":1742764044,"current_range_meters":12400,"station_id":"ce4bhnh2rcd13ifvqgug","pricing_plan_id":"cebpf4jnsgd1na2vs0mg"},{"bike_id":"eb4a2c41-628d-4b10-b766-2b8f69e0c0c0","system_id":"levelo_inurba_marseille","lat":43.309134,"lon":5.368472,"is_reserved":false,"is_disabled":false,"rental_uris":{"android":"levelo://app?vid=eb4a2c41-628d-4b10-b766-2b8f69e0c0c0","ios":"levelo://app?vid=eb4a2c41-628d-4b10-b766-2b8f69e0c0c0"},"vehicle_type_id":"4","last_reported":1742764044,"current_range_meters":12400,"station_id":"ce4bgn92rcd13ifvqbvg","pricing_plan_id":"cebpf4jnsgd1na2vs0mg"},{"bike_id":"75c4418e-12f5-45ee-8c1f-91dc5829f101","system_id":"levelo_inurba_marseille","lat":43.28449,"lon":5.35907,"is_reserved":false,"is_disabled":false,"rental_uris":{"android":"levelo://app?vid=75c4418e-12f5-45ee-8c1f-91dc5829f101","ios":"levelo://app?vid=75c4418e-12f5-45ee-8c1f-91dc5829f101"},"vehicle_type_id":"4","last_reported":1742764044,"current_range_meters":12400,"station_id":"ce4bhah2rcd13ifvqei0","pricing_plan_id":"cebpf4jnsgd1na2vs0mg"},{"bike_id":"190b2064-fd76-48bb-8245-b597993b1043","system_id":"levelo_inurba_marseille","lat":43.27847,"lon":5.40658,"is_reserved":false,"is_disabled":false,"rental_uris":{"android":"levelo://app?vid=190b2064-fd76-48bb-8245-b597993b1043","ios":"levelo://app?vid=190b2064-fd76-48bb-8245-b597993b1043"},"vehicle_type_id":"4","last_reported":1742764044,"current_range_meters":12400,"station_id":"","pricing_plan_id":"cebpf4jnsgd1na2vs0mg"},{"bike_id":"2ca0e00a-5797-4fdf-8ea8-686805ca80c9","system_id":"levelo_inurba_marseille","lat":43.30956,"lon":5.39035,"is_reserved":false,"is_disabled":true,"rental_uris":{"android":"levelo://app?vid=2ca0e00a-5797-4fdf-8ea8-686805ca80c9","ios":"levelo://app?vid=2ca0e00a-5797-4fdf-8ea8-686805ca80c9"},"vehicle_type_id":"4","last_reported":1742764044,"current_range_meters":12800,"station_id":"ce4bgup2rcd13ifvqco0","pricing_plan_id":"cebpf4jnsgd1na2vs0mg"},{"bike_id":"f52d578c-2e92-468c-8d0d-6b48faf8734d","system_id":"levelo_inurba_marseille","lat":43.29864,"lon":5.38914,"is_reserved":false,"is_disabled":true,"rental_uris":{"android":"levelo://app?vid=f52d578c-2e92-468c-8d0d-6b48faf8734d","ios":"levelo://app?vid=f52d578c-2e92-468c-8d0d-6b48faf8734d"},"vehicle_type_id":"4","last_reported":1742764044,"current_range_meters":12800,"station_id":"ce4bh392rcd13ifvqdl0","pricing_plan_id":"cebpf4jnsgd1na2vs0mg"},{"bike_id":"8aa0f255-e5e8-4267-9bb2-289375aacda0","system_id":"levelo_inurba_marseille","lat":43.30528,"lon":5.38432,"is_reserved":false,"is_disabled":false,"rental_uris":{"android":"levelo://app?vid=8aa0f255-e5e8-4267-9bb2-289375aacda0","ios":"levelo://app?vid=8aa0f255-e5e8-4267-9bb2-289375aacda0"},"vehicle_type_id":"4","last_reported":1742764044,"current_range_meters":12800,"station_id":"ce4bgg92rcd13ifvqb30","pricing_plan_id":"cebpf4jnsgd1na2vs0mg"},{"bike_id":"87e86a8c-06a5-4c7c-ad4c-f947c9935fa5","system_id":"levelo_inurba_marseille","lat":43.23187,"lon":5.39982,"is_reserved":false,"is_disabled":false,"rental_uris":{"android":"levelo://app?vid=87e86a8c-06a5-4c7c-ad4c-f947c9935fa5","ios":"levelo://app?vid=87e86a8c-06a5-4c7c-ad4c-f947c9935fa5"},"vehicle_type_id":"4","last_reported":1742764044,"current_range_meters":13600,"station_id":"ce4bhn12rcd13ifvqgqg","pricing_plan_id":"cebpf4jnsgd1na2vs0mg"},{"bike_id":"ccb7158d-a155-4eb7-8a07-bb189c222fc8","system_id":"levelo_inurba_marseille","lat":43.26493,"lon":5.39558,"is_reserved":false,"is_disabled":false,"rental_uris":{"android":"levelo://app?vid=ccb7158d-a155-4eb7-8a07-bb189c222fc8","ios":"levelo://app?vid=ccb7158d-a155-4eb7-8a07-bb189c222fc8"},"vehicle_type_id":"4","last_reported":1742764044,"current_range_meters":13600,"station_id":"ce4bhi12rcd13ifvqfq0","pricing_plan_id":"cebpf4jnsgd1na2vs0mg"},{"bike_id":"8db8e94c-5c15-452d-8525-723b319c3c7c","system_id":"levelo_inurba_marseille","lat":43.28871,"lon":5.39318,"is_reserved":false,"is_disabled":true,"rental_uris":{"android":"levelo://app?vid=8db8e94c-5c15-452d-8525-723b319c3c7c","ios":"levelo://app?vid=8db8e94c-5c15-452d-8525-723b319c3c7c"},"vehicle_type_id":"4","last_reported":1742764044,"current_range_meters":13600,"station_id":"ce4bh2p2rcd13ifvqdi0","pricing_plan_id":"cebpf4jnsgd1na2vs0mg"},{"bike_id":"d1f7ca60-4bb4-4dd9-9c90-e8069ceefa40","system_id":"levelo_inurba_marseille","lat":43.24142,"lon":5.36423,"is_reserved":false,"is_disabled":false,"rental_uris":{"android":"levelo://app?vid=d1f7ca60-4bb4-4dd9-9c90-e8069ceefa40","ios":"levelo://app?vid=d1f7ca60-4bb4-4dd9-9c90-e8069ceefa40"},"vehicle_type_id":"4","last_reported":1742764044,"current_range_meters":14000,"station_id":"cpo36qri1sfpv3e86is0","pricing_plan_id":"cebpf4jnsgd1na2vs0mg"},{"bike_id":"18e3bce1-32a6-4831-8871-ad0cdfc43d55","system_id":"levelo_inurba_marseille","lat":43.32381,"lon":5.36778,"is_reserved":false,"is_disabled":false,"rental_uris":{"android":"levelo://app?vid=18e3bce1-32a6-4831-8871-ad0cdfc43d55","ios":"levelo://app?vid=18e3bce1-32a6-4831-8871-ad0cdfc43d55"},"vehicle_type_id":"4","last_reported":1742764044,"current_range_meters":14000,"station_id":"ce4bhsh2rcd13ifvqi2g","pricing_plan_id":"cebpf4jnsgd1na2vs0mg"},{"bike_id":"76757220-d8a3-400d-93c0-947089c24c8c","system_id":"levelo_inurba_marseille","lat":43.29897,"lon":5.43662,"is_reserved":false,"is_disabled":false,"rental_uris":{"android":"levelo://app?vid=76757220-d8a3-400d-93c0-947089c24c8c","ios":"levelo://app?vid=76757220-d8a3-400d-93c0-947089c24c8c"},"vehicle_type_id":"4","last_reported":1742764044,"current_range_meters":14000,"station_id":"ce4bhpp2rcd13ifvqhfg","pricing_plan_id":"cebpf4jnsgd1na2vs0mg"},{"bike_id":"7ccc6f88-15f6-4164-8a55-2ac59656555b","system_id":"levelo_inurba_marseille","lat":43.31884,"lon":5.40724,"is_reserved":false,"is_disabled":false,"rental_uris":{"android":"levelo://app?vid=7ccc6f88-15f6-4164-8a55-2ac59656555b","ios":"levelo://app?vid=7ccc6f88-15f6-4164-8a55-2ac59656555b"},"vehicle_type_id":"4","last_reported":1742764044,"current_range_meters":14000,"station_id":"ce4bhq12rcd13ifvqhig","pricing_plan_id":"cebpf4jnsgd1na2vs0mg"},{"bike_id":"133d7a57-0c6d-42fa-aceb-40b187c49c9a","system_id":"levelo_inurba_marseille","lat":43.30931,"lon":5.4014,"is_reserved":false,"is_disabled":false,"rental_uris":{"android":"levelo://app?vid=133d7a57-0c6d-42fa-aceb-40b187c49c9a","ios":"levelo://app?vid=133d7a57-0c6d-42fa-aceb-40b187c49c9a"},"vehicle_type_id":"4","last_reported":1742764044,"current_range_meters":13600,"station_id":"ce4bgvp2rcd13ifvqct0","pricing_plan_id":"cebpf4jnsgd1na2vs0mg"},{"bike_id":"94fb8f40-edb7-4462-93df-4ab16a2dad2a","system_id":"levelo_inurba_marseille","lat":43.29585,"lon":5.381,"is_reserved":false,"is_disabled":false,"rental_uris":{"android":"levelo://app?vid=94fb8f40-edb7-4462-93df-4ab16a2dad2a","ios":"levelo://app?vid=94fb8f40-edb7-4462-93df-4ab16a2dad2a"},"vehicle_type_id":"4","last_reported":1742764044,"current_range_meters":14000,"station_id":"ce4bgl12rcd13ifvqbo0","pricing_plan_id":"cebpf4jnsgd1na2vs0mg"},{"bike_id":"3ea22581-9d15-4848-b0f8-c0f02e0d5298","system_id":"levelo_inurba_marseille","lat":43.31169,"lon":5.38737,"is_reserved":false,"is_disabled":false,"rental_uris":{"android":"levelo://app?vid=3ea22581-9d15-4848-b0f8-c0f02e0d5298","ios":"levelo://app?vid=3ea22581-9d15-4848-b0f8-c0f02e0d5298"},"vehicle_type_id":"4","last_reported":1742764044,"current_range_meters":14400,"station_id":"ce4bgv12rcd13ifvqcp0","pricing_plan_id":"cebpf4jnsgd1na2vs0mg"},{"bike_id":"6386ae5c-0f98-47e2-b568-67cc8387cc53","system_id":"levelo_inurba_marseille","lat":43.2985,"lon":5.37755,"is_reserved":false,"is_disabled":false,"rental_uris":{"android":"levelo://app?vid=6386ae5c-0f98-47e2-b568-67cc8387cc53","ios":"levelo://app?vid=6386ae5c-0f98-47e2-b568-67cc8387cc53"},"vehicle_type_id":"4","last_reported":1742764044,"current_range_meters":14400,"station_id":"","pricing_plan_id":"cebpf4jnsgd1na2vs0mg"},{"bike_id":"e784bcf0-e6f4-419c-acc0-929d2665a4b7","system_id":"levelo_inurba_marseille","lat":43.28152,"lon":5.42639,"is_reserved":false,"is_disabled":false,"rental_uris":{"android":"levelo://app?vid=e784bcf0-e6f4-419c-acc0-929d2665a4b7","ios":"levelo://app?vid=e784bcf0-e6f4-419c-acc0-929d2665a4b7"},"vehicle_type_id":"4","last_reported":1742764044,"current_range_meters":14400,"station_id":"ce4bhnh2rcd13ifvqgug","pricing_plan_id":"cebpf4jnsgd1na2vs0mg"},{"bike_id":"1997b10d-1d35-44d3-85c4-29c84df0623c","system_id":"levelo_inurba_marseille","lat":43.24065,"lon":5.37757,"is_reserved":false,"is_disabled":false,"rental_uris":{"android":"levelo://app?vid=1997b10d-1d35-44d3-85c4-29c84df0623c","ios":"levelo://app?vid=1997b10d-1d35-44d3-85c4-29c84df0623c"},"vehicle_type_id":"4","last_reported":1742764044,"current_range_meters":14400,"station_id":"ce4bhnp2rcd13ifvqgvg","pricing_plan_id":"cebpf4jnsgd1na2vs0mg"},{"bike_id":"5cd3e5bf-29e6-4dab-a930-b49601feb04c","system_id":"levelo_inurba_marseille","lat":43.30194,"lon":5.37379,"is_reserved":false,"is_disabled":false,"rental_uris":{"android":"levelo://app?vid=5cd3e5bf-29e6-4dab-a930-b49601feb04c","ios":"levelo://app?vid=5cd3e5bf-29e6-4dab-a930-b49601feb04c"},"vehicle_type_id":"4","last_reported":1742764044,"current_range_meters":14400,"station_id":"","pricing_plan_id":"cebpf4jnsgd1na2vs0mg"},{"bike_id":"50db8333-3d43-4ff9-a1e0-a3db650ea4f6","system_id":"levelo_inurba_marseille","lat":43.31074,"lon":5.38355,"is_reserved":false,"is_disabled":false,"rental_uris":{"android":"levelo://app?vid=50db8333-3d43-4ff9-a1e0-a3db650ea4f6","ios":"levelo://app?vid=50db8333-3d43-4ff9-a1e0-a3db650ea4f6"},"vehicle_type_id":"4","last_reported":1742764044,"current_range_meters":14800,"station_id":"ce4bgv92rcd13ifvqcr0","pricing_plan_id":"cebpf4jnsgd1na2vs0mg"},{"bike_id":"c3ea81e6-8675-4847-b618-2dfb23c938f8","system_id":"levelo_inurba_marseille","lat":43.276171,"lon":5.361014,"is_reserved":false,"is_disabled":true,"rental_uris":{"android":"levelo://app?vid=c3ea81e6-8675-4847-b618-2dfb23c938f8","ios":"levelo://app?vid=c3ea81e6-8675-4847-b618-2dfb23c938f8"},"vehicle_type_id":"4","last_reported":1742764044,"current_range_meters":14800,"station_id":"ce4bgj92rcd13ifvqbe0","pricing_plan_id":"cebpf4jnsgd1na2vs0mg"},{"bike_id":"6da13cbe-fe0b-42ba-8b7f-69afa665c6dc","system_id":"levelo_inurba_marseille","lat":43.30319,"lon":5.37558,"is_reserved":false,"is_disabled":false,"rental_uris":{"android":"levelo://app?vid=6da13cbe-fe0b-42ba-8b7f-69afa665c6dc","ios":"levelo://app?vid=6da13cbe-fe0b-42ba-8b7f-69afa665c6dc"},"vehicle_type_id":"4","last_reported":1742764044,"current_range_meters":14800,"station_id":"","pricing_plan_id":"cebpf4jnsgd1na2vs0mg"},{"bike_id":"6eba8d8c-22e7-439f-ab05-699ce76fecec","system_id":"levelo_inurba_marseille","lat":43.27994,"lon":5.38742,"is_reserved":false,"is_disabled":false,"rental_uris":{"android":"levelo://app?vid=6eba8d8c-22e7-439f-ab05-699ce76fecec","ios":"levelo://app?vid=6eba8d8c-22e7-439f-ab05-699ce76fecec"},"vehicle_type_id":"4","last_reported":1742764044,"current_range_meters":14800,"station_id":"ce4bhg12rcd13ifvqf80","pricing_plan_id":"cebpf4jnsgd1na2vs0mg"},{"bike_id":"64da6105-406b-402f-b4c9-ed2c19fbf402","system_id":"levelo_inurba_marseille","lat":43.292725,"lon":5.384452,"is_reserved":false,"is_disabled":false,"rental_uris":{"android":"levelo://app?vid=64da6105-406b-402f-b4c9-ed2c19fbf402","ios":"levelo://app?vid=64da6105-406b-402f-b4c9-ed2c19fbf402"},"vehicle_type_id":"4","last_reported":1742764044,"current_range_meters":15200,"station_id":"","pricing_plan_id":"cebpf4jnsgd1na2vs0mg"},{"bike_id":"f74b13c7-053c-4b7a-983a-625dd03e6fbb","system_id":"levelo_inurba_marseille","lat":43.23192,"lon":5.35541,"is_reserved":false,"is_disabled":false,"rental_uris":{"android":"levelo://app?vid=f74b13c7-053c-4b7a-983a-625dd03e6fbb","ios":"levelo://app?vid=f74b13c7-053c-4b7a-983a-625dd03e6fbb"},"vehicle_type_id":"4","last_reported":1742764044,"current_range_meters":15200,"station_id":"ce4bhu92rcd13ifvqi70","pricing_plan_id":"cebpf4jnsgd1na2vs0mg"},{"bike_id":"0f37f325-e2e6-4fe4-9758-1284020c2879","system_id":"levelo_inurba_marseille","lat":43.30142,"lon":5.37413,"is_reserved":false,"is_disabled":false,"rental_uris":{"android":"levelo://app?vid=0f37f325-e2e6-4fe4-9758-1284020c2879","ios":"levelo://app?vid=0f37f325-e2e6-4fe4-9758-1284020c2879"},"vehicle_type_id":"4","last_reported":1742764044,"current_range_meters":15200,"station_id":"ce4bgs92rcd13ifvqcc0","pricing_plan_id":"cebpf4jnsgd1na2vs0mg"},{"bike_id":"c4ab3472-f8f2-45ed-ad61-5a88a3be4471","system_id":"levelo_inurba_marseille","lat":43.29862,"lon":5.37901,"is_reserved":false,"is_disabled":false,"rental_uris":{"android":"levelo://app?vid=c4ab3472-f8f2-45ed-ad61-5a88a3be4471","ios":"levelo://app?vid=c4ab3472-f8f2-45ed-ad61-5a88a3be4471"},"vehicle_type_id":"4","last_reported":1742764044,"current_range_meters":15200,"station_id":"","pricing_plan_id":"cebpf4jnsgd1na2vs0mg"},{"bike_id":"c15db21c-22fd-477d-a977-58f0850ac460","system_id":"levelo_inurba_marseille","lat":43.28458,"lon":5.3589,"is_reserved":false,"is_disabled":false,"rental_uris":{"android":"levelo://app?vid=c15db21c-22fd-477d-a977-58f0850ac460","ios":"levelo://app?vid=c15db21c-22fd-477d-a977-58f0850ac460"},"vehicle_type_id":"4","last_reported":1742764044,"current_range_meters":15200,"station_id":"ce4bhah2rcd13ifvqei0","pricing_plan_id":"cebpf4jnsgd1na2vs0mg"},{"bike_id":"ba298775-8350-4b57-9be0-99308773b5b4","system_id":"levelo_inurba_marseille","lat":43.28152,"lon":5.42646,"is_reserved":false,"is_disabled":false,"rental_uris":{"android":"levelo://app?vid=ba298775-8350-4b57-9be0-99308773b5b4","ios":"levelo://app?vid=ba298775-8350-4b57-9be0-99308773b5b4"},"vehicle_type_id":"4","last_reported":1742764044,"current_range_meters":15200,"station_id":"ce4bhnh2rcd13ifvqgug","pricing_plan_id":"cebpf4jnsgd1na2vs0mg"},{"bike_id":"f19b6c24-facc-4cbc-b7a5-7e6ed0bf3fc5","system_id":"levelo_inurba_marseille","lat":43.28372,"lon":5.38112,"is_reserved":false,"is_disabled":false,"rental_uris":{"android":"levelo://app?vid=f19b6c24-facc-4cbc-b7a5-7e6ed0bf3fc5","ios":"levelo://app?vid=f19b6c24-facc-4cbc-b7a5-7e6ed0bf3fc5"},"vehicle_type_id":"4","last_reported":1742764044,"current_range_meters":15200,"station_id":"ce4bh412rcd13ifvqdr0","pricing_plan_id":"cebpf4jnsgd1na2vs0mg"},{"bike_id":"6636a5db-5103-4838-9133-6df8a1419a51","system_id":"levelo_inurba_marseille","lat":43.29328,"lon":5.37467,"is_reserved":false,"is_disabled":false,"rental_uris":{"android":"levelo://app?vid=6636a5db-5103-4838-9133-6df8a1419a51","ios":"levelo://app?vid=6636a5db-5103-4838-9133-6df8a1419a51"},"vehicle_type_id":"4","last_reported":1742764044,"current_range_meters":15200,"station_id":"ce4bgi12rcd13ifvqb70","pricing_plan_id":"cebpf4jnsgd1na2vs0mg"},{"bike_id":"9b3dcaf5-b313-4c20-91dc-f1c16272632c","system_id":"levelo_inurba_marseille","lat":43.28161,"lon":5.42638,"is_reserved":false,"is_disabled":false,"rental_uris":{"android":"levelo://app?vid=9b3dcaf5-b313-4c20-91dc-f1c16272632c","ios":"levelo://app?vid=9b3dcaf5-b313-4c20-91dc-f1c16272632c"},"vehicle_type_id":"4","last_reported":1742764044,"current_range_meters":15200,"station_id":"ce4bhnh2rcd13ifvqgug","pricing_plan_id":"cebpf4jnsgd1na2vs0mg"},{"bike_id":"41c8b74c-362a-4ace-a8be-a871abb3ef89","system_id":"levelo_inurba_marseille","lat":43.26156,"lon":5.40555,"is_reserved":false,"is_disabled":false,"rental_uris":{"android":"levelo://app?vid=41c8b74c-362a-4ace-a8be-a871abb3ef89","ios":"levelo://app?vid=41c8b74c-362a-4ace-a8be-a871abb3ef89"},"vehicle_type_id":"4","last_reported":1742764044,"current_range_meters":15200,"station_id":"","pricing_plan_id":"cebpf4jnsgd1na2vs0mg"},{"bike_id":"facc7174-84c5-40fb-bff7-afbd1ba0c34e","system_id":"levelo_inurba_marseille","lat":43.28368,"lon":5.36312,"is_reserved":false,"is_disabled":false,"rental_uris":{"android":"levelo://app?vid=facc7174-84c5-40fb-bff7-afbd1ba0c34e","ios":"levelo://app?vid=facc7174-84c5-40fb-bff7-afbd1ba0c34e"},"vehicle_type_id":"4","last_reported":1742764044,"current_range_meters":16000,"station_id":"","pricing_plan_id":"cebpf4jnsgd1na2vs0mg"},{"bike_id":"074ef621-2343-421e-9821-ea27910008f6","system_id":"levelo_inurba_marseille","lat":43.2368,"lon":5.37732,"is_reserved":false,"is_disabled":false,"rental_uris":{"android":"levelo://app?vid=074ef621-2343-421e-9821-ea27910008f6","ios":"levelo://app?vid=074ef621-2343-421e-9821-ea27910008f6"},"vehicle_type_id":"4","last_reported":1742764044,"current_range_meters":16000,"station_id":"","pricing_plan_id":"cebpf4jnsgd1na2vs0mg"},{"bike_id":"316ee3eb-a775-4a55-b9bf-20781043eb06","system_id":"levelo_inurba_marseille","lat":43.25103,"lon":5.40338,"is_reserved":false,"is_disabled":false,"rental_uris":{"android":"levelo://app?vid=316ee3eb-a775-4a55-b9bf-20781043eb06","ios":"levelo://app?vid=316ee3eb-a775-4a55-b9bf-20781043eb06"},"vehicle_type_id":"4","last_reported":1742764044,"current_range_meters":16000,"station_id":"ce4bhlh2rcd13ifvqgig","pricing_plan_id":"cebpf4jnsgd1na2vs0mg"},{"bike_id":"11f4a5ee-676e-429f-8679-1776cbfb5777","system_id":"levelo_inurba_marseille","lat":43.23959,"lon":5.36618,"is_reserved":false,"is_disabled":false,"rental_uris":{"android":"levelo://app?vid=11f4a5ee-676e-429f-8679-1776cbfb5777","ios":"levelo://app?vid=11f4a5ee-676e-429f-8679-1776cbfb5777"},"vehicle_type_id":"4","last_reported":1742764044,"current_range_meters":16000,"station_id":"ce4bhi12rcd13ifvqfp0","pricing_plan_id":"cebpf4jnsgd1na2vs0mg"},{"bike_id":"a580ea46-2b7e-4f52-bd70-102d60727b02","system_id":"levelo_inurba_marseille","lat":43.23963,"lon":5.36634,"is_reserved":false,"is_disabled":false,"rental_uris":{"android":"levelo://app?vid=a580ea46-2b7e-4f52-bd70-102d60727b02","ios":"levelo://app?vid=a580ea46-2b7e-4f52-bd70-102d60727b02"},"vehicle_type_id":"4","last_reported":1742764044,"current_range_meters":16000,"station_id":"ce4bhi12rcd13ifvqfp0","pricing_plan_id":"cebpf4jnsgd1na2vs0mg"},{"bike_id":"b97b8876-d969-4576-b7ab-db9b2177d974","system_id":"levelo_inurba_marseille","lat":43.27694,"lon":5.38874,"is_reserved":false,"is_disabled":false,"rental_uris":{"android":"levelo://app?vid=b97b8876-d969-4576-b7ab-db9b2177d974","ios":"levelo://app?vid=b97b8876-d969-4576-b7ab-db9b2177d974"},"vehicle_type_id":"4","last_reported":1742764044,"current_range_meters":16000,"station_id":"ce4bhi12rcd13ifvqfo0","pricing_plan_id":"cebpf4jnsgd1na2vs0mg"},{"bike_id":"96d5bc46-ee81-4a31-a1de-2bcc4a989eef","system_id":"levelo_inurba_marseille","lat":43.32361,"lon":5.36747,"is_reserved":false,"is_disabled":false,"rental_uris":{"android":"levelo://app?vid=96d5bc46-ee81-4a31-a1de-2bcc4a989eef","ios":"levelo://app?vid=96d5bc46-ee81-4a31-a1de-2bcc4a989eef"},"vehicle_type_id":"4","last_reported":1742764044,"current_range_meters":16000,"station_id":"ce4bhsh2rcd13ifvqi2g","pricing_plan_id":"cebpf4jnsgd1na2vs0mg"},{"bike_id":"a9a8ba30-d049-4618-bbe5-566736ec21dd","system_id":"levelo_inurba_marseille","lat":43.32659,"lon":5.40988,"is_reserved":false,"is_disabled":false,"rental_uris":{"android":"levelo://app?vid=a9a8ba30-d049-4618-bbe5-566736ec21dd","ios":"levelo://app?vid=a9a8ba30-d049-4618-bbe5-566736ec21dd"},"vehicle_type_id":"4","last_reported":1742764044,"current_range_meters":15200,"station_id":"ce4bhpp2rcd13ifvqhgg","pricing_plan_id":"cebpf4jnsgd1na2vs0mg"},{"bike_id":"d7c87d38-0942-463c-8872-fb476829e67a","system_id":"levelo_inurba_marseille","lat":43.2835,"lon":5.3811,"is_reserved":false,"is_disabled":false,"rental_uris":{"android":"levelo://app?vid=d7c87d38-0942-463c-8872-fb476829e67a","ios":"levelo://app?vid=d7c87d38-0942-463c-8872-fb476829e67a"},"vehicle_type_id":"4","last_reported":1742764044,"current_range_meters":16000,"station_id":"ce4bh412rcd13ifvqdr0","pricing_plan_id":"cebpf4jnsgd1na2vs0mg"},{"bike_id":"411f3bcd-8c10-4807-829c-d644d09dbe42","system_id":"levelo_inurba_marseille","lat":43.33019,"lon":5.3901,"is_reserved":false,"is_disabled":true,"rental_uris":{"android":"levelo://app?vid=411f3bcd-8c10-4807-829c-d644d09dbe42","ios":"levelo://app?vid=411f3bcd-8c10-4807-829c-d644d09dbe42"},"vehicle_type_id":"4","last_reported":1742764044,"current_range_meters":16000,"station_id":"ce4bhr92rcd13ifvqhrg","pricing_plan_id":"cebpf4jnsgd1na2vs0mg"},{"bike_id":"e33fbbfb-148e-44ea-9462-bf2efade9e85","system_id":"levelo_inurba_marseille","lat":43.29323,"lon":5.37172,"is_reserved":false,"is_disabled":false,"rental_uris":{"android":"levelo://app?vid=e33fbbfb-148e-44ea-9462-bf2efade9e85","ios":"levelo://app?vid=e33fbbfb-148e-44ea-9462-bf2efade9e85"},"vehicle_type_id":"4","last_reported":1742764044,"current_range_meters":16000,"station_id":"ce4bgh92rcd13ifvqb40","pricing_plan_id":"cebpf4jnsgd1na2vs0mg"},{"bike_id":"a02ebaf7-0361-4838-b9fa-4a254f1f05c3","system_id":"levelo_inurba_marseille","lat":43.232,"lon":5.35545,"is_reserved":false,"is_disabled":true,"rental_uris":{"android":"levelo://app?vid=a02ebaf7-0361-4838-b9fa-4a254f1f05c3","ios":"levelo://app?vid=a02ebaf7-0361-4838-b9fa-4a254f1f05c3"},"vehicle_type_id":"4","last_reported":1742764044,"current_range_meters":16000,"station_id":"ce4bhu92rcd13ifvqi70","pricing_plan_id":"cebpf4jnsgd1na2vs0mg"},{"bike_id":"65242f0b-a8aa-4cab-8697-be58691d098c","system_id":"levelo_inurba_marseille","lat":43.28881,"lon":5.40901,"is_reserved":false,"is_disabled":false,"rental_uris":{"android":"levelo://app?vid=65242f0b-a8aa-4cab-8697-be58691d098c","ios":"levelo://app?vid=65242f0b-a8aa-4cab-8697-be58691d098c"},"vehicle_type_id":"4","last_reported":1742764044,"current_range_meters":16000,"station_id":"","pricing_plan_id":"cebpf4jnsgd1na2vs0mg"},{"bike_id":"a8f6394a-9d18-4b5e-baa7-ce40c4391112","system_id":"levelo_inurba_marseille","lat":43.2396,"lon":5.36624,"is_reserved":false,"is_disabled":false,"rental_uris":{"android":"levelo://app?vid=a8f6394a-9d18-4b5e-baa7-ce40c4391112","ios":"levelo://app?vid=a8f6394a-9d18-4b5e-baa7-ce40c4391112"},"vehicle_type_id":"4","last_reported":1742764044,"current_range_meters":16400,"station_id":"ce4bhi12rcd13ifvqfp0","pricing_plan_id":"cebpf4jnsgd1na2vs0mg"},{"bike_id":"2ba0f073-e0c1-4981-8b66-b0ecda6f1fe8","system_id":"levelo_inurba_marseille","lat":43.27814,"lon":5.40703,"is_reserved":false,"is_disabled":true,"rental_uris":{"android":"levelo://app?vid=2ba0f073-e0c1-4981-8b66-b0ecda6f1fe8","ios":"levelo://app?vid=2ba0f073-e0c1-4981-8b66-b0ecda6f1fe8"},"vehicle_type_id":"4","last_reported":1742764044,"current_range_meters":16400,"station_id":"ce4bhnh2rcd13ifvqgtg","pricing_plan_id":"cebpf4jnsgd1na2vs0mg"},{"bike_id":"8135a3e2-a50f-446f-8694-dfaa1c450829","system_id":"levelo_inurba_marseille","lat":43.28473,"lon":5.35878,"is_reserved":false,"is_disabled":true,"rental_uris":{"android":"levelo://app?vid=8135a3e2-a50f-446f-8694-dfaa1c450829","ios":"levelo://app?vid=8135a3e2-a50f-446f-8694-dfaa1c450829"},"vehicle_type_id":"4","last_reported":1742764044,"current_range_meters":16400,"station_id":"ce4bhah2rcd13ifvqei0","pricing_plan_id":"cebpf4jnsgd1na2vs0mg"},{"bike_id":"5834dfcf-f290-419a-acc0-1e4a34af5222","system_id":"levelo_inurba_marseille","lat":43.23956,"lon":5.36632,"is_reserved":false,"is_disabled":false,"rental_uris":{"android":"levelo://app?vid=5834dfcf-f290-419a-acc0-1e4a34af5222","ios":"levelo://app?vid=5834dfcf-f290-419a-acc0-1e4a34af5222"},"vehicle_type_id":"4","last_reported":1742764044,"current_range_meters":16400,"station_id":"ce4bhi12rcd13ifvqfp0","pricing_plan_id":"cebpf4jnsgd1na2vs0mg"},{"bike_id":"b8c55d8a-dbd2-455d-921a-196c9c89183e","system_id":"levelo_inurba_marseille","lat":43.30945,"lon":5.39049,"is_reserved":false,"is_disabled":true,"rental_uris":{"android":"levelo://app?vid=b8c55d8a-dbd2-455d-921a-196c9c89183e","ios":"levelo://app?vid=b8c55d8a-dbd2-455d-921a-196c9c89183e"},"vehicle_type_id":"4","last_reported":1742764044,"current_range_meters":16400,"station_id":"ce4bgup2rcd13ifvqco0","pricing_plan_id":"cebpf4jnsgd1na2vs0mg"},{"bike_id":"003b88bd-4567-4889-b3a0-c34cb5d46a0b","system_id":"levelo_inurba_marseille","lat":43.23961,"lon":5.36617,"is_reserved":false,"is_disabled":false,"rental_uris":{"android":"levelo://app?vid=003b88bd-4567-4889-b3a0-c34cb5d46a0b","ios":"levelo://app?vid=003b88bd-4567-4889-b3a0-c34cb5d46a0b"},"vehicle_type_id":"4","last_reported":1742764044,"current_range_meters":16400,"station_id":"ce4bhi12rcd13ifvqfp0","pricing_plan_id":"cebpf4jnsgd1na2vs0mg"},{"bike_id":"8caabcbf-cb1b-4190-b350-0a47a6d02fa3","system_id":"levelo_inurba_marseille","lat":43.30137,"lon":5.38773,"is_reserved":false,"is_disabled":false,"rental_uris":{"android":"levelo://app?vid=8caabcbf-cb1b-4190-b350-0a47a6d02fa3","ios":"levelo://app?vid=8caabcbf-cb1b-4190-b350-0a47a6d02fa3"},"vehicle_type_id":"4","last_reported":1742764044,"current_range_meters":16400,"station_id":"ce4bghh2rcd13ifvqb60","pricing_plan_id":"cebpf4jnsgd1na2vs0mg"},{"bike_id":"ef12f1df-58a7-44f9-a515-abbc046895de","system_id":"levelo_inurba_marseille","lat":43.24211,"lon":5.39734,"is_reserved":false,"is_disabled":false,"rental_uris":{"android":"levelo://app?vid=ef12f1df-58a7-44f9-a515-abbc046895de","ios":"levelo://app?vid=ef12f1df-58a7-44f9-a515-abbc046895de"},"vehicle_type_id":"4","last_reported":1742764044,"current_range_meters":16800,"station_id":"ce4bhn12rcd13ifvqgpg","pricing_plan_id":"cebpf4jnsgd1na2vs0mg"},{"bike_id":"6893b2ea-ddaf-4b5a-8dfa-6d2e5e683344","system_id":"levelo_inurba_marseille","lat":43.27982,"lon":5.38762,"is_reserved":false,"is_disabled":false,"rental_uris":{"android":"levelo://app?vid=6893b2ea-ddaf-4b5a-8dfa-6d2e5e683344","ios":"levelo://app?vid=6893b2ea-ddaf-4b5a-8dfa-6d2e5e683344"},"vehicle_type_id":"4","last_reported":1742764044,"current_range_meters":16800,"station_id":"ce4bhg12rcd13ifvqf80","pricing_plan_id":"cebpf4jnsgd1na2vs0mg"},{"bike_id":"3bdebdf2-56ae-437c-b382-19775de32079","system_id":"levelo_inurba_marseille","lat":43.29845,"lon":5.3629,"is_reserved":false,"is_disabled":false,"rental_uris":{"android":"levelo://app?vid=3bdebdf2-56ae-437c-b382-19775de32079","ios":"levelo://app?vid=3bdebdf2-56ae-437c-b382-19775de32079"},"vehicle_type_id":"4","last_reported":1742764044,"current_range_meters":16800,"station_id":"ce4bgpp2rcd13ifvqc3g","pricing_plan_id":"cebpf4jnsgd1na2vs0mg"},{"bike_id":"f33f7b8f-1c12-4bf0-9ebd-87f326cc282a","system_id":"levelo_inurba_marseille","lat":43.26239,"lon":5.40437,"is_reserved":false,"is_disabled":false,"rental_uris":{"android":"levelo://app?vid=f33f7b8f-1c12-4bf0-9ebd-87f326cc282a","ios":"levelo://app?vid=f33f7b8f-1c12-4bf0-9ebd-87f326cc282a"},"vehicle_type_id":"4","last_reported":1742764044,"current_range_meters":16800,"station_id":"ce4bhmh2rcd13ifvqgmg","pricing_plan_id":"cebpf4jnsgd1na2vs0mg"},{"bike_id":"2837128b-27ec-48c9-9f29-25103435cee9","system_id":"levelo_inurba_marseille","lat":43.26579,"lon":5.39046,"is_reserved":false,"is_disabled":false,"rental_uris":{"android":"levelo://app?vid=2837128b-27ec-48c9-9f29-25103435cee9","ios":"levelo://app?vid=2837128b-27ec-48c9-9f29-25103435cee9"},"vehicle_type_id":"4","last_reported":1742764044,"current_range_meters":16800,"station_id":"ce4bhe12rcd13ifvqf30","pricing_plan_id":"cebpf4jnsgd1na2vs0mg"},{"bike_id":"989306f0-ec00-4c5a-a143-c730bd5bb983","system_id":"levelo_inurba_marseille","lat":43.26529,"lon":5.37312,"is_reserved":false,"is_disabled":false,"rental_uris":{"android":"levelo://app?vid=989306f0-ec00-4c5a-a143-c730bd5bb983","ios":"levelo://app?vid=989306f0-ec00-4c5a-a143-c730bd5bb983"},"vehicle_type_id":"4","last_reported":1742764044,"current_range_meters":16800,"station_id":"","pricing_plan_id":"cebpf4jnsgd1na2vs0mg"},{"bike_id":"de5ee395-27b0-47e4-ad82-2ba579efa4a0","system_id":"levelo_inurba_marseille","lat":43.24544,"lon":5.39523,"is_reserved":false,"is_disabled":false,"rental_uris":{"android":"levelo://app?vid=de5ee395-27b0-47e4-ad82-2ba579efa4a0","ios":"levelo://app?vid=de5ee395-27b0-47e4-ad82-2ba579efa4a0"},"vehicle_type_id":"4","last_reported":1742764044,"current_range_meters":16800,"station_id":"ce4bhlp2rcd13ifvqgjg","pricing_plan_id":"cebpf4jnsgd1na2vs0mg"},{"bike_id":"d85b5d6f-fe51-467c-96e9-517c260682e1","system_id":"levelo_inurba_marseille","lat":43.32356,"lon":5.36744,"is_reserved":false,"is_disabled":false,"rental_uris":{"android":"levelo://app?vid=d85b5d6f-fe51-467c-96e9-517c260682e1","ios":"levelo://app?vid=d85b5d6f-fe51-467c-96e9-517c260682e1"},"vehicle_type_id":"4","last_reported":1742764044,"current_range_meters":16800,"station_id":"ce4bhsh2rcd13ifvqi2g","pricing_plan_id":"cebpf4jnsgd1na2vs0mg"},{"bike_id":"873277f4-c89c-4630-85e5-13caa372d39a","system_id":"levelo_inurba_marseille","lat":43.24069,"lon":5.37743,"is_reserved":false,"is_disabled":false,"rental_uris":{"android":"levelo://app?vid=873277f4-c89c-4630-85e5-13caa372d39a","ios":"levelo://app?vid=873277f4-c89c-4630-85e5-13caa372d39a"},"vehicle_type_id":"4","last_reported":1742764044,"current_range_meters":16800,"station_id":"ce4bhnp2rcd13ifvqgvg","pricing_plan_id":"cebpf4jnsgd1na2vs0mg"},{"bike_id":"8b0044fa-37e4-42fc-bb47-64dd5d739dae","system_id":"levelo_inurba_marseille","lat":43.23058,"lon":5.35496,"is_reserved":false,"is_disabled":false,"rental_uris":{"android":"levelo://app?vid=8b0044fa-37e4-42fc-bb47-64dd5d739dae","ios":"levelo://app?vid=8b0044fa-37e4-42fc-bb47-64dd5d739dae"},"vehicle_type_id":"4","last_reported":1742764044,"current_range_meters":16800,"station_id":"cpo3342slgdg3j2ifvpg","pricing_plan_id":"cebpf4jnsgd1na2vs0mg"},{"bike_id":"07b2103e-4193-4858-b1c1-e886843ce84c","system_id":"levelo_inurba_marseille","lat":43.3362,"lon":5.41056,"is_reserved":false,"is_disabled":false,"rental_uris":{"android":"levelo://app?vid=07b2103e-4193-4858-b1c1-e886843ce84c","ios":"levelo://app?vid=07b2103e-4193-4858-b1c1-e886843ce84c"},"vehicle_type_id":"4","last_reported":1742764044,"current_range_meters":16800,"station_id":"ce4bhqh2rcd13ifvqhmg","pricing_plan_id":"cebpf4jnsgd1na2vs0mg"},{"bike_id":"f2ca7a5f-8ee8-4eea-ae8d-ca570e208434","system_id":"levelo_inurba_marseille","lat":43.31167,"lon":5.38721,"is_reserved":false,"is_disabled":false,"rental_uris":{"android":"levelo://app?vid=f2ca7a5f-8ee8-4eea-ae8d-ca570e208434","ios":"levelo://app?vid=f2ca7a5f-8ee8-4eea-ae8d-ca570e208434"},"vehicle_type_id":"4","last_reported":1742764044,"current_range_meters":16800,"station_id":"ce4bgv12rcd13ifvqcp0","pricing_plan_id":"cebpf4jnsgd1na2vs0mg"},{"bike_id":"6a6a8db7-48e7-414c-bb85-49a6eea35266","system_id":"levelo_inurba_marseille","lat":43.30144,"lon":5.37422,"is_reserved":false,"is_disabled":false,"rental_uris":{"android":"levelo://app?vid=6a6a8db7-48e7-414c-bb85-49a6eea35266","ios":"levelo://app?vid=6a6a8db7-48e7-414c-bb85-49a6eea35266"},"vehicle_type_id":"4","last_reported":1742764044,"current_range_meters":16800,"station_id":"ce4bgs92rcd13ifvqcc0","pricing_plan_id":"cebpf4jnsgd1na2vs0mg"},{"bike_id":"2ded2aef-d386-4b12-bf94-6d80e6034554","system_id":"levelo_inurba_marseille","lat":43.33609,"lon":5.40996,"is_reserved":false,"is_disabled":false,"rental_uris":{"android":"levelo://app?vid=2ded2aef-d386-4b12-bf94-6d80e6034554","ios":"levelo://app?vid=2ded2aef-d386-4b12-bf94-6d80e6034554"},"vehicle_type_id":"4","last_reported":1742764044,"current_range_meters":16800,"station_id":"ce4bhqh2rcd13ifvqhmg","pricing_plan_id":"cebpf4jnsgd1na2vs0mg"},{"bike_id":"dcac929e-bfc7-4642-a3fd-df1c23a9d9e2","system_id":"levelo_inurba_marseille","lat":43.30856,"lon":5.37799,"is_reserved":false,"is_disabled":false,"rental_uris":{"android":"levelo://app?vid=dcac929e-bfc7-4642-a3fd-df1c23a9d9e2","ios":"levelo://app?vid=dcac929e-bfc7-4642-a3fd-df1c23a9d9e2"},"vehicle_type_id":"4","last_reported":1742764044,"current_range_meters":17200,"station_id":"","pricing_plan_id":"cebpf4jnsgd1na2vs0mg"},{"bike_id":"479067b0-fbf6-4767-934b-6c0d74f12f79","system_id":"levelo_inurba_marseille","lat":43.26217,"lon":5.37923,"is_reserved":false,"is_disabled":true,"rental_uris":{"android":"levelo://app?vid=479067b0-fbf6-4767-934b-6c0d74f12f79","ios":"levelo://app?vid=479067b0-fbf6-4767-934b-6c0d74f12f79"},"vehicle_type_id":"4","last_reported":1742764044,"current_range_meters":17200,"station_id":"ce4bhjp2rcd13ifvqg90","pricing_plan_id":"cebpf4jnsgd1na2vs0mg"},{"bike_id":"846ebb78-c819-4e3d-a0a5-eac71f574b28","system_id":"levelo_inurba_marseille","lat":43.29973,"lon":5.38484,"is_reserved":false,"is_disabled":false,"rental_uris":{"android":"levelo://app?vid=846ebb78-c819-4e3d-a0a5-eac71f574b28","ios":"levelo://app?vid=846ebb78-c819-4e3d-a0a5-eac71f574b28"},"vehicle_type_id":"4","last_reported":1742764044,"current_range_meters":17200,"station_id":"ce4bh392rcd13ifvqdl0","pricing_plan_id":"cebpf4jnsgd1na2vs0mg"},{"bike_id":"256ca4f1-c1b0-4993-8be3-66123844349d","system_id":"levelo_inurba_marseille","lat":43.23081,"lon":5.3549,"is_reserved":false,"is_disabled":false,"rental_uris":{"android":"levelo://app?vid=256ca4f1-c1b0-4993-8be3-66123844349d","ios":"levelo://app?vid=256ca4f1-c1b0-4993-8be3-66123844349d"},"vehicle_type_id":"4","last_reported":1742764044,"current_range_meters":17600,"station_id":"cpo3342slgdg3j2ifvpg","pricing_plan_id":"cebpf4jnsgd1na2vs0mg"},{"bike_id":"60fc9dc0-aa89-46d1-a71a-98cd30570cb9","system_id":"levelo_inurba_marseille","lat":43.25716,"lon":5.41104,"is_reserved":false,"is_disabled":false,"rental_uris":{"android":"levelo://app?vid=60fc9dc0-aa89-46d1-a71a-98cd30570cb9","ios":"levelo://app?vid=60fc9dc0-aa89-46d1-a71a-98cd30570cb9"},"vehicle_type_id":"4","last_reported":1742764044,"current_range_meters":17600,"station_id":"ce4bhkp2rcd13ifvqgd0","pricing_plan_id":"cebpf4jnsgd1na2vs0mg"},{"bike_id":"45d6743f-f416-4349-9c37-470c94203154","system_id":"levelo_inurba_marseille","lat":43.24548,"lon":5.39517,"is_reserved":false,"is_disabled":false,"rental_uris":{"android":"levelo://app?vid=45d6743f-f416-4349-9c37-470c94203154","ios":"levelo://app?vid=45d6743f-f416-4349-9c37-470c94203154"},"vehicle_type_id":"4","last_reported":1742764044,"current_range_meters":17600,"station_id":"ce4bhlp2rcd13ifvqgjg","pricing_plan_id":"cebpf4jnsgd1na2vs0mg"},{"bike_id":"afde9b95-1fdd-4403-b679-302abb462ed4","system_id":"levelo_inurba_marseille","lat":43.30043,"lon":5.37239,"is_reserved":false,"is_disabled":false,"rental_uris":{"android":"levelo://app?vid=afde9b95-1fdd-4403-b679-302abb462ed4","ios":"levelo://app?vid=afde9b95-1fdd-4403-b679-302abb462ed4"},"vehicle_type_id":"4","last_reported":1742764044,"current_range_meters":17600,"station_id":"","pricing_plan_id":"cebpf4jnsgd1na2vs0mg"},{"bike_id":"7e3abc21-d181-4421-b43f-ef9b5598e4d2","system_id":"levelo_inurba_marseille","lat":43.26578,"lon":5.39058,"is_reserved":false,"is_disabled":false,"rental_uris":{"android":"levelo://app?vid=7e3abc21-d181-4421-b43f-ef9b5598e4d2","ios":"levelo://app?vid=7e3abc21-d181-4421-b43f-ef9b5598e4d2"},"vehicle_type_id":"4","last_reported":1742764044,"current_range_meters":17600,"station_id":"ce4bhe12rcd13ifvqf30","pricing_plan_id":"cebpf4jnsgd1na2vs0mg"},{"bike_id":"757e9d77-3e68-4058-adbb-ffeaa3762057","system_id":"levelo_inurba_marseille","lat":43.25733,"lon":5.41099,"is_reserved":false,"is_disabled":false,"rental_uris":{"android":"levelo://app?vid=757e9d77-3e68-4058-adbb-ffeaa3762057","ios":"levelo://app?vid=757e9d77-3e68-4058-adbb-ffeaa3762057"},"vehicle_type_id":"4","last_reported":1742764044,"current_range_meters":17600,"station_id":"ce4bhkp2rcd13ifvqgd0","pricing_plan_id":"cebpf4jnsgd1na2vs0mg"},{"bike_id":"b91e64e7-d25b-41c3-a6a4-73a829fb9e24","system_id":"levelo_inurba_marseille","lat":43.24155,"lon":5.39719,"is_reserved":false,"is_disabled":false,"rental_uris":{"android":"levelo://app?vid=b91e64e7-d25b-41c3-a6a4-73a829fb9e24","ios":"levelo://app?vid=b91e64e7-d25b-41c3-a6a4-73a829fb9e24"},"vehicle_type_id":"4","last_reported":1742764044,"current_range_meters":17600,"station_id":"ce4bhn12rcd13ifvqgpg","pricing_plan_id":"cebpf4jnsgd1na2vs0mg"},{"bike_id":"389d02c1-f5ad-42e4-a8df-d51424a523e2","system_id":"levelo_inurba_marseille","lat":43.31737,"lon":5.43684,"is_reserved":false,"is_disabled":false,"rental_uris":{"android":"levelo://app?vid=389d02c1-f5ad-42e4-a8df-d51424a523e2","ios":"levelo://app?vid=389d02c1-f5ad-42e4-a8df-d51424a523e2"},"vehicle_type_id":"4","last_reported":1742764044,"current_range_meters":17600,"station_id":"ce4bhp92rcd13ifvqhcg","pricing_plan_id":"cebpf4jnsgd1na2vs0mg"},{"bike_id":"2ba46124-a093-4345-928b-13702ad74f31","system_id":"levelo_inurba_marseille","lat":43.23057,"lon":5.35506,"is_reserved":false,"is_disabled":false,"rental_uris":{"android":"levelo://app?vid=2ba46124-a093-4345-928b-13702ad74f31","ios":"levelo://app?vid=2ba46124-a093-4345-928b-13702ad74f31"},"vehicle_type_id":"4","last_reported":1742764044,"current_range_meters":18000,"station_id":"cpo3342slgdg3j2ifvpg","pricing_plan_id":"cebpf4jnsgd1na2vs0mg"},{"bike_id":"5aa0b45f-be4e-4023-b733-8ed860543228","system_id":"levelo_inurba_marseille","lat":43.23081,"lon":5.35486,"is_reserved":false,"is_disabled":false,"rental_uris":{"android":"levelo://app?vid=5aa0b45f-be4e-4023-b733-8ed860543228","ios":"levelo://app?vid=5aa0b45f-be4e-4023-b733-8ed860543228"},"vehicle_type_id":"4","last_reported":1742764044,"current_range_meters":18000,"station_id":"cpo3342slgdg3j2ifvpg","pricing_plan_id":"cebpf4jnsgd1na2vs0mg"},{"bike_id":"bc2068eb-04ef-446c-b8e2-0fa22787e0bb","system_id":"levelo_inurba_marseille","lat":43.25818,"lon":5.39434,"is_reserved":false,"is_disabled":false,"rental_uris":{"android":"levelo://app?vid=bc2068eb-04ef-446c-b8e2-0fa22787e0bb","ios":"levelo://app?vid=bc2068eb-04ef-446c-b8e2-0fa22787e0bb"},"vehicle_type_id":"4","last_reported":1742764044,"current_range_meters":18000,"station_id":"ce4bhip2rcd13ifvqft0","pricing_plan_id":"cebpf4jnsgd1na2vs0mg"},{"bike_id":"f5b6c758-f9ac-4fbd-9057-723b47ec4814","system_id":"levelo_inurba_marseille","lat":43.30145,"lon":5.3741,"is_reserved":false,"is_disabled":false,"rental_uris":{"android":"levelo://app?vid=f5b6c758-f9ac-4fbd-9057-723b47ec4814","ios":"levelo://app?vid=f5b6c758-f9ac-4fbd-9057-723b47ec4814"},"vehicle_type_id":"4","last_reported":1742764044,"current_range_meters":18000,"station_id":"ce4bgs92rcd13ifvqcc0","pricing_plan_id":"cebpf4jnsgd1na2vs0mg"},{"bike_id":"3b92dbdd-25f3-4387-9d5a-02c5bf280819","system_id":"levelo_inurba_marseille","lat":43.24557,"lon":5.3952,"is_reserved":false,"is_disabled":false,"rental_uris":{"android":"levelo://app?vid=3b92dbdd-25f3-4387-9d5a-02c5bf280819","ios":"levelo://app?vid=3b92dbdd-25f3-4387-9d5a-02c5bf280819"},"vehicle_type_id":"4","last_reported":1742764044,"current_range_meters":18000,"station_id":"ce4bhlp2rcd13ifvqgjg","pricing_plan_id":"cebpf4jnsgd1na2vs0mg"},{"bike_id":"7c70aa3d-21d8-4e26-82cc-fe748c99f4f8","system_id":"levelo_inurba_marseille","lat":43.31076,"lon":5.38387,"is_reserved":false,"is_disabled":false,"rental_uris":{"android":"levelo://app?vid=7c70aa3d-21d8-4e26-82cc-fe748c99f4f8","ios":"levelo://app?vid=7c70aa3d-21d8-4e26-82cc-fe748c99f4f8"},"vehicle_type_id":"4","last_reported":1742764044,"current_range_meters":18000,"station_id":"ce4bgv92rcd13ifvqcr0","pricing_plan_id":"cebpf4jnsgd1na2vs0mg"},{"bike_id":"0f04486c-4261-48f0-bbdd-18a64ad89c31","system_id":"levelo_inurba_marseille","lat":43.31654,"lon":5.39441,"is_reserved":false,"is_disabled":false,"rental_uris":{"android":"levelo://app?vid=0f04486c-4261-48f0-bbdd-18a64ad89c31","ios":"levelo://app?vid=0f04486c-4261-48f0-bbdd-18a64ad89c31"},"vehicle_type_id":"4","last_reported":1742764044,"current_range_meters":18000,"station_id":"","pricing_plan_id":"cebpf4jnsgd1na2vs0mg"},{"bike_id":"bcf594e0-399a-42ff-9f22-688ff2f7f75d","system_id":"levelo_inurba_marseille","lat":43.31156,"lon":5.38746,"is_reserved":false,"is_disabled":false,"rental_uris":{"android":"levelo://app?vid=bcf594e0-399a-42ff-9f22-688ff2f7f75d","ios":"levelo://app?vid=bcf594e0-399a-42ff-9f22-688ff2f7f75d"},"vehicle_type_id":"4","last_reported":1742764044,"current_range_meters":18000,"station_id":"ce4bgv12rcd13ifvqcp0","pricing_plan_id":"cebpf4jnsgd1na2vs0mg"},{"bike_id":"5a837cb4-7806-48ac-9b64-d6680b6ef0c7","system_id":"levelo_inurba_marseille","lat":43.29672,"lon":5.42739,"is_reserved":false,"is_disabled":false,"rental_uris":{"android":"levelo://app?vid=5a837cb4-7806-48ac-9b64-d6680b6ef0c7","ios":"levelo://app?vid=5a837cb4-7806-48ac-9b64-d6680b6ef0c7"},"vehicle_type_id":"4","last_reported":1742764044,"current_range_meters":18000,"station_id":"","pricing_plan_id":"cebpf4jnsgd1na2vs0mg"},{"bike_id":"68bf77d1-f7b2-4f13-a7d4-868a5c8aaa5b","system_id":"levelo_inurba_marseille","lat":43.24654,"lon":5.389,"is_reserved":false,"is_disabled":false,"rental_uris":{"android":"levelo://app?vid=68bf77d1-f7b2-4f13-a7d4-868a5c8aaa5b","ios":"levelo://app?vid=68bf77d1-f7b2-4f13-a7d4-868a5c8aaa5b"},"vehicle_type_id":"4","last_reported":1742764044,"current_range_meters":18000,"station_id":"ce4bhg12rcd13ifvqf60","pricing_plan_id":"cebpf4jnsgd1na2vs0mg"},{"bike_id":"3c5f6d1c-8e84-4f98-930c-f2d0d12ae2dc","system_id":"levelo_inurba_marseille","lat":43.29746,"lon":5.37961,"is_reserved":false,"is_disabled":false,"rental_uris":{"android":"levelo://app?vid=3c5f6d1c-8e84-4f98-930c-f2d0d12ae2dc","ios":"levelo://app?vid=3c5f6d1c-8e84-4f98-930c-f2d0d12ae2dc"},"vehicle_type_id":"4","last_reported":1742764044,"current_range_meters":18800,"station_id":"","pricing_plan_id":"cebpf4jnsgd1na2vs0mg"},{"bike_id":"d1adfc43-e43c-4f7c-aa18-df37eb15e88e","system_id":"levelo_inurba_marseille","lat":43.30091,"lon":5.41327,"is_reserved":false,"is_disabled":true,"rental_uris":{"android":"levelo://app?vid=d1adfc43-e43c-4f7c-aa18-df37eb15e88e","ios":"levelo://app?vid=d1adfc43-e43c-4f7c-aa18-df37eb15e88e"},"vehicle_type_id":"4","last_reported":1742764044,"current_range_meters":18800,"station_id":"ce4bhp12rcd13ifvqh9g","pricing_plan_id":"cebpf4jnsgd1na2vs0mg"},{"bike_id":"c5ba40c7-9707-4211-a620-97e2df98964e","system_id":"levelo_inurba_marseille","lat":43.2816,"lon":5.42642,"is_reserved":false,"is_disabled":false,"rental_uris":{"android":"levelo://app?vid=c5ba40c7-9707-4211-a620-97e2df98964e","ios":"levelo://app?vid=c5ba40c7-9707-4211-a620-97e2df98964e"},"vehicle_type_id":"4","last_reported":1742764044,"current_range_meters":18800,"station_id":"ce4bhnh2rcd13ifvqgug","pricing_plan_id":"cebpf4jnsgd1na2vs0mg"},{"bike_id":"9e0aa70d-46be-49fd-ac8d-9cad19ef0031","system_id":"levelo_inurba_marseille","lat":43.30825,"lon":5.37526,"is_reserved":false,"is_disabled":false,"rental_uris":{"android":"levelo://app?vid=9e0aa70d-46be-49fd-ac8d-9cad19ef0031","ios":"levelo://app?vid=9e0aa70d-46be-49fd-ac8d-9cad19ef0031"},"vehicle_type_id":"4","last_reported":1742764044,"current_range_meters":18800,"station_id":"","pricing_plan_id":"cebpf4jnsgd1na2vs0mg"},{"bike_id":"a5446fa9-b2f7-45f6-bfb4-1335cb6018ff","system_id":"levelo_inurba_marseille","lat":43.23085,"lon":5.35481,"is_reserved":false,"is_disabled":false,"rental_uris":{"android":"levelo://app?vid=a5446fa9-b2f7-45f6-bfb4-1335cb6018ff","ios":"levelo://app?vid=a5446fa9-b2f7-45f6-bfb4-1335cb6018ff"},"vehicle_type_id":"4","last_reported":1742764044,"current_range_meters":18800,"station_id":"cpo3342slgdg3j2ifvpg","pricing_plan_id":"cebpf4jnsgd1na2vs0mg"},{"bike_id":"10cd0674-8ad1-4c13-958f-ed6aa40a0a2c","system_id":"levelo_inurba_marseille","lat":43.24145,"lon":5.3974,"is_reserved":false,"is_disabled":false,"rental_uris":{"android":"levelo://app?vid=10cd0674-8ad1-4c13-958f-ed6aa40a0a2c","ios":"levelo://app?vid=10cd0674-8ad1-4c13-958f-ed6aa40a0a2c"},"vehicle_type_id":"4","last_reported":1742764044,"current_range_meters":18800,"station_id":"ce4bhn12rcd13ifvqgpg","pricing_plan_id":"cebpf4jnsgd1na2vs0mg"},{"bike_id":"c4e0ceed-72d6-4fa7-9ddf-e6c2a29b629e","system_id":"levelo_inurba_marseille","lat":43.2781,"lon":5.40708,"is_reserved":false,"is_disabled":false,"rental_uris":{"android":"levelo://app?vid=c4e0ceed-72d6-4fa7-9ddf-e6c2a29b629e","ios":"levelo://app?vid=c4e0ceed-72d6-4fa7-9ddf-e6c2a29b629e"},"vehicle_type_id":"4","last_reported":1742764044,"current_range_meters":18800,"station_id":"ce4bhnh2rcd13ifvqgtg","pricing_plan_id":"cebpf4jnsgd1na2vs0mg"},{"bike_id":"b80f2311-8be3-4465-ad2e-0ab0455d6f63","system_id":"levelo_inurba_marseille","lat":43.29443,"lon":5.38631,"is_reserved":false,"is_disabled":true,"rental_uris":{"android":"levelo://app?vid=b80f2311-8be3-4465-ad2e-0ab0455d6f63","ios":"levelo://app?vid=b80f2311-8be3-4465-ad2e-0ab0455d6f63"},"vehicle_type_id":"4","last_reported":1742764044,"current_range_meters":18800,"station_id":"ce4bh2h2rcd13ifvqdh0","pricing_plan_id":"cebpf4jnsgd1na2vs0mg"},{"bike_id":"3215963b-83f4-40ab-bc8e-e85c37bd990d","system_id":"levelo_inurba_marseille","lat":43.27906,"lon":5.38011,"is_reserved":false,"is_disabled":false,"rental_uris":{"android":"levelo://app?vid=3215963b-83f4-40ab-bc8e-e85c37bd990d","ios":"levelo://app?vid=3215963b-83f4-40ab-bc8e-e85c37bd990d"},"vehicle_type_id":"4","last_reported":1742764044,"current_range_meters":18800,"station_id":"ce4bhf92rcd13ifvqf50","pricing_plan_id":"cebpf4jnsgd1na2vs0mg"},