{"last_updated":1693602361,"ttl":30,"version":"2.2","data":{"bikes":[{"bike_id":"29ad9d27-2586-471f-a708-8b9903046d7e","system_id":"levelo_inurba_marseille","lat":43.312239,"lon":5.368562,"is_reserved":false,"is_disabled":false,"rental_uris":{"android":"levelo://app?vid=29ad9d27-2586-471f-a708-8b9903046d7e","ios":"levelo://app?vid=29ad9d27-2586-471f-a708-8b9903046d7e"},"vehicle_type_id":"4","last_reported":1693602361,"current_range_meters":24000,"station_id":"ce4bgl92rcd13ifvqbq0","pricing_plan_id":"free"},{"bike_id":"8d446dc7-303c-4911-9b52-2ea53feb7116","system_id":"levelo_inurba_marseille","lat":43.312239,"lon":5.368562,"is_reserved":false,"is_disabled":false,"rental_uris":{"android":"levelo://app?vid=8d446dc7-303c-4911-9b52-2ea53feb7116","ios":"levelo://app?vid=8d446dc7-303c-4911-9b52-2ea53feb7116"},"vehicle_type_id":"4","last_reported":1693602361,"current_range_meters":22400,"station_id":"ce4bgl92rcd13ifvqbq0","pricing_plan_id":"free"},{"bike_id":"db2b350c-b305-464e-ba87-101df816e87b","system_id":"levelo_inurba_marseille","lat":43.312239,"lon":5.368562,"is_reserved":false,"is_disabled":false,"rental_uris":{"android":"levelo://app?vid=db2b350c-b305-464e-ba87-101df816e87b","ios":"levelo://app?vid=db2b350c-b305-464e-ba87-101df816e87b"},"vehicle_type_id":"4","last_reported":1693602361,"current_range_meters":18400,"station_id":"ce4bgl92rcd13ifvqbq0","pricing_plan_id":"free"},{"bike_id":"b34cadce-ad97-4d87-8b7b-2a17fc12c954","system_id":"levelo_inurba_marseille","lat":43.312239,"lon":5.368562,"is_reserved":false,"is_disabled":false,"rental_uris":{"android":"levelo://app?vid=b34cadce-ad97-4d87-8b7b-2a17fc12c954","ios":"levelo://app?vid=b34cadce-ad97-4d87-8b7b-2a17fc12c954"},"vehicle_type_id":"4","last_reported":1693602361,"current_range_meters":12800,"station_id":"ce4bgl92rcd13ifvqbq0","pricing_plan_id":"free"},{"bike_id":"424d63f2-0f4c-4261-a35a-4bf995090ed7","system_id":"levelo_inurba_marseille","lat":43.312239,"lon":5.368562,"is_reserved":false,"is_disabled":false,"rental_uris":{"android":"levelo://app?vid=424d63f2-0f4c-4261-a35a-4bf995090ed7","ios":"levelo://app?vid=424d63f2-0f4c-4261-a35a-4bf995090ed7"},"vehicle_type_id":"4","last_reported":1693602361,"current_range_meters":6000,"station_id":"ce4bgl92rcd13ifvqbq0","pricing_plan_id":"free"},{"bike_id":"f1d04b79-6d2b-4458-91ac-6b2bed34ae92","system_id":"levelo_inurba_marseille","lat":43.309076,"lon":5.368465,"is_reserved":false,"is_disabled":false,"rental_uris":{"android":"levelo://app?vid=f1d04b79-6d2b-4458-91ac-6b2bed34ae92","ios":"levelo://app?vid=f1d04b79-6d2b-4458-91ac-6b2bed34ae92"},"vehicle_type_id":"4","last_reported":1693602361,"current_range_meters":0,"station_id":"ce4bgn92rcd13ifvqbvg","pricing_plan_id":"free"},{"bike_id":"d2be997d-44d2-40a5-bb20-02aeaaf65fa5","system_id":"levelo_inurba_marseille","lat":43.314811,"lon":5.373104,"is_reserved":false,"is_disabled":false,"rental_uris":{"android":"levelo://app?vid=d2be997d-44d2-40a5-bb20-02aeaaf65fa5","ios":"levelo://app?vid=d2be997d-44d2-40a5-bb20-02aeaaf65fa5"},"vehicle_type_id":"4","last_reported":1693602361,"current_range_meters":30800,"station_id":"ce4bgt12rcd13ifvqcd0","pricing_plan_id":"free"},{"bike_id":"dbdfb9f1-27ea-41a9-8aaa-8528b50c591b","system_id":"levelo_inurba_marseille","lat":43.30888,"lon":5.37202,"is_reserved":false,"is_disabled":false,"rental_uris":{"android":"levelo://app?vid=dbdfb9f1-27ea-41a9-8aaa-8528b50c591b","ios":"levelo://app?vid=dbdfb9f1-27ea-41a9-8aaa-8528b50c591b"},"vehicle_type_id":"4","last_reported":1693602361,"current_range_meters":24000,"station_id":"ce4bguh2rcd13ifvqckg","pricing_plan_id":"free"},{"bike_id":"bce18038-c44b-40e1-91f8-f8d783891115","system_id":"levelo_inurba_marseille","lat":43.30537,"lon":5.3671,"is_reserved":false,"is_disabled":false,"rental_uris":{"android":"levelo://app?vid=bce18038-c44b-40e1-91f8-f8d783891115","ios":"levelo://app?vid=bce18038-c44b-40e1-91f8-f8d783891115"},"vehicle_type_id":"4","last_reported":1693602361,"current_range_meters":2400,"station_id":"ce4bgrp2rcd13ifvqc9g","pricing_plan_id":"free"},{"bike_id":"5911d30f-d7d9-45f9-bcc5-547b72e00c41","system_id":"levelo_inurba_marseille","lat":43.305714,"lon":5.365633,"is_reserved":false,"is_disabled":false,"rental_uris":{"android":"levelo://app?vid=5911d30f-d7d9-45f9-bcc5-547b72e00c41","ios":"levelo://app?vid=5911d30f-d7d9-45f9-bcc5-547b72e00c41"},"vehicle_type_id":"4","last_reported":1693602361,"current_range_meters":7200,"station_id":"ce4bgs12rcd13ifvqcag","pricing_plan_id":"free"},{"bike_id":"2401dcdc-762b-4924-b5a6-45896f683082","system_id":"levelo_inurba_marseille","lat":43.30533,"lon":5.36714,"is_reserved":false,"is_disabled":false,"rental_uris":{"android":"levelo://app?vid=2401dcdc-762b-4924-b5a6-45896f683082","ios":"levelo://app?vid=2401dcdc-762b-4924-b5a6-45896f683082"},"vehicle_type_id":"4","last_reported":1693602361,"current_range_meters":2400,"station_id":"ce4bgrp2rcd13ifvqc9g","pricing_plan_id":"free"},{"bike_id":"1c25d688-39f6-4753-832d-e799703d6eb8","system_id":"levelo_inurba_marseille","lat":43.305368,"lon":5.367343,"is_reserved":false,"is_disabled":false,"rental_uris":{"android":"levelo://app?vid=1c25d688-39f6-4753-832d-e799703d6eb8","ios":"levelo://app?vid=1c25d688-39f6-4753-832d-e799703d6eb8"},"vehicle_type_id":"4","last_reported":1693602361,"current_range_meters":15600,"station_id":"ce4bgrp2rcd13ifvqc9g","pricing_plan_id":"free"},{"bike_id":"93e1b561-a898-4387-9fc0-aa4820d9dd87","system_id":"levelo_inurba_marseille","lat":43.30539,"lon":5.36553,"is_reserved":false,"is_disabled":false,"rental_uris":{"android":"levelo://app?vid=93e1b561-a898-4387-9fc0-aa4820d9dd87","ios":"levelo://app?vid=93e1b561-a898-4387-9fc0-aa4820d9dd87"},"vehicle_type_id":"4","last_reported":1693602361,"current_range_meters":0,"station_id":"ce4bgs12rcd13ifvqcag","pricing_plan_id":"free"},{"bike_id":"0fe14439-f5fb-4611-be00-cccecea170c2","system_id":"levelo_inurba_marseille","lat":43.305989,"lon":5.37225,"is_reserved":false,"is_disabled":false,"rental_uris":{"android":"levelo://app?vid=0fe14439-f5fb-4611-be00-cccecea170c2","ios":"levelo://app?vid=0fe14439-f5fb-4611-be00-cccecea170c2"},"vehicle_type_id":"4","last_reported":1693602361,"current_range_meters":28000,"station_id":"ce4bgqh2rcd13ifvqc4g","pricing_plan_id":"free"},{"bike_id":"b8fe0c84-b7d4-451f-bce9-c209b4654e79","system_id":"levelo_inurba_marseille","lat":43.311131,"lon":5.377651,"is_reserved":false,"is_disabled":false,"rental_uris":{"android":"levelo://app?vid=b8fe0c84-b7d4-451f-bce9-c209b4654e79","ios":"levelo://app?vid=b8fe0c84-b7d4-451f-bce9-c209b4654e79"},"vehicle_type_id":"4","last_reported":1693602361,"current_range_meters":30400,"station_id":"ce4bgt92rcd13ifvqcg0","pricing_plan_id":"free"},{"bike_id":"cd1e2f0e-3c03-4387-bee8-87166613862d","system_id":"levelo_inurba_marseille","lat":43.311125,"lon":5.377624,"is_reserved":false,"is_disabled":false,"rental_uris":{"android":"levelo://app?vid=cd1e2f0e-3c03-4387-bee8-87166613862d","ios":"levelo://app?vid=cd1e2f0e-3c03-4387-bee8-87166613862d"},"vehicle_type_id":"4","last_reported":1693602361,"current_range_meters":3600,"station_id":"ce4bgt92rcd13ifvqcg0","pricing_plan_id":"free"},{"bike_id":"1bc24091-5590-4bd2-a736-68f1fcdb711d","system_id":"levelo_inurba_marseille","lat":43.311125,"lon":5.377624,"is_reserved":false,"is_disabled":false,"rental_uris":{"android":"levelo://app?vid=1bc24091-5590-4bd2-a736-68f1fcdb711d","ios":"levelo://app?vid=1bc24091-5590-4bd2-a736-68f1fcdb711d"},"vehicle_type_id":"4","last_reported":1693602361,"current_range_meters":2000,"station_id":"ce4bgt92rcd13ifvqcg0","pricing_plan_id":"free"},{"bike_id":"0a8bc6ea-896e-45e9-8f79-184bc706b2c8","system_id":"levelo_inurba_marseille","lat":43.311131,"lon":5.377651,"is_reserved":false,"is_disabled":false,"rental_uris":{"android":"levelo://app?vid=0a8bc6ea-896e-45e9-8f79-184bc706b2c8","ios":"levelo://app?vid=0a8bc6ea-896e-45e9-8f79-184bc706b2c8"},"vehicle_type_id":"4","last_reported":1693602361,"current_range_meters":29600,"station_id":"ce4bgt92rcd13ifvqcg0","pricing_plan_id":"free"},{"bike_id":"b2bb8ee1-953c-4e20-825c-2a8290b24960","system_id":"levelo_inurba_marseille","lat":43.311125,"lon":5.377624,"is_reserved":false,"is_disabled":false,"rental_uris":{"android":"levelo://app?vid=b2bb8ee1-953c-4e20-825c-2a8290b24960","ios":"levelo://app?vid=b2bb8ee1-953c-4e20-825c-2a8290b24960"},"vehicle_type_id":"4","last_reported":1693602361,"current_range_meters":800,"station_id":"ce4bgt92rcd13ifvqcg0","pricing_plan_id":"free"},{"bike_id":"96cf4c32-db00-4cb8-b0a3-d6c84e6d7046","system_id":"levelo_inurba_marseille","lat":43.311131,"lon":5.377651,"is_reserved":false,"is_disabled":false,"rental_uris":{"android":"levelo://app?vid=96cf4c32-db00-4cb8-b0a3-d6c84e6d7046","ios":"levelo://app?vid=96cf4c32-db00-4cb8-b0a3-d6c84e6d7046"},"vehicle_type_id":"4","last_reported":1693602361,"current_range_meters":12800,"station_id":"ce4bgt92rcd13ifvqcg0","pricing_plan_id":"free"},{"bike_id":"5b553c2a-459c-4234-b727-e9408200025a","system_id":"levelo_inurba_marseille","lat":43.311131,"lon":5.377651,"is_reserved":false,"is_disabled":false,"rental_uris":{"android":"levelo://app?vid=5b553c2a-459c-4234-b727-e9408200025a","ios":"levelo://app?vid=5b553c2a-459c-4234-b727-e9408200025a"},"vehicle_type_id":"4","last_reported":1693602361,"current_range_meters":13200,"station_id":"ce4bgt92rcd13ifvqcg0","pricing_plan_id":"free"},{"bike_id":"98bf92d7-d38f-4a5b-afc7-d43abdbdd918","system_id":"levelo_inurba_marseille","lat":43.311125,"lon":5.377624,"is_reserved":false,"is_disabled":false,"rental_uris":{"android":"levelo://app?vid=98bf92d7-d38f-4a5b-afc7-d43abdbdd918","ios":"levelo://app?vid=98bf92d7-d38f-4a5b-afc7-d43abdbdd918"},"vehicle_type_id":"4","last_reported":1693602361,"current_range_meters":24400,"station_id":"ce4bgt92rcd13ifvqcg0","pricing_plan_id":"free"},{"bike_id":"478e5943-5bdf-46ce-b102-8c9dcf2b43b7","system_id":"levelo_inurba_marseille","lat":43.32031,"lon":5.37118,"is_reserved":false,"is_disabled":false,"rental_uris":{"android":"levelo://app?vid=478e5943-5bdf-46ce-b102-8c9dcf2b43b7","ios":"levelo://app?vid=478e5943-5bdf-46ce-b102-8c9dcf2b43b7"},"vehicle_type_id":"4","last_reported":1693602361,"current_range_meters":10800,"station_id":"","pricing_plan_id":"free"},{"bike_id":"d4f6e01b-ef0c-47ae-b736-e50485906c06","system_id":"levelo_inurba_marseille","lat":43.307945,"lon":5.376487,"is_reserved":false,"is_disabled":false,"rental_uris":{"android":"levelo://app?vid=d4f6e01b-ef0c-47ae-b736-e50485906c06","ios":"levelo://app?vid=d4f6e01b-ef0c-47ae-b736-e50485906c06"},"vehicle_type_id":"4","last_reported":1693602361,"current_range_meters":8000,"station_id":"ce4bgv92rcd13ifvqcq0","pricing_plan_id":"free"},{"bike_id":"cd2430b5-d827-457f-a12a-f29afa394529","system_id":"levelo_inurba_marseille","lat":43.317075,"lon":5.377367,"is_reserved":false,"is_disabled":false,"rental_uris":{"android":"levelo://app?vid=cd2430b5-d827-457f-a12a-f29afa394529","ios":"levelo://app?vid=cd2430b5-d827-457f-a12a-f29afa394529"},"vehicle_type_id":"4","last_reported":1693602361,"current_range_meters":21600,"station_id":"ce4bgth2rcd13ifvqch0","pricing_plan_id":"free"},{"bike_id":"69b60656-82e2-4ba7-bdf5-7fca4c64bdcd","system_id":"levelo_inurba_marseille","lat":43.3031,"lon":5.36866,"is_reserved":false,"is_disabled":false,"rental_uris":{"android":"levelo://app?vid=69b60656-82e2-4ba7-bdf5-7fca4c64bdcd","ios":"levelo://app?vid=69b60656-82e2-4ba7-bdf5-7fca4c64bdcd"},"vehicle_type_id":"4","last_reported":1693602361,"current_range_meters":3200,"station_id":"ce4bgqh2rcd13ifvqc5g","pricing_plan_id":"free"},{"bike_id":"9dbfb0b2-a7cf-4105-b5e7-5cc01e87f170","system_id":"levelo_inurba_marseille","lat":43.31534,"lon":5.38041,"is_reserved":false,"is_disabled":false,"rental_uris":{"android":"levelo://app?vid=9dbfb0b2-a7cf-4105-b5e7-5cc01e87f170","ios":"levelo://app?vid=9dbfb0b2-a7cf-4105-b5e7-5cc01e87f170"},"vehicle_type_id":"4","last_reported":1693602361,"current_range_meters":29600,"station_id":"ce4bhsp2rcd13ifvqi50","pricing_plan_id":"free"},{"bike_id":"82e10271-08c4-471e-848f-eed4cbd63ad5","system_id":"levelo_inurba_marseille","lat":43.30132,"lon":5.36541,"is_reserved":false,"is_disabled":false,"rental_uris":{"android":"levelo://app?vid=82e10271-08c4-471e-848f-eed4cbd63ad5","ios":"levelo://app?vid=82e10271-08c4-471e-848f-eed4cbd63ad5"},"vehicle_type_id":"4","last_reported":1693602361,"current_range_meters":3600,"station_id":"","pricing_plan_id":"free"},{"bike_id":"156da691-fbe1-4c2f-a502-c0ab6344790e","system_id":"levelo_inurba_marseille","lat":43.308012,"lon":5.381511,"is_reserved":false,"is_disabled":false,"rental_uris":{"android":"levelo://app?vid=156da691-fbe1-4c2f-a502-c0ab6344790e","ios":"levelo://app?vid=156da691-fbe1-4c2f-a502-c0ab6344790e"},"vehicle_type_id":"4","last_reported":1693602361,"current_range_meters":6400,"station_id":"ce4bgt12rcd13ifvqce0","pricing_plan_id":"free"},{"bike_id":"805de5d4-4fc3-4526-92b8-1f89ea6bb86b","system_id":"levelo_inurba_marseille","lat":43.30793,"lon":5.3815,"is_reserved":false,"is_disabled":false,"rental_uris":{"android":"levelo://app?vid=805de5d4-4fc3-4526-92b8-1f89ea6bb86b","ios":"levelo://app?vid=805de5d4-4fc3-4526-92b8-1f89ea6bb86b"},"vehicle_type_id":"4","last_reported":1693602361,"current_range_meters":24800,"station_id":"ce4bgt12rcd13ifvqce0","pricing_plan_id":"free"},{"bike_id":"da7d3176-a6b5-4827-87a4-3c2763ad3a12","system_id":"levelo_inurba_marseille","lat":43.308012,"lon":5.381511,"is_reserved":false,"is_disabled":false,"rental_uris":{"android":"levelo://app?vid=da7d3176-a6b5-4827-87a4-3c2763ad3a12","ios":"levelo://app?vid=da7d3176-a6b5-4827-87a4-3c2763ad3a12"},"vehicle_type_id":"4","last_reported":1693602361,"current_range_meters":2400,"station_id":"ce4bgt12rcd13ifvqce0","pricing_plan_id":"free"},{"bike_id":"81c1ad5e-88b7-496b-b0a9-730546888aad","system_id":"levelo_inurba_marseille","lat":43.30791,"lon":5.38164,"is_reserved":false,"is_disabled":false,"rental_uris":{"android":"levelo://app?vid=81c1ad5e-88b7-496b-b0a9-730546888aad","ios":"levelo://app?vid=81c1ad5e-88b7-496b-b0a9-730546888aad"},"vehicle_type_id":"4","last_reported":1693602361,"current_range_meters":25200,"station_id":"ce4bgt12rcd13ifvqce0","pricing_plan_id":"free"},{"bike_id":"46c7a749-3fff-43ce-a8fb-3227dd7fd00a","system_id":"levelo_inurba_marseille","lat":43.30964,"lon":5.38261,"is_reserved":false,"is_disabled":false,"rental_uris":{"android":"levelo://app?vid=46c7a749-3fff-43ce-a8fb-3227dd7fd00a","ios":"levelo://app?vid=46c7a749-3fff-43ce-a8fb-3227dd7fd00a"},"vehicle_type_id":"4","last_reported":1693602361,"current_range_meters":8000,"station_id":"","pricing_plan_id":"free"},{"bike_id":"39fa0815-86c2-451b-82f8-da29d33de900","system_id":"levelo_inurba_marseille","lat":43.304606,"lon":5.379026,"is_reserved":false,"is_disabled":false,"rental_uris":{"android":"levelo://app?vid=39fa0815-86c2-451b-82f8-da29d33de900","ios":"levelo://app?vid=39fa0815-86c2-451b-82f8-da29d33de900"},"vehicle_type_id":"4","last_reported":1693602361,"current_range_meters":9600,"station_id":"ce4bgup2rcd13ifvqcn0","pricing_plan_id":"free"},{"bike_id":"392a0a7f-196d-422a-90b5-9f9741707c22","system_id":"levelo_inurba_marseille","lat":43.304606,"lon":5.379026,"is_reserved":false,"is_disabled":false,"rental_uris":{"android":"levelo://app?vid=392a0a7f-196d-422a-90b5-9f9741707c22","ios":"levelo://app?vid=392a0a7f-196d-422a-90b5-9f9741707c22"},"vehicle_type_id":"4","last_reported":1693602361,"current_range_meters":29600,"station_id":"ce4bgup2rcd13ifvqcn0","pricing_plan_id":"free"},{"bike_id":"9bea51f9-ea43-4b31-8db7-dddbb2670e77","system_id":"levelo_inurba_marseille","lat":43.30456,"lon":5.37902,"is_reserved":false,"is_disabled":false,"rental_uris":{"android":"levelo://app?vid=9bea51f9-ea43-4b31-8db7-dddbb2670e77","ios":"levelo://app?vid=9bea51f9-ea43-4b31-8db7-dddbb2670e77"},"vehicle_type_id":"4","last_reported":1693602361,"current_range_meters":30800,"station_id":"ce4bgup2rcd13ifvqcn0","pricing_plan_id":"free"},{"bike_id":"c7b61fa8-e94a-4967-ba62-388a95da59be","system_id":"levelo_inurba_marseille","lat":43.304606,"lon":5.379026,"is_reserved":false,"is_disabled":false,"rental_uris":{"android":"levelo://app?vid=c7b61fa8-e94a-4967-ba62-388a95da59be","ios":"levelo://app?vid=c7b61fa8-e94a-4967-ba62-388a95da59be"},"vehicle_type_id":"4","last_reported":1693602361,"current_range_meters":5200,"station_id":"ce4bgup2rcd13ifvqcn0","pricing_plan_id":"free"},{"bike_id":"dbf03ef2-74c8-4e39-9d91-b728525d07cb","system_id":"levelo_inurba_marseille","lat":43.302784,"lon":5.377158,"is_reserved":false,"is_disabled":false,"rental_uris":{"android":"levelo://app?vid=dbf03ef2-74c8-4e39-9d91-b728525d07cb","ios":"levelo://app?vid=dbf03ef2-74c8-4e39-9d91-b728525d07cb"},"vehicle_type_id":"4","last_reported":1693602361,"current_range_meters":29600,"station_id":"ce4bguh2rcd13ifvqcj0","pricing_plan_id":"free"},{"bike_id":"bc319759-5c13-4c85-b3ca-fb2e85c725a1","system_id":"levelo_inurba_marseille","lat":43.302784,"lon":5.377158,"is_reserved":false,"is_disabled":false,"rental_uris":{"android":"levelo://app?vid=bc319759-5c13-4c85-b3ca-fb2e85c725a1","ios":"levelo://app?vid=bc319759-5c13-4c85-b3ca-fb2e85c725a1"},"vehicle_type_id":"4","last_reported":1693602361,"current_range_meters":5600,"station_id":"ce4bguh2rcd13ifvqcj0","pricing_plan_id":"free"},{"bike_id":"1e0f211e-028a-46cb-9a0d-9899ac904750","system_id":"levelo_inurba_marseille","lat":43.319935,"lon":5.381699,"is_reserved":false,"is_disabled":false,"rental_uris":{"android":"levelo://app?vid=1e0f211e-028a-46cb-9a0d-9899ac904750","ios":"levelo://app?vid=1e0f211e-028a-46cb-9a0d-9899ac904750"},"vehicle_type_id":"4","last_reported":1693602361,"current_range_meters":28400,"station_id":"ce4bhr12rcd13ifvqhpg","pricing_plan_id":"free"},{"bike_id":"b6abff1c-f097-4297-b7f5-e905b62cd8ab","system_id":"levelo_inurba_marseille","lat":43.31999,"lon":5.38151,"is_reserved":false,"is_disabled":false,"rental_uris":{"android":"levelo://app?vid=b6abff1c-f097-4297-b7f5-e905b62cd8ab","ios":"levelo://app?vid=b6abff1c-f097-4297-b7f5-e905b62cd8ab"},"vehicle_type_id":"4","last_reported":1693602361,"current_range_meters":18800,"station_id":"ce4bhr12rcd13ifvqhpg","pricing_plan_id":"free"},{"bike_id":"cc28612f-b913-4e07-81a1-e8a4df49747b","system_id":"levelo_inurba_marseille","lat":43.32,"lon":5.38151,"is_reserved":false,"is_disabled":false,"rental_uris":{"android":"levelo://app?vid=cc28612f-b913-4e07-81a1-e8a4df49747b","ios":"levelo://app?vid=cc28612f-b913-4e07-81a1-e8a4df49747b"},"vehicle_type_id":"4","last_reported":1693602361,"current_range_meters":16400,"station_id":"ce4bhr12rcd13ifvqhpg","pricing_plan_id":"free"},{"bike_id":"00edcf87-6a10-4e8c-a610-8fd14ac44513","system_id":"levelo_inurba_marseille","lat":43.31995,"lon":5.38157,"is_reserved":false,"is_disabled":false,"rental_uris":{"android":"levelo://app?vid=00edcf87-6a10-4e8c-a610-8fd14ac44513","ios":"levelo://app?vid=00edcf87-6a10-4e8c-a610-8fd14ac44513"},"vehicle_type_id":"4","last_reported":1693602361,"current_range_meters":18800,"station_id":"ce4bhr12rcd13ifvqhpg","pricing_plan_id":"free"},{"bike_id":"d13e2fc0-5196-41d3-8d49-bf9314309b08","system_id":"levelo_inurba_marseille","lat":43.319935,"lon":5.381699,"is_reserved":false,"is_disabled":false,"rental_uris":{"android":"levelo://app?vid=d13e2fc0-5196-41d3-8d49-bf9314309b08","ios":"levelo://app?vid=d13e2fc0-5196-41d3-8d49-bf9314309b08"},"vehicle_type_id":"4","last_reported":1693602361,"current_range_meters":31200,"station_id":"ce4bhr12rcd13ifvqhpg","pricing_plan_id":"free"},{"bike_id":"a577b291-6531-4092-8be8-e9419d4bb724","system_id":"levelo_inurba_marseille","lat":43.31995,"lon":5.38163,"is_reserved":false,"is_disabled":false,"rental_uris":{"android":"levelo://app?vid=a577b291-6531-4092-8be8-e9419d4bb724","ios":"levelo://app?vid=a577b291-6531-4092-8be8-e9419d4bb724"},"vehicle_type_id":"4","last_reported":1693602361,"current_range_meters":12800,"station_id":"ce4bhr12rcd13ifvqhpg","pricing_plan_id":"free"},{"bike_id":"c0aa06d4-ea1c-42f1-82e3-b4b98c641344","system_id":"levelo_inurba_marseille","lat":43.32,"lon":5.38164,"is_reserved":false,"is_disabled":false,"rental_uris":{"android":"levelo://app?vid=c0aa06d4-ea1c-42f1-82e3-b4b98c641344","ios":"levelo://app?vid=c0aa06d4-ea1c-42f1-82e3-b4b98c641344"},"vehicle_type_id":"4","last_reported":1693602361,"current_range_meters":23200,"station_id":"ce4bhr12rcd13ifvqhpg","pricing_plan_id":"free"},{"bike_id":"3ce12e8d-2187-433e-90ea-725012bee47a","system_id":"levelo_inurba_marseille","lat":43.319935,"lon":5.381699,"is_reserved":false,"is_disabled":false,"rental_uris":{"android":"levelo://app?vid=3ce12e8d-2187-433e-90ea-725012bee47a","ios":"levelo://app?vid=3ce12e8d-2187-433e-90ea-725012bee47a"},"vehicle_type_id":"4","last_reported":1693602361,"current_range_meters":26000,"station_id":"ce4bhr12rcd13ifvqhpg","pricing_plan_id":"free"},{"bike_id":"77cc4a87-903a-4ac8-836f-05d771ccc1e4","system_id":"levelo_inurba_marseille","lat":43.3201,"lon":5.38164,"is_reserved":false,"is_disabled":false,"rental_uris":{"android":"levelo://app?vid=77cc4a87-903a-4ac8-836f-05d771ccc1e4","ios":"levelo://app?vid=77cc4a87-903a-4ac8-836f-05d771ccc1e4"},"vehicle_type_id":"4","last_reported":1693602361,"current_range_meters":26400,"station_id":"ce4bhr12rcd13ifvqhpg","pricing_plan_id":"free"},{"bike_id":"414ddebc-50ee-4b72-8933-b9fb6243d3af","system_id":"levelo_inurba_marseille","lat":43.313571,"lon":5.384829,"is_reserved":false,"is_disabled":false,"rental_uris":{"android":"levelo://app?vid=414ddebc-50ee-4b72-8933-b9fb6243d3af","ios":"levelo://app?vid=414ddebc-50ee-4b72-8933-b9fb6243d3af"},"vehicle_type_id":"4","last_reported":1693602361,"current_range_meters":22800,"station_id":"ce4bgt92rcd13ifvqcf0","pricing_plan_id":"free"},{"bike_id":"4ae58d25-f777-459d-8748-105368245b55","system_id":"levelo_inurba_marseille","lat":43.313571,"lon":5.384829,"is_reserved":false,"is_disabled":false,"rental_uris":{"android":"levelo://app?vid=4ae58d25-f777-459d-8748-105368245b55","ios":"levelo://app?vid=4ae58d25-f777-459d-8748-105368245b55"},"vehicle_type_id":"4","last_reported":1693602361,"current_range_meters":29200,"station_id":"ce4bgt92rcd13ifvqcf0","pricing_plan_id":"free"},{"bike_id":"d78719fb-ca35-41f0-90b4-3603dcbb3ed4","system_id":"levelo_inurba_marseille","lat":43.32684,"lon":5.36719,"is_reserved":false,"is_disabled":false,"rental_uris":{"android":"levelo://app?vid=d78719fb-ca35-41f0-90b4-3603dcbb3ed4","ios":"levelo://app?vid=d78719fb-ca35-41f0-90b4-3603dcbb3ed4"},"vehicle_type_id":"4","last_reported":1693602361,"current_range_meters":22000,"station_id":"ce4bhs92rcd13ifvqi0g","pricing_plan_id":"free"},{"bike_id":"45f20a59-c022-42d0-9e41-5fd7fba30146","system_id":"levelo_inurba_marseille","lat":43.305364,"lon":5.384119,"is_reserved":false,"is_disabled":false,"rental_uris":{"android":"levelo://app?vid=45f20a59-c022-42d0-9e41-5fd7fba30146","ios":"levelo://app?vid=45f20a59-c022-42d0-9e41-5fd7fba30146"},"vehicle_type_id":"4","last_reported":1693602361,"current_range_meters":2800,"station_id":"ce4bgg92rcd13ifvqb30","pricing_plan_id":"free"},{"bike_id":"4ade4f25-81eb-4790-8b82-da5cbe4a7854","system_id":"levelo_inurba_marseille","lat":43.305364,"lon":5.384119,"is_reserved":false,"is_disabled":false,"rental_uris":{"android":"levelo://app?vid=4ade4f25-81eb-4790-8b82-da5cbe4a7854","ios":"levelo://app?vid=4ade4f25-81eb-4790-8b82-da5cbe4a7854"},"vehicle_type_id":"4","last_reported":1693602361,"current_range_meters":20400,"station_id":"ce4bgg92rcd13ifvqb30","pricing_plan_id":"free"},{"bike_id":"27e1b2f2-13ce-4f0d-ae11-867c202da577","system_id":"levelo_inurba_marseille","lat":43.311722,"lon":5.387247,"is_reserved":false,"is_disabled":false,"rental_uris":{"android":"levelo://app?vid=27e1b2f2-13ce-4f0d-ae11-867c202da577","ios":"levelo://app?vid=27e1b2f2-13ce-4f0d-ae11-867c202da577"},"vehicle_type_id":"4","last_reported":1693602361,"current_range_meters":15600,"station_id":"ce4bgv12rcd13ifvqcp0","pricing_plan_id":"free"},{"bike_id":"836ee4b7-ecc3-4a0d-8603-b32b6febec90","system_id":"levelo_inurba_marseille","lat":43.311722,"lon":5.387247,"is_reserved":false,"is_disabled":false,"rental_uris":{"android":"levelo://app?vid=836ee4b7-ecc3-4a0d-8603-b32b6febec90","ios":"levelo://app?vid=836ee4b7-ecc3-4a0d-8603-b32b6febec90"},"vehicle_type_id":"4","last_reported":1693602361,"current_range_meters":13200,"station_id":"ce4bgv12rcd13ifvqcp0","pricing_plan_id":"free"},{"bike_id":"816a484a-2a3b-4788-b467-a74634c8ebd2","system_id":"levelo_inurba_marseille","lat":43.31173,"lon":5.38717,"is_reserved":false,"is_disabled":false,"rental_uris":{"android":"levelo://app?vid=816a484a-2a3b-4788-b467-a74634c8ebd2","ios":"levelo://app?vid=816a484a-2a3b-4788-b467-a74634c8ebd2"},"vehicle_type_id":"4","last_reported":1693602361,"current_range_meters":400,"station_id":"ce4bgv12rcd13ifvqcp0","pricing_plan_id":"free"},{"bike_id":"b1637fee-f770-43c1-8fbb-27221feb94a8","system_id":"levelo_inurba_marseille","lat":43.311722,"lon":5.387247,"is_reserved":false,"is_disabled":false,"rental_uris":{"android":"levelo://app?vid=b1637fee-f770-43c1-8fbb-27221feb94a8","ios":"levelo://app?vid=b1637fee-f770-43c1-8fbb-27221feb94a8"},"vehicle_type_id":"4","last_reported":1693602361,"current_range_meters":31200,"station_id":"ce4bgv12rcd13ifvqcp0","pricing_plan_id":"free"},{"bike_id":"2f9e2def-2173-4eb4-a460-9a385f59debe","system_id":"levelo_inurba_marseille","lat":43.299243,"lon":5.37481,"is_reserved":false,"is_disabled":false,"rental_uris":{"android":"levelo://app?vid=2f9e2def-2173-4eb4-a460-9a385f59debe","ios":"levelo://app?vid=2f9e2def-2173-4eb4-a460-9a385f59debe"},"vehicle_type_id":"4","last_reported":1693602361,"current_range_meters":31200,"station_id":"ce4bgjh2rcd13ifvqbg0","pricing_plan_id":"free"},{"bike_id":"050ec1c3-7ce2-452e-a5b9-800ce73f308c","system_id":"levelo_inurba_marseille","lat":43.311722,"lon":5.387247,"is_reserved":false,"is_disabled":false,"rental_uris":{"android":"levelo://app?vid=050ec1c3-7ce2-452e-a5b9-800ce73f308c","ios":"levelo://app?vid=050ec1c3-7ce2-452e-a5b9-800ce73f308c"},"vehicle_type_id":"4","last_reported":1693602361,"current_range_meters":4400,"station_id":"ce4bgv12rcd13ifvqcp0","pricing_plan_id":"free"},{"bike_id":"7907798f-9429-4e10-ad1e-c23347674211","system_id":"levelo_inurba_marseille","lat":43.31181,"lon":5.38728,"is_reserved":false,"is_disabled":false,"rental_uris":{"android":"levelo://app?vid=7907798f-9429-4e10-ad1e-c23347674211","ios":"levelo://app?vid=7907798f-9429-4e10-ad1e-c23347674211"},"vehicle_type_id":"4","last_reported":1693602361,"current_range_meters":10000,"station_id":"ce4bgv12rcd13ifvqcp0","pricing_plan_id":"free"},{"bike_id":"2787b3a9-a734-430f-93c3-9cdac1c5480a","system_id":"levelo_inurba_marseille","lat":43.31177,"lon":5.38729,"is_reserved":false,"is_disabled":false,"rental_uris":{"android":"levelo://app?vid=2787b3a9-a734-430f-93c3-9cdac1c5480a","ios":"levelo://app?vid=2787b3a9-a734-430f-93c3-9cdac1c5480a"},"vehicle_type_id":"4","last_reported":1693602361,"current_range_meters":6800,"station_id":"ce4bgv12rcd13ifvqcp0","pricing_plan_id":"free"},{"bike_id":"b2e8338d-3ca9-42f1-ab8c-a3b85a421810","system_id":"levelo_inurba_marseille","lat":43.311722,"lon":5.387247,"is_reserved":false,"is_disabled":false,"rental_uris":{"android":"levelo://app?vid=b2e8338d-3ca9-42f1-ab8c-a3b85a421810","ios":"levelo://app?vid=b2e8338d-3ca9-42f1-ab8c-a3b85a421810"},"vehicle_type_id":"4","last_reported":1693602361,"current_range_meters":31200,"station_id":"ce4bgv12rcd13ifvqcp0","pricing_plan_id":"free"},{"bike_id":"924d6452-f7f7-4baa-af9a-49926af70474","system_id":"levelo_inurba_marseille","lat":43.297794,"lon":5.370888,"is_reserved":false,"is_disabled":false,"rental_uris":{"android":"levelo://app?vid=924d6452-f7f7-4baa-af9a-49926af70474","ios":"levelo://app?vid=924d6452-f7f7-4baa-af9a-49926af70474"},"vehicle_type_id":"4","last_reported":1693602361,"current_range_meters":28400,"station_id":"ce4bgop2rcd13ifvqc1g","pricing_plan_id":"free"},{"bike_id":"8143ebd5-c5c5-467f-a353-1c0066f90341","system_id":"levelo_inurba_marseille","lat":43.29777,"lon":5.37099,"is_reserved":false,"is_disabled":false,"rental_uris":{"android":"levelo://app?vid=8143ebd5-c5c5-467f-a353-1c0066f90341","ios":"levelo://app?vid=8143ebd5-c5c5-467f-a353-1c0066f90341"},"vehicle_type_id":"4","last_reported":1693602361,"current_range_meters":31600,"station_id":"ce4bgop2rcd13ifvqc1g","pricing_plan_id":"free"},{"bike_id":"5c87a67e-30fe-487e-a0b1-dda6a5c26341","system_id":"levelo_inurba_marseille","lat":43.3228,"lon":5.38283,"is_reserved":false,"is_disabled":false,"rental_uris":{"android":"levelo://app?vid=5c87a67e-30fe-487e-a0b1-dda6a5c26341","ios":"levelo://app?vid=5c87a67e-30fe-487e-a0b1-dda6a5c26341"},"vehicle_type_id":"4","last_reported":1693602361,"current_range_meters":2000,"station_id":"ce4bhr12rcd13ifvqhqg","pricing_plan_id":"free"},{"bike_id":"c5eee610-be09-4243-9cee-abef8479a037","system_id":"levelo_inurba_marseille","lat":43.32286,"lon":5.38278,"is_reserved":false,"is_disabled":false,"rental_uris":{"android":"levelo://app?vid=c5eee610-be09-4243-9cee-abef8479a037","ios":"levelo://app?vid=c5eee610-be09-4243-9cee-abef8479a037"},"vehicle_type_id":"4","last_reported":1693602361,"current_range_meters":15200,"station_id":"ce4bhr12rcd13ifvqhqg","pricing_plan_id":"free"},{"bike_id":"88c4a93e-f84a-4492-9ca8-7095f26ad20a","system_id":"levelo_inurba_marseille","lat":43.32289,"lon":5.38278,"is_reserved":false,"is_disabled":false,"rental_uris":{"android":"levelo://app?vid=88c4a93e-f84a-4492-9ca8-7095f26ad20a","ios":"levelo://app?vid=88c4a93e-f84a-4492-9ca8-7095f26ad20a"},"vehicle_type_id":"4","last_reported":1693602361,"current_range_meters":13600,"station_id":"ce4bhr12rcd13ifvqhqg","pricing_plan_id":"free"},{"bike_id":"c29114e8-dc25-4be3-832f-1611beb9061c","system_id":"levelo_inurba_marseille","lat":43.322872,"lon":5.382756,"is_reserved":false,"is_disabled":false,"rental_uris":{"android":"levelo://app?vid=c29114e8-dc25-4be3-832f-1611beb9061c","ios":"levelo://app?vid=c29114e8-dc25-4be3-832f-1611beb9061c"},"vehicle_type_id":"4","last_reported":1693602361,"current_range_meters":25600,"station_id":"ce4bhr12rcd13ifvqhqg","pricing_plan_id":"free"},{"bike_id":"3d2a691c-74eb-4958-aebd-9ebc95f3d8a8","system_id":"levelo_inurba_marseille","lat":43.32292,"lon":5.38281,"is_reserved":false,"is_disabled":false,"rental_uris":{"android":"levelo://app?vid=3d2a691c-74eb-4958-aebd-9ebc95f3d8a8","ios":"levelo://app?vid=3d2a691c-74eb-4958-aebd-9ebc95f3d8a8"},"vehicle_type_id":"4","last_reported":1693602361,"current_range_meters":13600,"station_id":"ce4bhr12rcd13ifvqhqg","pricing_plan_id":"free"},{"bike_id":"61aecc97-3e80-4a49-8c3e-0135b524d154","system_id":"levelo_inurba_marseille","lat":43.32294,"lon":5.38279,"is_reserved":false,"is_disabled":false,"rental_uris":{"android":"levelo://app?vid=61aecc97-3e80-4a49-8c3e-0135b524d154","ios":"levelo://app?vid=61aecc97-3e80-4a49-8c3e-0135b524d154"},"vehicle_type_id":"4","last_reported":1693602361,"current_range_meters":22000,"station_id":"ce4bhr12rcd13ifvqhqg","pricing_plan_id":"free"},{"bike_id":"bc8f34a2-0447-439b-8108-9a4250aef71a","system_id":"levelo_inurba_marseille","lat":43.32291,"lon":5.38285,"is_reserved":false,"is_disabled":false,"rental_uris":{"android":"levelo://app?vid=bc8f34a2-0447-439b-8108-9a4250aef71a","ios":"levelo://app?vid=bc8f34a2-0447-439b-8108-9a4250aef71a"},"vehicle_type_id":"4","last_reported":1693602361,"current_range_meters":29600,"station_id":"ce4bhr12rcd13ifvqhqg","pricing_plan_id":"free"},{"bike_id":"c60d4868-4096-4de5-aded-d4c06007e703","system_id":"levelo_inurba_marseille","lat":43.32827,"lon":5.36682,"is_reserved":false,"is_disabled":false,"rental_uris":{"android":"levelo://app?vid=c60d4868-4096-4de5-aded-d4c06007e703","ios":"levelo://app?vid=c60d4868-4096-4de5-aded-d4c06007e703"},"vehicle_type_id":"4","last_reported":1693602361,"current_range_meters":2400,"station_id":"ce4bhs92rcd13ifvqi0g","pricing_plan_id":"free"},{"bike_id":"3dbd29e3-656f-4591-9768-b2ad20e6e577","system_id":"levelo_inurba_marseille","lat":43.328371,"lon":5.366912,"is_reserved":false,"is_disabled":false,"rental_uris":{"android":"levelo://app?vid=3dbd29e3-656f-4591-9768-b2ad20e6e577","ios":"levelo://app?vid=3dbd29e3-656f-4591-9768-b2ad20e6e577"},"vehicle_type_id":"4","last_reported":1693602361,"current_range_meters":2800,"station_id":"ce4bhs92rcd13ifvqi0g","pricing_plan_id":"free"},{"bike_id":"bd0bd295-6ecc-40c4-a4d0-89f645593756","system_id":"levelo_inurba_marseille","lat":43.297163,"lon":5.365866,"is_reserved":false,"is_disabled":false,"rental_uris":{"android":"levelo://app?vid=bd0bd295-6ecc-40c4-a4d0-89f645593756","ios":"levelo://app?vid=bd0bd295-6ecc-40c4-a4d0-89f645593756"},"vehicle_type_id":"4","last_reported":1693602361,"current_range_meters":21200,"station_id":"ce4bgn12rcd13ifvqbt0","pricing_plan_id":"free"},{"bike_id":"dd789220-e7b5-42c1-b9dc-dc4243148021","system_id":"levelo_inurba_marseille","lat":43.297163,"lon":5.365866,"is_reserved":false,"is_disabled":false,"rental_uris":{"android":"levelo://app?vid=dd789220-e7b5-42c1-b9dc-dc4243148021","ios":"levelo://app?vid=dd789220-e7b5-42c1-b9dc-dc4243148021"},"vehicle_type_id":"4","last_reported":1693602361,"current_range_meters":31200,"station_id":"ce4bgn12rcd13ifvqbt0","pricing_plan_id":"free"},{"bike_id":"fbbb45c9-7422-4655-8ef3-a5b17f9c75e4","system_id":"levelo_inurba_marseille","lat":43.2968,"lon":5.37291,"is_reserved":false,"is_disabled":false,"rental_uris":{"android":"levelo://app?vid=fbbb45c9-7422-4655-8ef3-a5b17f9c75e4","ios":"levelo://app?vid=fbbb45c9-7422-4655-8ef3-a5b17f9c75e4"},"vehicle_type_id":"4","last_reported":1693602361,"current_range_meters":0,"station_id":"ce4bgk12rcd13ifvqbj0","pricing_plan_id":"free"},{"bike_id":"d3139180-8ba9-4c91-b6e4-8baae3c22113","system_id":"levelo_inurba_marseille","lat":43.296131,"lon":5.370773,"is_reserved":false,"is_disabled":false,"rental_uris":{"android":"levelo://app?vid=d3139180-8ba9-4c91-b6e4-8baae3c22113","ios":"levelo://app?vid=d3139180-8ba9-4c91-b6e4-8baae3c22113"},"vehicle_type_id":"4","last_reported":1693602361,"current_range_meters":32000,"station_id":"ce4bgnh2rcd13ifvqc0g","pricing_plan_id":"free"},{"bike_id":"65d934c8-ea94-404c-b991-a012f59c0b64","system_id":"levelo_inurba_marseille","lat":43.296129,"lon":5.370777,"is_reserved":false,"is_disabled":false,"rental_uris":{"android":"levelo://app?vid=65d934c8-ea94-404c-b991-a012f59c0b64","ios":"levelo://app?vid=65d934c8-ea94-404c-b991-a012f59c0b64"},"vehicle_type_id":"4","last_reported":1693602361,"current_range_meters":26000,"station_id":"ce4bgnh2rcd13ifvqc0g","pricing_plan_id":"free"},{"bike_id":"4979a6fa-0d65-44aa-b303-dd3b8252921a","system_id":"levelo_inurba_marseille","lat":43.29573,"lon":5.367355,"is_reserved":false,"is_disabled":false,"rental_uris":{"android":"levelo://app?vid=4979a6fa-0d65-44aa-b303-dd3b8252921a","ios":"levelo://app?vid=4979a6fa-0d65-44aa-b303-dd3b8252921a"},"vehicle_type_id":"4","last_reported":1693602361,"current_range_meters":27200,"station_id":"ce4bgph2rcd13ifvqc2g","pricing_plan_id":"free"},{"bike_id":"33832156-628f-4131-8140-5c15b13b19d8","system_id":"levelo_inurba_marseille","lat":43.309526,"lon":5.390011,"is_reserved":false,"is_disabled":false,"rental_uris":{"android":"levelo://app?vid=33832156-628f-4131-8140-5c15b13b19d8","ios":"levelo://app?vid=33832156-628f-4131-8140-5c15b13b19d8"},"vehicle_type_id":"4","last_reported":1693602361,"current_range_meters":17600,"station_id":"ce4bgup2rcd13ifvqco0","pricing_plan_id":"free"},{"bike_id":"02d7d09e-c48d-45bb-a090-3f7efb092853","system_id":"levelo_inurba_marseille","lat":43.30945,"lon":5.39026,"is_reserved":false,"is_disabled":false,"rental_uris":{"android":"levelo://app?vid=02d7d09e-c48d-45bb-a090-3f7efb092853","ios":"levelo://app?vid=02d7d09e-c48d-45bb-a090-3f7efb092853"},"vehicle_type_id":"4","last_reported":1693602361,"current_range_meters":16800,"station_id":"ce4bgup2rcd13ifvqco0","pricing_plan_id":"free"},{"bike_id":"f99d2b46-cbf2-496e-a5b3-f0583a89f274","system_id":"levelo_inurba_marseille","lat":43.30954,"lon":5.39029,"is_reserved":false,"is_disabled":false,"rental_uris":{"android":"levelo://app?vid=f99d2b46-cbf2-496e-a5b3-f0583a89f274","ios":"levelo://app?vid=f99d2b46-cbf2-496e-a5b3-f0583a89f274"},"vehicle_type_id":"4","last_reported":1693602361,"current_range_meters":25600,"station_id":"ce4bgup2rcd13ifvqco0","pricing_plan_id":"free"},{"bike_id":"bd9def18-a73e-43dc-8ec5-39bef1b42316","system_id":"levelo_inurba_marseille","lat":43.3095,"lon":5.39034,"is_reserved":false,"is_disabled":false,"rental_uris":{"android":"levelo://app?vid=bd9def18-a73e-43dc-8ec5-39bef1b42316","ios":"levelo://app?vid=bd9def18-a73e-43dc-8ec5-39bef1b42316"},"vehicle_type_id":"4","last_reported":1693602361,"current_range_meters":31200,"station_id":"ce4bgup2rcd13ifvqco0","pricing_plan_id":"free"},{"bike_id":"90962355-875b-48e5-b1de-616679754405","system_id":"levelo_inurba_marseille","lat":43.30948,"lon":5.39035,"is_reserved":false,"is_disabled":false,"rental_uris":{"android":"levelo://app?vid=90962355-875b-48e5-b1de-616679754405","ios":"levelo://app?vid=90962355-875b-48e5-b1de-616679754405"},"vehicle_type_id":"4","last_reported":1693602361,"current_range_meters":31200,"station_id":"ce4bgup2rcd13ifvqco0","pricing_plan_id":"free"},{"bike_id":"74603b1d-5a06-445b-bae1-cbfb427aa90e","system_id":"levelo_inurba_marseille","lat":43.309589,"lon":5.390258,"is_reserved":false,"is_disabled":false,"rental_uris":{"android":"levelo://app?vid=74603b1d-5a06-445b-bae1-cbfb427aa90e","ios":"levelo://app?vid=74603b1d-5a06-445b-bae1-cbfb427aa90e"},"vehicle_type_id":"4","last_reported":1693602361,"current_range_meters":31200,"station_id":"ce4bgup2rcd13ifvqco0","pricing_plan_id":"free"},{"bike_id":"9ee7b5b4-9d8d-42ac-b8f4-92526e4653aa","system_id":"levelo_inurba_marseille","lat":43.3095,"lon":5.39038,"is_reserved":false,"is_disabled":false,"rental_uris":{"android":"levelo://app?vid=9ee7b5b4-9d8d-42ac-b8f4-92526e4653aa","ios":"levelo://app?vid=9ee7b5b4-9d8d-42ac-b8f4-92526e4653aa"},"vehicle_type_id":"4","last_reported":1693602361,"current_range_meters":30800,"station_id":"ce4bgup2rcd13ifvqco0","pricing_plan_id":"free"},{"bike_id":"f641d5de-02d3-4e93-8a2a-e67517fd2891","system_id":"levelo_inurba_marseille","lat":43.309589,"lon":5.390258,"is_reserved":false,"is_disabled":false,"rental_uris":{"android":"levelo://app?vid=f641d5de-02d3-4e93-8a2a-e67517fd2891","ios":"levelo://app?vid=f641d5de-02d3-4e93-8a2a-e67517fd2891"},"vehicle_type_id":"4","last_reported":1693602361,"current_range_meters":18000,"station_id":"ce4bgup2rcd13ifvqco0","pricing_plan_id":"free"},{"bike_id":"08a66e4f-0f5f-4958-a276-dbe07ddb873d","system_id":"levelo_inurba_marseille","lat":43.30941,"lon":5.39042,"is_reserved":false,"is_disabled":false,"rental_uris":{"android":"levelo://app?vid=08a66e4f-0f5f-4958-a276-dbe07ddb873d","ios":"levelo://app?vid=08a66e4f-0f5f-4958-a276-dbe07ddb873d"},"vehicle_type_id":"4","last_reported":1693602361,"current_range_meters":0,"station_id":"ce4bgup2rcd13ifvqco0","pricing_plan_id":"free"},{"bike_id":"c2d3fcc1-12e7-4988-ad35-0180af81b3c7","system_id":"levelo_inurba_marseille","lat":43.317557,"lon":5.390173,"is_reserved":false,"is_disabled":false,"rental_uris":{"android":"levelo://app?vid=c2d3fcc1-12e7-4988-ad35-0180af81b3c7","ios":"levelo://app?vid=c2d3fcc1-12e7-4988-ad35-0180af81b3c7"},"vehicle_type_id":"4","last_reported":1693602361,"current_range_meters":30400,"station_id":"ce4bhqp2rcd13ifvqhng","pricing_plan_id":"free"},{"bike_id":"bbeca7b2-1d8e-469e-bfe3-223517a12e8c","system_id":"levelo_inurba_marseille","lat":43.30945,"lon":5.39046,"is_reserved":false,"is_disabled":false,"rental_uris":{"android":"levelo://app?vid=bbeca7b2-1d8e-469e-bfe3-223517a12e8c","ios":"levelo://app?vid=bbeca7b2-1d8e-469e-bfe3-223517a12e8c"},"vehicle_type_id":"4","last_reported":1693602361,"current_range_meters":31200,"station_id":"ce4bgup2rcd13ifvqco0","pricing_plan_id":"free"},{"bike_id":"e06882d4-d3f0-4ad1-b6d6-0f932f6d4124","system_id":"levelo_inurba_marseille","lat":43.3094,"lon":5.39045,"is_reserved":false,"is_disabled":false,"rental_uris":{"android":"levelo://app?vid=e06882d4-d3f0-4ad1-b6d6-0f932f6d4124","ios":"levelo://app?vid=e06882d4-d3f0-4ad1-b6d6-0f932f6d4124"},"vehicle_type_id":"4","last_reported":1693602361,"current_range_meters":31200,"station_id":"ce4bgup2rcd13ifvqco0","pricing_plan_id":"free"},{"bike_id":"aadd2831-4387-4257-bbe5-124cc36e4a79","system_id":"levelo_inurba_marseille","lat":43.30938,"lon":5.39047,"is_reserved":false,"is_disabled":false,"rental_uris":{"android":"levelo://app?vid=aadd2831-4387-4257-bbe5-124cc36e4a79","ios":"levelo://app?vid=aadd2831-4387-4257-bbe5-124cc36e4a79"},"vehicle_type_id":"4","last_reported":1693602361,"current_range_meters":5200,"station_id":"ce4bgup2rcd13ifvqco0","pricing_plan_id":"free"},{"bike_id":"2c93ce6f-c5e1-4ec9-9941-ebb7469bb8f2","system_id":"levelo_inurba_marseille","lat":43.31763,"lon":5.39005,"is_reserved":false,"is_disabled":false,"rental_uris":{"android":"levelo://app?vid=2c93ce6f-c5e1-4ec9-9941-ebb7469bb8f2","ios":"levelo://app?vid=2c93ce6f-c5e1-4ec9-9941-ebb7469bb8f2"},"vehicle_type_id":"4","last_reported":1693602361,"current_range_meters":18800,"station_id":"ce4bhqp2rcd13ifvqhng","pricing_plan_id":"free"},{"bike_id":"1b5b4211-83a3-483e-9cdf-2b196fba5adb","system_id":"levelo_inurba_marseille","lat":43.317557,"lon":5.390173,"is_reserved":false,"is_disabled":false,"rental_uris":{"android":"levelo://app?vid=1b5b4211-83a3-483e-9cdf-2b196fba5adb","ios":"levelo://app?vid=1b5b4211-83a3-483e-9cdf-2b196fba5adb"},"vehicle_type_id":"4","last_reported":1693602361,"current_range_meters":30000,"station_id":"ce4bhqp2rcd13ifvqhng","pricing_plan_id":"free"},{"bike_id":"60c26bea-b6ea-44c2-8838-59b00d1bf8b2","system_id":"levelo_inurba_marseille","lat":43.317557,"lon":5.390173,"is_reserved":false,"is_disabled":false,"rental_uris":{"android":"levelo://app?vid=60c26bea-b6ea-44c2-8838-59b00d1bf8b2","ios":"levelo://app?vid=60c26bea-b6ea-44c2-8838-59b00d1bf8b2"},"vehicle_type_id":"4","last_reported":1693602361,"current_range_meters":31200,"station_id":"ce4bhqp2rcd13ifvqhng","pricing_plan_id":"free"},{"bike_id":"93a3695c-51b1-411c-a1c4-cdb271a31bf2","system_id":"levelo_inurba_marseille","lat":43.31759,"lon":5.39021,"is_reserved":false,"is_disabled":false,"rental_uris":{"android":"levelo://app?vid=93a3695c-51b1-411c-a1c4-cdb271a31bf2","ios":"levelo://app?vid=93a3695c-51b1-411c-a1c4-cdb271a31bf2"},"vehicle_type_id":"4","last_reported":1693602361,"current_range_meters":7600,"station_id":"ce4bhqp2rcd13ifvqhng","pricing_plan_id":"free"},{"bike_id":"86d37462-6f2c-4ee1-b5e1-16f3e9285866","system_id":"levelo_inurba_marseille","lat":43.31755,"lon":5.39023,"is_reserved":false,"is_disabled":false,"rental_uris":{"android":"levelo://app?vid=86d37462-6f2c-4ee1-b5e1-16f3e9285866","ios":"levelo://app?vid=86d37462-6f2c-4ee1-b5e1-16f3e9285866"},"vehicle_type_id":"4","last_reported":1693602361,"current_range_meters":19200,"station_id":"ce4bhqp2rcd13ifvqhng","pricing_plan_id":"free"},{"bike_id":"88d9d596-f438-4684-ae9f-d2d3fa8d2d69","system_id":"levelo_inurba_marseille","lat":43.317557,"lon":5.390173,"is_reserved":false,"is_disabled":false,"rental_uris":{"android":"levelo://app?vid=88d9d596-f438-4684-ae9f-d2d3fa8d2d69","ios":"levelo://app?vid=88d9d596-f438-4684-ae9f-d2d3fa8d2d69"},"vehicle_type_id":"4","last_reported":1693602361,"current_range_meters":28800,"station_id":"ce4bhqp2rcd13ifvqhng","pricing_plan_id":"free"},{"bike_id":"2d38d843-9501-4a8b-8d1e-e53e054245cc","system_id":"levelo_inurba_marseille","lat":43.29702,"lon":5.37811,"is_reserved":false,"is_disabled":false,"rental_uris":{"android":"levelo://app?vid=2d38d843-9501-4a8b-8d1e-e53e054245cc","ios":"levelo://app?vid=2d38d843-9501-4a8b-8d1e-e53e054245cc"},"vehicle_type_id":"4","last_reported":1693602361,"current_range_meters":30800,"station_id":"","pricing_plan_id":"free"},{"bike_id":"4ba49181-93ac-478c-a6c8-dcbdd133838f","system_id":"levelo_inurba_marseille","lat":43.30444,"lon":5.38891,"is_reserved":false,"is_disabled":false,"rental_uris":{"android":"levelo://app?vid=4ba49181-93ac-478c-a6c8-dcbdd133838f","ios":"levelo://app?vid=4ba49181-93ac-478c-a6c8-dcbdd133838f"},"vehicle_type_id":"4","last_reported":1693602361,"current_range_meters":8000,"station_id":"ce4bgk12rcd13ifvqbi0","pricing_plan_id":"free"},{"bike_id":"75895f86-02b8-4f67-9e17-6afcb69a812b","system_id":"levelo_inurba_marseille","lat":43.304308,"lon":5.388893,"is_reserved":false,"is_disabled":false,"rental_uris":{"android":"levelo://app?vid=75895f86-02b8-4f67-9e17-6afcb69a812b","ios":"levelo://app?vid=75895f86-02b8-4f67-9e17-6afcb69a812b"},"vehicle_type_id":"4","last_reported":1693602361,"current_range_meters":0,"station_id":"ce4bgk12rcd13ifvqbi0","pricing_plan_id":"free"},{"bike_id":"fc3331fd-5f33-4d62-9e36-9fc8915d3db2","system_id":"levelo_inurba_marseille","lat":43.304229,"lon":5.388848,"is_reserved":false,"is_disabled":false,"rental_uris":{"android":"levelo://app?vid=fc3331fd-5f33-4d62-9e36-9fc8915d3db2","ios":"levelo://app?vid=fc3331fd-5f33-4d62-9e36-9fc8915d3db2"},"vehicle_type_id":"4","last_reported":1693602361,"current_range_meters":3200,"station_id":"ce4bgk12rcd13ifvqbi0","pricing_plan_id":"free"},{"bike_id":"e0aed29b-edd8-4d4a-9148-ce8e394f1ce3","system_id":"levelo_inurba_marseille","lat":43.304343,"lon":5.388944,"is_reserved":false,"is_disabled":false,"rental_uris":{"android":"levelo://app?vid=e0aed29b-edd8-4d4a-9148-ce8e394f1ce3","ios":"levelo://app?vid=e0aed29b-edd8-4d4a-9148-ce8e394f1ce3"},"vehicle_type_id":"4","last_reported":1693602361,"current_range_meters":800,"station_id":"ce4bgk12rcd13ifvqbi0","pricing_plan_id":"free"},{"bike_id":"5810e9c4-06ed-454d-b78b-82ae30324dcc","system_id":"levelo_inurba_marseille","lat":43.30425,"lon":5.3889,"is_reserved":false,"is_disabled":false,"rental_uris":{"android":"levelo://app?vid=5810e9c4-06ed-454d-b78b-82ae30324dcc","ios":"levelo://app?vid=5810e9c4-06ed-454d-b78b-82ae30324dcc"},"vehicle_type_id":"4","last_reported":1693602361,"current_range_meters":14800,"station_id":"ce4bgk12rcd13ifvqbi0","pricing_plan_id":"free"},{"bike_id":"9fefb839-b9d2-4cf0-a3c8-00681a5229b5","system_id":"levelo_inurba_marseille","lat":43.30432,"lon":5.38903,"is_reserved":false,"is_disabled":false,"rental_uris":{"android":"levelo://app?vid=9fefb839-b9d2-4cf0-a3c8-00681a5229b5","ios":"levelo://app?vid=9fefb839-b9d2-4cf0-a3c8-00681a5229b5"},"vehicle_type_id":"4","last_reported":1693602361,"current_range_meters":28400,"station_id":"ce4bgk12rcd13ifvqbi0","pricing_plan_id":"free"},{"bike_id":"20b5a9e1-0409-4c18-99b6-88ddda5400f1","system_id":"levelo_inurba_marseille","lat":43.297816,"lon":5.381384,"is_reserved":false,"is_disabled":false,"rental_uris":{"android":"levelo://app?vid=20b5a9e1-0409-4c18-99b6-88ddda5400f1","ios":"levelo://app?vid=20b5a9e1-0409-4c18-99b6-88ddda5400f1"},"vehicle_type_id":"4","last_reported":1693602361,"current_range_meters":8000,"station_id":"ce4bgip2rcd13ifvqbb0","pricing_plan_id":"free"},{"bike_id":"9180c84f-0f25-4355-8dec-d34711128242","system_id":"levelo_inurba_marseille","lat":43.32364,"lon":5.38878,"is_reserved":false,"is_disabled":false,"rental_uris":{"android":"levelo://app?vid=9180c84f-0f25-4355-8dec-d34711128242","ios":"levelo://app?vid=9180c84f-0f25-4355-8dec-d34711128242"},"vehicle_type_id":"4","last_reported":1693602361,"current_range_meters":24000,"station_id":"ce4bhqp2rcd13ifvqhog","pricing_plan_id":"free"},{"bike_id":"8181e861-4f28-43e6-b352-b668aa565979","system_id":"levelo_inurba_marseille","lat":43.32366,"lon":5.38878,"is_reserved":false,"is_disabled":false,"rental_uris":{"android":"levelo://app?vid=8181e861-4f28-43e6-b352-b668aa565979","ios":"levelo://app?vid=8181e861-4f28-43e6-b352-b668aa565979"},"vehicle_type_id":"4","last_reported":1693602361,"current_range_meters":30000,"station_id":"ce4bhqp2rcd13ifvqhog","pricing_plan_id":"free"},{"bike_id":"df89e0ad-9ac5-4d8c-9181-83c1d4b49783","system_id":"levelo_inurba_marseille","lat":43.32362,"lon":5.38882,"is_reserved":false,"is_disabled":false,"rental_uris":{"android":"levelo://app?vid=df89e0ad-9ac5-4d8c-9181-83c1d4b49783","ios":"levelo://app?vid=df89e0ad-9ac5-4d8c-9181-83c1d4b49783"},"vehicle_type_id":"4","last_reported":1693602361,"current_range_meters":18000,"station_id":"ce4bhqp2rcd13ifvqhog","pricing_plan_id":"free"},{"bike_id":"04bd86b5-0561-4cf7-b54e-88dfd8a933b3","system_id":"levelo_inurba_marseille","lat":43.32364,"lon":5.38882,"is_reserved":false,"is_disabled":false,"rental_uris":{"android":"levelo://app?vid=04bd86b5-0561-4cf7-b54e-88dfd8a933b3","ios":"levelo://app?vid=04bd86b5-0561-4cf7-b54e-88dfd8a933b3"},"vehicle_type_id":"4","last_reported":1693602361,"current_range_meters":29600,"station_id":"ce4bhqp2rcd13ifvqhog","pricing_plan_id":"free"},{"bike_id":"75dd2d9b-e11c-4209-90bf-8c81a9698c47","system_id":"levelo_inurba_marseille","lat":43.32365,"lon":5.38882,"is_reserved":false,"is_disabled":false,"rental_uris":{"android":"levelo://app?vid=75dd2d9b-e11c-4209-90bf-8c81a9698c47","ios":"levelo://app?vid=75dd2d9b-e11c-4209-90bf-8c81a9698c47"},"vehicle_type_id":"4","last_reported":1693602361,"current_range_meters":29600,"station_id":"ce4bhqp2rcd13ifvqhog","pricing_plan_id":"free"},{"bike_id":"982e8d03-ab6f-4922-8981-759d28ba6ba2","system_id":"levelo_inurba_marseille","lat":43.32363,"lon":5.38884,"is_reserved":false,"is_disabled":false,"rental_uris":{"android":"levelo://app?vid=982e8d03-ab6f-4922-8981-759d28ba6ba2","ios":"levelo://app?vid=982e8d03-ab6f-4922-8981-759d28ba6ba2"},"vehicle_type_id":"4","last_reported":1693602361,"current_range_meters":2800,"station_id":"ce4bhqp2rcd13ifvqhog","pricing_plan_id":"free"},{"bike_id":"66f9b899-9afc-428f-834e-64755a969a1b","system_id":"levelo_inurba_marseille","lat":43.32367,"lon":5.388836,"is_reserved":false,"is_disabled":false,"rental_uris":{"android":"levelo://app?vid=66f9b899-9afc-428f-834e-64755a969a1b","ios":"levelo://app?vid=66f9b899-9afc-428f-834e-64755a969a1b"},"vehicle_type_id":"4","last_reported":1693602361,"current_range_meters":23600,"station_id":"ce4bhqp2rcd13ifvqhog","pricing_plan_id":"free"},{"bike_id":"22daa6e2-7720-4eb1-9db4-5859513e9261","system_id":"levelo_inurba_marseille","lat":43.32364,"lon":5.38886,"is_reserved":false,"is_disabled":false,"rental_uris":{"android":"levelo://app?vid=22daa6e2-7720-4eb1-9db4-5859513e9261","ios":"levelo://app?vid=22daa6e2-7720-4eb1-9db4-5859513e9261"},"vehicle_type_id":"4","last_reported":1693602361,"current_range_meters":6400,"station_id":"ce4bhqp2rcd13ifvqhog","pricing_plan_id":"free"},{"bike_id":"899db4cf-53c9-490f-9588-c2dabe0e6d13","system_id":"levelo_inurba_marseille","lat":43.3237,"lon":5.38888,"is_reserved":false,"is_disabled":false,"rental_uris":{"android":"levelo://app?vid=899db4cf-53c9-490f-9588-c2dabe0e6d13","ios":"levelo://app?vid=899db4cf-53c9-490f-9588-c2dabe0e6d13"},"vehicle_type_id":"4","last_reported":1693602361,"current_range_meters":5200,"station_id":"ce4bhqp2rcd13ifvqhog","pricing_plan_id":"free"},{"bike_id":"ff25b2c0-9288-4710-aefe-153e38ec535b","system_id":"levelo_inurba_marseille","lat":43.32372,"lon":5.38887,"is_reserved":false,"is_disabled":false,"rental_uris":{"android":"levelo://app?vid=ff25b2c0-9288-4710-aefe-153e38ec535b","ios":"levelo://app?vid=ff25b2c0-9288-4710-aefe-153e38ec535b"},"vehicle_type_id":"4","last_reported":1693602361,"current_range_meters":20800,"station_id":"ce4bhqp2rcd13ifvqhog","pricing_plan_id":"free"},{"bike_id":"681dd372-9868-4d59-899e-f956451ba006","system_id":"levelo_inurba_marseille","lat":43.29602,"lon":5.381084,"is_reserved":false,"is_disabled":false,"rental_uris":{"android":"levelo://app?vid=681dd372-9868-4d59-899e-f956451ba006","ios":"levelo://app?vid=681dd372-9868-4d59-899e-f956451ba006"},"vehicle_type_id":"4","last_reported":1693602361,"current_range_meters":24400,"station_id":"ce4bgl12rcd13ifvqbo0","pricing_plan_id":"free"},{"bike_id":"11bc524c-a082-48ac-86f5-9bd8ceea3835","system_id":"levelo_inurba_marseille","lat":43.30555,"lon":5.39213,"is_reserved":false,"is_disabled":false,"rental_uris":{"android":"levelo://app?vid=11bc524c-a082-48ac-86f5-9bd8ceea3835","ios":"levelo://app?vid=11bc524c-a082-48ac-86f5-9bd8ceea3835"},"vehicle_type_id":"4","last_reported":1693602361,"current_range_meters":24400,"station_id":"","pricing_plan_id":"free"},{"bike_id":"6dd7fb96-2e90-4fe7-86ff-332f8f79d4ad","system_id":"levelo_inurba_marseille","lat":43.29602,"lon":5.381084,"is_reserved":false,"is_disabled":false,"rental_uris":{"android":"levelo://app?vid=6dd7fb96-2e90-4fe7-86ff-332f8f79d4ad","ios":"levelo://app?vid=6dd7fb96-2e90-4fe7-86ff-332f8f79d4ad"},"vehicle_type_id":"4","last_reported":1693602361,"current_range_meters":31200,"station_id":"ce4bgl12rcd13ifvqbo0","pricing_plan_id":"free"},{"bike_id":"e87c6e21-ae83-46c2-b69c-a2a193a6d06b","system_id":"levelo_inurba_marseille","lat":43.29268,"lon":5.36847,"is_reserved":false,"is_disabled":false,"rental_uris":{"android":"levelo://app?vid=e87c6e21-ae83-46c2-b69c-a2a193a6d06b","ios":"levelo://app?vid=e87c6e21-ae83-46c2-b69c-a2a193a6d06b"},"vehicle_type_id":"4","last_reported":1693602361,"current_range_meters":17600,"station_id":"ce4bhbp2rcd13ifvqesg","pricing_plan_id":"free"},{"bike_id":"cd57f94a-bfc4-48dd-b6bd-e244d2797f0d","system_id":"levelo_inurba_marseille","lat":43.292749,"lon":5.368402,"is_reserved":false,"is_disabled":false,"rental_uris":{"android":"levelo://app?vid=cd57f94a-bfc4-48dd-b6bd-e244d2797f0d","ios":"levelo://app?vid=cd57f94a-bfc4-48dd-b6bd-e244d2797f0d"},"vehicle_type_id":"4","last_reported":1693602361,"current_range_meters":0,"station_id":"ce4bhbp2rcd13ifvqesg","pricing_plan_id":"free"},{"bike_id":"af378848-4ab5-4a0c-a75c-c290cd6c3483","system_id":"levelo_inurba_marseille","lat":43.32459,"lon":5.38946,"is_reserved":false,"is_disabled":false,"rental_uris":{"android":"levelo://app?vid=af378848-4ab5-4a0c-a75c-c290cd6c3483","ios":"levelo://app?vid=af378848-4ab5-4a0c-a75c-c290cd6c3483"},"vehicle_type_id":"4","last_reported":1693602361,"current_range_meters":2000,"station_id":"","pricing_plan_id":"free"},{"bike_id":"59d4a7cc-c4d8-47e1-a63f-2e26b5d209c3","system_id":"levelo_inurba_marseille","lat":43.2936,"lon":5.37835,"is_reserved":false,"is_disabled":false,"rental_uris":{"android":"levelo://app?vid=59d4a7cc-c4d8-47e1-a63f-2e26b5d209c3","ios":"levelo://app?vid=59d4a7cc-c4d8-47e1-a63f-2e26b5d209c3"},"vehicle_type_id":"4","last_reported":1693602361,"current_range_meters":31200,"station_id":"ce4bgjh2rcd13ifvqbf0","pricing_plan_id":"free"},{"bike_id":"90f0141b-e788-4e11-99ae-c8b71031b749","system_id":"levelo_inurba_marseille","lat":43.30302,"lon":5.3922,"is_reserved":false,"is_disabled":false,"rental_uris":{"android":"levelo://app?vid=90f0141b-e788-4e11-99ae-c8b71031b749","ios":"levelo://app?vid=90f0141b-e788-4e11-99ae-c8b71031b749"},"vehicle_type_id":"4","last_reported":1693602361,"current_range_meters":12800,"station_id":"ce4bgkh2rcd13ifvqbk0","pricing_plan_id":"free"},{"bike_id":"0724f352-a262-45b7-9b71-9a09ff17d945","system_id":"levelo_inurba_marseille","lat":43.303002,"lon":5.392142,"is_reserved":false,"is_disabled":false,"rental_uris":{"android":"levelo://app?vid=0724f352-a262-45b7-9b71-9a09ff17d945","ios":"levelo://app?vid=0724f352-a262-45b7-9b71-9a09ff17d945"},"vehicle_type_id":"4","last_reported":1693602361,"current_range_meters":25600,"station_id":"ce4bgkh2rcd13ifvqbk0","pricing_plan_id":"free"},{"bike_id":"38fef587-7cc5-4800-b069-87b8f296a10a","system_id":"levelo_inurba_marseille","lat":43.30296,"lon":5.39228,"is_reserved":false,"is_disabled":false,"rental_uris":{"android":"levelo://app?vid=38fef587-7cc5-4800-b069-87b8f296a10a","ios":"levelo://app?vid=38fef587-7cc5-4800-b069-87b8f296a10a"},"vehicle_type_id":"4","last_reported":1693602361,"current_range_meters":22800,"station_id":"ce4bgkh2rcd13ifvqbk0","pricing_plan_id":"free"},{"bike_id":"c46593b2-ac47-4b58-be7d-7a7d03c9a043","system_id":"levelo_inurba_marseille","lat":43.30085,"lon":5.390856,"is_reserved":false,"is_disabled":false,"rental_uris":{"android":"levelo://app?vid=c46593b2-ac47-4b58-be7d-7a7d03c9a043","ios":"levelo://app?vid=c46593b2-ac47-4b58-be7d-7a7d03c9a043"},"vehicle_type_id":"4","last_reported":1693602361,"current_range_meters":10000,"station_id":"ce4bh192rcd13ifvqdb0","pricing_plan_id":"free"},{"bike_id":"e4e0266c-ac7c-413c-9310-2524c36034f2","system_id":"levelo_inurba_marseille","lat":43.300852,"lon":5.390859,"is_reserved":false,"is_disabled":false,"rental_uris":{"android":"levelo://app?vid=e4e0266c-ac7c-413c-9310-2524c36034f2","ios":"levelo://app?vid=e4e0266c-ac7c-413c-9310-2524c36034f2"},"vehicle_type_id":"4","last_reported":1693602361,"current_range_meters":21200,"station_id":"ce4bh192rcd13ifvqdb0","pricing_plan_id":"free"},{"bike_id":"b127cb02-a67f-4944-955b-2653cb69db42","system_id":"levelo_inurba_marseille","lat":43.29142,"lon":5.36689,"is_reserved":false,"is_disabled":false,"rental_uris":{"android":"levelo://app?vid=b127cb02-a67f-4944-955b-2653cb69db42","ios":"levelo://app?vid=b127cb02-a67f-4944-955b-2653cb69db42"},"vehicle_type_id":"4","last_reported":1693602361,"current_range_meters":24400,"station_id":"ce4bhc92rcd13ifvqetg","pricing_plan_id":"free"},{"bike_id":"f042969d-edb1-48d8-a4ad-8db7e844d7c9","system_id":"levelo_inurba_marseille","lat":43.292663,"lon":5.376389,"is_reserved":false,"is_disabled":false,"rental_uris":{"android":"levelo://app?vid=f042969d-edb1-48d8-a4ad-8db7e844d7c9","ios":"levelo://app?vid=f042969d-edb1-48d8-a4ad-8db7e844d7c9"},"vehicle_type_id":"4","last_reported":1693602361,"current_range_meters":3600,"station_id":"ce4bgi12rcd13ifvqb80","pricing_plan_id":"free"},{"bike_id":"88da6e7b-e361-4624-985b-13cc5dd16376","system_id":"levelo_inurba_marseille","lat":43.291675,"lon":5.371583,"is_reserved":false,"is_disabled":false,"rental_uris":{"android":"levelo://app?vid=88da6e7b-e361-4624-985b-13cc5dd16376","ios":"levelo://app?vid=88da6e7b-e361-4624-985b-13cc5dd16376"},"vehicle_type_id":"4","last_reported":1693602361,"current_range_meters":7600,"station_id":"ce4bha92rcd13ifvqeh0","pricing_plan_id":"free"},{"bike_id":"a84d01ad-95dd-49f7-b3d3-6b7ce7705c1c","system_id":"levelo_inurba_marseille","lat":43.298764,"lon":5.388973,"is_reserved":false,"is_disabled":false,"rental_uris":{"android":"levelo://app?vid=a84d01ad-95dd-49f7-b3d3-6b7ce7705c1c","ios":"levelo://app?vid=a84d01ad-95dd-49f7-b3d3-6b7ce7705c1c"},"vehicle_type_id":"4","last_reported":1693602361,"current_range_meters":30000,"station_id":"ce4bh392rcd13ifvqdl0","pricing_plan_id":"free"},{"bike_id":"73c2e0c0-a939-4bc3-943a-e52094180bff","system_id":"levelo_inurba_marseille","lat":43.29197,"lon":5.35808,"is_reserved":false,"is_disabled":false,"rental_uris":{"android":"levelo://app?vid=73c2e0c0-a939-4bc3-943a-e52094180bff","ios":"levelo://app?vid=73c2e0c0-a939-4bc3-943a-e52094180bff"},"vehicle_type_id":"4","last_reported":1693602361,"current_range_meters":21600,"station_id":"ce4bhb12rcd13ifvqel0","pricing_plan_id":"free"},{"bike_id":"8e534eef-5bfd-4ba2-9682-bcca753984bb","system_id":"levelo_inurba_marseille","lat":43.29191,"lon":5.35798,"is_reserved":false,"is_disabled":false,"rental_uris":{"android":"levelo://app?vid=8e534eef-5bfd-4ba2-9682-bcca753984bb","ios":"levelo://app?vid=8e534eef-5bfd-4ba2-9682-bcca753984bb"},"vehicle_type_id":"4","last_reported":1693602361,"current_range_meters":1600,"station_id":"ce4bhb12rcd13ifvqel0","pricing_plan_id":"free"},{"bike_id":"253324a0-8e51-4b02-a62c-d67e6655a9b6","system_id":"levelo_inurba_marseille","lat":43.3133,"lon":5.39695,"is_reserved":false,"is_disabled":false,"rental_uris":{"android":"levelo://app?vid=253324a0-8e51-4b02-a62c-d67e6655a9b6","ios":"levelo://app?vid=253324a0-8e51-4b02-a62c-d67e6655a9b6"},"vehicle_type_id":"4","last_reported":1693602361,"current_range_meters":31600,"station_id":"ce4bgvp2rcd13ifvqcu0","pricing_plan_id":"free"},{"bike_id":"3d362d25-b095-47fb-bcb4-bb5fbf97d4ed","system_id":"levelo_inurba_marseille","lat":43.313291,"lon":5.396838,"is_reserved":false,"is_disabled":false,"rental_uris":{"android":"levelo://app?vid=3d362d25-b095-47fb-bcb4-bb5fbf97d4ed","ios":"levelo://app?vid=3d362d25-b095-47fb-bcb4-bb5fbf97d4ed"},"vehicle_type_id":"4","last_reported":1693602361,"current_range_meters":26400,"station_id":"ce4bgvp2rcd13ifvqcu0","pricing_plan_id":"free"},{"bike_id":"ad522f3f-f69f-4040-8a03-17106bd91a4b","system_id":"levelo_inurba_marseille","lat":43.30881,"lon":5.39648,"is_reserved":false,"is_disabled":false,"rental_uris":{"android":"levelo://app?vid=ad522f3f-f69f-4040-8a03-17106bd91a4b","ios":"levelo://app?vid=ad522f3f-f69f-4040-8a03-17106bd91a4b"},"vehicle_type_id":"4","last_reported":1693602361,"current_range_meters":22400,"station_id":"ce4bh012rcd13ifvqcv0","pricing_plan_id":"free"},{"bike_id":"2d071a18-5574-4b5a-9ca3-038b5a7f8932","system_id":"levelo_inurba_marseille","lat":43.31323,"lon":5.39698,"is_reserved":false,"is_disabled":false,"rental_uris":{"android":"levelo://app?vid=2d071a18-5574-4b5a-9ca3-038b5a7f8932","ios":"levelo://app?vid=2d071a18-5574-4b5a-9ca3-038b5a7f8932"},"vehicle_type_id":"4","last_reported":1693602361,"current_range_meters":31200,"station_id":"ce4bgvp2rcd13ifvqcu0","pricing_plan_id":"free"},{"bike_id":"210451a7-243e-4271-8ee9-2b571b3c07b8","system_id":"levelo_inurba_marseille","lat":43.31327,"lon":5.39699,"is_reserved":false,"is_disabled":false,"rental_uris":{"android":"levelo://app?vid=210451a7-243e-4271-8ee9-2b571b3c07b8","ios":"levelo://app?vid=210451a7-243e-4271-8ee9-2b571b3c07b8"},"vehicle_type_id":"4","last_reported":1693602361,"current_range_meters":15600,"station_id":"ce4bgvp2rcd13ifvqcu0","pricing_plan_id":"free"},{"bike_id":"5f5b6e57-9b31-427a-8010-b4a8f9d8385d","system_id":"levelo_inurba_marseille","lat":43.30875,"lon":5.3965,"is_reserved":false,"is_disabled":false,"rental_uris":{"android":"levelo://app?vid=5f5b6e57-9b31-427a-8010-b4a8f9d8385d","ios":"levelo://app?vid=5f5b6e57-9b31-427a-8010-b4a8f9d8385d"},"vehicle_type_id":"4","last_reported":1693602361,"current_range_meters":26400,"station_id":"ce4bh012rcd13ifvqcv0","pricing_plan_id":"free"},{"bike_id":"ee9fda39-82ef-49cb-b68e-dc585b441c62","system_id":"levelo_inurba_marseille","lat":43.31317,"lon":5.397,"is_reserved":false,"is_disabled":false,"rental_uris":{"android":"levelo://app?vid=ee9fda39-82ef-49cb-b68e-dc585b441c62","ios":"levelo://app?vid=ee9fda39-82ef-49cb-b68e-dc585b441c62"},"vehicle_type_id":"4","last_reported":1693602361,"current_range_meters":31200,"station_id":"ce4bgvp2rcd13ifvqcu0","pricing_plan_id":"free"},{"bike_id":"ee7b75ff-b1b7-4965-a139-7fd200d2a06e","system_id":"levelo_inurba_marseille","lat":43.313291,"lon":5.396838,"is_reserved":false,"is_disabled":false,"rental_uris":{"android":"levelo://app?vid=ee7b75ff-b1b7-4965-a139-7fd200d2a06e","ios":"levelo://app?vid=ee7b75ff-b1b7-4965-a139-7fd200d2a06e"},"vehicle_type_id":"4","last_reported":1693602361,"current_range_meters":31200,"station_id":"ce4bgvp2rcd13ifvqcu0","pricing_plan_id":"free"},{"bike_id":"220a77a9-939d-443c-b6da-a943306dee53","system_id":"levelo_inurba_marseille","lat":43.29186,"lon":5.35788,"is_reserved":false,"is_disabled":false,"rental_uris":{"android":"levelo://app?vid=220a77a9-939d-443c-b6da-a943306dee53","ios":"levelo://app?vid=220a77a9-939d-443c-b6da-a943306dee53"},"vehicle_type_id":"4","last_reported":1693602361,"current_range_meters":17200,"station_id":"ce4bhb12rcd13ifvqel0","pricing_plan_id":"free"},{"bike_id":"975f2aa9-9b78-45b0-9356-c53e68e26b38","system_id":"levelo_inurba_marseille","lat":43.295356,"lon":5.385355,"is_reserved":false,"is_disabled":false,"rental_uris":{"android":"levelo://app?vid=975f2aa9-9b78-45b0-9356-c53e68e26b38","ios":"levelo://app?vid=975f2aa9-9b78-45b0-9356-c53e68e26b38"},"vehicle_type_id":"4","last_reported":1693602361,"current_range_meters":8400,"station_id":"ce4bgih2rcd13ifvqba0","pricing_plan_id":"free"},{"bike_id":"3985d4c3-c3bd-4d32-a9cc-1d4a1af56ff5","system_id":"levelo_inurba_marseille","lat":43.29536,"lon":5.38539,"is_reserved":false,"is_disabled":false,"rental_uris":{"android":"levelo://app?vid=3985d4c3-c3bd-4d32-a9cc-1d4a1af56ff5","ios":"levelo://app?vid=3985d4c3-c3bd-4d32-a9cc-1d4a1af56ff5"},"vehicle_type_id":"4","last_reported":1693602361,"current_range_meters":14000,"station_id":"ce4bgih2rcd13ifvqba0","pricing_plan_id":"free"},{"bike_id":"8654e87c-5b06-49ef-85a5-2f313513e5b3","system_id":"levelo_inurba_marseille","lat":43.295349,"lon":5.385389,"is_reserved":false,"is_disabled":false,"rental_uris":{"android":"levelo://app?vid=8654e87c-5b06-49ef-85a5-2f313513e5b3","ios":"levelo://app?vid=8654e87c-5b06-49ef-85a5-2f313513e5b3"},"vehicle_type_id":"4","last_reported":1693602361,"current_range_meters":19600,"station_id":"ce4bgih2rcd13ifvqba0","pricing_plan_id":"free"},{"bike_id":"43dde3a8-fde9-48a2-8baf-85e806dd0549","system_id":"levelo_inurba_marseille","lat":43.30876,"lon":5.39663,"is_reserved":false,"is_disabled":false,"rental_uris":{"android":"levelo://app?vid=43dde3a8-fde9-48a2-8baf-85e806dd0549","ios":"levelo://app?vid=43dde3a8-fde9-48a2-8baf-85e806dd0549"},"vehicle_type_id":"4","last_reported":1693602361,"current_range_meters":28000,"station_id":"ce4bh012rcd13ifvqcv0","pricing_plan_id":"free"},{"bike_id":"909fdf6c-5e62-4343-a1aa-1ee12fbeb75b","system_id":"levelo_inurba_marseille","lat":43.295349,"lon":5.385394,"is_reserved":false,"is_disabled":false,"rental_uris":{"android":"levelo://app?vid=909fdf6c-5e62-4343-a1aa-1ee12fbeb75b","ios":"levelo://app?vid=909fdf6c-5e62-4343-a1aa-1ee12fbeb75b"},"vehicle_type_id":"4","last_reported":1693602361,"current_range_meters":22800,"station_id":"ce4bgih2rcd13ifvqba0","pricing_plan_id":"free"},{"bike_id":"72409e3d-4b23-4d60-9c11-cc228a6ba556","system_id":"levelo_inurba_marseille","lat":43.29531,"lon":5.38533,"is_reserved":false,"is_disabled":false,"rental_uris":{"android":"levelo://app?vid=72409e3d-4b23-4d60-9c11-cc228a6ba556","ios":"levelo://app?vid=72409e3d-4b23-4d60-9c11-cc228a6ba556"},"vehicle_type_id":"4","last_reported":1693602361,"current_range_meters":4400,"station_id":"ce4bgih2rcd13ifvqba0","pricing_plan_id":"free"},{"bike_id":"1c7ca3d6-7f05-4dc2-9c8a-91c582b20a03","system_id":"levelo_inurba_marseille","lat":43.295374,"lon":5.385447,"is_reserved":false,"is_disabled":false,"rental_uris":{"android":"levelo://app?vid=1c7ca3d6-7f05-4dc2-9c8a-91c582b20a03","ios":"levelo://app?vid=1c7ca3d6-7f05-4dc2-9c8a-91c582b20a03"},"vehicle_type_id":"4","last_reported":1693602361,"current_range_meters":27200,"station_id":"ce4bgih2rcd13ifvqba0","pricing_plan_id":"free"},{"bike_id":"ff4a6e20-4f18-4ce1-a555-e44ac0c7f9d1","system_id":"levelo_inurba_marseille","lat":43.29537,"lon":5.38546,"is_reserved":false,"is_disabled":false,"rental_uris":{"android":"levelo://app?vid=ff4a6e20-4f18-4ce1-a555-e44ac0c7f9d1","ios":"levelo://app?vid=ff4a6e20-4f18-4ce1-a555-e44ac0c7f9d1"},"vehicle_type_id":"4","last_reported":1693602361,"current_range_meters":29600,"station_id":"ce4bgih2rcd13ifvqba0","pricing_plan_id":"free"},{"bike_id":"97fa4800-3c2a-4ab7-9b62-18dbf81a251a","system_id":"levelo_inurba_marseille","lat":43.29529,"lon":5.385581,"is_reserved":false,"is_disabled":false,"rental_uris":{"android":"levelo://app?vid=97fa4800-3c2a-4ab7-9b62-18dbf81a251a","ios":"levelo://app?vid=97fa4800-3c2a-4ab7-9b62-18dbf81a251a"},"vehicle_type_id":"4","last_reported":1693602361,"current_range_meters":30000,"station_id":"ce4bgih2rcd13ifvqba0","pricing_plan_id":"free"},{"bike_id":"2b744922-8534-473c-ae63-2cbecedd753d","system_id":"levelo_inurba_marseille","lat":43.295327,"lon":5.385399,"is_reserved":false,"is_disabled":false,"rental_uris":{"android":"levelo://app?vid=2b744922-8534-473c-ae63-2cbecedd753d","ios":"levelo://app?vid=2b744922-8534-473c-ae63-2cbecedd753d"},"vehicle_type_id":"4","last_reported":1693602361,"current_range_meters":30800,"station_id":"ce4bgih2rcd13ifvqba0","pricing_plan_id":"free"},{"bike_id":"6d431db5-a3ee-4172-99a0-f77125fae1bc","system_id":"levelo_inurba_marseille","lat":43.295319,"lon":5.385391,"is_reserved":false,"is_disabled":false,"rental_uris":{"android":"levelo://app?vid=6d431db5-a3ee-4172-99a0-f77125fae1bc","ios":"levelo://app?vid=6d431db5-a3ee-4172-99a0-f77125fae1bc"},"vehicle_type_id":"4","last_reported":1693602361,"current_range_meters":7200,"station_id":"ce4bgih2rcd13ifvqba0","pricing_plan_id":"free"},{"bike_id":"b82caeaf-e210-41da-8e75-d1caad5b716f","system_id":"levelo_inurba_marseille","lat":43.29534,"lon":5.38544,"is_reserved":false,"is_disabled":false,"rental_uris":{"android":"levelo://app?vid=b82caeaf-e210-41da-8e75-d1caad5b716f","ios":"levelo://app?vid=b82caeaf-e210-41da-8e75-d1caad5b716f"},"vehicle_type_id":"4","last_reported":1693602361,"current_range_meters":31200,"station_id":"ce4bgih2rcd13ifvqba0","pricing_plan_id":"free"},{"bike_id":"59039588-674d-4233-a46f-b9fae01a9697","system_id":"levelo_inurba_marseille","lat":43.29531,"lon":5.38544,"is_reserved":false,"is_disabled":false,"rental_uris":{"android":"levelo://app?vid=59039588-674d-4233-a46f-b9fae01a9697","ios":"levelo://app?vid=59039588-674d-4233-a46f-b9fae01a9697"},"vehicle_type_id":"4","last_reported":1693602361,"current_range_meters":27200,"station_id":"ce4bgih2rcd13ifvqba0","pricing_plan_id":"free"},{"bike_id":"081c05fb-df50-4433-98c4-81baf2b86e5d","system_id":"levelo_inurba_marseille","lat":43.29531,"lon":5.38545,"is_reserved":false,"is_disabled":false,"rental_uris":{"android":"levelo://app?vid=081c05fb-df50-4433-98c4-81baf2b86e5d","ios":"levelo://app?vid=081c05fb-df50-4433-98c4-81baf2b86e5d"},"vehicle_type_id":"4","last_reported":1693602361,"current_range_meters":0,"station_id":"ce4bgih2rcd13ifvqba0","pricing_plan_id":"free"},{"bike_id":"37a049f3-19fa-4921-bae4-abb7f828c2e5","system_id":"levelo_inurba_marseille","lat":43.29528,"lon":5.38541,"is_reserved":false,"is_disabled":false,"rental_uris":{"android":"levelo://app?vid=37a049f3-19fa-4921-bae4-abb7f828c2e5","ios":"levelo://app?vid=37a049f3-19fa-4921-bae4-abb7f828c2e5"},"vehicle_type_id":"4","last_reported":1693602361,"current_range_meters":19200,"station_id":"ce4bgih2rcd13ifvqba0","pricing_plan_id":"free"},{"bike_id":"0d962e12-b732-4464-bc89-f40845207671","system_id":"levelo_inurba_marseille","lat":43.33221,"lon":5.38114,"is_reserved":false,"is_disabled":false,"rental_uris":{"android":"levelo://app?vid=0d962e12-b732-4464-bc89-f40845207671","ios":"levelo://app?vid=0d962e12-b732-4464-bc89-f40845207671"},"vehicle_type_id":"4","last_reported":1693602361,"current_range_meters":9600,"station_id":"","pricing_plan_id":"free"},{"bike_id":"8e7445aa-4380-4afd-9587-9366f27bac25","system_id":"levelo_inurba_marseille","lat":43.29527,"lon":5.38541,"is_reserved":false,"is_disabled":false,"rental_uris":{"android":"levelo://app?vid=8e7445aa-4380-4afd-9587-9366f27bac25","ios":"levelo://app?vid=8e7445aa-4380-4afd-9587-9366f27bac25"},"vehicle_type_id":"4","last_reported":1693602361,"current_range_meters":19200,"station_id":"ce4bgih2rcd13ifvqba0","pricing_plan_id":"free"},{"bike_id":"5d71c570-0b53-4e2a-b5f5-b80854820506","system_id":"levelo_inurba_marseille","lat":43.29529,"lon":5.38545,"is_reserved":false,"is_disabled":false,"rental_uris":{"android":"levelo://app?vid=5d71c570-0b53-4e2a-b5f5-b80854820506","ios":"levelo://app?vid=5d71c570-0b53-4e2a-b5f5-b80854820506"},"vehicle_type_id":"4","last_reported":1693602361,"current_range_meters":29600,"station_id":"ce4bgih2rcd13ifvqba0","pricing_plan_id":"free"},{"bike_id":"e40d06e5-2b09-4714-999c-b3857902c102","system_id":"levelo_inurba_marseille","lat":43.29532,"lon":5.38555,"is_reserved":false,"is_disabled":false,"rental_uris":{"android":"levelo://app?vid=e40d06e5-2b09-4714-999c-b3857902c102","ios":"levelo://app?vid=e40d06e5-2b09-4714-999c-b3857902c102"},"vehicle_type_id":"4","last_reported":1693602361,"current_range_meters":0,"station_id":"ce4bgih2rcd13ifvqba0","pricing_plan_id":"free"},{"bike_id":"ebf4550f-ea30-4ba4-ad1a-629f10da813a","system_id":"levelo_inurba_marseille","lat":43.29524,"lon":5.38544,"is_reserved":false,"is_disabled":false,"rental_uris":{"android":"levelo://app?vid=ebf4550f-ea30-4ba4-ad1a-629f10da813a","ios":"levelo://app?vid=ebf4550f-ea30-4ba4-ad1a-629f10da813a"},"vehicle_type_id":"4","last_reported":1693602361,"current_range_meters":31200,"station_id":"ce4bgih2rcd13ifvqba0","pricing_plan_id":"free"},{"bike_id":"d041b3bc-15a4-480e-a392-05277974c432","system_id":"levelo_inurba_marseille","lat":43.29524,"lon":5.38548,"is_reserved":false,"is_disabled":false,"rental_uris":{"android":"levelo://app?vid=d041b3bc-15a4-480e-a392-05277974c432","ios":"levelo://app?vid=d041b3bc-15a4-480e-a392-05277974c432"},"vehicle_type_id":"4","last_reported":1693602361,"current_range_meters":1600,"station_id":"ce4bgih2rcd13ifvqba0","pricing_plan_id":"free"},{"bike_id":"1331a5a3-f167-4798-aea1-3cf25b9d114d","system_id":"levelo_inurba_marseille","lat":43.290779,"lon":5.371482,"is_reserved":false,"is_disabled":false,"rental_uris":{"android":"levelo://app?vid=1331a5a3-f167-4798-aea1-3cf25b9d114d","ios":"levelo://app?vid=1331a5a3-f167-4798-aea1-3cf25b9d114d"},"vehicle_type_id":"4","last_reported":1693602361,"current_range_meters":12800,"station_id":"ce4bh5p2rcd13ifvqe4g","pricing_plan_id":"free"},{"bike_id":"98a6b282-0624-4f92-850e-b002c8e1998d","system_id":"levelo_inurba_marseille","lat":43.290779,"lon":5.371482,"is_reserved":false,"is_disabled":false,"rental_uris":{"android":"levelo://app?vid=98a6b282-0624-4f92-850e-b002c8e1998d","ios":"levelo://app?vid=98a6b282-0624-4f92-850e-b002c8e1998d"},"vehicle_type_id":"4","last_reported":1693602361,"current_range_meters":18800,"station_id":"ce4bh5p2rcd13ifvqe4g","pricing_plan_id":"free"},{"bike_id":"06668cc2-bb9a-4636-bdf0-084819e8d2fb","system_id":"levelo_inurba_marseille","lat":43.290779,"lon":5.371482,"is_reserved":false,"is_disabled":false,"rental_uris":{"android":"levelo://app?vid=06668cc2-bb9a-4636-bdf0-084819e8d2fb","ios":"levelo://app?vid=06668cc2-bb9a-4636-bdf0-084819e8d2fb"},"vehicle_type_id":"4","last_reported":1693602361,"current_range_meters":7200,"station_id":"ce4bh5p2rcd13ifvqe4g","pricing_plan_id":"free"},{"bike_id":"e512e2fa-c529-4d0e-a15f-e7c10bdd3509","system_id":"levelo_inurba_marseille","lat":43.290624,"lon":5.359245,"is_reserved":false,"is_disabled":false,"rental_uris":{"android":"levelo://app?vid=e512e2fa-c529-4d0e-a15f-e7c10bdd3509","ios":"levelo://app?vid=e512e2fa-c529-4d0e-a15f-e7c10bdd3509"},"vehicle_type_id":"4","last_reported":1693602361,"current_range_meters":27200,"station_id":"ce4bha92rcd13ifvqeg0","pricing_plan_id":"free"},{"bike_id":"af762fde-a422-4f45-9026-5eea39fe9d11","system_id":"levelo_inurba_marseille","lat":43.294153,"lon":5.386305,"is_reserved":false,"is_disabled":false,"rental_uris":{"android":"levelo://app?vid=af762fde-a422-4f45-9026-5eea39fe9d11","ios":"levelo://app?vid=af762fde-a422-4f45-9026-5eea39fe9d11"},"vehicle_type_id":"4","last_reported":1693602361,"current_range_meters":8000,"station_id":"ce4bh2h2rcd13ifvqdh0","pricing_plan_id":"free"},{"bike_id":"c7e6b638-598e-430f-b759-aa59cb88d999","system_id":"levelo_inurba_marseille","lat":43.294153,"lon":5.386305,"is_reserved":false,"is_disabled":false,"rental_uris":{"android":"levelo://app?vid=c7e6b638-598e-430f-b759-aa59cb88d999","ios":"levelo://app?vid=c7e6b638-598e-430f-b759-aa59cb88d999"},"vehicle_type_id":"4","last_reported":1693602361,"current_range_meters":31200,"station_id":"ce4bh2h2rcd13ifvqdh0","pricing_plan_id":"free"},{"bike_id":"830f7b62-9b4e-4e0f-870c-145b20d76e45","system_id":"levelo_inurba_marseille","lat":43.294153,"lon":5.386305,"is_reserved":false,"is_disabled":false,"rental_uris":{"android":"levelo://app?vid=830f7b62-9b4e-4e0f-870c-145b20d76e45","ios":"levelo://app?vid=830f7b62-9b4e-4e0f-870c-145b20d76e45"},"vehicle_type_id":"4","last_reported":1693602361,"current_range_meters":31200,"station_id":"ce4bh2h2rcd13ifvqdh0","pricing_plan_id":"free"},{"bike_id":"67bcc633-38c1-41d3-a138-bbcc0451961b","system_id":"levelo_inurba_marseille","lat":43.294153,"lon":5.386305,"is_reserved":false,"is_disabled":false,"rental_uris":{"android":"levelo://app?vid=67bcc633-38c1-41d3-a138-bbcc0451961b","ios":"levelo://app?vid=67bcc633-38c1-41d3-a138-bbcc0451961b"},"vehicle_type_id":"4","last_reported":1693602361,"current_range_meters":29600,"station_id":"ce4bh2h2rcd13ifvqdh0","pricing_plan_id":"free"},{"bike_id":"b622d6df-c024-4058-9725-7170b542b1ba","system_id":"levelo_inurba_marseille","lat":43.294153,"lon":5.386305,"is_reserved":false,"is_disabled":false,"rental_uris":{"android":"levelo://app?vid=b622d6df-c024-4058-9725-7170b542b1ba","ios":"levelo://app?vid=b622d6df-c024-4058-9725-7170b542b1ba"},"vehicle_type_id":"4","last_reported":1693602361,"current_range_meters":31200,"station_id":"ce4bh2h2rcd13ifvqdh0","pricing_plan_id":"free"},{"bike_id":"a9b45e37-ca8c-4a53-9a91-e40a48b82189","system_id":"levelo_inurba_marseille","lat":43.29418,"lon":5.38623,"is_reserved":false,"is_disabled":false,"rental_uris":{"android":"levelo://app?vid=a9b45e37-ca8c-4a53-9a91-e40a48b82189","ios":"levelo://app?vid=a9b45e37-ca8c-4a53-9a91-e40a48b82189"},"vehicle_type_id":"4","last_reported":1693602361,"current_range_meters":31200,"station_id":"ce4bh2h2rcd13ifvqdh0","pricing_plan_id":"free"},{"bike_id":"69cc16ed-14a7-49ba-adb0-5b25f6b8cd74","system_id":"levelo_inurba_marseille","lat":43.29417,"lon":5.38623,"is_reserved":false,"is_disabled":false,"rental_uris":{"android":"levelo://app?vid=69cc16ed-14a7-49ba-adb0-5b25f6b8cd74","ios":"levelo://app?vid=69cc16ed-14a7-49ba-adb0-5b25f6b8cd74"},"vehicle_type_id":"4","last_reported":1693602361,"current_range_meters":31200,"station_id":"ce4bh2h2rcd13ifvqdh0","pricing_plan_id":"free"},{"bike_id":"bcacf829-299f-461b-ab6b-faff43b418f5","system_id":"levelo_inurba_marseille","lat":43.29415,"lon":5.38624,"is_reserved":false,"is_disabled":false,"rental_uris":{"android":"levelo://app?vid=bcacf829-299f-461b-ab6b-faff43b418f5","ios":"levelo://app?vid=bcacf829-299f-461b-ab6b-faff43b418f5"},"vehicle_type_id":"4","last_reported":1693602361,"current_range_meters":31200,"station_id":"ce4bh2h2rcd13ifvqdh0","pricing_plan_id":"free"},{"bike_id":"866deb46-2e84-4070-b96e-fe556e90862a","system_id":"levelo_inurba_marseille","lat":43.294153,"lon":5.386305,"is_reserved":false,"is_disabled":false,"rental_uris":{"android":"levelo://app?vid=866deb46-2e84-4070-b96e-fe556e90862a","ios":"levelo://app?vid=866deb46-2e84-4070-b96e-fe556e90862a"},"vehicle_type_id":"4","last_reported":1693602361,"current_range_meters":10000,"station_id":"ce4bh2h2rcd13ifvqdh0","pricing_plan_id":"free"},{"bike_id":"56c9e8fc-f529-4115-b74f-b1aa508fed5d","system_id":"levelo_inurba_marseille","lat":43.29417,"lon":5.38633,"is_reserved":false,"is_disabled":false,"rental_uris":{"android":"levelo://app?vid=56c9e8fc-f529-4115-b74f-b1aa508fed5d","ios":"levelo://app?vid=56c9e8fc-f529-4115-b74f-b1aa508fed5d"},"vehicle_type_id":"4","last_reported":1693602361,"current_range_meters":31200,"station_id":"ce4bh2h2rcd13ifvqdh0","pricing_plan_id":"free"},{"bike_id":"ea5224ec-c8cd-4aa8-b7ce-783837074d24","system_id":"levelo_inurba_marseille","lat":43.29412,"lon":5.386271,"is_reserved":false,"is_disabled":false,"rental_uris":{"android":"levelo://app?vid=ea5224ec-c8cd-4aa8-b7ce-783837074d24","ios":"levelo://app?vid=ea5224ec-c8cd-4aa8-b7ce-783837074d24"},"vehicle_type_id":"4","last_reported":1693602361,"current_range_meters":0,"station_id":"ce4bh2h2rcd13ifvqdh0","pricing_plan_id":"free"},{"bike_id":"3f5a825e-5aac-495e-962d-b26276a1f5ef","system_id":"levelo_inurba_marseille","lat":43.289184,"lon":5.366408,"is_reserved":false,"is_disabled":false,"rental_uris":{"android":"levelo://app?vid=3f5a825e-5aac-495e-962d-b26276a1f5ef","ios":"levelo://app?vid=3f5a825e-5aac-495e-962d-b26276a1f5ef"},"vehicle_type_id":"4","last_reported":1693602361,"current_range_meters":31200,"station_id":"ce4bhap2rcd13ifvqek0","pricing_plan_id":"free"},{"bike_id":"5b554c54-65f1-42a3-bd4e-d32feb1e0fda","system_id":"levelo_inurba_marseille","lat":43.289184,"lon":5.366408,"is_reserved":false,"is_disabled":false,"rental_uris":{"android":"levelo://app?vid=5b554c54-65f1-42a3-bd4e-d32feb1e0fda","ios":"levelo://app?vid=5b554c54-65f1-42a3-bd4e-d32feb1e0fda"},"vehicle_type_id":"4","last_reported":1693602361,"current_range_meters":12000,"station_id":"ce4bhap2rcd13ifvqek0","pricing_plan_id":"free"},{"bike_id":"2f93318d-a393-4e93-88c9-60d3ec241b0e","system_id":"levelo_inurba_marseille","lat":43.289184,"lon":5.366408,"is_reserved":false,"is_disabled":false,"rental_uris":{"android":"levelo://app?vid=2f93318d-a393-4e93-88c9-60d3ec241b0e","ios":"levelo://app?vid=2f93318d-a393-4e93-88c9-60d3ec241b0e"},"vehicle_type_id":"4","last_reported":1693602361,"current_range_meters":31200,"station_id":"ce4bhap2rcd13ifvqek0","pricing_plan_id":"free"},{"bike_id":"933e1a3a-4869-43ec-a69f-603f95a24f52","system_id":"levelo_inurba_marseille","lat":43.29414,"lon":5.386372,"is_reserved":false,"is_disabled":false,"rental_uris":{"android":"levelo://app?vid=933e1a3a-4869-43ec-a69f-603f95a24f52","ios":"levelo://app?vid=933e1a3a-4869-43ec-a69f-603f95a24f52"},"vehicle_type_id":"4","last_reported":1693602361,"current_range_meters":0,"station_id":"ce4bh2h2rcd13ifvqdh0","pricing_plan_id":"free"},{"bike_id":"d0082a8c-f4fa-47c8-aced-ee070bb9efd7","system_id":"levelo_inurba_marseille","lat":43.289184,"lon":5.366408,"is_reserved":false,"is_disabled":false,"rental_uris":{"android":"levelo://app?vid=d0082a8c-f4fa-47c8-aced-ee070bb9efd7","ios":"levelo://app?vid=d0082a8c-f4fa-47c8-aced-ee070bb9efd7"},"vehicle_type_id":"4","last_reported":1693602361,"current_range_meters":26400,"station_id":"ce4bhap2rcd13ifvqek0","pricing_plan_id":"free"},{"bike_id":"45aa1fda-9110-40ae-88ee-cb07ab8ed2a2","system_id":"levelo_inurba_marseille","lat":43.29271,"lon":5.38432,"is_reserved":false,"is_disabled":false,"rental_uris":{"android":"levelo://app?vid=45aa1fda-9110-40ae-88ee-cb07ab8ed2a2","ios":"levelo://app?vid=45aa1fda-9110-40ae-88ee-cb07ab8ed2a2"},"vehicle_type_id":"4","last_reported":1693602361,"current_range_meters":9200,"station_id":"ce4bh692rcd13ifvqea0","pricing_plan_id":"free"},{"bike_id":"d1007c05-9ada-45fa-bcb1-97fab45f4906","system_id":"levelo_inurba_marseille","lat":43.29271,"lon":5.38445,"is_reserved":false,"is_disabled":false,"rental_uris":{"android":"levelo://app?vid=d1007c05-9ada-45fa-bcb1-97fab45f4906","ios":"levelo://app?vid=d1007c05-9ada-45fa-bcb1-97fab45f4906"},"vehicle_type_id":"4","last_reported":1693602361,"current_range_meters":26800,"station_id":"ce4bh692rcd13ifvqea0","pricing_plan_id":"free"},{"bike_id":"1bf184a3-cb07-410e-aa97-bde44aa58c33","system_id":"levelo_inurba_marseille","lat":43.29264,"lon":5.38434,"is_reserved":false,"is_disabled":false,"rental_uris":{"android":"levelo://app?vid=1bf184a3-cb07-410e-aa97-bde44aa58c33","ios":"levelo://app?vid=1bf184a3-cb07-410e-aa97-bde44aa58c33"},"vehicle_type_id":"4","last_reported":1693602361,"current_range_meters":17600,"station_id":"ce4bh692rcd13ifvqea0","pricing_plan_id":"free"},{"bike_id":"b395d563-f533-4fd1-9389-2d73adc711a5","system_id":"levelo_inurba_marseille","lat":43.292644,"lon":5.384257,"is_reserved":false,"is_disabled":false,"rental_uris":{"android":"levelo://app?vid=b395d563-f533-4fd1-9389-2d73adc711a5","ios":"levelo://app?vid=b395d563-f533-4fd1-9389-2d73adc711a5"},"vehicle_type_id":"4","last_reported":1693602361,"current_range_meters":15200,"station_id":"ce4bh692rcd13ifvqea0","pricing_plan_id":"free"},{"bike_id":"17868427-92d3-4eef-996a-a2798c0d099c","system_id":"levelo_inurba_marseille","lat":43.29271,"lon":5.38451,"is_reserved":false,"is_disabled":false,"rental_uris":{"android":"levelo://app?vid=17868427-92d3-4eef-996a-a2798c0d099c","ios":"levelo://app?vid=17868427-92d3-4eef-996a-a2798c0d099c"},"vehicle_type_id":"4","last_reported":1693602361,"current_range_meters":7600,"station_id":"ce4bh692rcd13ifvqea0","pricing_plan_id":"free"},{"bike_id":"5987dd07-191d-4080-86ca-6911ddafbd3a","system_id":"levelo_inurba_marseille","lat":43.29262,"lon":5.38433,"is_reserved":false,"is_disabled":false,"rental_uris":{"android":"levelo://app?vid=5987dd07-191d-4080-86ca-6911ddafbd3a","ios":"levelo://app?vid=5987dd07-191d-4080-86ca-6911ddafbd3a"},"vehicle_type_id":"4","last_reported":1693602361,"current_range_meters":10400,"station_id":"ce4bh692rcd13ifvqea0","pricing_plan_id":"free"},{"bike_id":"be519bc5-7de9-4c45-9239-02d518d0bfcb","system_id":"levelo_inurba_marseille","lat":43.29263,"lon":5.38436,"is_reserved":false,"is_disabled":false,"rental_uris":{"android":"levelo://app?vid=be519bc5-7de9-4c45-9239-02d518d0bfcb","ios":"levelo://app?vid=be519bc5-7de9-4c45-9239-02d518d0bfcb"},"vehicle_type_id":"4","last_reported":1693602361,"current_range_meters":0,"station_id":"ce4bh692rcd13ifvqea0","pricing_plan_id":"free"},{"bike_id":"5aecb95d-5b38-4a58-8e6f-c20dc8203729","system_id":"levelo_inurba_marseille","lat":43.292644,"lon":5.384257,"is_reserved":false,"is_disabled":false,"rental_uris":{"android":"levelo://app?vid=5aecb95d-5b38-4a58-8e6f-c20dc8203729","ios":"levelo://app?vid=5aecb95d-5b38-4a58-8e6f-c20dc8203729"},"vehicle_type_id":"4","last_reported":1693602361,"current_range_meters":6000,"station_id":"ce4bh692rcd13ifvqea0","pricing_plan_id":"free"},{"bike_id":"c80dec75-9f2a-4022-a594-a86811d89819","system_id":"levelo_inurba_marseille","lat":43.292644,"lon":5.384257,"is_reserved":false,"is_disabled":false,"rental_uris":{"android":"levelo://app?vid=c80dec75-9f2a-4022-a594-a86811d89819","ios":"levelo://app?vid=c80dec75-9f2a-4022-a594-a86811d89819"},"vehicle_type_id":"4","last_reported":1693602361,"current_range_meters":11600,"station_id":"ce4bh692rcd13ifvqea0","pricing_plan_id":"free"},{"bike_id":"060882e2-ce8a-487a-9ced-31dff4406dce","system_id":"levelo_inurba_marseille","lat":43.304296,"lon":5.397513,"is_reserved":false,"is_disabled":false,"rental_uris":{"android":"levelo://app?vid=060882e2-ce8a-487a-9ced-31dff4406dce","ios":"levelo://app?vid=060882e2-ce8a-487a-9ced-31dff4406dce"},"vehicle_type_id":"4","last_reported":1693602361,"current_range_meters":16000,"station_id":"ce4bh092rcd13ifvqd20","pricing_plan_id":"free"},{"bike_id":"0f984e05-70a2-44bd-896b-c46098531b69","system_id":"levelo_inurba_marseille","lat":43.292642,"lon":5.384254,"is_reserved":false,"is_disabled":false,"rental_uris":{"android":"levelo://app?vid=0f984e05-70a2-44bd-896b-c46098531b69","ios":"levelo://app?vid=0f984e05-70a2-44bd-896b-c46098531b69"},"vehicle_type_id":"4","last_reported":1693602361,"current_range_meters":15600,"station_id":"ce4bh692rcd13ifvqea0","pricing_plan_id":"free"},{"bike_id":"afef8a81-214b-4702-8354-14445cf04fb9","system_id":"levelo_inurba_marseille","lat":43.29265,"lon":5.38446,"is_reserved":false,"is_disabled":false,"rental_uris":{"android":"levelo://app?vid=afef8a81-214b-4702-8354-14445cf04fb9","ios":"levelo://app?vid=afef8a81-214b-4702-8354-14445cf04fb9"},"vehicle_type_id":"4","last_reported":1693602361,"current_range_meters":26800,"station_id":"ce4bh692rcd13ifvqea0","pricing_plan_id":"free"},{"bike_id":"aa1621fd-4fe8-4fdc-904b-079b5e3a95d7","system_id":"levelo_inurba_marseille","lat":43.29261,"lon":5.38438,"is_reserved":false,"is_disabled":false,"rental_uris":{"android":"levelo://app?vid=aa1621fd-4fe8-4fdc-904b-079b5e3a95d7","ios":"levelo://app?vid=aa1621fd-4fe8-4fdc-904b-079b5e3a95d7"},"vehicle_type_id":"4","last_reported":1693602361,"current_range_meters":8800,"station_id":"ce4bh692rcd13ifvqea0","pricing_plan_id":"free"},{"bike_id":"34b8981c-c6ca-4754-a3fe-b2525478b1a2","system_id":"levelo_inurba_marseille","lat":43.29265,"lon":5.38449,"is_reserved":false,"is_disabled":false,"rental_uris":{"android":"levelo://app?vid=34b8981c-c6ca-4754-a3fe-b2525478b1a2","ios":"levelo://app?vid=34b8981c-c6ca-4754-a3fe-b2525478b1a2"},"vehicle_type_id":"4","last_reported":1693602361,"current_range_meters":0,"station_id":"ce4bh692rcd13ifvqea0","pricing_plan_id":"free"},{"bike_id":"421018e0-23bf-425c-aa8b-e47ab340e271","system_id":"levelo_inurba_marseille","lat":43.292642,"lon":5.384254,"is_reserved":false,"is_disabled":false,"rental_uris":{"android":"levelo://app?vid=421018e0-23bf-425c-aa8b-e47ab340e271","ios":"levelo://app?vid=421018e0-23bf-425c-aa8b-e47ab340e271"},"vehicle_type_id":"4","last_reported":1693602361,"current_range_meters":3600,"station_id":"ce4bh692rcd13ifvqea0","pricing_plan_id":"free"},{"bike_id":"c12f7f3b-3db4-41a9-9afe-e4836bdcb03c","system_id":"levelo_inurba_marseille","lat":43.292642,"lon":5.384254,"is_reserved":false,"is_disabled":false,"rental_uris":{"android":"levelo://app?vid=c12f7f3b-3db4-41a9-9afe-e4836bdcb03c","ios":"levelo://app?vid=c12f7f3b-3db4-41a9-9afe-e4836bdcb03c"},"vehicle_type_id":"4","last_reported":1693602361,"current_range_meters":0,"station_id":"ce4bh692rcd13ifvqea0","pricing_plan_id":"free"},{"bike_id":"6ea99cb3-d610-46c8-a870-6244dfa124c0","system_id":"levelo_inurba_marseille","lat":43.292644,"lon":5.384257,"is_reserved":false,"is_disabled":false,"rental_uris":{"android":"levelo://app?vid=6ea99cb3-d610-46c8-a870-6244dfa124c0","ios":"levelo://app?vid=6ea99cb3-d610-46c8-a870-6244dfa124c0"},"vehicle_type_id":"4","last_reported":1693602361,"current_range_meters":7200,"station_id":"ce4bh692rcd13ifvqea0","pricing_plan_id":"free"},{"bike_id":"62cd3945-ecfb-4212-bde0-f5bdf3d7325e","system_id":"levelo_inurba_marseille","lat":43.292644,"lon":5.384257,"is_reserved":false,"is_disabled":false,"rental_uris":{"android":"levelo://app?vid=62cd3945-ecfb-4212-bde0-f5bdf3d7325e","ios":"levelo://app?vid=62cd3945-ecfb-4212-bde0-f5bdf3d7325e"},"vehicle_type_id":"4","last_reported":1693602361,"current_range_meters":3600,"station_id":"ce4bh692rcd13ifvqea0","pricing_plan_id":"free"},{"bike_id":"64b9a23e-b47c-44c2-96c7-4dc18158c927","system_id":"levelo_inurba_marseille","lat":43.2926,"lon":5.38441,"is_reserved":false,"is_disabled":false,"rental_uris":{"android":"levelo://app?vid=64b9a23e-b47c-44c2-96c7-4dc18158c927","ios":"levelo://app?vid=64b9a23e-b47c-44c2-96c7-4dc18158c927"},"vehicle_type_id":"4","last_reported":1693602361,"current_range_meters":12800,"station_id":"ce4bh692rcd13ifvqea0","pricing_plan_id":"free"},{"bike_id":"6da74a4d-48a2-4d0d-8852-698b67965a75","system_id":"levelo_inurba_marseille","lat":43.292644,"lon":5.384257,"is_reserved":false,"is_disabled":false,"rental_uris":{"android":"levelo://app?vid=6da74a4d-48a2-4d0d-8852-698b67965a75","ios":"levelo://app?vid=6da74a4d-48a2-4d0d-8852-698b67965a75"},"vehicle_type_id":"4","last_reported":1693602361,"current_range_meters":22800,"station_id":"ce4bh692rcd13ifvqea0","pricing_plan_id":"free"},{"bike_id":"aba2ab9e-7b02-4968-a396-dad630575e5b","system_id":"levelo_inurba_marseille","lat":43.292644,"lon":5.384257,"is_reserved":false,"is_disabled":false,"rental_uris":{"android":"levelo://app?vid=aba2ab9e-7b02-4968-a396-dad630575e5b","ios":"levelo://app?vid=aba2ab9e-7b02-4968-a396-dad630575e5b"},"vehicle_type_id":"4","last_reported":1693602361,"current_range_meters":4800,"station_id":"ce4bh692rcd13ifvqea0","pricing_plan_id":"free"},{"bike_id":"6e0a2f94-eaca-4fae-9318-35a8ee2643d9","system_id":"levelo_inurba_marseille","lat":43.292644,"lon":5.384257,"is_reserved":false,"is_disabled":false,"rental_uris":{"android":"levelo://app?vid=6e0a2f94-eaca-4fae-9318-35a8ee2643d9","ios":"levelo://app?vid=6e0a2f94-eaca-4fae-9318-35a8ee2643d9"},"vehicle_type_id":"4","last_reported":1693602361,"current_range_meters":3600,"station_id":"ce4bh692rcd13ifvqea0","pricing_plan_id":"free"},{"bike_id":"079e3824-028f-4507-b0de-6bf90be44e60","system_id":"levelo_inurba_marseille","lat":43.292555,"lon":5.384397,"is_reserved":false,"is_disabled":false,"rental_uris":{"android":"levelo://app?vid=079e3824-028f-4507-b0de-6bf90be44e60","ios":"levelo://app?vid=079e3824-028f-4507-b0de-6bf90be44e60"},"vehicle_type_id":"4","last_reported":1693602361,"current_range_meters":24000,"station_id":"ce4bh692rcd13ifvqea0","pricing_plan_id":"free"},{"bike_id":"fe6046d0-bfdc-42de-a8cb-67b29f3e597f","system_id":"levelo_inurba_marseille","lat":43.292642,"lon":5.384254,"is_reserved":false,"is_disabled":false,"rental_uris":{"android":"levelo://app?vid=fe6046d0-bfdc-42de-a8cb-67b29f3e597f","ios":"levelo://app?vid=fe6046d0-bfdc-42de-a8cb-67b29f3e597f"},"vehicle_type_id":"4","last_reported":1693602361,"current_range_meters":2800,"station_id":"ce4bh692rcd13ifvqea0","pricing_plan_id":"free"},{"bike_id":"f3598ac4-bda1-4933-81b4-d6dfc6631d9e","system_id":"levelo_inurba_marseille","lat":43.304296,"lon":5.397513,"is_reserved":false,"is_disabled":false,"rental_uris":{"android":"levelo://app?vid=f3598ac4-bda1-4933-81b4-d6dfc6631d9e","ios":"levelo://app?vid=f3598ac4-bda1-4933-81b4-d6dfc6631d9e"},"vehicle_type_id":"4","last_reported":1693602361,"current_range_meters":4800,"station_id":"ce4bh092rcd13ifvqd20","pricing_plan_id":"free"},{"bike_id":"dc14ed53-0af7-42cc-ab12-e486e52d9a8a","system_id":"levelo_inurba_marseille","lat":43.29254,"lon":5.38441,"is_reserved":false,"is_disabled":false,"rental_uris":{"android":"levelo://app?vid=dc14ed53-0af7-42cc-ab12-e486e52d9a8a","ios":"levelo://app?vid=dc14ed53-0af7-42cc-ab12-e486e52d9a8a"},"vehicle_type_id":"4","last_reported":1693602361,"current_range_meters":26400,"station_id":"ce4bh692rcd13ifvqea0","pricing_plan_id":"free"},{"bike_id":"378bcb72-f095-4a47-9ecd-21b6b7b081ef","system_id":"levelo_inurba_marseille","lat":43.292642,"lon":5.384254,"is_reserved":false,"is_disabled":false,"rental_uris":{"android":"levelo://app?vid=378bcb72-f095-4a47-9ecd-21b6b7b081ef","ios":"levelo://app?vid=378bcb72-f095-4a47-9ecd-21b6b7b081ef"},"vehicle_type_id":"4","last_reported":1693602361,"current_range_meters":1600,"station_id":"ce4bh692rcd13ifvqea0","pricing_plan_id":"free"},{"bike_id":"3387f86f-4e49-4ba9-b120-a873b4646f48","system_id":"levelo_inurba_marseille","lat":43.297911,"lon":5.392737,"is_reserved":false,"is_disabled":false,"rental_uris":{"android":"levelo://app?vid=3387f86f-4e49-4ba9-b120-a873b4646f48","ios":"levelo://app?vid=3387f86f-4e49-4ba9-b120-a873b4646f48"},"vehicle_type_id":"4","last_reported":1693602361,"current_range_meters":4800,"station_id":"ce4bh4p2rcd13ifvqe0g","pricing_plan_id":"free"},{"bike_id":"c1b0850d-0a53-4da0-9f6b-a9a94f67666e","system_id":"levelo_inurba_marseille","lat":43.33045,"lon":5.38909,"is_reserved":false,"is_disabled":false,"rental_uris":{"android":"levelo://app?vid=c1b0850d-0a53-4da0-9f6b-a9a94f67666e","ios":"levelo://app?vid=c1b0850d-0a53-4da0-9f6b-a9a94f67666e"},"vehicle_type_id":"4","last_reported":1693602361,"current_range_meters":24800,"station_id":"ce4bhr92rcd13ifvqhrg","pricing_plan_id":"free"},{"bike_id":"de59a76a-42a0-4ab4-b120-08406509a5a3","system_id":"levelo_inurba_marseille","lat":43.33042,"lon":5.38916,"is_reserved":false,"is_disabled":false,"rental_uris":{"android":"levelo://app?vid=de59a76a-42a0-4ab4-b120-08406509a5a3","ios":"levelo://app?vid=de59a76a-42a0-4ab4-b120-08406509a5a3"},"vehicle_type_id":"4","last_reported":1693602361,"current_range_meters":0,"station_id":"ce4bhr92rcd13ifvqhrg","pricing_plan_id":"free"},{"bike_id":"978b0ff4-c9df-43ed-a4e7-ec9b1854c595","system_id":"levelo_inurba_marseille","lat":43.33041,"lon":5.38919,"is_reserved":false,"is_disabled":false,"rental_uris":{"android":"levelo://app?vid=978b0ff4-c9df-43ed-a4e7-ec9b1854c595","ios":"levelo://app?vid=978b0ff4-c9df-43ed-a4e7-ec9b1854c595"},"vehicle_type_id":"4","last_reported":1693602361,"current_range_meters":19600,"station_id":"ce4bhr92rcd13ifvqhrg","pricing_plan_id":"free"},{"bike_id":"90f1fc97-49d0-4df8-9f32-3dfcd4a32851","system_id":"levelo_inurba_marseille","lat":43.33043,"lon":5.38916,"is_reserved":false,"is_disabled":false,"rental_uris":{"android":"levelo://app?vid=90f1fc97-49d0-4df8-9f32-3dfcd4a32851","ios":"levelo://app?vid=90f1fc97-49d0-4df8-9f32-3dfcd4a32851"},"vehicle_type_id":"4","last_reported":1693602361,"current_range_meters":17600,"station_id":"ce4bhr92rcd13ifvqhrg","pricing_plan_id":"free"},{"bike_id":"97bd55a4-42e4-4fe4-b814-e15741181f07","system_id":"levelo_inurba_marseille","lat":43.33045,"lon":5.38914,"is_reserved":false,"is_disabled":false,"rental_uris":{"android":"levelo://app?vid=97bd55a4-42e4-4fe4-b814-e15741181f07","ios":"levelo://app?vid=97bd55a4-42e4-4fe4-b814-e15741181f07"},"vehicle_type_id":"4","last_reported":1693602361,"current_range_meters":4800,"station_id":"ce4bhr92rcd13ifvqhrg","pricing_plan_id":"free"},{"bike_id":"3e0449ec-e32f-417c-946f-951095c26cc1","system_id":"levelo_inurba_marseille","lat":43.33041,"lon":5.38921,"is_reserved":false,"is_disabled":false,"rental_uris":{"android":"levelo://app?vid=3e0449ec-e32f-417c-946f-951095c26cc1","ios":"levelo://app?vid=3e0449ec-e32f-417c-946f-951095c26cc1"},"vehicle_type_id":"4","last_reported":1693602361,"current_range_meters":30000,"station_id":"ce4bhr92rcd13ifvqhrg","pricing_plan_id":"free"},{"bike_id":"e7c8cfe2-9bdf-4363-a136-3e02a3639875","system_id":"levelo_inurba_marseille","lat":43.33042,"lon":5.3892,"is_reserved":false,"is_disabled":false,"rental_uris":{"android":"levelo://app?vid=e7c8cfe2-9bdf-4363-a136-3e02a3639875","ios":"levelo://app?vid=e7c8cfe2-9bdf-4363-a136-3e02a3639875"},"vehicle_type_id":"4","last_reported":1693602361,"current_range_meters":12400,"station_id":"ce4bhr92rcd13ifvqhrg","pricing_plan_id":"free"},{"bike_id":"276df892-9a2a-40a9-929d-29c6fe2dac65","system_id":"levelo_inurba_marseille","lat":43.33042,"lon":5.38921,"is_reserved":false,"is_disabled":false,"rental_uris":{"android":"levelo://app?vid=276df892-9a2a-40a9-929d-29c6fe2dac65","ios":"levelo://app?vid=276df892-9a2a-40a9-929d-29c6fe2dac65"},"vehicle_type_id":"4","last_reported":1693602361,"current_range_meters":25600,"station_id":"ce4bhr92rcd13ifvqhrg","pricing_plan_id":"free"},{"bike_id":"d9b7cf73-e139-46ed-8d02-84759924fdf4","system_id":"levelo_inurba_marseille","lat":43.33044,"lon":5.38918,"is_reserved":false,"is_disabled":false,"rental_uris":{"android":"levelo://app?vid=d9b7cf73-e139-46ed-8d02-84759924fdf4","ios":"levelo://app?vid=d9b7cf73-e139-46ed-8d02-84759924fdf4"},"vehicle_type_id":"4","last_reported":1693602361,"current_range_meters":10000,"station_id":"ce4bhr92rcd13ifvqhrg","pricing_plan_id":"free"},{"bike_id":"ea394d79-4757-43e4-b2ea-cfc1334dda75","system_id":"levelo_inurba_marseille","lat":43.290104,"lon":5.356111,"is_reserved":false,"is_disabled":false,"rental_uris":{"android":"levelo://app?vid=ea394d79-4757-43e4-b2ea-cfc1334dda75","ios":"levelo://app?vid=ea394d79-4757-43e4-b2ea-cfc1334dda75"},"vehicle_type_id":"4","last_reported":1693602361,"current_range_meters":31200,"station_id":"ce4bhb92rcd13ifvqen0","pricing_plan_id":"free"},{"bike_id":"2cdba739-ebc5-413a-8a24-35edd08d69ea","system_id":"levelo_inurba_marseille","lat":43.33048,"lon":5.38913,"is_reserved":false,"is_disabled":false,"rental_uris":{"android":"levelo://app?vid=2cdba739-ebc5-413a-8a24-35edd08d69ea","ios":"levelo://app?vid=2cdba739-ebc5-413a-8a24-35edd08d69ea"},"vehicle_type_id":"4","last_reported":1693602361,"current_range_meters":20000,"station_id":"ce4bhr92rcd13ifvqhrg","pricing_plan_id":"free"},{"bike_id":"8077604d-b9d4-4aae-b42f-6a79c8cc4721","system_id":"levelo_inurba_marseille","lat":43.33041,"lon":5.38924,"is_reserved":false,"is_disabled":false,"rental_uris":{"android":"levelo://app?vid=8077604d-b9d4-4aae-b42f-6a79c8cc4721","ios":"levelo://app?vid=8077604d-b9d4-4aae-b42f-6a79c8cc4721"},"vehicle_type_id":"4","last_reported":1693602361,"current_range_meters":27600,"station_id":"ce4bhr92rcd13ifvqhrg","pricing_plan_id":"free"},{"bike_id":"645cd669-ac23-481c-b436-62b12894ddf5","system_id":"levelo_inurba_marseille","lat":43.290104,"lon":5.356111,"is_reserved":false,"is_disabled":false,"rental_uris":{"android":"levelo://app?vid=645cd669-ac23-481c-b436-62b12894ddf5","ios":"levelo://app?vid=645cd669-ac23-481c-b436-62b12894ddf5"},"vehicle_type_id":"4","last_reported":1693602361,"current_range_meters":2400,"station_id":"ce4bhb92rcd13ifvqen0","pricing_plan_id":"free"},{"bike_id":"b88a38ac-dc7a-4f31-98b8-caefa9723b49","system_id":"levelo_inurba_marseille","lat":43.290103,"lon":5.356114,"is_reserved":false,"is_disabled":false,"rental_uris":{"android":"levelo://app?vid=b88a38ac-dc7a-4f31-98b8-caefa9723b49","ios":"levelo://app?vid=b88a38ac-dc7a-4f31-98b8-caefa9723b49"},"vehicle_type_id":"4","last_reported":1693602361,"current_range_meters":31200,"station_id":"ce4bhb92rcd13ifvqen0","pricing_plan_id":"free"},{"bike_id":"9596d2b8-29e6-4399-93cf-0e54f50afa0e","system_id":"levelo_inurba_marseille","lat":43.290104,"lon":5.356111,"is_reserved":false,"is_disabled":false,"rental_uris":{"android":"levelo://app?vid=9596d2b8-29e6-4399-93cf-0e54f50afa0e","ios":"levelo://app?vid=9596d2b8-29e6-4399-93cf-0e54f50afa0e"},