{"last_updated":1679587749,"ttl":30,"version":"2.2","data":{"bikes":[{"bike_id":"64526145-6115-4293-bc6a-3f2bebcb0ad3","system_id":"levelo_inurba_marseille","lat":43.305968,"lon":5.365652,"is_reserved":false,"is_disabled":false,"rental_uris":{"android":"levelo://app?vid=64526145-6115-4293-bc6a-3f2bebcb0ad3","ios":"levelo://app?vid=64526145-6115-4293-bc6a-3f2bebcb0ad3"},"vehicle_type_id":"4","last_reported":1679587759,"current_range_meters":13200,"station_id":"","pricing_plan_id":"free"},{"bike_id":"77b5e987-e2fb-4fd4-aa79-0cdaf87c3d85","system_id":"levelo_inurba_marseille","lat":43.30595,"lon":5.37228,"is_reserved":false,"is_disabled":false,"rental_uris":{"android":"levelo://app?vid=77b5e987-e2fb-4fd4-aa79-0cdaf87c3d85","ios":"levelo://app?vid=77b5e987-e2fb-4fd4-aa79-0cdaf87c3d85"},"vehicle_type_id":"4","last_reported":1679587759,"current_range_meters":22400,"station_id":"ce4bgqh2rcd13ifvqc4g","pricing_plan_id":"free"},{"bike_id":"f7e2cfd4-ab68-4552-ad82-92ed3c5290a5","system_id":"levelo_inurba_marseille","lat":43.318391,"lon":5.380234,"is_reserved":false,"is_disabled":false,"rental_uris":{"android":"levelo://app?vid=f7e2cfd4-ab68-4552-ad82-92ed3c5290a5","ios":"levelo://app?vid=f7e2cfd4-ab68-4552-ad82-92ed3c5290a5"},"vehicle_type_id":"4","last_reported":1679587759,"current_range_meters":27600,"station_id":"","pricing_plan_id":"free"},{"bike_id":"44523f20-4ddc-490d-aea8-587c278d1463","system_id":"levelo_inurba_marseille","lat":43.30809,"lon":5.3816,"is_reserved":false,"is_disabled":false,"rental_uris":{"android":"levelo://app?vid=44523f20-4ddc-490d-aea8-587c278d1463","ios":"levelo://app?vid=44523f20-4ddc-490d-aea8-587c278d1463"},"vehicle_type_id":"4","last_reported":1679587759,"current_range_meters":0,"station_id":"ce4bgt12rcd13ifvqce0","pricing_plan_id":"free"},{"bike_id":"5e58bc69-2d5b-43b9-9e4a-f9564cb05209","system_id":"levelo_inurba_marseille","lat":43.30467,"lon":5.3791,"is_reserved":false,"is_disabled":false,"rental_uris":{"android":"levelo://app?vid=5e58bc69-2d5b-43b9-9e4a-f9564cb05209","ios":"levelo://app?vid=5e58bc69-2d5b-43b9-9e4a-f9564cb05209"},"vehicle_type_id":"4","last_reported":1679587759,"current_range_meters":27200,"station_id":"ce4bgup2rcd13ifvqcn0","pricing_plan_id":"free"},{"bike_id":"92afed01-d2b6-40bf-a80a-7347785cbee1","system_id":"levelo_inurba_marseille","lat":43.301364,"lon":5.374159,"is_reserved":false,"is_disabled":false,"rental_uris":{"android":"levelo://app?vid=92afed01-d2b6-40bf-a80a-7347785cbee1","ios":"levelo://app?vid=92afed01-d2b6-40bf-a80a-7347785cbee1"},"vehicle_type_id":"4","last_reported":1679587759,"current_range_meters":10800,"station_id":"ce4bgs92rcd13ifvqcc0","pricing_plan_id":"free"},{"bike_id":"1b989243-74ae-4ce3-ab5b-d6ba6236815f","system_id":"levelo_inurba_marseille","lat":43.31364,"lon":5.38491,"is_reserved":false,"is_disabled":false,"rental_uris":{"android":"levelo://app?vid=1b989243-74ae-4ce3-ab5b-d6ba6236815f","ios":"levelo://app?vid=1b989243-74ae-4ce3-ab5b-d6ba6236815f"},"vehicle_type_id":"4","last_reported":1679587759,"current_range_meters":14400,"station_id":"ce4bgt92rcd13ifvqcf0","pricing_plan_id":"free"},{"bike_id":"cca9d9c7-fcbb-4660-8c5e-768dd6d2e324","system_id":"levelo_inurba_marseille","lat":43.31366,"lon":5.38493,"is_reserved":false,"is_disabled":false,"rental_uris":{"android":"levelo://app?vid=cca9d9c7-fcbb-4660-8c5e-768dd6d2e324","ios":"levelo://app?vid=cca9d9c7-fcbb-4660-8c5e-768dd6d2e324"},"vehicle_type_id":"4","last_reported":1679587759,"current_range_meters":400,"station_id":"ce4bgt92rcd13ifvqcf0","pricing_plan_id":"free"},{"bike_id":"8e7191ef-00a6-45cd-b154-bc870a385d92","system_id":"levelo_inurba_marseille","lat":43.305401,"lon":5.384284,"is_reserved":false,"is_disabled":false,"rental_uris":{"android":"levelo://app?vid=8e7191ef-00a6-45cd-b154-bc870a385d92","ios":"levelo://app?vid=8e7191ef-00a6-45cd-b154-bc870a385d92"},"vehicle_type_id":"4","last_reported":1679587759,"current_range_meters":0,"station_id":"ce4bgg92rcd13ifvqb30","pricing_plan_id":"free"},{"bike_id":"2ebc495e-3508-4359-825c-9ad7da416882","system_id":"levelo_inurba_marseille","lat":43.305364,"lon":5.384119,"is_reserved":false,"is_disabled":false,"rental_uris":{"android":"levelo://app?vid=2ebc495e-3508-4359-825c-9ad7da416882","ios":"levelo://app?vid=2ebc495e-3508-4359-825c-9ad7da416882"},"vehicle_type_id":"4","last_reported":1679587759,"current_range_meters":3600,"station_id":"ce4bgg92rcd13ifvqb30","pricing_plan_id":"free"},{"bike_id":"fa09f139-71f5-40d7-a154-eae1e7ecc673","system_id":"levelo_inurba_marseille","lat":43.311722,"lon":5.387247,"is_reserved":false,"is_disabled":false,"rental_uris":{"android":"levelo://app?vid=fa09f139-71f5-40d7-a154-eae1e7ecc673","ios":"levelo://app?vid=fa09f139-71f5-40d7-a154-eae1e7ecc673"},"vehicle_type_id":"4","last_reported":1679587759,"current_range_meters":21600,"station_id":"ce4bgv12rcd13ifvqcp0","pricing_plan_id":"free"},{"bike_id":"47e1db73-c9eb-46de-95e2-5b621359a14b","system_id":"levelo_inurba_marseille","lat":43.311722,"lon":5.387247,"is_reserved":false,"is_disabled":false,"rental_uris":{"android":"levelo://app?vid=47e1db73-c9eb-46de-95e2-5b621359a14b","ios":"levelo://app?vid=47e1db73-c9eb-46de-95e2-5b621359a14b"},"vehicle_type_id":"4","last_reported":1679587759,"current_range_meters":11200,"station_id":"ce4bgv12rcd13ifvqcp0","pricing_plan_id":"free"},{"bike_id":"c43e32a8-afdc-4ce8-8040-a8fc7d0bce5e","system_id":"levelo_inurba_marseille","lat":43.299122,"lon":5.374733,"is_reserved":false,"is_disabled":false,"rental_uris":{"android":"levelo://app?vid=c43e32a8-afdc-4ce8-8040-a8fc7d0bce5e","ios":"levelo://app?vid=c43e32a8-afdc-4ce8-8040-a8fc7d0bce5e"},"vehicle_type_id":"4","last_reported":1679587759,"current_range_meters":4800,"station_id":"ce4bgjh2rcd13ifvqbg0","pricing_plan_id":"free"},{"bike_id":"11a176bc-14ab-4b82-a6c6-369e683b06ca","system_id":"levelo_inurba_marseille","lat":43.328371,"lon":5.366912,"is_reserved":false,"is_disabled":false,"rental_uris":{"android":"levelo://app?vid=11a176bc-14ab-4b82-a6c6-369e683b06ca","ios":"levelo://app?vid=11a176bc-14ab-4b82-a6c6-369e683b06ca"},"vehicle_type_id":"4","last_reported":1679587759,"current_range_meters":0,"station_id":"ce4bhs92rcd13ifvqi0g","pricing_plan_id":"free"},{"bike_id":"0bdb7ea8-ac6f-4b7c-b2a7-62199e0377d6","system_id":"levelo_inurba_marseille","lat":43.32833,"lon":5.36682,"is_reserved":false,"is_disabled":false,"rental_uris":{"android":"levelo://app?vid=0bdb7ea8-ac6f-4b7c-b2a7-62199e0377d6","ios":"levelo://app?vid=0bdb7ea8-ac6f-4b7c-b2a7-62199e0377d6"},"vehicle_type_id":"4","last_reported":1679587759,"current_range_meters":5200,"station_id":"","pricing_plan_id":"free"},{"bike_id":"675679d1-6085-45f8-b542-9799a2c950a5","system_id":"levelo_inurba_marseille","lat":43.296921,"lon":5.376579,"is_reserved":false,"is_disabled":false,"rental_uris":{"android":"levelo://app?vid=675679d1-6085-45f8-b542-9799a2c950a5","ios":"levelo://app?vid=675679d1-6085-45f8-b542-9799a2c950a5"},"vehicle_type_id":"4","last_reported":1679587759,"current_range_meters":0,"station_id":"ce4bgkh2rcd13ifvqbl0","pricing_plan_id":"free"},{"bike_id":"e41911eb-5701-481d-8f3b-af9ebdcf097c","system_id":"levelo_inurba_marseille","lat":43.296921,"lon":5.376579,"is_reserved":false,"is_disabled":false,"rental_uris":{"android":"levelo://app?vid=e41911eb-5701-481d-8f3b-af9ebdcf097c","ios":"levelo://app?vid=e41911eb-5701-481d-8f3b-af9ebdcf097c"},"vehicle_type_id":"4","last_reported":1679587759,"current_range_meters":8400,"station_id":"ce4bgkh2rcd13ifvqbl0","pricing_plan_id":"free"},{"bike_id":"b2b1aab6-b0e1-4511-9822-c9bf62e5305a","system_id":"levelo_inurba_marseille","lat":43.295805,"lon":5.363135,"is_reserved":false,"is_disabled":false,"rental_uris":{"android":"levelo://app?vid=b2b1aab6-b0e1-4511-9822-c9bf62e5305a","ios":"levelo://app?vid=b2b1aab6-b0e1-4511-9822-c9bf62e5305a"},"vehicle_type_id":"4","last_reported":1679587759,"current_range_meters":0,"station_id":"","pricing_plan_id":"free"},{"bike_id":"857db70a-e21b-4638-bcdf-824601f87505","system_id":"levelo_inurba_marseille","lat":43.296921,"lon":5.376579,"is_reserved":false,"is_disabled":false,"rental_uris":{"android":"levelo://app?vid=857db70a-e21b-4638-bcdf-824601f87505","ios":"levelo://app?vid=857db70a-e21b-4638-bcdf-824601f87505"},"vehicle_type_id":"4","last_reported":1679587759,"current_range_meters":0,"station_id":"ce4bgkh2rcd13ifvqbl0","pricing_plan_id":"free"},{"bike_id":"b284c8ac-c551-496a-8c0e-112a822cc8d0","system_id":"levelo_inurba_marseille","lat":43.299056,"lon":5.381418,"is_reserved":false,"is_disabled":false,"rental_uris":{"android":"levelo://app?vid=b284c8ac-c551-496a-8c0e-112a822cc8d0","ios":"levelo://app?vid=b284c8ac-c551-496a-8c0e-112a822cc8d0"},"vehicle_type_id":"4","last_reported":1679587759,"current_range_meters":5600,"station_id":"ce4bgj12rcd13ifvqbc0","pricing_plan_id":"free"},{"bike_id":"244482f4-c1f7-4a53-9f8f-9f18dfab7708","system_id":"levelo_inurba_marseille","lat":43.31758,"lon":5.39026,"is_reserved":false,"is_disabled":false,"rental_uris":{"android":"levelo://app?vid=244482f4-c1f7-4a53-9f8f-9f18dfab7708","ios":"levelo://app?vid=244482f4-c1f7-4a53-9f8f-9f18dfab7708"},"vehicle_type_id":"4","last_reported":1679587759,"current_range_meters":1200,"station_id":"","pricing_plan_id":"free"},{"bike_id":"0084afd2-398c-40f4-a3fb-b27d3c69568d","system_id":"levelo_inurba_marseille","lat":43.241782,"lon":5.397264,"is_reserved":false,"is_disabled":false,"rental_uris":{"android":"levelo://app?vid=0084afd2-398c-40f4-a3fb-b27d3c69568d","ios":"levelo://app?vid=0084afd2-398c-40f4-a3fb-b27d3c69568d"},"vehicle_type_id":"4","last_reported":1679587759,"current_range_meters":0,"station_id":"ce4bhn12rcd13ifvqgpg","pricing_plan_id":"free"},{"bike_id":"72bef66d-242a-45b4-96d6-4d2abae9322e","system_id":"levelo_inurba_marseille","lat":43.29987,"lon":5.38486,"is_reserved":false,"is_disabled":false,"rental_uris":{"android":"levelo://app?vid=72bef66d-242a-45b4-96d6-4d2abae9322e","ios":"levelo://app?vid=72bef66d-242a-45b4-96d6-4d2abae9322e"},"vehicle_type_id":"4","last_reported":1679587759,"current_range_meters":0,"station_id":"ce4bgj92rcd13ifvqbd0","pricing_plan_id":"free"},{"bike_id":"17a59323-cf06-4367-9fad-9375a114814e","system_id":"levelo_inurba_marseille","lat":43.29537,"lon":5.37511,"is_reserved":false,"is_disabled":false,"rental_uris":{"android":"levelo://app?vid=17a59323-cf06-4367-9fad-9375a114814e","ios":"levelo://app?vid=17a59323-cf06-4367-9fad-9375a114814e"},"vehicle_type_id":"4","last_reported":1679587759,"current_range_meters":22000,"station_id":"ce4bgkp2rcd13ifvqbmg","pricing_plan_id":"free"},{"bike_id":"419593bc-9a5e-4455-91de-bcebc949528a","system_id":"levelo_inurba_marseille","lat":43.299772,"lon":5.384928,"is_reserved":false,"is_disabled":false,"rental_uris":{"android":"levelo://app?vid=419593bc-9a5e-4455-91de-bcebc949528a","ios":"levelo://app?vid=419593bc-9a5e-4455-91de-bcebc949528a"},"vehicle_type_id":"4","last_reported":1679587759,"current_range_meters":0,"station_id":"","pricing_plan_id":"free"},{"bike_id":"6cd56d59-d592-4b52-b530-6cf461787bfc","system_id":"levelo_inurba_marseille","lat":43.299717,"lon":5.384845,"is_reserved":false,"is_disabled":false,"rental_uris":{"android":"levelo://app?vid=6cd56d59-d592-4b52-b530-6cf461787bfc","ios":"levelo://app?vid=6cd56d59-d592-4b52-b530-6cf461787bfc"},"vehicle_type_id":"4","last_reported":1679587759,"current_range_meters":0,"station_id":"ce4bgj92rcd13ifvqbd0","pricing_plan_id":"free"},{"bike_id":"ee04bb4e-66d1-4cdc-b3bb-fdbc7f0e1127","system_id":"levelo_inurba_marseille","lat":43.32367,"lon":5.388836,"is_reserved":false,"is_disabled":false,"rental_uris":{"android":"levelo://app?vid=ee04bb4e-66d1-4cdc-b3bb-fdbc7f0e1127","ios":"levelo://app?vid=ee04bb4e-66d1-4cdc-b3bb-fdbc7f0e1127"},"vehicle_type_id":"4","last_reported":1679587759,"current_range_meters":8400,"station_id":"ce4bhqp2rcd13ifvqhog","pricing_plan_id":"free"},{"bike_id":"8ca8d120-4040-4c1b-aec6-ee7ed8c98464","system_id":"levelo_inurba_marseille","lat":43.32367,"lon":5.388836,"is_reserved":false,"is_disabled":false,"rental_uris":{"android":"levelo://app?vid=8ca8d120-4040-4c1b-aec6-ee7ed8c98464","ios":"levelo://app?vid=8ca8d120-4040-4c1b-aec6-ee7ed8c98464"},"vehicle_type_id":"4","last_reported":1679587759,"current_range_meters":14400,"station_id":"ce4bhqp2rcd13ifvqhog","pricing_plan_id":"free"},{"bike_id":"d9c876a8-b1fb-4d40-ad21-c8373bdce1a3","system_id":"levelo_inurba_marseille","lat":43.32367,"lon":5.388836,"is_reserved":false,"is_disabled":false,"rental_uris":{"android":"levelo://app?vid=d9c876a8-b1fb-4d40-ad21-c8373bdce1a3","ios":"levelo://app?vid=d9c876a8-b1fb-4d40-ad21-c8373bdce1a3"},"vehicle_type_id":"4","last_reported":1679587759,"current_range_meters":22800,"station_id":"ce4bhqp2rcd13ifvqhog","pricing_plan_id":"free"},{"bike_id":"4da377c8-f6e6-420e-8562-05d3abce2cd9","system_id":"levelo_inurba_marseille","lat":43.32367,"lon":5.388836,"is_reserved":false,"is_disabled":false,"rental_uris":{"android":"levelo://app?vid=4da377c8-f6e6-420e-8562-05d3abce2cd9","ios":"levelo://app?vid=4da377c8-f6e6-420e-8562-05d3abce2cd9"},"vehicle_type_id":"4","last_reported":1679587759,"current_range_meters":8000,"station_id":"ce4bhqp2rcd13ifvqhog","pricing_plan_id":"free"},{"bike_id":"82f4c5b7-8766-4653-95a6-f67eef5f4b87","system_id":"levelo_inurba_marseille","lat":43.32367,"lon":5.388836,"is_reserved":false,"is_disabled":false,"rental_uris":{"android":"levelo://app?vid=82f4c5b7-8766-4653-95a6-f67eef5f4b87","ios":"levelo://app?vid=82f4c5b7-8766-4653-95a6-f67eef5f4b87"},"vehicle_type_id":"4","last_reported":1679587759,"current_range_meters":800,"station_id":"ce4bhqp2rcd13ifvqhog","pricing_plan_id":"free"},{"bike_id":"5071c9f2-36d2-438c-8af7-297294b91d2f","system_id":"levelo_inurba_marseille","lat":43.32367,"lon":5.388836,"is_reserved":false,"is_disabled":false,"rental_uris":{"android":"levelo://app?vid=5071c9f2-36d2-438c-8af7-297294b91d2f","ios":"levelo://app?vid=5071c9f2-36d2-438c-8af7-297294b91d2f"},"vehicle_type_id":"4","last_reported":1679587759,"current_range_meters":12000,"station_id":"ce4bhqp2rcd13ifvqhog","pricing_plan_id":"free"},{"bike_id":"0e55608e-666b-4a05-86b1-56f9fed9cdad","system_id":"levelo_inurba_marseille","lat":43.32369,"lon":5.38894,"is_reserved":false,"is_disabled":false,"rental_uris":{"android":"levelo://app?vid=0e55608e-666b-4a05-86b1-56f9fed9cdad","ios":"levelo://app?vid=0e55608e-666b-4a05-86b1-56f9fed9cdad"},"vehicle_type_id":"4","last_reported":1679587759,"current_range_meters":0,"station_id":"ce4bhqp2rcd13ifvqhog","pricing_plan_id":"free"},{"bike_id":"b3ebd2c3-dc8a-4588-a6d8-df16cbb1fe72","system_id":"levelo_inurba_marseille","lat":43.324021,"lon":5.388858,"is_reserved":false,"is_disabled":false,"rental_uris":{"android":"levelo://app?vid=b3ebd2c3-dc8a-4588-a6d8-df16cbb1fe72","ios":"levelo://app?vid=b3ebd2c3-dc8a-4588-a6d8-df16cbb1fe72"},"vehicle_type_id":"4","last_reported":1679587759,"current_range_meters":0,"station_id":"","pricing_plan_id":"free"},{"bike_id":"14439e8d-1fd5-41a4-b924-79babb648f47","system_id":"levelo_inurba_marseille","lat":43.293249,"lon":5.371578,"is_reserved":false,"is_disabled":false,"rental_uris":{"android":"levelo://app?vid=14439e8d-1fd5-41a4-b924-79babb648f47","ios":"levelo://app?vid=14439e8d-1fd5-41a4-b924-79babb648f47"},"vehicle_type_id":"4","last_reported":1679587759,"current_range_meters":0,"station_id":"ce4bgh92rcd13ifvqb40","pricing_plan_id":"free"},{"bike_id":"0c8def59-62f3-45c3-800d-bbf94f53de6e","system_id":"levelo_inurba_marseille","lat":43.293055,"lon":5.371816,"is_reserved":false,"is_disabled":false,"rental_uris":{"android":"levelo://app?vid=0c8def59-62f3-45c3-800d-bbf94f53de6e","ios":"levelo://app?vid=0c8def59-62f3-45c3-800d-bbf94f53de6e"},"vehicle_type_id":"4","last_reported":1679587759,"current_range_meters":800,"station_id":"","pricing_plan_id":"free"},{"bike_id":"0eb2181a-6529-43ea-893b-ef8b0ca2bc62","system_id":"levelo_inurba_marseille","lat":43.29266,"lon":5.359767,"is_reserved":false,"is_disabled":false,"rental_uris":{"android":"levelo://app?vid=0eb2181a-6529-43ea-893b-ef8b0ca2bc62","ios":"levelo://app?vid=0eb2181a-6529-43ea-893b-ef8b0ca2bc62"},"vehicle_type_id":"4","last_reported":1679587759,"current_range_meters":6000,"station_id":"","pricing_plan_id":"free"},{"bike_id":"e97c0da5-a88d-49af-a29e-018ffccbe51c","system_id":"levelo_inurba_marseille","lat":43.29887,"lon":5.38879,"is_reserved":false,"is_disabled":false,"rental_uris":{"android":"levelo://app?vid=e97c0da5-a88d-49af-a29e-018ffccbe51c","ios":"levelo://app?vid=e97c0da5-a88d-49af-a29e-018ffccbe51c"},"vehicle_type_id":"4","last_reported":1679587759,"current_range_meters":1600,"station_id":"ce4bh392rcd13ifvqdl0","pricing_plan_id":"free"},{"bike_id":"d58f1692-3ef4-4c32-8805-be6f99970d92","system_id":"levelo_inurba_marseille","lat":43.298764,"lon":5.388973,"is_reserved":false,"is_disabled":false,"rental_uris":{"android":"levelo://app?vid=d58f1692-3ef4-4c32-8805-be6f99970d92","ios":"levelo://app?vid=d58f1692-3ef4-4c32-8805-be6f99970d92"},"vehicle_type_id":"4","last_reported":1679587759,"current_range_meters":4800,"station_id":"ce4bh392rcd13ifvqdl0","pricing_plan_id":"free"},{"bike_id":"0a2b42d3-72bc-45ff-b04e-7153beed3bb2","system_id":"levelo_inurba_marseille","lat":43.313291,"lon":5.396838,"is_reserved":false,"is_disabled":false,"rental_uris":{"android":"levelo://app?vid=0a2b42d3-72bc-45ff-b04e-7153beed3bb2","ios":"levelo://app?vid=0a2b42d3-72bc-45ff-b04e-7153beed3bb2"},"vehicle_type_id":"4","last_reported":1679587759,"current_range_meters":31600,"station_id":"ce4bgvp2rcd13ifvqcu0","pricing_plan_id":"free"},{"bike_id":"8e063fb3-c52d-45af-bfa3-49f3bda346e8","system_id":"levelo_inurba_marseille","lat":43.30882,"lon":5.39648,"is_reserved":false,"is_disabled":false,"rental_uris":{"android":"levelo://app?vid=8e063fb3-c52d-45af-bfa3-49f3bda346e8","ios":"levelo://app?vid=8e063fb3-c52d-45af-bfa3-49f3bda346e8"},"vehicle_type_id":"4","last_reported":1679587759,"current_range_meters":400,"station_id":"ce4bh012rcd13ifvqcv0","pricing_plan_id":"free"},{"bike_id":"6d4c2b5a-e5a8-435b-81b1-a58946a7e782","system_id":"levelo_inurba_marseille","lat":43.313291,"lon":5.396838,"is_reserved":false,"is_disabled":false,"rental_uris":{"android":"levelo://app?vid=6d4c2b5a-e5a8-435b-81b1-a58946a7e782","ios":"levelo://app?vid=6d4c2b5a-e5a8-435b-81b1-a58946a7e782"},"vehicle_type_id":"4","last_reported":1679587759,"current_range_meters":25600,"station_id":"ce4bgvp2rcd13ifvqcu0","pricing_plan_id":"free"},{"bike_id":"0f1bafe8-c3bd-4265-83e7-be2af5a1d8ca","system_id":"levelo_inurba_marseille","lat":43.309038,"lon":5.396546,"is_reserved":false,"is_disabled":false,"rental_uris":{"android":"levelo://app?vid=0f1bafe8-c3bd-4265-83e7-be2af5a1d8ca","ios":"levelo://app?vid=0f1bafe8-c3bd-4265-83e7-be2af5a1d8ca"},"vehicle_type_id":"4","last_reported":1679587759,"current_range_meters":14400,"station_id":"ce4bh012rcd13ifvqcv0","pricing_plan_id":"free"},{"bike_id":"c8b1381b-8a40-4a01-8e46-15250b05afe8","system_id":"levelo_inurba_marseille","lat":43.302025,"lon":5.393295,"is_reserved":false,"is_disabled":false,"rental_uris":{"android":"levelo://app?vid=c8b1381b-8a40-4a01-8e46-15250b05afe8","ios":"levelo://app?vid=c8b1381b-8a40-4a01-8e46-15250b05afe8"},"vehicle_type_id":"4","last_reported":1679587759,"current_range_meters":24800,"station_id":"ce4bh0p2rcd13ifvqd70","pricing_plan_id":"free"},{"bike_id":"c29daeaf-6cbc-4876-aa68-9bb32a1c841b","system_id":"levelo_inurba_marseille","lat":43.290514,"lon":5.359036,"is_reserved":false,"is_disabled":false,"rental_uris":{"android":"levelo://app?vid=c29daeaf-6cbc-4876-aa68-9bb32a1c841b","ios":"levelo://app?vid=c29daeaf-6cbc-4876-aa68-9bb32a1c841b"},"vehicle_type_id":"4","last_reported":1679587759,"current_range_meters":8400,"station_id":"ce4bha92rcd13ifvqeg0","pricing_plan_id":"free"},{"bike_id":"8eac5c9a-696d-41b5-966c-38a75ab316c5","system_id":"levelo_inurba_marseille","lat":43.2904,"lon":5.35922,"is_reserved":false,"is_disabled":false,"rental_uris":{"android":"levelo://app?vid=8eac5c9a-696d-41b5-966c-38a75ab316c5","ios":"levelo://app?vid=8eac5c9a-696d-41b5-966c-38a75ab316c5"},"vehicle_type_id":"4","last_reported":1679587759,"current_range_meters":0,"station_id":"ce4bha92rcd13ifvqeg0","pricing_plan_id":"free"},{"bike_id":"b2914192-4e75-4af3-92f2-ac1ab1de1b8b","system_id":"levelo_inurba_marseille","lat":43.290379,"lon":5.359205,"is_reserved":false,"is_disabled":false,"rental_uris":{"android":"levelo://app?vid=b2914192-4e75-4af3-92f2-ac1ab1de1b8b","ios":"levelo://app?vid=b2914192-4e75-4af3-92f2-ac1ab1de1b8b"},"vehicle_type_id":"4","last_reported":1679587759,"current_range_meters":0,"station_id":"ce4bha92rcd13ifvqeg0","pricing_plan_id":"free"},{"bike_id":"32e9115f-4d7e-4161-8ccb-2e55bd6b8614","system_id":"levelo_inurba_marseille","lat":43.294162,"lon":5.386292,"is_reserved":false,"is_disabled":false,"rental_uris":{"android":"levelo://app?vid=32e9115f-4d7e-4161-8ccb-2e55bd6b8614","ios":"levelo://app?vid=32e9115f-4d7e-4161-8ccb-2e55bd6b8614"},"vehicle_type_id":"4","last_reported":1679587759,"current_range_meters":2000,"station_id":"ce4bh2h2rcd13ifvqdh0","pricing_plan_id":"free"},{"bike_id":"c409b13f-9375-4e41-93ec-8f6812696c6a","system_id":"levelo_inurba_marseille","lat":43.294153,"lon":5.386305,"is_reserved":false,"is_disabled":false,"rental_uris":{"android":"levelo://app?vid=c409b13f-9375-4e41-93ec-8f6812696c6a","ios":"levelo://app?vid=c409b13f-9375-4e41-93ec-8f6812696c6a"},"vehicle_type_id":"4","last_reported":1679587759,"current_range_meters":8000,"station_id":"ce4bh2h2rcd13ifvqdh0","pricing_plan_id":"free"},{"bike_id":"760225b9-65a7-4935-b0ee-c0df35d2ffa9","system_id":"levelo_inurba_marseille","lat":43.2894,"lon":5.36641,"is_reserved":false,"is_disabled":false,"rental_uris":{"android":"levelo://app?vid=760225b9-65a7-4935-b0ee-c0df35d2ffa9","ios":"levelo://app?vid=760225b9-65a7-4935-b0ee-c0df35d2ffa9"},"vehicle_type_id":"4","last_reported":1679587759,"current_range_meters":20400,"station_id":"ce4bhap2rcd13ifvqek0","pricing_plan_id":"free"},{"bike_id":"52bb11a5-3095-42e5-9ee2-05d84e9ea5b6","system_id":"levelo_inurba_marseille","lat":43.28937,"lon":5.36646,"is_reserved":false,"is_disabled":false,"rental_uris":{"android":"levelo://app?vid=52bb11a5-3095-42e5-9ee2-05d84e9ea5b6","ios":"levelo://app?vid=52bb11a5-3095-42e5-9ee2-05d84e9ea5b6"},"vehicle_type_id":"4","last_reported":1679587759,"current_range_meters":27200,"station_id":"ce4bhap2rcd13ifvqek0","pricing_plan_id":"free"},{"bike_id":"98443cb5-e281-4c0a-9e4c-d9900b8038a6","system_id":"levelo_inurba_marseille","lat":43.29264,"lon":5.38439,"is_reserved":false,"is_disabled":false,"rental_uris":{"android":"levelo://app?vid=98443cb5-e281-4c0a-9e4c-d9900b8038a6","ios":"levelo://app?vid=98443cb5-e281-4c0a-9e4c-d9900b8038a6"},"vehicle_type_id":"4","last_reported":1679587759,"current_range_meters":23600,"station_id":"","pricing_plan_id":"free"},{"bike_id":"12fec15d-74e0-45b8-8e69-9b76ebe128f9","system_id":"levelo_inurba_marseille","lat":43.292655,"lon":5.384475,"is_reserved":false,"is_disabled":false,"rental_uris":{"android":"levelo://app?vid=12fec15d-74e0-45b8-8e69-9b76ebe128f9","ios":"levelo://app?vid=12fec15d-74e0-45b8-8e69-9b76ebe128f9"},"vehicle_type_id":"4","last_reported":1679587759,"current_range_meters":0,"station_id":"ce4bh692rcd13ifvqea0","pricing_plan_id":"free"},{"bike_id":"2f5bedb1-6c82-467f-8b8b-e96fa076caf8","system_id":"levelo_inurba_marseille","lat":43.241782,"lon":5.397264,"is_reserved":false,"is_disabled":false,"rental_uris":{"android":"levelo://app?vid=2f5bedb1-6c82-467f-8b8b-e96fa076caf8","ios":"levelo://app?vid=2f5bedb1-6c82-467f-8b8b-e96fa076caf8"},"vehicle_type_id":"4","last_reported":1679587759,"current_range_meters":12000,"station_id":"ce4bhn12rcd13ifvqgpg","pricing_plan_id":"free"},{"bike_id":"38df8067-dd5c-4fa4-b3d3-7c5eecc7c3c1","system_id":"levelo_inurba_marseille","lat":43.290104,"lon":5.356111,"is_reserved":false,"is_disabled":false,"rental_uris":{"android":"levelo://app?vid=38df8067-dd5c-4fa4-b3d3-7c5eecc7c3c1","ios":"levelo://app?vid=38df8067-dd5c-4fa4-b3d3-7c5eecc7c3c1"},"vehicle_type_id":"4","last_reported":1679587759,"current_range_meters":9600,"station_id":"ce4bhb92rcd13ifvqen0","pricing_plan_id":"free"},{"bike_id":"b34ef9a2-7dca-42d1-be9a-32fdba2ee3af","system_id":"levelo_inurba_marseille","lat":43.33044,"lon":5.38918,"is_reserved":false,"is_disabled":false,"rental_uris":{"android":"levelo://app?vid=b34ef9a2-7dca-42d1-be9a-32fdba2ee3af","ios":"levelo://app?vid=b34ef9a2-7dca-42d1-be9a-32fdba2ee3af"},"vehicle_type_id":"4","last_reported":1679587759,"current_range_meters":31200,"station_id":"ce4bhr92rcd13ifvqhrg","pricing_plan_id":"free"},{"bike_id":"dee50d24-7beb-4c83-b908-e72dcbb51309","system_id":"levelo_inurba_marseille","lat":43.290104,"lon":5.356111,"is_reserved":false,"is_disabled":false,"rental_uris":{"android":"levelo://app?vid=dee50d24-7beb-4c83-b908-e72dcbb51309","ios":"levelo://app?vid=dee50d24-7beb-4c83-b908-e72dcbb51309"},"vehicle_type_id":"4","last_reported":1679587759,"current_range_meters":1600,"station_id":"ce4bhb92rcd13ifvqen0","pricing_plan_id":"free"},{"bike_id":"1eb7dc63-49c8-4ea5-9e1e-c1d1ea89f3f6","system_id":"levelo_inurba_marseille","lat":43.290104,"lon":5.356111,"is_reserved":false,"is_disabled":false,"rental_uris":{"android":"levelo://app?vid=1eb7dc63-49c8-4ea5-9e1e-c1d1ea89f3f6","ios":"levelo://app?vid=1eb7dc63-49c8-4ea5-9e1e-c1d1ea89f3f6"},"vehicle_type_id":"4","last_reported":1679587759,"current_range_meters":19600,"station_id":"ce4bhb92rcd13ifvqen0","pricing_plan_id":"free"},{"bike_id":"86b04d09-88d6-4740-a1f0-662e119e99d6","system_id":"levelo_inurba_marseille","lat":43.290104,"lon":5.356111,"is_reserved":false,"is_disabled":false,"rental_uris":{"android":"levelo://app?vid=86b04d09-88d6-4740-a1f0-662e119e99d6","ios":"levelo://app?vid=86b04d09-88d6-4740-a1f0-662e119e99d6"},"vehicle_type_id":"4","last_reported":1679587759,"current_range_meters":8400,"station_id":"ce4bhb92rcd13ifvqen0","pricing_plan_id":"free"},{"bike_id":"041ffa76-17f6-4601-b541-957417937bd0","system_id":"levelo_inurba_marseille","lat":43.29106,"lon":5.38121,"is_reserved":false,"is_disabled":false,"rental_uris":{"android":"levelo://app?vid=041ffa76-17f6-4601-b541-957417937bd0","ios":"levelo://app?vid=041ffa76-17f6-4601-b541-957417937bd0"},"vehicle_type_id":"4","last_reported":1679587759,"current_range_meters":23200,"station_id":"","pricing_plan_id":"free"},{"bike_id":"de3935bb-8dca-4f1e-9182-317e20394883","system_id":"levelo_inurba_marseille","lat":43.241782,"lon":5.397264,"is_reserved":false,"is_disabled":false,"rental_uris":{"android":"levelo://app?vid=de3935bb-8dca-4f1e-9182-317e20394883","ios":"levelo://app?vid=de3935bb-8dca-4f1e-9182-317e20394883"},"vehicle_type_id":"4","last_reported":1679587759,"current_range_meters":3200,"station_id":"ce4bhn12rcd13ifvqgpg","pricing_plan_id":"free"},{"bike_id":"e8c90e69-e801-465f-9dea-cd84f5ae218c","system_id":"levelo_inurba_marseille","lat":43.28981,"lon":5.37834,"is_reserved":false,"is_disabled":false,"rental_uris":{"android":"levelo://app?vid=e8c90e69-e801-465f-9dea-cd84f5ae218c","ios":"levelo://app?vid=e8c90e69-e801-465f-9dea-cd84f5ae218c"},"vehicle_type_id":"4","last_reported":1679587759,"current_range_meters":4800,"station_id":"ce4bh9p2rcd13ifvqed0","pricing_plan_id":"free"},{"bike_id":"50127c28-5125-4899-b78b-3994eb297187","system_id":"levelo_inurba_marseille","lat":43.292183,"lon":5.385221,"is_reserved":false,"is_disabled":false,"rental_uris":{"android":"levelo://app?vid=50127c28-5125-4899-b78b-3994eb297187","ios":"levelo://app?vid=50127c28-5125-4899-b78b-3994eb297187"},"vehicle_type_id":"4","last_reported":1679587759,"current_range_meters":0,"station_id":"","pricing_plan_id":"free"},{"bike_id":"7bfa90ad-7336-4e8d-96e1-a341096d78aa","system_id":"levelo_inurba_marseille","lat":43.28856,"lon":5.358371,"is_reserved":false,"is_disabled":false,"rental_uris":{"android":"levelo://app?vid=7bfa90ad-7336-4e8d-96e1-a341096d78aa","ios":"levelo://app?vid=7bfa90ad-7336-4e8d-96e1-a341096d78aa"},"vehicle_type_id":"4","last_reported":1679587759,"current_range_meters":1200,"station_id":"ce4bhb12rcd13ifvqem0","pricing_plan_id":"free"},{"bike_id":"0746af78-22a7-46a9-a5c5-368651581702","system_id":"levelo_inurba_marseille","lat":43.288617,"lon":5.358521,"is_reserved":false,"is_disabled":false,"rental_uris":{"android":"levelo://app?vid=0746af78-22a7-46a9-a5c5-368651581702","ios":"levelo://app?vid=0746af78-22a7-46a9-a5c5-368651581702"},"vehicle_type_id":"4","last_reported":1679587759,"current_range_meters":14400,"station_id":"","pricing_plan_id":"free"},{"bike_id":"9f1ad934-d44c-4d65-9dbe-8465db9deb50","system_id":"levelo_inurba_marseille","lat":43.28856,"lon":5.358371,"is_reserved":false,"is_disabled":false,"rental_uris":{"android":"levelo://app?vid=9f1ad934-d44c-4d65-9dbe-8465db9deb50","ios":"levelo://app?vid=9f1ad934-d44c-4d65-9dbe-8465db9deb50"},"vehicle_type_id":"4","last_reported":1679587759,"current_range_meters":4000,"station_id":"ce4bhb12rcd13ifvqem0","pricing_plan_id":"free"},{"bike_id":"071d21a7-e332-4d70-b191-94c099548566","system_id":"levelo_inurba_marseille","lat":43.30659,"lon":5.40087,"is_reserved":false,"is_disabled":false,"rental_uris":{"android":"levelo://app?vid=071d21a7-e332-4d70-b191-94c099548566","ios":"levelo://app?vid=071d21a7-e332-4d70-b191-94c099548566"},"vehicle_type_id":"4","last_reported":1679587759,"current_range_meters":22000,"station_id":"ce4bh112rcd13ifvqda0","pricing_plan_id":"free"},{"bike_id":"d84b35b8-0064-451d-aa84-6888706ce09e","system_id":"levelo_inurba_marseille","lat":43.30647,"lon":5.40093,"is_reserved":false,"is_disabled":false,"rental_uris":{"android":"levelo://app?vid=d84b35b8-0064-451d-aa84-6888706ce09e","ios":"levelo://app?vid=d84b35b8-0064-451d-aa84-6888706ce09e"},"vehicle_type_id":"4","last_reported":1679587759,"current_range_meters":3600,"station_id":"","pricing_plan_id":"free"},{"bike_id":"32c32efb-3639-432a-9e77-6e46f9e84a2f","system_id":"levelo_inurba_marseille","lat":43.30647,"lon":5.40101,"is_reserved":false,"is_disabled":false,"rental_uris":{"android":"levelo://app?vid=32c32efb-3639-432a-9e77-6e46f9e84a2f","ios":"levelo://app?vid=32c32efb-3639-432a-9e77-6e46f9e84a2f"},"vehicle_type_id":"4","last_reported":1679587759,"current_range_meters":0,"station_id":"","pricing_plan_id":"free"},{"bike_id":"e25c659b-e40a-4bc9-b2ad-02025b0598e1","system_id":"levelo_inurba_marseille","lat":43.3064,"lon":5.40099,"is_reserved":false,"is_disabled":false,"rental_uris":{"android":"levelo://app?vid=e25c659b-e40a-4bc9-b2ad-02025b0598e1","ios":"levelo://app?vid=e25c659b-e40a-4bc9-b2ad-02025b0598e1"},"vehicle_type_id":"4","last_reported":1679587759,"current_range_meters":24800,"station_id":"ce4bh112rcd13ifvqda0","pricing_plan_id":"free"},{"bike_id":"e6018b6b-ca4b-4fd0-9ff7-32dc9da2c2c5","system_id":"levelo_inurba_marseille","lat":43.30645,"lon":5.40102,"is_reserved":false,"is_disabled":false,"rental_uris":{"android":"levelo://app?vid=e6018b6b-ca4b-4fd0-9ff7-32dc9da2c2c5","ios":"levelo://app?vid=e6018b6b-ca4b-4fd0-9ff7-32dc9da2c2c5"},"vehicle_type_id":"4","last_reported":1679587759,"current_range_meters":21200,"station_id":"ce4bh112rcd13ifvqda0","pricing_plan_id":"free"},{"bike_id":"801bcf18-b7df-4df3-a716-dafa7d8479f0","system_id":"levelo_inurba_marseille","lat":43.30642,"lon":5.401031,"is_reserved":false,"is_disabled":false,"rental_uris":{"android":"levelo://app?vid=801bcf18-b7df-4df3-a716-dafa7d8479f0","ios":"levelo://app?vid=801bcf18-b7df-4df3-a716-dafa7d8479f0"},"vehicle_type_id":"4","last_reported":1679587759,"current_range_meters":1200,"station_id":"ce4bh112rcd13ifvqda0","pricing_plan_id":"free"},{"bike_id":"3e129bfd-25aa-44fc-8455-7355734c556e","system_id":"levelo_inurba_marseille","lat":43.28666,"lon":5.36346,"is_reserved":false,"is_disabled":false,"rental_uris":{"android":"levelo://app?vid=3e129bfd-25aa-44fc-8455-7355734c556e","ios":"levelo://app?vid=3e129bfd-25aa-44fc-8455-7355734c556e"},"vehicle_type_id":"4","last_reported":1679587759,"current_range_meters":14400,"station_id":"","pricing_plan_id":"free"},{"bike_id":"631bb6c0-5fce-45ed-ba8f-f6e6d9801d14","system_id":"levelo_inurba_marseille","lat":43.302759,"lon":5.400793,"is_reserved":false,"is_disabled":false,"rental_uris":{"android":"levelo://app?vid=631bb6c0-5fce-45ed-ba8f-f6e6d9801d14","ios":"levelo://app?vid=631bb6c0-5fce-45ed-ba8f-f6e6d9801d14"},"vehicle_type_id":"4","last_reported":1679587759,"current_range_meters":0,"station_id":"ce4bgvh2rcd13ifvqcs0","pricing_plan_id":"free"},{"bike_id":"15275577-3087-43a9-96ec-3433de3d685d","system_id":"levelo_inurba_marseille","lat":43.28614,"lon":5.37065,"is_reserved":false,"is_disabled":false,"rental_uris":{"android":"levelo://app?vid=15275577-3087-43a9-96ec-3433de3d685d","ios":"levelo://app?vid=15275577-3087-43a9-96ec-3433de3d685d"},"vehicle_type_id":"4","last_reported":1679587759,"current_range_meters":20800,"station_id":"ce4bht12rcd13ifvqi60","pricing_plan_id":"free"},{"bike_id":"183b3449-4166-466d-a454-73c1d2041298","system_id":"levelo_inurba_marseille","lat":43.286039,"lon":5.370679,"is_reserved":false,"is_disabled":false,"rental_uris":{"android":"levelo://app?vid=183b3449-4166-466d-a454-73c1d2041298","ios":"levelo://app?vid=183b3449-4166-466d-a454-73c1d2041298"},"vehicle_type_id":"4","last_reported":1679587759,"current_range_meters":9200,"station_id":"ce4bht12rcd13ifvqi60","pricing_plan_id":"free"},{"bike_id":"3d43d224-affc-44f4-9361-772a185aad3f","system_id":"levelo_inurba_marseille","lat":43.316465,"lon":5.404328,"is_reserved":false,"is_disabled":false,"rental_uris":{"android":"levelo://app?vid=3d43d224-affc-44f4-9361-772a185aad3f","ios":"levelo://app?vid=3d43d224-affc-44f4-9361-772a185aad3f"},"vehicle_type_id":"4","last_reported":1679587759,"current_range_meters":0,"station_id":"ce4bh012rcd13ifvqd00","pricing_plan_id":"free"},{"bike_id":"8ea42180-e514-4289-8046-9c8580b024b0","system_id":"levelo_inurba_marseille","lat":43.28707,"lon":5.35204,"is_reserved":false,"is_disabled":false,"rental_uris":{"android":"levelo://app?vid=8ea42180-e514-4289-8046-9c8580b024b0","ios":"levelo://app?vid=8ea42180-e514-4289-8046-9c8580b024b0"},"vehicle_type_id":"4","last_reported":1679587759,"current_range_meters":3200,"station_id":"","pricing_plan_id":"free"},{"bike_id":"9f7d6cf3-92b0-4874-be32-2aaa73e7eab6","system_id":"levelo_inurba_marseille","lat":43.284534,"lon":5.358662,"is_reserved":false,"is_disabled":false,"rental_uris":{"android":"levelo://app?vid=9f7d6cf3-92b0-4874-be32-2aaa73e7eab6","ios":"levelo://app?vid=9f7d6cf3-92b0-4874-be32-2aaa73e7eab6"},"vehicle_type_id":"4","last_reported":1679587759,"current_range_meters":400,"station_id":"ce4bhah2rcd13ifvqei0","pricing_plan_id":"free"},{"bike_id":"30921755-8541-4b98-9c1d-bfdebae50dcf","system_id":"levelo_inurba_marseille","lat":43.284534,"lon":5.358662,"is_reserved":false,"is_disabled":false,"rental_uris":{"android":"levelo://app?vid=30921755-8541-4b98-9c1d-bfdebae50dcf","ios":"levelo://app?vid=30921755-8541-4b98-9c1d-bfdebae50dcf"},"vehicle_type_id":"4","last_reported":1679587759,"current_range_meters":0,"station_id":"ce4bhah2rcd13ifvqei0","pricing_plan_id":"free"},{"bike_id":"73ff95ae-8619-4e48-905b-2b11abba8ae1","system_id":"levelo_inurba_marseille","lat":43.284534,"lon":5.358662,"is_reserved":false,"is_disabled":false,"rental_uris":{"android":"levelo://app?vid=73ff95ae-8619-4e48-905b-2b11abba8ae1","ios":"levelo://app?vid=73ff95ae-8619-4e48-905b-2b11abba8ae1"},"vehicle_type_id":"4","last_reported":1679587759,"current_range_meters":28000,"station_id":"ce4bhah2rcd13ifvqei0","pricing_plan_id":"free"},{"bike_id":"43393c15-f21a-4249-a174-7703eeb74852","system_id":"levelo_inurba_marseille","lat":43.284651,"lon":5.374833,"is_reserved":false,"is_disabled":false,"rental_uris":{"android":"levelo://app?vid=43393c15-f21a-4249-a174-7703eeb74852","ios":"levelo://app?vid=43393c15-f21a-4249-a174-7703eeb74852"},"vehicle_type_id":"4","last_reported":1679587759,"current_range_meters":23200,"station_id":"ce4bh5p2rcd13ifvqe4g","pricing_plan_id":"free"},{"bike_id":"8ab6058c-ad51-409a-88fc-a204c738c7f3","system_id":"levelo_inurba_marseille","lat":43.316115,"lon":5.406468,"is_reserved":false,"is_disabled":false,"rental_uris":{"android":"levelo://app?vid=8ab6058c-ad51-409a-88fc-a204c738c7f3","ios":"levelo://app?vid=8ab6058c-ad51-409a-88fc-a204c738c7f3"},"vehicle_type_id":"4","last_reported":1679587759,"current_range_meters":1600,"station_id":"","pricing_plan_id":"free"},{"bike_id":"9ff20b9f-4d82-459c-80fa-f30a3d3fbaa3","system_id":"levelo_inurba_marseille","lat":43.295728,"lon":5.399735,"is_reserved":false,"is_disabled":false,"rental_uris":{"android":"levelo://app?vid=9ff20b9f-4d82-459c-80fa-f30a3d3fbaa3","ios":"levelo://app?vid=9ff20b9f-4d82-459c-80fa-f30a3d3fbaa3"},"vehicle_type_id":"4","last_reported":1679587759,"current_range_meters":7200,"station_id":"ce4bh312rcd13ifvqdj0","pricing_plan_id":"free"},{"bike_id":"a1e993d8-b78f-4c3a-beb4-301c8ff6a632","system_id":"levelo_inurba_marseille","lat":43.295681,"lon":5.399758,"is_reserved":false,"is_disabled":false,"rental_uris":{"android":"levelo://app?vid=a1e993d8-b78f-4c3a-beb4-301c8ff6a632","ios":"levelo://app?vid=a1e993d8-b78f-4c3a-beb4-301c8ff6a632"},"vehicle_type_id":"4","last_reported":1679587759,"current_range_meters":7200,"station_id":"ce4bh312rcd13ifvqdj0","pricing_plan_id":"free"},{"bike_id":"7ec2f40f-cfd0-41ec-8f3b-26c08875827e","system_id":"levelo_inurba_marseille","lat":43.286595,"lon":5.386795,"is_reserved":false,"is_disabled":false,"rental_uris":{"android":"levelo://app?vid=7ec2f40f-cfd0-41ec-8f3b-26c08875827e","ios":"levelo://app?vid=7ec2f40f-cfd0-41ec-8f3b-26c08875827e"},"vehicle_type_id":"4","last_reported":1679587759,"current_range_meters":0,"station_id":"ce4bh492rcd13ifvqdug","pricing_plan_id":"free"},{"bike_id":"f715669b-97e0-4ef8-83a7-3586b731acce","system_id":"levelo_inurba_marseille","lat":43.337293,"lon":5.391781,"is_reserved":false,"is_disabled":false,"rental_uris":{"android":"levelo://app?vid=f715669b-97e0-4ef8-83a7-3586b731acce","ios":"levelo://app?vid=f715669b-97e0-4ef8-83a7-3586b731acce"},"vehicle_type_id":"4","last_reported":1679587759,"current_range_meters":800,"station_id":"ce4bhr92rcd13ifvqhsg","pricing_plan_id":"free"},{"bike_id":"a003742c-0be1-43f8-aedb-e307ee1f35d0","system_id":"levelo_inurba_marseille","lat":43.284787,"lon":5.384116,"is_reserved":false,"is_disabled":false,"rental_uris":{"android":"levelo://app?vid=a003742c-0be1-43f8-aedb-e307ee1f35d0","ios":"levelo://app?vid=a003742c-0be1-43f8-aedb-e307ee1f35d0"},"vehicle_type_id":"4","last_reported":1679587759,"current_range_meters":0,"station_id":"ce4bh512rcd13ifvqe3g","pricing_plan_id":"free"},{"bike_id":"e2c5db74-a3e7-476d-9064-5da564c35f81","system_id":"levelo_inurba_marseille","lat":43.284756,"lon":5.384195,"is_reserved":false,"is_disabled":false,"rental_uris":{"android":"levelo://app?vid=e2c5db74-a3e7-476d-9064-5da564c35f81","ios":"levelo://app?vid=e2c5db74-a3e7-476d-9064-5da564c35f81"},"vehicle_type_id":"4","last_reported":1679587759,"current_range_meters":12800,"station_id":"ce4bh512rcd13ifvqe3g","pricing_plan_id":"free"},{"bike_id":"f3b0da8d-2783-4304-aee3-d0dc5e9bb36c","system_id":"levelo_inurba_marseille","lat":43.284793,"lon":5.384119,"is_reserved":false,"is_disabled":false,"rental_uris":{"android":"levelo://app?vid=f3b0da8d-2783-4304-aee3-d0dc5e9bb36c","ios":"levelo://app?vid=f3b0da8d-2783-4304-aee3-d0dc5e9bb36c"},"vehicle_type_id":"4","last_reported":1679587759,"current_range_meters":0,"station_id":"ce4bh512rcd13ifvqe3g","pricing_plan_id":"free"},{"bike_id":"8cb7afc5-6319-4b8c-b557-1897fa287ab9","system_id":"levelo_inurba_marseille","lat":43.28359,"lon":5.38109,"is_reserved":false,"is_disabled":false,"rental_uris":{"android":"levelo://app?vid=8cb7afc5-6319-4b8c-b557-1897fa287ab9","ios":"levelo://app?vid=8cb7afc5-6319-4b8c-b557-1897fa287ab9"},"vehicle_type_id":"4","last_reported":1679587759,"current_range_meters":19200,"station_id":"","pricing_plan_id":"free"},{"bike_id":"957c32d4-363a-4275-a2e7-0387ecf4f4ff","system_id":"levelo_inurba_marseille","lat":43.28844,"lon":5.39326,"is_reserved":false,"is_disabled":false,"rental_uris":{"android":"levelo://app?vid=957c32d4-363a-4275-a2e7-0387ecf4f4ff","ios":"levelo://app?vid=957c32d4-363a-4275-a2e7-0387ecf4f4ff"},"vehicle_type_id":"4","last_reported":1679587759,"current_range_meters":0,"station_id":"ce4bh2p2rcd13ifvqdi0","pricing_plan_id":"free"},{"bike_id":"ce0ebd20-6636-4e1e-8fa7-34f044684cc1","system_id":"levelo_inurba_marseille","lat":43.284219,"lon":5.3497,"is_reserved":false,"is_disabled":false,"rental_uris":{"android":"levelo://app?vid=ce0ebd20-6636-4e1e-8fa7-34f044684cc1","ios":"levelo://app?vid=ce0ebd20-6636-4e1e-8fa7-34f044684cc1"},"vehicle_type_id":"4","last_reported":1679587759,"current_range_meters":6400,"station_id":"ce4bhbh2rcd13ifvqepg","pricing_plan_id":"free"},{"bike_id":"9672d917-ee6c-44c8-bb8c-560d1e44eef6","system_id":"levelo_inurba_marseille","lat":43.284265,"lon":5.34985,"is_reserved":false,"is_disabled":false,"rental_uris":{"android":"levelo://app?vid=9672d917-ee6c-44c8-bb8c-560d1e44eef6","ios":"levelo://app?vid=9672d917-ee6c-44c8-bb8c-560d1e44eef6"},"vehicle_type_id":"4","last_reported":1679587759,"current_range_meters":31600,"station_id":"ce4bhbh2rcd13ifvqepg","pricing_plan_id":"free"},{"bike_id":"43e2d91b-5193-4a9e-ae07-1a10863541a2","system_id":"levelo_inurba_marseille","lat":43.284219,"lon":5.3497,"is_reserved":false,"is_disabled":false,"rental_uris":{"android":"levelo://app?vid=43e2d91b-5193-4a9e-ae07-1a10863541a2","ios":"levelo://app?vid=43e2d91b-5193-4a9e-ae07-1a10863541a2"},"vehicle_type_id":"4","last_reported":1679587759,"current_range_meters":0,"station_id":"ce4bhbh2rcd13ifvqepg","pricing_plan_id":"free"},{"bike_id":"29cc9907-4967-499e-9669-8abf2bbff5ec","system_id":"levelo_inurba_marseille","lat":43.284219,"lon":5.3497,"is_reserved":false,"is_disabled":false,"rental_uris":{"android":"levelo://app?vid=29cc9907-4967-499e-9669-8abf2bbff5ec","ios":"levelo://app?vid=29cc9907-4967-499e-9669-8abf2bbff5ec"},"vehicle_type_id":"4","last_reported":1679587759,"current_range_meters":2400,"station_id":"ce4bhbh2rcd13ifvqepg","pricing_plan_id":"free"},{"bike_id":"ad73f426-f07a-444c-b8b5-2b67fe9f90d5","system_id":"levelo_inurba_marseille","lat":43.284217,"lon":5.349697,"is_reserved":false,"is_disabled":false,"rental_uris":{"android":"levelo://app?vid=ad73f426-f07a-444c-b8b5-2b67fe9f90d5","ios":"levelo://app?vid=ad73f426-f07a-444c-b8b5-2b67fe9f90d5"},"vehicle_type_id":"4","last_reported":1679587759,"current_range_meters":28400,"station_id":"ce4bhbh2rcd13ifvqepg","pricing_plan_id":"free"},{"bike_id":"dda2fd26-b2ac-41a7-86fe-a82483456907","system_id":"levelo_inurba_marseille","lat":43.284217,"lon":5.349697,"is_reserved":false,"is_disabled":false,"rental_uris":{"android":"levelo://app?vid=dda2fd26-b2ac-41a7-86fe-a82483456907","ios":"levelo://app?vid=dda2fd26-b2ac-41a7-86fe-a82483456907"},"vehicle_type_id":"4","last_reported":1679587759,"current_range_meters":0,"station_id":"ce4bhbh2rcd13ifvqepg","pricing_plan_id":"free"},{"bike_id":"7e52d115-ee87-400d-9dcd-c711d5611e04","system_id":"levelo_inurba_marseille","lat":43.284217,"lon":5.349697,"is_reserved":false,"is_disabled":false,"rental_uris":{"android":"levelo://app?vid=7e52d115-ee87-400d-9dcd-c711d5611e04","ios":"levelo://app?vid=7e52d115-ee87-400d-9dcd-c711d5611e04"},"vehicle_type_id":"4","last_reported":1679587759,"current_range_meters":10800,"station_id":"ce4bhbh2rcd13ifvqepg","pricing_plan_id":"free"},{"bike_id":"58512ed9-20df-429f-9b90-52c14a1d2f04","system_id":"levelo_inurba_marseille","lat":43.284217,"lon":5.349697,"is_reserved":false,"is_disabled":false,"rental_uris":{"android":"levelo://app?vid=58512ed9-20df-429f-9b90-52c14a1d2f04","ios":"levelo://app?vid=58512ed9-20df-429f-9b90-52c14a1d2f04"},"vehicle_type_id":"4","last_reported":1679587759,"current_range_meters":7600,"station_id":"ce4bhbh2rcd13ifvqepg","pricing_plan_id":"free"},{"bike_id":"40feae72-8c63-40a3-ad2d-fedcec610442","system_id":"levelo_inurba_marseille","lat":43.284217,"lon":5.349697,"is_reserved":false,"is_disabled":false,"rental_uris":{"android":"levelo://app?vid=40feae72-8c63-40a3-ad2d-fedcec610442","ios":"levelo://app?vid=40feae72-8c63-40a3-ad2d-fedcec610442"},"vehicle_type_id":"4","last_reported":1679587759,"current_range_meters":6800,"station_id":"ce4bhbh2rcd13ifvqepg","pricing_plan_id":"free"},{"bike_id":"47b74780-e299-46a8-b367-1a4035654d14","system_id":"levelo_inurba_marseille","lat":43.292724,"lon":5.401131,"is_reserved":false,"is_disabled":false,"rental_uris":{"android":"levelo://app?vid=47b74780-e299-46a8-b367-1a4035654d14","ios":"levelo://app?vid=47b74780-e299-46a8-b367-1a4035654d14"},"vehicle_type_id":"4","last_reported":1679587759,"current_range_meters":30400,"station_id":"ce4bh312rcd13ifvqdk0","pricing_plan_id":"free"},{"bike_id":"20d73d7c-b2e9-42ae-8193-f372e50c66fa","system_id":"levelo_inurba_marseille","lat":43.24183,"lon":5.39733,"is_reserved":false,"is_disabled":false,"rental_uris":{"android":"levelo://app?vid=20d73d7c-b2e9-42ae-8193-f372e50c66fa","ios":"levelo://app?vid=20d73d7c-b2e9-42ae-8193-f372e50c66fa"},"vehicle_type_id":"4","last_reported":1679587759,"current_range_meters":13200,"station_id":"","pricing_plan_id":"free"},{"bike_id":"c6085c87-a1f2-43ca-aaaf-185df3c79c5e","system_id":"levelo_inurba_marseille","lat":43.282763,"lon":5.350693,"is_reserved":false,"is_disabled":false,"rental_uris":{"android":"levelo://app?vid=c6085c87-a1f2-43ca-aaaf-185df3c79c5e","ios":"levelo://app?vid=c6085c87-a1f2-43ca-aaaf-185df3c79c5e"},"vehicle_type_id":"4","last_reported":1679587759,"current_range_meters":6800,"station_id":"ce4bhbp2rcd13ifvqerg","pricing_plan_id":"free"},{"bike_id":"cc860b34-6e08-4765-8651-55903e982cbe","system_id":"levelo_inurba_marseille","lat":43.28276,"lon":5.350617,"is_reserved":false,"is_disabled":false,"rental_uris":{"android":"levelo://app?vid=cc860b34-6e08-4765-8651-55903e982cbe","ios":"levelo://app?vid=cc860b34-6e08-4765-8651-55903e982cbe"},"vehicle_type_id":"4","last_reported":1679587759,"current_range_meters":28400,"station_id":"ce4bhbp2rcd13ifvqerg","pricing_plan_id":"free"},{"bike_id":"15b5c715-9269-4fe6-a3e8-4239896bd36c","system_id":"levelo_inurba_marseille","lat":43.282744,"lon":5.350533,"is_reserved":false,"is_disabled":false,"rental_uris":{"android":"levelo://app?vid=15b5c715-9269-4fe6-a3e8-4239896bd36c","ios":"levelo://app?vid=15b5c715-9269-4fe6-a3e8-4239896bd36c"},"vehicle_type_id":"4","last_reported":1679587759,"current_range_meters":20800,"station_id":"ce4bhbp2rcd13ifvqerg","pricing_plan_id":"free"},{"bike_id":"0346571e-40e9-4273-8ab0-32aef2e72c82","system_id":"levelo_inurba_marseille","lat":43.28265,"lon":5.3506,"is_reserved":false,"is_disabled":false,"rental_uris":{"android":"levelo://app?vid=0346571e-40e9-4273-8ab0-32aef2e72c82","ios":"levelo://app?vid=0346571e-40e9-4273-8ab0-32aef2e72c82"},"vehicle_type_id":"4","last_reported":1679587759,"current_range_meters":26000,"station_id":"ce4bhbp2rcd13ifvqerg","pricing_plan_id":"free"},{"bike_id":"6d2b03ab-0907-421a-ba13-95c9b7b133f9","system_id":"levelo_inurba_marseille","lat":43.280387,"lon":5.36942,"is_reserved":false,"is_disabled":false,"rental_uris":{"android":"levelo://app?vid=6d2b03ab-0907-421a-ba13-95c9b7b133f9","ios":"levelo://app?vid=6d2b03ab-0907-421a-ba13-95c9b7b133f9"},"vehicle_type_id":"4","last_reported":1679587759,"current_range_meters":14400,"station_id":"","pricing_plan_id":"free"},{"bike_id":"2bfde54d-0f92-48b0-87a5-c0525dba2289","system_id":"levelo_inurba_marseille","lat":43.28039,"lon":5.369297,"is_reserved":false,"is_disabled":false,"rental_uris":{"android":"levelo://app?vid=2bfde54d-0f92-48b0-87a5-c0525dba2289","ios":"levelo://app?vid=2bfde54d-0f92-48b0-87a5-c0525dba2289"},"vehicle_type_id":"4","last_reported":1679587759,"current_range_meters":32000,"station_id":"ce4bha12rcd13ifvqef0","pricing_plan_id":"free"},{"bike_id":"9ebd89f5-7252-4e12-b549-7f2cc3869d88","system_id":"levelo_inurba_marseille","lat":43.280382,"lon":5.369291,"is_reserved":false,"is_disabled":false,"rental_uris":{"android":"levelo://app?vid=9ebd89f5-7252-4e12-b549-7f2cc3869d88","ios":"levelo://app?vid=9ebd89f5-7252-4e12-b549-7f2cc3869d88"},"vehicle_type_id":"4","last_reported":1679587759,"current_range_meters":30400,"station_id":"ce4bha12rcd13ifvqef0","pricing_plan_id":"free"},{"bike_id":"db10daec-3458-470c-bbcc-928e438ff1be","system_id":"levelo_inurba_marseille","lat":43.29636,"lon":5.40595,"is_reserved":false,"is_disabled":false,"rental_uris":{"android":"levelo://app?vid=db10daec-3458-470c-bbcc-928e438ff1be","ios":"levelo://app?vid=db10daec-3458-470c-bbcc-928e438ff1be"},"vehicle_type_id":"4","last_reported":1679587759,"current_range_meters":18800,"station_id":"ce4bh0h2rcd13ifvqd60","pricing_plan_id":"free"},{"bike_id":"47909e36-babc-433c-b488-a7a1744b771c","system_id":"levelo_inurba_marseille","lat":43.296346,"lon":5.405961,"is_reserved":false,"is_disabled":false,"rental_uris":{"android":"levelo://app?vid=47909e36-babc-433c-b488-a7a1744b771c","ios":"levelo://app?vid=47909e36-babc-433c-b488-a7a1744b771c"},"vehicle_type_id":"4","last_reported":1679587759,"current_range_meters":18000,"station_id":"","pricing_plan_id":"free"},{"bike_id":"d7e7e405-171d-4dea-a1eb-94b31d5d48d8","system_id":"levelo_inurba_marseille","lat":43.284385,"lon":5.392115,"is_reserved":false,"is_disabled":false,"rental_uris":{"android":"levelo://app?vid=d7e7e405-171d-4dea-a1eb-94b31d5d48d8","ios":"levelo://app?vid=d7e7e405-171d-4dea-a1eb-94b31d5d48d8"},"vehicle_type_id":"4","last_reported":1679587759,"current_range_meters":2000,"station_id":"","pricing_plan_id":"free"},{"bike_id":"dabc8e42-7da1-46e7-8f6e-2504ae2a9828","system_id":"levelo_inurba_marseille","lat":43.299579,"lon":5.413255,"is_reserved":false,"is_disabled":false,"rental_uris":{"android":"levelo://app?vid=dabc8e42-7da1-46e7-8f6e-2504ae2a9828","ios":"levelo://app?vid=dabc8e42-7da1-46e7-8f6e-2504ae2a9828"},"vehicle_type_id":"4","last_reported":1679587759,"current_range_meters":30400,"station_id":"ce4bhp12rcd13ifvqh9g","pricing_plan_id":"free"},{"bike_id":"c46cffcf-246f-4d13-b1ec-f37d99f44908","system_id":"levelo_inurba_marseille","lat":43.32048,"lon":5.4157,"is_reserved":false,"is_disabled":false,"rental_uris":{"android":"levelo://app?vid=c46cffcf-246f-4d13-b1ec-f37d99f44908","ios":"levelo://app?vid=c46cffcf-246f-4d13-b1ec-f37d99f44908"},"vehicle_type_id":"4","last_reported":1679587759,"current_range_meters":0,"station_id":"","pricing_plan_id":"free"},{"bike_id":"36d111df-07e4-4d4d-92be-ee5c0577d108","system_id":"levelo_inurba_marseille","lat":43.2926,"lon":5.40901,"is_reserved":false,"is_disabled":false,"rental_uris":{"android":"levelo://app?vid=36d111df-07e4-4d4d-92be-ee5c0577d108","ios":"levelo://app?vid=36d111df-07e4-4d4d-92be-ee5c0577d108"},"vehicle_type_id":"4","last_reported":1679587759,"current_range_meters":0,"station_id":"","pricing_plan_id":"free"},{"bike_id":"be51292e-e255-4159-bc96-497e4275176d","system_id":"levelo_inurba_marseille","lat":43.292571,"lon":5.409107,"is_reserved":false,"is_disabled":false,"rental_uris":{"android":"levelo://app?vid=be51292e-e255-4159-bc96-497e4275176d","ios":"levelo://app?vid=be51292e-e255-4159-bc96-497e4275176d"},"vehicle_type_id":"4","last_reported":1679587759,"current_range_meters":800,"station_id":"ce4bh192rcd13ifvqdc0","pricing_plan_id":"free"},{"bike_id":"fdee3e79-de22-47d2-9598-c69f972571d1","system_id":"levelo_inurba_marseille","lat":43.29259,"lon":5.40913,"is_reserved":false,"is_disabled":false,"rental_uris":{"android":"levelo://app?vid=fdee3e79-de22-47d2-9598-c69f972571d1","ios":"levelo://app?vid=fdee3e79-de22-47d2-9598-c69f972571d1"},"vehicle_type_id":"4","last_reported":1679587759,"current_range_meters":9600,"station_id":"ce4bh192rcd13ifvqdc0","pricing_plan_id":"free"},{"bike_id":"902110b3-6dc0-4751-a3b6-d1000023c07a","system_id":"levelo_inurba_marseille","lat":43.27623,"lon":5.36115,"is_reserved":false,"is_disabled":false,"rental_uris":{"android":"levelo://app?vid=902110b3-6dc0-4751-a3b6-d1000023c07a","ios":"levelo://app?vid=902110b3-6dc0-4751-a3b6-d1000023c07a"},"vehicle_type_id":"4","last_reported":1679587759,"current_range_meters":19200,"station_id":"","pricing_plan_id":"free"},{"bike_id":"c4bf4d1c-8107-4236-84d1-cc3afcb8f5db","system_id":"levelo_inurba_marseille","lat":43.27618,"lon":5.361009,"is_reserved":false,"is_disabled":false,"rental_uris":{"android":"levelo://app?vid=c4bf4d1c-8107-4236-84d1-cc3afcb8f5db","ios":"levelo://app?vid=c4bf4d1c-8107-4236-84d1-cc3afcb8f5db"},"vehicle_type_id":"4","last_reported":1679587759,"current_range_meters":7200,"station_id":"ce4bgj92rcd13ifvqbe0","pricing_plan_id":"free"},{"bike_id":"8f5b428d-0b80-4fb7-99aa-0536ade3d755","system_id":"levelo_inurba_marseille","lat":43.27618,"lon":5.361009,"is_reserved":false,"is_disabled":false,"rental_uris":{"android":"levelo://app?vid=8f5b428d-0b80-4fb7-99aa-0536ade3d755","ios":"levelo://app?vid=8f5b428d-0b80-4fb7-99aa-0536ade3d755"},"vehicle_type_id":"4","last_reported":1679587759,"current_range_meters":31600,"station_id":"ce4bgj92rcd13ifvqbe0","pricing_plan_id":"free"},{"bike_id":"1ecf22c9-3184-4ccb-8a60-21a6bc3f4de2","system_id":"levelo_inurba_marseille","lat":43.27618,"lon":5.361009,"is_reserved":false,"is_disabled":false,"rental_uris":{"android":"levelo://app?vid=1ecf22c9-3184-4ccb-8a60-21a6bc3f4de2","ios":"levelo://app?vid=1ecf22c9-3184-4ccb-8a60-21a6bc3f4de2"},"vehicle_type_id":"4","last_reported":1679587759,"current_range_meters":6400,"station_id":"ce4bgj92rcd13ifvqbe0","pricing_plan_id":"free"},{"bike_id":"879db0f5-205e-4e10-947f-8cc2475d4fb8","system_id":"levelo_inurba_marseille","lat":43.273613,"lon":5.362705,"is_reserved":false,"is_disabled":false,"rental_uris":{"android":"levelo://app?vid=879db0f5-205e-4e10-947f-8cc2475d4fb8","ios":"levelo://app?vid=879db0f5-205e-4e10-947f-8cc2475d4fb8"},"vehicle_type_id":"4","last_reported":1679587759,"current_range_meters":31600,"station_id":"ce4bhbh2rcd13ifvqeo0","pricing_plan_id":"free"},{"bike_id":"ecb1fe5e-f43f-45b0-b776-35deeeffab1a","system_id":"levelo_inurba_marseille","lat":43.273613,"lon":5.362705,"is_reserved":false,"is_disabled":false,"rental_uris":{"android":"levelo://app?vid=ecb1fe5e-f43f-45b0-b776-35deeeffab1a","ios":"levelo://app?vid=ecb1fe5e-f43f-45b0-b776-35deeeffab1a"},"vehicle_type_id":"4","last_reported":1679587759,"current_range_meters":24000,"station_id":"ce4bhbh2rcd13ifvqeo0","pricing_plan_id":"free"},{"bike_id":"0d871427-3a17-462c-849b-d147250db497","system_id":"levelo_inurba_marseille","lat":43.273613,"lon":5.362705,"is_reserved":false,"is_disabled":false,"rental_uris":{"android":"levelo://app?vid=0d871427-3a17-462c-849b-d147250db497","ios":"levelo://app?vid=0d871427-3a17-462c-849b-d147250db497"},"vehicle_type_id":"4","last_reported":1679587759,"current_range_meters":18400,"station_id":"ce4bhbh2rcd13ifvqeo0","pricing_plan_id":"free"},{"bike_id":"3c177f96-c00f-4501-ac50-3a60b5268075","system_id":"levelo_inurba_marseille","lat":43.273613,"lon":5.362705,"is_reserved":false,"is_disabled":false,"rental_uris":{"android":"levelo://app?vid=3c177f96-c00f-4501-ac50-3a60b5268075","ios":"levelo://app?vid=3c177f96-c00f-4501-ac50-3a60b5268075"},"vehicle_type_id":"4","last_reported":1679587759,"current_range_meters":31600,"station_id":"ce4bhbh2rcd13ifvqeo0","pricing_plan_id":"free"},{"bike_id":"10cdcc7e-dfe0-44d3-9e03-21bd78465d3d","system_id":"levelo_inurba_marseille","lat":43.273613,"lon":5.362705,"is_reserved":false,"is_disabled":false,"rental_uris":{"android":"levelo://app?vid=10cdcc7e-dfe0-44d3-9e03-21bd78465d3d","ios":"levelo://app?vid=10cdcc7e-dfe0-44d3-9e03-21bd78465d3d"},"vehicle_type_id":"4","last_reported":1679587759,"current_range_meters":31600,"station_id":"ce4bhbh2rcd13ifvqeo0","pricing_plan_id":"free"},{"bike_id":"c6bae198-27a8-4320-a691-5de08ac8fd0b","system_id":"levelo_inurba_marseille","lat":43.273613,"lon":5.362705,"is_reserved":false,"is_disabled":false,"rental_uris":{"android":"levelo://app?vid=c6bae198-27a8-4320-a691-5de08ac8fd0b","ios":"levelo://app?vid=c6bae198-27a8-4320-a691-5de08ac8fd0b"},"vehicle_type_id":"4","last_reported":1679587759,"current_range_meters":400,"station_id":"ce4bhbh2rcd13ifvqeo0","pricing_plan_id":"free"},{"bike_id":"b37b623c-ec92-4633-9524-e2a3c5236eb8","system_id":"levelo_inurba_marseille","lat":43.273613,"lon":5.362705,"is_reserved":false,"is_disabled":false,"rental_uris":{"android":"levelo://app?vid=b37b623c-ec92-4633-9524-e2a3c5236eb8","ios":"levelo://app?vid=b37b623c-ec92-4633-9524-e2a3c5236eb8"},"vehicle_type_id":"4","last_reported":1679587759,"current_range_meters":31200,"station_id":"ce4bhbh2rcd13ifvqeo0","pricing_plan_id":"free"},{"bike_id":"c558dc78-6812-4874-9747-5ff96b40f9dd","system_id":"levelo_inurba_marseille","lat":43.317121,"lon":5.423936,"is_reserved":false,"is_disabled":false,"rental_uris":{"android":"levelo://app?vid=c558dc78-6812-4874-9747-5ff96b40f9dd","ios":"levelo://app?vid=c558dc78-6812-4874-9747-5ff96b40f9dd"},"vehicle_type_id":"4","last_reported":1679587759,"current_range_meters":26800,"station_id":"ce4bhp92rcd13ifvqhbg","pricing_plan_id":"free"},{"bike_id":"6ae5cb1e-cad0-4520-9eea-cb2d5d66c403","system_id":"levelo_inurba_marseille","lat":43.272124,"lon":5.391768,"is_reserved":false,"is_disabled":false,"rental_uris":{"android":"levelo://app?vid=6ae5cb1e-cad0-4520-9eea-cb2d5d66c403","ios":"levelo://app?vid=6ae5cb1e-cad0-4520-9eea-cb2d5d66c403"},"vehicle_type_id":"4","last_reported":1679587759,"current_range_meters":16000,"station_id":"ce4bhhp2rcd13ifvqfm0","pricing_plan_id":"free"},{"bike_id":"1e808404-c8d0-4f51-81f3-40ec1c7bf851","system_id":"levelo_inurba_marseille","lat":43.272124,"lon":5.391768,"is_reserved":false,"is_disabled":false,"rental_uris":{"android":"levelo://app?vid=1e808404-c8d0-4f51-81f3-40ec1c7bf851","ios":"levelo://app?vid=1e808404-c8d0-4f51-81f3-40ec1c7bf851"},"vehicle_type_id":"4","last_reported":1679587759,"current_range_meters":0,"station_id":"ce4bhhp2rcd13ifvqfm0","pricing_plan_id":"free"},{"bike_id":"93bc258b-4126-43e6-a840-b95174b44511","system_id":"levelo_inurba_marseille","lat":43.265714,"lon":5.372891,"is_reserved":false,"is_disabled":false,"rental_uris":{"android":"levelo://app?vid=93bc258b-4126-43e6-a840-b95174b44511","ios":"levelo://app?vid=93bc258b-4126-43e6-a840-b95174b44511"},"vehicle_type_id":"4","last_reported":1679587759,"current_range_meters":30400,"station_id":"ce4bhg12rcd13ifvqf70","pricing_plan_id":"free"},{"bike_id":"ba16cf1f-67b2-4591-88f7-a7dc0c8c6ded","system_id":"levelo_inurba_marseille","lat":43.265714,"lon":5.372891,"is_reserved":false,"is_disabled":false,"rental_uris":{"android":"levelo://app?vid=ba16cf1f-67b2-4591-88f7-a7dc0c8c6ded","ios":"levelo://app?vid=ba16cf1f-67b2-4591-88f7-a7dc0c8c6ded"},"vehicle_type_id":"4","last_reported":1679587759,"current_range_meters":17200,"station_id":"ce4bhg12rcd13ifvqf70","pricing_plan_id":"free"},{"bike_id":"3fab0330-9cdf-4efb-96dc-c2cc9e606add","system_id":"levelo_inurba_marseille","lat":43.265714,"lon":5.372891,"is_reserved":false,"is_disabled":false,"rental_uris":{"android":"levelo://app?vid=3fab0330-9cdf-4efb-96dc-c2cc9e606add","ios":"levelo://app?vid=3fab0330-9cdf-4efb-96dc-c2cc9e606add"},"vehicle_type_id":"4","last_reported":1679587759,"current_range_meters":27200,"station_id":"ce4bhg12rcd13ifvqf70","pricing_plan_id":"free"},{"bike_id":"a01a5229-d4c9-488d-9adf-cb7e2330519d","system_id":"levelo_inurba_marseille","lat":43.265714,"lon":5.372891,"is_reserved":false,"is_disabled":false,"rental_uris":{"android":"levelo://app?vid=a01a5229-d4c9-488d-9adf-cb7e2330519d","ios":"levelo://app?vid=a01a5229-d4c9-488d-9adf-cb7e2330519d"},"vehicle_type_id":"4","last_reported":1679587759,"current_range_meters":11200,"station_id":"ce4bhg12rcd13ifvqf70","pricing_plan_id":"free"},{"bike_id":"c015f170-6d6a-435e-8ce9-0729c90a1b3e","system_id":"levelo_inurba_marseille","lat":43.265648,"lon":5.372809,"is_reserved":false,"is_disabled":false,"rental_uris":{"android":"levelo://app?vid=c015f170-6d6a-435e-8ce9-0729c90a1b3e","ios":"levelo://app?vid=c015f170-6d6a-435e-8ce9-0729c90a1b3e"},"vehicle_type_id":"4","last_reported":1679587759,"current_range_meters":28800,"station_id":"","pricing_plan_id":"free"},{"bike_id":"23cbc570-df7e-40e6-8dc4-28ba781b43b8","system_id":"levelo_inurba_marseille","lat":43.26562,"lon":5.37287,"is_reserved":false,"is_disabled":false,"rental_uris":{"android":"levelo://app?vid=23cbc570-df7e-40e6-8dc4-28ba781b43b8","ios":"levelo://app?vid=23cbc570-df7e-40e6-8dc4-28ba781b43b8"},"vehicle_type_id":"4","last_reported":1679587759,"current_range_meters":29200,"station_id":"","pricing_plan_id":"free"},{"bike_id":"48de3bd9-64e1-4102-a2c6-3c08dd572db3","system_id":"levelo_inurba_marseille","lat":43.265714,"lon":5.372891,"is_reserved":false,"is_disabled":false,"rental_uris":{"android":"levelo://app?vid=48de3bd9-64e1-4102-a2c6-3c08dd572db3","ios":"levelo://app?vid=48de3bd9-64e1-4102-a2c6-3c08dd572db3"},"vehicle_type_id":"4","last_reported":1679587759,"current_range_meters":27600,"station_id":"ce4bhg12rcd13ifvqf70","pricing_plan_id":"free"},{"bike_id":"75110bb4-b625-408c-ade6-137040565320","system_id":"levelo_inurba_marseille","lat":43.265714,"lon":5.372891,"is_reserved":false,"is_disabled":false,"rental_uris":{"android":"levelo://app?vid=75110bb4-b625-408c-ade6-137040565320","ios":"levelo://app?vid=75110bb4-b625-408c-ade6-137040565320"},"vehicle_type_id":"4","last_reported":1679587759,"current_range_meters":30400,"station_id":"ce4bhg12rcd13ifvqf70","pricing_plan_id":"free"},{"bike_id":"f476b5db-d6d6-4da8-8445-58ce6da08c06","system_id":"levelo_inurba_marseille","lat":43.265714,"lon":5.372891,"is_reserved":false,"is_disabled":false,"rental_uris":{"android":"levelo://app?vid=f476b5db-d6d6-4da8-8445-58ce6da08c06","ios":"levelo://app?vid=f476b5db-d6d6-4da8-8445-58ce6da08c06"},"vehicle_type_id":"4","last_reported":1679587759,"current_range_meters":19600,"station_id":"ce4bhg12rcd13ifvqf70","pricing_plan_id":"free"},{"bike_id":"22601710-7adf-42ad-99b2-7fbe5912fa64","system_id":"levelo_inurba_marseille","lat":43.265714,"lon":5.372891,"is_reserved":false,"is_disabled":false,"rental_uris":{"android":"levelo://app?vid=22601710-7adf-42ad-99b2-7fbe5912fa64","ios":"levelo://app?vid=22601710-7adf-42ad-99b2-7fbe5912fa64"},"vehicle_type_id":"4","last_reported":1679587759,"current_range_meters":21600,"station_id":"ce4bhg12rcd13ifvqf70","pricing_plan_id":"free"},{"bike_id":"2c54d511-d74e-4066-be7e-938a74187640","system_id":"levelo_inurba_marseille","lat":43.265528,"lon":5.372896,"is_reserved":false,"is_disabled":false,"rental_uris":{"android":"levelo://app?vid=2c54d511-d74e-4066-be7e-938a74187640","ios":"levelo://app?vid=2c54d511-d74e-4066-be7e-938a74187640"},"vehicle_type_id":"4","last_reported":1679587759,"current_range_meters":5200,"station_id":"","pricing_plan_id":"free"},{"bike_id":"6633b337-a904-4a4c-a6b3-56ee731aada4","system_id":"levelo_inurba_marseille","lat":43.27999,"lon":5.41667,"is_reserved":false,"is_disabled":false,"rental_uris":{"android":"levelo://app?vid=6633b337-a904-4a4c-a6b3-56ee731aada4","ios":"levelo://app?vid=6633b337-a904-4a4c-a6b3-56ee731aada4"},"vehicle_type_id":"4","last_reported":1679587759,"current_range_meters":8400,"station_id":"ce4bho12rcd13ifvqh1g","pricing_plan_id":"free"},{"bike_id":"6b07b92a-dfee-4fc7-aee8-e563c13a47ba","system_id":"levelo_inurba_marseille","lat":43.267966,"lon":5.393976,"is_reserved":false,"is_disabled":false,"rental_uris":{"android":"levelo://app?vid=6b07b92a-dfee-4fc7-aee8-e563c13a47ba","ios":"levelo://app?vid=6b07b92a-dfee-4fc7-aee8-e563c13a47ba"},"vehicle_type_id":"4","last_reported":1679587759,"current_range_meters":19200,"station_id":"ce4bhh12rcd13ifvqfg0","pricing_plan_id":"free"},{"bike_id":"4053c4f7-b02d-4660-acc7-afcff9071a38","system_id":"levelo_inurba_marseille","lat":43.308051,"lon":5.43527,"is_reserved":false,"is_disabled":false,"rental_uris":{"android":"levelo://app?vid=4053c4f7-b02d-4660-acc7-afcff9071a38","ios":"levelo://app?vid=4053c4f7-b02d-4660-acc7-afcff9071a38"},"vehicle_type_id":"4","last_reported":1679587759,"current_range_meters":2800,"station_id":"ce4bhph2rcd13ifvqheg","pricing_plan_id":"free"},{"bike_id":"d21bd520-b47b-45c1-addf-45cb1bbdd15b","system_id":"levelo_inurba_marseille","lat":43.26568,"lon":5.39015,"is_reserved":false,"is_disabled":false,"rental_uris":{"android":"levelo://app?vid=d21bd520-b47b-45c1-addf-45cb1bbdd15b","ios":"levelo://app?vid=d21bd520-b47b-45c1-addf-45cb1bbdd15b"},"vehicle_type_id":"4","last_reported":1679587759,"current_range_meters":0,"station_id":"ce4bhe12rcd13ifvqf30","pricing_plan_id":"free"},{"bike_id":"a14de34e-5230-4355-9f77-b3f5e1378647","system_id":"levelo_inurba_marseille","lat":43.33193,"lon":5.43187,"is_reserved":false,"is_disabled":false,"rental_uris":{"android":"levelo://app?vid=a14de34e-5230-4355-9f77-b3f5e1378647","ios":"levelo://app?vid=a14de34e-5230-4355-9f77-b3f5e1378647"},"vehicle_type_id":"4","last_reported":1679587759,"current_range_meters":17200,"station_id":"","pricing_plan_id":"free"},{"bike_id":"296b09b2-82e5-45ab-a4fe-016aacd480e5","system_id":"levelo_inurba_marseille","lat":43.261782,"lon":5.374515,"is_reserved":false,"is_disabled":false,"rental_uris":{"android":"levelo://app?vid=296b09b2-82e5-45ab-a4fe-016aacd480e5","ios":"levelo://app?vid=296b09b2-82e5-45ab-a4fe-016aacd480e5"},"vehicle_type_id":"4","last_reported":1679587759,"current_range_meters":1600,"station_id":"ce4bhgp2rcd13ifvqfc0","pricing_plan_id":"free"},{"bike_id":"668270aa-0ee9-4aab-8bf3-d74960cd9b61","system_id":"levelo_inurba_marseille","lat":43.317104,"lon":5.436818,"is_reserved":false,"is_disabled":false,"rental_uris":{"android":"levelo://app?vid=668270aa-0ee9-4aab-8bf3-d74960cd9b61","ios":"levelo://app?vid=668270aa-0ee9-4aab-8bf3-d74960cd9b61"},"vehicle_type_id":"4","last_reported":1679587759,"current_range_meters":31600,"station_id":"ce4bhp92rcd13ifvqhcg","pricing_plan_id":"free"},{"bike_id":"38ad692d-4158-4342-a022-3e75c76894b5","system_id":"levelo_inurba_marseille","lat":43.317104,"lon":5.436818,"is_reserved":false,"is_disabled":false,"rental_uris":{"android":"levelo://app?vid=38ad692d-4158-4342-a022-3e75c76894b5","ios":"levelo://app?vid=38ad692d-4158-4342-a022-3e75c76894b5"},"vehicle_type_id":"4","last_reported":1679587759,"current_range_meters":0,"station_id":"ce4bhp92rcd13ifvqhcg","pricing_plan_id":"free"},{"bike_id":"aebf062a-5c26-40a4-a879-0d0dcc4dfb18","system_id":"levelo_inurba_marseille","lat":43.26202,"lon":5.379299,"is_reserved":false,"is_disabled":false,"rental_uris":{"android":"levelo://app?vid=aebf062a-5c26-40a4-a879-0d0dcc4dfb18","ios":"levelo://app?vid=aebf062a-5c26-40a4-a879-0d0dcc4dfb18"},"vehicle_type_id":"4","last_reported":1679587759,"current_range_meters":10000,"station_id":"ce4bhjp2rcd13ifvqg90","pricing_plan_id":"free"},{"bike_id":"0c179952-704b-457e-bf1c-ae6df3cf8e63","system_id":"levelo_inurba_marseille","lat":43.267959,"lon":5.402685,"is_reserved":false,"is_disabled":false,"rental_uris":{"android":"levelo://app?vid=0c179952-704b-457e-bf1c-ae6df3cf8e63","ios":"levelo://app?vid=0c179952-704b-457e-bf1c-ae6df3cf8e63"},"vehicle_type_id":"4","last_reported":1679587759,"current_range_meters":9600,"station_id":"ce501612rcd8frsf0b60","pricing_plan_id":"free"},{"bike_id":"43d3357c-f773-4965-9ffc-9fa9fb1cff36","system_id":"levelo_inurba_marseille","lat":43.268112,"lon":5.402744,"is_reserved":false,"is_disabled":false,"rental_uris":{"android":"levelo://app?vid=43d3357c-f773-4965-9ffc-9fa9fb1cff36","ios":"levelo://app?vid=43d3357c-f773-4965-9ffc-9fa9fb1cff36"},"vehicle_type_id":"4","last_reported":1679587759,"current_range_meters":800,"station_id":"","pricing_plan_id":"free"},{"bike_id":"87f09c05-2621-4bf8-8b75-16b1fb9fde57","system_id":"levelo_inurba_marseille","lat":43.267959,"lon":5.402687,"is_reserved":false,"is_disabled":false,"rental_uris":{"android":"levelo://app?vid=87f09c05-2621-4bf8-8b75-16b1fb9fde57","ios":"levelo://app?vid=87f09c05-2621-4bf8-8b75-16b1fb9fde57"},"vehicle_type_id":"4","last_reported":1679587759,"current_range_meters":13600,"station_id":"ce501612rcd8frsf0b60","pricing_plan_id":"free"},{"bike_id":"36273245-e0ea-4d00-98b2-eba724cba276","system_id":"levelo_inurba_marseille","lat":43.267959,"lon":5.402687,"is_reserved":false,"is_disabled":false,"rental_uris":{"android":"levelo://app?vid=36273245-e0ea-4d00-98b2-eba724cba276","ios":"levelo://app?vid=36273245-e0ea-4d00-98b2-eba724cba276"},"vehicle_type_id":"4","last_reported":1679587759,"current_range_meters":0,"station_id":"ce501612rcd8frsf0b60","pricing_plan_id":"free"},{"bike_id":"561534a6-baed-4d7b-bc52-7da933517285","system_id":"levelo_inurba_marseille","lat":43.267959,"lon":5.402687,"is_reserved":false,"is_disabled":false,"rental_uris":{"android":"levelo://app?vid=561534a6-baed-4d7b-bc52-7da933517285","ios":"levelo://app?vid=561534a6-baed-4d7b-bc52-7da933517285"},"vehicle_type_id":"4","last_reported":1679587759,"current_range_meters":7600,"station_id":"ce501612rcd8frsf0b60","pricing_plan_id":"free"},{"bike_id":"6922b60f-ee54-4b1b-ae80-28c4ffb310af","system_id":"levelo_inurba_marseille","lat":43.267959,"lon":5.402687,"is_reserved":false,"is_disabled":false,"rental_uris":{"android":"levelo://app?vid=6922b60f-ee54-4b1b-ae80-28c4ffb310af","ios":"levelo://app?vid=6922b60f-ee54-4b1b-ae80-28c4ffb310af"},"vehicle_type_id":"4","last_reported":1679587759,"current_range_meters":7600,"station_id":"ce501612rcd8frsf0b60","pricing_plan_id":"free"},{"bike_id":"cdb763b1-67b5-4888-87ac-e5d10dcf9bca","system_id":"levelo_inurba_marseille","lat":43.267959,"lon":5.402687,"is_reserved":false,"is_disabled":false,"rental_uris":{"android":"levelo://app?vid=cdb763b1-67b5-4888-87ac-e5d10dcf9bca","ios":"levelo://app?vid=cdb763b1-67b5-4888-87ac-e5d10dcf9bca"},"vehicle_type_id":"4","last_reported":1679587759,"current_range_meters":31600,"station_id":"ce501612rcd8frsf0b60","pricing_plan_id":"free"},{"bike_id":"96aa5c6d-8ec9-4cbd-bc8d-d4d68fb53f6b","system_id":"levelo_inurba_marseille","lat":43.29902,"lon":5.43675,"is_reserved":false,"is_disabled":false,"rental_uris":{"android":"levelo://app?vid=96aa5c6d-8ec9-4cbd-bc8d-d4d68fb53f6b","ios":"levelo://app?vid=96aa5c6d-8ec9-4cbd-bc8d-d4d68fb53f6b"},"vehicle_type_id":"4","last_reported":1679587759,"current_range_meters":18000,"station_id":"","pricing_plan_id":"free"},{"bike_id":"abf7268b-998d-4c7b-9fdd-829d1f3d5b32","system_id":"levelo_inurba_marseille","lat":43.26035,"lon":5.37546,"is_reserved":false,"is_disabled":false,"rental_uris":{"android":"levelo://app?vid=abf7268b-998d-4c7b-9fdd-829d1f3d5b32","ios":"levelo://app?vid=abf7268b-998d-4c7b-9fdd-829d1f3d5b32"},"vehicle_type_id":"4","last_reported":1679587759,"current_range_meters":15200,"station_id":"ce4bhgh2rcd13ifvqfa0","pricing_plan_id":"free"},{"bike_id":"29443fbb-8e1d-4443-aee8-6304d1d1155f","system_id":"levelo_inurba_marseille","lat":43.260219,"lon":5.37546,"is_reserved":false,"is_disabled":false,"rental_uris":{"android":"levelo://app?vid=29443fbb-8e1d-4443-aee8-6304d1d1155f","ios":"levelo://app?vid=29443fbb-8e1d-4443-aee8-6304d1d1155f"},"vehicle_type_id":"4","last_reported":1679587759,"current_range_meters":0,"station_id":"ce4bhgh2rcd13ifvqfa0","pricing_plan_id":"free"},{"bike_id":"d098ed8c-e73e-4544-9b05-94f5c74ea96e","system_id":"levelo_inurba_marseille","lat":43.260909,"lon":5.397591,"is_reserved":false,"is_disabled":false,"rental_uris":{"android":"levelo://app?vid=d098ed8c-e73e-4544-9b05-94f5c74ea96e","ios":"levelo://app?vid=d098ed8c-e73e-4544-9b05-94f5c74ea96e"},"vehicle_type_id":"4","last_reported":1679587759,"current_range_meters":6800,"station_id":"ce4bhi12rcd13ifvqfq0","pricing_plan_id":"free"},{"bike_id":"b5b4ede2-7ad2-4b6d-8d4c-645bf8803710","system_id":"levelo_inurba_marseille","lat":43.260909,"lon":5.397591,"is_reserved":false,"is_disabled":false,"rental_uris":{"android":"levelo://app?vid=b5b4ede2-7ad2-4b6d-8d4c-645bf8803710","ios":"levelo://app?vid=b5b4ede2-7ad2-4b6d-8d4c-645bf8803710"},"vehicle_type_id":"4","last_reported":1679587759,"current_range_meters":7600,"station_id":"ce4bhi12rcd13ifvqfq0","pricing_plan_id":"free"},{"bike_id":"441c3592-22d9-486d-a8bc-983ed28ed68c","system_id":"levelo_inurba_marseille","lat":43.255756,"lon":5.382303,"is_reserved":false,"is_disabled":false,"rental_uris":{"android":"levelo://app?vid=441c3592-22d9-486d-a8bc-983ed28ed68c","ios":"levelo://app?vid=441c3592-22d9-486d-a8bc-983ed28ed68c"},"vehicle_type_id":"4","last_reported":1679587759,"current_range_meters":4800,"station_id":"ce4bhih2rcd13ifvqfs0","pricing_plan_id":"free"},{"bike_id":"2b981921-7554-466d-bc26-6be0bc846742","system_id":"levelo_inurba_marseille","lat":43.27075,"lon":5.42282,"is_reserved":false,"is_disabled":false,"rental_uris":{"android":"levelo://app?vid=2b981921-7554-466d-bc26-6be0bc846742","ios":"levelo://app?vid=2b981921-7554-466d-bc26-6be0bc846742"},"vehicle_type_id":"4","last_reported":1679587759,"current_range_meters":4400,"station_id":"ce4bhk92rcd13ifvqgb0","pricing_plan_id":"free"},{"bike_id":"8d3b1bca-f7a0-4e08-a48c-f2dbbd574d72","system_id":"levelo_inurba_marseille","lat":43.251223,"lon":5.403165,"is_reserved":false,"is_disabled":false,"rental_uris":{"android":"levelo://app?vid=8d3b1bca-f7a0-4e08-a48c-f2dbbd574d72","ios":"levelo://app?vid=8d3b1bca-f7a0-4e08-a48c-f2dbbd574d72"},"vehicle_type_id":"4","last_reported":1679587759,"current_range_meters":28000,"station_id":"ce4bhlh2rcd13ifvqgig","pricing_plan_id":"free"},{"bike_id":"3e0f2867-0147-44de-a331-a48834d5f72c","system_id":"levelo_inurba_marseille","lat":43.251212,"lon":5.403241,"is_reserved":false,"is_disabled":false,"rental_uris":{"android":"levelo://app?vid=3e0f2867-0147-44de-a331-a48834d5f72c","ios":"levelo://app?vid=3e0f2867-0147-44de-a331-a48834d5f72c"},"vehicle_type_id":"4","last_reported":1679587759,"current_range_meters":0,"station_id":"","pricing_plan_id":"free"},{"bike_id":"f2779733-61e3-4283-8fa2-094a8b2555a8","system_id":"levelo_inurba_marseille","lat":43.25102,"lon":5.403214,"is_reserved":false,"is_disabled":false,"rental_uris":{"android":"levelo://app?vid=f2779733-61e3-4283-8fa2-094a8b2555a8","ios":"levelo://app?vid=f2779733-61e3-4283-8fa2-094a8b2555a8"},"vehicle_type_id":"4","last_reported":1679587759,"current_range_meters":29600,"station_id":"ce4bhlh2rcd13ifvqgig","pricing_plan_id":"free"},{"bike_id":"84fe66bd-d097-488b-9966-c0706a678c67","system_id":"levelo_inurba_marseille","lat":43.246467,"lon":5.388984,"is_reserved":false,"is_disabled":false,"rental_uris":{"android":"levelo://app?vid=84fe66bd-d097-488b-9966-c0706a678c67","ios":"levelo://app?vid=84fe66bd-d097-488b-9966-c0706a678c67"},"vehicle_type_id":"4","last_reported":1679587759,"current_range_meters":6000,"station_id":"ce4bhg12rcd13ifvqf60","pricing_plan_id":"free"},{"bike_id":"b35f4794-427e-4e25-aa12-e4d7ad327b27","system_id":"levelo_inurba_marseille","lat":43.243806,"lon":5.370979,"is_reserved":false,"is_disabled":false,"rental_uris":{"android":"levelo://app?vid=b35f4794-427e-4e25-aa12-e4d7ad327b27","ios":"levelo://app?vid=b35f4794-427e-4e25-aa12-e4d7ad327b27"},"vehicle_type_id":"4","last_reported":1679587759,"current_range_meters":31200,"station_id":"ce4bhhh2rcd13ifvqfk0","pricing_plan_id":"free"},{"bike_id":"7fdfeb3e-2bc7-4d8b-8240-8f39db0943f2","system_id":"levelo_inurba_marseille","lat":43.243884,"lon":5.370736,"is_reserved":false,"is_disabled":false,"rental_uris":{"android":"levelo://app?vid=7fdfeb3e-2bc7-4d8b-8240-8f39db0943f2","ios":"levelo://app?vid=7fdfeb3e-2bc7-4d8b-8240-8f39db0943f2"},"vehicle_type_id":"4","last_reported":1679587759,"current_range_meters":27200,"station_id":"ce4bhhh2rcd13ifvqfk0","pricing_plan_id":"free"},{"bike_id":"a50b9264-8433-4b56-b841-79a99c024b9d","system_id":"levelo_inurba_marseille","lat":43.240623,"lon":5.377642,"is_reserved":false,"is_disabled":false,"rental_uris":{"android":"levelo://app?vid=a50b9264-8433-4b56-b841-79a99c024b9d","ios":"levelo://app?vid=a50b9264-8433-4b56-b841-79a99c024b9d"},"vehicle_type_id":"4","last_reported":1679587759,"current_range_meters":11600,"station_id":"ce4bhnp2rcd13ifvqgvg","pricing_plan_id":"free"},{"bike_id":"711e60c8-4675-4e76-83b9-fa188a549872","system_id":"levelo_inurba_marseille","lat":43.239588,"lon":5.366238,"is_reserved":false,"is_disabled":false,"rental_uris":{"android":"levelo://app?vid=711e60c8-4675-4e76-83b9-fa188a549872","ios":"levelo://app?vid=711e60c8-4675-4e76-83b9-fa188a549872"},"vehicle_type_id":"4","last_reported":1679587759,"current_range_meters":31600,"station_id":"ce4bhi12rcd13ifvqfp0","pricing_plan_id":"free"},{"bike_id":"39c807ce-0126-4123-b574-77fbf82d1efe","system_id":"levelo_inurba_marseille","lat":43.239588,"lon":5.366238,"is_reserved":false,"is_disabled":false,"rental_uris":{"android":"levelo://app?vid=39c807ce-0126-4123-b574-77fbf82d1efe","ios":"levelo://app?vid=39c807ce-0126-4123-b574-77fbf82d1efe"},"vehicle_type_id":"4","last_reported":1679587759,"current_range_meters":30800,"station_id":"ce4bhi12rcd13ifvqfp0","pricing_plan_id":"free"}]}}