{"last_updated":1769711435,"ttl":60,"version":"2.2","data":{"bikes":[{"bike_id":"81ee571a-2d1e-4c83-a813-4f3451aa4eae","system_id":"levelo_inurba_marseille","lat":43.26562,"lon":5.39016,"is_reserved":false,"is_disabled":false,"rental_uris":{"android":"levelo://app?vid=81ee571a-2d1e-4c83-a813-4f3451aa4eae","ios":"levelo://app?vid=81ee571a-2d1e-4c83-a813-4f3451aa4eae"},"vehicle_type_id":"4","last_reported":1769711436,"current_range_meters":2800,"station_id":"ce4bhe12rcd13ifvqf30","pricing_plan_id":"cebpf4jnsgd1na2vs0mg"},{"bike_id":"7037feff-8fa7-490b-9d0e-91d5899fd7a7","system_id":"levelo_inurba_marseille","lat":43.27966,"lon":5.38745,"is_reserved":false,"is_disabled":false,"rental_uris":{"android":"levelo://app?vid=7037feff-8fa7-490b-9d0e-91d5899fd7a7","ios":"levelo://app?vid=7037feff-8fa7-490b-9d0e-91d5899fd7a7"},"vehicle_type_id":"4","last_reported":1769711436,"current_range_meters":2800,"station_id":"ce4bhg12rcd13ifvqf80","pricing_plan_id":"cebpf4jnsgd1na2vs0mg"},{"bike_id":"3e6599b3-80f5-4cb4-a947-9865a5671465","system_id":"levelo_inurba_marseille","lat":43.27608,"lon":5.36119,"is_reserved":false,"is_disabled":false,"rental_uris":{"android":"levelo://app?vid=3e6599b3-80f5-4cb4-a947-9865a5671465","ios":"levelo://app?vid=3e6599b3-80f5-4cb4-a947-9865a5671465"},"vehicle_type_id":"4","last_reported":1769711436,"current_range_meters":2800,"station_id":"ce4bgj92rcd13ifvqbe0","pricing_plan_id":"cebpf4jnsgd1na2vs0mg"},{"bike_id":"0393f1bf-344f-45c8-9042-27b39d04c542","system_id":"levelo_inurba_marseille","lat":43.29002,"lon":5.37805,"is_reserved":false,"is_disabled":false,"rental_uris":{"android":"levelo://app?vid=0393f1bf-344f-45c8-9042-27b39d04c542","ios":"levelo://app?vid=0393f1bf-344f-45c8-9042-27b39d04c542"},"vehicle_type_id":"4","last_reported":1769711436,"current_range_meters":2800,"station_id":"ce4bh9p2rcd13ifvqed0","pricing_plan_id":"cebpf4jnsgd1na2vs0mg"},{"bike_id":"595b82b4-7ba1-42b1-a1fb-5ed384bd5e58","system_id":"levelo_inurba_marseille","lat":43.29294,"lon":5.37457,"is_reserved":false,"is_disabled":false,"rental_uris":{"android":"levelo://app?vid=595b82b4-7ba1-42b1-a1fb-5ed384bd5e58","ios":"levelo://app?vid=595b82b4-7ba1-42b1-a1fb-5ed384bd5e58"},"vehicle_type_id":"4","last_reported":1769711436,"current_range_meters":2800,"station_id":"ce4bgi12rcd13ifvqb70","pricing_plan_id":"cebpf4jnsgd1na2vs0mg"},{"bike_id":"4600ddd2-eefe-493a-a531-70c0846e9531","system_id":"levelo_inurba_marseille","lat":43.28729,"lon":5.37937,"is_reserved":false,"is_disabled":false,"rental_uris":{"android":"levelo://app?vid=4600ddd2-eefe-493a-a531-70c0846e9531","ios":"levelo://app?vid=4600ddd2-eefe-493a-a531-70c0846e9531"},"vehicle_type_id":"4","last_reported":1769711436,"current_range_meters":2800,"station_id":"ce4bh9p2rcd13ifvqec0","pricing_plan_id":"cebpf4jnsgd1na2vs0mg"},{"bike_id":"6729f849-d7f0-4bb7-a53f-c45b36e4d497","system_id":"levelo_inurba_marseille","lat":43.26508,"lon":5.39544,"is_reserved":false,"is_disabled":false,"rental_uris":{"android":"levelo://app?vid=6729f849-d7f0-4bb7-a53f-c45b36e4d497","ios":"levelo://app?vid=6729f849-d7f0-4bb7-a53f-c45b36e4d497"},"vehicle_type_id":"4","last_reported":1769711436,"current_range_meters":2800,"station_id":"ce4bhi12rcd13ifvqfq0","pricing_plan_id":"cebpf4jnsgd1na2vs0mg"},{"bike_id":"d05f915c-32c1-43f7-af1b-40d8ac0742df","system_id":"levelo_inurba_marseille","lat":43.26559,"lon":5.39009,"is_reserved":false,"is_disabled":false,"rental_uris":{"android":"levelo://app?vid=d05f915c-32c1-43f7-af1b-40d8ac0742df","ios":"levelo://app?vid=d05f915c-32c1-43f7-af1b-40d8ac0742df"},"vehicle_type_id":"4","last_reported":1769711436,"current_range_meters":2800,"station_id":"ce4bhe12rcd13ifvqf30","pricing_plan_id":"cebpf4jnsgd1na2vs0mg"},{"bike_id":"9328d8d0-a319-4fb2-9d4a-db2606a87040","system_id":"levelo_inurba_marseille","lat":43.24172,"lon":5.364,"is_reserved":false,"is_disabled":false,"rental_uris":{"android":"levelo://app?vid=9328d8d0-a319-4fb2-9d4a-db2606a87040","ios":"levelo://app?vid=9328d8d0-a319-4fb2-9d4a-db2606a87040"},"vehicle_type_id":"4","last_reported":1769711436,"current_range_meters":2800,"station_id":"cpo36qri1sfpv3e86is0","pricing_plan_id":"cebpf4jnsgd1na2vs0mg"},{"bike_id":"891291bf-2508-4614-98b9-c57a30a99b04","system_id":"levelo_inurba_marseille","lat":43.22935,"lon":5.35379,"is_reserved":false,"is_disabled":false,"rental_uris":{"android":"levelo://app?vid=891291bf-2508-4614-98b9-c57a30a99b04","ios":"levelo://app?vid=891291bf-2508-4614-98b9-c57a30a99b04"},"vehicle_type_id":"4","last_reported":1769711436,"current_range_meters":2800,"station_id":"cpo3532slgdg3j2ikp40","pricing_plan_id":"cebpf4jnsgd1na2vs0mg"},{"bike_id":"cf7f9695-2a0f-4f83-94bc-7e9fc19674c0","system_id":"levelo_inurba_marseille","lat":43.25123,"lon":5.40314,"is_reserved":false,"is_disabled":false,"rental_uris":{"android":"levelo://app?vid=cf7f9695-2a0f-4f83-94bc-7e9fc19674c0","ios":"levelo://app?vid=cf7f9695-2a0f-4f83-94bc-7e9fc19674c0"},"vehicle_type_id":"4","last_reported":1769711436,"current_range_meters":2800,"station_id":"ce4bhlh2rcd13ifvqgig","pricing_plan_id":"cebpf4jnsgd1na2vs0mg"},{"bike_id":"2a66a865-9dc2-4285-8353-bd827b91e134","system_id":"levelo_inurba_marseille","lat":43.31332,"lon":5.39682,"is_reserved":false,"is_disabled":false,"rental_uris":{"android":"levelo://app?vid=2a66a865-9dc2-4285-8353-bd827b91e134","ios":"levelo://app?vid=2a66a865-9dc2-4285-8353-bd827b91e134"},"vehicle_type_id":"4","last_reported":1769711436,"current_range_meters":2800,"station_id":"ce4bgvp2rcd13ifvqcu0","pricing_plan_id":"cebpf4jnsgd1na2vs0mg"},{"bike_id":"3e704958-31c0-408c-be78-3d11ac7d6435","system_id":"levelo_inurba_marseille","lat":43.24646,"lon":5.38883,"is_reserved":false,"is_disabled":false,"rental_uris":{"android":"levelo://app?vid=3e704958-31c0-408c-be78-3d11ac7d6435","ios":"levelo://app?vid=3e704958-31c0-408c-be78-3d11ac7d6435"},"vehicle_type_id":"4","last_reported":1769711436,"current_range_meters":2800,"station_id":"ce4bhg12rcd13ifvqf60","pricing_plan_id":"cebpf4jnsgd1na2vs0mg"},{"bike_id":"8b8684e8-3c71-448e-aaab-d9af785c5646","system_id":"levelo_inurba_marseille","lat":43.248071,"lon":5.374576,"is_reserved":false,"is_disabled":false,"rental_uris":{"android":"levelo://app?vid=8b8684e8-3c71-448e-aaab-d9af785c5646","ios":"levelo://app?vid=8b8684e8-3c71-448e-aaab-d9af785c5646"},"vehicle_type_id":"4","last_reported":1769711436,"current_range_meters":2800,"station_id":"ce4bhgh2rcd13ifvqfb0","pricing_plan_id":"cebpf4jnsgd1na2vs0mg"},{"bike_id":"10808da0-667b-4bda-afff-020da39ebe32","system_id":"levelo_inurba_marseille","lat":43.28338,"lon":5.38103,"is_reserved":false,"is_disabled":false,"rental_uris":{"android":"levelo://app?vid=10808da0-667b-4bda-afff-020da39ebe32","ios":"levelo://app?vid=10808da0-667b-4bda-afff-020da39ebe32"},"vehicle_type_id":"4","last_reported":1769711436,"current_range_meters":2800,"station_id":"ce4bh412rcd13ifvqdr0","pricing_plan_id":"cebpf4jnsgd1na2vs0mg"},{"bike_id":"6cee9067-4ad2-48c4-928b-5423b594f60e","system_id":"levelo_inurba_marseille","lat":43.2996,"lon":5.38492,"is_reserved":false,"is_disabled":false,"rental_uris":{"android":"levelo://app?vid=6cee9067-4ad2-48c4-928b-5423b594f60e","ios":"levelo://app?vid=6cee9067-4ad2-48c4-928b-5423b594f60e"},"vehicle_type_id":"4","last_reported":1769711436,"current_range_meters":2800,"station_id":"ce4bgj92rcd13ifvqbd0","pricing_plan_id":"cebpf4jnsgd1na2vs0mg"},{"bike_id":"5db037fe-3537-4881-a26d-8c290cdead0b","system_id":"levelo_inurba_marseille","lat":43.295568,"lon":5.422925,"is_reserved":false,"is_disabled":false,"rental_uris":{"android":"levelo://app?vid=5db037fe-3537-4881-a26d-8c290cdead0b","ios":"levelo://app?vid=5db037fe-3537-4881-a26d-8c290cdead0b"},"vehicle_type_id":"4","last_reported":1769711436,"current_range_meters":2800,"station_id":"ce4bhph2rcd13ifvqhdg","pricing_plan_id":"cebpf4jnsgd1na2vs0mg"},{"bike_id":"f5252326-86c6-41fa-9654-a4796ef05ac0","system_id":"levelo_inurba_marseille","lat":43.2509,"lon":5.39519,"is_reserved":false,"is_disabled":false,"rental_uris":{"android":"levelo://app?vid=f5252326-86c6-41fa-9654-a4796ef05ac0","ios":"levelo://app?vid=f5252326-86c6-41fa-9654-a4796ef05ac0"},"vehicle_type_id":"4","last_reported":1769711436,"current_range_meters":2800,"station_id":"ce4bhm12rcd13ifvqgkg","pricing_plan_id":"cebpf4jnsgd1na2vs0mg"},{"bike_id":"810034ca-2f95-4fb2-9b00-c41baaa98bb4","system_id":"levelo_inurba_marseille","lat":43.28672,"lon":5.36352,"is_reserved":false,"is_disabled":false,"rental_uris":{"android":"levelo://app?vid=810034ca-2f95-4fb2-9b00-c41baaa98bb4","ios":"levelo://app?vid=810034ca-2f95-4fb2-9b00-c41baaa98bb4"},"vehicle_type_id":"4","last_reported":1769711436,"current_range_meters":3200,"station_id":"ce4bhah2rcd13ifvqej0","pricing_plan_id":"cebpf4jnsgd1na2vs0mg"},{"bike_id":"ed9f81ad-eaf4-47c9-8e7d-732698f7ab5f","system_id":"levelo_inurba_marseille","lat":43.24545,"lon":5.39519,"is_reserved":false,"is_disabled":false,"rental_uris":{"android":"levelo://app?vid=ed9f81ad-eaf4-47c9-8e7d-732698f7ab5f","ios":"levelo://app?vid=ed9f81ad-eaf4-47c9-8e7d-732698f7ab5f"},"vehicle_type_id":"4","last_reported":1769711436,"current_range_meters":3200,"station_id":"ce4bhlp2rcd13ifvqgjg","pricing_plan_id":"cebpf4jnsgd1na2vs0mg"},{"bike_id":"32b867fb-6730-4a59-9f1f-d02df362d198","system_id":"levelo_inurba_marseille","lat":43.29533,"lon":5.39394,"is_reserved":false,"is_disabled":false,"rental_uris":{"android":"levelo://app?vid=32b867fb-6730-4a59-9f1f-d02df362d198","ios":"levelo://app?vid=32b867fb-6730-4a59-9f1f-d02df362d198"},"vehicle_type_id":"4","last_reported":1769711436,"current_range_meters":3200,"station_id":"ce4bh292rcd13ifvqdf0","pricing_plan_id":"cebpf4jnsgd1na2vs0mg"},{"bike_id":"d0f6d2ad-ea0a-4e39-af3d-0f3dd942ff79","system_id":"levelo_inurba_marseille","lat":43.30598,"lon":5.39353,"is_reserved":false,"is_disabled":false,"rental_uris":{"android":"levelo://app?vid=d0f6d2ad-ea0a-4e39-af3d-0f3dd942ff79","ios":"levelo://app?vid=d0f6d2ad-ea0a-4e39-af3d-0f3dd942ff79"},"vehicle_type_id":"4","last_reported":1769711436,"current_range_meters":3200,"station_id":"ce4bh0p2rcd13ifvqd80","pricing_plan_id":"cebpf4jnsgd1na2vs0mg"},{"bike_id":"1a5cce6c-aba6-49ee-9d31-1c55cd653263","system_id":"levelo_inurba_marseille","lat":43.3034,"lon":5.40422,"is_reserved":false,"is_disabled":false,"rental_uris":{"android":"levelo://app?vid=1a5cce6c-aba6-49ee-9d31-1c55cd653263","ios":"levelo://app?vid=1a5cce6c-aba6-49ee-9d31-1c55cd653263"},"vehicle_type_id":"4","last_reported":1769711436,"current_range_meters":3200,"station_id":"ce4bh012rcd13ifvqd10","pricing_plan_id":"cebpf4jnsgd1na2vs0mg"},{"bike_id":"73c1a34f-1cda-448a-920e-f70ad907200c","system_id":"levelo_inurba_marseille","lat":43.28488,"lon":5.38555,"is_reserved":false,"is_disabled":false,"rental_uris":{"android":"levelo://app?vid=73c1a34f-1cda-448a-920e-f70ad907200c","ios":"levelo://app?vid=73c1a34f-1cda-448a-920e-f70ad907200c"},"vehicle_type_id":"4","last_reported":1769711436,"current_range_meters":3200,"station_id":"ce4bh8p2rcd13ifvqeb0","pricing_plan_id":"cebpf4jnsgd1na2vs0mg"},{"bike_id":"ad760db1-c08e-4218-880f-506e66682432","system_id":"levelo_inurba_marseille","lat":43.29251,"lon":5.37931,"is_reserved":false,"is_disabled":false,"rental_uris":{"android":"levelo://app?vid=ad760db1-c08e-4218-880f-506e66682432","ios":"levelo://app?vid=ad760db1-c08e-4218-880f-506e66682432"},"vehicle_type_id":"4","last_reported":1769711436,"current_range_meters":3600,"station_id":"","pricing_plan_id":"cebpf4jnsgd1na2vs0mg"},{"bike_id":"7c50c849-8c46-432e-a3db-a93ff7567019","system_id":"levelo_inurba_marseille","lat":43.255776,"lon":5.382356,"is_reserved":false,"is_disabled":false,"rental_uris":{"android":"levelo://app?vid=7c50c849-8c46-432e-a3db-a93ff7567019","ios":"levelo://app?vid=7c50c849-8c46-432e-a3db-a93ff7567019"},"vehicle_type_id":"4","last_reported":1769711436,"current_range_meters":3600,"station_id":"ce4bhih2rcd13ifvqfs0","pricing_plan_id":"cebpf4jnsgd1na2vs0mg"},{"bike_id":"a937da7a-d97d-47d9-8bc9-3105cc03dd9b","system_id":"levelo_inurba_marseille","lat":43.302344,"lon":5.369019,"is_reserved":false,"is_disabled":false,"rental_uris":{"android":"levelo://app?vid=a937da7a-d97d-47d9-8bc9-3105cc03dd9b","ios":"levelo://app?vid=a937da7a-d97d-47d9-8bc9-3105cc03dd9b"},"vehicle_type_id":"4","last_reported":1769711436,"current_range_meters":3600,"station_id":"ce4bgqh2rcd13ifvqc5g","pricing_plan_id":"cebpf4jnsgd1na2vs0mg"},{"bike_id":"12004ba8-209d-4c60-8f18-233129ec09b6","system_id":"levelo_inurba_marseille","lat":43.25582,"lon":5.38227,"is_reserved":false,"is_disabled":false,"rental_uris":{"android":"levelo://app?vid=12004ba8-209d-4c60-8f18-233129ec09b6","ios":"levelo://app?vid=12004ba8-209d-4c60-8f18-233129ec09b6"},"vehicle_type_id":"4","last_reported":1769711436,"current_range_meters":3600,"station_id":"ce4bhih2rcd13ifvqfs0","pricing_plan_id":"cebpf4jnsgd1na2vs0mg"},{"bike_id":"12609cdf-fd72-4bf0-9a7f-471f15bd13fd","system_id":"levelo_inurba_marseille","lat":43.27574,"lon":5.38416,"is_reserved":false,"is_disabled":false,"rental_uris":{"android":"levelo://app?vid=12609cdf-fd72-4bf0-9a7f-471f15bd13fd","ios":"levelo://app?vid=12609cdf-fd72-4bf0-9a7f-471f15bd13fd"},"vehicle_type_id":"4","last_reported":1769711436,"current_range_meters":3600,"station_id":"ce4bhh92rcd13ifvqfi0","pricing_plan_id":"cebpf4jnsgd1na2vs0mg"},{"bike_id":"c7434762-9544-4737-b4c1-2fa2c55cacf3","system_id":"levelo_inurba_marseille","lat":43.30801,"lon":5.37644,"is_reserved":false,"is_disabled":false,"rental_uris":{"android":"levelo://app?vid=c7434762-9544-4737-b4c1-2fa2c55cacf3","ios":"levelo://app?vid=c7434762-9544-4737-b4c1-2fa2c55cacf3"},"vehicle_type_id":"4","last_reported":1769711436,"current_range_meters":3600,"station_id":"ce4bgv92rcd13ifvqcq0","pricing_plan_id":"cebpf4jnsgd1na2vs0mg"},{"bike_id":"4ca4f6bd-e228-45f4-840f-4090aba6d20d","system_id":"levelo_inurba_marseille","lat":43.2441,"lon":5.37013,"is_reserved":false,"is_disabled":true,"rental_uris":{"android":"levelo://app?vid=4ca4f6bd-e228-45f4-840f-4090aba6d20d","ios":"levelo://app?vid=4ca4f6bd-e228-45f4-840f-4090aba6d20d"},"vehicle_type_id":"4","last_reported":1769711436,"current_range_meters":3600,"station_id":"","pricing_plan_id":"cebpf4jnsgd1na2vs0mg"},{"bike_id":"c1af6962-2db9-425a-894c-29f0b4afcc4e","system_id":"levelo_inurba_marseille","lat":43.25005,"lon":5.38936,"is_reserved":false,"is_disabled":false,"rental_uris":{"android":"levelo://app?vid=c1af6962-2db9-425a-894c-29f0b4afcc4e","ios":"levelo://app?vid=c1af6962-2db9-425a-894c-29f0b4afcc4e"},"vehicle_type_id":"4","last_reported":1769711436,"current_range_meters":3600,"station_id":"ce4bhgp2rcd13ifvqfd0","pricing_plan_id":"cebpf4jnsgd1na2vs0mg"},{"bike_id":"3eec611c-d8cb-4b54-9748-ae62ab9ddb70","system_id":"levelo_inurba_marseille","lat":43.22932,"lon":5.35376,"is_reserved":false,"is_disabled":false,"rental_uris":{"android":"levelo://app?vid=3eec611c-d8cb-4b54-9748-ae62ab9ddb70","ios":"levelo://app?vid=3eec611c-d8cb-4b54-9748-ae62ab9ddb70"},"vehicle_type_id":"4","last_reported":1769711436,"current_range_meters":3600,"station_id":"cpo3532slgdg3j2ikp40","pricing_plan_id":"cebpf4jnsgd1na2vs0mg"},{"bike_id":"adcf69d8-1927-438e-b914-5f915ba575b2","system_id":"levelo_inurba_marseille","lat":43.25568,"lon":5.38226,"is_reserved":false,"is_disabled":false,"rental_uris":{"android":"levelo://app?vid=adcf69d8-1927-438e-b914-5f915ba575b2","ios":"levelo://app?vid=adcf69d8-1927-438e-b914-5f915ba575b2"},"vehicle_type_id":"4","last_reported":1769711436,"current_range_meters":3600,"station_id":"ce4bhih2rcd13ifvqfs0","pricing_plan_id":"cebpf4jnsgd1na2vs0mg"},{"bike_id":"4a392173-e767-451c-bb35-f2bab79a0852","system_id":"levelo_inurba_marseille","lat":43.31114,"lon":5.37761,"is_reserved":false,"is_disabled":false,"rental_uris":{"android":"levelo://app?vid=4a392173-e767-451c-bb35-f2bab79a0852","ios":"levelo://app?vid=4a392173-e767-451c-bb35-f2bab79a0852"},"vehicle_type_id":"4","last_reported":1769711436,"current_range_meters":3600,"station_id":"ce4bgt92rcd13ifvqcg0","pricing_plan_id":"cebpf4jnsgd1na2vs0mg"},{"bike_id":"904df90f-2638-420e-beb9-873b59057e39","system_id":"levelo_inurba_marseille","lat":43.31712,"lon":5.43699,"is_reserved":false,"is_disabled":false,"rental_uris":{"android":"levelo://app?vid=904df90f-2638-420e-beb9-873b59057e39","ios":"levelo://app?vid=904df90f-2638-420e-beb9-873b59057e39"},"vehicle_type_id":"4","last_reported":1769711436,"current_range_meters":3600,"station_id":"ce4bhp92rcd13ifvqhcg","pricing_plan_id":"cebpf4jnsgd1na2vs0mg"},{"bike_id":"2ce420f7-8d92-4b24-bd16-786d846f4c0d","system_id":"levelo_inurba_marseille","lat":43.23793,"lon":5.36622,"is_reserved":false,"is_disabled":false,"rental_uris":{"android":"levelo://app?vid=2ce420f7-8d92-4b24-bd16-786d846f4c0d","ios":"levelo://app?vid=2ce420f7-8d92-4b24-bd16-786d846f4c0d"},"vehicle_type_id":"4","last_reported":1769711436,"current_range_meters":4000,"station_id":"st_d3nk18o9ro0c73en2l3g","pricing_plan_id":"cebpf4jnsgd1na2vs0mg"},{"bike_id":"d1bb4cba-cd88-4d47-97f0-3f4bc8c8c8b2","system_id":"levelo_inurba_marseille","lat":43.311694,"lon":5.387144,"is_reserved":false,"is_disabled":false,"rental_uris":{"android":"levelo://app?vid=d1bb4cba-cd88-4d47-97f0-3f4bc8c8c8b2","ios":"levelo://app?vid=d1bb4cba-cd88-4d47-97f0-3f4bc8c8c8b2"},"vehicle_type_id":"4","last_reported":1769711436,"current_range_meters":4000,"station_id":"ce4bgv12rcd13ifvqcp0","pricing_plan_id":"cebpf4jnsgd1na2vs0mg"},{"bike_id":"cec66a05-26cf-4271-b39f-d60a468d3a29","system_id":"levelo_inurba_marseille","lat":43.26196,"lon":5.374441,"is_reserved":false,"is_disabled":false,"rental_uris":{"android":"levelo://app?vid=cec66a05-26cf-4271-b39f-d60a468d3a29","ios":"levelo://app?vid=cec66a05-26cf-4271-b39f-d60a468d3a29"},"vehicle_type_id":"4","last_reported":1769711436,"current_range_meters":4000,"station_id":"ce4bhgp2rcd13ifvqfc0","pricing_plan_id":"cebpf4jnsgd1na2vs0mg"},{"bike_id":"6b33ebd1-5cc1-4ef0-96e0-720b07390a3c","system_id":"levelo_inurba_marseille","lat":43.2647,"lon":5.39585,"is_reserved":false,"is_disabled":false,"rental_uris":{"android":"levelo://app?vid=6b33ebd1-5cc1-4ef0-96e0-720b07390a3c","ios":"levelo://app?vid=6b33ebd1-5cc1-4ef0-96e0-720b07390a3c"},"vehicle_type_id":"4","last_reported":1769711436,"current_range_meters":4000,"station_id":"ce4bhi12rcd13ifvqfq0","pricing_plan_id":"cebpf4jnsgd1na2vs0mg"},{"bike_id":"ec92a3d7-0aaf-40cf-9513-2fb7d35cc0c4","system_id":"levelo_inurba_marseille","lat":43.23071,"lon":5.35479,"is_reserved":false,"is_disabled":false,"rental_uris":{"android":"levelo://app?vid=ec92a3d7-0aaf-40cf-9513-2fb7d35cc0c4","ios":"levelo://app?vid=ec92a3d7-0aaf-40cf-9513-2fb7d35cc0c4"},"vehicle_type_id":"4","last_reported":1769711436,"current_range_meters":4000,"station_id":"cpo3342slgdg3j2ifvpg","pricing_plan_id":"cebpf4jnsgd1na2vs0mg"},{"bike_id":"0225edb2-6b0e-4bc8-b8a6-8bb433a68b4c","system_id":"levelo_inurba_marseille","lat":43.30584,"lon":5.39352,"is_reserved":false,"is_disabled":false,"rental_uris":{"android":"levelo://app?vid=0225edb2-6b0e-4bc8-b8a6-8bb433a68b4c","ios":"levelo://app?vid=0225edb2-6b0e-4bc8-b8a6-8bb433a68b4c"},"vehicle_type_id":"4","last_reported":1769711436,"current_range_meters":4000,"station_id":"ce4bh0p2rcd13ifvqd80","pricing_plan_id":"cebpf4jnsgd1na2vs0mg"},{"bike_id":"5be96657-0170-405d-bb30-28ce4d1a3e7b","system_id":"levelo_inurba_marseille","lat":43.290946,"lon":5.381196,"is_reserved":false,"is_disabled":false,"rental_uris":{"android":"levelo://app?vid=5be96657-0170-405d-bb30-28ce4d1a3e7b","ios":"levelo://app?vid=5be96657-0170-405d-bb30-28ce4d1a3e7b"},"vehicle_type_id":"4","last_reported":1769711436,"current_range_meters":4000,"station_id":"ce4bh512rcd13ifvqe2g","pricing_plan_id":"cebpf4jnsgd1na2vs0mg"},{"bike_id":"9a10a87e-9b3d-45d8-b247-8a6e348bb8d8","system_id":"levelo_inurba_marseille","lat":43.27957,"lon":5.38728,"is_reserved":false,"is_disabled":false,"rental_uris":{"android":"levelo://app?vid=9a10a87e-9b3d-45d8-b247-8a6e348bb8d8","ios":"levelo://app?vid=9a10a87e-9b3d-45d8-b247-8a6e348bb8d8"},"vehicle_type_id":"4","last_reported":1769711436,"current_range_meters":4000,"station_id":"ce4bhg12rcd13ifvqf80","pricing_plan_id":"cebpf4jnsgd1na2vs0mg"},{"bike_id":"16eec0d8-2b78-4ef3-ba46-5e377e155cae","system_id":"levelo_inurba_marseille","lat":43.31202,"lon":5.38723,"is_reserved":false,"is_disabled":false,"rental_uris":{"android":"levelo://app?vid=16eec0d8-2b78-4ef3-ba46-5e377e155cae","ios":"levelo://app?vid=16eec0d8-2b78-4ef3-ba46-5e377e155cae"},"vehicle_type_id":"4","last_reported":1769711436,"current_range_meters":4400,"station_id":"ce4bgv12rcd13ifvqcp0","pricing_plan_id":"cebpf4jnsgd1na2vs0mg"},{"bike_id":"d42ad763-e15d-426a-b8bc-9ad7515ea616","system_id":"levelo_inurba_marseille","lat":43.26567,"lon":5.39014,"is_reserved":false,"is_disabled":false,"rental_uris":{"android":"levelo://app?vid=d42ad763-e15d-426a-b8bc-9ad7515ea616","ios":"levelo://app?vid=d42ad763-e15d-426a-b8bc-9ad7515ea616"},"vehicle_type_id":"4","last_reported":1769711436,"current_range_meters":4400,"station_id":"ce4bhe12rcd13ifvqf30","pricing_plan_id":"cebpf4jnsgd1na2vs0mg"},{"bike_id":"96ddcdc4-3d11-47dc-91b3-e1897ae67898","system_id":"levelo_inurba_marseille","lat":43.29548,"lon":5.4226,"is_reserved":false,"is_disabled":false,"rental_uris":{"android":"levelo://app?vid=96ddcdc4-3d11-47dc-91b3-e1897ae67898","ios":"levelo://app?vid=96ddcdc4-3d11-47dc-91b3-e1897ae67898"},"vehicle_type_id":"4","last_reported":1769711436,"current_range_meters":4400,"station_id":"ce4bhph2rcd13ifvqhdg","pricing_plan_id":"cebpf4jnsgd1na2vs0mg"},{"bike_id":"48ded1ef-76d8-41d5-a490-a59c52b17018","system_id":"levelo_inurba_marseille","lat":43.25333,"lon":5.4217,"is_reserved":false,"is_disabled":false,"rental_uris":{"android":"levelo://app?vid=48ded1ef-76d8-41d5-a490-a59c52b17018","ios":"levelo://app?vid=48ded1ef-76d8-41d5-a490-a59c52b17018"},"vehicle_type_id":"4","last_reported":1769711436,"current_range_meters":4400,"station_id":"st_d2m65c5bi1j21697t3ng","pricing_plan_id":"cebpf4jnsgd1na2vs0mg"},{"bike_id":"350d8549-25ef-4c71-891b-9d60caaf436b","system_id":"levelo_inurba_marseille","lat":43.3095,"lon":5.39036,"is_reserved":false,"is_disabled":false,"rental_uris":{"android":"levelo://app?vid=350d8549-25ef-4c71-891b-9d60caaf436b","ios":"levelo://app?vid=350d8549-25ef-4c71-891b-9d60caaf436b"},"vehicle_type_id":"4","last_reported":1769711436,"current_range_meters":4400,"station_id":"ce4bgup2rcd13ifvqco0","pricing_plan_id":"cebpf4jnsgd1na2vs0mg"},{"bike_id":"f53a14c2-fb77-4702-8ad0-af16e687a319","system_id":"levelo_inurba_marseille","lat":43.2549,"lon":5.37644,"is_reserved":false,"is_disabled":false,"rental_uris":{"android":"levelo://app?vid=f53a14c2-fb77-4702-8ad0-af16e687a319","ios":"levelo://app?vid=f53a14c2-fb77-4702-8ad0-af16e687a319"},"vehicle_type_id":"4","last_reported":1769711436,"current_range_meters":4400,"station_id":"ce4bhh12rcd13ifvqff0","pricing_plan_id":"cebpf4jnsgd1na2vs0mg"},{"bike_id":"f3bd8a5e-97e2-4407-9f95-a1de14d307b9","system_id":"levelo_inurba_marseille","lat":43.30954,"lon":5.39032,"is_reserved":false,"is_disabled":false,"rental_uris":{"android":"levelo://app?vid=f3bd8a5e-97e2-4407-9f95-a1de14d307b9","ios":"levelo://app?vid=f3bd8a5e-97e2-4407-9f95-a1de14d307b9"},"vehicle_type_id":"4","last_reported":1769711436,"current_range_meters":4400,"station_id":"ce4bgup2rcd13ifvqco0","pricing_plan_id":"cebpf4jnsgd1na2vs0mg"},{"bike_id":"465c0a07-9b2c-463d-a28f-fb29e821c731","system_id":"levelo_inurba_marseille","lat":43.30282,"lon":5.38634,"is_reserved":false,"is_disabled":false,"rental_uris":{"android":"levelo://app?vid=465c0a07-9b2c-463d-a28f-fb29e821c731","ios":"levelo://app?vid=465c0a07-9b2c-463d-a28f-fb29e821c731"},"vehicle_type_id":"4","last_reported":1769711436,"current_range_meters":4400,"station_id":"","pricing_plan_id":"cebpf4jnsgd1na2vs0mg"},{"bike_id":"038092a1-47ed-4c70-8f90-736a432e37ad","system_id":"levelo_inurba_marseille","lat":43.31182,"lon":5.3872,"is_reserved":false,"is_disabled":false,"rental_uris":{"android":"levelo://app?vid=038092a1-47ed-4c70-8f90-736a432e37ad","ios":"levelo://app?vid=038092a1-47ed-4c70-8f90-736a432e37ad"},"vehicle_type_id":"4","last_reported":1769711436,"current_range_meters":4400,"station_id":"ce4bgv12rcd13ifvqcp0","pricing_plan_id":"cebpf4jnsgd1na2vs0mg"},{"bike_id":"19c88f75-37e9-46db-a2b1-7ace3a68c724","system_id":"levelo_inurba_marseille","lat":43.29541,"lon":5.38534,"is_reserved":false,"is_disabled":false,"rental_uris":{"android":"levelo://app?vid=19c88f75-37e9-46db-a2b1-7ace3a68c724","ios":"levelo://app?vid=19c88f75-37e9-46db-a2b1-7ace3a68c724"},"vehicle_type_id":"4","last_reported":1769711436,"current_range_meters":4400,"station_id":"ce4bgih2rcd13ifvqba0","pricing_plan_id":"cebpf4jnsgd1na2vs0mg"},{"bike_id":"b3739ae3-b277-4d99-8f04-0c02824e7530","system_id":"levelo_inurba_marseille","lat":43.33227,"lon":5.38987,"is_reserved":false,"is_disabled":false,"rental_uris":{"android":"levelo://app?vid=b3739ae3-b277-4d99-8f04-0c02824e7530","ios":"levelo://app?vid=b3739ae3-b277-4d99-8f04-0c02824e7530"},"vehicle_type_id":"4","last_reported":1769711436,"current_range_meters":4800,"station_id":"","pricing_plan_id":"cebpf4jnsgd1na2vs0mg"},{"bike_id":"60ebce89-9b49-41d8-b1d5-1fdb022bac99","system_id":"levelo_inurba_marseille","lat":43.33736,"lon":5.37461,"is_reserved":false,"is_disabled":false,"rental_uris":{"android":"levelo://app?vid=60ebce89-9b49-41d8-b1d5-1fdb022bac99","ios":"levelo://app?vid=60ebce89-9b49-41d8-b1d5-1fdb022bac99"},"vehicle_type_id":"4","last_reported":1769711436,"current_range_meters":4800,"station_id":"","pricing_plan_id":"cebpf4jnsgd1na2vs0mg"},{"bike_id":"a998b06b-7b64-4d9e-b9f6-de1e5c16a314","system_id":"levelo_inurba_marseille","lat":43.290054,"lon":5.381385,"is_reserved":false,"is_disabled":false,"rental_uris":{"android":"levelo://app?vid=a998b06b-7b64-4d9e-b9f6-de1e5c16a314","ios":"levelo://app?vid=a998b06b-7b64-4d9e-b9f6-de1e5c16a314"},"vehicle_type_id":"4","last_reported":1769711436,"current_range_meters":4800,"station_id":"ce4bh4p2rcd13ifvqe1g","pricing_plan_id":"cebpf4jnsgd1na2vs0mg"},{"bike_id":"f369c398-428a-4dc0-9af7-0866da5a3508","system_id":"levelo_inurba_marseille","lat":43.28496,"lon":5.38414,"is_reserved":false,"is_disabled":false,"rental_uris":{"android":"levelo://app?vid=f369c398-428a-4dc0-9af7-0866da5a3508","ios":"levelo://app?vid=f369c398-428a-4dc0-9af7-0866da5a3508"},"vehicle_type_id":"4","last_reported":1769711436,"current_range_meters":4800,"station_id":"ce4bh512rcd13ifvqe3g","pricing_plan_id":"cebpf4jnsgd1na2vs0mg"},{"bike_id":"a2d58316-94c7-4b14-9994-58244e4edb4d","system_id":"levelo_inurba_marseille","lat":43.2621,"lon":5.37432,"is_reserved":false,"is_disabled":false,"rental_uris":{"android":"levelo://app?vid=a2d58316-94c7-4b14-9994-58244e4edb4d","ios":"levelo://app?vid=a2d58316-94c7-4b14-9994-58244e4edb4d"},"vehicle_type_id":"4","last_reported":1769711436,"current_range_meters":4800,"station_id":"ce4bhgp2rcd13ifvqfc0","pricing_plan_id":"cebpf4jnsgd1na2vs0mg"},{"bike_id":"f2e56fcd-53d1-4906-836f-9a276c836675","system_id":"levelo_inurba_marseille","lat":43.260599,"lon":5.393951,"is_reserved":false,"is_disabled":false,"rental_uris":{"android":"levelo://app?vid=f2e56fcd-53d1-4906-836f-9a276c836675","ios":"levelo://app?vid=f2e56fcd-53d1-4906-836f-9a276c836675"},"vehicle_type_id":"4","last_reported":1769711436,"current_range_meters":4800,"station_id":"ce4bhh92rcd13ifvqfj0","pricing_plan_id":"cebpf4jnsgd1na2vs0mg"},{"bike_id":"dc0c84ac-70f9-4fab-a084-94fe6ce6205e","system_id":"levelo_inurba_marseille","lat":43.3095,"lon":5.39029,"is_reserved":false,"is_disabled":false,"rental_uris":{"android":"levelo://app?vid=dc0c84ac-70f9-4fab-a084-94fe6ce6205e","ios":"levelo://app?vid=dc0c84ac-70f9-4fab-a084-94fe6ce6205e"},"vehicle_type_id":"4","last_reported":1769711436,"current_range_meters":4800,"station_id":"ce4bgup2rcd13ifvqco0","pricing_plan_id":"cebpf4jnsgd1na2vs0mg"},{"bike_id":"b96775b7-8954-4f94-990f-968813344c58","system_id":"levelo_inurba_marseille","lat":43.31287,"lon":5.37777,"is_reserved":false,"is_disabled":false,"rental_uris":{"android":"levelo://app?vid=b96775b7-8954-4f94-990f-968813344c58","ios":"levelo://app?vid=b96775b7-8954-4f94-990f-968813344c58"},"vehicle_type_id":"4","last_reported":1769711436,"current_range_meters":4800,"station_id":"","pricing_plan_id":"cebpf4jnsgd1na2vs0mg"},{"bike_id":"83d96df5-081e-43ee-952b-92a2b06f6540","system_id":"levelo_inurba_marseille","lat":43.24438,"lon":5.37974,"is_reserved":false,"is_disabled":false,"rental_uris":{"android":"levelo://app?vid=83d96df5-081e-43ee-952b-92a2b06f6540","ios":"levelo://app?vid=83d96df5-081e-43ee-952b-92a2b06f6540"},"vehicle_type_id":"4","last_reported":1769711436,"current_range_meters":4800,"station_id":"","pricing_plan_id":"cebpf4jnsgd1na2vs0mg"},{"bike_id":"911da18d-f79b-4556-8035-4b76914f5ffd","system_id":"levelo_inurba_marseille","lat":43.28467,"lon":5.38387,"is_reserved":false,"is_disabled":false,"rental_uris":{"android":"levelo://app?vid=911da18d-f79b-4556-8035-4b76914f5ffd","ios":"levelo://app?vid=911da18d-f79b-4556-8035-4b76914f5ffd"},"vehicle_type_id":"4","last_reported":1769711436,"current_range_meters":5600,"station_id":"ce4bh512rcd13ifvqe3g","pricing_plan_id":"cebpf4jnsgd1na2vs0mg"},{"bike_id":"2b8cc8f8-926c-4671-973f-0ea564141d8e","system_id":"levelo_inurba_marseille","lat":43.31492,"lon":5.373,"is_reserved":false,"is_disabled":true,"rental_uris":{"android":"levelo://app?vid=2b8cc8f8-926c-4671-973f-0ea564141d8e","ios":"levelo://app?vid=2b8cc8f8-926c-4671-973f-0ea564141d8e"},"vehicle_type_id":"4","last_reported":1769711436,"current_range_meters":5600,"station_id":"ce4bgt12rcd13ifvqcd0","pricing_plan_id":"cebpf4jnsgd1na2vs0mg"},{"bike_id":"487d1cf6-675e-4dca-994f-7d1a67bdbeb2","system_id":"levelo_inurba_marseille","lat":43.29911,"lon":5.3813,"is_reserved":false,"is_disabled":false,"rental_uris":{"android":"levelo://app?vid=487d1cf6-675e-4dca-994f-7d1a67bdbeb2","ios":"levelo://app?vid=487d1cf6-675e-4dca-994f-7d1a67bdbeb2"},"vehicle_type_id":"4","last_reported":1769711436,"current_range_meters":5600,"station_id":"ce4bgj12rcd13ifvqbc0","pricing_plan_id":"cebpf4jnsgd1na2vs0mg"},{"bike_id":"31b1e6f3-e74b-4270-8c82-f84858d54b16","system_id":"levelo_inurba_marseille","lat":43.270874,"lon":5.388456,"is_reserved":false,"is_disabled":false,"rental_uris":{"android":"levelo://app?vid=31b1e6f3-e74b-4270-8c82-f84858d54b16","ios":"levelo://app?vid=31b1e6f3-e74b-4270-8c82-f84858d54b16"},"vehicle_type_id":"4","last_reported":1769711436,"current_range_meters":5600,"station_id":"ce4bhh92rcd13ifvqfh0","pricing_plan_id":"cebpf4jnsgd1na2vs0mg"},{"bike_id":"ca8aa705-78fb-4dba-a3eb-862afc625597","system_id":"levelo_inurba_marseille","lat":43.28866,"lon":5.42514,"is_reserved":false,"is_disabled":false,"rental_uris":{"android":"levelo://app?vid=ca8aa705-78fb-4dba-a3eb-862afc625597","ios":"levelo://app?vid=ca8aa705-78fb-4dba-a3eb-862afc625597"},"vehicle_type_id":"4","last_reported":1769711436,"current_range_meters":5600,"station_id":"st_d3b462108ojc7389ooeg","pricing_plan_id":"cebpf4jnsgd1na2vs0mg"},{"bike_id":"3dfd43a9-22e0-4a6b-b358-b96e1598c01a","system_id":"levelo_inurba_marseille","lat":43.28669,"lon":5.386598,"is_reserved":false,"is_disabled":false,"rental_uris":{"android":"levelo://app?vid=3dfd43a9-22e0-4a6b-b358-b96e1598c01a","ios":"levelo://app?vid=3dfd43a9-22e0-4a6b-b358-b96e1598c01a"},"vehicle_type_id":"4","last_reported":1769711436,"current_range_meters":5600,"station_id":"","pricing_plan_id":"cebpf4jnsgd1na2vs0mg"},{"bike_id":"2df2670b-f535-4e70-8cab-f36e740466dc","system_id":"levelo_inurba_marseille","lat":43.28881,"lon":5.42505,"is_reserved":false,"is_disabled":false,"rental_uris":{"android":"levelo://app?vid=2df2670b-f535-4e70-8cab-f36e740466dc","ios":"levelo://app?vid=2df2670b-f535-4e70-8cab-f36e740466dc"},"vehicle_type_id":"4","last_reported":1769711436,"current_range_meters":5600,"station_id":"st_d3b462108ojc7389ooeg","pricing_plan_id":"cebpf4jnsgd1na2vs0mg"},{"bike_id":"5c329496-a302-4a24-b572-2d0f0057ae2e","system_id":"levelo_inurba_marseille","lat":43.331623,"lon":5.37687,"is_reserved":false,"is_disabled":false,"rental_uris":{"android":"levelo://app?vid=5c329496-a302-4a24-b572-2d0f0057ae2e","ios":"levelo://app?vid=5c329496-a302-4a24-b572-2d0f0057ae2e"},"vehicle_type_id":"4","last_reported":1769711436,"current_range_meters":5600,"station_id":"st_d46cu089ee8s73dldbu0","pricing_plan_id":"cebpf4jnsgd1na2vs0mg"},{"bike_id":"3ccee4a4-a5bc-4ac1-9bdc-3455c28961e8","system_id":"levelo_inurba_marseille","lat":43.24842,"lon":5.37434,"is_reserved":false,"is_disabled":false,"rental_uris":{"android":"levelo://app?vid=3ccee4a4-a5bc-4ac1-9bdc-3455c28961e8","ios":"levelo://app?vid=3ccee4a4-a5bc-4ac1-9bdc-3455c28961e8"},"vehicle_type_id":"4","last_reported":1769711436,"current_range_meters":5600,"station_id":"","pricing_plan_id":"cebpf4jnsgd1na2vs0mg"},{"bike_id":"802f6e05-7249-407a-aac4-32d2041628b8","system_id":"levelo_inurba_marseille","lat":43.230523,"lon":5.354906,"is_reserved":false,"is_disabled":false,"rental_uris":{"android":"levelo://app?vid=802f6e05-7249-407a-aac4-32d2041628b8","ios":"levelo://app?vid=802f6e05-7249-407a-aac4-32d2041628b8"},"vehicle_type_id":"4","last_reported":1769711436,"current_range_meters":5600,"station_id":"cpo3342slgdg3j2ifvpg","pricing_plan_id":"cebpf4jnsgd1na2vs0mg"},{"bike_id":"18a247f3-bd2c-4db3-9633-5a19a43b9262","system_id":"levelo_inurba_marseille","lat":43.297058,"lon":5.366057,"is_reserved":false,"is_disabled":false,"rental_uris":{"android":"levelo://app?vid=18a247f3-bd2c-4db3-9633-5a19a43b9262","ios":"levelo://app?vid=18a247f3-bd2c-4db3-9633-5a19a43b9262"},"vehicle_type_id":"4","last_reported":1769711436,"current_range_meters":5600,"station_id":"ce4bgn12rcd13ifvqbt0","pricing_plan_id":"cebpf4jnsgd1na2vs0mg"},{"bike_id":"54de1d79-efb9-467a-93d4-372f11d2e5f2","system_id":"levelo_inurba_marseille","lat":43.290041,"lon":5.356145,"is_reserved":false,"is_disabled":false,"rental_uris":{"android":"levelo://app?vid=54de1d79-efb9-467a-93d4-372f11d2e5f2","ios":"levelo://app?vid=54de1d79-efb9-467a-93d4-372f11d2e5f2"},"vehicle_type_id":"4","last_reported":1769711436,"current_range_meters":5600,"station_id":"ce4bhb92rcd13ifvqen0","pricing_plan_id":"cebpf4jnsgd1na2vs0mg"},{"bike_id":"ca9a7992-5b6f-4852-bb2b-546c1d706bf6","system_id":"levelo_inurba_marseille","lat":43.29034,"lon":5.37558,"is_reserved":false,"is_disabled":false,"rental_uris":{"android":"levelo://app?vid=ca9a7992-5b6f-4852-bb2b-546c1d706bf6","ios":"levelo://app?vid=ca9a7992-5b6f-4852-bb2b-546c1d706bf6"},"vehicle_type_id":"4","last_reported":1769711436,"current_range_meters":5600,"station_id":"ce4bh692rcd13ifvqe90","pricing_plan_id":"cebpf4jnsgd1na2vs0mg"},{"bike_id":"7a916c25-b146-4966-a8f8-dc0f49b09e07","system_id":"levelo_inurba_marseille","lat":43.26565,"lon":5.40319,"is_reserved":false,"is_disabled":false,"rental_uris":{"android":"levelo://app?vid=7a916c25-b146-4966-a8f8-dc0f49b09e07","ios":"levelo://app?vid=7a916c25-b146-4966-a8f8-dc0f49b09e07"},"vehicle_type_id":"4","last_reported":1769711436,"current_range_meters":5600,"station_id":"ce4bhmp2rcd13ifvqgng","pricing_plan_id":"cebpf4jnsgd1na2vs0mg"},{"bike_id":"d964183d-bd54-4171-af54-4b7dbb26681f","system_id":"levelo_inurba_marseille","lat":43.30132,"lon":5.39875,"is_reserved":false,"is_disabled":false,"rental_uris":{"android":"levelo://app?vid=d964183d-bd54-4171-af54-4b7dbb26681f","ios":"levelo://app?vid=d964183d-bd54-4171-af54-4b7dbb26681f"},"vehicle_type_id":"4","last_reported":1769711436,"current_range_meters":5600,"station_id":"ce4bh0h2rcd13ifvqd40","pricing_plan_id":"cebpf4jnsgd1na2vs0mg"},{"bike_id":"a5318650-99e6-4d2b-9cfb-e21f9ac73729","system_id":"levelo_inurba_marseille","lat":43.28483,"lon":5.38411,"is_reserved":false,"is_disabled":false,"rental_uris":{"android":"levelo://app?vid=a5318650-99e6-4d2b-9cfb-e21f9ac73729","ios":"levelo://app?vid=a5318650-99e6-4d2b-9cfb-e21f9ac73729"},"vehicle_type_id":"4","last_reported":1769711436,"current_range_meters":5600,"station_id":"ce4bh512rcd13ifvqe3g","pricing_plan_id":"cebpf4jnsgd1na2vs0mg"},{"bike_id":"6a4ce787-3ab6-4ff8-ace6-1da1d70c1828","system_id":"levelo_inurba_marseille","lat":43.24809,"lon":5.37448,"is_reserved":false,"is_disabled":false,"rental_uris":{"android":"levelo://app?vid=6a4ce787-3ab6-4ff8-ace6-1da1d70c1828","ios":"levelo://app?vid=6a4ce787-3ab6-4ff8-ace6-1da1d70c1828"},"vehicle_type_id":"4","last_reported":1769711436,"current_range_meters":5600,"station_id":"ce4bhgh2rcd13ifvqfb0","pricing_plan_id":"cebpf4jnsgd1na2vs0mg"},{"bike_id":"173ab4de-d4ca-4cdb-a11e-273ba50d301a","system_id":"levelo_inurba_marseille","lat":43.26826,"lon":5.42763,"is_reserved":false,"is_disabled":false,"rental_uris":{"android":"levelo://app?vid=173ab4de-d4ca-4cdb-a11e-273ba50d301a","ios":"levelo://app?vid=173ab4de-d4ca-4cdb-a11e-273ba50d301a"},"vehicle_type_id":"4","last_reported":1769711436,"current_range_meters":6000,"station_id":"","pricing_plan_id":"cebpf4jnsgd1na2vs0mg"},{"bike_id":"e44d6c0d-4cdc-487c-87b1-e5cf7cd1bdd8","system_id":"levelo_inurba_marseille","lat":43.27693,"lon":5.38868,"is_reserved":false,"is_disabled":false,"rental_uris":{"android":"levelo://app?vid=e44d6c0d-4cdc-487c-87b1-e5cf7cd1bdd8","ios":"levelo://app?vid=e44d6c0d-4cdc-487c-87b1-e5cf7cd1bdd8"},"vehicle_type_id":"4","last_reported":1769711436,"current_range_meters":6000,"station_id":"ce4bhi12rcd13ifvqfo0","pricing_plan_id":"cebpf4jnsgd1na2vs0mg"},{"bike_id":"efd0763b-d020-4c70-9165-145930d9d145","system_id":"levelo_inurba_marseille","lat":43.29097,"lon":5.38144,"is_reserved":false,"is_disabled":false,"rental_uris":{"android":"levelo://app?vid=efd0763b-d020-4c70-9165-145930d9d145","ios":"levelo://app?vid=efd0763b-d020-4c70-9165-145930d9d145"},"vehicle_type_id":"4","last_reported":1769711436,"current_range_meters":6000,"station_id":"ce4bh512rcd13ifvqe2g","pricing_plan_id":"cebpf4jnsgd1na2vs0mg"},{"bike_id":"3d405854-a3e9-4cc4-bcac-5ce2eff49e57","system_id":"levelo_inurba_marseille","lat":43.23198,"lon":5.39964,"is_reserved":false,"is_disabled":false,"rental_uris":{"android":"levelo://app?vid=3d405854-a3e9-4cc4-bcac-5ce2eff49e57","ios":"levelo://app?vid=3d405854-a3e9-4cc4-bcac-5ce2eff49e57"},"vehicle_type_id":"4","last_reported":1769711436,"current_range_meters":6000,"station_id":"ce4bhn12rcd13ifvqgqg","pricing_plan_id":"cebpf4jnsgd1na2vs0mg"},{"bike_id":"45e00474-1f6a-4925-9453-b94a58effc1b","system_id":"levelo_inurba_marseille","lat":43.29197,"lon":5.39319,"is_reserved":false,"is_disabled":false,"rental_uris":{"android":"levelo://app?vid=45e00474-1f6a-4925-9453-b94a58effc1b","ios":"levelo://app?vid=45e00474-1f6a-4925-9453-b94a58effc1b"},"vehicle_type_id":"4","last_reported":1769711436,"current_range_meters":6000,"station_id":"ce4bh192rcd13ifvqdd0","pricing_plan_id":"cebpf4jnsgd1na2vs0mg"},{"bike_id":"1dea35de-1edb-4ac2-b6a0-e37b0dd36c6d","system_id":"levelo_inurba_marseille","lat":43.290451,"lon":5.359089,"is_reserved":false,"is_disabled":false,"rental_uris":{"android":"levelo://app?vid=1dea35de-1edb-4ac2-b6a0-e37b0dd36c6d","ios":"levelo://app?vid=1dea35de-1edb-4ac2-b6a0-e37b0dd36c6d"},"vehicle_type_id":"4","last_reported":1769711436,"current_range_meters":6000,"station_id":"ce4bha92rcd13ifvqeg0","pricing_plan_id":"cebpf4jnsgd1na2vs0mg"},{"bike_id":"a1adbbcc-56be-41a6-a560-f4a5e4282b51","system_id":"levelo_inurba_marseille","lat":43.284171,"lon":5.349891,"is_reserved":false,"is_disabled":false,"rental_uris":{"android":"levelo://app?vid=a1adbbcc-56be-41a6-a560-f4a5e4282b51","ios":"levelo://app?vid=a1adbbcc-56be-41a6-a560-f4a5e4282b51"},"vehicle_type_id":"4","last_reported":1769711436,"current_range_meters":6000,"station_id":"ce4bhbh2rcd13ifvqepg","pricing_plan_id":"cebpf4jnsgd1na2vs0mg"},{"bike_id":"9cf332f9-41e8-44ae-aa15-1d9d379a94a2","system_id":"levelo_inurba_marseille","lat":43.286119,"lon":5.351007,"is_reserved":false,"is_disabled":false,"rental_uris":{"android":"levelo://app?vid=9cf332f9-41e8-44ae-aa15-1d9d379a94a2","ios":"levelo://app?vid=9cf332f9-41e8-44ae-aa15-1d9d379a94a2"},"vehicle_type_id":"4","last_reported":1769711436,"current_range_meters":6000,"station_id":"ce4bhch2rcd13ifvqeug","pricing_plan_id":"cebpf4jnsgd1na2vs0mg"},{"bike_id":"ac3b6a7c-3876-4fab-811b-f563830de22e","system_id":"levelo_inurba_marseille","lat":43.3133,"lon":5.39697,"is_reserved":false,"is_disabled":false,"rental_uris":{"android":"levelo://app?vid=ac3b6a7c-3876-4fab-811b-f563830de22e","ios":"levelo://app?vid=ac3b6a7c-3876-4fab-811b-f563830de22e"},"vehicle_type_id":"4","last_reported":1769711436,"current_range_meters":6000,"station_id":"ce4bgvp2rcd13ifvqcu0","pricing_plan_id":"cebpf4jnsgd1na2vs0mg"},{"bike_id":"353ef59e-79fd-4e27-87a5-d37a860789e8","system_id":"levelo_inurba_marseille","lat":43.31101,"lon":5.38454,"is_reserved":false,"is_disabled":false,"rental_uris":{"android":"levelo://app?vid=353ef59e-79fd-4e27-87a5-d37a860789e8","ios":"levelo://app?vid=353ef59e-79fd-4e27-87a5-d37a860789e8"},"vehicle_type_id":"4","last_reported":1769711436,"current_range_meters":6000,"station_id":"","pricing_plan_id":"cebpf4jnsgd1na2vs0mg"},{"bike_id":"ac605ac9-20fd-41ab-b16b-356ba124b9b7","system_id":"levelo_inurba_marseille","lat":43.27212,"lon":5.4278,"is_reserved":false,"is_disabled":false,"rental_uris":{"android":"levelo://app?vid=ac605ac9-20fd-41ab-b16b-356ba124b9b7","ios":"levelo://app?vid=ac605ac9-20fd-41ab-b16b-356ba124b9b7"},"vehicle_type_id":"4","last_reported":1769711436,"current_range_meters":6000,"station_id":"","pricing_plan_id":"cebpf4jnsgd1na2vs0mg"},{"bike_id":"c711d49e-77fc-4c42-abd9-aa043446a538","system_id":"levelo_inurba_marseille","lat":43.27675,"lon":5.38877,"is_reserved":false,"is_disabled":false,"rental_uris":{"android":"levelo://app?vid=c711d49e-77fc-4c42-abd9-aa043446a538","ios":"levelo://app?vid=c711d49e-77fc-4c42-abd9-aa043446a538"},"vehicle_type_id":"4","last_reported":1769711436,"current_range_meters":6000,"station_id":"ce4bhi12rcd13ifvqfo0","pricing_plan_id":"cebpf4jnsgd1na2vs0mg"},{"bike_id":"cef89498-fbf9-4ad5-afa6-46a5eea10249","system_id":"levelo_inurba_marseille","lat":43.27338,"lon":5.40973,"is_reserved":false,"is_disabled":false,"rental_uris":{"android":"levelo://app?vid=cef89498-fbf9-4ad5-afa6-46a5eea10249","ios":"levelo://app?vid=cef89498-fbf9-4ad5-afa6-46a5eea10249"},"vehicle_type_id":"4","last_reported":1769711436,"current_range_meters":6000,"station_id":"","pricing_plan_id":"cebpf4jnsgd1na2vs0mg"},{"bike_id":"cdd9264b-4e6b-4b82-a25d-239fd64a0b05","system_id":"levelo_inurba_marseille","lat":43.2867,"lon":5.36339,"is_reserved":false,"is_disabled":false,"rental_uris":{"android":"levelo://app?vid=cdd9264b-4e6b-4b82-a25d-239fd64a0b05","ios":"levelo://app?vid=cdd9264b-4e6b-4b82-a25d-239fd64a0b05"},"vehicle_type_id":"4","last_reported":1769711436,"current_range_meters":6000,"station_id":"ce4bhah2rcd13ifvqej0","pricing_plan_id":"cebpf4jnsgd1na2vs0mg"},{"bike_id":"90bd9b2b-1a92-48e3-8597-90139a8ef982","system_id":"levelo_inurba_marseille","lat":43.29525,"lon":5.39026,"is_reserved":false,"is_disabled":false,"rental_uris":{"android":"levelo://app?vid=90bd9b2b-1a92-48e3-8597-90139a8ef982","ios":"levelo://app?vid=90bd9b2b-1a92-48e3-8597-90139a8ef982"},"vehicle_type_id":"4","last_reported":1769711436,"current_range_meters":6000,"station_id":"ce4bh3p2rcd13ifvqdp0","pricing_plan_id":"cebpf4jnsgd1na2vs0mg"},{"bike_id":"516fda05-e731-4b31-aa86-33557f2705b7","system_id":"levelo_inurba_marseille","lat":43.30905,"lon":5.36852,"is_reserved":false,"is_disabled":false,"rental_uris":{"android":"levelo://app?vid=516fda05-e731-4b31-aa86-33557f2705b7","ios":"levelo://app?vid=516fda05-e731-4b31-aa86-33557f2705b7"},"vehicle_type_id":"4","last_reported":1769711436,"current_range_meters":6400,"station_id":"ce4bgn92rcd13ifvqbvg","pricing_plan_id":"cebpf4jnsgd1na2vs0mg"},{"bike_id":"e7585a2c-59db-41da-822e-8b48c63dc7aa","system_id":"levelo_inurba_marseille","lat":43.31891,"lon":5.40737,"is_reserved":false,"is_disabled":false,"rental_uris":{"android":"levelo://app?vid=e7585a2c-59db-41da-822e-8b48c63dc7aa","ios":"levelo://app?vid=e7585a2c-59db-41da-822e-8b48c63dc7aa"},"vehicle_type_id":"4","last_reported":1769711436,"current_range_meters":6400,"station_id":"ce4bhq12rcd13ifvqhig","pricing_plan_id":"cebpf4jnsgd1na2vs0mg"},{"bike_id":"a27d8c50-96b7-43a5-b572-9779b9feeede","system_id":"levelo_inurba_marseille","lat":43.23057,"lon":5.3549,"is_reserved":false,"is_disabled":false,"rental_uris":{"android":"levelo://app?vid=a27d8c50-96b7-43a5-b572-9779b9feeede","ios":"levelo://app?vid=a27d8c50-96b7-43a5-b572-9779b9feeede"},"vehicle_type_id":"4","last_reported":1769711436,"current_range_meters":6400,"station_id":"cpo3342slgdg3j2ifvpg","pricing_plan_id":"cebpf4jnsgd1na2vs0mg"},{"bike_id":"59d7c568-6724-480d-b1e6-ba1e4cc63559","system_id":"levelo_inurba_marseille","lat":43.29276,"lon":5.37161,"is_reserved":false,"is_disabled":false,"rental_uris":{"android":"levelo://app?vid=59d7c568-6724-480d-b1e6-ba1e4cc63559","ios":"levelo://app?vid=59d7c568-6724-480d-b1e6-ba1e4cc63559"},"vehicle_type_id":"4","last_reported":1769711436,"current_range_meters":6400,"station_id":"ce4bgh92rcd13ifvqb40","pricing_plan_id":"cebpf4jnsgd1na2vs0mg"},{"bike_id":"65eb5cb0-a6f7-4de3-a9be-a5e0a4386045","system_id":"levelo_inurba_marseille","lat":43.33185,"lon":5.37697,"is_reserved":false,"is_disabled":false,"rental_uris":{"android":"levelo://app?vid=65eb5cb0-a6f7-4de3-a9be-a5e0a4386045","ios":"levelo://app?vid=65eb5cb0-a6f7-4de3-a9be-a5e0a4386045"},"vehicle_type_id":"4","last_reported":1769711436,"current_range_meters":6400,"station_id":"st_d46cu089ee8s73dldbu0","pricing_plan_id":"cebpf4jnsgd1na2vs0mg"},{"bike_id":"8252e483-8cd2-4e1f-8159-245c555c915e","system_id":"levelo_inurba_marseille","lat":43.22939,"lon":5.35356,"is_reserved":false,"is_disabled":false,"rental_uris":{"android":"levelo://app?vid=8252e483-8cd2-4e1f-8159-245c555c915e","ios":"levelo://app?vid=8252e483-8cd2-4e1f-8159-245c555c915e"},"vehicle_type_id":"4","last_reported":1769711436,"current_range_meters":6400,"station_id":"cpo3532slgdg3j2ikp40","pricing_plan_id":"cebpf4jnsgd1na2vs0mg"},{"bike_id":"ded22f29-5dd0-44d1-8ff7-37a64ce4c31f","system_id":"levelo_inurba_marseille","lat":43.31368,"lon":5.38493,"is_reserved":false,"is_disabled":false,"rental_uris":{"android":"levelo://app?vid=ded22f29-5dd0-44d1-8ff7-37a64ce4c31f","ios":"levelo://app?vid=ded22f29-5dd0-44d1-8ff7-37a64ce4c31f"},"vehicle_type_id":"4","last_reported":1769711436,"current_range_meters":6400,"station_id":"ce4bgt92rcd13ifvqcf0","pricing_plan_id":"cebpf4jnsgd1na2vs0mg"},{"bike_id":"f7013bc3-1392-449d-8312-c31b9fd9f374","system_id":"levelo_inurba_marseille","lat":43.27068,"lon":5.38294,"is_reserved":false,"is_disabled":false,"rental_uris":{"android":"levelo://app?vid=f7013bc3-1392-449d-8312-c31b9fd9f374","ios":"levelo://app?vid=f7013bc3-1392-449d-8312-c31b9fd9f374"},"vehicle_type_id":"4","last_reported":1769711436,"current_range_meters":6400,"station_id":"st_d3n2fo6cfp8s73cte1j0","pricing_plan_id":"cebpf4jnsgd1na2vs0mg"},{"bike_id":"e236f0a6-2e87-48ed-94ce-e49f696f4842","system_id":"levelo_inurba_marseille","lat":43.266,"lon":5.37503,"is_reserved":false,"is_disabled":false,"rental_uris":{"android":"levelo://app?vid=e236f0a6-2e87-48ed-94ce-e49f696f4842","ios":"levelo://app?vid=e236f0a6-2e87-48ed-94ce-e49f696f4842"},"vehicle_type_id":"4","last_reported":1769711436,"current_range_meters":6400,"station_id":"","pricing_plan_id":"cebpf4jnsgd1na2vs0mg"},{"bike_id":"3d61244e-0dde-42a1-8efa-05e556593c38","system_id":"levelo_inurba_marseille","lat":43.22565,"lon":5.41624,"is_reserved":false,"is_disabled":false,"rental_uris":{"android":"levelo://app?vid=3d61244e-0dde-42a1-8efa-05e556593c38","ios":"levelo://app?vid=3d61244e-0dde-42a1-8efa-05e556593c38"},"vehicle_type_id":"4","last_reported":1769711436,"current_range_meters":6400,"station_id":"st_d2o4gvlbi1j2169b742g","pricing_plan_id":"cebpf4jnsgd1na2vs0mg"},{"bike_id":"8c50cc1b-6957-4db2-9b96-76d9d37bac03","system_id":"levelo_inurba_marseille","lat":43.22569,"lon":5.41615,"is_reserved":false,"is_disabled":false,"rental_uris":{"android":"levelo://app?vid=8c50cc1b-6957-4db2-9b96-76d9d37bac03","ios":"levelo://app?vid=8c50cc1b-6957-4db2-9b96-76d9d37bac03"},"vehicle_type_id":"4","last_reported":1769711436,"current_range_meters":6400,"station_id":"st_d2o4gvlbi1j2169b742g","pricing_plan_id":"cebpf4jnsgd1na2vs0mg"},{"bike_id":"f479a039-8033-47b9-816f-8d6e23143401","system_id":"levelo_inurba_marseille","lat":43.24805,"lon":5.37446,"is_reserved":false,"is_disabled":false,"rental_uris":{"android":"levelo://app?vid=f479a039-8033-47b9-816f-8d6e23143401","ios":"levelo://app?vid=f479a039-8033-47b9-816f-8d6e23143401"},"vehicle_type_id":"4","last_reported":1769711436,"current_range_meters":6400,"station_id":"ce4bhgh2rcd13ifvqfb0","pricing_plan_id":"cebpf4jnsgd1na2vs0mg"},{"bike_id":"51e33b43-0b63-43c6-8dbf-365699605da8","system_id":"levelo_inurba_marseille","lat":43.26972,"lon":5.39834,"is_reserved":false,"is_disabled":false,"rental_uris":{"android":"levelo://app?vid=51e33b43-0b63-43c6-8dbf-365699605da8","ios":"levelo://app?vid=51e33b43-0b63-43c6-8dbf-365699605da8"},"vehicle_type_id":"4","last_reported":1769711436,"current_range_meters":6400,"station_id":"","pricing_plan_id":"cebpf4jnsgd1na2vs0mg"},{"bike_id":"31c14499-86de-46e6-a67f-a12efc2510dc","system_id":"levelo_inurba_marseille","lat":43.23176,"lon":5.43664,"is_reserved":false,"is_disabled":false,"rental_uris":{"android":"levelo://app?vid=31c14499-86de-46e6-a67f-a12efc2510dc","ios":"levelo://app?vid=31c14499-86de-46e6-a67f-a12efc2510dc"},"vehicle_type_id":"4","last_reported":1769711436,"current_range_meters":6400,"station_id":"ce4bhmp2rcd13ifvqgog","pricing_plan_id":"cebpf4jnsgd1na2vs0mg"},{"bike_id":"0d6f38df-d443-4efb-872d-bd700f8faf53","system_id":"levelo_inurba_marseille","lat":43.26554,"lon":5.38995,"is_reserved":false,"is_disabled":false,"rental_uris":{"android":"levelo://app?vid=0d6f38df-d443-4efb-872d-bd700f8faf53","ios":"levelo://app?vid=0d6f38df-d443-4efb-872d-bd700f8faf53"},"vehicle_type_id":"4","last_reported":1769711436,"current_range_meters":6400,"station_id":"ce4bhe12rcd13ifvqf30","pricing_plan_id":"cebpf4jnsgd1na2vs0mg"},{"bike_id":"3cb7804a-857c-4d32-a947-9e276c77c288","system_id":"levelo_inurba_marseille","lat":43.25492,"lon":5.37645,"is_reserved":false,"is_disabled":false,"rental_uris":{"android":"levelo://app?vid=3cb7804a-857c-4d32-a947-9e276c77c288","ios":"levelo://app?vid=3cb7804a-857c-4d32-a947-9e276c77c288"},"vehicle_type_id":"4","last_reported":1769711436,"current_range_meters":6400,"station_id":"ce4bhh12rcd13ifvqff0","pricing_plan_id":"cebpf4jnsgd1na2vs0mg"},{"bike_id":"706fe81a-bdb2-42d8-b800-5c8160b7054c","system_id":"levelo_inurba_marseille","lat":43.2534,"lon":5.42165,"is_reserved":false,"is_disabled":false,"rental_uris":{"android":"levelo://app?vid=706fe81a-bdb2-42d8-b800-5c8160b7054c","ios":"levelo://app?vid=706fe81a-bdb2-42d8-b800-5c8160b7054c"},"vehicle_type_id":"4","last_reported":1769711436,"current_range_meters":6400,"station_id":"st_d2m65c5bi1j21697t3ng","pricing_plan_id":"cebpf4jnsgd1na2vs0mg"},{"bike_id":"626f2e49-da66-4aca-b419-36ccc5e515c3","system_id":"levelo_inurba_marseille","lat":43.24629,"lon":5.43169,"is_reserved":false,"is_disabled":false,"rental_uris":{"android":"levelo://app?vid=626f2e49-da66-4aca-b419-36ccc5e515c3","ios":"levelo://app?vid=626f2e49-da66-4aca-b419-36ccc5e515c3"},"vehicle_type_id":"4","last_reported":1769711436,"current_range_meters":6400,"station_id":"st_d2m6c4gdas8pm72e190g","pricing_plan_id":"cebpf4jnsgd1na2vs0mg"},{"bike_id":"517ff927-4e4c-45a3-9e2b-c23d77bb71ea","system_id":"levelo_inurba_marseille","lat":43.30413,"lon":5.38897,"is_reserved":false,"is_disabled":false,"rental_uris":{"android":"levelo://app?vid=517ff927-4e4c-45a3-9e2b-c23d77bb71ea","ios":"levelo://app?vid=517ff927-4e4c-45a3-9e2b-c23d77bb71ea"},"vehicle_type_id":"4","last_reported":1769711436,"current_range_meters":6400,"station_id":"ce4bgk12rcd13ifvqbi0","pricing_plan_id":"cebpf4jnsgd1na2vs0mg"},{"bike_id":"84afd68b-137d-4ebe-92f1-bf09e9f522df","system_id":"levelo_inurba_marseille","lat":43.258658,"lon":5.398886,"is_reserved":false,"is_disabled":false,"rental_uris":{"android":"levelo://app?vid=84afd68b-137d-4ebe-92f1-bf09e9f522df","ios":"levelo://app?vid=84afd68b-137d-4ebe-92f1-bf09e9f522df"},"vehicle_type_id":"4","last_reported":1769711436,"current_range_meters":6400,"station_id":"ce4bhl92rcd13ifvqghg","pricing_plan_id":"cebpf4jnsgd1na2vs0mg"},{"bike_id":"83af030c-c281-4557-96b2-f154db28389a","system_id":"levelo_inurba_marseille","lat":43.255774,"lon":5.382142,"is_reserved":false,"is_disabled":false,"rental_uris":{"android":"levelo://app?vid=83af030c-c281-4557-96b2-f154db28389a","ios":"levelo://app?vid=83af030c-c281-4557-96b2-f154db28389a"},"vehicle_type_id":"4","last_reported":1769711436,"current_range_meters":6400,"station_id":"ce4bhih2rcd13ifvqfs0","pricing_plan_id":"cebpf4jnsgd1na2vs0mg"},{"bike_id":"c0f7a03c-8726-4f7e-9366-f28d8e2588b3","system_id":"levelo_inurba_marseille","lat":43.30603,"lon":5.36522,"is_reserved":false,"is_disabled":false,"rental_uris":{"android":"levelo://app?vid=c0f7a03c-8726-4f7e-9366-f28d8e2588b3","ios":"levelo://app?vid=c0f7a03c-8726-4f7e-9366-f28d8e2588b3"},"vehicle_type_id":"4","last_reported":1769711436,"current_range_meters":6800,"station_id":"","pricing_plan_id":"cebpf4jnsgd1na2vs0mg"},{"bike_id":"932bb106-3c96-4dbf-947d-0b48571ad9e2","system_id":"levelo_inurba_marseille","lat":43.27366,"lon":5.36263,"is_reserved":false,"is_disabled":false,"rental_uris":{"android":"levelo://app?vid=932bb106-3c96-4dbf-947d-0b48571ad9e2","ios":"levelo://app?vid=932bb106-3c96-4dbf-947d-0b48571ad9e2"},"vehicle_type_id":"4","last_reported":1769711436,"current_range_meters":6800,"station_id":"ce4bhbh2rcd13ifvqeo0","pricing_plan_id":"cebpf4jnsgd1na2vs0mg"},{"bike_id":"529d33d5-5c16-4d1d-a6a2-a1f098372d8b","system_id":"levelo_inurba_marseille","lat":43.27957,"lon":5.38732,"is_reserved":false,"is_disabled":false,"rental_uris":{"android":"levelo://app?vid=529d33d5-5c16-4d1d-a6a2-a1f098372d8b","ios":"levelo://app?vid=529d33d5-5c16-4d1d-a6a2-a1f098372d8b"},"vehicle_type_id":"4","last_reported":1769711436,"current_range_meters":6800,"station_id":"ce4bhg12rcd13ifvqf80","pricing_plan_id":"cebpf4jnsgd1na2vs0mg"},{"bike_id":"1e632035-85c8-48fd-8b82-3ce49daf7a4a","system_id":"levelo_inurba_marseille","lat":43.2656,"lon":5.39001,"is_reserved":false,"is_disabled":false,"rental_uris":{"android":"levelo://app?vid=1e632035-85c8-48fd-8b82-3ce49daf7a4a","ios":"levelo://app?vid=1e632035-85c8-48fd-8b82-3ce49daf7a4a"},"vehicle_type_id":"4","last_reported":1769711436,"current_range_meters":6800,"station_id":"ce4bhe12rcd13ifvqf30","pricing_plan_id":"cebpf4jnsgd1na2vs0mg"},{"bike_id":"83574236-eb2a-42bd-ab70-405f88783bc7","system_id":"levelo_inurba_marseille","lat":43.30545,"lon":5.36501,"is_reserved":false,"is_disabled":false,"rental_uris":{"android":"levelo://app?vid=83574236-eb2a-42bd-ab70-405f88783bc7","ios":"levelo://app?vid=83574236-eb2a-42bd-ab70-405f88783bc7"},"vehicle_type_id":"4","last_reported":1769711436,"current_range_meters":6800,"station_id":"","pricing_plan_id":"cebpf4jnsgd1na2vs0mg"},{"bike_id":"9352a26f-52ae-4722-9964-1e4d58412b67","system_id":"levelo_inurba_marseille","lat":43.25582,"lon":5.38217,"is_reserved":false,"is_disabled":false,"rental_uris":{"android":"levelo://app?vid=9352a26f-52ae-4722-9964-1e4d58412b67","ios":"levelo://app?vid=9352a26f-52ae-4722-9964-1e4d58412b67"},"vehicle_type_id":"4","last_reported":1769711436,"current_range_meters":6800,"station_id":"ce4bhih2rcd13ifvqfs0","pricing_plan_id":"cebpf4jnsgd1na2vs0mg"},{"bike_id":"5f7181ae-656c-4488-90fb-0ce1331b2ddd","system_id":"levelo_inurba_marseille","lat":43.279386,"lon":5.386868,"is_reserved":false,"is_disabled":false,"rental_uris":{"android":"levelo://app?vid=5f7181ae-656c-4488-90fb-0ce1331b2ddd","ios":"levelo://app?vid=5f7181ae-656c-4488-90fb-0ce1331b2ddd"},"vehicle_type_id":"4","last_reported":1769711436,"current_range_meters":6800,"station_id":"","pricing_plan_id":"cebpf4jnsgd1na2vs0mg"},{"bike_id":"1734350a-7db7-478e-8058-74793f2aa5c0","system_id":"levelo_inurba_marseille","lat":43.3232,"lon":5.38565,"is_reserved":false,"is_disabled":false,"rental_uris":{"android":"levelo://app?vid=1734350a-7db7-478e-8058-74793f2aa5c0","ios":"levelo://app?vid=1734350a-7db7-478e-8058-74793f2aa5c0"},"vehicle_type_id":"4","last_reported":1769711436,"current_range_meters":6800,"station_id":"st_d45171o9ee8s73djdqug","pricing_plan_id":"cebpf4jnsgd1na2vs0mg"},{"bike_id":"947b3f41-400e-4a7b-9150-c4b106fc2b3b","system_id":"levelo_inurba_marseille","lat":43.25581,"lon":5.38227,"is_reserved":false,"is_disabled":false,"rental_uris":{"android":"levelo://app?vid=947b3f41-400e-4a7b-9150-c4b106fc2b3b","ios":"levelo://app?vid=947b3f41-400e-4a7b-9150-c4b106fc2b3b"},"vehicle_type_id":"4","last_reported":1769711436,"current_range_meters":6800,"station_id":"ce4bhih2rcd13ifvqfs0","pricing_plan_id":"cebpf4jnsgd1na2vs0mg"},{"bike_id":"b3afb300-3fdf-4c16-a3be-4013bcd643ba","system_id":"levelo_inurba_marseille","lat":43.24549,"lon":5.39518,"is_reserved":false,"is_disabled":false,"rental_uris":{"android":"levelo://app?vid=b3afb300-3fdf-4c16-a3be-4013bcd643ba","ios":"levelo://app?vid=b3afb300-3fdf-4c16-a3be-4013bcd643ba"},"vehicle_type_id":"4","last_reported":1769711436,"current_range_meters":6800,"station_id":"ce4bhlp2rcd13ifvqgjg","pricing_plan_id":"cebpf4jnsgd1na2vs0mg"},{"bike_id":"5a5070bd-16de-4246-b119-9edc6b7db571","system_id":"levelo_inurba_marseille","lat":43.31165,"lon":5.38722,"is_reserved":false,"is_disabled":false,"rental_uris":{"android":"levelo://app?vid=5a5070bd-16de-4246-b119-9edc6b7db571","ios":"levelo://app?vid=5a5070bd-16de-4246-b119-9edc6b7db571"},"vehicle_type_id":"4","last_reported":1769711436,"current_range_meters":6800,"station_id":"ce4bgv12rcd13ifvqcp0","pricing_plan_id":"cebpf4jnsgd1na2vs0mg"},{"bike_id":"c2b04a9d-424b-4ca6-bc26-164953ed843c","system_id":"levelo_inurba_marseille","lat":43.28473,"lon":5.38406,"is_reserved":false,"is_disabled":false,"rental_uris":{"android":"levelo://app?vid=c2b04a9d-424b-4ca6-bc26-164953ed843c","ios":"levelo://app?vid=c2b04a9d-424b-4ca6-bc26-164953ed843c"},"vehicle_type_id":"4","last_reported":1769711436,"current_range_meters":6800,"station_id":"ce4bh512rcd13ifvqe3g","pricing_plan_id":"cebpf4jnsgd1na2vs0mg"},{"bike_id":"31a5d842-ae63-47a8-a287-56a1572e93c6","system_id":"levelo_inurba_marseille","lat":43.3107,"lon":5.38344,"is_reserved":false,"is_disabled":false,"rental_uris":{"android":"levelo://app?vid=31a5d842-ae63-47a8-a287-56a1572e93c6","ios":"levelo://app?vid=31a5d842-ae63-47a8-a287-56a1572e93c6"},"vehicle_type_id":"4","last_reported":1769711436,"current_range_meters":6800,"station_id":"ce4bgv92rcd13ifvqcr0","pricing_plan_id":"cebpf4jnsgd1na2vs0mg"},{"bike_id":"a4b7d580-5a65-4ea2-9a97-60ab0e4ae1d9","system_id":"levelo_inurba_marseille","lat":43.24966,"lon":5.40475,"is_reserved":false,"is_disabled":false,"rental_uris":{"android":"levelo://app?vid=a4b7d580-5a65-4ea2-9a97-60ab0e4ae1d9","ios":"levelo://app?vid=a4b7d580-5a65-4ea2-9a97-60ab0e4ae1d9"},"vehicle_type_id":"4","last_reported":1769711436,"current_range_meters":6800,"station_id":"st_d2ngiaodas8pm72gd1h0","pricing_plan_id":"cebpf4jnsgd1na2vs0mg"},{"bike_id":"4cc0b9dc-1bd7-40c7-9c2d-d0fc941b99dd","system_id":"levelo_inurba_marseille","lat":43.29578,"lon":5.37479,"is_reserved":false,"is_disabled":false,"rental_uris":{"android":"levelo://app?vid=4cc0b9dc-1bd7-40c7-9c2d-d0fc941b99dd","ios":"levelo://app?vid=4cc0b9dc-1bd7-40c7-9c2d-d0fc941b99dd"},"vehicle_type_id":"4","last_reported":1769711436,"current_range_meters":6800,"station_id":"ce4bgh92rcd13ifvqb50","pricing_plan_id":"cebpf4jnsgd1na2vs0mg"},{"bike_id":"ae2bd00b-86f2-42b9-8e4e-3fa74e019d82","system_id":"levelo_inurba_marseille","lat":43.23185,"lon":5.39971,"is_reserved":false,"is_disabled":false,"rental_uris":{"android":"levelo://app?vid=ae2bd00b-86f2-42b9-8e4e-3fa74e019d82","ios":"levelo://app?vid=ae2bd00b-86f2-42b9-8e4e-3fa74e019d82"},"vehicle_type_id":"4","last_reported":1769711436,"current_range_meters":6800,"station_id":"ce4bhn12rcd13ifvqgqg","pricing_plan_id":"cebpf4jnsgd1na2vs0mg"},{"bike_id":"c38ed00d-d79c-43c2-86a6-dafc26862ea3","system_id":"levelo_inurba_marseille","lat":43.30879,"lon":5.37193,"is_reserved":false,"is_disabled":false,"rental_uris":{"android":"levelo://app?vid=c38ed00d-d79c-43c2-86a6-dafc26862ea3","ios":"levelo://app?vid=c38ed00d-d79c-43c2-86a6-dafc26862ea3"},"vehicle_type_id":"4","last_reported":1769711436,"current_range_meters":6800,"station_id":"ce4bguh2rcd13ifvqckg","pricing_plan_id":"cebpf4jnsgd1na2vs0mg"},{"bike_id":"dc9ee814-7f33-4fbb-a1ce-2d30e8c57914","system_id":"levelo_inurba_marseille","lat":43.22544,"lon":5.41628,"is_reserved":false,"is_disabled":false,"rental_uris":{"android":"levelo://app?vid=dc9ee814-7f33-4fbb-a1ce-2d30e8c57914","ios":"levelo://app?vid=dc9ee814-7f33-4fbb-a1ce-2d30e8c57914"},"vehicle_type_id":"4","last_reported":1769711436,"current_range_meters":6800,"station_id":"st_d2o4gvlbi1j2169b742g","pricing_plan_id":"cebpf4jnsgd1na2vs0mg"},{"bike_id":"cb99475d-5524-4322-8229-b95fd57c4dcd","system_id":"levelo_inurba_marseille","lat":43.25,"lon":5.38936,"is_reserved":false,"is_disabled":false,"rental_uris":{"android":"levelo://app?vid=cb99475d-5524-4322-8229-b95fd57c4dcd","ios":"levelo://app?vid=cb99475d-5524-4322-8229-b95fd57c4dcd"},"vehicle_type_id":"4","last_reported":1769711436,"current_range_meters":6800,"station_id":"ce4bhgp2rcd13ifvqfd0","pricing_plan_id":"cebpf4jnsgd1na2vs0mg"},{"bike_id":"267c5504-2cb7-40bb-aec0-4dadacd4dbd6","system_id":"levelo_inurba_marseille","lat":43.305899,"lon":5.393637,"is_reserved":false,"is_disabled":false,"rental_uris":{"android":"levelo://app?vid=267c5504-2cb7-40bb-aec0-4dadacd4dbd6","ios":"levelo://app?vid=267c5504-2cb7-40bb-aec0-4dadacd4dbd6"},"vehicle_type_id":"4","last_reported":1769711436,"current_range_meters":6800,"station_id":"ce4bh0p2rcd13ifvqd80","pricing_plan_id":"cebpf4jnsgd1na2vs0mg"},{"bike_id":"39753960-3c7e-4e4a-acb2-25c74c17dd07","system_id":"levelo_inurba_marseille","lat":43.2293,"lon":5.35377,"is_reserved":false,"is_disabled":false,"rental_uris":{"android":"levelo://app?vid=39753960-3c7e-4e4a-acb2-25c74c17dd07","ios":"levelo://app?vid=39753960-3c7e-4e4a-acb2-25c74c17dd07"},"vehicle_type_id":"4","last_reported":1769711436,"current_range_meters":6800,"station_id":"cpo3532slgdg3j2ikp40","pricing_plan_id":"cebpf4jnsgd1na2vs0mg"},{"bike_id":"02f60354-3ef6-42ab-964b-89bd46ff6c12","system_id":"levelo_inurba_marseille","lat":43.29516,"lon":5.39019,"is_reserved":false,"is_disabled":false,"rental_uris":{"android":"levelo://app?vid=02f60354-3ef6-42ab-964b-89bd46ff6c12","ios":"levelo://app?vid=02f60354-3ef6-42ab-964b-89bd46ff6c12"},"vehicle_type_id":"4","last_reported":1769711436,"current_range_meters":6800,"station_id":"ce4bh3p2rcd13ifvqdp0","pricing_plan_id":"cebpf4jnsgd1na2vs0mg"},{"bike_id":"081fa14c-ca4a-442f-8de3-b221dffe51d8","system_id":"levelo_inurba_marseille","lat":43.27986,"lon":5.41659,"is_reserved":false,"is_disabled":false,"rental_uris":{"android":"levelo://app?vid=081fa14c-ca4a-442f-8de3-b221dffe51d8","ios":"levelo://app?vid=081fa14c-ca4a-442f-8de3-b221dffe51d8"},"vehicle_type_id":"4","last_reported":1769711436,"current_range_meters":6800,"station_id":"ce4bho12rcd13ifvqh1g","pricing_plan_id":"cebpf4jnsgd1na2vs0mg"},{"bike_id":"61050c33-cd05-49a3-8816-4402f222e818","system_id":"levelo_inurba_marseille","lat":43.25487,"lon":5.37649,"is_reserved":false,"is_disabled":false,"rental_uris":{"android":"levelo://app?vid=61050c33-cd05-49a3-8816-4402f222e818","ios":"levelo://app?vid=61050c33-cd05-49a3-8816-4402f222e818"},"vehicle_type_id":"4","last_reported":1769711436,"current_range_meters":7200,"station_id":"ce4bhh12rcd13ifvqff0","pricing_plan_id":"cebpf4jnsgd1na2vs0mg"},{"bike_id":"84c9922a-8ad7-4bd5-ab91-35f57f7c02fb","system_id":"levelo_inurba_marseille","lat":43.26201,"lon":5.37453,"is_reserved":false,"is_disabled":false,"rental_uris":{"android":"levelo://app?vid=84c9922a-8ad7-4bd5-ab91-35f57f7c02fb","ios":"levelo://app?vid=84c9922a-8ad7-4bd5-ab91-35f57f7c02fb"},"vehicle_type_id":"4","last_reported":1769711436,"current_range_meters":7200,"station_id":"ce4bhgp2rcd13ifvqfc0","pricing_plan_id":"cebpf4jnsgd1na2vs0mg"},{"bike_id":"34ae6bbe-5a4f-4fc2-95c7-3408f0857fa2","system_id":"levelo_inurba_marseille","lat":43.29529,"lon":5.39026,"is_reserved":false,"is_disabled":false,"rental_uris":{"android":"levelo://app?vid=34ae6bbe-5a4f-4fc2-95c7-3408f0857fa2","ios":"levelo://app?vid=34ae6bbe-5a4f-4fc2-95c7-3408f0857fa2"},"vehicle_type_id":"4","last_reported":1769711436,"current_range_meters":7200,"station_id":"ce4bh3p2rcd13ifvqdp0","pricing_plan_id":"cebpf4jnsgd1na2vs0mg"},{"bike_id":"946d99b7-f7f9-497f-ac2b-82e1fc07c223","system_id":"levelo_inurba_marseille","lat":43.23152,"lon":5.43715,"is_reserved":false,"is_disabled":false,"rental_uris":{"android":"levelo://app?vid=946d99b7-f7f9-497f-ac2b-82e1fc07c223","ios":"levelo://app?vid=946d99b7-f7f9-497f-ac2b-82e1fc07c223"},"vehicle_type_id":"4","last_reported":1769711436,"current_range_meters":7200,"station_id":"ce4bhmp2rcd13ifvqgog","pricing_plan_id":"cebpf4jnsgd1na2vs0mg"},{"bike_id":"23a98d8d-1317-4cd5-a3c3-43670104b107","system_id":"levelo_inurba_marseille","lat":43.30087,"lon":5.38275,"is_reserved":false,"is_disabled":true,"rental_uris":{"android":"levelo://app?vid=23a98d8d-1317-4cd5-a3c3-43670104b107","ios":"levelo://app?vid=23a98d8d-1317-4cd5-a3c3-43670104b107"},"vehicle_type_id":"4","last_reported":1769711436,"current_range_meters":7200,"station_id":"ce4bgj92rcd13ifvqbd0","pricing_plan_id":"cebpf4jnsgd1na2vs0mg"},{"bike_id":"b0676c9b-f604-4749-adc4-6f56507a9ebe","system_id":"levelo_inurba_marseille","lat":43.30134,"lon":5.398747,"is_reserved":false,"is_disabled":false,"rental_uris":{"android":"levelo://app?vid=b0676c9b-f604-4749-adc4-6f56507a9ebe","ios":"levelo://app?vid=b0676c9b-f604-4749-adc4-6f56507a9ebe"},"vehicle_type_id":"4","last_reported":1769711436,"current_range_meters":7200,"station_id":"ce4bh0h2rcd13ifvqd40","pricing_plan_id":"cebpf4jnsgd1na2vs0mg"},{"bike_id":"7a4412cf-c498-4121-be46-049419c026d4","system_id":"levelo_inurba_marseille","lat":43.27942,"lon":5.41031,"is_reserved":false,"is_disabled":false,"rental_uris":{"android":"levelo://app?vid=7a4412cf-c498-4121-be46-049419c026d4","ios":"levelo://app?vid=7a4412cf-c498-4121-be46-049419c026d4"},"vehicle_type_id":"4","last_reported":1769711436,"current_range_meters":7200,"station_id":"ce4bhnp2rcd13ifvqh0g","pricing_plan_id":"cebpf4jnsgd1na2vs0mg"},{"bike_id":"6d463587-3df4-4665-b124-967bacab8bbe","system_id":"levelo_inurba_marseille","lat":43.286166,"lon":5.350949,"is_reserved":false,"is_disabled":false,"rental_uris":{"android":"levelo://app?vid=6d463587-3df4-4665-b124-967bacab8bbe","ios":"levelo://app?vid=6d463587-3df4-4665-b124-967bacab8bbe"},"vehicle_type_id":"4","last_reported":1769711436,"current_range_meters":7200,"station_id":"ce4bhch2rcd13ifvqeug","pricing_plan_id":"cebpf4jnsgd1na2vs0mg"},{"bike_id":"685fec42-8973-4b39-b9d6-6eb94a0e0c7a","system_id":"levelo_inurba_marseille","lat":43.25573,"lon":5.3824,"is_reserved":false,"is_disabled":false,"rental_uris":{"android":"levelo://app?vid=685fec42-8973-4b39-b9d6-6eb94a0e0c7a","ios":"levelo://app?vid=685fec42-8973-4b39-b9d6-6eb94a0e0c7a"},"vehicle_type_id":"4","last_reported":1769711436,"current_range_meters":7200,"station_id":"ce4bhih2rcd13ifvqfs0","pricing_plan_id":"cebpf4jnsgd1na2vs0mg"},{"bike_id":"022d369a-95f4-48b4-b97e-fa7bf8af08d6","system_id":"levelo_inurba_marseille","lat":43.23967,"lon":5.36632,"is_reserved":false,"is_disabled":false,"rental_uris":{"android":"levelo://app?vid=022d369a-95f4-48b4-b97e-fa7bf8af08d6","ios":"levelo://app?vid=022d369a-95f4-48b4-b97e-fa7bf8af08d6"},"vehicle_type_id":"4","last_reported":1769711436,"current_range_meters":7200,"station_id":"ce4bhi12rcd13ifvqfp0","pricing_plan_id":"cebpf4jnsgd1na2vs0mg"},{"bike_id":"28bcb9d8-af7e-4e97-808c-cc7b21fe1431","system_id":"levelo_inurba_marseille","lat":43.2257,"lon":5.41615,"is_reserved":false,"is_disabled":false,"rental_uris":{"android":"levelo://app?vid=28bcb9d8-af7e-4e97-808c-cc7b21fe1431","ios":"levelo://app?vid=28bcb9d8-af7e-4e97-808c-cc7b21fe1431"},"vehicle_type_id":"4","last_reported":1769711436,"current_range_meters":7200,"station_id":"st_d2o4gvlbi1j2169b742g","pricing_plan_id":"cebpf4jnsgd1na2vs0mg"},{"bike_id":"71ea06b7-46c1-4fc9-a594-153d92364656","system_id":"levelo_inurba_marseille","lat":43.3073,"lon":5.40965,"is_reserved":false,"is_disabled":false,"rental_uris":{"android":"levelo://app?vid=71ea06b7-46c1-4fc9-a594-153d92364656","ios":"levelo://app?vid=71ea06b7-46c1-4fc9-a594-153d92364656"},"vehicle_type_id":"4","last_reported":1769711436,"current_range_meters":7200,"station_id":"","pricing_plan_id":"cebpf4jnsgd1na2vs0mg"},{"bike_id":"2d655a97-bd06-49e9-b2b4-efa072ca5fda","system_id":"levelo_inurba_marseille","lat":43.321123,"lon":5.367766,"is_reserved":false,"is_disabled":false,"rental_uris":{"android":"levelo://app?vid=2d655a97-bd06-49e9-b2b4-efa072ca5fda","ios":"levelo://app?vid=2d655a97-bd06-49e9-b2b4-efa072ca5fda"},"vehicle_type_id":"4","last_reported":1769711436,"current_range_meters":7200,"station_id":"ce4bhrh2rcd13ifvqhug","pricing_plan_id":"cebpf4jnsgd1na2vs0mg"},{"bike_id":"f111b481-dc60-402f-9876-2ca57c24cf9f","system_id":"levelo_inurba_marseille","lat":43.29769,"lon":5.39341,"is_reserved":false,"is_disabled":false,"rental_uris":{"android":"levelo://app?vid=f111b481-dc60-402f-9876-2ca57c24cf9f","ios":"levelo://app?vid=f111b481-dc60-402f-9876-2ca57c24cf9f"},"vehicle_type_id":"4","last_reported":1769711436,"current_range_meters":7200,"station_id":"chh1huq6cuj3fo74tm60","pricing_plan_id":"cebpf4jnsgd1na2vs0mg"},{"bike_id":"d6cf163d-52c4-426a-aaf1-5e501ca5e9ab","system_id":"levelo_inurba_marseille","lat":43.25334,"lon":5.42154,"is_reserved":false,"is_disabled":false,"rental_uris":{"android":"levelo://app?vid=d6cf163d-52c4-426a-aaf1-5e501ca5e9ab","ios":"levelo://app?vid=d6cf163d-52c4-426a-aaf1-5e501ca5e9ab"},"vehicle_type_id":"4","last_reported":1769711436,"current_range_meters":7200,"station_id":"st_d2m65c5bi1j21697t3ng","pricing_plan_id":"cebpf4jnsgd1na2vs0mg"},{"bike_id":"cd8d88ab-a008-49a2-a8b4-e0d4155a77b0","system_id":"levelo_inurba_marseille","lat":43.237787,"lon":5.366303,"is_reserved":false,"is_disabled":false,"rental_uris":{"android":"levelo://app?vid=cd8d88ab-a008-49a2-a8b4-e0d4155a77b0","ios":"levelo://app?vid=cd8d88ab-a008-49a2-a8b4-e0d4155a77b0"},"vehicle_type_id":"4","last_reported":1769711436,"current_range_meters":7200,"station_id":"st_d3nk18o9ro0c73en2l3g","pricing_plan_id":"cebpf4jnsgd1na2vs0mg"},{"bike_id":"f8cdad25-edd3-409c-b416-8a179dab658c","system_id":"levelo_inurba_marseille","lat":43.29906,"lon":5.38137,"is_reserved":false,"is_disabled":false,"rental_uris":{"android":"levelo://app?vid=f8cdad25-edd3-409c-b416-8a179dab658c","ios":"levelo://app?vid=f8cdad25-edd3-409c-b416-8a179dab658c"},"vehicle_type_id":"4","last_reported":1769711436,"current_range_meters":7200,"station_id":"ce4bgj12rcd13ifvqbc0","pricing_plan_id":"cebpf4jnsgd1na2vs0mg"},{"bike_id":"ff5f3083-20a7-4147-8a49-c2812707868e","system_id":"levelo_inurba_marseille","lat":43.30881,"lon":5.39656,"is_reserved":false,"is_disabled":false,"rental_uris":{"android":"levelo://app?vid=ff5f3083-20a7-4147-8a49-c2812707868e","ios":"levelo://app?vid=ff5f3083-20a7-4147-8a49-c2812707868e"},"vehicle_type_id":"4","last_reported":1769711436,"current_range_meters":7200,"station_id":"ce4bh012rcd13ifvqcv0","pricing_plan_id":"cebpf4jnsgd1na2vs0mg"},{"bike_id":"4bd6cb39-f26e-431f-9c48-bc9838a79167","system_id":"levelo_inurba_marseille","lat":43.29818,"lon":5.4406,"is_reserved":false,"is_disabled":false,"rental_uris":{"android":"levelo://app?vid=4bd6cb39-f26e-431f-9c48-bc9838a79167","ios":"levelo://app?vid=4bd6cb39-f26e-431f-9c48-bc9838a79167"},"vehicle_type_id":"4","last_reported":1769711436,"current_range_meters":7200,"station_id":"st_d3jp68qikq2c7381ktn0","pricing_plan_id":"cebpf4jnsgd1na2vs0mg"},{"bike_id":"8124257b-86e4-4773-9928-40b9e517b1e7","system_id":"levelo_inurba_marseille","lat":43.24468,"lon":5.42529,"is_reserved":false,"is_disabled":false,"rental_uris":{"android":"levelo://app?vid=8124257b-86e4-4773-9928-40b9e517b1e7","ios":"levelo://app?vid=8124257b-86e4-4773-9928-40b9e517b1e7"},"vehicle_type_id":"4","last_reported":1769711436,"current_range_meters":8000,"station_id":"st_d4a3vfp97mjs738cd8kg","pricing_plan_id":"cebpf4jnsgd1na2vs0mg"},{"bike_id":"b42cdd07-9ba3-49ec-a155-2607d089fedd","system_id":"levelo_inurba_marseille","lat":43.303833,"lon":5.385789,"is_reserved":false,"is_disabled":false,"rental_uris":{"android":"levelo://app?vid=b42cdd07-9ba3-49ec-a155-2607d089fedd","ios":"levelo://app?vid=b42cdd07-9ba3-49ec-a155-2607d089fedd"},"vehicle_type_id":"4","last_reported":1769711436,"current_range_meters":8000,"station_id":"ce4bgg92rcd13ifvqb30","pricing_plan_id":"cebpf4jnsgd1na2vs0mg"},{"bike_id":"f27f3e87-a38b-48fe-999c-b85eb375c397","system_id":"levelo_inurba_marseille","lat":43.24167,"lon":5.36391,"is_reserved":false,"is_disabled":false,"rental_uris":{"android":"levelo://app?vid=f27f3e87-a38b-48fe-999c-b85eb375c397","ios":"levelo://app?vid=f27f3e87-a38b-48fe-999c-b85eb375c397"},"vehicle_type_id":"4","last_reported":1769711436,"current_range_meters":8000,"station_id":"cpo36qri1sfpv3e86is0","pricing_plan_id":"cebpf4jnsgd1na2vs0mg"},{"bike_id":"4544f904-deaf-44d5-8161-450abb4c5bd3","system_id":"levelo_inurba_marseille","lat":43.29442,"lon":5.397541,"is_reserved":false,"is_disabled":false,"rental_uris":{"android":"levelo://app?vid=4544f904-deaf-44d5-8161-450abb4c5bd3","ios":"levelo://app?vid=4544f904-deaf-44d5-8161-450abb4c5bd3"},"vehicle_type_id":"4","last_reported":1769711436,"current_range_meters":8000,"station_id":"ce4bh3h2rcd13ifvqdo0","pricing_plan_id":"cebpf4jnsgd1na2vs0mg"},{"bike_id":"7b6d8a8b-d351-4282-bf84-c6e7865bd8af","system_id":"levelo_inurba_marseille","lat":43.24613,"lon":5.38897,"is_reserved":false,"is_disabled":false,"rental_uris":{"android":"levelo://app?vid=7b6d8a8b-d351-4282-bf84-c6e7865bd8af","ios":"levelo://app?vid=7b6d8a8b-d351-4282-bf84-c6e7865bd8af"},"vehicle_type_id":"4","last_reported":1769711436,"current_range_meters":8000,"station_id":"ce4bhg12rcd13ifvqf60","pricing_plan_id":"cebpf4jnsgd1na2vs0mg"},{"bike_id":"aa753bb7-bd6b-47c5-ab34-4be181563e55","system_id":"levelo_inurba_marseille","lat":43.31055,"lon":5.37179,"is_reserved":false,"is_disabled":false,"rental_uris":{"android":"levelo://app?vid=aa753bb7-bd6b-47c5-ab34-4be181563e55","ios":"levelo://app?vid=aa753bb7-bd6b-47c5-ab34-4be181563e55"},"vehicle_type_id":"4","last_reported":1769711436,"current_range_meters":8000,"station_id":"st_d4kl2rp97mjs73e7tdfg","pricing_plan_id":"cebpf4jnsgd1na2vs0mg"},{"bike_id":"ec911151-785b-471f-816f-85abb26c2bab","system_id":"levelo_inurba_marseille","lat":43.32347,"lon":5.36755,"is_reserved":false,"is_disabled":false,"rental_uris":{"android":"levelo://app?vid=ec911151-785b-471f-816f-85abb26c2bab","ios":"levelo://app?vid=ec911151-785b-471f-816f-85abb26c2bab"},"vehicle_type_id":"4","last_reported":1769711436,"current_range_meters":8000,"station_id":"ce4bhsh2rcd13ifvqi2g","pricing_plan_id":"cebpf4jnsgd1na2vs0mg"},{"bike_id":"4728e020-0e60-452f-aba8-f80741dc081b","system_id":"levelo_inurba_marseille","lat":43.23157,"lon":5.43715,"is_reserved":false,"is_disabled":false,"rental_uris":{"android":"levelo://app?vid=4728e020-0e60-452f-aba8-f80741dc081b","ios":"levelo://app?vid=4728e020-0e60-452f-aba8-f80741dc081b"},"vehicle_type_id":"4","last_reported":1769711436,"current_range_meters":8000,"station_id":"ce4bhmp2rcd13ifvqgog","pricing_plan_id":"cebpf4jnsgd1na2vs0mg"},{"bike_id":"f162a493-4261-4978-a7f2-786097720ce7","system_id":"levelo_inurba_marseille","lat":43.2901,"lon":5.37561,"is_reserved":false,"is_disabled":false,"rental_uris":{"android":"levelo://app?vid=f162a493-4261-4978-a7f2-786097720ce7","ios":"levelo://app?vid=f162a493-4261-4978-a7f2-786097720ce7"},"vehicle_type_id":"4","last_reported":1769711436,"current_range_meters":8000,"station_id":"ce4bh692rcd13ifvqe90","pricing_plan_id":"cebpf4jnsgd1na2vs0mg"},{"bike_id":"6a0e40e4-3258-4516-885d-71d0968e64ad","system_id":"levelo_inurba_marseille","lat":43.23044,"lon":5.35511,"is_reserved":false,"is_disabled":false,"rental_uris":{"android":"levelo://app?vid=6a0e40e4-3258-4516-885d-71d0968e64ad","ios":"levelo://app?vid=6a0e40e4-3258-4516-885d-71d0968e64ad"},"vehicle_type_id":"4","last_reported":1769711436,"current_range_meters":8000,"station_id":"cpo3342slgdg3j2ifvpg","pricing_plan_id":"cebpf4jnsgd1na2vs0mg"},{"bike_id":"0edb73c2-0d71-41ef-92a0-39c6197600e4","system_id":"levelo_inurba_marseille","lat":43.27064,"lon":5.38298,"is_reserved":false,"is_disabled":false,"rental_uris":{"android":"levelo://app?vid=0edb73c2-0d71-41ef-92a0-39c6197600e4","ios":"levelo://app?vid=0edb73c2-0d71-41ef-92a0-39c6197600e4"},"vehicle_type_id":"4","last_reported":1769711436,"current_range_meters":8000,"station_id":"st_d3n2fo6cfp8s73cte1j0","pricing_plan_id":"cebpf4jnsgd1na2vs0mg"},{"bike_id":"7ce53c9a-56c6-477e-ad79-54d825c70878","system_id":"levelo_inurba_marseille","lat":43.29375,"lon":5.37824,"is_reserved":false,"is_disabled":false,"rental_uris":{"android":"levelo://app?vid=7ce53c9a-56c6-477e-ad79-54d825c70878","ios":"levelo://app?vid=7ce53c9a-56c6-477e-ad79-54d825c70878"},"vehicle_type_id":"4","last_reported":1769711436,"current_range_meters":8000,"station_id":"ce4bgjh2rcd13ifvqbf0","pricing_plan_id":"cebpf4jnsgd1na2vs0mg"},{"bike_id":"8b873d15-b621-4e80-b23c-c37a189b032c","system_id":"levelo_inurba_marseille","lat":43.26559,"lon":5.40321,"is_reserved":false,"is_disabled":false,"rental_uris":{"android":"levelo://app?vid=8b873d15-b621-4e80-b23c-c37a189b032c","ios":"levelo://app?vid=8b873d15-b621-4e80-b23c-c37a189b032c"},"vehicle_type_id":"4","last_reported":1769711436,"current_range_meters":8000,"station_id":"ce4bhmp2rcd13ifvqgng","pricing_plan_id":"cebpf4jnsgd1na2vs0mg"},{"bike_id":"bd551aec-24c2-4aba-b573-e89c13f76575","system_id":"levelo_inurba_marseille","lat":43.25587,"lon":5.38235,"is_reserved":false,"is_disabled":false,"rental_uris":{"android":"levelo://app?vid=bd551aec-24c2-4aba-b573-e89c13f76575","ios":"levelo://app?vid=bd551aec-24c2-4aba-b573-e89c13f76575"},"vehicle_type_id":"4","last_reported":1769711436,"current_range_meters":8000,"station_id":"ce4bhih2rcd13ifvqfs0","pricing_plan_id":"cebpf4jnsgd1na2vs0mg"},{"bike_id":"52c6363b-7413-4b9d-a19e-fd2102af5421","system_id":"levelo_inurba_marseille","lat":43.26559,"lon":5.40306,"is_reserved":false,"is_disabled":false,"rental_uris":{"android":"levelo://app?vid=52c6363b-7413-4b9d-a19e-fd2102af5421","ios":"levelo://app?vid=52c6363b-7413-4b9d-a19e-fd2102af5421"},"vehicle_type_id":"4","last_reported":1769711436,"current_range_meters":8000,"station_id":"ce4bhmp2rcd13ifvqgng","pricing_plan_id":"cebpf4jnsgd1na2vs0mg"},{"bike_id":"9bf74dc7-3637-4622-8c40-7ef90dd8945f","system_id":"levelo_inurba_marseille","lat":43.28435,"lon":5.39201,"is_reserved":false,"is_disabled":false,"rental_uris":{"android":"levelo://app?vid=9bf74dc7-3637-4622-8c40-7ef90dd8945f","ios":"levelo://app?vid=9bf74dc7-3637-4622-8c40-7ef90dd8945f"},"vehicle_type_id":"4","last_reported":1769711436,"current_range_meters":8000,"station_id":"ce4bhoh2rcd13ifvqh5g","pricing_plan_id":"cebpf4jnsgd1na2vs0mg"},{"bike_id":"e9c0b386-76fc-4d30-be5c-a50e74cc9865","system_id":"levelo_inurba_marseille","lat":43.27047,"lon":5.40259,"is_reserved":false,"is_disabled":false,"rental_uris":{"android":"levelo://app?vid=e9c0b386-76fc-4d30-be5c-a50e74cc9865","ios":"levelo://app?vid=e9c0b386-76fc-4d30-be5c-a50e74cc9865"},"vehicle_type_id":"4","last_reported":1769711436,"current_range_meters":8000,"station_id":"ce4bhk92rcd13ifvqgc0","pricing_plan_id":"cebpf4jnsgd1na2vs0mg"},{"bike_id":"e7ef05e1-c04f-436c-a86d-db24d0f0925e","system_id":"levelo_inurba_marseille","lat":43.31225,"lon":5.36784,"is_reserved":false,"is_disabled":false,"rental_uris":{"android":"levelo://app?vid=e7ef05e1-c04f-436c-a86d-db24d0f0925e","ios":"levelo://app?vid=e7ef05e1-c04f-436c-a86d-db24d0f0925e"},"vehicle_type_id":"4","last_reported":1769711436,"current_range_meters":8000,"station_id":"","pricing_plan_id":"cebpf4jnsgd1na2vs0mg"},{"bike_id":"4cdb3b0d-4ece-4fd0-b66d-094cf4f0c71f","system_id":"levelo_inurba_marseille","lat":43.28727,"lon":5.36075,"is_reserved":false,"is_disabled":false,"rental_uris":{"android":"levelo://app?vid=4cdb3b0d-4ece-4fd0-b66d-094cf4f0c71f","ios":"levelo://app?vid=4cdb3b0d-4ece-4fd0-b66d-094cf4f0c71f"},"vehicle_type_id":"4","last_reported":1769711436,"current_range_meters":8000,"station_id":"cki0cbj6b192h4jlfktg","pricing_plan_id":"cebpf4jnsgd1na2vs0mg"},{"bike_id":"ca38dcc2-c9af-4e24-a248-01af96994a61","system_id":"levelo_inurba_marseille","lat":43.29259,"lon":5.38434,"is_reserved":false,"is_disabled":false,"rental_uris":{"android":"levelo://app?vid=ca38dcc2-c9af-4e24-a248-01af96994a61","ios":"levelo://app?vid=ca38dcc2-c9af-4e24-a248-01af96994a61"},"vehicle_type_id":"4","last_reported":1769711436,"current_range_meters":8000,"station_id":"ce4bh692rcd13ifvqea0","pricing_plan_id":"cebpf4jnsgd1na2vs0mg"},{"bike_id":"ccb97a1b-bf75-4505-a355-dd35fc9defbe","system_id":"levelo_inurba_marseille","lat":43.30426,"lon":5.38881,"is_reserved":false,"is_disabled":false,"rental_uris":{"android":"levelo://app?vid=ccb97a1b-bf75-4505-a355-dd35fc9defbe","ios":"levelo://app?vid=ccb97a1b-bf75-4505-a355-dd35fc9defbe"},"vehicle_type_id":"4","last_reported":1769711436,"current_range_meters":8000,"station_id":"ce4bgk12rcd13ifvqbi0","pricing_plan_id":"cebpf4jnsgd1na2vs0mg"},{"bike_id":"25a9226a-9193-4bb4-8ad1-0a617754bee3","system_id":"levelo_inurba_marseille","lat":43.28533,"lon":5.44087,"is_reserved":false,"is_disabled":true,"rental_uris":{"android":"levelo://app?vid=25a9226a-9193-4bb4-8ad1-0a617754bee3","ios":"levelo://app?vid=25a9226a-9193-4bb4-8ad1-0a617754bee3"},"vehicle_type_id":"4","last_reported":1769711436,"current_range_meters":8000,"station_id":"","pricing_plan_id":"cebpf4jnsgd1na2vs0mg"},{"bike_id":"3e214dbf-af9c-49c1-8eea-e4e9e6b295c4","system_id":"levelo_inurba_marseille","lat":43.28162,"lon":5.42629,"is_reserved":false,"is_disabled":false,"rental_uris":{"android":"levelo://app?vid=3e214dbf-af9c-49c1-8eea-e4e9e6b295c4","ios":"levelo://app?vid=3e214dbf-af9c-49c1-8eea-e4e9e6b295c4"},"vehicle_type_id":"4","last_reported":1769711436,"current_range_meters":8000,"station_id":"ce4bhnh2rcd13ifvqgug","pricing_plan_id":"cebpf4jnsgd1na2vs0mg"},{"bike_id":"b5a8b90a-cc1a-49b0-9212-647b6a416b99","system_id":"levelo_inurba_marseille","lat":43.29165,"lon":5.37143,"is_reserved":false,"is_disabled":false,"rental_uris":{"android":"levelo://app?vid=b5a8b90a-cc1a-49b0-9212-647b6a416b99","ios":"levelo://app?vid=b5a8b90a-cc1a-49b0-9212-647b6a416b99"},"vehicle_type_id":"4","last_reported":1769711436,"current_range_meters":8000,"station_id":"ce4bha92rcd13ifvqeh0","pricing_plan_id":"cebpf4jnsgd1na2vs0mg"},{"bike_id":"1df32dff-5611-415d-8fae-817c467a81ff","system_id":"levelo_inurba_marseille","lat":43.2305,"lon":5.35484,"is_reserved":false,"is_disabled":false,"rental_uris":{"android":"levelo://app?vid=1df32dff-5611-415d-8fae-817c467a81ff","ios":"levelo://app?vid=1df32dff-5611-415d-8fae-817c467a81ff"},"vehicle_type_id":"4","last_reported":1769711436,"current_range_meters":8000,"station_id":"cpo3342slgdg3j2ifvpg","pricing_plan_id":"cebpf4jnsgd1na2vs0mg"},{"bike_id":"792f7567-0bef-4308-a621-0aa82cce6eaf","system_id":"levelo_inurba_marseille","lat":43.29263,"lon":5.40893,"is_reserved":false,"is_disabled":false,"rental_uris":{"android":"levelo://app?vid=792f7567-0bef-4308-a621-0aa82cce6eaf","ios":"levelo://app?vid=792f7567-0bef-4308-a621-0aa82cce6eaf"},"vehicle_type_id":"4","last_reported":1769711436,"current_range_meters":8000,"station_id":"ce4bh192rcd13ifvqdc0","pricing_plan_id":"cebpf4jnsgd1na2vs0mg"},{"bike_id":"d54ad186-4e87-47b2-a1d7-ce3454bc44c5","system_id":"levelo_inurba_marseille","lat":43.31371,"lon":5.38499,"is_reserved":false,"is_disabled":false,"rental_uris":{"android":"levelo://app?vid=d54ad186-4e87-47b2-a1d7-ce3454bc44c5","ios":"levelo://app?vid=d54ad186-4e87-47b2-a1d7-ce3454bc44c5"},"vehicle_type_id":"4","last_reported":1769711436,"current_range_meters":8000,"station_id":"ce4bgt92rcd13ifvqcf0","pricing_plan_id":"cebpf4jnsgd1na2vs0mg"},{"bike_id":"ef68bdf9-fa71-483b-bc99-7f9581830aca","system_id":"levelo_inurba_marseille","lat":43.30621,"lon":5.36738,"is_reserved":false,"is_disabled":false,"rental_uris":{"android":"levelo://app?vid=ef68bdf9-fa71-483b-bc99-7f9581830aca","ios":"levelo://app?vid=ef68bdf9-fa71-483b-bc99-7f9581830aca"},"vehicle_type_id":"4","last_reported":1769711436,"current_range_meters":8400,"station_id":"","pricing_plan_id":"cebpf4jnsgd1na2vs0mg"},{"bike_id":"83fc5387-9bd8-4dec-804d-abfa877a86a6","system_id":"levelo_inurba_marseille","lat":43.29808,"lon":5.44087,"is_reserved":false,"is_disabled":false,"rental_uris":{"android":"levelo://app?vid=83fc5387-9bd8-4dec-804d-abfa877a86a6","ios":"levelo://app?vid=83fc5387-9bd8-4dec-804d-abfa877a86a6"},"vehicle_type_id":"4","last_reported":1769711436,"current_range_meters":8400,"station_id":"st_d3jp68qikq2c7381ktn0","pricing_plan_id":"cebpf4jnsgd1na2vs0mg"},{"bike_id":"bd889336-68ff-4f09-8c88-588306cf9fc6","system_id":"levelo_inurba_marseille","lat":43.27054,"lon":5.40318,"is_reserved":false,"is_disabled":false,"rental_uris":{"android":"levelo://app?vid=bd889336-68ff-4f09-8c88-588306cf9fc6","ios":"levelo://app?vid=bd889336-68ff-4f09-8c88-588306cf9fc6"},"vehicle_type_id":"4","last_reported":1769711436,"current_range_meters":8400,"station_id":"","pricing_plan_id":"cebpf4jnsgd1na2vs0mg"},{"bike_id":"586a9cd0-c759-4b15-91ea-ee6669fcfe50","system_id":"levelo_inurba_marseille","lat":43.31063,"lon":5.37129,"is_reserved":false,"is_disabled":false,"rental_uris":{"android":"levelo://app?vid=586a9cd0-c759-4b15-91ea-ee6669fcfe50","ios":"levelo://app?vid=586a9cd0-c759-4b15-91ea-ee6669fcfe50"},"vehicle_type_id":"4","last_reported":1769711436,"current_range_meters":8400,"station_id":"st_d4kl2rp97mjs73e7tdfg","pricing_plan_id":"cebpf4jnsgd1na2vs0mg"},{"bike_id":"19d683cf-05e9-434a-b587-af5793fe2201","system_id":"levelo_inurba_marseille","lat":43.30917,"lon":5.36852,"is_reserved":false,"is_disabled":false,"rental_uris":{"android":"levelo://app?vid=19d683cf-05e9-434a-b587-af5793fe2201","ios":"levelo://app?vid=19d683cf-05e9-434a-b587-af5793fe2201"},"vehicle_type_id":"4","last_reported":1769711436,"current_range_meters":8400,"station_id":"ce4bgn92rcd13ifvqbvg","pricing_plan_id":"cebpf4jnsgd1na2vs0mg"},{"bike_id":"82693396-ff61-48ee-9772-fee51d6503d4","system_id":"levelo_inurba_marseille","lat":43.29554,"lon":5.42287,"is_reserved":false,"is_disabled":false,"rental_uris":{"android":"levelo://app?vid=82693396-ff61-48ee-9772-fee51d6503d4","ios":"levelo://app?vid=82693396-ff61-48ee-9772-fee51d6503d4"},"vehicle_type_id":"4","last_reported":1769711436,"current_range_meters":8400,"station_id":"ce4bhph2rcd13ifvqhdg","pricing_plan_id":"cebpf4jnsgd1na2vs0mg"},{"bike_id":"5417ecf1-5c28-449a-a086-27acd88e9f4e","system_id":"levelo_inurba_marseille","lat":43.2119,"lon":5.35082,"is_reserved":false,"is_disabled":false,"rental_uris":{"android":"levelo://app?vid=5417ecf1-5c28-449a-a086-27acd88e9f4e","ios":"levelo://app?vid=5417ecf1-5c28-449a-a086-27acd88e9f4e"},"vehicle_type_id":"4","last_reported":1769711436,"current_range_meters":8400,"station_id":"st_cvj6sg6p6f1abm77japg","pricing_plan_id":"cebpf4jnsgd1na2vs0mg"},{"bike_id":"83bbeac1-b4c2-4835-91cb-013728be84c8","system_id":"levelo_inurba_marseille","lat":43.29918,"lon":5.39093,"is_reserved":false,"is_disabled":true,"rental_uris":{"android":"levelo://app?vid=83bbeac1-b4c2-4835-91cb-013728be84c8","ios":"levelo://app?vid=83bbeac1-b4c2-4835-91cb-013728be84c8"},"vehicle_type_id":"4","last_reported":1769711436,"current_range_meters":8400,"station_id":"","pricing_plan_id":"cebpf4jnsgd1na2vs0mg"},{"bike_id":"b93f36af-6012-4250-a69f-3de373ca3510","system_id":"levelo_inurba_marseille","lat":43.28278,"lon":5.35057,"is_reserved":false,"is_disabled":false,"rental_uris":{"android":"levelo://app?vid=b93f36af-6012-4250-a69f-3de373ca3510","ios":"levelo://app?vid=b93f36af-6012-4250-a69f-3de373ca3510"},"vehicle_type_id":"4","last_reported":1769711436,"current_range_meters":8400,"station_id":"ce4bhbp2rcd13ifvqerg","pricing_plan_id":"cebpf4jnsgd1na2vs0mg"},{"bike_id":"af654c71-a67d-46af-bf40-a020e2f3bf53","system_id":"levelo_inurba_marseille","lat":43.24979,"lon":5.3892,"is_reserved":false,"is_disabled":false,"rental_uris":{"android":"levelo://app?vid=af654c71-a67d-46af-bf40-a020e2f3bf53","ios":"levelo://app?vid=af654c71-a67d-46af-bf40-a020e2f3bf53"},"vehicle_type_id":"4","last_reported":1769711436,"current_range_meters":8400,"station_id":"ce4bhgp2rcd13ifvqfd0","pricing_plan_id":"cebpf4jnsgd1na2vs0mg"},{"bike_id":"0f8953a6-a252-41fe-8ab5-0a8975dbd085","system_id":"levelo_inurba_marseille","lat":43.2669,"lon":5.3826,"is_reserved":false,"is_disabled":false,"rental_uris":{"android":"levelo://app?vid=0f8953a6-a252-41fe-8ab5-0a8975dbd085","ios":"levelo://app?vid=0f8953a6-a252-41fe-8ab5-0a8975dbd085"},"vehicle_type_id":"4","last_reported":1769711436,"current_range_meters":8400,"station_id":"ce4bhg92rcd13ifvqf90","pricing_plan_id":"cebpf4jnsgd1na2vs0mg"},{"bike_id":"e04521ca-ce5b-4911-93eb-efa07b2cc503","system_id":"levelo_inurba_marseille","lat":43.29486,"lon":5.4331,"is_reserved":false,"is_disabled":false,"rental_uris":{"android":"levelo://app?vid=e04521ca-ce5b-4911-93eb-efa07b2cc503","ios":"levelo://app?vid=e04521ca-ce5b-4911-93eb-efa07b2cc503"},"vehicle_type_id":"4","last_reported":1769711436,"current_range_meters":8400,"station_id":"st_d3j5ugp08ojc73fj9d10","pricing_plan_id":"cebpf4jnsgd1na2vs0mg"},{"bike_id":"3dc504de-340a-4960-9295-e93227b46b5e","system_id":"levelo_inurba_marseille","lat":43.32116,"lon":5.36775,"is_reserved":false,"is_disabled":false,"rental_uris":{"android":"levelo://app?vid=3dc504de-340a-4960-9295-e93227b46b5e","ios":"levelo://app?vid=3dc504de-340a-4960-9295-e93227b46b5e"},"vehicle_type_id":"4","last_reported":1769711436,"current_range_meters":8400,"station_id":"ce4bhrh2rcd13ifvqhug","pricing_plan_id":"cebpf4jnsgd1na2vs0mg"},{"bike_id":"51a381d7-92b7-404a-b0f5-2fffa4e9a87f","system_id":"levelo_inurba_marseille","lat":43.304339,"lon":5.388804,"is_reserved":false,"is_disabled":false,"rental_uris":{"android":"levelo://app?vid=51a381d7-92b7-404a-b0f5-2fffa4e9a87f","ios":"levelo://app?vid=51a381d7-92b7-404a-b0f5-2fffa4e9a87f"},"vehicle_type_id":"4","last_reported":1769711436,"current_range_meters":8400,"station_id":"ce4bgk12rcd13ifvqbi0","pricing_plan_id":"cebpf4jnsgd1na2vs0mg"},{"bike_id":"d022514a-55db-46b7-a65f-345b5e14ddb2","system_id":"levelo_inurba_marseille","lat":43.29521,"lon":5.38531,"is_reserved":false,"is_disabled":false,"rental_uris":{"android":"levelo://app?vid=d022514a-55db-46b7-a65f-345b5e14ddb2","ios":"levelo://app?vid=d022514a-55db-46b7-a65f-345b5e14ddb2"},"vehicle_type_id":"4","last_reported":1769711436,"current_range_meters":8800,"station_id":"ce4bgih2rcd13ifvqba0","pricing_plan_id":"cebpf4jnsgd1na2vs0mg"},{"bike_id":"456727bd-baa8-41bf-ae9f-158a99ff9411","system_id":"levelo_inurba_marseille","lat":43.22568,"lon":5.41613,"is_reserved":false,"is_disabled":false,"rental_uris":{"android":"levelo://app?vid=456727bd-baa8-41bf-ae9f-158a99ff9411","ios":"levelo://app?vid=456727bd-baa8-41bf-ae9f-158a99ff9411"},"vehicle_type_id":"4","last_reported":1769711436,"current_range_meters":8800,"station_id":"st_d2o4gvlbi1j2169b742g","pricing_plan_id":"cebpf4jnsgd1na2vs0mg"},{"bike_id":"f09fff84-30d7-4b74-8d66-ef20f45f8215","system_id":"levelo_inurba_marseille","lat":43.2849,"lon":5.38458,"is_reserved":false,"is_disabled":false,"rental_uris":{"android":"levelo://app?vid=f09fff84-30d7-4b74-8d66-ef20f45f8215","ios":"levelo://app?vid=f09fff84-30d7-4b74-8d66-ef20f45f8215"},"vehicle_type_id":"4","last_reported":1769711436,"current_range_meters":8800,"station_id":"ce4bh512rcd13ifvqe3g","pricing_plan_id":"cebpf4jnsgd1na2vs0mg"},{"bike_id":"f77f11ea-c57f-4a1e-b998-1859acb2e91b","system_id":"levelo_inurba_marseille","lat":43.28617,"lon":5.35082,"is_reserved":false,"is_disabled":false,"rental_uris":{"android":"levelo://app?vid=f77f11ea-c57f-4a1e-b998-1859acb2e91b","ios":"levelo://app?vid=f77f11ea-c57f-4a1e-b998-1859acb2e91b"},"vehicle_type_id":"4","last_reported":1769711436,"current_range_meters":8800,"station_id":"ce4bhch2rcd13ifvqeug","pricing_plan_id":"cebpf4jnsgd1na2vs0mg"},{"bike_id":"10b424c6-99ba-423a-9370-8bef633fb2cb","system_id":"levelo_inurba_marseille","lat":43.25213,"lon":5.3808,"is_reserved":false,"is_disabled":false,"rental_uris":{"android":"levelo://app?vid=10b424c6-99ba-423a-9370-8bef633fb2cb","ios":"levelo://app?vid=10b424c6-99ba-423a-9370-8bef633fb2cb"},"vehicle_type_id":"4","last_reported":1769711436,"current_range_meters":8800,"station_id":"","pricing_plan_id":"cebpf4jnsgd1na2vs0mg"},{"bike_id":"c15aa5d3-0fcd-4811-8a44-a009dcc0a1c7","system_id":"levelo_inurba_marseille","lat":43.30471,"lon":5.3966,"is_reserved":false,"is_disabled":false,"rental_uris":{"android":"levelo://app?vid=c15aa5d3-0fcd-4811-8a44-a009dcc0a1c7","ios":"levelo://app?vid=c15aa5d3-0fcd-4811-8a44-a009dcc0a1c7"},"vehicle_type_id":"4","last_reported":1769711436,"current_range_meters":8800,"station_id":"","pricing_plan_id":"cebpf4jnsgd1na2vs0mg"},{"bike_id":"387b1016-eb13-4172-b45b-04cdd9f781b0","system_id":"levelo_inurba_marseille","lat":43.302913,"lon":5.39212,"is_reserved":false,"is_disabled":false,"rental_uris":{"android":"levelo://app?vid=387b1016-eb13-4172-b45b-04cdd9f781b0","ios":"levelo://app?vid=387b1016-eb13-4172-b45b-04cdd9f781b0"},"vehicle_type_id":"4","last_reported":1769711436,"current_range_meters":8800,"station_id":"ce4bgkh2rcd13ifvqbk0","pricing_plan_id":"cebpf4jnsgd1na2vs0mg"},{"bike_id":"14276377-b09c-4df5-8278-20ba9c2af30c","system_id":"levelo_inurba_marseille","lat":43.30945,"lon":5.3903,"is_reserved":false,"is_disabled":false,"rental_uris":{"android":"levelo://app?vid=14276377-b09c-4df5-8278-20ba9c2af30c","ios":"levelo://app?vid=14276377-b09c-4df5-8278-20ba9c2af30c"},"vehicle_type_id":"4","last_reported":1769711436,"current_range_meters":8800,"station_id":"ce4bgup2rcd13ifvqco0","pricing_plan_id":"cebpf4jnsgd1na2vs0mg"},{"bike_id":"a39e34d4-6746-4e60-873d-7a9554c7b5ee","system_id":"levelo_inurba_marseille","lat":43.2931,"lon":5.37455,"is_reserved":false,"is_disabled":false,"rental_uris":{"android":"levelo://app?vid=a39e34d4-6746-4e60-873d-7a9554c7b5ee","ios":"levelo://app?vid=a39e34d4-6746-4e60-873d-7a9554c7b5ee"},"vehicle_type_id":"4","last_reported":1769711436,"current_range_meters":8800,"station_id":"ce4bgi12rcd13ifvqb70","pricing_plan_id":"cebpf4jnsgd1na2vs0mg"},{"bike_id":"7714d863-1c60-4efa-a925-44984599d482","system_id":"levelo_inurba_marseille","lat":43.29743,"lon":5.42764,"is_reserved":false,"is_disabled":false,"rental_uris":{"android":"levelo://app?vid=7714d863-1c60-4efa-a925-44984599d482","ios":"levelo://app?vid=7714d863-1c60-4efa-a925-44984599d482"},"vehicle_type_id":"4","last_reported":1769711436,"current_range_meters":8800,"station_id":"st_d3md5207bmas73dh9klg","pricing_plan_id":"cebpf4jnsgd1na2vs0mg"},{"bike_id":"4811c3f3-6abd-45a1-827d-b9d9c6bd1a0c","system_id":"levelo_inurba_marseille","lat":43.29784,"lon":5.37394,"is_reserved":false,"is_disabled":false,"rental_uris":{"android":"levelo://app?vid=4811c3f3-6abd-45a1-827d-b9d9c6bd1a0c","ios":"levelo://app?vid=4811c3f3-6abd-45a1-827d-b9d9c6bd1a0c"},"vehicle_type_id":"4","last_reported":1769711436,"current_range_meters":8800,"station_id":"","pricing_plan_id":"cebpf4jnsgd1na2vs0mg"},{"bike_id":"43108044-4682-404d-830f-a43f6f0d82ce","system_id":"levelo_inurba_marseille","lat":43.23121,"lon":5.43732,"is_reserved":false,"is_disabled":false,"rental_uris":{"android":"levelo://app?vid=43108044-4682-404d-830f-a43f6f0d82ce","ios":"levelo://app?vid=43108044-4682-404d-830f-a43f6f0d82ce"},"vehicle_type_id":"4","last_reported":1769711436,"current_range_meters":8800,"station_id":"","pricing_plan_id":"cebpf4jnsgd1na2vs0mg"},{"bike_id":"5c1bebe8-43bf-476b-a01e-98bad8762f0c","system_id":"levelo_inurba_marseille","lat":43.24627,"lon":5.43149,"is_reserved":false,"is_disabled":false,"rental_uris":{"android":"levelo://app?vid=5c1bebe8-43bf-476b-a01e-98bad8762f0c","ios":"levelo://app?vid=5c1bebe8-43bf-476b-a01e-98bad8762f0c"},"vehicle_type_id":"4","last_reported":1769711436,"current_range_meters":8800,"station_id":"st_d2m6c4gdas8pm72e190g","pricing_plan_id":"cebpf4jnsgd1na2vs0mg"},{"bike_id":"73a6585c-b10e-4f79-a29b-c3e206c1ffc8","system_id":"levelo_inurba_marseille","lat":43.269395,"lon":5.402397,"is_reserved":false,"is_disabled":false,"rental_uris":{"android":"levelo://app?vid=73a6585c-b10e-4f79-a29b-c3e206c1ffc8","ios":"levelo://app?vid=73a6585c-b10e-4f79-a29b-c3e206c1ffc8"},"vehicle_type_id":"4","last_reported":1769711436,"current_range_meters":8800,"station_id":"cjm6bp8fraef2m0cb0m0","pricing_plan_id":"cebpf4jnsgd1na2vs0mg"},{"bike_id":"dd4353ce-d18d-4e49-a8f6-346c15c71af7","system_id":"levelo_inurba_marseille","lat":43.2971,"lon":5.36584,"is_reserved":false,"is_disabled":false,"rental_uris":{"android":"levelo://app?vid=dd4353ce-d18d-4e49-a8f6-346c15c71af7","ios":"levelo://app?vid=dd4353ce-d18d-4e49-a8f6-346c15c71af7"},"vehicle_type_id":"4","last_reported":1769711436,"current_range_meters":8800,"station_id":"ce4bgn12rcd13ifvqbt0","pricing_plan_id":"cebpf4jnsgd1na2vs0mg"},{"bike_id":"f3239b9e-e657-464c-a0ef-641807cec97c","system_id":"levelo_inurba_marseille","lat":43.31373,"lon":5.38495,"is_reserved":false,"is_disabled":false,"rental_uris":{"android":"levelo://app?vid=f3239b9e-e657-464c-a0ef-641807cec97c","ios":"levelo://app?vid=f3239b9e-e657-464c-a0ef-641807cec97c"},"vehicle_type_id":"4","last_reported":1769711436,"current_range_meters":8800,"station_id":"ce4bgt92rcd13ifvqcf0","pricing_plan_id":"cebpf4jnsgd1na2vs0mg"},{"bike_id":"69cd541c-db0a-4eeb-8903-4f3d28282f04","system_id":"levelo_inurba_marseille","lat":43.24807,"lon":5.37449,"is_reserved":false,"is_disabled":false,"rental_uris":{"android":"levelo://app?vid=69cd541c-db0a-4eeb-8903-4f3d28282f04","ios":"levelo://app?vid=69cd541c-db0a-4eeb-8903-4f3d28282f04"},"vehicle_type_id":"4","last_reported":1769711436,"current_range_meters":8800,"station_id":"ce4bhgh2rcd13ifvqfb0","pricing_plan_id":"cebpf4jnsgd1na2vs0mg"},{"bike_id":"65b759d9-e66a-4cc0-915d-2e8ad0441e0c","system_id":"levelo_inurba_marseille","lat":43.31053,"lon":5.38632,"is_reserved":false,"is_disabled":false,"rental_uris":{"android":"levelo://app?vid=65b759d9-e66a-4cc0-915d-2e8ad0441e0c","ios":"levelo://app?vid=65b759d9-e66a-4cc0-915d-2e8ad0441e0c"},"vehicle_type_id":"4","last_reported":1769711436,"current_range_meters":8800,"station_id":"","pricing_plan_id":"cebpf4jnsgd1na2vs0mg"},{"bike_id":"337258ab-e19c-4b45-b658-3a4dc5b639cd","system_id":"levelo_inurba_marseille","lat":43.30164,"lon":5.36627,"is_reserved":false,"is_disabled":false,"rental_uris":{"android":"levelo://app?vid=337258ab-e19c-4b45-b658-3a4dc5b639cd","ios":"levelo://app?vid=337258ab-e19c-4b45-b658-3a4dc5b639cd"},"vehicle_type_id":"4","last_reported":1769711436,"current_range_meters":8800,"station_id":"ce4bgrh2rcd13ifvqc8g","pricing_plan_id":"cebpf4jnsgd1na2vs0mg"},{"bike_id":"b3808154-86af-47d0-966c-f1cc0984587d","system_id":"levelo_inurba_marseille","lat":43.33749,"lon":5.37477,"is_reserved":false,"is_disabled":false,"rental_uris":{"android":"levelo://app?vid=b3808154-86af-47d0-966c-f1cc0984587d","ios":"levelo://app?vid=b3808154-86af-47d0-966c-f1cc0984587d"},"vehicle_type_id":"4","last_reported":1769711436,"current_range_meters":8800,"station_id":"","pricing_plan_id":"cebpf4jnsgd1na2vs0mg"},{"bike_id":"6f2111dd-6b6a-402c-9729-62f7313dcc5e","system_id":"levelo_inurba_marseille","lat":43.323524,"lon":5.367517,"is_reserved":false,"is_disabled":false,"rental_uris":{"android":"levelo://app?vid=6f2111dd-6b6a-402c-9729-62f7313dcc5e","ios":"levelo://app?vid=6f2111dd-6b6a-402c-9729-62f7313dcc5e"},"vehicle_type_id":"4","last_reported":1769711436,"current_range_meters":9200,"station_id":"ce4bhsh2rcd13ifvqi2g","pricing_plan_id":"cebpf4jnsgd1na2vs0mg"},