{"last_updated":1710788786,"ttl":30,"version":"2.2","data":{"bikes":[{"bike_id":"79c522dd-9cff-48b3-98d9-0415f2a6f129","system_id":"levelo_inurba_marseille","lat":43.312107,"lon":5.36884,"is_reserved":false,"is_disabled":false,"rental_uris":{"android":"levelo://app?vid=79c522dd-9cff-48b3-98d9-0415f2a6f129","ios":"levelo://app?vid=79c522dd-9cff-48b3-98d9-0415f2a6f129"},"vehicle_type_id":"4","last_reported":1710788786,"current_range_meters":0,"station_id":"ce4bgl92rcd13ifvqbq0","pricing_plan_id":"cebpf4jnsgd1na2vs0mg"},{"bike_id":"b95e9f9b-912e-4cec-b8ed-4793ca6e6b32","system_id":"levelo_inurba_marseille","lat":43.309076,"lon":5.368465,"is_reserved":false,"is_disabled":false,"rental_uris":{"android":"levelo://app?vid=b95e9f9b-912e-4cec-b8ed-4793ca6e6b32","ios":"levelo://app?vid=b95e9f9b-912e-4cec-b8ed-4793ca6e6b32"},"vehicle_type_id":"4","last_reported":1710788786,"current_range_meters":2800,"station_id":"ce4bgn92rcd13ifvqbvg","pricing_plan_id":"cebpf4jnsgd1na2vs0mg"},{"bike_id":"69b563c8-09d2-42a2-bb2a-acc54db4a227","system_id":"levelo_inurba_marseille","lat":43.309076,"lon":5.368465,"is_reserved":false,"is_disabled":false,"rental_uris":{"android":"levelo://app?vid=69b563c8-09d2-42a2-bb2a-acc54db4a227","ios":"levelo://app?vid=69b563c8-09d2-42a2-bb2a-acc54db4a227"},"vehicle_type_id":"4","last_reported":1710788786,"current_range_meters":5200,"station_id":"ce4bgn92rcd13ifvqbvg","pricing_plan_id":"cebpf4jnsgd1na2vs0mg"},{"bike_id":"18107712-9c40-49de-9eb0-012a6a3dad8d","system_id":"levelo_inurba_marseille","lat":43.308477,"lon":5.368335,"is_reserved":false,"is_disabled":false,"rental_uris":{"android":"levelo://app?vid=18107712-9c40-49de-9eb0-012a6a3dad8d","ios":"levelo://app?vid=18107712-9c40-49de-9eb0-012a6a3dad8d"},"vehicle_type_id":"4","last_reported":1710788786,"current_range_meters":16400,"station_id":"","pricing_plan_id":"cebpf4jnsgd1na2vs0mg"},{"bike_id":"6c40fd6f-561f-41fe-9d33-95e133e1ace1","system_id":"levelo_inurba_marseille","lat":43.305706,"lon":5.365654,"is_reserved":false,"is_disabled":false,"rental_uris":{"android":"levelo://app?vid=6c40fd6f-561f-41fe-9d33-95e133e1ace1","ios":"levelo://app?vid=6c40fd6f-561f-41fe-9d33-95e133e1ace1"},"vehicle_type_id":"4","last_reported":1710788786,"current_range_meters":22000,"station_id":"ce4bgs12rcd13ifvqcag","pricing_plan_id":"cebpf4jnsgd1na2vs0mg"},{"bike_id":"87beb303-02bd-4cda-9883-bfe3e0640c0c","system_id":"levelo_inurba_marseille","lat":43.305368,"lon":5.367343,"is_reserved":false,"is_disabled":false,"rental_uris":{"android":"levelo://app?vid=87beb303-02bd-4cda-9883-bfe3e0640c0c","ios":"levelo://app?vid=87beb303-02bd-4cda-9883-bfe3e0640c0c"},"vehicle_type_id":"4","last_reported":1710788786,"current_range_meters":3600,"station_id":"ce4bgrp2rcd13ifvqc9g","pricing_plan_id":"cebpf4jnsgd1na2vs0mg"},{"bike_id":"8a919797-f788-4e70-aa73-685ab4f53a2a","system_id":"levelo_inurba_marseille","lat":43.305368,"lon":5.367343,"is_reserved":false,"is_disabled":false,"rental_uris":{"android":"levelo://app?vid=8a919797-f788-4e70-aa73-685ab4f53a2a","ios":"levelo://app?vid=8a919797-f788-4e70-aa73-685ab4f53a2a"},"vehicle_type_id":"4","last_reported":1710788786,"current_range_meters":0,"station_id":"ce4bgrp2rcd13ifvqc9g","pricing_plan_id":"cebpf4jnsgd1na2vs0mg"},{"bike_id":"91ae875c-c747-4fd6-b961-9fec7de1ce4c","system_id":"levelo_inurba_marseille","lat":43.305989,"lon":5.37225,"is_reserved":false,"is_disabled":false,"rental_uris":{"android":"levelo://app?vid=91ae875c-c747-4fd6-b961-9fec7de1ce4c","ios":"levelo://app?vid=91ae875c-c747-4fd6-b961-9fec7de1ce4c"},"vehicle_type_id":"4","last_reported":1710788786,"current_range_meters":22400,"station_id":"ce4bgqh2rcd13ifvqc4g","pricing_plan_id":"cebpf4jnsgd1na2vs0mg"},{"bike_id":"6069e4e4-17f2-41a9-8d4e-0b5705801886","system_id":"levelo_inurba_marseille","lat":43.305989,"lon":5.37225,"is_reserved":false,"is_disabled":false,"rental_uris":{"android":"levelo://app?vid=6069e4e4-17f2-41a9-8d4e-0b5705801886","ios":"levelo://app?vid=6069e4e4-17f2-41a9-8d4e-0b5705801886"},"vehicle_type_id":"4","last_reported":1710788786,"current_range_meters":2000,"station_id":"ce4bgqh2rcd13ifvqc4g","pricing_plan_id":"cebpf4jnsgd1na2vs0mg"},{"bike_id":"ba2565c0-1c4e-418e-8c4c-380edc036b43","system_id":"levelo_inurba_marseille","lat":43.305989,"lon":5.37225,"is_reserved":false,"is_disabled":false,"rental_uris":{"android":"levelo://app?vid=ba2565c0-1c4e-418e-8c4c-380edc036b43","ios":"levelo://app?vid=ba2565c0-1c4e-418e-8c4c-380edc036b43"},"vehicle_type_id":"4","last_reported":1710788786,"current_range_meters":0,"station_id":"ce4bgqh2rcd13ifvqc4g","pricing_plan_id":"cebpf4jnsgd1na2vs0mg"},{"bike_id":"0e1f9570-7815-41ba-b9f9-1b6063e1b464","system_id":"levelo_inurba_marseille","lat":43.305989,"lon":5.37225,"is_reserved":false,"is_disabled":false,"rental_uris":{"android":"levelo://app?vid=0e1f9570-7815-41ba-b9f9-1b6063e1b464","ios":"levelo://app?vid=0e1f9570-7815-41ba-b9f9-1b6063e1b464"},"vehicle_type_id":"4","last_reported":1710788786,"current_range_meters":14000,"station_id":"ce4bgqh2rcd13ifvqc4g","pricing_plan_id":"cebpf4jnsgd1na2vs0mg"},{"bike_id":"3fb4b159-6f28-47c4-8fb5-7345cced8991","system_id":"levelo_inurba_marseille","lat":43.305989,"lon":5.37225,"is_reserved":false,"is_disabled":false,"rental_uris":{"android":"levelo://app?vid=3fb4b159-6f28-47c4-8fb5-7345cced8991","ios":"levelo://app?vid=3fb4b159-6f28-47c4-8fb5-7345cced8991"},"vehicle_type_id":"4","last_reported":1710788786,"current_range_meters":2000,"station_id":"ce4bgqh2rcd13ifvqc4g","pricing_plan_id":"cebpf4jnsgd1na2vs0mg"},{"bike_id":"bf0cc631-2b94-4c94-bbb3-d10f4a92a1b1","system_id":"levelo_inurba_marseille","lat":43.305989,"lon":5.37225,"is_reserved":false,"is_disabled":false,"rental_uris":{"android":"levelo://app?vid=bf0cc631-2b94-4c94-bbb3-d10f4a92a1b1","ios":"levelo://app?vid=bf0cc631-2b94-4c94-bbb3-d10f4a92a1b1"},"vehicle_type_id":"4","last_reported":1710788786,"current_range_meters":11200,"station_id":"ce4bgqh2rcd13ifvqc4g","pricing_plan_id":"cebpf4jnsgd1na2vs0mg"},{"bike_id":"a2b04d82-4201-4a2c-bbd7-0d5d9273e229","system_id":"levelo_inurba_marseille","lat":43.305989,"lon":5.37225,"is_reserved":false,"is_disabled":false,"rental_uris":{"android":"levelo://app?vid=a2b04d82-4201-4a2c-bbd7-0d5d9273e229","ios":"levelo://app?vid=a2b04d82-4201-4a2c-bbd7-0d5d9273e229"},"vehicle_type_id":"4","last_reported":1710788786,"current_range_meters":11600,"station_id":"ce4bgqh2rcd13ifvqc4g","pricing_plan_id":"cebpf4jnsgd1na2vs0mg"},{"bike_id":"67f49362-5983-4f37-84bb-9577f66a1bc9","system_id":"levelo_inurba_marseille","lat":43.305989,"lon":5.37225,"is_reserved":false,"is_disabled":false,"rental_uris":{"android":"levelo://app?vid=67f49362-5983-4f37-84bb-9577f66a1bc9","ios":"levelo://app?vid=67f49362-5983-4f37-84bb-9577f66a1bc9"},"vehicle_type_id":"4","last_reported":1710788786,"current_range_meters":20400,"station_id":"ce4bgqh2rcd13ifvqc4g","pricing_plan_id":"cebpf4jnsgd1na2vs0mg"},{"bike_id":"e107fb6a-c28b-44cf-b556-a9daff834d02","system_id":"levelo_inurba_marseille","lat":43.305989,"lon":5.37225,"is_reserved":false,"is_disabled":false,"rental_uris":{"android":"levelo://app?vid=e107fb6a-c28b-44cf-b556-a9daff834d02","ios":"levelo://app?vid=e107fb6a-c28b-44cf-b556-a9daff834d02"},"vehicle_type_id":"4","last_reported":1710788786,"current_range_meters":3600,"station_id":"ce4bgqh2rcd13ifvqc4g","pricing_plan_id":"cebpf4jnsgd1na2vs0mg"},{"bike_id":"65bca4df-48b4-43c6-a726-712e1c762b12","system_id":"levelo_inurba_marseille","lat":43.305989,"lon":5.37225,"is_reserved":false,"is_disabled":false,"rental_uris":{"android":"levelo://app?vid=65bca4df-48b4-43c6-a726-712e1c762b12","ios":"levelo://app?vid=65bca4df-48b4-43c6-a726-712e1c762b12"},"vehicle_type_id":"4","last_reported":1710788786,"current_range_meters":0,"station_id":"ce4bgqh2rcd13ifvqc4g","pricing_plan_id":"cebpf4jnsgd1na2vs0mg"},{"bike_id":"9f9b71a3-c2d5-4438-93f0-3ec877b8cd71","system_id":"levelo_inurba_marseille","lat":43.31124,"lon":5.3777,"is_reserved":false,"is_disabled":false,"rental_uris":{"android":"levelo://app?vid=9f9b71a3-c2d5-4438-93f0-3ec877b8cd71","ios":"levelo://app?vid=9f9b71a3-c2d5-4438-93f0-3ec877b8cd71"},"vehicle_type_id":"4","last_reported":1710788786,"current_range_meters":20800,"station_id":"ce4bgt92rcd13ifvqcg0","pricing_plan_id":"cebpf4jnsgd1na2vs0mg"},{"bike_id":"a2e34a37-3f79-4668-95a3-38a9c3084e99","system_id":"levelo_inurba_marseille","lat":43.31119,"lon":5.37771,"is_reserved":false,"is_disabled":false,"rental_uris":{"android":"levelo://app?vid=a2e34a37-3f79-4668-95a3-38a9c3084e99","ios":"levelo://app?vid=a2e34a37-3f79-4668-95a3-38a9c3084e99"},"vehicle_type_id":"4","last_reported":1710788786,"current_range_meters":0,"station_id":"ce4bgt92rcd13ifvqcg0","pricing_plan_id":"cebpf4jnsgd1na2vs0mg"},{"bike_id":"9eca312e-76fb-4ab3-a6a0-46fdf794e63a","system_id":"levelo_inurba_marseille","lat":43.305368,"lon":5.367343,"is_reserved":false,"is_disabled":false,"rental_uris":{"android":"levelo://app?vid=9eca312e-76fb-4ab3-a6a0-46fdf794e63a","ios":"levelo://app?vid=9eca312e-76fb-4ab3-a6a0-46fdf794e63a"},"vehicle_type_id":"4","last_reported":1710788786,"current_range_meters":0,"station_id":"ce4bgrp2rcd13ifvqc9g","pricing_plan_id":"cebpf4jnsgd1na2vs0mg"},{"bike_id":"a6fa6a5c-ecc8-4aa3-af74-41cef5e31c9c","system_id":"levelo_inurba_marseille","lat":43.311131,"lon":5.377651,"is_reserved":false,"is_disabled":false,"rental_uris":{"android":"levelo://app?vid=a6fa6a5c-ecc8-4aa3-af74-41cef5e31c9c","ios":"levelo://app?vid=a6fa6a5c-ecc8-4aa3-af74-41cef5e31c9c"},"vehicle_type_id":"4","last_reported":1710788786,"current_range_meters":0,"station_id":"ce4bgt92rcd13ifvqcg0","pricing_plan_id":"cebpf4jnsgd1na2vs0mg"},{"bike_id":"2dd714ec-343d-4f9d-ba29-8d35177482bd","system_id":"levelo_inurba_marseille","lat":43.307945,"lon":5.376487,"is_reserved":false,"is_disabled":false,"rental_uris":{"android":"levelo://app?vid=2dd714ec-343d-4f9d-ba29-8d35177482bd","ios":"levelo://app?vid=2dd714ec-343d-4f9d-ba29-8d35177482bd"},"vehicle_type_id":"4","last_reported":1710788786,"current_range_meters":8400,"station_id":"ce4bgv92rcd13ifvqcq0","pricing_plan_id":"cebpf4jnsgd1na2vs0mg"},{"bike_id":"dbcc1b07-42a3-484b-90ca-de829cf39713","system_id":"levelo_inurba_marseille","lat":43.317193,"lon":5.37742,"is_reserved":false,"is_disabled":false,"rental_uris":{"android":"levelo://app?vid=dbcc1b07-42a3-484b-90ca-de829cf39713","ios":"levelo://app?vid=dbcc1b07-42a3-484b-90ca-de829cf39713"},"vehicle_type_id":"4","last_reported":1710788786,"current_range_meters":14400,"station_id":"ce4bgth2rcd13ifvqch0","pricing_plan_id":"cebpf4jnsgd1na2vs0mg"},{"bike_id":"2d9bdcd6-c636-4f90-9b51-c640c7008bb9","system_id":"levelo_inurba_marseille","lat":43.317188,"lon":5.377552,"is_reserved":false,"is_disabled":false,"rental_uris":{"android":"levelo://app?vid=2d9bdcd6-c636-4f90-9b51-c640c7008bb9","ios":"levelo://app?vid=2d9bdcd6-c636-4f90-9b51-c640c7008bb9"},"vehicle_type_id":"4","last_reported":1710788786,"current_range_meters":16000,"station_id":"","pricing_plan_id":"cebpf4jnsgd1na2vs0mg"},{"bike_id":"c7ddc5e7-5888-46a5-977b-b52c6c7ce114","system_id":"levelo_inurba_marseille","lat":43.315289,"lon":5.380349,"is_reserved":false,"is_disabled":false,"rental_uris":{"android":"levelo://app?vid=c7ddc5e7-5888-46a5-977b-b52c6c7ce114","ios":"levelo://app?vid=c7ddc5e7-5888-46a5-977b-b52c6c7ce114"},"vehicle_type_id":"4","last_reported":1710788786,"current_range_meters":7200,"station_id":"ce4bhsp2rcd13ifvqi50","pricing_plan_id":"cebpf4jnsgd1na2vs0mg"},{"bike_id":"e3207a43-f72e-4c87-be7e-09c995d0d933","system_id":"levelo_inurba_marseille","lat":43.303056,"lon":5.368791,"is_reserved":false,"is_disabled":false,"rental_uris":{"android":"levelo://app?vid=e3207a43-f72e-4c87-be7e-09c995d0d933","ios":"levelo://app?vid=e3207a43-f72e-4c87-be7e-09c995d0d933"},"vehicle_type_id":"4","last_reported":1710788786,"current_range_meters":800,"station_id":"ce4bgj92rcd13ifvqbd0","pricing_plan_id":"cebpf4jnsgd1na2vs0mg"},{"bike_id":"a5755d2e-536f-4cd6-870b-5dc413b48a8a","system_id":"levelo_inurba_marseille","lat":43.30304,"lon":5.36905,"is_reserved":false,"is_disabled":false,"rental_uris":{"android":"levelo://app?vid=a5755d2e-536f-4cd6-870b-5dc413b48a8a","ios":"levelo://app?vid=a5755d2e-536f-4cd6-870b-5dc413b48a8a"},"vehicle_type_id":"4","last_reported":1710788786,"current_range_meters":0,"station_id":"ce4bgqh2rcd13ifvqc5g","pricing_plan_id":"cebpf4jnsgd1na2vs0mg"},{"bike_id":"8e255f8b-0d64-4b4e-b89e-d86810bd0165","system_id":"levelo_inurba_marseille","lat":43.315289,"lon":5.380349,"is_reserved":false,"is_disabled":false,"rental_uris":{"android":"levelo://app?vid=8e255f8b-0d64-4b4e-b89e-d86810bd0165","ios":"levelo://app?vid=8e255f8b-0d64-4b4e-b89e-d86810bd0165"},"vehicle_type_id":"4","last_reported":1710788786,"current_range_meters":2400,"station_id":"ce4bhsp2rcd13ifvqi50","pricing_plan_id":"cebpf4jnsgd1na2vs0mg"},{"bike_id":"850ed1c8-4739-4861-82e5-201f476f008d","system_id":"levelo_inurba_marseille","lat":43.315289,"lon":5.380349,"is_reserved":false,"is_disabled":false,"rental_uris":{"android":"levelo://app?vid=850ed1c8-4739-4861-82e5-201f476f008d","ios":"levelo://app?vid=850ed1c8-4739-4861-82e5-201f476f008d"},"vehicle_type_id":"4","last_reported":1710788786,"current_range_meters":0,"station_id":"ce4bhsp2rcd13ifvqi50","pricing_plan_id":"cebpf4jnsgd1na2vs0mg"},{"bike_id":"25269351-4448-4370-9e01-9c7ee7b57213","system_id":"levelo_inurba_marseille","lat":43.301939,"lon":5.366286,"is_reserved":false,"is_disabled":false,"rental_uris":{"android":"levelo://app?vid=25269351-4448-4370-9e01-9c7ee7b57213","ios":"levelo://app?vid=25269351-4448-4370-9e01-9c7ee7b57213"},"vehicle_type_id":"4","last_reported":1710788786,"current_range_meters":0,"station_id":"ce4bgrh2rcd13ifvqc8g","pricing_plan_id":"cebpf4jnsgd1na2vs0mg"},{"bike_id":"8be96946-296a-4041-a1ce-0e44494c458e","system_id":"levelo_inurba_marseille","lat":43.301939,"lon":5.366286,"is_reserved":false,"is_disabled":false,"rental_uris":{"android":"levelo://app?vid=8be96946-296a-4041-a1ce-0e44494c458e","ios":"levelo://app?vid=8be96946-296a-4041-a1ce-0e44494c458e"},"vehicle_type_id":"4","last_reported":1710788786,"current_range_meters":24800,"station_id":"ce4bgrh2rcd13ifvqc8g","pricing_plan_id":"cebpf4jnsgd1na2vs0mg"},{"bike_id":"e808e3b3-98bc-41f6-84df-bfabf0e0ecf1","system_id":"levelo_inurba_marseille","lat":43.308074,"lon":5.381502,"is_reserved":false,"is_disabled":false,"rental_uris":{"android":"levelo://app?vid=e808e3b3-98bc-41f6-84df-bfabf0e0ecf1","ios":"levelo://app?vid=e808e3b3-98bc-41f6-84df-bfabf0e0ecf1"},"vehicle_type_id":"4","last_reported":1710788786,"current_range_meters":0,"station_id":"ce4bgt12rcd13ifvqce0","pricing_plan_id":"cebpf4jnsgd1na2vs0mg"},{"bike_id":"441d5266-a8b0-4998-b946-218c78c77cf1","system_id":"levelo_inurba_marseille","lat":43.30805,"lon":5.38154,"is_reserved":false,"is_disabled":false,"rental_uris":{"android":"levelo://app?vid=441d5266-a8b0-4998-b946-218c78c77cf1","ios":"levelo://app?vid=441d5266-a8b0-4998-b946-218c78c77cf1"},"vehicle_type_id":"4","last_reported":1710788786,"current_range_meters":0,"station_id":"ce4bgt12rcd13ifvqce0","pricing_plan_id":"cebpf4jnsgd1na2vs0mg"},{"bike_id":"7913a792-aed6-45ad-9bdb-e29ac94bb379","system_id":"levelo_inurba_marseille","lat":43.324771,"lon":5.36557,"is_reserved":false,"is_disabled":false,"rental_uris":{"android":"levelo://app?vid=7913a792-aed6-45ad-9bdb-e29ac94bb379","ios":"levelo://app?vid=7913a792-aed6-45ad-9bdb-e29ac94bb379"},"vehicle_type_id":"4","last_reported":1710788786,"current_range_meters":0,"station_id":"ce4bhs12rcd13ifvqhvg","pricing_plan_id":"cebpf4jnsgd1na2vs0mg"},{"bike_id":"0816793d-1fca-4134-92d4-90b3bf1313d5","system_id":"levelo_inurba_marseille","lat":43.324771,"lon":5.36557,"is_reserved":false,"is_disabled":false,"rental_uris":{"android":"levelo://app?vid=0816793d-1fca-4134-92d4-90b3bf1313d5","ios":"levelo://app?vid=0816793d-1fca-4134-92d4-90b3bf1313d5"},"vehicle_type_id":"4","last_reported":1710788786,"current_range_meters":12400,"station_id":"ce4bhs12rcd13ifvqhvg","pricing_plan_id":"cebpf4jnsgd1na2vs0mg"},{"bike_id":"79a9f218-61ec-4a13-ae01-39c83265df8b","system_id":"levelo_inurba_marseille","lat":43.324771,"lon":5.36557,"is_reserved":false,"is_disabled":false,"rental_uris":{"android":"levelo://app?vid=79a9f218-61ec-4a13-ae01-39c83265df8b","ios":"levelo://app?vid=79a9f218-61ec-4a13-ae01-39c83265df8b"},"vehicle_type_id":"4","last_reported":1710788786,"current_range_meters":16800,"station_id":"ce4bhs12rcd13ifvqhvg","pricing_plan_id":"cebpf4jnsgd1na2vs0mg"},{"bike_id":"50414698-59d1-4dd1-95e9-1c1e788af058","system_id":"levelo_inurba_marseille","lat":43.324771,"lon":5.36557,"is_reserved":false,"is_disabled":false,"rental_uris":{"android":"levelo://app?vid=50414698-59d1-4dd1-95e9-1c1e788af058","ios":"levelo://app?vid=50414698-59d1-4dd1-95e9-1c1e788af058"},"vehicle_type_id":"4","last_reported":1710788786,"current_range_meters":14000,"station_id":"ce4bhs12rcd13ifvqhvg","pricing_plan_id":"cebpf4jnsgd1na2vs0mg"},{"bike_id":"c59bee61-0974-4e45-8386-bda8425ea8fd","system_id":"levelo_inurba_marseille","lat":43.324771,"lon":5.36557,"is_reserved":false,"is_disabled":false,"rental_uris":{"android":"levelo://app?vid=c59bee61-0974-4e45-8386-bda8425ea8fd","ios":"levelo://app?vid=c59bee61-0974-4e45-8386-bda8425ea8fd"},"vehicle_type_id":"4","last_reported":1710788786,"current_range_meters":29600,"station_id":"ce4bhs12rcd13ifvqhvg","pricing_plan_id":"cebpf4jnsgd1na2vs0mg"},{"bike_id":"c69ae619-ff3a-4b02-a9d9-4fe1177389bd","system_id":"levelo_inurba_marseille","lat":43.324771,"lon":5.36557,"is_reserved":false,"is_disabled":false,"rental_uris":{"android":"levelo://app?vid=c69ae619-ff3a-4b02-a9d9-4fe1177389bd","ios":"levelo://app?vid=c69ae619-ff3a-4b02-a9d9-4fe1177389bd"},"vehicle_type_id":"4","last_reported":1710788786,"current_range_meters":21600,"station_id":"ce4bhs12rcd13ifvqhvg","pricing_plan_id":"cebpf4jnsgd1na2vs0mg"},{"bike_id":"8e19bf73-b01f-4c74-99be-550febd51e79","system_id":"levelo_inurba_marseille","lat":43.310843,"lon":5.383511,"is_reserved":false,"is_disabled":false,"rental_uris":{"android":"levelo://app?vid=8e19bf73-b01f-4c74-99be-550febd51e79","ios":"levelo://app?vid=8e19bf73-b01f-4c74-99be-550febd51e79"},"vehicle_type_id":"4","last_reported":1710788786,"current_range_meters":0,"station_id":"ce4bgv92rcd13ifvqcr0","pricing_plan_id":"cebpf4jnsgd1na2vs0mg"},{"bike_id":"bba867ca-0a3b-46cd-9435-c2fd7650a6e1","system_id":"levelo_inurba_marseille","lat":43.30152,"lon":5.37406,"is_reserved":false,"is_disabled":false,"rental_uris":{"android":"levelo://app?vid=bba867ca-0a3b-46cd-9435-c2fd7650a6e1","ios":"levelo://app?vid=bba867ca-0a3b-46cd-9435-c2fd7650a6e1"},"vehicle_type_id":"4","last_reported":1710788786,"current_range_meters":14800,"station_id":"ce4bgs92rcd13ifvqcc0","pricing_plan_id":"cebpf4jnsgd1na2vs0mg"},{"bike_id":"d1f0a2b6-04b1-40cd-9b9b-8647f6d58ea4","system_id":"levelo_inurba_marseille","lat":43.320039,"lon":5.381284,"is_reserved":false,"is_disabled":false,"rental_uris":{"android":"levelo://app?vid=d1f0a2b6-04b1-40cd-9b9b-8647f6d58ea4","ios":"levelo://app?vid=d1f0a2b6-04b1-40cd-9b9b-8647f6d58ea4"},"vehicle_type_id":"4","last_reported":1710788786,"current_range_meters":0,"station_id":"ce4bhr12rcd13ifvqhpg","pricing_plan_id":"cebpf4jnsgd1na2vs0mg"},{"bike_id":"4bc451a1-3314-4300-994e-f9fd16ea23b7","system_id":"levelo_inurba_marseille","lat":43.31992,"lon":5.381474,"is_reserved":false,"is_disabled":false,"rental_uris":{"android":"levelo://app?vid=4bc451a1-3314-4300-994e-f9fd16ea23b7","ios":"levelo://app?vid=4bc451a1-3314-4300-994e-f9fd16ea23b7"},"vehicle_type_id":"4","last_reported":1710788786,"current_range_meters":15600,"station_id":"ce4bhr12rcd13ifvqhpg","pricing_plan_id":"cebpf4jnsgd1na2vs0mg"},{"bike_id":"5d785fbb-7571-4e78-8cc8-1ff6485fcb25","system_id":"levelo_inurba_marseille","lat":43.31999,"lon":5.38144,"is_reserved":false,"is_disabled":false,"rental_uris":{"android":"levelo://app?vid=5d785fbb-7571-4e78-8cc8-1ff6485fcb25","ios":"levelo://app?vid=5d785fbb-7571-4e78-8cc8-1ff6485fcb25"},"vehicle_type_id":"4","last_reported":1710788786,"current_range_meters":10000,"station_id":"ce4bhr12rcd13ifvqhpg","pricing_plan_id":"cebpf4jnsgd1na2vs0mg"},{"bike_id":"e56266a3-315d-4809-950e-29919c2ecca0","system_id":"levelo_inurba_marseille","lat":43.31994,"lon":5.38157,"is_reserved":false,"is_disabled":false,"rental_uris":{"android":"levelo://app?vid=e56266a3-315d-4809-950e-29919c2ecca0","ios":"levelo://app?vid=e56266a3-315d-4809-950e-29919c2ecca0"},"vehicle_type_id":"4","last_reported":1710788786,"current_range_meters":3200,"station_id":"ce4bhr12rcd13ifvqhpg","pricing_plan_id":"cebpf4jnsgd1na2vs0mg"},{"bike_id":"9b819b7e-205b-4d12-ba41-8b903a27d492","system_id":"levelo_inurba_marseille","lat":43.319935,"lon":5.381699,"is_reserved":false,"is_disabled":false,"rental_uris":{"android":"levelo://app?vid=9b819b7e-205b-4d12-ba41-8b903a27d492","ios":"levelo://app?vid=9b819b7e-205b-4d12-ba41-8b903a27d492"},"vehicle_type_id":"4","last_reported":1710788786,"current_range_meters":22800,"station_id":"ce4bhr12rcd13ifvqhpg","pricing_plan_id":"cebpf4jnsgd1na2vs0mg"},{"bike_id":"99b6d252-0b8b-4d81-bda6-bfc67dc33b41","system_id":"levelo_inurba_marseille","lat":43.31997,"lon":5.38156,"is_reserved":false,"is_disabled":false,"rental_uris":{"android":"levelo://app?vid=99b6d252-0b8b-4d81-bda6-bfc67dc33b41","ios":"levelo://app?vid=99b6d252-0b8b-4d81-bda6-bfc67dc33b41"},"vehicle_type_id":"4","last_reported":1710788786,"current_range_meters":14800,"station_id":"ce4bhr12rcd13ifvqhpg","pricing_plan_id":"cebpf4jnsgd1na2vs0mg"},{"bike_id":"be83824f-cd7e-44ed-bda3-89905b40ab1f","system_id":"levelo_inurba_marseille","lat":43.319959,"lon":5.381578,"is_reserved":false,"is_disabled":false,"rental_uris":{"android":"levelo://app?vid=be83824f-cd7e-44ed-bda3-89905b40ab1f","ios":"levelo://app?vid=be83824f-cd7e-44ed-bda3-89905b40ab1f"},"vehicle_type_id":"4","last_reported":1710788786,"current_range_meters":11200,"station_id":"ce4bhr12rcd13ifvqhpg","pricing_plan_id":"cebpf4jnsgd1na2vs0mg"},{"bike_id":"b3015aab-550e-45d6-9e44-61aef91bf99b","system_id":"levelo_inurba_marseille","lat":43.319958,"lon":5.381606,"is_reserved":false,"is_disabled":false,"rental_uris":{"android":"levelo://app?vid=b3015aab-550e-45d6-9e44-61aef91bf99b","ios":"levelo://app?vid=b3015aab-550e-45d6-9e44-61aef91bf99b"},"vehicle_type_id":"4","last_reported":1710788786,"current_range_meters":16400,"station_id":"ce4bhr12rcd13ifvqhpg","pricing_plan_id":"cebpf4jnsgd1na2vs0mg"},{"bike_id":"b9e8c6df-62be-462e-9e81-02e3047da4eb","system_id":"levelo_inurba_marseille","lat":43.319935,"lon":5.381699,"is_reserved":false,"is_disabled":false,"rental_uris":{"android":"levelo://app?vid=b9e8c6df-62be-462e-9e81-02e3047da4eb","ios":"levelo://app?vid=b9e8c6df-62be-462e-9e81-02e3047da4eb"},"vehicle_type_id":"4","last_reported":1710788786,"current_range_meters":22800,"station_id":"ce4bhr12rcd13ifvqhpg","pricing_plan_id":"cebpf4jnsgd1na2vs0mg"},{"bike_id":"bf310d92-9fb8-4e92-9e5c-7371b2a2f5f5","system_id":"levelo_inurba_marseille","lat":43.319935,"lon":5.381699,"is_reserved":false,"is_disabled":false,"rental_uris":{"android":"levelo://app?vid=bf310d92-9fb8-4e92-9e5c-7371b2a2f5f5","ios":"levelo://app?vid=bf310d92-9fb8-4e92-9e5c-7371b2a2f5f5"},"vehicle_type_id":"4","last_reported":1710788786,"current_range_meters":7600,"station_id":"ce4bhr12rcd13ifvqhpg","pricing_plan_id":"cebpf4jnsgd1na2vs0mg"},{"bike_id":"32f4d226-b8f1-44f0-8277-cfd05f9842a8","system_id":"levelo_inurba_marseille","lat":43.32001,"lon":5.38159,"is_reserved":false,"is_disabled":false,"rental_uris":{"android":"levelo://app?vid=32f4d226-b8f1-44f0-8277-cfd05f9842a8","ios":"levelo://app?vid=32f4d226-b8f1-44f0-8277-cfd05f9842a8"},"vehicle_type_id":"4","last_reported":1710788786,"current_range_meters":18000,"station_id":"ce4bhr12rcd13ifvqhpg","pricing_plan_id":"cebpf4jnsgd1na2vs0mg"},{"bike_id":"e5824f49-4070-4b07-ace0-c399f0b56171","system_id":"levelo_inurba_marseille","lat":43.301429,"lon":5.37413,"is_reserved":false,"is_disabled":false,"rental_uris":{"android":"levelo://app?vid=e5824f49-4070-4b07-ace0-c399f0b56171","ios":"levelo://app?vid=e5824f49-4070-4b07-ace0-c399f0b56171"},"vehicle_type_id":"4","last_reported":1710788786,"current_range_meters":18000,"station_id":"ce4bgs92rcd13ifvqcc0","pricing_plan_id":"cebpf4jnsgd1na2vs0mg"},{"bike_id":"5b0382a0-7823-4dd2-9397-1eb81b12adae","system_id":"levelo_inurba_marseille","lat":43.299813,"lon":5.365578,"is_reserved":false,"is_disabled":false,"rental_uris":{"android":"levelo://app?vid=5b0382a0-7823-4dd2-9397-1eb81b12adae","ios":"levelo://app?vid=5b0382a0-7823-4dd2-9397-1eb81b12adae"},"vehicle_type_id":"4","last_reported":1710788786,"current_range_meters":9200,"station_id":"ce4bgm92rcd13ifvqbr0","pricing_plan_id":"cebpf4jnsgd1na2vs0mg"},{"bike_id":"52e63f99-e49a-4e61-a2ff-1a3bbf761d32","system_id":"levelo_inurba_marseille","lat":43.313571,"lon":5.384829,"is_reserved":false,"is_disabled":false,"rental_uris":{"android":"levelo://app?vid=52e63f99-e49a-4e61-a2ff-1a3bbf761d32","ios":"levelo://app?vid=52e63f99-e49a-4e61-a2ff-1a3bbf761d32"},"vehicle_type_id":"4","last_reported":1710788786,"current_range_meters":12800,"station_id":"ce4bgt92rcd13ifvqcf0","pricing_plan_id":"cebpf4jnsgd1na2vs0mg"},{"bike_id":"19160eea-23dd-4a59-8f9a-b2c332406e56","system_id":"levelo_inurba_marseille","lat":43.31351,"lon":5.38489,"is_reserved":false,"is_disabled":false,"rental_uris":{"android":"levelo://app?vid=19160eea-23dd-4a59-8f9a-b2c332406e56","ios":"levelo://app?vid=19160eea-23dd-4a59-8f9a-b2c332406e56"},"vehicle_type_id":"4","last_reported":1710788786,"current_range_meters":23600,"station_id":"ce4bgt92rcd13ifvqcf0","pricing_plan_id":"cebpf4jnsgd1na2vs0mg"},{"bike_id":"cc25c133-2c66-4eeb-b4be-2abcbea65b60","system_id":"levelo_inurba_marseille","lat":43.313571,"lon":5.384829,"is_reserved":false,"is_disabled":false,"rental_uris":{"android":"levelo://app?vid=cc25c133-2c66-4eeb-b4be-2abcbea65b60","ios":"levelo://app?vid=cc25c133-2c66-4eeb-b4be-2abcbea65b60"},"vehicle_type_id":"4","last_reported":1710788786,"current_range_meters":4000,"station_id":"ce4bgt92rcd13ifvqcf0","pricing_plan_id":"cebpf4jnsgd1na2vs0mg"},{"bike_id":"0ad83a4f-b68f-43fd-8be1-fda67a92a76d","system_id":"levelo_inurba_marseille","lat":43.299222,"lon":5.365554,"is_reserved":false,"is_disabled":false,"rental_uris":{"android":"levelo://app?vid=0ad83a4f-b68f-43fd-8be1-fda67a92a76d","ios":"levelo://app?vid=0ad83a4f-b68f-43fd-8be1-fda67a92a76d"},"vehicle_type_id":"4","last_reported":1710788786,"current_range_meters":0,"station_id":"ce4bgm92rcd13ifvqbr0","pricing_plan_id":"cebpf4jnsgd1na2vs0mg"},{"bike_id":"ec5d4b97-78b8-4756-bc2b-6a18935d6b84","system_id":"levelo_inurba_marseille","lat":43.29981,"lon":5.37178,"is_reserved":false,"is_disabled":false,"rental_uris":{"android":"levelo://app?vid=ec5d4b97-78b8-4756-bc2b-6a18935d6b84","ios":"levelo://app?vid=ec5d4b97-78b8-4756-bc2b-6a18935d6b84"},"vehicle_type_id":"4","last_reported":1710788786,"current_range_meters":10800,"station_id":"ce4bgr92rcd13ifvqc7g","pricing_plan_id":"cebpf4jnsgd1na2vs0mg"},{"bike_id":"f04d03a4-7d24-454d-9407-f2f39d6faaa5","system_id":"levelo_inurba_marseille","lat":43.299222,"lon":5.365554,"is_reserved":false,"is_disabled":false,"rental_uris":{"android":"levelo://app?vid=f04d03a4-7d24-454d-9407-f2f39d6faaa5","ios":"levelo://app?vid=f04d03a4-7d24-454d-9407-f2f39d6faaa5"},"vehicle_type_id":"4","last_reported":1710788786,"current_range_meters":400,"station_id":"ce4bgm92rcd13ifvqbr0","pricing_plan_id":"cebpf4jnsgd1na2vs0mg"},{"bike_id":"87606346-82ec-4ea1-8c4a-7628eb90a6db","system_id":"levelo_inurba_marseille","lat":43.299518,"lon":5.372627,"is_reserved":false,"is_disabled":false,"rental_uris":{"android":"levelo://app?vid=87606346-82ec-4ea1-8c4a-7628eb90a6db","ios":"levelo://app?vid=87606346-82ec-4ea1-8c4a-7628eb90a6db"},"vehicle_type_id":"4","last_reported":1710788786,"current_range_meters":24400,"station_id":"ce4bgr92rcd13ifvqc7g","pricing_plan_id":"cebpf4jnsgd1na2vs0mg"},{"bike_id":"17116104-ce1a-4b8a-8101-cc71cb4fc583","system_id":"levelo_inurba_marseille","lat":43.298433,"lon":5.362774,"is_reserved":false,"is_disabled":false,"rental_uris":{"android":"levelo://app?vid=17116104-ce1a-4b8a-8101-cc71cb4fc583","ios":"levelo://app?vid=17116104-ce1a-4b8a-8101-cc71cb4fc583"},"vehicle_type_id":"4","last_reported":1710788786,"current_range_meters":2400,"station_id":"ce4bgpp2rcd13ifvqc3g","pricing_plan_id":"cebpf4jnsgd1na2vs0mg"},{"bike_id":"4bf728c9-9d6f-4468-b9d6-0613eca64002","system_id":"levelo_inurba_marseille","lat":43.298433,"lon":5.362774,"is_reserved":false,"is_disabled":false,"rental_uris":{"android":"levelo://app?vid=4bf728c9-9d6f-4468-b9d6-0613eca64002","ios":"levelo://app?vid=4bf728c9-9d6f-4468-b9d6-0613eca64002"},"vehicle_type_id":"4","last_reported":1710788786,"current_range_meters":0,"station_id":"ce4bgpp2rcd13ifvqc3g","pricing_plan_id":"cebpf4jnsgd1na2vs0mg"},{"bike_id":"40b09d18-4c97-4e55-be7f-a6fcf0025a71","system_id":"levelo_inurba_marseille","lat":43.298433,"lon":5.362774,"is_reserved":false,"is_disabled":false,"rental_uris":{"android":"levelo://app?vid=40b09d18-4c97-4e55-be7f-a6fcf0025a71","ios":"levelo://app?vid=40b09d18-4c97-4e55-be7f-a6fcf0025a71"},"vehicle_type_id":"4","last_reported":1710788786,"current_range_meters":1200,"station_id":"ce4bgpp2rcd13ifvqc3g","pricing_plan_id":"cebpf4jnsgd1na2vs0mg"},{"bike_id":"4c63bd40-d341-47dd-8842-d9874ec8de8e","system_id":"levelo_inurba_marseille","lat":43.298433,"lon":5.362774,"is_reserved":false,"is_disabled":false,"rental_uris":{"android":"levelo://app?vid=4c63bd40-d341-47dd-8842-d9874ec8de8e","ios":"levelo://app?vid=4c63bd40-d341-47dd-8842-d9874ec8de8e"},"vehicle_type_id":"4","last_reported":1710788786,"current_range_meters":14000,"station_id":"ce4bgpp2rcd13ifvqc3g","pricing_plan_id":"cebpf4jnsgd1na2vs0mg"},{"bike_id":"0a8153b9-6884-462d-8042-9fbfe054ffdb","system_id":"levelo_inurba_marseille","lat":43.299243,"lon":5.374807,"is_reserved":false,"is_disabled":false,"rental_uris":{"android":"levelo://app?vid=0a8153b9-6884-462d-8042-9fbfe054ffdb","ios":"levelo://app?vid=0a8153b9-6884-462d-8042-9fbfe054ffdb"},"vehicle_type_id":"4","last_reported":1710788786,"current_range_meters":0,"station_id":"ce4bgjh2rcd13ifvqbg0","pricing_plan_id":"cebpf4jnsgd1na2vs0mg"},{"bike_id":"0f01ef9f-1faa-47db-a4ae-61175f609286","system_id":"levelo_inurba_marseille","lat":43.311722,"lon":5.387247,"is_reserved":false,"is_disabled":false,"rental_uris":{"android":"levelo://app?vid=0f01ef9f-1faa-47db-a4ae-61175f609286","ios":"levelo://app?vid=0f01ef9f-1faa-47db-a4ae-61175f609286"},"vehicle_type_id":"4","last_reported":1710788786,"current_range_meters":15600,"station_id":"ce4bgv12rcd13ifvqcp0","pricing_plan_id":"cebpf4jnsgd1na2vs0mg"},{"bike_id":"8d355d8a-440f-4a97-8028-93cb607961d7","system_id":"levelo_inurba_marseille","lat":43.297875,"lon":5.371175,"is_reserved":false,"is_disabled":false,"rental_uris":{"android":"levelo://app?vid=8d355d8a-440f-4a97-8028-93cb607961d7","ios":"levelo://app?vid=8d355d8a-440f-4a97-8028-93cb607961d7"},"vehicle_type_id":"4","last_reported":1710788786,"current_range_meters":0,"station_id":"ce4bgop2rcd13ifvqc1g","pricing_plan_id":"cebpf4jnsgd1na2vs0mg"},{"bike_id":"82bb1f92-9910-4409-96d6-983dfab326d1","system_id":"levelo_inurba_marseille","lat":43.297163,"lon":5.365866,"is_reserved":false,"is_disabled":false,"rental_uris":{"android":"levelo://app?vid=82bb1f92-9910-4409-96d6-983dfab326d1","ios":"levelo://app?vid=82bb1f92-9910-4409-96d6-983dfab326d1"},"vehicle_type_id":"4","last_reported":1710788786,"current_range_meters":10400,"station_id":"ce4bgn12rcd13ifvqbt0","pricing_plan_id":"cebpf4jnsgd1na2vs0mg"},{"bike_id":"b2ac6343-7575-4a65-a761-ab1fda5926ab","system_id":"levelo_inurba_marseille","lat":43.2978,"lon":5.37108,"is_reserved":false,"is_disabled":false,"rental_uris":{"android":"levelo://app?vid=b2ac6343-7575-4a65-a761-ab1fda5926ab","ios":"levelo://app?vid=b2ac6343-7575-4a65-a761-ab1fda5926ab"},"vehicle_type_id":"4","last_reported":1710788786,"current_range_meters":0,"station_id":"ce4bgop2rcd13ifvqc1g","pricing_plan_id":"cebpf4jnsgd1na2vs0mg"},{"bike_id":"2cee7f84-3c6f-4a6b-8a16-ad9ac9638800","system_id":"levelo_inurba_marseille","lat":43.32287,"lon":5.38263,"is_reserved":false,"is_disabled":false,"rental_uris":{"android":"levelo://app?vid=2cee7f84-3c6f-4a6b-8a16-ad9ac9638800","ios":"levelo://app?vid=2cee7f84-3c6f-4a6b-8a16-ad9ac9638800"},"vehicle_type_id":"4","last_reported":1710788786,"current_range_meters":8000,"station_id":"ce4bhr12rcd13ifvqhqg","pricing_plan_id":"cebpf4jnsgd1na2vs0mg"},{"bike_id":"88a63eaa-7088-4c33-a8a5-44cf5cffa30b","system_id":"levelo_inurba_marseille","lat":43.32291,"lon":5.38259,"is_reserved":false,"is_disabled":false,"rental_uris":{"android":"levelo://app?vid=88a63eaa-7088-4c33-a8a5-44cf5cffa30b","ios":"levelo://app?vid=88a63eaa-7088-4c33-a8a5-44cf5cffa30b"},"vehicle_type_id":"4","last_reported":1710788786,"current_range_meters":0,"station_id":"ce4bhr12rcd13ifvqhqg","pricing_plan_id":"cebpf4jnsgd1na2vs0mg"},{"bike_id":"36727d06-0af4-4c64-88de-4193d3d2494b","system_id":"levelo_inurba_marseille","lat":43.322862,"lon":5.38267,"is_reserved":false,"is_disabled":false,"rental_uris":{"android":"levelo://app?vid=36727d06-0af4-4c64-88de-4193d3d2494b","ios":"levelo://app?vid=36727d06-0af4-4c64-88de-4193d3d2494b"},"vehicle_type_id":"4","last_reported":1710788786,"current_range_meters":20800,"station_id":"ce4bhr12rcd13ifvqhqg","pricing_plan_id":"cebpf4jnsgd1na2vs0mg"},{"bike_id":"3ff125a5-dff1-4591-b6cc-449dc2424878","system_id":"levelo_inurba_marseille","lat":43.322871,"lon":5.382663,"is_reserved":false,"is_disabled":false,"rental_uris":{"android":"levelo://app?vid=3ff125a5-dff1-4591-b6cc-449dc2424878","ios":"levelo://app?vid=3ff125a5-dff1-4591-b6cc-449dc2424878"},"vehicle_type_id":"4","last_reported":1710788786,"current_range_meters":22400,"station_id":"ce4bhr12rcd13ifvqhqg","pricing_plan_id":"cebpf4jnsgd1na2vs0mg"},{"bike_id":"91661059-3a23-4a59-a092-324bcd819f8c","system_id":"levelo_inurba_marseille","lat":43.322909,"lon":5.382658,"is_reserved":false,"is_disabled":false,"rental_uris":{"android":"levelo://app?vid=91661059-3a23-4a59-a092-324bcd819f8c","ios":"levelo://app?vid=91661059-3a23-4a59-a092-324bcd819f8c"},"vehicle_type_id":"4","last_reported":1710788786,"current_range_meters":8800,"station_id":"ce4bhr12rcd13ifvqhqg","pricing_plan_id":"cebpf4jnsgd1na2vs0mg"},{"bike_id":"2a9146f5-559c-464c-8ede-4996d3f2e7eb","system_id":"levelo_inurba_marseille","lat":43.32296,"lon":5.3826,"is_reserved":false,"is_disabled":false,"rental_uris":{"android":"levelo://app?vid=2a9146f5-559c-464c-8ede-4996d3f2e7eb","ios":"levelo://app?vid=2a9146f5-559c-464c-8ede-4996d3f2e7eb"},"vehicle_type_id":"4","last_reported":1710788786,"current_range_meters":1200,"station_id":"ce4bhr12rcd13ifvqhqg","pricing_plan_id":"cebpf4jnsgd1na2vs0mg"},{"bike_id":"accb2f69-ca20-4b2f-9b54-89cf5f810bdd","system_id":"levelo_inurba_marseille","lat":43.322904,"lon":5.382675,"is_reserved":false,"is_disabled":false,"rental_uris":{"android":"levelo://app?vid=accb2f69-ca20-4b2f-9b54-89cf5f810bdd","ios":"levelo://app?vid=accb2f69-ca20-4b2f-9b54-89cf5f810bdd"},"vehicle_type_id":"4","last_reported":1710788786,"current_range_meters":28800,"station_id":"ce4bhr12rcd13ifvqhqg","pricing_plan_id":"cebpf4jnsgd1na2vs0mg"},{"bike_id":"5f8b4803-e4ba-4452-a9f1-55c7a87b5d2b","system_id":"levelo_inurba_marseille","lat":43.32291,"lon":5.38268,"is_reserved":false,"is_disabled":false,"rental_uris":{"android":"levelo://app?vid=5f8b4803-e4ba-4452-a9f1-55c7a87b5d2b","ios":"levelo://app?vid=5f8b4803-e4ba-4452-a9f1-55c7a87b5d2b"},"vehicle_type_id":"4","last_reported":1710788786,"current_range_meters":21200,"station_id":"ce4bhr12rcd13ifvqhqg","pricing_plan_id":"cebpf4jnsgd1na2vs0mg"},{"bike_id":"feead7e7-9cee-4c57-94a6-da647512767c","system_id":"levelo_inurba_marseille","lat":43.32295,"lon":5.38264,"is_reserved":false,"is_disabled":false,"rental_uris":{"android":"levelo://app?vid=feead7e7-9cee-4c57-94a6-da647512767c","ios":"levelo://app?vid=feead7e7-9cee-4c57-94a6-da647512767c"},"vehicle_type_id":"4","last_reported":1710788786,"current_range_meters":22000,"station_id":"ce4bhr12rcd13ifvqhqg","pricing_plan_id":"cebpf4jnsgd1na2vs0mg"},{"bike_id":"bd6b6545-b45a-4dc0-b743-d330ab6c2563","system_id":"levelo_inurba_marseille","lat":43.32294,"lon":5.38267,"is_reserved":false,"is_disabled":false,"rental_uris":{"android":"levelo://app?vid=bd6b6545-b45a-4dc0-b743-d330ab6c2563","ios":"levelo://app?vid=bd6b6545-b45a-4dc0-b743-d330ab6c2563"},"vehicle_type_id":"4","last_reported":1710788786,"current_range_meters":31200,"station_id":"ce4bhr12rcd13ifvqhqg","pricing_plan_id":"cebpf4jnsgd1na2vs0mg"},{"bike_id":"885b21cf-6a4d-4308-bd6a-0b91832ea113","system_id":"levelo_inurba_marseille","lat":43.322872,"lon":5.382756,"is_reserved":false,"is_disabled":false,"rental_uris":{"android":"levelo://app?vid=885b21cf-6a4d-4308-bd6a-0b91832ea113","ios":"levelo://app?vid=885b21cf-6a4d-4308-bd6a-0b91832ea113"},"vehicle_type_id":"4","last_reported":1710788786,"current_range_meters":31600,"station_id":"ce4bhr12rcd13ifvqhqg","pricing_plan_id":"cebpf4jnsgd1na2vs0mg"},{"bike_id":"4f4a75fa-11e1-4b9c-9fc5-7e2938322638","system_id":"levelo_inurba_marseille","lat":43.32292,"lon":5.3827,"is_reserved":false,"is_disabled":false,"rental_uris":{"android":"levelo://app?vid=4f4a75fa-11e1-4b9c-9fc5-7e2938322638","ios":"levelo://app?vid=4f4a75fa-11e1-4b9c-9fc5-7e2938322638"},"vehicle_type_id":"4","last_reported":1710788786,"current_range_meters":30800,"station_id":"ce4bhr12rcd13ifvqhqg","pricing_plan_id":"cebpf4jnsgd1na2vs0mg"},{"bike_id":"3c98304c-b1c2-4b8b-9a7e-fad631133dc9","system_id":"levelo_inurba_marseille","lat":43.322872,"lon":5.382756,"is_reserved":false,"is_disabled":false,"rental_uris":{"android":"levelo://app?vid=3c98304c-b1c2-4b8b-9a7e-fad631133dc9","ios":"levelo://app?vid=3c98304c-b1c2-4b8b-9a7e-fad631133dc9"},"vehicle_type_id":"4","last_reported":1710788786,"current_range_meters":5200,"station_id":"ce4bhr12rcd13ifvqhqg","pricing_plan_id":"cebpf4jnsgd1na2vs0mg"},{"bike_id":"16decc57-ed9a-40d4-8633-e2f1ee463781","system_id":"levelo_inurba_marseille","lat":43.322872,"lon":5.382756,"is_reserved":false,"is_disabled":false,"rental_uris":{"android":"levelo://app?vid=16decc57-ed9a-40d4-8633-e2f1ee463781","ios":"levelo://app?vid=16decc57-ed9a-40d4-8633-e2f1ee463781"},"vehicle_type_id":"4","last_reported":1710788786,"current_range_meters":28800,"station_id":"ce4bhr12rcd13ifvqhqg","pricing_plan_id":"cebpf4jnsgd1na2vs0mg"},{"bike_id":"bbaa44f1-e76b-48bc-a428-cf353df54683","system_id":"levelo_inurba_marseille","lat":43.322916,"lon":5.382781,"is_reserved":false,"is_disabled":false,"rental_uris":{"android":"levelo://app?vid=bbaa44f1-e76b-48bc-a428-cf353df54683","ios":"levelo://app?vid=bbaa44f1-e76b-48bc-a428-cf353df54683"},"vehicle_type_id":"4","last_reported":1710788786,"current_range_meters":0,"station_id":"ce4bhr12rcd13ifvqhqg","pricing_plan_id":"cebpf4jnsgd1na2vs0mg"},{"bike_id":"eddeac31-d118-4f00-9fae-66dd1f398919","system_id":"levelo_inurba_marseille","lat":43.32298,"lon":5.38282,"is_reserved":false,"is_disabled":false,"rental_uris":{"android":"levelo://app?vid=eddeac31-d118-4f00-9fae-66dd1f398919","ios":"levelo://app?vid=eddeac31-d118-4f00-9fae-66dd1f398919"},"vehicle_type_id":"4","last_reported":1710788786,"current_range_meters":11600,"station_id":"ce4bhr12rcd13ifvqhqg","pricing_plan_id":"cebpf4jnsgd1na2vs0mg"},{"bike_id":"f2471fba-85a4-4792-a214-b094b5b6bf9f","system_id":"levelo_inurba_marseille","lat":43.297163,"lon":5.365866,"is_reserved":false,"is_disabled":false,"rental_uris":{"android":"levelo://app?vid=f2471fba-85a4-4792-a214-b094b5b6bf9f","ios":"levelo://app?vid=f2471fba-85a4-4792-a214-b094b5b6bf9f"},"vehicle_type_id":"4","last_reported":1710788786,"current_range_meters":7600,"station_id":"ce4bgn12rcd13ifvqbt0","pricing_plan_id":"cebpf4jnsgd1na2vs0mg"},{"bike_id":"4535930b-dc63-4594-9365-0e12ce225695","system_id":"levelo_inurba_marseille","lat":43.297163,"lon":5.365866,"is_reserved":false,"is_disabled":false,"rental_uris":{"android":"levelo://app?vid=4535930b-dc63-4594-9365-0e12ce225695","ios":"levelo://app?vid=4535930b-dc63-4594-9365-0e12ce225695"},"vehicle_type_id":"4","last_reported":1710788786,"current_range_meters":3200,"station_id":"ce4bgn12rcd13ifvqbt0","pricing_plan_id":"cebpf4jnsgd1na2vs0mg"},{"bike_id":"9729f34c-d945-45bc-8d2c-3768299bb8cb","system_id":"levelo_inurba_marseille","lat":43.29695,"lon":5.37289,"is_reserved":false,"is_disabled":false,"rental_uris":{"android":"levelo://app?vid=9729f34c-d945-45bc-8d2c-3768299bb8cb","ios":"levelo://app?vid=9729f34c-d945-45bc-8d2c-3768299bb8cb"},"vehicle_type_id":"4","last_reported":1710788786,"current_range_meters":18400,"station_id":"ce4bgk12rcd13ifvqbj0","pricing_plan_id":"cebpf4jnsgd1na2vs0mg"},{"bike_id":"1f261923-6b55-44f7-ac93-b2312dbeef42","system_id":"levelo_inurba_marseille","lat":43.296854,"lon":5.372968,"is_reserved":false,"is_disabled":false,"rental_uris":{"android":"levelo://app?vid=1f261923-6b55-44f7-ac93-b2312dbeef42","ios":"levelo://app?vid=1f261923-6b55-44f7-ac93-b2312dbeef42"},"vehicle_type_id":"4","last_reported":1710788786,"current_range_meters":0,"station_id":"ce4bgk12rcd13ifvqbj0","pricing_plan_id":"cebpf4jnsgd1na2vs0mg"},{"bike_id":"6eacbf71-ea38-4fde-bc5d-9eb8bfe86c79","system_id":"levelo_inurba_marseille","lat":43.29573,"lon":5.367355,"is_reserved":false,"is_disabled":false,"rental_uris":{"android":"levelo://app?vid=6eacbf71-ea38-4fde-bc5d-9eb8bfe86c79","ios":"levelo://app?vid=6eacbf71-ea38-4fde-bc5d-9eb8bfe86c79"},"vehicle_type_id":"4","last_reported":1710788786,"current_range_meters":8400,"station_id":"ce4bgph2rcd13ifvqc2g","pricing_plan_id":"cebpf4jnsgd1na2vs0mg"},{"bike_id":"1e2b8ccb-64fa-4abf-a0a3-9ce45aa3b2b2","system_id":"levelo_inurba_marseille","lat":43.296921,"lon":5.376579,"is_reserved":false,"is_disabled":false,"rental_uris":{"android":"levelo://app?vid=1e2b8ccb-64fa-4abf-a0a3-9ce45aa3b2b2","ios":"levelo://app?vid=1e2b8ccb-64fa-4abf-a0a3-9ce45aa3b2b2"},"vehicle_type_id":"4","last_reported":1710788786,"current_range_meters":0,"station_id":"ce4bgkh2rcd13ifvqbl0","pricing_plan_id":"cebpf4jnsgd1na2vs0mg"},{"bike_id":"635f8393-1e21-4700-b24b-f4e024634441","system_id":"levelo_inurba_marseille","lat":43.299028,"lon":5.381509,"is_reserved":false,"is_disabled":false,"rental_uris":{"android":"levelo://app?vid=635f8393-1e21-4700-b24b-f4e024634441","ios":"levelo://app?vid=635f8393-1e21-4700-b24b-f4e024634441"},"vehicle_type_id":"4","last_reported":1710788786,"current_range_meters":2000,"station_id":"ce4bgj12rcd13ifvqbc0","pricing_plan_id":"cebpf4jnsgd1na2vs0mg"},{"bike_id":"eebc9740-442c-4bf7-b727-2c332efb3ede","system_id":"levelo_inurba_marseille","lat":43.29713,"lon":5.37686,"is_reserved":false,"is_disabled":false,"rental_uris":{"android":"levelo://app?vid=eebc9740-442c-4bf7-b727-2c332efb3ede","ios":"levelo://app?vid=eebc9740-442c-4bf7-b727-2c332efb3ede"},"vehicle_type_id":"4","last_reported":1710788786,"current_range_meters":0,"station_id":"ce4bgkh2rcd13ifvqbl0","pricing_plan_id":"cebpf4jnsgd1na2vs0mg"},{"bike_id":"8dfaf220-2673-429c-a474-c806c29d43e5","system_id":"levelo_inurba_marseille","lat":43.299173,"lon":5.381492,"is_reserved":false,"is_disabled":false,"rental_uris":{"android":"levelo://app?vid=8dfaf220-2673-429c-a474-c806c29d43e5","ios":"levelo://app?vid=8dfaf220-2673-429c-a474-c806c29d43e5"},"vehicle_type_id":"4","last_reported":1710788786,"current_range_meters":800,"station_id":"ce4bgj12rcd13ifvqbc0","pricing_plan_id":"cebpf4jnsgd1na2vs0mg"},{"bike_id":"dddb3e49-ec03-4d67-8f2e-297cb7ae0c09","system_id":"levelo_inurba_marseille","lat":43.299028,"lon":5.381509,"is_reserved":false,"is_disabled":false,"rental_uris":{"android":"levelo://app?vid=dddb3e49-ec03-4d67-8f2e-297cb7ae0c09","ios":"levelo://app?vid=dddb3e49-ec03-4d67-8f2e-297cb7ae0c09"},"vehicle_type_id":"4","last_reported":1710788786,"current_range_meters":4400,"station_id":"ce4bgj12rcd13ifvqbc0","pricing_plan_id":"cebpf4jnsgd1na2vs0mg"},{"bike_id":"a19d2863-bfa9-4a20-9831-ac356bbc71c6","system_id":"levelo_inurba_marseille","lat":43.309589,"lon":5.390258,"is_reserved":false,"is_disabled":false,"rental_uris":{"android":"levelo://app?vid=a19d2863-bfa9-4a20-9831-ac356bbc71c6","ios":"levelo://app?vid=a19d2863-bfa9-4a20-9831-ac356bbc71c6"},"vehicle_type_id":"4","last_reported":1710788786,"current_range_meters":24400,"station_id":"ce4bgup2rcd13ifvqco0","pricing_plan_id":"cebpf4jnsgd1na2vs0mg"},{"bike_id":"b1f65c6e-d987-470c-b47a-ec52e1f41df4","system_id":"levelo_inurba_marseille","lat":43.30951,"lon":5.39031,"is_reserved":false,"is_disabled":false,"rental_uris":{"android":"levelo://app?vid=b1f65c6e-d987-470c-b47a-ec52e1f41df4","ios":"levelo://app?vid=b1f65c6e-d987-470c-b47a-ec52e1f41df4"},"vehicle_type_id":"4","last_reported":1710788786,"current_range_meters":1200,"station_id":"ce4bgup2rcd13ifvqco0","pricing_plan_id":"cebpf4jnsgd1na2vs0mg"},{"bike_id":"04bbc766-8be2-483d-8223-a6396d1ae83b","system_id":"levelo_inurba_marseille","lat":43.309589,"lon":5.390258,"is_reserved":false,"is_disabled":false,"rental_uris":{"android":"levelo://app?vid=04bbc766-8be2-483d-8223-a6396d1ae83b","ios":"levelo://app?vid=04bbc766-8be2-483d-8223-a6396d1ae83b"},"vehicle_type_id":"4","last_reported":1710788786,"current_range_meters":13200,"station_id":"ce4bgup2rcd13ifvqco0","pricing_plan_id":"cebpf4jnsgd1na2vs0mg"},{"bike_id":"d2eed6b0-de73-4d7e-b709-ada308cde675","system_id":"levelo_inurba_marseille","lat":43.317639,"lon":5.390067,"is_reserved":false,"is_disabled":false,"rental_uris":{"android":"levelo://app?vid=d2eed6b0-de73-4d7e-b709-ada308cde675","ios":"levelo://app?vid=d2eed6b0-de73-4d7e-b709-ada308cde675"},"vehicle_type_id":"4","last_reported":1710788786,"current_range_meters":16400,"station_id":"ce4bhqp2rcd13ifvqhng","pricing_plan_id":"cebpf4jnsgd1na2vs0mg"},{"bike_id":"20cff5eb-2208-4446-8d47-edb399b75297","system_id":"levelo_inurba_marseille","lat":43.317557,"lon":5.390173,"is_reserved":false,"is_disabled":false,"rental_uris":{"android":"levelo://app?vid=20cff5eb-2208-4446-8d47-edb399b75297","ios":"levelo://app?vid=20cff5eb-2208-4446-8d47-edb399b75297"},"vehicle_type_id":"4","last_reported":1710788786,"current_range_meters":30800,"station_id":"ce4bhqp2rcd13ifvqhng","pricing_plan_id":"cebpf4jnsgd1na2vs0mg"},{"bike_id":"7b4a0fbe-c742-4dd8-8dd5-801e8087c9b7","system_id":"levelo_inurba_marseille","lat":43.317557,"lon":5.390173,"is_reserved":false,"is_disabled":false,"rental_uris":{"android":"levelo://app?vid=7b4a0fbe-c742-4dd8-8dd5-801e8087c9b7","ios":"levelo://app?vid=7b4a0fbe-c742-4dd8-8dd5-801e8087c9b7"},"vehicle_type_id":"4","last_reported":1710788786,"current_range_meters":2400,"station_id":"ce4bhqp2rcd13ifvqhng","pricing_plan_id":"cebpf4jnsgd1na2vs0mg"},{"bike_id":"39ca2e9a-bbde-4829-bd6a-6f533d7a2d9b","system_id":"levelo_inurba_marseille","lat":43.317557,"lon":5.390173,"is_reserved":false,"is_disabled":false,"rental_uris":{"android":"levelo://app?vid=39ca2e9a-bbde-4829-bd6a-6f533d7a2d9b","ios":"levelo://app?vid=39ca2e9a-bbde-4829-bd6a-6f533d7a2d9b"},"vehicle_type_id":"4","last_reported":1710788786,"current_range_meters":25200,"station_id":"ce4bhqp2rcd13ifvqhng","pricing_plan_id":"cebpf4jnsgd1na2vs0mg"},{"bike_id":"4c1c4806-ceb3-4412-a3b1-42cda738f23e","system_id":"levelo_inurba_marseille","lat":43.31759,"lon":5.39017,"is_reserved":false,"is_disabled":false,"rental_uris":{"android":"levelo://app?vid=4c1c4806-ceb3-4412-a3b1-42cda738f23e","ios":"levelo://app?vid=4c1c4806-ceb3-4412-a3b1-42cda738f23e"},"vehicle_type_id":"4","last_reported":1710788786,"current_range_meters":16000,"station_id":"ce4bhqp2rcd13ifvqhng","pricing_plan_id":"cebpf4jnsgd1na2vs0mg"},{"bike_id":"97dc5621-0125-4f99-9fc3-7b824027f68c","system_id":"levelo_inurba_marseille","lat":43.317557,"lon":5.390173,"is_reserved":false,"is_disabled":false,"rental_uris":{"android":"levelo://app?vid=97dc5621-0125-4f99-9fc3-7b824027f68c","ios":"levelo://app?vid=97dc5621-0125-4f99-9fc3-7b824027f68c"},"vehicle_type_id":"4","last_reported":1710788786,"current_range_meters":20800,"station_id":"ce4bhqp2rcd13ifvqhng","pricing_plan_id":"cebpf4jnsgd1na2vs0mg"},{"bike_id":"e4b56cbf-9a91-44a9-9c16-93121b8b288a","system_id":"levelo_inurba_marseille","lat":43.299056,"lon":5.382188,"is_reserved":false,"is_disabled":false,"rental_uris":{"android":"levelo://app?vid=e4b56cbf-9a91-44a9-9c16-93121b8b288a","ios":"levelo://app?vid=e4b56cbf-9a91-44a9-9c16-93121b8b288a"},"vehicle_type_id":"4","last_reported":1710788786,"current_range_meters":0,"station_id":"ce4bgj12rcd13ifvqbc0","pricing_plan_id":"cebpf4jnsgd1na2vs0mg"},{"bike_id":"d9bf7767-42df-4f07-8c9e-4ff35698ce28","system_id":"levelo_inurba_marseille","lat":43.317557,"lon":5.390173,"is_reserved":false,"is_disabled":false,"rental_uris":{"android":"levelo://app?vid=d9bf7767-42df-4f07-8c9e-4ff35698ce28","ios":"levelo://app?vid=d9bf7767-42df-4f07-8c9e-4ff35698ce28"},"vehicle_type_id":"4","last_reported":1710788786,"current_range_meters":20400,"station_id":"ce4bhqp2rcd13ifvqhng","pricing_plan_id":"cebpf4jnsgd1na2vs0mg"},{"bike_id":"b9585748-59ed-4215-a39d-36ba1614c135","system_id":"levelo_inurba_marseille","lat":43.317583,"lon":5.390237,"is_reserved":false,"is_disabled":false,"rental_uris":{"android":"levelo://app?vid=b9585748-59ed-4215-a39d-36ba1614c135","ios":"levelo://app?vid=b9585748-59ed-4215-a39d-36ba1614c135"},"vehicle_type_id":"4","last_reported":1710788786,"current_range_meters":15200,"station_id":"ce4bhqp2rcd13ifvqhng","pricing_plan_id":"cebpf4jnsgd1na2vs0mg"},{"bike_id":"8606fdc7-31a6-42a3-9f29-8bf0f469d30d","system_id":"levelo_inurba_marseille","lat":43.295748,"lon":5.37522,"is_reserved":false,"is_disabled":false,"rental_uris":{"android":"levelo://app?vid=8606fdc7-31a6-42a3-9f29-8bf0f469d30d","ios":"levelo://app?vid=8606fdc7-31a6-42a3-9f29-8bf0f469d30d"},"vehicle_type_id":"4","last_reported":1710788786,"current_range_meters":8800,"station_id":"ce4bgh92rcd13ifvqb50","pricing_plan_id":"cebpf4jnsgd1na2vs0mg"},{"bike_id":"94f48dea-d9c2-4778-9eca-0f7cbb3a6eca","system_id":"levelo_inurba_marseille","lat":43.298101,"lon":5.380919,"is_reserved":false,"is_disabled":false,"rental_uris":{"android":"levelo://app?vid=94f48dea-d9c2-4778-9eca-0f7cbb3a6eca","ios":"levelo://app?vid=94f48dea-d9c2-4778-9eca-0f7cbb3a6eca"},"vehicle_type_id":"4","last_reported":1710788786,"current_range_meters":1600,"station_id":"ce4bgip2rcd13ifvqbb0","pricing_plan_id":"cebpf4jnsgd1na2vs0mg"},{"bike_id":"77733973-148f-4728-864a-2fc271b322ab","system_id":"levelo_inurba_marseille","lat":43.298037,"lon":5.381066,"is_reserved":false,"is_disabled":false,"rental_uris":{"android":"levelo://app?vid=77733973-148f-4728-864a-2fc271b322ab","ios":"levelo://app?vid=77733973-148f-4728-864a-2fc271b322ab"},"vehicle_type_id":"4","last_reported":1710788786,"current_range_meters":1200,"station_id":"ce4bgip2rcd13ifvqbb0","pricing_plan_id":"cebpf4jnsgd1na2vs0mg"},{"bike_id":"299c062a-400c-46fa-a397-103159f77f47","system_id":"levelo_inurba_marseille","lat":43.298008,"lon":5.380989,"is_reserved":false,"is_disabled":false,"rental_uris":{"android":"levelo://app?vid=299c062a-400c-46fa-a397-103159f77f47","ios":"levelo://app?vid=299c062a-400c-46fa-a397-103159f77f47"},"vehicle_type_id":"4","last_reported":1710788786,"current_range_meters":400,"station_id":"ce4bgip2rcd13ifvqbb0","pricing_plan_id":"cebpf4jnsgd1na2vs0mg"},{"bike_id":"200d6af7-7a05-43f8-b40d-7e37e87dbcf4","system_id":"levelo_inurba_marseille","lat":43.304278,"lon":5.388868,"is_reserved":false,"is_disabled":false,"rental_uris":{"android":"levelo://app?vid=200d6af7-7a05-43f8-b40d-7e37e87dbcf4","ios":"levelo://app?vid=200d6af7-7a05-43f8-b40d-7e37e87dbcf4"},"vehicle_type_id":"4","last_reported":1710788786,"current_range_meters":6800,"station_id":"ce4bgk12rcd13ifvqbi0","pricing_plan_id":"cebpf4jnsgd1na2vs0mg"},{"bike_id":"2b0eb066-b9ff-4866-8d3c-a90260dd970c","system_id":"levelo_inurba_marseille","lat":43.304274,"lon":5.388873,"is_reserved":false,"is_disabled":false,"rental_uris":{"android":"levelo://app?vid=2b0eb066-b9ff-4866-8d3c-a90260dd970c","ios":"levelo://app?vid=2b0eb066-b9ff-4866-8d3c-a90260dd970c"},"vehicle_type_id":"4","last_reported":1710788786,"current_range_meters":8400,"station_id":"ce4bgk12rcd13ifvqbi0","pricing_plan_id":"cebpf4jnsgd1na2vs0mg"},{"bike_id":"d0194bd1-ef5f-4e50-ba03-b4f12f7c7310","system_id":"levelo_inurba_marseille","lat":43.295748,"lon":5.37522,"is_reserved":false,"is_disabled":false,"rental_uris":{"android":"levelo://app?vid=d0194bd1-ef5f-4e50-ba03-b4f12f7c7310","ios":"levelo://app?vid=d0194bd1-ef5f-4e50-ba03-b4f12f7c7310"},"vehicle_type_id":"4","last_reported":1710788786,"current_range_meters":0,"station_id":"ce4bgh92rcd13ifvqb50","pricing_plan_id":"cebpf4jnsgd1na2vs0mg"},{"bike_id":"ec6e4ee8-25f2-41d3-b74e-ea53e1e9dabc","system_id":"levelo_inurba_marseille","lat":43.304278,"lon":5.388868,"is_reserved":false,"is_disabled":false,"rental_uris":{"android":"levelo://app?vid=ec6e4ee8-25f2-41d3-b74e-ea53e1e9dabc","ios":"levelo://app?vid=ec6e4ee8-25f2-41d3-b74e-ea53e1e9dabc"},"vehicle_type_id":"4","last_reported":1710788786,"current_range_meters":22800,"station_id":"ce4bgk12rcd13ifvqbi0","pricing_plan_id":"cebpf4jnsgd1na2vs0mg"},{"bike_id":"9c71bda9-7b70-4548-bcf8-402184db6c68","system_id":"levelo_inurba_marseille","lat":43.304278,"lon":5.388868,"is_reserved":false,"is_disabled":false,"rental_uris":{"android":"levelo://app?vid=9c71bda9-7b70-4548-bcf8-402184db6c68","ios":"levelo://app?vid=9c71bda9-7b70-4548-bcf8-402184db6c68"},"vehicle_type_id":"4","last_reported":1710788786,"current_range_meters":22000,"station_id":"ce4bgk12rcd13ifvqbi0","pricing_plan_id":"cebpf4jnsgd1na2vs0mg"},{"bike_id":"7d41d051-5d36-4568-9ccc-fb4ff4bca400","system_id":"levelo_inurba_marseille","lat":43.295748,"lon":5.37522,"is_reserved":false,"is_disabled":false,"rental_uris":{"android":"levelo://app?vid=7d41d051-5d36-4568-9ccc-fb4ff4bca400","ios":"levelo://app?vid=7d41d051-5d36-4568-9ccc-fb4ff4bca400"},"vehicle_type_id":"4","last_reported":1710788786,"current_range_meters":400,"station_id":"ce4bgh92rcd13ifvqb50","pricing_plan_id":"cebpf4jnsgd1na2vs0mg"},{"bike_id":"9dd940c9-093f-4967-ace9-6ebd1dae695c","system_id":"levelo_inurba_marseille","lat":43.304278,"lon":5.388868,"is_reserved":false,"is_disabled":false,"rental_uris":{"android":"levelo://app?vid=9dd940c9-093f-4967-ace9-6ebd1dae695c","ios":"levelo://app?vid=9dd940c9-093f-4967-ace9-6ebd1dae695c"},"vehicle_type_id":"4","last_reported":1710788786,"current_range_meters":0,"station_id":"ce4bgk12rcd13ifvqbi0","pricing_plan_id":"cebpf4jnsgd1na2vs0mg"},{"bike_id":"97a4de14-d9bc-4417-bc43-b81b897fffc5","system_id":"levelo_inurba_marseille","lat":43.304274,"lon":5.388873,"is_reserved":false,"is_disabled":false,"rental_uris":{"android":"levelo://app?vid=97a4de14-d9bc-4417-bc43-b81b897fffc5","ios":"levelo://app?vid=97a4de14-d9bc-4417-bc43-b81b897fffc5"},"vehicle_type_id":"4","last_reported":1710788786,"current_range_meters":2400,"station_id":"ce4bgk12rcd13ifvqbi0","pricing_plan_id":"cebpf4jnsgd1na2vs0mg"},{"bike_id":"5ad7f0b9-d0ba-4777-b885-1187557cbf20","system_id":"levelo_inurba_marseille","lat":43.297904,"lon":5.381122,"is_reserved":false,"is_disabled":false,"rental_uris":{"android":"levelo://app?vid=5ad7f0b9-d0ba-4777-b885-1187557cbf20","ios":"levelo://app?vid=5ad7f0b9-d0ba-4777-b885-1187557cbf20"},"vehicle_type_id":"4","last_reported":1710788786,"current_range_meters":0,"station_id":"ce4bgip2rcd13ifvqbb0","pricing_plan_id":"cebpf4jnsgd1na2vs0mg"},{"bike_id":"7e35c540-cb70-4f8a-ae32-ad81215cf66d","system_id":"levelo_inurba_marseille","lat":43.298037,"lon":5.381066,"is_reserved":false,"is_disabled":false,"rental_uris":{"android":"levelo://app?vid=7e35c540-cb70-4f8a-ae32-ad81215cf66d","ios":"levelo://app?vid=7e35c540-cb70-4f8a-ae32-ad81215cf66d"},"vehicle_type_id":"4","last_reported":1710788786,"current_range_meters":2000,"station_id":"ce4bgip2rcd13ifvqbb0","pricing_plan_id":"cebpf4jnsgd1na2vs0mg"},{"bike_id":"40c4f815-f726-42c9-9fc2-270b2ef42e47","system_id":"levelo_inurba_marseille","lat":43.305994,"lon":5.393687,"is_reserved":false,"is_disabled":false,"rental_uris":{"android":"levelo://app?vid=40c4f815-f726-42c9-9fc2-270b2ef42e47","ios":"levelo://app?vid=40c4f815-f726-42c9-9fc2-270b2ef42e47"},"vehicle_type_id":"4","last_reported":1710788786,"current_range_meters":23600,"station_id":"ce4bh0p2rcd13ifvqd80","pricing_plan_id":"cebpf4jnsgd1na2vs0mg"},{"bike_id":"02b58c8b-1979-4875-94ba-385465d21dcd","system_id":"levelo_inurba_marseille","lat":43.304274,"lon":5.388873,"is_reserved":false,"is_disabled":false,"rental_uris":{"android":"levelo://app?vid=02b58c8b-1979-4875-94ba-385465d21dcd","ios":"levelo://app?vid=02b58c8b-1979-4875-94ba-385465d21dcd"},"vehicle_type_id":"4","last_reported":1710788786,"current_range_meters":0,"station_id":"ce4bgk12rcd13ifvqbi0","pricing_plan_id":"cebpf4jnsgd1na2vs0mg"},{"bike_id":"470eb344-f0a2-4737-b1f3-8e4e38144ff7","system_id":"levelo_inurba_marseille","lat":43.296277,"lon":5.377108,"is_reserved":false,"is_disabled":false,"rental_uris":{"android":"levelo://app?vid=470eb344-f0a2-4737-b1f3-8e4e38144ff7","ios":"levelo://app?vid=470eb344-f0a2-4737-b1f3-8e4e38144ff7"},"vehicle_type_id":"4","last_reported":1710788786,"current_range_meters":0,"station_id":"ce4bgi92rcd13ifvqb90","pricing_plan_id":"cebpf4jnsgd1na2vs0mg"},{"bike_id":"cf958d25-178a-476e-88f6-df3a7a2aa68d","system_id":"levelo_inurba_marseille","lat":43.299724,"lon":5.384848,"is_reserved":false,"is_disabled":false,"rental_uris":{"android":"levelo://app?vid=cf958d25-178a-476e-88f6-df3a7a2aa68d","ios":"levelo://app?vid=cf958d25-178a-476e-88f6-df3a7a2aa68d"},"vehicle_type_id":"4","last_reported":1710788786,"current_range_meters":0,"station_id":"ce4bgj92rcd13ifvqbd0","pricing_plan_id":"cebpf4jnsgd1na2vs0mg"},{"bike_id":"4601f6c3-fd64-4793-ab6d-fa25bf8b3a79","system_id":"levelo_inurba_marseille","lat":43.29991,"lon":5.38494,"is_reserved":false,"is_disabled":false,"rental_uris":{"android":"levelo://app?vid=4601f6c3-fd64-4793-ab6d-fa25bf8b3a79","ios":"levelo://app?vid=4601f6c3-fd64-4793-ab6d-fa25bf8b3a79"},"vehicle_type_id":"4","last_reported":1710788786,"current_range_meters":800,"station_id":"ce4bgj92rcd13ifvqbd0","pricing_plan_id":"cebpf4jnsgd1na2vs0mg"},{"bike_id":"ab20e0d3-5d6a-4c32-92ed-1b421ecb4353","system_id":"levelo_inurba_marseille","lat":43.29602,"lon":5.381084,"is_reserved":false,"is_disabled":false,"rental_uris":{"android":"levelo://app?vid=ab20e0d3-5d6a-4c32-92ed-1b421ecb4353","ios":"levelo://app?vid=ab20e0d3-5d6a-4c32-92ed-1b421ecb4353"},"vehicle_type_id":"4","last_reported":1710788786,"current_range_meters":24000,"station_id":"ce4bgl12rcd13ifvqbo0","pricing_plan_id":"cebpf4jnsgd1na2vs0mg"},{"bike_id":"b330b67d-edcc-4876-8c80-c0cadd6980a4","system_id":"levelo_inurba_marseille","lat":43.299724,"lon":5.384848,"is_reserved":false,"is_disabled":false,"rental_uris":{"android":"levelo://app?vid=b330b67d-edcc-4876-8c80-c0cadd6980a4","ios":"levelo://app?vid=b330b67d-edcc-4876-8c80-c0cadd6980a4"},"vehicle_type_id":"4","last_reported":1710788786,"current_range_meters":0,"station_id":"ce4bgj92rcd13ifvqbd0","pricing_plan_id":"cebpf4jnsgd1na2vs0mg"},{"bike_id":"baf8232b-e0b5-4257-8ac0-8735e2959bec","system_id":"levelo_inurba_marseille","lat":43.32366,"lon":5.3888,"is_reserved":false,"is_disabled":false,"rental_uris":{"android":"levelo://app?vid=baf8232b-e0b5-4257-8ac0-8735e2959bec","ios":"levelo://app?vid=baf8232b-e0b5-4257-8ac0-8735e2959bec"},"vehicle_type_id":"4","last_reported":1710788786,"current_range_meters":18000,"station_id":"ce4bhqp2rcd13ifvqhog","pricing_plan_id":"cebpf4jnsgd1na2vs0mg"},{"bike_id":"6b9a38f3-4f7b-41d1-b496-d64afaa29ff5","system_id":"levelo_inurba_marseille","lat":43.32367,"lon":5.388836,"is_reserved":false,"is_disabled":false,"rental_uris":{"android":"levelo://app?vid=6b9a38f3-4f7b-41d1-b496-d64afaa29ff5","ios":"levelo://app?vid=6b9a38f3-4f7b-41d1-b496-d64afaa29ff5"},"vehicle_type_id":"4","last_reported":1710788786,"current_range_meters":800,"station_id":"ce4bhqp2rcd13ifvqhog","pricing_plan_id":"cebpf4jnsgd1na2vs0mg"},{"bike_id":"9b43ae9f-97c3-4da0-938b-50afec46d2a5","system_id":"levelo_inurba_marseille","lat":43.32367,"lon":5.388836,"is_reserved":false,"is_disabled":false,"rental_uris":{"android":"levelo://app?vid=9b43ae9f-97c3-4da0-938b-50afec46d2a5","ios":"levelo://app?vid=9b43ae9f-97c3-4da0-938b-50afec46d2a5"},"vehicle_type_id":"4","last_reported":1710788786,"current_range_meters":21600,"station_id":"ce4bhqp2rcd13ifvqhog","pricing_plan_id":"cebpf4jnsgd1na2vs0mg"},{"bike_id":"dd91e73d-c135-4bed-92d4-bbb6465e1949","system_id":"levelo_inurba_marseille","lat":43.32367,"lon":5.388836,"is_reserved":false,"is_disabled":false,"rental_uris":{"android":"levelo://app?vid=dd91e73d-c135-4bed-92d4-bbb6465e1949","ios":"levelo://app?vid=dd91e73d-c135-4bed-92d4-bbb6465e1949"},"vehicle_type_id":"4","last_reported":1710788786,"current_range_meters":26800,"station_id":"ce4bhqp2rcd13ifvqhog","pricing_plan_id":"cebpf4jnsgd1na2vs0mg"},{"bike_id":"4bfd14d0-5343-477d-b9ee-5c0686f22a7d","system_id":"levelo_inurba_marseille","lat":43.32366,"lon":5.38886,"is_reserved":false,"is_disabled":false,"rental_uris":{"android":"levelo://app?vid=4bfd14d0-5343-477d-b9ee-5c0686f22a7d","ios":"levelo://app?vid=4bfd14d0-5343-477d-b9ee-5c0686f22a7d"},"vehicle_type_id":"4","last_reported":1710788786,"current_range_meters":14400,"station_id":"ce4bhqp2rcd13ifvqhog","pricing_plan_id":"cebpf4jnsgd1na2vs0mg"},{"bike_id":"41128f1f-2f01-4d9d-b223-5480079df37b","system_id":"levelo_inurba_marseille","lat":43.32368,"lon":5.38885,"is_reserved":false,"is_disabled":false,"rental_uris":{"android":"levelo://app?vid=41128f1f-2f01-4d9d-b223-5480079df37b","ios":"levelo://app?vid=41128f1f-2f01-4d9d-b223-5480079df37b"},"vehicle_type_id":"4","last_reported":1710788786,"current_range_meters":8400,"station_id":"ce4bhqp2rcd13ifvqhog","pricing_plan_id":"cebpf4jnsgd1na2vs0mg"},{"bike_id":"88c09819-0132-49e1-a848-b83c3e55111a","system_id":"levelo_inurba_marseille","lat":43.32367,"lon":5.388836,"is_reserved":false,"is_disabled":false,"rental_uris":{"android":"levelo://app?vid=88c09819-0132-49e1-a848-b83c3e55111a","ios":"levelo://app?vid=88c09819-0132-49e1-a848-b83c3e55111a"},"vehicle_type_id":"4","last_reported":1710788786,"current_range_meters":24400,"station_id":"ce4bhqp2rcd13ifvqhog","pricing_plan_id":"cebpf4jnsgd1na2vs0mg"},{"bike_id":"6b78ac78-7369-42f9-8b8b-1c8bd1d381fc","system_id":"levelo_inurba_marseille","lat":43.32367,"lon":5.388836,"is_reserved":false,"is_disabled":false,"rental_uris":{"android":"levelo://app?vid=6b78ac78-7369-42f9-8b8b-1c8bd1d381fc","ios":"levelo://app?vid=6b78ac78-7369-42f9-8b8b-1c8bd1d381fc"},"vehicle_type_id":"4","last_reported":1710788786,"current_range_meters":14000,"station_id":"ce4bhqp2rcd13ifvqhog","pricing_plan_id":"cebpf4jnsgd1na2vs0mg"},{"bike_id":"d1c473ef-8f57-4a45-a518-f2821a73640e","system_id":"levelo_inurba_marseille","lat":43.32367,"lon":5.388836,"is_reserved":false,"is_disabled":false,"rental_uris":{"android":"levelo://app?vid=d1c473ef-8f57-4a45-a518-f2821a73640e","ios":"levelo://app?vid=d1c473ef-8f57-4a45-a518-f2821a73640e"},"vehicle_type_id":"4","last_reported":1710788786,"current_range_meters":18800,"station_id":"ce4bhqp2rcd13ifvqhog","pricing_plan_id":"cebpf4jnsgd1na2vs0mg"},{"bike_id":"b2e38440-d9ce-4f95-9da7-79ff5c2c1ed5","system_id":"levelo_inurba_marseille","lat":43.32366,"lon":5.38889,"is_reserved":false,"is_disabled":false,"rental_uris":{"android":"levelo://app?vid=b2e38440-d9ce-4f95-9da7-79ff5c2c1ed5","ios":"levelo://app?vid=b2e38440-d9ce-4f95-9da7-79ff5c2c1ed5"},"vehicle_type_id":"4","last_reported":1710788786,"current_range_meters":15200,"station_id":"ce4bhqp2rcd13ifvqhog","pricing_plan_id":"cebpf4jnsgd1na2vs0mg"},{"bike_id":"bc149946-4553-424d-a87c-7dea59884772","system_id":"levelo_inurba_marseille","lat":43.32372,"lon":5.388862,"is_reserved":false,"is_disabled":false,"rental_uris":{"android":"levelo://app?vid=bc149946-4553-424d-a87c-7dea59884772","ios":"levelo://app?vid=bc149946-4553-424d-a87c-7dea59884772"},"vehicle_type_id":"4","last_reported":1710788786,"current_range_meters":8000,"station_id":"ce4bhqp2rcd13ifvqhog","pricing_plan_id":"cebpf4jnsgd1na2vs0mg"},{"bike_id":"3c730b1f-0faf-40eb-ae54-e803438f9127","system_id":"levelo_inurba_marseille","lat":43.29602,"lon":5.381084,"is_reserved":false,"is_disabled":false,"rental_uris":{"android":"levelo://app?vid=3c730b1f-0faf-40eb-ae54-e803438f9127","ios":"levelo://app?vid=3c730b1f-0faf-40eb-ae54-e803438f9127"},"vehicle_type_id":"4","last_reported":1710788786,"current_range_meters":0,"station_id":"ce4bgl12rcd13ifvqbo0","pricing_plan_id":"cebpf4jnsgd1na2vs0mg"},{"bike_id":"f19a425e-2e36-4fa8-83c3-0fe07e567d65","system_id":"levelo_inurba_marseille","lat":43.29602,"lon":5.38103,"is_reserved":false,"is_disabled":false,"rental_uris":{"android":"levelo://app?vid=f19a425e-2e36-4fa8-83c3-0fe07e567d65","ios":"levelo://app?vid=f19a425e-2e36-4fa8-83c3-0fe07e567d65"},"vehicle_type_id":"4","last_reported":1710788786,"current_range_meters":0,"station_id":"ce4bgl12rcd13ifvqbo0","pricing_plan_id":"cebpf4jnsgd1na2vs0mg"},{"bike_id":"4c18c5d3-5256-4b52-918c-c5135af9dccd","system_id":"levelo_inurba_marseille","lat":43.29602,"lon":5.381084,"is_reserved":false,"is_disabled":false,"rental_uris":{"android":"levelo://app?vid=4c18c5d3-5256-4b52-918c-c5135af9dccd","ios":"levelo://app?vid=4c18c5d3-5256-4b52-918c-c5135af9dccd"},"vehicle_type_id":"4","last_reported":1710788786,"current_range_meters":0,"station_id":"ce4bgl12rcd13ifvqbo0","pricing_plan_id":"cebpf4jnsgd1na2vs0mg"},{"bike_id":"da1803a9-bb73-481f-a807-959d1bf9af17","system_id":"levelo_inurba_marseille","lat":43.29598,"lon":5.38102,"is_reserved":false,"is_disabled":false,"rental_uris":{"android":"levelo://app?vid=da1803a9-bb73-481f-a807-959d1bf9af17","ios":"levelo://app?vid=da1803a9-bb73-481f-a807-959d1bf9af17"},"vehicle_type_id":"4","last_reported":1710788786,"current_range_meters":0,"station_id":"ce4bgl12rcd13ifvqbo0","pricing_plan_id":"cebpf4jnsgd1na2vs0mg"},{"bike_id":"4f6ea26c-5c1c-4903-85a6-8ed1e20df3e6","system_id":"levelo_inurba_marseille","lat":43.29779,"lon":5.38445,"is_reserved":false,"is_disabled":false,"rental_uris":{"android":"levelo://app?vid=4f6ea26c-5c1c-4903-85a6-8ed1e20df3e6","ios":"levelo://app?vid=4f6ea26c-5c1c-4903-85a6-8ed1e20df3e6"},"vehicle_type_id":"4","last_reported":1710788786,"current_range_meters":20400,"station_id":"","pricing_plan_id":"cebpf4jnsgd1na2vs0mg"},{"bike_id":"9ee8e6cb-95a8-46be-8c1b-d099e1826a15","system_id":"levelo_inurba_marseille","lat":43.29334,"lon":5.37154,"is_reserved":false,"is_disabled":false,"rental_uris":{"android":"levelo://app?vid=9ee8e6cb-95a8-46be-8c1b-d099e1826a15","ios":"levelo://app?vid=9ee8e6cb-95a8-46be-8c1b-d099e1826a15"},"vehicle_type_id":"4","last_reported":1710788786,"current_range_meters":17600,"station_id":"ce4bgh92rcd13ifvqb40","pricing_plan_id":"cebpf4jnsgd1na2vs0mg"},{"bike_id":"a9b200b8-e2c0-4aa8-893b-bc7eab62dc2b","system_id":"levelo_inurba_marseille","lat":43.311722,"lon":5.387247,"is_reserved":false,"is_disabled":false,"rental_uris":{"android":"levelo://app?vid=a9b200b8-e2c0-4aa8-893b-bc7eab62dc2b","ios":"levelo://app?vid=a9b200b8-e2c0-4aa8-893b-bc7eab62dc2b"},"vehicle_type_id":"4","last_reported":1710788786,"current_range_meters":20400,"station_id":"ce4bgv12rcd13ifvqcp0","pricing_plan_id":"cebpf4jnsgd1na2vs0mg"},{"bike_id":"490d2782-93f1-4094-8adb-e49b1f2de7d4","system_id":"levelo_inurba_marseille","lat":43.29292,"lon":5.36858,"is_reserved":false,"is_disabled":false,"rental_uris":{"android":"levelo://app?vid=490d2782-93f1-4094-8adb-e49b1f2de7d4","ios":"levelo://app?vid=490d2782-93f1-4094-8adb-e49b1f2de7d4"},"vehicle_type_id":"4","last_reported":1710788786,"current_range_meters":0,"station_id":"ce4bhbp2rcd13ifvqesg","pricing_plan_id":"cebpf4jnsgd1na2vs0mg"},{"bike_id":"46eafc49-b4f1-4776-b5e1-b6613c202593","system_id":"levelo_inurba_marseille","lat":43.29279,"lon":5.36834,"is_reserved":false,"is_disabled":false,"rental_uris":{"android":"levelo://app?vid=46eafc49-b4f1-4776-b5e1-b6613c202593","ios":"levelo://app?vid=46eafc49-b4f1-4776-b5e1-b6613c202593"},"vehicle_type_id":"4","last_reported":1710788786,"current_range_meters":0,"station_id":"ce4bhbp2rcd13ifvqesg","pricing_plan_id":"cebpf4jnsgd1na2vs0mg"},{"bike_id":"3e4f00a5-23b3-4c47-8d4f-5ff0e107c4a1","system_id":"levelo_inurba_marseille","lat":43.29277,"lon":5.36836,"is_reserved":false,"is_disabled":false,"rental_uris":{"android":"levelo://app?vid=3e4f00a5-23b3-4c47-8d4f-5ff0e107c4a1","ios":"levelo://app?vid=3e4f00a5-23b3-4c47-8d4f-5ff0e107c4a1"},"vehicle_type_id":"4","last_reported":1710788786,"current_range_meters":0,"station_id":"ce4bhbp2rcd13ifvqesg","pricing_plan_id":"cebpf4jnsgd1na2vs0mg"},{"bike_id":"7bf7962a-aea6-4c1b-8cc9-1b1df7470a08","system_id":"levelo_inurba_marseille","lat":43.29277,"lon":5.36839,"is_reserved":false,"is_disabled":false,"rental_uris":{"android":"levelo://app?vid=7bf7962a-aea6-4c1b-8cc9-1b1df7470a08","ios":"levelo://app?vid=7bf7962a-aea6-4c1b-8cc9-1b1df7470a08"},"vehicle_type_id":"4","last_reported":1710788786,"current_range_meters":29600,"station_id":"ce4bhbp2rcd13ifvqesg","pricing_plan_id":"cebpf4jnsgd1na2vs0mg"},{"bike_id":"70bfcc0c-744e-416c-933f-cf2263f4d8f2","system_id":"levelo_inurba_marseille","lat":43.292756,"lon":5.36846,"is_reserved":false,"is_disabled":false,"rental_uris":{"android":"levelo://app?vid=70bfcc0c-744e-416c-933f-cf2263f4d8f2","ios":"levelo://app?vid=70bfcc0c-744e-416c-933f-cf2263f4d8f2"},"vehicle_type_id":"4","last_reported":1710788786,"current_range_meters":24800,"station_id":"ce4bhbp2rcd13ifvqesg","pricing_plan_id":"cebpf4jnsgd1na2vs0mg"},{"bike_id":"a11f5980-3081-487d-8d1c-982e71c41164","system_id":"levelo_inurba_marseille","lat":43.292726,"lon":5.368379,"is_reserved":false,"is_disabled":false,"rental_uris":{"android":"levelo://app?vid=a11f5980-3081-487d-8d1c-982e71c41164","ios":"levelo://app?vid=a11f5980-3081-487d-8d1c-982e71c41164"},"vehicle_type_id":"4","last_reported":1710788786,"current_range_meters":20400,"station_id":"ce4bhbp2rcd13ifvqesg","pricing_plan_id":"cebpf4jnsgd1na2vs0mg"},{"bike_id":"d4a0ec2f-f076-45f5-adc2-4858559e9d03","system_id":"levelo_inurba_marseille","lat":43.311722,"lon":5.387247,"is_reserved":false,"is_disabled":false,"rental_uris":{"android":"levelo://app?vid=d4a0ec2f-f076-45f5-adc2-4858559e9d03","ios":"levelo://app?vid=d4a0ec2f-f076-45f5-adc2-4858559e9d03"},"vehicle_type_id":"4","last_reported":1710788786,"current_range_meters":18800,"station_id":"ce4bgv12rcd13ifvqcp0","pricing_plan_id":"cebpf4jnsgd1na2vs0mg"},{"bike_id":"ec899378-9a2a-4bf3-b0c3-9c5938d26421","system_id":"levelo_inurba_marseille","lat":43.303002,"lon":5.392142,"is_reserved":false,"is_disabled":false,"rental_uris":{"android":"levelo://app?vid=ec899378-9a2a-4bf3-b0c3-9c5938d26421","ios":"levelo://app?vid=ec899378-9a2a-4bf3-b0c3-9c5938d26421"},"vehicle_type_id":"4","last_reported":1710788786,"current_range_meters":800,"station_id":"ce4bgkh2rcd13ifvqbk0","pricing_plan_id":"cebpf4jnsgd1na2vs0mg"},{"bike_id":"c7c2d877-e44d-4e06-a4a1-2ad0a4c571f8","system_id":"levelo_inurba_marseille","lat":43.29302,"lon":5.37449,"is_reserved":false,"is_disabled":false,"rental_uris":{"android":"levelo://app?vid=c7c2d877-e44d-4e06-a4a1-2ad0a4c571f8","ios":"levelo://app?vid=c7c2d877-e44d-4e06-a4a1-2ad0a4c571f8"},"vehicle_type_id":"4","last_reported":1710788786,"current_range_meters":0,"station_id":"ce4bgi12rcd13ifvqb70","pricing_plan_id":"cebpf4jnsgd1na2vs0mg"},{"bike_id":"5196c60d-12f9-47f3-8331-b7c83a7afdc4","system_id":"levelo_inurba_marseille","lat":43.293009,"lon":5.374584,"is_reserved":false,"is_disabled":false,"rental_uris":{"android":"levelo://app?vid=5196c60d-12f9-47f3-8331-b7c83a7afdc4","ios":"levelo://app?vid=5196c60d-12f9-47f3-8331-b7c83a7afdc4"},"vehicle_type_id":"4","last_reported":1710788786,"current_range_meters":0,"station_id":"ce4bgi12rcd13ifvqb70","pricing_plan_id":"cebpf4jnsgd1na2vs0mg"},{"bike_id":"3d664972-c9df-488f-a4fe-a317008a1c86","system_id":"levelo_inurba_marseille","lat":43.293009,"lon":5.374584,"is_reserved":false,"is_disabled":false,"rental_uris":{"android":"levelo://app?vid=3d664972-c9df-488f-a4fe-a317008a1c86","ios":"levelo://app?vid=3d664972-c9df-488f-a4fe-a317008a1c86"},"vehicle_type_id":"4","last_reported":1710788786,"current_range_meters":3200,"station_id":"ce4bgi12rcd13ifvqb70","pricing_plan_id":"cebpf4jnsgd1na2vs0mg"},{"bike_id":"f5b7665e-60b6-408d-bb3e-f2d95c4bb35c","system_id":"levelo_inurba_marseille","lat":43.293009,"lon":5.374584,"is_reserved":false,"is_disabled":false,"rental_uris":{"android":"levelo://app?vid=f5b7665e-60b6-408d-bb3e-f2d95c4bb35c","ios":"levelo://app?vid=f5b7665e-60b6-408d-bb3e-f2d95c4bb35c"},"vehicle_type_id":"4","last_reported":1710788786,"current_range_meters":8400,"station_id":"ce4bgi12rcd13ifvqb70","pricing_plan_id":"cebpf4jnsgd1na2vs0mg"},{"bike_id":"c021e14a-f4f5-44e0-8e54-712bbab99502","system_id":"levelo_inurba_marseille","lat":43.305994,"lon":5.393687,"is_reserved":false,"is_disabled":false,"rental_uris":{"android":"levelo://app?vid=c021e14a-f4f5-44e0-8e54-712bbab99502","ios":"levelo://app?vid=c021e14a-f4f5-44e0-8e54-712bbab99502"},"vehicle_type_id":"4","last_reported":1710788786,"current_range_meters":9600,"station_id":"ce4bh0p2rcd13ifvqd80","pricing_plan_id":"cebpf4jnsgd1na2vs0mg"},{"bike_id":"6b721f89-f409-4e80-9a17-41d007488da0","system_id":"levelo_inurba_marseille","lat":43.29376,"lon":5.37841,"is_reserved":false,"is_disabled":false,"rental_uris":{"android":"levelo://app?vid=6b721f89-f409-4e80-9a17-41d007488da0","ios":"levelo://app?vid=6b721f89-f409-4e80-9a17-41d007488da0"},"vehicle_type_id":"4","last_reported":1710788786,"current_range_meters":0,"station_id":"ce4bgjh2rcd13ifvqbf0","pricing_plan_id":"cebpf4jnsgd1na2vs0mg"},{"bike_id":"55ed88e1-94a2-4476-8634-3cd36518f655","system_id":"levelo_inurba_marseille","lat":43.302992,"lon":5.392136,"is_reserved":false,"is_disabled":false,"rental_uris":{"android":"levelo://app?vid=55ed88e1-94a2-4476-8634-3cd36518f655","ios":"levelo://app?vid=55ed88e1-94a2-4476-8634-3cd36518f655"},"vehicle_type_id":"4","last_reported":1710788786,"current_range_meters":2800,"station_id":"ce4bgkh2rcd13ifvqbk0","pricing_plan_id":"cebpf4jnsgd1na2vs0mg"},{"bike_id":"aa4c4a84-c1e3-4dc2-ba1c-1077fb06cd3e","system_id":"levelo_inurba_marseille","lat":43.2936,"lon":5.37835,"is_reserved":false,"is_disabled":false,"rental_uris":{"android":"levelo://app?vid=aa4c4a84-c1e3-4dc2-ba1c-1077fb06cd3e","ios":"levelo://app?vid=aa4c4a84-c1e3-4dc2-ba1c-1077fb06cd3e"},"vehicle_type_id":"4","last_reported":1710788786,"current_range_meters":14400,"station_id":"ce4bgjh2rcd13ifvqbf0","pricing_plan_id":"cebpf4jnsgd1na2vs0mg"},{"bike_id":"5868c5c4-685a-47d1-a314-e80538432620","system_id":"levelo_inurba_marseille","lat":43.303002,"lon":5.392142,"is_reserved":false,"is_disabled":false,"rental_uris":{"android":"levelo://app?vid=5868c5c4-685a-47d1-a314-e80538432620","ios":"levelo://app?vid=5868c5c4-685a-47d1-a314-e80538432620"},"vehicle_type_id":"4","last_reported":1710788786,"current_range_meters":0,"station_id":"ce4bgkh2rcd13ifvqbk0","pricing_plan_id":"cebpf4jnsgd1na2vs0mg"},{"bike_id":"743c6a1f-c99c-45a4-8061-f247f4466580","system_id":"levelo_inurba_marseille","lat":43.297946,"lon":5.404063,"is_reserved":false,"is_disabled":false,"rental_uris":{"android":"levelo://app?vid=743c6a1f-c99c-45a4-8061-f247f4466580","ios":"levelo://app?vid=743c6a1f-c99c-45a4-8061-f247f4466580"},"vehicle_type_id":"4","last_reported":1710788786,"current_range_meters":12400,"station_id":"ce4bh112rcd13ifvqd90","pricing_plan_id":"cebpf4jnsgd1na2vs0mg"},{"bike_id":"4220ed85-6220-46fe-9614-09b27e82aa43","system_id":"levelo_inurba_marseille","lat":43.292311,"lon":5.360731,"is_reserved":false,"is_disabled":false,"rental_uris":{"android":"levelo://app?vid=4220ed85-6220-46fe-9614-09b27e82aa43","ios":"levelo://app?vid=4220ed85-6220-46fe-9614-09b27e82aa43"},"vehicle_type_id":"4","last_reported":1710788786,"current_range_meters":0,"station_id":"ce4bhbh2rcd13ifvqeqg","pricing_plan_id":"cebpf4jnsgd1na2vs0mg"},{"bike_id":"4bd1d615-0011-4c77-9f52-bafe7b629519","system_id":"levelo_inurba_marseille","lat":43.306956,"lon":5.394983,"is_reserved":false,"is_disabled":false,"rental_uris":{"android":"levelo://app?vid=4bd1d615-0011-4c77-9f52-bafe7b629519","ios":"levelo://app?vid=4bd1d615-0011-4c77-9f52-bafe7b629519"},"vehicle_type_id":"4","last_reported":1710788786,"current_range_meters":8000,"station_id":"ce4bgvp2rcd13ifvqcu0","pricing_plan_id":"cebpf4jnsgd1na2vs0mg"},{"bike_id":"72a1fbc8-d2be-4cdc-bd3e-c2549c156d36","system_id":"levelo_inurba_marseille","lat":43.298764,"lon":5.388973,"is_reserved":false,"is_disabled":false,"rental_uris":{"android":"levelo://app?vid=72a1fbc8-d2be-4cdc-bd3e-c2549c156d36","ios":"levelo://app?vid=72a1fbc8-d2be-4cdc-bd3e-c2549c156d36"},"vehicle_type_id":"4","last_reported":1710788786,"current_range_meters":26000,"station_id":"ce4bh392rcd13ifvqdl0","pricing_plan_id":"cebpf4jnsgd1na2vs0mg"},{"bike_id":"dc5628c1-09c9-4236-b706-41f38140984f","system_id":"levelo_inurba_marseille","lat":43.291671,"lon":5.371575,"is_reserved":false,"is_disabled":false,"rental_uris":{"android":"levelo://app?vid=dc5628c1-09c9-4236-b706-41f38140984f","ios":"levelo://app?vid=dc5628c1-09c9-4236-b706-41f38140984f"},"vehicle_type_id":"4","last_reported":1710788786,"current_range_meters":0,"station_id":"ce4bha92rcd13ifvqeh0","pricing_plan_id":"cebpf4jnsgd1na2vs0mg"},{"bike_id":"80808dce-6ff1-45ba-865a-e428cfbd266f","system_id":"levelo_inurba_marseille","lat":43.291671,"lon":5.371575,"is_reserved":false,"is_disabled":false,"rental_uris":{"android":"levelo://app?vid=80808dce-6ff1-45ba-865a-e428cfbd266f","ios":"levelo://app?vid=80808dce-6ff1-45ba-865a-e428cfbd266f"},"vehicle_type_id":"4","last_reported":1710788786,"current_range_meters":8800,"station_id":"ce4bha92rcd13ifvqeh0","pricing_plan_id":"cebpf4jnsgd1na2vs0mg"},{"bike_id":"a284f78d-0733-441d-b7cc-3a33469798c6","system_id":"levelo_inurba_marseille","lat":43.291675,"lon":5.371583,"is_reserved":false,"is_disabled":false,"rental_uris":{"android":"levelo://app?vid=a284f78d-0733-441d-b7cc-3a33469798c6","ios":"levelo://app?vid=a284f78d-0733-441d-b7cc-3a33469798c6"},"vehicle_type_id":"4","last_reported":1710788786,"current_range_meters":0,"station_id":"ce4bha92rcd13ifvqeh0","pricing_plan_id":"cebpf4jnsgd1na2vs0mg"},{"bike_id":"eb884b32-d97c-4812-86cb-4e60fcd9e4c3","system_id":"levelo_inurba_marseille","lat":43.291671,"lon":5.371575,"is_reserved":false,"is_disabled":false,"rental_uris":{"android":"levelo://app?vid=eb884b32-d97c-4812-86cb-4e60fcd9e4c3","ios":"levelo://app?vid=eb884b32-d97c-4812-86cb-4e60fcd9e4c3"},"vehicle_type_id":"4","last_reported":1710788786,"current_range_meters":0,"station_id":"ce4bha92rcd13ifvqeh0","pricing_plan_id":"cebpf4jnsgd1na2vs0mg"},{"bike_id":"7e71418c-916c-496b-b1b9-73fd03f2dc6f","system_id":"levelo_inurba_marseille","lat":43.30889,"lon":5.39629,"is_reserved":false,"is_disabled":false,"rental_uris":{"android":"levelo://app?vid=7e71418c-916c-496b-b1b9-73fd03f2dc6f","ios":"levelo://app?vid=7e71418c-916c-496b-b1b9-73fd03f2dc6f"},"vehicle_type_id":"4","last_reported":1710788786,"current_range_meters":15200,"station_id":"ce4bh012rcd13ifvqcv0","pricing_plan_id":"cebpf4jnsgd1na2vs0mg"},{"bike_id":"7cc1d042-4f28-4062-a8f9-6372809f45e8","system_id":"levelo_inurba_marseille","lat":43.309038,"lon":5.396546,"is_reserved":false,"is_disabled":false,"rental_uris":{"android":"levelo://app?vid=7cc1d042-4f28-4062-a8f9-6372809f45e8","ios":"levelo://app?vid=7cc1d042-4f28-4062-a8f9-6372809f45e8"},"vehicle_type_id":"4","last_reported":1710788786,"current_range_meters":0,"station_id":"ce4bh012rcd13ifvqcv0","pricing_plan_id":"cebpf4jnsgd1na2vs0mg"},{"bike_id":"66a3a767-34bd-4a17-b384-69d17513dc35","system_id":"levelo_inurba_marseille","lat":43.309047,"lon":5.396551,"is_reserved":false,"is_disabled":false,"rental_uris":{"android":"levelo://app?vid=66a3a767-34bd-4a17-b384-69d17513dc35","ios":"levelo://app?vid=66a3a767-34bd-4a17-b384-69d17513dc35"},"vehicle_type_id":"4","last_reported":1710788786,"current_range_meters":22800,"station_id":"ce4bh012rcd13ifvqcv0","pricing_plan_id":"cebpf4jnsgd1na2vs0mg"},{"bike_id":"ca214b54-a448-435b-aed5-bc1a963eebc7","system_id":"levelo_inurba_marseille","lat":43.30895,"lon":5.39638,"is_reserved":false,"is_disabled":false,"rental_uris":{"android":"levelo://app?vid=ca214b54-a448-435b-aed5-bc1a963eebc7","ios":"levelo://app?vid=ca214b54-a448-435b-aed5-bc1a963eebc7"},"vehicle_type_id":"4","last_reported":1710788786,"current_range_meters":0,"station_id":"ce4bh012rcd13ifvqcv0","pricing_plan_id":"cebpf4jnsgd1na2vs0mg"},{"bike_id":"cca2a2dc-7502-4d2b-b0d8-7d022a8d823b","system_id":"levelo_inurba_marseille","lat":43.3133,"lon":5.39684,"is_reserved":false,"is_disabled":false,"rental_uris":{"android":"levelo://app?vid=cca2a2dc-7502-4d2b-b0d8-7d022a8d823b","ios":"levelo://app?vid=cca2a2dc-7502-4d2b-b0d8-7d022a8d823b"},"vehicle_type_id":"4","last_reported":1710788786,"current_range_meters":9600,"station_id":"ce4bgvp2rcd13ifvqcu0","pricing_plan_id":"cebpf4jnsgd1na2vs0mg"},{"bike_id":"5e8668ca-9cf0-4ecc-9cbd-f26cb38a4010","system_id":"levelo_inurba_marseille","lat":43.30884,"lon":5.39637,"is_reserved":false,"is_disabled":false,"rental_uris":{"android":"levelo://app?vid=5e8668ca-9cf0-4ecc-9cbd-f26cb38a4010","ios":"levelo://app?vid=5e8668ca-9cf0-4ecc-9cbd-f26cb38a4010"},"vehicle_type_id":"4","last_reported":1710788786,"current_range_meters":3200,"station_id":"ce4bh012rcd13ifvqcv0","pricing_plan_id":"cebpf4jnsgd1na2vs0mg"},{"bike_id":"617b0e6f-676e-40f0-bbaf-c9395e5b4dcd","system_id":"levelo_inurba_marseille","lat":43.313291,"lon":5.396838,"is_reserved":false,"is_disabled":false,"rental_uris":{"android":"levelo://app?vid=617b0e6f-676e-40f0-bbaf-c9395e5b4dcd","ios":"levelo://app?vid=617b0e6f-676e-40f0-bbaf-c9395e5b4dcd"},"vehicle_type_id":"4","last_reported":1710788786,"current_range_meters":29200,"station_id":"ce4bgvp2rcd13ifvqcu0","pricing_plan_id":"cebpf4jnsgd1na2vs0mg"},{"bike_id":"8f9c2704-e4cc-45cb-8bbb-fcb096bb0805","system_id":"levelo_inurba_marseille","lat":43.313291,"lon":5.396838,"is_reserved":false,"is_disabled":false,"rental_uris":{"android":"levelo://app?vid=8f9c2704-e4cc-45cb-8bbb-fcb096bb0805","ios":"levelo://app?vid=8f9c2704-e4cc-45cb-8bbb-fcb096bb0805"},"vehicle_type_id":"4","last_reported":1710788786,"current_range_meters":14400,"station_id":"ce4bgvp2rcd13ifvqcu0","pricing_plan_id":"cebpf4jnsgd1na2vs0mg"},{"bike_id":"b0fd7457-162a-4f59-bc93-7818c2aa5c43","system_id":"levelo_inurba_marseille","lat":43.313291,"lon":5.396838,"is_reserved":false,"is_disabled":false,"rental_uris":{"android":"levelo://app?vid=b0fd7457-162a-4f59-bc93-7818c2aa5c43","ios":"levelo://app?vid=b0fd7457-162a-4f59-bc93-7818c2aa5c43"},"vehicle_type_id":"4","last_reported":1710788786,"current_range_meters":18800,"station_id":"ce4bgvp2rcd13ifvqcu0","pricing_plan_id":"cebpf4jnsgd1na2vs0mg"},{"bike_id":"aadf9756-2172-4fa9-b5f9-044cad6fc6e1","system_id":"levelo_inurba_marseille","lat":43.313291,"lon":5.396838,"is_reserved":false,"is_disabled":false,"rental_uris":{"android":"levelo://app?vid=aadf9756-2172-4fa9-b5f9-044cad6fc6e1","ios":"levelo://app?vid=aadf9756-2172-4fa9-b5f9-044cad6fc6e1"},"vehicle_type_id":"4","last_reported":1710788786,"current_range_meters":0,"station_id":"ce4bgvp2rcd13ifvqcu0","pricing_plan_id":"cebpf4jnsgd1na2vs0mg"},{"bike_id":"f5df6827-d621-4b4e-82ea-b4db323913dc","system_id":"levelo_inurba_marseille","lat":43.29192,"lon":5.35795,"is_reserved":false,"is_disabled":false,"rental_uris":{"android":"levelo://app?vid=f5df6827-d621-4b4e-82ea-b4db323913dc","ios":"levelo://app?vid=f5df6827-d621-4b4e-82ea-b4db323913dc"},"vehicle_type_id":"4","last_reported":1710788786,"current_range_meters":0,"station_id":"ce4bhb12rcd13ifvqel0","pricing_plan_id":"cebpf4jnsgd1na2vs0mg"},{"bike_id":"4e82e8b3-e400-45e2-9bff-fe38ba01a722","system_id":"levelo_inurba_marseille","lat":43.313291,"lon":5.396838,"is_reserved":false,"is_disabled":false,"rental_uris":{"android":"levelo://app?vid=4e82e8b3-e400-45e2-9bff-fe38ba01a722","ios":"levelo://app?vid=4e82e8b3-e400-45e2-9bff-fe38ba01a722"},"vehicle_type_id":"4","last_reported":1710788786,"current_range_meters":24800,"station_id":"ce4bgvp2rcd13ifvqcu0","pricing_plan_id":"cebpf4jnsgd1na2vs0mg"},{"bike_id":"baf70c3a-b47d-4608-b1b1-50ad62d22bff","system_id":"levelo_inurba_marseille","lat":43.313252,"lon":5.396913,"is_reserved":false,"is_disabled":false,"rental_uris":{"android":"levelo://app?vid=baf70c3a-b47d-4608-b1b1-50ad62d22bff","ios":"levelo://app?vid=baf70c3a-b47d-4608-b1b1-50ad62d22bff"},"vehicle_type_id":"4","last_reported":1710788786,"current_range_meters":31200,"station_id":"ce4bgvp2rcd13ifvqcu0","pricing_plan_id":"cebpf4jnsgd1na2vs0mg"},{"bike_id":"e9cfe8a9-df39-4c1b-bba7-57d17ef7ac37","system_id":"levelo_inurba_marseille","lat":43.291913,"lon":5.357943,"is_reserved":false,"is_disabled":false,"rental_uris":{"android":"levelo://app?vid=e9cfe8a9-df39-4c1b-bba7-57d17ef7ac37","ios":"levelo://app?vid=e9cfe8a9-df39-4c1b-bba7-57d17ef7ac37"},"vehicle_type_id":"4","last_reported":1710788786,"current_range_meters":16000,"station_id":"ce4bhb12rcd13ifvqel0","pricing_plan_id":"cebpf4jnsgd1na2vs0mg"},{"bike_id":"4112e78b-a83b-4144-bf4b-846372bc7b46","system_id":"levelo_inurba_marseille","lat":43.29189,"lon":5.35804,"is_reserved":false,"is_disabled":false,"rental_uris":{"android":"levelo://app?vid=4112e78b-a83b-4144-bf4b-846372bc7b46","ios":"levelo://app?vid=4112e78b-a83b-4144-bf4b-846372bc7b46"},"vehicle_type_id":"4","last_reported":1710788786,"current_range_meters":0,"station_id":"ce4bhb12rcd13ifvqel0","pricing_plan_id":"cebpf4jnsgd1na2vs0mg"},{"bike_id":"fd327592-bcf3-43bf-9594-86c819354f99","system_id":"levelo_inurba_marseille","lat":43.313291,"lon":5.396838,"is_reserved":false,"is_disabled":false,"rental_uris":{"android":"levelo://app?vid=fd327592-bcf3-43bf-9594-86c819354f99","ios":"levelo://app?vid=fd327592-bcf3-43bf-9594-86c819354f99"},"vehicle_type_id":"4","last_reported":1710788786,"current_range_meters":30800,"station_id":"ce4bgvp2rcd13ifvqcu0","pricing_plan_id":"cebpf4jnsgd1na2vs0mg"},{"bike_id":"b5bcac87-7631-4270-9206-ca8781416e02","system_id":"levelo_inurba_marseille","lat":43.30883,"lon":5.396453,"is_reserved":false,"is_disabled":false,"rental_uris":{"android":"levelo://app?vid=b5bcac87-7631-4270-9206-ca8781416e02","ios":"levelo://app?vid=b5bcac87-7631-4270-9206-ca8781416e02"},"vehicle_type_id":"4","last_reported":1710788786,"current_range_meters":0,"station_id":"ce4bh012rcd13ifvqcv0","pricing_plan_id":"cebpf4jnsgd1na2vs0mg"},{"bike_id":"88f8c006-3663-43ee-a7c3-5ec8a5d44b37","system_id":"levelo_inurba_marseille","lat":43.313291,"lon":5.396838,"is_reserved":false,"is_disabled":false,"rental_uris":{"android":"levelo://app?vid=88f8c006-3663-43ee-a7c3-5ec8a5d44b37","ios":"levelo://app?vid=88f8c006-3663-43ee-a7c3-5ec8a5d44b37"},"vehicle_type_id":"4","last_reported":1710788786,"current_range_meters":31600,"station_id":"ce4bgvp2rcd13ifvqcu0","pricing_plan_id":"cebpf4jnsgd1na2vs0mg"},{"bike_id":"77e5d8c2-1599-4aab-8854-27b6ffebbe87","system_id":"levelo_inurba_marseille","lat":43.292664,"lon":5.378744,"is_reserved":false,"is_disabled":false,"rental_uris":{"android":"levelo://app?vid=77e5d8c2-1599-4aab-8854-27b6ffebbe87","ios":"levelo://app?vid=77e5d8c2-1599-4aab-8854-27b6ffebbe87"},"vehicle_type_id":"4","last_reported":1710788786,"current_range_meters":0,"station_id":"ce4bgjh2rcd13ifvqbf0","pricing_plan_id":"cebpf4jnsgd1na2vs0mg"},{"bike_id":"011853d6-7f70-47d5-b663-52cb0e351ae4","system_id":"levelo_inurba_marseille","lat":43.31328,"lon":5.39694,"is_reserved":false,"is_disabled":false,"rental_uris":{"android":"levelo://app?vid=011853d6-7f70-47d5-b663-52cb0e351ae4","ios":"levelo://app?vid=011853d6-7f70-47d5-b663-52cb0e351ae4"},"vehicle_type_id":"4","last_reported":1710788786,"current_range_meters":28800,"station_id":"ce4bgvp2rcd13ifvqcu0","pricing_plan_id":"cebpf4jnsgd1na2vs0mg"},{"bike_id":"abb11673-b40c-40c4-b8f4-1baa48a2e387","system_id":"levelo_inurba_marseille","lat":43.313362,"lon":5.396938,"is_reserved":false,"is_disabled":false,"rental_uris":{"android":"levelo://app?vid=abb11673-b40c-40c4-b8f4-1baa48a2e387","ios":"levelo://app?vid=abb11673-b40c-40c4-b8f4-1baa48a2e387"},"vehicle_type_id":"4","last_reported":1710788786,"current_range_meters":22800,"station_id":"ce4bgvp2rcd13ifvqcu0","pricing_plan_id":"cebpf4jnsgd1na2vs0mg"},{"bike_id":"9ec8d88c-f7d2-49ab-a3b9-3802e86b818a","system_id":"levelo_inurba_marseille","lat":43.2919,"lon":5.35789,"is_reserved":false,"is_disabled":false,"rental_uris":{"android":"levelo://app?vid=9ec8d88c-f7d2-49ab-a3b9-3802e86b818a","ios":"levelo://app?vid=9ec8d88c-f7d2-49ab-a3b9-3802e86b818a"},"vehicle_type_id":"4","last_reported":1710788786,"current_range_meters":23600,"station_id":"ce4bhb12rcd13ifvqel0","pricing_plan_id":"cebpf4jnsgd1na2vs0mg"},{"bike_id":"5e84aace-d6e2-4b8e-a64a-6d2f2b35a36c","system_id":"levelo_inurba_marseille","lat":43.313291,"lon":5.396838,"is_reserved":false,"is_disabled":false,"rental_uris":{"android":"levelo://app?vid=5e84aace-d6e2-4b8e-a64a-6d2f2b35a36c","ios":"levelo://app?vid=5e84aace-d6e2-4b8e-a64a-6d2f2b35a36c"},"vehicle_type_id":"4","last_reported":1710788786,"current_range_meters":21200,"station_id":"ce4bgvp2rcd13ifvqcu0","pricing_plan_id":"cebpf4jnsgd1na2vs0mg"},{"bike_id":"68f4ec78-6cea-485c-a7f0-f742113abab5","system_id":"levelo_inurba_marseille","lat":43.313291,"lon":5.396838,"is_reserved":false,"is_disabled":false,"rental_uris":{"android":"levelo://app?vid=68f4ec78-6cea-485c-a7f0-f742113abab5","ios":"levelo://app?vid=68f4ec78-6cea-485c-a7f0-f742113abab5"},"vehicle_type_id":"4","last_reported":1710788786,"current_range_meters":31200,"station_id":"ce4bgvp2rcd13ifvqcu0","pricing_plan_id":"cebpf4jnsgd1na2vs0mg"},{"bike_id":"6099a66f-a244-4289-9215-0481464c4177","system_id":"levelo_inurba_marseille","lat":43.309038,"lon":5.396546,"is_reserved":false,"is_disabled":false,"rental_uris":{"android":"levelo://app?vid=6099a66f-a244-4289-9215-0481464c4177","ios":"levelo://app?vid=6099a66f-a244-4289-9215-0481464c4177"},"vehicle_type_id":"4","last_reported":1710788786,"current_range_meters":21200,"station_id":"ce4bh012rcd13ifvqcv0","pricing_plan_id":"cebpf4jnsgd1na2vs0mg"},{"bike_id":"47d20761-d881-4f8f-8a47-ff786e168f50","system_id":"levelo_inurba_marseille","lat":43.31334,"lon":5.39698,"is_reserved":false,"is_disabled":false,"rental_uris":{"android":"levelo://app?vid=47d20761-d881-4f8f-8a47-ff786e168f50","ios":"levelo://app?vid=47d20761-d881-4f8f-8a47-ff786e168f50"},"vehicle_type_id":"4","last_reported":1710788786,"current_range_meters":0,"station_id":"ce4bgvp2rcd13ifvqcu0","pricing_plan_id":"cebpf4jnsgd1na2vs0mg"},{"bike_id":"e387f748-8d07-4467-9c18-092d593de14a","system_id":"levelo_inurba_marseille","lat":43.313291,"lon":5.396838,"is_reserved":false,"is_disabled":false,"rental_uris":{"android":"levelo://app?vid=e387f748-8d07-4467-9c18-092d593de14a","ios":"levelo://app?vid=e387f748-8d07-4467-9c18-092d593de14a"},"vehicle_type_id":"4","last_reported":1710788786,"current_range_meters":31200,"station_id":"ce4bgvp2rcd13ifvqcu0","pricing_plan_id":"cebpf4jnsgd1na2vs0mg"},{"bike_id":"e5eb153c-6f73-484d-98c5-08c6131b14da","system_id":"levelo_inurba_marseille","lat":43.309047,"lon":5.396551,"is_reserved":false,"is_disabled":false,"rental_uris":{"android":"levelo://app?vid=e5eb153c-6f73-484d-98c5-08c6131b14da","ios":"levelo://app?vid=e5eb153c-6f73-484d-98c5-08c6131b14da"},"vehicle_type_id":"4","last_reported":1710788786,"current_range_meters":8400,"station_id":"ce4bh012rcd13ifvqcv0","pricing_plan_id":"cebpf4jnsgd1na2vs0mg"},{"bike_id":"201c7049-20db-47ce-bc11-85499cf7f567","system_id":"levelo_inurba_marseille","lat":43.29529,"lon":5.385581,"is_reserved":false,"is_disabled":false,"rental_uris":{"android":"levelo://app?vid=201c7049-20db-47ce-bc11-85499cf7f567","ios":"levelo://app?vid=201c7049-20db-47ce-bc11-85499cf7f567"},"vehicle_type_id":"4","last_reported":1710788786,"current_range_meters":6000,"station_id":"ce4bgih2rcd13ifvqba0","pricing_plan_id":"cebpf4jnsgd1na2vs0mg"},{"bike_id":"37256c79-19ca-4303-8323-58c91def4461","system_id":"levelo_inurba_marseille","lat":43.295431,"lon":5.385454,"is_reserved":false,"is_disabled":false,"rental_uris":{"android":"levelo://app?vid=37256c79-19ca-4303-8323-58c91def4461","ios":"levelo://app?vid=37256c79-19ca-4303-8323-58c91def4461"},"vehicle_type_id":"4","last_reported":1710788786,"current_range_meters":4800,"station_id":"ce4bgih2rcd13ifvqba0","pricing_plan_id":"cebpf4jnsgd1na2vs0mg"},{"bike_id":"f058ed52-0279-4735-9728-3ad4ee8b4324","system_id":"levelo_inurba_marseille","lat":43.29539,"lon":5.38547,"is_reserved":false,"is_disabled":false,"rental_uris":{"android":"levelo://app?vid=f058ed52-0279-4735-9728-3ad4ee8b4324","ios":"levelo://app?vid=f058ed52-0279-4735-9728-3ad4ee8b4324"},"vehicle_type_id":"4","last_reported":1710788786,"current_range_meters":0,"station_id":"ce4bgih2rcd13ifvqba0","pricing_plan_id":"cebpf4jnsgd1na2vs0mg"},{"bike_id":"1da5f597-2ef9-4709-ad8b-94a50d58b623","system_id":"levelo_inurba_marseille","lat":43.29534,"lon":5.38545,"is_reserved":false,"is_disabled":false,"rental_uris":{"android":"levelo://app?vid=1da5f597-2ef9-4709-ad8b-94a50d58b623","ios":"levelo://app?vid=1da5f597-2ef9-4709-ad8b-94a50d58b623"},"vehicle_type_id":"4","last_reported":1710788786,"current_range_meters":0,"station_id":"ce4bgih2rcd13ifvqba0","pricing_plan_id":"cebpf4jnsgd1na2vs0mg"},{"bike_id":"2e980999-c905-4e3a-b9a4-e0c0b2a19f64","system_id":"levelo_inurba_marseille","lat":43.29529,"lon":5.385581,"is_reserved":false,"is_disabled":false,"rental_uris":{"android":"levelo://app?vid=2e980999-c905-4e3a-b9a4-e0c0b2a19f64","ios":"levelo://app?vid=2e980999-c905-4e3a-b9a4-e0c0b2a19f64"},"vehicle_type_id":"4","last_reported":1710788786,"current_range_meters":0,"station_id":"ce4bgih2rcd13ifvqba0","pricing_plan_id":"cebpf4jnsgd1na2vs0mg"},{"bike_id":"81cf7ca7-1f5a-4b6b-8ca7-93426b8873c6","system_id":"levelo_inurba_marseille","lat":43.29532,"lon":5.38549,"is_reserved":false,"is_disabled":false,"rental_uris":{"android":"levelo://app?vid=81cf7ca7-1f5a-4b6b-8ca7-93426b8873c6","ios":"levelo://app?vid=81cf7ca7-1f5a-4b6b-8ca7-93426b8873c6"},"vehicle_type_id":"4","last_reported":1710788786,"current_range_meters":6800,"station_id":"ce4bgih2rcd13ifvqba0","pricing_plan_id":"cebpf4jnsgd1na2vs0mg"},{"bike_id":"7db8e591-d6e5-4e58-b719-b7ec658b41a6","system_id":"levelo_inurba_marseille","lat":43.290779,"lon":5.371482,"is_reserved":false,"is_disabled":false,"rental_uris":{"android":"levelo://app?vid=7db8e591-d6e5-4e58-b719-b7ec658b41a6","ios":"levelo://app?vid=7db8e591-d6e5-4e58-b719-b7ec658b41a6"},"vehicle_type_id":"4","last_reported":1710788786,"current_range_meters":8400,"station_id":"ce4bh5p2rcd13ifvqe4g","pricing_plan_id":"cebpf4jnsgd1na2vs0mg"},{"bike_id":"67337868-c705-48bc-bb21-8fd5bea6b9f1","system_id":"levelo_inurba_marseille","lat":43.302008,"lon":5.394694,"is_reserved":false,"is_disabled":false,"rental_uris":{"android":"levelo://app?vid=67337868-c705-48bc-bb21-8fd5bea6b9f1","ios":"levelo://app?vid=67337868-c705-48bc-bb21-8fd5bea6b9f1"},"vehicle_type_id":"4","last_reported":1710788786,"current_range_meters":6800,"station_id":"ce4bh0p2rcd13ifvqd70","pricing_plan_id":"cebpf4jnsgd1na2vs0mg"},{"bike_id":"431de812-34bb-4489-9125-1f081a336578","system_id":"levelo_inurba_marseille","lat":43.289184,"lon":5.366408,"is_reserved":false,"is_disabled":false,"rental_uris":{"android":"levelo://app?vid=431de812-34bb-4489-9125-1f081a336578","ios":"levelo://app?vid=431de812-34bb-4489-9125-1f081a336578"},"vehicle_type_id":"4","last_reported":1710788786,"current_range_meters":0,"station_id":"ce4bhap2rcd13ifvqek0","pricing_plan_id":"cebpf4jnsgd1na2vs0mg"},{"bike_id":"82becd84-0124-47fe-9080-616d49ad97c8","system_id":"levelo_inurba_marseille","lat":43.289184,"lon":5.366408,"is_reserved":false,"is_disabled":false,"rental_uris":{"android":"levelo://app?vid=82becd84-0124-47fe-9080-616d49ad97c8","ios":"levelo://app?vid=82becd84-0124-47fe-9080-616d49ad97c8"},"vehicle_type_id":"4","last_reported":1710788786,"current_range_meters":26000,"station_id":"ce4bhap2rcd13ifvqek0","pricing_plan_id":"cebpf4jnsgd1na2vs0mg"},{"bike_id":"b6cb5d05-2f23-4ca5-8881-11ea813ad862","system_id":"levelo_inurba_marseille","lat":43.290327,"lon":5.375711,"is_reserved":false,"is_disabled":false,"rental_uris":{"android":"levelo://app?vid=b6cb5d05-2f23-4ca5-8881-11ea813ad862","ios":"levelo://app?vid=b6cb5d05-2f23-4ca5-8881-11ea813ad862"},"vehicle_type_id":"4","last_reported":1710788786,"current_range_meters":3200,"station_id":"ce4bh692rcd13ifvqe90","pricing_plan_id":"cebpf4jnsgd1na2vs0mg"},{"bike_id":"bf38f3d6-af9b-4785-9d6a-cb078292729d","system_id":"levelo_inurba_marseille","lat":43.290319,"lon":5.375732,"is_reserved":false,"is_disabled":false,"rental_uris":{"android":"levelo://app?vid=bf38f3d6-af9b-4785-9d6a-cb078292729d","ios":"levelo://app?vid=bf38f3d6-af9b-4785-9d6a-cb078292729d"},"vehicle_type_id":"4","last_reported":1710788786,"current_range_meters":6800,"station_id":"ce4bh692rcd13ifvqe90","pricing_plan_id":"cebpf4jnsgd1na2vs0mg"},{"bike_id":"a2fc3060-fc29-474b-9766-1ce7b67cb4c2","system_id":"levelo_inurba_marseille","lat":43.290319,"lon":5.375732,"is_reserved":false,"is_disabled":false,"rental_uris":{"android":"levelo://app?vid=a2fc3060-fc29-474b-9766-1ce7b67cb4c2","ios":"levelo://app?vid=a2fc3060-fc29-474b-9766-1ce7b67cb4c2"},"vehicle_type_id":"4","last_reported":1710788786,"current_range_meters":5600,"station_id":"ce4bh692rcd13ifvqe90","pricing_plan_id":"cebpf4jnsgd1na2vs0mg"},{"bike_id":"730dd794-b41c-4b83-9425-ed904d802b70","system_id":"levelo_inurba_marseille","lat":43.294153,"lon":5.386305,"is_reserved":false,"is_disabled":false,"rental_uris":{"android":"levelo://app?vid=730dd794-b41c-4b83-9425-ed904d802b70","ios":"levelo://app?vid=730dd794-b41c-4b83-9425-ed904d802b70"},"vehicle_type_id":"4","last_reported":1710788786,"current_range_meters":6400,"station_id":"ce4bh2h2rcd13ifvqdh0","pricing_plan_id":"cebpf4jnsgd1na2vs0mg"},{"bike_id":"d8e65eb2-884e-4e7b-96d5-4be6df7d823c","system_id":"levelo_inurba_marseille","lat":43.29424,"lon":5.3863,"is_reserved":false,"is_disabled":false,"rental_uris":{"android":"levelo://app?vid=d8e65eb2-884e-4e7b-96d5-4be6df7d823c","ios":"levelo://app?vid=d8e65eb2-884e-4e7b-96d5-4be6df7d823c"},"vehicle_type_id":"4","last_reported":1710788786,"current_range_meters":0,"station_id":"ce4bh2h2rcd13ifvqdh0","pricing_plan_id":"cebpf4jnsgd1na2vs0mg"},{"bike_id":"051c0a21-c3e8-4781-9e17-31f45b45f475","system_id":"levelo_inurba_marseille","lat":43.289184,"lon":5.366408,"is_reserved":false,"is_disabled":false,"rental_uris":{"android":"levelo://app?vid=051c0a21-c3e8-4781-9e17-31f45b45f475","ios":"levelo://app?vid=051c0a21-c3e8-4781-9e17-31f45b45f475"},"vehicle_type_id":"4","last_reported":1710788786,"current_range_meters":9200,"station_id":"ce4bhap2rcd13ifvqek0","pricing_plan_id":"cebpf4jnsgd1na2vs0mg"},{"bike_id":"61870494-2188-4246-9e3a-a4c9f41d6dc7","system_id":"levelo_inurba_marseille","lat":43.292569,"lon":5.409107,"is_reserved":false,"is_disabled":false,"rental_uris":{"android":"levelo://app?vid=61870494-2188-4246-9e3a-a4c9f41d6dc7","ios":"levelo://app?vid=61870494-2188-4246-9e3a-a4c9f41d6dc7"},"vehicle_type_id":"4","last_reported":1710788786,"current_range_meters":23600,"station_id":"ce4bh192rcd13ifvqdc0","pricing_plan_id":"cebpf4jnsgd1na2vs0mg"},{"bike_id":"40b7f680-cba6-48fe-8c66-fe62d308ace4","system_id":"levelo_inurba_marseille","lat":43.29416,"lon":5.3863,"is_reserved":false,"is_disabled":false,"rental_uris":{"android":"levelo://app?vid=40b7f680-cba6-48fe-8c66-fe62d308ace4","ios":"levelo://app?vid=40b7f680-cba6-48fe-8c66-fe62d308ace4"},"vehicle_type_id":"4","last_reported":1710788786,"current_range_meters":0,"station_id":"ce4bh2h2rcd13ifvqdh0","pricing_plan_id":"cebpf4jnsgd1na2vs0mg"},{"bike_id":"9b574f48-16a3-4d09-84e5-1cd4bc5f7c42","system_id":"levelo_inurba_marseille","lat":43.294153,"lon":5.386305,"is_reserved":false,"is_disabled":false,"rental_uris":{"android":"levelo://app?vid=9b574f48-16a3-4d09-84e5-1cd4bc5f7c42","ios":"levelo://app?vid=9b574f48-16a3-4d09-84e5-1cd4bc5f7c42"},