{"last_updated":1771331854,"ttl":60,"version":"2.2","data":{"bikes":[{"bike_id":"83f388b8-5fd2-4b9d-b4e0-e759702026f7","system_id":"levelo_inurba_marseille","lat":43.30929,"lon":5.39019,"is_reserved":false,"is_disabled":false,"rental_uris":{"android":"levelo://app?vid=83f388b8-5fd2-4b9d-b4e0-e759702026f7","ios":"levelo://app?vid=83f388b8-5fd2-4b9d-b4e0-e759702026f7"},"vehicle_type_id":"4","last_reported":1771331854,"current_range_meters":12800,"station_id":"ce4bgup2rcd13ifvqco0","pricing_plan_id":"cebpf4jnsgd1na2vs0mg"},{"bike_id":"d7118046-cefa-4587-89ed-6c45cd917a4f","system_id":"levelo_inurba_marseille","lat":43.23971,"lon":5.36626,"is_reserved":false,"is_disabled":false,"rental_uris":{"android":"levelo://app?vid=d7118046-cefa-4587-89ed-6c45cd917a4f","ios":"levelo://app?vid=d7118046-cefa-4587-89ed-6c45cd917a4f"},"vehicle_type_id":"4","last_reported":1771331854,"current_range_meters":38400,"station_id":"ce4bhi12rcd13ifvqfp0","pricing_plan_id":"cebpf4jnsgd1na2vs0mg"},{"bike_id":"9aa30411-4109-4d71-8b85-65127a6483db","system_id":"levelo_inurba_marseille","lat":43.27954,"lon":5.41042,"is_reserved":false,"is_disabled":false,"rental_uris":{"android":"levelo://app?vid=9aa30411-4109-4d71-8b85-65127a6483db","ios":"levelo://app?vid=9aa30411-4109-4d71-8b85-65127a6483db"},"vehicle_type_id":"4","last_reported":1771331854,"current_range_meters":28000,"station_id":"ce4bhnp2rcd13ifvqh0g","pricing_plan_id":"cebpf4jnsgd1na2vs0mg"},{"bike_id":"9fdfd435-ee1a-4566-9fad-8b87ca04be7e","system_id":"levelo_inurba_marseille","lat":43.31232,"lon":5.3685,"is_reserved":false,"is_disabled":false,"rental_uris":{"android":"levelo://app?vid=9fdfd435-ee1a-4566-9fad-8b87ca04be7e","ios":"levelo://app?vid=9fdfd435-ee1a-4566-9fad-8b87ca04be7e"},"vehicle_type_id":"4","last_reported":1771331854,"current_range_meters":16000,"station_id":"ce4bgl92rcd13ifvqbq0","pricing_plan_id":"cebpf4jnsgd1na2vs0mg"},{"bike_id":"6e07964d-6fe0-4880-a3fa-e2373dfa83a6","system_id":"levelo_inurba_marseille","lat":43.33157,"lon":5.37683,"is_reserved":false,"is_disabled":false,"rental_uris":{"android":"levelo://app?vid=6e07964d-6fe0-4880-a3fa-e2373dfa83a6","ios":"levelo://app?vid=6e07964d-6fe0-4880-a3fa-e2373dfa83a6"},"vehicle_type_id":"4","last_reported":1771331854,"current_range_meters":28400,"station_id":"st_d46cu089ee8s73dldbu0","pricing_plan_id":"cebpf4jnsgd1na2vs0mg"},{"bike_id":"e57f119f-8a24-4ef5-97d1-e242618f91a0","system_id":"levelo_inurba_marseille","lat":43.26229,"lon":5.40453,"is_reserved":false,"is_disabled":false,"rental_uris":{"android":"levelo://app?vid=e57f119f-8a24-4ef5-97d1-e242618f91a0","ios":"levelo://app?vid=e57f119f-8a24-4ef5-97d1-e242618f91a0"},"vehicle_type_id":"4","last_reported":1771331854,"current_range_meters":21600,"station_id":"ce4bhmh2rcd13ifvqgmg","pricing_plan_id":"cebpf4jnsgd1na2vs0mg"},{"bike_id":"33e04ab4-8566-4c76-a0fd-aad45455c18f","system_id":"levelo_inurba_marseille","lat":43.24802,"lon":5.37427,"is_reserved":false,"is_disabled":false,"rental_uris":{"android":"levelo://app?vid=33e04ab4-8566-4c76-a0fd-aad45455c18f","ios":"levelo://app?vid=33e04ab4-8566-4c76-a0fd-aad45455c18f"},"vehicle_type_id":"4","last_reported":1771331854,"current_range_meters":36400,"station_id":"ce4bhgh2rcd13ifvqfb0","pricing_plan_id":"cebpf4jnsgd1na2vs0mg"},{"bike_id":"3975a841-e136-4ffc-9340-b611eb80ecaa","system_id":"levelo_inurba_marseille","lat":43.245458,"lon":5.395235,"is_reserved":false,"is_disabled":false,"rental_uris":{"android":"levelo://app?vid=3975a841-e136-4ffc-9340-b611eb80ecaa","ios":"levelo://app?vid=3975a841-e136-4ffc-9340-b611eb80ecaa"},"vehicle_type_id":"4","last_reported":1771331854,"current_range_meters":32400,"station_id":"ce4bhlp2rcd13ifvqgjg","pricing_plan_id":"cebpf4jnsgd1na2vs0mg"},{"bike_id":"b5d21b34-ba85-49a4-b964-e2def336368b","system_id":"levelo_inurba_marseille","lat":43.26541,"lon":5.37295,"is_reserved":false,"is_disabled":true,"rental_uris":{"android":"levelo://app?vid=b5d21b34-ba85-49a4-b964-e2def336368b","ios":"levelo://app?vid=b5d21b34-ba85-49a4-b964-e2def336368b"},"vehicle_type_id":"4","last_reported":1771331854,"current_range_meters":38000,"station_id":"ce4bhg12rcd13ifvqf70","pricing_plan_id":"cebpf4jnsgd1na2vs0mg"},{"bike_id":"3e966140-e94e-43e6-a5a5-d2e8198d6f0d","system_id":"levelo_inurba_marseille","lat":43.26064,"lon":5.39406,"is_reserved":false,"is_disabled":false,"rental_uris":{"android":"levelo://app?vid=3e966140-e94e-43e6-a5a5-d2e8198d6f0d","ios":"levelo://app?vid=3e966140-e94e-43e6-a5a5-d2e8198d6f0d"},"vehicle_type_id":"4","last_reported":1771331854,"current_range_meters":10800,"station_id":"ce4bhh92rcd13ifvqfj0","pricing_plan_id":"cebpf4jnsgd1na2vs0mg"},{"bike_id":"eb2ac2c2-701e-4754-a325-a13463961a7b","system_id":"levelo_inurba_marseille","lat":43.304207,"lon":5.412811,"is_reserved":false,"is_disabled":false,"rental_uris":{"android":"levelo://app?vid=eb2ac2c2-701e-4754-a325-a13463961a7b","ios":"levelo://app?vid=eb2ac2c2-701e-4754-a325-a13463961a7b"},"vehicle_type_id":"4","last_reported":1771331854,"current_range_meters":8400,"station_id":"ce4bhop2rcd13ifvqh8g","pricing_plan_id":"cebpf4jnsgd1na2vs0mg"},{"bike_id":"f5ff8aa9-673d-4e9f-b19d-9737360b0355","system_id":"levelo_inurba_marseille","lat":43.30361,"lon":5.41876,"is_reserved":false,"is_disabled":false,"rental_uris":{"android":"levelo://app?vid=f5ff8aa9-673d-4e9f-b19d-9737360b0355","ios":"levelo://app?vid=f5ff8aa9-673d-4e9f-b19d-9737360b0355"},"vehicle_type_id":"4","last_reported":1771331854,"current_range_meters":38400,"station_id":"ce4bhop2rcd13ifvqh7g","pricing_plan_id":"cebpf4jnsgd1na2vs0mg"},{"bike_id":"4dac71d1-0bfc-4cff-904e-580c40fc9b56","system_id":"levelo_inurba_marseille","lat":43.29012,"lon":5.38128,"is_reserved":false,"is_disabled":false,"rental_uris":{"android":"levelo://app?vid=4dac71d1-0bfc-4cff-904e-580c40fc9b56","ios":"levelo://app?vid=4dac71d1-0bfc-4cff-904e-580c40fc9b56"},"vehicle_type_id":"4","last_reported":1771331854,"current_range_meters":14000,"station_id":"ce4bh4p2rcd13ifvqe1g","pricing_plan_id":"cebpf4jnsgd1na2vs0mg"},{"bike_id":"f2f05234-5926-4d0a-9c36-64e06f4aa31d","system_id":"levelo_inurba_marseille","lat":43.24395,"lon":5.36992,"is_reserved":false,"is_disabled":false,"rental_uris":{"android":"levelo://app?vid=f2f05234-5926-4d0a-9c36-64e06f4aa31d","ios":"levelo://app?vid=f2f05234-5926-4d0a-9c36-64e06f4aa31d"},"vehicle_type_id":"4","last_reported":1771331854,"current_range_meters":11200,"station_id":"ce4bhhh2rcd13ifvqfk0","pricing_plan_id":"cebpf4jnsgd1na2vs0mg"},{"bike_id":"87aa3eb4-ccb8-4899-acc1-f841f254b498","system_id":"levelo_inurba_marseille","lat":43.26199,"lon":5.37923,"is_reserved":false,"is_disabled":true,"rental_uris":{"android":"levelo://app?vid=87aa3eb4-ccb8-4899-acc1-f841f254b498","ios":"levelo://app?vid=87aa3eb4-ccb8-4899-acc1-f841f254b498"},"vehicle_type_id":"4","last_reported":1771331854,"current_range_meters":24400,"station_id":"ce4bhjp2rcd13ifvqg90","pricing_plan_id":"cebpf4jnsgd1na2vs0mg"},{"bike_id":"5c3657bf-535c-4a6f-9500-3222d82ad372","system_id":"levelo_inurba_marseille","lat":43.3047,"lon":5.37915,"is_reserved":false,"is_disabled":false,"rental_uris":{"android":"levelo://app?vid=5c3657bf-535c-4a6f-9500-3222d82ad372","ios":"levelo://app?vid=5c3657bf-535c-4a6f-9500-3222d82ad372"},"vehicle_type_id":"4","last_reported":1771331854,"current_range_meters":8800,"station_id":"ce4bgup2rcd13ifvqcn0","pricing_plan_id":"cebpf4jnsgd1na2vs0mg"},{"bike_id":"40da490a-089f-4374-aadd-323c04df363f","system_id":"levelo_inurba_marseille","lat":43.29313,"lon":5.37163,"is_reserved":false,"is_disabled":false,"rental_uris":{"android":"levelo://app?vid=40da490a-089f-4374-aadd-323c04df363f","ios":"levelo://app?vid=40da490a-089f-4374-aadd-323c04df363f"},"vehicle_type_id":"4","last_reported":1771331854,"current_range_meters":39200,"station_id":"ce4bgh92rcd13ifvqb40","pricing_plan_id":"cebpf4jnsgd1na2vs0mg"},{"bike_id":"0efa846f-49fe-40d7-b573-8a8eb5a73beb","system_id":"levelo_inurba_marseille","lat":43.30884,"lon":5.39643,"is_reserved":false,"is_disabled":false,"rental_uris":{"android":"levelo://app?vid=0efa846f-49fe-40d7-b573-8a8eb5a73beb","ios":"levelo://app?vid=0efa846f-49fe-40d7-b573-8a8eb5a73beb"},"vehicle_type_id":"4","last_reported":1771331854,"current_range_meters":37600,"station_id":"ce4bh012rcd13ifvqcv0","pricing_plan_id":"cebpf4jnsgd1na2vs0mg"},{"bike_id":"57b0d595-629f-4ebf-9a5d-5ba9a820aae3","system_id":"levelo_inurba_marseille","lat":43.31491,"lon":5.37321,"is_reserved":false,"is_disabled":false,"rental_uris":{"android":"levelo://app?vid=57b0d595-629f-4ebf-9a5d-5ba9a820aae3","ios":"levelo://app?vid=57b0d595-629f-4ebf-9a5d-5ba9a820aae3"},"vehicle_type_id":"4","last_reported":1771331854,"current_range_meters":30800,"station_id":"ce4bgt12rcd13ifvqcd0","pricing_plan_id":"cebpf4jnsgd1na2vs0mg"},{"bike_id":"96ba3f4f-0e70-4352-8e6b-4135d6897805","system_id":"levelo_inurba_marseille","lat":43.25513,"lon":5.37613,"is_reserved":false,"is_disabled":false,"rental_uris":{"android":"levelo://app?vid=96ba3f4f-0e70-4352-8e6b-4135d6897805","ios":"levelo://app?vid=96ba3f4f-0e70-4352-8e6b-4135d6897805"},"vehicle_type_id":"4","last_reported":1771331854,"current_range_meters":34000,"station_id":"ce4bhh12rcd13ifvqff0","pricing_plan_id":"cebpf4jnsgd1na2vs0mg"},{"bike_id":"36c72a3b-1570-442e-9c9f-46e9334ca723","system_id":"levelo_inurba_marseille","lat":43.278,"lon":5.40723,"is_reserved":false,"is_disabled":false,"rental_uris":{"android":"levelo://app?vid=36c72a3b-1570-442e-9c9f-46e9334ca723","ios":"levelo://app?vid=36c72a3b-1570-442e-9c9f-46e9334ca723"},"vehicle_type_id":"4","last_reported":1771331854,"current_range_meters":30400,"station_id":"ce4bhnh2rcd13ifvqgtg","pricing_plan_id":"cebpf4jnsgd1na2vs0mg"},{"bike_id":"27535e23-8975-4af0-83df-716ce36f00c7","system_id":"levelo_inurba_marseille","lat":43.26567,"lon":5.39,"is_reserved":false,"is_disabled":false,"rental_uris":{"android":"levelo://app?vid=27535e23-8975-4af0-83df-716ce36f00c7","ios":"levelo://app?vid=27535e23-8975-4af0-83df-716ce36f00c7"},"vehicle_type_id":"4","last_reported":1771331854,"current_range_meters":33600,"station_id":"ce4bhe12rcd13ifvqf30","pricing_plan_id":"cebpf4jnsgd1na2vs0mg"},{"bike_id":"b2f58191-60a1-49c6-837f-df55fb0d4cf4","system_id":"levelo_inurba_marseille","lat":43.31323,"lon":5.39693,"is_reserved":false,"is_disabled":false,"rental_uris":{"android":"levelo://app?vid=b2f58191-60a1-49c6-837f-df55fb0d4cf4","ios":"levelo://app?vid=b2f58191-60a1-49c6-837f-df55fb0d4cf4"},"vehicle_type_id":"4","last_reported":1771331854,"current_range_meters":36800,"station_id":"ce4bgvp2rcd13ifvqcu0","pricing_plan_id":"cebpf4jnsgd1na2vs0mg"},{"bike_id":"1467c00f-13c2-4c39-a1ee-4f0989670365","system_id":"levelo_inurba_marseille","lat":43.29291,"lon":5.37433,"is_reserved":false,"is_disabled":false,"rental_uris":{"android":"levelo://app?vid=1467c00f-13c2-4c39-a1ee-4f0989670365","ios":"levelo://app?vid=1467c00f-13c2-4c39-a1ee-4f0989670365"},"vehicle_type_id":"4","last_reported":1771331854,"current_range_meters":38800,"station_id":"ce4bgi12rcd13ifvqb70","pricing_plan_id":"cebpf4jnsgd1na2vs0mg"},{"bike_id":"3b6a304c-f8a3-4942-805d-a3b79cb2b45e","system_id":"levelo_inurba_marseille","lat":43.33528,"lon":5.37472,"is_reserved":false,"is_disabled":false,"rental_uris":{"android":"levelo://app?vid=3b6a304c-f8a3-4942-805d-a3b79cb2b45e","ios":"levelo://app?vid=3b6a304c-f8a3-4942-805d-a3b79cb2b45e"},"vehicle_type_id":"4","last_reported":1771331854,"current_range_meters":4800,"station_id":"st_d46tts09ee8s73dlu43g","pricing_plan_id":"cebpf4jnsgd1na2vs0mg"},{"bike_id":"48da9f28-9b7c-47e3-a3f3-91eed8cd532c","system_id":"levelo_inurba_marseille","lat":43.325479,"lon":5.414359,"is_reserved":false,"is_disabled":false,"rental_uris":{"android":"levelo://app?vid=48da9f28-9b7c-47e3-a3f3-91eed8cd532c","ios":"levelo://app?vid=48da9f28-9b7c-47e3-a3f3-91eed8cd532c"},"vehicle_type_id":"4","last_reported":1771331854,"current_range_meters":39200,"station_id":"ce4bhq12rcd13ifvqhhg","pricing_plan_id":"cebpf4jnsgd1na2vs0mg"},{"bike_id":"400750be-119b-47e3-b581-e96b78ec2bf4","system_id":"levelo_inurba_marseille","lat":43.2511,"lon":5.40338,"is_reserved":false,"is_disabled":false,"rental_uris":{"android":"levelo://app?vid=400750be-119b-47e3-b581-e96b78ec2bf4","ios":"levelo://app?vid=400750be-119b-47e3-b581-e96b78ec2bf4"},"vehicle_type_id":"4","last_reported":1771331854,"current_range_meters":39200,"station_id":"ce4bhlh2rcd13ifvqgig","pricing_plan_id":"cebpf4jnsgd1na2vs0mg"},{"bike_id":"7f940f1e-9ea5-4e15-b1d2-09186f8fa407","system_id":"levelo_inurba_marseille","lat":43.24173,"lon":5.39743,"is_reserved":false,"is_disabled":false,"rental_uris":{"android":"levelo://app?vid=7f940f1e-9ea5-4e15-b1d2-09186f8fa407","ios":"levelo://app?vid=7f940f1e-9ea5-4e15-b1d2-09186f8fa407"},"vehicle_type_id":"4","last_reported":1771331854,"current_range_meters":37600,"station_id":"ce4bhn12rcd13ifvqgpg","pricing_plan_id":"cebpf4jnsgd1na2vs0mg"},{"bike_id":"824af5f9-529f-4471-86db-0e06e707453e","system_id":"levelo_inurba_marseille","lat":43.26214,"lon":5.37446,"is_reserved":false,"is_disabled":false,"rental_uris":{"android":"levelo://app?vid=824af5f9-529f-4471-86db-0e06e707453e","ios":"levelo://app?vid=824af5f9-529f-4471-86db-0e06e707453e"},"vehicle_type_id":"4","last_reported":1771331854,"current_range_meters":39200,"station_id":"ce4bhgp2rcd13ifvqfc0","pricing_plan_id":"cebpf4jnsgd1na2vs0mg"},{"bike_id":"dbd33c8c-ca83-495d-95c9-6fa4e6a6c53d","system_id":"levelo_inurba_marseille","lat":43.29616,"lon":5.37715,"is_reserved":false,"is_disabled":false,"rental_uris":{"android":"levelo://app?vid=dbd33c8c-ca83-495d-95c9-6fa4e6a6c53d","ios":"levelo://app?vid=dbd33c8c-ca83-495d-95c9-6fa4e6a6c53d"},"vehicle_type_id":"4","last_reported":1771331854,"current_range_meters":7200,"station_id":"ce4bgi92rcd13ifvqb90","pricing_plan_id":"cebpf4jnsgd1na2vs0mg"},{"bike_id":"34318526-de44-41d1-a818-6be71af9e336","system_id":"levelo_inurba_marseille","lat":43.31351,"lon":5.36726,"is_reserved":false,"is_disabled":false,"rental_uris":{"android":"levelo://app?vid=34318526-de44-41d1-a818-6be71af9e336","ios":"levelo://app?vid=34318526-de44-41d1-a818-6be71af9e336"},"vehicle_type_id":"4","last_reported":1771331854,"current_range_meters":15200,"station_id":"ce4bgr92rcd13ifvqc6g","pricing_plan_id":"cebpf4jnsgd1na2vs0mg"},{"bike_id":"b60cee7d-c6f2-4f7a-978e-ab1d127f0d87","system_id":"levelo_inurba_marseille","lat":43.28261,"lon":5.35071,"is_reserved":false,"is_disabled":false,"rental_uris":{"android":"levelo://app?vid=b60cee7d-c6f2-4f7a-978e-ab1d127f0d87","ios":"levelo://app?vid=b60cee7d-c6f2-4f7a-978e-ab1d127f0d87"},"vehicle_type_id":"4","last_reported":1771331854,"current_range_meters":28800,"station_id":"ce4bhbp2rcd13ifvqerg","pricing_plan_id":"cebpf4jnsgd1na2vs0mg"},{"bike_id":"76e9104b-6965-4f20-b33b-90cf3f90eca6","system_id":"levelo_inurba_marseille","lat":43.23143,"lon":5.4375,"is_reserved":false,"is_disabled":false,"rental_uris":{"android":"levelo://app?vid=76e9104b-6965-4f20-b33b-90cf3f90eca6","ios":"levelo://app?vid=76e9104b-6965-4f20-b33b-90cf3f90eca6"},"vehicle_type_id":"4","last_reported":1771331854,"current_range_meters":39200,"station_id":"ce4bhmp2rcd13ifvqgog","pricing_plan_id":"cebpf4jnsgd1na2vs0mg"},{"bike_id":"65d38231-e8c5-436f-94fb-b0842a47f595","system_id":"levelo_inurba_marseille","lat":43.29624,"lon":5.37714,"is_reserved":false,"is_disabled":false,"rental_uris":{"android":"levelo://app?vid=65d38231-e8c5-436f-94fb-b0842a47f595","ios":"levelo://app?vid=65d38231-e8c5-436f-94fb-b0842a47f595"},"vehicle_type_id":"4","last_reported":1771331854,"current_range_meters":9200,"station_id":"ce4bgi92rcd13ifvqb90","pricing_plan_id":"cebpf4jnsgd1na2vs0mg"},{"bike_id":"4257ce27-d4f9-4a49-a222-c5a5ef7fd7bc","system_id":"levelo_inurba_marseille","lat":43.27997,"lon":5.40018,"is_reserved":false,"is_disabled":false,"rental_uris":{"android":"levelo://app?vid=4257ce27-d4f9-4a49-a222-c5a5ef7fd7bc","ios":"levelo://app?vid=4257ce27-d4f9-4a49-a222-c5a5ef7fd7bc"},"vehicle_type_id":"4","last_reported":1771331854,"current_range_meters":20800,"station_id":"ce4bho92rcd13ifvqh4g","pricing_plan_id":"cebpf4jnsgd1na2vs0mg"},{"bike_id":"504d0a5c-6d34-4e6e-b049-b85598e8a815","system_id":"levelo_inurba_marseille","lat":43.29234,"lon":5.3604,"is_reserved":false,"is_disabled":false,"rental_uris":{"android":"levelo://app?vid=504d0a5c-6d34-4e6e-b049-b85598e8a815","ios":"levelo://app?vid=504d0a5c-6d34-4e6e-b049-b85598e8a815"},"vehicle_type_id":"4","last_reported":1771331854,"current_range_meters":31200,"station_id":"ce4bhbh2rcd13ifvqeqg","pricing_plan_id":"cebpf4jnsgd1na2vs0mg"},{"bike_id":"8d6535f0-b219-41a9-a5bf-28d07bb13e74","system_id":"levelo_inurba_marseille","lat":43.312291,"lon":5.36852,"is_reserved":false,"is_disabled":false,"rental_uris":{"android":"levelo://app?vid=8d6535f0-b219-41a9-a5bf-28d07bb13e74","ios":"levelo://app?vid=8d6535f0-b219-41a9-a5bf-28d07bb13e74"},"vehicle_type_id":"4","last_reported":1771331854,"current_range_meters":17200,"station_id":"ce4bgl92rcd13ifvqbq0","pricing_plan_id":"cebpf4jnsgd1na2vs0mg"},{"bike_id":"f56b6e75-070e-4148-9d41-956869c01c1e","system_id":"levelo_inurba_marseille","lat":43.292103,"lon":5.360883,"is_reserved":false,"is_disabled":false,"rental_uris":{"android":"levelo://app?vid=f56b6e75-070e-4148-9d41-956869c01c1e","ios":"levelo://app?vid=f56b6e75-070e-4148-9d41-956869c01c1e"},"vehicle_type_id":"4","last_reported":1771331854,"current_range_meters":39200,"station_id":"ce4bhbh2rcd13ifvqeqg","pricing_plan_id":"cebpf4jnsgd1na2vs0mg"},{"bike_id":"ef43f5b3-0267-470e-a7be-73b400aa2eff","system_id":"levelo_inurba_marseille","lat":43.25111,"lon":5.40315,"is_reserved":false,"is_disabled":false,"rental_uris":{"android":"levelo://app?vid=ef43f5b3-0267-470e-a7be-73b400aa2eff","ios":"levelo://app?vid=ef43f5b3-0267-470e-a7be-73b400aa2eff"},"vehicle_type_id":"4","last_reported":1771331854,"current_range_meters":30800,"station_id":"ce4bhlh2rcd13ifvqgig","pricing_plan_id":"cebpf4jnsgd1na2vs0mg"},{"bike_id":"b0b27d44-1805-4226-9f29-7db67902ed5c","system_id":"levelo_inurba_marseille","lat":43.26563,"lon":5.39007,"is_reserved":false,"is_disabled":false,"rental_uris":{"android":"levelo://app?vid=b0b27d44-1805-4226-9f29-7db67902ed5c","ios":"levelo://app?vid=b0b27d44-1805-4226-9f29-7db67902ed5c"},"vehicle_type_id":"4","last_reported":1771331854,"current_range_meters":16800,"station_id":"ce4bhe12rcd13ifvqf30","pricing_plan_id":"cebpf4jnsgd1na2vs0mg"},{"bike_id":"716fc7a0-f973-4e6f-9106-f4a6e5269188","system_id":"levelo_inurba_marseille","lat":43.30135,"lon":5.37439,"is_reserved":false,"is_disabled":false,"rental_uris":{"android":"levelo://app?vid=716fc7a0-f973-4e6f-9106-f4a6e5269188","ios":"levelo://app?vid=716fc7a0-f973-4e6f-9106-f4a6e5269188"},"vehicle_type_id":"4","last_reported":1771331854,"current_range_meters":36400,"station_id":"ce4bgs92rcd13ifvqcc0","pricing_plan_id":"cebpf4jnsgd1na2vs0mg"},{"bike_id":"096a2b4f-649a-4b05-9407-12049c74912c","system_id":"levelo_inurba_marseille","lat":43.29539,"lon":5.37499,"is_reserved":false,"is_disabled":false,"rental_uris":{"android":"levelo://app?vid=096a2b4f-649a-4b05-9407-12049c74912c","ios":"levelo://app?vid=096a2b4f-649a-4b05-9407-12049c74912c"},"vehicle_type_id":"4","last_reported":1771331854,"current_range_meters":38000,"station_id":"ce4bgkp2rcd13ifvqbmg","pricing_plan_id":"cebpf4jnsgd1na2vs0mg"},{"bike_id":"bdf44c1c-05c7-431c-b042-833d1b922014","system_id":"levelo_inurba_marseille","lat":43.31502,"lon":5.37305,"is_reserved":false,"is_disabled":false,"rental_uris":{"android":"levelo://app?vid=bdf44c1c-05c7-431c-b042-833d1b922014","ios":"levelo://app?vid=bdf44c1c-05c7-431c-b042-833d1b922014"},"vehicle_type_id":"4","last_reported":1771331854,"current_range_meters":36000,"station_id":"ce4bgt12rcd13ifvqcd0","pricing_plan_id":"cebpf4jnsgd1na2vs0mg"},{"bike_id":"a9a00cf2-672c-49d3-a2f1-1f880411516b","system_id":"levelo_inurba_marseille","lat":43.27971,"lon":5.38754,"is_reserved":false,"is_disabled":false,"rental_uris":{"android":"levelo://app?vid=a9a00cf2-672c-49d3-a2f1-1f880411516b","ios":"levelo://app?vid=a9a00cf2-672c-49d3-a2f1-1f880411516b"},"vehicle_type_id":"4","last_reported":1771331854,"current_range_meters":36800,"station_id":"ce4bhg12rcd13ifvqf80","pricing_plan_id":"cebpf4jnsgd1na2vs0mg"},{"bike_id":"3b4377ca-fc09-4041-8519-6fa3dd2f3815","system_id":"levelo_inurba_marseille","lat":43.2606,"lon":5.39386,"is_reserved":false,"is_disabled":false,"rental_uris":{"android":"levelo://app?vid=3b4377ca-fc09-4041-8519-6fa3dd2f3815","ios":"levelo://app?vid=3b4377ca-fc09-4041-8519-6fa3dd2f3815"},"vehicle_type_id":"4","last_reported":1771331854,"current_range_meters":8800,"station_id":"ce4bhh92rcd13ifvqfj0","pricing_plan_id":"cebpf4jnsgd1na2vs0mg"},{"bike_id":"26193086-708b-421d-a246-aee2951670ce","system_id":"levelo_inurba_marseille","lat":43.2668,"lon":5.38234,"is_reserved":false,"is_disabled":false,"rental_uris":{"android":"levelo://app?vid=26193086-708b-421d-a246-aee2951670ce","ios":"levelo://app?vid=26193086-708b-421d-a246-aee2951670ce"},"vehicle_type_id":"4","last_reported":1771331854,"current_range_meters":34000,"station_id":"ce4bhg92rcd13ifvqf90","pricing_plan_id":"cebpf4jnsgd1na2vs0mg"},{"bike_id":"97ddccc5-ab76-4c3a-b44b-2668955676f8","system_id":"levelo_inurba_marseille","lat":43.30098,"lon":5.390615,"is_reserved":false,"is_disabled":true,"rental_uris":{"android":"levelo://app?vid=97ddccc5-ab76-4c3a-b44b-2668955676f8","ios":"levelo://app?vid=97ddccc5-ab76-4c3a-b44b-2668955676f8"},"vehicle_type_id":"4","last_reported":1771331854,"current_range_meters":14400,"station_id":"ce4bh192rcd13ifvqdb0","pricing_plan_id":"cebpf4jnsgd1na2vs0mg"},{"bike_id":"e6f72b22-0352-4e2c-9574-5e32f30b84d6","system_id":"levelo_inurba_marseille","lat":43.31324,"lon":5.36717,"is_reserved":false,"is_disabled":false,"rental_uris":{"android":"levelo://app?vid=e6f72b22-0352-4e2c-9574-5e32f30b84d6","ios":"levelo://app?vid=e6f72b22-0352-4e2c-9574-5e32f30b84d6"},"vehicle_type_id":"4","last_reported":1771331854,"current_range_meters":39200,"station_id":"ce4bgr92rcd13ifvqc6g","pricing_plan_id":"cebpf4jnsgd1na2vs0mg"},{"bike_id":"1eeb6e05-0e7f-48d3-a2b0-7df4bf0d07eb","system_id":"levelo_inurba_marseille","lat":43.29959,"lon":5.37163,"is_reserved":false,"is_disabled":false,"rental_uris":{"android":"levelo://app?vid=1eeb6e05-0e7f-48d3-a2b0-7df4bf0d07eb","ios":"levelo://app?vid=1eeb6e05-0e7f-48d3-a2b0-7df4bf0d07eb"},"vehicle_type_id":"4","last_reported":1771331854,"current_range_meters":32000,"station_id":"ce4bgr92rcd13ifvqc7g","pricing_plan_id":"cebpf4jnsgd1na2vs0mg"},{"bike_id":"5590dc25-7d0f-41d8-8c05-a5b6b340b420","system_id":"levelo_inurba_marseille","lat":43.32484,"lon":5.36561,"is_reserved":false,"is_disabled":false,"rental_uris":{"android":"levelo://app?vid=5590dc25-7d0f-41d8-8c05-a5b6b340b420","ios":"levelo://app?vid=5590dc25-7d0f-41d8-8c05-a5b6b340b420"},"vehicle_type_id":"4","last_reported":1771331854,"current_range_meters":36000,"station_id":"ce4bhs12rcd13ifvqhvg","pricing_plan_id":"cebpf4jnsgd1na2vs0mg"},{"bike_id":"884a3a0d-c842-4093-8874-663858caef57","system_id":"levelo_inurba_marseille","lat":43.27616,"lon":5.36084,"is_reserved":false,"is_disabled":false,"rental_uris":{"android":"levelo://app?vid=884a3a0d-c842-4093-8874-663858caef57","ios":"levelo://app?vid=884a3a0d-c842-4093-8874-663858caef57"},"vehicle_type_id":"4","last_reported":1771331854,"current_range_meters":38000,"station_id":"ce4bgj92rcd13ifvqbe0","pricing_plan_id":"cebpf4jnsgd1na2vs0mg"},{"bike_id":"07a2b976-43ae-44b8-97af-030f6a8e146d","system_id":"levelo_inurba_marseille","lat":43.33746,"lon":5.37492,"is_reserved":false,"is_disabled":false,"rental_uris":{"android":"levelo://app?vid=07a2b976-43ae-44b8-97af-030f6a8e146d","ios":"levelo://app?vid=07a2b976-43ae-44b8-97af-030f6a8e146d"},"vehicle_type_id":"4","last_reported":1771331854,"current_range_meters":39200,"station_id":"","pricing_plan_id":"cebpf4jnsgd1na2vs0mg"},{"bike_id":"4dcbf679-cdd4-4ee9-878d-44ab492dd40a","system_id":"levelo_inurba_marseille","lat":43.29225,"lon":5.36068,"is_reserved":false,"is_disabled":false,"rental_uris":{"android":"levelo://app?vid=4dcbf679-cdd4-4ee9-878d-44ab492dd40a","ios":"levelo://app?vid=4dcbf679-cdd4-4ee9-878d-44ab492dd40a"},"vehicle_type_id":"4","last_reported":1771331854,"current_range_meters":39200,"station_id":"ce4bhbh2rcd13ifvqeqg","pricing_plan_id":"cebpf4jnsgd1na2vs0mg"},{"bike_id":"b588c612-66a2-412a-bcfa-615a774bd491","system_id":"levelo_inurba_marseille","lat":43.25013,"lon":5.38915,"is_reserved":false,"is_disabled":false,"rental_uris":{"android":"levelo://app?vid=b588c612-66a2-412a-bcfa-615a774bd491","ios":"levelo://app?vid=b588c612-66a2-412a-bcfa-615a774bd491"},"vehicle_type_id":"4","last_reported":1771331854,"current_range_meters":39200,"station_id":"ce4bhgp2rcd13ifvqfd0","pricing_plan_id":"cebpf4jnsgd1na2vs0mg"},{"bike_id":"9a71aafb-3414-42bb-a93e-c329b1fce7db","system_id":"levelo_inurba_marseille","lat":43.25816,"lon":5.39416,"is_reserved":false,"is_disabled":false,"rental_uris":{"android":"levelo://app?vid=9a71aafb-3414-42bb-a93e-c329b1fce7db","ios":"levelo://app?vid=9a71aafb-3414-42bb-a93e-c329b1fce7db"},"vehicle_type_id":"4","last_reported":1771331854,"current_range_meters":38000,"station_id":"ce4bhip2rcd13ifvqft0","pricing_plan_id":"cebpf4jnsgd1na2vs0mg"},{"bike_id":"4f56eba0-b19e-4601-8369-f67ac1d1275c","system_id":"levelo_inurba_marseille","lat":43.24544,"lon":5.39518,"is_reserved":false,"is_disabled":false,"rental_uris":{"android":"levelo://app?vid=4f56eba0-b19e-4601-8369-f67ac1d1275c","ios":"levelo://app?vid=4f56eba0-b19e-4601-8369-f67ac1d1275c"},"vehicle_type_id":"4","last_reported":1771331854,"current_range_meters":6000,"station_id":"ce4bhlp2rcd13ifvqgjg","pricing_plan_id":"cebpf4jnsgd1na2vs0mg"},{"bike_id":"40a2d767-9a8e-4aa3-bded-343bcd3a8041","system_id":"levelo_inurba_marseille","lat":43.24177,"lon":5.36422,"is_reserved":false,"is_disabled":false,"rental_uris":{"android":"levelo://app?vid=40a2d767-9a8e-4aa3-bded-343bcd3a8041","ios":"levelo://app?vid=40a2d767-9a8e-4aa3-bded-343bcd3a8041"},"vehicle_type_id":"4","last_reported":1771331854,"current_range_meters":4000,"station_id":"cpo36qri1sfpv3e86is0","pricing_plan_id":"cebpf4jnsgd1na2vs0mg"},{"bike_id":"344ab77a-fc63-4fbe-bd21-8658b565d899","system_id":"levelo_inurba_marseille","lat":43.26366,"lon":5.41084,"is_reserved":false,"is_disabled":false,"rental_uris":{"android":"levelo://app?vid=344ab77a-fc63-4fbe-bd21-8658b565d899","ios":"levelo://app?vid=344ab77a-fc63-4fbe-bd21-8658b565d899"},"vehicle_type_id":"4","last_reported":1771331854,"current_range_meters":9200,"station_id":"st_d4e5ca6na9uc73bfl5fg","pricing_plan_id":"cebpf4jnsgd1na2vs0mg"},{"bike_id":"35ecaa98-30e5-4474-99bc-bd70d5c1584e","system_id":"levelo_inurba_marseille","lat":43.31084,"lon":5.42428,"is_reserved":false,"is_disabled":false,"rental_uris":{"android":"levelo://app?vid=35ecaa98-30e5-4474-99bc-bd70d5c1584e","ios":"levelo://app?vid=35ecaa98-30e5-4474-99bc-bd70d5c1584e"},"vehicle_type_id":"4","last_reported":1771331854,"current_range_meters":30400,"station_id":"ce4bhp92rcd13ifvqhag","pricing_plan_id":"cebpf4jnsgd1na2vs0mg"},{"bike_id":"0693b65c-e454-475d-bb91-3da42438a933","system_id":"levelo_inurba_marseille","lat":43.26554,"lon":5.37283,"is_reserved":false,"is_disabled":false,"rental_uris":{"android":"levelo://app?vid=0693b65c-e454-475d-bb91-3da42438a933","ios":"levelo://app?vid=0693b65c-e454-475d-bb91-3da42438a933"},"vehicle_type_id":"4","last_reported":1771331854,"current_range_meters":24400,"station_id":"ce4bhg12rcd13ifvqf70","pricing_plan_id":"cebpf4jnsgd1na2vs0mg"},{"bike_id":"a7828ab3-5beb-4c44-a4eb-41247215704b","system_id":"levelo_inurba_marseille","lat":43.30926,"lon":5.40142,"is_reserved":false,"is_disabled":false,"rental_uris":{"android":"levelo://app?vid=a7828ab3-5beb-4c44-a4eb-41247215704b","ios":"levelo://app?vid=a7828ab3-5beb-4c44-a4eb-41247215704b"},"vehicle_type_id":"4","last_reported":1771331854,"current_range_meters":28000,"station_id":"ce4bgvp2rcd13ifvqct0","pricing_plan_id":"cebpf4jnsgd1na2vs0mg"},{"bike_id":"55d2f36a-9a72-4961-bbdb-5937e41fb5f7","system_id":"levelo_inurba_marseille","lat":43.31048,"lon":5.37199,"is_reserved":false,"is_disabled":false,"rental_uris":{"android":"levelo://app?vid=55d2f36a-9a72-4961-bbdb-5937e41fb5f7","ios":"levelo://app?vid=55d2f36a-9a72-4961-bbdb-5937e41fb5f7"},"vehicle_type_id":"4","last_reported":1771331854,"current_range_meters":28800,"station_id":"st_d4kl2rp97mjs73e7tdfg","pricing_plan_id":"cebpf4jnsgd1na2vs0mg"},{"bike_id":"201fb896-ea03-4c78-ad0f-3d18183e4ae3","system_id":"levelo_inurba_marseille","lat":43.29904,"lon":5.37479,"is_reserved":false,"is_disabled":false,"rental_uris":{"android":"levelo://app?vid=201fb896-ea03-4c78-ad0f-3d18183e4ae3","ios":"levelo://app?vid=201fb896-ea03-4c78-ad0f-3d18183e4ae3"},"vehicle_type_id":"4","last_reported":1771331854,"current_range_meters":36000,"station_id":"ce4bgjh2rcd13ifvqbg0","pricing_plan_id":"cebpf4jnsgd1na2vs0mg"},{"bike_id":"8e4d0fb2-0b0a-434c-902e-d3ab3497cc31","system_id":"levelo_inurba_marseille","lat":43.28149,"lon":5.42649,"is_reserved":false,"is_disabled":false,"rental_uris":{"android":"levelo://app?vid=8e4d0fb2-0b0a-434c-902e-d3ab3497cc31","ios":"levelo://app?vid=8e4d0fb2-0b0a-434c-902e-d3ab3497cc31"},"vehicle_type_id":"4","last_reported":1771331854,"current_range_meters":39200,"station_id":"ce4bhnh2rcd13ifvqgug","pricing_plan_id":"cebpf4jnsgd1na2vs0mg"},{"bike_id":"9c9302ed-c2af-40cd-9047-f491de3d893a","system_id":"levelo_inurba_marseille","lat":43.24627,"lon":5.43136,"is_reserved":false,"is_disabled":false,"rental_uris":{"android":"levelo://app?vid=9c9302ed-c2af-40cd-9047-f491de3d893a","ios":"levelo://app?vid=9c9302ed-c2af-40cd-9047-f491de3d893a"},"vehicle_type_id":"4","last_reported":1771331854,"current_range_meters":12400,"station_id":"st_d2m6c4gdas8pm72e190g","pricing_plan_id":"cebpf4jnsgd1na2vs0mg"},{"bike_id":"f4371db6-421d-45b6-a78e-2f4988a61f28","system_id":"levelo_inurba_marseille","lat":43.31223,"lon":5.36853,"is_reserved":false,"is_disabled":false,"rental_uris":{"android":"levelo://app?vid=f4371db6-421d-45b6-a78e-2f4988a61f28","ios":"levelo://app?vid=f4371db6-421d-45b6-a78e-2f4988a61f28"},"vehicle_type_id":"4","last_reported":1771331854,"current_range_meters":9600,"station_id":"ce4bgl92rcd13ifvqbq0","pricing_plan_id":"cebpf4jnsgd1na2vs0mg"},{"bike_id":"addd33a1-5186-4324-b702-4ac89f3f7ce6","system_id":"levelo_inurba_marseille","lat":43.26066,"lon":5.39403,"is_reserved":false,"is_disabled":false,"rental_uris":{"android":"levelo://app?vid=addd33a1-5186-4324-b702-4ac89f3f7ce6","ios":"levelo://app?vid=addd33a1-5186-4324-b702-4ac89f3f7ce6"},"vehicle_type_id":"4","last_reported":1771331854,"current_range_meters":29600,"station_id":"ce4bhh92rcd13ifvqfj0","pricing_plan_id":"cebpf4jnsgd1na2vs0mg"},{"bike_id":"ba92b8d4-a5c2-4544-b864-7d7e1907e78d","system_id":"levelo_inurba_marseille","lat":43.31254,"lon":5.36942,"is_reserved":false,"is_disabled":false,"rental_uris":{"android":"levelo://app?vid=ba92b8d4-a5c2-4544-b864-7d7e1907e78d","ios":"levelo://app?vid=ba92b8d4-a5c2-4544-b864-7d7e1907e78d"},"vehicle_type_id":"4","last_reported":1771331854,"current_range_meters":39200,"station_id":"ce4bgl92rcd13ifvqbq0","pricing_plan_id":"cebpf4jnsgd1na2vs0mg"},{"bike_id":"9b5505e5-e9dc-4184-902c-d7980dbe091f","system_id":"levelo_inurba_marseille","lat":43.255742,"lon":5.382365,"is_reserved":false,"is_disabled":false,"rental_uris":{"android":"levelo://app?vid=9b5505e5-e9dc-4184-902c-d7980dbe091f","ios":"levelo://app?vid=9b5505e5-e9dc-4184-902c-d7980dbe091f"},"vehicle_type_id":"4","last_reported":1771331854,"current_range_meters":20400,"station_id":"ce4bhih2rcd13ifvqfs0","pricing_plan_id":"cebpf4jnsgd1na2vs0mg"},{"bike_id":"4e3c7c06-5124-445b-8bd7-4182494f9653","system_id":"levelo_inurba_marseille","lat":43.29028,"lon":5.38155,"is_reserved":false,"is_disabled":false,"rental_uris":{"android":"levelo://app?vid=4e3c7c06-5124-445b-8bd7-4182494f9653","ios":"levelo://app?vid=4e3c7c06-5124-445b-8bd7-4182494f9653"},"vehicle_type_id":"4","last_reported":1771331854,"current_range_meters":38000,"station_id":"ce4bh4p2rcd13ifvqe1g","pricing_plan_id":"cebpf4jnsgd1na2vs0mg"},{"bike_id":"f534b28d-e192-4bf7-a558-85c8707f4595","system_id":"levelo_inurba_marseille","lat":43.31222,"lon":5.36861,"is_reserved":false,"is_disabled":false,"rental_uris":{"android":"levelo://app?vid=f534b28d-e192-4bf7-a558-85c8707f4595","ios":"levelo://app?vid=f534b28d-e192-4bf7-a558-85c8707f4595"},"vehicle_type_id":"4","last_reported":1771331854,"current_range_meters":38400,"station_id":"ce4bgl92rcd13ifvqbq0","pricing_plan_id":"cebpf4jnsgd1na2vs0mg"},{"bike_id":"de4e9557-5423-4017-8f77-c5bd60a2894b","system_id":"levelo_inurba_marseille","lat":43.33159,"lon":5.37696,"is_reserved":false,"is_disabled":false,"rental_uris":{"android":"levelo://app?vid=de4e9557-5423-4017-8f77-c5bd60a2894b","ios":"levelo://app?vid=de4e9557-5423-4017-8f77-c5bd60a2894b"},"vehicle_type_id":"4","last_reported":1771331854,"current_range_meters":37600,"station_id":"st_d46cu089ee8s73dldbu0","pricing_plan_id":"cebpf4jnsgd1na2vs0mg"},{"bike_id":"dcb46e53-479a-4eb4-80ee-4c4b8b773271","system_id":"levelo_inurba_marseille","lat":43.28691,"lon":5.35511,"is_reserved":false,"is_disabled":true,"rental_uris":{"android":"levelo://app?vid=dcb46e53-479a-4eb4-80ee-4c4b8b773271","ios":"levelo://app?vid=dcb46e53-479a-4eb4-80ee-4c4b8b773271"},"vehicle_type_id":"4","last_reported":1771331854,"current_range_meters":38000,"station_id":"","pricing_plan_id":"cebpf4jnsgd1na2vs0mg"},{"bike_id":"32a56fc5-3943-496b-bb2b-124e5852f765","system_id":"levelo_inurba_marseille","lat":43.29521,"lon":5.3749,"is_reserved":false,"is_disabled":false,"rental_uris":{"android":"levelo://app?vid=32a56fc5-3943-496b-bb2b-124e5852f765","ios":"levelo://app?vid=32a56fc5-3943-496b-bb2b-124e5852f765"},"vehicle_type_id":"4","last_reported":1771331854,"current_range_meters":9600,"station_id":"ce4bgkp2rcd13ifvqbmg","pricing_plan_id":"cebpf4jnsgd1na2vs0mg"},{"bike_id":"e8c782a2-38e1-49b2-9d0c-e0d2448ef51c","system_id":"levelo_inurba_marseille","lat":43.29163,"lon":5.37167,"is_reserved":false,"is_disabled":false,"rental_uris":{"android":"levelo://app?vid=e8c782a2-38e1-49b2-9d0c-e0d2448ef51c","ios":"levelo://app?vid=e8c782a2-38e1-49b2-9d0c-e0d2448ef51c"},"vehicle_type_id":"4","last_reported":1771331854,"current_range_meters":36400,"station_id":"ce4bha92rcd13ifvqeh0","pricing_plan_id":"cebpf4jnsgd1na2vs0mg"},{"bike_id":"ee520404-8764-4e6d-9db7-583906d777d1","system_id":"levelo_inurba_marseille","lat":43.28608,"lon":5.35107,"is_reserved":false,"is_disabled":false,"rental_uris":{"android":"levelo://app?vid=ee520404-8764-4e6d-9db7-583906d777d1","ios":"levelo://app?vid=ee520404-8764-4e6d-9db7-583906d777d1"},"vehicle_type_id":"4","last_reported":1771331854,"current_range_meters":20800,"station_id":"ce4bhch2rcd13ifvqeug","pricing_plan_id":"cebpf4jnsgd1na2vs0mg"},{"bike_id":"d7b9bab2-8c15-4f04-b30d-9182fb77c28b","system_id":"levelo_inurba_marseille","lat":43.27463,"lon":5.42438,"is_reserved":false,"is_disabled":false,"rental_uris":{"android":"levelo://app?vid=d7b9bab2-8c15-4f04-b30d-9182fb77c28b","ios":"levelo://app?vid=d7b9bab2-8c15-4f04-b30d-9182fb77c28b"},"vehicle_type_id":"4","last_reported":1771331854,"current_range_meters":11200,"station_id":"ce4bhn92rcd13ifvqgrg","pricing_plan_id":"cebpf4jnsgd1na2vs0mg"},{"bike_id":"17899001-6418-496a-8818-7d085880c8dc","system_id":"levelo_inurba_marseille","lat":43.30903,"lon":5.37164,"is_reserved":false,"is_disabled":false,"rental_uris":{"android":"levelo://app?vid=17899001-6418-496a-8818-7d085880c8dc","ios":"levelo://app?vid=17899001-6418-496a-8818-7d085880c8dc"},"vehicle_type_id":"4","last_reported":1771331854,"current_range_meters":38000,"station_id":"ce4bguh2rcd13ifvqckg","pricing_plan_id":"cebpf4jnsgd1na2vs0mg"},{"bike_id":"defeb3db-de7c-406e-aff0-f48c4ab2bdcf","system_id":"levelo_inurba_marseille","lat":43.30151,"lon":5.39876,"is_reserved":false,"is_disabled":false,"rental_uris":{"android":"levelo://app?vid=defeb3db-de7c-406e-aff0-f48c4ab2bdcf","ios":"levelo://app?vid=defeb3db-de7c-406e-aff0-f48c4ab2bdcf"},"vehicle_type_id":"4","last_reported":1771331854,"current_range_meters":34800,"station_id":"ce4bh0h2rcd13ifvqd40","pricing_plan_id":"cebpf4jnsgd1na2vs0mg"},{"bike_id":"4313e310-f441-4b7d-8224-619b85e0a6da","system_id":"levelo_inurba_marseille","lat":43.29295,"lon":5.37421,"is_reserved":false,"is_disabled":false,"rental_uris":{"android":"levelo://app?vid=4313e310-f441-4b7d-8224-619b85e0a6da","ios":"levelo://app?vid=4313e310-f441-4b7d-8224-619b85e0a6da"},"vehicle_type_id":"4","last_reported":1771331854,"current_range_meters":38400,"station_id":"ce4bgi12rcd13ifvqb70","pricing_plan_id":"cebpf4jnsgd1na2vs0mg"},{"bike_id":"e7c8efd4-9e0a-418a-992f-820d37a4bd29","system_id":"levelo_inurba_marseille","lat":43.303355,"lon":5.402726,"is_reserved":false,"is_disabled":false,"rental_uris":{"android":"levelo://app?vid=e7c8efd4-9e0a-418a-992f-820d37a4bd29","ios":"levelo://app?vid=e7c8efd4-9e0a-418a-992f-820d37a4bd29"},"vehicle_type_id":"4","last_reported":1771331854,"current_range_meters":11600,"station_id":"","pricing_plan_id":"cebpf4jnsgd1na2vs0mg"},{"bike_id":"279a69f9-1457-40fd-894b-68248c11b6e7","system_id":"levelo_inurba_marseille","lat":43.26398,"lon":5.41075,"is_reserved":false,"is_disabled":false,"rental_uris":{"android":"levelo://app?vid=279a69f9-1457-40fd-894b-68248c11b6e7","ios":"levelo://app?vid=279a69f9-1457-40fd-894b-68248c11b6e7"},"vehicle_type_id":"4","last_reported":1771331854,"current_range_meters":26000,"station_id":"st_d4e5ca6na9uc73bfl5fg","pricing_plan_id":"cebpf4jnsgd1na2vs0mg"},{"bike_id":"aabd40cd-54bd-4dba-afe3-b43fa7a6fb33","system_id":"levelo_inurba_marseille","lat":43.23061,"lon":5.35489,"is_reserved":false,"is_disabled":false,"rental_uris":{"android":"levelo://app?vid=aabd40cd-54bd-4dba-afe3-b43fa7a6fb33","ios":"levelo://app?vid=aabd40cd-54bd-4dba-afe3-b43fa7a6fb33"},"vehicle_type_id":"4","last_reported":1771331854,"current_range_meters":32000,"station_id":"cpo3342slgdg3j2ifvpg","pricing_plan_id":"cebpf4jnsgd1na2vs0mg"},{"bike_id":"6e14feb7-753c-4804-bdc9-e912ef41a703","system_id":"levelo_inurba_marseille","lat":43.243974,"lon":5.370487,"is_reserved":false,"is_disabled":false,"rental_uris":{"android":"levelo://app?vid=6e14feb7-753c-4804-bdc9-e912ef41a703","ios":"levelo://app?vid=6e14feb7-753c-4804-bdc9-e912ef41a703"},"vehicle_type_id":"4","last_reported":1771331854,"current_range_meters":28000,"station_id":"ce4bhhh2rcd13ifvqfk0","pricing_plan_id":"cebpf4jnsgd1na2vs0mg"},{"bike_id":"2dd47143-fcce-4d1c-b676-78c1b5bba6e2","system_id":"levelo_inurba_marseille","lat":43.24821,"lon":5.37442,"is_reserved":false,"is_disabled":false,"rental_uris":{"android":"levelo://app?vid=2dd47143-fcce-4d1c-b676-78c1b5bba6e2","ios":"levelo://app?vid=2dd47143-fcce-4d1c-b676-78c1b5bba6e2"},"vehicle_type_id":"4","last_reported":1771331854,"current_range_meters":39200,"station_id":"ce4bhgh2rcd13ifvqfb0","pricing_plan_id":"cebpf4jnsgd1na2vs0mg"},{"bike_id":"a2989192-8d09-4174-ab11-6beee2d42145","system_id":"levelo_inurba_marseille","lat":43.313652,"lon":5.36703,"is_reserved":false,"is_disabled":false,"rental_uris":{"android":"levelo://app?vid=a2989192-8d09-4174-ab11-6beee2d42145","ios":"levelo://app?vid=a2989192-8d09-4174-ab11-6beee2d42145"},"vehicle_type_id":"4","last_reported":1771331854,"current_range_meters":31200,"station_id":"ce4bgrh2rcd13ifvqc8g","pricing_plan_id":"cebpf4jnsgd1na2vs0mg"},{"bike_id":"0db6ac7f-5fca-4c59-b574-daea4c0497c0","system_id":"levelo_inurba_marseille","lat":43.23777,"lon":5.36631,"is_reserved":false,"is_disabled":false,"rental_uris":{"android":"levelo://app?vid=0db6ac7f-5fca-4c59-b574-daea4c0497c0","ios":"levelo://app?vid=0db6ac7f-5fca-4c59-b574-daea4c0497c0"},"vehicle_type_id":"4","last_reported":1771331854,"current_range_meters":37600,"station_id":"st_d3nk18o9ro0c73en2l3g","pricing_plan_id":"cebpf4jnsgd1na2vs0mg"},{"bike_id":"615e0dc3-a86b-4d0c-978d-95bdcb24945d","system_id":"levelo_inurba_marseille","lat":43.27841,"lon":5.39219,"is_reserved":false,"is_disabled":false,"rental_uris":{"android":"levelo://app?vid=615e0dc3-a86b-4d0c-978d-95bdcb24945d","ios":"levelo://app?vid=615e0dc3-a86b-4d0c-978d-95bdcb24945d"},"vehicle_type_id":"4","last_reported":1771331854,"current_range_meters":38400,"station_id":"ce4bhjp2rcd13ifvqga0","pricing_plan_id":"cebpf4jnsgd1na2vs0mg"},{"bike_id":"4f63221f-ab8e-47aa-80f2-25a9d4bd482b","system_id":"levelo_inurba_marseille","lat":43.25143,"lon":5.4032,"is_reserved":false,"is_disabled":false,"rental_uris":{"android":"levelo://app?vid=4f63221f-ab8e-47aa-80f2-25a9d4bd482b","ios":"levelo://app?vid=4f63221f-ab8e-47aa-80f2-25a9d4bd482b"},"vehicle_type_id":"4","last_reported":1771331854,"current_range_meters":39200,"station_id":"ce4bhlh2rcd13ifvqgig","pricing_plan_id":"cebpf4jnsgd1na2vs0mg"},{"bike_id":"6b9694b3-51f3-4a5e-a18f-3a0341ea4e2d","system_id":"levelo_inurba_marseille","lat":43.29856,"lon":5.36256,"is_reserved":false,"is_disabled":false,"rental_uris":{"android":"levelo://app?vid=6b9694b3-51f3-4a5e-a18f-3a0341ea4e2d","ios":"levelo://app?vid=6b9694b3-51f3-4a5e-a18f-3a0341ea4e2d"},"vehicle_type_id":"4","last_reported":1771331854,"current_range_meters":36800,"station_id":"ce4bgpp2rcd13ifvqc3g","pricing_plan_id":"cebpf4jnsgd1na2vs0mg"},{"bike_id":"4f7bf593-4e50-4e67-822e-c8c65f933f15","system_id":"levelo_inurba_marseille","lat":43.30477,"lon":5.37913,"is_reserved":false,"is_disabled":false,"rental_uris":{"android":"levelo://app?vid=4f7bf593-4e50-4e67-822e-c8c65f933f15","ios":"levelo://app?vid=4f7bf593-4e50-4e67-822e-c8c65f933f15"},"vehicle_type_id":"4","last_reported":1771331854,"current_range_meters":32400,"station_id":"ce4bgup2rcd13ifvqcn0","pricing_plan_id":"cebpf4jnsgd1na2vs0mg"},{"bike_id":"21fd07e1-caf4-4951-a83f-0bb4c9d8a5cf","system_id":"levelo_inurba_marseille","lat":43.265452,"lon":5.373163,"is_reserved":false,"is_disabled":false,"rental_uris":{"android":"levelo://app?vid=21fd07e1-caf4-4951-a83f-0bb4c9d8a5cf","ios":"levelo://app?vid=21fd07e1-caf4-4951-a83f-0bb4c9d8a5cf"},"vehicle_type_id":"4","last_reported":1771331854,"current_range_meters":20000,"station_id":"ce4bhg12rcd13ifvqf70","pricing_plan_id":"cebpf4jnsgd1na2vs0mg"},{"bike_id":"8e71ac91-0568-45e8-9b6a-a8c9ae9c07db","system_id":"levelo_inurba_marseille","lat":43.31278,"lon":5.36904,"is_reserved":false,"is_disabled":false,"rental_uris":{"android":"levelo://app?vid=8e71ac91-0568-45e8-9b6a-a8c9ae9c07db","ios":"levelo://app?vid=8e71ac91-0568-45e8-9b6a-a8c9ae9c07db"},"vehicle_type_id":"4","last_reported":1771331854,"current_range_meters":37600,"station_id":"","pricing_plan_id":"cebpf4jnsgd1na2vs0mg"},{"bike_id":"6e162cf7-1f7d-4120-9d73-84a7a23edeec","system_id":"levelo_inurba_marseille","lat":43.3372,"lon":5.39191,"is_reserved":false,"is_disabled":false,"rental_uris":{"android":"levelo://app?vid=6e162cf7-1f7d-4120-9d73-84a7a23edeec","ios":"levelo://app?vid=6e162cf7-1f7d-4120-9d73-84a7a23edeec"},"vehicle_type_id":"4","last_reported":1771331854,"current_range_meters":39200,"station_id":"ce4bhr92rcd13ifvqhsg","pricing_plan_id":"cebpf4jnsgd1na2vs0mg"},{"bike_id":"849004ff-453e-4a0c-bf07-5f9fb058a404","system_id":"levelo_inurba_marseille","lat":43.24387,"lon":5.37063,"is_reserved":false,"is_disabled":false,"rental_uris":{"android":"levelo://app?vid=849004ff-453e-4a0c-bf07-5f9fb058a404","ios":"levelo://app?vid=849004ff-453e-4a0c-bf07-5f9fb058a404"},"vehicle_type_id":"4","last_reported":1771331854,"current_range_meters":25600,"station_id":"ce4bhhh2rcd13ifvqfk0","pricing_plan_id":"cebpf4jnsgd1na2vs0mg"},{"bike_id":"d62faa4d-5a8c-4046-807b-250abe64f69d","system_id":"levelo_inurba_marseille","lat":43.28419,"lon":5.3498,"is_reserved":false,"is_disabled":false,"rental_uris":{"android":"levelo://app?vid=d62faa4d-5a8c-4046-807b-250abe64f69d","ios":"levelo://app?vid=d62faa4d-5a8c-4046-807b-250abe64f69d"},"vehicle_type_id":"4","last_reported":1771331854,"current_range_meters":39200,"station_id":"ce4bhbh2rcd13ifvqepg","pricing_plan_id":"cebpf4jnsgd1na2vs0mg"},{"bike_id":"ac544239-21c1-43e5-9ea4-9cfa3ff8f4db","system_id":"levelo_inurba_marseille","lat":43.259373,"lon":5.409044,"is_reserved":false,"is_disabled":false,"rental_uris":{"android":"levelo://app?vid=ac544239-21c1-43e5-9ea4-9cfa3ff8f4db","ios":"levelo://app?vid=ac544239-21c1-43e5-9ea4-9cfa3ff8f4db"},"vehicle_type_id":"4","last_reported":1771331854,"current_range_meters":28000,"station_id":"ce4bhm92rcd13ifvqglg","pricing_plan_id":"cebpf4jnsgd1na2vs0mg"},{"bike_id":"d639211d-aaf1-4624-82a8-69cd6e860d35","system_id":"levelo_inurba_marseille","lat":43.284738,"lon":5.484014,"is_reserved":false,"is_disabled":false,"rental_uris":{"android":"levelo://app?vid=d639211d-aaf1-4624-82a8-69cd6e860d35","ios":"levelo://app?vid=d639211d-aaf1-4624-82a8-69cd6e860d35"},"vehicle_type_id":"4","last_reported":1771331854,"current_range_meters":30800,"station_id":"","pricing_plan_id":"cebpf4jnsgd1na2vs0mg"},{"bike_id":"6f625fe7-2b75-425c-b71a-07c3ed02cd22","system_id":"levelo_inurba_marseille","lat":43.29885,"lon":5.39706,"is_reserved":false,"is_disabled":false,"rental_uris":{"android":"levelo://app?vid=6f625fe7-2b75-425c-b71a-07c3ed02cd22","ios":"levelo://app?vid=6f625fe7-2b75-425c-b71a-07c3ed02cd22"},"vehicle_type_id":"4","last_reported":1771331854,"current_range_meters":36800,"station_id":"ce4bh0h2rcd13ifvqd50","pricing_plan_id":"cebpf4jnsgd1na2vs0mg"},{"bike_id":"c7f2ec22-a521-426d-8fc1-fe462d2718e7","system_id":"levelo_inurba_marseille","lat":43.2257,"lon":5.41619,"is_reserved":false,"is_disabled":false,"rental_uris":{"android":"levelo://app?vid=c7f2ec22-a521-426d-8fc1-fe462d2718e7","ios":"levelo://app?vid=c7f2ec22-a521-426d-8fc1-fe462d2718e7"},"vehicle_type_id":"4","last_reported":1771331854,"current_range_meters":6800,"station_id":"st_d2o4gvlbi1j2169b742g","pricing_plan_id":"cebpf4jnsgd1na2vs0mg"},{"bike_id":"5ad71fee-cbc4-4f2c-8613-06e2318aa2ae","system_id":"levelo_inurba_marseille","lat":43.29682,"lon":5.37301,"is_reserved":false,"is_disabled":false,"rental_uris":{"android":"levelo://app?vid=5ad71fee-cbc4-4f2c-8613-06e2318aa2ae","ios":"levelo://app?vid=5ad71fee-cbc4-4f2c-8613-06e2318aa2ae"},"vehicle_type_id":"4","last_reported":1771331854,"current_range_meters":38000,"station_id":"ce4bgk12rcd13ifvqbj0","pricing_plan_id":"cebpf4jnsgd1na2vs0mg"},{"bike_id":"f1d07710-e3d2-4bef-9ed9-48ebb85f754e","system_id":"levelo_inurba_marseille","lat":43.26496,"lon":5.39544,"is_reserved":false,"is_disabled":false,"rental_uris":{"android":"levelo://app?vid=f1d07710-e3d2-4bef-9ed9-48ebb85f754e","ios":"levelo://app?vid=f1d07710-e3d2-4bef-9ed9-48ebb85f754e"},"vehicle_type_id":"4","last_reported":1771331854,"current_range_meters":28400,"station_id":"ce4bhi12rcd13ifvqfq0","pricing_plan_id":"cebpf4jnsgd1na2vs0mg"},{"bike_id":"6a62bf17-a122-4c37-abb7-e67422fe966d","system_id":"levelo_inurba_marseille","lat":43.31086,"lon":5.42414,"is_reserved":false,"is_disabled":false,"rental_uris":{"android":"levelo://app?vid=6a62bf17-a122-4c37-abb7-e67422fe966d","ios":"levelo://app?vid=6a62bf17-a122-4c37-abb7-e67422fe966d"},"vehicle_type_id":"4","last_reported":1771331854,"current_range_meters":24400,"station_id":"ce4bhp92rcd13ifvqhag","pricing_plan_id":"cebpf4jnsgd1na2vs0mg"},{"bike_id":"5028f32d-1a47-475c-b119-ed923035051c","system_id":"levelo_inurba_marseille","lat":43.30306,"lon":5.36886,"is_reserved":false,"is_disabled":false,"rental_uris":{"android":"levelo://app?vid=5028f32d-1a47-475c-b119-ed923035051c","ios":"levelo://app?vid=5028f32d-1a47-475c-b119-ed923035051c"},"vehicle_type_id":"4","last_reported":1771331854,"current_range_meters":24400,"station_id":"ce4bgqh2rcd13ifvqc5g","pricing_plan_id":"cebpf4jnsgd1na2vs0mg"},{"bike_id":"9b0a92cd-842e-4c30-b88c-5f6bb165b3b1","system_id":"levelo_inurba_marseille","lat":43.292,"lon":5.35797,"is_reserved":false,"is_disabled":false,"rental_uris":{"android":"levelo://app?vid=9b0a92cd-842e-4c30-b88c-5f6bb165b3b1","ios":"levelo://app?vid=9b0a92cd-842e-4c30-b88c-5f6bb165b3b1"},"vehicle_type_id":"4","last_reported":1771331854,"current_range_meters":38000,"station_id":"ce4bhb12rcd13ifvqel0","pricing_plan_id":"cebpf4jnsgd1na2vs0mg"},{"bike_id":"103824fd-023d-4b62-8059-0e5375bed925","system_id":"levelo_inurba_marseille","lat":43.3153,"lon":5.38037,"is_reserved":false,"is_disabled":false,"rental_uris":{"android":"levelo://app?vid=103824fd-023d-4b62-8059-0e5375bed925","ios":"levelo://app?vid=103824fd-023d-4b62-8059-0e5375bed925"},"vehicle_type_id":"4","last_reported":1771331854,"current_range_meters":30000,"station_id":"ce4bhsp2rcd13ifvqi50","pricing_plan_id":"cebpf4jnsgd1na2vs0mg"},{"bike_id":"be7b106a-7b58-4a98-9638-77543a51361f","system_id":"levelo_inurba_marseille","lat":43.29725,"lon":5.37689,"is_reserved":false,"is_disabled":false,"rental_uris":{"android":"levelo://app?vid=be7b106a-7b58-4a98-9638-77543a51361f","ios":"levelo://app?vid=be7b106a-7b58-4a98-9638-77543a51361f"},"vehicle_type_id":"4","last_reported":1771331854,"current_range_meters":20400,"station_id":"ce4bgkh2rcd13ifvqbl0","pricing_plan_id":"cebpf4jnsgd1na2vs0mg"},{"bike_id":"d088f002-038a-488a-86d6-476dce6642d8","system_id":"levelo_inurba_marseille","lat":43.25941,"lon":5.40903,"is_reserved":false,"is_disabled":false,"rental_uris":{"android":"levelo://app?vid=d088f002-038a-488a-86d6-476dce6642d8","ios":"levelo://app?vid=d088f002-038a-488a-86d6-476dce6642d8"},"vehicle_type_id":"4","last_reported":1771331854,"current_range_meters":22400,"station_id":"ce4bhm92rcd13ifvqglg","pricing_plan_id":"cebpf4jnsgd1na2vs0mg"},{"bike_id":"829fd674-fb3e-4ee4-9543-80e64d68ca45","system_id":"levelo_inurba_marseille","lat":43.2932,"lon":5.37141,"is_reserved":false,"is_disabled":false,"rental_uris":{"android":"levelo://app?vid=829fd674-fb3e-4ee4-9543-80e64d68ca45","ios":"levelo://app?vid=829fd674-fb3e-4ee4-9543-80e64d68ca45"},"vehicle_type_id":"4","last_reported":1771331854,"current_range_meters":30400,"station_id":"ce4bgh92rcd13ifvqb40","pricing_plan_id":"cebpf4jnsgd1na2vs0mg"},{"bike_id":"72ab149f-0aac-4a82-8892-5126bebf5df6","system_id":"levelo_inurba_marseille","lat":43.22937,"lon":5.35374,"is_reserved":false,"is_disabled":false,"rental_uris":{"android":"levelo://app?vid=72ab149f-0aac-4a82-8892-5126bebf5df6","ios":"levelo://app?vid=72ab149f-0aac-4a82-8892-5126bebf5df6"},"vehicle_type_id":"4","last_reported":1771331854,"current_range_meters":36800,"station_id":"cpo3532slgdg3j2ikp40","pricing_plan_id":"cebpf4jnsgd1na2vs0mg"},{"bike_id":"dd3df09e-6be3-4bd4-aeb2-666d892970dc","system_id":"levelo_inurba_marseille","lat":43.27189,"lon":5.40986,"is_reserved":false,"is_disabled":false,"rental_uris":{"android":"levelo://app?vid=dd3df09e-6be3-4bd4-aeb2-666d892970dc","ios":"levelo://app?vid=dd3df09e-6be3-4bd4-aeb2-666d892970dc"},"vehicle_type_id":"4","last_reported":1771331854,"current_range_meters":25200,"station_id":"ce4bhl12rcd13ifvqgf0","pricing_plan_id":"cebpf4jnsgd1na2vs0mg"},{"bike_id":"fdc71d43-affe-42f2-92b7-e116676bde9d","system_id":"levelo_inurba_marseille","lat":43.25345,"lon":5.42171,"is_reserved":false,"is_disabled":false,"rental_uris":{"android":"levelo://app?vid=fdc71d43-affe-42f2-92b7-e116676bde9d","ios":"levelo://app?vid=fdc71d43-affe-42f2-92b7-e116676bde9d"},"vehicle_type_id":"4","last_reported":1771331854,"current_range_meters":30000,"station_id":"st_d2m65c5bi1j21697t3ng","pricing_plan_id":"cebpf4jnsgd1na2vs0mg"},{"bike_id":"554f442d-a50d-41a2-a071-a108dde862d6","system_id":"levelo_inurba_marseille","lat":43.30887,"lon":5.36904,"is_reserved":false,"is_disabled":false,"rental_uris":{"android":"levelo://app?vid=554f442d-a50d-41a2-a071-a108dde862d6","ios":"levelo://app?vid=554f442d-a50d-41a2-a071-a108dde862d6"},"vehicle_type_id":"4","last_reported":1771331854,"current_range_meters":39200,"station_id":"ce4bgn92rcd13ifvqbvg","pricing_plan_id":"cebpf4jnsgd1na2vs0mg"},{"bike_id":"ab099b5d-a36c-4b39-b54f-8fdad1227588","system_id":"levelo_inurba_marseille","lat":43.31045,"lon":5.37203,"is_reserved":false,"is_disabled":false,"rental_uris":{"android":"levelo://app?vid=ab099b5d-a36c-4b39-b54f-8fdad1227588","ios":"levelo://app?vid=ab099b5d-a36c-4b39-b54f-8fdad1227588"},"vehicle_type_id":"4","last_reported":1771331854,"current_range_meters":39200,"station_id":"st_d4kl2rp97mjs73e7tdfg","pricing_plan_id":"cebpf4jnsgd1na2vs0mg"},{"bike_id":"bd6611ce-f7cd-494c-a774-4a5ac620e401","system_id":"levelo_inurba_marseille","lat":43.28272,"lon":5.35055,"is_reserved":false,"is_disabled":true,"rental_uris":{"android":"levelo://app?vid=bd6611ce-f7cd-494c-a774-4a5ac620e401","ios":"levelo://app?vid=bd6611ce-f7cd-494c-a774-4a5ac620e401"},"vehicle_type_id":"4","last_reported":1771331854,"current_range_meters":28400,"station_id":"ce4bhbp2rcd13ifvqerg","pricing_plan_id":"cebpf4jnsgd1na2vs0mg"},{"bike_id":"242b73e4-7d7c-46a2-9c0e-f82c212d7f53","system_id":"levelo_inurba_marseille","lat":43.30127,"lon":5.37428,"is_reserved":false,"is_disabled":false,"rental_uris":{"android":"levelo://app?vid=242b73e4-7d7c-46a2-9c0e-f82c212d7f53","ios":"levelo://app?vid=242b73e4-7d7c-46a2-9c0e-f82c212d7f53"},"vehicle_type_id":"4","last_reported":1771331854,"current_range_meters":26800,"station_id":"ce4bgs92rcd13ifvqcc0","pricing_plan_id":"cebpf4jnsgd1na2vs0mg"},{"bike_id":"05d7598d-6c5f-4ee6-8452-f0524fc2aa8e","system_id":"levelo_inurba_marseille","lat":43.26222,"lon":5.37432,"is_reserved":false,"is_disabled":false,"rental_uris":{"android":"levelo://app?vid=05d7598d-6c5f-4ee6-8452-f0524fc2aa8e","ios":"levelo://app?vid=05d7598d-6c5f-4ee6-8452-f0524fc2aa8e"},"vehicle_type_id":"4","last_reported":1771331854,"current_range_meters":39200,"station_id":"ce4bhgp2rcd13ifvqfc0","pricing_plan_id":"cebpf4jnsgd1na2vs0mg"},{"bike_id":"c9a5d15d-6703-412e-9164-4f9a1a3cf9a2","system_id":"levelo_inurba_marseille","lat":43.30303,"lon":5.36889,"is_reserved":false,"is_disabled":false,"rental_uris":{"android":"levelo://app?vid=c9a5d15d-6703-412e-9164-4f9a1a3cf9a2","ios":"levelo://app?vid=c9a5d15d-6703-412e-9164-4f9a1a3cf9a2"},"vehicle_type_id":"4","last_reported":1771331854,"current_range_meters":27200,"station_id":"ce4bgqh2rcd13ifvqc5g","pricing_plan_id":"cebpf4jnsgd1na2vs0mg"},{"bike_id":"b848b13f-a5a8-497c-bf73-42ffb911f77e","system_id":"levelo_inurba_marseille","lat":43.28478,"lon":5.484021,"is_reserved":false,"is_disabled":false,"rental_uris":{"android":"levelo://app?vid=b848b13f-a5a8-497c-bf73-42ffb911f77e","ios":"levelo://app?vid=b848b13f-a5a8-497c-bf73-42ffb911f77e"},"vehicle_type_id":"4","last_reported":1771331854,"current_range_meters":18800,"station_id":"","pricing_plan_id":"cebpf4jnsgd1na2vs0mg"},{"bike_id":"bce7842c-89d4-4813-9ed5-1a0a63c3814c","system_id":"levelo_inurba_marseille","lat":43.32473,"lon":5.36569,"is_reserved":false,"is_disabled":false,"rental_uris":{"android":"levelo://app?vid=bce7842c-89d4-4813-9ed5-1a0a63c3814c","ios":"levelo://app?vid=bce7842c-89d4-4813-9ed5-1a0a63c3814c"},"vehicle_type_id":"4","last_reported":1771331854,"current_range_meters":18000,"station_id":"ce4bhs12rcd13ifvqhvg","pricing_plan_id":"cebpf4jnsgd1na2vs0mg"},{"bike_id":"2a7f964e-226f-4197-9c44-89cad1ce146f","system_id":"levelo_inurba_marseille","lat":43.28263,"lon":5.35067,"is_reserved":false,"is_disabled":false,"rental_uris":{"android":"levelo://app?vid=2a7f964e-226f-4197-9c44-89cad1ce146f","ios":"levelo://app?vid=2a7f964e-226f-4197-9c44-89cad1ce146f"},"vehicle_type_id":"4","last_reported":1771331854,"current_range_meters":21600,"station_id":"ce4bhbp2rcd13ifvqerg","pricing_plan_id":"cebpf4jnsgd1na2vs0mg"},{"bike_id":"593a9707-a425-411a-80c5-43e444053798","system_id":"levelo_inurba_marseille","lat":43.29035,"lon":5.39973,"is_reserved":false,"is_disabled":false,"rental_uris":{"android":"levelo://app?vid=593a9707-a425-411a-80c5-43e444053798","ios":"levelo://app?vid=593a9707-a425-411a-80c5-43e444053798"},"vehicle_type_id":"4","last_reported":1771331854,"current_range_meters":34800,"station_id":"ce4bh392rcd13ifvqdm0","pricing_plan_id":"cebpf4jnsgd1na2vs0mg"},{"bike_id":"c536d0cd-09a1-42ad-9b88-af87bba6228e","system_id":"levelo_inurba_marseille","lat":43.31175,"lon":5.36954,"is_reserved":false,"is_disabled":false,"rental_uris":{"android":"levelo://app?vid=c536d0cd-09a1-42ad-9b88-af87bba6228e","ios":"levelo://app?vid=c536d0cd-09a1-42ad-9b88-af87bba6228e"},"vehicle_type_id":"4","last_reported":1771331854,"current_range_meters":6800,"station_id":"ce4bgl92rcd13ifvqbq0","pricing_plan_id":"cebpf4jnsgd1na2vs0mg"},{"bike_id":"dccf4276-e4c4-42dc-8c9c-08228358396d","system_id":"levelo_inurba_marseille","lat":43.26573,"lon":5.3899,"is_reserved":false,"is_disabled":false,"rental_uris":{"android":"levelo://app?vid=dccf4276-e4c4-42dc-8c9c-08228358396d","ios":"levelo://app?vid=dccf4276-e4c4-42dc-8c9c-08228358396d"},"vehicle_type_id":"4","last_reported":1771331854,"current_range_meters":18800,"station_id":"ce4bhe12rcd13ifvqf30","pricing_plan_id":"cebpf4jnsgd1na2vs0mg"},{"bike_id":"b2a02418-a742-4f1b-8066-b19250c93a85","system_id":"levelo_inurba_marseille","lat":43.28632,"lon":5.35088,"is_reserved":false,"is_disabled":false,"rental_uris":{"android":"levelo://app?vid=b2a02418-a742-4f1b-8066-b19250c93a85","ios":"levelo://app?vid=b2a02418-a742-4f1b-8066-b19250c93a85"},"vehicle_type_id":"4","last_reported":1771331854,"current_range_meters":24000,"station_id":"ce4bhch2rcd13ifvqeug","pricing_plan_id":"cebpf4jnsgd1na2vs0mg"},{"bike_id":"16712afb-3083-42b8-bec8-6d41ed17b3ae","system_id":"levelo_inurba_marseille","lat":43.269334,"lon":5.402639,"is_reserved":false,"is_disabled":false,"rental_uris":{"android":"levelo://app?vid=16712afb-3083-42b8-bec8-6d41ed17b3ae","ios":"levelo://app?vid=16712afb-3083-42b8-bec8-6d41ed17b3ae"},"vehicle_type_id":"4","last_reported":1771331854,"current_range_meters":39200,"station_id":"cjm6bp8fraef2m0cb0m0","pricing_plan_id":"cebpf4jnsgd1na2vs0mg"},{"bike_id":"a066de93-0d65-47f8-901e-b55356275f44","system_id":"levelo_inurba_marseille","lat":43.26679,"lon":5.38272,"is_reserved":false,"is_disabled":false,"rental_uris":{"android":"levelo://app?vid=a066de93-0d65-47f8-901e-b55356275f44","ios":"levelo://app?vid=a066de93-0d65-47f8-901e-b55356275f44"},"vehicle_type_id":"4","last_reported":1771331854,"current_range_meters":39200,"station_id":"ce4bhg92rcd13ifvqf90","pricing_plan_id":"cebpf4jnsgd1na2vs0mg"},{"bike_id":"aee18f1d-86e8-48b5-a43d-7c5d0fe72d46","system_id":"levelo_inurba_marseille","lat":43.27069,"lon":5.40286,"is_reserved":false,"is_disabled":false,"rental_uris":{"android":"levelo://app?vid=aee18f1d-86e8-48b5-a43d-7c5d0fe72d46","ios":"levelo://app?vid=aee18f1d-86e8-48b5-a43d-7c5d0fe72d46"},"vehicle_type_id":"4","last_reported":1771331854,"current_range_meters":18000,"station_id":"ce4bhk92rcd13ifvqgc0","pricing_plan_id":"cebpf4jnsgd1na2vs0mg"},{"bike_id":"14096945-3ed2-4921-943f-a03af03f353e","system_id":"levelo_inurba_marseille","lat":43.25581,"lon":5.38236,"is_reserved":false,"is_disabled":false,"rental_uris":{"android":"levelo://app?vid=14096945-3ed2-4921-943f-a03af03f353e","ios":"levelo://app?vid=14096945-3ed2-4921-943f-a03af03f353e"},"vehicle_type_id":"4","last_reported":1771331854,"current_range_meters":29600,"station_id":"ce4bhih2rcd13ifvqfs0","pricing_plan_id":"cebpf4jnsgd1na2vs0mg"},{"bike_id":"68ee9eae-4c30-40ae-8339-2e9ed649fba8","system_id":"levelo_inurba_marseille","lat":43.29518,"lon":5.37513,"is_reserved":false,"is_disabled":false,"rental_uris":{"android":"levelo://app?vid=68ee9eae-4c30-40ae-8339-2e9ed649fba8","ios":"levelo://app?vid=68ee9eae-4c30-40ae-8339-2e9ed649fba8"},"vehicle_type_id":"4","last_reported":1771331854,"current_range_meters":24400,"station_id":"ce4bgkp2rcd13ifvqbmg","pricing_plan_id":"cebpf4jnsgd1na2vs0mg"},{"bike_id":"c676de18-94cf-47fc-87a2-53b127f6691e","system_id":"levelo_inurba_marseille","lat":43.25918,"lon":5.40915,"is_reserved":false,"is_disabled":false,"rental_uris":{"android":"levelo://app?vid=c676de18-94cf-47fc-87a2-53b127f6691e","ios":"levelo://app?vid=c676de18-94cf-47fc-87a2-53b127f6691e"},"vehicle_type_id":"4","last_reported":1771331854,"current_range_meters":28800,"station_id":"ce4bhm92rcd13ifvqglg","pricing_plan_id":"cebpf4jnsgd1na2vs0mg"},{"bike_id":"c284f9ab-494b-403f-9686-10525288541d","system_id":"levelo_inurba_marseille","lat":43.26054,"lon":5.39392,"is_reserved":false,"is_disabled":false,"rental_uris":{"android":"levelo://app?vid=c284f9ab-494b-403f-9686-10525288541d","ios":"levelo://app?vid=c284f9ab-494b-403f-9686-10525288541d"},"vehicle_type_id":"4","last_reported":1771331854,"current_range_meters":39200,"station_id":"ce4bhh92rcd13ifvqfj0","pricing_plan_id":"cebpf4jnsgd1na2vs0mg"},{"bike_id":"7b5584b1-f0a7-4f91-b21d-a4e9cdd5cdb3","system_id":"levelo_inurba_marseille","lat":43.29005,"lon":5.35598,"is_reserved":false,"is_disabled":false,"rental_uris":{"android":"levelo://app?vid=7b5584b1-f0a7-4f91-b21d-a4e9cdd5cdb3","ios":"levelo://app?vid=7b5584b1-f0a7-4f91-b21d-a4e9cdd5cdb3"},"vehicle_type_id":"4","last_reported":1771331854,"current_range_meters":11600,"station_id":"ce4bhb92rcd13ifvqen0","pricing_plan_id":"cebpf4jnsgd1na2vs0mg"},{"bike_id":"3de1318d-bb99-4025-844d-0123b4357900","system_id":"levelo_inurba_marseille","lat":43.29935,"lon":5.37465,"is_reserved":false,"is_disabled":false,"rental_uris":{"android":"levelo://app?vid=3de1318d-bb99-4025-844d-0123b4357900","ios":"levelo://app?vid=3de1318d-bb99-4025-844d-0123b4357900"},"vehicle_type_id":"4","last_reported":1771331854,"current_range_meters":39200,"station_id":"ce4bgjh2rcd13ifvqbg0","pricing_plan_id":"cebpf4jnsgd1na2vs0mg"},{"bike_id":"c9b76f97-4777-40f7-8438-ab341a9656e1","system_id":"levelo_inurba_marseille","lat":43.29878,"lon":5.36246,"is_reserved":false,"is_disabled":false,"rental_uris":{"android":"levelo://app?vid=c9b76f97-4777-40f7-8438-ab341a9656e1","ios":"levelo://app?vid=c9b76f97-4777-40f7-8438-ab341a9656e1"},"vehicle_type_id":"4","last_reported":1771331854,"current_range_meters":38800,"station_id":"ce4bgpp2rcd13ifvqc3g","pricing_plan_id":"cebpf4jnsgd1na2vs0mg"},{"bike_id":"8de72905-9cd1-43a5-b42e-38b92fe08e53","system_id":"levelo_inurba_marseille","lat":43.27071,"lon":5.42282,"is_reserved":false,"is_disabled":false,"rental_uris":{"android":"levelo://app?vid=8de72905-9cd1-43a5-b42e-38b92fe08e53","ios":"levelo://app?vid=8de72905-9cd1-43a5-b42e-38b92fe08e53"},"vehicle_type_id":"4","last_reported":1771331854,"current_range_meters":36400,"station_id":"ce4bhk92rcd13ifvqgb0","pricing_plan_id":"cebpf4jnsgd1na2vs0mg"},{"bike_id":"3894c475-f3e2-4b0e-bec1-3abca2eaf123","system_id":"levelo_inurba_marseille","lat":43.28267,"lon":5.35061,"is_reserved":false,"is_disabled":false,"rental_uris":{"android":"levelo://app?vid=3894c475-f3e2-4b0e-bec1-3abca2eaf123","ios":"levelo://app?vid=3894c475-f3e2-4b0e-bec1-3abca2eaf123"},"vehicle_type_id":"4","last_reported":1771331854,"current_range_meters":14800,"station_id":"ce4bhbp2rcd13ifvqerg","pricing_plan_id":"cebpf4jnsgd1na2vs0mg"},{"bike_id":"6b63b009-f7da-4d4b-a414-01d08a281042","system_id":"levelo_inurba_marseille","lat":43.30526,"lon":5.36537,"is_reserved":false,"is_disabled":false,"rental_uris":{"android":"levelo://app?vid=6b63b009-f7da-4d4b-a414-01d08a281042","ios":"levelo://app?vid=6b63b009-f7da-4d4b-a414-01d08a281042"},"vehicle_type_id":"4","last_reported":1771331854,"current_range_meters":3600,"station_id":"ce4bgs12rcd13ifvqcag","pricing_plan_id":"cebpf4jnsgd1na2vs0mg"},{"bike_id":"8e203c0c-61c2-4c2a-9044-414c93a22047","system_id":"levelo_inurba_marseille","lat":43.30117,"lon":5.37436,"is_reserved":false,"is_disabled":false,"rental_uris":{"android":"levelo://app?vid=8e203c0c-61c2-4c2a-9044-414c93a22047","ios":"levelo://app?vid=8e203c0c-61c2-4c2a-9044-414c93a22047"},"vehicle_type_id":"4","last_reported":1771331854,"current_range_meters":18000,"station_id":"ce4bgs92rcd13ifvqcc0","pricing_plan_id":"cebpf4jnsgd1na2vs0mg"},{"bike_id":"29aaeded-6fbf-4914-8e01-d1b40b6726f9","system_id":"levelo_inurba_marseille","lat":43.26188,"lon":5.37446,"is_reserved":false,"is_disabled":false,"rental_uris":{"android":"levelo://app?vid=29aaeded-6fbf-4914-8e01-d1b40b6726f9","ios":"levelo://app?vid=29aaeded-6fbf-4914-8e01-d1b40b6726f9"},"vehicle_type_id":"4","last_reported":1771331854,"current_range_meters":5600,"station_id":"ce4bhgp2rcd13ifvqfc0","pricing_plan_id":"cebpf4jnsgd1na2vs0mg"},{"bike_id":"0a2b728e-d4e2-49f5-ae67-0c4ddf0a50e7","system_id":"levelo_inurba_marseille","lat":43.27943,"lon":5.41042,"is_reserved":false,"is_disabled":false,"rental_uris":{"android":"levelo://app?vid=0a2b728e-d4e2-49f5-ae67-0c4ddf0a50e7","ios":"levelo://app?vid=0a2b728e-d4e2-49f5-ae67-0c4ddf0a50e7"},"vehicle_type_id":"4","last_reported":1771331854,"current_range_meters":38000,"station_id":"ce4bhnp2rcd13ifvqh0g","pricing_plan_id":"cebpf4jnsgd1na2vs0mg"},{"bike_id":"c52e29b2-38c1-428b-98bc-fc46a3de5cf0","system_id":"levelo_inurba_marseille","lat":43.29262,"lon":5.40911,"is_reserved":false,"is_disabled":false,"rental_uris":{"android":"levelo://app?vid=c52e29b2-38c1-428b-98bc-fc46a3de5cf0","ios":"levelo://app?vid=c52e29b2-38c1-428b-98bc-fc46a3de5cf0"},"vehicle_type_id":"4","last_reported":1771331854,"current_range_meters":25200,"station_id":"ce4bh192rcd13ifvqdc0","pricing_plan_id":"cebpf4jnsgd1na2vs0mg"},{"bike_id":"706a8309-65d5-466c-be91-947216104ddb","system_id":"levelo_inurba_marseille","lat":43.297003,"lon":5.376916,"is_reserved":false,"is_disabled":false,"rental_uris":{"android":"levelo://app?vid=706a8309-65d5-466c-be91-947216104ddb","ios":"levelo://app?vid=706a8309-65d5-466c-be91-947216104ddb"},"vehicle_type_id":"4","last_reported":1771331854,"current_range_meters":34800,"station_id":"ce4bh4p2rcd13ifvqe1g","pricing_plan_id":"cebpf4jnsgd1na2vs0mg"},{"bike_id":"cdb31bb4-370c-491d-8d68-0dceed9d9223","system_id":"levelo_inurba_marseille","lat":43.33533,"lon":5.3746,"is_reserved":false,"is_disabled":false,"rental_uris":{"android":"levelo://app?vid=cdb31bb4-370c-491d-8d68-0dceed9d9223","ios":"levelo://app?vid=cdb31bb4-370c-491d-8d68-0dceed9d9223"},"vehicle_type_id":"4","last_reported":1771331854,"current_range_meters":28400,"station_id":"st_d46tts09ee8s73dlu43g","pricing_plan_id":"cebpf4jnsgd1na2vs0mg"},{"bike_id":"ee4f8742-0617-46e3-9fa2-031983a52dc9","system_id":"levelo_inurba_marseille","lat":43.2976,"lon":5.42795,"is_reserved":false,"is_disabled":false,"rental_uris":{"android":"levelo://app?vid=ee4f8742-0617-46e3-9fa2-031983a52dc9","ios":"levelo://app?vid=ee4f8742-0617-46e3-9fa2-031983a52dc9"},"vehicle_type_id":"4","last_reported":1771331854,"current_range_meters":36400,"station_id":"st_d3md5207bmas73dh9klg","pricing_plan_id":"cebpf4jnsgd1na2vs0mg"},{"bike_id":"1ae9bc1d-b840-42f7-a16c-1b20e0f7a83e","system_id":"levelo_inurba_marseille","lat":43.24819,"lon":5.37449,"is_reserved":false,"is_disabled":false,"rental_uris":{"android":"levelo://app?vid=1ae9bc1d-b840-42f7-a16c-1b20e0f7a83e","ios":"levelo://app?vid=1ae9bc1d-b840-42f7-a16c-1b20e0f7a83e"},"vehicle_type_id":"4","last_reported":1771331854,"current_range_meters":24400,"station_id":"ce4bhgh2rcd13ifvqfb0","pricing_plan_id":"cebpf4jnsgd1na2vs0mg"},{"bike_id":"02fc9e73-ce34-4593-bff1-d5b85e93e5b9","system_id":"levelo_inurba_marseille","lat":43.27375,"lon":5.3626,"is_reserved":false,"is_disabled":false,"rental_uris":{"android":"levelo://app?vid=02fc9e73-ce34-4593-bff1-d5b85e93e5b9","ios":"levelo://app?vid=02fc9e73-ce34-4593-bff1-d5b85e93e5b9"},"vehicle_type_id":"4","last_reported":1771331854,"current_range_meters":39200,"station_id":"ce4bhbh2rcd13ifvqeo0","pricing_plan_id":"cebpf4jnsgd1na2vs0mg"},{"bike_id":"75e25790-422a-481a-9d70-48b778c88816","system_id":"levelo_inurba_marseille","lat":43.3012,"lon":5.37468,"is_reserved":false,"is_disabled":false,"rental_uris":{"android":"levelo://app?vid=75e25790-422a-481a-9d70-48b778c88816","ios":"levelo://app?vid=75e25790-422a-481a-9d70-48b778c88816"},"vehicle_type_id":"4","last_reported":1771331854,"current_range_meters":39200,"station_id":"","pricing_plan_id":"cebpf4jnsgd1na2vs0mg"},{"bike_id":"8a8fa0fa-9b9a-4667-a36a-f2215b14299e","system_id":"levelo_inurba_marseille","lat":43.24799,"lon":5.37423,"is_reserved":false,"is_disabled":false,"rental_uris":{"android":"levelo://app?vid=8a8fa0fa-9b9a-4667-a36a-f2215b14299e","ios":"levelo://app?vid=8a8fa0fa-9b9a-4667-a36a-f2215b14299e"},"vehicle_type_id":"4","last_reported":1771331854,"current_range_meters":38800,"station_id":"ce4bhgh2rcd13ifvqfb0","pricing_plan_id":"cebpf4jnsgd1na2vs0mg"},{"bike_id":"3b23e696-0f10-4258-80d6-a9732718d5da","system_id":"levelo_inurba_marseille","lat":43.33555,"lon":5.37472,"is_reserved":false,"is_disabled":false,"rental_uris":{"android":"levelo://app?vid=3b23e696-0f10-4258-80d6-a9732718d5da","ios":"levelo://app?vid=3b23e696-0f10-4258-80d6-a9732718d5da"},"vehicle_type_id":"4","last_reported":1771331854,"current_range_meters":28800,"station_id":"st_d46tts09ee8s73dlu43g","pricing_plan_id":"cebpf4jnsgd1na2vs0mg"},{"bike_id":"dfa36d27-6e60-4833-b7ff-9ec90b759d28","system_id":"levelo_inurba_marseille","lat":43.25664,"lon":5.3829,"is_reserved":false,"is_disabled":false,"rental_uris":{"android":"levelo://app?vid=dfa36d27-6e60-4833-b7ff-9ec90b759d28","ios":"levelo://app?vid=dfa36d27-6e60-4833-b7ff-9ec90b759d28"},"vehicle_type_id":"4","last_reported":1771331854,"current_range_meters":25200,"station_id":"","pricing_plan_id":"cebpf4jnsgd1na2vs0mg"},{"bike_id":"99d0f35c-daa9-45a1-8e5c-8b18d18f213e","system_id":"levelo_inurba_marseille","lat":43.33601,"lon":5.41022,"is_reserved":false,"is_disabled":false,"rental_uris":{"android":"levelo://app?vid=99d0f35c-daa9-45a1-8e5c-8b18d18f213e","ios":"levelo://app?vid=99d0f35c-daa9-45a1-8e5c-8b18d18f213e"},"vehicle_type_id":"4","last_reported":1771331854,"current_range_meters":26800,"station_id":"ce4bhqh2rcd13ifvqhmg","pricing_plan_id":"cebpf4jnsgd1na2vs0mg"},{"bike_id":"d0af0967-4f64-45d2-aeab-b15286d65704","system_id":"levelo_inurba_marseille","lat":43.33125,"lon":5.39271,"is_reserved":false,"is_disabled":false,"rental_uris":{"android":"levelo://app?vid=d0af0967-4f64-45d2-aeab-b15286d65704","ios":"levelo://app?vid=d0af0967-4f64-45d2-aeab-b15286d65704"},"vehicle_type_id":"4","last_reported":1771331854,"current_range_meters":20800,"station_id":"","pricing_plan_id":"cebpf4jnsgd1na2vs0mg"},{"bike_id":"7c11e683-0ef8-4bac-8048-16f7653ced54","system_id":"levelo_inurba_marseille","lat":43.28617,"lon":5.35098,"is_reserved":false,"is_disabled":false,"rental_uris":{"android":"levelo://app?vid=7c11e683-0ef8-4bac-8048-16f7653ced54","ios":"levelo://app?vid=7c11e683-0ef8-4bac-8048-16f7653ced54"},"vehicle_type_id":"4","last_reported":1771331854,"current_range_meters":12000,"station_id":"ce4bhch2rcd13ifvqeug","pricing_plan_id":"cebpf4jnsgd1na2vs0mg"},{"bike_id":"4932e24b-f2ef-4e1d-8d26-86e9c422ae44","system_id":"levelo_inurba_marseille","lat":43.32112,"lon":5.36776,"is_reserved":false,"is_disabled":false,"rental_uris":{"android":"levelo://app?vid=4932e24b-f2ef-4e1d-8d26-86e9c422ae44","ios":"levelo://app?vid=4932e24b-f2ef-4e1d-8d26-86e9c422ae44"},"vehicle_type_id":"4","last_reported":1771331854,"current_range_meters":24000,"station_id":"ce4bhrh2rcd13ifvqhug","pricing_plan_id":"cebpf4jnsgd1na2vs0mg"},{"bike_id":"c05b7da1-db4e-49e2-8743-3e9920251ffb","system_id":"levelo_inurba_marseille","lat":43.265581,"lon":5.390273,"is_reserved":false,"is_disabled":false,"rental_uris":{"android":"levelo://app?vid=c05b7da1-db4e-49e2-8743-3e9920251ffb","ios":"levelo://app?vid=c05b7da1-db4e-49e2-8743-3e9920251ffb"},"vehicle_type_id":"4","last_reported":1771331854,"current_range_meters":17200,"station_id":"ce4bhe12rcd13ifvqf30","pricing_plan_id":"cebpf4jnsgd1na2vs0mg"},{"bike_id":"d7acc964-c247-4f5f-b0a3-aeba5e864ca1","system_id":"levelo_inurba_marseille","lat":43.29881,"lon":5.39743,"is_reserved":false,"is_disabled":false,"rental_uris":{"android":"levelo://app?vid=d7acc964-c247-4f5f-b0a3-aeba5e864ca1","ios":"levelo://app?vid=d7acc964-c247-4f5f-b0a3-aeba5e864ca1"},"vehicle_type_id":"4","last_reported":1771331854,"current_range_meters":30800,"station_id":"ce4bh0h2rcd13ifvqd50","pricing_plan_id":"cebpf4jnsgd1na2vs0mg"},{"bike_id":"06b0e8ea-5721-4b06-a488-b9703e22c1ac","system_id":"levelo_inurba_marseille","lat":43.28619,"lon":5.35094,"is_reserved":false,"is_disabled":false,"rental_uris":{"android":"levelo://app?vid=06b0e8ea-5721-4b06-a488-b9703e22c1ac","ios":"levelo://app?vid=06b0e8ea-5721-4b06-a488-b9703e22c1ac"},"vehicle_type_id":"4","last_reported":1771331854,"current_range_meters":36800,"station_id":"ce4bhch2rcd13ifvqeug","pricing_plan_id":"cebpf4jnsgd1na2vs0mg"},{"bike_id":"e8163cc2-39d1-4c26-b8d8-13d4a39cb070","system_id":"levelo_inurba_marseille","lat":43.24413,"lon":5.37079,"is_reserved":false,"is_disabled":false,"rental_uris":{"android":"levelo://app?vid=e8163cc2-39d1-4c26-b8d8-13d4a39cb070","ios":"levelo://app?vid=e8163cc2-39d1-4c26-b8d8-13d4a39cb070"},"vehicle_type_id":"4","last_reported":1771331854,"current_range_meters":33200,"station_id":"ce4bhhh2rcd13ifvqfk0","pricing_plan_id":"cebpf4jnsgd1na2vs0mg"},{"bike_id":"efe750db-9975-43cb-ada6-064cf243e55f","system_id":"levelo_inurba_marseille","lat":43.25013,"lon":5.389123,"is_reserved":false,"is_disabled":true,"rental_uris":{"android":"levelo://app?vid=efe750db-9975-43cb-ada6-064cf243e55f","ios":"levelo://app?vid=efe750db-9975-43cb-ada6-064cf243e55f"},"vehicle_type_id":"4","last_reported":1771331854,"current_range_meters":20000,"station_id":"ce4bhgp2rcd13ifvqfd0","pricing_plan_id":"cebpf4jnsgd1na2vs0mg"},{"bike_id":"bd0e99a1-4162-41ae-b356-8cc729f7fd82","system_id":"levelo_inurba_marseille","lat":43.23974,"lon":5.36614,"is_reserved":false,"is_disabled":false,"rental_uris":{"android":"levelo://app?vid=bd0e99a1-4162-41ae-b356-8cc729f7fd82","ios":"levelo://app?vid=bd0e99a1-4162-41ae-b356-8cc729f7fd82"},"vehicle_type_id":"4","last_reported":1771331854,"current_range_meters":4400,"station_id":"ce4bhi12rcd13ifvqfp0","pricing_plan_id":"cebpf4jnsgd1na2vs0mg"},{"bike_id":"3d69156c-572f-4b50-bfc8-dd5d9f6e75cc","system_id":"levelo_inurba_marseille","lat":43.25095,"lon":5.39504,"is_reserved":false,"is_disabled":false,"rental_uris":{"android":"levelo://app?vid=3d69156c-572f-4b50-bfc8-dd5d9f6e75cc","ios":"levelo://app?vid=3d69156c-572f-4b50-bfc8-dd5d9f6e75cc"},"vehicle_type_id":"4","last_reported":1771331854,"current_range_meters":5600,"station_id":"ce4bhm12rcd13ifvqgkg","pricing_plan_id":"cebpf4jnsgd1na2vs0mg"},{"bike_id":"622c7f4c-107a-4955-94ae-e2fa15c7ab14","system_id":"levelo_inurba_marseille","lat":43.33536,"lon":5.37461,"is_reserved":false,"is_disabled":false,"rental_uris":{"android":"levelo://app?vid=622c7f4c-107a-4955-94ae-e2fa15c7ab14","ios":"levelo://app?vid=622c7f4c-107a-4955-94ae-e2fa15c7ab14"},"vehicle_type_id":"4","last_reported":1771331854,"current_range_meters":18000,"station_id":"st_d46tts09ee8s73dlu43g","pricing_plan_id":"cebpf4jnsgd1na2vs0mg"},{"bike_id":"37788f76-dc23-4b3b-af83-53337e6b4bad","system_id":"levelo_inurba_marseille","lat":43.2293,"lon":5.35381,"is_reserved":false,"is_disabled":false,"rental_uris":{"android":"levelo://app?vid=37788f76-dc23-4b3b-af83-53337e6b4bad","ios":"levelo://app?vid=37788f76-dc23-4b3b-af83-53337e6b4bad"},"vehicle_type_id":"4","last_reported":1771331854,"current_range_meters":14800,"station_id":"cpo3532slgdg3j2ikp40","pricing_plan_id":"cebpf4jnsgd1na2vs0mg"},{"bike_id":"8b02d365-503c-4f8f-8fc5-5799b569d455","system_id":"levelo_inurba_marseille","lat":43.26784,"lon":5.39418,"is_reserved":false,"is_disabled":false,"rental_uris":{"android":"levelo://app?vid=8b02d365-503c-4f8f-8fc5-5799b569d455","ios":"levelo://app?vid=8b02d365-503c-4f8f-8fc5-5799b569d455"},"vehicle_type_id":"4","last_reported":1771331854,"current_range_meters":36800,"station_id":"ce4bhh12rcd13ifvqfg0","pricing_plan_id":"cebpf4jnsgd1na2vs0mg"},{"bike_id":"b46161f1-e7ec-4cb9-92f2-dc2b4e46716b","system_id":"levelo_inurba_marseille","lat":43.305502,"lon":5.365259,"is_reserved":false,"is_disabled":false,"rental_uris":{"android":"levelo://app?vid=b46161f1-e7ec-4cb9-92f2-dc2b4e46716b","ios":"levelo://app?vid=b46161f1-e7ec-4cb9-92f2-dc2b4e46716b"},"vehicle_type_id":"4","last_reported":1771331854,"current_range_meters":14000,"station_id":"ce4bgs12rcd13ifvqcag","pricing_plan_id":"cebpf4jnsgd1na2vs0mg"},{"bike_id":"d5d7f1f6-3676-4a2a-9272-d88dc4ef5a75","system_id":"levelo_inurba_marseille","lat":43.28486,"lon":5.3841,"is_reserved":false,"is_disabled":false,"rental_uris":{"android":"levelo://app?vid=d5d7f1f6-3676-4a2a-9272-d88dc4ef5a75","ios":"levelo://app?vid=d5d7f1f6-3676-4a2a-9272-d88dc4ef5a75"},"vehicle_type_id":"4","last_reported":1771331854,"current_range_meters":14800,"station_id":"ce4bh512rcd13ifvqe3g","pricing_plan_id":"cebpf4jnsgd1na2vs0mg"},{"bike_id":"ca539c7e-5f3f-45e9-80eb-b91762400150","system_id":"levelo_inurba_marseille","lat":43.25669,"lon":5.4101,"is_reserved":false,"is_disabled":false,"rental_uris":{"android":"levelo://app?vid=ca539c7e-5f3f-45e9-80eb-b91762400150","ios":"levelo://app?vid=ca539c7e-5f3f-45e9-80eb-b91762400150"},"vehicle_type_id":"4","last_reported":1771331854,"current_range_meters":30800,"station_id":"","pricing_plan_id":"cebpf4jnsgd1na2vs0mg"},{"bike_id":"a60c7022-7d49-426c-ac4a-f878fb31f8e9","system_id":"levelo_inurba_marseille","lat":43.31332,"lon":5.39696,"is_reserved":false,"is_disabled":false,"rental_uris":{"android":"levelo://app?vid=a60c7022-7d49-426c-ac4a-f878fb31f8e9","ios":"levelo://app?vid=a60c7022-7d49-426c-ac4a-f878fb31f8e9"},"vehicle_type_id":"4","last_reported":1771331854,"current_range_meters":26800,"station_id":"ce4bgvp2rcd13ifvqcu0","pricing_plan_id":"cebpf4jnsgd1na2vs0mg"},{"bike_id":"c62c70ed-1707-4eca-8a83-189945aa0554","system_id":"levelo_inurba_marseille","lat":43.30322,"lon":5.36867,"is_reserved":false,"is_disabled":false,"rental_uris":{"android":"levelo://app?vid=c62c70ed-1707-4eca-8a83-189945aa0554","ios":"levelo://app?vid=c62c70ed-1707-4eca-8a83-189945aa0554"},"vehicle_type_id":"4","last_reported":1771331854,"current_range_meters":35200,"station_id":"ce4bgqh2rcd13ifvqc5g","pricing_plan_id":"cebpf4jnsgd1na2vs0mg"},{"bike_id":"33da8187-3eb8-4f3e-970f-0ece9caa0bce","system_id":"levelo_inurba_marseille","lat":43.24945,"lon":5.40525,"is_reserved":false,"is_disabled":false,"rental_uris":{"android":"levelo://app?vid=33da8187-3eb8-4f3e-970f-0ece9caa0bce","ios":"levelo://app?vid=33da8187-3eb8-4f3e-970f-0ece9caa0bce"},"vehicle_type_id":"4","last_reported":1771331854,"current_range_meters":28400,"station_id":"st_d2ngiaodas8pm72gd1h0","pricing_plan_id":"cebpf4jnsgd1na2vs0mg"},{"bike_id":"e6b90d0a-ba0a-47bc-835a-acfd80dea2f4","system_id":"levelo_inurba_marseille","lat":43.29782,"lon":5.44099,"is_reserved":false,"is_disabled":false,"rental_uris":{"android":"levelo://app?vid=e6b90d0a-ba0a-47bc-835a-acfd80dea2f4","ios":"levelo://app?vid=e6b90d0a-ba0a-47bc-835a-acfd80dea2f4"},"vehicle_type_id":"4","last_reported":1771331854,"current_range_meters":27200,"station_id":"st_d3jp68qikq2c7381ktn0","pricing_plan_id":"cebpf4jnsgd1na2vs0mg"},{"bike_id":"42f32dde-6926-4c7e-a366-25698f836899","system_id":"levelo_inurba_marseille","lat":43.29003,"lon":5.35613,"is_reserved":false,"is_disabled":false,"rental_uris":{"android":"levelo://app?vid=42f32dde-6926-4c7e-a366-25698f836899","ios":"levelo://app?vid=42f32dde-6926-4c7e-a366-25698f836899"},"vehicle_type_id":"4","last_reported":1771331854,"current_range_meters":25600,"station_id":"ce4bhb92rcd13ifvqen0","pricing_plan_id":"cebpf4jnsgd1na2vs0mg"},{"bike_id":"ff4442e7-8f37-44d8-8a92-50fa732c346c","system_id":"levelo_inurba_marseille","lat":43.30655,"lon":5.40091,"is_reserved":false,"is_disabled":false,"rental_uris":{"android":"levelo://app?vid=ff4442e7-8f37-44d8-8a92-50fa732c346c","ios":"levelo://app?vid=ff4442e7-8f37-44d8-8a92-50fa732c346c"},"vehicle_type_id":"4","last_reported":1771331854,"current_range_meters":38000,"station_id":"ce4bh112rcd13ifvqda0","pricing_plan_id":"cebpf4jnsgd1na2vs0mg"},{"bike_id":"2d91c1d2-e0e7-40f0-be8f-65cd15a914a8","system_id":"levelo_inurba_marseille","lat":43.25923,"lon":5.409,"is_reserved":false,"is_disabled":false,"rental_uris":{"android":"levelo://app?vid=2d91c1d2-e0e7-40f0-be8f-65cd15a914a8","ios":"levelo://app?vid=2d91c1d2-e0e7-40f0-be8f-65cd15a914a8"},"vehicle_type_id":"4","last_reported":1771331854,"current_range_meters":39200,"station_id":"ce4bhm92rcd13ifvqglg","pricing_plan_id":"cebpf4jnsgd1na2vs0mg"},{"bike_id":"3649e3ba-db94-43b9-891a-6eff8f60227d","system_id":"levelo_inurba_marseille","lat":43.29564,"lon":5.37504,"is_reserved":false,"is_disabled":false,"rental_uris":{"android":"levelo://app?vid=3649e3ba-db94-43b9-891a-6eff8f60227d","ios":"levelo://app?vid=3649e3ba-db94-43b9-891a-6eff8f60227d"},"vehicle_type_id":"4","last_reported":1771331854,"current_range_meters":20400,"station_id":"ce4bgh92rcd13ifvqb50","pricing_plan_id":"cebpf4jnsgd1na2vs0mg"},{"bike_id":"62e690f0-63f6-474d-98ba-c3ee77f6bd18","system_id":"levelo_inurba_marseille","lat":43.29586,"lon":5.43924,"is_reserved":false,"is_disabled":false,"rental_uris":{"android":"levelo://app?vid=62e690f0-63f6-474d-98ba-c3ee77f6bd18","ios":"levelo://app?vid=62e690f0-63f6-474d-98ba-c3ee77f6bd18"},"vehicle_type_id":"4","last_reported":1771331854,"current_range_meters":23200,"station_id":"","pricing_plan_id":"cebpf4jnsgd1na2vs0mg"},{"bike_id":"a826a814-b88b-4879-8230-531b07411631","system_id":"levelo_inurba_marseille","lat":43.30592,"lon":5.3936,"is_reserved":false,"is_disabled":false,"rental_uris":{"android":"levelo://app?vid=a826a814-b88b-4879-8230-531b07411631","ios":"levelo://app?vid=a826a814-b88b-4879-8230-531b07411631"},"vehicle_type_id":"4","last_reported":1771331854,"current_range_meters":36000,"station_id":"ce4bh0p2rcd13ifvqd80","pricing_plan_id":"cebpf4jnsgd1na2vs0mg"},{"bike_id":"5405b038-6a45-4914-846b-377786836485","system_id":"levelo_inurba_marseille","lat":43.28699,"lon":5.39987,"is_reserved":false,"is_disabled":false,"rental_uris":{"android":"levelo://app?vid=5405b038-6a45-4914-846b-377786836485","ios":"levelo://app?vid=5405b038-6a45-4914-846b-377786836485"},"vehicle_type_id":"4","last_reported":1771331854,"current_range_meters":30000,"station_id":"ce4bho92rcd13ifvqh3g","pricing_plan_id":"cebpf4jnsgd1na2vs0mg"},{"bike_id":"11b2b510-bda2-408a-9716-7290d12afa3a","system_id":"levelo_inurba_marseille","lat":43.27838,"lon":5.39198,"is_reserved":false,"is_disabled":false,"rental_uris":{"android":"levelo://app?vid=11b2b510-bda2-408a-9716-7290d12afa3a","ios":"levelo://app?vid=11b2b510-bda2-408a-9716-7290d12afa3a"},"vehicle_type_id":"4","last_reported":1771331854,"current_range_meters":29600,"station_id":"ce4bhjp2rcd13ifvqga0","pricing_plan_id":"cebpf4jnsgd1na2vs0mg"},{"bike_id":"0af8cabf-ae61-42d4-b82e-8987129673a6","system_id":"levelo_inurba_marseille","lat":43.29983,"lon":5.38494,"is_reserved":false,"is_disabled":false,"rental_uris":{"android":"levelo://app?vid=0af8cabf-ae61-42d4-b82e-8987129673a6","ios":"levelo://app?vid=0af8cabf-ae61-42d4-b82e-8987129673a6"},"vehicle_type_id":"4","last_reported":1771331854,"current_range_meters":38000,"station_id":"ce4bgj92rcd13ifvqbd0","pricing_plan_id":"cebpf4jnsgd1na2vs0mg"},{"bike_id":"740a2498-9377-4d02-b0f0-49db05aa5469","system_id":"levelo_inurba_marseille","lat":43.25736,"lon":5.41128,"is_reserved":false,"is_disabled":false,"rental_uris":{"android":"levelo://app?vid=740a2498-9377-4d02-b0f0-49db05aa5469","ios":"levelo://app?vid=740a2498-9377-4d02-b0f0-49db05aa5469"},"vehicle_type_id":"4","last_reported":1771331854,"current_range_meters":38800,"station_id":"ce4bhkp2rcd13ifvqgd0","pricing_plan_id":"cebpf4jnsgd1na2vs0mg"},{"bike_id":"45b209b0-f7ec-4530-b801-53212625f98e","system_id":"levelo_inurba_marseille","lat":43.2606,"lon":5.39396,"is_reserved":false,"is_disabled":false,"rental_uris":{"android":"levelo://app?vid=45b209b0-f7ec-4530-b801-53212625f98e","ios":"levelo://app?vid=45b209b0-f7ec-4530-b801-53212625f98e"},"vehicle_type_id":"4","last_reported":1771331854,"current_range_meters":38400,"station_id":"ce4bhh92rcd13ifvqfj0","pricing_plan_id":"cebpf4jnsgd1na2vs0mg"},{"bike_id":"40fd0452-0ae6-42bf-907f-bb1c4484b081","system_id":"levelo_inurba_marseille","lat":43.27984,"lon":5.38716,"is_reserved":false,"is_disabled":false,"rental_uris":{"android":"levelo://app?vid=40fd0452-0ae6-42bf-907f-bb1c4484b081","ios":"levelo://app?vid=40fd0452-0ae6-42bf-907f-bb1c4484b081"},"vehicle_type_id":"4","last_reported":1771331854,"current_range_meters":20000,"station_id":"ce4bhg12rcd13ifvqf80","pricing_plan_id":"cebpf4jnsgd1na2vs0mg"},{"bike_id":"bdce9761-0cef-441c-96b7-92c01e2e530f","system_id":"levelo_inurba_marseille","lat":43.29291,"lon":5.40126,"is_reserved":false,"is_disabled":false,"rental_uris":{"android":"levelo://app?vid=bdce9761-0cef-441c-96b7-92c01e2e530f","ios":"levelo://app?vid=bdce9761-0cef-441c-96b7-92c01e2e530f"},"vehicle_type_id":"4","last_reported":1771331854,"current_range_meters":37600,"station_id":"ce4bh312rcd13ifvqdk0","pricing_plan_id":"cebpf4jnsgd1na2vs0mg"},{"bike_id":"99a48500-7e84-4fa4-a96e-b83b80df3c14","system_id":"levelo_inurba_marseille","lat":43.25338,"lon":5.42168,"is_reserved":false,"is_disabled":false,"rental_uris":{"android":"levelo://app?vid=99a48500-7e84-4fa4-a96e-b83b80df3c14","ios":"levelo://app?vid=99a48500-7e84-4fa4-a96e-b83b80df3c14"},"vehicle_type_id":"4","last_reported":1771331854,"current_range_meters":9200,"station_id":"st_d2m65c5bi1j21697t3ng","pricing_plan_id":"cebpf4jnsgd1na2vs0mg"},{"bike_id":"de82b562-ef4e-415e-b4e1-4df1af954a51","system_id":"levelo_inurba_marseille","lat":43.31178,"lon":5.38717,"is_reserved":false,"is_disabled":false,"rental_uris":{"android":"levelo://app?vid=de82b562-ef4e-415e-b4e1-4df1af954a51","ios":"levelo://app?vid=de82b562-ef4e-415e-b4e1-4df1af954a51"},"vehicle_type_id":"4","last_reported":1771331854,"current_range_meters":24800,"station_id":"ce4bgv12rcd13ifvqcp0","pricing_plan_id":"cebpf4jnsgd1na2vs0mg"},{"bike_id":"4bb71233-57bf-4a27-965d-d4172617903c","system_id":"levelo_inurba_marseille","lat":43.29975,"lon":5.38495,"is_reserved":false,"is_disabled":false,"rental_uris":{"android":"levelo://app?vid=4bb71233-57bf-4a27-965d-d4172617903c","ios":"levelo://app?vid=4bb71233-57bf-4a27-965d-d4172617903c"},"vehicle_type_id":"4","last_reported":1771331854,"current_range_meters":26000,"station_id":"ce4bgj92rcd13ifvqbd0","pricing_plan_id":"cebpf4jnsgd1na2vs0mg"},{"bike_id":"006cf2a1-197a-425f-a3f1-4650a020aac5","system_id":"levelo_inurba_marseille","lat":43.2655,"lon":5.37278,"is_reserved":false,"is_disabled":false,"rental_uris":{"android":"levelo://app?vid=006cf2a1-197a-425f-a3f1-4650a020aac5","ios":"levelo://app?vid=006cf2a1-197a-425f-a3f1-4650a020aac5"},"vehicle_type_id":"4","last_reported":1771331854,"current_range_meters":20000,"station_id":"ce4bhg12rcd13ifvqf70","pricing_plan_id":"cebpf4jnsgd1na2vs0mg"},{"bike_id":"263c78e2-d67d-4938-9a07-ff54401d1ab0","system_id":"levelo_inurba_marseille","lat":43.30142,"lon":5.3809,"is_reserved":false,"is_disabled":false,"rental_uris":{"android":"levelo://app?vid=263c78e2-d67d-4938-9a07-ff54401d1ab0","ios":"levelo://app?vid=263c78e2-d67d-4938-9a07-ff54401d1ab0"},"vehicle_type_id":"4","last_reported":1771331854,"current_range_meters":27200,"station_id":"ce4bgjp2rcd13ifvqbh0","pricing_plan_id":"cebpf4jnsgd1na2vs0mg"},{"bike_id":"c7fbcb26-f0c5-485b-bedf-94d07ace569a","system_id":"levelo_inurba_marseille","lat":43.26215,"lon":5.40452,"is_reserved":false,"is_disabled":false,"rental_uris":{"android":"levelo://app?vid=c7fbcb26-f0c5-485b-bedf-94d07ace569a","ios":"levelo://app?vid=c7fbcb26-f0c5-485b-bedf-94d07ace569a"},"vehicle_type_id":"4","last_reported":1771331854,"current_range_meters":31200,"station_id":"ce4bhmh2rcd13ifvqgmg","pricing_plan_id":"cebpf4jnsgd1na2vs0mg"},{"bike_id":"88f1f13a-b9f4-42bb-928f-bb3ba59d1110","system_id":"levelo_inurba_marseille","lat":43.2917,"lon":5.37126,"is_reserved":false,"is_disabled":false,"rental_uris":{"android":"levelo://app?vid=88f1f13a-b9f4-42bb-928f-bb3ba59d1110","ios":"levelo://app?vid=88f1f13a-b9f4-42bb-928f-bb3ba59d1110"},"vehicle_type_id":"4","last_reported":1771331854,"current_range_meters":27600,"station_id":"ce4bha92rcd13ifvqeh0","pricing_plan_id":"cebpf4jnsgd1na2vs0mg"},{"bike_id":"74f62393-4bd9-47e9-8d53-461792093662","system_id":"levelo_inurba_marseille","lat":43.2983,"lon":5.44031,"is_reserved":false,"is_disabled":false,"rental_uris":{"android":"levelo://app?vid=74f62393-4bd9-47e9-8d53-461792093662","ios":"levelo://app?vid=74f62393-4bd9-47e9-8d53-461792093662"},"vehicle_type_id":"4","last_reported":1771331854,"current_range_meters":8800,"station_id":"st_d3jp68qikq2c7381ktn0","pricing_plan_id":"cebpf4jnsgd1na2vs0mg"},{"bike_id":"2dda05e1-36b3-4782-b169-f1e392056b70","system_id":"levelo_inurba_marseille","lat":43.25006,"lon":5.38927,"is_reserved":false,"is_disabled":false,"rental_uris":{"android":"levelo://app?vid=2dda05e1-36b3-4782-b169-f1e392056b70","ios":"levelo://app?vid=2dda05e1-36b3-4782-b169-f1e392056b70"},"vehicle_type_id":"4","last_reported":1771331854,"current_range_meters":38800,"station_id":"ce4bhgp2rcd13ifvqfd0","pricing_plan_id":"cebpf4jnsgd1na2vs0mg"},{"bike_id":"fb4f2341-17da-41d8-a946-91d867026601","system_id":"levelo_inurba_marseille","lat":43.25347,"lon":5.42119,"is_reserved":false,"is_disabled":false,"rental_uris":{"android":"levelo://app?vid=fb4f2341-17da-41d8-a946-91d867026601","ios":"levelo://app?vid=fb4f2341-17da-41d8-a946-91d867026601"},"vehicle_type_id":"4","last_reported":1771331854,"current_range_meters":8400,"station_id":"st_d2m65c5bi1j21697t3ng","pricing_plan_id":"cebpf4jnsgd1na2vs0mg"},{"bike_id":"11502b9b-059f-4e71-a39e-1ba892a66fd9","system_id":"levelo_inurba_marseille","lat":43.29205,"lon":5.35765,"is_reserved":false,"is_disabled":false,"rental_uris":{"android":"levelo://app?vid=11502b9b-059f-4e71-a39e-1ba892a66fd9","ios":"levelo://app?vid=11502b9b-059f-4e71-a39e-1ba892a66fd9"},"vehicle_type_id":"4","last_reported":1771331854,"current_range_meters":6800,"station_id":"ce4bhb12rcd13ifvqel0","pricing_plan_id":"cebpf4jnsgd1na2vs0mg"},{"bike_id":"cef7774b-878b-416b-b1d6-eb1f955ce887","system_id":"levelo_inurba_marseille","lat":43.23186,"lon":5.35517,"is_reserved":false,"is_disabled":false,"rental_uris":{"android":"levelo://app?vid=cef7774b-878b-416b-b1d6-eb1f955ce887","ios":"levelo://app?vid=cef7774b-878b-416b-b1d6-eb1f955ce887"},"vehicle_type_id":"4","last_reported":1771331854,"current_range_meters":24400,"station_id":"ce4bhu92rcd13ifvqi70","pricing_plan_id":"cebpf4jnsgd1na2vs0mg"},{"bike_id":"3adb2fd6-b95a-4c33-9db6-1caa406d5f7a","system_id":"levelo_inurba_marseille","lat":43.30548,"lon":5.36531,"is_reserved":false,"is_disabled":false,"rental_uris":{"android":"levelo://app?vid=3adb2fd6-b95a-4c33-9db6-1caa406d5f7a","ios":"levelo://app?vid=3adb2fd6-b95a-4c33-9db6-1caa406d5f7a"},"vehicle_type_id":"4","last_reported":1771331854,"current_range_meters":15200,"station_id":"ce4bgs12rcd13ifvqcag","pricing_plan_id":"cebpf4jnsgd1na2vs0mg"},{"bike_id":"3984c2de-5886-4f20-95ec-6d885fe2c134","system_id":"levelo_inurba_marseille","lat":43.29567,"lon":5.37516,"is_reserved":false,"is_disabled":false,"rental_uris":{"android":"levelo://app?vid=3984c2de-5886-4f20-95ec-6d885fe2c134","ios":"levelo://app?vid=3984c2de-5886-4f20-95ec-6d885fe2c134"},"vehicle_type_id":"4","last_reported":1771331854,"current_range_meters":16000,"station_id":"ce4bgh92rcd13ifvqb50","pricing_plan_id":"cebpf4jnsgd1na2vs0mg"},{"bike_id":"dea81b39-0a04-4dbc-a7b7-ff6c3b39a219","system_id":"levelo_inurba_marseille","lat":43.299,"lon":5.3814,"is_reserved":false,"is_disabled":false,"rental_uris":{"android":"levelo://app?vid=dea81b39-0a04-4dbc-a7b7-ff6c3b39a219","ios":"levelo://app?vid=dea81b39-0a04-4dbc-a7b7-ff6c3b39a219"},"vehicle_type_id":"4","last_reported":1771331854,"current_range_meters":29600,"station_id":"ce4bgj12rcd13ifvqbc0","pricing_plan_id":"cebpf4jnsgd1na2vs0mg"},{"bike_id":"50bc4281-4f9f-4d4b-b5aa-514b80141d5a","system_id":"levelo_inurba_marseille","lat":43.29701,"lon":5.37715,"is_reserved":false,"is_disabled":false,"rental_uris":{"android":"levelo://app?vid=50bc4281-4f9f-4d4b-b5aa-514b80141d5a","ios":"levelo://app?vid=50bc4281-4f9f-4d4b-b5aa-514b80141d5a"},"vehicle_type_id":"4","last_reported":1771331854,"current_range_meters":35200,"station_id":"ce4bgkh2rcd13ifvqbl0","pricing_plan_id":"cebpf4jnsgd1na2vs0mg"},{"bike_id":"315475a1-d155-4161-aeff-0a4dbc80a0cc","system_id":"levelo_inurba_marseille","lat":43.33767,"lon":5.37432,"is_reserved":false,"is_disabled":false,"rental_uris":{"android":"levelo://app?vid=315475a1-d155-4161-aeff-0a4dbc80a0cc","ios":"levelo://app?vid=315475a1-d155-4161-aeff-0a4dbc80a0cc"},"vehicle_type_id":"4","last_reported":1771331854,"current_range_meters":24800,"station_id":"","pricing_plan_id":"cebpf4jnsgd1na2vs0mg"},{"bike_id":"6ec3984f-b611-400c-87fe-9657d00377eb","system_id":"levelo_inurba_marseille","lat":43.28498,"lon":5.38595,"is_reserved":false,"is_disabled":false,"rental_uris":{"android":"levelo://app?vid=6ec3984f-b611-400c-87fe-9657d00377eb","ios":"levelo://app?vid=6ec3984f-b611-400c-87fe-9657d00377eb"},"vehicle_type_id":"4","last_reported":1771331854,"current_range_meters":38000,"station_id":"ce4bh8p2rcd13ifvqeb0","pricing_plan_id":"cebpf4jnsgd1na2vs0mg"},{"bike_id":"bbc2134a-cfe4-409d-98b4-67c37d4a27a2","system_id":"levelo_inurba_marseille","lat":43.23163,"lon":5.43702,"is_reserved":false,"is_disabled":false,"rental_uris":{"android":"levelo://app?vid=bbc2134a-cfe4-409d-98b4-67c37d4a27a2","ios":"levelo://app?vid=bbc2134a-cfe4-409d-98b4-67c37d4a27a2"},"vehicle_type_id":"4","last_reported":1771331854,"current_range_meters":39200,"station_id":"ce4bhmp2rcd13ifvqgog","pricing_plan_id":"cebpf4jnsgd1na2vs0mg"},{"bike_id":"935f47f8-13e9-4a20-8821-b15e7f82cbca","system_id":"levelo_inurba_marseille","lat":43.240786,"lon":5.377505,"is_reserved":false,"is_disabled":false,"rental_uris":{"android":"levelo://app?vid=935f47f8-13e9-4a20-8821-b15e7f82cbca","ios":"levelo://app?vid=935f47f8-13e9-4a20-8821-b15e7f82cbca"},"vehicle_type_id":"4","last_reported":1771331854,"current_range_meters":38800,"station_id":"ce4bhnp2rcd13ifvqgvg","pricing_plan_id":"cebpf4jnsgd1na2vs0mg"},{"bike_id":"c635e8a8-207b-4c8c-b48d-ec88d6cc05fb","system_id":"levelo_inurba_marseille","lat":43.29034,"lon":5.37571,"is_reserved":false,"is_disabled":false,"rental_uris":{"android":"levelo://app?vid=c635e8a8-207b-4c8c-b48d-ec88d6cc05fb","ios":"levelo://app?vid=c635e8a8-207b-4c8c-b48d-ec88d6cc05fb"},"vehicle_type_id":"4","last_reported":1771331854,"current_range_meters":36400,"station_id":"ce4bh692rcd13ifvqe90","pricing_plan_id":"cebpf4jnsgd1na2vs0mg"},{"bike_id":"fff20921-d67f-4c3d-8da5-5370d4f6087b","system_id":"levelo_inurba_marseille","lat":43.26696,"lon":5.38244,"is_reserved":false,"is_disabled":false,"rental_uris":{"android":"levelo://app?vid=fff20921-d67f-4c3d-8da5-5370d4f6087b","ios":"levelo://app?vid=fff20921-d67f-4c3d-8da5-5370d4f6087b"},"vehicle_type_id":"4","last_reported":1771331854,"current_range_meters":32400,"station_id":"ce4bhg92rcd13ifvqf90","pricing_plan_id":"cebpf4jnsgd1na2vs0mg"},{"bike_id":"d7bde0f9-1e34-4064-9fcd-20ad812f4669","system_id":"levelo_inurba_marseille","lat":43.30308,"lon":5.36896,"is_reserved":false,"is_disabled":false,"rental_uris":{"android":"levelo://app?vid=d7bde0f9-1e34-4064-9fcd-20ad812f4669","ios":"levelo://app?vid=d7bde0f9-1e34-4064-9fcd-20ad812f4669"},"vehicle_type_id":"4","last_reported":1771331854,"current_range_meters":19200,"station_id":"ce4bgqh2rcd13ifvqc5g","pricing_plan_id":"cebpf4jnsgd1na2vs0mg"},{"bike_id":"49ceea54-2bf9-4609-b8ef-4f09f9adb8f2","system_id":"levelo_inurba_marseille","lat":43.2979,"lon":5.38088,"is_reserved":false,"is_disabled":false,"rental_uris":{"android":"levelo://app?vid=49ceea54-2bf9-4609-b8ef-4f09f9adb8f2","ios":"levelo://app?vid=49ceea54-2bf9-4609-b8ef-4f09f9adb8f2"},"vehicle_type_id":"4","last_reported":1771331854,"current_range_meters":39200,"station_id":"ce4bgip2rcd13ifvqbb0","pricing_plan_id":"cebpf4jnsgd1na2vs0mg"},{"bike_id":"0952ec5c-d6fb-4b4e-92d4-94388e825f67","system_id":"levelo_inurba_marseille","lat":43.26547,"lon":5.37295,"is_reserved":false,"is_disabled":false,"rental_uris":{"android":"levelo://app?vid=0952ec5c-d6fb-4b4e-92d4-94388e825f67","ios":"levelo://app?vid=0952ec5c-d6fb-4b4e-92d4-94388e825f67"},"vehicle_type_id":"4","last_reported":1771331854,"current_range_meters":33600,"station_id":"ce4bhg12rcd13ifvqf70","pricing_plan_id":"cebpf4jnsgd1na2vs0mg"},{"bike_id":"e612e287-da05-4d30-920f-548f72bd1aa1","system_id":"levelo_inurba_marseille","lat":43.31334,"lon":5.36775,"is_reserved":false,"is_disabled":false,"rental_uris":{"android":"levelo://app?vid=e612e287-da05-4d30-920f-548f72bd1aa1","ios":"levelo://app?vid=e612e287-da05-4d30-920f-548f72bd1aa1"},"vehicle_type_id":"4","last_reported":1771331854,"current_range_meters":32000,"station_id":"","pricing_plan_id":"cebpf4jnsgd1na2vs0mg"},{"bike_id":"130745ef-42ff-4a54-bd8d-9adebf765167","system_id":"levelo_inurba_marseille","lat":43.28924,"lon":5.38395,"is_reserved":false,"is_disabled":true,"rental_uris":{"android":"levelo://app?vid=130745ef-42ff-4a54-bd8d-9adebf765167","ios":"levelo://app?vid=130745ef-42ff-4a54-bd8d-9adebf765167"},"vehicle_type_id":"4","last_reported":1771331854,"current_range_meters":11600,"station_id":"ce4bh612rcd13ifvqe6g","pricing_plan_id":"cebpf4jnsgd1na2vs0mg"},{"bike_id":"97ccd086-36d4-4005-b689-fdea1c796e9d","system_id":"levelo_inurba_marseille","lat":43.303739,"lon":5.424854,"is_reserved":false,"is_disabled":false,"rental_uris":{"android":"levelo://app?vid=97ccd086-36d4-4005-b689-fdea1c796e9d","ios":"levelo://app?vid=97ccd086-36d4-4005-b689-fdea1c796e9d"},"vehicle_type_id":"4","last_reported":1771331854,"current_range_meters":19200,"station_id":"ce4bhoh2rcd13ifvqh6g","pricing_plan_id":"cebpf4jnsgd1na2vs0mg"},{"bike_id":"2a547b61-1d18-4fbf-b74b-442f2300bc98","system_id":"levelo_inurba_marseille","lat":43.31868,"lon":5.40732,"is_reserved":false,"is_disabled":false,"rental_uris":{"android":"levelo://app?vid=2a547b61-1d18-4fbf-b74b-442f2300bc98","ios":"levelo://app?vid=2a547b61-1d18-4fbf-b74b-442f2300bc98"},"vehicle_type_id":"4","last_reported":1771331854,"current_range_meters":38000,"station_id":"ce4bhq12rcd13ifvqhig","pricing_plan_id":"cebpf4jnsgd1na2vs0mg"},{"bike_id":"12a84d0e-0222-4c68-906d-319adf6672f1","system_id":"levelo_inurba_marseille","lat":43.29925,"lon":5.37481,"is_reserved":false,"is_disabled":false,"rental_uris":{"android":"levelo://app?vid=12a84d0e-0222-4c68-906d-319adf6672f1","ios":"levelo://app?vid=12a84d0e-0222-4c68-906d-319adf6672f1"},"vehicle_type_id":"4","last_reported":1771331854,"current_range_meters":26800,"station_id":"ce4bgjh2rcd13ifvqbg0","pricing_plan_id":"cebpf4jnsgd1na2vs0mg"},{"bike_id":"4df48a79-cc02-4250-87e4-b0c68630d2fc","system_id":"levelo_inurba_marseille","lat":43.31329,"lon":5.39709,"is_reserved":false,"is_disabled":false,"rental_uris":{"android":"levelo://app?vid=4df48a79-cc02-4250-87e4-b0c68630d2fc","ios":"levelo://app?vid=4df48a79-cc02-4250-87e4-b0c68630d2fc"},"vehicle_type_id":"4","last_reported":1771331854,"current_range_meters":28000,"station_id":"ce4bgvp2rcd13ifvqcu0","pricing_plan_id":"cebpf4jnsgd1na2vs0mg"},{"bike_id":"21a31800-85ef-4bb0-86fe-a24cfc337aea","system_id":"levelo_inurba_marseille","lat":43.27924,"lon":5.38642,"is_reserved":false,"is_disabled":false,"rental_uris":{"android":"levelo://app?vid=21a31800-85ef-4bb0-86fe-a24cfc337aea","ios":"levelo://app?vid=21a31800-85ef-4bb0-86fe-a24cfc337aea"},"vehicle_type_id":"4","last_reported":1771331854,"current_range_meters":18800,"station_id":"","pricing_plan_id":"cebpf4jnsgd1na2vs0mg"},{"bike_id":"201ebb61-86ea-4736-94db-1c85066470b3","system_id":"levelo_inurba_marseille","lat":43.31232,"lon":5.36896,"is_reserved":false,"is_disabled":false,"rental_uris":{"android":"levelo://app?vid=201ebb61-86ea-4736-94db-1c85066470b3","ios":"levelo://app?vid=201ebb61-86ea-4736-94db-1c85066470b3"},"vehicle_type_id":"4","last_reported":1771331854,"current_range_meters":20800,"station_id":"ce4bgl92rcd13ifvqbq0","pricing_plan_id":"cebpf4jnsgd1na2vs0mg"},{"bike_id":"2660992f-f57b-401c-b762-d59a00b36148","system_id":"levelo_inurba_marseille","lat":43.29658,"lon":5.37694,"is_reserved":false,"is_disabled":false,"rental_uris":{"android":"levelo://app?vid=2660992f-f57b-401c-b762-d59a00b36148","ios":"levelo://app?vid=2660992f-f57b-401c-b762-d59a00b36148"},"vehicle_type_id":"4","last_reported":1771331854,"current_range_meters":11600,"station_id":"ce4bgi92rcd13ifvqb90","pricing_plan_id":"cebpf4jnsgd1na2vs0mg"},