{"last_updated":1734505783,"ttl":60,"version":"2.2","data":{"bikes":[{"bike_id":"eff26a49-6cbb-420e-8576-f62ac1dc0d25","system_id":"levelo_inurba_marseille","lat":43.30969,"lon":5.37333,"is_reserved":false,"is_disabled":false,"rental_uris":{"android":"levelo://app?vid=eff26a49-6cbb-420e-8576-f62ac1dc0d25","ios":"levelo://app?vid=eff26a49-6cbb-420e-8576-f62ac1dc0d25"},"vehicle_type_id":"4","last_reported":1734505783,"current_range_meters":36800,"station_id":"","pricing_plan_id":"cebpf4jnsgd1na2vs0mg"},{"bike_id":"d08989b0-4c3a-4e63-bd45-bd35d216aab7","system_id":"levelo_inurba_marseille","lat":43.29625,"lon":5.40594,"is_reserved":false,"is_disabled":false,"rental_uris":{"android":"levelo://app?vid=d08989b0-4c3a-4e63-bd45-bd35d216aab7","ios":"levelo://app?vid=d08989b0-4c3a-4e63-bd45-bd35d216aab7"},"vehicle_type_id":"4","last_reported":1734505783,"current_range_meters":9600,"station_id":"ce4bh0h2rcd13ifvqd60","pricing_plan_id":"cebpf4jnsgd1na2vs0mg"},{"bike_id":"360c8721-12eb-4735-ac2d-4c0d0142f8ed","system_id":"levelo_inurba_marseille","lat":43.30426,"lon":5.39765,"is_reserved":false,"is_disabled":false,"rental_uris":{"android":"levelo://app?vid=360c8721-12eb-4735-ac2d-4c0d0142f8ed","ios":"levelo://app?vid=360c8721-12eb-4735-ac2d-4c0d0142f8ed"},"vehicle_type_id":"4","last_reported":1734505783,"current_range_meters":9600,"station_id":"ce4bh092rcd13ifvqd20","pricing_plan_id":"cebpf4jnsgd1na2vs0mg"},{"bike_id":"fdc4aa7e-d8bd-4951-b607-1f5288f2ac3f","system_id":"levelo_inurba_marseille","lat":43.24545,"lon":5.39522,"is_reserved":false,"is_disabled":false,"rental_uris":{"android":"levelo://app?vid=fdc4aa7e-d8bd-4951-b607-1f5288f2ac3f","ios":"levelo://app?vid=fdc4aa7e-d8bd-4951-b607-1f5288f2ac3f"},"vehicle_type_id":"4","last_reported":1734505783,"current_range_meters":31200,"station_id":"ce4bhlp2rcd13ifvqgjg","pricing_plan_id":"cebpf4jnsgd1na2vs0mg"},{"bike_id":"fc2fa04a-e722-4371-8749-69685a4b0890","system_id":"levelo_inurba_marseille","lat":43.25585,"lon":5.38228,"is_reserved":false,"is_disabled":false,"rental_uris":{"android":"levelo://app?vid=fc2fa04a-e722-4371-8749-69685a4b0890","ios":"levelo://app?vid=fc2fa04a-e722-4371-8749-69685a4b0890"},"vehicle_type_id":"4","last_reported":1734505783,"current_range_meters":39200,"station_id":"ce4bhih2rcd13ifvqfs0","pricing_plan_id":"cebpf4jnsgd1na2vs0mg"},{"bike_id":"ec708024-e2a3-4197-beea-607b03812d3c","system_id":"levelo_inurba_marseille","lat":43.2558,"lon":5.38248,"is_reserved":false,"is_disabled":false,"rental_uris":{"android":"levelo://app?vid=ec708024-e2a3-4197-beea-607b03812d3c","ios":"levelo://app?vid=ec708024-e2a3-4197-beea-607b03812d3c"},"vehicle_type_id":"4","last_reported":1734505783,"current_range_meters":39200,"station_id":"ce4bhih2rcd13ifvqfs0","pricing_plan_id":"cebpf4jnsgd1na2vs0mg"},{"bike_id":"cd25561c-d401-4b3a-a7fb-b9349ebb0daf","system_id":"levelo_inurba_marseille","lat":43.28082,"lon":5.38227,"is_reserved":false,"is_disabled":false,"rental_uris":{"android":"levelo://app?vid=cd25561c-d401-4b3a-a7fb-b9349ebb0daf","ios":"levelo://app?vid=cd25561c-d401-4b3a-a7fb-b9349ebb0daf"},"vehicle_type_id":"4","last_reported":1734505783,"current_range_meters":5600,"station_id":"ce4bh412rcd13ifvqdr0","pricing_plan_id":"cebpf4jnsgd1na2vs0mg"},{"bike_id":"b1b1f756-c1a0-4e66-8530-9c85602c1813","system_id":"levelo_inurba_marseille","lat":43.32353,"lon":5.36771,"is_reserved":false,"is_disabled":false,"rental_uris":{"android":"levelo://app?vid=b1b1f756-c1a0-4e66-8530-9c85602c1813","ios":"levelo://app?vid=b1b1f756-c1a0-4e66-8530-9c85602c1813"},"vehicle_type_id":"4","last_reported":1734505783,"current_range_meters":20400,"station_id":"ce4bhsh2rcd13ifvqi2g","pricing_plan_id":"cebpf4jnsgd1na2vs0mg"},{"bike_id":"657dd4a3-2abb-4049-9755-a3b8006ccbef","system_id":"levelo_inurba_marseille","lat":43.3095,"lon":5.39054,"is_reserved":false,"is_disabled":false,"rental_uris":{"android":"levelo://app?vid=657dd4a3-2abb-4049-9755-a3b8006ccbef","ios":"levelo://app?vid=657dd4a3-2abb-4049-9755-a3b8006ccbef"},"vehicle_type_id":"4","last_reported":1734505783,"current_range_meters":38800,"station_id":"ce4bgup2rcd13ifvqco0","pricing_plan_id":"cebpf4jnsgd1na2vs0mg"},{"bike_id":"5c9d787a-ed08-4f6d-aae6-50e448cf550d","system_id":"levelo_inurba_marseille","lat":43.26019,"lon":5.37549,"is_reserved":false,"is_disabled":false,"rental_uris":{"android":"levelo://app?vid=5c9d787a-ed08-4f6d-aae6-50e448cf550d","ios":"levelo://app?vid=5c9d787a-ed08-4f6d-aae6-50e448cf550d"},"vehicle_type_id":"4","last_reported":1734505783,"current_range_meters":32400,"station_id":"ce4bhgh2rcd13ifvqfa0","pricing_plan_id":"cebpf4jnsgd1na2vs0mg"},{"bike_id":"20358b83-225d-4ff6-8386-f5d7e4ace024","system_id":"levelo_inurba_marseille","lat":43.30012,"lon":5.37727,"is_reserved":false,"is_disabled":true,"rental_uris":{"android":"levelo://app?vid=20358b83-225d-4ff6-8386-f5d7e4ace024","ios":"levelo://app?vid=20358b83-225d-4ff6-8386-f5d7e4ace024"},"vehicle_type_id":"4","last_reported":1734505783,"current_range_meters":4400,"station_id":"","pricing_plan_id":"cebpf4jnsgd1na2vs0mg"},{"bike_id":"24142b96-8c53-4ae4-befe-86a89200ad73","system_id":"levelo_inurba_marseille","lat":43.27993,"lon":5.41669,"is_reserved":false,"is_disabled":false,"rental_uris":{"android":"levelo://app?vid=24142b96-8c53-4ae4-befe-86a89200ad73","ios":"levelo://app?vid=24142b96-8c53-4ae4-befe-86a89200ad73"},"vehicle_type_id":"4","last_reported":1734505783,"current_range_meters":30800,"station_id":"ce4bho12rcd13ifvqh1g","pricing_plan_id":"cebpf4jnsgd1na2vs0mg"},{"bike_id":"8098f367-9d6c-4224-aa81-3d69a12be71f","system_id":"levelo_inurba_marseille","lat":43.30591,"lon":5.39356,"is_reserved":false,"is_disabled":false,"rental_uris":{"android":"levelo://app?vid=8098f367-9d6c-4224-aa81-3d69a12be71f","ios":"levelo://app?vid=8098f367-9d6c-4224-aa81-3d69a12be71f"},"vehicle_type_id":"4","last_reported":1734505783,"current_range_meters":36400,"station_id":"ce4bh0p2rcd13ifvqd80","pricing_plan_id":"cebpf4jnsgd1na2vs0mg"},{"bike_id":"519a8516-c8bc-45c7-9f41-f5b8ab91c641","system_id":"levelo_inurba_marseille","lat":43.27495,"lon":5.42454,"is_reserved":false,"is_disabled":false,"rental_uris":{"android":"levelo://app?vid=519a8516-c8bc-45c7-9f41-f5b8ab91c641","ios":"levelo://app?vid=519a8516-c8bc-45c7-9f41-f5b8ab91c641"},"vehicle_type_id":"4","last_reported":1734505783,"current_range_meters":36400,"station_id":"ce4bhn92rcd13ifvqgrg","pricing_plan_id":"cebpf4jnsgd1na2vs0mg"},{"bike_id":"347e7c56-ddd3-4454-81e2-5bae8035b980","system_id":"levelo_inurba_marseille","lat":43.28709,"lon":5.37875,"is_reserved":false,"is_disabled":false,"rental_uris":{"android":"levelo://app?vid=347e7c56-ddd3-4454-81e2-5bae8035b980","ios":"levelo://app?vid=347e7c56-ddd3-4454-81e2-5bae8035b980"},"vehicle_type_id":"4","last_reported":1734505783,"current_range_meters":34000,"station_id":"ce4bh412rcd13ifvqdr0","pricing_plan_id":"cebpf4jnsgd1na2vs0mg"},{"bike_id":"4ef58d0d-8e30-4280-aa40-6d3ae5111f3b","system_id":"levelo_inurba_marseille","lat":43.30586,"lon":5.36923,"is_reserved":false,"is_disabled":false,"rental_uris":{"android":"levelo://app?vid=4ef58d0d-8e30-4280-aa40-6d3ae5111f3b","ios":"levelo://app?vid=4ef58d0d-8e30-4280-aa40-6d3ae5111f3b"},"vehicle_type_id":"4","last_reported":1734505783,"current_range_meters":35600,"station_id":"","pricing_plan_id":"cebpf4jnsgd1na2vs0mg"},{"bike_id":"9c4670ff-16f8-431b-a765-a851341fad40","system_id":"levelo_inurba_marseille","lat":43.27319,"lon":5.39093,"is_reserved":false,"is_disabled":true,"rental_uris":{"android":"levelo://app?vid=9c4670ff-16f8-431b-a765-a851341fad40","ios":"levelo://app?vid=9c4670ff-16f8-431b-a765-a851341fad40"},"vehicle_type_id":"4","last_reported":1734505783,"current_range_meters":9200,"station_id":"ce4bhgp2rcd13ifvqfe0","pricing_plan_id":"cebpf4jnsgd1na2vs0mg"},{"bike_id":"d41de47e-a45b-49e1-9d66-2c75e5054651","system_id":"levelo_inurba_marseille","lat":43.30852,"lon":5.38174,"is_reserved":false,"is_disabled":false,"rental_uris":{"android":"levelo://app?vid=d41de47e-a45b-49e1-9d66-2c75e5054651","ios":"levelo://app?vid=d41de47e-a45b-49e1-9d66-2c75e5054651"},"vehicle_type_id":"4","last_reported":1734505783,"current_range_meters":27200,"station_id":"","pricing_plan_id":"cebpf4jnsgd1na2vs0mg"},{"bike_id":"d003f1e2-007e-4501-9d30-d9401bc4b730","system_id":"levelo_inurba_marseille","lat":43.30167,"lon":5.38084,"is_reserved":false,"is_disabled":false,"rental_uris":{"android":"levelo://app?vid=d003f1e2-007e-4501-9d30-d9401bc4b730","ios":"levelo://app?vid=d003f1e2-007e-4501-9d30-d9401bc4b730"},"vehicle_type_id":"4","last_reported":1734505783,"current_range_meters":39200,"station_id":"ce4bgjp2rcd13ifvqbh0","pricing_plan_id":"cebpf4jnsgd1na2vs0mg"},{"bike_id":"52d85dce-660f-44dc-88c9-4a2b9b3b0749","system_id":"levelo_inurba_marseille","lat":43.31179,"lon":5.38721,"is_reserved":false,"is_disabled":false,"rental_uris":{"android":"levelo://app?vid=52d85dce-660f-44dc-88c9-4a2b9b3b0749","ios":"levelo://app?vid=52d85dce-660f-44dc-88c9-4a2b9b3b0749"},"vehicle_type_id":"4","last_reported":1734505783,"current_range_meters":4400,"station_id":"ce4bgv12rcd13ifvqcp0","pricing_plan_id":"cebpf4jnsgd1na2vs0mg"},{"bike_id":"bfe97e7b-6b0b-4bdc-83b9-1bac7752b9af","system_id":"levelo_inurba_marseille","lat":43.28852,"lon":5.35846,"is_reserved":false,"is_disabled":false,"rental_uris":{"android":"levelo://app?vid=bfe97e7b-6b0b-4bdc-83b9-1bac7752b9af","ios":"levelo://app?vid=bfe97e7b-6b0b-4bdc-83b9-1bac7752b9af"},"vehicle_type_id":"4","last_reported":1734505783,"current_range_meters":22400,"station_id":"ce4bhb12rcd13ifvqem0","pricing_plan_id":"cebpf4jnsgd1na2vs0mg"},{"bike_id":"bc3432f2-77a4-4d0c-9d48-af95742f3e61","system_id":"levelo_inurba_marseille","lat":43.25942,"lon":5.40898,"is_reserved":false,"is_disabled":false,"rental_uris":{"android":"levelo://app?vid=bc3432f2-77a4-4d0c-9d48-af95742f3e61","ios":"levelo://app?vid=bc3432f2-77a4-4d0c-9d48-af95742f3e61"},"vehicle_type_id":"4","last_reported":1734505783,"current_range_meters":16400,"station_id":"ce4bhm92rcd13ifvqglg","pricing_plan_id":"cebpf4jnsgd1na2vs0mg"},{"bike_id":"6f34c84a-5b9b-4b15-a658-a97da4b06271","system_id":"levelo_inurba_marseille","lat":43.33023,"lon":5.39036,"is_reserved":false,"is_disabled":false,"rental_uris":{"android":"levelo://app?vid=6f34c84a-5b9b-4b15-a658-a97da4b06271","ios":"levelo://app?vid=6f34c84a-5b9b-4b15-a658-a97da4b06271"},"vehicle_type_id":"4","last_reported":1734505783,"current_range_meters":19600,"station_id":"ce4bhr92rcd13ifvqhrg","pricing_plan_id":"cebpf4jnsgd1na2vs0mg"},{"bike_id":"a370136f-24ba-49c9-b4c9-f516ed7294b6","system_id":"levelo_inurba_marseille","lat":43.25031,"lon":5.38912,"is_reserved":false,"is_disabled":false,"rental_uris":{"android":"levelo://app?vid=a370136f-24ba-49c9-b4c9-f516ed7294b6","ios":"levelo://app?vid=a370136f-24ba-49c9-b4c9-f516ed7294b6"},"vehicle_type_id":"4","last_reported":1734505783,"current_range_meters":11200,"station_id":"ce4bhgp2rcd13ifvqfd0","pricing_plan_id":"cebpf4jnsgd1na2vs0mg"},{"bike_id":"aacc7da2-1446-4d2a-aa32-e804470fc32d","system_id":"levelo_inurba_marseille","lat":43.30913,"lon":5.40038,"is_reserved":false,"is_disabled":true,"rental_uris":{"android":"levelo://app?vid=aacc7da2-1446-4d2a-aa32-e804470fc32d","ios":"levelo://app?vid=aacc7da2-1446-4d2a-aa32-e804470fc32d"},"vehicle_type_id":"4","last_reported":1734505783,"current_range_meters":0,"station_id":"","pricing_plan_id":"cebpf4jnsgd1na2vs0mg"},{"bike_id":"937c90ec-cf04-465b-97b2-ee54435829e8","system_id":"levelo_inurba_marseille","lat":43.301974,"lon":5.366212,"is_reserved":false,"is_disabled":true,"rental_uris":{"android":"levelo://app?vid=937c90ec-cf04-465b-97b2-ee54435829e8","ios":"levelo://app?vid=937c90ec-cf04-465b-97b2-ee54435829e8"},"vehicle_type_id":"4","last_reported":1734505783,"current_range_meters":28000,"station_id":"","pricing_plan_id":"cebpf4jnsgd1na2vs0mg"},{"bike_id":"b4dfd6bc-4ad0-450e-8055-ba57544c45c3","system_id":"levelo_inurba_marseille","lat":43.2961,"lon":5.38104,"is_reserved":false,"is_disabled":false,"rental_uris":{"android":"levelo://app?vid=b4dfd6bc-4ad0-450e-8055-ba57544c45c3","ios":"levelo://app?vid=b4dfd6bc-4ad0-450e-8055-ba57544c45c3"},"vehicle_type_id":"4","last_reported":1734505783,"current_range_meters":26800,"station_id":"ce4bgl12rcd13ifvqbo0","pricing_plan_id":"cebpf4jnsgd1na2vs0mg"},{"bike_id":"0abeb132-cc34-4de6-a86d-a739c8ce0720","system_id":"levelo_inurba_marseille","lat":43.29032,"lon":5.39967,"is_reserved":false,"is_disabled":false,"rental_uris":{"android":"levelo://app?vid=0abeb132-cc34-4de6-a86d-a739c8ce0720","ios":"levelo://app?vid=0abeb132-cc34-4de6-a86d-a739c8ce0720"},"vehicle_type_id":"4","last_reported":1734505783,"current_range_meters":24000,"station_id":"ce4bh392rcd13ifvqdm0","pricing_plan_id":"cebpf4jnsgd1na2vs0mg"},{"bike_id":"124e6c05-4926-4207-84f5-da69a7334d60","system_id":"levelo_inurba_marseille","lat":43.29026,"lon":5.38144,"is_reserved":false,"is_disabled":true,"rental_uris":{"android":"levelo://app?vid=124e6c05-4926-4207-84f5-da69a7334d60","ios":"levelo://app?vid=124e6c05-4926-4207-84f5-da69a7334d60"},"vehicle_type_id":"4","last_reported":1734505783,"current_range_meters":36000,"station_id":"ce4bh4p2rcd13ifvqe1g","pricing_plan_id":"cebpf4jnsgd1na2vs0mg"},{"bike_id":"f7b6c8bc-16d3-4328-b351-7da1c93f2d74","system_id":"levelo_inurba_marseille","lat":43.3415,"lon":5.40906,"is_reserved":false,"is_disabled":false,"rental_uris":{"android":"levelo://app?vid=f7b6c8bc-16d3-4328-b351-7da1c93f2d74","ios":"levelo://app?vid=f7b6c8bc-16d3-4328-b351-7da1c93f2d74"},"vehicle_type_id":"4","last_reported":1734505783,"current_range_meters":36400,"station_id":"ce4bhq12rcd13ifvqhhg","pricing_plan_id":"cebpf4jnsgd1na2vs0mg"},{"bike_id":"b56c4a15-79b4-43a7-be93-f93d9975d6ed","system_id":"levelo_inurba_marseille","lat":43.26938,"lon":5.40249,"is_reserved":false,"is_disabled":false,"rental_uris":{"android":"levelo://app?vid=b56c4a15-79b4-43a7-be93-f93d9975d6ed","ios":"levelo://app?vid=b56c4a15-79b4-43a7-be93-f93d9975d6ed"},"vehicle_type_id":"4","last_reported":1734505783,"current_range_meters":11200,"station_id":"cjm6bp8fraef2m0cb0m0","pricing_plan_id":"cebpf4jnsgd1na2vs0mg"},{"bike_id":"fcbd1a5a-fb21-47fd-8672-99a9d807710a","system_id":"levelo_inurba_marseille","lat":43.23185,"lon":5.39976,"is_reserved":false,"is_disabled":true,"rental_uris":{"android":"levelo://app?vid=fcbd1a5a-fb21-47fd-8672-99a9d807710a","ios":"levelo://app?vid=fcbd1a5a-fb21-47fd-8672-99a9d807710a"},"vehicle_type_id":"4","last_reported":1734505783,"current_range_meters":0,"station_id":"ce4bhn12rcd13ifvqgqg","pricing_plan_id":"cebpf4jnsgd1na2vs0mg"},{"bike_id":"dc0e6df7-295d-4e62-8939-9c7a9d49b036","system_id":"levelo_inurba_marseille","lat":43.29954,"lon":5.41306,"is_reserved":false,"is_disabled":true,"rental_uris":{"android":"levelo://app?vid=dc0e6df7-295d-4e62-8939-9c7a9d49b036","ios":"levelo://app?vid=dc0e6df7-295d-4e62-8939-9c7a9d49b036"},"vehicle_type_id":"4","last_reported":1734505783,"current_range_meters":27200,"station_id":"ce4bhp12rcd13ifvqh9g","pricing_plan_id":"cebpf4jnsgd1na2vs0mg"},{"bike_id":"0a63bca6-39a0-42cf-bc8f-cd65c34f24df","system_id":"levelo_inurba_marseille","lat":43.24663,"lon":5.38955,"is_reserved":false,"is_disabled":false,"rental_uris":{"android":"levelo://app?vid=0a63bca6-39a0-42cf-bc8f-cd65c34f24df","ios":"levelo://app?vid=0a63bca6-39a0-42cf-bc8f-cd65c34f24df"},"vehicle_type_id":"4","last_reported":1734505783,"current_range_meters":38000,"station_id":"ce4bhg12rcd13ifvqf60","pricing_plan_id":"cebpf4jnsgd1na2vs0mg"},{"bike_id":"2491c714-f3f7-493b-9790-9992e16c8fb6","system_id":"levelo_inurba_marseille","lat":43.34182,"lon":5.40848,"is_reserved":false,"is_disabled":false,"rental_uris":{"android":"levelo://app?vid=2491c714-f3f7-493b-9790-9992e16c8fb6","ios":"levelo://app?vid=2491c714-f3f7-493b-9790-9992e16c8fb6"},"vehicle_type_id":"4","last_reported":1734505783,"current_range_meters":38800,"station_id":"ce4bhqh2rcd13ifvqhlg","pricing_plan_id":"cebpf4jnsgd1na2vs0mg"},{"bike_id":"ea1ee0a0-f240-4d25-84d9-e6fb6fc7a18c","system_id":"levelo_inurba_marseille","lat":43.33773,"lon":5.42093,"is_reserved":false,"is_disabled":true,"rental_uris":{"android":"levelo://app?vid=ea1ee0a0-f240-4d25-84d9-e6fb6fc7a18c","ios":"levelo://app?vid=ea1ee0a0-f240-4d25-84d9-e6fb6fc7a18c"},"vehicle_type_id":"4","last_reported":1734505783,"current_range_meters":0,"station_id":"","pricing_plan_id":"cebpf4jnsgd1na2vs0mg"},{"bike_id":"c8f79b9f-b6a3-42c1-83aa-cf20faccc3b4","system_id":"levelo_inurba_marseille","lat":43.26694,"lon":5.38272,"is_reserved":false,"is_disabled":true,"rental_uris":{"android":"levelo://app?vid=c8f79b9f-b6a3-42c1-83aa-cf20faccc3b4","ios":"levelo://app?vid=c8f79b9f-b6a3-42c1-83aa-cf20faccc3b4"},"vehicle_type_id":"4","last_reported":1734505783,"current_range_meters":38800,"station_id":"ce4bhg92rcd13ifvqf90","pricing_plan_id":"cebpf4jnsgd1na2vs0mg"},{"bike_id":"466ece3a-66f3-41fa-bf10-19f3bd6e70d0","system_id":"levelo_inurba_marseille","lat":43.29267,"lon":5.40145,"is_reserved":false,"is_disabled":false,"rental_uris":{"android":"levelo://app?vid=466ece3a-66f3-41fa-bf10-19f3bd6e70d0","ios":"levelo://app?vid=466ece3a-66f3-41fa-bf10-19f3bd6e70d0"},"vehicle_type_id":"4","last_reported":1734505783,"current_range_meters":22800,"station_id":"ce4bh312rcd13ifvqdk0","pricing_plan_id":"cebpf4jnsgd1na2vs0mg"},{"bike_id":"5122ccc0-98d4-4210-8ad7-5ded61df9bf6","system_id":"levelo_inurba_marseille","lat":43.3045,"lon":5.37895,"is_reserved":false,"is_disabled":false,"rental_uris":{"android":"levelo://app?vid=5122ccc0-98d4-4210-8ad7-5ded61df9bf6","ios":"levelo://app?vid=5122ccc0-98d4-4210-8ad7-5ded61df9bf6"},"vehicle_type_id":"4","last_reported":1734505783,"current_range_meters":38000,"station_id":"ce4bgup2rcd13ifvqcn0","pricing_plan_id":"cebpf4jnsgd1na2vs0mg"},{"bike_id":"ef00e13f-569a-41fd-b53e-49adca3b054e","system_id":"levelo_inurba_marseille","lat":43.27491,"lon":5.42452,"is_reserved":false,"is_disabled":false,"rental_uris":{"android":"levelo://app?vid=ef00e13f-569a-41fd-b53e-49adca3b054e","ios":"levelo://app?vid=ef00e13f-569a-41fd-b53e-49adca3b054e"},"vehicle_type_id":"4","last_reported":1734505783,"current_range_meters":38800,"station_id":"ce4bhn92rcd13ifvqgrg","pricing_plan_id":"cebpf4jnsgd1na2vs0mg"},{"bike_id":"2b9e5232-81d0-497c-a52e-1e7fea60b29a","system_id":"levelo_inurba_marseille","lat":43.32385,"lon":5.38915,"is_reserved":false,"is_disabled":false,"rental_uris":{"android":"levelo://app?vid=2b9e5232-81d0-497c-a52e-1e7fea60b29a","ios":"levelo://app?vid=2b9e5232-81d0-497c-a52e-1e7fea60b29a"},"vehicle_type_id":"4","last_reported":1734505783,"current_range_meters":25600,"station_id":"ce4bhqp2rcd13ifvqhog","pricing_plan_id":"cebpf4jnsgd1na2vs0mg"},{"bike_id":"19033af1-e626-47e5-9e0d-834232a7a58f","system_id":"levelo_inurba_marseille","lat":43.2895,"lon":5.36643,"is_reserved":false,"is_disabled":true,"rental_uris":{"android":"levelo://app?vid=19033af1-e626-47e5-9e0d-834232a7a58f","ios":"levelo://app?vid=19033af1-e626-47e5-9e0d-834232a7a58f"},"vehicle_type_id":"4","last_reported":1734505783,"current_range_meters":0,"station_id":"ce4bhap2rcd13ifvqek0","pricing_plan_id":"cebpf4jnsgd1na2vs0mg"},{"bike_id":"fdae6994-2b52-4fd0-8d8f-e92f1ee91c77","system_id":"levelo_inurba_marseille","lat":43.284592,"lon":5.358887,"is_reserved":false,"is_disabled":false,"rental_uris":{"android":"levelo://app?vid=fdae6994-2b52-4fd0-8d8f-e92f1ee91c77","ios":"levelo://app?vid=fdae6994-2b52-4fd0-8d8f-e92f1ee91c77"},"vehicle_type_id":"4","last_reported":1734505783,"current_range_meters":28400,"station_id":"ce4bhah2rcd13ifvqei0","pricing_plan_id":"cebpf4jnsgd1na2vs0mg"},{"bike_id":"d5bb5233-5c13-4106-a5af-af43f6e0c448","system_id":"levelo_inurba_marseille","lat":43.31357,"lon":5.38495,"is_reserved":false,"is_disabled":false,"rental_uris":{"android":"levelo://app?vid=d5bb5233-5c13-4106-a5af-af43f6e0c448","ios":"levelo://app?vid=d5bb5233-5c13-4106-a5af-af43f6e0c448"},"vehicle_type_id":"4","last_reported":1734505783,"current_range_meters":37600,"station_id":"ce4bgt92rcd13ifvqcf0","pricing_plan_id":"cebpf4jnsgd1na2vs0mg"},{"bike_id":"38f20744-af43-4445-b9c5-a52798357518","system_id":"levelo_inurba_marseille","lat":43.254936,"lon":5.376494,"is_reserved":false,"is_disabled":false,"rental_uris":{"android":"levelo://app?vid=38f20744-af43-4445-b9c5-a52798357518","ios":"levelo://app?vid=38f20744-af43-4445-b9c5-a52798357518"},"vehicle_type_id":"4","last_reported":1734505783,"current_range_meters":36400,"station_id":"ce4bhh12rcd13ifvqff0","pricing_plan_id":"cebpf4jnsgd1na2vs0mg"},{"bike_id":"e1d7ff9b-31d9-4501-9316-ba4675c60747","system_id":"levelo_inurba_marseille","lat":43.29633,"lon":5.40592,"is_reserved":false,"is_disabled":false,"rental_uris":{"android":"levelo://app?vid=e1d7ff9b-31d9-4501-9316-ba4675c60747","ios":"levelo://app?vid=e1d7ff9b-31d9-4501-9316-ba4675c60747"},"vehicle_type_id":"4","last_reported":1734505783,"current_range_meters":16400,"station_id":"ce4bh0h2rcd13ifvqd60","pricing_plan_id":"cebpf4jnsgd1na2vs0mg"},{"bike_id":"a1af9892-dc3c-4f59-ae1f-9263ae840179","system_id":"levelo_inurba_marseille","lat":43.30425,"lon":5.38898,"is_reserved":false,"is_disabled":false,"rental_uris":{"android":"levelo://app?vid=a1af9892-dc3c-4f59-ae1f-9263ae840179","ios":"levelo://app?vid=a1af9892-dc3c-4f59-ae1f-9263ae840179"},"vehicle_type_id":"4","last_reported":1734505783,"current_range_meters":36000,"station_id":"ce4bgk12rcd13ifvqbi0","pricing_plan_id":"cebpf4jnsgd1na2vs0mg"},{"bike_id":"ff4bbd43-e161-459e-b479-373182bfdf2f","system_id":"levelo_inurba_marseille","lat":43.31073,"lon":5.37708,"is_reserved":false,"is_disabled":false,"rental_uris":{"android":"levelo://app?vid=ff4bbd43-e161-459e-b479-373182bfdf2f","ios":"levelo://app?vid=ff4bbd43-e161-459e-b479-373182bfdf2f"},"vehicle_type_id":"4","last_reported":1734505783,"current_range_meters":8800,"station_id":"","pricing_plan_id":"cebpf4jnsgd1na2vs0mg"},{"bike_id":"f2feff4c-28ba-468f-a6dd-9bfdf1705106","system_id":"levelo_inurba_marseille","lat":43.275742,"lon":5.384199,"is_reserved":false,"is_disabled":false,"rental_uris":{"android":"levelo://app?vid=f2feff4c-28ba-468f-a6dd-9bfdf1705106","ios":"levelo://app?vid=f2feff4c-28ba-468f-a6dd-9bfdf1705106"},"vehicle_type_id":"4","last_reported":1734505783,"current_range_meters":38800,"station_id":"ce4bhh92rcd13ifvqfi0","pricing_plan_id":"cebpf4jnsgd1na2vs0mg"},{"bike_id":"5e92ecb3-11f8-486e-b871-ed378b8cfd18","system_id":"levelo_inurba_marseille","lat":43.31265,"lon":5.40184,"is_reserved":false,"is_disabled":false,"rental_uris":{"android":"levelo://app?vid=5e92ecb3-11f8-486e-b871-ed378b8cfd18","ios":"levelo://app?vid=5e92ecb3-11f8-486e-b871-ed378b8cfd18"},"vehicle_type_id":"4","last_reported":1734505783,"current_range_meters":12400,"station_id":"ce4bh092rcd13ifvqd30","pricing_plan_id":"cebpf4jnsgd1na2vs0mg"},{"bike_id":"86c83bcb-399d-43cb-a4b5-54e53dfd94eb","system_id":"levelo_inurba_marseille","lat":43.30529,"lon":5.36698,"is_reserved":false,"is_disabled":false,"rental_uris":{"android":"levelo://app?vid=86c83bcb-399d-43cb-a4b5-54e53dfd94eb","ios":"levelo://app?vid=86c83bcb-399d-43cb-a4b5-54e53dfd94eb"},"vehicle_type_id":"4","last_reported":1734505783,"current_range_meters":28400,"station_id":"ce4bgrp2rcd13ifvqc9g","pricing_plan_id":"cebpf4jnsgd1na2vs0mg"},{"bike_id":"45b39e50-137b-40ed-8099-af5b128ed6d9","system_id":"levelo_inurba_marseille","lat":43.29548,"lon":5.42287,"is_reserved":false,"is_disabled":false,"rental_uris":{"android":"levelo://app?vid=45b39e50-137b-40ed-8099-af5b128ed6d9","ios":"levelo://app?vid=45b39e50-137b-40ed-8099-af5b128ed6d9"},"vehicle_type_id":"4","last_reported":1734505783,"current_range_meters":18800,"station_id":"ce4bhph2rcd13ifvqhdg","pricing_plan_id":"cebpf4jnsgd1na2vs0mg"},{"bike_id":"29178437-6c99-4660-97f8-8e869a8bd3ad","system_id":"levelo_inurba_marseille","lat":43.29555,"lon":5.4229,"is_reserved":false,"is_disabled":false,"rental_uris":{"android":"levelo://app?vid=29178437-6c99-4660-97f8-8e869a8bd3ad","ios":"levelo://app?vid=29178437-6c99-4660-97f8-8e869a8bd3ad"},"vehicle_type_id":"4","last_reported":1734505783,"current_range_meters":38800,"station_id":"ce4bhph2rcd13ifvqhdg","pricing_plan_id":"cebpf4jnsgd1na2vs0mg"},{"bike_id":"77b045ec-31af-4db4-b5a1-524f94c3c261","system_id":"levelo_inurba_marseille","lat":43.29305,"lon":5.37444,"is_reserved":false,"is_disabled":true,"rental_uris":{"android":"levelo://app?vid=77b045ec-31af-4db4-b5a1-524f94c3c261","ios":"levelo://app?vid=77b045ec-31af-4db4-b5a1-524f94c3c261"},"vehicle_type_id":"4","last_reported":1734505783,"current_range_meters":32000,"station_id":"ce4bgi12rcd13ifvqb70","pricing_plan_id":"cebpf4jnsgd1na2vs0mg"},{"bike_id":"b0173956-1684-4b42-9ac5-58496038cfda","system_id":"levelo_inurba_marseille","lat":43.298,"lon":5.38103,"is_reserved":false,"is_disabled":false,"rental_uris":{"android":"levelo://app?vid=b0173956-1684-4b42-9ac5-58496038cfda","ios":"levelo://app?vid=b0173956-1684-4b42-9ac5-58496038cfda"},"vehicle_type_id":"4","last_reported":1734505783,"current_range_meters":26000,"station_id":"ce4bgip2rcd13ifvqbb0","pricing_plan_id":"cebpf4jnsgd1na2vs0mg"},{"bike_id":"8655aa0d-7bd0-4520-898a-5144c28d036b","system_id":"levelo_inurba_marseille","lat":43.3153,"lon":5.38028,"is_reserved":false,"is_disabled":false,"rental_uris":{"android":"levelo://app?vid=8655aa0d-7bd0-4520-898a-5144c28d036b","ios":"levelo://app?vid=8655aa0d-7bd0-4520-898a-5144c28d036b"},"vehicle_type_id":"4","last_reported":1734505783,"current_range_meters":38000,"station_id":"ce4bhsp2rcd13ifvqi50","pricing_plan_id":"cebpf4jnsgd1na2vs0mg"},{"bike_id":"17ac6964-4458-4245-838c-f8ac185a5ca7","system_id":"levelo_inurba_marseille","lat":43.27497,"lon":5.42456,"is_reserved":false,"is_disabled":false,"rental_uris":{"android":"levelo://app?vid=17ac6964-4458-4245-838c-f8ac185a5ca7","ios":"levelo://app?vid=17ac6964-4458-4245-838c-f8ac185a5ca7"},"vehicle_type_id":"4","last_reported":1734505783,"current_range_meters":31200,"station_id":"ce4bhn92rcd13ifvqgrg","pricing_plan_id":"cebpf4jnsgd1na2vs0mg"},{"bike_id":"2bf4c27f-73f1-47b0-882f-c1c6ceb171f4","system_id":"levelo_inurba_marseille","lat":43.24044,"lon":5.37684,"is_reserved":false,"is_disabled":false,"rental_uris":{"android":"levelo://app?vid=2bf4c27f-73f1-47b0-882f-c1c6ceb171f4","ios":"levelo://app?vid=2bf4c27f-73f1-47b0-882f-c1c6ceb171f4"},"vehicle_type_id":"4","last_reported":1734505783,"current_range_meters":38800,"station_id":"ce4bhnp2rcd13ifvqgvg","pricing_plan_id":"cebpf4jnsgd1na2vs0mg"},{"bike_id":"11de44e4-fb7b-4b95-8378-6a52a6f6b88e","system_id":"levelo_inurba_marseille","lat":43.29003,"lon":5.35606,"is_reserved":false,"is_disabled":false,"rental_uris":{"android":"levelo://app?vid=11de44e4-fb7b-4b95-8378-6a52a6f6b88e","ios":"levelo://app?vid=11de44e4-fb7b-4b95-8378-6a52a6f6b88e"},"vehicle_type_id":"4","last_reported":1734505783,"current_range_meters":38800,"station_id":"ce4bhb92rcd13ifvqen0","pricing_plan_id":"cebpf4jnsgd1na2vs0mg"},{"bike_id":"72492ff3-d3e5-4b81-822b-1d3357339451","system_id":"levelo_inurba_marseille","lat":43.29286,"lon":5.40134,"is_reserved":false,"is_disabled":false,"rental_uris":{"android":"levelo://app?vid=72492ff3-d3e5-4b81-822b-1d3357339451","ios":"levelo://app?vid=72492ff3-d3e5-4b81-822b-1d3357339451"},"vehicle_type_id":"4","last_reported":1734505783,"current_range_meters":38000,"station_id":"ce4bh312rcd13ifvqdk0","pricing_plan_id":"cebpf4jnsgd1na2vs0mg"},{"bike_id":"8d6e851f-84f0-48c2-a59c-78bb8e5317c1","system_id":"levelo_inurba_marseille","lat":43.23199,"lon":5.35553,"is_reserved":false,"is_disabled":false,"rental_uris":{"android":"levelo://app?vid=8d6e851f-84f0-48c2-a59c-78bb8e5317c1","ios":"levelo://app?vid=8d6e851f-84f0-48c2-a59c-78bb8e5317c1"},"vehicle_type_id":"4","last_reported":1734505783,"current_range_meters":6000,"station_id":"ce4bhu92rcd13ifvqi70","pricing_plan_id":"cebpf4jnsgd1na2vs0mg"},{"bike_id":"4e903476-26ee-4c32-806f-26a87ba3a549","system_id":"levelo_inurba_marseille","lat":43.29407,"lon":5.38641,"is_reserved":false,"is_disabled":true,"rental_uris":{"android":"levelo://app?vid=4e903476-26ee-4c32-806f-26a87ba3a549","ios":"levelo://app?vid=4e903476-26ee-4c32-806f-26a87ba3a549"},"vehicle_type_id":"4","last_reported":1734505783,"current_range_meters":0,"station_id":"ce4bh2h2rcd13ifvqdh0","pricing_plan_id":"cebpf4jnsgd1na2vs0mg"},{"bike_id":"91b92c50-f39d-4d25-9b5c-11a9b35be263","system_id":"levelo_inurba_marseille","lat":43.30589,"lon":5.39359,"is_reserved":false,"is_disabled":true,"rental_uris":{"android":"levelo://app?vid=91b92c50-f39d-4d25-9b5c-11a9b35be263","ios":"levelo://app?vid=91b92c50-f39d-4d25-9b5c-11a9b35be263"},"vehicle_type_id":"4","last_reported":1734505783,"current_range_meters":2000,"station_id":"ce4bh0p2rcd13ifvqd80","pricing_plan_id":"cebpf4jnsgd1na2vs0mg"},{"bike_id":"2d4d5abc-d3bf-4201-979e-1a90a2f0cb7a","system_id":"levelo_inurba_marseille","lat":43.3043,"lon":5.38896,"is_reserved":false,"is_disabled":false,"rental_uris":{"android":"levelo://app?vid=2d4d5abc-d3bf-4201-979e-1a90a2f0cb7a","ios":"levelo://app?vid=2d4d5abc-d3bf-4201-979e-1a90a2f0cb7a"},"vehicle_type_id":"4","last_reported":1734505783,"current_range_meters":32000,"station_id":"ce4bgk12rcd13ifvqbi0","pricing_plan_id":"cebpf4jnsgd1na2vs0mg"},{"bike_id":"06d38db3-64d0-4378-ab42-cd228158e682","system_id":"levelo_inurba_marseille","lat":43.289399,"lon":5.366436,"is_reserved":false,"is_disabled":false,"rental_uris":{"android":"levelo://app?vid=06d38db3-64d0-4378-ab42-cd228158e682","ios":"levelo://app?vid=06d38db3-64d0-4378-ab42-cd228158e682"},"vehicle_type_id":"4","last_reported":1734505783,"current_range_meters":27200,"station_id":"ce4bhap2rcd13ifvqek0","pricing_plan_id":"cebpf4jnsgd1na2vs0mg"},{"bike_id":"775bab84-1090-4c21-941f-9ecf24ee65ff","system_id":"levelo_inurba_marseille","lat":43.30585,"lon":5.39354,"is_reserved":false,"is_disabled":false,"rental_uris":{"android":"levelo://app?vid=775bab84-1090-4c21-941f-9ecf24ee65ff","ios":"levelo://app?vid=775bab84-1090-4c21-941f-9ecf24ee65ff"},"vehicle_type_id":"4","last_reported":1734505783,"current_range_meters":38800,"station_id":"ce4bh0p2rcd13ifvqd80","pricing_plan_id":"cebpf4jnsgd1na2vs0mg"},{"bike_id":"a47a812b-8479-4dbf-a984-c261870d3f1a","system_id":"levelo_inurba_marseille","lat":43.32464,"lon":5.36563,"is_reserved":false,"is_disabled":false,"rental_uris":{"android":"levelo://app?vid=a47a812b-8479-4dbf-a984-c261870d3f1a","ios":"levelo://app?vid=a47a812b-8479-4dbf-a984-c261870d3f1a"},"vehicle_type_id":"4","last_reported":1734505783,"current_range_meters":33200,"station_id":"ce4bhs12rcd13ifvqhvg","pricing_plan_id":"cebpf4jnsgd1na2vs0mg"},{"bike_id":"399886e1-1fd8-45ef-b9a3-f32444b7db24","system_id":"levelo_inurba_marseille","lat":43.27321,"lon":5.39094,"is_reserved":false,"is_disabled":true,"rental_uris":{"android":"levelo://app?vid=399886e1-1fd8-45ef-b9a3-f32444b7db24","ios":"levelo://app?vid=399886e1-1fd8-45ef-b9a3-f32444b7db24"},"vehicle_type_id":"4","last_reported":1734505783,"current_range_meters":16000,"station_id":"ce4bhgp2rcd13ifvqfe0","pricing_plan_id":"cebpf4jnsgd1na2vs0mg"},{"bike_id":"7682968a-7389-4de1-8f9a-031d84c2ce3f","system_id":"levelo_inurba_marseille","lat":43.31351,"lon":5.36709,"is_reserved":false,"is_disabled":false,"rental_uris":{"android":"levelo://app?vid=7682968a-7389-4de1-8f9a-031d84c2ce3f","ios":"levelo://app?vid=7682968a-7389-4de1-8f9a-031d84c2ce3f"},"vehicle_type_id":"4","last_reported":1734505783,"current_range_meters":32000,"station_id":"ce4bgr92rcd13ifvqc6g","pricing_plan_id":"cebpf4jnsgd1na2vs0mg"},{"bike_id":"f5dc6b17-f0d8-4403-a504-cba9134a6889","system_id":"levelo_inurba_marseille","lat":43.33612,"lon":5.41025,"is_reserved":false,"is_disabled":true,"rental_uris":{"android":"levelo://app?vid=f5dc6b17-f0d8-4403-a504-cba9134a6889","ios":"levelo://app?vid=f5dc6b17-f0d8-4403-a504-cba9134a6889"},"vehicle_type_id":"4","last_reported":1734505783,"current_range_meters":1600,"station_id":"ce4bhqh2rcd13ifvqhmg","pricing_plan_id":"cebpf4jnsgd1na2vs0mg"},{"bike_id":"9526e851-7e0e-434c-ba06-920453bf466d","system_id":"levelo_inurba_marseille","lat":43.27054,"lon":5.40258,"is_reserved":false,"is_disabled":false,"rental_uris":{"android":"levelo://app?vid=9526e851-7e0e-434c-ba06-920453bf466d","ios":"levelo://app?vid=9526e851-7e0e-434c-ba06-920453bf466d"},"vehicle_type_id":"4","last_reported":1734505783,"current_range_meters":20800,"station_id":"ce4bhk92rcd13ifvqgc0","pricing_plan_id":"cebpf4jnsgd1na2vs0mg"},{"bike_id":"c3a7b81e-64f2-41bc-a4b8-782538841a1a","system_id":"levelo_inurba_marseille","lat":43.24075,"lon":5.37764,"is_reserved":false,"is_disabled":false,"rental_uris":{"android":"levelo://app?vid=c3a7b81e-64f2-41bc-a4b8-782538841a1a","ios":"levelo://app?vid=c3a7b81e-64f2-41bc-a4b8-782538841a1a"},"vehicle_type_id":"4","last_reported":1734505783,"current_range_meters":19600,"station_id":"ce4bhnp2rcd13ifvqgvg","pricing_plan_id":"cebpf4jnsgd1na2vs0mg"},{"bike_id":"782bcbf2-b7de-4b04-bebc-aaa0329dd90c","system_id":"levelo_inurba_marseille","lat":43.2319,"lon":5.35556,"is_reserved":false,"is_disabled":false,"rental_uris":{"android":"levelo://app?vid=782bcbf2-b7de-4b04-bebc-aaa0329dd90c","ios":"levelo://app?vid=782bcbf2-b7de-4b04-bebc-aaa0329dd90c"},"vehicle_type_id":"4","last_reported":1734505783,"current_range_meters":39200,"station_id":"ce4bhu92rcd13ifvqi70","pricing_plan_id":"cebpf4jnsgd1na2vs0mg"},{"bike_id":"a925316d-9d31-43b0-a430-5cb1bef87372","system_id":"levelo_inurba_marseille","lat":43.271776,"lon":5.409931,"is_reserved":false,"is_disabled":false,"rental_uris":{"android":"levelo://app?vid=a925316d-9d31-43b0-a430-5cb1bef87372","ios":"levelo://app?vid=a925316d-9d31-43b0-a430-5cb1bef87372"},"vehicle_type_id":"4","last_reported":1734505783,"current_range_meters":20400,"station_id":"ce4bhl12rcd13ifvqgf0","pricing_plan_id":"cebpf4jnsgd1na2vs0mg"},{"bike_id":"540c19ab-e8ac-4092-909b-c3e5069b6978","system_id":"levelo_inurba_marseille","lat":43.337444,"lon":5.374475,"is_reserved":false,"is_disabled":true,"rental_uris":{"android":"levelo://app?vid=540c19ab-e8ac-4092-909b-c3e5069b6978","ios":"levelo://app?vid=540c19ab-e8ac-4092-909b-c3e5069b6978"},"vehicle_type_id":"4","last_reported":1734505783,"current_range_meters":0,"station_id":"","pricing_plan_id":"cebpf4jnsgd1na2vs0mg"},{"bike_id":"2e2f4411-10a6-4ea8-80ca-997a29df7bda","system_id":"levelo_inurba_marseille","lat":43.29792,"lon":5.38124,"is_reserved":false,"is_disabled":false,"rental_uris":{"android":"levelo://app?vid=2e2f4411-10a6-4ea8-80ca-997a29df7bda","ios":"levelo://app?vid=2e2f4411-10a6-4ea8-80ca-997a29df7bda"},"vehicle_type_id":"4","last_reported":1734505783,"current_range_meters":25600,"station_id":"ce4bgip2rcd13ifvqbb0","pricing_plan_id":"cebpf4jnsgd1na2vs0mg"},{"bike_id":"4590026f-4d8e-4294-8f2a-8d70931cbcb5","system_id":"levelo_inurba_marseille","lat":43.28482,"lon":5.38419,"is_reserved":false,"is_disabled":true,"rental_uris":{"android":"levelo://app?vid=4590026f-4d8e-4294-8f2a-8d70931cbcb5","ios":"levelo://app?vid=4590026f-4d8e-4294-8f2a-8d70931cbcb5"},"vehicle_type_id":"4","last_reported":1734505783,"current_range_meters":34000,"station_id":"ce4bh512rcd13ifvqe3g","pricing_plan_id":"cebpf4jnsgd1na2vs0mg"},{"bike_id":"0e853b40-5ab0-423f-9897-613da707d815","system_id":"levelo_inurba_marseille","lat":43.27819,"lon":5.40712,"is_reserved":false,"is_disabled":false,"rental_uris":{"android":"levelo://app?vid=0e853b40-5ab0-423f-9897-613da707d815","ios":"levelo://app?vid=0e853b40-5ab0-423f-9897-613da707d815"},"vehicle_type_id":"4","last_reported":1734505783,"current_range_meters":7200,"station_id":"ce4bhnh2rcd13ifvqgtg","pricing_plan_id":"cebpf4jnsgd1na2vs0mg"},{"bike_id":"99b91171-fdca-426c-9c5c-0f1db2efdad6","system_id":"levelo_inurba_marseille","lat":43.2782,"lon":5.40724,"is_reserved":false,"is_disabled":false,"rental_uris":{"android":"levelo://app?vid=99b91171-fdca-426c-9c5c-0f1db2efdad6","ios":"levelo://app?vid=99b91171-fdca-426c-9c5c-0f1db2efdad6"},"vehicle_type_id":"4","last_reported":1734505783,"current_range_meters":36000,"station_id":"ce4bhnh2rcd13ifvqgtg","pricing_plan_id":"cebpf4jnsgd1na2vs0mg"},{"bike_id":"c7da1075-933d-4d2e-bbd3-bef1df126898","system_id":"levelo_inurba_marseille","lat":43.2927,"lon":5.36853,"is_reserved":false,"is_disabled":false,"rental_uris":{"android":"levelo://app?vid=c7da1075-933d-4d2e-bbd3-bef1df126898","ios":"levelo://app?vid=c7da1075-933d-4d2e-bbd3-bef1df126898"},"vehicle_type_id":"4","last_reported":1734505783,"current_range_meters":18000,"station_id":"ce4bhbp2rcd13ifvqesg","pricing_plan_id":"cebpf4jnsgd1na2vs0mg"},{"bike_id":"9d734dbe-a097-413e-b708-0cec268d6fd0","system_id":"levelo_inurba_marseille","lat":43.2418,"lon":5.39723,"is_reserved":false,"is_disabled":true,"rental_uris":{"android":"levelo://app?vid=9d734dbe-a097-413e-b708-0cec268d6fd0","ios":"levelo://app?vid=9d734dbe-a097-413e-b708-0cec268d6fd0"},"vehicle_type_id":"4","last_reported":1734505783,"current_range_meters":0,"station_id":"ce4bhn12rcd13ifvqgpg","pricing_plan_id":"cebpf4jnsgd1na2vs0mg"},{"bike_id":"1d6dcc0e-f468-4132-ba8f-7107eb59330b","system_id":"levelo_inurba_marseille","lat":43.30211,"lon":5.39463,"is_reserved":false,"is_disabled":false,"rental_uris":{"android":"levelo://app?vid=1d6dcc0e-f468-4132-ba8f-7107eb59330b","ios":"levelo://app?vid=1d6dcc0e-f468-4132-ba8f-7107eb59330b"},"vehicle_type_id":"4","last_reported":1734505783,"current_range_meters":29600,"station_id":"ce4bh0p2rcd13ifvqd70","pricing_plan_id":"cebpf4jnsgd1na2vs0mg"},{"bike_id":"47f7db02-ff86-46bf-b8dc-c30068ec1d78","system_id":"levelo_inurba_marseille","lat":43.30459,"lon":5.37895,"is_reserved":false,"is_disabled":false,"rental_uris":{"android":"levelo://app?vid=47f7db02-ff86-46bf-b8dc-c30068ec1d78","ios":"levelo://app?vid=47f7db02-ff86-46bf-b8dc-c30068ec1d78"},"vehicle_type_id":"4","last_reported":1734505783,"current_range_meters":28000,"station_id":"ce4bgup2rcd13ifvqcn0","pricing_plan_id":"cebpf4jnsgd1na2vs0mg"},{"bike_id":"0442ea9d-8e35-438b-9b71-d48f7f335c7b","system_id":"levelo_inurba_marseille","lat":43.297957,"lon":5.393522,"is_reserved":false,"is_disabled":false,"rental_uris":{"android":"levelo://app?vid=0442ea9d-8e35-438b-9b71-d48f7f335c7b","ios":"levelo://app?vid=0442ea9d-8e35-438b-9b71-d48f7f335c7b"},"vehicle_type_id":"4","last_reported":1734505783,"current_range_meters":38800,"station_id":"chh1huq6cuj3fo74tm60","pricing_plan_id":"cebpf4jnsgd1na2vs0mg"},{"bike_id":"b2c4cd55-c390-48f6-8aae-acf72a749ede","system_id":"levelo_inurba_marseille","lat":43.27486,"lon":5.42445,"is_reserved":false,"is_disabled":false,"rental_uris":{"android":"levelo://app?vid=b2c4cd55-c390-48f6-8aae-acf72a749ede","ios":"levelo://app?vid=b2c4cd55-c390-48f6-8aae-acf72a749ede"},"vehicle_type_id":"4","last_reported":1734505783,"current_range_meters":23200,"station_id":"ce4bhn92rcd13ifvqgrg","pricing_plan_id":"cebpf4jnsgd1na2vs0mg"},{"bike_id":"1adaea00-ed72-49a8-91bf-6c20e9f42f29","system_id":"levelo_inurba_marseille","lat":43.231898,"lon":5.399928,"is_reserved":false,"is_disabled":false,"rental_uris":{"android":"levelo://app?vid=1adaea00-ed72-49a8-91bf-6c20e9f42f29","ios":"levelo://app?vid=1adaea00-ed72-49a8-91bf-6c20e9f42f29"},"vehicle_type_id":"4","last_reported":1734505783,"current_range_meters":25200,"station_id":"ce4bhn12rcd13ifvqgqg","pricing_plan_id":"cebpf4jnsgd1na2vs0mg"},{"bike_id":"272c380d-0e96-4217-82cd-b4ae34bffa4a","system_id":"levelo_inurba_marseille","lat":43.269352,"lon":5.389289,"is_reserved":false,"is_disabled":true,"rental_uris":{"android":"levelo://app?vid=272c380d-0e96-4217-82cd-b4ae34bffa4a","ios":"levelo://app?vid=272c380d-0e96-4217-82cd-b4ae34bffa4a"},"vehicle_type_id":"4","last_reported":1734505783,"current_range_meters":25200,"station_id":"ce4bhhh2rcd13ifvqfl0","pricing_plan_id":"cebpf4jnsgd1na2vs0mg"},{"bike_id":"565ed87e-d305-4848-8d99-9c680e00a346","system_id":"levelo_inurba_marseille","lat":43.297379,"lon":5.406227,"is_reserved":false,"is_disabled":false,"rental_uris":{"android":"levelo://app?vid=565ed87e-d305-4848-8d99-9c680e00a346","ios":"levelo://app?vid=565ed87e-d305-4848-8d99-9c680e00a346"},"vehicle_type_id":"4","last_reported":1734505783,"current_range_meters":23200,"station_id":"","pricing_plan_id":"cebpf4jnsgd1na2vs0mg"},{"bike_id":"7ace55d0-55f9-4d78-8878-fcfdef05d861","system_id":"levelo_inurba_marseille","lat":43.30791,"lon":5.37656,"is_reserved":false,"is_disabled":false,"rental_uris":{"android":"levelo://app?vid=7ace55d0-55f9-4d78-8878-fcfdef05d861","ios":"levelo://app?vid=7ace55d0-55f9-4d78-8878-fcfdef05d861"},"vehicle_type_id":"4","last_reported":1734505783,"current_range_meters":31200,"station_id":"ce4bgv92rcd13ifvqcq0","pricing_plan_id":"cebpf4jnsgd1na2vs0mg"},{"bike_id":"1f088edd-e254-4389-aab0-8bb3edc2dc9e","system_id":"levelo_inurba_marseille","lat":43.32496,"lon":5.3656,"is_reserved":false,"is_disabled":false,"rental_uris":{"android":"levelo://app?vid=1f088edd-e254-4389-aab0-8bb3edc2dc9e","ios":"levelo://app?vid=1f088edd-e254-4389-aab0-8bb3edc2dc9e"},"vehicle_type_id":"4","last_reported":1734505783,"current_range_meters":38800,"station_id":"ce4bhs12rcd13ifvqhvg","pricing_plan_id":"cebpf4jnsgd1na2vs0mg"},{"bike_id":"f52d174d-da33-4b84-ac93-710f79edd41d","system_id":"levelo_inurba_marseille","lat":43.31362,"lon":5.38499,"is_reserved":false,"is_disabled":false,"rental_uris":{"android":"levelo://app?vid=f52d174d-da33-4b84-ac93-710f79edd41d","ios":"levelo://app?vid=f52d174d-da33-4b84-ac93-710f79edd41d"},"vehicle_type_id":"4","last_reported":1734505783,"current_range_meters":16400,"station_id":"ce4bgt92rcd13ifvqcf0","pricing_plan_id":"cebpf4jnsgd1na2vs0mg"},{"bike_id":"c9f38013-6750-4f7a-85fe-8a7f6171c9a3","system_id":"levelo_inurba_marseille","lat":43.29607,"lon":5.38115,"is_reserved":false,"is_disabled":false,"rental_uris":{"android":"levelo://app?vid=c9f38013-6750-4f7a-85fe-8a7f6171c9a3","ios":"levelo://app?vid=c9f38013-6750-4f7a-85fe-8a7f6171c9a3"},"vehicle_type_id":"4","last_reported":1734505783,"current_range_meters":35600,"station_id":"ce4bgl12rcd13ifvqbo0","pricing_plan_id":"cebpf4jnsgd1na2vs0mg"},{"bike_id":"fbda7b10-078d-4c58-b700-d8ffd9b7aad2","system_id":"levelo_inurba_marseille","lat":43.29787,"lon":5.3811,"is_reserved":false,"is_disabled":true,"rental_uris":{"android":"levelo://app?vid=fbda7b10-078d-4c58-b700-d8ffd9b7aad2","ios":"levelo://app?vid=fbda7b10-078d-4c58-b700-d8ffd9b7aad2"},"vehicle_type_id":"4","last_reported":1734505783,"current_range_meters":24800,"station_id":"ce4bgip2rcd13ifvqbb0","pricing_plan_id":"cebpf4jnsgd1na2vs0mg"},{"bike_id":"077b0e66-296b-4fc0-ac1e-f4f937bb0b57","system_id":"levelo_inurba_marseille","lat":43.27912,"lon":5.38005,"is_reserved":false,"is_disabled":false,"rental_uris":{"android":"levelo://app?vid=077b0e66-296b-4fc0-ac1e-f4f937bb0b57","ios":"levelo://app?vid=077b0e66-296b-4fc0-ac1e-f4f937bb0b57"},"vehicle_type_id":"4","last_reported":1734505783,"current_range_meters":38800,"station_id":"ce4bhf92rcd13ifvqf50","pricing_plan_id":"cebpf4jnsgd1na2vs0mg"},{"bike_id":"9134ff38-dc43-4d02-a424-39074a542dc7","system_id":"levelo_inurba_marseille","lat":43.29089,"lon":5.38134,"is_reserved":false,"is_disabled":false,"rental_uris":{"android":"levelo://app?vid=9134ff38-dc43-4d02-a424-39074a542dc7","ios":"levelo://app?vid=9134ff38-dc43-4d02-a424-39074a542dc7"},"vehicle_type_id":"4","last_reported":1734505783,"current_range_meters":27200,"station_id":"ce4bh512rcd13ifvqe2g","pricing_plan_id":"cebpf4jnsgd1na2vs0mg"},{"bike_id":"e63ec124-f160-46c4-aad4-b0f59e1a5cf9","system_id":"levelo_inurba_marseille","lat":43.279841,"lon":5.416526,"is_reserved":false,"is_disabled":true,"rental_uris":{"android":"levelo://app?vid=e63ec124-f160-46c4-aad4-b0f59e1a5cf9","ios":"levelo://app?vid=e63ec124-f160-46c4-aad4-b0f59e1a5cf9"},"vehicle_type_id":"4","last_reported":1734505783,"current_range_meters":22800,"station_id":"ce4bho12rcd13ifvqh1g","pricing_plan_id":"cebpf4jnsgd1na2vs0mg"},{"bike_id":"d3355b79-590c-45c2-bbd5-11ecdd490812","system_id":"levelo_inurba_marseille","lat":43.24072,"lon":5.37765,"is_reserved":false,"is_disabled":false,"rental_uris":{"android":"levelo://app?vid=d3355b79-590c-45c2-bbd5-11ecdd490812","ios":"levelo://app?vid=d3355b79-590c-45c2-bbd5-11ecdd490812"},"vehicle_type_id":"4","last_reported":1734505783,"current_range_meters":36000,"station_id":"ce4bhnp2rcd13ifvqgvg","pricing_plan_id":"cebpf4jnsgd1na2vs0mg"},{"bike_id":"1ea84ea2-7c61-475a-88bd-bea21710b374","system_id":"levelo_inurba_marseille","lat":43.26953,"lon":5.38628,"is_reserved":false,"is_disabled":false,"rental_uris":{"android":"levelo://app?vid=1ea84ea2-7c61-475a-88bd-bea21710b374","ios":"levelo://app?vid=1ea84ea2-7c61-475a-88bd-bea21710b374"},"vehicle_type_id":"4","last_reported":1734505783,"current_range_meters":5600,"station_id":"ce4bhh92rcd13ifvqfh0","pricing_plan_id":"cebpf4jnsgd1na2vs0mg"},{"bike_id":"108e6318-f949-4ceb-b1fe-19253cb4bf7b","system_id":"levelo_inurba_marseille","lat":43.30472,"lon":5.37903,"is_reserved":false,"is_disabled":false,"rental_uris":{"android":"levelo://app?vid=108e6318-f949-4ceb-b1fe-19253cb4bf7b","ios":"levelo://app?vid=108e6318-f949-4ceb-b1fe-19253cb4bf7b"},"vehicle_type_id":"4","last_reported":1734505783,"current_range_meters":16400,"station_id":"ce4bgup2rcd13ifvqcn0","pricing_plan_id":"cebpf4jnsgd1na2vs0mg"},{"bike_id":"2c35d799-8445-41f0-9531-f1ab81d4f0aa","system_id":"levelo_inurba_marseille","lat":43.28422,"lon":5.37525,"is_reserved":false,"is_disabled":false,"rental_uris":{"android":"levelo://app?vid=2c35d799-8445-41f0-9531-f1ab81d4f0aa","ios":"levelo://app?vid=2c35d799-8445-41f0-9531-f1ab81d4f0aa"},"vehicle_type_id":"4","last_reported":1734505783,"current_range_meters":28400,"station_id":"ce4bh412rcd13ifvqds0","pricing_plan_id":"cebpf4jnsgd1na2vs0mg"},{"bike_id":"662c11ca-c329-4a36-8658-c897c59db0fb","system_id":"levelo_inurba_marseille","lat":43.30466,"lon":5.37902,"is_reserved":false,"is_disabled":false,"rental_uris":{"android":"levelo://app?vid=662c11ca-c329-4a36-8658-c897c59db0fb","ios":"levelo://app?vid=662c11ca-c329-4a36-8658-c897c59db0fb"},"vehicle_type_id":"4","last_reported":1734505783,"current_range_meters":13600,"station_id":"ce4bgup2rcd13ifvqcn0","pricing_plan_id":"cebpf4jnsgd1na2vs0mg"},{"bike_id":"01a870cf-dd25-47e3-81a3-76239976dd64","system_id":"levelo_inurba_marseille","lat":43.27496,"lon":5.42448,"is_reserved":false,"is_disabled":false,"rental_uris":{"android":"levelo://app?vid=01a870cf-dd25-47e3-81a3-76239976dd64","ios":"levelo://app?vid=01a870cf-dd25-47e3-81a3-76239976dd64"},"vehicle_type_id":"4","last_reported":1734505783,"current_range_meters":38800,"station_id":"ce4bhn92rcd13ifvqgrg","pricing_plan_id":"cebpf4jnsgd1na2vs0mg"},{"bike_id":"bf3bda41-3adc-48b0-8855-58ec5ed93f93","system_id":"levelo_inurba_marseille","lat":43.27496,"lon":5.42452,"is_reserved":false,"is_disabled":false,"rental_uris":{"android":"levelo://app?vid=bf3bda41-3adc-48b0-8855-58ec5ed93f93","ios":"levelo://app?vid=bf3bda41-3adc-48b0-8855-58ec5ed93f93"},"vehicle_type_id":"4","last_reported":1734505783,"current_range_meters":28000,"station_id":"ce4bhn92rcd13ifvqgrg","pricing_plan_id":"cebpf4jnsgd1na2vs0mg"},{"bike_id":"dfc9386d-470e-435b-b8f6-2ec11b401715","system_id":"levelo_inurba_marseille","lat":43.27181,"lon":5.40993,"is_reserved":false,"is_disabled":false,"rental_uris":{"android":"levelo://app?vid=dfc9386d-470e-435b-b8f6-2ec11b401715","ios":"levelo://app?vid=dfc9386d-470e-435b-b8f6-2ec11b401715"},"vehicle_type_id":"4","last_reported":1734505783,"current_range_meters":17200,"station_id":"ce4bhl12rcd13ifvqgf0","pricing_plan_id":"cebpf4jnsgd1na2vs0mg"},{"bike_id":"68907ca0-038a-4705-886b-af6c122ac485","system_id":"levelo_inurba_marseille","lat":43.23192,"lon":5.39985,"is_reserved":false,"is_disabled":false,"rental_uris":{"android":"levelo://app?vid=68907ca0-038a-4705-886b-af6c122ac485","ios":"levelo://app?vid=68907ca0-038a-4705-886b-af6c122ac485"},"vehicle_type_id":"4","last_reported":1734505783,"current_range_meters":38800,"station_id":"ce4bhn12rcd13ifvqgqg","pricing_plan_id":"cebpf4jnsgd1na2vs0mg"},{"bike_id":"ec8f86da-e026-4ef2-91fc-1aeba3896cd3","system_id":"levelo_inurba_marseille","lat":43.24069,"lon":5.37766,"is_reserved":false,"is_disabled":false,"rental_uris":{"android":"levelo://app?vid=ec8f86da-e026-4ef2-91fc-1aeba3896cd3","ios":"levelo://app?vid=ec8f86da-e026-4ef2-91fc-1aeba3896cd3"},"vehicle_type_id":"4","last_reported":1734505783,"current_range_meters":6800,"station_id":"ce4bhnp2rcd13ifvqgvg","pricing_plan_id":"cebpf4jnsgd1na2vs0mg"},{"bike_id":"7ec48f75-2775-4297-aeb5-423e6c184b6b","system_id":"levelo_inurba_marseille","lat":43.27568,"lon":5.38428,"is_reserved":false,"is_disabled":false,"rental_uris":{"android":"levelo://app?vid=7ec48f75-2775-4297-aeb5-423e6c184b6b","ios":"levelo://app?vid=7ec48f75-2775-4297-aeb5-423e6c184b6b"},"vehicle_type_id":"4","last_reported":1734505783,"current_range_meters":39200,"station_id":"ce4bhh92rcd13ifvqfi0","pricing_plan_id":"cebpf4jnsgd1na2vs0mg"},{"bike_id":"a852f14c-1573-40fe-bdb0-30bcf5f773fb","system_id":"levelo_inurba_marseille","lat":43.286144,"lon":5.350985,"is_reserved":false,"is_disabled":true,"rental_uris":{"android":"levelo://app?vid=a852f14c-1573-40fe-bdb0-30bcf5f773fb","ios":"levelo://app?vid=a852f14c-1573-40fe-bdb0-30bcf5f773fb"},"vehicle_type_id":"4","last_reported":1734505783,"current_range_meters":17200,"station_id":"ce4bhch2rcd13ifvqeug","pricing_plan_id":"cebpf4jnsgd1na2vs0mg"},{"bike_id":"91180d2d-a3ab-4fab-9b73-1e1c1085480d","system_id":"levelo_inurba_marseille","lat":43.30206,"lon":5.39463,"is_reserved":false,"is_disabled":true,"rental_uris":{"android":"levelo://app?vid=91180d2d-a3ab-4fab-9b73-1e1c1085480d","ios":"levelo://app?vid=91180d2d-a3ab-4fab-9b73-1e1c1085480d"},"vehicle_type_id":"4","last_reported":1734505783,"current_range_meters":800,"station_id":"ce4bh0p2rcd13ifvqd70","pricing_plan_id":"cebpf4jnsgd1na2vs0mg"},{"bike_id":"61d6f95e-9317-4fb0-a3ec-55b27609f3ee","system_id":"levelo_inurba_marseille","lat":43.32051,"lon":5.41564,"is_reserved":false,"is_disabled":false,"rental_uris":{"android":"levelo://app?vid=61d6f95e-9317-4fb0-a3ec-55b27609f3ee","ios":"levelo://app?vid=61d6f95e-9317-4fb0-a3ec-55b27609f3ee"},"vehicle_type_id":"4","last_reported":1734505783,"current_range_meters":38800,"station_id":"ce4bhq92rcd13ifvqhkg","pricing_plan_id":"cebpf4jnsgd1na2vs0mg"},{"bike_id":"bb337245-7c41-4671-900b-a4d92ae562c6","system_id":"levelo_inurba_marseille","lat":43.2949,"lon":5.39043,"is_reserved":false,"is_disabled":true,"rental_uris":{"android":"levelo://app?vid=bb337245-7c41-4671-900b-a4d92ae562c6","ios":"levelo://app?vid=bb337245-7c41-4671-900b-a4d92ae562c6"},"vehicle_type_id":"4","last_reported":1734505783,"current_range_meters":1600,"station_id":"ce4bh3p2rcd13ifvqdp0","pricing_plan_id":"cebpf4jnsgd1na2vs0mg"},{"bike_id":"fa0ead1a-f968-4ca0-8c49-d68e11a22837","system_id":"levelo_inurba_marseille","lat":43.24062,"lon":5.37761,"is_reserved":false,"is_disabled":false,"rental_uris":{"android":"levelo://app?vid=fa0ead1a-f968-4ca0-8c49-d68e11a22837","ios":"levelo://app?vid=fa0ead1a-f968-4ca0-8c49-d68e11a22837"},"vehicle_type_id":"4","last_reported":1734505783,"current_range_meters":6400,"station_id":"ce4bhnp2rcd13ifvqgvg","pricing_plan_id":"cebpf4jnsgd1na2vs0mg"},{"bike_id":"7399fd58-5dfd-44fa-92b1-0692ace70e73","system_id":"levelo_inurba_marseille","lat":43.300995,"lon":5.371345,"is_reserved":false,"is_disabled":false,"rental_uris":{"android":"levelo://app?vid=7399fd58-5dfd-44fa-92b1-0692ace70e73","ios":"levelo://app?vid=7399fd58-5dfd-44fa-92b1-0692ace70e73"},"vehicle_type_id":"4","last_reported":1734505783,"current_range_meters":22000,"station_id":"","pricing_plan_id":"cebpf4jnsgd1na2vs0mg"},{"bike_id":"16e18afe-39a1-4460-978b-e6388d2a2bbb","system_id":"levelo_inurba_marseille","lat":43.28464,"lon":5.35888,"is_reserved":false,"is_disabled":false,"rental_uris":{"android":"levelo://app?vid=16e18afe-39a1-4460-978b-e6388d2a2bbb","ios":"levelo://app?vid=16e18afe-39a1-4460-978b-e6388d2a2bbb"},"vehicle_type_id":"4","last_reported":1734505783,"current_range_meters":6400,"station_id":"ce4bhah2rcd13ifvqei0","pricing_plan_id":"cebpf4jnsgd1na2vs0mg"},{"bike_id":"bd510f8f-7158-4b24-9942-aaa0ea9fd2e6","system_id":"levelo_inurba_marseille","lat":43.28154,"lon":5.4265,"is_reserved":false,"is_disabled":false,"rental_uris":{"android":"levelo://app?vid=bd510f8f-7158-4b24-9942-aaa0ea9fd2e6","ios":"levelo://app?vid=bd510f8f-7158-4b24-9942-aaa0ea9fd2e6"},"vehicle_type_id":"4","last_reported":1734505783,"current_range_meters":30400,"station_id":"ce4bhnh2rcd13ifvqgug","pricing_plan_id":"cebpf4jnsgd1na2vs0mg"},{"bike_id":"020c2696-4f24-409a-9920-9332f372ca4b","system_id":"levelo_inurba_marseille","lat":43.23152,"lon":5.43716,"is_reserved":false,"is_disabled":false,"rental_uris":{"android":"levelo://app?vid=020c2696-4f24-409a-9920-9332f372ca4b","ios":"levelo://app?vid=020c2696-4f24-409a-9920-9332f372ca4b"},"vehicle_type_id":"4","last_reported":1734505783,"current_range_meters":6000,"station_id":"ce4bhmp2rcd13ifvqgog","pricing_plan_id":"cebpf4jnsgd1na2vs0mg"},{"bike_id":"8ceeee5e-f34c-4883-8bf6-079e8a090dff","system_id":"levelo_inurba_marseille","lat":43.29981,"lon":5.38476,"is_reserved":false,"is_disabled":true,"rental_uris":{"android":"levelo://app?vid=8ceeee5e-f34c-4883-8bf6-079e8a090dff","ios":"levelo://app?vid=8ceeee5e-f34c-4883-8bf6-079e8a090dff"},"vehicle_type_id":"4","last_reported":1734505783,"current_range_meters":0,"station_id":"ce4bgj92rcd13ifvqbd0","pricing_plan_id":"cebpf4jnsgd1na2vs0mg"},{"bike_id":"1a410d8e-2640-4d25-aee8-9617cfe6e2c8","system_id":"levelo_inurba_marseille","lat":43.2781,"lon":5.40697,"is_reserved":false,"is_disabled":false,"rental_uris":{"android":"levelo://app?vid=1a410d8e-2640-4d25-aee8-9617cfe6e2c8","ios":"levelo://app?vid=1a410d8e-2640-4d25-aee8-9617cfe6e2c8"},"vehicle_type_id":"4","last_reported":1734505783,"current_range_meters":32000,"station_id":"ce4bhnh2rcd13ifvqgtg","pricing_plan_id":"cebpf4jnsgd1na2vs0mg"},{"bike_id":"1cc30cb6-f18d-4862-b991-88715930d8c9","system_id":"levelo_inurba_marseille","lat":43.24075,"lon":5.37756,"is_reserved":false,"is_disabled":false,"rental_uris":{"android":"levelo://app?vid=1cc30cb6-f18d-4862-b991-88715930d8c9","ios":"levelo://app?vid=1cc30cb6-f18d-4862-b991-88715930d8c9"},"vehicle_type_id":"4","last_reported":1734505783,"current_range_meters":14400,"station_id":"ce4bhnp2rcd13ifvqgvg","pricing_plan_id":"cebpf4jnsgd1na2vs0mg"},{"bike_id":"eb7cd7b9-01c5-4120-bb55-5221a32a505c","system_id":"levelo_inurba_marseille","lat":43.29256,"lon":5.40138,"is_reserved":false,"is_disabled":true,"rental_uris":{"android":"levelo://app?vid=eb7cd7b9-01c5-4120-bb55-5221a32a505c","ios":"levelo://app?vid=eb7cd7b9-01c5-4120-bb55-5221a32a505c"},"vehicle_type_id":"4","last_reported":1734505783,"current_range_meters":32000,"station_id":"ce4bh312rcd13ifvqdk0","pricing_plan_id":"cebpf4jnsgd1na2vs0mg"},{"bike_id":"eba901e5-0847-4fc0-b2b6-9eb1834c3e7a","system_id":"levelo_inurba_marseille","lat":43.29537,"lon":5.42292,"is_reserved":false,"is_disabled":true,"rental_uris":{"android":"levelo://app?vid=eba901e5-0847-4fc0-b2b6-9eb1834c3e7a","ios":"levelo://app?vid=eba901e5-0847-4fc0-b2b6-9eb1834c3e7a"},"vehicle_type_id":"4","last_reported":1734505783,"current_range_meters":0,"station_id":"ce4bhph2rcd13ifvqhdg","pricing_plan_id":"cebpf4jnsgd1na2vs0mg"},{"bike_id":"345d80f6-1525-4241-80c9-c6920b13eab2","system_id":"levelo_inurba_marseille","lat":43.29538,"lon":5.38544,"is_reserved":false,"is_disabled":true,"rental_uris":{"android":"levelo://app?vid=345d80f6-1525-4241-80c9-c6920b13eab2","ios":"levelo://app?vid=345d80f6-1525-4241-80c9-c6920b13eab2"},"vehicle_type_id":"4","last_reported":1734505783,"current_range_meters":16000,"station_id":"ce4bgih2rcd13ifvqba0","pricing_plan_id":"cebpf4jnsgd1na2vs0mg"},{"bike_id":"4a6cf567-0476-47a4-9b25-bea5f116b73d","system_id":"levelo_inurba_marseille","lat":43.28458,"lon":5.35883,"is_reserved":false,"is_disabled":false,"rental_uris":{"android":"levelo://app?vid=4a6cf567-0476-47a4-9b25-bea5f116b73d","ios":"levelo://app?vid=4a6cf567-0476-47a4-9b25-bea5f116b73d"},"vehicle_type_id":"4","last_reported":1734505783,"current_range_meters":30400,"station_id":"ce4bhah2rcd13ifvqei0","pricing_plan_id":"cebpf4jnsgd1na2vs0mg"},{"bike_id":"07cbdb6f-6b5a-42a8-8834-7a4a5909ca3f","system_id":"levelo_inurba_marseille","lat":43.3169,"lon":5.40464,"is_reserved":false,"is_disabled":false,"rental_uris":{"android":"levelo://app?vid=07cbdb6f-6b5a-42a8-8834-7a4a5909ca3f","ios":"levelo://app?vid=07cbdb6f-6b5a-42a8-8834-7a4a5909ca3f"},"vehicle_type_id":"4","last_reported":1734505783,"current_range_meters":38000,"station_id":"ce4bh012rcd13ifvqd00","pricing_plan_id":"cebpf4jnsgd1na2vs0mg"},{"bike_id":"cbfe433a-6ad0-4d3a-a830-ad0d51d35c7a","system_id":"levelo_inurba_marseille","lat":43.246597,"lon":5.381639,"is_reserved":false,"is_disabled":false,"rental_uris":{"android":"levelo://app?vid=cbfe433a-6ad0-4d3a-a830-ad0d51d35c7a","ios":"levelo://app?vid=cbfe433a-6ad0-4d3a-a830-ad0d51d35c7a"},"vehicle_type_id":"4","last_reported":1734505783,"current_range_meters":38000,"station_id":"ce4bhih2rcd13ifvqfr0","pricing_plan_id":"cebpf4jnsgd1na2vs0mg"},{"bike_id":"5fbda81f-a83f-4fb8-8ca0-d88cf6fc9bb3","system_id":"levelo_inurba_marseille","lat":43.29277,"lon":5.36847,"is_reserved":false,"is_disabled":false,"rental_uris":{"android":"levelo://app?vid=5fbda81f-a83f-4fb8-8ca0-d88cf6fc9bb3","ios":"levelo://app?vid=5fbda81f-a83f-4fb8-8ca0-d88cf6fc9bb3"},"vehicle_type_id":"4","last_reported":1734505783,"current_range_meters":38800,"station_id":"ce4bhbp2rcd13ifvqesg","pricing_plan_id":"cebpf4jnsgd1na2vs0mg"},{"bike_id":"ed3a8591-316e-49ab-a80e-c8c5d9c39c56","system_id":"levelo_inurba_marseille","lat":43.30109,"lon":5.39087,"is_reserved":false,"is_disabled":true,"rental_uris":{"android":"levelo://app?vid=ed3a8591-316e-49ab-a80e-c8c5d9c39c56","ios":"levelo://app?vid=ed3a8591-316e-49ab-a80e-c8c5d9c39c56"},"vehicle_type_id":"4","last_reported":1734505783,"current_range_meters":31200,"station_id":"ce4bh192rcd13ifvqdb0","pricing_plan_id":"cebpf4jnsgd1na2vs0mg"},{"bike_id":"5a37a828-cff2-4e6d-a76c-d01bbc621389","system_id":"levelo_inurba_marseille","lat":43.23194,"lon":5.35552,"is_reserved":false,"is_disabled":false,"rental_uris":{"android":"levelo://app?vid=5a37a828-cff2-4e6d-a76c-d01bbc621389","ios":"levelo://app?vid=5a37a828-cff2-4e6d-a76c-d01bbc621389"},"vehicle_type_id":"4","last_reported":1734505783,"current_range_meters":24000,"station_id":"ce4bhu92rcd13ifvqi70","pricing_plan_id":"cebpf4jnsgd1na2vs0mg"},{"bike_id":"8936a28a-405a-4e6e-9305-415e1f7e5459","system_id":"levelo_inurba_marseille","lat":43.29807,"lon":5.38092,"is_reserved":false,"is_disabled":false,"rental_uris":{"android":"levelo://app?vid=8936a28a-405a-4e6e-9305-415e1f7e5459","ios":"levelo://app?vid=8936a28a-405a-4e6e-9305-415e1f7e5459"},"vehicle_type_id":"4","last_reported":1734505783,"current_range_meters":38800,"station_id":"ce4bgip2rcd13ifvqbb0","pricing_plan_id":"cebpf4jnsgd1na2vs0mg"},{"bike_id":"7f1fdc7d-fd5a-41f5-95df-d4b73f14110f","system_id":"levelo_inurba_marseille","lat":43.31881,"lon":5.40742,"is_reserved":false,"is_disabled":false,"rental_uris":{"android":"levelo://app?vid=7f1fdc7d-fd5a-41f5-95df-d4b73f14110f","ios":"levelo://app?vid=7f1fdc7d-fd5a-41f5-95df-d4b73f14110f"},"vehicle_type_id":"4","last_reported":1734505783,"current_range_meters":38800,"station_id":"ce4bhq12rcd13ifvqhig","pricing_plan_id":"cebpf4jnsgd1na2vs0mg"},{"bike_id":"00597966-5dda-4e01-bd96-d00d6efc4e01","system_id":"levelo_inurba_marseille","lat":43.29253,"lon":5.38434,"is_reserved":false,"is_disabled":true,"rental_uris":{"android":"levelo://app?vid=00597966-5dda-4e01-bd96-d00d6efc4e01","ios":"levelo://app?vid=00597966-5dda-4e01-bd96-d00d6efc4e01"},"vehicle_type_id":"4","last_reported":1734505783,"current_range_meters":10800,"station_id":"ce4bh692rcd13ifvqea0","pricing_plan_id":"cebpf4jnsgd1na2vs0mg"},{"bike_id":"d02419d3-ab9e-4a05-8bf6-59f7eb4ac434","system_id":"levelo_inurba_marseille","lat":43.31286,"lon":5.4017,"is_reserved":false,"is_disabled":false,"rental_uris":{"android":"levelo://app?vid=d02419d3-ab9e-4a05-8bf6-59f7eb4ac434","ios":"levelo://app?vid=d02419d3-ab9e-4a05-8bf6-59f7eb4ac434"},"vehicle_type_id":"4","last_reported":1734505783,"current_range_meters":25200,"station_id":"ce4bh092rcd13ifvqd30","pricing_plan_id":"cebpf4jnsgd1na2vs0mg"},{"bike_id":"ad73d8e8-caed-48ca-8b11-a68a32df56ef","system_id":"levelo_inurba_marseille","lat":43.31708,"lon":5.37748,"is_reserved":false,"is_disabled":false,"rental_uris":{"android":"levelo://app?vid=ad73d8e8-caed-48ca-8b11-a68a32df56ef","ios":"levelo://app?vid=ad73d8e8-caed-48ca-8b11-a68a32df56ef"},"vehicle_type_id":"4","last_reported":1734505783,"current_range_meters":21600,"station_id":"ce4bgth2rcd13ifvqch0","pricing_plan_id":"cebpf4jnsgd1na2vs0mg"},{"bike_id":"d396f5d2-70d3-4b17-9cb9-b64bad9f67b0","system_id":"levelo_inurba_marseille","lat":43.29596,"lon":5.38104,"is_reserved":false,"is_disabled":false,"rental_uris":{"android":"levelo://app?vid=d396f5d2-70d3-4b17-9cb9-b64bad9f67b0","ios":"levelo://app?vid=d396f5d2-70d3-4b17-9cb9-b64bad9f67b0"},"vehicle_type_id":"4","last_reported":1734505783,"current_range_meters":12000,"station_id":"ce4bgl12rcd13ifvqbo0","pricing_plan_id":"cebpf4jnsgd1na2vs0mg"},{"bike_id":"1de05ea6-7ffc-4755-9d5c-2404e5a173c7","system_id":"levelo_inurba_marseille","lat":43.23068,"lon":5.3549,"is_reserved":false,"is_disabled":false,"rental_uris":{"android":"levelo://app?vid=1de05ea6-7ffc-4755-9d5c-2404e5a173c7","ios":"levelo://app?vid=1de05ea6-7ffc-4755-9d5c-2404e5a173c7"},"vehicle_type_id":"4","last_reported":1734505783,"current_range_meters":38400,"station_id":"cpo3342slgdg3j2ifvpg","pricing_plan_id":"cebpf4jnsgd1na2vs0mg"},{"bike_id":"70a23328-6629-4f07-b203-ef843751eafc","system_id":"levelo_inurba_marseille","lat":43.271819,"lon":5.409922,"is_reserved":false,"is_disabled":false,"rental_uris":{"android":"levelo://app?vid=70a23328-6629-4f07-b203-ef843751eafc","ios":"levelo://app?vid=70a23328-6629-4f07-b203-ef843751eafc"},"vehicle_type_id":"4","last_reported":1734505783,"current_range_meters":26000,"station_id":"ce4bhl12rcd13ifvqgf0","pricing_plan_id":"cebpf4jnsgd1na2vs0mg"},{"bike_id":"26a7276b-c39b-4a04-abe0-e2367c9d9827","system_id":"levelo_inurba_marseille","lat":43.30461,"lon":5.37906,"is_reserved":false,"is_disabled":false,"rental_uris":{"android":"levelo://app?vid=26a7276b-c39b-4a04-abe0-e2367c9d9827","ios":"levelo://app?vid=26a7276b-c39b-4a04-abe0-e2367c9d9827"},"vehicle_type_id":"4","last_reported":1734505783,"current_range_meters":17600,"station_id":"ce4bgup2rcd13ifvqcn0","pricing_plan_id":"cebpf4jnsgd1na2vs0mg"},{"bike_id":"7d1655da-55b4-4b57-92eb-2b92b6dfa77a","system_id":"levelo_inurba_marseille","lat":43.29604,"lon":5.38092,"is_reserved":false,"is_disabled":false,"rental_uris":{"android":"levelo://app?vid=7d1655da-55b4-4b57-92eb-2b92b6dfa77a","ios":"levelo://app?vid=7d1655da-55b4-4b57-92eb-2b92b6dfa77a"},"vehicle_type_id":"4","last_reported":1734505783,"current_range_meters":24800,"station_id":"ce4bgl12rcd13ifvqbo0","pricing_plan_id":"cebpf4jnsgd1na2vs0mg"},{"bike_id":"2d9f4e58-aed4-42e5-b03f-7c067dbd464d","system_id":"levelo_inurba_marseille","lat":43.27069,"lon":5.42271,"is_reserved":false,"is_disabled":false,"rental_uris":{"android":"levelo://app?vid=2d9f4e58-aed4-42e5-b03f-7c067dbd464d","ios":"levelo://app?vid=2d9f4e58-aed4-42e5-b03f-7c067dbd464d"},"vehicle_type_id":"4","last_reported":1734505783,"current_range_meters":39200,"station_id":"ce4bhk92rcd13ifvqgb0","pricing_plan_id":"cebpf4jnsgd1na2vs0mg"},{"bike_id":"3b4fb5cb-201b-4580-8b60-978744bbfcb8","system_id":"levelo_inurba_marseille","lat":43.27492,"lon":5.42458,"is_reserved":false,"is_disabled":false,"rental_uris":{"android":"levelo://app?vid=3b4fb5cb-201b-4580-8b60-978744bbfcb8","ios":"levelo://app?vid=3b4fb5cb-201b-4580-8b60-978744bbfcb8"},"vehicle_type_id":"4","last_reported":1734505783,"current_range_meters":36000,"station_id":"ce4bhn92rcd13ifvqgrg","pricing_plan_id":"cebpf4jnsgd1na2vs0mg"},{"bike_id":"24216fde-815f-466d-ae48-7f1bdc5c763a","system_id":"levelo_inurba_marseille","lat":43.27597,"lon":5.3843,"is_reserved":false,"is_disabled":false,"rental_uris":{"android":"levelo://app?vid=24216fde-815f-466d-ae48-7f1bdc5c763a","ios":"levelo://app?vid=24216fde-815f-466d-ae48-7f1bdc5c763a"},"vehicle_type_id":"4","last_reported":1734505783,"current_range_meters":16000,"station_id":"ce4bhh92rcd13ifvqfi0","pricing_plan_id":"cebpf4jnsgd1na2vs0mg"},{"bike_id":"ef2f5e1d-6e01-45b2-93d6-22d7804baf5f","system_id":"levelo_inurba_marseille","lat":43.25009,"lon":5.38927,"is_reserved":false,"is_disabled":false,"rental_uris":{"android":"levelo://app?vid=ef2f5e1d-6e01-45b2-93d6-22d7804baf5f","ios":"levelo://app?vid=ef2f5e1d-6e01-45b2-93d6-22d7804baf5f"},"vehicle_type_id":"4","last_reported":1734505783,"current_range_meters":39200,"station_id":"ce4bhgp2rcd13ifvqfd0","pricing_plan_id":"cebpf4jnsgd1na2vs0mg"},{"bike_id":"4e24cd74-c1ed-48e3-ae04-94fae1db75bb","system_id":"levelo_inurba_marseille","lat":43.27082,"lon":5.42265,"is_reserved":false,"is_disabled":false,"rental_uris":{"android":"levelo://app?vid=4e24cd74-c1ed-48e3-ae04-94fae1db75bb","ios":"levelo://app?vid=4e24cd74-c1ed-48e3-ae04-94fae1db75bb"},"vehicle_type_id":"4","last_reported":1734505783,"current_range_meters":30400,"station_id":"ce4bhk92rcd13ifvqgb0","pricing_plan_id":"cebpf4jnsgd1na2vs0mg"},{"bike_id":"c9f84a4f-6d4b-4113-98e3-16d3edc2dd11","system_id":"levelo_inurba_marseille","lat":43.28949,"lon":5.36393,"is_reserved":false,"is_disabled":false,"rental_uris":{"android":"levelo://app?vid=c9f84a4f-6d4b-4113-98e3-16d3edc2dd11","ios":"levelo://app?vid=c9f84a4f-6d4b-4113-98e3-16d3edc2dd11"},"vehicle_type_id":"4","last_reported":1734505783,"current_range_meters":26800,"station_id":"ce4bhc92rcd13ifvqetg","pricing_plan_id":"cebpf4jnsgd1na2vs0mg"},{"bike_id":"a73e88c0-fe79-44bc-ae8f-7ad2a06c9f41","system_id":"levelo_inurba_marseille","lat":43.31751,"lon":5.39028,"is_reserved":false,"is_disabled":false,"rental_uris":{"android":"levelo://app?vid=a73e88c0-fe79-44bc-ae8f-7ad2a06c9f41","ios":"levelo://app?vid=a73e88c0-fe79-44bc-ae8f-7ad2a06c9f41"},"vehicle_type_id":"4","last_reported":1734505783,"current_range_meters":30000,"station_id":"ce4bhqp2rcd13ifvqhng","pricing_plan_id":"cebpf4jnsgd1na2vs0mg"},{"bike_id":"a83bbb9f-b841-4be7-a2c7-f68457c511d3","system_id":"levelo_inurba_marseille","lat":43.30149,"lon":5.38078,"is_reserved":false,"is_disabled":false,"rental_uris":{"android":"levelo://app?vid=a83bbb9f-b841-4be7-a2c7-f68457c511d3","ios":"levelo://app?vid=a83bbb9f-b841-4be7-a2c7-f68457c511d3"},"vehicle_type_id":"4","last_reported":1734505783,"current_range_meters":12400,"station_id":"ce4bgjp2rcd13ifvqbh0","pricing_plan_id":"cebpf4jnsgd1na2vs0mg"},{"bike_id":"669a8b9e-02c4-4615-a6a4-60262aba4846","system_id":"levelo_inurba_marseille","lat":43.25499,"lon":5.37651,"is_reserved":false,"is_disabled":false,"rental_uris":{"android":"levelo://app?vid=669a8b9e-02c4-4615-a6a4-60262aba4846","ios":"levelo://app?vid=669a8b9e-02c4-4615-a6a4-60262aba4846"},"vehicle_type_id":"4","last_reported":1734505783,"current_range_meters":39200,"station_id":"ce4bhh12rcd13ifvqff0","pricing_plan_id":"cebpf4jnsgd1na2vs0mg"},{"bike_id":"160cec30-19a4-427d-a9ed-94af05223e53","system_id":"levelo_inurba_marseille","lat":43.2903,"lon":5.39977,"is_reserved":false,"is_disabled":false,"rental_uris":{"android":"levelo://app?vid=160cec30-19a4-427d-a9ed-94af05223e53","ios":"levelo://app?vid=160cec30-19a4-427d-a9ed-94af05223e53"},"vehicle_type_id":"4","last_reported":1734505783,"current_range_meters":36800,"station_id":"ce4bh392rcd13ifvqdm0","pricing_plan_id":"cebpf4jnsgd1na2vs0mg"},{"bike_id":"f2662e2f-56a1-465a-8b41-f1179efed732","system_id":"levelo_inurba_marseille","lat":43.28954,"lon":5.36671,"is_reserved":false,"is_disabled":false,"rental_uris":{"android":"levelo://app?vid=f2662e2f-56a1-465a-8b41-f1179efed732","ios":"levelo://app?vid=f2662e2f-56a1-465a-8b41-f1179efed732"},"vehicle_type_id":"4","last_reported":1734505783,"current_range_meters":38800,"station_id":"ce4bhap2rcd13ifvqek0","pricing_plan_id":"cebpf4jnsgd1na2vs0mg"},{"bike_id":"691db8bf-e648-4787-8118-f5af61dcf184","system_id":"levelo_inurba_marseille","lat":43.29036,"lon":5.37566,"is_reserved":false,"is_disabled":false,"rental_uris":{"android":"levelo://app?vid=691db8bf-e648-4787-8118-f5af61dcf184","ios":"levelo://app?vid=691db8bf-e648-4787-8118-f5af61dcf184"},"vehicle_type_id":"4","last_reported":1734505783,"current_range_meters":24000,"station_id":"ce4bh692rcd13ifvqe90","pricing_plan_id":"cebpf4jnsgd1na2vs0mg"},{"bike_id":"84b9eb9e-7a76-4aa2-b82a-ed8561b9d36f","system_id":"levelo_inurba_marseille","lat":43.30458,"lon":5.37902,"is_reserved":false,"is_disabled":false,"rental_uris":{"android":"levelo://app?vid=84b9eb9e-7a76-4aa2-b82a-ed8561b9d36f","ios":"levelo://app?vid=84b9eb9e-7a76-4aa2-b82a-ed8561b9d36f"},"vehicle_type_id":"4","last_reported":1734505783,"current_range_meters":22000,"station_id":"ce4bgup2rcd13ifvqcn0","pricing_plan_id":"cebpf4jnsgd1na2vs0mg"},{"bike_id":"d69ebe23-77f0-492c-b236-a063ebca627f","system_id":"levelo_inurba_marseille","lat":43.31342,"lon":5.3672,"is_reserved":false,"is_disabled":false,"rental_uris":{"android":"levelo://app?vid=d69ebe23-77f0-492c-b236-a063ebca627f","ios":"levelo://app?vid=d69ebe23-77f0-492c-b236-a063ebca627f"},"vehicle_type_id":"4","last_reported":1734505783,"current_range_meters":36400,"station_id":"ce4bgr92rcd13ifvqc6g","pricing_plan_id":"cebpf4jnsgd1na2vs0mg"},{"bike_id":"9fb79dc8-2c45-4f7b-85b9-51f3a2d63d64","system_id":"levelo_inurba_marseille","lat":43.30216,"lon":5.39466,"is_reserved":false,"is_disabled":false,"rental_uris":{"android":"levelo://app?vid=9fb79dc8-2c45-4f7b-85b9-51f3a2d63d64","ios":"levelo://app?vid=9fb79dc8-2c45-4f7b-85b9-51f3a2d63d64"},"vehicle_type_id":"4","last_reported":1734505783,"current_range_meters":37600,"station_id":"ce4bh0p2rcd13ifvqd70","pricing_plan_id":"cebpf4jnsgd1na2vs0mg"},{"bike_id":"9e55ad85-8ef0-43e4-b150-6b6e4538d86c","system_id":"levelo_inurba_marseille","lat":43.29039,"lon":5.37567,"is_reserved":false,"is_disabled":false,"rental_uris":{"android":"levelo://app?vid=9e55ad85-8ef0-43e4-b150-6b6e4538d86c","ios":"levelo://app?vid=9e55ad85-8ef0-43e4-b150-6b6e4538d86c"},"vehicle_type_id":"4","last_reported":1734505783,"current_range_meters":30000,"station_id":"ce4bh692rcd13ifvqe90","pricing_plan_id":"cebpf4jnsgd1na2vs0mg"},{"bike_id":"6bbd7b64-fcd8-465d-9608-b96168409627","system_id":"levelo_inurba_marseille","lat":43.29664,"lon":5.3626,"is_reserved":false,"is_disabled":false,"rental_uris":{"android":"levelo://app?vid=6bbd7b64-fcd8-465d-9608-b96168409627","ios":"levelo://app?vid=6bbd7b64-fcd8-465d-9608-b96168409627"},"vehicle_type_id":"4","last_reported":1734505783,"current_range_meters":6400,"station_id":"","pricing_plan_id":"cebpf4jnsgd1na2vs0mg"},{"bike_id":"58827829-e30a-478e-8d3c-af8c7606b368","system_id":"levelo_inurba_marseille","lat":43.30191,"lon":5.37889,"is_reserved":false,"is_disabled":false,"rental_uris":{"android":"levelo://app?vid=58827829-e30a-478e-8d3c-af8c7606b368","ios":"levelo://app?vid=58827829-e30a-478e-8d3c-af8c7606b368"},"vehicle_type_id":"4","last_reported":1734505783,"current_range_meters":11600,"station_id":"","pricing_plan_id":"cebpf4jnsgd1na2vs0mg"},{"bike_id":"cab5cb01-b33a-421c-bfaf-c7630f90de8b","system_id":"levelo_inurba_marseille","lat":43.29039,"lon":5.39965,"is_reserved":false,"is_disabled":true,"rental_uris":{"android":"levelo://app?vid=cab5cb01-b33a-421c-bfaf-c7630f90de8b","ios":"levelo://app?vid=cab5cb01-b33a-421c-bfaf-c7630f90de8b"},"vehicle_type_id":"4","last_reported":1734505783,"current_range_meters":0,"station_id":"ce4bh392rcd13ifvqdm0","pricing_plan_id":"cebpf4jnsgd1na2vs0mg"},{"bike_id":"78f5dcee-b6ca-4cfa-ae6f-ebcf64be1236","system_id":"levelo_inurba_marseille","lat":43.32339,"lon":5.40628,"is_reserved":false,"is_disabled":true,"rental_uris":{"android":"levelo://app?vid=78f5dcee-b6ca-4cfa-ae6f-ebcf64be1236","ios":"levelo://app?vid=78f5dcee-b6ca-4cfa-ae6f-ebcf64be1236"},"vehicle_type_id":"4","last_reported":1734505783,"current_range_meters":0,"station_id":"ce4bhq92rcd13ifvqhjg","pricing_plan_id":"cebpf4jnsgd1na2vs0mg"},{"bike_id":"7cc8a9a3-f715-49ab-9d53-dc2e4a08850f","system_id":"levelo_inurba_marseille","lat":43.298,"lon":5.38109,"is_reserved":false,"is_disabled":false,"rental_uris":{"android":"levelo://app?vid=7cc8a9a3-f715-49ab-9d53-dc2e4a08850f","ios":"levelo://app?vid=7cc8a9a3-f715-49ab-9d53-dc2e4a08850f"},"vehicle_type_id":"4","last_reported":1734505783,"current_range_meters":36000,"station_id":"ce4bgip2rcd13ifvqbb0","pricing_plan_id":"cebpf4jnsgd1na2vs0mg"},{"bike_id":"d1adb045-11f4-4330-9d2b-f77d89c262d4","system_id":"levelo_inurba_marseille","lat":43.29305,"lon":5.37184,"is_reserved":false,"is_disabled":true,"rental_uris":{"android":"levelo://app?vid=d1adb045-11f4-4330-9d2b-f77d89c262d4","ios":"levelo://app?vid=d1adb045-11f4-4330-9d2b-f77d89c262d4"},"vehicle_type_id":"4","last_reported":1734505783,"current_range_meters":32400,"station_id":"ce4bgh92rcd13ifvqb40","pricing_plan_id":"cebpf4jnsgd1na2vs0mg"},{"bike_id":"fb5ac6cd-6d94-4004-9473-07d3146ccb2b","system_id":"levelo_inurba_marseille","lat":43.28829,"lon":5.35854,"is_reserved":false,"is_disabled":false,"rental_uris":{"android":"levelo://app?vid=fb5ac6cd-6d94-4004-9473-07d3146ccb2b","ios":"levelo://app?vid=fb5ac6cd-6d94-4004-9473-07d3146ccb2b"},"vehicle_type_id":"4","last_reported":1734505783,"current_range_meters":29600,"station_id":"ce4bhb12rcd13ifvqem0","pricing_plan_id":"cebpf4jnsgd1na2vs0mg"},{"bike_id":"c000e995-4758-4652-ae25-dd1f2f74c47e","system_id":"levelo_inurba_marseille","lat":43.29718,"lon":5.37686,"is_reserved":false,"is_disabled":false,"rental_uris":{"android":"levelo://app?vid=c000e995-4758-4652-ae25-dd1f2f74c47e","ios":"levelo://app?vid=c000e995-4758-4652-ae25-dd1f2f74c47e"},"vehicle_type_id":"4","last_reported":1734505783,"current_range_meters":20400,"station_id":"ce4bgkh2rcd13ifvqbl0","pricing_plan_id":"cebpf4jnsgd1na2vs0mg"},{"bike_id":"a33b825e-c779-4129-842f-aeba22c7390a","system_id":"levelo_inurba_marseille","lat":43.31687,"lon":5.40468,"is_reserved":false,"is_disabled":false,"rental_uris":{"android":"levelo://app?vid=a33b825e-c779-4129-842f-aeba22c7390a","ios":"levelo://app?vid=a33b825e-c779-4129-842f-aeba22c7390a"},"vehicle_type_id":"4","last_reported":1734505783,"current_range_meters":38000,"station_id":"ce4bh012rcd13ifvqd00","pricing_plan_id":"cebpf4jnsgd1na2vs0mg"},{"bike_id":"492fd9a4-6f47-465d-9838-b5fa8d28f268","system_id":"levelo_inurba_marseille","lat":43.24665,"lon":5.3816,"is_reserved":false,"is_disabled":false,"rental_uris":{"android":"levelo://app?vid=492fd9a4-6f47-465d-9838-b5fa8d28f268","ios":"levelo://app?vid=492fd9a4-6f47-465d-9838-b5fa8d28f268"},"vehicle_type_id":"4","last_reported":1734505783,"current_range_meters":30000,"station_id":"ce4bhih2rcd13ifvqfr0","pricing_plan_id":"cebpf4jnsgd1na2vs0mg"},{"bike_id":"0bd5d813-d89e-42f3-8ce9-c06fb9ffedaa","system_id":"levelo_inurba_marseille","lat":43.28947,"lon":5.39657,"is_reserved":false,"is_disabled":true,"rental_uris":{"android":"levelo://app?vid=0bd5d813-d89e-42f3-8ce9-c06fb9ffedaa","ios":"levelo://app?vid=0bd5d813-d89e-42f3-8ce9-c06fb9ffedaa"},"vehicle_type_id":"4","last_reported":1734505783,"current_range_meters":35600,"station_id":"ce4bh3h2rcd13ifvqdn0","pricing_plan_id":"cebpf4jnsgd1na2vs0mg"},{"bike_id":"3736a2ec-3fec-4569-b975-7fc2f6b8f57d","system_id":"levelo_inurba_marseille","lat":43.31082,"lon":5.4243,"is_reserved":false,"is_disabled":false,"rental_uris":{"android":"levelo://app?vid=3736a2ec-3fec-4569-b975-7fc2f6b8f57d","ios":"levelo://app?vid=3736a2ec-3fec-4569-b975-7fc2f6b8f57d"},"vehicle_type_id":"4","last_reported":1734505783,"current_range_meters":27600,"station_id":"ce4bhp92rcd13ifvqhag","pricing_plan_id":"cebpf4jnsgd1na2vs0mg"},{"bike_id":"a45765b8-cd07-4591-bd50-f702c2042871","system_id":"levelo_inurba_marseille","lat":43.29609,"lon":5.38101,"is_reserved":false,"is_disabled":false,"rental_uris":{"android":"levelo://app?vid=a45765b8-cd07-4591-bd50-f702c2042871","ios":"levelo://app?vid=a45765b8-cd07-4591-bd50-f702c2042871"},"vehicle_type_id":"4","last_reported":1734505783,"current_range_meters":28400,"station_id":"ce4bgl12rcd13ifvqbo0","pricing_plan_id":"cebpf4jnsgd1na2vs0mg"},{"bike_id":"f404d61b-e886-41e7-8328-d0c9ca21a702","system_id":"levelo_inurba_marseille","lat":43.25586,"lon":5.38237,"is_reserved":false,"is_disabled":false,"rental_uris":{"android":"levelo://app?vid=f404d61b-e886-41e7-8328-d0c9ca21a702","ios":"levelo://app?vid=f404d61b-e886-41e7-8328-d0c9ca21a702"},"vehicle_type_id":"4","last_reported":1734505783,"current_range_meters":30400,"station_id":"ce4bhih2rcd13ifvqfs0","pricing_plan_id":"cebpf4jnsgd1na2vs0mg"},{"bike_id":"9a9ca54f-8f83-4db0-b780-a7eb0fa7f88d","system_id":"levelo_inurba_marseille","lat":43.26017,"lon":5.37559,"is_reserved":false,"is_disabled":false,"rental_uris":{"android":"levelo://app?vid=9a9ca54f-8f83-4db0-b780-a7eb0fa7f88d","ios":"levelo://app?vid=9a9ca54f-8f83-4db0-b780-a7eb0fa7f88d"},"vehicle_type_id":"4","last_reported":1734505783,"current_range_meters":35200,"station_id":"ce4bhgh2rcd13ifvqfa0","pricing_plan_id":"cebpf4jnsgd1na2vs0mg"},{"bike_id":"e72fa642-30df-464a-831c-61ff9cf06808","system_id":"levelo_inurba_marseille","lat":43.2308,"lon":5.35475,"is_reserved":false,"is_disabled":false,"rental_uris":{"android":"levelo://app?vid=e72fa642-30df-464a-831c-61ff9cf06808","ios":"levelo://app?vid=e72fa642-30df-464a-831c-61ff9cf06808"},"vehicle_type_id":"4","last_reported":1734505783,"current_range_meters":38400,"station_id":"cpo3342slgdg3j2ifvpg","pricing_plan_id":"cebpf4jnsgd1na2vs0mg"},{"bike_id":"a50cffde-8314-44b5-9206-e8acf2681d7f","system_id":"levelo_inurba_marseille","lat":43.25579,"lon":5.38228,"is_reserved":false,"is_disabled":false,"rental_uris":{"android":"levelo://app?vid=a50cffde-8314-44b5-9206-e8acf2681d7f","ios":"levelo://app?vid=a50cffde-8314-44b5-9206-e8acf2681d7f"},"vehicle_type_id":"4","last_reported":1734505783,"current_range_meters":39200,"station_id":"ce4bhih2rcd13ifvqfs0","pricing_plan_id":"cebpf4jnsgd1na2vs0mg"},{"bike_id":"4ad89db2-d7ae-4790-9e48-447a4f27414c","system_id":"levelo_inurba_marseille","lat":43.2694,"lon":5.4025,"is_reserved":false,"is_disabled":false,"rental_uris":{"android":"levelo://app?vid=4ad89db2-d7ae-4790-9e48-447a4f27414c","ios":"levelo://app?vid=4ad89db2-d7ae-4790-9e48-447a4f27414c"},"vehicle_type_id":"4","last_reported":1734505783,"current_range_meters":36000,"station_id":"cjm6bp8fraef2m0cb0m0","pricing_plan_id":"cebpf4jnsgd1na2vs0mg"},{"bike_id":"95c69429-156c-453e-b2c0-5f65d6fe9b40","system_id":"levelo_inurba_marseille","lat":43.23185,"lon":5.39977,"is_reserved":false,"is_disabled":false,"rental_uris":{"android":"levelo://app?vid=95c69429-156c-453e-b2c0-5f65d6fe9b40","ios":"levelo://app?vid=95c69429-156c-453e-b2c0-5f65d6fe9b40"},"vehicle_type_id":"4","last_reported":1734505783,"current_range_meters":38800,"station_id":"ce4bhn12rcd13ifvqgqg","pricing_plan_id":"cebpf4jnsgd1na2vs0mg"},{"bike_id":"4cf5efef-ee90-4676-99d0-e0e11587cec4","system_id":"levelo_inurba_marseille","lat":43.31891,"lon":5.40722,"is_reserved":false,"is_disabled":false,"rental_uris":{"android":"levelo://app?vid=4cf5efef-ee90-4676-99d0-e0e11587cec4","ios":"levelo://app?vid=4cf5efef-ee90-4676-99d0-e0e11587cec4"},"vehicle_type_id":"4","last_reported":1734505783,"current_range_meters":38800,"station_id":"ce4bhq12rcd13ifvqhig","pricing_plan_id":"cebpf4jnsgd1na2vs0mg"},{"bike_id":"28ac3a1f-161e-4588-adbc-a2ab7948c43e","system_id":"levelo_inurba_marseille","lat":43.31686,"lon":5.40476,"is_reserved":false,"is_disabled":false,"rental_uris":{"android":"levelo://app?vid=28ac3a1f-161e-4588-adbc-a2ab7948c43e","ios":"levelo://app?vid=28ac3a1f-161e-4588-adbc-a2ab7948c43e"},"vehicle_type_id":"4","last_reported":1734505783,"current_range_meters":28400,"station_id":"ce4bh012rcd13ifvqd00","pricing_plan_id":"cebpf4jnsgd1na2vs0mg"},{"bike_id":"7ccf8dff-fa2a-4b1f-b53a-adf7b02d4c9a","system_id":"levelo_inurba_marseille","lat":43.315,"lon":5.37296,"is_reserved":false,"is_disabled":false,"rental_uris":{"android":"levelo://app?vid=7ccf8dff-fa2a-4b1f-b53a-adf7b02d4c9a","ios":"levelo://app?vid=7ccf8dff-fa2a-4b1f-b53a-adf7b02d4c9a"},"vehicle_type_id":"4","last_reported":1734505783,"current_range_meters":8400,"station_id":"ce4bgt12rcd13ifvqcd0","pricing_plan_id":"cebpf4jnsgd1na2vs0mg"},{"bike_id":"a8c91e95-64ac-41d9-903b-be9cb1cc92c9","system_id":"levelo_inurba_marseille","lat":43.30523,"lon":5.36717,"is_reserved":false,"is_disabled":false,"rental_uris":{"android":"levelo://app?vid=a8c91e95-64ac-41d9-903b-be9cb1cc92c9","ios":"levelo://app?vid=a8c91e95-64ac-41d9-903b-be9cb1cc92c9"},"vehicle_type_id":"4","last_reported":1734505783,"current_range_meters":14400,"station_id":"ce4bgrp2rcd13ifvqc9g","pricing_plan_id":"cebpf4jnsgd1na2vs0mg"},{"bike_id":"954bb841-abd1-425d-9152-c3c22de972e7","system_id":"levelo_inurba_marseille","lat":43.31087,"lon":5.37844,"is_reserved":false,"is_disabled":false,"rental_uris":{"android":"levelo://app?vid=954bb841-abd1-425d-9152-c3c22de972e7","ios":"levelo://app?vid=954bb841-abd1-425d-9152-c3c22de972e7"},"vehicle_type_id":"4","last_reported":1734505783,"current_range_meters":19600,"station_id":"","pricing_plan_id":"cebpf4jnsgd1na2vs0mg"},{"bike_id":"6c60bfe9-4499-4e2b-a844-de92fcb74195","system_id":"levelo_inurba_marseille","lat":43.26932,"lon":5.38657,"is_reserved":false,"is_disabled":false,"rental_uris":{"android":"levelo://app?vid=6c60bfe9-4499-4e2b-a844-de92fcb74195","ios":"levelo://app?vid=6c60bfe9-4499-4e2b-a844-de92fcb74195"},"vehicle_type_id":"4","last_reported":1734505783,"current_range_meters":38400,"station_id":"ce4bhh92rcd13ifvqfh0","pricing_plan_id":"cebpf4jnsgd1na2vs0mg"},{"bike_id":"cd5e58f5-fbdd-4785-a2ec-d140a73f54cc","system_id":"levelo_inurba_marseille","lat":43.27051,"lon":5.40261,"is_reserved":false,"is_disabled":false,"rental_uris":{"android":"levelo://app?vid=cd5e58f5-fbdd-4785-a2ec-d140a73f54cc","ios":"levelo://app?vid=cd5e58f5-fbdd-4785-a2ec-d140a73f54cc"},"vehicle_type_id":"4","last_reported":1734505783,"current_range_meters":28800,"station_id":"ce4bhk92rcd13ifvqgc0","pricing_plan_id":"cebpf4jnsgd1na2vs0mg"},{"bike_id":"c8399855-72d4-4f25-aa5a-52a18924a7b8","system_id":"levelo_inurba_marseille","lat":43.24168,"lon":5.3639,"is_reserved":false,"is_disabled":false,"rental_uris":{"android":"levelo://app?vid=c8399855-72d4-4f25-aa5a-52a18924a7b8","ios":"levelo://app?vid=c8399855-72d4-4f25-aa5a-52a18924a7b8"},"vehicle_type_id":"4","last_reported":1734505783,"current_range_meters":8000,"station_id":"cpo36qri1sfpv3e86is0","pricing_plan_id":"cebpf4jnsgd1na2vs0mg"},{"bike_id":"a1a3faca-38bf-487c-9520-a7076b550500","system_id":"levelo_inurba_marseille","lat":43.29788,"lon":5.39333,"is_reserved":false,"is_disabled":true,"rental_uris":{"android":"levelo://app?vid=a1a3faca-38bf-487c-9520-a7076b550500","ios":"levelo://app?vid=a1a3faca-38bf-487c-9520-a7076b550500"},"vehicle_type_id":"4","last_reported":1734505783,"current_range_meters":400,"station_id":"chh1huq6cuj3fo74tm60","pricing_plan_id":"cebpf4jnsgd1na2vs0mg"},{"bike_id":"96a1bef5-9d28-4109-b3bc-ba9e6fe8c606","system_id":"levelo_inurba_marseille","lat":43.27058,"lon":5.40262,"is_reserved":false,"is_disabled":false,"rental_uris":{"android":"levelo://app?vid=96a1bef5-9d28-4109-b3bc-ba9e6fe8c606","ios":"levelo://app?vid=96a1bef5-9d28-4109-b3bc-ba9e6fe8c606"},"vehicle_type_id":"4","last_reported":1734505783,"current_range_meters":30800,"station_id":"ce4bhk92rcd13ifvqgc0","pricing_plan_id":"cebpf4jnsgd1na2vs0mg"},{"bike_id":"caccf3df-025c-4334-8486-611a28578717","system_id":"levelo_inurba_marseille","lat":43.24666,"lon":5.38151,"is_reserved":false,"is_disabled":true,"rental_uris":{"android":"levelo://app?vid=caccf3df-025c-4334-8486-611a28578717","ios":"levelo://app?vid=caccf3df-025c-4334-8486-611a28578717"},"vehicle_type_id":"4","last_reported":1734505783,"current_range_meters":0,"station_id":"ce4bhih2rcd13ifvqfr0","pricing_plan_id":"cebpf4jnsgd1na2vs0mg"},{"bike_id":"219a6588-c8d2-4f1b-b9be-08b30c1b23db","system_id":"levelo_inurba_marseille","lat":43.28929,"lon":5.36636,"is_reserved":false,"is_disabled":false,"rental_uris":{"android":"levelo://app?vid=219a6588-c8d2-4f1b-b9be-08b30c1b23db","ios":"levelo://app?vid=219a6588-c8d2-4f1b-b9be-08b30c1b23db"},"vehicle_type_id":"4","last_reported":1734505783,"current_range_meters":30000,"station_id":"ce4bhap2rcd13ifvqek0","pricing_plan_id":"cebpf4jnsgd1na2vs0mg"},{"bike_id":"b45daf65-5b67-4bc0-978a-c1a84814a05b","system_id":"levelo_inurba_marseille","lat":43.29101,"lon":5.38126,"is_reserved":false,"is_disabled":false,"rental_uris":{"android":"levelo://app?vid=b45daf65-5b67-4bc0-978a-c1a84814a05b","ios":"levelo://app?vid=b45daf65-5b67-4bc0-978a-c1a84814a05b"},"vehicle_type_id":"4","last_reported":1734505783,"current_range_meters":32400,"station_id":"ce4bh512rcd13ifvqe2g","pricing_plan_id":"cebpf4jnsgd1na2vs0mg"},{"bike_id":"a8bdc8af-22ae-44e8-95f9-b4acc5a33e90","system_id":"levelo_inurba_marseille","lat":43.2708,"lon":5.4227,"is_reserved":false,"is_disabled":false,"rental_uris":{"android":"levelo://app?vid=a8bdc8af-22ae-44e8-95f9-b4acc5a33e90","ios":"levelo://app?vid=a8bdc8af-22ae-44e8-95f9-b4acc5a33e90"},"vehicle_type_id":"4","last_reported":1734505783,"current_range_meters":35600,"station_id":"ce4bhk92rcd13ifvqgb0","pricing_plan_id":"cebpf4jnsgd1na2vs0mg"},{"bike_id":"c09638b7-3192-49b1-a7f3-9c0b3cb98f80","system_id":"levelo_inurba_marseille","lat":43.27984,"lon":5.41661,"is_reserved":false,"is_disabled":true,"rental_uris":{"android":"levelo://app?vid=c09638b7-3192-49b1-a7f3-9c0b3cb98f80","ios":"levelo://app?vid=c09638b7-3192-49b1-a7f3-9c0b3cb98f80"},"vehicle_type_id":"4","last_reported":1734505783,"current_range_meters":38800,"station_id":"ce4bho12rcd13ifvqh1g","pricing_plan_id":"cebpf4jnsgd1na2vs0mg"},{"bike_id":"1c85d83e-75c3-4060-a44c-bc5d56fd555b","system_id":"levelo_inurba_marseille","lat":43.29563,"lon":5.37506,"is_reserved":false,"is_disabled":false,"rental_uris":{"android":"levelo://app?vid=1c85d83e-75c3-4060-a44c-bc5d56fd555b","ios":"levelo://app?vid=1c85d83e-75c3-4060-a44c-bc5d56fd555b"},"vehicle_type_id":"4","last_reported":1734505783,"current_range_meters":28000,"station_id":"ce4bgh92rcd13ifvqb50","pricing_plan_id":"cebpf4jnsgd1na2vs0mg"},{"bike_id":"76adf408-c037-4157-88f5-eab2cfbef1ca","system_id":"levelo_inurba_marseille","lat":43.33014,"lon":5.39031,"is_reserved":false,"is_disabled":false,"rental_uris":{"android":"levelo://app?vid=76adf408-c037-4157-88f5-eab2cfbef1ca","ios":"levelo://app?vid=76adf408-c037-4157-88f5-eab2cfbef1ca"},"vehicle_type_id":"4","last_reported":1734505783,"current_range_meters":28000,"station_id":"ce4bhr92rcd13ifvqhrg","pricing_plan_id":"cebpf4jnsgd1na2vs0mg"},{"bike_id":"e4856975-6c50-4c18-aa16-ab1cf01ac212","system_id":"levelo_inurba_marseille","lat":43.29969,"lon":5.38501,"is_reserved":false,"is_disabled":false,"rental_uris":{"android":"levelo://app?vid=e4856975-6c50-4c18-aa16-ab1cf01ac212","ios":"levelo://app?vid=e4856975-6c50-4c18-aa16-ab1cf01ac212"},"vehicle_type_id":"4","last_reported":1734505783,"current_range_meters":36400,"station_id":"ce4bgj92rcd13ifvqbd0","pricing_plan_id":"cebpf4jnsgd1na2vs0mg"},{"bike_id":"91ee1933-7065-49af-8683-d92c503f6ac5","system_id":"levelo_inurba_marseille","lat":43.26686,"lon":5.3827,"is_reserved":false,"is_disabled":false,"rental_uris":{"android":"levelo://app?vid=91ee1933-7065-49af-8683-d92c503f6ac5","ios":"levelo://app?vid=91ee1933-7065-49af-8683-d92c503f6ac5"},"vehicle_type_id":"4","last_reported":1734505783,"current_range_meters":18800,"station_id":"ce4bhg92rcd13ifvqf90","pricing_plan_id":"cebpf4jnsgd1na2vs0mg"},{"bike_id":"af2b51d8-b4ee-40a2-999c-2cfbbd174658","system_id":"levelo_inurba_marseille","lat":43.27282,"lon":5.391461,"is_reserved":false,"is_disabled":false,"rental_uris":{"android":"levelo://app?vid=af2b51d8-b4ee-40a2-999c-2cfbbd174658","ios":"levelo://app?vid=af2b51d8-b4ee-40a2-999c-2cfbbd174658"},"vehicle_type_id":"4","last_reported":1734505783,"current_range_meters":16800,"station_id":"ce4bh412rcd13ifvqdr0","pricing_plan_id":"cebpf4jnsgd1na2vs0mg"},{"bike_id":"e234880d-a291-45ed-8a9a-6a83de9cc650","system_id":"levelo_inurba_marseille","lat":43.28944,"lon":5.36427,"is_reserved":false,"is_disabled":false,"rental_uris":{"android":"levelo://app?vid=e234880d-a291-45ed-8a9a-6a83de9cc650","ios":"levelo://app?vid=e234880d-a291-45ed-8a9a-6a83de9cc650"},"vehicle_type_id":"4","last_reported":1734505783,"current_range_meters":22800,"station_id":"ce4bhc92rcd13ifvqetg","pricing_plan_id":"cebpf4jnsgd1na2vs0mg"},{"bike_id":"dac211e7-f278-4f35-910f-62503c1e8281","system_id":"levelo_inurba_marseille","lat":43.31386,"lon":5.38508,"is_reserved":false,"is_disabled":false,"rental_uris":{"android":"levelo://app?vid=dac211e7-f278-4f35-910f-62503c1e8281","ios":"levelo://app?vid=dac211e7-f278-4f35-910f-62503c1e8281"},"vehicle_type_id":"4","last_reported":1734505783,"current_range_meters":38000,"station_id":"ce4bgt92rcd13ifvqcf0","pricing_plan_id":"cebpf4jnsgd1na2vs0mg"},{"bike_id":"32f226fb-f4e2-4d81-a201-914e1005fad4","system_id":"levelo_inurba_marseille","lat":43.31702,"lon":5.40449,"is_reserved":false,"is_disabled":false,"rental_uris":{"android":"levelo://app?vid=32f226fb-f4e2-4d81-a201-914e1005fad4","ios":"levelo://app?vid=32f226fb-f4e2-4d81-a201-914e1005fad4"},"vehicle_type_id":"4","last_reported":1734505783,"current_range_meters":32000,"station_id":"ce4bh012rcd13ifvqd00","pricing_plan_id":"cebpf4jnsgd1na2vs0mg"},{"bike_id":"b2d380e8-08ed-495f-a052-5d7dfa068f5b","system_id":"levelo_inurba_marseille","lat":43.26949,"lon":5.3863,"is_reserved":false,"is_disabled":true,"rental_uris":{"android":"levelo://app?vid=b2d380e8-08ed-495f-a052-5d7dfa068f5b","ios":"levelo://app?vid=b2d380e8-08ed-495f-a052-5d7dfa068f5b"},"vehicle_type_id":"4","last_reported":1734505783,"current_range_meters":0,"station_id":"ce4bhh92rcd13ifvqfh0","pricing_plan_id":"cebpf4jnsgd1na2vs0mg"},{"bike_id":"babb37a9-29a2-4b85-a0eb-62da686789fd","system_id":"levelo_inurba_marseille","lat":43.27817,"lon":5.40718,"is_reserved":false,"is_disabled":false,"rental_uris":{"android":"levelo://app?vid=babb37a9-29a2-4b85-a0eb-62da686789fd","ios":"levelo://app?vid=babb37a9-29a2-4b85-a0eb-62da686789fd"},"vehicle_type_id":"4","last_reported":1734505783,"current_range_meters":16000,"station_id":"ce4bhnh2rcd13ifvqgtg","pricing_plan_id":"cebpf4jnsgd1na2vs0mg"},{"bike_id":"0207f8a4-516c-46ff-9895-b226d519d4c1","system_id":"levelo_inurba_marseille","lat":43.23198,"lon":5.35537,"is_reserved":false,"is_disabled":false,"rental_uris":{"android":"levelo://app?vid=0207f8a4-516c-46ff-9895-b226d519d4c1","ios":"levelo://app?vid=0207f8a4-516c-46ff-9895-b226d519d4c1"},"vehicle_type_id":"4","last_reported":1734505783,"current_range_meters":37600,"station_id":"ce4bhu92rcd13ifvqi70","pricing_plan_id":"cebpf4jnsgd1na2vs0mg"},{"bike_id":"337d5255-a743-4b8b-be62-705a6a0bd60e","system_id":"levelo_inurba_marseille","lat":43.29042,"lon":5.38645,"is_reserved":false,"is_disabled":false,"rental_uris":{"android":"levelo://app?vid=337d5255-a743-4b8b-be62-705a6a0bd60e","ios":"levelo://app?vid=337d5255-a743-4b8b-be62-705a6a0bd60e"},"vehicle_type_id":"4","last_reported":1734505783,"current_range_meters":14400,"station_id":"ce4bh4p2rcd13ifvqe0g","pricing_plan_id":"cebpf4jnsgd1na2vs0mg"},{"bike_id":"92a5d146-0435-42ac-8e71-1704f0bde34f","system_id":"levelo_inurba_marseille","lat":43.29423,"lon":5.38629,"is_reserved":false,"is_disabled":false,"rental_uris":{"android":"levelo://app?vid=92a5d146-0435-42ac-8e71-1704f0bde34f","ios":"levelo://app?vid=92a5d146-0435-42ac-8e71-1704f0bde34f"},"vehicle_type_id":"4","last_reported":1734505783,"current_range_meters":38800,"station_id":"ce4bh2h2rcd13ifvqdh0","pricing_plan_id":"cebpf4jnsgd1na2vs0mg"},{"bike_id":"82f7f145-591c-4ce0-8f76-660882a2845e","system_id":"levelo_inurba_marseille","lat":43.33606,"lon":5.41006,"is_reserved":false,"is_disabled":true,"rental_uris":{"android":"levelo://app?vid=82f7f145-591c-4ce0-8f76-660882a2845e","ios":"levelo://app?vid=82f7f145-591c-4ce0-8f76-660882a2845e"},"vehicle_type_id":"4","last_reported":1734505783,"current_range_meters":30800,"station_id":"ce4bhqh2rcd13ifvqhmg","pricing_plan_id":"cebpf4jnsgd1na2vs0mg"},{"bike_id":"b66390ea-55d1-454d-8192-726419b088f7","system_id":"levelo_inurba_marseille","lat":43.29269,"lon":5.40129,"is_reserved":false,"is_disabled":true,"rental_uris":{"android":"levelo://app?vid=b66390ea-55d1-454d-8192-726419b088f7","ios":"levelo://app?vid=b66390ea-55d1-454d-8192-726419b088f7"},"vehicle_type_id":"4","last_reported":1734505783,"current_range_meters":19200,"station_id":"ce4bh312rcd13ifvqdk0","pricing_plan_id":"cebpf4jnsgd1na2vs0mg"},{"bike_id":"82393e71-191a-4e8b-b482-e22731b32257","system_id":"levelo_inurba_marseille","lat":43.29623,"lon":5.37716,"is_reserved":false,"is_disabled":false,"rental_uris":{"android":"levelo://app?vid=82393e71-191a-4e8b-b482-e22731b32257","ios":"levelo://app?vid=82393e71-191a-4e8b-b482-e22731b32257"},"vehicle_type_id":"4","last_reported":1734505783,"current_range_meters":38000,"station_id":"ce4bgi92rcd13ifvqb90","pricing_plan_id":"cebpf4jnsgd1na2vs0mg"},{"bike_id":"def32f18-27fc-468e-acd5-f3b4d35d2292","system_id":"levelo_inurba_marseille","lat":43.2871,"lon":5.37959,"is_reserved":false,"is_disabled":false,"rental_uris":{"android":"levelo://app?vid=def32f18-27fc-468e-acd5-f3b4d35d2292","ios":"levelo://app?vid=def32f18-27fc-468e-acd5-f3b4d35d2292"},"vehicle_type_id":"4","last_reported":1734505783,"current_range_meters":36800,"station_id":"ce4bh9p2rcd13ifvqec0","pricing_plan_id":"cebpf4jnsgd1na2vs0mg"},{"bike_id":"ac7c5f56-daad-496c-965f-9103737000e8","system_id":"levelo_inurba_marseille","lat":43.23962,"lon":5.36646,"is_reserved":false,"is_disabled":false,"rental_uris":{"android":"levelo://app?vid=ac7c5f56-daad-496c-965f-9103737000e8","ios":"levelo://app?vid=ac7c5f56-daad-496c-965f-9103737000e8"},"vehicle_type_id":"4","last_reported":1734505783,"current_range_meters":38800,"station_id":"ce4bhi12rcd13ifvqfp0","pricing_plan_id":"cebpf4jnsgd1na2vs0mg"},{"bike_id":"a90bea20-d57f-40e4-af5f-837e154fb5b7","system_id":"levelo_inurba_marseille","lat":43.32366,"lon":5.38886,"is_reserved":false,"is_disabled":false,"rental_uris":{"android":"levelo://app?vid=a90bea20-d57f-40e4-af5f-837e154fb5b7","ios":"levelo://app?vid=a90bea20-d57f-40e4-af5f-837e154fb5b7"},"vehicle_type_id":"4","last_reported":1734505783,"current_range_meters":36800,"station_id":"ce4bhqp2rcd13ifvqhog","pricing_plan_id":"cebpf4jnsgd1na2vs0mg"},{"bike_id":"4c58cd5b-ed44-4337-941a-35f1fd6aa26a","system_id":"levelo_inurba_marseille","lat":43.28353,"lon":5.38101,"is_reserved":false,"is_disabled":false,"rental_uris":{"android":"levelo://app?vid=4c58cd5b-ed44-4337-941a-35f1fd6aa26a","ios":"levelo://app?vid=4c58cd5b-ed44-4337-941a-35f1fd6aa26a"},"vehicle_type_id":"4","last_reported":1734505783,"current_range_meters":35600,"station_id":"ce4bh412rcd13ifvqdr0","pricing_plan_id":"cebpf4jnsgd1na2vs0mg"},{"bike_id":"f5d6a80f-4cdc-43d9-a251-ed5436737e28","system_id":"levelo_inurba_marseille","lat":43.315307,"lon":5.380263,"is_reserved":false,"is_disabled":false,"rental_uris":{"android":"levelo://app?vid=f5d6a80f-4cdc-43d9-a251-ed5436737e28","ios":"levelo://app?vid=f5d6a80f-4cdc-43d9-a251-ed5436737e28"},"vehicle_type_id":"4","last_reported":1734505783,"current_range_meters":38800,"station_id":"ce4bhsp2rcd13ifvqi50","pricing_plan_id":"cebpf4jnsgd1na2vs0mg"},{"bike_id":"e1561eb8-22de-459f-a629-d5e80c323aa1","system_id":"levelo_inurba_marseille","lat":43.31195,"lon":5.36873,"is_reserved":false,"is_disabled":false,"rental_uris":{"android":"levelo://app?vid=e1561eb8-22de-459f-a629-d5e80c323aa1","ios":"levelo://app?vid=e1561eb8-22de-459f-a629-d5e80c323aa1"},"vehicle_type_id":"4","last_reported":1734505783,"current_range_meters":39200,"station_id":"ce4bgr92rcd13ifvqc6g","pricing_plan_id":"cebpf4jnsgd1na2vs0mg"},{"bike_id":"cb66e355-1e6f-4e42-9686-091df755abf7","system_id":"levelo_inurba_marseille","lat":43.25007,"lon":5.38915,"is_reserved":false,"is_disabled":false,"rental_uris":{"android":"levelo://app?vid=cb66e355-1e6f-4e42-9686-091df755abf7","ios":"levelo://app?vid=cb66e355-1e6f-4e42-9686-091df755abf7"},"vehicle_type_id":"4","last_reported":1734505783,"current_range_meters":20800,"station_id":"ce4bhgp2rcd13ifvqfd0","pricing_plan_id":"cebpf4jnsgd1na2vs0mg"},{"bike_id":"2930b0aa-490d-4fb3-8a08-264fb66d6945","system_id":"levelo_inurba_marseille","lat":43.24647,"lon":5.38901,"is_reserved":false,"is_disabled":false,"rental_uris":{"android":"levelo://app?vid=2930b0aa-490d-4fb3-8a08-264fb66d6945","ios":"levelo://app?vid=2930b0aa-490d-4fb3-8a08-264fb66d6945"},"vehicle_type_id":"4","last_reported":1734505783,"current_range_meters":38800,"station_id":"ce4bhg12rcd13ifvqf60","pricing_plan_id":"cebpf4jnsgd1na2vs0mg"},{"bike_id":"4e92461c-75d7-441b-8498-ed41d6f3d47d","system_id":"levelo_inurba_marseille","lat":43.30593,"lon":5.39353,"is_reserved":false,"is_disabled":false,"rental_uris":{"android":"levelo://app?vid=4e92461c-75d7-441b-8498-ed41d6f3d47d","ios":"levelo://app?vid=4e92461c-75d7-441b-8498-ed41d6f3d47d"},"vehicle_type_id":"4","last_reported":1734505783,"current_range_meters":12000,"station_id":"ce4bh0p2rcd13ifvqd80","pricing_plan_id":"cebpf4jnsgd1na2vs0mg"},{"bike_id":"30ec45ae-1dce-4d6b-bdf7-16fccf230f65","system_id":"levelo_inurba_marseille","lat":43.28457,"lon":5.35895,"is_reserved":false,"is_disabled":true,"rental_uris":{"android":"levelo://app?vid=30ec45ae-1dce-4d6b-bdf7-16fccf230f65","ios":"levelo://app?vid=30ec45ae-1dce-4d6b-bdf7-16fccf230f65"},"vehicle_type_id":"4","last_reported":1734505783,"current_range_meters":3200,"station_id":"ce4bhah2rcd13ifvqei0","pricing_plan_id":"cebpf4jnsgd1na2vs0mg"},{"bike_id":"46fafe2c-6c10-4fc1-9b6d-ceeb07c5a585","system_id":"levelo_inurba_marseille","lat":43.28983,"lon":5.37828,"is_reserved":false,"is_disabled":false,"rental_uris":{"android":"levelo://app?vid=46fafe2c-6c10-4fc1-9b6d-ceeb07c5a585","ios":"levelo://app?vid=46fafe2c-6c10-4fc1-9b6d-ceeb07c5a585"},"vehicle_type_id":"4","last_reported":1734505783,"current_range_meters":28400,"station_id":"ce4bh9p2rcd13ifvqed0","pricing_plan_id":"cebpf4jnsgd1na2vs0mg"},{"bike_id":"7bd2924e-69c5-4634-912c-48a8766a198a","system_id":"levelo_inurba_marseille","lat":43.27492,"lon":5.42452,"is_reserved":false,"is_disabled":false,"rental_uris":{"android":"levelo://app?vid=7bd2924e-69c5-4634-912c-48a8766a198a","ios":"levelo://app?vid=7bd2924e-69c5-4634-912c-48a8766a198a"},"vehicle_type_id":"4","last_reported":1734505783,"current_range_meters":23200,"station_id":"ce4bhn92rcd13ifvqgrg","pricing_plan_id":"cebpf4jnsgd1na2vs0mg"},{"bike_id":"991a6937-87f3-4f52-a962-216ff783cb0b","system_id":"levelo_inurba_marseille","lat":43.2557,"lon":5.38223,"is_reserved":false,"is_disabled":false,"rental_uris":{"android":"levelo://app?vid=991a6937-87f3-4f52-a962-216ff783cb0b","ios":"levelo://app?vid=991a6937-87f3-4f52-a962-216ff783cb0b"},"vehicle_type_id":"4","last_reported":1734505783,"current_range_meters":38800,"station_id":"ce4bhih2rcd13ifvqfs0","pricing_plan_id":"cebpf4jnsgd1na2vs0mg"},{"bike_id":"b59c647e-051a-4eb5-a082-deb3a3d33fa7","system_id":"levelo_inurba_marseille","lat":43.292685,"lon":5.401244,"is_reserved":false,"is_disabled":true,"rental_uris":{"android":"levelo://app?vid=b59c647e-051a-4eb5-a082-deb3a3d33fa7","ios":"levelo://app?vid=b59c647e-051a-4eb5-a082-deb3a3d33fa7"},"vehicle_type_id":"4","last_reported":1734505783,"current_range_meters":16000,"station_id":"ce4bh312rcd13ifvqdk0","pricing_plan_id":"cebpf4jnsgd1na2vs0mg"},{"bike_id":"c3ef060d-eda5-46a4-9301-49c99177993a","system_id":"levelo_inurba_marseille","lat":43.24068,"lon":5.3776,"is_reserved":false,"is_disabled":false,"rental_uris":{"android":"levelo://app?vid=c3ef060d-eda5-46a4-9301-49c99177993a","ios":"levelo://app?vid=c3ef060d-eda5-46a4-9301-49c99177993a"},"vehicle_type_id":"4","last_reported":1734505783,"current_range_meters":22000,"station_id":"ce4bhnp2rcd13ifvqgvg","pricing_plan_id":"cebpf4jnsgd1na2vs0mg"},