{"last_updated":1729217540,"ttl":60,"version":"2.2","data":{"bikes":[{"bike_id":"ad3740dd-d1ed-4d39-a629-64e6b998150a","system_id":"levelo_inurba_marseille","lat":43.25105,"lon":5.40334,"is_reserved":false,"is_disabled":false,"rental_uris":{"android":"levelo://app?vid=ad3740dd-d1ed-4d39-a629-64e6b998150a","ios":"levelo://app?vid=ad3740dd-d1ed-4d39-a629-64e6b998150a"},"vehicle_type_id":"4","last_reported":1729217540,"current_range_meters":20400,"station_id":"ce4bhlh2rcd13ifvqgig","pricing_plan_id":"cebpf4jnsgd1na2vs0mg"},{"bike_id":"827c24bf-14df-499c-8c0e-70e69a8ae529","system_id":"levelo_inurba_marseille","lat":43.29554,"lon":5.42264,"is_reserved":false,"is_disabled":false,"rental_uris":{"android":"levelo://app?vid=827c24bf-14df-499c-8c0e-70e69a8ae529","ios":"levelo://app?vid=827c24bf-14df-499c-8c0e-70e69a8ae529"},"vehicle_type_id":"4","last_reported":1729217540,"current_range_meters":38800,"station_id":"ce4bhph2rcd13ifvqhdg","pricing_plan_id":"cebpf4jnsgd1na2vs0mg"},{"bike_id":"9a878f42-9b8c-4083-b673-12ab1f3990c0","system_id":"levelo_inurba_marseille","lat":43.29255,"lon":5.40893,"is_reserved":false,"is_disabled":false,"rental_uris":{"android":"levelo://app?vid=9a878f42-9b8c-4083-b673-12ab1f3990c0","ios":"levelo://app?vid=9a878f42-9b8c-4083-b673-12ab1f3990c0"},"vehicle_type_id":"4","last_reported":1729217540,"current_range_meters":27200,"station_id":"ce4bh192rcd13ifvqdc0","pricing_plan_id":"cebpf4jnsgd1na2vs0mg"},{"bike_id":"e327461c-f9f4-4e76-8534-30fe741cabe2","system_id":"levelo_inurba_marseille","lat":43.23175,"lon":5.39982,"is_reserved":false,"is_disabled":false,"rental_uris":{"android":"levelo://app?vid=e327461c-f9f4-4e76-8534-30fe741cabe2","ios":"levelo://app?vid=e327461c-f9f4-4e76-8534-30fe741cabe2"},"vehicle_type_id":"4","last_reported":1729217540,"current_range_meters":28800,"station_id":"ce4bhn12rcd13ifvqgqg","pricing_plan_id":"cebpf4jnsgd1na2vs0mg"},{"bike_id":"676ec6c4-6b42-43e0-81fe-327782965da5","system_id":"levelo_inurba_marseille","lat":43.33765,"lon":5.37484,"is_reserved":false,"is_disabled":false,"rental_uris":{"android":"levelo://app?vid=676ec6c4-6b42-43e0-81fe-327782965da5","ios":"levelo://app?vid=676ec6c4-6b42-43e0-81fe-327782965da5"},"vehicle_type_id":"4","last_reported":1729217540,"current_range_meters":20000,"station_id":"","pricing_plan_id":"cebpf4jnsgd1na2vs0mg"},{"bike_id":"bb760198-0abf-477e-b045-e4592285b8b4","system_id":"levelo_inurba_marseille","lat":43.29572,"lon":5.39992,"is_reserved":false,"is_disabled":false,"rental_uris":{"android":"levelo://app?vid=bb760198-0abf-477e-b045-e4592285b8b4","ios":"levelo://app?vid=bb760198-0abf-477e-b045-e4592285b8b4"},"vehicle_type_id":"4","last_reported":1729217540,"current_range_meters":38800,"station_id":"ce4bh312rcd13ifvqdj0","pricing_plan_id":"cebpf4jnsgd1na2vs0mg"},{"bike_id":"dd36d869-9b55-4a5a-bb04-3c24db77b13f","system_id":"levelo_inurba_marseille","lat":43.25577,"lon":5.38241,"is_reserved":false,"is_disabled":false,"rental_uris":{"android":"levelo://app?vid=dd36d869-9b55-4a5a-bb04-3c24db77b13f","ios":"levelo://app?vid=dd36d869-9b55-4a5a-bb04-3c24db77b13f"},"vehicle_type_id":"4","last_reported":1729217540,"current_range_meters":38000,"station_id":"ce4bhih2rcd13ifvqfs0","pricing_plan_id":"cebpf4jnsgd1na2vs0mg"},{"bike_id":"6475d355-317a-4e73-a7f0-14698c7623fc","system_id":"levelo_inurba_marseille","lat":43.31173,"lon":5.38734,"is_reserved":false,"is_disabled":false,"rental_uris":{"android":"levelo://app?vid=6475d355-317a-4e73-a7f0-14698c7623fc","ios":"levelo://app?vid=6475d355-317a-4e73-a7f0-14698c7623fc"},"vehicle_type_id":"4","last_reported":1729217540,"current_range_meters":27600,"station_id":"ce4bgv12rcd13ifvqcp0","pricing_plan_id":"cebpf4jnsgd1na2vs0mg"},{"bike_id":"0981fbc4-b08e-41c2-aa3f-23c80685a91f","system_id":"levelo_inurba_marseille","lat":43.30782,"lon":5.38176,"is_reserved":false,"is_disabled":false,"rental_uris":{"android":"levelo://app?vid=0981fbc4-b08e-41c2-aa3f-23c80685a91f","ios":"levelo://app?vid=0981fbc4-b08e-41c2-aa3f-23c80685a91f"},"vehicle_type_id":"4","last_reported":1729217540,"current_range_meters":38000,"station_id":"ce4bgt12rcd13ifvqce0","pricing_plan_id":"cebpf4jnsgd1na2vs0mg"},{"bike_id":"27a7a7f9-e4d8-48f5-a3db-737780b9e514","system_id":"levelo_inurba_marseille","lat":43.32097,"lon":5.36781,"is_reserved":false,"is_disabled":false,"rental_uris":{"android":"levelo://app?vid=27a7a7f9-e4d8-48f5-a3db-737780b9e514","ios":"levelo://app?vid=27a7a7f9-e4d8-48f5-a3db-737780b9e514"},"vehicle_type_id":"4","last_reported":1729217540,"current_range_meters":33600,"station_id":"ce4bhrh2rcd13ifvqhug","pricing_plan_id":"cebpf4jnsgd1na2vs0mg"},{"bike_id":"30e850d0-9aaf-49b7-8c98-c01d201a2a88","system_id":"levelo_inurba_marseille","lat":43.30886,"lon":5.39649,"is_reserved":false,"is_disabled":false,"rental_uris":{"android":"levelo://app?vid=30e850d0-9aaf-49b7-8c98-c01d201a2a88","ios":"levelo://app?vid=30e850d0-9aaf-49b7-8c98-c01d201a2a88"},"vehicle_type_id":"4","last_reported":1729217540,"current_range_meters":29600,"station_id":"ce4bh012rcd13ifvqcv0","pricing_plan_id":"cebpf4jnsgd1na2vs0mg"},{"bike_id":"a087c050-b95c-4a4a-af86-b09eec04df0c","system_id":"levelo_inurba_marseille","lat":43.28695,"lon":5.39976,"is_reserved":false,"is_disabled":false,"rental_uris":{"android":"levelo://app?vid=a087c050-b95c-4a4a-af86-b09eec04df0c","ios":"levelo://app?vid=a087c050-b95c-4a4a-af86-b09eec04df0c"},"vehicle_type_id":"4","last_reported":1729217540,"current_range_meters":24400,"station_id":"ce4bho92rcd13ifvqh3g","pricing_plan_id":"cebpf4jnsgd1na2vs0mg"},{"bike_id":"276ccc15-2edd-47d4-b6bd-cf0a0442b0f5","system_id":"levelo_inurba_marseille","lat":43.25574,"lon":5.38248,"is_reserved":false,"is_disabled":false,"rental_uris":{"android":"levelo://app?vid=276ccc15-2edd-47d4-b6bd-cf0a0442b0f5","ios":"levelo://app?vid=276ccc15-2edd-47d4-b6bd-cf0a0442b0f5"},"vehicle_type_id":"4","last_reported":1729217540,"current_range_meters":38000,"station_id":"ce4bhih2rcd13ifvqfs0","pricing_plan_id":"cebpf4jnsgd1na2vs0mg"},{"bike_id":"a7a9c125-54d9-440d-847f-49ac30798c25","system_id":"levelo_inurba_marseille","lat":43.31168,"lon":5.38722,"is_reserved":false,"is_disabled":false,"rental_uris":{"android":"levelo://app?vid=a7a9c125-54d9-440d-847f-49ac30798c25","ios":"levelo://app?vid=a7a9c125-54d9-440d-847f-49ac30798c25"},"vehicle_type_id":"4","last_reported":1729217540,"current_range_meters":38800,"station_id":"ce4bgv12rcd13ifvqcp0","pricing_plan_id":"cebpf4jnsgd1na2vs0mg"},{"bike_id":"0bc40f4d-d28f-482a-b4aa-288131ac7874","system_id":"levelo_inurba_marseille","lat":43.3137,"lon":5.3849,"is_reserved":false,"is_disabled":false,"rental_uris":{"android":"levelo://app?vid=0bc40f4d-d28f-482a-b4aa-288131ac7874","ios":"levelo://app?vid=0bc40f4d-d28f-482a-b4aa-288131ac7874"},"vehicle_type_id":"4","last_reported":1729217540,"current_range_meters":36800,"station_id":"ce4bgt92rcd13ifvqcf0","pricing_plan_id":"cebpf4jnsgd1na2vs0mg"},{"bike_id":"3f66dd1c-9be6-4b94-886c-d04770b03feb","system_id":"levelo_inurba_marseille","lat":43.33009,"lon":5.39029,"is_reserved":false,"is_disabled":false,"rental_uris":{"android":"levelo://app?vid=3f66dd1c-9be6-4b94-886c-d04770b03feb","ios":"levelo://app?vid=3f66dd1c-9be6-4b94-886c-d04770b03feb"},"vehicle_type_id":"4","last_reported":1729217540,"current_range_meters":39200,"station_id":"ce4bhr92rcd13ifvqhrg","pricing_plan_id":"cebpf4jnsgd1na2vs0mg"},{"bike_id":"9c3612f1-7535-4092-b3c2-9687af5e3b48","system_id":"levelo_inurba_marseille","lat":43.29249,"lon":5.40906,"is_reserved":false,"is_disabled":false,"rental_uris":{"android":"levelo://app?vid=9c3612f1-7535-4092-b3c2-9687af5e3b48","ios":"levelo://app?vid=9c3612f1-7535-4092-b3c2-9687af5e3b48"},"vehicle_type_id":"4","last_reported":1729217540,"current_range_meters":28000,"station_id":"ce4bh192rcd13ifvqdc0","pricing_plan_id":"cebpf4jnsgd1na2vs0mg"},{"bike_id":"01482ca5-9a5a-43c5-a4aa-5f78f019b8b0","system_id":"levelo_inurba_marseille","lat":43.26547,"lon":5.37289,"is_reserved":false,"is_disabled":false,"rental_uris":{"android":"levelo://app?vid=01482ca5-9a5a-43c5-a4aa-5f78f019b8b0","ios":"levelo://app?vid=01482ca5-9a5a-43c5-a4aa-5f78f019b8b0"},"vehicle_type_id":"4","last_reported":1729217540,"current_range_meters":36800,"station_id":"ce4bhg12rcd13ifvqf70","pricing_plan_id":"cebpf4jnsgd1na2vs0mg"},{"bike_id":"29689e71-334c-4200-aca7-1d7023ddf226","system_id":"levelo_inurba_marseille","lat":43.32281,"lon":5.38281,"is_reserved":false,"is_disabled":false,"rental_uris":{"android":"levelo://app?vid=29689e71-334c-4200-aca7-1d7023ddf226","ios":"levelo://app?vid=29689e71-334c-4200-aca7-1d7023ddf226"},"vehicle_type_id":"4","last_reported":1729217540,"current_range_meters":38800,"station_id":"ce4bhr12rcd13ifvqhqg","pricing_plan_id":"cebpf4jnsgd1na2vs0mg"},{"bike_id":"0e9ad9af-e89b-412e-a7df-344fe8f113f7","system_id":"levelo_inurba_marseille","lat":43.25008,"lon":5.38929,"is_reserved":false,"is_disabled":false,"rental_uris":{"android":"levelo://app?vid=0e9ad9af-e89b-412e-a7df-344fe8f113f7","ios":"levelo://app?vid=0e9ad9af-e89b-412e-a7df-344fe8f113f7"},"vehicle_type_id":"4","last_reported":1729217540,"current_range_meters":39200,"station_id":"ce4bhgp2rcd13ifvqfd0","pricing_plan_id":"cebpf4jnsgd1na2vs0mg"},{"bike_id":"91ac8fa7-b7c8-4143-be6d-e2ffbaedc096","system_id":"levelo_inurba_marseille","lat":43.27064,"lon":5.42261,"is_reserved":false,"is_disabled":false,"rental_uris":{"android":"levelo://app?vid=91ac8fa7-b7c8-4143-be6d-e2ffbaedc096","ios":"levelo://app?vid=91ac8fa7-b7c8-4143-be6d-e2ffbaedc096"},"vehicle_type_id":"4","last_reported":1729217540,"current_range_meters":36000,"station_id":"ce4bhk92rcd13ifvqgb0","pricing_plan_id":"cebpf4jnsgd1na2vs0mg"},{"bike_id":"726525a7-a98a-44e5-8e96-b0556caa26be","system_id":"levelo_inurba_marseille","lat":43.31992,"lon":5.3815,"is_reserved":false,"is_disabled":false,"rental_uris":{"android":"levelo://app?vid=726525a7-a98a-44e5-8e96-b0556caa26be","ios":"levelo://app?vid=726525a7-a98a-44e5-8e96-b0556caa26be"},"vehicle_type_id":"4","last_reported":1729217540,"current_range_meters":38000,"station_id":"ce4bhr12rcd13ifvqhpg","pricing_plan_id":"cebpf4jnsgd1na2vs0mg"},{"bike_id":"191b113b-be16-492e-a876-32c12d6b048b","system_id":"levelo_inurba_marseille","lat":43.2408,"lon":5.3775,"is_reserved":false,"is_disabled":false,"rental_uris":{"android":"levelo://app?vid=191b113b-be16-492e-a876-32c12d6b048b","ios":"levelo://app?vid=191b113b-be16-492e-a876-32c12d6b048b"},"vehicle_type_id":"4","last_reported":1729217540,"current_range_meters":20400,"station_id":"ce4bhnp2rcd13ifvqgvg","pricing_plan_id":"cebpf4jnsgd1na2vs0mg"},{"bike_id":"ebac8b2d-a49c-4e0f-98ad-4b44fd876553","system_id":"levelo_inurba_marseille","lat":43.28652,"lon":5.36362,"is_reserved":false,"is_disabled":false,"rental_uris":{"android":"levelo://app?vid=ebac8b2d-a49c-4e0f-98ad-4b44fd876553","ios":"levelo://app?vid=ebac8b2d-a49c-4e0f-98ad-4b44fd876553"},"vehicle_type_id":"4","last_reported":1729217540,"current_range_meters":29600,"station_id":"ce4bhah2rcd13ifvqej0","pricing_plan_id":"cebpf4jnsgd1na2vs0mg"},{"bike_id":"5e5c7c6d-b1d9-410c-8522-a2e7fbaf1826","system_id":"levelo_inurba_marseille","lat":43.24055,"lon":5.37743,"is_reserved":false,"is_disabled":false,"rental_uris":{"android":"levelo://app?vid=5e5c7c6d-b1d9-410c-8522-a2e7fbaf1826","ios":"levelo://app?vid=5e5c7c6d-b1d9-410c-8522-a2e7fbaf1826"},"vehicle_type_id":"4","last_reported":1729217540,"current_range_meters":37600,"station_id":"ce4bhnp2rcd13ifvqgvg","pricing_plan_id":"cebpf4jnsgd1na2vs0mg"},{"bike_id":"a71414de-d2ee-4a17-94ea-50f620ba8558","system_id":"levelo_inurba_marseille","lat":43.28451,"lon":5.34988,"is_reserved":false,"is_disabled":false,"rental_uris":{"android":"levelo://app?vid=a71414de-d2ee-4a17-94ea-50f620ba8558","ios":"levelo://app?vid=a71414de-d2ee-4a17-94ea-50f620ba8558"},"vehicle_type_id":"4","last_reported":1729217540,"current_range_meters":38800,"station_id":"ce4bhbh2rcd13ifvqepg","pricing_plan_id":"cebpf4jnsgd1na2vs0mg"},{"bike_id":"9eb71d62-6643-4eb1-8b31-753efbf08c4b","system_id":"levelo_inurba_marseille","lat":43.25738,"lon":5.41054,"is_reserved":false,"is_disabled":false,"rental_uris":{"android":"levelo://app?vid=9eb71d62-6643-4eb1-8b31-753efbf08c4b","ios":"levelo://app?vid=9eb71d62-6643-4eb1-8b31-753efbf08c4b"},"vehicle_type_id":"4","last_reported":1729217540,"current_range_meters":37600,"station_id":"ce4bhkp2rcd13ifvqgd0","pricing_plan_id":"cebpf4jnsgd1na2vs0mg"},{"bike_id":"1f499db5-03af-42de-8640-026510d7e725","system_id":"levelo_inurba_marseille","lat":43.29268,"lon":5.40896,"is_reserved":false,"is_disabled":false,"rental_uris":{"android":"levelo://app?vid=1f499db5-03af-42de-8640-026510d7e725","ios":"levelo://app?vid=1f499db5-03af-42de-8640-026510d7e725"},"vehicle_type_id":"4","last_reported":1729217540,"current_range_meters":38800,"station_id":"ce4bh192rcd13ifvqdc0","pricing_plan_id":"cebpf4jnsgd1na2vs0mg"},{"bike_id":"af20b398-05ac-4062-b8ae-48c7424733e1","system_id":"levelo_inurba_marseille","lat":43.2603,"lon":5.37562,"is_reserved":false,"is_disabled":false,"rental_uris":{"android":"levelo://app?vid=af20b398-05ac-4062-b8ae-48c7424733e1","ios":"levelo://app?vid=af20b398-05ac-4062-b8ae-48c7424733e1"},"vehicle_type_id":"4","last_reported":1729217540,"current_range_meters":37600,"station_id":"ce4bhgh2rcd13ifvqfa0","pricing_plan_id":"cebpf4jnsgd1na2vs0mg"},{"bike_id":"4ae2c184-8c50-452d-87fb-8f7bf4f540f3","system_id":"levelo_inurba_marseille","lat":43.24651,"lon":5.38899,"is_reserved":false,"is_disabled":false,"rental_uris":{"android":"levelo://app?vid=4ae2c184-8c50-452d-87fb-8f7bf4f540f3","ios":"levelo://app?vid=4ae2c184-8c50-452d-87fb-8f7bf4f540f3"},"vehicle_type_id":"4","last_reported":1729217540,"current_range_meters":38800,"station_id":"ce4bhg12rcd13ifvqf60","pricing_plan_id":"cebpf4jnsgd1na2vs0mg"},{"bike_id":"791641b8-dabe-4982-982b-c8e7fc7abd5d","system_id":"levelo_inurba_marseille","lat":43.25109,"lon":5.40327,"is_reserved":false,"is_disabled":false,"rental_uris":{"android":"levelo://app?vid=791641b8-dabe-4982-982b-c8e7fc7abd5d","ios":"levelo://app?vid=791641b8-dabe-4982-982b-c8e7fc7abd5d"},"vehicle_type_id":"4","last_reported":1729217540,"current_range_meters":11200,"station_id":"ce4bhlh2rcd13ifvqgig","pricing_plan_id":"cebpf4jnsgd1na2vs0mg"},{"bike_id":"ccb21c06-b27a-4307-9e7c-1a0e8140fade","system_id":"levelo_inurba_marseille","lat":43.28459,"lon":5.35888,"is_reserved":false,"is_disabled":false,"rental_uris":{"android":"levelo://app?vid=ccb21c06-b27a-4307-9e7c-1a0e8140fade","ios":"levelo://app?vid=ccb21c06-b27a-4307-9e7c-1a0e8140fade"},"vehicle_type_id":"4","last_reported":1729217540,"current_range_meters":30400,"station_id":"ce4bhah2rcd13ifvqei0","pricing_plan_id":"cebpf4jnsgd1na2vs0mg"},{"bike_id":"bf409d02-c0c7-444c-b2a0-619ebcb73fb0","system_id":"levelo_inurba_marseille","lat":43.26797,"lon":5.39423,"is_reserved":false,"is_disabled":false,"rental_uris":{"android":"levelo://app?vid=bf409d02-c0c7-444c-b2a0-619ebcb73fb0","ios":"levelo://app?vid=bf409d02-c0c7-444c-b2a0-619ebcb73fb0"},"vehicle_type_id":"4","last_reported":1729217540,"current_range_meters":25600,"station_id":"ce4bhh12rcd13ifvqfg0","pricing_plan_id":"cebpf4jnsgd1na2vs0mg"},{"bike_id":"7668ac82-f874-422b-bc29-d2ba352a44eb","system_id":"levelo_inurba_marseille","lat":43.25104,"lon":5.40325,"is_reserved":false,"is_disabled":false,"rental_uris":{"android":"levelo://app?vid=7668ac82-f874-422b-bc29-d2ba352a44eb","ios":"levelo://app?vid=7668ac82-f874-422b-bc29-d2ba352a44eb"},"vehicle_type_id":"4","last_reported":1729217540,"current_range_meters":38000,"station_id":"ce4bhlh2rcd13ifvqgig","pricing_plan_id":"cebpf4jnsgd1na2vs0mg"},{"bike_id":"5a4320fd-668e-47a8-9a0f-748e783877c2","system_id":"levelo_inurba_marseille","lat":43.31707,"lon":5.437,"is_reserved":false,"is_disabled":false,"rental_uris":{"android":"levelo://app?vid=5a4320fd-668e-47a8-9a0f-748e783877c2","ios":"levelo://app?vid=5a4320fd-668e-47a8-9a0f-748e783877c2"},"vehicle_type_id":"4","last_reported":1729217540,"current_range_meters":17600,"station_id":"ce4bhp92rcd13ifvqhcg","pricing_plan_id":"cebpf4jnsgd1na2vs0mg"},{"bike_id":"3a97a36c-a579-4b58-978c-268e72317eee","system_id":"levelo_inurba_marseille","lat":43.28716,"lon":5.36088,"is_reserved":false,"is_disabled":false,"rental_uris":{"android":"levelo://app?vid=3a97a36c-a579-4b58-978c-268e72317eee","ios":"levelo://app?vid=3a97a36c-a579-4b58-978c-268e72317eee"},"vehicle_type_id":"4","last_reported":1729217540,"current_range_meters":33600,"station_id":"cki0cbj6b192h4jlfktg","pricing_plan_id":"cebpf4jnsgd1na2vs0mg"},{"bike_id":"06f58fa7-da52-492a-891e-9fcde30cb4ad","system_id":"levelo_inurba_marseille","lat":43.3108,"lon":5.42428,"is_reserved":false,"is_disabled":false,"rental_uris":{"android":"levelo://app?vid=06f58fa7-da52-492a-891e-9fcde30cb4ad","ios":"levelo://app?vid=06f58fa7-da52-492a-891e-9fcde30cb4ad"},"vehicle_type_id":"4","last_reported":1729217540,"current_range_meters":39200,"station_id":"ce4bhp92rcd13ifvqhag","pricing_plan_id":"cebpf4jnsgd1na2vs0mg"},{"bike_id":"ba385696-1c00-4366-b0a7-b17da0e20789","system_id":"levelo_inurba_marseille","lat":43.31759,"lon":5.39019,"is_reserved":false,"is_disabled":false,"rental_uris":{"android":"levelo://app?vid=ba385696-1c00-4366-b0a7-b17da0e20789","ios":"levelo://app?vid=ba385696-1c00-4366-b0a7-b17da0e20789"},"vehicle_type_id":"4","last_reported":1729217540,"current_range_meters":8000,"station_id":"ce4bhqp2rcd13ifvqhng","pricing_plan_id":"cebpf4jnsgd1na2vs0mg"},{"bike_id":"9b52dc28-0523-4016-b32d-da17a18f9538","system_id":"levelo_inurba_marseille","lat":43.25124,"lon":5.40326,"is_reserved":false,"is_disabled":false,"rental_uris":{"android":"levelo://app?vid=9b52dc28-0523-4016-b32d-da17a18f9538","ios":"levelo://app?vid=9b52dc28-0523-4016-b32d-da17a18f9538"},"vehicle_type_id":"4","last_reported":1729217540,"current_range_meters":30400,"station_id":"ce4bhlh2rcd13ifvqgig","pricing_plan_id":"cebpf4jnsgd1na2vs0mg"},{"bike_id":"d5d87b96-496a-454b-9e81-b0e5a09c72cf","system_id":"levelo_inurba_marseille","lat":43.28605,"lon":5.37075,"is_reserved":false,"is_disabled":false,"rental_uris":{"android":"levelo://app?vid=d5d87b96-496a-454b-9e81-b0e5a09c72cf","ios":"levelo://app?vid=d5d87b96-496a-454b-9e81-b0e5a09c72cf"},"vehicle_type_id":"4","last_reported":1729217540,"current_range_meters":38400,"station_id":"ce4bht12rcd13ifvqi60","pricing_plan_id":"cebpf4jnsgd1na2vs0mg"},{"bike_id":"052b3563-392a-4857-8174-027696f961ab","system_id":"levelo_inurba_marseille","lat":43.24648,"lon":5.38904,"is_reserved":false,"is_disabled":false,"rental_uris":{"android":"levelo://app?vid=052b3563-392a-4857-8174-027696f961ab","ios":"levelo://app?vid=052b3563-392a-4857-8174-027696f961ab"},"vehicle_type_id":"4","last_reported":1729217540,"current_range_meters":20000,"station_id":"ce4bhg12rcd13ifvqf60","pricing_plan_id":"cebpf4jnsgd1na2vs0mg"},{"bike_id":"919f97dd-27c0-40bb-8c98-a14e06a759dd","system_id":"levelo_inurba_marseille","lat":43.31079,"lon":5.38347,"is_reserved":false,"is_disabled":false,"rental_uris":{"android":"levelo://app?vid=919f97dd-27c0-40bb-8c98-a14e06a759dd","ios":"levelo://app?vid=919f97dd-27c0-40bb-8c98-a14e06a759dd"},"vehicle_type_id":"4","last_reported":1729217540,"current_range_meters":31200,"station_id":"ce4bgv92rcd13ifvqcr0","pricing_plan_id":"cebpf4jnsgd1na2vs0mg"},{"bike_id":"0822912b-aa59-4ed3-8c68-5d699efb7d77","system_id":"levelo_inurba_marseille","lat":43.32354,"lon":5.3886,"is_reserved":false,"is_disabled":false,"rental_uris":{"android":"levelo://app?vid=0822912b-aa59-4ed3-8c68-5d699efb7d77","ios":"levelo://app?vid=0822912b-aa59-4ed3-8c68-5d699efb7d77"},"vehicle_type_id":"4","last_reported":1729217540,"current_range_meters":13600,"station_id":"ce4bhqp2rcd13ifvqhog","pricing_plan_id":"cebpf4jnsgd1na2vs0mg"},{"bike_id":"332056e4-427f-41fb-bdf1-369b1e37f758","system_id":"levelo_inurba_marseille","lat":43.28683,"lon":5.3999,"is_reserved":false,"is_disabled":false,"rental_uris":{"android":"levelo://app?vid=332056e4-427f-41fb-bdf1-369b1e37f758","ios":"levelo://app?vid=332056e4-427f-41fb-bdf1-369b1e37f758"},"vehicle_type_id":"4","last_reported":1729217540,"current_range_meters":12400,"station_id":"ce4bho92rcd13ifvqh3g","pricing_plan_id":"cebpf4jnsgd1na2vs0mg"},{"bike_id":"7a001e1f-4f80-44e8-9bdc-c0abc7f8a32f","system_id":"levelo_inurba_marseille","lat":43.2751,"lon":5.42449,"is_reserved":false,"is_disabled":false,"rental_uris":{"android":"levelo://app?vid=7a001e1f-4f80-44e8-9bdc-c0abc7f8a32f","ios":"levelo://app?vid=7a001e1f-4f80-44e8-9bdc-c0abc7f8a32f"},"vehicle_type_id":"4","last_reported":1729217540,"current_range_meters":38000,"station_id":"ce4bhn92rcd13ifvqgrg","pricing_plan_id":"cebpf4jnsgd1na2vs0mg"},{"bike_id":"02a6d687-7506-40ac-9e29-b610bc7995e8","system_id":"levelo_inurba_marseille","lat":43.30426,"lon":5.38885,"is_reserved":false,"is_disabled":false,"rental_uris":{"android":"levelo://app?vid=02a6d687-7506-40ac-9e29-b610bc7995e8","ios":"levelo://app?vid=02a6d687-7506-40ac-9e29-b610bc7995e8"},"vehicle_type_id":"4","last_reported":1729217540,"current_range_meters":38800,"station_id":"ce4bgk12rcd13ifvqbi0","pricing_plan_id":"cebpf4jnsgd1na2vs0mg"},{"bike_id":"ea4d3b77-78e0-4bfc-ad95-e1dcf8f2da70","system_id":"levelo_inurba_marseille","lat":43.31115,"lon":5.37768,"is_reserved":false,"is_disabled":false,"rental_uris":{"android":"levelo://app?vid=ea4d3b77-78e0-4bfc-ad95-e1dcf8f2da70","ios":"levelo://app?vid=ea4d3b77-78e0-4bfc-ad95-e1dcf8f2da70"},"vehicle_type_id":"4","last_reported":1729217540,"current_range_meters":37600,"station_id":"ce4bgt92rcd13ifvqcg0","pricing_plan_id":"cebpf4jnsgd1na2vs0mg"},{"bike_id":"530d79f0-6141-4d63-8b51-6d259c94ad18","system_id":"levelo_inurba_marseille","lat":43.27928,"lon":5.39603,"is_reserved":false,"is_disabled":false,"rental_uris":{"android":"levelo://app?vid=530d79f0-6141-4d63-8b51-6d259c94ad18","ios":"levelo://app?vid=530d79f0-6141-4d63-8b51-6d259c94ad18"},"vehicle_type_id":"4","last_reported":1729217540,"current_range_meters":32000,"station_id":"ce4bhf92rcd13ifvqf40","pricing_plan_id":"cebpf4jnsgd1na2vs0mg"},{"bike_id":"58c69b12-7467-4279-b980-9aa21ca6358f","system_id":"levelo_inurba_marseille","lat":43.23955,"lon":5.36657,"is_reserved":false,"is_disabled":false,"rental_uris":{"android":"levelo://app?vid=58c69b12-7467-4279-b980-9aa21ca6358f","ios":"levelo://app?vid=58c69b12-7467-4279-b980-9aa21ca6358f"},"vehicle_type_id":"4","last_reported":1729217540,"current_range_meters":25600,"station_id":"ce4bhi12rcd13ifvqfp0","pricing_plan_id":"cebpf4jnsgd1na2vs0mg"},{"bike_id":"6af35f4d-6005-47cd-b5ad-99600b2a548a","system_id":"levelo_inurba_marseille","lat":43.28164,"lon":5.42631,"is_reserved":false,"is_disabled":false,"rental_uris":{"android":"levelo://app?vid=6af35f4d-6005-47cd-b5ad-99600b2a548a","ios":"levelo://app?vid=6af35f4d-6005-47cd-b5ad-99600b2a548a"},"vehicle_type_id":"4","last_reported":1729217540,"current_range_meters":38400,"station_id":"ce4bhnh2rcd13ifvqgug","pricing_plan_id":"cebpf4jnsgd1na2vs0mg"},{"bike_id":"00a7d4d3-9a68-44b0-871b-b6f6dc3fc69e","system_id":"levelo_inurba_marseille","lat":43.28464,"lon":5.35879,"is_reserved":false,"is_disabled":false,"rental_uris":{"android":"levelo://app?vid=00a7d4d3-9a68-44b0-871b-b6f6dc3fc69e","ios":"levelo://app?vid=00a7d4d3-9a68-44b0-871b-b6f6dc3fc69e"},"vehicle_type_id":"4","last_reported":1729217540,"current_range_meters":38800,"station_id":"ce4bhah2rcd13ifvqei0","pricing_plan_id":"cebpf4jnsgd1na2vs0mg"},{"bike_id":"5fcd8f6e-ba15-45e1-94c8-9f2b14eaa9ad","system_id":"levelo_inurba_marseille","lat":43.28271,"lon":5.35075,"is_reserved":false,"is_disabled":false,"rental_uris":{"android":"levelo://app?vid=5fcd8f6e-ba15-45e1-94c8-9f2b14eaa9ad","ios":"levelo://app?vid=5fcd8f6e-ba15-45e1-94c8-9f2b14eaa9ad"},"vehicle_type_id":"4","last_reported":1729217540,"current_range_meters":38800,"station_id":"ce4bhbp2rcd13ifvqerg","pricing_plan_id":"cebpf4jnsgd1na2vs0mg"},{"bike_id":"dfb0999c-59a2-4e4f-9718-ee766ca01b0e","system_id":"levelo_inurba_marseille","lat":43.30779,"lon":5.37658,"is_reserved":false,"is_disabled":false,"rental_uris":{"android":"levelo://app?vid=dfb0999c-59a2-4e4f-9718-ee766ca01b0e","ios":"levelo://app?vid=dfb0999c-59a2-4e4f-9718-ee766ca01b0e"},"vehicle_type_id":"4","last_reported":1729217540,"current_range_meters":20800,"station_id":"ce4bgv92rcd13ifvqcq0","pricing_plan_id":"cebpf4jnsgd1na2vs0mg"},{"bike_id":"05528477-872b-4594-bb9c-05aeb34670b6","system_id":"levelo_inurba_marseille","lat":43.31546,"lon":5.38035,"is_reserved":false,"is_disabled":false,"rental_uris":{"android":"levelo://app?vid=05528477-872b-4594-bb9c-05aeb34670b6","ios":"levelo://app?vid=05528477-872b-4594-bb9c-05aeb34670b6"},"vehicle_type_id":"4","last_reported":1729217540,"current_range_meters":27200,"station_id":"ce4bhsp2rcd13ifvqi50","pricing_plan_id":"cebpf4jnsgd1na2vs0mg"},{"bike_id":"f1f54018-12f5-4b4e-9d61-fc23fa4a951a","system_id":"levelo_inurba_marseille","lat":43.32288,"lon":5.38274,"is_reserved":false,"is_disabled":false,"rental_uris":{"android":"levelo://app?vid=f1f54018-12f5-4b4e-9d61-fc23fa4a951a","ios":"levelo://app?vid=f1f54018-12f5-4b4e-9d61-fc23fa4a951a"},"vehicle_type_id":"4","last_reported":1729217540,"current_range_meters":38800,"station_id":"ce4bhr12rcd13ifvqhqg","pricing_plan_id":"cebpf4jnsgd1na2vs0mg"},{"bike_id":"5393a1bd-7e62-40e5-a51c-59eec108671a","system_id":"levelo_inurba_marseille","lat":43.30603,"lon":5.37209,"is_reserved":false,"is_disabled":false,"rental_uris":{"android":"levelo://app?vid=5393a1bd-7e62-40e5-a51c-59eec108671a","ios":"levelo://app?vid=5393a1bd-7e62-40e5-a51c-59eec108671a"},"vehicle_type_id":"4","last_reported":1729217540,"current_range_meters":35600,"station_id":"ce4bgqh2rcd13ifvqc4g","pricing_plan_id":"cebpf4jnsgd1na2vs0mg"},{"bike_id":"2ba45753-5a01-4bd9-ad09-799662844f09","system_id":"levelo_inurba_marseille","lat":43.30356,"lon":5.41879,"is_reserved":false,"is_disabled":false,"rental_uris":{"android":"levelo://app?vid=2ba45753-5a01-4bd9-ad09-799662844f09","ios":"levelo://app?vid=2ba45753-5a01-4bd9-ad09-799662844f09"},"vehicle_type_id":"4","last_reported":1729217540,"current_range_meters":8800,"station_id":"ce4bhop2rcd13ifvqh7g","pricing_plan_id":"cebpf4jnsgd1na2vs0mg"},{"bike_id":"241ec68c-ac36-4501-bb5b-e6da66662d0b","system_id":"levelo_inurba_marseille","lat":43.30893,"lon":5.3963,"is_reserved":false,"is_disabled":false,"rental_uris":{"android":"levelo://app?vid=241ec68c-ac36-4501-bb5b-e6da66662d0b","ios":"levelo://app?vid=241ec68c-ac36-4501-bb5b-e6da66662d0b"},"vehicle_type_id":"4","last_reported":1729217540,"current_range_meters":16000,"station_id":"ce4bh012rcd13ifvqcv0","pricing_plan_id":"cebpf4jnsgd1na2vs0mg"},{"bike_id":"282b3d80-6821-487a-a914-810f553b0264","system_id":"levelo_inurba_marseille","lat":43.31719,"lon":5.437,"is_reserved":false,"is_disabled":false,"rental_uris":{"android":"levelo://app?vid=282b3d80-6821-487a-a914-810f553b0264","ios":"levelo://app?vid=282b3d80-6821-487a-a914-810f553b0264"},"vehicle_type_id":"4","last_reported":1729217540,"current_range_meters":37600,"station_id":"ce4bhp92rcd13ifvqhcg","pricing_plan_id":"cebpf4jnsgd1na2vs0mg"},{"bike_id":"82dcb5a6-00bb-45be-80cf-6f236f0974f1","system_id":"levelo_inurba_marseille","lat":43.30649,"lon":5.40085,"is_reserved":false,"is_disabled":false,"rental_uris":{"android":"levelo://app?vid=82dcb5a6-00bb-45be-80cf-6f236f0974f1","ios":"levelo://app?vid=82dcb5a6-00bb-45be-80cf-6f236f0974f1"},"vehicle_type_id":"4","last_reported":1729217540,"current_range_meters":38800,"station_id":"ce4bh112rcd13ifvqda0","pricing_plan_id":"cebpf4jnsgd1na2vs0mg"},{"bike_id":"298fab3e-23e9-4c85-bda8-b3eed650ec21","system_id":"levelo_inurba_marseille","lat":43.24805,"lon":5.37452,"is_reserved":false,"is_disabled":false,"rental_uris":{"android":"levelo://app?vid=298fab3e-23e9-4c85-bda8-b3eed650ec21","ios":"levelo://app?vid=298fab3e-23e9-4c85-bda8-b3eed650ec21"},"vehicle_type_id":"4","last_reported":1729217540,"current_range_meters":26000,"station_id":"ce4bhgh2rcd13ifvqfb0","pricing_plan_id":"cebpf4jnsgd1na2vs0mg"},{"bike_id":"438d453c-0cf4-403c-a8f1-59c87baf6e12","system_id":"levelo_inurba_marseille","lat":43.28466,"lon":5.35898,"is_reserved":false,"is_disabled":false,"rental_uris":{"android":"levelo://app?vid=438d453c-0cf4-403c-a8f1-59c87baf6e12","ios":"levelo://app?vid=438d453c-0cf4-403c-a8f1-59c87baf6e12"},"vehicle_type_id":"4","last_reported":1729217540,"current_range_meters":36400,"station_id":"ce4bhah2rcd13ifvqei0","pricing_plan_id":"cebpf4jnsgd1na2vs0mg"},{"bike_id":"2eaadce4-679c-4e46-897d-344ade65d802","system_id":"levelo_inurba_marseille","lat":43.30589,"lon":5.37202,"is_reserved":false,"is_disabled":false,"rental_uris":{"android":"levelo://app?vid=2eaadce4-679c-4e46-897d-344ade65d802","ios":"levelo://app?vid=2eaadce4-679c-4e46-897d-344ade65d802"},"vehicle_type_id":"4","last_reported":1729217540,"current_range_meters":37600,"station_id":"ce4bgqh2rcd13ifvqc4g","pricing_plan_id":"cebpf4jnsgd1na2vs0mg"},{"bike_id":"17ee19d6-b9e8-4238-89ea-9c5b355a40b2","system_id":"levelo_inurba_marseille","lat":43.28721,"lon":5.36086,"is_reserved":false,"is_disabled":false,"rental_uris":{"android":"levelo://app?vid=17ee19d6-b9e8-4238-89ea-9c5b355a40b2","ios":"levelo://app?vid=17ee19d6-b9e8-4238-89ea-9c5b355a40b2"},"vehicle_type_id":"4","last_reported":1729217540,"current_range_meters":30000,"station_id":"cki0cbj6b192h4jlfktg","pricing_plan_id":"cebpf4jnsgd1na2vs0mg"},{"bike_id":"b1491400-0877-4e4a-94b9-0b74303ed910","system_id":"levelo_inurba_marseille","lat":43.27817,"lon":5.40734,"is_reserved":false,"is_disabled":false,"rental_uris":{"android":"levelo://app?vid=b1491400-0877-4e4a-94b9-0b74303ed910","ios":"levelo://app?vid=b1491400-0877-4e4a-94b9-0b74303ed910"},"vehicle_type_id":"4","last_reported":1729217540,"current_range_meters":38400,"station_id":"ce4bhnh2rcd13ifvqgtg","pricing_plan_id":"cebpf4jnsgd1na2vs0mg"},{"bike_id":"eda9411f-0449-45fc-875d-2cbca45609a0","system_id":"levelo_inurba_marseille","lat":43.296,"lon":5.38095,"is_reserved":false,"is_disabled":false,"rental_uris":{"android":"levelo://app?vid=eda9411f-0449-45fc-875d-2cbca45609a0","ios":"levelo://app?vid=eda9411f-0449-45fc-875d-2cbca45609a0"},"vehicle_type_id":"4","last_reported":1729217540,"current_range_meters":38000,"station_id":"ce4bgl12rcd13ifvqbo0","pricing_plan_id":"cebpf4jnsgd1na2vs0mg"},{"bike_id":"f6483cbf-b6b8-436f-ac64-c39468f3bd92","system_id":"levelo_inurba_marseille","lat":43.31762,"lon":5.39018,"is_reserved":false,"is_disabled":false,"rental_uris":{"android":"levelo://app?vid=f6483cbf-b6b8-436f-ac64-c39468f3bd92","ios":"levelo://app?vid=f6483cbf-b6b8-436f-ac64-c39468f3bd92"},"vehicle_type_id":"4","last_reported":1729217540,"current_range_meters":31200,"station_id":"ce4bhqp2rcd13ifvqhng","pricing_plan_id":"cebpf4jnsgd1na2vs0mg"},{"bike_id":"c0aea6bf-9822-4eef-a7c6-ea0b29185a8d","system_id":"levelo_inurba_marseille","lat":43.27923,"lon":5.4104,"is_reserved":false,"is_disabled":false,"rental_uris":{"android":"levelo://app?vid=c0aea6bf-9822-4eef-a7c6-ea0b29185a8d","ios":"levelo://app?vid=c0aea6bf-9822-4eef-a7c6-ea0b29185a8d"},"vehicle_type_id":"4","last_reported":1729217540,"current_range_meters":25600,"station_id":"ce4bhnp2rcd13ifvqh0g","pricing_plan_id":"cebpf4jnsgd1na2vs0mg"},{"bike_id":"01679eb9-02b6-49f6-902d-2774f9466b9e","system_id":"levelo_inurba_marseille","lat":43.30781,"lon":5.3765,"is_reserved":false,"is_disabled":false,"rental_uris":{"android":"levelo://app?vid=01679eb9-02b6-49f6-902d-2774f9466b9e","ios":"levelo://app?vid=01679eb9-02b6-49f6-902d-2774f9466b9e"},"vehicle_type_id":"4","last_reported":1729217540,"current_range_meters":33600,"station_id":"ce4bgv92rcd13ifvqcq0","pricing_plan_id":"cebpf4jnsgd1na2vs0mg"},{"bike_id":"aa33ddc9-38b2-4034-9975-a236fa514f69","system_id":"levelo_inurba_marseille","lat":43.28099,"lon":5.37853,"is_reserved":false,"is_disabled":false,"rental_uris":{"android":"levelo://app?vid=aa33ddc9-38b2-4034-9975-a236fa514f69","ios":"levelo://app?vid=aa33ddc9-38b2-4034-9975-a236fa514f69"},"vehicle_type_id":"4","last_reported":1729217540,"current_range_meters":38800,"station_id":"ce4bha12rcd13ifvqee0","pricing_plan_id":"cebpf4jnsgd1na2vs0mg"},{"bike_id":"3d7546d0-4dba-4212-88c9-dfe9a2032237","system_id":"levelo_inurba_marseille","lat":43.24178,"lon":5.36396,"is_reserved":false,"is_disabled":false,"rental_uris":{"android":"levelo://app?vid=3d7546d0-4dba-4212-88c9-dfe9a2032237","ios":"levelo://app?vid=3d7546d0-4dba-4212-88c9-dfe9a2032237"},"vehicle_type_id":"4","last_reported":1729217540,"current_range_meters":38800,"station_id":"cpo36qri1sfpv3e86is0","pricing_plan_id":"cebpf4jnsgd1na2vs0mg"},{"bike_id":"7e4e8266-db66-4be3-8b65-ca1951a6717e","system_id":"levelo_inurba_marseille","lat":43.30811,"lon":5.37657,"is_reserved":false,"is_disabled":false,"rental_uris":{"android":"levelo://app?vid=7e4e8266-db66-4be3-8b65-ca1951a6717e","ios":"levelo://app?vid=7e4e8266-db66-4be3-8b65-ca1951a6717e"},"vehicle_type_id":"4","last_reported":1729217540,"current_range_meters":38000,"station_id":"ce4bgv92rcd13ifvqcq0","pricing_plan_id":"cebpf4jnsgd1na2vs0mg"},{"bike_id":"5f66d9b1-dc9b-46e4-ab6f-979d6221f9ab","system_id":"levelo_inurba_marseille","lat":43.32288,"lon":5.3826,"is_reserved":false,"is_disabled":false,"rental_uris":{"android":"levelo://app?vid=5f66d9b1-dc9b-46e4-ab6f-979d6221f9ab","ios":"levelo://app?vid=5f66d9b1-dc9b-46e4-ab6f-979d6221f9ab"},"vehicle_type_id":"4","last_reported":1729217540,"current_range_meters":12400,"station_id":"ce4bhr12rcd13ifvqhqg","pricing_plan_id":"cebpf4jnsgd1na2vs0mg"},{"bike_id":"7f5a3260-a32b-4743-b071-89fe2c95bda5","system_id":"levelo_inurba_marseille","lat":43.29267,"lon":5.40898,"is_reserved":false,"is_disabled":false,"rental_uris":{"android":"levelo://app?vid=7f5a3260-a32b-4743-b071-89fe2c95bda5","ios":"levelo://app?vid=7f5a3260-a32b-4743-b071-89fe2c95bda5"},"vehicle_type_id":"4","last_reported":1729217540,"current_range_meters":34800,"station_id":"ce4bh192rcd13ifvqdc0","pricing_plan_id":"cebpf4jnsgd1na2vs0mg"},{"bike_id":"544f7afc-844d-4ea0-a2be-13dd77c8ea21","system_id":"levelo_inurba_marseille","lat":43.29558,"lon":5.42293,"is_reserved":false,"is_disabled":false,"rental_uris":{"android":"levelo://app?vid=544f7afc-844d-4ea0-a2be-13dd77c8ea21","ios":"levelo://app?vid=544f7afc-844d-4ea0-a2be-13dd77c8ea21"},"vehicle_type_id":"4","last_reported":1729217540,"current_range_meters":38000,"station_id":"ce4bhph2rcd13ifvqhdg","pricing_plan_id":"cebpf4jnsgd1na2vs0mg"},{"bike_id":"41ce5f20-257f-46c3-be46-6ab7325ba38a","system_id":"levelo_inurba_marseille","lat":43.2873,"lon":5.39979,"is_reserved":false,"is_disabled":false,"rental_uris":{"android":"levelo://app?vid=41ce5f20-257f-46c3-be46-6ab7325ba38a","ios":"levelo://app?vid=41ce5f20-257f-46c3-be46-6ab7325ba38a"},"vehicle_type_id":"4","last_reported":1729217540,"current_range_meters":38800,"station_id":"ce4bho92rcd13ifvqh3g","pricing_plan_id":"cebpf4jnsgd1na2vs0mg"},{"bike_id":"3fbd3cb7-fcc2-42c3-b4cf-ec729dd8c1b6","system_id":"levelo_inurba_marseille","lat":43.25076,"lon":5.39511,"is_reserved":false,"is_disabled":false,"rental_uris":{"android":"levelo://app?vid=3fbd3cb7-fcc2-42c3-b4cf-ec729dd8c1b6","ios":"levelo://app?vid=3fbd3cb7-fcc2-42c3-b4cf-ec729dd8c1b6"},"vehicle_type_id":"4","last_reported":1729217540,"current_range_meters":38400,"station_id":"ce4bhm12rcd13ifvqgkg","pricing_plan_id":"cebpf4jnsgd1na2vs0mg"},{"bike_id":"19085ac5-ffc2-40a3-8146-8a3a881c9fa7","system_id":"levelo_inurba_marseille","lat":43.2309,"lon":5.40447,"is_reserved":false,"is_disabled":false,"rental_uris":{"android":"levelo://app?vid=19085ac5-ffc2-40a3-8146-8a3a881c9fa7","ios":"levelo://app?vid=19085ac5-ffc2-40a3-8146-8a3a881c9fa7"},"vehicle_type_id":"4","last_reported":1729217540,"current_range_meters":33200,"station_id":"","pricing_plan_id":"cebpf4jnsgd1na2vs0mg"},{"bike_id":"90b7df2b-2805-4913-a745-07d80216980c","system_id":"levelo_inurba_marseille","lat":43.30795,"lon":5.43529,"is_reserved":false,"is_disabled":false,"rental_uris":{"android":"levelo://app?vid=90b7df2b-2805-4913-a745-07d80216980c","ios":"levelo://app?vid=90b7df2b-2805-4913-a745-07d80216980c"},"vehicle_type_id":"4","last_reported":1729217540,"current_range_meters":14400,"station_id":"ce4bhph2rcd13ifvqheg","pricing_plan_id":"cebpf4jnsgd1na2vs0mg"},{"bike_id":"32ce68a3-3fc7-4257-974f-ab657619c295","system_id":"levelo_inurba_marseille","lat":43.33754,"lon":5.3745,"is_reserved":false,"is_disabled":false,"rental_uris":{"android":"levelo://app?vid=32ce68a3-3fc7-4257-974f-ab657619c295","ios":"levelo://app?vid=32ce68a3-3fc7-4257-974f-ab657619c295"},"vehicle_type_id":"4","last_reported":1729217540,"current_range_meters":28800,"station_id":"","pricing_plan_id":"cebpf4jnsgd1na2vs0mg"},{"bike_id":"9655669f-3a9d-44c3-99fc-394c9bf510d3","system_id":"levelo_inurba_marseille","lat":43.29236,"lon":5.40902,"is_reserved":false,"is_disabled":false,"rental_uris":{"android":"levelo://app?vid=9655669f-3a9d-44c3-99fc-394c9bf510d3","ios":"levelo://app?vid=9655669f-3a9d-44c3-99fc-394c9bf510d3"},"vehicle_type_id":"4","last_reported":1729217540,"current_range_meters":30000,"station_id":"ce4bh192rcd13ifvqdc0","pricing_plan_id":"cebpf4jnsgd1na2vs0mg"},{"bike_id":"d72afc76-6c09-4c68-88a2-08eaafe5cf2d","system_id":"levelo_inurba_marseille","lat":43.30799,"lon":5.38157,"is_reserved":false,"is_disabled":false,"rental_uris":{"android":"levelo://app?vid=d72afc76-6c09-4c68-88a2-08eaafe5cf2d","ios":"levelo://app?vid=d72afc76-6c09-4c68-88a2-08eaafe5cf2d"},"vehicle_type_id":"4","last_reported":1729217540,"current_range_meters":19600,"station_id":"ce4bgt12rcd13ifvqce0","pricing_plan_id":"cebpf4jnsgd1na2vs0mg"},{"bike_id":"5a1b62f7-8a9e-42be-aefa-217aca5b6f27","system_id":"levelo_inurba_marseille","lat":43.23959,"lon":5.36644,"is_reserved":false,"is_disabled":false,"rental_uris":{"android":"levelo://app?vid=5a1b62f7-8a9e-42be-aefa-217aca5b6f27","ios":"levelo://app?vid=5a1b62f7-8a9e-42be-aefa-217aca5b6f27"},"vehicle_type_id":"4","last_reported":1729217540,"current_range_meters":38000,"station_id":"ce4bhi12rcd13ifvqfp0","pricing_plan_id":"cebpf4jnsgd1na2vs0mg"},{"bike_id":"f1d65e2e-7c16-4e76-acfd-52aafe2184b3","system_id":"levelo_inurba_marseille","lat":43.26921,"lon":5.38949,"is_reserved":false,"is_disabled":false,"rental_uris":{"android":"levelo://app?vid=f1d65e2e-7c16-4e76-acfd-52aafe2184b3","ios":"levelo://app?vid=f1d65e2e-7c16-4e76-acfd-52aafe2184b3"},"vehicle_type_id":"4","last_reported":1729217540,"current_range_meters":33600,"station_id":"ce4bhhh2rcd13ifvqfl0","pricing_plan_id":"cebpf4jnsgd1na2vs0mg"},{"bike_id":"fa7bbdc9-afbe-404d-8676-647037cc76a9","system_id":"levelo_inurba_marseille","lat":43.23196,"lon":5.35551,"is_reserved":false,"is_disabled":false,"rental_uris":{"android":"levelo://app?vid=fa7bbdc9-afbe-404d-8676-647037cc76a9","ios":"levelo://app?vid=fa7bbdc9-afbe-404d-8676-647037cc76a9"},"vehicle_type_id":"4","last_reported":1729217540,"current_range_meters":30800,"station_id":"ce4bhu92rcd13ifvqi70","pricing_plan_id":"cebpf4jnsgd1na2vs0mg"},{"bike_id":"9a4b7f99-e11e-4f0b-b857-0dbeb1b8e0a6","system_id":"levelo_inurba_marseille","lat":43.32999,"lon":5.39043,"is_reserved":false,"is_disabled":false,"rental_uris":{"android":"levelo://app?vid=9a4b7f99-e11e-4f0b-b857-0dbeb1b8e0a6","ios":"levelo://app?vid=9a4b7f99-e11e-4f0b-b857-0dbeb1b8e0a6"},"vehicle_type_id":"4","last_reported":1729217540,"current_range_meters":30000,"station_id":"ce4bhr92rcd13ifvqhrg","pricing_plan_id":"cebpf4jnsgd1na2vs0mg"},{"bike_id":"752671c2-9054-492c-9263-fc5cb1c19d98","system_id":"levelo_inurba_marseille","lat":43.33023,"lon":5.3902,"is_reserved":false,"is_disabled":false,"rental_uris":{"android":"levelo://app?vid=752671c2-9054-492c-9263-fc5cb1c19d98","ios":"levelo://app?vid=752671c2-9054-492c-9263-fc5cb1c19d98"},"vehicle_type_id":"4","last_reported":1729217540,"current_range_meters":38800,"station_id":"ce4bhr92rcd13ifvqhrg","pricing_plan_id":"cebpf4jnsgd1na2vs0mg"},{"bike_id":"ff726813-2517-4302-b4b8-60455484d8f6","system_id":"levelo_inurba_marseille","lat":43.33011,"lon":5.39031,"is_reserved":false,"is_disabled":false,"rental_uris":{"android":"levelo://app?vid=ff726813-2517-4302-b4b8-60455484d8f6","ios":"levelo://app?vid=ff726813-2517-4302-b4b8-60455484d8f6"},"vehicle_type_id":"4","last_reported":1729217540,"current_range_meters":38800,"station_id":"ce4bhr92rcd13ifvqhrg","pricing_plan_id":"cebpf4jnsgd1na2vs0mg"},{"bike_id":"f8d2e239-573b-4f9d-8955-e6720aa9663e","system_id":"levelo_inurba_marseille","lat":43.2465,"lon":5.38897,"is_reserved":false,"is_disabled":false,"rental_uris":{"android":"levelo://app?vid=f8d2e239-573b-4f9d-8955-e6720aa9663e","ios":"levelo://app?vid=f8d2e239-573b-4f9d-8955-e6720aa9663e"},"vehicle_type_id":"4","last_reported":1729217540,"current_range_meters":33600,"station_id":"ce4bhg12rcd13ifvqf60","pricing_plan_id":"cebpf4jnsgd1na2vs0mg"},{"bike_id":"e6a27805-d8f8-49c1-8c9e-220ae3406e20","system_id":"levelo_inurba_marseille","lat":43.31379,"lon":5.38482,"is_reserved":false,"is_disabled":false,"rental_uris":{"android":"levelo://app?vid=e6a27805-d8f8-49c1-8c9e-220ae3406e20","ios":"levelo://app?vid=e6a27805-d8f8-49c1-8c9e-220ae3406e20"},"vehicle_type_id":"4","last_reported":1729217540,"current_range_meters":38800,"station_id":"ce4bgt92rcd13ifvqcf0","pricing_plan_id":"cebpf4jnsgd1na2vs0mg"},{"bike_id":"139c35c4-8018-4db9-ad1e-9ab572b93210","system_id":"levelo_inurba_marseille","lat":43.30884,"lon":5.3721,"is_reserved":false,"is_disabled":false,"rental_uris":{"android":"levelo://app?vid=139c35c4-8018-4db9-ad1e-9ab572b93210","ios":"levelo://app?vid=139c35c4-8018-4db9-ad1e-9ab572b93210"},"vehicle_type_id":"4","last_reported":1729217540,"current_range_meters":38800,"station_id":"ce4bguh2rcd13ifvqckg","pricing_plan_id":"cebpf4jnsgd1na2vs0mg"},{"bike_id":"9313a787-13e9-4747-aa6d-776c45943b9d","system_id":"levelo_inurba_marseille","lat":43.28077,"lon":5.39655,"is_reserved":false,"is_disabled":false,"rental_uris":{"android":"levelo://app?vid=9313a787-13e9-4747-aa6d-776c45943b9d","ios":"levelo://app?vid=9313a787-13e9-4747-aa6d-776c45943b9d"},"vehicle_type_id":"4","last_reported":1729217540,"current_range_meters":39200,"station_id":"ce4bho12rcd13ifvqh2g","pricing_plan_id":"cebpf4jnsgd1na2vs0mg"},{"bike_id":"7ae03e3b-76da-4079-8b28-dc99ae323423","system_id":"levelo_inurba_marseille","lat":43.30787,"lon":5.38197,"is_reserved":false,"is_disabled":false,"rental_uris":{"android":"levelo://app?vid=7ae03e3b-76da-4079-8b28-dc99ae323423","ios":"levelo://app?vid=7ae03e3b-76da-4079-8b28-dc99ae323423"},"vehicle_type_id":"4","last_reported":1729217540,"current_range_meters":19200,"station_id":"ce4bgt12rcd13ifvqce0","pricing_plan_id":"cebpf4jnsgd1na2vs0mg"},{"bike_id":"8c1ec6cb-2291-4814-837b-be8625c706f3","system_id":"levelo_inurba_marseille","lat":43.23204,"lon":5.35554,"is_reserved":false,"is_disabled":false,"rental_uris":{"android":"levelo://app?vid=8c1ec6cb-2291-4814-837b-be8625c706f3","ios":"levelo://app?vid=8c1ec6cb-2291-4814-837b-be8625c706f3"},"vehicle_type_id":"4","last_reported":1729217540,"current_range_meters":35200,"station_id":"ce4bhu92rcd13ifvqi70","pricing_plan_id":"cebpf4jnsgd1na2vs0mg"},{"bike_id":"a48727b5-bf3c-4008-8484-bc81926fcecd","system_id":"levelo_inurba_marseille","lat":43.22934,"lon":5.35386,"is_reserved":false,"is_disabled":false,"rental_uris":{"android":"levelo://app?vid=a48727b5-bf3c-4008-8484-bc81926fcecd","ios":"levelo://app?vid=a48727b5-bf3c-4008-8484-bc81926fcecd"},"vehicle_type_id":"4","last_reported":1729217540,"current_range_meters":35200,"station_id":"cpo3532slgdg3j2ikp40","pricing_plan_id":"cebpf4jnsgd1na2vs0mg"},{"bike_id":"beb72918-238e-4aaf-b7dd-16aa67ed43f5","system_id":"levelo_inurba_marseille","lat":43.28411,"lon":5.37514,"is_reserved":false,"is_disabled":false,"rental_uris":{"android":"levelo://app?vid=beb72918-238e-4aaf-b7dd-16aa67ed43f5","ios":"levelo://app?vid=beb72918-238e-4aaf-b7dd-16aa67ed43f5"},"vehicle_type_id":"4","last_reported":1729217540,"current_range_meters":33200,"station_id":"ce4bh412rcd13ifvqds0","pricing_plan_id":"cebpf4jnsgd1na2vs0mg"},{"bike_id":"1811bf72-d969-4fc5-940b-d6b24bfa6052","system_id":"levelo_inurba_marseille","lat":43.28087,"lon":5.39653,"is_reserved":false,"is_disabled":false,"rental_uris":{"android":"levelo://app?vid=1811bf72-d969-4fc5-940b-d6b24bfa6052","ios":"levelo://app?vid=1811bf72-d969-4fc5-940b-d6b24bfa6052"},"vehicle_type_id":"4","last_reported":1729217540,"current_range_meters":35200,"station_id":"ce4bho12rcd13ifvqh2g","pricing_plan_id":"cebpf4jnsgd1na2vs0mg"},{"bike_id":"b98fcdd0-c769-4f78-8788-8a4deee929e2","system_id":"levelo_inurba_marseille","lat":43.30415,"lon":5.41278,"is_reserved":false,"is_disabled":false,"rental_uris":{"android":"levelo://app?vid=b98fcdd0-c769-4f78-8788-8a4deee929e2","ios":"levelo://app?vid=b98fcdd0-c769-4f78-8788-8a4deee929e2"},"vehicle_type_id":"4","last_reported":1729217540,"current_range_meters":38800,"station_id":"ce4bhop2rcd13ifvqh8g","pricing_plan_id":"cebpf4jnsgd1na2vs0mg"},{"bike_id":"bf62d727-38c8-4ded-b7ab-cf02407697a1","system_id":"levelo_inurba_marseille","lat":43.31996,"lon":5.3816,"is_reserved":false,"is_disabled":false,"rental_uris":{"android":"levelo://app?vid=bf62d727-38c8-4ded-b7ab-cf02407697a1","ios":"levelo://app?vid=bf62d727-38c8-4ded-b7ab-cf02407697a1"},"vehicle_type_id":"4","last_reported":1729217540,"current_range_meters":38800,"station_id":"ce4bhr12rcd13ifvqhpg","pricing_plan_id":"cebpf4jnsgd1na2vs0mg"},{"bike_id":"c775e878-13c3-4f44-abc8-4bc280e28c06","system_id":"levelo_inurba_marseille","lat":43.24997,"lon":5.38936,"is_reserved":false,"is_disabled":false,"rental_uris":{"android":"levelo://app?vid=c775e878-13c3-4f44-abc8-4bc280e28c06","ios":"levelo://app?vid=c775e878-13c3-4f44-abc8-4bc280e28c06"},"vehicle_type_id":"4","last_reported":1729217540,"current_range_meters":5600,"station_id":"ce4bhgp2rcd13ifvqfd0","pricing_plan_id":"cebpf4jnsgd1na2vs0mg"},{"bike_id":"c89c2319-61a9-47ef-9229-e31c9eaab143","system_id":"levelo_inurba_marseille","lat":43.23211,"lon":5.35553,"is_reserved":false,"is_disabled":false,"rental_uris":{"android":"levelo://app?vid=c89c2319-61a9-47ef-9229-e31c9eaab143","ios":"levelo://app?vid=c89c2319-61a9-47ef-9229-e31c9eaab143"},"vehicle_type_id":"4","last_reported":1729217540,"current_range_meters":37600,"station_id":"ce4bhu92rcd13ifvqi70","pricing_plan_id":"cebpf4jnsgd1na2vs0mg"},{"bike_id":"f6a1b352-6c77-475a-ac49-22832c081b06","system_id":"levelo_inurba_marseille","lat":43.27541,"lon":5.38441,"is_reserved":false,"is_disabled":false,"rental_uris":{"android":"levelo://app?vid=f6a1b352-6c77-475a-ac49-22832c081b06","ios":"levelo://app?vid=f6a1b352-6c77-475a-ac49-22832c081b06"},"vehicle_type_id":"4","last_reported":1729217540,"current_range_meters":38800,"station_id":"ce4bhh92rcd13ifvqfi0","pricing_plan_id":"cebpf4jnsgd1na2vs0mg"},{"bike_id":"c1b4d58c-7d67-4800-b5de-bf664ea422e8","system_id":"levelo_inurba_marseille","lat":43.24647,"lon":5.38897,"is_reserved":false,"is_disabled":false,"rental_uris":{"android":"levelo://app?vid=c1b4d58c-7d67-4800-b5de-bf664ea422e8","ios":"levelo://app?vid=c1b4d58c-7d67-4800-b5de-bf664ea422e8"},"vehicle_type_id":"4","last_reported":1729217540,"current_range_meters":7200,"station_id":"ce4bhg12rcd13ifvqf60","pricing_plan_id":"cebpf4jnsgd1na2vs0mg"},{"bike_id":"41e64df0-4e38-435c-a538-dfeb7b769edc","system_id":"levelo_inurba_marseille","lat":43.28078,"lon":5.39641,"is_reserved":false,"is_disabled":false,"rental_uris":{"android":"levelo://app?vid=41e64df0-4e38-435c-a538-dfeb7b769edc","ios":"levelo://app?vid=41e64df0-4e38-435c-a538-dfeb7b769edc"},"vehicle_type_id":"4","last_reported":1729217540,"current_range_meters":18000,"station_id":"ce4bho12rcd13ifvqh2g","pricing_plan_id":"cebpf4jnsgd1na2vs0mg"},{"bike_id":"76cf1c68-c84a-4bdb-bb1f-3968fc2ae67e","system_id":"levelo_inurba_marseille","lat":43.28147,"lon":5.42656,"is_reserved":false,"is_disabled":false,"rental_uris":{"android":"levelo://app?vid=76cf1c68-c84a-4bdb-bb1f-3968fc2ae67e","ios":"levelo://app?vid=76cf1c68-c84a-4bdb-bb1f-3968fc2ae67e"},"vehicle_type_id":"4","last_reported":1729217540,"current_range_meters":16800,"station_id":"ce4bhnh2rcd13ifvqgug","pricing_plan_id":"cebpf4jnsgd1na2vs0mg"},{"bike_id":"1f83888a-b6f2-480c-87e7-6b07142c1dd0","system_id":"levelo_inurba_marseille","lat":43.29891,"lon":5.43681,"is_reserved":false,"is_disabled":false,"rental_uris":{"android":"levelo://app?vid=1f83888a-b6f2-480c-87e7-6b07142c1dd0","ios":"levelo://app?vid=1f83888a-b6f2-480c-87e7-6b07142c1dd0"},"vehicle_type_id":"4","last_reported":1729217540,"current_range_meters":27600,"station_id":"ce4bhpp2rcd13ifvqhfg","pricing_plan_id":"cebpf4jnsgd1na2vs0mg"},{"bike_id":"794acdc8-c17c-4149-b903-ed4baea396b4","system_id":"levelo_inurba_marseille","lat":43.23193,"lon":5.39979,"is_reserved":false,"is_disabled":false,"rental_uris":{"android":"levelo://app?vid=794acdc8-c17c-4149-b903-ed4baea396b4","ios":"levelo://app?vid=794acdc8-c17c-4149-b903-ed4baea396b4"},"vehicle_type_id":"4","last_reported":1729217540,"current_range_meters":13600,"station_id":"ce4bhn12rcd13ifvqgqg","pricing_plan_id":"cebpf4jnsgd1na2vs0mg"},{"bike_id":"a638a42f-2c86-4a47-9fce-e8d77bee8966","system_id":"levelo_inurba_marseille","lat":43.30801,"lon":5.43521,"is_reserved":false,"is_disabled":false,"rental_uris":{"android":"levelo://app?vid=a638a42f-2c86-4a47-9fce-e8d77bee8966","ios":"levelo://app?vid=a638a42f-2c86-4a47-9fce-e8d77bee8966"},"vehicle_type_id":"4","last_reported":1729217540,"current_range_meters":30000,"station_id":"ce4bhph2rcd13ifvqheg","pricing_plan_id":"cebpf4jnsgd1na2vs0mg"},{"bike_id":"a12fd2c3-b5fe-497f-a9a1-b48106f9e4f3","system_id":"levelo_inurba_marseille","lat":43.28601,"lon":5.37065,"is_reserved":false,"is_disabled":false,"rental_uris":{"android":"levelo://app?vid=a12fd2c3-b5fe-497f-a9a1-b48106f9e4f3","ios":"levelo://app?vid=a12fd2c3-b5fe-497f-a9a1-b48106f9e4f3"},"vehicle_type_id":"4","last_reported":1729217540,"current_range_meters":38000,"station_id":"ce4bht12rcd13ifvqi60","pricing_plan_id":"cebpf4jnsgd1na2vs0mg"},{"bike_id":"819aa051-762d-4884-9bbf-4d175d3c1053","system_id":"levelo_inurba_marseille","lat":43.30132,"lon":5.39895,"is_reserved":false,"is_disabled":false,"rental_uris":{"android":"levelo://app?vid=819aa051-762d-4884-9bbf-4d175d3c1053","ios":"levelo://app?vid=819aa051-762d-4884-9bbf-4d175d3c1053"},"vehicle_type_id":"4","last_reported":1729217540,"current_range_meters":10800,"station_id":"ce4bh0h2rcd13ifvqd40","pricing_plan_id":"cebpf4jnsgd1na2vs0mg"},{"bike_id":"c6ef7807-f387-424b-8ef0-0612d41c79a5","system_id":"levelo_inurba_marseille","lat":43.28405,"lon":5.37529,"is_reserved":false,"is_disabled":false,"rental_uris":{"android":"levelo://app?vid=c6ef7807-f387-424b-8ef0-0612d41c79a5","ios":"levelo://app?vid=c6ef7807-f387-424b-8ef0-0612d41c79a5"},"vehicle_type_id":"4","last_reported":1729217540,"current_range_meters":37600,"station_id":"ce4bh412rcd13ifvqds0","pricing_plan_id":"cebpf4jnsgd1na2vs0mg"},{"bike_id":"5a6e3f2c-fd31-454f-ad50-80431c5807a4","system_id":"levelo_inurba_marseille","lat":43.305399,"lon":5.384295,"is_reserved":false,"is_disabled":false,"rental_uris":{"android":"levelo://app?vid=5a6e3f2c-fd31-454f-ad50-80431c5807a4","ios":"levelo://app?vid=5a6e3f2c-fd31-454f-ad50-80431c5807a4"},"vehicle_type_id":"4","last_reported":1729217540,"current_range_meters":38800,"station_id":"ce4bgg92rcd13ifvqb30","pricing_plan_id":"cebpf4jnsgd1na2vs0mg"},{"bike_id":"874494de-7452-4f47-9fec-c5ec79478035","system_id":"levelo_inurba_marseille","lat":43.23969,"lon":5.3663,"is_reserved":false,"is_disabled":false,"rental_uris":{"android":"levelo://app?vid=874494de-7452-4f47-9fec-c5ec79478035","ios":"levelo://app?vid=874494de-7452-4f47-9fec-c5ec79478035"},"vehicle_type_id":"4","last_reported":1729217540,"current_range_meters":25600,"station_id":"ce4bhi12rcd13ifvqfp0","pricing_plan_id":"cebpf4jnsgd1na2vs0mg"},{"bike_id":"8b33911e-5d42-46bd-b00d-c1d5ce72f577","system_id":"levelo_inurba_marseille","lat":43.23184,"lon":5.39984,"is_reserved":false,"is_disabled":false,"rental_uris":{"android":"levelo://app?vid=8b33911e-5d42-46bd-b00d-c1d5ce72f577","ios":"levelo://app?vid=8b33911e-5d42-46bd-b00d-c1d5ce72f577"},"vehicle_type_id":"4","last_reported":1729217540,"current_range_meters":38800,"station_id":"ce4bhn12rcd13ifvqgqg","pricing_plan_id":"cebpf4jnsgd1na2vs0mg"},{"bike_id":"b0c6cd30-bd85-499b-b42c-e4217cc22190","system_id":"levelo_inurba_marseille","lat":43.26968,"lon":5.38667,"is_reserved":false,"is_disabled":false,"rental_uris":{"android":"levelo://app?vid=b0c6cd30-bd85-499b-b42c-e4217cc22190","ios":"levelo://app?vid=b0c6cd30-bd85-499b-b42c-e4217cc22190"},"vehicle_type_id":"4","last_reported":1729217540,"current_range_meters":18800,"station_id":"ce4bhh92rcd13ifvqfh0","pricing_plan_id":"cebpf4jnsgd1na2vs0mg"},{"bike_id":"8f737a78-1bc1-46fa-9bdc-ce1776714f5d","system_id":"levelo_inurba_marseille","lat":43.31374,"lon":5.38499,"is_reserved":false,"is_disabled":false,"rental_uris":{"android":"levelo://app?vid=8f737a78-1bc1-46fa-9bdc-ce1776714f5d","ios":"levelo://app?vid=8f737a78-1bc1-46fa-9bdc-ce1776714f5d"},"vehicle_type_id":"4","last_reported":1729217540,"current_range_meters":36000,"station_id":"ce4bgt92rcd13ifvqcf0","pricing_plan_id":"cebpf4jnsgd1na2vs0mg"},{"bike_id":"b12d939d-2b51-4746-861e-ebf81c9e0726","system_id":"levelo_inurba_marseille","lat":43.31282,"lon":5.40164,"is_reserved":false,"is_disabled":false,"rental_uris":{"android":"levelo://app?vid=b12d939d-2b51-4746-861e-ebf81c9e0726","ios":"levelo://app?vid=b12d939d-2b51-4746-861e-ebf81c9e0726"},"vehicle_type_id":"4","last_reported":1729217540,"current_range_meters":39200,"station_id":"ce4bh092rcd13ifvqd30","pricing_plan_id":"cebpf4jnsgd1na2vs0mg"},{"bike_id":"0d6b2dea-21da-4f52-a627-878e7165d813","system_id":"levelo_inurba_marseille","lat":43.30602,"lon":5.37228,"is_reserved":false,"is_disabled":false,"rental_uris":{"android":"levelo://app?vid=0d6b2dea-21da-4f52-a627-878e7165d813","ios":"levelo://app?vid=0d6b2dea-21da-4f52-a627-878e7165d813"},"vehicle_type_id":"4","last_reported":1729217540,"current_range_meters":17200,"station_id":"ce4bgqh2rcd13ifvqc4g","pricing_plan_id":"cebpf4jnsgd1na2vs0mg"},{"bike_id":"0994d7f0-fa2e-480f-b967-2b1e1b476b78","system_id":"levelo_inurba_marseille","lat":43.23186,"lon":5.35559,"is_reserved":false,"is_disabled":false,"rental_uris":{"android":"levelo://app?vid=0994d7f0-fa2e-480f-b967-2b1e1b476b78","ios":"levelo://app?vid=0994d7f0-fa2e-480f-b967-2b1e1b476b78"},"vehicle_type_id":"4","last_reported":1729217540,"current_range_meters":10800,"station_id":"ce4bhu92rcd13ifvqi70","pricing_plan_id":"cebpf4jnsgd1na2vs0mg"},{"bike_id":"cafacf31-3dc4-4662-b543-8a143108fe4d","system_id":"levelo_inurba_marseille","lat":43.23181,"lon":5.39993,"is_reserved":false,"is_disabled":false,"rental_uris":{"android":"levelo://app?vid=cafacf31-3dc4-4662-b543-8a143108fe4d","ios":"levelo://app?vid=cafacf31-3dc4-4662-b543-8a143108fe4d"},"vehicle_type_id":"4","last_reported":1729217540,"current_range_meters":20800,"station_id":"ce4bhn12rcd13ifvqgqg","pricing_plan_id":"cebpf4jnsgd1na2vs0mg"},{"bike_id":"b2b04d11-b9da-412e-89b3-0a9fe8a8aefc","system_id":"levelo_inurba_marseille","lat":43.27304,"lon":5.39132,"is_reserved":false,"is_disabled":false,"rental_uris":{"android":"levelo://app?vid=b2b04d11-b9da-412e-89b3-0a9fe8a8aefc","ios":"levelo://app?vid=b2b04d11-b9da-412e-89b3-0a9fe8a8aefc"},"vehicle_type_id":"4","last_reported":1729217540,"current_range_meters":37600,"station_id":"ce4bhgp2rcd13ifvqfe0","pricing_plan_id":"cebpf4jnsgd1na2vs0mg"},{"bike_id":"d89ec09f-fe91-4a61-9b9f-a3abe3c8f6d8","system_id":"levelo_inurba_marseille","lat":43.32371,"lon":5.38881,"is_reserved":false,"is_disabled":false,"rental_uris":{"android":"levelo://app?vid=d89ec09f-fe91-4a61-9b9f-a3abe3c8f6d8","ios":"levelo://app?vid=d89ec09f-fe91-4a61-9b9f-a3abe3c8f6d8"},"vehicle_type_id":"4","last_reported":1729217540,"current_range_meters":33600,"station_id":"ce4bhqp2rcd13ifvqhog","pricing_plan_id":"cebpf4jnsgd1na2vs0mg"},{"bike_id":"66ccc46d-618e-4760-b09c-27382152bdab","system_id":"levelo_inurba_marseille","lat":43.23187,"lon":5.35542,"is_reserved":false,"is_disabled":false,"rental_uris":{"android":"levelo://app?vid=66ccc46d-618e-4760-b09c-27382152bdab","ios":"levelo://app?vid=66ccc46d-618e-4760-b09c-27382152bdab"},"vehicle_type_id":"4","last_reported":1729217540,"current_range_meters":30000,"station_id":"ce4bhu92rcd13ifvqi70","pricing_plan_id":"cebpf4jnsgd1na2vs0mg"},{"bike_id":"152a6295-86c6-48db-ba52-d0069877131a","system_id":"levelo_inurba_marseille","lat":43.31055,"lon":5.3834,"is_reserved":false,"is_disabled":false,"rental_uris":{"android":"levelo://app?vid=152a6295-86c6-48db-ba52-d0069877131a","ios":"levelo://app?vid=152a6295-86c6-48db-ba52-d0069877131a"},"vehicle_type_id":"4","last_reported":1729217540,"current_range_meters":30000,"station_id":"ce4bgv92rcd13ifvqcr0","pricing_plan_id":"cebpf4jnsgd1na2vs0mg"},{"bike_id":"4b786b2b-6a90-4a1f-a17f-44f0a2c12f39","system_id":"levelo_inurba_marseille","lat":43.2808,"lon":5.39665,"is_reserved":false,"is_disabled":false,"rental_uris":{"android":"levelo://app?vid=4b786b2b-6a90-4a1f-a17f-44f0a2c12f39","ios":"levelo://app?vid=4b786b2b-6a90-4a1f-a17f-44f0a2c12f39"},"vehicle_type_id":"4","last_reported":1729217540,"current_range_meters":38800,"station_id":"ce4bho12rcd13ifvqh2g","pricing_plan_id":"cebpf4jnsgd1na2vs0mg"},{"bike_id":"1070ebfa-7575-426c-82da-2ce4dd1e2817","system_id":"levelo_inurba_marseille","lat":43.28449,"lon":5.35898,"is_reserved":false,"is_disabled":false,"rental_uris":{"android":"levelo://app?vid=1070ebfa-7575-426c-82da-2ce4dd1e2817","ios":"levelo://app?vid=1070ebfa-7575-426c-82da-2ce4dd1e2817"},"vehicle_type_id":"4","last_reported":1729217540,"current_range_meters":38800,"station_id":"ce4bhah2rcd13ifvqei0","pricing_plan_id":"cebpf4jnsgd1na2vs0mg"},{"bike_id":"ed7b5e0b-1f1a-41ec-b201-a9edb4931872","system_id":"levelo_inurba_marseille","lat":43.28701,"lon":5.39989,"is_reserved":false,"is_disabled":false,"rental_uris":{"android":"levelo://app?vid=ed7b5e0b-1f1a-41ec-b201-a9edb4931872","ios":"levelo://app?vid=ed7b5e0b-1f1a-41ec-b201-a9edb4931872"},"vehicle_type_id":"4","last_reported":1729217540,"current_range_meters":29600,"station_id":"ce4bho92rcd13ifvqh3g","pricing_plan_id":"cebpf4jnsgd1na2vs0mg"},{"bike_id":"e4931e34-e843-4fa6-bef8-69f937e96cc9","system_id":"levelo_inurba_marseille","lat":43.25116,"lon":5.40317,"is_reserved":false,"is_disabled":false,"rental_uris":{"android":"levelo://app?vid=e4931e34-e843-4fa6-bef8-69f937e96cc9","ios":"levelo://app?vid=e4931e34-e843-4fa6-bef8-69f937e96cc9"},"vehicle_type_id":"4","last_reported":1729217540,"current_range_meters":6800,"station_id":"ce4bhlh2rcd13ifvqgig","pricing_plan_id":"cebpf4jnsgd1na2vs0mg"},{"bike_id":"06613c50-a72b-46cd-9c02-5c8d7a380936","system_id":"levelo_inurba_marseille","lat":43.31722,"lon":5.42412,"is_reserved":false,"is_disabled":false,"rental_uris":{"android":"levelo://app?vid=06613c50-a72b-46cd-9c02-5c8d7a380936","ios":"levelo://app?vid=06613c50-a72b-46cd-9c02-5c8d7a380936"},"vehicle_type_id":"4","last_reported":1729217540,"current_range_meters":38400,"station_id":"ce4bhp92rcd13ifvqhbg","pricing_plan_id":"cebpf4jnsgd1na2vs0mg"},{"bike_id":"fc262b45-2b88-4d3d-8020-e7c946d1fec3","system_id":"levelo_inurba_marseille","lat":43.32096,"lon":5.3676,"is_reserved":false,"is_disabled":false,"rental_uris":{"android":"levelo://app?vid=fc262b45-2b88-4d3d-8020-e7c946d1fec3","ios":"levelo://app?vid=fc262b45-2b88-4d3d-8020-e7c946d1fec3"},"vehicle_type_id":"4","last_reported":1729217540,"current_range_meters":38800,"station_id":"ce4bhrh2rcd13ifvqhug","pricing_plan_id":"cebpf4jnsgd1na2vs0mg"},{"bike_id":"5dee5fc1-49b9-48fb-90b1-12072a480019","system_id":"levelo_inurba_marseille","lat":43.28146,"lon":5.42643,"is_reserved":false,"is_disabled":false,"rental_uris":{"android":"levelo://app?vid=5dee5fc1-49b9-48fb-90b1-12072a480019","ios":"levelo://app?vid=5dee5fc1-49b9-48fb-90b1-12072a480019"},"vehicle_type_id":"4","last_reported":1729217540,"current_range_meters":36800,"station_id":"ce4bhnh2rcd13ifvqgug","pricing_plan_id":"cebpf4jnsgd1na2vs0mg"},{"bike_id":"0b03270e-5e6d-4ba5-a579-bef2e5d0025a","system_id":"levelo_inurba_marseille","lat":43.26198,"lon":5.37456,"is_reserved":false,"is_disabled":false,"rental_uris":{"android":"levelo://app?vid=0b03270e-5e6d-4ba5-a579-bef2e5d0025a","ios":"levelo://app?vid=0b03270e-5e6d-4ba5-a579-bef2e5d0025a"},"vehicle_type_id":"4","last_reported":1729217540,"current_range_meters":24400,"station_id":"ce4bhgp2rcd13ifvqfc0","pricing_plan_id":"cebpf4jnsgd1na2vs0mg"},{"bike_id":"087dfef3-a886-4d43-8352-ea90055ed827","system_id":"levelo_inurba_marseille","lat":43.26495,"lon":5.39556,"is_reserved":false,"is_disabled":false,"rental_uris":{"android":"levelo://app?vid=087dfef3-a886-4d43-8352-ea90055ed827","ios":"levelo://app?vid=087dfef3-a886-4d43-8352-ea90055ed827"},"vehicle_type_id":"4","last_reported":1729217540,"current_range_meters":11200,"station_id":"ce4bhi12rcd13ifvqfq0","pricing_plan_id":"cebpf4jnsgd1na2vs0mg"},{"bike_id":"eb85998d-3441-4ec8-8ad0-2ec955f91ab4","system_id":"levelo_inurba_marseille","lat":43.26953,"lon":5.38667,"is_reserved":false,"is_disabled":false,"rental_uris":{"android":"levelo://app?vid=eb85998d-3441-4ec8-8ad0-2ec955f91ab4","ios":"levelo://app?vid=eb85998d-3441-4ec8-8ad0-2ec955f91ab4"},"vehicle_type_id":"4","last_reported":1729217540,"current_range_meters":19600,"station_id":"ce4bhh92rcd13ifvqfh0","pricing_plan_id":"cebpf4jnsgd1na2vs0mg"},{"bike_id":"59238a0c-de64-46a6-a64a-5a5563ed932a","system_id":"levelo_inurba_marseille","lat":43.22937,"lon":5.35378,"is_reserved":false,"is_disabled":false,"rental_uris":{"android":"levelo://app?vid=59238a0c-de64-46a6-a64a-5a5563ed932a","ios":"levelo://app?vid=59238a0c-de64-46a6-a64a-5a5563ed932a"},"vehicle_type_id":"4","last_reported":1729217540,"current_range_meters":28000,"station_id":"cpo3532slgdg3j2ikp40","pricing_plan_id":"cebpf4jnsgd1na2vs0mg"},{"bike_id":"afd83018-07c4-4887-a4cd-86c03a4c3d00","system_id":"levelo_inurba_marseille","lat":43.30302,"lon":5.36897,"is_reserved":false,"is_disabled":false,"rental_uris":{"android":"levelo://app?vid=afd83018-07c4-4887-a4cd-86c03a4c3d00","ios":"levelo://app?vid=afd83018-07c4-4887-a4cd-86c03a4c3d00"},"vehicle_type_id":"4","last_reported":1729217540,"current_range_meters":38400,"station_id":"ce4bgqh2rcd13ifvqc5g","pricing_plan_id":"cebpf4jnsgd1na2vs0mg"},{"bike_id":"0d9570c6-60b3-42af-8c11-033de7ccd9c7","system_id":"levelo_inurba_marseille","lat":43.26682,"lon":5.38277,"is_reserved":false,"is_disabled":false,"rental_uris":{"android":"levelo://app?vid=0d9570c6-60b3-42af-8c11-033de7ccd9c7","ios":"levelo://app?vid=0d9570c6-60b3-42af-8c11-033de7ccd9c7"},"vehicle_type_id":"4","last_reported":1729217540,"current_range_meters":38000,"station_id":"ce4bhg92rcd13ifvqf90","pricing_plan_id":"cebpf4jnsgd1na2vs0mg"},{"bike_id":"27c5d666-3443-49ac-bc52-bb126531d453","system_id":"levelo_inurba_marseille","lat":43.29022,"lon":5.37571,"is_reserved":false,"is_disabled":false,"rental_uris":{"android":"levelo://app?vid=27c5d666-3443-49ac-bc52-bb126531d453","ios":"levelo://app?vid=27c5d666-3443-49ac-bc52-bb126531d453"},"vehicle_type_id":"4","last_reported":1729217540,"current_range_meters":36800,"station_id":"ce4bh692rcd13ifvqe90","pricing_plan_id":"cebpf4jnsgd1na2vs0mg"},{"bike_id":"fdf31365-4d7c-4c9e-8367-029760b056f4","system_id":"levelo_inurba_marseille","lat":43.30212,"lon":5.39488,"is_reserved":false,"is_disabled":false,"rental_uris":{"android":"levelo://app?vid=fdf31365-4d7c-4c9e-8367-029760b056f4","ios":"levelo://app?vid=fdf31365-4d7c-4c9e-8367-029760b056f4"},"vehicle_type_id":"4","last_reported":1729217540,"current_range_meters":38000,"station_id":"ce4bh0p2rcd13ifvqd70","pricing_plan_id":"cebpf4jnsgd1na2vs0mg"},{"bike_id":"9e91d2fe-fed7-48bf-b81d-6f5bb14f23c5","system_id":"levelo_inurba_marseille","lat":43.27053,"lon":5.40281,"is_reserved":false,"is_disabled":false,"rental_uris":{"android":"levelo://app?vid=9e91d2fe-fed7-48bf-b81d-6f5bb14f23c5","ios":"levelo://app?vid=9e91d2fe-fed7-48bf-b81d-6f5bb14f23c5"},"vehicle_type_id":"4","last_reported":1729217540,"current_range_meters":24400,"station_id":"ce4bhk92rcd13ifvqgc0","pricing_plan_id":"cebpf4jnsgd1na2vs0mg"},{"bike_id":"0a12077a-64ea-4f82-9cc2-6d30cd8f221d","system_id":"levelo_inurba_marseille","lat":43.25116,"lon":5.40323,"is_reserved":false,"is_disabled":false,"rental_uris":{"android":"levelo://app?vid=0a12077a-64ea-4f82-9cc2-6d30cd8f221d","ios":"levelo://app?vid=0a12077a-64ea-4f82-9cc2-6d30cd8f221d"},"vehicle_type_id":"4","last_reported":1729217540,"current_range_meters":24000,"station_id":"ce4bhlh2rcd13ifvqgig","pricing_plan_id":"cebpf4jnsgd1na2vs0mg"},{"bike_id":"4c450603-3f04-4e5c-94f9-9405560445fc","system_id":"levelo_inurba_marseille","lat":43.30416,"lon":5.41295,"is_reserved":false,"is_disabled":false,"rental_uris":{"android":"levelo://app?vid=4c450603-3f04-4e5c-94f9-9405560445fc","ios":"levelo://app?vid=4c450603-3f04-4e5c-94f9-9405560445fc"},"vehicle_type_id":"4","last_reported":1729217540,"current_range_meters":38800,"station_id":"ce4bhop2rcd13ifvqh8g","pricing_plan_id":"cebpf4jnsgd1na2vs0mg"},{"bike_id":"fff57f58-00f3-4eb5-9b9f-517b6e0a746d","system_id":"levelo_inurba_marseille","lat":43.23958,"lon":5.36604,"is_reserved":false,"is_disabled":false,"rental_uris":{"android":"levelo://app?vid=fff57f58-00f3-4eb5-9b9f-517b6e0a746d","ios":"levelo://app?vid=fff57f58-00f3-4eb5-9b9f-517b6e0a746d"},"vehicle_type_id":"4","last_reported":1729217540,"current_range_meters":38400,"station_id":"ce4bhi12rcd13ifvqfp0","pricing_plan_id":"cebpf4jnsgd1na2vs0mg"},{"bike_id":"94dad7f8-6585-4b37-b691-74420d23ef13","system_id":"levelo_inurba_marseille","lat":43.30799,"lon":5.43522,"is_reserved":false,"is_disabled":false,"rental_uris":{"android":"levelo://app?vid=94dad7f8-6585-4b37-b691-74420d23ef13","ios":"levelo://app?vid=94dad7f8-6585-4b37-b691-74420d23ef13"},"vehicle_type_id":"4","last_reported":1729217540,"current_range_meters":36800,"station_id":"ce4bhph2rcd13ifvqheg","pricing_plan_id":"cebpf4jnsgd1na2vs0mg"},{"bike_id":"0e82c7fb-5add-407e-877f-436cc7295acb","system_id":"levelo_inurba_marseille","lat":43.28564,"lon":5.39488,"is_reserved":false,"is_disabled":false,"rental_uris":{"android":"levelo://app?vid=0e82c7fb-5add-407e-877f-436cc7295acb","ios":"levelo://app?vid=0e82c7fb-5add-407e-877f-436cc7295acb"},"vehicle_type_id":"4","last_reported":1729217540,"current_range_meters":39200,"station_id":"ce4bh292rcd13ifvqdg0","pricing_plan_id":"cebpf4jnsgd1na2vs0mg"},{"bike_id":"4562e9bb-7c1e-4e0e-95e1-858d0f8d86d1","system_id":"levelo_inurba_marseille","lat":43.23216,"lon":5.3556,"is_reserved":false,"is_disabled":false,"rental_uris":{"android":"levelo://app?vid=4562e9bb-7c1e-4e0e-95e1-858d0f8d86d1","ios":"levelo://app?vid=4562e9bb-7c1e-4e0e-95e1-858d0f8d86d1"},"vehicle_type_id":"4","last_reported":1729217540,"current_range_meters":36800,"station_id":"ce4bhu92rcd13ifvqi70","pricing_plan_id":"cebpf4jnsgd1na2vs0mg"},{"bike_id":"79e1eed1-16d9-44cd-bd2b-ecc125f9d017","system_id":"levelo_inurba_marseille","lat":43.28727,"lon":5.39965,"is_reserved":false,"is_disabled":false,"rental_uris":{"android":"levelo://app?vid=79e1eed1-16d9-44cd-bd2b-ecc125f9d017","ios":"levelo://app?vid=79e1eed1-16d9-44cd-bd2b-ecc125f9d017"},"vehicle_type_id":"4","last_reported":1729217540,"current_range_meters":38800,"station_id":"ce4bho92rcd13ifvqh3g","pricing_plan_id":"cebpf4jnsgd1na2vs0mg"},{"bike_id":"439234c6-7189-4dab-95ff-c08c915402ac","system_id":"levelo_inurba_marseille","lat":43.30896,"lon":5.39645,"is_reserved":false,"is_disabled":false,"rental_uris":{"android":"levelo://app?vid=439234c6-7189-4dab-95ff-c08c915402ac","ios":"levelo://app?vid=439234c6-7189-4dab-95ff-c08c915402ac"},"vehicle_type_id":"4","last_reported":1729217540,"current_range_meters":38800,"station_id":"ce4bh012rcd13ifvqcv0","pricing_plan_id":"cebpf4jnsgd1na2vs0mg"},{"bike_id":"6837ac97-30a8-4145-8047-b6d6df61ac48","system_id":"levelo_inurba_marseille","lat":43.23184,"lon":5.39976,"is_reserved":false,"is_disabled":false,"rental_uris":{"android":"levelo://app?vid=6837ac97-30a8-4145-8047-b6d6df61ac48","ios":"levelo://app?vid=6837ac97-30a8-4145-8047-b6d6df61ac48"},"vehicle_type_id":"4","last_reported":1729217540,"current_range_meters":38800,"station_id":"ce4bhn12rcd13ifvqgqg","pricing_plan_id":"cebpf4jnsgd1na2vs0mg"},{"bike_id":"2140b6a3-5118-4150-823e-9225aeb56201","system_id":"levelo_inurba_marseille","lat":43.23197,"lon":5.35545,"is_reserved":false,"is_disabled":false,"rental_uris":{"android":"levelo://app?vid=2140b6a3-5118-4150-823e-9225aeb56201","ios":"levelo://app?vid=2140b6a3-5118-4150-823e-9225aeb56201"},"vehicle_type_id":"4","last_reported":1729217540,"current_range_meters":34000,"station_id":"ce4bhu92rcd13ifvqi70","pricing_plan_id":"cebpf4jnsgd1na2vs0mg"},{"bike_id":"2d26828d-d90f-4409-8e3f-2bdaa5ca0cb2","system_id":"levelo_inurba_marseille","lat":43.23183,"lon":5.39973,"is_reserved":false,"is_disabled":false,"rental_uris":{"android":"levelo://app?vid=2d26828d-d90f-4409-8e3f-2bdaa5ca0cb2","ios":"levelo://app?vid=2d26828d-d90f-4409-8e3f-2bdaa5ca0cb2"},"vehicle_type_id":"4","last_reported":1729217540,"current_range_meters":35600,"station_id":"ce4bhn12rcd13ifvqgqg","pricing_plan_id":"cebpf4jnsgd1na2vs0mg"},{"bike_id":"8015e1d7-aa1b-4e39-8862-6cac0e4f7565","system_id":"levelo_inurba_marseille","lat":43.28562,"lon":5.39494,"is_reserved":false,"is_disabled":false,"rental_uris":{"android":"levelo://app?vid=8015e1d7-aa1b-4e39-8862-6cac0e4f7565","ios":"levelo://app?vid=8015e1d7-aa1b-4e39-8862-6cac0e4f7565"},"vehicle_type_id":"4","last_reported":1729217540,"current_range_meters":37600,"station_id":"ce4bh292rcd13ifvqdg0","pricing_plan_id":"cebpf4jnsgd1na2vs0mg"},{"bike_id":"e0d02837-606c-4fb0-bae6-b9a9ef8eaaee","system_id":"levelo_inurba_marseille","lat":43.29419,"lon":5.39738,"is_reserved":false,"is_disabled":false,"rental_uris":{"android":"levelo://app?vid=e0d02837-606c-4fb0-bae6-b9a9ef8eaaee","ios":"levelo://app?vid=e0d02837-606c-4fb0-bae6-b9a9ef8eaaee"},"vehicle_type_id":"4","last_reported":1729217540,"current_range_meters":24400,"station_id":"ce4bh3h2rcd13ifvqdo0","pricing_plan_id":"cebpf4jnsgd1na2vs0mg"},{"bike_id":"6f303577-c145-42dc-b0ad-f609ecd5c6cc","system_id":"levelo_inurba_marseille","lat":43.28157,"lon":5.4264,"is_reserved":false,"is_disabled":false,"rental_uris":{"android":"levelo://app?vid=6f303577-c145-42dc-b0ad-f609ecd5c6cc","ios":"levelo://app?vid=6f303577-c145-42dc-b0ad-f609ecd5c6cc"},"vehicle_type_id":"4","last_reported":1729217540,"current_range_meters":32000,"station_id":"ce4bhnh2rcd13ifvqgug","pricing_plan_id":"cebpf4jnsgd1na2vs0mg"},{"bike_id":"274fdafa-4b9d-4114-a02f-88b1b7077b5d","system_id":"levelo_inurba_marseille","lat":43.31774,"lon":5.39034,"is_reserved":false,"is_disabled":false,"rental_uris":{"android":"levelo://app?vid=274fdafa-4b9d-4114-a02f-88b1b7077b5d","ios":"levelo://app?vid=274fdafa-4b9d-4114-a02f-88b1b7077b5d"},"vehicle_type_id":"4","last_reported":1729217540,"current_range_meters":38800,"station_id":"ce4bhqp2rcd13ifvqhng","pricing_plan_id":"cebpf4jnsgd1na2vs0mg"},{"bike_id":"ab7dd9d4-41f9-462e-8030-94f1c16fff7a","system_id":"levelo_inurba_marseille","lat":43.28671,"lon":5.36353,"is_reserved":false,"is_disabled":false,"rental_uris":{"android":"levelo://app?vid=ab7dd9d4-41f9-462e-8030-94f1c16fff7a","ios":"levelo://app?vid=ab7dd9d4-41f9-462e-8030-94f1c16fff7a"},"vehicle_type_id":"4","last_reported":1729217540,"current_range_meters":16800,"station_id":"ce4bhah2rcd13ifvqej0","pricing_plan_id":"cebpf4jnsgd1na2vs0mg"},{"bike_id":"66273aaf-4a3f-4ab1-95c9-9102359831d5","system_id":"levelo_inurba_marseille","lat":43.26038,"lon":5.37561,"is_reserved":false,"is_disabled":false,"rental_uris":{"android":"levelo://app?vid=66273aaf-4a3f-4ab1-95c9-9102359831d5","ios":"levelo://app?vid=66273aaf-4a3f-4ab1-95c9-9102359831d5"},"vehicle_type_id":"4","last_reported":1729217540,"current_range_meters":38800,"station_id":"ce4bhgh2rcd13ifvqfa0","pricing_plan_id":"cebpf4jnsgd1na2vs0mg"},{"bike_id":"788b4ec0-b74e-4879-8b8e-bfeada4ddf7f","system_id":"levelo_inurba_marseille","lat":43.28691,"lon":5.39962,"is_reserved":false,"is_disabled":false,"rental_uris":{"android":"levelo://app?vid=788b4ec0-b74e-4879-8b8e-bfeada4ddf7f","ios":"levelo://app?vid=788b4ec0-b74e-4879-8b8e-bfeada4ddf7f"},"vehicle_type_id":"4","last_reported":1729217540,"current_range_meters":38000,"station_id":"ce4bho92rcd13ifvqh3g","pricing_plan_id":"cebpf4jnsgd1na2vs0mg"},{"bike_id":"974e9931-6d20-4545-9e5e-b40e518c0577","system_id":"levelo_inurba_marseille","lat":43.27817,"lon":5.40718,"is_reserved":false,"is_disabled":false,"rental_uris":{"android":"levelo://app?vid=974e9931-6d20-4545-9e5e-b40e518c0577","ios":"levelo://app?vid=974e9931-6d20-4545-9e5e-b40e518c0577"},"vehicle_type_id":"4","last_reported":1729217540,"current_range_meters":28400,"station_id":"ce4bhnh2rcd13ifvqgtg","pricing_plan_id":"cebpf4jnsgd1na2vs0mg"},{"bike_id":"7dc346b7-5e39-4115-b829-41f21d6ee697","system_id":"levelo_inurba_marseille","lat":43.29032,"lon":5.35928,"is_reserved":false,"is_disabled":false,"rental_uris":{"android":"levelo://app?vid=7dc346b7-5e39-4115-b829-41f21d6ee697","ios":"levelo://app?vid=7dc346b7-5e39-4115-b829-41f21d6ee697"},"vehicle_type_id":"4","last_reported":1729217540,"current_range_meters":38400,"station_id":"ce4bha92rcd13ifvqeg0","pricing_plan_id":"cebpf4jnsgd1na2vs0mg"},{"bike_id":"521c673e-7033-4999-9ba4-100fe2ca5465","system_id":"levelo_inurba_marseille","lat":43.24645,"lon":5.38875,"is_reserved":false,"is_disabled":false,"rental_uris":{"android":"levelo://app?vid=521c673e-7033-4999-9ba4-100fe2ca5465","ios":"levelo://app?vid=521c673e-7033-4999-9ba4-100fe2ca5465"},"vehicle_type_id":"4","last_reported":1729217540,"current_range_meters":33200,"station_id":"ce4bhg12rcd13ifvqf60","pricing_plan_id":"cebpf4jnsgd1na2vs0mg"},{"bike_id":"83bcafb6-7740-4133-8b56-4bf302222f17","system_id":"levelo_inurba_marseille","lat":43.23956,"lon":5.36652,"is_reserved":false,"is_disabled":false,"rental_uris":{"android":"levelo://app?vid=83bcafb6-7740-4133-8b56-4bf302222f17","ios":"levelo://app?vid=83bcafb6-7740-4133-8b56-4bf302222f17"},"vehicle_type_id":"4","last_reported":1729217540,"current_range_meters":38000,"station_id":"ce4bhi12rcd13ifvqfp0","pricing_plan_id":"cebpf4jnsgd1na2vs0mg"},{"bike_id":"22d00216-a29a-43e6-a4d8-940fc8529d64","system_id":"levelo_inurba_marseille","lat":43.30881,"lon":5.39651,"is_reserved":false,"is_disabled":false,"rental_uris":{"android":"levelo://app?vid=22d00216-a29a-43e6-a4d8-940fc8529d64","ios":"levelo://app?vid=22d00216-a29a-43e6-a4d8-940fc8529d64"},"vehicle_type_id":"4","last_reported":1729217540,"current_range_meters":7200,"station_id":"ce4bh012rcd13ifvqcv0","pricing_plan_id":"cebpf4jnsgd1na2vs0mg"},{"bike_id":"7772d39f-5e28-445c-af91-069b0cf63793","system_id":"levelo_inurba_marseille","lat":43.33765,"lon":5.37438,"is_reserved":false,"is_disabled":false,"rental_uris":{"android":"levelo://app?vid=7772d39f-5e28-445c-af91-069b0cf63793","ios":"levelo://app?vid=7772d39f-5e28-445c-af91-069b0cf63793"},"vehicle_type_id":"4","last_reported":1729217540,"current_range_meters":15200,"station_id":"","pricing_plan_id":"cebpf4jnsgd1na2vs0mg"},{"bike_id":"168e4cce-554c-4e27-a4eb-4002cfc7a0e3","system_id":"levelo_inurba_marseille","lat":43.3021,"lon":5.39482,"is_reserved":false,"is_disabled":false,"rental_uris":{"android":"levelo://app?vid=168e4cce-554c-4e27-a4eb-4002cfc7a0e3","ios":"levelo://app?vid=168e4cce-554c-4e27-a4eb-4002cfc7a0e3"},"vehicle_type_id":"4","last_reported":1729217540,"current_range_meters":38000,"station_id":"ce4bh0p2rcd13ifvqd70","pricing_plan_id":"cebpf4jnsgd1na2vs0mg"},{"bike_id":"341c6749-6474-42a4-8be3-1a1a4be540a3","system_id":"levelo_inurba_marseille","lat":43.33024,"lon":5.39027,"is_reserved":false,"is_disabled":false,"rental_uris":{"android":"levelo://app?vid=341c6749-6474-42a4-8be3-1a1a4be540a3","ios":"levelo://app?vid=341c6749-6474-42a4-8be3-1a1a4be540a3"},"vehicle_type_id":"4","last_reported":1729217540,"current_range_meters":16000,"station_id":"ce4bhr92rcd13ifvqhrg","pricing_plan_id":"cebpf4jnsgd1na2vs0mg"},{"bike_id":"d8eb113e-a350-4b67-9422-42aa94d51fec","system_id":"levelo_inurba_marseille","lat":43.28109,"lon":5.37843,"is_reserved":false,"is_disabled":false,"rental_uris":{"android":"levelo://app?vid=d8eb113e-a350-4b67-9422-42aa94d51fec","ios":"levelo://app?vid=d8eb113e-a350-4b67-9422-42aa94d51fec"},"vehicle_type_id":"4","last_reported":1729217540,"current_range_meters":38800,"station_id":"ce4bha12rcd13ifvqee0","pricing_plan_id":"cebpf4jnsgd1na2vs0mg"},{"bike_id":"3213665e-989c-4d22-9f5a-31c8522597dd","system_id":"levelo_inurba_marseille","lat":43.296,"lon":5.36142,"is_reserved":false,"is_disabled":false,"rental_uris":{"android":"levelo://app?vid=3213665e-989c-4d22-9f5a-31c8522597dd","ios":"levelo://app?vid=3213665e-989c-4d22-9f5a-31c8522597dd"},"vehicle_type_id":"4","last_reported":1729217540,"current_range_meters":26000,"station_id":"","pricing_plan_id":"cebpf4jnsgd1na2vs0mg"},{"bike_id":"340668a8-406a-42a1-a4cc-3dee34ea2f60","system_id":"levelo_inurba_marseille","lat":43.31708,"lon":5.37749,"is_reserved":false,"is_disabled":false,"rental_uris":{"android":"levelo://app?vid=340668a8-406a-42a1-a4cc-3dee34ea2f60","ios":"levelo://app?vid=340668a8-406a-42a1-a4cc-3dee34ea2f60"},"vehicle_type_id":"4","last_reported":1729217540,"current_range_meters":38800,"station_id":"ce4bgth2rcd13ifvqch0","pricing_plan_id":"cebpf4jnsgd1na2vs0mg"},{"bike_id":"cddb2538-acdb-46a5-bc95-6e0a8d74ef0c","system_id":"levelo_inurba_marseille","lat":43.30792,"lon":5.43537,"is_reserved":false,"is_disabled":false,"rental_uris":{"android":"levelo://app?vid=cddb2538-acdb-46a5-bc95-6e0a8d74ef0c","ios":"levelo://app?vid=cddb2538-acdb-46a5-bc95-6e0a8d74ef0c"},"vehicle_type_id":"4","last_reported":1729217540,"current_range_meters":33600,"station_id":"ce4bhph2rcd13ifvqheg","pricing_plan_id":"cebpf4jnsgd1na2vs0mg"},{"bike_id":"a8eba3d5-b3c0-4f18-b60f-aa3687e1d6de","system_id":"levelo_inurba_marseille","lat":43.23186,"lon":5.39994,"is_reserved":false,"is_disabled":false,"rental_uris":{"android":"levelo://app?vid=a8eba3d5-b3c0-4f18-b60f-aa3687e1d6de","ios":"levelo://app?vid=a8eba3d5-b3c0-4f18-b60f-aa3687e1d6de"},"vehicle_type_id":"4","last_reported":1729217540,"current_range_meters":34000,"station_id":"ce4bhn12rcd13ifvqgqg","pricing_plan_id":"cebpf4jnsgd1na2vs0mg"},{"bike_id":"232c9916-430c-4f2f-99b6-45e55a18a493","system_id":"levelo_inurba_marseille","lat":43.2407,"lon":5.37743,"is_reserved":false,"is_disabled":false,"rental_uris":{"android":"levelo://app?vid=232c9916-430c-4f2f-99b6-45e55a18a493","ios":"levelo://app?vid=232c9916-430c-4f2f-99b6-45e55a18a493"},"vehicle_type_id":"4","last_reported":1729217540,"current_range_meters":38000,"station_id":"ce4bhnp2rcd13ifvqgvg","pricing_plan_id":"cebpf4jnsgd1na2vs0mg"},{"bike_id":"5ccf9646-207d-4ec3-8750-95ff14851d06","system_id":"levelo_inurba_marseille","lat":43.32341,"lon":5.40617,"is_reserved":false,"is_disabled":false,"rental_uris":{"android":"levelo://app?vid=5ccf9646-207d-4ec3-8750-95ff14851d06","ios":"levelo://app?vid=5ccf9646-207d-4ec3-8750-95ff14851d06"},"vehicle_type_id":"4","last_reported":1729217540,"current_range_meters":24400,"station_id":"ce4bhq92rcd13ifvqhjg","pricing_plan_id":"cebpf4jnsgd1na2vs0mg"},{"bike_id":"1641b826-604a-4181-8231-dca386f637a6","system_id":"levelo_inurba_marseille","lat":43.231931,"lon":5.355481,"is_reserved":false,"is_disabled":false,"rental_uris":{"android":"levelo://app?vid=1641b826-604a-4181-8231-dca386f637a6","ios":"levelo://app?vid=1641b826-604a-4181-8231-dca386f637a6"},"vehicle_type_id":"4","last_reported":1729217540,"current_range_meters":31200,"station_id":"ce4bhu92rcd13ifvqi70","pricing_plan_id":"cebpf4jnsgd1na2vs0mg"},{"bike_id":"89211ee2-076f-4df3-92bd-cd8885f2e76d","system_id":"levelo_inurba_marseille","lat":43.23194,"lon":5.35554,"is_reserved":false,"is_disabled":false,"rental_uris":{"android":"levelo://app?vid=89211ee2-076f-4df3-92bd-cd8885f2e76d","ios":"levelo://app?vid=89211ee2-076f-4df3-92bd-cd8885f2e76d"},"vehicle_type_id":"4","last_reported":1729217540,"current_range_meters":30000,"station_id":"ce4bhu92rcd13ifvqi70","pricing_plan_id":"cebpf4jnsgd1na2vs0mg"},{"bike_id":"214abc9a-dbd6-411e-8d1c-ae92dfeea0d7","system_id":"levelo_inurba_marseille","lat":43.25877,"lon":5.39902,"is_reserved":false,"is_disabled":false,"rental_uris":{"android":"levelo://app?vid=214abc9a-dbd6-411e-8d1c-ae92dfeea0d7","ios":"levelo://app?vid=214abc9a-dbd6-411e-8d1c-ae92dfeea0d7"},"vehicle_type_id":"4","last_reported":1729217540,"current_range_meters":7200,"station_id":"ce4bhl92rcd13ifvqghg","pricing_plan_id":"cebpf4jnsgd1na2vs0mg"},{"bike_id":"3006d2e9-2181-4c00-9dc2-e200a90526fb","system_id":"levelo_inurba_marseille","lat":43.2785,"lon":5.40714,"is_reserved":false,"is_disabled":false,"rental_uris":{"android":"levelo://app?vid=3006d2e9-2181-4c00-9dc2-e200a90526fb","ios":"levelo://app?vid=3006d2e9-2181-4c00-9dc2-e200a90526fb"},"vehicle_type_id":"4","last_reported":1729217540,"current_range_meters":8000,"station_id":"ce4bhnh2rcd13ifvqgtg","pricing_plan_id":"cebpf4jnsgd1na2vs0mg"},{"bike_id":"a3c5a5f4-a245-44e7-a623-76fdceeba507","system_id":"levelo_inurba_marseille","lat":43.28637,"lon":5.39966,"is_reserved":false,"is_disabled":false,"rental_uris":{"android":"levelo://app?vid=a3c5a5f4-a245-44e7-a623-76fdceeba507","ios":"levelo://app?vid=a3c5a5f4-a245-44e7-a623-76fdceeba507"},"vehicle_type_id":"4","last_reported":1729217540,"current_range_meters":12800,"station_id":"","pricing_plan_id":"cebpf4jnsgd1na2vs0mg"},{"bike_id":"35c933d6-0efe-4363-9428-3f39de1cb728","system_id":"levelo_inurba_marseille","lat":43.2582,"lon":5.39434,"is_reserved":false,"is_disabled":false,"rental_uris":{"android":"levelo://app?vid=35c933d6-0efe-4363-9428-3f39de1cb728","ios":"levelo://app?vid=35c933d6-0efe-4363-9428-3f39de1cb728"},"vehicle_type_id":"4","last_reported":1729217540,"current_range_meters":38800,"station_id":"ce4bhip2rcd13ifvqft0","pricing_plan_id":"cebpf4jnsgd1na2vs0mg"},{"bike_id":"32aaaf59-efd6-4a74-9ad4-ab61218ce3cb","system_id":"levelo_inurba_marseille","lat":43.34145,"lon":5.40902,"is_reserved":false,"is_disabled":false,"rental_uris":{"android":"levelo://app?vid=32aaaf59-efd6-4a74-9ad4-ab61218ce3cb","ios":"levelo://app?vid=32aaaf59-efd6-4a74-9ad4-ab61218ce3cb"},"vehicle_type_id":"4","last_reported":1729217540,"current_range_meters":23200,"station_id":"ce4bhqh2rcd13ifvqhlg","pricing_plan_id":"cebpf4jnsgd1na2vs0mg"},{"bike_id":"87b80bb0-1dc5-44c1-9c7b-c0ae5bdcc6ea","system_id":"levelo_inurba_marseille","lat":43.27073,"lon":5.42271,"is_reserved":false,"is_disabled":false,"rental_uris":{"android":"levelo://app?vid=87b80bb0-1dc5-44c1-9c7b-c0ae5bdcc6ea","ios":"levelo://app?vid=87b80bb0-1dc5-44c1-9c7b-c0ae5bdcc6ea"},"vehicle_type_id":"4","last_reported":1729217540,"current_range_meters":12000,"station_id":"ce4bhk92rcd13ifvqgb0","pricing_plan_id":"cebpf4jnsgd1na2vs0mg"},{"bike_id":"21d1f8ef-3dea-4cf6-ae2f-5dbc36b38fdb","system_id":"levelo_inurba_marseille","lat":43.32652,"lon":5.40989,"is_reserved":false,"is_disabled":false,"rental_uris":{"android":"levelo://app?vid=21d1f8ef-3dea-4cf6-ae2f-5dbc36b38fdb","ios":"levelo://app?vid=21d1f8ef-3dea-4cf6-ae2f-5dbc36b38fdb"},"vehicle_type_id":"4","last_reported":1729217540,"current_range_meters":38800,"station_id":"ce4bhpp2rcd13ifvqhgg","pricing_plan_id":"cebpf4jnsgd1na2vs0mg"},{"bike_id":"40233ae9-57bb-4fd3-a69e-691a1da68434","system_id":"levelo_inurba_marseille","lat":43.28704,"lon":5.3998,"is_reserved":false,"is_disabled":false,"rental_uris":{"android":"levelo://app?vid=40233ae9-57bb-4fd3-a69e-691a1da68434","ios":"levelo://app?vid=40233ae9-57bb-4fd3-a69e-691a1da68434"},"vehicle_type_id":"4","last_reported":1729217540,"current_range_meters":15200,"station_id":"ce4bho92rcd13ifvqh3g","pricing_plan_id":"cebpf4jnsgd1na2vs0mg"},{"bike_id":"f88c7e01-bc8c-4735-8a37-e29425c30c87","system_id":"levelo_inurba_marseille","lat":43.2318,"lon":5.40003,"is_reserved":false,"is_disabled":false,"rental_uris":{"android":"levelo://app?vid=f88c7e01-bc8c-4735-8a37-e29425c30c87","ios":"levelo://app?vid=f88c7e01-bc8c-4735-8a37-e29425c30c87"},"vehicle_type_id":"4","last_reported":1729217540,"current_range_meters":9600,"station_id":"ce4bhn12rcd13ifvqgqg","pricing_plan_id":"cebpf4jnsgd1na2vs0mg"},{"bike_id":"e8fa0c67-c553-4a87-9c32-6644007fca22","system_id":"levelo_inurba_marseille","lat":43.28612,"lon":5.351,"is_reserved":false,"is_disabled":false,"rental_uris":{"android":"levelo://app?vid=e8fa0c67-c553-4a87-9c32-6644007fca22","ios":"levelo://app?vid=e8fa0c67-c553-4a87-9c32-6644007fca22"},"vehicle_type_id":"4","last_reported":1729217540,"current_range_meters":16800,"station_id":"ce4bhch2rcd13ifvqeug","pricing_plan_id":"cebpf4jnsgd1na2vs0mg"},{"bike_id":"14deb1b1-b495-4b35-97c2-895a5ef7ad23","system_id":"levelo_inurba_marseille","lat":43.32349,"lon":5.40616,"is_reserved":false,"is_disabled":false,"rental_uris":{"android":"levelo://app?vid=14deb1b1-b495-4b35-97c2-895a5ef7ad23","ios":"levelo://app?vid=14deb1b1-b495-4b35-97c2-895a5ef7ad23"},"vehicle_type_id":"4","last_reported":1729217540,"current_range_meters":40000,"station_id":"ce4bhq92rcd13ifvqhjg","pricing_plan_id":"cebpf4jnsgd1na2vs0mg"},{"bike_id":"e8ef5cb5-6238-47d3-8a6c-90dea33414df","system_id":"levelo_inurba_marseille","lat":43.29296,"lon":5.4091,"is_reserved":false,"is_disabled":false,"rental_uris":{"android":"levelo://app?vid=e8ef5cb5-6238-47d3-8a6c-90dea33414df","ios":"levelo://app?vid=e8ef5cb5-6238-47d3-8a6c-90dea33414df"},"vehicle_type_id":"4","last_reported":1729217540,"current_range_meters":27600,"station_id":"ce4bh192rcd13ifvqdc0","pricing_plan_id":"cebpf4jnsgd1na2vs0mg"},{"bike_id":"158c34ce-8e86-4473-93fd-4a32017ada12","system_id":"levelo_inurba_marseille","lat":43.30256,"lon":5.401,"is_reserved":false,"is_disabled":false,"rental_uris":{"android":"levelo://app?vid=158c34ce-8e86-4473-93fd-4a32017ada12","ios":"levelo://app?vid=158c34ce-8e86-4473-93fd-4a32017ada12"},"vehicle_type_id":"4","last_reported":1729217540,"current_range_meters":36800,"station_id":"ce4bgvh2rcd13ifvqcs0","pricing_plan_id":"cebpf4jnsgd1na2vs0mg"},{"bike_id":"c99a9cdd-b5c6-4f27-8cec-99faa53b1c05","system_id":"levelo_inurba_marseille","lat":43.29054,"lon":5.39914,"is_reserved":false,"is_disabled":false,"rental_uris":{"android":"levelo://app?vid=c99a9cdd-b5c6-4f27-8cec-99faa53b1c05","ios":"levelo://app?vid=c99a9cdd-b5c6-4f27-8cec-99faa53b1c05"},"vehicle_type_id":"4","last_reported":1729217540,"current_range_meters":18800,"station_id":"ce4bh392rcd13ifvqdm0","pricing_plan_id":"cebpf4jnsgd1na2vs0mg"},{"bike_id":"87440bd7-4730-412f-b52f-03b263c3d6ba","system_id":"levelo_inurba_marseille","lat":43.2319,"lon":5.35554,"is_reserved":false,"is_disabled":false,"rental_uris":{"android":"levelo://app?vid=87440bd7-4730-412f-b52f-03b263c3d6ba","ios":"levelo://app?vid=87440bd7-4730-412f-b52f-03b263c3d6ba"},"vehicle_type_id":"4","last_reported":1729217540,"current_range_meters":16000,"station_id":"ce4bhu92rcd13ifvqi70","pricing_plan_id":"cebpf4jnsgd1na2vs0mg"},{"bike_id":"59485370-d77b-44dc-a21f-c549425b1ce2","system_id":"levelo_inurba_marseille","lat":43.24071,"lon":5.3776,"is_reserved":false,"is_disabled":false,"rental_uris":{"android":"levelo://app?vid=59485370-d77b-44dc-a21f-c549425b1ce2","ios":"levelo://app?vid=59485370-d77b-44dc-a21f-c549425b1ce2"},"vehicle_type_id":"4","last_reported":1729217540,"current_range_meters":38800,"station_id":"ce4bhnp2rcd13ifvqgvg","pricing_plan_id":"cebpf4jnsgd1na2vs0mg"},{"bike_id":"853aab9d-438c-4237-b86a-b2c5d81ecaf9","system_id":"levelo_inurba_marseille","lat":43.29874,"lon":5.39734,"is_reserved":false,"is_disabled":false,"rental_uris":{"android":"levelo://app?vid=853aab9d-438c-4237-b86a-b2c5d81ecaf9","ios":"levelo://app?vid=853aab9d-438c-4237-b86a-b2c5d81ecaf9"},"vehicle_type_id":"4","last_reported":1729217540,"current_range_meters":37600,"station_id":"ce4bh0h2rcd13ifvqd50","pricing_plan_id":"cebpf4jnsgd1na2vs0mg"},{"bike_id":"8eb67623-cfe0-4a96-98e3-5bcb31ed70e4","system_id":"levelo_inurba_marseille","lat":43.30613,"lon":5.37233,"is_reserved":false,"is_disabled":false,"rental_uris":{"android":"levelo://app?vid=8eb67623-cfe0-4a96-98e3-5bcb31ed70e4","ios":"levelo://app?vid=8eb67623-cfe0-4a96-98e3-5bcb31ed70e4"},"vehicle_type_id":"4","last_reported":1729217540,"current_range_meters":36400,"station_id":"ce4bgqh2rcd13ifvqc4g","pricing_plan_id":"cebpf4jnsgd1na2vs0mg"},{"bike_id":"e0f74b35-6e81-4485-9496-e80c2453f0bd","system_id":"levelo_inurba_marseille","lat":43.23219,"lon":5.35544,"is_reserved":false,"is_disabled":false,"rental_uris":{"android":"levelo://app?vid=e0f74b35-6e81-4485-9496-e80c2453f0bd","ios":"levelo://app?vid=e0f74b35-6e81-4485-9496-e80c2453f0bd"},"vehicle_type_id":"4","last_reported":1729217540,"current_range_meters":28000,"station_id":"ce4bhu92rcd13ifvqi70","pricing_plan_id":"cebpf4jnsgd1na2vs0mg"},{"bike_id":"8c5293d6-35a0-4aa1-a33a-4251bf05d055","system_id":"levelo_inurba_marseille","lat":43.27181,"lon":5.40998,"is_reserved":false,"is_disabled":false,"rental_uris":{"android":"levelo://app?vid=8c5293d6-35a0-4aa1-a33a-4251bf05d055","ios":"levelo://app?vid=8c5293d6-35a0-4aa1-a33a-4251bf05d055"},"vehicle_type_id":"4","last_reported":1729217540,"current_range_meters":38800,"station_id":"ce4bhl12rcd13ifvqgf0","pricing_plan_id":"cebpf4jnsgd1na2vs0mg"},{"bike_id":"1c61c240-9d00-4c1f-b112-113ee598425d","system_id":"levelo_inurba_marseille","lat":43.3303,"lon":5.39033,"is_reserved":false,"is_disabled":false,"rental_uris":{"android":"levelo://app?vid=1c61c240-9d00-4c1f-b112-113ee598425d","ios":"levelo://app?vid=1c61c240-9d00-4c1f-b112-113ee598425d"},"vehicle_type_id":"4","last_reported":1729217540,"current_range_meters":38800,"station_id":"ce4bhr92rcd13ifvqhrg","pricing_plan_id":"cebpf4jnsgd1na2vs0mg"},{"bike_id":"e3b06c22-adb6-446f-b8c8-112e592baa42","system_id":"levelo_inurba_marseille","lat":43.25726,"lon":5.41108,"is_reserved":false,"is_disabled":false,"rental_uris":{"android":"levelo://app?vid=e3b06c22-adb6-446f-b8c8-112e592baa42","ios":"levelo://app?vid=e3b06c22-adb6-446f-b8c8-112e592baa42"},"vehicle_type_id":"4","last_reported":1729217540,"current_range_meters":37600,"station_id":"ce4bhkp2rcd13ifvqgd0","pricing_plan_id":"cebpf4jnsgd1na2vs0mg"},{"bike_id":"cb443c4a-3cc3-4c6a-a2f4-6f386431b5bc","system_id":"levelo_inurba_marseille","lat":43.27502,"lon":5.42463,"is_reserved":false,"is_disabled":false,"rental_uris":{"android":"levelo://app?vid=cb443c4a-3cc3-4c6a-a2f4-6f386431b5bc","ios":"levelo://app?vid=cb443c4a-3cc3-4c6a-a2f4-6f386431b5bc"},"vehicle_type_id":"4","last_reported":1729217540,"current_range_meters":36800,"station_id":"ce4bhn92rcd13ifvqgrg","pricing_plan_id":"cebpf4jnsgd1na2vs0mg"},{"bike_id":"42f264b5-ce90-44e6-8adf-ecc77c1fd4b7","system_id":"levelo_inurba_marseille","lat":43.31064,"lon":5.38342,"is_reserved":false,"is_disabled":false,"rental_uris":{"android":"levelo://app?vid=42f264b5-ce90-44e6-8adf-ecc77c1fd4b7","ios":"levelo://app?vid=42f264b5-ce90-44e6-8adf-ecc77c1fd4b7"},"vehicle_type_id":"4","last_reported":1729217540,"current_range_meters":38800,"station_id":"ce4bgv92rcd13ifvqcr0","pricing_plan_id":"cebpf4jnsgd1na2vs0mg"},{"bike_id":"4d08a006-a6ef-49b4-8051-c13297637cad","system_id":"levelo_inurba_marseille","lat":43.31172,"lon":5.38722,"is_reserved":false,"is_disabled":false,"rental_uris":{"android":"levelo://app?vid=4d08a006-a6ef-49b4-8051-c13297637cad","ios":"levelo://app?vid=4d08a006-a6ef-49b4-8051-c13297637cad"},"vehicle_type_id":"4","last_reported":1729217540,"current_range_meters":38800,"station_id":"ce4bgv12rcd13ifvqcp0","pricing_plan_id":"cebpf4jnsgd1na2vs0mg"},{"bike_id":"037e7d08-a78c-4974-ac0b-96c939dea0e0","system_id":"levelo_inurba_marseille","lat":43.30808,"lon":5.43523,"is_reserved":false,"is_disabled":false,"rental_uris":{"android":"levelo://app?vid=037e7d08-a78c-4974-ac0b-96c939dea0e0","ios":"levelo://app?vid=037e7d08-a78c-4974-ac0b-96c939dea0e0"},"vehicle_type_id":"4","last_reported":1729217540,"current_range_meters":13600,"station_id":"ce4bhph2rcd13ifvqheg","pricing_plan_id":"cebpf4jnsgd1na2vs0mg"},{"bike_id":"df1fc09b-156a-44a3-921a-decace86a316","system_id":"levelo_inurba_marseille","lat":43.2888,"lon":5.39338,"is_reserved":false,"is_disabled":false,"rental_uris":{"android":"levelo://app?vid=df1fc09b-156a-44a3-921a-decace86a316","ios":"levelo://app?vid=df1fc09b-156a-44a3-921a-decace86a316"},"vehicle_type_id":"4","last_reported":1729217540,"current_range_meters":12000,"station_id":"ce4bh2p2rcd13ifvqdi0","pricing_plan_id":"cebpf4jnsgd1na2vs0mg"},{"bike_id":"b2a5087f-ee0d-4b32-8a93-92715cb5d8a5","system_id":"levelo_inurba_marseille","lat":43.28613,"lon":5.3511,"is_reserved":false,"is_disabled":false,"rental_uris":{"android":"levelo://app?vid=b2a5087f-ee0d-4b32-8a93-92715cb5d8a5","ios":"levelo://app?vid=b2a5087f-ee0d-4b32-8a93-92715cb5d8a5"},"vehicle_type_id":"4","last_reported":1729217540,"current_range_meters":38800,"station_id":"ce4bhch2rcd13ifvqeug","pricing_plan_id":"cebpf4jnsgd1na2vs0mg"},{"bike_id":"ecdffe81-4124-4f3a-8ea8-000d22b7503b","system_id":"levelo_inurba_marseille","lat":43.25118,"lon":5.40338,"is_reserved":false,"is_disabled":false,"rental_uris":{"android":"levelo://app?vid=ecdffe81-4124-4f3a-8ea8-000d22b7503b","ios":"levelo://app?vid=ecdffe81-4124-4f3a-8ea8-000d22b7503b"},"vehicle_type_id":"4","last_reported":1729217540,"current_range_meters":23200,"station_id":"ce4bhlh2rcd13ifvqgig","pricing_plan_id":"cebpf4jnsgd1na2vs0mg"},{"bike_id":"5aad7362-03a1-4cb4-8b19-d1bc0a90019b","system_id":"levelo_inurba_marseille","lat":43.28715,"lon":5.36099,"is_reserved":false,"is_disabled":false,"rental_uris":{"android":"levelo://app?vid=5aad7362-03a1-4cb4-8b19-d1bc0a90019b","ios":"levelo://app?vid=5aad7362-03a1-4cb4-8b19-d1bc0a90019b"},"vehicle_type_id":"4","last_reported":1729217540,"current_range_meters":38800,"station_id":"cki0cbj6b192h4jlfktg","pricing_plan_id":"cebpf4jnsgd1na2vs0mg"},{"bike_id":"e880b349-2a71-433c-b7d1-415018a5cfa0","system_id":"levelo_inurba_marseille","lat":43.2811,"lon":5.37825,"is_reserved":false,"is_disabled":false,"rental_uris":{"android":"levelo://app?vid=e880b349-2a71-433c-b7d1-415018a5cfa0","ios":"levelo://app?vid=e880b349-2a71-433c-b7d1-415018a5cfa0"},"vehicle_type_id":"4","last_reported":1729217540,"current_range_meters":38400,"station_id":"ce4bha12rcd13ifvqee0","pricing_plan_id":"cebpf4jnsgd1na2vs0mg"},{"bike_id":"a42336f1-6fcd-4045-891e-701347f41b85","system_id":"levelo_inurba_marseille","lat":43.23182,"lon":5.3998,"is_reserved":false,"is_disabled":false,"rental_uris":{"android":"levelo://app?vid=a42336f1-6fcd-4045-891e-701347f41b85","ios":"levelo://app?vid=a42336f1-6fcd-4045-891e-701347f41b85"},"vehicle_type_id":"4","last_reported":1729217540,"current_range_meters":5600,"station_id":"ce4bhn12rcd13ifvqgqg","pricing_plan_id":"cebpf4jnsgd1na2vs0mg"},{"bike_id":"2901ff37-0119-4f7b-91fb-d7fdf0736260","system_id":"levelo_inurba_marseille","lat":43.2293,"lon":5.35374,"is_reserved":false,"is_disabled":false,"rental_uris":{"android":"levelo://app?vid=2901ff37-0119-4f7b-91fb-d7fdf0736260","ios":"levelo://app?vid=2901ff37-0119-4f7b-91fb-d7fdf0736260"},"vehicle_type_id":"4","last_reported":1729217540,"current_range_meters":28800,"station_id":"cpo3532slgdg3j2ikp40","pricing_plan_id":"cebpf4jnsgd1na2vs0mg"},{"bike_id":"cb76f825-9dab-46a9-8a65-cc589bf2be41","system_id":"levelo_inurba_marseille","lat":43.31064,"lon":5.38348,"is_reserved":false,"is_disabled":false,"rental_uris":{"android":"levelo://app?vid=cb76f825-9dab-46a9-8a65-cc589bf2be41","ios":"levelo://app?vid=cb76f825-9dab-46a9-8a65-cc589bf2be41"},"vehicle_type_id":"4","last_reported":1729217540,"current_range_meters":11600,"station_id":"ce4bgv92rcd13ifvqcr0","pricing_plan_id":"cebpf4jnsgd1na2vs0mg"},{"bike_id":"b37d02fb-217e-462c-94d2-099f9eb690a2","system_id":"levelo_inurba_marseille","lat":43.32364,"lon":5.38884,"is_reserved":false,"is_disabled":false,"rental_uris":{"android":"levelo://app?vid=b37d02fb-217e-462c-94d2-099f9eb690a2","ios":"levelo://app?vid=b37d02fb-217e-462c-94d2-099f9eb690a2"},"vehicle_type_id":"4","last_reported":1729217540,"current_range_meters":38000,"station_id":"ce4bhqp2rcd13ifvqhog","pricing_plan_id":"cebpf4jnsgd1na2vs0mg"},{"bike_id":"f66ffd87-5ff1-4fe4-9b72-c8ecfcf4a110","system_id":"levelo_inurba_marseille","lat":43.2872,"lon":5.3998,"is_reserved":false,"is_disabled":false,"rental_uris":{"android":"levelo://app?vid=f66ffd87-5ff1-4fe4-9b72-c8ecfcf4a110","ios":"levelo://app?vid=f66ffd87-5ff1-4fe4-9b72-c8ecfcf4a110"},"vehicle_type_id":"4","last_reported":1729217540,"current_range_meters":32800,"station_id":"ce4bho92rcd13ifvqh3g","pricing_plan_id":"cebpf4jnsgd1na2vs0mg"},{"bike_id":"b76a5105-a423-43f5-aec7-bd99ea0efcb3","system_id":"levelo_inurba_marseille","lat":43.27985,"lon":5.40023,"is_reserved":false,"is_disabled":false,"rental_uris":{"android":"levelo://app?vid=b76a5105-a423-43f5-aec7-bd99ea0efcb3","ios":"levelo://app?vid=b76a5105-a423-43f5-aec7-bd99ea0efcb3"},"vehicle_type_id":"4","last_reported":1729217540,"current_range_meters":14000,"station_id":"ce4bho92rcd13ifvqh4g","pricing_plan_id":"cebpf4jnsgd1na2vs0mg"},{"bike_id":"61296efc-2989-4d06-bf1e-eb0e4d43d68e","system_id":"levelo_inurba_marseille","lat":43.29901,"lon":5.43665,"is_reserved":false,"is_disabled":false,"rental_uris":{"android":"levelo://app?vid=61296efc-2989-4d06-bf1e-eb0e4d43d68e","ios":"levelo://app?vid=61296efc-2989-4d06-bf1e-eb0e4d43d68e"},"vehicle_type_id":"4","last_reported":1729217540,"current_range_meters":38400,"station_id":"ce4bhpp2rcd13ifvqhfg","pricing_plan_id":"cebpf4jnsgd1na2vs0mg"},{"bike_id":"b942abc5-d022-4842-94bb-2945d7b46dd5","system_id":"levelo_inurba_marseille","lat":43.29256,"lon":5.40908,"is_reserved":false,"is_disabled":false,"rental_uris":{"android":"levelo://app?vid=b942abc5-d022-4842-94bb-2945d7b46dd5","ios":"levelo://app?vid=b942abc5-d022-4842-94bb-2945d7b46dd5"},"vehicle_type_id":"4","last_reported":1729217540,"current_range_meters":29600,"station_id":"ce4bh192rcd13ifvqdc0","pricing_plan_id":"cebpf4jnsgd1na2vs0mg"},{"bike_id":"915d8fda-eaef-4a60-9d36-992c88c1e042","system_id":"levelo_inurba_marseille","lat":43.25005,"lon":5.38928,"is_reserved":false,"is_disabled":false,"rental_uris":{"android":"levelo://app?vid=915d8fda-eaef-4a60-9d36-992c88c1e042","ios":"levelo://app?vid=915d8fda-eaef-4a60-9d36-992c88c1e042"},"vehicle_type_id":"4","last_reported":1729217540,"current_range_meters":39200,"station_id":"ce4bhgp2rcd13ifvqfd0","pricing_plan_id":"cebpf4jnsgd1na2vs0mg"},{"bike_id":"7a76e164-6b75-4577-a223-fcbb4c2d551b","system_id":"levelo_inurba_marseille","lat":43.28083,"lon":5.39649,"is_reserved":false,"is_disabled":false,"rental_uris":{"android":"levelo://app?vid=7a76e164-6b75-4577-a223-fcbb4c2d551b","ios":"levelo://app?vid=7a76e164-6b75-4577-a223-fcbb4c2d551b"},"vehicle_type_id":"4","last_reported":1729217540,"current_range_meters":39200,"station_id":"ce4bho12rcd13ifvqh2g","pricing_plan_id":"cebpf4jnsgd1na2vs0mg"},{"bike_id":"a9295dde-ceb4-4ca6-940b-7dd28fc752be","system_id":"levelo_inurba_marseille","lat":43.32475,"lon":5.36556,"is_reserved":false,"is_disabled":false,"rental_uris":{"android":"levelo://app?vid=a9295dde-ceb4-4ca6-940b-7dd28fc752be","ios":"levelo://app?vid=a9295dde-ceb4-4ca6-940b-7dd28fc752be"},"vehicle_type_id":"4","last_reported":1729217540,"current_range_meters":24800,"station_id":"ce4bhs12rcd13ifvqhvg","pricing_plan_id":"cebpf4jnsgd1na2vs0mg"},{"bike_id":"f2fa2f4a-c894-477b-b08a-8bf3fc505540","system_id":"levelo_inurba_marseille","lat":43.28616,"lon":5.35104,"is_reserved":false,"is_disabled":false,"rental_uris":{"android":"levelo://app?vid=f2fa2f4a-c894-477b-b08a-8bf3fc505540","ios":"levelo://app?vid=f2fa2f4a-c894-477b-b08a-8bf3fc505540"},"vehicle_type_id":"4","last_reported":1729217540,"current_range_meters":38800,"station_id":"ce4bhch2rcd13ifvqeug","pricing_plan_id":"cebpf4jnsgd1na2vs0mg"},{"bike_id":"a6a73ca6-affe-49e5-aafd-ef0d88666863","system_id":"levelo_inurba_marseille","lat":43.29894,"lon":5.39744,"is_reserved":false,"is_disabled":false,"rental_uris":{"android":"levelo://app?vid=a6a73ca6-affe-49e5-aafd-ef0d88666863","ios":"levelo://app?vid=a6a73ca6-affe-49e5-aafd-ef0d88666863"},"vehicle_type_id":"4","last_reported":1729217540,"current_range_meters":33200,"station_id":"ce4bh0h2rcd13ifvqd50","pricing_plan_id":"cebpf4jnsgd1na2vs0mg"},