{"last_updated":1742238455,"ttl":60,"version":"2.2","data":{"bikes":[{"bike_id":"9a2de320-196e-44b6-91b6-0d424eaa2a88","system_id":"levelo_inurba_marseille","lat":43.25746,"lon":5.42219,"is_reserved":false,"is_disabled":false,"rental_uris":{"android":"levelo://app?vid=9a2de320-196e-44b6-91b6-0d424eaa2a88","ios":"levelo://app?vid=9a2de320-196e-44b6-91b6-0d424eaa2a88"},"vehicle_type_id":"4","last_reported":1742238455,"current_range_meters":2800,"station_id":"","pricing_plan_id":"cebpf4jnsgd1na2vs0mg"},{"bike_id":"3a48a7da-6858-433d-92e0-193b9bc4e2b4","system_id":"levelo_inurba_marseille","lat":43.28468,"lon":5.35886,"is_reserved":false,"is_disabled":false,"rental_uris":{"android":"levelo://app?vid=3a48a7da-6858-433d-92e0-193b9bc4e2b4","ios":"levelo://app?vid=3a48a7da-6858-433d-92e0-193b9bc4e2b4"},"vehicle_type_id":"4","last_reported":1742238455,"current_range_meters":2800,"station_id":"ce4bhah2rcd13ifvqei0","pricing_plan_id":"cebpf4jnsgd1na2vs0mg"},{"bike_id":"2b389f1d-a0d8-4ff5-a4ee-7cf4200e77f4","system_id":"levelo_inurba_marseille","lat":43.27976,"lon":5.38734,"is_reserved":false,"is_disabled":false,"rental_uris":{"android":"levelo://app?vid=2b389f1d-a0d8-4ff5-a4ee-7cf4200e77f4","ios":"levelo://app?vid=2b389f1d-a0d8-4ff5-a4ee-7cf4200e77f4"},"vehicle_type_id":"4","last_reported":1742238455,"current_range_meters":2800,"station_id":"ce4bhg12rcd13ifvqf80","pricing_plan_id":"cebpf4jnsgd1na2vs0mg"},{"bike_id":"a6f368c4-25b8-4c22-8ce3-28270f4e890b","system_id":"levelo_inurba_marseille","lat":43.30933,"lon":5.40146,"is_reserved":false,"is_disabled":false,"rental_uris":{"android":"levelo://app?vid=a6f368c4-25b8-4c22-8ce3-28270f4e890b","ios":"levelo://app?vid=a6f368c4-25b8-4c22-8ce3-28270f4e890b"},"vehicle_type_id":"4","last_reported":1742238455,"current_range_meters":2000,"station_id":"ce4bgvp2rcd13ifvqct0","pricing_plan_id":"cebpf4jnsgd1na2vs0mg"},{"bike_id":"7911e1d8-094d-444b-b0d9-0ab7fb465139","system_id":"levelo_inurba_marseille","lat":43.27993,"lon":5.40017,"is_reserved":false,"is_disabled":false,"rental_uris":{"android":"levelo://app?vid=7911e1d8-094d-444b-b0d9-0ab7fb465139","ios":"levelo://app?vid=7911e1d8-094d-444b-b0d9-0ab7fb465139"},"vehicle_type_id":"4","last_reported":1742238455,"current_range_meters":2800,"station_id":"ce4bho92rcd13ifvqh4g","pricing_plan_id":"cebpf4jnsgd1na2vs0mg"},{"bike_id":"66d8f13b-cfdb-4937-bb97-0a86758e187e","system_id":"levelo_inurba_marseille","lat":43.28455,"lon":5.3587,"is_reserved":false,"is_disabled":false,"rental_uris":{"android":"levelo://app?vid=66d8f13b-cfdb-4937-bb97-0a86758e187e","ios":"levelo://app?vid=66d8f13b-cfdb-4937-bb97-0a86758e187e"},"vehicle_type_id":"4","last_reported":1742238455,"current_range_meters":2800,"station_id":"ce4bhah2rcd13ifvqei0","pricing_plan_id":"cebpf4jnsgd1na2vs0mg"},{"bike_id":"5b2a6634-a714-476e-95b6-1e24abefff13","system_id":"levelo_inurba_marseille","lat":43.29193,"lon":5.35799,"is_reserved":false,"is_disabled":false,"rental_uris":{"android":"levelo://app?vid=5b2a6634-a714-476e-95b6-1e24abefff13","ios":"levelo://app?vid=5b2a6634-a714-476e-95b6-1e24abefff13"},"vehicle_type_id":"4","last_reported":1742238455,"current_range_meters":2800,"station_id":"ce4bhb12rcd13ifvqel0","pricing_plan_id":"cebpf4jnsgd1na2vs0mg"},{"bike_id":"0fc1f0dc-d411-4676-abfc-a771321e236e","system_id":"levelo_inurba_marseille","lat":43.25584,"lon":5.38244,"is_reserved":false,"is_disabled":false,"rental_uris":{"android":"levelo://app?vid=0fc1f0dc-d411-4676-abfc-a771321e236e","ios":"levelo://app?vid=0fc1f0dc-d411-4676-abfc-a771321e236e"},"vehicle_type_id":"4","last_reported":1742238455,"current_range_meters":2800,"station_id":"ce4bhih2rcd13ifvqfs0","pricing_plan_id":"cebpf4jnsgd1na2vs0mg"},{"bike_id":"fe535ac1-f859-4328-a553-181bec5165fc","system_id":"levelo_inurba_marseille","lat":43.25008,"lon":5.38929,"is_reserved":false,"is_disabled":false,"rental_uris":{"android":"levelo://app?vid=fe535ac1-f859-4328-a553-181bec5165fc","ios":"levelo://app?vid=fe535ac1-f859-4328-a553-181bec5165fc"},"vehicle_type_id":"4","last_reported":1742238455,"current_range_meters":2800,"station_id":"ce4bhgp2rcd13ifvqfd0","pricing_plan_id":"cebpf4jnsgd1na2vs0mg"},{"bike_id":"0ae6cb88-499c-47fd-a777-8b0cef22b6eb","system_id":"levelo_inurba_marseille","lat":43.28461,"lon":5.35892,"is_reserved":false,"is_disabled":false,"rental_uris":{"android":"levelo://app?vid=0ae6cb88-499c-47fd-a777-8b0cef22b6eb","ios":"levelo://app?vid=0ae6cb88-499c-47fd-a777-8b0cef22b6eb"},"vehicle_type_id":"4","last_reported":1742238455,"current_range_meters":2800,"station_id":"ce4bhah2rcd13ifvqei0","pricing_plan_id":"cebpf4jnsgd1na2vs0mg"},{"bike_id":"95b00422-ec0d-4394-a3f8-bed487bc756a","system_id":"levelo_inurba_marseille","lat":43.27808,"lon":5.40708,"is_reserved":false,"is_disabled":false,"rental_uris":{"android":"levelo://app?vid=95b00422-ec0d-4394-a3f8-bed487bc756a","ios":"levelo://app?vid=95b00422-ec0d-4394-a3f8-bed487bc756a"},"vehicle_type_id":"4","last_reported":1742238455,"current_range_meters":3200,"station_id":"ce4bhnh2rcd13ifvqgtg","pricing_plan_id":"cebpf4jnsgd1na2vs0mg"},{"bike_id":"13f565a9-ad77-42dd-bbcf-651900507196","system_id":"levelo_inurba_marseille","lat":43.32881,"lon":5.39208,"is_reserved":false,"is_disabled":false,"rental_uris":{"android":"levelo://app?vid=13f565a9-ad77-42dd-bbcf-651900507196","ios":"levelo://app?vid=13f565a9-ad77-42dd-bbcf-651900507196"},"vehicle_type_id":"4","last_reported":1742238455,"current_range_meters":3200,"station_id":"","pricing_plan_id":"cebpf4jnsgd1na2vs0mg"},{"bike_id":"21166d41-4014-4bd8-ac69-731adebb5df7","system_id":"levelo_inurba_marseille","lat":43.24545,"lon":5.37323,"is_reserved":false,"is_disabled":false,"rental_uris":{"android":"levelo://app?vid=21166d41-4014-4bd8-ac69-731adebb5df7","ios":"levelo://app?vid=21166d41-4014-4bd8-ac69-731adebb5df7"},"vehicle_type_id":"4","last_reported":1742238455,"current_range_meters":3200,"station_id":"","pricing_plan_id":"cebpf4jnsgd1na2vs0mg"},{"bike_id":"a8cbbccf-91f4-4346-9ddf-b8df28439588","system_id":"levelo_inurba_marseille","lat":43.30312,"lon":5.36925,"is_reserved":false,"is_disabled":false,"rental_uris":{"android":"levelo://app?vid=a8cbbccf-91f4-4346-9ddf-b8df28439588","ios":"levelo://app?vid=a8cbbccf-91f4-4346-9ddf-b8df28439588"},"vehicle_type_id":"4","last_reported":1742238455,"current_range_meters":3200,"station_id":"ce4bgqh2rcd13ifvqc5g","pricing_plan_id":"cebpf4jnsgd1na2vs0mg"},{"bike_id":"6acf0107-45db-42a4-89b4-2f3823143881","system_id":"levelo_inurba_marseille","lat":43.28675,"lon":5.3636,"is_reserved":false,"is_disabled":false,"rental_uris":{"android":"levelo://app?vid=6acf0107-45db-42a4-89b4-2f3823143881","ios":"levelo://app?vid=6acf0107-45db-42a4-89b4-2f3823143881"},"vehicle_type_id":"4","last_reported":1742238455,"current_range_meters":3200,"station_id":"ce4bhah2rcd13ifvqej0","pricing_plan_id":"cebpf4jnsgd1na2vs0mg"},{"bike_id":"6cc1e6d7-1851-424e-9425-e0e834546306","system_id":"levelo_inurba_marseille","lat":43.2621,"lon":5.37452,"is_reserved":false,"is_disabled":false,"rental_uris":{"android":"levelo://app?vid=6cc1e6d7-1851-424e-9425-e0e834546306","ios":"levelo://app?vid=6cc1e6d7-1851-424e-9425-e0e834546306"},"vehicle_type_id":"4","last_reported":1742238455,"current_range_meters":3200,"station_id":"ce4bhgp2rcd13ifvqfc0","pricing_plan_id":"cebpf4jnsgd1na2vs0mg"},{"bike_id":"b15ed008-a268-40dc-b3f0-643a65282b55","system_id":"levelo_inurba_marseille","lat":43.28677,"lon":5.36355,"is_reserved":false,"is_disabled":false,"rental_uris":{"android":"levelo://app?vid=b15ed008-a268-40dc-b3f0-643a65282b55","ios":"levelo://app?vid=b15ed008-a268-40dc-b3f0-643a65282b55"},"vehicle_type_id":"4","last_reported":1742238455,"current_range_meters":3200,"station_id":"ce4bhah2rcd13ifvqej0","pricing_plan_id":"cebpf4jnsgd1na2vs0mg"},{"bike_id":"ee9521e8-e74f-458b-84ff-d769bdf1f28b","system_id":"levelo_inurba_marseille","lat":43.3031,"lon":5.36903,"is_reserved":false,"is_disabled":false,"rental_uris":{"android":"levelo://app?vid=ee9521e8-e74f-458b-84ff-d769bdf1f28b","ios":"levelo://app?vid=ee9521e8-e74f-458b-84ff-d769bdf1f28b"},"vehicle_type_id":"4","last_reported":1742238455,"current_range_meters":3200,"station_id":"ce4bgqh2rcd13ifvqc5g","pricing_plan_id":"cebpf4jnsgd1na2vs0mg"},{"bike_id":"c1f596d5-155b-40a6-a50d-8a96f86de404","system_id":"levelo_inurba_marseille","lat":43.269363,"lon":5.402877,"is_reserved":false,"is_disabled":false,"rental_uris":{"android":"levelo://app?vid=c1f596d5-155b-40a6-a50d-8a96f86de404","ios":"levelo://app?vid=c1f596d5-155b-40a6-a50d-8a96f86de404"},"vehicle_type_id":"4","last_reported":1742238455,"current_range_meters":3200,"station_id":"cjm6bp8fraef2m0cb0m0","pricing_plan_id":"cebpf4jnsgd1na2vs0mg"},{"bike_id":"7cb2171f-16ba-4af3-a5b1-b616363c8855","system_id":"levelo_inurba_marseille","lat":43.23954,"lon":5.36633,"is_reserved":false,"is_disabled":false,"rental_uris":{"android":"levelo://app?vid=7cb2171f-16ba-4af3-a5b1-b616363c8855","ios":"levelo://app?vid=7cb2171f-16ba-4af3-a5b1-b616363c8855"},"vehicle_type_id":"4","last_reported":1742238455,"current_range_meters":3200,"station_id":"ce4bhi12rcd13ifvqfp0","pricing_plan_id":"cebpf4jnsgd1na2vs0mg"},{"bike_id":"e32b8da7-9e9a-464c-974d-521068640300","system_id":"levelo_inurba_marseille","lat":43.2845,"lon":5.39175,"is_reserved":false,"is_disabled":false,"rental_uris":{"android":"levelo://app?vid=e32b8da7-9e9a-464c-974d-521068640300","ios":"levelo://app?vid=e32b8da7-9e9a-464c-974d-521068640300"},"vehicle_type_id":"4","last_reported":1742238455,"current_range_meters":3600,"station_id":"ce4bhoh2rcd13ifvqh5g","pricing_plan_id":"cebpf4jnsgd1na2vs0mg"},{"bike_id":"ce22f8f9-a6f0-440b-9136-93f06edd2b19","system_id":"levelo_inurba_marseille","lat":43.28927,"lon":5.38404,"is_reserved":false,"is_disabled":false,"rental_uris":{"android":"levelo://app?vid=ce22f8f9-a6f0-440b-9136-93f06edd2b19","ios":"levelo://app?vid=ce22f8f9-a6f0-440b-9136-93f06edd2b19"},"vehicle_type_id":"4","last_reported":1742238455,"current_range_meters":3600,"station_id":"ce4bh612rcd13ifvqe6g","pricing_plan_id":"cebpf4jnsgd1na2vs0mg"},{"bike_id":"3c55a68b-fbaf-4e7f-9f23-955bccc99642","system_id":"levelo_inurba_marseille","lat":43.3017,"lon":5.38089,"is_reserved":false,"is_disabled":true,"rental_uris":{"android":"levelo://app?vid=3c55a68b-fbaf-4e7f-9f23-955bccc99642","ios":"levelo://app?vid=3c55a68b-fbaf-4e7f-9f23-955bccc99642"},"vehicle_type_id":"4","last_reported":1742238455,"current_range_meters":3200,"station_id":"ce4bgjp2rcd13ifvqbh0","pricing_plan_id":"cebpf4jnsgd1na2vs0mg"},{"bike_id":"ed4e9bb0-f29d-4b17-9c61-c0536263a5a7","system_id":"levelo_inurba_marseille","lat":43.29226,"lon":5.36066,"is_reserved":false,"is_disabled":false,"rental_uris":{"android":"levelo://app?vid=ed4e9bb0-f29d-4b17-9c61-c0536263a5a7","ios":"levelo://app?vid=ed4e9bb0-f29d-4b17-9c61-c0536263a5a7"},"vehicle_type_id":"4","last_reported":1742238455,"current_range_meters":3600,"station_id":"ce4bgl92rcd13ifvqbq0","pricing_plan_id":"cebpf4jnsgd1na2vs0mg"},{"bike_id":"718f2539-e2d3-48c1-a20f-999f391cc798","system_id":"levelo_inurba_marseille","lat":43.30328,"lon":5.40426,"is_reserved":false,"is_disabled":false,"rental_uris":{"android":"levelo://app?vid=718f2539-e2d3-48c1-a20f-999f391cc798","ios":"levelo://app?vid=718f2539-e2d3-48c1-a20f-999f391cc798"},"vehicle_type_id":"4","last_reported":1742238455,"current_range_meters":3600,"station_id":"ce4bh012rcd13ifvqd10","pricing_plan_id":"cebpf4jnsgd1na2vs0mg"},{"bike_id":"a43c4d68-6f78-44d4-87eb-c3a8bd6dd121","system_id":"levelo_inurba_marseille","lat":43.30139,"lon":5.39882,"is_reserved":false,"is_disabled":true,"rental_uris":{"android":"levelo://app?vid=a43c4d68-6f78-44d4-87eb-c3a8bd6dd121","ios":"levelo://app?vid=a43c4d68-6f78-44d4-87eb-c3a8bd6dd121"},"vehicle_type_id":"4","last_reported":1742238455,"current_range_meters":3600,"station_id":"ce4bh0h2rcd13ifvqd40","pricing_plan_id":"cebpf4jnsgd1na2vs0mg"},{"bike_id":"9982d6af-65ba-443f-8748-ae29c20c1315","system_id":"levelo_inurba_marseille","lat":43.30888,"lon":5.39674,"is_reserved":false,"is_disabled":false,"rental_uris":{"android":"levelo://app?vid=9982d6af-65ba-443f-8748-ae29c20c1315","ios":"levelo://app?vid=9982d6af-65ba-443f-8748-ae29c20c1315"},"vehicle_type_id":"4","last_reported":1742238455,"current_range_meters":3600,"station_id":"ce4bh012rcd13ifvqcv0","pricing_plan_id":"cebpf4jnsgd1na2vs0mg"},{"bike_id":"0bde570b-0d00-4b07-a497-e59a92de5ea8","system_id":"levelo_inurba_marseille","lat":43.24649,"lon":5.38891,"is_reserved":false,"is_disabled":false,"rental_uris":{"android":"levelo://app?vid=0bde570b-0d00-4b07-a497-e59a92de5ea8","ios":"levelo://app?vid=0bde570b-0d00-4b07-a497-e59a92de5ea8"},"vehicle_type_id":"4","last_reported":1742238455,"current_range_meters":3200,"station_id":"ce4bhg12rcd13ifvqf60","pricing_plan_id":"cebpf4jnsgd1na2vs0mg"},{"bike_id":"55cfdacd-fc59-4042-9ffc-78877622a54b","system_id":"levelo_inurba_marseille","lat":43.31381,"lon":5.38489,"is_reserved":false,"is_disabled":false,"rental_uris":{"android":"levelo://app?vid=55cfdacd-fc59-4042-9ffc-78877622a54b","ios":"levelo://app?vid=55cfdacd-fc59-4042-9ffc-78877622a54b"},"vehicle_type_id":"4","last_reported":1742238455,"current_range_meters":3600,"station_id":"ce4bgt92rcd13ifvqcf0","pricing_plan_id":"cebpf4jnsgd1na2vs0mg"},{"bike_id":"d7a177cf-07d0-4bf7-a9dd-5e10dbc6369c","system_id":"levelo_inurba_marseille","lat":43.28856,"lon":5.35853,"is_reserved":false,"is_disabled":false,"rental_uris":{"android":"levelo://app?vid=d7a177cf-07d0-4bf7-a9dd-5e10dbc6369c","ios":"levelo://app?vid=d7a177cf-07d0-4bf7-a9dd-5e10dbc6369c"},"vehicle_type_id":"4","last_reported":1742238455,"current_range_meters":3600,"station_id":"ce4bhb12rcd13ifvqem0","pricing_plan_id":"cebpf4jnsgd1na2vs0mg"},{"bike_id":"ab274d3c-9f24-4566-9c0f-f047c4068bd0","system_id":"levelo_inurba_marseille","lat":43.30255,"lon":5.40074,"is_reserved":false,"is_disabled":false,"rental_uris":{"android":"levelo://app?vid=ab274d3c-9f24-4566-9c0f-f047c4068bd0","ios":"levelo://app?vid=ab274d3c-9f24-4566-9c0f-f047c4068bd0"},"vehicle_type_id":"4","last_reported":1742238455,"current_range_meters":4000,"station_id":"ce4bgvh2rcd13ifvqcs0","pricing_plan_id":"cebpf4jnsgd1na2vs0mg"},{"bike_id":"ff3b63ec-7f2f-46ad-bbe9-4110f706e2c4","system_id":"levelo_inurba_marseille","lat":43.24079,"lon":5.37756,"is_reserved":false,"is_disabled":false,"rental_uris":{"android":"levelo://app?vid=ff3b63ec-7f2f-46ad-bbe9-4110f706e2c4","ios":"levelo://app?vid=ff3b63ec-7f2f-46ad-bbe9-4110f706e2c4"},"vehicle_type_id":"4","last_reported":1742238455,"current_range_meters":4000,"station_id":"ce4bhnp2rcd13ifvqgvg","pricing_plan_id":"cebpf4jnsgd1na2vs0mg"},{"bike_id":"121ccfdf-ff3f-4ce5-ab38-ffc9f2511c64","system_id":"levelo_inurba_marseille","lat":43.2808,"lon":5.39666,"is_reserved":false,"is_disabled":false,"rental_uris":{"android":"levelo://app?vid=121ccfdf-ff3f-4ce5-ab38-ffc9f2511c64","ios":"levelo://app?vid=121ccfdf-ff3f-4ce5-ab38-ffc9f2511c64"},"vehicle_type_id":"4","last_reported":1742238455,"current_range_meters":4000,"station_id":"ce4bho12rcd13ifvqh2g","pricing_plan_id":"cebpf4jnsgd1na2vs0mg"},{"bike_id":"da4af89f-b57e-4338-a2dc-1fb2e55820b1","system_id":"levelo_inurba_marseille","lat":43.23059,"lon":5.35501,"is_reserved":false,"is_disabled":false,"rental_uris":{"android":"levelo://app?vid=da4af89f-b57e-4338-a2dc-1fb2e55820b1","ios":"levelo://app?vid=da4af89f-b57e-4338-a2dc-1fb2e55820b1"},"vehicle_type_id":"4","last_reported":1742238455,"current_range_meters":4000,"station_id":"cpo3342slgdg3j2ifvpg","pricing_plan_id":"cebpf4jnsgd1na2vs0mg"},{"bike_id":"30108fce-f483-44f8-8ada-24220c24fa9a","system_id":"levelo_inurba_marseille","lat":43.26201,"lon":5.3794,"is_reserved":false,"is_disabled":false,"rental_uris":{"android":"levelo://app?vid=30108fce-f483-44f8-8ada-24220c24fa9a","ios":"levelo://app?vid=30108fce-f483-44f8-8ada-24220c24fa9a"},"vehicle_type_id":"4","last_reported":1742238455,"current_range_meters":4000,"station_id":"ce4bhjp2rcd13ifvqg90","pricing_plan_id":"cebpf4jnsgd1na2vs0mg"},{"bike_id":"ae89caaa-2cb7-47b9-9409-a26b6a10b987","system_id":"levelo_inurba_marseille","lat":43.31121,"lon":5.37784,"is_reserved":false,"is_disabled":false,"rental_uris":{"android":"levelo://app?vid=ae89caaa-2cb7-47b9-9409-a26b6a10b987","ios":"levelo://app?vid=ae89caaa-2cb7-47b9-9409-a26b6a10b987"},"vehicle_type_id":"4","last_reported":1742238455,"current_range_meters":4000,"station_id":"ce4bgt92rcd13ifvqcg0","pricing_plan_id":"cebpf4jnsgd1na2vs0mg"},{"bike_id":"2dd624d5-7e32-4f0b-8a0f-b34a5929e86d","system_id":"levelo_inurba_marseille","lat":43.27379,"lon":5.36263,"is_reserved":false,"is_disabled":false,"rental_uris":{"android":"levelo://app?vid=2dd624d5-7e32-4f0b-8a0f-b34a5929e86d","ios":"levelo://app?vid=2dd624d5-7e32-4f0b-8a0f-b34a5929e86d"},"vehicle_type_id":"4","last_reported":1742238455,"current_range_meters":4000,"station_id":"ce4bhbh2rcd13ifvqeo0","pricing_plan_id":"cebpf4jnsgd1na2vs0mg"},{"bike_id":"66b8b5ba-a8f1-4fef-a69d-63069a93762b","system_id":"levelo_inurba_marseille","lat":43.30793,"lon":5.38161,"is_reserved":false,"is_disabled":false,"rental_uris":{"android":"levelo://app?vid=66b8b5ba-a8f1-4fef-a69d-63069a93762b","ios":"levelo://app?vid=66b8b5ba-a8f1-4fef-a69d-63069a93762b"},"vehicle_type_id":"4","last_reported":1742238455,"current_range_meters":4000,"station_id":"ce4bgt12rcd13ifvqce0","pricing_plan_id":"cebpf4jnsgd1na2vs0mg"},{"bike_id":"7f1d6035-85bd-42d7-a3bc-6cf7020d1680","system_id":"levelo_inurba_marseille","lat":43.283727,"lon":5.386378,"is_reserved":false,"is_disabled":false,"rental_uris":{"android":"levelo://app?vid=7f1d6035-85bd-42d7-a3bc-6cf7020d1680","ios":"levelo://app?vid=7f1d6035-85bd-42d7-a3bc-6cf7020d1680"},"vehicle_type_id":"4","last_reported":1742238455,"current_range_meters":4000,"station_id":"ce4bh492rcd13ifvqdvg","pricing_plan_id":"cebpf4jnsgd1na2vs0mg"},{"bike_id":"f62c56ae-7c43-4d73-bc71-9ae4d5e5a0d3","system_id":"levelo_inurba_marseille","lat":43.29374,"lon":5.3785,"is_reserved":false,"is_disabled":false,"rental_uris":{"android":"levelo://app?vid=f62c56ae-7c43-4d73-bc71-9ae4d5e5a0d3","ios":"levelo://app?vid=f62c56ae-7c43-4d73-bc71-9ae4d5e5a0d3"},"vehicle_type_id":"4","last_reported":1742238455,"current_range_meters":4000,"station_id":"ce4bgjh2rcd13ifvqbf0","pricing_plan_id":"cebpf4jnsgd1na2vs0mg"},{"bike_id":"b1e45dff-ca2d-45e4-aa9b-a9535266d84d","system_id":"levelo_inurba_marseille","lat":43.31327,"lon":5.39695,"is_reserved":false,"is_disabled":false,"rental_uris":{"android":"levelo://app?vid=b1e45dff-ca2d-45e4-aa9b-a9535266d84d","ios":"levelo://app?vid=b1e45dff-ca2d-45e4-aa9b-a9535266d84d"},"vehicle_type_id":"4","last_reported":1742238455,"current_range_meters":4000,"station_id":"ce4bgvp2rcd13ifvqcu0","pricing_plan_id":"cebpf4jnsgd1na2vs0mg"},{"bike_id":"7175f4ad-5c0f-411b-a8f5-2828081d2a1b","system_id":"levelo_inurba_marseille","lat":43.29799,"lon":5.38103,"is_reserved":false,"is_disabled":false,"rental_uris":{"android":"levelo://app?vid=7175f4ad-5c0f-411b-a8f5-2828081d2a1b","ios":"levelo://app?vid=7175f4ad-5c0f-411b-a8f5-2828081d2a1b"},"vehicle_type_id":"4","last_reported":1742238455,"current_range_meters":4400,"station_id":"ce4bgip2rcd13ifvqbb0","pricing_plan_id":"cebpf4jnsgd1na2vs0mg"},{"bike_id":"f9384c00-2177-4e1e-a0a3-e748aeb04401","system_id":"levelo_inurba_marseille","lat":43.28079,"lon":5.3966,"is_reserved":false,"is_disabled":false,"rental_uris":{"android":"levelo://app?vid=f9384c00-2177-4e1e-a0a3-e748aeb04401","ios":"levelo://app?vid=f9384c00-2177-4e1e-a0a3-e748aeb04401"},"vehicle_type_id":"4","last_reported":1742238455,"current_range_meters":4400,"station_id":"ce4bho12rcd13ifvqh2g","pricing_plan_id":"cebpf4jnsgd1na2vs0mg"},{"bike_id":"5d3dbd3a-1365-40c0-af69-8ba2c314a313","system_id":"levelo_inurba_marseille","lat":43.29907,"lon":5.43685,"is_reserved":false,"is_disabled":false,"rental_uris":{"android":"levelo://app?vid=5d3dbd3a-1365-40c0-af69-8ba2c314a313","ios":"levelo://app?vid=5d3dbd3a-1365-40c0-af69-8ba2c314a313"},"vehicle_type_id":"4","last_reported":1742238455,"current_range_meters":4400,"station_id":"ce4bhpp2rcd13ifvqhfg","pricing_plan_id":"cebpf4jnsgd1na2vs0mg"},{"bike_id":"a6eb9dab-c9c6-48fe-886b-b27d74364092","system_id":"levelo_inurba_marseille","lat":43.30606,"lon":5.3937,"is_reserved":false,"is_disabled":false,"rental_uris":{"android":"levelo://app?vid=a6eb9dab-c9c6-48fe-886b-b27d74364092","ios":"levelo://app?vid=a6eb9dab-c9c6-48fe-886b-b27d74364092"},"vehicle_type_id":"4","last_reported":1742238455,"current_range_meters":4400,"station_id":"ce4bh0p2rcd13ifvqd80","pricing_plan_id":"cebpf4jnsgd1na2vs0mg"},{"bike_id":"436163ae-329e-4516-a54b-ab951f1eae33","system_id":"levelo_inurba_marseille","lat":43.2558,"lon":5.3824,"is_reserved":false,"is_disabled":false,"rental_uris":{"android":"levelo://app?vid=436163ae-329e-4516-a54b-ab951f1eae33","ios":"levelo://app?vid=436163ae-329e-4516-a54b-ab951f1eae33"},"vehicle_type_id":"4","last_reported":1742238455,"current_range_meters":4400,"station_id":"ce4bhih2rcd13ifvqfs0","pricing_plan_id":"cebpf4jnsgd1na2vs0mg"},{"bike_id":"d87d01b0-53bb-405d-a34e-24df13294a43","system_id":"levelo_inurba_marseille","lat":43.292,"lon":5.39331,"is_reserved":false,"is_disabled":true,"rental_uris":{"android":"levelo://app?vid=d87d01b0-53bb-405d-a34e-24df13294a43","ios":"levelo://app?vid=d87d01b0-53bb-405d-a34e-24df13294a43"},"vehicle_type_id":"4","last_reported":1742238455,"current_range_meters":4400,"station_id":"ce4bh192rcd13ifvqdd0","pricing_plan_id":"cebpf4jnsgd1na2vs0mg"},{"bike_id":"cdf78f28-ac5e-4450-aa2b-e865d389b0b0","system_id":"levelo_inurba_marseille","lat":43.32003,"lon":5.3814,"is_reserved":false,"is_disabled":false,"rental_uris":{"android":"levelo://app?vid=cdf78f28-ac5e-4450-aa2b-e865d389b0b0","ios":"levelo://app?vid=cdf78f28-ac5e-4450-aa2b-e865d389b0b0"},"vehicle_type_id":"4","last_reported":1742238455,"current_range_meters":4400,"station_id":"ce4bhr12rcd13ifvqhpg","pricing_plan_id":"cebpf4jnsgd1na2vs0mg"},{"bike_id":"f47c5661-ec21-4eb6-9e89-29a7736904bf","system_id":"levelo_inurba_marseille","lat":43.30295,"lon":5.37702,"is_reserved":false,"is_disabled":false,"rental_uris":{"android":"levelo://app?vid=f47c5661-ec21-4eb6-9e89-29a7736904bf","ios":"levelo://app?vid=f47c5661-ec21-4eb6-9e89-29a7736904bf"},"vehicle_type_id":"4","last_reported":1742238455,"current_range_meters":4400,"station_id":"ce4bguh2rcd13ifvqcj0","pricing_plan_id":"cebpf4jnsgd1na2vs0mg"},{"bike_id":"f21b5a64-403e-4e8c-9f1a-93c9e0a26688","system_id":"levelo_inurba_marseille","lat":43.30207,"lon":5.39471,"is_reserved":false,"is_disabled":false,"rental_uris":{"android":"levelo://app?vid=f21b5a64-403e-4e8c-9f1a-93c9e0a26688","ios":"levelo://app?vid=f21b5a64-403e-4e8c-9f1a-93c9e0a26688"},"vehicle_type_id":"4","last_reported":1742238455,"current_range_meters":4400,"station_id":"ce4bh0p2rcd13ifvqd70","pricing_plan_id":"cebpf4jnsgd1na2vs0mg"},{"bike_id":"6372267c-dafd-41a7-860f-c7875c53d9da","system_id":"levelo_inurba_marseille","lat":43.2953,"lon":5.39029,"is_reserved":false,"is_disabled":false,"rental_uris":{"android":"levelo://app?vid=6372267c-dafd-41a7-860f-c7875c53d9da","ios":"levelo://app?vid=6372267c-dafd-41a7-860f-c7875c53d9da"},"vehicle_type_id":"4","last_reported":1742238455,"current_range_meters":4400,"station_id":"ce4bh3p2rcd13ifvqdp0","pricing_plan_id":"cebpf4jnsgd1na2vs0mg"},{"bike_id":"f762fd6f-ca69-45f6-995f-65c0e25825a3","system_id":"levelo_inurba_marseille","lat":43.32537,"lon":5.414618,"is_reserved":false,"is_disabled":true,"rental_uris":{"android":"levelo://app?vid=f762fd6f-ca69-45f6-995f-65c0e25825a3","ios":"levelo://app?vid=f762fd6f-ca69-45f6-995f-65c0e25825a3"},"vehicle_type_id":"4","last_reported":1742238455,"current_range_meters":4800,"station_id":"ce4bhq12rcd13ifvqhhg","pricing_plan_id":"cebpf4jnsgd1na2vs0mg"},{"bike_id":"103204c4-b21a-419a-8035-791713abfe37","system_id":"levelo_inurba_marseille","lat":43.28939,"lon":5.3841,"is_reserved":false,"is_disabled":false,"rental_uris":{"android":"levelo://app?vid=103204c4-b21a-419a-8035-791713abfe37","ios":"levelo://app?vid=103204c4-b21a-419a-8035-791713abfe37"},"vehicle_type_id":"4","last_reported":1742238455,"current_range_meters":4400,"station_id":"ce4bh612rcd13ifvqe6g","pricing_plan_id":"cebpf4jnsgd1na2vs0mg"},{"bike_id":"6ae6f76c-6a01-4d75-9d3f-dfa610803a78","system_id":"levelo_inurba_marseille","lat":43.23083,"lon":5.35509,"is_reserved":false,"is_disabled":false,"rental_uris":{"android":"levelo://app?vid=6ae6f76c-6a01-4d75-9d3f-dfa610803a78","ios":"levelo://app?vid=6ae6f76c-6a01-4d75-9d3f-dfa610803a78"},"vehicle_type_id":"4","last_reported":1742238455,"current_range_meters":4800,"station_id":"cpo3342slgdg3j2ifvpg","pricing_plan_id":"cebpf4jnsgd1na2vs0mg"},{"bike_id":"b1bb1329-d82a-4220-9791-08f3062a9231","system_id":"levelo_inurba_marseille","lat":43.28149,"lon":5.44565,"is_reserved":false,"is_disabled":false,"rental_uris":{"android":"levelo://app?vid=b1bb1329-d82a-4220-9791-08f3062a9231","ios":"levelo://app?vid=b1bb1329-d82a-4220-9791-08f3062a9231"},"vehicle_type_id":"4","last_reported":1742238455,"current_range_meters":4800,"station_id":"","pricing_plan_id":"cebpf4jnsgd1na2vs0mg"},{"bike_id":"dc1a5525-c3f6-4148-9d82-0a21e359d7ea","system_id":"levelo_inurba_marseille","lat":43.29277,"lon":5.36841,"is_reserved":false,"is_disabled":false,"rental_uris":{"android":"levelo://app?vid=dc1a5525-c3f6-4148-9d82-0a21e359d7ea","ios":"levelo://app?vid=dc1a5525-c3f6-4148-9d82-0a21e359d7ea"},"vehicle_type_id":"4","last_reported":1742238455,"current_range_meters":4800,"station_id":"ce4bhbp2rcd13ifvqesg","pricing_plan_id":"cebpf4jnsgd1na2vs0mg"},{"bike_id":"809acd2e-1759-44d1-9f36-dd781cc6447b","system_id":"levelo_inurba_marseille","lat":43.31175,"lon":5.38723,"is_reserved":false,"is_disabled":false,"rental_uris":{"android":"levelo://app?vid=809acd2e-1759-44d1-9f36-dd781cc6447b","ios":"levelo://app?vid=809acd2e-1759-44d1-9f36-dd781cc6447b"},"vehicle_type_id":"4","last_reported":1742238455,"current_range_meters":4800,"station_id":"ce4bgv12rcd13ifvqcp0","pricing_plan_id":"cebpf4jnsgd1na2vs0mg"},{"bike_id":"efa7017d-a1db-4c74-afee-20f625c42463","system_id":"levelo_inurba_marseille","lat":43.30609,"lon":5.37225,"is_reserved":false,"is_disabled":false,"rental_uris":{"android":"levelo://app?vid=efa7017d-a1db-4c74-afee-20f625c42463","ios":"levelo://app?vid=efa7017d-a1db-4c74-afee-20f625c42463"},"vehicle_type_id":"4","last_reported":1742238455,"current_range_meters":4800,"station_id":"ce4bgqh2rcd13ifvqc4g","pricing_plan_id":"cebpf4jnsgd1na2vs0mg"},{"bike_id":"e0281e36-404e-4e76-89f8-952dcff27172","system_id":"levelo_inurba_marseille","lat":43.28944,"lon":5.36649,"is_reserved":false,"is_disabled":false,"rental_uris":{"android":"levelo://app?vid=e0281e36-404e-4e76-89f8-952dcff27172","ios":"levelo://app?vid=e0281e36-404e-4e76-89f8-952dcff27172"},"vehicle_type_id":"4","last_reported":1742238455,"current_range_meters":4800,"station_id":"ce4bhap2rcd13ifvqek0","pricing_plan_id":"cebpf4jnsgd1na2vs0mg"},{"bike_id":"dcf21b4d-8529-44dd-982b-b5bb454725cd","system_id":"levelo_inurba_marseille","lat":43.23192,"lon":5.40015,"is_reserved":false,"is_disabled":false,"rental_uris":{"android":"levelo://app?vid=dcf21b4d-8529-44dd-982b-b5bb454725cd","ios":"levelo://app?vid=dcf21b4d-8529-44dd-982b-b5bb454725cd"},"vehicle_type_id":"4","last_reported":1742238455,"current_range_meters":4800,"station_id":"ce4bhn12rcd13ifvqgqg","pricing_plan_id":"cebpf4jnsgd1na2vs0mg"},{"bike_id":"a48a0805-493f-4e2b-94da-047629a283c7","system_id":"levelo_inurba_marseille","lat":43.30603,"lon":5.37246,"is_reserved":false,"is_disabled":false,"rental_uris":{"android":"levelo://app?vid=a48a0805-493f-4e2b-94da-047629a283c7","ios":"levelo://app?vid=a48a0805-493f-4e2b-94da-047629a283c7"},"vehicle_type_id":"4","last_reported":1742238455,"current_range_meters":4400,"station_id":"ce4bgqh2rcd13ifvqc4g","pricing_plan_id":"cebpf4jnsgd1na2vs0mg"},{"bike_id":"38e7b6f9-0b7f-403d-8c56-856a9c52de52","system_id":"levelo_inurba_marseille","lat":43.2319,"lon":5.39986,"is_reserved":false,"is_disabled":false,"rental_uris":{"android":"levelo://app?vid=38e7b6f9-0b7f-403d-8c56-856a9c52de52","ios":"levelo://app?vid=38e7b6f9-0b7f-403d-8c56-856a9c52de52"},"vehicle_type_id":"4","last_reported":1742238455,"current_range_meters":5600,"station_id":"ce4bhn12rcd13ifvqgqg","pricing_plan_id":"cebpf4jnsgd1na2vs0mg"},{"bike_id":"045f973d-1925-435a-8292-d5911ec233bd","system_id":"levelo_inurba_marseille","lat":43.27665,"lon":5.38907,"is_reserved":false,"is_disabled":true,"rental_uris":{"android":"levelo://app?vid=045f973d-1925-435a-8292-d5911ec233bd","ios":"levelo://app?vid=045f973d-1925-435a-8292-d5911ec233bd"},"vehicle_type_id":"4","last_reported":1742238455,"current_range_meters":4800,"station_id":"ce4bhi12rcd13ifvqfo0","pricing_plan_id":"cebpf4jnsgd1na2vs0mg"},{"bike_id":"0a226886-7099-437b-8bd1-bad0846b8fa3","system_id":"levelo_inurba_marseille","lat":43.2781,"lon":5.40715,"is_reserved":false,"is_disabled":false,"rental_uris":{"android":"levelo://app?vid=0a226886-7099-437b-8bd1-bad0846b8fa3","ios":"levelo://app?vid=0a226886-7099-437b-8bd1-bad0846b8fa3"},"vehicle_type_id":"4","last_reported":1742238455,"current_range_meters":4800,"station_id":"ce4bhnh2rcd13ifvqgtg","pricing_plan_id":"cebpf4jnsgd1na2vs0mg"},{"bike_id":"db1393da-67a5-4b15-8221-cc18bdfefd0e","system_id":"levelo_inurba_marseille","lat":43.296384,"lon":5.406017,"is_reserved":false,"is_disabled":false,"rental_uris":{"android":"levelo://app?vid=db1393da-67a5-4b15-8221-cc18bdfefd0e","ios":"levelo://app?vid=db1393da-67a5-4b15-8221-cc18bdfefd0e"},"vehicle_type_id":"4","last_reported":1742238455,"current_range_meters":4800,"station_id":"ce4bh0h2rcd13ifvqd60","pricing_plan_id":"cebpf4jnsgd1na2vs0mg"},{"bike_id":"9c4e983c-59df-4108-bdc7-0c0044ce1363","system_id":"levelo_inurba_marseille","lat":43.27209,"lon":5.39178,"is_reserved":false,"is_disabled":false,"rental_uris":{"android":"levelo://app?vid=9c4e983c-59df-4108-bdc7-0c0044ce1363","ios":"levelo://app?vid=9c4e983c-59df-4108-bdc7-0c0044ce1363"},"vehicle_type_id":"4","last_reported":1742238455,"current_range_meters":5600,"station_id":"ce4bhhp2rcd13ifvqfm0","pricing_plan_id":"cebpf4jnsgd1na2vs0mg"},{"bike_id":"b9be62e2-2d3d-407e-8a4b-571e3db08af6","system_id":"levelo_inurba_marseille","lat":43.25733,"lon":5.411248,"is_reserved":false,"is_disabled":false,"rental_uris":{"android":"levelo://app?vid=b9be62e2-2d3d-407e-8a4b-571e3db08af6","ios":"levelo://app?vid=b9be62e2-2d3d-407e-8a4b-571e3db08af6"},"vehicle_type_id":"4","last_reported":1742238455,"current_range_meters":5600,"station_id":"ce4bhkp2rcd13ifvqgd0","pricing_plan_id":"cebpf4jnsgd1na2vs0mg"},{"bike_id":"259b2a62-eee3-46d4-9ba2-779b7755c371","system_id":"levelo_inurba_marseille","lat":43.26224,"lon":5.37427,"is_reserved":false,"is_disabled":false,"rental_uris":{"android":"levelo://app?vid=259b2a62-eee3-46d4-9ba2-779b7755c371","ios":"levelo://app?vid=259b2a62-eee3-46d4-9ba2-779b7755c371"},"vehicle_type_id":"4","last_reported":1742238455,"current_range_meters":5600,"station_id":"","pricing_plan_id":"cebpf4jnsgd1na2vs0mg"},{"bike_id":"5d33ee2e-ab8c-4d48-b2e3-8df7c0b816e1","system_id":"levelo_inurba_marseille","lat":43.23063,"lon":5.35495,"is_reserved":false,"is_disabled":false,"rental_uris":{"android":"levelo://app?vid=5d33ee2e-ab8c-4d48-b2e3-8df7c0b816e1","ios":"levelo://app?vid=5d33ee2e-ab8c-4d48-b2e3-8df7c0b816e1"},"vehicle_type_id":"4","last_reported":1742238455,"current_range_meters":5600,"station_id":"cpo3342slgdg3j2ifvpg","pricing_plan_id":"cebpf4jnsgd1na2vs0mg"},{"bike_id":"e30db461-2896-49e3-9534-e748842ec47f","system_id":"levelo_inurba_marseille","lat":43.27826,"lon":5.39208,"is_reserved":false,"is_disabled":false,"rental_uris":{"android":"levelo://app?vid=e30db461-2896-49e3-9534-e748842ec47f","ios":"levelo://app?vid=e30db461-2896-49e3-9534-e748842ec47f"},"vehicle_type_id":"4","last_reported":1742238455,"current_range_meters":5600,"station_id":"ce4bhjp2rcd13ifvqga0","pricing_plan_id":"cebpf4jnsgd1na2vs0mg"},{"bike_id":"5e7401c2-c372-430f-8491-0557cf6a4ff2","system_id":"levelo_inurba_marseille","lat":43.24562,"lon":5.37364,"is_reserved":false,"is_disabled":true,"rental_uris":{"android":"levelo://app?vid=5e7401c2-c372-430f-8491-0557cf6a4ff2","ios":"levelo://app?vid=5e7401c2-c372-430f-8491-0557cf6a4ff2"},"vehicle_type_id":"4","last_reported":1742238455,"current_range_meters":5600,"station_id":"","pricing_plan_id":"cebpf4jnsgd1na2vs0mg"},{"bike_id":"6ade1f5f-f388-4064-b121-12943024a161","system_id":"levelo_inurba_marseille","lat":43.283962,"lon":5.37488,"is_reserved":false,"is_disabled":false,"rental_uris":{"android":"levelo://app?vid=6ade1f5f-f388-4064-b121-12943024a161","ios":"levelo://app?vid=6ade1f5f-f388-4064-b121-12943024a161"},"vehicle_type_id":"4","last_reported":1742238455,"current_range_meters":5600,"station_id":"ce4bh012rcd13ifvqcv0","pricing_plan_id":"cebpf4jnsgd1na2vs0mg"},{"bike_id":"e2d1967e-5a56-406d-b78f-650a67b35429","system_id":"levelo_inurba_marseille","lat":43.25096,"lon":5.39509,"is_reserved":false,"is_disabled":false,"rental_uris":{"android":"levelo://app?vid=e2d1967e-5a56-406d-b78f-650a67b35429","ios":"levelo://app?vid=e2d1967e-5a56-406d-b78f-650a67b35429"},"vehicle_type_id":"4","last_reported":1742238455,"current_range_meters":5600,"station_id":"ce4bhm12rcd13ifvqgkg","pricing_plan_id":"cebpf4jnsgd1na2vs0mg"},{"bike_id":"2db41d65-2c09-4782-9a2e-b558284c305a","system_id":"levelo_inurba_marseille","lat":43.2318,"lon":5.39992,"is_reserved":false,"is_disabled":false,"rental_uris":{"android":"levelo://app?vid=2db41d65-2c09-4782-9a2e-b558284c305a","ios":"levelo://app?vid=2db41d65-2c09-4782-9a2e-b558284c305a"},"vehicle_type_id":"4","last_reported":1742238455,"current_range_meters":5600,"station_id":"ce4bhn12rcd13ifvqgqg","pricing_plan_id":"cebpf4jnsgd1na2vs0mg"},{"bike_id":"61627016-dac2-4c9c-a57c-eb38db715077","system_id":"levelo_inurba_marseille","lat":43.26573,"lon":5.39015,"is_reserved":false,"is_disabled":false,"rental_uris":{"android":"levelo://app?vid=61627016-dac2-4c9c-a57c-eb38db715077","ios":"levelo://app?vid=61627016-dac2-4c9c-a57c-eb38db715077"},"vehicle_type_id":"4","last_reported":1742238455,"current_range_meters":5600,"station_id":"ce4bhe12rcd13ifvqf30","pricing_plan_id":"cebpf4jnsgd1na2vs0mg"},{"bike_id":"e270e167-af0c-4cc9-abb3-46a3884d1298","system_id":"levelo_inurba_marseille","lat":43.28164,"lon":5.4264,"is_reserved":false,"is_disabled":false,"rental_uris":{"android":"levelo://app?vid=e270e167-af0c-4cc9-abb3-46a3884d1298","ios":"levelo://app?vid=e270e167-af0c-4cc9-abb3-46a3884d1298"},"vehicle_type_id":"4","last_reported":1742238455,"current_range_meters":5600,"station_id":"ce4bhnh2rcd13ifvqgug","pricing_plan_id":"cebpf4jnsgd1na2vs0mg"},{"bike_id":"5eb2b7ed-b1a2-44ca-9dff-3a419877d2a2","system_id":"levelo_inurba_marseille","lat":43.28267,"lon":5.35077,"is_reserved":false,"is_disabled":false,"rental_uris":{"android":"levelo://app?vid=5eb2b7ed-b1a2-44ca-9dff-3a419877d2a2","ios":"levelo://app?vid=5eb2b7ed-b1a2-44ca-9dff-3a419877d2a2"},"vehicle_type_id":"4","last_reported":1742238455,"current_range_meters":5600,"station_id":"ce4bhbp2rcd13ifvqerg","pricing_plan_id":"cebpf4jnsgd1na2vs0mg"},{"bike_id":"a156d38d-c587-49b6-879d-43f4f5296b6d","system_id":"levelo_inurba_marseille","lat":43.26556,"lon":5.39053,"is_reserved":false,"is_disabled":true,"rental_uris":{"android":"levelo://app?vid=a156d38d-c587-49b6-879d-43f4f5296b6d","ios":"levelo://app?vid=a156d38d-c587-49b6-879d-43f4f5296b6d"},"vehicle_type_id":"4","last_reported":1742238455,"current_range_meters":5600,"station_id":"ce4bhe12rcd13ifvqf30","pricing_plan_id":"cebpf4jnsgd1na2vs0mg"},{"bike_id":"2d980c3d-7b52-4394-9f8e-05783246b572","system_id":"levelo_inurba_marseille","lat":43.29284,"lon":5.40907,"is_reserved":false,"is_disabled":false,"rental_uris":{"android":"levelo://app?vid=2d980c3d-7b52-4394-9f8e-05783246b572","ios":"levelo://app?vid=2d980c3d-7b52-4394-9f8e-05783246b572"},"vehicle_type_id":"4","last_reported":1742238455,"current_range_meters":6000,"station_id":"ce4bh192rcd13ifvqdc0","pricing_plan_id":"cebpf4jnsgd1na2vs0mg"},{"bike_id":"816a761f-a362-4c6e-9624-317fe8f16587","system_id":"levelo_inurba_marseille","lat":43.25121,"lon":5.40334,"is_reserved":false,"is_disabled":false,"rental_uris":{"android":"levelo://app?vid=816a761f-a362-4c6e-9624-317fe8f16587","ios":"levelo://app?vid=816a761f-a362-4c6e-9624-317fe8f16587"},"vehicle_type_id":"4","last_reported":1742238455,"current_range_meters":6000,"station_id":"ce4bhlh2rcd13ifvqgig","pricing_plan_id":"cebpf4jnsgd1na2vs0mg"},{"bike_id":"6c361a9e-b6f7-4681-99f5-98eb5c865e00","system_id":"levelo_inurba_marseille","lat":43.24075,"lon":5.37759,"is_reserved":false,"is_disabled":false,"rental_uris":{"android":"levelo://app?vid=6c361a9e-b6f7-4681-99f5-98eb5c865e00","ios":"levelo://app?vid=6c361a9e-b6f7-4681-99f5-98eb5c865e00"},"vehicle_type_id":"4","last_reported":1742238455,"current_range_meters":6000,"station_id":"ce4bhnp2rcd13ifvqgvg","pricing_plan_id":"cebpf4jnsgd1na2vs0mg"},{"bike_id":"1b943be4-6982-4e0a-87d2-c55646e0db50","system_id":"levelo_inurba_marseille","lat":43.28542,"lon":5.39517,"is_reserved":false,"is_disabled":false,"rental_uris":{"android":"levelo://app?vid=1b943be4-6982-4e0a-87d2-c55646e0db50","ios":"levelo://app?vid=1b943be4-6982-4e0a-87d2-c55646e0db50"},"vehicle_type_id":"4","last_reported":1742238455,"current_range_meters":5600,"station_id":"ce4bh292rcd13ifvqdg0","pricing_plan_id":"cebpf4jnsgd1na2vs0mg"},{"bike_id":"541fc5df-6a07-4152-ad1d-92914d652869","system_id":"levelo_inurba_marseille","lat":43.29531,"lon":5.39027,"is_reserved":false,"is_disabled":false,"rental_uris":{"android":"levelo://app?vid=541fc5df-6a07-4152-ad1d-92914d652869","ios":"levelo://app?vid=541fc5df-6a07-4152-ad1d-92914d652869"},"vehicle_type_id":"4","last_reported":1742238455,"current_range_meters":6000,"station_id":"ce4bh3p2rcd13ifvqdp0","pricing_plan_id":"cebpf4jnsgd1na2vs0mg"},{"bike_id":"f31da457-6e9b-4ad6-be1d-5ffba7cbc733","system_id":"levelo_inurba_marseille","lat":43.25044,"lon":5.38938,"is_reserved":false,"is_disabled":false,"rental_uris":{"android":"levelo://app?vid=f31da457-6e9b-4ad6-be1d-5ffba7cbc733","ios":"levelo://app?vid=f31da457-6e9b-4ad6-be1d-5ffba7cbc733"},"vehicle_type_id":"4","last_reported":1742238455,"current_range_meters":6000,"station_id":"ce4bhgp2rcd13ifvqfd0","pricing_plan_id":"cebpf4jnsgd1na2vs0mg"},{"bike_id":"39a279e7-f4d5-4437-90a8-72a9c6ddb649","system_id":"levelo_inurba_marseille","lat":43.27977,"lon":5.41664,"is_reserved":false,"is_disabled":false,"rental_uris":{"android":"levelo://app?vid=39a279e7-f4d5-4437-90a8-72a9c6ddb649","ios":"levelo://app?vid=39a279e7-f4d5-4437-90a8-72a9c6ddb649"},"vehicle_type_id":"4","last_reported":1742238455,"current_range_meters":6000,"station_id":"ce4bho12rcd13ifvqh1g","pricing_plan_id":"cebpf4jnsgd1na2vs0mg"},{"bike_id":"88531a84-c602-42aa-9e4f-8f2ca29ef55c","system_id":"levelo_inurba_marseille","lat":43.2509,"lon":5.39498,"is_reserved":false,"is_disabled":false,"rental_uris":{"android":"levelo://app?vid=88531a84-c602-42aa-9e4f-8f2ca29ef55c","ios":"levelo://app?vid=88531a84-c602-42aa-9e4f-8f2ca29ef55c"},"vehicle_type_id":"4","last_reported":1742238455,"current_range_meters":6000,"station_id":"ce4bhm12rcd13ifvqgkg","pricing_plan_id":"cebpf4jnsgd1na2vs0mg"},{"bike_id":"bd95e462-c605-4bd6-b0a6-7ecc3176c361","system_id":"levelo_inurba_marseille","lat":43.27198,"lon":5.40987,"is_reserved":false,"is_disabled":false,"rental_uris":{"android":"levelo://app?vid=bd95e462-c605-4bd6-b0a6-7ecc3176c361","ios":"levelo://app?vid=bd95e462-c605-4bd6-b0a6-7ecc3176c361"},"vehicle_type_id":"4","last_reported":1742238455,"current_range_meters":6000,"station_id":"ce4bhl12rcd13ifvqgf0","pricing_plan_id":"cebpf4jnsgd1na2vs0mg"},{"bike_id":"e76090d8-9555-41bb-877a-c2c40bc3d834","system_id":"levelo_inurba_marseille","lat":43.32076,"lon":5.36843,"is_reserved":false,"is_disabled":false,"rental_uris":{"android":"levelo://app?vid=e76090d8-9555-41bb-877a-c2c40bc3d834","ios":"levelo://app?vid=e76090d8-9555-41bb-877a-c2c40bc3d834"},"vehicle_type_id":"4","last_reported":1742238455,"current_range_meters":6000,"station_id":"ce4bhrh2rcd13ifvqhug","pricing_plan_id":"cebpf4jnsgd1na2vs0mg"},{"bike_id":"2cad790d-8767-4dde-a366-83aeeac91662","system_id":"levelo_inurba_marseille","lat":43.24177,"lon":5.39699,"is_reserved":false,"is_disabled":false,"rental_uris":{"android":"levelo://app?vid=2cad790d-8767-4dde-a366-83aeeac91662","ios":"levelo://app?vid=2cad790d-8767-4dde-a366-83aeeac91662"},"vehicle_type_id":"4","last_reported":1742238455,"current_range_meters":6000,"station_id":"ce4bhn12rcd13ifvqgpg","pricing_plan_id":"cebpf4jnsgd1na2vs0mg"},{"bike_id":"3892f3b2-aaae-4739-afe1-be38e6d2b02b","system_id":"levelo_inurba_marseille","lat":43.29523,"lon":5.3905,"is_reserved":false,"is_disabled":false,"rental_uris":{"android":"levelo://app?vid=3892f3b2-aaae-4739-afe1-be38e6d2b02b","ios":"levelo://app?vid=3892f3b2-aaae-4739-afe1-be38e6d2b02b"},"vehicle_type_id":"4","last_reported":1742238455,"current_range_meters":6000,"station_id":"ce4bh3p2rcd13ifvqdp0","pricing_plan_id":"cebpf4jnsgd1na2vs0mg"},{"bike_id":"d32038f6-d27b-4d25-a535-120602addb58","system_id":"levelo_inurba_marseille","lat":43.27569,"lon":5.38437,"is_reserved":false,"is_disabled":false,"rental_uris":{"android":"levelo://app?vid=d32038f6-d27b-4d25-a535-120602addb58","ios":"levelo://app?vid=d32038f6-d27b-4d25-a535-120602addb58"},"vehicle_type_id":"4","last_reported":1742238455,"current_range_meters":3600,"station_id":"ce4bhh92rcd13ifvqfi0","pricing_plan_id":"cebpf4jnsgd1na2vs0mg"},{"bike_id":"a1504eff-c410-4e71-8f8e-b930718c2803","system_id":"levelo_inurba_marseille","lat":43.29803,"lon":5.38096,"is_reserved":false,"is_disabled":false,"rental_uris":{"android":"levelo://app?vid=a1504eff-c410-4e71-8f8e-b930718c2803","ios":"levelo://app?vid=a1504eff-c410-4e71-8f8e-b930718c2803"},"vehicle_type_id":"4","last_reported":1742238455,"current_range_meters":6400,"station_id":"ce4bgip2rcd13ifvqbb0","pricing_plan_id":"cebpf4jnsgd1na2vs0mg"},{"bike_id":"0ef7dc73-48cf-4324-b3a9-aa13b7f71b41","system_id":"levelo_inurba_marseille","lat":43.29933,"lon":5.3656,"is_reserved":false,"is_disabled":false,"rental_uris":{"android":"levelo://app?vid=0ef7dc73-48cf-4324-b3a9-aa13b7f71b41","ios":"levelo://app?vid=0ef7dc73-48cf-4324-b3a9-aa13b7f71b41"},"vehicle_type_id":"4","last_reported":1742238455,"current_range_meters":6400,"station_id":"ce4bgm92rcd13ifvqbr0","pricing_plan_id":"cebpf4jnsgd1na2vs0mg"},{"bike_id":"6d480f1d-c959-4bd8-b549-34dec6453422","system_id":"levelo_inurba_marseille","lat":43.29031,"lon":5.3865,"is_reserved":false,"is_disabled":false,"rental_uris":{"android":"levelo://app?vid=6d480f1d-c959-4bd8-b549-34dec6453422","ios":"levelo://app?vid=6d480f1d-c959-4bd8-b549-34dec6453422"},"vehicle_type_id":"4","last_reported":1742238455,"current_range_meters":6400,"station_id":"ce4bh4p2rcd13ifvqe0g","pricing_plan_id":"cebpf4jnsgd1na2vs0mg"},{"bike_id":"c875e769-d295-42be-add0-9c58e2342170","system_id":"levelo_inurba_marseille","lat":43.29574,"lon":5.37528,"is_reserved":false,"is_disabled":false,"rental_uris":{"android":"levelo://app?vid=c875e769-d295-42be-add0-9c58e2342170","ios":"levelo://app?vid=c875e769-d295-42be-add0-9c58e2342170"},"vehicle_type_id":"4","last_reported":1742238455,"current_range_meters":6400,"station_id":"ce4bgh92rcd13ifvqb50","pricing_plan_id":"cebpf4jnsgd1na2vs0mg"},{"bike_id":"a1652038-ac69-46c1-96cf-f0a7292a55cd","system_id":"levelo_inurba_marseille","lat":43.28605,"lon":5.35117,"is_reserved":false,"is_disabled":false,"rental_uris":{"android":"levelo://app?vid=a1652038-ac69-46c1-96cf-f0a7292a55cd","ios":"levelo://app?vid=a1652038-ac69-46c1-96cf-f0a7292a55cd"},"vehicle_type_id":"4","last_reported":1742238455,"current_range_meters":6400,"station_id":"ce4bhch2rcd13ifvqeug","pricing_plan_id":"cebpf4jnsgd1na2vs0mg"},{"bike_id":"427f8971-810b-41c5-adaa-7bb62f1efb21","system_id":"levelo_inurba_marseille","lat":43.24648,"lon":5.38891,"is_reserved":false,"is_disabled":false,"rental_uris":{"android":"levelo://app?vid=427f8971-810b-41c5-adaa-7bb62f1efb21","ios":"levelo://app?vid=427f8971-810b-41c5-adaa-7bb62f1efb21"},"vehicle_type_id":"4","last_reported":1742238455,"current_range_meters":6400,"station_id":"ce4bhg12rcd13ifvqf60","pricing_plan_id":"cebpf4jnsgd1na2vs0mg"},{"bike_id":"cc365fea-66f1-4bd6-bbfd-5eda25825812","system_id":"levelo_inurba_marseille","lat":43.32661,"lon":5.40985,"is_reserved":false,"is_disabled":false,"rental_uris":{"android":"levelo://app?vid=cc365fea-66f1-4bd6-bbfd-5eda25825812","ios":"levelo://app?vid=cc365fea-66f1-4bd6-bbfd-5eda25825812"},"vehicle_type_id":"4","last_reported":1742238455,"current_range_meters":6400,"station_id":"ce4bhpp2rcd13ifvqhgg","pricing_plan_id":"cebpf4jnsgd1na2vs0mg"},{"bike_id":"3fb52932-5480-41a7-9647-c5a9100c3c67","system_id":"levelo_inurba_marseille","lat":43.3237,"lon":5.38893,"is_reserved":false,"is_disabled":false,"rental_uris":{"android":"levelo://app?vid=3fb52932-5480-41a7-9647-c5a9100c3c67","ios":"levelo://app?vid=3fb52932-5480-41a7-9647-c5a9100c3c67"},"vehicle_type_id":"4","last_reported":1742238455,"current_range_meters":6800,"station_id":"ce4bhqp2rcd13ifvqhog","pricing_plan_id":"cebpf4jnsgd1na2vs0mg"},{"bike_id":"ad444683-b04a-47a8-8bc7-20777d82fe90","system_id":"levelo_inurba_marseille","lat":43.28665,"lon":5.3636,"is_reserved":false,"is_disabled":false,"rental_uris":{"android":"levelo://app?vid=ad444683-b04a-47a8-8bc7-20777d82fe90","ios":"levelo://app?vid=ad444683-b04a-47a8-8bc7-20777d82fe90"},"vehicle_type_id":"4","last_reported":1742238455,"current_range_meters":6800,"station_id":"ce4bhah2rcd13ifvqej0","pricing_plan_id":"cebpf4jnsgd1na2vs0mg"},{"bike_id":"cd6bd228-ec34-418f-8538-14abbf44a6a3","system_id":"levelo_inurba_marseille","lat":43.31976,"lon":5.3745,"is_reserved":false,"is_disabled":false,"rental_uris":{"android":"levelo://app?vid=cd6bd228-ec34-418f-8538-14abbf44a6a3","ios":"levelo://app?vid=cd6bd228-ec34-418f-8538-14abbf44a6a3"},"vehicle_type_id":"4","last_reported":1742238455,"current_range_meters":6800,"station_id":"","pricing_plan_id":"cebpf4jnsgd1na2vs0mg"},{"bike_id":"abd48a52-c8cc-4abb-a801-8dce64155a4a","system_id":"levelo_inurba_marseille","lat":43.24986,"lon":5.38945,"is_reserved":false,"is_disabled":false,"rental_uris":{"android":"levelo://app?vid=abd48a52-c8cc-4abb-a801-8dce64155a4a","ios":"levelo://app?vid=abd48a52-c8cc-4abb-a801-8dce64155a4a"},"vehicle_type_id":"4","last_reported":1742238455,"current_range_meters":6800,"station_id":"ce4bhgp2rcd13ifvqfd0","pricing_plan_id":"cebpf4jnsgd1na2vs0mg"},{"bike_id":"6bb086e0-f55c-40ca-96be-a7898e5df2b0","system_id":"levelo_inurba_marseille","lat":43.29104,"lon":5.38163,"is_reserved":false,"is_disabled":false,"rental_uris":{"android":"levelo://app?vid=6bb086e0-f55c-40ca-96be-a7898e5df2b0","ios":"levelo://app?vid=6bb086e0-f55c-40ca-96be-a7898e5df2b0"},"vehicle_type_id":"4","last_reported":1742238455,"current_range_meters":6400,"station_id":"ce4bh512rcd13ifvqe2g","pricing_plan_id":"cebpf4jnsgd1na2vs0mg"},{"bike_id":"d1e9250f-41e8-4c96-b877-a52795d0024e","system_id":"levelo_inurba_marseille","lat":43.30133,"lon":5.38792,"is_reserved":false,"is_disabled":false,"rental_uris":{"android":"levelo://app?vid=d1e9250f-41e8-4c96-b877-a52795d0024e","ios":"levelo://app?vid=d1e9250f-41e8-4c96-b877-a52795d0024e"},"vehicle_type_id":"4","last_reported":1742238455,"current_range_meters":6800,"station_id":"ce4bh012rcd13ifvqcv0","pricing_plan_id":"cebpf4jnsgd1na2vs0mg"},{"bike_id":"14cd229a-e82f-4d5d-bc54-5bd7b491925a","system_id":"levelo_inurba_marseille","lat":43.23187,"lon":5.40005,"is_reserved":false,"is_disabled":false,"rental_uris":{"android":"levelo://app?vid=14cd229a-e82f-4d5d-bc54-5bd7b491925a","ios":"levelo://app?vid=14cd229a-e82f-4d5d-bc54-5bd7b491925a"},"vehicle_type_id":"4","last_reported":1742238455,"current_range_meters":6800,"station_id":"ce4bhn12rcd13ifvqgqg","pricing_plan_id":"cebpf4jnsgd1na2vs0mg"},{"bike_id":"a145fd17-93f2-42c5-abdc-8a7424d0e459","system_id":"levelo_inurba_marseille","lat":43.28459,"lon":5.35901,"is_reserved":false,"is_disabled":false,"rental_uris":{"android":"levelo://app?vid=a145fd17-93f2-42c5-abdc-8a7424d0e459","ios":"levelo://app?vid=a145fd17-93f2-42c5-abdc-8a7424d0e459"},"vehicle_type_id":"4","last_reported":1742238455,"current_range_meters":6800,"station_id":"ce4bhah2rcd13ifvqei0","pricing_plan_id":"cebpf4jnsgd1na2vs0mg"},{"bike_id":"439992a4-19b5-451a-a31f-1abe11c36874","system_id":"levelo_inurba_marseille","lat":43.29571,"lon":5.3997,"is_reserved":false,"is_disabled":false,"rental_uris":{"android":"levelo://app?vid=439992a4-19b5-451a-a31f-1abe11c36874","ios":"levelo://app?vid=439992a4-19b5-451a-a31f-1abe11c36874"},"vehicle_type_id":"4","last_reported":1742238455,"current_range_meters":6800,"station_id":"ce4bh312rcd13ifvqdj0","pricing_plan_id":"cebpf4jnsgd1na2vs0mg"},{"bike_id":"ac4dc6ba-0617-458c-88d0-bf439bcb2146","system_id":"levelo_inurba_marseille","lat":43.311454,"lon":5.387391,"is_reserved":false,"is_disabled":false,"rental_uris":{"android":"levelo://app?vid=ac4dc6ba-0617-458c-88d0-bf439bcb2146","ios":"levelo://app?vid=ac4dc6ba-0617-458c-88d0-bf439bcb2146"},"vehicle_type_id":"4","last_reported":1742238455,"current_range_meters":6800,"station_id":"ce4bgv12rcd13ifvqcp0","pricing_plan_id":"cebpf4jnsgd1na2vs0mg"},{"bike_id":"733d57f2-9aef-4716-838c-6f6af72a3687","system_id":"levelo_inurba_marseille","lat":43.27816,"lon":5.40716,"is_reserved":false,"is_disabled":false,"rental_uris":{"android":"levelo://app?vid=733d57f2-9aef-4716-838c-6f6af72a3687","ios":"levelo://app?vid=733d57f2-9aef-4716-838c-6f6af72a3687"},"vehicle_type_id":"4","last_reported":1742238455,"current_range_meters":6800,"station_id":"ce4bhnh2rcd13ifvqgtg","pricing_plan_id":"cebpf4jnsgd1na2vs0mg"},{"bike_id":"74620aff-b1f0-4b60-8841-bc8a0a2edc3e","system_id":"levelo_inurba_marseille","lat":43.23199,"lon":5.35553,"is_reserved":false,"is_disabled":false,"rental_uris":{"android":"levelo://app?vid=74620aff-b1f0-4b60-8841-bc8a0a2edc3e","ios":"levelo://app?vid=74620aff-b1f0-4b60-8841-bc8a0a2edc3e"},"vehicle_type_id":"4","last_reported":1742238455,"current_range_meters":7200,"station_id":"ce4bhu92rcd13ifvqi70","pricing_plan_id":"cebpf4jnsgd1na2vs0mg"},{"bike_id":"823852a9-63c9-4771-840a-739b68dc9305","system_id":"levelo_inurba_marseille","lat":43.32288,"lon":5.38271,"is_reserved":false,"is_disabled":false,"rental_uris":{"android":"levelo://app?vid=823852a9-63c9-4771-840a-739b68dc9305","ios":"levelo://app?vid=823852a9-63c9-4771-840a-739b68dc9305"},"vehicle_type_id":"4","last_reported":1742238455,"current_range_meters":7200,"station_id":"ce4bhr12rcd13ifvqhqg","pricing_plan_id":"cebpf4jnsgd1na2vs0mg"},{"bike_id":"98d6f7b3-37c5-4a6a-8fbc-6f4280b3b1c6","system_id":"levelo_inurba_marseille","lat":43.29533,"lon":5.38541,"is_reserved":false,"is_disabled":false,"rental_uris":{"android":"levelo://app?vid=98d6f7b3-37c5-4a6a-8fbc-6f4280b3b1c6","ios":"levelo://app?vid=98d6f7b3-37c5-4a6a-8fbc-6f4280b3b1c6"},"vehicle_type_id":"4","last_reported":1742238455,"current_range_meters":7200,"station_id":"ce4bgih2rcd13ifvqba0","pricing_plan_id":"cebpf4jnsgd1na2vs0mg"},{"bike_id":"ef9b20c2-24a5-462d-8f71-a0b89cbc915f","system_id":"levelo_inurba_marseille","lat":43.26028,"lon":5.41746,"is_reserved":false,"is_disabled":false,"rental_uris":{"android":"levelo://app?vid=ef9b20c2-24a5-462d-8f71-a0b89cbc915f","ios":"levelo://app?vid=ef9b20c2-24a5-462d-8f71-a0b89cbc915f"},"vehicle_type_id":"4","last_reported":1742238455,"current_range_meters":7200,"station_id":"","pricing_plan_id":"cebpf4jnsgd1na2vs0mg"},{"bike_id":"63b0e05f-82c6-490c-8ac4-edcc747d2cf5","system_id":"levelo_inurba_marseille","lat":43.28479,"lon":5.3843,"is_reserved":false,"is_disabled":false,"rental_uris":{"android":"levelo://app?vid=63b0e05f-82c6-490c-8ac4-edcc747d2cf5","ios":"levelo://app?vid=63b0e05f-82c6-490c-8ac4-edcc747d2cf5"},"vehicle_type_id":"4","last_reported":1742238455,"current_range_meters":7200,"station_id":"ce4bh512rcd13ifvqe3g","pricing_plan_id":"cebpf4jnsgd1na2vs0mg"},{"bike_id":"41b53e7b-5dba-4a0b-aba9-556d92f28fd6","system_id":"levelo_inurba_marseille","lat":43.28707,"lon":5.37396,"is_reserved":false,"is_disabled":false,"rental_uris":{"android":"levelo://app?vid=41b53e7b-5dba-4a0b-aba9-556d92f28fd6","ios":"levelo://app?vid=41b53e7b-5dba-4a0b-aba9-556d92f28fd6"},"vehicle_type_id":"4","last_reported":1742238455,"current_range_meters":7200,"station_id":"ce4bh3p2rcd13ifvqdq0","pricing_plan_id":"cebpf4jnsgd1na2vs0mg"},{"bike_id":"621d1759-73a7-43df-8571-31397a28a675","system_id":"levelo_inurba_marseille","lat":43.25112,"lon":5.4032,"is_reserved":false,"is_disabled":false,"rental_uris":{"android":"levelo://app?vid=621d1759-73a7-43df-8571-31397a28a675","ios":"levelo://app?vid=621d1759-73a7-43df-8571-31397a28a675"},"vehicle_type_id":"4","last_reported":1742238455,"current_range_meters":7200,"station_id":"ce4bhlh2rcd13ifvqgig","pricing_plan_id":"cebpf4jnsgd1na2vs0mg"},{"bike_id":"e39f083d-4542-4f7b-9173-1e8fe9e09597","system_id":"levelo_inurba_marseille","lat":43.275098,"lon":5.424784,"is_reserved":false,"is_disabled":true,"rental_uris":{"android":"levelo://app?vid=e39f083d-4542-4f7b-9173-1e8fe9e09597","ios":"levelo://app?vid=e39f083d-4542-4f7b-9173-1e8fe9e09597"},"vehicle_type_id":"4","last_reported":1742238455,"current_range_meters":7200,"station_id":"ce4bhn92rcd13ifvqgrg","pricing_plan_id":"cebpf4jnsgd1na2vs0mg"},{"bike_id":"0c86f3cb-b310-4050-b776-b77fdbbdcf16","system_id":"levelo_inurba_marseille","lat":43.29268,"lon":5.3764,"is_reserved":false,"is_disabled":false,"rental_uris":{"android":"levelo://app?vid=0c86f3cb-b310-4050-b776-b77fdbbdcf16","ios":"levelo://app?vid=0c86f3cb-b310-4050-b776-b77fdbbdcf16"},"vehicle_type_id":"4","last_reported":1742238455,"current_range_meters":7200,"station_id":"ce4bgi12rcd13ifvqb80","pricing_plan_id":"cebpf4jnsgd1na2vs0mg"},{"bike_id":"a561f3af-dc1c-4af4-b9a4-ead55b35e495","system_id":"levelo_inurba_marseille","lat":43.23133,"lon":5.35696,"is_reserved":false,"is_disabled":false,"rental_uris":{"android":"levelo://app?vid=a561f3af-dc1c-4af4-b9a4-ead55b35e495","ios":"levelo://app?vid=a561f3af-dc1c-4af4-b9a4-ead55b35e495"},"vehicle_type_id":"4","last_reported":1742238455,"current_range_meters":7200,"station_id":"ce4bhu92rcd13ifvqi70","pricing_plan_id":"cebpf4jnsgd1na2vs0mg"},{"bike_id":"4a82e9fa-897e-4db9-9848-eca7bdecdfdc","system_id":"levelo_inurba_marseille","lat":43.27902,"lon":5.38229,"is_reserved":false,"is_disabled":false,"rental_uris":{"android":"levelo://app?vid=4a82e9fa-897e-4db9-9848-eca7bdecdfdc","ios":"levelo://app?vid=4a82e9fa-897e-4db9-9848-eca7bdecdfdc"},"vehicle_type_id":"4","last_reported":1742238455,"current_range_meters":7200,"station_id":"","pricing_plan_id":"cebpf4jnsgd1na2vs0mg"},{"bike_id":"6078d1f1-b9bf-4f01-a708-ec37bfd1d3d9","system_id":"levelo_inurba_marseille","lat":43.26954,"lon":5.40258,"is_reserved":false,"is_disabled":false,"rental_uris":{"android":"levelo://app?vid=6078d1f1-b9bf-4f01-a708-ec37bfd1d3d9","ios":"levelo://app?vid=6078d1f1-b9bf-4f01-a708-ec37bfd1d3d9"},"vehicle_type_id":"4","last_reported":1742238455,"current_range_meters":7200,"station_id":"cjm6bp8fraef2m0cb0m0","pricing_plan_id":"cebpf4jnsgd1na2vs0mg"},{"bike_id":"6b8ffa9f-0e09-4bfb-a7c9-f730a8d18a65","system_id":"levelo_inurba_marseille","lat":43.24408,"lon":5.37057,"is_reserved":false,"is_disabled":false,"rental_uris":{"android":"levelo://app?vid=6b8ffa9f-0e09-4bfb-a7c9-f730a8d18a65","ios":"levelo://app?vid=6b8ffa9f-0e09-4bfb-a7c9-f730a8d18a65"},"vehicle_type_id":"4","last_reported":1742238455,"current_range_meters":7200,"station_id":"ce4bhhh2rcd13ifvqfk0","pricing_plan_id":"cebpf4jnsgd1na2vs0mg"},{"bike_id":"38fbe6a4-1b6a-4091-911c-9219f209c7f8","system_id":"levelo_inurba_marseille","lat":43.33013,"lon":5.3903,"is_reserved":false,"is_disabled":false,"rental_uris":{"android":"levelo://app?vid=38fbe6a4-1b6a-4091-911c-9219f209c7f8","ios":"levelo://app?vid=38fbe6a4-1b6a-4091-911c-9219f209c7f8"},"vehicle_type_id":"4","last_reported":1742238455,"current_range_meters":7200,"station_id":"ce4bhr92rcd13ifvqhrg","pricing_plan_id":"cebpf4jnsgd1na2vs0mg"},{"bike_id":"92806b7d-59b9-44f9-8bc3-642701f2cb0c","system_id":"levelo_inurba_marseille","lat":43.27813,"lon":5.40712,"is_reserved":false,"is_disabled":false,"rental_uris":{"android":"levelo://app?vid=92806b7d-59b9-44f9-8bc3-642701f2cb0c","ios":"levelo://app?vid=92806b7d-59b9-44f9-8bc3-642701f2cb0c"},"vehicle_type_id":"4","last_reported":1742238455,"current_range_meters":8000,"station_id":"ce4bhnh2rcd13ifvqgtg","pricing_plan_id":"cebpf4jnsgd1na2vs0mg"},{"bike_id":"e025fe44-9394-4536-8a11-0aef3e936e87","system_id":"levelo_inurba_marseille","lat":43.30891,"lon":5.39667,"is_reserved":false,"is_disabled":false,"rental_uris":{"android":"levelo://app?vid=e025fe44-9394-4536-8a11-0aef3e936e87","ios":"levelo://app?vid=e025fe44-9394-4536-8a11-0aef3e936e87"},"vehicle_type_id":"4","last_reported":1742238455,"current_range_meters":8000,"station_id":"ce4bh012rcd13ifvqcv0","pricing_plan_id":"cebpf4jnsgd1na2vs0mg"},{"bike_id":"2fe6b5d4-c6f7-40d2-9a0b-4798d57f392b","system_id":"levelo_inurba_marseille","lat":43.2308,"lon":5.35464,"is_reserved":false,"is_disabled":false,"rental_uris":{"android":"levelo://app?vid=2fe6b5d4-c6f7-40d2-9a0b-4798d57f392b","ios":"levelo://app?vid=2fe6b5d4-c6f7-40d2-9a0b-4798d57f392b"},"vehicle_type_id":"4","last_reported":1742238455,"current_range_meters":8000,"station_id":"cpo3342slgdg3j2ifvpg","pricing_plan_id":"cebpf4jnsgd1na2vs0mg"},{"bike_id":"9dcb622a-e621-4cef-b659-02a845217b91","system_id":"levelo_inurba_marseille","lat":43.32362,"lon":5.38907,"is_reserved":false,"is_disabled":false,"rental_uris":{"android":"levelo://app?vid=9dcb622a-e621-4cef-b659-02a845217b91","ios":"levelo://app?vid=9dcb622a-e621-4cef-b659-02a845217b91"},"vehicle_type_id":"4","last_reported":1742238455,"current_range_meters":8000,"station_id":"ce4bhqp2rcd13ifvqhog","pricing_plan_id":"cebpf4jnsgd1na2vs0mg"},{"bike_id":"71444a67-dfbc-4a22-b971-5a542271d1aa","system_id":"levelo_inurba_marseille","lat":43.28693,"lon":5.38696,"is_reserved":false,"is_disabled":false,"rental_uris":{"android":"levelo://app?vid=71444a67-dfbc-4a22-b971-5a542271d1aa","ios":"levelo://app?vid=71444a67-dfbc-4a22-b971-5a542271d1aa"},"vehicle_type_id":"4","last_reported":1742238455,"current_range_meters":8000,"station_id":"ce4bh492rcd13ifvqdug","pricing_plan_id":"cebpf4jnsgd1na2vs0mg"},{"bike_id":"eb2324ae-6d73-4dfe-93dc-cd4f0dffd928","system_id":"levelo_inurba_marseille","lat":43.27996,"lon":5.4166,"is_reserved":false,"is_disabled":false,"rental_uris":{"android":"levelo://app?vid=eb2324ae-6d73-4dfe-93dc-cd4f0dffd928","ios":"levelo://app?vid=eb2324ae-6d73-4dfe-93dc-cd4f0dffd928"},"vehicle_type_id":"4","last_reported":1742238455,"current_range_meters":8000,"station_id":"ce4bho12rcd13ifvqh1g","pricing_plan_id":"cebpf4jnsgd1na2vs0mg"},{"bike_id":"021238b5-2b9d-46d2-b80c-a5e816fdc135","system_id":"levelo_inurba_marseille","lat":43.29515,"lon":5.42468,"is_reserved":false,"is_disabled":false,"rental_uris":{"android":"levelo://app?vid=021238b5-2b9d-46d2-b80c-a5e816fdc135","ios":"levelo://app?vid=021238b5-2b9d-46d2-b80c-a5e816fdc135"},"vehicle_type_id":"4","last_reported":1742238455,"current_range_meters":8000,"station_id":"","pricing_plan_id":"cebpf4jnsgd1na2vs0mg"},{"bike_id":"8f8fc798-3452-42ff-9082-05d2395291b8","system_id":"levelo_inurba_marseille","lat":43.29184,"lon":5.358135,"is_reserved":false,"is_disabled":false,"rental_uris":{"android":"levelo://app?vid=8f8fc798-3452-42ff-9082-05d2395291b8","ios":"levelo://app?vid=8f8fc798-3452-42ff-9082-05d2395291b8"},"vehicle_type_id":"4","last_reported":1742238455,"current_range_meters":8000,"station_id":"ce4bhsp2rcd13ifvqi50","pricing_plan_id":"cebpf4jnsgd1na2vs0mg"},{"bike_id":"cc7a9289-a92b-4959-b4f4-94af0aa8377a","system_id":"levelo_inurba_marseille","lat":43.29367,"lon":5.37852,"is_reserved":false,"is_disabled":false,"rental_uris":{"android":"levelo://app?vid=cc7a9289-a92b-4959-b4f4-94af0aa8377a","ios":"levelo://app?vid=cc7a9289-a92b-4959-b4f4-94af0aa8377a"},"vehicle_type_id":"4","last_reported":1742238455,"current_range_meters":8000,"station_id":"ce4bgjh2rcd13ifvqbf0","pricing_plan_id":"cebpf4jnsgd1na2vs0mg"},{"bike_id":"a524cca4-b149-4692-8736-ebfad008226e","system_id":"levelo_inurba_marseille","lat":43.29529,"lon":5.39058,"is_reserved":false,"is_disabled":false,"rental_uris":{"android":"levelo://app?vid=a524cca4-b149-4692-8736-ebfad008226e","ios":"levelo://app?vid=a524cca4-b149-4692-8736-ebfad008226e"},"vehicle_type_id":"4","last_reported":1742238455,"current_range_meters":8000,"station_id":"ce4bh3p2rcd13ifvqdp0","pricing_plan_id":"cebpf4jnsgd1na2vs0mg"},{"bike_id":"defb85b5-3ef3-40ec-9adb-f0d78681dd2c","system_id":"levelo_inurba_marseille","lat":43.29181,"lon":5.37156,"is_reserved":false,"is_disabled":false,"rental_uris":{"android":"levelo://app?vid=defb85b5-3ef3-40ec-9adb-f0d78681dd2c","ios":"levelo://app?vid=defb85b5-3ef3-40ec-9adb-f0d78681dd2c"},"vehicle_type_id":"4","last_reported":1742238455,"current_range_meters":8000,"station_id":"ce4bha92rcd13ifvqeh0","pricing_plan_id":"cebpf4jnsgd1na2vs0mg"},{"bike_id":"1eef6fe9-8462-4804-b1c7-1b92116f17de","system_id":"levelo_inurba_marseille","lat":43.31753,"lon":5.39024,"is_reserved":false,"is_disabled":false,"rental_uris":{"android":"levelo://app?vid=1eef6fe9-8462-4804-b1c7-1b92116f17de","ios":"levelo://app?vid=1eef6fe9-8462-4804-b1c7-1b92116f17de"},"vehicle_type_id":"4","last_reported":1742238455,"current_range_meters":8000,"station_id":"ce4bhqp2rcd13ifvqhng","pricing_plan_id":"cebpf4jnsgd1na2vs0mg"},{"bike_id":"3c3f4e87-cec7-4a41-9953-80b9ca14737a","system_id":"levelo_inurba_marseille","lat":43.29796,"lon":5.38104,"is_reserved":false,"is_disabled":false,"rental_uris":{"android":"levelo://app?vid=3c3f4e87-cec7-4a41-9953-80b9ca14737a","ios":"levelo://app?vid=3c3f4e87-cec7-4a41-9953-80b9ca14737a"},"vehicle_type_id":"4","last_reported":1742238455,"current_range_meters":8000,"station_id":"ce4bgip2rcd13ifvqbb0","pricing_plan_id":"cebpf4jnsgd1na2vs0mg"},{"bike_id":"2b7011fc-7dee-42c2-86d6-7293fa23c29b","system_id":"levelo_inurba_marseille","lat":43.286136,"lon":5.35108,"is_reserved":false,"is_disabled":true,"rental_uris":{"android":"levelo://app?vid=2b7011fc-7dee-42c2-86d6-7293fa23c29b","ios":"levelo://app?vid=2b7011fc-7dee-42c2-86d6-7293fa23c29b"},"vehicle_type_id":"4","last_reported":1742238455,"current_range_meters":8000,"station_id":"","pricing_plan_id":"cebpf4jnsgd1na2vs0mg"},{"bike_id":"6fa0c50b-fe8b-45cb-8e1c-2658173d24b6","system_id":"levelo_inurba_marseille","lat":43.27812,"lon":5.40723,"is_reserved":false,"is_disabled":false,"rental_uris":{"android":"levelo://app?vid=6fa0c50b-fe8b-45cb-8e1c-2658173d24b6","ios":"levelo://app?vid=6fa0c50b-fe8b-45cb-8e1c-2658173d24b6"},"vehicle_type_id":"4","last_reported":1742238455,"current_range_meters":8000,"station_id":"ce4bhnh2rcd13ifvqgtg","pricing_plan_id":"cebpf4jnsgd1na2vs0mg"},{"bike_id":"0a018086-283c-4259-a1ff-a9304b066761","system_id":"levelo_inurba_marseille","lat":43.25015,"lon":5.38919,"is_reserved":false,"is_disabled":false,"rental_uris":{"android":"levelo://app?vid=0a018086-283c-4259-a1ff-a9304b066761","ios":"levelo://app?vid=0a018086-283c-4259-a1ff-a9304b066761"},"vehicle_type_id":"4","last_reported":1742238455,"current_range_meters":8000,"station_id":"ce4bhgp2rcd13ifvqfd0","pricing_plan_id":"cebpf4jnsgd1na2vs0mg"},{"bike_id":"ada663a7-05cd-4c4e-8f48-76dd4898878e","system_id":"levelo_inurba_marseille","lat":43.27815,"lon":5.40715,"is_reserved":false,"is_disabled":false,"rental_uris":{"android":"levelo://app?vid=ada663a7-05cd-4c4e-8f48-76dd4898878e","ios":"levelo://app?vid=ada663a7-05cd-4c4e-8f48-76dd4898878e"},"vehicle_type_id":"4","last_reported":1742238455,"current_range_meters":8400,"station_id":"ce4bhnh2rcd13ifvqgtg","pricing_plan_id":"cebpf4jnsgd1na2vs0mg"},{"bike_id":"ccd7cc87-3cbd-4aee-9b8e-febb76fbb1d0","system_id":"levelo_inurba_marseille","lat":43.24073,"lon":5.37768,"is_reserved":false,"is_disabled":false,"rental_uris":{"android":"levelo://app?vid=ccd7cc87-3cbd-4aee-9b8e-febb76fbb1d0","ios":"levelo://app?vid=ccd7cc87-3cbd-4aee-9b8e-febb76fbb1d0"},"vehicle_type_id":"4","last_reported":1742238455,"current_range_meters":8400,"station_id":"ce4bhnp2rcd13ifvqgvg","pricing_plan_id":"cebpf4jnsgd1na2vs0mg"},{"bike_id":"d1676c12-45d0-460a-ab7d-e6bd42a8628c","system_id":"levelo_inurba_marseille","lat":43.25939,"lon":5.40888,"is_reserved":false,"is_disabled":false,"rental_uris":{"android":"levelo://app?vid=d1676c12-45d0-460a-ab7d-e6bd42a8628c","ios":"levelo://app?vid=d1676c12-45d0-460a-ab7d-e6bd42a8628c"},"vehicle_type_id":"4","last_reported":1742238455,"current_range_meters":8400,"station_id":"ce4bhm92rcd13ifvqglg","pricing_plan_id":"cebpf4jnsgd1na2vs0mg"},{"bike_id":"7557f127-b334-4a13-a3e4-89b9bba8ea68","system_id":"levelo_inurba_marseille","lat":43.30126,"lon":5.39861,"is_reserved":false,"is_disabled":false,"rental_uris":{"android":"levelo://app?vid=7557f127-b334-4a13-a3e4-89b9bba8ea68","ios":"levelo://app?vid=7557f127-b334-4a13-a3e4-89b9bba8ea68"},"vehicle_type_id":"4","last_reported":1742238455,"current_range_meters":8000,"station_id":"ce4bh0h2rcd13ifvqd40","pricing_plan_id":"cebpf4jnsgd1na2vs0mg"},{"bike_id":"b0d4f5f0-79ce-4a3f-92ac-2959ecb2dee0","system_id":"levelo_inurba_marseille","lat":43.330538,"lon":5.390343,"is_reserved":false,"is_disabled":false,"rental_uris":{"android":"levelo://app?vid=b0d4f5f0-79ce-4a3f-92ac-2959ecb2dee0","ios":"levelo://app?vid=b0d4f5f0-79ce-4a3f-92ac-2959ecb2dee0"},"vehicle_type_id":"4","last_reported":1742238455,"current_range_meters":8400,"station_id":"ce4bhr92rcd13ifvqhrg","pricing_plan_id":"cebpf4jnsgd1na2vs0mg"},{"bike_id":"807d1c46-1543-4f63-8003-0d789a8aaaa9","system_id":"levelo_inurba_marseille","lat":43.27951,"lon":5.4104,"is_reserved":false,"is_disabled":false,"rental_uris":{"android":"levelo://app?vid=807d1c46-1543-4f63-8003-0d789a8aaaa9","ios":"levelo://app?vid=807d1c46-1543-4f63-8003-0d789a8aaaa9"},"vehicle_type_id":"4","last_reported":1742238455,"current_range_meters":8400,"station_id":"ce4bhnp2rcd13ifvqh0g","pricing_plan_id":"cebpf4jnsgd1na2vs0mg"},{"bike_id":"b6a4cbb2-eca5-452d-adc3-e3b8db76a433","system_id":"levelo_inurba_marseille","lat":43.30796,"lon":5.38143,"is_reserved":false,"is_disabled":false,"rental_uris":{"android":"levelo://app?vid=b6a4cbb2-eca5-452d-adc3-e3b8db76a433","ios":"levelo://app?vid=b6a4cbb2-eca5-452d-adc3-e3b8db76a433"},"vehicle_type_id":"4","last_reported":1742238455,"current_range_meters":8400,"station_id":"ce4bgt12rcd13ifvqce0","pricing_plan_id":"cebpf4jnsgd1na2vs0mg"},{"bike_id":"9a6e5912-51d2-4f9a-9622-6311399a661d","system_id":"levelo_inurba_marseille","lat":43.28358,"lon":5.38632,"is_reserved":false,"is_disabled":false,"rental_uris":{"android":"levelo://app?vid=9a6e5912-51d2-4f9a-9622-6311399a661d","ios":"levelo://app?vid=9a6e5912-51d2-4f9a-9622-6311399a661d"},"vehicle_type_id":"4","last_reported":1742238455,"current_range_meters":8400,"station_id":"ce4bh492rcd13ifvqdvg","pricing_plan_id":"cebpf4jnsgd1na2vs0mg"},{"bike_id":"ad83eb77-dce3-4da6-bf0f-c4e4e7949433","system_id":"levelo_inurba_marseille","lat":43.27814,"lon":5.40709,"is_reserved":false,"is_disabled":false,"rental_uris":{"android":"levelo://app?vid=ad83eb77-dce3-4da6-bf0f-c4e4e7949433","ios":"levelo://app?vid=ad83eb77-dce3-4da6-bf0f-c4e4e7949433"},"vehicle_type_id":"4","last_reported":1742238455,"current_range_meters":8400,"station_id":"ce4bhnh2rcd13ifvqgtg","pricing_plan_id":"cebpf4jnsgd1na2vs0mg"},{"bike_id":"3ceedf44-510f-4c9b-8898-ddd89117f332","system_id":"levelo_inurba_marseille","lat":43.27951,"lon":5.41045,"is_reserved":false,"is_disabled":false,"rental_uris":{"android":"levelo://app?vid=3ceedf44-510f-4c9b-8898-ddd89117f332","ios":"levelo://app?vid=3ceedf44-510f-4c9b-8898-ddd89117f332"},"vehicle_type_id":"4","last_reported":1742238455,"current_range_meters":8400,"station_id":"ce4bhnp2rcd13ifvqh0g","pricing_plan_id":"cebpf4jnsgd1na2vs0mg"},{"bike_id":"885f5f26-3561-4722-b0c2-07c12cfd53a3","system_id":"levelo_inurba_marseille","lat":43.29027,"lon":5.38644,"is_reserved":false,"is_disabled":false,"rental_uris":{"android":"levelo://app?vid=885f5f26-3561-4722-b0c2-07c12cfd53a3","ios":"levelo://app?vid=885f5f26-3561-4722-b0c2-07c12cfd53a3"},"vehicle_type_id":"4","last_reported":1742238455,"current_range_meters":8000,"station_id":"ce4bh4p2rcd13ifvqe0g","pricing_plan_id":"cebpf4jnsgd1na2vs0mg"},{"bike_id":"dd117a7c-a536-40a1-91af-43693b0b8fe5","system_id":"levelo_inurba_marseille","lat":43.25953,"lon":5.40896,"is_reserved":false,"is_disabled":false,"rental_uris":{"android":"levelo://app?vid=dd117a7c-a536-40a1-91af-43693b0b8fe5","ios":"levelo://app?vid=dd117a7c-a536-40a1-91af-43693b0b8fe5"},"vehicle_type_id":"4","last_reported":1742238455,"current_range_meters":8400,"station_id":"ce4bhm92rcd13ifvqglg","pricing_plan_id":"cebpf4jnsgd1na2vs0mg"},{"bike_id":"ee6fabc2-7f33-4574-877a-5df1fea178f3","system_id":"levelo_inurba_marseille","lat":43.27844,"lon":5.39202,"is_reserved":false,"is_disabled":false,"rental_uris":{"android":"levelo://app?vid=ee6fabc2-7f33-4574-877a-5df1fea178f3","ios":"levelo://app?vid=ee6fabc2-7f33-4574-877a-5df1fea178f3"},"vehicle_type_id":"4","last_reported":1742238455,"current_range_meters":8400,"station_id":"ce4bhjp2rcd13ifvqga0","pricing_plan_id":"cebpf4jnsgd1na2vs0mg"},{"bike_id":"0a8f2c5e-252a-4dcb-a868-4b2f234a19dc","system_id":"levelo_inurba_marseille","lat":43.27976,"lon":5.38746,"is_reserved":false,"is_disabled":false,"rental_uris":{"android":"levelo://app?vid=0a8f2c5e-252a-4dcb-a868-4b2f234a19dc","ios":"levelo://app?vid=0a8f2c5e-252a-4dcb-a868-4b2f234a19dc"},"vehicle_type_id":"4","last_reported":1742238455,"current_range_meters":8400,"station_id":"ce4bhg12rcd13ifvqf80","pricing_plan_id":"cebpf4jnsgd1na2vs0mg"},{"bike_id":"ba5d34b7-1139-41c0-ab55-4f41cd776600","system_id":"levelo_inurba_marseille","lat":43.25102,"lon":5.40329,"is_reserved":false,"is_disabled":false,"rental_uris":{"android":"levelo://app?vid=ba5d34b7-1139-41c0-ab55-4f41cd776600","ios":"levelo://app?vid=ba5d34b7-1139-41c0-ab55-4f41cd776600"},"vehicle_type_id":"4","last_reported":1742238455,"current_range_meters":8400,"station_id":"ce4bhlh2rcd13ifvqgig","pricing_plan_id":"cebpf4jnsgd1na2vs0mg"},{"bike_id":"9ee8265a-0fdc-4849-933f-8351e6c3b1de","system_id":"levelo_inurba_marseille","lat":43.23196,"lon":5.39991,"is_reserved":false,"is_disabled":false,"rental_uris":{"android":"levelo://app?vid=9ee8265a-0fdc-4849-933f-8351e6c3b1de","ios":"levelo://app?vid=9ee8265a-0fdc-4849-933f-8351e6c3b1de"},"vehicle_type_id":"4","last_reported":1742238455,"current_range_meters":8400,"station_id":"ce4bhn12rcd13ifvqgqg","pricing_plan_id":"cebpf4jnsgd1na2vs0mg"},{"bike_id":"5e31fbed-d4b7-49e5-97ef-d23adbdbc443","system_id":"levelo_inurba_marseille","lat":43.25727,"lon":5.41104,"is_reserved":false,"is_disabled":false,"rental_uris":{"android":"levelo://app?vid=5e31fbed-d4b7-49e5-97ef-d23adbdbc443","ios":"levelo://app?vid=5e31fbed-d4b7-49e5-97ef-d23adbdbc443"},"vehicle_type_id":"4","last_reported":1742238455,"current_range_meters":8400,"station_id":"ce4bhkp2rcd13ifvqgd0","pricing_plan_id":"cebpf4jnsgd1na2vs0mg"},{"bike_id":"c610338b-0008-4d1e-8a0a-c61418d52eac","system_id":"levelo_inurba_marseille","lat":43.31081,"lon":5.42442,"is_reserved":false,"is_disabled":false,"rental_uris":{"android":"levelo://app?vid=c610338b-0008-4d1e-8a0a-c61418d52eac","ios":"levelo://app?vid=c610338b-0008-4d1e-8a0a-c61418d52eac"},"vehicle_type_id":"4","last_reported":1742238455,"current_range_meters":8400,"station_id":"ce4bhp92rcd13ifvqhag","pricing_plan_id":"cebpf4jnsgd1na2vs0mg"},{"bike_id":"b63375e6-a141-4d31-bc4f-d983a9fde0aa","system_id":"levelo_inurba_marseille","lat":43.28929,"lon":5.3843,"is_reserved":false,"is_disabled":false,"rental_uris":{"android":"levelo://app?vid=b63375e6-a141-4d31-bc4f-d983a9fde0aa","ios":"levelo://app?vid=b63375e6-a141-4d31-bc4f-d983a9fde0aa"},"vehicle_type_id":"4","last_reported":1742238455,"current_range_meters":8400,"station_id":"ce4bh612rcd13ifvqe6g","pricing_plan_id":"cebpf4jnsgd1na2vs0mg"},{"bike_id":"4b3690bc-ecde-4409-a4ed-21bd1202d8fe","system_id":"levelo_inurba_marseille","lat":43.30864,"lon":5.38174,"is_reserved":false,"is_disabled":false,"rental_uris":{"android":"levelo://app?vid=4b3690bc-ecde-4409-a4ed-21bd1202d8fe","ios":"levelo://app?vid=4b3690bc-ecde-4409-a4ed-21bd1202d8fe"},"vehicle_type_id":"4","last_reported":1742238455,"current_range_meters":8800,"station_id":"ce4bgt12rcd13ifvqce0","pricing_plan_id":"cebpf4jnsgd1na2vs0mg"},{"bike_id":"0d126537-def7-47c3-bba6-892f83e3c00f","system_id":"levelo_inurba_marseille","lat":43.24998,"lon":5.38926,"is_reserved":false,"is_disabled":false,"rental_uris":{"android":"levelo://app?vid=0d126537-def7-47c3-bba6-892f83e3c00f","ios":"levelo://app?vid=0d126537-def7-47c3-bba6-892f83e3c00f"},"vehicle_type_id":"4","last_reported":1742238455,"current_range_meters":8800,"station_id":"ce4bhgp2rcd13ifvqfd0","pricing_plan_id":"cebpf4jnsgd1na2vs0mg"},{"bike_id":"3d53ea17-d639-46a8-8d0a-be19cd0a8796","system_id":"levelo_inurba_marseille","lat":43.28935,"lon":5.38404,"is_reserved":false,"is_disabled":false,"rental_uris":{"android":"levelo://app?vid=3d53ea17-d639-46a8-8d0a-be19cd0a8796","ios":"levelo://app?vid=3d53ea17-d639-46a8-8d0a-be19cd0a8796"},"vehicle_type_id":"4","last_reported":1742238455,"current_range_meters":8800,"station_id":"ce4bh612rcd13ifvqe6g","pricing_plan_id":"cebpf4jnsgd1na2vs0mg"},{"bike_id":"25204da5-321c-4938-8bd0-6ee80c2136c9","system_id":"levelo_inurba_marseille","lat":43.30422,"lon":5.41285,"is_reserved":false,"is_disabled":false,"rental_uris":{"android":"levelo://app?vid=25204da5-321c-4938-8bd0-6ee80c2136c9","ios":"levelo://app?vid=25204da5-321c-4938-8bd0-6ee80c2136c9"},"vehicle_type_id":"4","last_reported":1742238455,"current_range_meters":8400,"station_id":"ce4bhop2rcd13ifvqh8g","pricing_plan_id":"cebpf4jnsgd1na2vs0mg"},{"bike_id":"59e86cae-ac0f-40d3-bc8f-a9641b9734d4","system_id":"levelo_inurba_marseille","lat":43.28166,"lon":5.42654,"is_reserved":false,"is_disabled":false,"rental_uris":{"android":"levelo://app?vid=59e86cae-ac0f-40d3-bc8f-a9641b9734d4","ios":"levelo://app?vid=59e86cae-ac0f-40d3-bc8f-a9641b9734d4"},"vehicle_type_id":"4","last_reported":1742238455,"current_range_meters":8800,"station_id":"ce4bhnh2rcd13ifvqgug","pricing_plan_id":"cebpf4jnsgd1na2vs0mg"},{"bike_id":"73ba6054-b256-49f9-a881-8617a962027d","system_id":"levelo_inurba_marseille","lat":43.23065,"lon":5.35519,"is_reserved":false,"is_disabled":false,"rental_uris":{"android":"levelo://app?vid=73ba6054-b256-49f9-a881-8617a962027d","ios":"levelo://app?vid=73ba6054-b256-49f9-a881-8617a962027d"},"vehicle_type_id":"4","last_reported":1742238455,"current_range_meters":8800,"station_id":"cpo3342slgdg3j2ifvpg","pricing_plan_id":"cebpf4jnsgd1na2vs0mg"},{"bike_id":"ba22b769-c7e4-474a-a7e5-3ff558251ffd","system_id":"levelo_inurba_marseille","lat":43.25578,"lon":5.38243,"is_reserved":false,"is_disabled":false,"rental_uris":{"android":"levelo://app?vid=ba22b769-c7e4-474a-a7e5-3ff558251ffd","ios":"levelo://app?vid=ba22b769-c7e4-474a-a7e5-3ff558251ffd"},"vehicle_type_id":"4","last_reported":1742238455,"current_range_meters":8800,"station_id":"ce4bhih2rcd13ifvqfs0","pricing_plan_id":"cebpf4jnsgd1na2vs0mg"},{"bike_id":"9ef8209e-f7e0-4b36-b640-caf96ec8d5ee","system_id":"levelo_inurba_marseille","lat":43.25506,"lon":5.37649,"is_reserved":false,"is_disabled":false,"rental_uris":{"android":"levelo://app?vid=9ef8209e-f7e0-4b36-b640-caf96ec8d5ee","ios":"levelo://app?vid=9ef8209e-f7e0-4b36-b640-caf96ec8d5ee"},"vehicle_type_id":"4","last_reported":1742238455,"current_range_meters":8800,"station_id":"ce4bhh12rcd13ifvqff0","pricing_plan_id":"cebpf4jnsgd1na2vs0mg"},{"bike_id":"4fcdb0ca-8f3c-4ae6-a081-98bd2e19c070","system_id":"levelo_inurba_marseille","lat":43.27845,"lon":5.39218,"is_reserved":false,"is_disabled":false,"rental_uris":{"android":"levelo://app?vid=4fcdb0ca-8f3c-4ae6-a081-98bd2e19c070","ios":"levelo://app?vid=4fcdb0ca-8f3c-4ae6-a081-98bd2e19c070"},"vehicle_type_id":"4","last_reported":1742238455,"current_range_meters":8800,"station_id":"ce4bhjp2rcd13ifvqga0","pricing_plan_id":"cebpf4jnsgd1na2vs0mg"},{"bike_id":"e95151cd-abc4-4dae-8ab5-1de4cba734f5","system_id":"levelo_inurba_marseille","lat":43.24202,"lon":5.39738,"is_reserved":false,"is_disabled":false,"rental_uris":{"android":"levelo://app?vid=e95151cd-abc4-4dae-8ab5-1de4cba734f5","ios":"levelo://app?vid=e95151cd-abc4-4dae-8ab5-1de4cba734f5"},"vehicle_type_id":"4","last_reported":1742238455,"current_range_meters":8800,"station_id":"ce4bhn12rcd13ifvqgpg","pricing_plan_id":"cebpf4jnsgd1na2vs0mg"},{"bike_id":"fa5f15ab-8994-45e1-84de-31aa4c8b3ced","system_id":"levelo_inurba_marseille","lat":43.23187,"lon":5.3557,"is_reserved":false,"is_disabled":false,"rental_uris":{"android":"levelo://app?vid=fa5f15ab-8994-45e1-84de-31aa4c8b3ced","ios":"levelo://app?vid=fa5f15ab-8994-45e1-84de-31aa4c8b3ced"},"vehicle_type_id":"4","last_reported":1742238455,"current_range_meters":8800,"station_id":"ce4bhu92rcd13ifvqi70","pricing_plan_id":"cebpf4jnsgd1na2vs0mg"},{"bike_id":"e1e56220-530e-4e87-ada8-42b6a8029fa9","system_id":"levelo_inurba_marseille","lat":43.24074,"lon":5.37761,"is_reserved":false,"is_disabled":false,"rental_uris":{"android":"levelo://app?vid=e1e56220-530e-4e87-ada8-42b6a8029fa9","ios":"levelo://app?vid=e1e56220-530e-4e87-ada8-42b6a8029fa9"},"vehicle_type_id":"4","last_reported":1742238455,"current_range_meters":8800,"station_id":"ce4bhnp2rcd13ifvqgvg","pricing_plan_id":"cebpf4jnsgd1na2vs0mg"},{"bike_id":"b54a649d-2707-4569-87ee-d2c230e19409","system_id":"levelo_inurba_marseille","lat":43.27475,"lon":5.40896,"is_reserved":false,"is_disabled":false,"rental_uris":{"android":"levelo://app?vid=b54a649d-2707-4569-87ee-d2c230e19409","ios":"levelo://app?vid=b54a649d-2707-4569-87ee-d2c230e19409"},"vehicle_type_id":"4","last_reported":1742238455,"current_range_meters":8800,"station_id":"","pricing_plan_id":"cebpf4jnsgd1na2vs0mg"},{"bike_id":"16e2964b-ded4-4433-8799-1bdecec1ce4b","system_id":"levelo_inurba_marseille","lat":43.27961,"lon":5.40557,"is_reserved":false,"is_disabled":false,"rental_uris":{"android":"levelo://app?vid=16e2964b-ded4-4433-8799-1bdecec1ce4b","ios":"levelo://app?vid=16e2964b-ded4-4433-8799-1bdecec1ce4b"},"vehicle_type_id":"4","last_reported":1742238455,"current_range_meters":8800,"station_id":"","pricing_plan_id":"cebpf4jnsgd1na2vs0mg"},{"bike_id":"9b4044b9-a073-4c83-980a-fa6ed0189d7d","system_id":"levelo_inurba_marseille","lat":43.27805,"lon":5.40722,"is_reserved":false,"is_disabled":false,"rental_uris":{"android":"levelo://app?vid=9b4044b9-a073-4c83-980a-fa6ed0189d7d","ios":"levelo://app?vid=9b4044b9-a073-4c83-980a-fa6ed0189d7d"},"vehicle_type_id":"4","last_reported":1742238455,"current_range_meters":8800,"station_id":"ce4bhnh2rcd13ifvqgtg","pricing_plan_id":"cebpf4jnsgd1na2vs0mg"},{"bike_id":"e82a3408-305a-4b4a-bfb6-332dccb0aa32","system_id":"levelo_inurba_marseille","lat":43.28476,"lon":5.35872,"is_reserved":false,"is_disabled":false,"rental_uris":{"android":"levelo://app?vid=e82a3408-305a-4b4a-bfb6-332dccb0aa32","ios":"levelo://app?vid=e82a3408-305a-4b4a-bfb6-332dccb0aa32"},"vehicle_type_id":"4","last_reported":1742238455,"current_range_meters":8800,"station_id":"ce4bhah2rcd13ifvqei0","pricing_plan_id":"cebpf4jnsgd1na2vs0mg"},{"bike_id":"cec4eccd-9295-427c-a15b-34c58ab5cda5","system_id":"levelo_inurba_marseille","lat":43.30868,"lon":5.39662,"is_reserved":false,"is_disabled":false,"rental_uris":{"android":"levelo://app?vid=cec4eccd-9295-427c-a15b-34c58ab5cda5","ios":"levelo://app?vid=cec4eccd-9295-427c-a15b-34c58ab5cda5"},"vehicle_type_id":"4","last_reported":1742238455,"current_range_meters":8800,"station_id":"ce4bh012rcd13ifvqcv0","pricing_plan_id":"cebpf4jnsgd1na2vs0mg"},{"bike_id":"6d8e8090-a4c7-4966-a3f4-a833922b9e5a","system_id":"levelo_inurba_marseille","lat":43.23195,"lon":5.35562,"is_reserved":false,"is_disabled":false,"rental_uris":{"android":"levelo://app?vid=6d8e8090-a4c7-4966-a3f4-a833922b9e5a","ios":"levelo://app?vid=6d8e8090-a4c7-4966-a3f4-a833922b9e5a"},"vehicle_type_id":"4","last_reported":1742238455,"current_range_meters":9200,"station_id":"ce4bhu92rcd13ifvqi70","pricing_plan_id":"cebpf4jnsgd1na2vs0mg"},{"bike_id":"d155b6d7-4f04-4869-a663-a1baa5b8f97e","system_id":"levelo_inurba_marseille","lat":43.23179,"lon":5.35531,"is_reserved":false,"is_disabled":false,"rental_uris":{"android":"levelo://app?vid=d155b6d7-4f04-4869-a663-a1baa5b8f97e","ios":"levelo://app?vid=d155b6d7-4f04-4869-a663-a1baa5b8f97e"},"vehicle_type_id":"4","last_reported":1742238455,"current_range_meters":9200,"station_id":"ce4bhu92rcd13ifvqi70","pricing_plan_id":"cebpf4jnsgd1na2vs0mg"},{"bike_id":"788ca77b-d202-4ecb-9d3f-69989dd9524d","system_id":"levelo_inurba_marseille","lat":43.25503,"lon":5.37647,"is_reserved":false,"is_disabled":false,"rental_uris":{"android":"levelo://app?vid=788ca77b-d202-4ecb-9d3f-69989dd9524d","ios":"levelo://app?vid=788ca77b-d202-4ecb-9d3f-69989dd9524d"},"vehicle_type_id":"4","last_reported":1742238455,"current_range_meters":9200,"station_id":"ce4bhh12rcd13ifvqff0","pricing_plan_id":"cebpf4jnsgd1na2vs0mg"},{"bike_id":"bbd9a70e-e67c-48dd-96ae-1f5c8e541bc0","system_id":"levelo_inurba_marseille","lat":43.29964,"lon":5.37165,"is_reserved":false,"is_disabled":false,"rental_uris":{"android":"levelo://app?vid=bbd9a70e-e67c-48dd-96ae-1f5c8e541bc0","ios":"levelo://app?vid=bbd9a70e-e67c-48dd-96ae-1f5c8e541bc0"},"vehicle_type_id":"4","last_reported":1742238455,"current_range_meters":9200,"station_id":"ce4bgr92rcd13ifvqc7g","pricing_plan_id":"cebpf4jnsgd1na2vs0mg"},{"bike_id":"136e3224-78fe-49f0-ab83-398238bd4c97","system_id":"levelo_inurba_marseille","lat":43.26209,"lon":5.37444,"is_reserved":false,"is_disabled":false,"rental_uris":{"android":"levelo://app?vid=136e3224-78fe-49f0-ab83-398238bd4c97","ios":"levelo://app?vid=136e3224-78fe-49f0-ab83-398238bd4c97"},"vehicle_type_id":"4","last_reported":1742238455,"current_range_meters":9200,"station_id":"ce4bhgp2rcd13ifvqfc0","pricing_plan_id":"cebpf4jnsgd1na2vs0mg"},{"bike_id":"b30f8aa9-7c7f-431f-b9cd-9cbe841c1878","system_id":"levelo_inurba_marseille","lat":43.30596,"lon":5.39348,"is_reserved":false,"is_disabled":false,"rental_uris":{"android":"levelo://app?vid=b30f8aa9-7c7f-431f-b9cd-9cbe841c1878","ios":"levelo://app?vid=b30f8aa9-7c7f-431f-b9cd-9cbe841c1878"},"vehicle_type_id":"4","last_reported":1742238455,"current_range_meters":9200,"station_id":"ce4bh0p2rcd13ifvqd80","pricing_plan_id":"cebpf4jnsgd1na2vs0mg"},{"bike_id":"3f832d89-f2b0-4644-a69c-87a081d530d6","system_id":"levelo_inurba_marseille","lat":43.26067,"lon":5.39398,"is_reserved":false,"is_disabled":false,"rental_uris":{"android":"levelo://app?vid=3f832d89-f2b0-4644-a69c-87a081d530d6","ios":"levelo://app?vid=3f832d89-f2b0-4644-a69c-87a081d530d6"},"vehicle_type_id":"4","last_reported":1742238455,"current_range_meters":8800,"station_id":"ce4bhh92rcd13ifvqfj0","pricing_plan_id":"cebpf4jnsgd1na2vs0mg"},{"bike_id":"4fd0d6b1-80a9-4a00-a0f5-a410ce25c312","system_id":"levelo_inurba_marseille","lat":43.31084,"lon":5.4243,"is_reserved":false,"is_disabled":false,"rental_uris":{"android":"levelo://app?vid=4fd0d6b1-80a9-4a00-a0f5-a410ce25c312","ios":"levelo://app?vid=4fd0d6b1-80a9-4a00-a0f5-a410ce25c312"},"vehicle_type_id":"4","last_reported":1742238455,"current_range_meters":9200,"station_id":"ce4bhp92rcd13ifvqhag","pricing_plan_id":"cebpf4jnsgd1na2vs0mg"},{"bike_id":"9e2fcf04-35eb-4c39-98a4-f9f808ee3610","system_id":"levelo_inurba_marseille","lat":43.27836,"lon":5.39209,"is_reserved":false,"is_disabled":false,"rental_uris":{"android":"levelo://app?vid=9e2fcf04-35eb-4c39-98a4-f9f808ee3610","ios":"levelo://app?vid=9e2fcf04-35eb-4c39-98a4-f9f808ee3610"},"vehicle_type_id":"4","last_reported":1742238455,"current_range_meters":9200,"station_id":"ce4bhjp2rcd13ifvqga0","pricing_plan_id":"cebpf4jnsgd1na2vs0mg"},{"bike_id":"607496c0-5a33-47b9-ad9d-59952d6063d6","system_id":"levelo_inurba_marseille","lat":43.31059,"lon":5.38361,"is_reserved":false,"is_disabled":false,"rental_uris":{"android":"levelo://app?vid=607496c0-5a33-47b9-ad9d-59952d6063d6","ios":"levelo://app?vid=607496c0-5a33-47b9-ad9d-59952d6063d6"},"vehicle_type_id":"4","last_reported":1742238455,"current_range_meters":9200,"station_id":"ce4bgv92rcd13ifvqcr0","pricing_plan_id":"cebpf4jnsgd1na2vs0mg"},{"bike_id":"cfa7e782-dad6-4dd1-8c87-12f3d6075fb2","system_id":"levelo_inurba_marseille","lat":43.28171,"lon":5.42627,"is_reserved":false,"is_disabled":false,"rental_uris":{"android":"levelo://app?vid=cfa7e782-dad6-4dd1-8c87-12f3d6075fb2","ios":"levelo://app?vid=cfa7e782-dad6-4dd1-8c87-12f3d6075fb2"},"vehicle_type_id":"4","last_reported":1742238455,"current_range_meters":9600,"station_id":"ce4bhnh2rcd13ifvqgug","pricing_plan_id":"cebpf4jnsgd1na2vs0mg"},{"bike_id":"8d98e715-03e1-4d63-8c29-c55918dee619","system_id":"levelo_inurba_marseille","lat":43.28688,"lon":5.38667,"is_reserved":false,"is_disabled":false,"rental_uris":{"android":"levelo://app?vid=8d98e715-03e1-4d63-8c29-c55918dee619","ios":"levelo://app?vid=8d98e715-03e1-4d63-8c29-c55918dee619"},"vehicle_type_id":"4","last_reported":1742238455,"current_range_meters":9600,"station_id":"ce4bh492rcd13ifvqdug","pricing_plan_id":"cebpf4jnsgd1na2vs0mg"},{"bike_id":"c6f0a2f3-d142-4b3e-bc0a-4b621d29452c","system_id":"levelo_inurba_marseille","lat":43.25109,"lon":5.40373,"is_reserved":false,"is_disabled":false,"rental_uris":{"android":"levelo://app?vid=c6f0a2f3-d142-4b3e-bc0a-4b621d29452c","ios":"levelo://app?vid=c6f0a2f3-d142-4b3e-bc0a-4b621d29452c"},"vehicle_type_id":"4","last_reported":1742238455,"current_range_meters":9600,"station_id":"ce4bhlh2rcd13ifvqgig","pricing_plan_id":"cebpf4jnsgd1na2vs0mg"},{"bike_id":"6c786f69-7fcb-42dd-8726-daa7bdae9d01","system_id":"levelo_inurba_marseille","lat":43.30821,"lon":5.3814,"is_reserved":false,"is_disabled":false,"rental_uris":{"android":"levelo://app?vid=6c786f69-7fcb-42dd-8726-daa7bdae9d01","ios":"levelo://app?vid=6c786f69-7fcb-42dd-8726-daa7bdae9d01"},"vehicle_type_id":"4","last_reported":1742238455,"current_range_meters":9600,"station_id":"ce4bgt12rcd13ifvqce0","pricing_plan_id":"cebpf4jnsgd1na2vs0mg"},{"bike_id":"885c677d-9212-4154-b31b-f0b26ae107b0","system_id":"levelo_inurba_marseille","lat":43.28414,"lon":5.37513,"is_reserved":false,"is_disabled":false,"rental_uris":{"android":"levelo://app?vid=885c677d-9212-4154-b31b-f0b26ae107b0","ios":"levelo://app?vid=885c677d-9212-4154-b31b-f0b26ae107b0"},"vehicle_type_id":"4","last_reported":1742238455,"current_range_meters":9600,"station_id":"ce4bh412rcd13ifvqds0","pricing_plan_id":"cebpf4jnsgd1na2vs0mg"},{"bike_id":"c818dfaa-c53b-4e3c-90b9-12b7bb700243","system_id":"levelo_inurba_marseille","lat":43.24998,"lon":5.38927,"is_reserved":false,"is_disabled":false,"rental_uris":{"android":"levelo://app?vid=c818dfaa-c53b-4e3c-90b9-12b7bb700243","ios":"levelo://app?vid=c818dfaa-c53b-4e3c-90b9-12b7bb700243"},"vehicle_type_id":"4","last_reported":1742238455,"current_range_meters":9600,"station_id":"ce4bhgp2rcd13ifvqfd0","pricing_plan_id":"cebpf4jnsgd1na2vs0mg"},{"bike_id":"f726d16a-5cce-4273-b849-56297f73384d","system_id":"levelo_inurba_marseille","lat":43.2799,"lon":5.41658,"is_reserved":false,"is_disabled":false,"rental_uris":{"android":"levelo://app?vid=f726d16a-5cce-4273-b849-56297f73384d","ios":"levelo://app?vid=f726d16a-5cce-4273-b849-56297f73384d"},"vehicle_type_id":"4","last_reported":1742238455,"current_range_meters":9600,"station_id":"ce4bho12rcd13ifvqh1g","pricing_plan_id":"cebpf4jnsgd1na2vs0mg"},{"bike_id":"0d3accb9-853e-4df0-b9d8-4607b8048f46","system_id":"levelo_inurba_marseille","lat":43.24165,"lon":5.36412,"is_reserved":false,"is_disabled":false,"rental_uris":{"android":"levelo://app?vid=0d3accb9-853e-4df0-b9d8-4607b8048f46","ios":"levelo://app?vid=0d3accb9-853e-4df0-b9d8-4607b8048f46"},"vehicle_type_id":"4","last_reported":1742238455,"current_range_meters":9600,"station_id":"cpo36qri1sfpv3e86is0","pricing_plan_id":"cebpf4jnsgd1na2vs0mg"},{"bike_id":"3be7af56-03d7-4d5d-8330-3d203ddc0f49","system_id":"levelo_inurba_marseille","lat":43.2867,"lon":5.36361,"is_reserved":false,"is_disabled":false,"rental_uris":{"android":"levelo://app?vid=3be7af56-03d7-4d5d-8330-3d203ddc0f49","ios":"levelo://app?vid=3be7af56-03d7-4d5d-8330-3d203ddc0f49"},"vehicle_type_id":"4","last_reported":1742238455,"current_range_meters":9600,"station_id":"ce4bhah2rcd13ifvqej0","pricing_plan_id":"cebpf4jnsgd1na2vs0mg"},{"bike_id":"836e6160-43fb-4e74-bca4-6228c501760e","system_id":"levelo_inurba_marseille","lat":43.25543,"lon":5.37679,"is_reserved":false,"is_disabled":false,"rental_uris":{"android":"levelo://app?vid=836e6160-43fb-4e74-bca4-6228c501760e","ios":"levelo://app?vid=836e6160-43fb-4e74-bca4-6228c501760e"},"vehicle_type_id":"4","last_reported":1742238455,"current_range_meters":9600,"station_id":"","pricing_plan_id":"cebpf4jnsgd1na2vs0mg"},{"bike_id":"b1b41327-66f3-4983-ac80-93a6af2a034d","system_id":"levelo_inurba_marseille","lat":43.230691,"lon":5.354885,"is_reserved":false,"is_disabled":false,"rental_uris":{"android":"levelo://app?vid=b1b41327-66f3-4983-ac80-93a6af2a034d","ios":"levelo://app?vid=b1b41327-66f3-4983-ac80-93a6af2a034d"},"vehicle_type_id":"4","last_reported":1742238455,"current_range_meters":10000,"station_id":"cpo3342slgdg3j2ifvpg","pricing_plan_id":"cebpf4jnsgd1na2vs0mg"},{"bike_id":"1078d210-6355-4a4f-886e-aae280d3e03b","system_id":"levelo_inurba_marseille","lat":43.27844,"lon":5.39232,"is_reserved":false,"is_disabled":false,"rental_uris":{"android":"levelo://app?vid=1078d210-6355-4a4f-886e-aae280d3e03b","ios":"levelo://app?vid=1078d210-6355-4a4f-886e-aae280d3e03b"},"vehicle_type_id":"4","last_reported":1742238455,"current_range_meters":9600,"station_id":"ce4bhjp2rcd13ifvqga0","pricing_plan_id":"cebpf4jnsgd1na2vs0mg"},{"bike_id":"a7b70105-9422-4cb1-99f4-f9a8bea9e0d8","system_id":"levelo_inurba_marseille","lat":43.28462,"lon":5.35885,"is_reserved":false,"is_disabled":false,"rental_uris":{"android":"levelo://app?vid=a7b70105-9422-4cb1-99f4-f9a8bea9e0d8","ios":"levelo://app?vid=a7b70105-9422-4cb1-99f4-f9a8bea9e0d8"},"vehicle_type_id":"4","last_reported":1742238455,"current_range_meters":10000,"station_id":"ce4bhah2rcd13ifvqei0","pricing_plan_id":"cebpf4jnsgd1na2vs0mg"},{"bike_id":"a484158f-66dc-48d6-a932-a39b9a8d1878","system_id":"levelo_inurba_marseille","lat":43.28192,"lon":5.42641,"is_reserved":false,"is_disabled":false,"rental_uris":{"android":"levelo://app?vid=a484158f-66dc-48d6-a932-a39b9a8d1878","ios":"levelo://app?vid=a484158f-66dc-48d6-a932-a39b9a8d1878"},"vehicle_type_id":"4","last_reported":1742238455,"current_range_meters":10000,"station_id":"ce4bhnh2rcd13ifvqgug","pricing_plan_id":"cebpf4jnsgd1na2vs0mg"},{"bike_id":"d1c8dca7-2e8e-423a-8a43-711a8b61c03b","system_id":"levelo_inurba_marseille","lat":43.26743,"lon":5.38959,"is_reserved":false,"is_disabled":false,"rental_uris":{"android":"levelo://app?vid=d1c8dca7-2e8e-423a-8a43-711a8b61c03b","ios":"levelo://app?vid=d1c8dca7-2e8e-423a-8a43-711a8b61c03b"},"vehicle_type_id":"4","last_reported":1742238455,"current_range_meters":10000,"station_id":"","pricing_plan_id":"cebpf4jnsgd1na2vs0mg"},{"bike_id":"ac767398-3a37-4b25-a151-49e4b1e3ef78","system_id":"levelo_inurba_marseille","lat":43.25089,"lon":5.39502,"is_reserved":false,"is_disabled":false,"rental_uris":{"android":"levelo://app?vid=ac767398-3a37-4b25-a151-49e4b1e3ef78","ios":"levelo://app?vid=ac767398-3a37-4b25-a151-49e4b1e3ef78"},"vehicle_type_id":"4","last_reported":1742238455,"current_range_meters":10000,"station_id":"ce4bhm12rcd13ifvqgkg","pricing_plan_id":"cebpf4jnsgd1na2vs0mg"},{"bike_id":"737a1d64-a21d-4452-b1f9-a22f87a8d6bd","system_id":"levelo_inurba_marseille","lat":43.23062,"lon":5.35499,"is_reserved":false,"is_disabled":false,"rental_uris":{"android":"levelo://app?vid=737a1d64-a21d-4452-b1f9-a22f87a8d6bd","ios":"levelo://app?vid=737a1d64-a21d-4452-b1f9-a22f87a8d6bd"},"vehicle_type_id":"4","last_reported":1742238455,"current_range_meters":10000,"station_id":"cpo3342slgdg3j2ifvpg","pricing_plan_id":"cebpf4jnsgd1na2vs0mg"},{"bike_id":"8fe7e33b-57fc-439c-ba02-015988635c80","system_id":"levelo_inurba_marseille","lat":43.27079,"lon":5.42285,"is_reserved":false,"is_disabled":true,"rental_uris":{"android":"levelo://app?vid=8fe7e33b-57fc-439c-ba02-015988635c80","ios":"levelo://app?vid=8fe7e33b-57fc-439c-ba02-015988635c80"},"vehicle_type_id":"4","last_reported":1742238455,"current_range_meters":10000,"station_id":"ce4bhk92rcd13ifvqgb0","pricing_plan_id":"cebpf4jnsgd1na2vs0mg"},{"bike_id":"0677992e-e762-4cc3-a8e0-bef1b7c26cbf","system_id":"levelo_inurba_marseille","lat":43.24648,"lon":5.38888,"is_reserved":false,"is_disabled":false,"rental_uris":{"android":"levelo://app?vid=0677992e-e762-4cc3-a8e0-bef1b7c26cbf","ios":"levelo://app?vid=0677992e-e762-4cc3-a8e0-bef1b7c26cbf"},"vehicle_type_id":"4","last_reported":1742238455,"current_range_meters":10000,"station_id":"ce4bhg12rcd13ifvqf60","pricing_plan_id":"cebpf4jnsgd1na2vs0mg"},{"bike_id":"e176e720-c0b9-4c23-9065-70459ae27cba","system_id":"levelo_inurba_marseille","lat":43.31171,"lon":5.38715,"is_reserved":false,"is_disabled":false,"rental_uris":{"android":"levelo://app?vid=e176e720-c0b9-4c23-9065-70459ae27cba","ios":"levelo://app?vid=e176e720-c0b9-4c23-9065-70459ae27cba"},"vehicle_type_id":"4","last_reported":1742238455,"current_range_meters":10000,"station_id":"ce4bgv12rcd13ifvqcp0","pricing_plan_id":"cebpf4jnsgd1na2vs0mg"},{"bike_id":"358f5aab-7b63-4826-bc44-0ce9d0afdb17","system_id":"levelo_inurba_marseille","lat":43.26806,"lon":5.4027,"is_reserved":false,"is_disabled":false,"rental_uris":{"android":"levelo://app?vid=358f5aab-7b63-4826-bc44-0ce9d0afdb17","ios":"levelo://app?vid=358f5aab-7b63-4826-bc44-0ce9d0afdb17"},"vehicle_type_id":"4","last_reported":1742238455,"current_range_meters":10000,"station_id":"ce501612rcd8frsf0b60","pricing_plan_id":"cebpf4jnsgd1na2vs0mg"},{"bike_id":"7a8a8ccb-b5ee-4bab-9535-af226cc12302","system_id":"levelo_inurba_marseille","lat":43.2907,"lon":5.42354,"is_reserved":false,"is_disabled":false,"rental_uris":{"android":"levelo://app?vid=7a8a8ccb-b5ee-4bab-9535-af226cc12302","ios":"levelo://app?vid=7a8a8ccb-b5ee-4bab-9535-af226cc12302"},"vehicle_type_id":"4","last_reported":1742238455,"current_range_meters":10000,"station_id":"","pricing_plan_id":"cebpf4jnsgd1na2vs0mg"},{"bike_id":"e9155e92-e4e4-4ce0-9225-aa9e3d9fa424","system_id":"levelo_inurba_marseille","lat":43.29776,"lon":5.37082,"is_reserved":false,"is_disabled":false,"rental_uris":{"android":"levelo://app?vid=e9155e92-e4e4-4ce0-9225-aa9e3d9fa424","ios":"levelo://app?vid=e9155e92-e4e4-4ce0-9225-aa9e3d9fa424"},"vehicle_type_id":"4","last_reported":1742238455,"current_range_meters":10000,"station_id":"ce4bgop2rcd13ifvqc1g","pricing_plan_id":"cebpf4jnsgd1na2vs0mg"},{"bike_id":"a69bbd27-f01a-469c-b458-2292c3cc7e04","system_id":"levelo_inurba_marseille","lat":43.24388,"lon":5.37068,"is_reserved":false,"is_disabled":false,"rental_uris":{"android":"levelo://app?vid=a69bbd27-f01a-469c-b458-2292c3cc7e04","ios":"levelo://app?vid=a69bbd27-f01a-469c-b458-2292c3cc7e04"},"vehicle_type_id":"4","last_reported":1742238455,"current_range_meters":10800,"station_id":"ce4bhhh2rcd13ifvqfk0","pricing_plan_id":"cebpf4jnsgd1na2vs0mg"},{"bike_id":"25349df8-9a91-45e5-9802-681f8d4d74fb","system_id":"levelo_inurba_marseille","lat":43.30646,"lon":5.40103,"is_reserved":false,"is_disabled":false,"rental_uris":{"android":"levelo://app?vid=25349df8-9a91-45e5-9802-681f8d4d74fb","ios":"levelo://app?vid=25349df8-9a91-45e5-9802-681f8d4d74fb"},"vehicle_type_id":"4","last_reported":1742238455,"current_range_meters":10800,"station_id":"ce4bh112rcd13ifvqda0","pricing_plan_id":"cebpf4jnsgd1na2vs0mg"},{"bike_id":"06e6eede-4ecb-4319-9d79-1a567e57af49","system_id":"levelo_inurba_marseille","lat":43.26032,"lon":5.41731,"is_reserved":false,"is_disabled":false,"rental_uris":{"android":"levelo://app?vid=06e6eede-4ecb-4319-9d79-1a567e57af49","ios":"levelo://app?vid=06e6eede-4ecb-4319-9d79-1a567e57af49"},"vehicle_type_id":"4","last_reported":1742238455,"current_range_meters":10800,"station_id":"","pricing_plan_id":"cebpf4jnsgd1na2vs0mg"},{"bike_id":"c18bf61d-098a-4e20-ab7c-798fde1a90c5","system_id":"levelo_inurba_marseille","lat":43.29059,"lon":5.37154,"is_reserved":false,"is_disabled":false,"rental_uris":{"android":"levelo://app?vid=c18bf61d-098a-4e20-ab7c-798fde1a90c5","ios":"levelo://app?vid=c18bf61d-098a-4e20-ab7c-798fde1a90c5"},"vehicle_type_id":"4","last_reported":1742238455,"current_range_meters":10800,"station_id":"ce4bh5p2rcd13ifvqe4g","pricing_plan_id":"cebpf4jnsgd1na2vs0mg"},{"bike_id":"b33142dd-8dd4-43bc-b558-2a5a4a852b55","system_id":"levelo_inurba_marseille","lat":43.25003,"lon":5.38933,"is_reserved":false,"is_disabled":false,"rental_uris":{"android":"levelo://app?vid=b33142dd-8dd4-43bc-b558-2a5a4a852b55","ios":"levelo://app?vid=b33142dd-8dd4-43bc-b558-2a5a4a852b55"},"vehicle_type_id":"4","last_reported":1742238455,"current_range_meters":10800,"station_id":"ce4bhgp2rcd13ifvqfd0","pricing_plan_id":"cebpf4jnsgd1na2vs0mg"},{"bike_id":"7f11dac0-b27b-408d-a7cc-bcc0c3e0137c","system_id":"levelo_inurba_marseille","lat":43.28167,"lon":5.42648,"is_reserved":false,"is_disabled":false,"rental_uris":{"android":"levelo://app?vid=7f11dac0-b27b-408d-a7cc-bcc0c3e0137c","ios":"levelo://app?vid=7f11dac0-b27b-408d-a7cc-bcc0c3e0137c"},"vehicle_type_id":"4","last_reported":1742238455,"current_range_meters":10800,"station_id":"ce4bhnh2rcd13ifvqgug","pricing_plan_id":"cebpf4jnsgd1na2vs0mg"},{"bike_id":"2665cc4b-07ed-4ae6-a66f-2b09983c709d","system_id":"levelo_inurba_marseille","lat":43.33761,"lon":5.37489,"is_reserved":false,"is_disabled":false,"rental_uris":{"android":"levelo://app?vid=2665cc4b-07ed-4ae6-a66f-2b09983c709d","ios":"levelo://app?vid=2665cc4b-07ed-4ae6-a66f-2b09983c709d"},"vehicle_type_id":"4","last_reported":1742238455,"current_range_meters":10800,"station_id":"","pricing_plan_id":"cebpf4jnsgd1na2vs0mg"},{"bike_id":"a5343c1d-a5de-406c-92a3-764110836e8f","system_id":"levelo_inurba_marseille","lat":43.29517,"lon":5.3905,"is_reserved":false,"is_disabled":false,"rental_uris":{"android":"levelo://app?vid=a5343c1d-a5de-406c-92a3-764110836e8f","ios":"levelo://app?vid=a5343c1d-a5de-406c-92a3-764110836e8f"},"vehicle_type_id":"4","last_reported":1742238455,"current_range_meters":10800,"station_id":"ce4bh3p2rcd13ifvqdp0","pricing_plan_id":"cebpf4jnsgd1na2vs0mg"},{"bike_id":"72b4107b-accc-419b-b1c2-f49ab58a640b","system_id":"levelo_inurba_marseille","lat":43.31271,"lon":5.40172,"is_reserved":false,"is_disabled":false,"rental_uris":{"android":"levelo://app?vid=72b4107b-accc-419b-b1c2-f49ab58a640b","ios":"levelo://app?vid=72b4107b-accc-419b-b1c2-f49ab58a640b"},"vehicle_type_id":"4","last_reported":1742238455,"current_range_meters":10800,"station_id":"ce4bh092rcd13ifvqd30","pricing_plan_id":"cebpf4jnsgd1na2vs0mg"},{"bike_id":"360ef78f-4235-40ab-b894-f4a3fe2ac30b","system_id":"levelo_inurba_marseille","lat":43.27499,"lon":5.42453,"is_reserved":false,"is_disabled":false,"rental_uris":{"android":"levelo://app?vid=360ef78f-4235-40ab-b894-f4a3fe2ac30b","ios":"levelo://app?vid=360ef78f-4235-40ab-b894-f4a3fe2ac30b"},"vehicle_type_id":"4","last_reported":1742238455,"current_range_meters":10800,"station_id":"ce4bhn92rcd13ifvqgrg","pricing_plan_id":"cebpf4jnsgd1na2vs0mg"},{"bike_id":"04f7ae5a-4f36-4897-b698-280d761b8bc3","system_id":"levelo_inurba_marseille","lat":43.2407,"lon":5.37764,"is_reserved":false,"is_disabled":false,"rental_uris":{"android":"levelo://app?vid=04f7ae5a-4f36-4897-b698-280d761b8bc3","ios":"levelo://app?vid=04f7ae5a-4f36-4897-b698-280d761b8bc3"},"vehicle_type_id":"4","last_reported":1742238455,"current_range_meters":10800,"station_id":"ce4bhnp2rcd13ifvqgvg","pricing_plan_id":"cebpf4jnsgd1na2vs0mg"},{"bike_id":"adf17b87-cf9d-4050-9082-7972dbb9cbde","system_id":"levelo_inurba_marseille","lat":43.25517,"lon":5.37626,"is_reserved":false,"is_disabled":false,"rental_uris":{"android":"levelo://app?vid=adf17b87-cf9d-4050-9082-7972dbb9cbde","ios":"levelo://app?vid=adf17b87-cf9d-4050-9082-7972dbb9cbde"},