{"last_updated":1679598345,"ttl":30,"version":"2.2","data":{"bikes":[{"bike_id":"4452e78e-752d-4433-87c2-f3290aff74a6","system_id":"levelo_inurba_marseille","lat":43.31223,"lon":5.36864,"is_reserved":false,"is_disabled":false,"rental_uris":{"android":"levelo://app?vid=4452e78e-752d-4433-87c2-f3290aff74a6","ios":"levelo://app?vid=4452e78e-752d-4433-87c2-f3290aff74a6"},"vehicle_type_id":"4","last_reported":1679598346,"current_range_meters":13600,"station_id":"ce4bgl92rcd13ifvqbq0","pricing_plan_id":"free"},{"bike_id":"0e298cba-2425-4160-ae0e-ae024230a22a","system_id":"levelo_inurba_marseille","lat":43.309124,"lon":5.368565,"is_reserved":false,"is_disabled":false,"rental_uris":{"android":"levelo://app?vid=0e298cba-2425-4160-ae0e-ae024230a22a","ios":"levelo://app?vid=0e298cba-2425-4160-ae0e-ae024230a22a"},"vehicle_type_id":"4","last_reported":1679598346,"current_range_meters":0,"station_id":"ce4bgn92rcd13ifvqbvg","pricing_plan_id":"free"},{"bike_id":"c25a287b-9357-4707-9931-2ca30d95d1db","system_id":"levelo_inurba_marseille","lat":43.314811,"lon":5.373103,"is_reserved":false,"is_disabled":false,"rental_uris":{"android":"levelo://app?vid=c25a287b-9357-4707-9931-2ca30d95d1db","ios":"levelo://app?vid=c25a287b-9357-4707-9931-2ca30d95d1db"},"vehicle_type_id":"4","last_reported":1679598346,"current_range_meters":5200,"station_id":"ce4bgt12rcd13ifvqcd0","pricing_plan_id":"free"},{"bike_id":"f283d995-b9e6-4826-a3b2-9a8d926d50b3","system_id":"levelo_inurba_marseille","lat":43.314811,"lon":5.373103,"is_reserved":false,"is_disabled":false,"rental_uris":{"android":"levelo://app?vid=f283d995-b9e6-4826-a3b2-9a8d926d50b3","ios":"levelo://app?vid=f283d995-b9e6-4826-a3b2-9a8d926d50b3"},"vehicle_type_id":"4","last_reported":1679598346,"current_range_meters":31600,"station_id":"ce4bgt12rcd13ifvqcd0","pricing_plan_id":"free"},{"bike_id":"ec4a4a2d-89e3-4784-baf3-1025230f4108","system_id":"levelo_inurba_marseille","lat":43.314811,"lon":5.373103,"is_reserved":false,"is_disabled":false,"rental_uris":{"android":"levelo://app?vid=ec4a4a2d-89e3-4784-baf3-1025230f4108","ios":"levelo://app?vid=ec4a4a2d-89e3-4784-baf3-1025230f4108"},"vehicle_type_id":"4","last_reported":1679598346,"current_range_meters":21600,"station_id":"ce4bgt12rcd13ifvqcd0","pricing_plan_id":"free"},{"bike_id":"06fe4828-a76e-402d-bb54-f38dc4800ab1","system_id":"levelo_inurba_marseille","lat":43.314811,"lon":5.373103,"is_reserved":false,"is_disabled":false,"rental_uris":{"android":"levelo://app?vid=06fe4828-a76e-402d-bb54-f38dc4800ab1","ios":"levelo://app?vid=06fe4828-a76e-402d-bb54-f38dc4800ab1"},"vehicle_type_id":"4","last_reported":1679598346,"current_range_meters":11200,"station_id":"ce4bgt12rcd13ifvqcd0","pricing_plan_id":"free"},{"bike_id":"b9f636ae-e379-4980-a979-c6551b973771","system_id":"levelo_inurba_marseille","lat":43.314811,"lon":5.373104,"is_reserved":false,"is_disabled":false,"rental_uris":{"android":"levelo://app?vid=b9f636ae-e379-4980-a979-c6551b973771","ios":"levelo://app?vid=b9f636ae-e379-4980-a979-c6551b973771"},"vehicle_type_id":"4","last_reported":1679598346,"current_range_meters":16400,"station_id":"ce4bgt12rcd13ifvqcd0","pricing_plan_id":"free"},{"bike_id":"36246f39-8b69-43c3-8812-e081cca725c2","system_id":"levelo_inurba_marseille","lat":43.314811,"lon":5.373104,"is_reserved":false,"is_disabled":false,"rental_uris":{"android":"levelo://app?vid=36246f39-8b69-43c3-8812-e081cca725c2","ios":"levelo://app?vid=36246f39-8b69-43c3-8812-e081cca725c2"},"vehicle_type_id":"4","last_reported":1679598346,"current_range_meters":27600,"station_id":"ce4bgt12rcd13ifvqcd0","pricing_plan_id":"free"},{"bike_id":"f6bbe952-df01-4d1d-9833-e1755ae8e847","system_id":"levelo_inurba_marseille","lat":43.3053,"lon":5.36698,"is_reserved":false,"is_disabled":false,"rental_uris":{"android":"levelo://app?vid=f6bbe952-df01-4d1d-9833-e1755ae8e847","ios":"levelo://app?vid=f6bbe952-df01-4d1d-9833-e1755ae8e847"},"vehicle_type_id":"4","last_reported":1679598346,"current_range_meters":22800,"station_id":"","pricing_plan_id":"free"},{"bike_id":"0f11ad5c-1f25-4e69-a9e8-db4f42253d88","system_id":"levelo_inurba_marseille","lat":43.305989,"lon":5.37225,"is_reserved":false,"is_disabled":false,"rental_uris":{"android":"levelo://app?vid=0f11ad5c-1f25-4e69-a9e8-db4f42253d88","ios":"levelo://app?vid=0f11ad5c-1f25-4e69-a9e8-db4f42253d88"},"vehicle_type_id":"4","last_reported":1679598346,"current_range_meters":10000,"station_id":"ce4bgqh2rcd13ifvqc4g","pricing_plan_id":"free"},{"bike_id":"db5a8261-858b-4009-b53a-17cfb1789c41","system_id":"levelo_inurba_marseille","lat":43.305989,"lon":5.37225,"is_reserved":false,"is_disabled":false,"rental_uris":{"android":"levelo://app?vid=db5a8261-858b-4009-b53a-17cfb1789c41","ios":"levelo://app?vid=db5a8261-858b-4009-b53a-17cfb1789c41"},"vehicle_type_id":"4","last_reported":1679598346,"current_range_meters":8800,"station_id":"ce4bgqh2rcd13ifvqc4g","pricing_plan_id":"free"},{"bike_id":"286e1428-82d4-4b2f-97e1-6799be40b1fe","system_id":"levelo_inurba_marseille","lat":43.317075,"lon":5.377367,"is_reserved":false,"is_disabled":false,"rental_uris":{"android":"levelo://app?vid=286e1428-82d4-4b2f-97e1-6799be40b1fe","ios":"levelo://app?vid=286e1428-82d4-4b2f-97e1-6799be40b1fe"},"vehicle_type_id":"4","last_reported":1679598346,"current_range_meters":30400,"station_id":"ce4bgth2rcd13ifvqch0","pricing_plan_id":"free"},{"bike_id":"080280c9-6ce2-4532-b092-83ea7831b260","system_id":"levelo_inurba_marseille","lat":43.301939,"lon":5.366286,"is_reserved":false,"is_disabled":false,"rental_uris":{"android":"levelo://app?vid=080280c9-6ce2-4532-b092-83ea7831b260","ios":"levelo://app?vid=080280c9-6ce2-4532-b092-83ea7831b260"},"vehicle_type_id":"4","last_reported":1679598346,"current_range_meters":5200,"station_id":"ce4bgrh2rcd13ifvqc8g","pricing_plan_id":"free"},{"bike_id":"c8899943-9dd2-453d-9a3f-f914520aa23d","system_id":"levelo_inurba_marseille","lat":43.30806,"lon":5.38145,"is_reserved":false,"is_disabled":false,"rental_uris":{"android":"levelo://app?vid=c8899943-9dd2-453d-9a3f-f914520aa23d","ios":"levelo://app?vid=c8899943-9dd2-453d-9a3f-f914520aa23d"},"vehicle_type_id":"4","last_reported":1679598346,"current_range_meters":2000,"station_id":"","pricing_plan_id":"free"},{"bike_id":"29c93c65-b750-4778-9dac-5f7e4c05cd49","system_id":"levelo_inurba_marseille","lat":43.30806,"lon":5.38152,"is_reserved":false,"is_disabled":false,"rental_uris":{"android":"levelo://app?vid=29c93c65-b750-4778-9dac-5f7e4c05cd49","ios":"levelo://app?vid=29c93c65-b750-4778-9dac-5f7e4c05cd49"},"vehicle_type_id":"4","last_reported":1679598346,"current_range_meters":6800,"station_id":"","pricing_plan_id":"free"},{"bike_id":"79533bf6-a5b8-465e-8d99-d3cd2a90e9c4","system_id":"levelo_inurba_marseille","lat":43.30807,"lon":5.38154,"is_reserved":false,"is_disabled":false,"rental_uris":{"android":"levelo://app?vid=79533bf6-a5b8-465e-8d99-d3cd2a90e9c4","ios":"levelo://app?vid=79533bf6-a5b8-465e-8d99-d3cd2a90e9c4"},"vehicle_type_id":"4","last_reported":1679598346,"current_range_meters":24000,"station_id":"","pricing_plan_id":"free"},{"bike_id":"cf3c9eff-7f67-42da-97f8-b7e565ecf0b8","system_id":"levelo_inurba_marseille","lat":43.304606,"lon":5.379026,"is_reserved":false,"is_disabled":false,"rental_uris":{"android":"levelo://app?vid=cf3c9eff-7f67-42da-97f8-b7e565ecf0b8","ios":"levelo://app?vid=cf3c9eff-7f67-42da-97f8-b7e565ecf0b8"},"vehicle_type_id":"4","last_reported":1679598346,"current_range_meters":8000,"station_id":"ce4bgup2rcd13ifvqcn0","pricing_plan_id":"free"},{"bike_id":"d830b34d-525e-4867-afe9-c61e670ca2e1","system_id":"levelo_inurba_marseille","lat":43.304606,"lon":5.379026,"is_reserved":false,"is_disabled":false,"rental_uris":{"android":"levelo://app?vid=d830b34d-525e-4867-afe9-c61e670ca2e1","ios":"levelo://app?vid=d830b34d-525e-4867-afe9-c61e670ca2e1"},"vehicle_type_id":"4","last_reported":1679598346,"current_range_meters":12400,"station_id":"ce4bgup2rcd13ifvqcn0","pricing_plan_id":"free"},{"bike_id":"81fc9856-52be-41ee-8e7f-24c1706b295c","system_id":"levelo_inurba_marseille","lat":43.317098,"lon":5.382666,"is_reserved":false,"is_disabled":false,"rental_uris":{"android":"levelo://app?vid=81fc9856-52be-41ee-8e7f-24c1706b295c","ios":"levelo://app?vid=81fc9856-52be-41ee-8e7f-24c1706b295c"},"vehicle_type_id":"4","last_reported":1679598346,"current_range_meters":26400,"station_id":"","pricing_plan_id":"free"},{"bike_id":"c4127fd8-fb28-441d-ba13-acae95598d7f","system_id":"levelo_inurba_marseille","lat":43.298433,"lon":5.362774,"is_reserved":false,"is_disabled":false,"rental_uris":{"android":"levelo://app?vid=c4127fd8-fb28-441d-ba13-acae95598d7f","ios":"levelo://app?vid=c4127fd8-fb28-441d-ba13-acae95598d7f"},"vehicle_type_id":"4","last_reported":1679598346,"current_range_meters":1600,"station_id":"ce4bgpp2rcd13ifvqc3g","pricing_plan_id":"free"},{"bike_id":"03bab80b-1cfc-4dfc-91d0-cdae87d049fe","system_id":"levelo_inurba_marseille","lat":43.29777,"lon":5.37097,"is_reserved":false,"is_disabled":false,"rental_uris":{"android":"levelo://app?vid=03bab80b-1cfc-4dfc-91d0-cdae87d049fe","ios":"levelo://app?vid=03bab80b-1cfc-4dfc-91d0-cdae87d049fe"},"vehicle_type_id":"4","last_reported":1679598346,"current_range_meters":24800,"station_id":"","pricing_plan_id":"free"},{"bike_id":"f7691af6-ac9e-437e-9484-6ace8c80eb3e","system_id":"levelo_inurba_marseille","lat":43.32824,"lon":5.36687,"is_reserved":false,"is_disabled":false,"rental_uris":{"android":"levelo://app?vid=f7691af6-ac9e-437e-9484-6ace8c80eb3e","ios":"levelo://app?vid=f7691af6-ac9e-437e-9484-6ace8c80eb3e"},"vehicle_type_id":"4","last_reported":1679598346,"current_range_meters":24000,"station_id":"","pricing_plan_id":"free"},{"bike_id":"29d441a8-b324-4042-a94f-1c7d2fbc0aa6","system_id":"levelo_inurba_marseille","lat":43.328255,"lon":5.366837,"is_reserved":false,"is_disabled":false,"rental_uris":{"android":"levelo://app?vid=29d441a8-b324-4042-a94f-1c7d2fbc0aa6","ios":"levelo://app?vid=29d441a8-b324-4042-a94f-1c7d2fbc0aa6"},"vehicle_type_id":"4","last_reported":1679598346,"current_range_meters":4800,"station_id":"","pricing_plan_id":"free"},{"bike_id":"fb6f7b08-bc42-4165-b956-beb676ea46b4","system_id":"levelo_inurba_marseille","lat":43.328371,"lon":5.366912,"is_reserved":false,"is_disabled":false,"rental_uris":{"android":"levelo://app?vid=fb6f7b08-bc42-4165-b956-beb676ea46b4","ios":"levelo://app?vid=fb6f7b08-bc42-4165-b956-beb676ea46b4"},"vehicle_type_id":"4","last_reported":1679598346,"current_range_meters":0,"station_id":"ce4bhs92rcd13ifvqi0g","pricing_plan_id":"free"},{"bike_id":"4ea7ed39-74a3-4585-9279-23153bb9941a","system_id":"levelo_inurba_marseille","lat":43.298037,"lon":5.381066,"is_reserved":false,"is_disabled":false,"rental_uris":{"android":"levelo://app?vid=4ea7ed39-74a3-4585-9279-23153bb9941a","ios":"levelo://app?vid=4ea7ed39-74a3-4585-9279-23153bb9941a"},"vehicle_type_id":"4","last_reported":1679598346,"current_range_meters":0,"station_id":"ce4bgip2rcd13ifvqbb0","pricing_plan_id":"free"},{"bike_id":"950a0dd0-1684-4825-a993-221ad8a957de","system_id":"levelo_inurba_marseille","lat":43.29576,"lon":5.37519,"is_reserved":false,"is_disabled":false,"rental_uris":{"android":"levelo://app?vid=950a0dd0-1684-4825-a993-221ad8a957de","ios":"levelo://app?vid=950a0dd0-1684-4825-a993-221ad8a957de"},"vehicle_type_id":"4","last_reported":1679598346,"current_range_meters":3600,"station_id":"ce4bgh92rcd13ifvqb50","pricing_plan_id":"free"},{"bike_id":"9a6b8d28-3f8b-4a4e-a065-f39ad4be72fc","system_id":"levelo_inurba_marseille","lat":43.29792,"lon":5.381,"is_reserved":false,"is_disabled":false,"rental_uris":{"android":"levelo://app?vid=9a6b8d28-3f8b-4a4e-a065-f39ad4be72fc","ios":"levelo://app?vid=9a6b8d28-3f8b-4a4e-a065-f39ad4be72fc"},"vehicle_type_id":"4","last_reported":1679598346,"current_range_meters":0,"station_id":"ce4bgip2rcd13ifvqbb0","pricing_plan_id":"free"},{"bike_id":"eadc5dcd-ff95-4704-969c-7eaa454f68d7","system_id":"levelo_inurba_marseille","lat":43.295748,"lon":5.37522,"is_reserved":false,"is_disabled":false,"rental_uris":{"android":"levelo://app?vid=eadc5dcd-ff95-4704-969c-7eaa454f68d7","ios":"levelo://app?vid=eadc5dcd-ff95-4704-969c-7eaa454f68d7"},"vehicle_type_id":"4","last_reported":1679598346,"current_range_meters":0,"station_id":"ce4bgh92rcd13ifvqb50","pricing_plan_id":"free"},{"bike_id":"85ca5476-8941-4954-8154-ea5e1abbc799","system_id":"levelo_inurba_marseille","lat":43.295748,"lon":5.37522,"is_reserved":false,"is_disabled":false,"rental_uris":{"android":"levelo://app?vid=85ca5476-8941-4954-8154-ea5e1abbc799","ios":"levelo://app?vid=85ca5476-8941-4954-8154-ea5e1abbc799"},"vehicle_type_id":"4","last_reported":1679598346,"current_range_meters":24000,"station_id":"ce4bgh92rcd13ifvqb50","pricing_plan_id":"free"},{"bike_id":"2c22062d-4c60-4fe5-8fdf-44c836de0386","system_id":"levelo_inurba_marseille","lat":43.298037,"lon":5.381066,"is_reserved":false,"is_disabled":false,"rental_uris":{"android":"levelo://app?vid=2c22062d-4c60-4fe5-8fdf-44c836de0386","ios":"levelo://app?vid=2c22062d-4c60-4fe5-8fdf-44c836de0386"},"vehicle_type_id":"4","last_reported":1679598346,"current_range_meters":0,"station_id":"ce4bgip2rcd13ifvqbb0","pricing_plan_id":"free"},{"bike_id":"1463c6b0-ad1f-4ba5-bcde-4e1b02095ce5","system_id":"levelo_inurba_marseille","lat":43.299707,"lon":5.384859,"is_reserved":false,"is_disabled":false,"rental_uris":{"android":"levelo://app?vid=1463c6b0-ad1f-4ba5-bcde-4e1b02095ce5","ios":"levelo://app?vid=1463c6b0-ad1f-4ba5-bcde-4e1b02095ce5"},"vehicle_type_id":"4","last_reported":1679598346,"current_range_meters":0,"station_id":"ce4bgj92rcd13ifvqbd0","pricing_plan_id":"free"},{"bike_id":"76f46ea9-95d7-4a68-89cd-ed088d602c61","system_id":"levelo_inurba_marseille","lat":43.32367,"lon":5.388836,"is_reserved":false,"is_disabled":false,"rental_uris":{"android":"levelo://app?vid=76f46ea9-95d7-4a68-89cd-ed088d602c61","ios":"levelo://app?vid=76f46ea9-95d7-4a68-89cd-ed088d602c61"},"vehicle_type_id":"4","last_reported":1679598346,"current_range_meters":11600,"station_id":"ce4bhqp2rcd13ifvqhog","pricing_plan_id":"free"},{"bike_id":"43cbe698-248f-4495-a950-b368ef898685","system_id":"levelo_inurba_marseille","lat":43.29384,"lon":5.37359,"is_reserved":false,"is_disabled":false,"rental_uris":{"android":"levelo://app?vid=43cbe698-248f-4495-a950-b368ef898685","ios":"levelo://app?vid=43cbe698-248f-4495-a950-b368ef898685"},"vehicle_type_id":"4","last_reported":1679598346,"current_range_meters":0,"station_id":"","pricing_plan_id":"free"},{"bike_id":"f57b0c5d-bb84-4044-823a-0c62cac6510c","system_id":"levelo_inurba_marseille","lat":43.293009,"lon":5.374584,"is_reserved":false,"is_disabled":false,"rental_uris":{"android":"levelo://app?vid=f57b0c5d-bb84-4044-823a-0c62cac6510c","ios":"levelo://app?vid=f57b0c5d-bb84-4044-823a-0c62cac6510c"},"vehicle_type_id":"4","last_reported":1679598346,"current_range_meters":0,"station_id":"ce4bgi12rcd13ifvqb70","pricing_plan_id":"free"},{"bike_id":"59f5df2f-e5f7-4422-a28f-ad4ef85a4356","system_id":"levelo_inurba_marseille","lat":43.292311,"lon":5.360731,"is_reserved":false,"is_disabled":false,"rental_uris":{"android":"levelo://app?vid=59f5df2f-e5f7-4422-a28f-ad4ef85a4356","ios":"levelo://app?vid=59f5df2f-e5f7-4422-a28f-ad4ef85a4356"},"vehicle_type_id":"4","last_reported":1679598346,"current_range_meters":1200,"station_id":"ce4bhbh2rcd13ifvqeqg","pricing_plan_id":"free"},{"bike_id":"ab536f85-bdc1-48ed-a544-37ef3849a8fb","system_id":"levelo_inurba_marseille","lat":43.313291,"lon":5.396838,"is_reserved":false,"is_disabled":false,"rental_uris":{"android":"levelo://app?vid=ab536f85-bdc1-48ed-a544-37ef3849a8fb","ios":"levelo://app?vid=ab536f85-bdc1-48ed-a544-37ef3849a8fb"},"vehicle_type_id":"4","last_reported":1679598346,"current_range_meters":10400,"station_id":"ce4bgvp2rcd13ifvqcu0","pricing_plan_id":"free"},{"bike_id":"8794be6a-556a-4953-92e6-106e66c3bf76","system_id":"levelo_inurba_marseille","lat":43.313291,"lon":5.396838,"is_reserved":false,"is_disabled":false,"rental_uris":{"android":"levelo://app?vid=8794be6a-556a-4953-92e6-106e66c3bf76","ios":"levelo://app?vid=8794be6a-556a-4953-92e6-106e66c3bf76"},"vehicle_type_id":"4","last_reported":1679598346,"current_range_meters":5200,"station_id":"ce4bgvp2rcd13ifvqcu0","pricing_plan_id":"free"},{"bike_id":"40480e2c-ba4e-47aa-8388-12b70699d54d","system_id":"levelo_inurba_marseille","lat":43.313291,"lon":5.396838,"is_reserved":false,"is_disabled":false,"rental_uris":{"android":"levelo://app?vid=40480e2c-ba4e-47aa-8388-12b70699d54d","ios":"levelo://app?vid=40480e2c-ba4e-47aa-8388-12b70699d54d"},"vehicle_type_id":"4","last_reported":1679598346,"current_range_meters":26400,"station_id":"ce4bgvp2rcd13ifvqcu0","pricing_plan_id":"free"},{"bike_id":"df0318b9-33cc-4e69-b90f-1e8054b10423","system_id":"levelo_inurba_marseille","lat":43.309038,"lon":5.396546,"is_reserved":false,"is_disabled":false,"rental_uris":{"android":"levelo://app?vid=df0318b9-33cc-4e69-b90f-1e8054b10423","ios":"levelo://app?vid=df0318b9-33cc-4e69-b90f-1e8054b10423"},"vehicle_type_id":"4","last_reported":1679598346,"current_range_meters":24000,"station_id":"ce4bh012rcd13ifvqcv0","pricing_plan_id":"free"},{"bike_id":"6f0a5061-abbc-497b-8989-e6c53bbc5bb2","system_id":"levelo_inurba_marseille","lat":43.313291,"lon":5.396838,"is_reserved":false,"is_disabled":false,"rental_uris":{"android":"levelo://app?vid=6f0a5061-abbc-497b-8989-e6c53bbc5bb2","ios":"levelo://app?vid=6f0a5061-abbc-497b-8989-e6c53bbc5bb2"},"vehicle_type_id":"4","last_reported":1679598346,"current_range_meters":6000,"station_id":"ce4bgvp2rcd13ifvqcu0","pricing_plan_id":"free"},{"bike_id":"77107b6d-435b-4db7-9245-b2c3d5266d15","system_id":"levelo_inurba_marseille","lat":43.313291,"lon":5.396838,"is_reserved":false,"is_disabled":false,"rental_uris":{"android":"levelo://app?vid=77107b6d-435b-4db7-9245-b2c3d5266d15","ios":"levelo://app?vid=77107b6d-435b-4db7-9245-b2c3d5266d15"},"vehicle_type_id":"4","last_reported":1679598346,"current_range_meters":19200,"station_id":"ce4bgvp2rcd13ifvqcu0","pricing_plan_id":"free"},{"bike_id":"963aabd7-bba0-4d55-a5a6-c4ae3f6bd936","system_id":"levelo_inurba_marseille","lat":43.302008,"lon":5.394694,"is_reserved":false,"is_disabled":false,"rental_uris":{"android":"levelo://app?vid=963aabd7-bba0-4d55-a5a6-c4ae3f6bd936","ios":"levelo://app?vid=963aabd7-bba0-4d55-a5a6-c4ae3f6bd936"},"vehicle_type_id":"4","last_reported":1679598346,"current_range_meters":6400,"station_id":"ce4bh0p2rcd13ifvqd70","pricing_plan_id":"free"},{"bike_id":"cc3c384c-5ba1-4996-b29f-314232117acb","system_id":"levelo_inurba_marseille","lat":43.329423,"lon":5.389248,"is_reserved":false,"is_disabled":false,"rental_uris":{"android":"levelo://app?vid=cc3c384c-5ba1-4996-b29f-314232117acb","ios":"levelo://app?vid=cc3c384c-5ba1-4996-b29f-314232117acb"},"vehicle_type_id":"4","last_reported":1679598346,"current_range_meters":0,"station_id":"","pricing_plan_id":"free"},{"bike_id":"242769d3-fdfb-4a5f-a581-59550aacdf06","system_id":"levelo_inurba_marseille","lat":43.289468,"lon":5.363719,"is_reserved":false,"is_disabled":false,"rental_uris":{"android":"levelo://app?vid=242769d3-fdfb-4a5f-a581-59550aacdf06","ios":"levelo://app?vid=242769d3-fdfb-4a5f-a581-59550aacdf06"},"vehicle_type_id":"4","last_reported":1679598346,"current_range_meters":800,"station_id":"ce4bhc92rcd13ifvqetg","pricing_plan_id":"free"},{"bike_id":"63204a07-8dc8-4af5-bafc-aabf0105301e","system_id":"levelo_inurba_marseille","lat":43.294046,"lon":5.386392,"is_reserved":false,"is_disabled":false,"rental_uris":{"android":"levelo://app?vid=63204a07-8dc8-4af5-bafc-aabf0105301e","ios":"levelo://app?vid=63204a07-8dc8-4af5-bafc-aabf0105301e"},"vehicle_type_id":"4","last_reported":1679598346,"current_range_meters":9600,"station_id":"ce4bh2h2rcd13ifvqdh0","pricing_plan_id":"free"},{"bike_id":"f0e20579-63ec-47e4-b47e-747d03e8cfa2","system_id":"levelo_inurba_marseille","lat":43.304246,"lon":5.39745,"is_reserved":false,"is_disabled":false,"rental_uris":{"android":"levelo://app?vid=f0e20579-63ec-47e4-b47e-747d03e8cfa2","ios":"levelo://app?vid=f0e20579-63ec-47e4-b47e-747d03e8cfa2"},"vehicle_type_id":"4","last_reported":1679598346,"current_range_meters":0,"station_id":"","pricing_plan_id":"free"},{"bike_id":"29b8605b-dcf1-4048-b109-f85b7816a61b","system_id":"levelo_inurba_marseille","lat":43.330442,"lon":5.389148,"is_reserved":false,"is_disabled":false,"rental_uris":{"android":"levelo://app?vid=29b8605b-dcf1-4048-b109-f85b7816a61b","ios":"levelo://app?vid=29b8605b-dcf1-4048-b109-f85b7816a61b"},"vehicle_type_id":"4","last_reported":1679598346,"current_range_meters":25600,"station_id":"ce4bhr92rcd13ifvqhrg","pricing_plan_id":"free"},{"bike_id":"bb130c91-cca5-4e03-9014-a2e58dae184c","system_id":"levelo_inurba_marseille","lat":43.33044,"lon":5.38917,"is_reserved":false,"is_disabled":false,"rental_uris":{"android":"levelo://app?vid=bb130c91-cca5-4e03-9014-a2e58dae184c","ios":"levelo://app?vid=bb130c91-cca5-4e03-9014-a2e58dae184c"},"vehicle_type_id":"4","last_reported":1679598346,"current_range_meters":8800,"station_id":"ce4bhr92rcd13ifvqhrg","pricing_plan_id":"free"},{"bike_id":"0a9a3467-e647-4683-8793-824bbe32df3d","system_id":"levelo_inurba_marseille","lat":43.290104,"lon":5.356111,"is_reserved":false,"is_disabled":false,"rental_uris":{"android":"levelo://app?vid=0a9a3467-e647-4683-8793-824bbe32df3d","ios":"levelo://app?vid=0a9a3467-e647-4683-8793-824bbe32df3d"},"vehicle_type_id":"4","last_reported":1679598346,"current_range_meters":22400,"station_id":"ce4bhb92rcd13ifvqen0","pricing_plan_id":"free"},{"bike_id":"4a1fc3c2-36b9-48f7-a951-5b46ca5cb61a","system_id":"levelo_inurba_marseille","lat":43.29099,"lon":5.38131,"is_reserved":false,"is_disabled":false,"rental_uris":{"android":"levelo://app?vid=4a1fc3c2-36b9-48f7-a951-5b46ca5cb61a","ios":"levelo://app?vid=4a1fc3c2-36b9-48f7-a951-5b46ca5cb61a"},"vehicle_type_id":"4","last_reported":1679598346,"current_range_meters":0,"station_id":"ce4bh512rcd13ifvqe2g","pricing_plan_id":"free"},{"bike_id":"55922038-a4b7-463f-8d8a-bf004ac9749b","system_id":"levelo_inurba_marseille","lat":43.289743,"lon":5.378304,"is_reserved":false,"is_disabled":false,"rental_uris":{"android":"levelo://app?vid=55922038-a4b7-463f-8d8a-bf004ac9749b","ios":"levelo://app?vid=55922038-a4b7-463f-8d8a-bf004ac9749b"},"vehicle_type_id":"4","last_reported":1679598346,"current_range_meters":0,"station_id":"ce4bh9p2rcd13ifvqed0","pricing_plan_id":"free"},{"bike_id":"6c73330f-79d9-47d1-b7ca-1ff64a82266a","system_id":"levelo_inurba_marseille","lat":43.295169,"lon":5.390426,"is_reserved":false,"is_disabled":false,"rental_uris":{"android":"levelo://app?vid=6c73330f-79d9-47d1-b7ca-1ff64a82266a","ios":"levelo://app?vid=6c73330f-79d9-47d1-b7ca-1ff64a82266a"},"vehicle_type_id":"4","last_reported":1679598346,"current_range_meters":0,"station_id":"ce4bh3p2rcd13ifvqdp0","pricing_plan_id":"free"},{"bike_id":"9ac7d59c-af18-417f-85cf-ee0f20831914","system_id":"levelo_inurba_marseille","lat":43.295169,"lon":5.390426,"is_reserved":false,"is_disabled":false,"rental_uris":{"android":"levelo://app?vid=9ac7d59c-af18-417f-85cf-ee0f20831914","ios":"levelo://app?vid=9ac7d59c-af18-417f-85cf-ee0f20831914"},"vehicle_type_id":"4","last_reported":1679598346,"current_range_meters":400,"station_id":"ce4bh3p2rcd13ifvqdp0","pricing_plan_id":"free"},{"bike_id":"3349992d-c28e-4919-8a7c-63b124f59190","system_id":"levelo_inurba_marseille","lat":43.28856,"lon":5.358371,"is_reserved":false,"is_disabled":false,"rental_uris":{"android":"levelo://app?vid=3349992d-c28e-4919-8a7c-63b124f59190","ios":"levelo://app?vid=3349992d-c28e-4919-8a7c-63b124f59190"},"vehicle_type_id":"4","last_reported":1679598346,"current_range_meters":29200,"station_id":"ce4bhb12rcd13ifvqem0","pricing_plan_id":"free"},{"bike_id":"8c3365ac-e7be-4d50-9952-fb489d25d173","system_id":"levelo_inurba_marseille","lat":43.28856,"lon":5.358371,"is_reserved":false,"is_disabled":false,"rental_uris":{"android":"levelo://app?vid=8c3365ac-e7be-4d50-9952-fb489d25d173","ios":"levelo://app?vid=8c3365ac-e7be-4d50-9952-fb489d25d173"},"vehicle_type_id":"4","last_reported":1679598346,"current_range_meters":22400,"station_id":"ce4bhb12rcd13ifvqem0","pricing_plan_id":"free"},{"bike_id":"fc8d5775-edde-4f57-9862-6be763e016af","system_id":"levelo_inurba_marseille","lat":43.286593,"lon":5.363346,"is_reserved":false,"is_disabled":false,"rental_uris":{"android":"levelo://app?vid=fc8d5775-edde-4f57-9862-6be763e016af","ios":"levelo://app?vid=fc8d5775-edde-4f57-9862-6be763e016af"},"vehicle_type_id":"4","last_reported":1679598346,"current_range_meters":28400,"station_id":"ce4bhah2rcd13ifvqej0","pricing_plan_id":"free"},{"bike_id":"592dd5d4-533e-47d3-8847-85562a51f269","system_id":"levelo_inurba_marseille","lat":43.302759,"lon":5.400793,"is_reserved":false,"is_disabled":false,"rental_uris":{"android":"levelo://app?vid=592dd5d4-533e-47d3-8847-85562a51f269","ios":"levelo://app?vid=592dd5d4-533e-47d3-8847-85562a51f269"},"vehicle_type_id":"4","last_reported":1679598346,"current_range_meters":26000,"station_id":"ce4bgvh2rcd13ifvqcs0","pricing_plan_id":"free"},{"bike_id":"2759558d-0e8f-4bd8-aaa9-1869ce4fd6c2","system_id":"levelo_inurba_marseille","lat":43.302606,"lon":5.400781,"is_reserved":false,"is_disabled":false,"rental_uris":{"android":"levelo://app?vid=2759558d-0e8f-4bd8-aaa9-1869ce4fd6c2","ios":"levelo://app?vid=2759558d-0e8f-4bd8-aaa9-1869ce4fd6c2"},"vehicle_type_id":"4","last_reported":1679598346,"current_range_meters":28000,"station_id":"ce4bhp92rcd13ifvqhbg","pricing_plan_id":"free"},{"bike_id":"4a153c40-a684-4983-8c06-5774a21ddae5","system_id":"levelo_inurba_marseille","lat":43.30242,"lon":5.40069,"is_reserved":false,"is_disabled":false,"rental_uris":{"android":"levelo://app?vid=4a153c40-a684-4983-8c06-5774a21ddae5","ios":"levelo://app?vid=4a153c40-a684-4983-8c06-5774a21ddae5"},"vehicle_type_id":"4","last_reported":1679598346,"current_range_meters":13600,"station_id":"","pricing_plan_id":"free"},{"bike_id":"ef241475-17bb-4e51-b3d3-07e0e07b7f94","system_id":"levelo_inurba_marseille","lat":43.316517,"lon":5.404375,"is_reserved":false,"is_disabled":false,"rental_uris":{"android":"levelo://app?vid=ef241475-17bb-4e51-b3d3-07e0e07b7f94","ios":"levelo://app?vid=ef241475-17bb-4e51-b3d3-07e0e07b7f94"},"vehicle_type_id":"4","last_reported":1679598346,"current_range_meters":0,"station_id":"ce4bh012rcd13ifvqd00","pricing_plan_id":"free"},{"bike_id":"532e06d0-48d8-4cb5-8540-1271737f1f78","system_id":"levelo_inurba_marseille","lat":43.28707,"lon":5.35204,"is_reserved":false,"is_disabled":false,"rental_uris":{"android":"levelo://app?vid=532e06d0-48d8-4cb5-8540-1271737f1f78","ios":"levelo://app?vid=532e06d0-48d8-4cb5-8540-1271737f1f78"},"vehicle_type_id":"4","last_reported":1679598346,"current_range_meters":2400,"station_id":"","pricing_plan_id":"free"},{"bike_id":"a38bb5cd-fbeb-4f2b-bd46-95631cc56c89","system_id":"levelo_inurba_marseille","lat":43.295583,"lon":5.397191,"is_reserved":false,"is_disabled":false,"rental_uris":{"android":"levelo://app?vid=a38bb5cd-fbeb-4f2b-bd46-95631cc56c89","ios":"levelo://app?vid=a38bb5cd-fbeb-4f2b-bd46-95631cc56c89"},"vehicle_type_id":"4","last_reported":1679598346,"current_range_meters":0,"station_id":"","pricing_plan_id":"free"},{"bike_id":"2b616fb3-1a49-4ce4-bc9f-692469809c25","system_id":"levelo_inurba_marseille","lat":43.28674,"lon":5.38667,"is_reserved":false,"is_disabled":false,"rental_uris":{"android":"levelo://app?vid=2b616fb3-1a49-4ce4-bc9f-692469809c25","ios":"levelo://app?vid=2b616fb3-1a49-4ce4-bc9f-692469809c25"},"vehicle_type_id":"4","last_reported":1679598346,"current_range_meters":0,"station_id":"ce4bh492rcd13ifvqdug","pricing_plan_id":"free"},{"bike_id":"8b0ef171-430e-4fd0-984c-bfad1b708183","system_id":"levelo_inurba_marseille","lat":43.286595,"lon":5.386795,"is_reserved":false,"is_disabled":false,"rental_uris":{"android":"levelo://app?vid=8b0ef171-430e-4fd0-984c-bfad1b708183","ios":"levelo://app?vid=8b0ef171-430e-4fd0-984c-bfad1b708183"},"vehicle_type_id":"4","last_reported":1679598346,"current_range_meters":0,"station_id":"ce4bh492rcd13ifvqdug","pricing_plan_id":"free"},{"bike_id":"b3070623-2c46-4015-a1bb-ea12e627c45f","system_id":"levelo_inurba_marseille","lat":43.33724,"lon":5.39186,"is_reserved":false,"is_disabled":false,"rental_uris":{"android":"levelo://app?vid=b3070623-2c46-4015-a1bb-ea12e627c45f","ios":"levelo://app?vid=b3070623-2c46-4015-a1bb-ea12e627c45f"},"vehicle_type_id":"4","last_reported":1679598346,"current_range_meters":2400,"station_id":"","pricing_plan_id":"free"},{"bike_id":"daa63aab-f432-4668-a07a-2b2186ae6c54","system_id":"levelo_inurba_marseille","lat":43.323464,"lon":5.406297,"is_reserved":false,"is_disabled":false,"rental_uris":{"android":"levelo://app?vid=daa63aab-f432-4668-a07a-2b2186ae6c54","ios":"levelo://app?vid=daa63aab-f432-4668-a07a-2b2186ae6c54"},"vehicle_type_id":"4","last_reported":1679598346,"current_range_meters":25200,"station_id":"ce4bhq92rcd13ifvqhjg","pricing_plan_id":"free"},{"bike_id":"7ba678c5-9d0f-4021-86fb-0c9e5fab7471","system_id":"levelo_inurba_marseille","lat":43.323464,"lon":5.406297,"is_reserved":false,"is_disabled":false,"rental_uris":{"android":"levelo://app?vid=7ba678c5-9d0f-4021-86fb-0c9e5fab7471","ios":"levelo://app?vid=7ba678c5-9d0f-4021-86fb-0c9e5fab7471"},"vehicle_type_id":"4","last_reported":1679598346,"current_range_meters":26000,"station_id":"ce4bhq92rcd13ifvqhjg","pricing_plan_id":"free"},{"bike_id":"8450ccdb-fd38-4701-b20a-603ff987b469","system_id":"levelo_inurba_marseille","lat":43.323464,"lon":5.406297,"is_reserved":false,"is_disabled":false,"rental_uris":{"android":"levelo://app?vid=8450ccdb-fd38-4701-b20a-603ff987b469","ios":"levelo://app?vid=8450ccdb-fd38-4701-b20a-603ff987b469"},"vehicle_type_id":"4","last_reported":1679598346,"current_range_meters":24000,"station_id":"ce4bhq92rcd13ifvqhjg","pricing_plan_id":"free"},{"bike_id":"813c025c-33c7-41f3-8176-707950f4280f","system_id":"levelo_inurba_marseille","lat":43.28488,"lon":5.38431,"is_reserved":false,"is_disabled":false,"rental_uris":{"android":"levelo://app?vid=813c025c-33c7-41f3-8176-707950f4280f","ios":"levelo://app?vid=813c025c-33c7-41f3-8176-707950f4280f"},"vehicle_type_id":"4","last_reported":1679598346,"current_range_meters":29200,"station_id":"ce4bh512rcd13ifvqe3g","pricing_plan_id":"free"},{"bike_id":"4558baa7-3e10-4442-9406-9f1d21224020","system_id":"levelo_inurba_marseille","lat":43.28477,"lon":5.3841,"is_reserved":false,"is_disabled":false,"rental_uris":{"android":"levelo://app?vid=4558baa7-3e10-4442-9406-9f1d21224020","ios":"levelo://app?vid=4558baa7-3e10-4442-9406-9f1d21224020"},"vehicle_type_id":"4","last_reported":1679598346,"current_range_meters":1200,"station_id":"ce4bh512rcd13ifvqe3g","pricing_plan_id":"free"},{"bike_id":"04039f7b-9c8f-458a-a84e-f150efa4a221","system_id":"levelo_inurba_marseille","lat":43.28433,"lon":5.34998,"is_reserved":false,"is_disabled":false,"rental_uris":{"android":"levelo://app?vid=04039f7b-9c8f-458a-a84e-f150efa4a221","ios":"levelo://app?vid=04039f7b-9c8f-458a-a84e-f150efa4a221"},"vehicle_type_id":"4","last_reported":1679598346,"current_range_meters":0,"station_id":"ce4bhbh2rcd13ifvqepg","pricing_plan_id":"free"},{"bike_id":"c76f8b6a-7b89-46af-96eb-9ea8e0d2cba2","system_id":"levelo_inurba_marseille","lat":43.28427,"lon":5.34988,"is_reserved":false,"is_disabled":false,"rental_uris":{"android":"levelo://app?vid=c76f8b6a-7b89-46af-96eb-9ea8e0d2cba2","ios":"levelo://app?vid=c76f8b6a-7b89-46af-96eb-9ea8e0d2cba2"},"vehicle_type_id":"4","last_reported":1679598346,"current_range_meters":31600,"station_id":"ce4bhbh2rcd13ifvqepg","pricing_plan_id":"free"},{"bike_id":"1fbfba05-0a05-451b-8dfb-1715dbbe1bee","system_id":"levelo_inurba_marseille","lat":43.292724,"lon":5.401131,"is_reserved":false,"is_disabled":false,"rental_uris":{"android":"levelo://app?vid=1fbfba05-0a05-451b-8dfb-1715dbbe1bee","ios":"levelo://app?vid=1fbfba05-0a05-451b-8dfb-1715dbbe1bee"},"vehicle_type_id":"4","last_reported":1679598346,"current_range_meters":20000,"station_id":"ce4bh312rcd13ifvqdk0","pricing_plan_id":"free"},{"bike_id":"3c96cab4-25cd-4a13-b7d8-425485605eb0","system_id":"levelo_inurba_marseille","lat":43.28268,"lon":5.3506,"is_reserved":false,"is_disabled":false,"rental_uris":{"android":"levelo://app?vid=3c96cab4-25cd-4a13-b7d8-425485605eb0","ios":"levelo://app?vid=3c96cab4-25cd-4a13-b7d8-425485605eb0"},"vehicle_type_id":"4","last_reported":1679598346,"current_range_meters":0,"station_id":"","pricing_plan_id":"free"},{"bike_id":"b2c9bef5-db79-478b-ba39-581bb7ac228b","system_id":"levelo_inurba_marseille","lat":43.28264,"lon":5.35057,"is_reserved":false,"is_disabled":false,"rental_uris":{"android":"levelo://app?vid=b2c9bef5-db79-478b-ba39-581bb7ac228b","ios":"levelo://app?vid=b2c9bef5-db79-478b-ba39-581bb7ac228b"},"vehicle_type_id":"4","last_reported":1679598346,"current_range_meters":23200,"station_id":"","pricing_plan_id":"free"},{"bike_id":"8b67babc-b8b3-40d6-8cd8-30a52f12b0c8","system_id":"levelo_inurba_marseille","lat":43.28263,"lon":5.35057,"is_reserved":false,"is_disabled":false,"rental_uris":{"android":"levelo://app?vid=8b67babc-b8b3-40d6-8cd8-30a52f12b0c8","ios":"levelo://app?vid=8b67babc-b8b3-40d6-8cd8-30a52f12b0c8"},"vehicle_type_id":"4","last_reported":1679598346,"current_range_meters":9600,"station_id":"","pricing_plan_id":"free"},{"bike_id":"35493b2e-502b-43cf-8216-22baef1af67c","system_id":"levelo_inurba_marseille","lat":43.28348,"lon":5.386397,"is_reserved":false,"is_disabled":false,"rental_uris":{"android":"levelo://app?vid=35493b2e-502b-43cf-8216-22baef1af67c","ios":"levelo://app?vid=35493b2e-502b-43cf-8216-22baef1af67c"},"vehicle_type_id":"4","last_reported":1679598346,"current_range_meters":0,"station_id":"ce4bh492rcd13ifvqdvg","pricing_plan_id":"free"},{"bike_id":"8b2441c8-b949-4f90-a398-1dd28baff3f7","system_id":"levelo_inurba_marseille","lat":43.281151,"lon":5.37824,"is_reserved":false,"is_disabled":false,"rental_uris":{"android":"levelo://app?vid=8b2441c8-b949-4f90-a398-1dd28baff3f7","ios":"levelo://app?vid=8b2441c8-b949-4f90-a398-1dd28baff3f7"},"vehicle_type_id":"4","last_reported":1679598346,"current_range_meters":4800,"station_id":"","pricing_plan_id":"free"},{"bike_id":"d324c735-fcdd-4f6a-b3cc-594d1d437d77","system_id":"levelo_inurba_marseille","lat":43.29041,"lon":5.399634,"is_reserved":false,"is_disabled":false,"rental_uris":{"android":"levelo://app?vid=d324c735-fcdd-4f6a-b3cc-594d1d437d77","ios":"levelo://app?vid=d324c735-fcdd-4f6a-b3cc-594d1d437d77"},"vehicle_type_id":"4","last_reported":1679598346,"current_range_meters":400,"station_id":"ce4bh392rcd13ifvqdm0","pricing_plan_id":"free"},{"bike_id":"7039aa48-d9f1-402d-9028-4fad9a5a9af3","system_id":"levelo_inurba_marseille","lat":43.281044,"lon":5.378308,"is_reserved":false,"is_disabled":false,"rental_uris":{"android":"levelo://app?vid=7039aa48-d9f1-402d-9028-4fad9a5a9af3","ios":"levelo://app?vid=7039aa48-d9f1-402d-9028-4fad9a5a9af3"},"vehicle_type_id":"4","last_reported":1679598346,"current_range_meters":20000,"station_id":"ce4bha12rcd13ifvqee0","pricing_plan_id":"free"},{"bike_id":"cd4abb16-2f9b-40d8-9ab8-01d8a5833dba","system_id":"levelo_inurba_marseille","lat":43.284462,"lon":5.392121,"is_reserved":false,"is_disabled":false,"rental_uris":{"android":"levelo://app?vid=cd4abb16-2f9b-40d8-9ab8-01d8a5833dba","ios":"levelo://app?vid=cd4abb16-2f9b-40d8-9ab8-01d8a5833dba"},"vehicle_type_id":"4","last_reported":1679598346,"current_range_meters":27600,"station_id":"ce4bhoh2rcd13ifvqh5g","pricing_plan_id":"free"},{"bike_id":"5baf79e4-8101-4ef8-a16c-e93df6294e8c","system_id":"levelo_inurba_marseille","lat":43.304188,"lon":5.412904,"is_reserved":false,"is_disabled":false,"rental_uris":{"android":"levelo://app?vid=5baf79e4-8101-4ef8-a16c-e93df6294e8c","ios":"levelo://app?vid=5baf79e4-8101-4ef8-a16c-e93df6294e8c"},"vehicle_type_id":"4","last_reported":1679598346,"current_range_meters":31600,"station_id":"ce4bhop2rcd13ifvqh8g","pricing_plan_id":"free"},{"bike_id":"7fe5f931-4cbd-49b4-b71b-f53a3b1d2f0a","system_id":"levelo_inurba_marseille","lat":43.304188,"lon":5.412904,"is_reserved":false,"is_disabled":false,"rental_uris":{"android":"levelo://app?vid=7fe5f931-4cbd-49b4-b71b-f53a3b1d2f0a","ios":"levelo://app?vid=7fe5f931-4cbd-49b4-b71b-f53a3b1d2f0a"},"vehicle_type_id":"4","last_reported":1679598346,"current_range_meters":31600,"station_id":"ce4bhop2rcd13ifvqh8g","pricing_plan_id":"free"},{"bike_id":"631c739f-8b09-45dd-ab1d-865561d8ceee","system_id":"levelo_inurba_marseille","lat":43.299579,"lon":5.413255,"is_reserved":false,"is_disabled":false,"rental_uris":{"android":"levelo://app?vid=631c739f-8b09-45dd-ab1d-865561d8ceee","ios":"levelo://app?vid=631c739f-8b09-45dd-ab1d-865561d8ceee"},"vehicle_type_id":"4","last_reported":1679598346,"current_range_meters":26800,"station_id":"ce4bhp12rcd13ifvqh9g","pricing_plan_id":"free"},{"bike_id":"2516f07d-21ef-4003-9ba3-89e594ffe408","system_id":"levelo_inurba_marseille","lat":43.27951,"lon":5.38711,"is_reserved":false,"is_disabled":false,"rental_uris":{"android":"levelo://app?vid=2516f07d-21ef-4003-9ba3-89e594ffe408","ios":"levelo://app?vid=2516f07d-21ef-4003-9ba3-89e594ffe408"},"vehicle_type_id":"4","last_reported":1679598346,"current_range_meters":28400,"station_id":"ce4bhg12rcd13ifvqf80","pricing_plan_id":"free"},{"bike_id":"a43a8044-7dc7-4ee9-8e36-c7d2dd90e992","system_id":"levelo_inurba_marseille","lat":43.292567,"lon":5.409017,"is_reserved":false,"is_disabled":false,"rental_uris":{"android":"levelo://app?vid=a43a8044-7dc7-4ee9-8e36-c7d2dd90e992","ios":"levelo://app?vid=a43a8044-7dc7-4ee9-8e36-c7d2dd90e992"},"vehicle_type_id":"4","last_reported":1679598346,"current_range_meters":0,"station_id":"ce4bh192rcd13ifvqdc0","pricing_plan_id":"free"},{"bike_id":"b05c64f2-a61a-45b7-ab34-cbcac0a161c3","system_id":"levelo_inurba_marseille","lat":43.325243,"lon":5.414326,"is_reserved":false,"is_disabled":false,"rental_uris":{"android":"levelo://app?vid=b05c64f2-a61a-45b7-ab34-cbcac0a161c3","ios":"levelo://app?vid=b05c64f2-a61a-45b7-ab34-cbcac0a161c3"},"vehicle_type_id":"4","last_reported":1679598346,"current_range_meters":5600,"station_id":"ce4bhq12rcd13ifvqhhg","pricing_plan_id":"free"},{"bike_id":"a28996d9-4fe8-402e-93b7-9ef423ff3e00","system_id":"levelo_inurba_marseille","lat":43.27623,"lon":5.36109,"is_reserved":false,"is_disabled":false,"rental_uris":{"android":"levelo://app?vid=a28996d9-4fe8-402e-93b7-9ef423ff3e00","ios":"levelo://app?vid=a28996d9-4fe8-402e-93b7-9ef423ff3e00"},"vehicle_type_id":"4","last_reported":1679598346,"current_range_meters":6800,"station_id":"","pricing_plan_id":"free"},{"bike_id":"ba2999fa-a746-4963-abaa-77d8605209fd","system_id":"levelo_inurba_marseille","lat":43.29246,"lon":5.40906,"is_reserved":false,"is_disabled":false,"rental_uris":{"android":"levelo://app?vid=ba2999fa-a746-4963-abaa-77d8605209fd","ios":"levelo://app?vid=ba2999fa-a746-4963-abaa-77d8605209fd"},"vehicle_type_id":"4","last_reported":1679598346,"current_range_meters":23600,"station_id":"","pricing_plan_id":"free"},{"bike_id":"b75549e0-bb92-4602-950b-edbbdb1ca0dd","system_id":"levelo_inurba_marseille","lat":43.276179,"lon":5.361009,"is_reserved":false,"is_disabled":false,"rental_uris":{"android":"levelo://app?vid=b75549e0-bb92-4602-950b-edbbdb1ca0dd","ios":"levelo://app?vid=b75549e0-bb92-4602-950b-edbbdb1ca0dd"},"vehicle_type_id":"4","last_reported":1679598346,"current_range_meters":23600,"station_id":"ce4bgj92rcd13ifvqbe0","pricing_plan_id":"free"},{"bike_id":"9d770c41-40e8-4f00-abfa-5daa74f4983e","system_id":"levelo_inurba_marseille","lat":43.33612,"lon":5.410321,"is_reserved":false,"is_disabled":false,"rental_uris":{"android":"levelo://app?vid=9d770c41-40e8-4f00-abfa-5daa74f4983e","ios":"levelo://app?vid=9d770c41-40e8-4f00-abfa-5daa74f4983e"},"vehicle_type_id":"4","last_reported":1679598346,"current_range_meters":19600,"station_id":"ce4bhqh2rcd13ifvqhmg","pricing_plan_id":"free"},{"bike_id":"0b1b85f2-a166-44d3-8707-7ebba07304bc","system_id":"levelo_inurba_marseille","lat":43.33612,"lon":5.410321,"is_reserved":false,"is_disabled":false,"rental_uris":{"android":"levelo://app?vid=0b1b85f2-a166-44d3-8707-7ebba07304bc","ios":"levelo://app?vid=0b1b85f2-a166-44d3-8707-7ebba07304bc"},"vehicle_type_id":"4","last_reported":1679598346,"current_range_meters":7600,"station_id":"ce4bhqh2rcd13ifvqhmg","pricing_plan_id":"free"},{"bike_id":"2a27573c-aaa3-4604-b9ef-d6adff2d6080","system_id":"levelo_inurba_marseille","lat":43.33612,"lon":5.410321,"is_reserved":false,"is_disabled":false,"rental_uris":{"android":"levelo://app?vid=2a27573c-aaa3-4604-b9ef-d6adff2d6080","ios":"levelo://app?vid=2a27573c-aaa3-4604-b9ef-d6adff2d6080"},"vehicle_type_id":"4","last_reported":1679598346,"current_range_meters":13600,"station_id":"ce4bhqh2rcd13ifvqhmg","pricing_plan_id":"free"},{"bike_id":"662e97b6-4b07-44fd-ab30-f31ce7527064","system_id":"levelo_inurba_marseille","lat":43.33612,"lon":5.410321,"is_reserved":false,"is_disabled":false,"rental_uris":{"android":"levelo://app?vid=662e97b6-4b07-44fd-ab30-f31ce7527064","ios":"levelo://app?vid=662e97b6-4b07-44fd-ab30-f31ce7527064"},"vehicle_type_id":"4","last_reported":1679598346,"current_range_meters":17200,"station_id":"ce4bhqh2rcd13ifvqhmg","pricing_plan_id":"free"},{"bike_id":"7b6a8609-6d89-40d8-8422-cc9b66deb3ef","system_id":"levelo_inurba_marseille","lat":43.336134,"lon":5.410341,"is_reserved":false,"is_disabled":false,"rental_uris":{"android":"levelo://app?vid=7b6a8609-6d89-40d8-8422-cc9b66deb3ef","ios":"levelo://app?vid=7b6a8609-6d89-40d8-8422-cc9b66deb3ef"},"vehicle_type_id":"4","last_reported":1679598346,"current_range_meters":22000,"station_id":"ce4bhqh2rcd13ifvqhmg","pricing_plan_id":"free"},{"bike_id":"c85b037d-2443-48a0-825b-fc9daa8cca76","system_id":"levelo_inurba_marseille","lat":43.327297,"lon":5.417753,"is_reserved":false,"is_disabled":false,"rental_uris":{"android":"levelo://app?vid=c85b037d-2443-48a0-825b-fc9daa8cca76","ios":"levelo://app?vid=c85b037d-2443-48a0-825b-fc9daa8cca76"},"vehicle_type_id":"4","last_reported":1679598346,"current_range_meters":2000,"station_id":"","pricing_plan_id":"free"},{"bike_id":"c1c5dff5-8ab3-4652-90da-fec87c63d6f0","system_id":"levelo_inurba_marseille","lat":43.310785,"lon":5.424305,"is_reserved":false,"is_disabled":false,"rental_uris":{"android":"levelo://app?vid=c1c5dff5-8ab3-4652-90da-fec87c63d6f0","ios":"levelo://app?vid=c1c5dff5-8ab3-4652-90da-fec87c63d6f0"},"vehicle_type_id":"4","last_reported":1679598346,"current_range_meters":0,"station_id":"ce4bhp92rcd13ifvqhag","pricing_plan_id":"free"},{"bike_id":"f9b61c5e-d3d6-4788-8ee9-4c9d0348465f","system_id":"levelo_inurba_marseille","lat":43.27421,"lon":5.39418,"is_reserved":false,"is_disabled":false,"rental_uris":{"android":"levelo://app?vid=f9b61c5e-d3d6-4788-8ee9-4c9d0348465f","ios":"levelo://app?vid=f9b61c5e-d3d6-4788-8ee9-4c9d0348465f"},"vehicle_type_id":"4","last_reported":1679598346,"current_range_meters":9200,"station_id":"ce4bhdp2rcd13ifvqf20","pricing_plan_id":"free"},{"bike_id":"bc9a49bc-05b8-4c6c-a3f2-54726c90d7d3","system_id":"levelo_inurba_marseille","lat":43.304096,"lon":5.425385,"is_reserved":false,"is_disabled":false,"rental_uris":{"android":"levelo://app?vid=bc9a49bc-05b8-4c6c-a3f2-54726c90d7d3","ios":"levelo://app?vid=bc9a49bc-05b8-4c6c-a3f2-54726c90d7d3"},"vehicle_type_id":"4","last_reported":1679598346,"current_range_meters":21200,"station_id":"ce4bhoh2rcd13ifvqh6g","pricing_plan_id":"free"},{"bike_id":"1c9aa145-a52b-4c91-b54b-808440b405ed","system_id":"levelo_inurba_marseille","lat":43.304096,"lon":5.425385,"is_reserved":false,"is_disabled":false,"rental_uris":{"android":"levelo://app?vid=1c9aa145-a52b-4c91-b54b-808440b405ed","ios":"levelo://app?vid=1c9aa145-a52b-4c91-b54b-808440b405ed"},"vehicle_type_id":"4","last_reported":1679598346,"current_range_meters":26000,"station_id":"ce4bhoh2rcd13ifvqh6g","pricing_plan_id":"free"},{"bike_id":"128c4e68-49f5-4aae-b380-7102fe9fff37","system_id":"levelo_inurba_marseille","lat":43.304096,"lon":5.425385,"is_reserved":false,"is_disabled":false,"rental_uris":{"android":"levelo://app?vid=128c4e68-49f5-4aae-b380-7102fe9fff37","ios":"levelo://app?vid=128c4e68-49f5-4aae-b380-7102fe9fff37"},"vehicle_type_id":"4","last_reported":1679598346,"current_range_meters":27600,"station_id":"ce4bhoh2rcd13ifvqh6g","pricing_plan_id":"free"},{"bike_id":"85efd03b-7ddb-4e06-86b5-df8c5922a117","system_id":"levelo_inurba_marseille","lat":43.304096,"lon":5.425385,"is_reserved":false,"is_disabled":false,"rental_uris":{"android":"levelo://app?vid=85efd03b-7ddb-4e06-86b5-df8c5922a117","ios":"levelo://app?vid=85efd03b-7ddb-4e06-86b5-df8c5922a117"},"vehicle_type_id":"4","last_reported":1679598346,"current_range_meters":24800,"station_id":"ce4bhoh2rcd13ifvqh6g","pricing_plan_id":"free"},{"bike_id":"b4ebd54d-0e9f-46a8-982f-8d878019e0c4","system_id":"levelo_inurba_marseille","lat":43.304162,"lon":5.42547,"is_reserved":false,"is_disabled":false,"rental_uris":{"android":"levelo://app?vid=b4ebd54d-0e9f-46a8-982f-8d878019e0c4","ios":"levelo://app?vid=b4ebd54d-0e9f-46a8-982f-8d878019e0c4"},"vehicle_type_id":"4","last_reported":1679598346,"current_range_meters":24800,"station_id":"","pricing_plan_id":"free"},{"bike_id":"c0121348-ed21-4183-9cfb-141ecffe993e","system_id":"levelo_inurba_marseille","lat":43.304145,"lon":5.42548,"is_reserved":false,"is_disabled":false,"rental_uris":{"android":"levelo://app?vid=c0121348-ed21-4183-9cfb-141ecffe993e","ios":"levelo://app?vid=c0121348-ed21-4183-9cfb-141ecffe993e"},"vehicle_type_id":"4","last_reported":1679598346,"current_range_meters":28800,"station_id":"ce4bhoh2rcd13ifvqh6g","pricing_plan_id":"free"},{"bike_id":"23772b2c-140b-494b-8d47-bdfe563a79d8","system_id":"levelo_inurba_marseille","lat":43.304136,"lon":5.425483,"is_reserved":false,"is_disabled":false,"rental_uris":{"android":"levelo://app?vid=23772b2c-140b-494b-8d47-bdfe563a79d8","ios":"levelo://app?vid=23772b2c-140b-494b-8d47-bdfe563a79d8"},"vehicle_type_id":"4","last_reported":1679598346,"current_range_meters":29600,"station_id":"ce4bhoh2rcd13ifvqh6g","pricing_plan_id":"free"},{"bike_id":"87d38831-4a61-475a-83a2-44e92a0b550f","system_id":"levelo_inurba_marseille","lat":43.304146,"lon":5.42549,"is_reserved":false,"is_disabled":false,"rental_uris":{"android":"levelo://app?vid=87d38831-4a61-475a-83a2-44e92a0b550f","ios":"levelo://app?vid=87d38831-4a61-475a-83a2-44e92a0b550f"},"vehicle_type_id":"4","last_reported":1679598346,"current_range_meters":22800,"station_id":"","pricing_plan_id":"free"},{"bike_id":"897f29ea-483c-4de5-b250-8c545b316174","system_id":"levelo_inurba_marseille","lat":43.304141,"lon":5.425507,"is_reserved":false,"is_disabled":false,"rental_uris":{"android":"levelo://app?vid=897f29ea-483c-4de5-b250-8c545b316174","ios":"levelo://app?vid=897f29ea-483c-4de5-b250-8c545b316174"},"vehicle_type_id":"4","last_reported":1679598346,"current_range_meters":19600,"station_id":"","pricing_plan_id":"free"},{"bike_id":"26133c3e-24b5-4413-a2f1-8bf39bec568b","system_id":"levelo_inurba_marseille","lat":43.30414,"lon":5.425507,"is_reserved":false,"is_disabled":false,"rental_uris":{"android":"levelo://app?vid=26133c3e-24b5-4413-a2f1-8bf39bec568b","ios":"levelo://app?vid=26133c3e-24b5-4413-a2f1-8bf39bec568b"},"vehicle_type_id":"4","last_reported":1679598346,"current_range_meters":28400,"station_id":"","pricing_plan_id":"free"},{"bike_id":"717ac098-ba2e-4ed0-ba71-cd3a15195fbb","system_id":"levelo_inurba_marseille","lat":43.304141,"lon":5.425527,"is_reserved":false,"is_disabled":false,"rental_uris":{"android":"levelo://app?vid=717ac098-ba2e-4ed0-ba71-cd3a15195fbb","ios":"levelo://app?vid=717ac098-ba2e-4ed0-ba71-cd3a15195fbb"},"vehicle_type_id":"4","last_reported":1679598346,"current_range_meters":31600,"station_id":"ce4bhoh2rcd13ifvqh6g","pricing_plan_id":"free"},{"bike_id":"d1355784-f13c-4c79-bdfa-41e209873fec","system_id":"levelo_inurba_marseille","lat":43.30412,"lon":5.42555,"is_reserved":false,"is_disabled":false,"rental_uris":{"android":"levelo://app?vid=d1355784-f13c-4c79-bdfa-41e209873fec","ios":"levelo://app?vid=d1355784-f13c-4c79-bdfa-41e209873fec"},"vehicle_type_id":"4","last_reported":1679598346,"current_range_meters":31600,"station_id":"ce4bhoh2rcd13ifvqh6g","pricing_plan_id":"free"},{"bike_id":"60171c96-8923-4cd9-bbd2-f24cacf21acc","system_id":"levelo_inurba_marseille","lat":43.295523,"lon":5.422926,"is_reserved":false,"is_disabled":false,"rental_uris":{"android":"levelo://app?vid=60171c96-8923-4cd9-bbd2-f24cacf21acc","ios":"levelo://app?vid=60171c96-8923-4cd9-bbd2-f24cacf21acc"},"vehicle_type_id":"4","last_reported":1679598346,"current_range_meters":21200,"station_id":"ce4bhph2rcd13ifvqhdg","pricing_plan_id":"free"},{"bike_id":"228901e3-0e45-48e9-ba3d-9d520ca8d530","system_id":"levelo_inurba_marseille","lat":43.295523,"lon":5.422926,"is_reserved":false,"is_disabled":false,"rental_uris":{"android":"levelo://app?vid=228901e3-0e45-48e9-ba3d-9d520ca8d530","ios":"levelo://app?vid=228901e3-0e45-48e9-ba3d-9d520ca8d530"},"vehicle_type_id":"4","last_reported":1679598346,"current_range_meters":28400,"station_id":"ce4bhph2rcd13ifvqhdg","pricing_plan_id":"free"},{"bike_id":"82e58880-5aef-47f1-b335-1658c9c25dd1","system_id":"levelo_inurba_marseille","lat":43.295523,"lon":5.422926,"is_reserved":false,"is_disabled":false,"rental_uris":{"android":"levelo://app?vid=82e58880-5aef-47f1-b335-1658c9c25dd1","ios":"levelo://app?vid=82e58880-5aef-47f1-b335-1658c9c25dd1"},"vehicle_type_id":"4","last_reported":1679598346,"current_range_meters":29200,"station_id":"ce4bhph2rcd13ifvqhdg","pricing_plan_id":"free"},{"bike_id":"36824244-f5f3-4138-9bc9-09d1f9cb9d16","system_id":"levelo_inurba_marseille","lat":43.295523,"lon":5.422926,"is_reserved":false,"is_disabled":false,"rental_uris":{"android":"levelo://app?vid=36824244-f5f3-4138-9bc9-09d1f9cb9d16","ios":"levelo://app?vid=36824244-f5f3-4138-9bc9-09d1f9cb9d16"},"vehicle_type_id":"4","last_reported":1679598346,"current_range_meters":11200,"station_id":"ce4bhph2rcd13ifvqhdg","pricing_plan_id":"free"},{"bike_id":"81e2562c-905c-4948-8e0c-205b8552a8b5","system_id":"levelo_inurba_marseille","lat":43.295523,"lon":5.422926,"is_reserved":false,"is_disabled":false,"rental_uris":{"android":"levelo://app?vid=81e2562c-905c-4948-8e0c-205b8552a8b5","ios":"levelo://app?vid=81e2562c-905c-4948-8e0c-205b8552a8b5"},"vehicle_type_id":"4","last_reported":1679598346,"current_range_meters":31200,"station_id":"ce4bhph2rcd13ifvqhdg","pricing_plan_id":"free"},{"bike_id":"12ab9ffd-ff44-46da-946a-d4bfb6dabb9b","system_id":"levelo_inurba_marseille","lat":43.295511,"lon":5.422926,"is_reserved":false,"is_disabled":false,"rental_uris":{"android":"levelo://app?vid=12ab9ffd-ff44-46da-946a-d4bfb6dabb9b","ios":"levelo://app?vid=12ab9ffd-ff44-46da-946a-d4bfb6dabb9b"},"vehicle_type_id":"4","last_reported":1679598346,"current_range_meters":28400,"station_id":"ce4bhph2rcd13ifvqhdg","pricing_plan_id":"free"},{"bike_id":"1711aaef-0919-4a79-8008-f992b48a863a","system_id":"levelo_inurba_marseille","lat":43.295523,"lon":5.422926,"is_reserved":false,"is_disabled":false,"rental_uris":{"android":"levelo://app?vid=1711aaef-0919-4a79-8008-f992b48a863a","ios":"levelo://app?vid=1711aaef-0919-4a79-8008-f992b48a863a"},"vehicle_type_id":"4","last_reported":1679598346,"current_range_meters":31200,"station_id":"ce4bhph2rcd13ifvqhdg","pricing_plan_id":"free"},{"bike_id":"32a94b04-06f6-4e6a-9639-6e480b01f6c5","system_id":"levelo_inurba_marseille","lat":43.295523,"lon":5.422926,"is_reserved":false,"is_disabled":false,"rental_uris":{"android":"levelo://app?vid=32a94b04-06f6-4e6a-9639-6e480b01f6c5","ios":"levelo://app?vid=32a94b04-06f6-4e6a-9639-6e480b01f6c5"},"vehicle_type_id":"4","last_reported":1679598346,"current_range_meters":27600,"station_id":"ce4bhph2rcd13ifvqhdg","pricing_plan_id":"free"},{"bike_id":"d7034bc5-3912-4b2b-aab9-06de0da85977","system_id":"levelo_inurba_marseille","lat":43.278128,"lon":5.407195,"is_reserved":false,"is_disabled":false,"rental_uris":{"android":"levelo://app?vid=d7034bc5-3912-4b2b-aab9-06de0da85977","ios":"levelo://app?vid=d7034bc5-3912-4b2b-aab9-06de0da85977"},"vehicle_type_id":"4","last_reported":1679598346,"current_range_meters":8400,"station_id":"ce4bhnh2rcd13ifvqgtg","pricing_plan_id":"free"},{"bike_id":"2562b208-e4b9-46ac-b38a-4125784224a6","system_id":"levelo_inurba_marseille","lat":43.27814,"lon":5.4071,"is_reserved":false,"is_disabled":false,"rental_uris":{"android":"levelo://app?vid=2562b208-e4b9-46ac-b38a-4125784224a6","ios":"levelo://app?vid=2562b208-e4b9-46ac-b38a-4125784224a6"},"vehicle_type_id":"4","last_reported":1679598346,"current_range_meters":10000,"station_id":"","pricing_plan_id":"free"},{"bike_id":"57e0631c-ad78-45d7-8ca6-72b8d5135545","system_id":"levelo_inurba_marseille","lat":43.27817,"lon":5.40715,"is_reserved":false,"is_disabled":false,"rental_uris":{"android":"levelo://app?vid=57e0631c-ad78-45d7-8ca6-72b8d5135545","ios":"levelo://app?vid=57e0631c-ad78-45d7-8ca6-72b8d5135545"},"vehicle_type_id":"4","last_reported":1679598346,"current_range_meters":18800,"station_id":"","pricing_plan_id":"free"},{"bike_id":"da5943a0-0c67-4a24-8854-29d1d8897e29","system_id":"levelo_inurba_marseille","lat":43.278128,"lon":5.407195,"is_reserved":false,"is_disabled":false,"rental_uris":{"android":"levelo://app?vid=da5943a0-0c67-4a24-8854-29d1d8897e29","ios":"levelo://app?vid=da5943a0-0c67-4a24-8854-29d1d8897e29"},"vehicle_type_id":"4","last_reported":1679598346,"current_range_meters":7600,"station_id":"ce4bhnh2rcd13ifvqgtg","pricing_plan_id":"free"},{"bike_id":"305224b9-b83f-434d-86db-48b5d6a4e2e6","system_id":"levelo_inurba_marseille","lat":43.2781,"lon":5.40709,"is_reserved":false,"is_disabled":false,"rental_uris":{"android":"levelo://app?vid=305224b9-b83f-434d-86db-48b5d6a4e2e6","ios":"levelo://app?vid=305224b9-b83f-434d-86db-48b5d6a4e2e6"},"vehicle_type_id":"4","last_reported":1679598346,"current_range_meters":19600,"station_id":"","pricing_plan_id":"free"},{"bike_id":"2bc302a9-a025-41fe-baf9-3d7e860625d2","system_id":"levelo_inurba_marseille","lat":43.278128,"lon":5.407195,"is_reserved":false,"is_disabled":false,"rental_uris":{"android":"levelo://app?vid=2bc302a9-a025-41fe-baf9-3d7e860625d2","ios":"levelo://app?vid=2bc302a9-a025-41fe-baf9-3d7e860625d2"},"vehicle_type_id":"4","last_reported":1679598346,"current_range_meters":10800,"station_id":"ce4bhnh2rcd13ifvqgtg","pricing_plan_id":"free"},{"bike_id":"bd7a9522-e6f1-4db7-855d-d9e14aeb0f68","system_id":"levelo_inurba_marseille","lat":43.27819,"lon":5.40728,"is_reserved":false,"is_disabled":false,"rental_uris":{"android":"levelo://app?vid=bd7a9522-e6f1-4db7-855d-d9e14aeb0f68","ios":"levelo://app?vid=bd7a9522-e6f1-4db7-855d-d9e14aeb0f68"},"vehicle_type_id":"4","last_reported":1679598346,"current_range_meters":17600,"station_id":"ce4bhnh2rcd13ifvqgtg","pricing_plan_id":"free"},{"bike_id":"f5592190-278c-472b-a1a8-126eb732654c","system_id":"levelo_inurba_marseille","lat":43.278015,"lon":5.407005,"is_reserved":false,"is_disabled":false,"rental_uris":{"android":"levelo://app?vid=f5592190-278c-472b-a1a8-126eb732654c","ios":"levelo://app?vid=f5592190-278c-472b-a1a8-126eb732654c"},"vehicle_type_id":"4","last_reported":1679598346,"current_range_meters":27200,"station_id":"ce4bhnh2rcd13ifvqgtg","pricing_plan_id":"free"},{"bike_id":"0cd65f13-970e-4ecf-bbc8-0530fb358ab1","system_id":"levelo_inurba_marseille","lat":43.27807,"lon":5.40716,"is_reserved":false,"is_disabled":false,"rental_uris":{"android":"levelo://app?vid=0cd65f13-970e-4ecf-bbc8-0530fb358ab1","ios":"levelo://app?vid=0cd65f13-970e-4ecf-bbc8-0530fb358ab1"},"vehicle_type_id":"4","last_reported":1679598346,"current_range_meters":1200,"station_id":"ce4bhnh2rcd13ifvqgtg","pricing_plan_id":"free"},{"bike_id":"1f4015a8-d213-44ae-b8c9-34db63e1693b","system_id":"levelo_inurba_marseille","lat":43.269467,"lon":5.386439,"is_reserved":false,"is_disabled":false,"rental_uris":{"android":"levelo://app?vid=1f4015a8-d213-44ae-b8c9-34db63e1693b","ios":"levelo://app?vid=1f4015a8-d213-44ae-b8c9-34db63e1693b"},"vehicle_type_id":"4","last_reported":1679598346,"current_range_meters":0,"station_id":"ce4bhh92rcd13ifvqfh0","pricing_plan_id":"free"},{"bike_id":"f51a4d75-a01a-4235-9601-62a9b978e2e0","system_id":"levelo_inurba_marseille","lat":43.26681,"lon":5.382694,"is_reserved":false,"is_disabled":false,"rental_uris":{"android":"levelo://app?vid=f51a4d75-a01a-4235-9601-62a9b978e2e0","ios":"levelo://app?vid=f51a4d75-a01a-4235-9601-62a9b978e2e0"},"vehicle_type_id":"4","last_reported":1679598346,"current_range_meters":0,"station_id":"ce4bhg92rcd13ifvqf90","pricing_plan_id":"free"},{"bike_id":"b3d0aa16-c3c0-4c8d-a1ce-1e52ce99f177","system_id":"levelo_inurba_marseille","lat":43.265266,"lon":5.373024,"is_reserved":false,"is_disabled":false,"rental_uris":{"android":"levelo://app?vid=b3d0aa16-c3c0-4c8d-a1ce-1e52ce99f177","ios":"levelo://app?vid=b3d0aa16-c3c0-4c8d-a1ce-1e52ce99f177"},"vehicle_type_id":"4","last_reported":1679598346,"current_range_meters":26800,"station_id":"","pricing_plan_id":"free"},{"bike_id":"2b40a698-a740-4237-bd51-ed20fdc3c1e6","system_id":"levelo_inurba_marseille","lat":43.265162,"lon":5.372991,"is_reserved":false,"is_disabled":false,"rental_uris":{"android":"levelo://app?vid=2b40a698-a740-4237-bd51-ed20fdc3c1e6","ios":"levelo://app?vid=2b40a698-a740-4237-bd51-ed20fdc3c1e6"},"vehicle_type_id":"4","last_reported":1679598346,"current_range_meters":31600,"station_id":"","pricing_plan_id":"free"},{"bike_id":"5724e0e3-494e-4ba3-b417-fa11d8f2494e","system_id":"levelo_inurba_marseille","lat":43.267895,"lon":5.394177,"is_reserved":false,"is_disabled":false,"rental_uris":{"android":"levelo://app?vid=5724e0e3-494e-4ba3-b417-fa11d8f2494e","ios":"levelo://app?vid=5724e0e3-494e-4ba3-b417-fa11d8f2494e"},"vehicle_type_id":"4","last_reported":1679598346,"current_range_meters":1600,"station_id":"ce4bhm12rcd13ifvqgkg","pricing_plan_id":"free"},{"bike_id":"1b4b4f87-e8d8-4674-a1f8-d8b10cad9ef2","system_id":"levelo_inurba_marseille","lat":43.308051,"lon":5.43527,"is_reserved":false,"is_disabled":false,"rental_uris":{"android":"levelo://app?vid=1b4b4f87-e8d8-4674-a1f8-d8b10cad9ef2","ios":"levelo://app?vid=1b4b4f87-e8d8-4674-a1f8-d8b10cad9ef2"},"vehicle_type_id":"4","last_reported":1679598346,"current_range_meters":14400,"station_id":"ce4bhph2rcd13ifvqheg","pricing_plan_id":"free"},{"bike_id":"cd8d948b-8f5c-4296-b1e0-6c1e7d13ae43","system_id":"levelo_inurba_marseille","lat":43.308017,"lon":5.435233,"is_reserved":false,"is_disabled":false,"rental_uris":{"android":"levelo://app?vid=cd8d948b-8f5c-4296-b1e0-6c1e7d13ae43","ios":"levelo://app?vid=cd8d948b-8f5c-4296-b1e0-6c1e7d13ae43"},"vehicle_type_id":"4","last_reported":1679598346,"current_range_meters":0,"station_id":"ce4bhph2rcd13ifvqheg","pricing_plan_id":"free"},{"bike_id":"a583f5e3-84fb-40d1-859b-8b9597349466","system_id":"levelo_inurba_marseille","lat":43.262271,"lon":5.374849,"is_reserved":false,"is_disabled":false,"rental_uris":{"android":"levelo://app?vid=a583f5e3-84fb-40d1-859b-8b9597349466","ios":"levelo://app?vid=a583f5e3-84fb-40d1-859b-8b9597349466"},"vehicle_type_id":"4","last_reported":1679598346,"current_range_meters":0,"station_id":"","pricing_plan_id":"free"},{"bike_id":"1feb4c08-0b0a-4194-90de-99f249b20e5a","system_id":"levelo_inurba_marseille","lat":43.331824,"lon":5.431737,"is_reserved":false,"is_disabled":false,"rental_uris":{"android":"levelo://app?vid=1feb4c08-0b0a-4194-90de-99f249b20e5a","ios":"levelo://app?vid=1feb4c08-0b0a-4194-90de-99f249b20e5a"},"vehicle_type_id":"4","last_reported":1679598346,"current_range_meters":16800,"station_id":"","pricing_plan_id":"free"},{"bike_id":"e78bc891-e025-407e-a870-b7f009dad7a7","system_id":"levelo_inurba_marseille","lat":43.261782,"lon":5.374515,"is_reserved":false,"is_disabled":false,"rental_uris":{"android":"levelo://app?vid=e78bc891-e025-407e-a870-b7f009dad7a7","ios":"levelo://app?vid=e78bc891-e025-407e-a870-b7f009dad7a7"},"vehicle_type_id":"4","last_reported":1679598346,"current_range_meters":31200,"station_id":"ce4bhgp2rcd13ifvqfc0","pricing_plan_id":"free"},{"bike_id":"3df0747d-533f-4258-94e0-d1d41b6dd6c8","system_id":"levelo_inurba_marseille","lat":43.261782,"lon":5.374515,"is_reserved":false,"is_disabled":false,"rental_uris":{"android":"levelo://app?vid=3df0747d-533f-4258-94e0-d1d41b6dd6c8","ios":"levelo://app?vid=3df0747d-533f-4258-94e0-d1d41b6dd6c8"},"vehicle_type_id":"4","last_reported":1679598346,"current_range_meters":31200,"station_id":"ce4bhgp2rcd13ifvqfc0","pricing_plan_id":"free"},{"bike_id":"d345bc9f-11ea-4b70-9986-6fe33b3e449f","system_id":"levelo_inurba_marseille","lat":43.261782,"lon":5.374515,"is_reserved":false,"is_disabled":false,"rental_uris":{"android":"levelo://app?vid=d345bc9f-11ea-4b70-9986-6fe33b3e449f","ios":"levelo://app?vid=d345bc9f-11ea-4b70-9986-6fe33b3e449f"},"vehicle_type_id":"4","last_reported":1679598346,"current_range_meters":28000,"station_id":"ce4bhgp2rcd13ifvqfc0","pricing_plan_id":"free"},{"bike_id":"917ed460-b0fd-482c-a0aa-5d58308a6edd","system_id":"levelo_inurba_marseille","lat":43.261782,"lon":5.374515,"is_reserved":false,"is_disabled":false,"rental_uris":{"android":"levelo://app?vid=917ed460-b0fd-482c-a0aa-5d58308a6edd","ios":"levelo://app?vid=917ed460-b0fd-482c-a0aa-5d58308a6edd"},"vehicle_type_id":"4","last_reported":1679598346,"current_range_meters":31600,"station_id":"ce4bhgp2rcd13ifvqfc0","pricing_plan_id":"free"},{"bike_id":"9d00a5e6-ca1d-4e07-a128-d277ed4d8366","system_id":"levelo_inurba_marseille","lat":43.261782,"lon":5.374515,"is_reserved":false,"is_disabled":false,"rental_uris":{"android":"levelo://app?vid=9d00a5e6-ca1d-4e07-a128-d277ed4d8366","ios":"levelo://app?vid=9d00a5e6-ca1d-4e07-a128-d277ed4d8366"},"vehicle_type_id":"4","last_reported":1679598346,"current_range_meters":31600,"station_id":"ce4bhgp2rcd13ifvqfc0","pricing_plan_id":"free"},{"bike_id":"490f39ed-a6e7-4e1b-85dd-9ef4baeff110","system_id":"levelo_inurba_marseille","lat":43.261782,"lon":5.374515,"is_reserved":false,"is_disabled":false,"rental_uris":{"android":"levelo://app?vid=490f39ed-a6e7-4e1b-85dd-9ef4baeff110","ios":"levelo://app?vid=490f39ed-a6e7-4e1b-85dd-9ef4baeff110"},"vehicle_type_id":"4","last_reported":1679598346,"current_range_meters":28800,"station_id":"ce4bhgp2rcd13ifvqfc0","pricing_plan_id":"free"},{"bike_id":"0ec7e74c-385a-40e8-a4b1-794ca73aba2c","system_id":"levelo_inurba_marseille","lat":43.261782,"lon":5.374515,"is_reserved":false,"is_disabled":false,"rental_uris":{"android":"levelo://app?vid=0ec7e74c-385a-40e8-a4b1-794ca73aba2c","ios":"levelo://app?vid=0ec7e74c-385a-40e8-a4b1-794ca73aba2c"},"vehicle_type_id":"4","last_reported":1679598346,"current_range_meters":26800,"station_id":"ce4bhgp2rcd13ifvqfc0","pricing_plan_id":"free"},{"bike_id":"de973482-3544-4629-b7a8-6aeedb3bbaad","system_id":"levelo_inurba_marseille","lat":43.317104,"lon":5.436818,"is_reserved":false,"is_disabled":false,"rental_uris":{"android":"levelo://app?vid=de973482-3544-4629-b7a8-6aeedb3bbaad","ios":"levelo://app?vid=de973482-3544-4629-b7a8-6aeedb3bbaad"},"vehicle_type_id":"4","last_reported":1679598346,"current_range_meters":24800,"station_id":"ce4bhp92rcd13ifvqhcg","pricing_plan_id":"free"},{"bike_id":"fa5e2433-cd52-436b-9795-5a3eb3210f6a","system_id":"levelo_inurba_marseille","lat":43.261782,"lon":5.374515,"is_reserved":false,"is_disabled":false,"rental_uris":{"android":"levelo://app?vid=fa5e2433-cd52-436b-9795-5a3eb3210f6a","ios":"levelo://app?vid=fa5e2433-cd52-436b-9795-5a3eb3210f6a"},"vehicle_type_id":"4","last_reported":1679598346,"current_range_meters":31600,"station_id":"ce4bhgp2rcd13ifvqfc0","pricing_plan_id":"free"},{"bike_id":"2ed437a9-6627-4087-9f7f-be00e83a4f90","system_id":"levelo_inurba_marseille","lat":43.31711,"lon":5.43705,"is_reserved":false,"is_disabled":false,"rental_uris":{"android":"levelo://app?vid=2ed437a9-6627-4087-9f7f-be00e83a4f90","ios":"levelo://app?vid=2ed437a9-6627-4087-9f7f-be00e83a4f90"},"vehicle_type_id":"4","last_reported":1679598346,"current_range_meters":17600,"station_id":"ce4bhp92rcd13ifvqhcg","pricing_plan_id":"free"},{"bike_id":"1b6716e2-b4db-46a3-99cf-56891c678ca3","system_id":"levelo_inurba_marseille","lat":43.26201,"lon":5.37929,"is_reserved":false,"is_disabled":false,"rental_uris":{"android":"levelo://app?vid=1b6716e2-b4db-46a3-99cf-56891c678ca3","ios":"levelo://app?vid=1b6716e2-b4db-46a3-99cf-56891c678ca3"},"vehicle_type_id":"4","last_reported":1679598346,"current_range_meters":26000,"station_id":"","pricing_plan_id":"free"},{"bike_id":"c0bf3803-ec21-4d68-8b5d-35195660d2ac","system_id":"levelo_inurba_marseille","lat":43.299013,"lon":5.43662,"is_reserved":false,"is_disabled":false,"rental_uris":{"android":"levelo://app?vid=c0bf3803-ec21-4d68-8b5d-35195660d2ac","ios":"levelo://app?vid=c0bf3803-ec21-4d68-8b5d-35195660d2ac"},"vehicle_type_id":"4","last_reported":1679598346,"current_range_meters":17200,"station_id":"","pricing_plan_id":"free"},{"bike_id":"c972fe82-f39d-45c7-a225-b5b09b956ead","system_id":"levelo_inurba_marseille","lat":43.28483,"lon":5.43838,"is_reserved":false,"is_disabled":false,"rental_uris":{"android":"levelo://app?vid=c972fe82-f39d-45c7-a225-b5b09b956ead","ios":"levelo://app?vid=c972fe82-f39d-45c7-a225-b5b09b956ead"},"vehicle_type_id":"4","last_reported":1679598346,"current_range_meters":0,"station_id":"","pricing_plan_id":"free"},{"bike_id":"62ff92cf-c2a0-4ab1-9ac3-6915c96c6550","system_id":"levelo_inurba_marseille","lat":43.250966,"lon":5.395186,"is_reserved":false,"is_disabled":false,"rental_uris":{"android":"levelo://app?vid=62ff92cf-c2a0-4ab1-9ac3-6915c96c6550","ios":"levelo://app?vid=62ff92cf-c2a0-4ab1-9ac3-6915c96c6550"},"vehicle_type_id":"4","last_reported":1679598346,"current_range_meters":7200,"station_id":"ce4bhm12rcd13ifvqgkg","pricing_plan_id":"free"},{"bike_id":"446c2d5d-0919-4a2f-9a25-ace787c87cd6","system_id":"levelo_inurba_marseille","lat":43.25087,"lon":5.3952,"is_reserved":false,"is_disabled":false,"rental_uris":{"android":"levelo://app?vid=446c2d5d-0919-4a2f-9a25-ace787c87cd6","ios":"levelo://app?vid=446c2d5d-0919-4a2f-9a25-ace787c87cd6"},"vehicle_type_id":"4","last_reported":1679598346,"current_range_meters":0,"station_id":"","pricing_plan_id":"free"},{"bike_id":"29931223-c7d0-44c6-b951-8d609b3e619f","system_id":"levelo_inurba_marseille","lat":43.25123,"lon":5.40318,"is_reserved":false,"is_disabled":false,"rental_uris":{"android":"levelo://app?vid=29931223-c7d0-44c6-b951-8d609b3e619f","ios":"levelo://app?vid=29931223-c7d0-44c6-b951-8d609b3e619f"},"vehicle_type_id":"4","last_reported":1679598346,"current_range_meters":15600,"station_id":"","pricing_plan_id":"free"},{"bike_id":"618e2c4f-c606-4ac7-89cc-bfd27edc8d58","system_id":"levelo_inurba_marseille","lat":43.24693,"lon":5.382096,"is_reserved":false,"is_disabled":false,"rental_uris":{"android":"levelo://app?vid=618e2c4f-c606-4ac7-89cc-bfd27edc8d58","ios":"levelo://app?vid=618e2c4f-c606-4ac7-89cc-bfd27edc8d58"},"vehicle_type_id":"4","last_reported":1679598346,"current_range_meters":0,"station_id":"ce4bhih2rcd13ifvqfr0","pricing_plan_id":"free"},{"bike_id":"0a01a05e-d6bd-4f83-b867-1668d55fb789","system_id":"levelo_inurba_marseille","lat":43.2512,"lon":5.40317,"is_reserved":false,"is_disabled":false,"rental_uris":{"android":"levelo://app?vid=0a01a05e-d6bd-4f83-b867-1668d55fb789","ios":"levelo://app?vid=0a01a05e-d6bd-4f83-b867-1668d55fb789"},"vehicle_type_id":"4","last_reported":1679598346,"current_range_meters":0,"station_id":"","pricing_plan_id":"free"},{"bike_id":"f9005979-70b2-4925-8f5d-87aeb68abc39","system_id":"levelo_inurba_marseille","lat":43.251201,"lon":5.403259,"is_reserved":false,"is_disabled":false,"rental_uris":{"android":"levelo://app?vid=f9005979-70b2-4925-8f5d-87aeb68abc39","ios":"levelo://app?vid=f9005979-70b2-4925-8f5d-87aeb68abc39"},"vehicle_type_id":"4","last_reported":1679598346,"current_range_meters":0,"station_id":"ce4bhlh2rcd13ifvqgig","pricing_plan_id":"free"},{"bike_id":"1cedd92a-1e9f-40dc-92a5-11ce97f4281a","system_id":"levelo_inurba_marseille","lat":43.25102,"lon":5.403214,"is_reserved":false,"is_disabled":false,"rental_uris":{"android":"levelo://app?vid=1cedd92a-1e9f-40dc-92a5-11ce97f4281a","ios":"levelo://app?vid=1cedd92a-1e9f-40dc-92a5-11ce97f4281a"},"vehicle_type_id":"4","last_reported":1679598346,"current_range_meters":9600,"station_id":"ce4bhlh2rcd13ifvqgig","pricing_plan_id":"free"},{"bike_id":"355c1278-5ae4-4ba9-9b22-adf46769869a","system_id":"levelo_inurba_marseille","lat":43.246467,"lon":5.388984,"is_reserved":false,"is_disabled":false,"rental_uris":{"android":"levelo://app?vid=355c1278-5ae4-4ba9-9b22-adf46769869a","ios":"levelo://app?vid=355c1278-5ae4-4ba9-9b22-adf46769869a"},"vehicle_type_id":"4","last_reported":1679598346,"current_range_meters":23200,"station_id":"ce4bhg12rcd13ifvqf60","pricing_plan_id":"free"},{"bike_id":"f249b88c-cfaf-4974-b84f-a67136466a1f","system_id":"levelo_inurba_marseille","lat":43.245581,"lon":5.395069,"is_reserved":false,"is_disabled":false,"rental_uris":{"android":"levelo://app?vid=f249b88c-cfaf-4974-b84f-a67136466a1f","ios":"levelo://app?vid=f249b88c-cfaf-4974-b84f-a67136466a1f"},"vehicle_type_id":"4","last_reported":1679598346,"current_range_meters":14000,"station_id":"ce4bhlp2rcd13ifvqgjg","pricing_plan_id":"free"},{"bike_id":"3c9fa942-9f7d-4422-a176-45b851d8574b","system_id":"levelo_inurba_marseille","lat":43.240623,"lon":5.377642,"is_reserved":false,"is_disabled":false,"rental_uris":{"android":"levelo://app?vid=3c9fa942-9f7d-4422-a176-45b851d8574b","ios":"levelo://app?vid=3c9fa942-9f7d-4422-a176-45b851d8574b"},"vehicle_type_id":"4","last_reported":1679598346,"current_range_meters":28400,"station_id":"ce4bhnp2rcd13ifvqgvg","pricing_plan_id":"free"},{"bike_id":"edb8bffe-b8fc-4305-9a3e-27c32a14ec14","system_id":"levelo_inurba_marseille","lat":43.241782,"lon":5.397264,"is_reserved":false,"is_disabled":false,"rental_uris":{"android":"levelo://app?vid=edb8bffe-b8fc-4305-9a3e-27c32a14ec14","ios":"levelo://app?vid=edb8bffe-b8fc-4305-9a3e-27c32a14ec14"},"vehicle_type_id":"4","last_reported":1679598346,"current_range_meters":2000,"station_id":"ce4bhn12rcd13ifvqgpg","pricing_plan_id":"free"},{"bike_id":"5c77d60f-7bd2-4d5f-b156-4507472bf033","system_id":"levelo_inurba_marseille","lat":43.231923,"lon":5.355545,"is_reserved":false,"is_disabled":false,"rental_uris":{"android":"levelo://app?vid=5c77d60f-7bd2-4d5f-b156-4507472bf033","ios":"levelo://app?vid=5c77d60f-7bd2-4d5f-b156-4507472bf033"},"vehicle_type_id":"4","last_reported":1679598346,"current_range_meters":32000,"station_id":"ce4bhu92rcd13ifvqi70","pricing_plan_id":"free"},{"bike_id":"396febc8-98ad-430b-9e3d-94a38993c2f6","system_id":"levelo_inurba_marseille","lat":43.231923,"lon":5.355545,"is_reserved":false,"is_disabled":false,"rental_uris":{"android":"levelo://app?vid=396febc8-98ad-430b-9e3d-94a38993c2f6","ios":"levelo://app?vid=396febc8-98ad-430b-9e3d-94a38993c2f6"},"vehicle_type_id":"4","last_reported":1679598346,"current_range_meters":20400,"station_id":"ce4bhu92rcd13ifvqi70","pricing_plan_id":"free"},{"bike_id":"275794ec-3e0a-4b0e-9844-3e4ab559ddaf","system_id":"levelo_inurba_marseille","lat":43.231923,"lon":5.355545,"is_reserved":false,"is_disabled":false,"rental_uris":{"android":"levelo://app?vid=275794ec-3e0a-4b0e-9844-3e4ab559ddaf","ios":"levelo://app?vid=275794ec-3e0a-4b0e-9844-3e4ab559ddaf"},"vehicle_type_id":"4","last_reported":1679598346,"current_range_meters":18000,"station_id":"ce4bhu92rcd13ifvqi70","pricing_plan_id":"free"},{"bike_id":"23199eb2-be20-41ea-bd1d-77494fc15e62","system_id":"levelo_inurba_marseille","lat":43.231923,"lon":5.355545,"is_reserved":false,"is_disabled":false,"rental_uris":{"android":"levelo://app?vid=23199eb2-be20-41ea-bd1d-77494fc15e62","ios":"levelo://app?vid=23199eb2-be20-41ea-bd1d-77494fc15e62"},"vehicle_type_id":"4","last_reported":1679598346,"current_range_meters":11600,"station_id":"ce4bhu92rcd13ifvqi70","pricing_plan_id":"free"},{"bike_id":"9019f35c-a050-4217-b3b7-e38215cd8f4e","system_id":"levelo_inurba_marseille","lat":43.231923,"lon":5.355545,"is_reserved":false,"is_disabled":false,"rental_uris":{"android":"levelo://app?vid=9019f35c-a050-4217-b3b7-e38215cd8f4e","ios":"levelo://app?vid=9019f35c-a050-4217-b3b7-e38215cd8f4e"},"vehicle_type_id":"4","last_reported":1679598346,"current_range_meters":16800,"station_id":"ce4bhu92rcd13ifvqi70","pricing_plan_id":"free"}]}}