{"last_updated":1727860177,"ttl":60,"version":"2.2","data":{"bikes":[{"bike_id":"7542b0e7-2bd8-406b-acd8-0ecdc36e2785","system_id":"levelo_inurba_marseille","lat":43.337444,"lon":5.374475,"is_reserved":false,"is_disabled":false,"rental_uris":{"android":"levelo://app?vid=7542b0e7-2bd8-406b-acd8-0ecdc36e2785","ios":"levelo://app?vid=7542b0e7-2bd8-406b-acd8-0ecdc36e2785"},"vehicle_type_id":"4","last_reported":1727860177,"current_range_meters":38800,"station_id":"","pricing_plan_id":"cebpf4jnsgd1na2vs0mg"},{"bike_id":"bcf82663-17ee-46b9-afef-49e4ad13d1c5","system_id":"levelo_inurba_marseille","lat":43.30309,"lon":5.36893,"is_reserved":false,"is_disabled":false,"rental_uris":{"android":"levelo://app?vid=bcf82663-17ee-46b9-afef-49e4ad13d1c5","ios":"levelo://app?vid=bcf82663-17ee-46b9-afef-49e4ad13d1c5"},"vehicle_type_id":"4","last_reported":1727860177,"current_range_meters":25200,"station_id":"ce4bgqh2rcd13ifvqc5g","pricing_plan_id":"cebpf4jnsgd1na2vs0mg"},{"bike_id":"590a8d58-4170-45bf-9ac5-837bd3ff5b81","system_id":"levelo_inurba_marseille","lat":43.270638,"lon":5.422721,"is_reserved":false,"is_disabled":false,"rental_uris":{"android":"levelo://app?vid=590a8d58-4170-45bf-9ac5-837bd3ff5b81","ios":"levelo://app?vid=590a8d58-4170-45bf-9ac5-837bd3ff5b81"},"vehicle_type_id":"4","last_reported":1727860177,"current_range_meters":24400,"station_id":"ce4bhk92rcd13ifvqgb0","pricing_plan_id":"cebpf4jnsgd1na2vs0mg"},{"bike_id":"44cefc2e-25d9-4040-b45f-14956c78c679","system_id":"levelo_inurba_marseille","lat":43.27071,"lon":5.42262,"is_reserved":false,"is_disabled":false,"rental_uris":{"android":"levelo://app?vid=44cefc2e-25d9-4040-b45f-14956c78c679","ios":"levelo://app?vid=44cefc2e-25d9-4040-b45f-14956c78c679"},"vehicle_type_id":"4","last_reported":1727860177,"current_range_meters":38000,"station_id":"ce4bhk92rcd13ifvqgb0","pricing_plan_id":"cebpf4jnsgd1na2vs0mg"},{"bike_id":"4f60feaa-1808-4e7f-9340-f6a0254476e2","system_id":"levelo_inurba_marseille","lat":43.23959,"lon":5.36633,"is_reserved":false,"is_disabled":false,"rental_uris":{"android":"levelo://app?vid=4f60feaa-1808-4e7f-9340-f6a0254476e2","ios":"levelo://app?vid=4f60feaa-1808-4e7f-9340-f6a0254476e2"},"vehicle_type_id":"4","last_reported":1727860177,"current_range_meters":24800,"station_id":"ce4bhi12rcd13ifvqfp0","pricing_plan_id":"cebpf4jnsgd1na2vs0mg"},{"bike_id":"98bbd9c1-8307-405d-9250-6682408d96e2","system_id":"levelo_inurba_marseille","lat":43.33744,"lon":5.37491,"is_reserved":false,"is_disabled":false,"rental_uris":{"android":"levelo://app?vid=98bbd9c1-8307-405d-9250-6682408d96e2","ios":"levelo://app?vid=98bbd9c1-8307-405d-9250-6682408d96e2"},"vehicle_type_id":"4","last_reported":1727860177,"current_range_meters":38800,"station_id":"","pricing_plan_id":"cebpf4jnsgd1na2vs0mg"},{"bike_id":"0c89dfa8-c55b-430e-a9b8-c5ed3ad99e35","system_id":"levelo_inurba_marseille","lat":43.30548,"lon":5.3655,"is_reserved":false,"is_disabled":false,"rental_uris":{"android":"levelo://app?vid=0c89dfa8-c55b-430e-a9b8-c5ed3ad99e35","ios":"levelo://app?vid=0c89dfa8-c55b-430e-a9b8-c5ed3ad99e35"},"vehicle_type_id":"4","last_reported":1727860177,"current_range_meters":37600,"station_id":"ce4bgs12rcd13ifvqcag","pricing_plan_id":"cebpf4jnsgd1na2vs0mg"},{"bike_id":"0df43190-c338-42c2-9368-e415bbc7c9b9","system_id":"levelo_inurba_marseille","lat":43.298004,"lon":5.380941,"is_reserved":false,"is_disabled":false,"rental_uris":{"android":"levelo://app?vid=0df43190-c338-42c2-9368-e415bbc7c9b9","ios":"levelo://app?vid=0df43190-c338-42c2-9368-e415bbc7c9b9"},"vehicle_type_id":"4","last_reported":1727860177,"current_range_meters":30400,"station_id":"ce4bgip2rcd13ifvqbb0","pricing_plan_id":"cebpf4jnsgd1na2vs0mg"},{"bike_id":"bef04bc5-01fc-4470-b3ba-5aa6ddd8d6c1","system_id":"levelo_inurba_marseille","lat":43.31081,"lon":5.4243,"is_reserved":false,"is_disabled":false,"rental_uris":{"android":"levelo://app?vid=bef04bc5-01fc-4470-b3ba-5aa6ddd8d6c1","ios":"levelo://app?vid=bef04bc5-01fc-4470-b3ba-5aa6ddd8d6c1"},"vehicle_type_id":"4","last_reported":1727860177,"current_range_meters":4800,"station_id":"ce4bhp92rcd13ifvqhag","pricing_plan_id":"cebpf4jnsgd1na2vs0mg"},{"bike_id":"36c16717-a39d-4982-b908-c0d63ba1e343","system_id":"levelo_inurba_marseille","lat":43.3015,"lon":5.380758,"is_reserved":false,"is_disabled":false,"rental_uris":{"android":"levelo://app?vid=36c16717-a39d-4982-b908-c0d63ba1e343","ios":"levelo://app?vid=36c16717-a39d-4982-b908-c0d63ba1e343"},"vehicle_type_id":"4","last_reported":1727860177,"current_range_meters":10800,"station_id":"ce4bgjp2rcd13ifvqbh0","pricing_plan_id":"cebpf4jnsgd1na2vs0mg"},{"bike_id":"b44068e0-366c-4285-b893-3fb0582b3d59","system_id":"levelo_inurba_marseille","lat":43.30944,"lon":5.39038,"is_reserved":false,"is_disabled":false,"rental_uris":{"android":"levelo://app?vid=b44068e0-366c-4285-b893-3fb0582b3d59","ios":"levelo://app?vid=b44068e0-366c-4285-b893-3fb0582b3d59"},"vehicle_type_id":"4","last_reported":1727860177,"current_range_meters":10000,"station_id":"ce4bgup2rcd13ifvqco0","pricing_plan_id":"cebpf4jnsgd1na2vs0mg"},{"bike_id":"fa980e56-1e85-4ffb-824e-5670ae91f4c6","system_id":"levelo_inurba_marseille","lat":43.2815,"lon":5.42647,"is_reserved":false,"is_disabled":false,"rental_uris":{"android":"levelo://app?vid=fa980e56-1e85-4ffb-824e-5670ae91f4c6","ios":"levelo://app?vid=fa980e56-1e85-4ffb-824e-5670ae91f4c6"},"vehicle_type_id":"4","last_reported":1727860177,"current_range_meters":38800,"station_id":"ce4bhnh2rcd13ifvqgug","pricing_plan_id":"cebpf4jnsgd1na2vs0mg"},{"bike_id":"49538ee1-018d-4b81-97d6-02c09fe11c99","system_id":"levelo_inurba_marseille","lat":43.23155,"lon":5.43707,"is_reserved":false,"is_disabled":false,"rental_uris":{"android":"levelo://app?vid=49538ee1-018d-4b81-97d6-02c09fe11c99","ios":"levelo://app?vid=49538ee1-018d-4b81-97d6-02c09fe11c99"},"vehicle_type_id":"4","last_reported":1727860177,"current_range_meters":18800,"station_id":"ce4bhmp2rcd13ifvqgog","pricing_plan_id":"cebpf4jnsgd1na2vs0mg"},{"bike_id":"a4df2eb7-690f-4b11-9951-67b9790f07be","system_id":"levelo_inurba_marseille","lat":43.24082,"lon":5.37752,"is_reserved":false,"is_disabled":false,"rental_uris":{"android":"levelo://app?vid=a4df2eb7-690f-4b11-9951-67b9790f07be","ios":"levelo://app?vid=a4df2eb7-690f-4b11-9951-67b9790f07be"},"vehicle_type_id":"4","last_reported":1727860177,"current_range_meters":36000,"station_id":"","pricing_plan_id":"cebpf4jnsgd1na2vs0mg"},{"bike_id":"88c2ec76-ae58-4816-b041-5387854b603c","system_id":"levelo_inurba_marseille","lat":43.299679,"lon":5.384856,"is_reserved":false,"is_disabled":false,"rental_uris":{"android":"levelo://app?vid=88c2ec76-ae58-4816-b041-5387854b603c","ios":"levelo://app?vid=88c2ec76-ae58-4816-b041-5387854b603c"},"vehicle_type_id":"4","last_reported":1727860177,"current_range_meters":38000,"station_id":"ce4bgj92rcd13ifvqbd0","pricing_plan_id":"cebpf4jnsgd1na2vs0mg"},{"bike_id":"b36b72ea-6eda-4ce0-a588-071ef327e76a","system_id":"levelo_inurba_marseille","lat":43.29566,"lon":5.37511,"is_reserved":false,"is_disabled":false,"rental_uris":{"android":"levelo://app?vid=b36b72ea-6eda-4ce0-a588-071ef327e76a","ios":"levelo://app?vid=b36b72ea-6eda-4ce0-a588-071ef327e76a"},"vehicle_type_id":"4","last_reported":1727860177,"current_range_meters":27600,"station_id":"ce4bgh92rcd13ifvqb50","pricing_plan_id":"cebpf4jnsgd1na2vs0mg"},{"bike_id":"58f3fb3a-fe36-4c95-8108-a0895ed09833","system_id":"levelo_inurba_marseille","lat":43.26678,"lon":5.38261,"is_reserved":false,"is_disabled":false,"rental_uris":{"android":"levelo://app?vid=58f3fb3a-fe36-4c95-8108-a0895ed09833","ios":"levelo://app?vid=58f3fb3a-fe36-4c95-8108-a0895ed09833"},"vehicle_type_id":"4","last_reported":1727860177,"current_range_meters":39200,"station_id":"ce4bhg92rcd13ifvqf90","pricing_plan_id":"cebpf4jnsgd1na2vs0mg"},{"bike_id":"f2536b45-917d-4a72-9370-1fba1b3bcd3c","system_id":"levelo_inurba_marseille","lat":43.27173,"lon":5.40995,"is_reserved":false,"is_disabled":false,"rental_uris":{"android":"levelo://app?vid=f2536b45-917d-4a72-9370-1fba1b3bcd3c","ios":"levelo://app?vid=f2536b45-917d-4a72-9370-1fba1b3bcd3c"},"vehicle_type_id":"4","last_reported":1727860177,"current_range_meters":38400,"station_id":"ce4bhl12rcd13ifvqgf0","pricing_plan_id":"cebpf4jnsgd1na2vs0mg"},{"bike_id":"c701f68e-839c-445b-a74c-9bde6b602394","system_id":"levelo_inurba_marseille","lat":43.3372,"lon":5.39187,"is_reserved":false,"is_disabled":false,"rental_uris":{"android":"levelo://app?vid=c701f68e-839c-445b-a74c-9bde6b602394","ios":"levelo://app?vid=c701f68e-839c-445b-a74c-9bde6b602394"},"vehicle_type_id":"4","last_reported":1727860177,"current_range_meters":19600,"station_id":"ce4bhr92rcd13ifvqhsg","pricing_plan_id":"cebpf4jnsgd1na2vs0mg"},{"bike_id":"3b4e3131-7ae2-4b23-8b43-9b6b065f59ff","system_id":"levelo_inurba_marseille","lat":43.29793,"lon":5.40404,"is_reserved":false,"is_disabled":false,"rental_uris":{"android":"levelo://app?vid=3b4e3131-7ae2-4b23-8b43-9b6b065f59ff","ios":"levelo://app?vid=3b4e3131-7ae2-4b23-8b43-9b6b065f59ff"},"vehicle_type_id":"4","last_reported":1727860177,"current_range_meters":38400,"station_id":"ce4bh112rcd13ifvqd90","pricing_plan_id":"cebpf4jnsgd1na2vs0mg"},{"bike_id":"f8a47612-1892-4a7b-a3e8-e0b8f419daaf","system_id":"levelo_inurba_marseille","lat":43.28269,"lon":5.35072,"is_reserved":false,"is_disabled":false,"rental_uris":{"android":"levelo://app?vid=f8a47612-1892-4a7b-a3e8-e0b8f419daaf","ios":"levelo://app?vid=f8a47612-1892-4a7b-a3e8-e0b8f419daaf"},"vehicle_type_id":"4","last_reported":1727860177,"current_range_meters":18800,"station_id":"ce4bhbp2rcd13ifvqerg","pricing_plan_id":"cebpf4jnsgd1na2vs0mg"},{"bike_id":"a4224d16-b792-43d4-bccc-ee1385fa6dad","system_id":"levelo_inurba_marseille","lat":43.32544,"lon":5.41439,"is_reserved":false,"is_disabled":false,"rental_uris":{"android":"levelo://app?vid=a4224d16-b792-43d4-bccc-ee1385fa6dad","ios":"levelo://app?vid=a4224d16-b792-43d4-bccc-ee1385fa6dad"},"vehicle_type_id":"4","last_reported":1727860177,"current_range_meters":38800,"station_id":"ce4bhq12rcd13ifvqhhg","pricing_plan_id":"cebpf4jnsgd1na2vs0mg"},{"bike_id":"554d7a73-3b40-4dac-9894-f5eadfdc26ff","system_id":"levelo_inurba_marseille","lat":43.28152,"lon":5.42638,"is_reserved":false,"is_disabled":false,"rental_uris":{"android":"levelo://app?vid=554d7a73-3b40-4dac-9894-f5eadfdc26ff","ios":"levelo://app?vid=554d7a73-3b40-4dac-9894-f5eadfdc26ff"},"vehicle_type_id":"4","last_reported":1727860177,"current_range_meters":38400,"station_id":"ce4bhnh2rcd13ifvqgug","pricing_plan_id":"cebpf4jnsgd1na2vs0mg"},{"bike_id":"5c20e32a-e7b8-4f0c-859f-df9defd23ccb","system_id":"levelo_inurba_marseille","lat":43.3056,"lon":5.36543,"is_reserved":false,"is_disabled":false,"rental_uris":{"android":"levelo://app?vid=5c20e32a-e7b8-4f0c-859f-df9defd23ccb","ios":"levelo://app?vid=5c20e32a-e7b8-4f0c-859f-df9defd23ccb"},"vehicle_type_id":"4","last_reported":1727860177,"current_range_meters":20000,"station_id":"ce4bgs12rcd13ifvqcag","pricing_plan_id":"cebpf4jnsgd1na2vs0mg"},{"bike_id":"7e76f61d-1104-460b-895f-03b2abf7da39","system_id":"levelo_inurba_marseille","lat":43.26743,"lon":5.3779,"is_reserved":false,"is_disabled":false,"rental_uris":{"android":"levelo://app?vid=7e76f61d-1104-460b-895f-03b2abf7da39","ios":"levelo://app?vid=7e76f61d-1104-460b-895f-03b2abf7da39"},"vehicle_type_id":"4","last_reported":1727860177,"current_range_meters":12000,"station_id":"","pricing_plan_id":"cebpf4jnsgd1na2vs0mg"},{"bike_id":"eb1273c6-dccf-4cb7-8b98-9d74066bfb54","system_id":"levelo_inurba_marseille","lat":43.30307,"lon":5.36897,"is_reserved":false,"is_disabled":false,"rental_uris":{"android":"levelo://app?vid=eb1273c6-dccf-4cb7-8b98-9d74066bfb54","ios":"levelo://app?vid=eb1273c6-dccf-4cb7-8b98-9d74066bfb54"},"vehicle_type_id":"4","last_reported":1727860177,"current_range_meters":31200,"station_id":"ce4bgqh2rcd13ifvqc5g","pricing_plan_id":"cebpf4jnsgd1na2vs0mg"},{"bike_id":"cc640da1-a3dd-4e35-b4a7-a69a4681666a","system_id":"levelo_inurba_marseille","lat":43.27072,"lon":5.42281,"is_reserved":false,"is_disabled":false,"rental_uris":{"android":"levelo://app?vid=cc640da1-a3dd-4e35-b4a7-a69a4681666a","ios":"levelo://app?vid=cc640da1-a3dd-4e35-b4a7-a69a4681666a"},"vehicle_type_id":"4","last_reported":1727860177,"current_range_meters":18000,"station_id":"ce4bhk92rcd13ifvqgb0","pricing_plan_id":"cebpf4jnsgd1na2vs0mg"},{"bike_id":"1dc0821a-b027-41ae-8e9b-c796c096f930","system_id":"levelo_inurba_marseille","lat":43.29034,"lon":5.39962,"is_reserved":false,"is_disabled":false,"rental_uris":{"android":"levelo://app?vid=1dc0821a-b027-41ae-8e9b-c796c096f930","ios":"levelo://app?vid=1dc0821a-b027-41ae-8e9b-c796c096f930"},"vehicle_type_id":"4","last_reported":1727860177,"current_range_meters":8400,"station_id":"ce4bh392rcd13ifvqdm0","pricing_plan_id":"cebpf4jnsgd1na2vs0mg"},{"bike_id":"f7238bcb-4217-4b91-b8e7-9ef635bf3be2","system_id":"levelo_inurba_marseille","lat":43.28401,"lon":5.34985,"is_reserved":false,"is_disabled":false,"rental_uris":{"android":"levelo://app?vid=f7238bcb-4217-4b91-b8e7-9ef635bf3be2","ios":"levelo://app?vid=f7238bcb-4217-4b91-b8e7-9ef635bf3be2"},"vehicle_type_id":"4","last_reported":1727860177,"current_range_meters":24000,"station_id":"ce4bhbh2rcd13ifvqepg","pricing_plan_id":"cebpf4jnsgd1na2vs0mg"},{"bike_id":"a654434f-32c7-419a-833a-9b7a2cb3b55a","system_id":"levelo_inurba_marseille","lat":43.32481,"lon":5.3657,"is_reserved":false,"is_disabled":false,"rental_uris":{"android":"levelo://app?vid=a654434f-32c7-419a-833a-9b7a2cb3b55a","ios":"levelo://app?vid=a654434f-32c7-419a-833a-9b7a2cb3b55a"},"vehicle_type_id":"4","last_reported":1727860177,"current_range_meters":5600,"station_id":"ce4bhs12rcd13ifvqhvg","pricing_plan_id":"cebpf4jnsgd1na2vs0mg"},{"bike_id":"ec1c3e2c-022c-4156-88fa-de4eba1043d2","system_id":"levelo_inurba_marseille","lat":43.24999,"lon":5.38916,"is_reserved":false,"is_disabled":false,"rental_uris":{"android":"levelo://app?vid=ec1c3e2c-022c-4156-88fa-de4eba1043d2","ios":"levelo://app?vid=ec1c3e2c-022c-4156-88fa-de4eba1043d2"},"vehicle_type_id":"4","last_reported":1727860177,"current_range_meters":34000,"station_id":"ce4bhgp2rcd13ifvqfd0","pricing_plan_id":"cebpf4jnsgd1na2vs0mg"},{"bike_id":"f841c39b-1e65-43d7-a280-34502f66bb6e","system_id":"levelo_inurba_marseille","lat":43.26695,"lon":5.37568,"is_reserved":false,"is_disabled":false,"rental_uris":{"android":"levelo://app?vid=f841c39b-1e65-43d7-a280-34502f66bb6e","ios":"levelo://app?vid=f841c39b-1e65-43d7-a280-34502f66bb6e"},"vehicle_type_id":"4","last_reported":1727860177,"current_range_meters":38400,"station_id":"","pricing_plan_id":"cebpf4jnsgd1na2vs0mg"},{"bike_id":"186d1d7d-1293-4df2-9a3c-509d9f14d3c3","system_id":"levelo_inurba_marseille","lat":43.25928,"lon":5.40906,"is_reserved":false,"is_disabled":false,"rental_uris":{"android":"levelo://app?vid=186d1d7d-1293-4df2-9a3c-509d9f14d3c3","ios":"levelo://app?vid=186d1d7d-1293-4df2-9a3c-509d9f14d3c3"},"vehicle_type_id":"4","last_reported":1727860177,"current_range_meters":28800,"station_id":"ce4bhm92rcd13ifvqglg","pricing_plan_id":"cebpf4jnsgd1na2vs0mg"},{"bike_id":"124863e4-db68-43d5-b9aa-40c8641a8244","system_id":"levelo_inurba_marseille","lat":43.303059,"lon":5.368997,"is_reserved":false,"is_disabled":false,"rental_uris":{"android":"levelo://app?vid=124863e4-db68-43d5-b9aa-40c8641a8244","ios":"levelo://app?vid=124863e4-db68-43d5-b9aa-40c8641a8244"},"vehicle_type_id":"4","last_reported":1727860177,"current_range_meters":38800,"station_id":"ce4bgqh2rcd13ifvqc5g","pricing_plan_id":"cebpf4jnsgd1na2vs0mg"},{"bike_id":"fec2ef64-dae0-45ad-8eac-e92d7e96595a","system_id":"levelo_inurba_marseille","lat":43.33612,"lon":5.41033,"is_reserved":false,"is_disabled":false,"rental_uris":{"android":"levelo://app?vid=fec2ef64-dae0-45ad-8eac-e92d7e96595a","ios":"levelo://app?vid=fec2ef64-dae0-45ad-8eac-e92d7e96595a"},"vehicle_type_id":"4","last_reported":1727860177,"current_range_meters":32000,"station_id":"ce4bhqh2rcd13ifvqhmg","pricing_plan_id":"cebpf4jnsgd1na2vs0mg"},{"bike_id":"21bd0eaa-d1a8-4886-9288-7871e0263a69","system_id":"levelo_inurba_marseille","lat":43.30544,"lon":5.36535,"is_reserved":false,"is_disabled":false,"rental_uris":{"android":"levelo://app?vid=21bd0eaa-d1a8-4886-9288-7871e0263a69","ios":"levelo://app?vid=21bd0eaa-d1a8-4886-9288-7871e0263a69"},"vehicle_type_id":"4","last_reported":1727860177,"current_range_meters":6800,"station_id":"ce4bgs12rcd13ifvqcag","pricing_plan_id":"cebpf4jnsgd1na2vs0mg"},{"bike_id":"d5bf9db1-7dca-49c1-8306-b4004223ad4f","system_id":"levelo_inurba_marseille","lat":43.30532,"lon":5.36534,"is_reserved":false,"is_disabled":false,"rental_uris":{"android":"levelo://app?vid=d5bf9db1-7dca-49c1-8306-b4004223ad4f","ios":"levelo://app?vid=d5bf9db1-7dca-49c1-8306-b4004223ad4f"},"vehicle_type_id":"4","last_reported":1727860177,"current_range_meters":38800,"station_id":"ce4bgs12rcd13ifvqcag","pricing_plan_id":"cebpf4jnsgd1na2vs0mg"},{"bike_id":"b2685c21-5732-473d-85e2-a73a55e3b5b5","system_id":"levelo_inurba_marseille","lat":43.24387,"lon":5.37055,"is_reserved":false,"is_disabled":false,"rental_uris":{"android":"levelo://app?vid=b2685c21-5732-473d-85e2-a73a55e3b5b5","ios":"levelo://app?vid=b2685c21-5732-473d-85e2-a73a55e3b5b5"},"vehicle_type_id":"4","last_reported":1727860177,"current_range_meters":12800,"station_id":"ce4bhhh2rcd13ifvqfk0","pricing_plan_id":"cebpf4jnsgd1na2vs0mg"},{"bike_id":"e5816ce3-7496-4030-afe5-d284dc6238fd","system_id":"levelo_inurba_marseille","lat":43.34136,"lon":5.409,"is_reserved":false,"is_disabled":false,"rental_uris":{"android":"levelo://app?vid=e5816ce3-7496-4030-afe5-d284dc6238fd","ios":"levelo://app?vid=e5816ce3-7496-4030-afe5-d284dc6238fd"},"vehicle_type_id":"4","last_reported":1727860177,"current_range_meters":22800,"station_id":"ce4bhqh2rcd13ifvqhlg","pricing_plan_id":"cebpf4jnsgd1na2vs0mg"},{"bike_id":"b9aa4675-21cc-4cc3-ac8b-03fe1a8bdec2","system_id":"levelo_inurba_marseille","lat":43.31493,"lon":5.37306,"is_reserved":false,"is_disabled":false,"rental_uris":{"android":"levelo://app?vid=b9aa4675-21cc-4cc3-ac8b-03fe1a8bdec2","ios":"levelo://app?vid=b9aa4675-21cc-4cc3-ac8b-03fe1a8bdec2"},"vehicle_type_id":"4","last_reported":1727860177,"current_range_meters":1600,"station_id":"ce4bgt12rcd13ifvqcd0","pricing_plan_id":"cebpf4jnsgd1na2vs0mg"},{"bike_id":"266ac202-895c-4bb6-9a6e-d9779dfb3bea","system_id":"levelo_inurba_marseille","lat":43.28485,"lon":5.38536,"is_reserved":false,"is_disabled":false,"rental_uris":{"android":"levelo://app?vid=266ac202-895c-4bb6-9a6e-d9779dfb3bea","ios":"levelo://app?vid=266ac202-895c-4bb6-9a6e-d9779dfb3bea"},"vehicle_type_id":"4","last_reported":1727860177,"current_range_meters":8800,"station_id":"ce4bh8p2rcd13ifvqeb0","pricing_plan_id":"cebpf4jnsgd1na2vs0mg"},{"bike_id":"2d0f7811-c36b-4ea9-9993-aac0c09b4348","system_id":"levelo_inurba_marseille","lat":43.283478,"lon":5.381097,"is_reserved":false,"is_disabled":false,"rental_uris":{"android":"levelo://app?vid=2d0f7811-c36b-4ea9-9993-aac0c09b4348","ios":"levelo://app?vid=2d0f7811-c36b-4ea9-9993-aac0c09b4348"},"vehicle_type_id":"4","last_reported":1727860177,"current_range_meters":18000,"station_id":"ce4bh412rcd13ifvqdr0","pricing_plan_id":"cebpf4jnsgd1na2vs0mg"},{"bike_id":"7eea94b4-c235-413a-802b-db102370e6b0","system_id":"levelo_inurba_marseille","lat":43.29256,"lon":5.40908,"is_reserved":false,"is_disabled":false,"rental_uris":{"android":"levelo://app?vid=7eea94b4-c235-413a-802b-db102370e6b0","ios":"levelo://app?vid=7eea94b4-c235-413a-802b-db102370e6b0"},"vehicle_type_id":"4","last_reported":1727860177,"current_range_meters":18800,"station_id":"ce4bh192rcd13ifvqdc0","pricing_plan_id":"cebpf4jnsgd1na2vs0mg"},{"bike_id":"23c4ac16-7c5b-4b8e-8637-491c7e97010d","system_id":"levelo_inurba_marseille","lat":43.33761,"lon":5.3746,"is_reserved":false,"is_disabled":false,"rental_uris":{"android":"levelo://app?vid=23c4ac16-7c5b-4b8e-8637-491c7e97010d","ios":"levelo://app?vid=23c4ac16-7c5b-4b8e-8637-491c7e97010d"},"vehicle_type_id":"4","last_reported":1727860177,"current_range_meters":38800,"station_id":"","pricing_plan_id":"cebpf4jnsgd1na2vs0mg"},{"bike_id":"f90da75e-7b62-4a54-873e-53b6ecec8872","system_id":"levelo_inurba_marseille","lat":43.29786,"lon":5.38093,"is_reserved":false,"is_disabled":false,"rental_uris":{"android":"levelo://app?vid=f90da75e-7b62-4a54-873e-53b6ecec8872","ios":"levelo://app?vid=f90da75e-7b62-4a54-873e-53b6ecec8872"},"vehicle_type_id":"4","last_reported":1727860177,"current_range_meters":26000,"station_id":"ce4bgip2rcd13ifvqbb0","pricing_plan_id":"cebpf4jnsgd1na2vs0mg"},{"bike_id":"b4a000ef-7b2c-4da6-b086-27961ab33ff3","system_id":"levelo_inurba_marseille","lat":43.30949,"lon":5.39045,"is_reserved":false,"is_disabled":false,"rental_uris":{"android":"levelo://app?vid=b4a000ef-7b2c-4da6-b086-27961ab33ff3","ios":"levelo://app?vid=b4a000ef-7b2c-4da6-b086-27961ab33ff3"},"vehicle_type_id":"4","last_reported":1727860177,"current_range_meters":16400,"station_id":"ce4bgup2rcd13ifvqco0","pricing_plan_id":"cebpf4jnsgd1na2vs0mg"},{"bike_id":"5c35da56-feb6-493d-9e7e-21e9f1e9400f","system_id":"levelo_inurba_marseille","lat":43.30132,"lon":5.39871,"is_reserved":false,"is_disabled":false,"rental_uris":{"android":"levelo://app?vid=5c35da56-feb6-493d-9e7e-21e9f1e9400f","ios":"levelo://app?vid=5c35da56-feb6-493d-9e7e-21e9f1e9400f"},"vehicle_type_id":"4","last_reported":1727860177,"current_range_meters":24000,"station_id":"ce4bh0h2rcd13ifvqd40","pricing_plan_id":"cebpf4jnsgd1na2vs0mg"},{"bike_id":"c660c489-7cc5-4030-a3a2-c6e8ee9283fb","system_id":"levelo_inurba_marseille","lat":43.27899,"lon":5.38011,"is_reserved":false,"is_disabled":false,"rental_uris":{"android":"levelo://app?vid=c660c489-7cc5-4030-a3a2-c6e8ee9283fb","ios":"levelo://app?vid=c660c489-7cc5-4030-a3a2-c6e8ee9283fb"},"vehicle_type_id":"4","last_reported":1727860177,"current_range_meters":11600,"station_id":"ce4bhf92rcd13ifvqf50","pricing_plan_id":"cebpf4jnsgd1na2vs0mg"},{"bike_id":"11d8e8c4-ba71-4ab4-9cac-530b1f4f9a0b","system_id":"levelo_inurba_marseille","lat":43.30155,"lon":5.38065,"is_reserved":false,"is_disabled":false,"rental_uris":{"android":"levelo://app?vid=11d8e8c4-ba71-4ab4-9cac-530b1f4f9a0b","ios":"levelo://app?vid=11d8e8c4-ba71-4ab4-9cac-530b1f4f9a0b"},"vehicle_type_id":"4","last_reported":1727860177,"current_range_meters":8000,"station_id":"ce4bgjp2rcd13ifvqbh0","pricing_plan_id":"cebpf4jnsgd1na2vs0mg"},{"bike_id":"4af40065-c5ec-4f7d-88bb-124a1c77e44a","system_id":"levelo_inurba_marseille","lat":43.31367,"lon":5.36703,"is_reserved":false,"is_disabled":false,"rental_uris":{"android":"levelo://app?vid=4af40065-c5ec-4f7d-88bb-124a1c77e44a","ios":"levelo://app?vid=4af40065-c5ec-4f7d-88bb-124a1c77e44a"},"vehicle_type_id":"4","last_reported":1727860177,"current_range_meters":36800,"station_id":"ce4bgr92rcd13ifvqc6g","pricing_plan_id":"cebpf4jnsgd1na2vs0mg"},{"bike_id":"842ce223-38ef-43df-b447-26f716b4d380","system_id":"levelo_inurba_marseille","lat":43.255,"lon":5.37646,"is_reserved":false,"is_disabled":false,"rental_uris":{"android":"levelo://app?vid=842ce223-38ef-43df-b447-26f716b4d380","ios":"levelo://app?vid=842ce223-38ef-43df-b447-26f716b4d380"},"vehicle_type_id":"4","last_reported":1727860177,"current_range_meters":28400,"station_id":"ce4bhh12rcd13ifvqff0","pricing_plan_id":"cebpf4jnsgd1na2vs0mg"},{"bike_id":"689814a7-8b14-4d12-8339-ea2e14685f98","system_id":"levelo_inurba_marseille","lat":43.25497,"lon":5.37648,"is_reserved":false,"is_disabled":false,"rental_uris":{"android":"levelo://app?vid=689814a7-8b14-4d12-8339-ea2e14685f98","ios":"levelo://app?vid=689814a7-8b14-4d12-8339-ea2e14685f98"},"vehicle_type_id":"4","last_reported":1727860177,"current_range_meters":22800,"station_id":"ce4bhh12rcd13ifvqff0","pricing_plan_id":"cebpf4jnsgd1na2vs0mg"},{"bike_id":"90085ec2-3304-4141-b2fc-6bbce3f2e437","system_id":"levelo_inurba_marseille","lat":43.24665,"lon":5.38148,"is_reserved":false,"is_disabled":false,"rental_uris":{"android":"levelo://app?vid=90085ec2-3304-4141-b2fc-6bbce3f2e437","ios":"levelo://app?vid=90085ec2-3304-4141-b2fc-6bbce3f2e437"},"vehicle_type_id":"4","last_reported":1727860177,"current_range_meters":25200,"station_id":"ce4bhih2rcd13ifvqfr0","pricing_plan_id":"cebpf4jnsgd1na2vs0mg"},{"bike_id":"f705d0a8-89a6-45eb-86e6-a1c3e866896d","system_id":"levelo_inurba_marseille","lat":43.29965,"lon":5.38479,"is_reserved":false,"is_disabled":false,"rental_uris":{"android":"levelo://app?vid=f705d0a8-89a6-45eb-86e6-a1c3e866896d","ios":"levelo://app?vid=f705d0a8-89a6-45eb-86e6-a1c3e866896d"},"vehicle_type_id":"4","last_reported":1727860177,"current_range_meters":39200,"station_id":"ce4bgj92rcd13ifvqbd0","pricing_plan_id":"cebpf4jnsgd1na2vs0mg"},{"bike_id":"2392ac77-55f7-4c80-af73-e5c5c755b68a","system_id":"levelo_inurba_marseille","lat":43.26554,"lon":5.37284,"is_reserved":false,"is_disabled":false,"rental_uris":{"android":"levelo://app?vid=2392ac77-55f7-4c80-af73-e5c5c755b68a","ios":"levelo://app?vid=2392ac77-55f7-4c80-af73-e5c5c755b68a"},"vehicle_type_id":"4","last_reported":1727860177,"current_range_meters":28000,"station_id":"ce4bhg12rcd13ifvqf70","pricing_plan_id":"cebpf4jnsgd1na2vs0mg"},{"bike_id":"9cd128bb-3a64-4bb5-8c11-3fd33409958b","system_id":"levelo_inurba_marseille","lat":43.23151,"lon":5.43709,"is_reserved":false,"is_disabled":false,"rental_uris":{"android":"levelo://app?vid=9cd128bb-3a64-4bb5-8c11-3fd33409958b","ios":"levelo://app?vid=9cd128bb-3a64-4bb5-8c11-3fd33409958b"},"vehicle_type_id":"4","last_reported":1727860177,"current_range_meters":24000,"station_id":"ce4bhmp2rcd13ifvqgog","pricing_plan_id":"cebpf4jnsgd1na2vs0mg"},{"bike_id":"a1ac91c2-e22c-4ece-bfe2-4d5e13ad6026","system_id":"levelo_inurba_marseille","lat":43.34073,"lon":5.42003,"is_reserved":false,"is_disabled":false,"rental_uris":{"android":"levelo://app?vid=a1ac91c2-e22c-4ece-bfe2-4d5e13ad6026","ios":"levelo://app?vid=a1ac91c2-e22c-4ece-bfe2-4d5e13ad6026"},"vehicle_type_id":"4","last_reported":1727860177,"current_range_meters":6000,"station_id":"","pricing_plan_id":"cebpf4jnsgd1na2vs0mg"},{"bike_id":"a2b2e7ec-9291-4e2e-99f8-400018f4dc70","system_id":"levelo_inurba_marseille","lat":43.30536,"lon":5.3671,"is_reserved":false,"is_disabled":false,"rental_uris":{"android":"levelo://app?vid=a2b2e7ec-9291-4e2e-99f8-400018f4dc70","ios":"levelo://app?vid=a2b2e7ec-9291-4e2e-99f8-400018f4dc70"},"vehicle_type_id":"4","last_reported":1727860177,"current_range_meters":39200,"station_id":"ce4bgrp2rcd13ifvqc9g","pricing_plan_id":"cebpf4jnsgd1na2vs0mg"},{"bike_id":"fc3e073d-7265-4b97-93fb-6072808fabc5","system_id":"levelo_inurba_marseille","lat":43.29028,"lon":5.37572,"is_reserved":false,"is_disabled":false,"rental_uris":{"android":"levelo://app?vid=fc3e073d-7265-4b97-93fb-6072808fabc5","ios":"levelo://app?vid=fc3e073d-7265-4b97-93fb-6072808fabc5"},"vehicle_type_id":"4","last_reported":1727860177,"current_range_meters":38800,"station_id":"ce4bh692rcd13ifvqe90","pricing_plan_id":"cebpf4jnsgd1na2vs0mg"},{"bike_id":"63f98ca1-f16d-4d88-a48d-74ef46e2e311","system_id":"levelo_inurba_marseille","lat":43.24077,"lon":5.37749,"is_reserved":false,"is_disabled":false,"rental_uris":{"android":"levelo://app?vid=63f98ca1-f16d-4d88-a48d-74ef46e2e311","ios":"levelo://app?vid=63f98ca1-f16d-4d88-a48d-74ef46e2e311"},"vehicle_type_id":"4","last_reported":1727860177,"current_range_meters":28800,"station_id":"ce4bhnp2rcd13ifvqgvg","pricing_plan_id":"cebpf4jnsgd1na2vs0mg"},{"bike_id":"5a306a5b-8554-44de-b608-031623eef1ae","system_id":"levelo_inurba_marseille","lat":43.30555,"lon":5.36537,"is_reserved":false,"is_disabled":false,"rental_uris":{"android":"levelo://app?vid=5a306a5b-8554-44de-b608-031623eef1ae","ios":"levelo://app?vid=5a306a5b-8554-44de-b608-031623eef1ae"},"vehicle_type_id":"4","last_reported":1727860177,"current_range_meters":9200,"station_id":"ce4bgs12rcd13ifvqcag","pricing_plan_id":"cebpf4jnsgd1na2vs0mg"},{"bike_id":"d65e5f64-4386-4e6f-8cfa-bae49fa3ef42","system_id":"levelo_inurba_marseille","lat":43.30475,"lon":5.379,"is_reserved":false,"is_disabled":false,"rental_uris":{"android":"levelo://app?vid=d65e5f64-4386-4e6f-8cfa-bae49fa3ef42","ios":"levelo://app?vid=d65e5f64-4386-4e6f-8cfa-bae49fa3ef42"},"vehicle_type_id":"4","last_reported":1727860177,"current_range_meters":38000,"station_id":"ce4bgup2rcd13ifvqcn0","pricing_plan_id":"cebpf4jnsgd1na2vs0mg"},{"bike_id":"cabafb91-95dc-4d5c-baa9-5aea6e08d11c","system_id":"levelo_inurba_marseille","lat":43.33607,"lon":5.41037,"is_reserved":false,"is_disabled":false,"rental_uris":{"android":"levelo://app?vid=cabafb91-95dc-4d5c-baa9-5aea6e08d11c","ios":"levelo://app?vid=cabafb91-95dc-4d5c-baa9-5aea6e08d11c"},"vehicle_type_id":"4","last_reported":1727860177,"current_range_meters":26800,"station_id":"ce4bhqh2rcd13ifvqhmg","pricing_plan_id":"cebpf4jnsgd1na2vs0mg"},{"bike_id":"609844d3-402e-4c83-8b7f-d2093120cb67","system_id":"levelo_inurba_marseille","lat":43.32526,"lon":5.41463,"is_reserved":false,"is_disabled":false,"rental_uris":{"android":"levelo://app?vid=609844d3-402e-4c83-8b7f-d2093120cb67","ios":"levelo://app?vid=609844d3-402e-4c83-8b7f-d2093120cb67"},"vehicle_type_id":"4","last_reported":1727860177,"current_range_meters":36400,"station_id":"ce4bhq12rcd13ifvqhhg","pricing_plan_id":"cebpf4jnsgd1na2vs0mg"},{"bike_id":"de7884da-a3a8-4ce0-aba4-998827e572b7","system_id":"levelo_inurba_marseille","lat":43.23151,"lon":5.43718,"is_reserved":false,"is_disabled":false,"rental_uris":{"android":"levelo://app?vid=de7884da-a3a8-4ce0-aba4-998827e572b7","ios":"levelo://app?vid=de7884da-a3a8-4ce0-aba4-998827e572b7"},"vehicle_type_id":"4","last_reported":1727860177,"current_range_meters":27200,"station_id":"ce4bhmp2rcd13ifvqgog","pricing_plan_id":"cebpf4jnsgd1na2vs0mg"},{"bike_id":"649b0ebd-72c1-4ccb-bdb5-0127394604e7","system_id":"levelo_inurba_marseille","lat":43.33614,"lon":5.41021,"is_reserved":false,"is_disabled":false,"rental_uris":{"android":"levelo://app?vid=649b0ebd-72c1-4ccb-bdb5-0127394604e7","ios":"levelo://app?vid=649b0ebd-72c1-4ccb-bdb5-0127394604e7"},"vehicle_type_id":"4","last_reported":1727860177,"current_range_meters":38000,"station_id":"ce4bhqh2rcd13ifvqhmg","pricing_plan_id":"cebpf4jnsgd1na2vs0mg"},{"bike_id":"f184f6d6-a8c1-4d3e-9dc1-05e0e2d83651","system_id":"levelo_inurba_marseille","lat":43.30147,"lon":5.37419,"is_reserved":false,"is_disabled":false,"rental_uris":{"android":"levelo://app?vid=f184f6d6-a8c1-4d3e-9dc1-05e0e2d83651","ios":"levelo://app?vid=f184f6d6-a8c1-4d3e-9dc1-05e0e2d83651"},"vehicle_type_id":"4","last_reported":1727860177,"current_range_meters":18800,"station_id":"ce4bgs92rcd13ifvqcc0","pricing_plan_id":"cebpf4jnsgd1na2vs0mg"},{"bike_id":"9e6f82c5-7edd-4d61-8fe9-86f829a7226e","system_id":"levelo_inurba_marseille","lat":43.2315,"lon":5.43722,"is_reserved":false,"is_disabled":false,"rental_uris":{"android":"levelo://app?vid=9e6f82c5-7edd-4d61-8fe9-86f829a7226e","ios":"levelo://app?vid=9e6f82c5-7edd-4d61-8fe9-86f829a7226e"},"vehicle_type_id":"4","last_reported":1727860177,"current_range_meters":11600,"station_id":"ce4bhmp2rcd13ifvqgog","pricing_plan_id":"cebpf4jnsgd1na2vs0mg"},{"bike_id":"e9f314ec-2c2e-40cf-aa19-12fca8bc5aaf","system_id":"levelo_inurba_marseille","lat":43.25818,"lon":5.39438,"is_reserved":false,"is_disabled":false,"rental_uris":{"android":"levelo://app?vid=e9f314ec-2c2e-40cf-aa19-12fca8bc5aaf","ios":"levelo://app?vid=e9f314ec-2c2e-40cf-aa19-12fca8bc5aaf"},"vehicle_type_id":"4","last_reported":1727860177,"current_range_meters":12800,"station_id":"ce4bhip2rcd13ifvqft0","pricing_plan_id":"cebpf4jnsgd1na2vs0mg"},{"bike_id":"461fe619-c53a-40f0-bfc1-9e1cc3aa8c03","system_id":"levelo_inurba_marseille","lat":43.24081,"lon":5.3773,"is_reserved":false,"is_disabled":false,"rental_uris":{"android":"levelo://app?vid=461fe619-c53a-40f0-bfc1-9e1cc3aa8c03","ios":"levelo://app?vid=461fe619-c53a-40f0-bfc1-9e1cc3aa8c03"},"vehicle_type_id":"4","last_reported":1727860177,"current_range_meters":30400,"station_id":"","pricing_plan_id":"cebpf4jnsgd1na2vs0mg"},{"bike_id":"8420c615-0a03-48f3-8c53-7945ca1519c1","system_id":"levelo_inurba_marseille","lat":43.30286,"lon":5.37689,"is_reserved":false,"is_disabled":false,"rental_uris":{"android":"levelo://app?vid=8420c615-0a03-48f3-8c53-7945ca1519c1","ios":"levelo://app?vid=8420c615-0a03-48f3-8c53-7945ca1519c1"},"vehicle_type_id":"4","last_reported":1727860177,"current_range_meters":38800,"station_id":"ce4bguh2rcd13ifvqcj0","pricing_plan_id":"cebpf4jnsgd1na2vs0mg"},{"bike_id":"edee628a-b07b-4534-9032-c88460d8330e","system_id":"levelo_inurba_marseille","lat":43.29029,"lon":5.37549,"is_reserved":false,"is_disabled":false,"rental_uris":{"android":"levelo://app?vid=edee628a-b07b-4534-9032-c88460d8330e","ios":"levelo://app?vid=edee628a-b07b-4534-9032-c88460d8330e"},"vehicle_type_id":"4","last_reported":1727860177,"current_range_meters":38800,"station_id":"ce4bh692rcd13ifvqe90","pricing_plan_id":"cebpf4jnsgd1na2vs0mg"},{"bike_id":"5a0d3d90-449e-478b-94b1-488eb695ddbe","system_id":"levelo_inurba_marseille","lat":43.29843,"lon":5.36269,"is_reserved":false,"is_disabled":false,"rental_uris":{"android":"levelo://app?vid=5a0d3d90-449e-478b-94b1-488eb695ddbe","ios":"levelo://app?vid=5a0d3d90-449e-478b-94b1-488eb695ddbe"},"vehicle_type_id":"4","last_reported":1727860177,"current_range_meters":37600,"station_id":"ce4bgpp2rcd13ifvqc3g","pricing_plan_id":"cebpf4jnsgd1na2vs0mg"},{"bike_id":"54edffe6-5495-491b-9f2e-e7373852c7d2","system_id":"levelo_inurba_marseille","lat":43.30548,"lon":5.36706,"is_reserved":false,"is_disabled":false,"rental_uris":{"android":"levelo://app?vid=54edffe6-5495-491b-9f2e-e7373852c7d2","ios":"levelo://app?vid=54edffe6-5495-491b-9f2e-e7373852c7d2"},"vehicle_type_id":"4","last_reported":1727860177,"current_range_meters":36400,"station_id":"ce4bgrp2rcd13ifvqc9g","pricing_plan_id":"cebpf4jnsgd1na2vs0mg"},{"bike_id":"d87fa909-b7a7-4c5c-aa9c-92bafcacb0c1","system_id":"levelo_inurba_marseille","lat":43.27209,"lon":5.39175,"is_reserved":false,"is_disabled":false,"rental_uris":{"android":"levelo://app?vid=d87fa909-b7a7-4c5c-aa9c-92bafcacb0c1","ios":"levelo://app?vid=d87fa909-b7a7-4c5c-aa9c-92bafcacb0c1"},"vehicle_type_id":"4","last_reported":1727860177,"current_range_meters":15200,"station_id":"ce4bhhp2rcd13ifvqfm0","pricing_plan_id":"cebpf4jnsgd1na2vs0mg"},{"bike_id":"ea8c2452-bf71-49b6-abc4-1e010f66de00","system_id":"levelo_inurba_marseille","lat":43.27493,"lon":5.42456,"is_reserved":false,"is_disabled":false,"rental_uris":{"android":"levelo://app?vid=ea8c2452-bf71-49b6-abc4-1e010f66de00","ios":"levelo://app?vid=ea8c2452-bf71-49b6-abc4-1e010f66de00"},"vehicle_type_id":"4","last_reported":1727860177,"current_range_meters":29600,"station_id":"ce4bhn92rcd13ifvqgrg","pricing_plan_id":"cebpf4jnsgd1na2vs0mg"},{"bike_id":"a2b8cd9d-feb4-4bfc-9051-419ee5152320","system_id":"levelo_inurba_marseille","lat":43.23154,"lon":5.43704,"is_reserved":false,"is_disabled":false,"rental_uris":{"android":"levelo://app?vid=a2b8cd9d-feb4-4bfc-9051-419ee5152320","ios":"levelo://app?vid=a2b8cd9d-feb4-4bfc-9051-419ee5152320"},"vehicle_type_id":"4","last_reported":1727860177,"current_range_meters":38800,"station_id":"ce4bhmp2rcd13ifvqgog","pricing_plan_id":"cebpf4jnsgd1na2vs0mg"},{"bike_id":"76391673-cd5d-49f4-8b45-1b76892547a9","system_id":"levelo_inurba_marseille","lat":43.24087,"lon":5.37752,"is_reserved":false,"is_disabled":false,"rental_uris":{"android":"levelo://app?vid=76391673-cd5d-49f4-8b45-1b76892547a9","ios":"levelo://app?vid=76391673-cd5d-49f4-8b45-1b76892547a9"},"vehicle_type_id":"4","last_reported":1727860177,"current_range_meters":36000,"station_id":"","pricing_plan_id":"cebpf4jnsgd1na2vs0mg"},{"bike_id":"8820dce1-16b5-4934-96cb-9938a9a746d3","system_id":"levelo_inurba_marseille","lat":43.23152,"lon":5.43713,"is_reserved":false,"is_disabled":false,"rental_uris":{"android":"levelo://app?vid=8820dce1-16b5-4934-96cb-9938a9a746d3","ios":"levelo://app?vid=8820dce1-16b5-4934-96cb-9938a9a746d3"},"vehicle_type_id":"4","last_reported":1727860177,"current_range_meters":17200,"station_id":"ce4bhmp2rcd13ifvqgog","pricing_plan_id":"cebpf4jnsgd1na2vs0mg"},{"bike_id":"32c3119e-3371-4f43-8913-1c30e0d13667","system_id":"levelo_inurba_marseille","lat":43.23058,"lon":5.35487,"is_reserved":false,"is_disabled":false,"rental_uris":{"android":"levelo://app?vid=32c3119e-3371-4f43-8913-1c30e0d13667","ios":"levelo://app?vid=32c3119e-3371-4f43-8913-1c30e0d13667"},"vehicle_type_id":"4","last_reported":1727860177,"current_range_meters":38800,"station_id":"cpo3342slgdg3j2ifvpg","pricing_plan_id":"cebpf4jnsgd1na2vs0mg"},{"bike_id":"39c7dc54-6d62-4b84-92eb-f8a41a50040c","system_id":"levelo_inurba_marseille","lat":43.23155,"lon":5.43707,"is_reserved":false,"is_disabled":false,"rental_uris":{"android":"levelo://app?vid=39c7dc54-6d62-4b84-92eb-f8a41a50040c","ios":"levelo://app?vid=39c7dc54-6d62-4b84-92eb-f8a41a50040c"},"vehicle_type_id":"4","last_reported":1727860177,"current_range_meters":26000,"station_id":"ce4bhmp2rcd13ifvqgog","pricing_plan_id":"cebpf4jnsgd1na2vs0mg"},{"bike_id":"59f38fb3-bbe0-45e2-ac36-7ba107dd73ab","system_id":"levelo_inurba_marseille","lat":43.33751,"lon":5.37459,"is_reserved":false,"is_disabled":false,"rental_uris":{"android":"levelo://app?vid=59f38fb3-bbe0-45e2-ac36-7ba107dd73ab","ios":"levelo://app?vid=59f38fb3-bbe0-45e2-ac36-7ba107dd73ab"},"vehicle_type_id":"4","last_reported":1727860177,"current_range_meters":38000,"station_id":"","pricing_plan_id":"cebpf4jnsgd1na2vs0mg"},{"bike_id":"123ff6ed-4385-4a10-999b-eb298bcab43c","system_id":"levelo_inurba_marseille","lat":43.33023,"lon":5.39026,"is_reserved":false,"is_disabled":false,"rental_uris":{"android":"levelo://app?vid=123ff6ed-4385-4a10-999b-eb298bcab43c","ios":"levelo://app?vid=123ff6ed-4385-4a10-999b-eb298bcab43c"},"vehicle_type_id":"4","last_reported":1727860177,"current_range_meters":26800,"station_id":"ce4bhr92rcd13ifvqhrg","pricing_plan_id":"cebpf4jnsgd1na2vs0mg"},{"bike_id":"d74fb2ef-f814-4ca8-94df-c647e77cc523","system_id":"levelo_inurba_marseille","lat":43.28151,"lon":5.42647,"is_reserved":false,"is_disabled":false,"rental_uris":{"android":"levelo://app?vid=d74fb2ef-f814-4ca8-94df-c647e77cc523","ios":"levelo://app?vid=d74fb2ef-f814-4ca8-94df-c647e77cc523"},"vehicle_type_id":"4","last_reported":1727860177,"current_range_meters":38000,"station_id":"ce4bhnh2rcd13ifvqgug","pricing_plan_id":"cebpf4jnsgd1na2vs0mg"},{"bike_id":"4d604001-b487-40b2-8bf6-bc3f1a343bff","system_id":"levelo_inurba_marseille","lat":43.24071,"lon":5.37766,"is_reserved":false,"is_disabled":false,"rental_uris":{"android":"levelo://app?vid=4d604001-b487-40b2-8bf6-bc3f1a343bff","ios":"levelo://app?vid=4d604001-b487-40b2-8bf6-bc3f1a343bff"},"vehicle_type_id":"4","last_reported":1727860177,"current_range_meters":19600,"station_id":"ce4bhnp2rcd13ifvqgvg","pricing_plan_id":"cebpf4jnsgd1na2vs0mg"},{"bike_id":"095907dd-5778-44cf-ac16-34fae447cd07","system_id":"levelo_inurba_marseille","lat":43.30469,"lon":5.37899,"is_reserved":false,"is_disabled":false,"rental_uris":{"android":"levelo://app?vid=095907dd-5778-44cf-ac16-34fae447cd07","ios":"levelo://app?vid=095907dd-5778-44cf-ac16-34fae447cd07"},"vehicle_type_id":"4","last_reported":1727860177,"current_range_meters":20400,"station_id":"ce4bgup2rcd13ifvqcn0","pricing_plan_id":"cebpf4jnsgd1na2vs0mg"},{"bike_id":"81c8f3eb-4f47-48de-b362-cac094d7e803","system_id":"levelo_inurba_marseille","lat":43.25934,"lon":5.4091,"is_reserved":false,"is_disabled":false,"rental_uris":{"android":"levelo://app?vid=81c8f3eb-4f47-48de-b362-cac094d7e803","ios":"levelo://app?vid=81c8f3eb-4f47-48de-b362-cac094d7e803"},"vehicle_type_id":"4","last_reported":1727860177,"current_range_meters":8000,"station_id":"ce4bhm92rcd13ifvqglg","pricing_plan_id":"cebpf4jnsgd1na2vs0mg"},{"bike_id":"2ae76a09-bc06-4ccb-8074-e086a3ec0cfb","system_id":"levelo_inurba_marseille","lat":43.25109,"lon":5.40324,"is_reserved":false,"is_disabled":false,"rental_uris":{"android":"levelo://app?vid=2ae76a09-bc06-4ccb-8074-e086a3ec0cfb","ios":"levelo://app?vid=2ae76a09-bc06-4ccb-8074-e086a3ec0cfb"},"vehicle_type_id":"4","last_reported":1727860177,"current_range_meters":20400,"station_id":"ce4bhlh2rcd13ifvqgig","pricing_plan_id":"cebpf4jnsgd1na2vs0mg"},{"bike_id":"a8c4c051-987a-40cc-82b5-8f1c4ddd87c1","system_id":"levelo_inurba_marseille","lat":43.2826,"lon":5.3507,"is_reserved":false,"is_disabled":false,"rental_uris":{"android":"levelo://app?vid=a8c4c051-987a-40cc-82b5-8f1c4ddd87c1","ios":"levelo://app?vid=a8c4c051-987a-40cc-82b5-8f1c4ddd87c1"},"vehicle_type_id":"4","last_reported":1727860177,"current_range_meters":39200,"station_id":"ce4bhbp2rcd13ifvqerg","pricing_plan_id":"cebpf4jnsgd1na2vs0mg"},{"bike_id":"613dc259-624b-4dec-b5ed-363ab49a6820","system_id":"levelo_inurba_marseille","lat":43.27491,"lon":5.42461,"is_reserved":false,"is_disabled":false,"rental_uris":{"android":"levelo://app?vid=613dc259-624b-4dec-b5ed-363ab49a6820","ios":"levelo://app?vid=613dc259-624b-4dec-b5ed-363ab49a6820"},"vehicle_type_id":"4","last_reported":1727860177,"current_range_meters":30000,"station_id":"ce4bhn92rcd13ifvqgrg","pricing_plan_id":"cebpf4jnsgd1na2vs0mg"},{"bike_id":"ecfb7345-8500-4199-9629-5050ebd3f45b","system_id":"levelo_inurba_marseille","lat":43.25939,"lon":5.40904,"is_reserved":false,"is_disabled":false,"rental_uris":{"android":"levelo://app?vid=ecfb7345-8500-4199-9629-5050ebd3f45b","ios":"levelo://app?vid=ecfb7345-8500-4199-9629-5050ebd3f45b"},"vehicle_type_id":"4","last_reported":1727860177,"current_range_meters":23200,"station_id":"ce4bhm92rcd13ifvqglg","pricing_plan_id":"cebpf4jnsgd1na2vs0mg"},{"bike_id":"070e769f-47d6-4acc-8ccb-6be635793b53","system_id":"levelo_inurba_marseille","lat":43.23053,"lon":5.35495,"is_reserved":false,"is_disabled":false,"rental_uris":{"android":"levelo://app?vid=070e769f-47d6-4acc-8ccb-6be635793b53","ios":"levelo://app?vid=070e769f-47d6-4acc-8ccb-6be635793b53"},"vehicle_type_id":"4","last_reported":1727860177,"current_range_meters":17200,"station_id":"cpo3342slgdg3j2ifvpg","pricing_plan_id":"cebpf4jnsgd1na2vs0mg"},{"bike_id":"3de6e063-d170-445d-99e6-b76ac33be872","system_id":"levelo_inurba_marseille","lat":43.23157,"lon":5.43697,"is_reserved":false,"is_disabled":false,"rental_uris":{"android":"levelo://app?vid=3de6e063-d170-445d-99e6-b76ac33be872","ios":"levelo://app?vid=3de6e063-d170-445d-99e6-b76ac33be872"},"vehicle_type_id":"4","last_reported":1727860177,"current_range_meters":18000,"station_id":"ce4bhmp2rcd13ifvqgog","pricing_plan_id":"cebpf4jnsgd1na2vs0mg"},{"bike_id":"54b61184-8afb-4583-aca7-eef7f7330c8a","system_id":"levelo_inurba_marseille","lat":43.30348,"lon":5.41881,"is_reserved":false,"is_disabled":false,"rental_uris":{"android":"levelo://app?vid=54b61184-8afb-4583-aca7-eef7f7330c8a","ios":"levelo://app?vid=54b61184-8afb-4583-aca7-eef7f7330c8a"},"vehicle_type_id":"4","last_reported":1727860177,"current_range_meters":20000,"station_id":"ce4bhop2rcd13ifvqh7g","pricing_plan_id":"cebpf4jnsgd1na2vs0mg"},{"bike_id":"c637a392-b21a-40f5-b39b-c0e72e72329e","system_id":"levelo_inurba_marseille","lat":43.27489,"lon":5.42455,"is_reserved":false,"is_disabled":false,"rental_uris":{"android":"levelo://app?vid=c637a392-b21a-40f5-b39b-c0e72e72329e","ios":"levelo://app?vid=c637a392-b21a-40f5-b39b-c0e72e72329e"},"vehicle_type_id":"4","last_reported":1727860177,"current_range_meters":18800,"station_id":"ce4bhn92rcd13ifvqgrg","pricing_plan_id":"cebpf4jnsgd1na2vs0mg"},{"bike_id":"8017d516-5d48-4e86-8edb-372d532396c3","system_id":"levelo_inurba_marseille","lat":43.32038,"lon":5.41557,"is_reserved":false,"is_disabled":false,"rental_uris":{"android":"levelo://app?vid=8017d516-5d48-4e86-8edb-372d532396c3","ios":"levelo://app?vid=8017d516-5d48-4e86-8edb-372d532396c3"},"vehicle_type_id":"4","last_reported":1727860177,"current_range_meters":36400,"station_id":"ce4bhq92rcd13ifvqhkg","pricing_plan_id":"cebpf4jnsgd1na2vs0mg"},{"bike_id":"87d7ad47-719d-4714-bb01-837221fe8954","system_id":"levelo_inurba_marseille","lat":43.30957,"lon":5.39037,"is_reserved":false,"is_disabled":false,"rental_uris":{"android":"levelo://app?vid=87d7ad47-719d-4714-bb01-837221fe8954","ios":"levelo://app?vid=87d7ad47-719d-4714-bb01-837221fe8954"},"vehicle_type_id":"4","last_reported":1727860177,"current_range_meters":28400,"station_id":"ce4bgup2rcd13ifvqco0","pricing_plan_id":"cebpf4jnsgd1na2vs0mg"},{"bike_id":"fceaeb14-0563-4b0f-885e-a63c514d85cd","system_id":"levelo_inurba_marseille","lat":43.28411,"lon":5.34987,"is_reserved":false,"is_disabled":false,"rental_uris":{"android":"levelo://app?vid=fceaeb14-0563-4b0f-885e-a63c514d85cd","ios":"levelo://app?vid=fceaeb14-0563-4b0f-885e-a63c514d85cd"},"vehicle_type_id":"4","last_reported":1727860177,"current_range_meters":38400,"station_id":"ce4bhbh2rcd13ifvqepg","pricing_plan_id":"cebpf4jnsgd1na2vs0mg"},{"bike_id":"630bf99b-8da5-4fa5-9381-4552175c26f1","system_id":"levelo_inurba_marseille","lat":43.30917,"lon":5.36861,"is_reserved":false,"is_disabled":false,"rental_uris":{"android":"levelo://app?vid=630bf99b-8da5-4fa5-9381-4552175c26f1","ios":"levelo://app?vid=630bf99b-8da5-4fa5-9381-4552175c26f1"},"vehicle_type_id":"4","last_reported":1727860177,"current_range_meters":32400,"station_id":"ce4bgn92rcd13ifvqbvg","pricing_plan_id":"cebpf4jnsgd1na2vs0mg"},{"bike_id":"f8f518e3-bd48-40f5-801a-4ead88758ee2","system_id":"levelo_inurba_marseille","lat":43.32113,"lon":5.36772,"is_reserved":false,"is_disabled":false,"rental_uris":{"android":"levelo://app?vid=f8f518e3-bd48-40f5-801a-4ead88758ee2","ios":"levelo://app?vid=f8f518e3-bd48-40f5-801a-4ead88758ee2"},"vehicle_type_id":"4","last_reported":1727860177,"current_range_meters":10000,"station_id":"ce4bhrh2rcd13ifvqhug","pricing_plan_id":"cebpf4jnsgd1na2vs0mg"},{"bike_id":"b5ae82c3-110d-4c77-9781-3ad95c6afaa7","system_id":"levelo_inurba_marseille","lat":43.34138,"lon":5.40899,"is_reserved":false,"is_disabled":false,"rental_uris":{"android":"levelo://app?vid=b5ae82c3-110d-4c77-9781-3ad95c6afaa7","ios":"levelo://app?vid=b5ae82c3-110d-4c77-9781-3ad95c6afaa7"},"vehicle_type_id":"4","last_reported":1727860177,"current_range_meters":32400,"station_id":"ce4bhqh2rcd13ifvqhlg","pricing_plan_id":"cebpf4jnsgd1na2vs0mg"},{"bike_id":"cdb7cf2e-2e87-4673-920d-e49ad8e2f5e8","system_id":"levelo_inurba_marseille","lat":43.31349,"lon":5.36702,"is_reserved":false,"is_disabled":false,"rental_uris":{"android":"levelo://app?vid=cdb7cf2e-2e87-4673-920d-e49ad8e2f5e8","ios":"levelo://app?vid=cdb7cf2e-2e87-4673-920d-e49ad8e2f5e8"},"vehicle_type_id":"4","last_reported":1727860177,"current_range_meters":26000,"station_id":"ce4bgr92rcd13ifvqc6g","pricing_plan_id":"cebpf4jnsgd1na2vs0mg"},{"bike_id":"b8d0f0fe-9829-4e25-b3fc-9da75c2774f3","system_id":"levelo_inurba_marseille","lat":43.25935,"lon":5.40913,"is_reserved":false,"is_disabled":false,"rental_uris":{"android":"levelo://app?vid=b8d0f0fe-9829-4e25-b3fc-9da75c2774f3","ios":"levelo://app?vid=b8d0f0fe-9829-4e25-b3fc-9da75c2774f3"},"vehicle_type_id":"4","last_reported":1727860177,"current_range_meters":16800,"station_id":"ce4bhm92rcd13ifvqglg","pricing_plan_id":"cebpf4jnsgd1na2vs0mg"},{"bike_id":"34d7077e-36f3-4739-9772-61813e607197","system_id":"levelo_inurba_marseille","lat":43.24172,"lon":5.39722,"is_reserved":false,"is_disabled":false,"rental_uris":{"android":"levelo://app?vid=34d7077e-36f3-4739-9772-61813e607197","ios":"levelo://app?vid=34d7077e-36f3-4739-9772-61813e607197"},"vehicle_type_id":"4","last_reported":1727860177,"current_range_meters":30000,"station_id":"ce4bhn12rcd13ifvqgpg","pricing_plan_id":"cebpf4jnsgd1na2vs0mg"},{"bike_id":"41c76739-6967-4d4a-aed6-4b5d9713d6de","system_id":"levelo_inurba_marseille","lat":43.2905,"lon":5.39923,"is_reserved":false,"is_disabled":false,"rental_uris":{"android":"levelo://app?vid=41c76739-6967-4d4a-aed6-4b5d9713d6de","ios":"levelo://app?vid=41c76739-6967-4d4a-aed6-4b5d9713d6de"},"vehicle_type_id":"4","last_reported":1727860177,"current_range_meters":37600,"station_id":"ce4bh392rcd13ifvqdm0","pricing_plan_id":"cebpf4jnsgd1na2vs0mg"},{"bike_id":"c79512c0-5855-4853-a139-4583c6a4ff0a","system_id":"levelo_inurba_marseille","lat":43.25013,"lon":5.38919,"is_reserved":false,"is_disabled":false,"rental_uris":{"android":"levelo://app?vid=c79512c0-5855-4853-a139-4583c6a4ff0a","ios":"levelo://app?vid=c79512c0-5855-4853-a139-4583c6a4ff0a"},"vehicle_type_id":"4","last_reported":1727860177,"current_range_meters":38400,"station_id":"ce4bhgp2rcd13ifvqfd0","pricing_plan_id":"cebpf4jnsgd1na2vs0mg"},{"bike_id":"3727c047-efa0-4b80-b25f-38632119f1ea","system_id":"levelo_inurba_marseille","lat":43.30527,"lon":5.36717,"is_reserved":false,"is_disabled":false,"rental_uris":{"android":"levelo://app?vid=3727c047-efa0-4b80-b25f-38632119f1ea","ios":"levelo://app?vid=3727c047-efa0-4b80-b25f-38632119f1ea"},"vehicle_type_id":"4","last_reported":1727860177,"current_range_meters":28800,"station_id":"ce4bgrp2rcd13ifvqc9g","pricing_plan_id":"cebpf4jnsgd1na2vs0mg"},{"bike_id":"ffa08bf2-21c5-42b6-8479-112b2a0b0743","system_id":"levelo_inurba_marseille","lat":43.28856,"lon":5.35856,"is_reserved":false,"is_disabled":false,"rental_uris":{"android":"levelo://app?vid=ffa08bf2-21c5-42b6-8479-112b2a0b0743","ios":"levelo://app?vid=ffa08bf2-21c5-42b6-8479-112b2a0b0743"},"vehicle_type_id":"4","last_reported":1727860177,"current_range_meters":35200,"station_id":"ce4bhb12rcd13ifvqem0","pricing_plan_id":"cebpf4jnsgd1na2vs0mg"},{"bike_id":"f73c0357-2191-480e-a049-d52ffb607063","system_id":"levelo_inurba_marseille","lat":43.3361,"lon":5.4103,"is_reserved":false,"is_disabled":false,"rental_uris":{"android":"levelo://app?vid=f73c0357-2191-480e-a049-d52ffb607063","ios":"levelo://app?vid=f73c0357-2191-480e-a049-d52ffb607063"},"vehicle_type_id":"4","last_reported":1727860177,"current_range_meters":35200,"station_id":"ce4bhqh2rcd13ifvqhmg","pricing_plan_id":"cebpf4jnsgd1na2vs0mg"},{"bike_id":"0e7b1978-4a8a-4669-a1c5-8cc0d3d0fce8","system_id":"levelo_inurba_marseille","lat":43.24801,"lon":5.37447,"is_reserved":false,"is_disabled":false,"rental_uris":{"android":"levelo://app?vid=0e7b1978-4a8a-4669-a1c5-8cc0d3d0fce8","ios":"levelo://app?vid=0e7b1978-4a8a-4669-a1c5-8cc0d3d0fce8"},"vehicle_type_id":"4","last_reported":1727860177,"current_range_meters":4400,"station_id":"ce4bhgh2rcd13ifvqfb0","pricing_plan_id":"cebpf4jnsgd1na2vs0mg"},{"bike_id":"78863aa1-ed71-4955-9c54-509cc7bf9e19","system_id":"levelo_inurba_marseille","lat":43.30749,"lon":5.38017,"is_reserved":false,"is_disabled":false,"rental_uris":{"android":"levelo://app?vid=78863aa1-ed71-4955-9c54-509cc7bf9e19","ios":"levelo://app?vid=78863aa1-ed71-4955-9c54-509cc7bf9e19"},"vehicle_type_id":"4","last_reported":1727860177,"current_range_meters":19600,"station_id":"","pricing_plan_id":"cebpf4jnsgd1na2vs0mg"},{"bike_id":"8e25999e-50c9-4906-a67a-216477dad2d9","system_id":"levelo_inurba_marseille","lat":43.30544,"lon":5.36705,"is_reserved":false,"is_disabled":false,"rental_uris":{"android":"levelo://app?vid=8e25999e-50c9-4906-a67a-216477dad2d9","ios":"levelo://app?vid=8e25999e-50c9-4906-a67a-216477dad2d9"},"vehicle_type_id":"4","last_reported":1727860177,"current_range_meters":36400,"station_id":"ce4bgrp2rcd13ifvqc9g","pricing_plan_id":"cebpf4jnsgd1na2vs0mg"},{"bike_id":"63a31c00-bef6-48ca-8690-0960aa859227","system_id":"levelo_inurba_marseille","lat":43.2926,"lon":5.38428,"is_reserved":false,"is_disabled":false,"rental_uris":{"android":"levelo://app?vid=63a31c00-bef6-48ca-8690-0960aa859227","ios":"levelo://app?vid=63a31c00-bef6-48ca-8690-0960aa859227"},"vehicle_type_id":"4","last_reported":1727860177,"current_range_meters":23200,"station_id":"ce4bh692rcd13ifvqea0","pricing_plan_id":"cebpf4jnsgd1na2vs0mg"},{"bike_id":"d1774312-75bc-436e-88ec-22588f98b90c","system_id":"levelo_inurba_marseille","lat":43.32475,"lon":5.36556,"is_reserved":false,"is_disabled":false,"rental_uris":{"android":"levelo://app?vid=d1774312-75bc-436e-88ec-22588f98b90c","ios":"levelo://app?vid=d1774312-75bc-436e-88ec-22588f98b90c"},"vehicle_type_id":"4","last_reported":1727860177,"current_range_meters":23200,"station_id":"ce4bhs12rcd13ifvqhvg","pricing_plan_id":"cebpf4jnsgd1na2vs0mg"},{"bike_id":"b7b2c6a4-94bb-4e4c-942a-7dd2f55032d9","system_id":"levelo_inurba_marseille","lat":43.30553,"lon":5.36552,"is_reserved":false,"is_disabled":false,"rental_uris":{"android":"levelo://app?vid=b7b2c6a4-94bb-4e4c-942a-7dd2f55032d9","ios":"levelo://app?vid=b7b2c6a4-94bb-4e4c-942a-7dd2f55032d9"},"vehicle_type_id":"4","last_reported":1727860177,"current_range_meters":27600,"station_id":"ce4bgs12rcd13ifvqcag","pricing_plan_id":"cebpf4jnsgd1na2vs0mg"},{"bike_id":"9e0f8531-ac87-4939-876c-6806e8dfeda9","system_id":"levelo_inurba_marseille","lat":43.23144,"lon":5.43714,"is_reserved":false,"is_disabled":false,"rental_uris":{"android":"levelo://app?vid=9e0f8531-ac87-4939-876c-6806e8dfeda9","ios":"levelo://app?vid=9e0f8531-ac87-4939-876c-6806e8dfeda9"},"vehicle_type_id":"4","last_reported":1727860177,"current_range_meters":8400,"station_id":"ce4bhmp2rcd13ifvqgog","pricing_plan_id":"cebpf4jnsgd1na2vs0mg"},{"bike_id":"53c6fe7a-c5f0-4c29-bdb6-08c6c7db5c71","system_id":"levelo_inurba_marseille","lat":43.32107,"lon":5.36767,"is_reserved":false,"is_disabled":false,"rental_uris":{"android":"levelo://app?vid=53c6fe7a-c5f0-4c29-bdb6-08c6c7db5c71","ios":"levelo://app?vid=53c6fe7a-c5f0-4c29-bdb6-08c6c7db5c71"},"vehicle_type_id":"4","last_reported":1727860177,"current_range_meters":17200,"station_id":"ce4bhrh2rcd13ifvqhug","pricing_plan_id":"cebpf4jnsgd1na2vs0mg"},{"bike_id":"e5b4acad-a526-4677-b608-6110c1720df0","system_id":"levelo_inurba_marseille","lat":43.31359,"lon":5.36709,"is_reserved":false,"is_disabled":false,"rental_uris":{"android":"levelo://app?vid=e5b4acad-a526-4677-b608-6110c1720df0","ios":"levelo://app?vid=e5b4acad-a526-4677-b608-6110c1720df0"},"vehicle_type_id":"4","last_reported":1727860177,"current_range_meters":4800,"station_id":"ce4bgr92rcd13ifvqc6g","pricing_plan_id":"cebpf4jnsgd1na2vs0mg"},{"bike_id":"9f51284f-7263-407e-a937-b1874b001f18","system_id":"levelo_inurba_marseille","lat":43.2315,"lon":5.43712,"is_reserved":false,"is_disabled":false,"rental_uris":{"android":"levelo://app?vid=9f51284f-7263-407e-a937-b1874b001f18","ios":"levelo://app?vid=9f51284f-7263-407e-a937-b1874b001f18"},"vehicle_type_id":"4","last_reported":1727860177,"current_range_meters":27600,"station_id":"ce4bhmp2rcd13ifvqgog","pricing_plan_id":"cebpf4jnsgd1na2vs0mg"},{"bike_id":"f87da6b4-b940-42b3-87f3-a540c8687e7f","system_id":"levelo_inurba_marseille","lat":43.302307,"lon":5.394488,"is_reserved":false,"is_disabled":false,"rental_uris":{"android":"levelo://app?vid=f87da6b4-b940-42b3-87f3-a540c8687e7f","ios":"levelo://app?vid=f87da6b4-b940-42b3-87f3-a540c8687e7f"},"vehicle_type_id":"4","last_reported":1727860177,"current_range_meters":8000,"station_id":"ce4bh0p2rcd13ifvqd70","pricing_plan_id":"cebpf4jnsgd1na2vs0mg"},{"bike_id":"2fb6b27c-bd2a-40f2-b0cf-75306d8d7e32","system_id":"levelo_inurba_marseille","lat":43.24168,"lon":5.36402,"is_reserved":false,"is_disabled":false,"rental_uris":{"android":"levelo://app?vid=2fb6b27c-bd2a-40f2-b0cf-75306d8d7e32","ios":"levelo://app?vid=2fb6b27c-bd2a-40f2-b0cf-75306d8d7e32"},"vehicle_type_id":"4","last_reported":1727860177,"current_range_meters":38400,"station_id":"cpo36qri1sfpv3e86is0","pricing_plan_id":"cebpf4jnsgd1na2vs0mg"},{"bike_id":"b652f429-09b8-4697-9c1b-3b9adc3c55d8","system_id":"levelo_inurba_marseille","lat":43.26871,"lon":5.39135,"is_reserved":false,"is_disabled":false,"rental_uris":{"android":"levelo://app?vid=b652f429-09b8-4697-9c1b-3b9adc3c55d8","ios":"levelo://app?vid=b652f429-09b8-4697-9c1b-3b9adc3c55d8"},"vehicle_type_id":"4","last_reported":1727860177,"current_range_meters":2800,"station_id":"","pricing_plan_id":"cebpf4jnsgd1na2vs0mg"},{"bike_id":"100e9fa1-1be7-47dd-9c3c-99b4b27ecd9e","system_id":"levelo_inurba_marseille","lat":43.29838,"lon":5.36269,"is_reserved":false,"is_disabled":false,"rental_uris":{"android":"levelo://app?vid=100e9fa1-1be7-47dd-9c3c-99b4b27ecd9e","ios":"levelo://app?vid=100e9fa1-1be7-47dd-9c3c-99b4b27ecd9e"},"vehicle_type_id":"4","last_reported":1727860177,"current_range_meters":35200,"station_id":"ce4bgpp2rcd13ifvqc3g","pricing_plan_id":"cebpf4jnsgd1na2vs0mg"},{"bike_id":"df952b1f-0654-4cff-8972-4495d5d3b837","system_id":"levelo_inurba_marseille","lat":43.33757,"lon":5.37476,"is_reserved":false,"is_disabled":false,"rental_uris":{"android":"levelo://app?vid=df952b1f-0654-4cff-8972-4495d5d3b837","ios":"levelo://app?vid=df952b1f-0654-4cff-8972-4495d5d3b837"},"vehicle_type_id":"4","last_reported":1727860177,"current_range_meters":8800,"station_id":"","pricing_plan_id":"cebpf4jnsgd1na2vs0mg"},{"bike_id":"804e3d71-db47-4264-9445-f1dd957f20d8","system_id":"levelo_inurba_marseille","lat":43.30309,"lon":5.36896,"is_reserved":false,"is_disabled":false,"rental_uris":{"android":"levelo://app?vid=804e3d71-db47-4264-9445-f1dd957f20d8","ios":"levelo://app?vid=804e3d71-db47-4264-9445-f1dd957f20d8"},"vehicle_type_id":"4","last_reported":1727860177,"current_range_meters":39200,"station_id":"ce4bgqh2rcd13ifvqc5g","pricing_plan_id":"cebpf4jnsgd1na2vs0mg"},{"bike_id":"8192b593-9aca-468c-b907-030a74254c59","system_id":"levelo_inurba_marseille","lat":43.30902,"lon":5.36853,"is_reserved":false,"is_disabled":false,"rental_uris":{"android":"levelo://app?vid=8192b593-9aca-468c-b907-030a74254c59","ios":"levelo://app?vid=8192b593-9aca-468c-b907-030a74254c59"},"vehicle_type_id":"4","last_reported":1727860177,"current_range_meters":8400,"station_id":"ce4bgn92rcd13ifvqbvg","pricing_plan_id":"cebpf4jnsgd1na2vs0mg"},{"bike_id":"5910812d-5065-4b1c-b734-afd3bcc21acd","system_id":"levelo_inurba_marseille","lat":43.29966,"lon":5.38485,"is_reserved":false,"is_disabled":false,"rental_uris":{"android":"levelo://app?vid=5910812d-5065-4b1c-b734-afd3bcc21acd","ios":"levelo://app?vid=5910812d-5065-4b1c-b734-afd3bcc21acd"},"vehicle_type_id":"4","last_reported":1727860177,"current_range_meters":27600,"station_id":"ce4bgj92rcd13ifvqbd0","pricing_plan_id":"cebpf4jnsgd1na2vs0mg"},{"bike_id":"85b9886d-d4b1-4a8f-903e-8795a110d38a","system_id":"levelo_inurba_marseille","lat":43.2315,"lon":5.43714,"is_reserved":false,"is_disabled":false,"rental_uris":{"android":"levelo://app?vid=85b9886d-d4b1-4a8f-903e-8795a110d38a","ios":"levelo://app?vid=85b9886d-d4b1-4a8f-903e-8795a110d38a"},"vehicle_type_id":"4","last_reported":1727860177,"current_range_meters":17200,"station_id":"ce4bhmp2rcd13ifvqgog","pricing_plan_id":"cebpf4jnsgd1na2vs0mg"},{"bike_id":"e85c3c96-1b33-4674-a39e-44d46c9d9538","system_id":"levelo_inurba_marseille","lat":43.24078,"lon":5.37742,"is_reserved":false,"is_disabled":false,"rental_uris":{"android":"levelo://app?vid=e85c3c96-1b33-4674-a39e-44d46c9d9538","ios":"levelo://app?vid=e85c3c96-1b33-4674-a39e-44d46c9d9538"},"vehicle_type_id":"4","last_reported":1727860177,"current_range_meters":22800,"station_id":"ce4bhnp2rcd13ifvqgvg","pricing_plan_id":"cebpf4jnsgd1na2vs0mg"},{"bike_id":"5b789e69-9988-4818-9eca-bf357cf1fde0","system_id":"levelo_inurba_marseille","lat":43.30537,"lon":5.36548,"is_reserved":false,"is_disabled":false,"rental_uris":{"android":"levelo://app?vid=5b789e69-9988-4818-9eca-bf357cf1fde0","ios":"levelo://app?vid=5b789e69-9988-4818-9eca-bf357cf1fde0"},"vehicle_type_id":"4","last_reported":1727860177,"current_range_meters":28800,"station_id":"ce4bgs12rcd13ifvqcag","pricing_plan_id":"cebpf4jnsgd1na2vs0mg"},{"bike_id":"4f2db1d7-0354-4715-b08e-7421c6196cab","system_id":"levelo_inurba_marseille","lat":43.30465,"lon":5.37911,"is_reserved":false,"is_disabled":false,"rental_uris":{"android":"levelo://app?vid=4f2db1d7-0354-4715-b08e-7421c6196cab","ios":"levelo://app?vid=4f2db1d7-0354-4715-b08e-7421c6196cab"},"vehicle_type_id":"4","last_reported":1727860177,"current_range_meters":29600,"station_id":"ce4bgup2rcd13ifvqcn0","pricing_plan_id":"cebpf4jnsgd1na2vs0mg"},{"bike_id":"e632540e-6ace-41bc-bfb7-d7c83c4d59d4","system_id":"levelo_inurba_marseille","lat":43.29928,"lon":5.36549,"is_reserved":false,"is_disabled":false,"rental_uris":{"android":"levelo://app?vid=e632540e-6ace-41bc-bfb7-d7c83c4d59d4","ios":"levelo://app?vid=e632540e-6ace-41bc-bfb7-d7c83c4d59d4"},"vehicle_type_id":"4","last_reported":1727860177,"current_range_meters":27600,"station_id":"ce4bgm92rcd13ifvqbr0","pricing_plan_id":"cebpf4jnsgd1na2vs0mg"},{"bike_id":"ee30eb65-e2b5-42f0-9767-04264112c239","system_id":"levelo_inurba_marseille","lat":43.305416,"lon":5.365346,"is_reserved":false,"is_disabled":false,"rental_uris":{"android":"levelo://app?vid=ee30eb65-e2b5-42f0-9767-04264112c239","ios":"levelo://app?vid=ee30eb65-e2b5-42f0-9767-04264112c239"},"vehicle_type_id":"4","last_reported":1727860177,"current_range_meters":16000,"station_id":"ce4bgs12rcd13ifvqcag","pricing_plan_id":"cebpf4jnsgd1na2vs0mg"},{"bike_id":"b993e505-e084-4b1a-9429-c10fe07c1a52","system_id":"levelo_inurba_marseille","lat":43.32523,"lon":5.41466,"is_reserved":false,"is_disabled":false,"rental_uris":{"android":"levelo://app?vid=b993e505-e084-4b1a-9429-c10fe07c1a52","ios":"levelo://app?vid=b993e505-e084-4b1a-9429-c10fe07c1a52"},"vehicle_type_id":"4","last_reported":1727860177,"current_range_meters":8800,"station_id":"ce4bhq12rcd13ifvqhhg","pricing_plan_id":"cebpf4jnsgd1na2vs0mg"},{"bike_id":"01fb5971-442b-463a-b6cb-9df75a7e0faa","system_id":"levelo_inurba_marseille","lat":43.3376,"lon":5.37478,"is_reserved":false,"is_disabled":false,"rental_uris":{"android":"levelo://app?vid=01fb5971-442b-463a-b6cb-9df75a7e0faa","ios":"levelo://app?vid=01fb5971-442b-463a-b6cb-9df75a7e0faa"},"vehicle_type_id":"4","last_reported":1727860177,"current_range_meters":36800,"station_id":"","pricing_plan_id":"cebpf4jnsgd1na2vs0mg"},{"bike_id":"92778824-43d0-48af-977c-04511febaa5e","system_id":"levelo_inurba_marseille","lat":43.33762,"lon":5.37449,"is_reserved":false,"is_disabled":false,"rental_uris":{"android":"levelo://app?vid=92778824-43d0-48af-977c-04511febaa5e","ios":"levelo://app?vid=92778824-43d0-48af-977c-04511febaa5e"},"vehicle_type_id":"4","last_reported":1727860177,"current_range_meters":36800,"station_id":"","pricing_plan_id":"cebpf4jnsgd1na2vs0mg"},{"bike_id":"504fb54d-59ee-4914-9177-68b1376101b0","system_id":"levelo_inurba_marseille","lat":43.29625,"lon":5.37716,"is_reserved":false,"is_disabled":false,"rental_uris":{"android":"levelo://app?vid=504fb54d-59ee-4914-9177-68b1376101b0","ios":"levelo://app?vid=504fb54d-59ee-4914-9177-68b1376101b0"},"vehicle_type_id":"4","last_reported":1727860177,"current_range_meters":38400,"station_id":"ce4bgi92rcd13ifvqb90","pricing_plan_id":"cebpf4jnsgd1na2vs0mg"},{"bike_id":"0d0c09c7-e409-4059-95eb-e2007a7f7fa5","system_id":"levelo_inurba_marseille","lat":43.33605,"lon":5.41025,"is_reserved":false,"is_disabled":false,"rental_uris":{"android":"levelo://app?vid=0d0c09c7-e409-4059-95eb-e2007a7f7fa5","ios":"levelo://app?vid=0d0c09c7-e409-4059-95eb-e2007a7f7fa5"},"vehicle_type_id":"4","last_reported":1727860177,"current_range_meters":10000,"station_id":"ce4bhqh2rcd13ifvqhmg","pricing_plan_id":"cebpf4jnsgd1na2vs0mg"},{"bike_id":"9379aab8-c6f6-45e4-b60e-cd3c3f5c68d5","system_id":"levelo_inurba_marseille","lat":43.28722,"lon":5.37947,"is_reserved":false,"is_disabled":false,"rental_uris":{"android":"levelo://app?vid=9379aab8-c6f6-45e4-b60e-cd3c3f5c68d5","ios":"levelo://app?vid=9379aab8-c6f6-45e4-b60e-cd3c3f5c68d5"},"vehicle_type_id":"4","last_reported":1727860177,"current_range_meters":18000,"station_id":"ce4bh9p2rcd13ifvqec0","pricing_plan_id":"cebpf4jnsgd1na2vs0mg"},{"bike_id":"d57d63f8-a766-42de-a53d-3a746b641922","system_id":"levelo_inurba_marseille","lat":43.30281,"lon":5.37696,"is_reserved":false,"is_disabled":false,"rental_uris":{"android":"levelo://app?vid=d57d63f8-a766-42de-a53d-3a746b641922","ios":"levelo://app?vid=d57d63f8-a766-42de-a53d-3a746b641922"},"vehicle_type_id":"4","last_reported":1727860177,"current_range_meters":38800,"station_id":"ce4bguh2rcd13ifvqcj0","pricing_plan_id":"cebpf4jnsgd1na2vs0mg"},{"bike_id":"900238c4-17c2-44b9-93b7-af95625edf2e","system_id":"levelo_inurba_marseille","lat":43.28927,"lon":5.3664,"is_reserved":false,"is_disabled":false,"rental_uris":{"android":"levelo://app?vid=900238c4-17c2-44b9-93b7-af95625edf2e","ios":"levelo://app?vid=900238c4-17c2-44b9-93b7-af95625edf2e"},"vehicle_type_id":"4","last_reported":1727860177,"current_range_meters":27600,"station_id":"ce4bhap2rcd13ifvqek0","pricing_plan_id":"cebpf4jnsgd1na2vs0mg"},{"bike_id":"6ad75e43-11c6-4e65-afdb-d66c47b2c894","system_id":"levelo_inurba_marseille","lat":43.24082,"lon":5.37747,"is_reserved":false,"is_disabled":false,"rental_uris":{"android":"levelo://app?vid=6ad75e43-11c6-4e65-afdb-d66c47b2c894","ios":"levelo://app?vid=6ad75e43-11c6-4e65-afdb-d66c47b2c894"},"vehicle_type_id":"4","last_reported":1727860177,"current_range_meters":19200,"station_id":"","pricing_plan_id":"cebpf4jnsgd1na2vs0mg"},{"bike_id":"8ef791d5-996c-4dd0-994d-02779893be47","system_id":"levelo_inurba_marseille","lat":43.28263,"lon":5.35065,"is_reserved":false,"is_disabled":false,"rental_uris":{"android":"levelo://app?vid=8ef791d5-996c-4dd0-994d-02779893be47","ios":"levelo://app?vid=8ef791d5-996c-4dd0-994d-02779893be47"},"vehicle_type_id":"4","last_reported":1727860177,"current_range_meters":34800,"station_id":"ce4bhbp2rcd13ifvqerg","pricing_plan_id":"cebpf4jnsgd1na2vs0mg"},{"bike_id":"5f36ad87-7b46-472c-b051-e319d926c233","system_id":"levelo_inurba_marseille","lat":43.30141,"lon":5.39869,"is_reserved":false,"is_disabled":false,"rental_uris":{"android":"levelo://app?vid=5f36ad87-7b46-472c-b051-e319d926c233","ios":"levelo://app?vid=5f36ad87-7b46-472c-b051-e319d926c233"},"vehicle_type_id":"4","last_reported":1727860177,"current_range_meters":18800,"station_id":"ce4bh0h2rcd13ifvqd40","pricing_plan_id":"cebpf4jnsgd1na2vs0mg"},{"bike_id":"c3a33346-b52d-4cac-a879-43367bb31009","system_id":"levelo_inurba_marseille","lat":43.2991,"lon":5.37461,"is_reserved":false,"is_disabled":false,"rental_uris":{"android":"levelo://app?vid=c3a33346-b52d-4cac-a879-43367bb31009","ios":"levelo://app?vid=c3a33346-b52d-4cac-a879-43367bb31009"},"vehicle_type_id":"4","last_reported":1727860177,"current_range_meters":32800,"station_id":"ce4bgjh2rcd13ifvqbg0","pricing_plan_id":"cebpf4jnsgd1na2vs0mg"},{"bike_id":"414d60d6-916b-4299-a67d-3b16e7ae531e","system_id":"levelo_inurba_marseille","lat":43.29615,"lon":5.37694,"is_reserved":false,"is_disabled":false,"rental_uris":{"android":"levelo://app?vid=414d60d6-916b-4299-a67d-3b16e7ae531e","ios":"levelo://app?vid=414d60d6-916b-4299-a67d-3b16e7ae531e"},"vehicle_type_id":"4","last_reported":1727860177,"current_range_meters":24400,"station_id":"ce4bgi92rcd13ifvqb90","pricing_plan_id":"cebpf4jnsgd1na2vs0mg"},{"bike_id":"3355cbba-3f17-4f4d-9cae-ee2aa1ddff19","system_id":"levelo_inurba_marseille","lat":43.30135,"lon":5.37418,"is_reserved":false,"is_disabled":false,"rental_uris":{"android":"levelo://app?vid=3355cbba-3f17-4f4d-9cae-ee2aa1ddff19","ios":"levelo://app?vid=3355cbba-3f17-4f4d-9cae-ee2aa1ddff19"},"vehicle_type_id":"4","last_reported":1727860177,"current_range_meters":18800,"station_id":"ce4bgs92rcd13ifvqcc0","pricing_plan_id":"cebpf4jnsgd1na2vs0mg"},{"bike_id":"e87b5406-bfc3-450b-90be-ea33674025e0","system_id":"levelo_inurba_marseille","lat":43.31356,"lon":5.36707,"is_reserved":false,"is_disabled":false,"rental_uris":{"android":"levelo://app?vid=e87b5406-bfc3-450b-90be-ea33674025e0","ios":"levelo://app?vid=e87b5406-bfc3-450b-90be-ea33674025e0"},"vehicle_type_id":"4","last_reported":1727860177,"current_range_meters":27600,"station_id":"ce4bgr92rcd13ifvqc6g","pricing_plan_id":"cebpf4jnsgd1na2vs0mg"},{"bike_id":"dc0269b0-e8b1-42a0-aa7e-d6ae8eb50eb5","system_id":"levelo_inurba_marseille","lat":43.2407,"lon":5.37754,"is_reserved":false,"is_disabled":false,"rental_uris":{"android":"levelo://app?vid=dc0269b0-e8b1-42a0-aa7e-d6ae8eb50eb5","ios":"levelo://app?vid=dc0269b0-e8b1-42a0-aa7e-d6ae8eb50eb5"},"vehicle_type_id":"4","last_reported":1727860177,"current_range_meters":35200,"station_id":"ce4bhnp2rcd13ifvqgvg","pricing_plan_id":"cebpf4jnsgd1na2vs0mg"},{"bike_id":"cd87eadc-2269-43e7-a7e2-a039adebaa6d","system_id":"levelo_inurba_marseille","lat":43.30207,"lon":5.39475,"is_reserved":false,"is_disabled":false,"rental_uris":{"android":"levelo://app?vid=cd87eadc-2269-43e7-a7e2-a039adebaa6d","ios":"levelo://app?vid=cd87eadc-2269-43e7-a7e2-a039adebaa6d"},"vehicle_type_id":"4","last_reported":1727860177,"current_range_meters":26000,"station_id":"ce4bh0p2rcd13ifvqd70","pricing_plan_id":"cebpf4jnsgd1na2vs0mg"},{"bike_id":"f791259a-df2c-414e-92e0-4d64d343370b","system_id":"levelo_inurba_marseille","lat":43.30906,"lon":5.36859,"is_reserved":false,"is_disabled":false,"rental_uris":{"android":"levelo://app?vid=f791259a-df2c-414e-92e0-4d64d343370b","ios":"levelo://app?vid=f791259a-df2c-414e-92e0-4d64d343370b"},"vehicle_type_id":"4","last_reported":1727860177,"current_range_meters":38000,"station_id":"ce4bgn92rcd13ifvqbvg","pricing_plan_id":"cebpf4jnsgd1na2vs0mg"},{"bike_id":"5dc82c78-aba1-45c3-88d2-f8d931227d0a","system_id":"levelo_inurba_marseille","lat":43.3021,"lon":5.3947,"is_reserved":false,"is_disabled":false,"rental_uris":{"android":"levelo://app?vid=5dc82c78-aba1-45c3-88d2-f8d931227d0a","ios":"levelo://app?vid=5dc82c78-aba1-45c3-88d2-f8d931227d0a"},"vehicle_type_id":"4","last_reported":1727860177,"current_range_meters":38000,"station_id":"ce4bh0p2rcd13ifvqd70","pricing_plan_id":"cebpf4jnsgd1na2vs0mg"},{"bike_id":"96d65151-08d5-489f-ae7e-137f2ecec900","system_id":"levelo_inurba_marseille","lat":43.28104,"lon":5.3784,"is_reserved":false,"is_disabled":false,"rental_uris":{"android":"levelo://app?vid=96d65151-08d5-489f-ae7e-137f2ecec900","ios":"levelo://app?vid=96d65151-08d5-489f-ae7e-137f2ecec900"},"vehicle_type_id":"4","last_reported":1727860177,"current_range_meters":13600,"station_id":"ce4bha12rcd13ifvqee0","pricing_plan_id":"cebpf4jnsgd1na2vs0mg"},{"bike_id":"07e74189-38c6-44f2-97b6-b5141fd8d166","system_id":"levelo_inurba_marseille","lat":43.26683,"lon":5.38269,"is_reserved":false,"is_disabled":false,"rental_uris":{"android":"levelo://app?vid=07e74189-38c6-44f2-97b6-b5141fd8d166","ios":"levelo://app?vid=07e74189-38c6-44f2-97b6-b5141fd8d166"},"vehicle_type_id":"4","last_reported":1727860177,"current_range_meters":39200,"station_id":"ce4bhg92rcd13ifvqf90","pricing_plan_id":"cebpf4jnsgd1na2vs0mg"},{"bike_id":"6ae20033-92da-495d-9743-905496a75472","system_id":"levelo_inurba_marseille","lat":43.33605,"lon":5.41024,"is_reserved":false,"is_disabled":false,"rental_uris":{"android":"levelo://app?vid=6ae20033-92da-495d-9743-905496a75472","ios":"levelo://app?vid=6ae20033-92da-495d-9743-905496a75472"},"vehicle_type_id":"4","last_reported":1727860177,"current_range_meters":38800,"station_id":"ce4bhqh2rcd13ifvqhmg","pricing_plan_id":"cebpf4jnsgd1na2vs0mg"},{"bike_id":"d4b1a380-4928-4a74-9eae-29cf35dc1af3","system_id":"levelo_inurba_marseille","lat":43.33749,"lon":5.37448,"is_reserved":false,"is_disabled":false,"rental_uris":{"android":"levelo://app?vid=d4b1a380-4928-4a74-9eae-29cf35dc1af3","ios":"levelo://app?vid=d4b1a380-4928-4a74-9eae-29cf35dc1af3"},"vehicle_type_id":"4","last_reported":1727860177,"current_range_meters":38000,"station_id":"","pricing_plan_id":"cebpf4jnsgd1na2vs0mg"},{"bike_id":"32f94b16-f43f-4ab0-9cc4-441c595e0a56","system_id":"levelo_inurba_marseille","lat":43.28155,"lon":5.42639,"is_reserved":false,"is_disabled":false,"rental_uris":{"android":"levelo://app?vid=32f94b16-f43f-4ab0-9cc4-441c595e0a56","ios":"levelo://app?vid=32f94b16-f43f-4ab0-9cc4-441c595e0a56"},"vehicle_type_id":"4","last_reported":1727860177,"current_range_meters":36400,"station_id":"ce4bhnh2rcd13ifvqgug","pricing_plan_id":"cebpf4jnsgd1na2vs0mg"},{"bike_id":"78654682-55d3-4726-9b93-44e606f958fe","system_id":"levelo_inurba_marseille","lat":43.24996,"lon":5.38931,"is_reserved":false,"is_disabled":false,"rental_uris":{"android":"levelo://app?vid=78654682-55d3-4726-9b93-44e606f958fe","ios":"levelo://app?vid=78654682-55d3-4726-9b93-44e606f958fe"},"vehicle_type_id":"4","last_reported":1727860177,"current_range_meters":30400,"station_id":"ce4bhgp2rcd13ifvqfd0","pricing_plan_id":"cebpf4jnsgd1na2vs0mg"},{"bike_id":"4585a52b-704e-4d73-8d39-1c11231f55bb","system_id":"levelo_inurba_marseille","lat":43.29976,"lon":5.37175,"is_reserved":false,"is_disabled":false,"rental_uris":{"android":"levelo://app?vid=4585a52b-704e-4d73-8d39-1c11231f55bb","ios":"levelo://app?vid=4585a52b-704e-4d73-8d39-1c11231f55bb"},"vehicle_type_id":"4","last_reported":1727860177,"current_range_meters":38800,"station_id":"ce4bgr92rcd13ifvqc7g","pricing_plan_id":"cebpf4jnsgd1na2vs0mg"},{"bike_id":"4bd2bdb0-2428-4b26-b66c-938192bf3d68","system_id":"levelo_inurba_marseille","lat":43.33757,"lon":5.37417,"is_reserved":false,"is_disabled":false,"rental_uris":{"android":"levelo://app?vid=4bd2bdb0-2428-4b26-b66c-938192bf3d68","ios":"levelo://app?vid=4bd2bdb0-2428-4b26-b66c-938192bf3d68"},"vehicle_type_id":"4","last_reported":1727860177,"current_range_meters":34000,"station_id":"","pricing_plan_id":"cebpf4jnsgd1na2vs0mg"},{"bike_id":"5018f960-dc4e-426f-a85a-0f663ea79b3a","system_id":"levelo_inurba_marseille","lat":43.30132,"lon":5.3741,"is_reserved":false,"is_disabled":false,"rental_uris":{"android":"levelo://app?vid=5018f960-dc4e-426f-a85a-0f663ea79b3a","ios":"levelo://app?vid=5018f960-dc4e-426f-a85a-0f663ea79b3a"},"vehicle_type_id":"4","last_reported":1727860177,"current_range_meters":4800,"station_id":"ce4bgs92rcd13ifvqcc0","pricing_plan_id":"cebpf4jnsgd1na2vs0mg"},{"bike_id":"468e3d2b-26c0-43ee-8212-7b8c15c2c694","system_id":"levelo_inurba_marseille","lat":43.26568,"lon":5.38998,"is_reserved":false,"is_disabled":false,"rental_uris":{"android":"levelo://app?vid=468e3d2b-26c0-43ee-8212-7b8c15c2c694","ios":"levelo://app?vid=468e3d2b-26c0-43ee-8212-7b8c15c2c694"},"vehicle_type_id":"4","last_reported":1727860177,"current_range_meters":26800,"station_id":"ce4bhe12rcd13ifvqf30","pricing_plan_id":"cebpf4jnsgd1na2vs0mg"},{"bike_id":"7c0a7e9a-274d-4edb-a5f4-3ab54445f147","system_id":"levelo_inurba_marseille","lat":43.26483,"lon":5.39544,"is_reserved":false,"is_disabled":false,"rental_uris":{"android":"levelo://app?vid=7c0a7e9a-274d-4edb-a5f4-3ab54445f147","ios":"levelo://app?vid=7c0a7e9a-274d-4edb-a5f4-3ab54445f147"},"vehicle_type_id":"4","last_reported":1727860177,"current_range_meters":38000,"station_id":"ce4bhi12rcd13ifvqfq0","pricing_plan_id":"cebpf4jnsgd1na2vs0mg"},{"bike_id":"c6aefcac-9b59-4be9-ba9c-464572888e5a","system_id":"levelo_inurba_marseille","lat":43.30543,"lon":5.36706,"is_reserved":false,"is_disabled":false,"rental_uris":{"android":"levelo://app?vid=c6aefcac-9b59-4be9-ba9c-464572888e5a","ios":"levelo://app?vid=c6aefcac-9b59-4be9-ba9c-464572888e5a"},"vehicle_type_id":"4","last_reported":1727860177,"current_range_meters":39200,"station_id":"ce4bgrp2rcd13ifvqc9g","pricing_plan_id":"cebpf4jnsgd1na2vs0mg"},{"bike_id":"e327d4c5-e7de-478d-89b6-da24369c6f53","system_id":"levelo_inurba_marseille","lat":43.29843,"lon":5.36275,"is_reserved":false,"is_disabled":false,"rental_uris":{"android":"levelo://app?vid=e327d4c5-e7de-478d-89b6-da24369c6f53","ios":"levelo://app?vid=e327d4c5-e7de-478d-89b6-da24369c6f53"},"vehicle_type_id":"4","last_reported":1727860177,"current_range_meters":37600,"station_id":"ce4bgpp2rcd13ifvqc3g","pricing_plan_id":"cebpf4jnsgd1na2vs0mg"},{"bike_id":"bd8d1296-5f01-45f1-aa93-54be16276993","system_id":"levelo_inurba_marseille","lat":43.33761,"lon":5.37476,"is_reserved":false,"is_disabled":false,"rental_uris":{"android":"levelo://app?vid=bd8d1296-5f01-45f1-aa93-54be16276993","ios":"levelo://app?vid=bd8d1296-5f01-45f1-aa93-54be16276993"},"vehicle_type_id":"4","last_reported":1727860177,"current_range_meters":3600,"station_id":"","pricing_plan_id":"cebpf4jnsgd1na2vs0mg"},{"bike_id":"3b5112e4-eaa4-4152-b81d-413ce076a608","system_id":"levelo_inurba_marseille","lat":43.32541,"lon":5.41438,"is_reserved":false,"is_disabled":false,"rental_uris":{"android":"levelo://app?vid=3b5112e4-eaa4-4152-b81d-413ce076a608","ios":"levelo://app?vid=3b5112e4-eaa4-4152-b81d-413ce076a608"},"vehicle_type_id":"4","last_reported":1727860177,"current_range_meters":6000,"station_id":"ce4bhq12rcd13ifvqhhg","pricing_plan_id":"cebpf4jnsgd1na2vs0mg"},{"bike_id":"f6d1790e-424c-4776-a06a-8c42149aea41","system_id":"levelo_inurba_marseille","lat":43.26566,"lon":5.3901,"is_reserved":false,"is_disabled":false,"rental_uris":{"android":"levelo://app?vid=f6d1790e-424c-4776-a06a-8c42149aea41","ios":"levelo://app?vid=f6d1790e-424c-4776-a06a-8c42149aea41"},"vehicle_type_id":"4","last_reported":1727860177,"current_range_meters":28800,"station_id":"ce4bhe12rcd13ifvqf30","pricing_plan_id":"cebpf4jnsgd1na2vs0mg"},{"bike_id":"ceab8afc-2178-4f23-802f-645fa15cfce5","system_id":"levelo_inurba_marseille","lat":43.24384,"lon":5.37058,"is_reserved":false,"is_disabled":false,"rental_uris":{"android":"levelo://app?vid=ceab8afc-2178-4f23-802f-645fa15cfce5","ios":"levelo://app?vid=ceab8afc-2178-4f23-802f-645fa15cfce5"},"vehicle_type_id":"4","last_reported":1727860177,"current_range_meters":16000,"station_id":"ce4bhhh2rcd13ifvqfk0","pricing_plan_id":"cebpf4jnsgd1na2vs0mg"},{"bike_id":"590870d2-bee3-43f4-99d2-e15455df839d","system_id":"levelo_inurba_marseille","lat":43.262152,"lon":5.379368,"is_reserved":false,"is_disabled":false,"rental_uris":{"android":"levelo://app?vid=590870d2-bee3-43f4-99d2-e15455df839d","ios":"levelo://app?vid=590870d2-bee3-43f4-99d2-e15455df839d"},"vehicle_type_id":"4","last_reported":1727860177,"current_range_meters":20000,"station_id":"ce4bhjp2rcd13ifvqg90","pricing_plan_id":"cebpf4jnsgd1na2vs0mg"},{"bike_id":"45a161ca-aeb4-4036-9aea-f9499cf0e190","system_id":"levelo_inurba_marseille","lat":43.25502,"lon":5.37649,"is_reserved":false,"is_disabled":false,"rental_uris":{"android":"levelo://app?vid=45a161ca-aeb4-4036-9aea-f9499cf0e190","ios":"levelo://app?vid=45a161ca-aeb4-4036-9aea-f9499cf0e190"},"vehicle_type_id":"4","last_reported":1727860177,"current_range_meters":28000,"station_id":"ce4bhh12rcd13ifvqff0","pricing_plan_id":"cebpf4jnsgd1na2vs0mg"},{"bike_id":"0351257e-74b9-436d-b879-4f7477bdd615","system_id":"levelo_inurba_marseille","lat":43.23061,"lon":5.35501,"is_reserved":false,"is_disabled":false,"rental_uris":{"android":"levelo://app?vid=0351257e-74b9-436d-b879-4f7477bdd615","ios":"levelo://app?vid=0351257e-74b9-436d-b879-4f7477bdd615"},"vehicle_type_id":"4","last_reported":1727860177,"current_range_meters":28000,"station_id":"cpo3342slgdg3j2ifvpg","pricing_plan_id":"cebpf4jnsgd1na2vs0mg"},{"bike_id":"33ab3f51-3776-44b2-9d39-42527035593d","system_id":"levelo_inurba_marseille","lat":43.24076,"lon":5.3776,"is_reserved":false,"is_disabled":false,"rental_uris":{"android":"levelo://app?vid=33ab3f51-3776-44b2-9d39-42527035593d","ios":"levelo://app?vid=33ab3f51-3776-44b2-9d39-42527035593d"},"vehicle_type_id":"4","last_reported":1727860177,"current_range_meters":26800,"station_id":"ce4bhnp2rcd13ifvqgvg","pricing_plan_id":"cebpf4jnsgd1na2vs0mg"},{"bike_id":"66c1cfb0-2b20-433a-94b2-c02013f6c4e9","system_id":"levelo_inurba_marseille","lat":43.30561,"lon":5.36533,"is_reserved":false,"is_disabled":false,"rental_uris":{"android":"levelo://app?vid=66c1cfb0-2b20-433a-94b2-c02013f6c4e9","ios":"levelo://app?vid=66c1cfb0-2b20-433a-94b2-c02013f6c4e9"},"vehicle_type_id":"4","last_reported":1727860177,"current_range_meters":4000,"station_id":"ce4bgs12rcd13ifvqcag","pricing_plan_id":"cebpf4jnsgd1na2vs0mg"},{"bike_id":"4385d826-e91c-4a41-aa74-3b7c7879d8f6","system_id":"levelo_inurba_marseille","lat":43.25121,"lon":5.40312,"is_reserved":false,"is_disabled":false,"rental_uris":{"android":"levelo://app?vid=4385d826-e91c-4a41-aa74-3b7c7879d8f6","ios":"levelo://app?vid=4385d826-e91c-4a41-aa74-3b7c7879d8f6"},"vehicle_type_id":"4","last_reported":1727860177,"current_range_meters":34000,"station_id":"ce4bhlh2rcd13ifvqgig","pricing_plan_id":"cebpf4jnsgd1na2vs0mg"},{"bike_id":"9da4a5f4-1a97-4224-a5a8-18de5740c318","system_id":"levelo_inurba_marseille","lat":43.30547,"lon":5.36525,"is_reserved":false,"is_disabled":false,"rental_uris":{"android":"levelo://app?vid=9da4a5f4-1a97-4224-a5a8-18de5740c318","ios":"levelo://app?vid=9da4a5f4-1a97-4224-a5a8-18de5740c318"},"vehicle_type_id":"4","last_reported":1727860177,"current_range_meters":29600,"station_id":"ce4bgs12rcd13ifvqcag","pricing_plan_id":"cebpf4jnsgd1na2vs0mg"},{"bike_id":"4bc069e9-27cb-4e2c-9e2e-007bc95d2cfc","system_id":"levelo_inurba_marseille","lat":43.29216,"lon":5.36048,"is_reserved":false,"is_disabled":false,"rental_uris":{"android":"levelo://app?vid=4bc069e9-27cb-4e2c-9e2e-007bc95d2cfc","ios":"levelo://app?vid=4bc069e9-27cb-4e2c-9e2e-007bc95d2cfc"},"vehicle_type_id":"4","last_reported":1727860177,"current_range_meters":38000,"station_id":"ce4bhbh2rcd13ifvqeqg","pricing_plan_id":"cebpf4jnsgd1na2vs0mg"},{"bike_id":"5232706d-f6ed-49c5-82b0-3d08f9db9c69","system_id":"levelo_inurba_marseille","lat":43.29838,"lon":5.36256,"is_reserved":false,"is_disabled":false,"rental_uris":{"android":"levelo://app?vid=5232706d-f6ed-49c5-82b0-3d08f9db9c69","ios":"levelo://app?vid=5232706d-f6ed-49c5-82b0-3d08f9db9c69"},"vehicle_type_id":"4","last_reported":1727860177,"current_range_meters":31200,"station_id":"ce4bgpp2rcd13ifvqc3g","pricing_plan_id":"cebpf4jnsgd1na2vs0mg"},{"bike_id":"6ca24f61-090a-4715-a991-883ca237ff8b","system_id":"levelo_inurba_marseille","lat":43.29846,"lon":5.36275,"is_reserved":false,"is_disabled":false,"rental_uris":{"android":"levelo://app?vid=6ca24f61-090a-4715-a991-883ca237ff8b","ios":"levelo://app?vid=6ca24f61-090a-4715-a991-883ca237ff8b"},"vehicle_type_id":"4","last_reported":1727860177,"current_range_meters":38000,"station_id":"ce4bgpp2rcd13ifvqc3g","pricing_plan_id":"cebpf4jnsgd1na2vs0mg"},{"bike_id":"dbc44908-d446-4545-8bfd-392387f63cc0","system_id":"levelo_inurba_marseille","lat":43.24072,"lon":5.37762,"is_reserved":false,"is_disabled":false,"rental_uris":{"android":"levelo://app?vid=dbc44908-d446-4545-8bfd-392387f63cc0","ios":"levelo://app?vid=dbc44908-d446-4545-8bfd-392387f63cc0"},"vehicle_type_id":"4","last_reported":1727860177,"current_range_meters":24400,"station_id":"ce4bhnp2rcd13ifvqgvg","pricing_plan_id":"cebpf4jnsgd1na2vs0mg"},{"bike_id":"bd0db477-1706-451e-a7f6-635369a0f04a","system_id":"levelo_inurba_marseille","lat":43.24079,"lon":5.37746,"is_reserved":false,"is_disabled":false,"rental_uris":{"android":"levelo://app?vid=bd0db477-1706-451e-a7f6-635369a0f04a","ios":"levelo://app?vid=bd0db477-1706-451e-a7f6-635369a0f04a"},"vehicle_type_id":"4","last_reported":1727860177,"current_range_meters":14000,"station_id":"ce4bhnp2rcd13ifvqgvg","pricing_plan_id":"cebpf4jnsgd1na2vs0mg"},{"bike_id":"8eebbf9b-09d5-41f7-9fcb-1a511b9e8ee3","system_id":"levelo_inurba_marseille","lat":43.23149,"lon":5.43714,"is_reserved":false,"is_disabled":false,"rental_uris":{"android":"levelo://app?vid=8eebbf9b-09d5-41f7-9fcb-1a511b9e8ee3","ios":"levelo://app?vid=8eebbf9b-09d5-41f7-9fcb-1a511b9e8ee3"},"vehicle_type_id":"4","last_reported":1727860177,"current_range_meters":38800,"station_id":"ce4bhmp2rcd13ifvqgog","pricing_plan_id":"cebpf4jnsgd1na2vs0mg"},{"bike_id":"6ca3c324-edcd-4f8d-a4f2-e318473acbb0","system_id":"levelo_inurba_marseille","lat":43.30477,"lon":5.37892,"is_reserved":false,"is_disabled":false,"rental_uris":{"android":"levelo://app?vid=6ca3c324-edcd-4f8d-a4f2-e318473acbb0","ios":"levelo://app?vid=6ca3c324-edcd-4f8d-a4f2-e318473acbb0"},"vehicle_type_id":"4","last_reported":1727860177,"current_range_meters":38800,"station_id":"ce4bgup2rcd13ifvqcn0","pricing_plan_id":"cebpf4jnsgd1na2vs0mg"},{"bike_id":"0525355d-4320-47a5-8dcd-2ebc85c2a1e1","system_id":"levelo_inurba_marseille","lat":43.31348,"lon":5.36708,"is_reserved":false,"is_disabled":false,"rental_uris":{"android":"levelo://app?vid=0525355d-4320-47a5-8dcd-2ebc85c2a1e1","ios":"levelo://app?vid=0525355d-4320-47a5-8dcd-2ebc85c2a1e1"},"vehicle_type_id":"4","last_reported":1727860177,"current_range_meters":24800,"station_id":"ce4bgr92rcd13ifvqc6g","pricing_plan_id":"cebpf4jnsgd1na2vs0mg"},{"bike_id":"a5f201cc-aac4-4246-9092-a05f0398aa30","system_id":"levelo_inurba_marseille","lat":43.29567,"lon":5.37523,"is_reserved":false,"is_disabled":false,"rental_uris":{"android":"levelo://app?vid=a5f201cc-aac4-4246-9092-a05f0398aa30","ios":"levelo://app?vid=a5f201cc-aac4-4246-9092-a05f0398aa30"},"vehicle_type_id":"4","last_reported":1727860177,"current_range_meters":33200,"station_id":"ce4bgh92rcd13ifvqb50","pricing_plan_id":"cebpf4jnsgd1na2vs0mg"},{"bike_id":"4e69c702-3645-432d-b0a6-65ed6bec937f","system_id":"levelo_inurba_marseille","lat":43.31222,"lon":5.36864,"is_reserved":false,"is_disabled":false,"rental_uris":{"android":"levelo://app?vid=4e69c702-3645-432d-b0a6-65ed6bec937f","ios":"levelo://app?vid=4e69c702-3645-432d-b0a6-65ed6bec937f"},"vehicle_type_id":"4","last_reported":1727860177,"current_range_meters":38400,"station_id":"ce4bgl92rcd13ifvqbq0","pricing_plan_id":"cebpf4jnsgd1na2vs0mg"},{"bike_id":"54e018a7-7fbc-4580-b942-5a53fc542609","system_id":"levelo_inurba_marseille","lat":43.241811,"lon":5.397311,"is_reserved":false,"is_disabled":false,"rental_uris":{"android":"levelo://app?vid=54e018a7-7fbc-4580-b942-5a53fc542609","ios":"levelo://app?vid=54e018a7-7fbc-4580-b942-5a53fc542609"},"vehicle_type_id":"4","last_reported":1727860177,"current_range_meters":11600,"station_id":"ce4bhn12rcd13ifvqgpg","pricing_plan_id":"cebpf4jnsgd1na2vs0mg"},{"bike_id":"772088a0-7828-4f69-ba5d-0f6cdb83dec2","system_id":"levelo_inurba_marseille","lat":43.337444,"lon":5.374475,"is_reserved":false,"is_disabled":false,"rental_uris":{"android":"levelo://app?vid=772088a0-7828-4f69-ba5d-0f6cdb83dec2","ios":"levelo://app?vid=772088a0-7828-4f69-ba5d-0f6cdb83dec2"},"vehicle_type_id":"4","last_reported":1727860177,"current_range_meters":6800,"station_id":"","pricing_plan_id":"cebpf4jnsgd1na2vs0mg"},{"bike_id":"0dad6516-32e3-46dc-9057-c5549d49ac6a","system_id":"levelo_inurba_marseille","lat":43.28266,"lon":5.35074,"is_reserved":false,"is_disabled":false,"rental_uris":{"android":"levelo://app?vid=0dad6516-32e3-46dc-9057-c5549d49ac6a","ios":"levelo://app?vid=0dad6516-32e3-46dc-9057-c5549d49ac6a"},"vehicle_type_id":"4","last_reported":1727860177,"current_range_meters":29600,"station_id":"ce4bhbp2rcd13ifvqerg","pricing_plan_id":"cebpf4jnsgd1na2vs0mg"},{"bike_id":"a5723db0-c3e8-456d-95ee-acbef5432cb0","system_id":"levelo_inurba_marseille","lat":43.29526,"lon":5.39048,"is_reserved":false,"is_disabled":false,"rental_uris":{"android":"levelo://app?vid=a5723db0-c3e8-456d-95ee-acbef5432cb0","ios":"levelo://app?vid=a5723db0-c3e8-456d-95ee-acbef5432cb0"},"vehicle_type_id":"4","last_reported":1727860177,"current_range_meters":20800,"station_id":"ce4bh3p2rcd13ifvqdp0","pricing_plan_id":"cebpf4jnsgd1na2vs0mg"},{"bike_id":"10d30609-b2ca-4dd4-87a0-77057ca349b9","system_id":"levelo_inurba_marseille","lat":43.31483,"lon":5.37303,"is_reserved":false,"is_disabled":false,"rental_uris":{"android":"levelo://app?vid=10d30609-b2ca-4dd4-87a0-77057ca349b9","ios":"levelo://app?vid=10d30609-b2ca-4dd4-87a0-77057ca349b9"},"vehicle_type_id":"4","last_reported":1727860177,"current_range_meters":38000,"station_id":"ce4bgt12rcd13ifvqcd0","pricing_plan_id":"cebpf4jnsgd1na2vs0mg"},{"bike_id":"7a7e4978-023c-4125-ae1e-54a889e3191f","system_id":"levelo_inurba_marseille","lat":43.30548,"lon":5.36548,"is_reserved":false,"is_disabled":false,"rental_uris":{"android":"levelo://app?vid=7a7e4978-023c-4125-ae1e-54a889e3191f","ios":"levelo://app?vid=7a7e4978-023c-4125-ae1e-54a889e3191f"},"vehicle_type_id":"4","last_reported":1727860177,"current_range_meters":23200,"station_id":"ce4bgs12rcd13ifvqcag","pricing_plan_id":"cebpf4jnsgd1na2vs0mg"},{"bike_id":"cd385f71-7ba5-497a-9c21-e01e06c76d4e","system_id":"levelo_inurba_marseille","lat":43.32051,"lon":5.41566,"is_reserved":false,"is_disabled":false,"rental_uris":{"android":"levelo://app?vid=cd385f71-7ba5-497a-9c21-e01e06c76d4e","ios":"levelo://app?vid=cd385f71-7ba5-497a-9c21-e01e06c76d4e"},"vehicle_type_id":"4","last_reported":1727860177,"current_range_meters":10000,"station_id":"ce4bhq92rcd13ifvqhkg","pricing_plan_id":"cebpf4jnsgd1na2vs0mg"},{"bike_id":"4b1d2441-b9a5-4aff-adfb-da193343efe2","system_id":"levelo_inurba_marseille","lat":43.3091,"lon":5.36856,"is_reserved":false,"is_disabled":false,"rental_uris":{"android":"levelo://app?vid=4b1d2441-b9a5-4aff-adfb-da193343efe2","ios":"levelo://app?vid=4b1d2441-b9a5-4aff-adfb-da193343efe2"},"vehicle_type_id":"4","last_reported":1727860177,"current_range_meters":28400,"station_id":"ce4bgn92rcd13ifvqbvg","pricing_plan_id":"cebpf4jnsgd1na2vs0mg"},{"bike_id":"177513a6-4015-4f91-9e0d-a8eeaee3df8e","system_id":"levelo_inurba_marseille","lat":43.3203,"lon":5.41533,"is_reserved":false,"is_disabled":false,"rental_uris":{"android":"levelo://app?vid=177513a6-4015-4f91-9e0d-a8eeaee3df8e","ios":"levelo://app?vid=177513a6-4015-4f91-9e0d-a8eeaee3df8e"},"vehicle_type_id":"4","last_reported":1727860177,"current_range_meters":34000,"station_id":"ce4bhq92rcd13ifvqhkg","pricing_plan_id":"cebpf4jnsgd1na2vs0mg"},{"bike_id":"a5986c67-ef4e-4e74-864b-56239492b71b","system_id":"levelo_inurba_marseille","lat":43.29707,"lon":5.36605,"is_reserved":false,"is_disabled":false,"rental_uris":{"android":"levelo://app?vid=a5986c67-ef4e-4e74-864b-56239492b71b","ios":"levelo://app?vid=a5986c67-ef4e-4e74-864b-56239492b71b"},"vehicle_type_id":"4","last_reported":1727860177,"current_range_meters":34000,"station_id":"ce4bgn12rcd13ifvqbt0","pricing_plan_id":"cebpf4jnsgd1na2vs0mg"},{"bike_id":"93a09bd4-b4ac-4185-9e12-0f57b4f3984d","system_id":"levelo_inurba_marseille","lat":43.23144,"lon":5.43702,"is_reserved":false,"is_disabled":false,"rental_uris":{"android":"levelo://app?vid=93a09bd4-b4ac-4185-9e12-0f57b4f3984d","ios":"levelo://app?vid=93a09bd4-b4ac-4185-9e12-0f57b4f3984d"},"vehicle_type_id":"4","last_reported":1727860177,"current_range_meters":38800,"station_id":"ce4bhmp2rcd13ifvqgog","pricing_plan_id":"cebpf4jnsgd1na2vs0mg"},{"bike_id":"f2eafe04-603e-4fb0-8676-42d468e4f953","system_id":"levelo_inurba_marseille","lat":43.3376,"lon":5.37442,"is_reserved":false,"is_disabled":false,"rental_uris":{"android":"levelo://app?vid=f2eafe04-603e-4fb0-8676-42d468e4f953","ios":"levelo://app?vid=f2eafe04-603e-4fb0-8676-42d468e4f953"},"vehicle_type_id":"4","last_reported":1727860177,"current_range_meters":38800,"station_id":"","pricing_plan_id":"cebpf4jnsgd1na2vs0mg"},{"bike_id":"c20b3623-aae1-4be0-bb1c-6b536ed2821a","system_id":"levelo_inurba_marseille","lat":43.27807,"lon":5.40711,"is_reserved":false,"is_disabled":false,"rental_uris":{"android":"levelo://app?vid=c20b3623-aae1-4be0-bb1c-6b536ed2821a","ios":"levelo://app?vid=c20b3623-aae1-4be0-bb1c-6b536ed2821a"},"vehicle_type_id":"4","last_reported":1727860177,"current_range_meters":38800,"station_id":"ce4bhnh2rcd13ifvqgtg","pricing_plan_id":"cebpf4jnsgd1na2vs0mg"},{"bike_id":"f74b94bd-4df2-44d7-a73b-0c0ff17290b9","system_id":"levelo_inurba_marseille","lat":43.34143,"lon":5.40897,"is_reserved":false,"is_disabled":false,"rental_uris":{"android":"levelo://app?vid=f74b94bd-4df2-44d7-a73b-0c0ff17290b9","ios":"levelo://app?vid=f74b94bd-4df2-44d7-a73b-0c0ff17290b9"},"vehicle_type_id":"4","last_reported":1727860177,"current_range_meters":11200,"station_id":"ce4bhqh2rcd13ifvqhlg","pricing_plan_id":"cebpf4jnsgd1na2vs0mg"},{"bike_id":"7f64633c-be3e-4299-b513-f4f1ce9a9570","system_id":"levelo_inurba_marseille","lat":43.24985,"lon":5.38943,"is_reserved":false,"is_disabled":false,"rental_uris":{"android":"levelo://app?vid=7f64633c-be3e-4299-b513-f4f1ce9a9570","ios":"levelo://app?vid=7f64633c-be3e-4299-b513-f4f1ce9a9570"},"vehicle_type_id":"4","last_reported":1727860177,"current_range_meters":30400,"station_id":"ce4bhgp2rcd13ifvqfd0","pricing_plan_id":"cebpf4jnsgd1na2vs0mg"},{"bike_id":"28378b31-7d41-44a5-ae65-b499de808787","system_id":"levelo_inurba_marseille","lat":43.24074,"lon":5.37762,"is_reserved":false,"is_disabled":false,"rental_uris":{"android":"levelo://app?vid=28378b31-7d41-44a5-ae65-b499de808787","ios":"levelo://app?vid=28378b31-7d41-44a5-ae65-b499de808787"},"vehicle_type_id":"4","last_reported":1727860177,"current_range_meters":35200,"station_id":"ce4bhnp2rcd13ifvqgvg","pricing_plan_id":"cebpf4jnsgd1na2vs0mg"},{"bike_id":"add781af-0cf3-46ce-863c-7095763a58e7","system_id":"levelo_inurba_marseille","lat":43.28629,"lon":5.35094,"is_reserved":false,"is_disabled":false,"rental_uris":{"android":"levelo://app?vid=add781af-0cf3-46ce-863c-7095763a58e7","ios":"levelo://app?vid=add781af-0cf3-46ce-863c-7095763a58e7"},"vehicle_type_id":"4","last_reported":1727860177,"current_range_meters":38800,"station_id":"ce4bhch2rcd13ifvqeug","pricing_plan_id":"cebpf4jnsgd1na2vs0mg"},{"bike_id":"ae8fe54b-0758-4598-a3a6-368c8971129e","system_id":"levelo_inurba_marseille","lat":43.30567,"lon":5.36546,"is_reserved":false,"is_disabled":false,"rental_uris":{"android":"levelo://app?vid=ae8fe54b-0758-4598-a3a6-368c8971129e","ios":"levelo://app?vid=ae8fe54b-0758-4598-a3a6-368c8971129e"},"vehicle_type_id":"4","last_reported":1727860177,"current_range_meters":26000,"station_id":"ce4bgs12rcd13ifvqcag","pricing_plan_id":"cebpf4jnsgd1na2vs0mg"},{"bike_id":"6eba1abc-2435-44ab-ba81-b10227bea0da","system_id":"levelo_inurba_marseille","lat":43.2407,"lon":5.37765,"is_reserved":false,"is_disabled":false,"rental_uris":{"android":"levelo://app?vid=6eba1abc-2435-44ab-ba81-b10227bea0da","ios":"levelo://app?vid=6eba1abc-2435-44ab-ba81-b10227bea0da"},"vehicle_type_id":"4","last_reported":1727860177,"current_range_meters":16000,"station_id":"","pricing_plan_id":"cebpf4jnsgd1na2vs0mg"},{"bike_id":"cec15b1f-3dd5-4b35-876e-5e2f0bee5d3b","system_id":"levelo_inurba_marseille","lat":43.30276,"lon":5.37697,"is_reserved":false,"is_disabled":false,"rental_uris":{"android":"levelo://app?vid=cec15b1f-3dd5-4b35-876e-5e2f0bee5d3b","ios":"levelo://app?vid=cec15b1f-3dd5-4b35-876e-5e2f0bee5d3b"},"vehicle_type_id":"4","last_reported":1727860177,"current_range_meters":24400,"station_id":"ce4bguh2rcd13ifvqcj0","pricing_plan_id":"cebpf4jnsgd1na2vs0mg"},{"bike_id":"d0f3ba74-2db6-4276-a970-d6d9e934005a","system_id":"levelo_inurba_marseille","lat":43.33718,"lon":5.39179,"is_reserved":false,"is_disabled":false,"rental_uris":{"android":"levelo://app?vid=d0f3ba74-2db6-4276-a970-d6d9e934005a","ios":"levelo://app?vid=d0f3ba74-2db6-4276-a970-d6d9e934005a"},"vehicle_type_id":"4","last_reported":1727860177,"current_range_meters":39200,"station_id":"ce4bhr92rcd13ifvqhsg","pricing_plan_id":"cebpf4jnsgd1na2vs0mg"},{"bike_id":"1f22675a-9306-4de1-8bd6-90a19c2a91a3","system_id":"levelo_inurba_marseille","lat":43.29963,"lon":5.38495,"is_reserved":false,"is_disabled":false,"rental_uris":{"android":"levelo://app?vid=1f22675a-9306-4de1-8bd6-90a19c2a91a3","ios":"levelo://app?vid=1f22675a-9306-4de1-8bd6-90a19c2a91a3"},"vehicle_type_id":"4","last_reported":1727860177,"current_range_meters":11200,"station_id":"ce4bgj92rcd13ifvqbd0","pricing_plan_id":"cebpf4jnsgd1na2vs0mg"},{"bike_id":"890f96ea-eda5-427c-858e-9a917a74f5c2","system_id":"levelo_inurba_marseille","lat":43.26064,"lon":5.39391,"is_reserved":false,"is_disabled":false,"rental_uris":{"android":"levelo://app?vid=890f96ea-eda5-427c-858e-9a917a74f5c2","ios":"levelo://app?vid=890f96ea-eda5-427c-858e-9a917a74f5c2"},"vehicle_type_id":"4","last_reported":1727860177,"current_range_meters":8000,"station_id":"ce4bhh92rcd13ifvqfj0","pricing_plan_id":"cebpf4jnsgd1na2vs0mg"},{"bike_id":"a2ba7602-9b90-45c6-8d5a-66c0710e2f94","system_id":"levelo_inurba_marseille","lat":43.33607,"lon":5.41025,"is_reserved":false,"is_disabled":false,"rental_uris":{"android":"levelo://app?vid=a2ba7602-9b90-45c6-8d5a-66c0710e2f94","ios":"levelo://app?vid=a2ba7602-9b90-45c6-8d5a-66c0710e2f94"},"vehicle_type_id":"4","last_reported":1727860177,"current_range_meters":24400,"station_id":"ce4bhqh2rcd13ifvqhmg","pricing_plan_id":"cebpf4jnsgd1na2vs0mg"},{"bike_id":"0ff27e27-d297-4868-830a-583b86c93763","system_id":"levelo_inurba_marseille","lat":43.30274,"lon":5.377,"is_reserved":false,"is_disabled":false,"rental_uris":{"android":"levelo://app?vid=0ff27e27-d297-4868-830a-583b86c93763","ios":"levelo://app?vid=0ff27e27-d297-4868-830a-583b86c93763"},"vehicle_type_id":"4","last_reported":1727860177,"current_range_meters":38800,"station_id":"ce4bguh2rcd13ifvqcj0","pricing_plan_id":"cebpf4jnsgd1na2vs0mg"},{"bike_id":"2418c0b7-17ae-48ef-b720-90f0df72d44d","system_id":"levelo_inurba_marseille","lat":43.25001,"lon":5.38933,"is_reserved":false,"is_disabled":false,"rental_uris":{"android":"levelo://app?vid=2418c0b7-17ae-48ef-b720-90f0df72d44d","ios":"levelo://app?vid=2418c0b7-17ae-48ef-b720-90f0df72d44d"},"vehicle_type_id":"4","last_reported":1727860177,"current_range_meters":13600,"station_id":"ce4bhgp2rcd13ifvqfd0","pricing_plan_id":"cebpf4jnsgd1na2vs0mg"},{"bike_id":"b3988bd0-b870-43ec-b253-16935f88b4c8","system_id":"levelo_inurba_marseille","lat":43.28424,"lon":5.34983,"is_reserved":false,"is_disabled":false,"rental_uris":{"android":"levelo://app?vid=b3988bd0-b870-43ec-b253-16935f88b4c8","ios":"levelo://app?vid=b3988bd0-b870-43ec-b253-16935f88b4c8"},"vehicle_type_id":"4","last_reported":1727860177,"current_range_meters":38800,"station_id":"ce4bhbh2rcd13ifvqepg","pricing_plan_id":"cebpf4jnsgd1na2vs0mg"},{"bike_id":"f7f1f8df-12fc-4e27-9e2e-261635c28839","system_id":"levelo_inurba_marseille","lat":43.31352,"lon":5.36716,"is_reserved":false,"is_disabled":false,"rental_uris":{"android":"levelo://app?vid=f7f1f8df-12fc-4e27-9e2e-261635c28839","ios":"levelo://app?vid=f7f1f8df-12fc-4e27-9e2e-261635c28839"},"vehicle_type_id":"4","last_reported":1727860177,"current_range_meters":28000,"station_id":"ce4bgr92rcd13ifvqc6g","pricing_plan_id":"cebpf4jnsgd1na2vs0mg"},{"bike_id":"e81cef68-ecc8-4fe9-a400-7c4a2a76b1ec","system_id":"levelo_inurba_marseille","lat":43.27206,"lon":5.39181,"is_reserved":false,"is_disabled":false,"rental_uris":{"android":"levelo://app?vid=e81cef68-ecc8-4fe9-a400-7c4a2a76b1ec","ios":"levelo://app?vid=e81cef68-ecc8-4fe9-a400-7c4a2a76b1ec"},"vehicle_type_id":"4","last_reported":1727860177,"current_range_meters":38800,"station_id":"ce4bhhp2rcd13ifvqfm0","pricing_plan_id":"cebpf4jnsgd1na2vs0mg"},{"bike_id":"3eb79290-9372-4679-b6ca-b6733b82cfe9","system_id":"levelo_inurba_marseille","lat":43.31225,"lon":5.36877,"is_reserved":false,"is_disabled":false,"rental_uris":{"android":"levelo://app?vid=3eb79290-9372-4679-b6ca-b6733b82cfe9","ios":"levelo://app?vid=3eb79290-9372-4679-b6ca-b6733b82cfe9"},"vehicle_type_id":"4","last_reported":1727860177,"current_range_meters":39200,"station_id":"ce4bgl92rcd13ifvqbq0","pricing_plan_id":"cebpf4jnsgd1na2vs0mg"},{"bike_id":"b1e473d1-2fa9-4b32-9332-17fa92fe2708","system_id":"levelo_inurba_marseille","lat":43.3376,"lon":5.37483,"is_reserved":false,"is_disabled":false,"rental_uris":{"android":"levelo://app?vid=b1e473d1-2fa9-4b32-9332-17fa92fe2708","ios":"levelo://app?vid=b1e473d1-2fa9-4b32-9332-17fa92fe2708"},"vehicle_type_id":"4","last_reported":1727860177,"current_range_meters":38800,"station_id":"","pricing_plan_id":"cebpf4jnsgd1na2vs0mg"},{"bike_id":"78f543d4-4f9f-4b4c-860d-cf018ade7f2d","system_id":"levelo_inurba_marseille","lat":43.26777,"lon":5.39416,"is_reserved":false,"is_disabled":false,"rental_uris":{"android":"levelo://app?vid=78f543d4-4f9f-4b4c-860d-cf018ade7f2d","ios":"levelo://app?vid=78f543d4-4f9f-4b4c-860d-cf018ade7f2d"},"vehicle_type_id":"4","last_reported":1727860177,"current_range_meters":2800,"station_id":"ce4bhh12rcd13ifvqfg0","pricing_plan_id":"cebpf4jnsgd1na2vs0mg"},{"bike_id":"a7ea49b2-6f45-4d6c-a51e-cfe6a9ab0a42","system_id":"levelo_inurba_marseille","lat":43.28355,"lon":5.38633,"is_reserved":false,"is_disabled":false,"rental_uris":{"android":"levelo://app?vid=a7ea49b2-6f45-4d6c-a51e-cfe6a9ab0a42","ios":"levelo://app?vid=a7ea49b2-6f45-4d6c-a51e-cfe6a9ab0a42"},"vehicle_type_id":"4","last_reported":1727860177,"current_range_meters":16800,"station_id":"ce4bh492rcd13ifvqdvg","pricing_plan_id":"cebpf4jnsgd1na2vs0mg"},{"bike_id":"26910d4e-dfca-45c5-9dfb-228d098ca3b4","system_id":"levelo_inurba_marseille","lat":43.313613,"lon":5.36699,"is_reserved":false,"is_disabled":false,"rental_uris":{"android":"levelo://app?vid=26910d4e-dfca-45c5-9dfb-228d098ca3b4","ios":"levelo://app?vid=26910d4e-dfca-45c5-9dfb-228d098ca3b4"},