{"last_updated":1743772824,"ttl":60,"version":"2.2","data":{"bikes":[{"bike_id":"09c0d543-0d56-4af7-b486-6e4fea4d6205","system_id":"levelo_inurba_marseille","lat":43.26199,"lon":5.37935,"is_reserved":false,"is_disabled":false,"rental_uris":{"android":"levelo://app?vid=09c0d543-0d56-4af7-b486-6e4fea4d6205","ios":"levelo://app?vid=09c0d543-0d56-4af7-b486-6e4fea4d6205"},"vehicle_type_id":"4","last_reported":1743772824,"current_range_meters":2800,"station_id":"ce4bhjp2rcd13ifvqg90","pricing_plan_id":"cebpf4jnsgd1na2vs0mg"},{"bike_id":"22c795b4-e0d5-4b6a-b03a-28f991098080","system_id":"levelo_inurba_marseille","lat":43.25494,"lon":5.37647,"is_reserved":false,"is_disabled":false,"rental_uris":{"android":"levelo://app?vid=22c795b4-e0d5-4b6a-b03a-28f991098080","ios":"levelo://app?vid=22c795b4-e0d5-4b6a-b03a-28f991098080"},"vehicle_type_id":"4","last_reported":1743772824,"current_range_meters":2800,"station_id":"ce4bhh12rcd13ifvqff0","pricing_plan_id":"cebpf4jnsgd1na2vs0mg"},{"bike_id":"08bdf6b5-66c5-47c1-8a14-6f6157894f07","system_id":"levelo_inurba_marseille","lat":43.28959,"lon":5.364007,"is_reserved":false,"is_disabled":false,"rental_uris":{"android":"levelo://app?vid=08bdf6b5-66c5-47c1-8a14-6f6157894f07","ios":"levelo://app?vid=08bdf6b5-66c5-47c1-8a14-6f6157894f07"},"vehicle_type_id":"4","last_reported":1743772824,"current_range_meters":2800,"station_id":"ce4bhc92rcd13ifvqetg","pricing_plan_id":"cebpf4jnsgd1na2vs0mg"},{"bike_id":"32a978e0-d0c2-43d4-9b03-19a5c41c27de","system_id":"levelo_inurba_marseille","lat":43.31078,"lon":5.38344,"is_reserved":false,"is_disabled":true,"rental_uris":{"android":"levelo://app?vid=32a978e0-d0c2-43d4-9b03-19a5c41c27de","ios":"levelo://app?vid=32a978e0-d0c2-43d4-9b03-19a5c41c27de"},"vehicle_type_id":"4","last_reported":1743772824,"current_range_meters":2800,"station_id":"ce4bgv92rcd13ifvqcr0","pricing_plan_id":"cebpf4jnsgd1na2vs0mg"},{"bike_id":"93ce2b30-0b35-4507-9d05-0720153e0d82","system_id":"levelo_inurba_marseille","lat":43.29966,"lon":5.38506,"is_reserved":false,"is_disabled":false,"rental_uris":{"android":"levelo://app?vid=93ce2b30-0b35-4507-9d05-0720153e0d82","ios":"levelo://app?vid=93ce2b30-0b35-4507-9d05-0720153e0d82"},"vehicle_type_id":"4","last_reported":1743772824,"current_range_meters":2800,"station_id":"ce4bgj92rcd13ifvqbd0","pricing_plan_id":"cebpf4jnsgd1na2vs0mg"},{"bike_id":"60bba322-fc10-4e97-9c08-48a643252cca","system_id":"levelo_inurba_marseille","lat":43.23197,"lon":5.35538,"is_reserved":false,"is_disabled":false,"rental_uris":{"android":"levelo://app?vid=60bba322-fc10-4e97-9c08-48a643252cca","ios":"levelo://app?vid=60bba322-fc10-4e97-9c08-48a643252cca"},"vehicle_type_id":"4","last_reported":1743772824,"current_range_meters":2800,"station_id":"ce4bhu92rcd13ifvqi70","pricing_plan_id":"cebpf4jnsgd1na2vs0mg"},{"bike_id":"4c82b4ca-4e94-4b20-8fc4-a30a5c24d5ae","system_id":"levelo_inurba_marseille","lat":43.28272,"lon":5.3507,"is_reserved":false,"is_disabled":false,"rental_uris":{"android":"levelo://app?vid=4c82b4ca-4e94-4b20-8fc4-a30a5c24d5ae","ios":"levelo://app?vid=4c82b4ca-4e94-4b20-8fc4-a30a5c24d5ae"},"vehicle_type_id":"4","last_reported":1743772824,"current_range_meters":3200,"station_id":"ce4bhbp2rcd13ifvqerg","pricing_plan_id":"cebpf4jnsgd1na2vs0mg"},{"bike_id":"78c5b9f5-6a8a-4572-b978-136f434511f4","system_id":"levelo_inurba_marseille","lat":43.23183,"lon":5.3999,"is_reserved":false,"is_disabled":false,"rental_uris":{"android":"levelo://app?vid=78c5b9f5-6a8a-4572-b978-136f434511f4","ios":"levelo://app?vid=78c5b9f5-6a8a-4572-b978-136f434511f4"},"vehicle_type_id":"4","last_reported":1743772824,"current_range_meters":3200,"station_id":"ce4bhn12rcd13ifvqgqg","pricing_plan_id":"cebpf4jnsgd1na2vs0mg"},{"bike_id":"063bd687-214f-4b5e-b2eb-6005d6f1c8ca","system_id":"levelo_inurba_marseille","lat":43.29047,"lon":5.369676,"is_reserved":false,"is_disabled":false,"rental_uris":{"android":"levelo://app?vid=063bd687-214f-4b5e-b2eb-6005d6f1c8ca","ios":"levelo://app?vid=063bd687-214f-4b5e-b2eb-6005d6f1c8ca"},"vehicle_type_id":"4","last_reported":1743772824,"current_range_meters":3600,"station_id":"","pricing_plan_id":"cebpf4jnsgd1na2vs0mg"},{"bike_id":"4466ce54-2b21-4727-a476-b1a378127f60","system_id":"levelo_inurba_marseille","lat":43.31758,"lon":5.39022,"is_reserved":false,"is_disabled":false,"rental_uris":{"android":"levelo://app?vid=4466ce54-2b21-4727-a476-b1a378127f60","ios":"levelo://app?vid=4466ce54-2b21-4727-a476-b1a378127f60"},"vehicle_type_id":"4","last_reported":1743772824,"current_range_meters":3600,"station_id":"ce4bhqp2rcd13ifvqhng","pricing_plan_id":"cebpf4jnsgd1na2vs0mg"},{"bike_id":"202e6684-a3a6-468e-bc09-e073d3d57e7c","system_id":"levelo_inurba_marseille","lat":43.283937,"lon":5.349931,"is_reserved":false,"is_disabled":false,"rental_uris":{"android":"levelo://app?vid=202e6684-a3a6-468e-bc09-e073d3d57e7c","ios":"levelo://app?vid=202e6684-a3a6-468e-bc09-e073d3d57e7c"},"vehicle_type_id":"4","last_reported":1743772824,"current_range_meters":3600,"station_id":"ce4bhbh2rcd13ifvqepg","pricing_plan_id":"cebpf4jnsgd1na2vs0mg"},{"bike_id":"0a199511-3c4a-44e6-b895-88af6402c164","system_id":"levelo_inurba_marseille","lat":43.2978,"lon":5.37097,"is_reserved":false,"is_disabled":false,"rental_uris":{"android":"levelo://app?vid=0a199511-3c4a-44e6-b895-88af6402c164","ios":"levelo://app?vid=0a199511-3c4a-44e6-b895-88af6402c164"},"vehicle_type_id":"4","last_reported":1743772824,"current_range_meters":3600,"station_id":"ce4bgop2rcd13ifvqc1g","pricing_plan_id":"cebpf4jnsgd1na2vs0mg"},{"bike_id":"17971790-b77e-4cf6-951d-2648e657091d","system_id":"levelo_inurba_marseille","lat":43.295288,"lon":5.385403,"is_reserved":false,"is_disabled":false,"rental_uris":{"android":"levelo://app?vid=17971790-b77e-4cf6-951d-2648e657091d","ios":"levelo://app?vid=17971790-b77e-4cf6-951d-2648e657091d"},"vehicle_type_id":"4","last_reported":1743772824,"current_range_meters":3600,"station_id":"ce4bgih2rcd13ifvqba0","pricing_plan_id":"cebpf4jnsgd1na2vs0mg"},{"bike_id":"cfa21125-fa09-419a-9ee0-a0a464c8b7ed","system_id":"levelo_inurba_marseille","lat":43.25894,"lon":5.40943,"is_reserved":false,"is_disabled":false,"rental_uris":{"android":"levelo://app?vid=cfa21125-fa09-419a-9ee0-a0a464c8b7ed","ios":"levelo://app?vid=cfa21125-fa09-419a-9ee0-a0a464c8b7ed"},"vehicle_type_id":"4","last_reported":1743772824,"current_range_meters":4000,"station_id":"","pricing_plan_id":"cebpf4jnsgd1na2vs0mg"},{"bike_id":"783c4285-87b1-469d-a934-622e4cab9605","system_id":"levelo_inurba_marseille","lat":43.25111,"lon":5.40323,"is_reserved":false,"is_disabled":false,"rental_uris":{"android":"levelo://app?vid=783c4285-87b1-469d-a934-622e4cab9605","ios":"levelo://app?vid=783c4285-87b1-469d-a934-622e4cab9605"},"vehicle_type_id":"4","last_reported":1743772824,"current_range_meters":4000,"station_id":"ce4bhlh2rcd13ifvqgig","pricing_plan_id":"cebpf4jnsgd1na2vs0mg"},{"bike_id":"18b983b0-e642-46a2-8f25-5539bc07377d","system_id":"levelo_inurba_marseille","lat":43.29308,"lon":5.37165,"is_reserved":false,"is_disabled":false,"rental_uris":{"android":"levelo://app?vid=18b983b0-e642-46a2-8f25-5539bc07377d","ios":"levelo://app?vid=18b983b0-e642-46a2-8f25-5539bc07377d"},"vehicle_type_id":"4","last_reported":1743772824,"current_range_meters":4000,"station_id":"ce4bgh92rcd13ifvqb40","pricing_plan_id":"cebpf4jnsgd1na2vs0mg"},{"bike_id":"62489f33-b575-45a3-baba-d14ddd066cea","system_id":"levelo_inurba_marseille","lat":43.27207,"lon":5.39185,"is_reserved":false,"is_disabled":false,"rental_uris":{"android":"levelo://app?vid=62489f33-b575-45a3-baba-d14ddd066cea","ios":"levelo://app?vid=62489f33-b575-45a3-baba-d14ddd066cea"},"vehicle_type_id":"4","last_reported":1743772824,"current_range_meters":4400,"station_id":"ce4bhhp2rcd13ifvqfm0","pricing_plan_id":"cebpf4jnsgd1na2vs0mg"},{"bike_id":"a56755cb-f062-425d-8e5a-7273238c3c47","system_id":"levelo_inurba_marseille","lat":43.28459,"lon":5.35883,"is_reserved":false,"is_disabled":false,"rental_uris":{"android":"levelo://app?vid=a56755cb-f062-425d-8e5a-7273238c3c47","ios":"levelo://app?vid=a56755cb-f062-425d-8e5a-7273238c3c47"},"vehicle_type_id":"4","last_reported":1743772824,"current_range_meters":4000,"station_id":"ce4bhah2rcd13ifvqei0","pricing_plan_id":"cebpf4jnsgd1na2vs0mg"},{"bike_id":"c160981e-a342-4520-85f5-94821d1d07fd","system_id":"levelo_inurba_marseille","lat":43.27622,"lon":5.36109,"is_reserved":false,"is_disabled":false,"rental_uris":{"android":"levelo://app?vid=c160981e-a342-4520-85f5-94821d1d07fd","ios":"levelo://app?vid=c160981e-a342-4520-85f5-94821d1d07fd"},"vehicle_type_id":"4","last_reported":1743772824,"current_range_meters":4400,"station_id":"ce4bgj92rcd13ifvqbe0","pricing_plan_id":"cebpf4jnsgd1na2vs0mg"},{"bike_id":"5878c2c8-ea83-4a98-803d-1f16ced5bca9","system_id":"levelo_inurba_marseille","lat":43.23158,"lon":5.43707,"is_reserved":false,"is_disabled":false,"rental_uris":{"android":"levelo://app?vid=5878c2c8-ea83-4a98-803d-1f16ced5bca9","ios":"levelo://app?vid=5878c2c8-ea83-4a98-803d-1f16ced5bca9"},"vehicle_type_id":"4","last_reported":1743772824,"current_range_meters":4400,"station_id":"ce4bhmp2rcd13ifvqgog","pricing_plan_id":"cebpf4jnsgd1na2vs0mg"},{"bike_id":"188846d1-be4c-45b9-b680-78935dc8106a","system_id":"levelo_inurba_marseille","lat":43.23057,"lon":5.35495,"is_reserved":false,"is_disabled":false,"rental_uris":{"android":"levelo://app?vid=188846d1-be4c-45b9-b680-78935dc8106a","ios":"levelo://app?vid=188846d1-be4c-45b9-b680-78935dc8106a"},"vehicle_type_id":"4","last_reported":1743772824,"current_range_meters":4400,"station_id":"cpo3342slgdg3j2ifvpg","pricing_plan_id":"cebpf4jnsgd1na2vs0mg"},{"bike_id":"ec4211fb-4be0-415f-b483-517722cb0091","system_id":"levelo_inurba_marseille","lat":43.29097,"lon":5.3814,"is_reserved":false,"is_disabled":false,"rental_uris":{"android":"levelo://app?vid=ec4211fb-4be0-415f-b483-517722cb0091","ios":"levelo://app?vid=ec4211fb-4be0-415f-b483-517722cb0091"},"vehicle_type_id":"4","last_reported":1743772824,"current_range_meters":4400,"station_id":"ce4bh512rcd13ifvqe2g","pricing_plan_id":"cebpf4jnsgd1na2vs0mg"},{"bike_id":"8bec26e5-c612-4e81-9556-9f3c0b042f74","system_id":"levelo_inurba_marseille","lat":43.34292,"lon":5.38486,"is_reserved":false,"is_disabled":false,"rental_uris":{"android":"levelo://app?vid=8bec26e5-c612-4e81-9556-9f3c0b042f74","ios":"levelo://app?vid=8bec26e5-c612-4e81-9556-9f3c0b042f74"},"vehicle_type_id":"4","last_reported":1743772824,"current_range_meters":4800,"station_id":"","pricing_plan_id":"cebpf4jnsgd1na2vs0mg"},{"bike_id":"7ad0d975-79e6-450c-b4d2-7707151ddd9a","system_id":"levelo_inurba_marseille","lat":43.27498,"lon":5.42454,"is_reserved":false,"is_disabled":false,"rental_uris":{"android":"levelo://app?vid=7ad0d975-79e6-450c-b4d2-7707151ddd9a","ios":"levelo://app?vid=7ad0d975-79e6-450c-b4d2-7707151ddd9a"},"vehicle_type_id":"4","last_reported":1743772824,"current_range_meters":4800,"station_id":"ce4bhn92rcd13ifvqgrg","pricing_plan_id":"cebpf4jnsgd1na2vs0mg"},{"bike_id":"cfac7f2f-9679-4b60-a420-122c25601ef1","system_id":"levelo_inurba_marseille","lat":43.25583,"lon":5.38245,"is_reserved":false,"is_disabled":false,"rental_uris":{"android":"levelo://app?vid=cfac7f2f-9679-4b60-a420-122c25601ef1","ios":"levelo://app?vid=cfac7f2f-9679-4b60-a420-122c25601ef1"},"vehicle_type_id":"4","last_reported":1743772824,"current_range_meters":4800,"station_id":"ce4bhih2rcd13ifvqfs0","pricing_plan_id":"cebpf4jnsgd1na2vs0mg"},{"bike_id":"d5bdbeac-44cc-49dd-8ab2-357ac02946c8","system_id":"levelo_inurba_marseille","lat":43.29527,"lon":5.3941,"is_reserved":false,"is_disabled":false,"rental_uris":{"android":"levelo://app?vid=d5bdbeac-44cc-49dd-8ab2-357ac02946c8","ios":"levelo://app?vid=d5bdbeac-44cc-49dd-8ab2-357ac02946c8"},"vehicle_type_id":"4","last_reported":1743772824,"current_range_meters":4800,"station_id":"ce4bh292rcd13ifvqdf0","pricing_plan_id":"cebpf4jnsgd1na2vs0mg"},{"bike_id":"2f5ebb33-56ac-48ac-8004-513ec8b3c9df","system_id":"levelo_inurba_marseille","lat":43.25932,"lon":5.40899,"is_reserved":false,"is_disabled":false,"rental_uris":{"android":"levelo://app?vid=2f5ebb33-56ac-48ac-8004-513ec8b3c9df","ios":"levelo://app?vid=2f5ebb33-56ac-48ac-8004-513ec8b3c9df"},"vehicle_type_id":"4","last_reported":1743772824,"current_range_meters":4800,"station_id":"ce4bhm92rcd13ifvqglg","pricing_plan_id":"cebpf4jnsgd1na2vs0mg"},{"bike_id":"add6ef26-0efb-4705-b1fe-f75d8c467525","system_id":"levelo_inurba_marseille","lat":43.254944,"lon":5.376489,"is_reserved":false,"is_disabled":false,"rental_uris":{"android":"levelo://app?vid=add6ef26-0efb-4705-b1fe-f75d8c467525","ios":"levelo://app?vid=add6ef26-0efb-4705-b1fe-f75d8c467525"},"vehicle_type_id":"4","last_reported":1743772824,"current_range_meters":4800,"station_id":"ce4bhh12rcd13ifvqff0","pricing_plan_id":"cebpf4jnsgd1na2vs0mg"},{"bike_id":"cd83c8ac-ed09-4369-9279-b6f36f2bbd3c","system_id":"levelo_inurba_marseille","lat":43.30828,"lon":5.38183,"is_reserved":false,"is_disabled":false,"rental_uris":{"android":"levelo://app?vid=cd83c8ac-ed09-4369-9279-b6f36f2bbd3c","ios":"levelo://app?vid=cd83c8ac-ed09-4369-9279-b6f36f2bbd3c"},"vehicle_type_id":"4","last_reported":1743772824,"current_range_meters":5600,"station_id":"ce4bgt12rcd13ifvqce0","pricing_plan_id":"cebpf4jnsgd1na2vs0mg"},{"bike_id":"8ec8360a-4ca5-485c-85c0-60e58d91599a","system_id":"levelo_inurba_marseille","lat":43.298934,"lon":5.436699,"is_reserved":false,"is_disabled":false,"rental_uris":{"android":"levelo://app?vid=8ec8360a-4ca5-485c-85c0-60e58d91599a","ios":"levelo://app?vid=8ec8360a-4ca5-485c-85c0-60e58d91599a"},"vehicle_type_id":"4","last_reported":1743772824,"current_range_meters":5600,"station_id":"ce4bhpp2rcd13ifvqhfg","pricing_plan_id":"cebpf4jnsgd1na2vs0mg"},{"bike_id":"1d4e52d5-1044-44ad-8878-d91127608da8","system_id":"levelo_inurba_marseille","lat":43.260068,"lon":5.398212,"is_reserved":false,"is_disabled":false,"rental_uris":{"android":"levelo://app?vid=1d4e52d5-1044-44ad-8878-d91127608da8","ios":"levelo://app?vid=1d4e52d5-1044-44ad-8878-d91127608da8"},"vehicle_type_id":"4","last_reported":1743772824,"current_range_meters":5600,"station_id":"ce4bhl92rcd13ifvqghg","pricing_plan_id":"cebpf4jnsgd1na2vs0mg"},{"bike_id":"6966d437-4073-4503-a9b2-41a0b0db33aa","system_id":"levelo_inurba_marseille","lat":43.302521,"lon":5.400697,"is_reserved":false,"is_disabled":false,"rental_uris":{"android":"levelo://app?vid=6966d437-4073-4503-a9b2-41a0b0db33aa","ios":"levelo://app?vid=6966d437-4073-4503-a9b2-41a0b0db33aa"},"vehicle_type_id":"4","last_reported":1743772824,"current_range_meters":4800,"station_id":"ce4bgvh2rcd13ifvqcs0","pricing_plan_id":"cebpf4jnsgd1na2vs0mg"},{"bike_id":"5c11d07c-5eea-4766-9d71-e6a36cf6f070","system_id":"levelo_inurba_marseille","lat":43.27499,"lon":5.42452,"is_reserved":false,"is_disabled":false,"rental_uris":{"android":"levelo://app?vid=5c11d07c-5eea-4766-9d71-e6a36cf6f070","ios":"levelo://app?vid=5c11d07c-5eea-4766-9d71-e6a36cf6f070"},"vehicle_type_id":"4","last_reported":1743772824,"current_range_meters":6000,"station_id":"ce4bhn92rcd13ifvqgrg","pricing_plan_id":"cebpf4jnsgd1na2vs0mg"},{"bike_id":"71e55f99-90e5-4133-8167-5af8b2b35d7e","system_id":"levelo_inurba_marseille","lat":43.23065,"lon":5.35499,"is_reserved":false,"is_disabled":false,"rental_uris":{"android":"levelo://app?vid=71e55f99-90e5-4133-8167-5af8b2b35d7e","ios":"levelo://app?vid=71e55f99-90e5-4133-8167-5af8b2b35d7e"},"vehicle_type_id":"4","last_reported":1743772824,"current_range_meters":6000,"station_id":"cpo3342slgdg3j2ifvpg","pricing_plan_id":"cebpf4jnsgd1na2vs0mg"},{"bike_id":"e7c434cf-3e3f-4cf8-b431-490f774dbcaf","system_id":"levelo_inurba_marseille","lat":43.26557,"lon":5.37299,"is_reserved":false,"is_disabled":false,"rental_uris":{"android":"levelo://app?vid=e7c434cf-3e3f-4cf8-b431-490f774dbcaf","ios":"levelo://app?vid=e7c434cf-3e3f-4cf8-b431-490f774dbcaf"},"vehicle_type_id":"4","last_reported":1743772824,"current_range_meters":6400,"station_id":"ce4bhg12rcd13ifvqf70","pricing_plan_id":"cebpf4jnsgd1na2vs0mg"},{"bike_id":"c13336a2-47ce-488c-b5b6-77c01a3ac1d1","system_id":"levelo_inurba_marseille","lat":43.319051,"lon":5.407395,"is_reserved":false,"is_disabled":true,"rental_uris":{"android":"levelo://app?vid=c13336a2-47ce-488c-b5b6-77c01a3ac1d1","ios":"levelo://app?vid=c13336a2-47ce-488c-b5b6-77c01a3ac1d1"},"vehicle_type_id":"4","last_reported":1743772824,"current_range_meters":6400,"station_id":"ce4bhq12rcd13ifvqhig","pricing_plan_id":"cebpf4jnsgd1na2vs0mg"},{"bike_id":"08412614-9a7f-42c5-91c9-6bf43ea0736a","system_id":"levelo_inurba_marseille","lat":43.23153,"lon":5.4371,"is_reserved":false,"is_disabled":false,"rental_uris":{"android":"levelo://app?vid=08412614-9a7f-42c5-91c9-6bf43ea0736a","ios":"levelo://app?vid=08412614-9a7f-42c5-91c9-6bf43ea0736a"},"vehicle_type_id":"4","last_reported":1743772824,"current_range_meters":6400,"station_id":"ce4bhmp2rcd13ifvqgog","pricing_plan_id":"cebpf4jnsgd1na2vs0mg"},{"bike_id":"73d854ad-9eb6-4d68-8878-e9b2295ae65a","system_id":"levelo_inurba_marseille","lat":43.23065,"lon":5.35494,"is_reserved":false,"is_disabled":false,"rental_uris":{"android":"levelo://app?vid=73d854ad-9eb6-4d68-8878-e9b2295ae65a","ios":"levelo://app?vid=73d854ad-9eb6-4d68-8878-e9b2295ae65a"},"vehicle_type_id":"4","last_reported":1743772824,"current_range_meters":6800,"station_id":"cpo3342slgdg3j2ifvpg","pricing_plan_id":"cebpf4jnsgd1na2vs0mg"},{"bike_id":"fd79db7f-be0e-478f-b638-826514d749f9","system_id":"levelo_inurba_marseille","lat":43.29573,"lon":5.39966,"is_reserved":false,"is_disabled":false,"rental_uris":{"android":"levelo://app?vid=fd79db7f-be0e-478f-b638-826514d749f9","ios":"levelo://app?vid=fd79db7f-be0e-478f-b638-826514d749f9"},"vehicle_type_id":"4","last_reported":1743772824,"current_range_meters":6800,"station_id":"ce4bh312rcd13ifvqdj0","pricing_plan_id":"cebpf4jnsgd1na2vs0mg"},{"bike_id":"dabdb4a0-a190-4781-a978-36db6194def8","system_id":"levelo_inurba_marseille","lat":43.27375,"lon":5.36266,"is_reserved":false,"is_disabled":false,"rental_uris":{"android":"levelo://app?vid=dabdb4a0-a190-4781-a978-36db6194def8","ios":"levelo://app?vid=dabdb4a0-a190-4781-a978-36db6194def8"},"vehicle_type_id":"4","last_reported":1743772824,"current_range_meters":6800,"station_id":"ce4bhbh2rcd13ifvqeo0","pricing_plan_id":"cebpf4jnsgd1na2vs0mg"},{"bike_id":"e7c485f6-433d-495f-b7fa-652aacd0f224","system_id":"levelo_inurba_marseille","lat":43.28272,"lon":5.35071,"is_reserved":false,"is_disabled":false,"rental_uris":{"android":"levelo://app?vid=e7c485f6-433d-495f-b7fa-652aacd0f224","ios":"levelo://app?vid=e7c485f6-433d-495f-b7fa-652aacd0f224"},"vehicle_type_id":"4","last_reported":1743772824,"current_range_meters":6800,"station_id":"ce4bhbp2rcd13ifvqerg","pricing_plan_id":"cebpf4jnsgd1na2vs0mg"},{"bike_id":"8d7eab5b-bc43-48f5-9c97-0948b42ca6cf","system_id":"levelo_inurba_marseille","lat":43.22932,"lon":5.35373,"is_reserved":false,"is_disabled":false,"rental_uris":{"android":"levelo://app?vid=8d7eab5b-bc43-48f5-9c97-0948b42ca6cf","ios":"levelo://app?vid=8d7eab5b-bc43-48f5-9c97-0948b42ca6cf"},"vehicle_type_id":"4","last_reported":1743772824,"current_range_meters":6800,"station_id":"cpo3532slgdg3j2ikp40","pricing_plan_id":"cebpf4jnsgd1na2vs0mg"},{"bike_id":"72a05d97-e785-4a82-8704-67b9b5a95179","system_id":"levelo_inurba_marseille","lat":43.23198,"lon":5.35557,"is_reserved":false,"is_disabled":false,"rental_uris":{"android":"levelo://app?vid=72a05d97-e785-4a82-8704-67b9b5a95179","ios":"levelo://app?vid=72a05d97-e785-4a82-8704-67b9b5a95179"},"vehicle_type_id":"4","last_reported":1743772824,"current_range_meters":6800,"station_id":"ce4bhu92rcd13ifvqi70","pricing_plan_id":"cebpf4jnsgd1na2vs0mg"},{"bike_id":"9df68aa2-8b8f-4292-998b-ceacfb62d61a","system_id":"levelo_inurba_marseille","lat":43.29526,"lon":5.39053,"is_reserved":false,"is_disabled":false,"rental_uris":{"android":"levelo://app?vid=9df68aa2-8b8f-4292-998b-ceacfb62d61a","ios":"levelo://app?vid=9df68aa2-8b8f-4292-998b-ceacfb62d61a"},"vehicle_type_id":"4","last_reported":1743772824,"current_range_meters":6800,"station_id":"ce4bh3p2rcd13ifvqdp0","pricing_plan_id":"cebpf4jnsgd1na2vs0mg"},{"bike_id":"0649ef84-9096-4807-b94b-6cea495daba4","system_id":"levelo_inurba_marseille","lat":43.29008,"lon":5.35609,"is_reserved":false,"is_disabled":false,"rental_uris":{"android":"levelo://app?vid=0649ef84-9096-4807-b94b-6cea495daba4","ios":"levelo://app?vid=0649ef84-9096-4807-b94b-6cea495daba4"},"vehicle_type_id":"4","last_reported":1743772824,"current_range_meters":7200,"station_id":"ce4bhb92rcd13ifvqen0","pricing_plan_id":"cebpf4jnsgd1na2vs0mg"},{"bike_id":"e3a29d38-a611-4b12-87ef-2fb8a21c41d5","system_id":"levelo_inurba_marseille","lat":43.22926,"lon":5.35385,"is_reserved":false,"is_disabled":false,"rental_uris":{"android":"levelo://app?vid=e3a29d38-a611-4b12-87ef-2fb8a21c41d5","ios":"levelo://app?vid=e3a29d38-a611-4b12-87ef-2fb8a21c41d5"},"vehicle_type_id":"4","last_reported":1743772824,"current_range_meters":7200,"station_id":"cpo3532slgdg3j2ikp40","pricing_plan_id":"cebpf4jnsgd1na2vs0mg"},{"bike_id":"efddeda7-6eb2-4c14-868d-fa0ce0b35ef3","system_id":"levelo_inurba_marseille","lat":43.31289,"lon":5.38281,"is_reserved":false,"is_disabled":false,"rental_uris":{"android":"levelo://app?vid=efddeda7-6eb2-4c14-868d-fa0ce0b35ef3","ios":"levelo://app?vid=efddeda7-6eb2-4c14-868d-fa0ce0b35ef3"},"vehicle_type_id":"4","last_reported":1743772824,"current_range_meters":7200,"station_id":"","pricing_plan_id":"cebpf4jnsgd1na2vs0mg"},{"bike_id":"c0908286-396b-49a3-ba2a-5d34dca0365c","system_id":"levelo_inurba_marseille","lat":43.29446,"lon":5.39741,"is_reserved":false,"is_disabled":false,"rental_uris":{"android":"levelo://app?vid=c0908286-396b-49a3-ba2a-5d34dca0365c","ios":"levelo://app?vid=c0908286-396b-49a3-ba2a-5d34dca0365c"},"vehicle_type_id":"4","last_reported":1743772824,"current_range_meters":7200,"station_id":"ce4bh3h2rcd13ifvqdo0","pricing_plan_id":"cebpf4jnsgd1na2vs0mg"},{"bike_id":"c0470d46-339d-42ae-a460-ec5c31024689","system_id":"levelo_inurba_marseille","lat":43.29538,"lon":5.38551,"is_reserved":false,"is_disabled":false,"rental_uris":{"android":"levelo://app?vid=c0470d46-339d-42ae-a460-ec5c31024689","ios":"levelo://app?vid=c0470d46-339d-42ae-a460-ec5c31024689"},"vehicle_type_id":"4","last_reported":1743772824,"current_range_meters":7200,"station_id":"ce4bgih2rcd13ifvqba0","pricing_plan_id":"cebpf4jnsgd1na2vs0mg"},{"bike_id":"3c405ee4-fcc4-4852-9cff-6ca294141b75","system_id":"levelo_inurba_marseille","lat":43.24655,"lon":5.38909,"is_reserved":false,"is_disabled":false,"rental_uris":{"android":"levelo://app?vid=3c405ee4-fcc4-4852-9cff-6ca294141b75","ios":"levelo://app?vid=3c405ee4-fcc4-4852-9cff-6ca294141b75"},"vehicle_type_id":"4","last_reported":1743772824,"current_range_meters":8000,"station_id":"ce4bhg12rcd13ifvqf60","pricing_plan_id":"cebpf4jnsgd1na2vs0mg"},{"bike_id":"46026622-91cf-4b52-b173-6693d4c71555","system_id":"levelo_inurba_marseille","lat":43.26026,"lon":5.37552,"is_reserved":false,"is_disabled":false,"rental_uris":{"android":"levelo://app?vid=46026622-91cf-4b52-b173-6693d4c71555","ios":"levelo://app?vid=46026622-91cf-4b52-b173-6693d4c71555"},"vehicle_type_id":"4","last_reported":1743772824,"current_range_meters":7200,"station_id":"ce4bhgh2rcd13ifvqfa0","pricing_plan_id":"cebpf4jnsgd1na2vs0mg"},{"bike_id":"d7c1acd0-27ce-4cda-87a1-5893fc271736","system_id":"levelo_inurba_marseille","lat":43.30282,"lon":5.37714,"is_reserved":false,"is_disabled":false,"rental_uris":{"android":"levelo://app?vid=d7c1acd0-27ce-4cda-87a1-5893fc271736","ios":"levelo://app?vid=d7c1acd0-27ce-4cda-87a1-5893fc271736"},"vehicle_type_id":"4","last_reported":1743772824,"current_range_meters":8000,"station_id":"ce4bguh2rcd13ifvqcj0","pricing_plan_id":"cebpf4jnsgd1na2vs0mg"},{"bike_id":"d76832c4-3604-4de9-b7a5-182f7c6e995c","system_id":"levelo_inurba_marseille","lat":43.31386,"lon":5.38539,"is_reserved":false,"is_disabled":true,"rental_uris":{"android":"levelo://app?vid=d76832c4-3604-4de9-b7a5-182f7c6e995c","ios":"levelo://app?vid=d76832c4-3604-4de9-b7a5-182f7c6e995c"},"vehicle_type_id":"4","last_reported":1743772824,"current_range_meters":8000,"station_id":"","pricing_plan_id":"cebpf4jnsgd1na2vs0mg"},{"bike_id":"2ff3068f-074f-4569-bb32-aaa56c528ef2","system_id":"levelo_inurba_marseille","lat":43.27925,"lon":5.39582,"is_reserved":false,"is_disabled":false,"rental_uris":{"android":"levelo://app?vid=2ff3068f-074f-4569-bb32-aaa56c528ef2","ios":"levelo://app?vid=2ff3068f-074f-4569-bb32-aaa56c528ef2"},"vehicle_type_id":"4","last_reported":1743772824,"current_range_meters":8000,"station_id":"ce4bhf92rcd13ifvqf40","pricing_plan_id":"cebpf4jnsgd1na2vs0mg"},{"bike_id":"64d61f01-a063-40e6-bc44-b11650667ee5","system_id":"levelo_inurba_marseille","lat":43.27323,"lon":5.39076,"is_reserved":false,"is_disabled":false,"rental_uris":{"android":"levelo://app?vid=64d61f01-a063-40e6-bc44-b11650667ee5","ios":"levelo://app?vid=64d61f01-a063-40e6-bc44-b11650667ee5"},"vehicle_type_id":"4","last_reported":1743772824,"current_range_meters":8000,"station_id":"ce4bhgp2rcd13ifvqfe0","pricing_plan_id":"cebpf4jnsgd1na2vs0mg"},{"bike_id":"f235ceee-9ec1-44bf-9f8f-50780da6a8f5","system_id":"levelo_inurba_marseille","lat":43.2926,"lon":5.37634,"is_reserved":false,"is_disabled":false,"rental_uris":{"android":"levelo://app?vid=f235ceee-9ec1-44bf-9f8f-50780da6a8f5","ios":"levelo://app?vid=f235ceee-9ec1-44bf-9f8f-50780da6a8f5"},"vehicle_type_id":"4","last_reported":1743772824,"current_range_meters":8000,"station_id":"ce4bgi12rcd13ifvqb80","pricing_plan_id":"cebpf4jnsgd1na2vs0mg"},{"bike_id":"4a0cb5ec-891f-471c-8860-9d6c3a83a3a9","system_id":"levelo_inurba_marseille","lat":43.30361,"lon":5.42478,"is_reserved":false,"is_disabled":false,"rental_uris":{"android":"levelo://app?vid=4a0cb5ec-891f-471c-8860-9d6c3a83a3a9","ios":"levelo://app?vid=4a0cb5ec-891f-471c-8860-9d6c3a83a3a9"},"vehicle_type_id":"4","last_reported":1743772824,"current_range_meters":8000,"station_id":"ce4bhoh2rcd13ifvqh6g","pricing_plan_id":"cebpf4jnsgd1na2vs0mg"},{"bike_id":"6e7e8bd0-971a-4bf5-a521-0d1053f36753","system_id":"levelo_inurba_marseille","lat":43.31082,"lon":5.42455,"is_reserved":false,"is_disabled":true,"rental_uris":{"android":"levelo://app?vid=6e7e8bd0-971a-4bf5-a521-0d1053f36753","ios":"levelo://app?vid=6e7e8bd0-971a-4bf5-a521-0d1053f36753"},"vehicle_type_id":"4","last_reported":1743772824,"current_range_meters":8000,"station_id":"ce4bhp92rcd13ifvqhag","pricing_plan_id":"cebpf4jnsgd1na2vs0mg"},{"bike_id":"26f0a341-383d-4577-b325-3f462b8cfd6e","system_id":"levelo_inurba_marseille","lat":43.3056,"lon":5.36519,"is_reserved":false,"is_disabled":false,"rental_uris":{"android":"levelo://app?vid=26f0a341-383d-4577-b325-3f462b8cfd6e","ios":"levelo://app?vid=26f0a341-383d-4577-b325-3f462b8cfd6e"},"vehicle_type_id":"4","last_reported":1743772824,"current_range_meters":8000,"station_id":"ce4bgs12rcd13ifvqcag","pricing_plan_id":"cebpf4jnsgd1na2vs0mg"},{"bike_id":"4b9f5a12-8bea-4047-9e7e-1a96208578a0","system_id":"levelo_inurba_marseille","lat":43.28462,"lon":5.35928,"is_reserved":false,"is_disabled":false,"rental_uris":{"android":"levelo://app?vid=4b9f5a12-8bea-4047-9e7e-1a96208578a0","ios":"levelo://app?vid=4b9f5a12-8bea-4047-9e7e-1a96208578a0"},"vehicle_type_id":"4","last_reported":1743772824,"current_range_meters":8400,"station_id":"ce4bhah2rcd13ifvqei0","pricing_plan_id":"cebpf4jnsgd1na2vs0mg"},{"bike_id":"6c29e832-dee1-46ee-b8ca-d73337754631","system_id":"levelo_inurba_marseille","lat":43.30489,"lon":5.37922,"is_reserved":false,"is_disabled":false,"rental_uris":{"android":"levelo://app?vid=6c29e832-dee1-46ee-b8ca-d73337754631","ios":"levelo://app?vid=6c29e832-dee1-46ee-b8ca-d73337754631"},"vehicle_type_id":"4","last_reported":1743772824,"current_range_meters":8400,"station_id":"ce4bgup2rcd13ifvqcn0","pricing_plan_id":"cebpf4jnsgd1na2vs0mg"},{"bike_id":"a22a3f17-ae37-4230-8e73-1e9301b19278","system_id":"levelo_inurba_marseille","lat":43.25583,"lon":5.38241,"is_reserved":false,"is_disabled":false,"rental_uris":{"android":"levelo://app?vid=a22a3f17-ae37-4230-8e73-1e9301b19278","ios":"levelo://app?vid=a22a3f17-ae37-4230-8e73-1e9301b19278"},"vehicle_type_id":"4","last_reported":1743772824,"current_range_meters":8400,"station_id":"ce4bhih2rcd13ifvqfs0","pricing_plan_id":"cebpf4jnsgd1na2vs0mg"},{"bike_id":"8b2d74a9-8867-4187-8146-f27379b507cc","system_id":"levelo_inurba_marseille","lat":43.29974,"lon":5.37166,"is_reserved":false,"is_disabled":false,"rental_uris":{"android":"levelo://app?vid=8b2d74a9-8867-4187-8146-f27379b507cc","ios":"levelo://app?vid=8b2d74a9-8867-4187-8146-f27379b507cc"},"vehicle_type_id":"4","last_reported":1743772824,"current_range_meters":8400,"station_id":"ce4bgr92rcd13ifvqc7g","pricing_plan_id":"cebpf4jnsgd1na2vs0mg"},{"bike_id":"3cf22d29-90b6-4c79-a643-886bc3743ca7","system_id":"levelo_inurba_marseille","lat":43.33436,"lon":5.40056,"is_reserved":false,"is_disabled":false,"rental_uris":{"android":"levelo://app?vid=3cf22d29-90b6-4c79-a643-886bc3743ca7","ios":"levelo://app?vid=3cf22d29-90b6-4c79-a643-886bc3743ca7"},"vehicle_type_id":"4","last_reported":1743772824,"current_range_meters":8400,"station_id":"","pricing_plan_id":"cebpf4jnsgd1na2vs0mg"},{"bike_id":"1049ba71-fb41-4dc5-8c5a-67fbc6fe8421","system_id":"levelo_inurba_marseille","lat":43.25491,"lon":5.37651,"is_reserved":false,"is_disabled":true,"rental_uris":{"android":"levelo://app?vid=1049ba71-fb41-4dc5-8c5a-67fbc6fe8421","ios":"levelo://app?vid=1049ba71-fb41-4dc5-8c5a-67fbc6fe8421"},"vehicle_type_id":"4","last_reported":1743772824,"current_range_meters":8400,"station_id":"ce4bhh12rcd13ifvqff0","pricing_plan_id":"cebpf4jnsgd1na2vs0mg"},{"bike_id":"3b778bf9-dd9c-4cc0-8b08-f428459fffbd","system_id":"levelo_inurba_marseille","lat":43.31175,"lon":5.3873,"is_reserved":false,"is_disabled":false,"rental_uris":{"android":"levelo://app?vid=3b778bf9-dd9c-4cc0-8b08-f428459fffbd","ios":"levelo://app?vid=3b778bf9-dd9c-4cc0-8b08-f428459fffbd"},"vehicle_type_id":"4","last_reported":1743772824,"current_range_meters":8400,"station_id":"ce4bgv12rcd13ifvqcp0","pricing_plan_id":"cebpf4jnsgd1na2vs0mg"},{"bike_id":"b7f3f049-96a7-45d7-acbf-58e61431e36e","system_id":"levelo_inurba_marseille","lat":43.2465,"lon":5.38904,"is_reserved":false,"is_disabled":false,"rental_uris":{"android":"levelo://app?vid=b7f3f049-96a7-45d7-acbf-58e61431e36e","ios":"levelo://app?vid=b7f3f049-96a7-45d7-acbf-58e61431e36e"},"vehicle_type_id":"4","last_reported":1743772824,"current_range_meters":8400,"station_id":"ce4bhg12rcd13ifvqf60","pricing_plan_id":"cebpf4jnsgd1na2vs0mg"},{"bike_id":"e59d5de6-ce74-4b6f-8d36-8b02774de9f1","system_id":"levelo_inurba_marseille","lat":43.2696,"lon":5.38637,"is_reserved":false,"is_disabled":false,"rental_uris":{"android":"levelo://app?vid=e59d5de6-ce74-4b6f-8d36-8b02774de9f1","ios":"levelo://app?vid=e59d5de6-ce74-4b6f-8d36-8b02774de9f1"},"vehicle_type_id":"4","last_reported":1743772824,"current_range_meters":8400,"station_id":"ce4bhh92rcd13ifvqfh0","pricing_plan_id":"cebpf4jnsgd1na2vs0mg"},{"bike_id":"c0ce41d4-dfc2-4187-8bdb-d04103ac0dd2","system_id":"levelo_inurba_marseille","lat":43.307451,"lon":5.424258,"is_reserved":false,"is_disabled":false,"rental_uris":{"android":"levelo://app?vid=c0ce41d4-dfc2-4187-8bdb-d04103ac0dd2","ios":"levelo://app?vid=c0ce41d4-dfc2-4187-8bdb-d04103ac0dd2"},"vehicle_type_id":"4","last_reported":1743772824,"current_range_meters":8800,"station_id":"st_cvj6ca6bvosntc0bfgr0","pricing_plan_id":"cebpf4jnsgd1na2vs0mg"},{"bike_id":"77e1cca1-9afa-4062-8d36-bac30c3b0ae7","system_id":"levelo_inurba_marseille","lat":43.323619,"lon":5.367534,"is_reserved":false,"is_disabled":false,"rental_uris":{"android":"levelo://app?vid=77e1cca1-9afa-4062-8d36-bac30c3b0ae7","ios":"levelo://app?vid=77e1cca1-9afa-4062-8d36-bac30c3b0ae7"},"vehicle_type_id":"4","last_reported":1743772824,"current_range_meters":8800,"station_id":"ce4bhsh2rcd13ifvqi2g","pricing_plan_id":"cebpf4jnsgd1na2vs0mg"},{"bike_id":"78bb518e-c76d-40a9-9732-e3ff51ff884b","system_id":"levelo_inurba_marseille","lat":43.2977,"lon":5.38059,"is_reserved":false,"is_disabled":false,"rental_uris":{"android":"levelo://app?vid=78bb518e-c76d-40a9-9732-e3ff51ff884b","ios":"levelo://app?vid=78bb518e-c76d-40a9-9732-e3ff51ff884b"},"vehicle_type_id":"4","last_reported":1743772824,"current_range_meters":8800,"station_id":"","pricing_plan_id":"cebpf4jnsgd1na2vs0mg"},{"bike_id":"5f46717b-05d1-4f34-a220-8087932d755b","system_id":"levelo_inurba_marseille","lat":43.30111,"lon":5.36935,"is_reserved":false,"is_disabled":false,"rental_uris":{"android":"levelo://app?vid=5f46717b-05d1-4f34-a220-8087932d755b","ios":"levelo://app?vid=5f46717b-05d1-4f34-a220-8087932d755b"},"vehicle_type_id":"4","last_reported":1743772824,"current_range_meters":8800,"station_id":"","pricing_plan_id":"cebpf4jnsgd1na2vs0mg"},{"bike_id":"36d996d1-147d-4367-84e7-9ff54765b37a","system_id":"levelo_inurba_marseille","lat":43.23197,"lon":5.35558,"is_reserved":false,"is_disabled":false,"rental_uris":{"android":"levelo://app?vid=36d996d1-147d-4367-84e7-9ff54765b37a","ios":"levelo://app?vid=36d996d1-147d-4367-84e7-9ff54765b37a"},"vehicle_type_id":"4","last_reported":1743772824,"current_range_meters":9200,"station_id":"ce4bhu92rcd13ifvqi70","pricing_plan_id":"cebpf4jnsgd1na2vs0mg"},{"bike_id":"bc9fe3af-202e-4402-af03-7c5f0dc4a95b","system_id":"levelo_inurba_marseille","lat":43.2417,"lon":5.36399,"is_reserved":false,"is_disabled":false,"rental_uris":{"android":"levelo://app?vid=bc9fe3af-202e-4402-af03-7c5f0dc4a95b","ios":"levelo://app?vid=bc9fe3af-202e-4402-af03-7c5f0dc4a95b"},"vehicle_type_id":"4","last_reported":1743772824,"current_range_meters":9200,"station_id":"cpo36qri1sfpv3e86is0","pricing_plan_id":"cebpf4jnsgd1na2vs0mg"},{"bike_id":"69c0db05-6ded-4dc6-9720-2452c83c1020","system_id":"levelo_inurba_marseille","lat":43.22951,"lon":5.35393,"is_reserved":false,"is_disabled":false,"rental_uris":{"android":"levelo://app?vid=69c0db05-6ded-4dc6-9720-2452c83c1020","ios":"levelo://app?vid=69c0db05-6ded-4dc6-9720-2452c83c1020"},"vehicle_type_id":"4","last_reported":1743772824,"current_range_meters":9200,"station_id":"cpo3532slgdg3j2ikp40","pricing_plan_id":"cebpf4jnsgd1na2vs0mg"},{"bike_id":"8a1a90ac-c79b-4364-aadd-e31959552237","system_id":"levelo_inurba_marseille","lat":43.25494,"lon":5.37653,"is_reserved":false,"is_disabled":false,"rental_uris":{"android":"levelo://app?vid=8a1a90ac-c79b-4364-aadd-e31959552237","ios":"levelo://app?vid=8a1a90ac-c79b-4364-aadd-e31959552237"},"vehicle_type_id":"4","last_reported":1743772824,"current_range_meters":9200,"station_id":"ce4bhh12rcd13ifvqff0","pricing_plan_id":"cebpf4jnsgd1na2vs0mg"},{"bike_id":"e59db74f-8a79-4513-97ed-c8573b18b55d","system_id":"levelo_inurba_marseille","lat":43.2971,"lon":5.36584,"is_reserved":false,"is_disabled":false,"rental_uris":{"android":"levelo://app?vid=e59db74f-8a79-4513-97ed-c8573b18b55d","ios":"levelo://app?vid=e59db74f-8a79-4513-97ed-c8573b18b55d"},"vehicle_type_id":"4","last_reported":1743772824,"current_range_meters":9200,"station_id":"ce4bgn12rcd13ifvqbt0","pricing_plan_id":"cebpf4jnsgd1na2vs0mg"},{"bike_id":"53efb98f-0bab-4dd7-b39a-695cf3c56023","system_id":"levelo_inurba_marseille","lat":43.2902,"lon":5.38143,"is_reserved":false,"is_disabled":false,"rental_uris":{"android":"levelo://app?vid=53efb98f-0bab-4dd7-b39a-695cf3c56023","ios":"levelo://app?vid=53efb98f-0bab-4dd7-b39a-695cf3c56023"},"vehicle_type_id":"4","last_reported":1743772824,"current_range_meters":9200,"station_id":"ce4bh4p2rcd13ifvqe1g","pricing_plan_id":"cebpf4jnsgd1na2vs0mg"},{"bike_id":"5c611aa4-ce8b-45e6-90b4-76ba4765914b","system_id":"levelo_inurba_marseille","lat":43.33032,"lon":5.39045,"is_reserved":false,"is_disabled":false,"rental_uris":{"android":"levelo://app?vid=5c611aa4-ce8b-45e6-90b4-76ba4765914b","ios":"levelo://app?vid=5c611aa4-ce8b-45e6-90b4-76ba4765914b"},"vehicle_type_id":"4","last_reported":1743772824,"current_range_meters":9200,"station_id":"ce4bhr92rcd13ifvqhrg","pricing_plan_id":"cebpf4jnsgd1na2vs0mg"},{"bike_id":"488f9ca6-4677-4bcb-bc64-261e0b0d1bc6","system_id":"levelo_inurba_marseille","lat":43.28662,"lon":5.36352,"is_reserved":false,"is_disabled":false,"rental_uris":{"android":"levelo://app?vid=488f9ca6-4677-4bcb-bc64-261e0b0d1bc6","ios":"levelo://app?vid=488f9ca6-4677-4bcb-bc64-261e0b0d1bc6"},"vehicle_type_id":"4","last_reported":1743772824,"current_range_meters":9200,"station_id":"ce4bhah2rcd13ifvqej0","pricing_plan_id":"cebpf4jnsgd1na2vs0mg"},{"bike_id":"e95e4e2b-8214-4be6-b1d7-70583f6b22ed","system_id":"levelo_inurba_marseille","lat":43.31885,"lon":5.40749,"is_reserved":false,"is_disabled":false,"rental_uris":{"android":"levelo://app?vid=e95e4e2b-8214-4be6-b1d7-70583f6b22ed","ios":"levelo://app?vid=e95e4e2b-8214-4be6-b1d7-70583f6b22ed"},"vehicle_type_id":"4","last_reported":1743772824,"current_range_meters":9200,"station_id":"ce4bhq12rcd13ifvqhig","pricing_plan_id":"cebpf4jnsgd1na2vs0mg"},{"bike_id":"66320bc1-008b-48fe-b35a-1ba41c7b488a","system_id":"levelo_inurba_marseille","lat":43.3054,"lon":5.36505,"is_reserved":false,"is_disabled":false,"rental_uris":{"android":"levelo://app?vid=66320bc1-008b-48fe-b35a-1ba41c7b488a","ios":"levelo://app?vid=66320bc1-008b-48fe-b35a-1ba41c7b488a"},"vehicle_type_id":"4","last_reported":1743772824,"current_range_meters":9600,"station_id":"","pricing_plan_id":"cebpf4jnsgd1na2vs0mg"},{"bike_id":"9f0ff967-4dba-4b96-8d4e-4c8de6324272","system_id":"levelo_inurba_marseille","lat":43.24171,"lon":5.36394,"is_reserved":false,"is_disabled":false,"rental_uris":{"android":"levelo://app?vid=9f0ff967-4dba-4b96-8d4e-4c8de6324272","ios":"levelo://app?vid=9f0ff967-4dba-4b96-8d4e-4c8de6324272"},"vehicle_type_id":"4","last_reported":1743772824,"current_range_meters":9600,"station_id":"cpo36qri1sfpv3e86is0","pricing_plan_id":"cebpf4jnsgd1na2vs0mg"},{"bike_id":"5d22bee5-75c5-48fb-86bc-d2e12bef7393","system_id":"levelo_inurba_marseille","lat":43.26198,"lon":5.37932,"is_reserved":false,"is_disabled":false,"rental_uris":{"android":"levelo://app?vid=5d22bee5-75c5-48fb-86bc-d2e12bef7393","ios":"levelo://app?vid=5d22bee5-75c5-48fb-86bc-d2e12bef7393"},"vehicle_type_id":"4","last_reported":1743772824,"current_range_meters":9600,"station_id":"ce4bhjp2rcd13ifvqg90","pricing_plan_id":"cebpf4jnsgd1na2vs0mg"},{"bike_id":"c69fa191-bb6a-4ea4-8639-a34c0b381fa4","system_id":"levelo_inurba_marseille","lat":43.28671,"lon":5.36354,"is_reserved":false,"is_disabled":false,"rental_uris":{"android":"levelo://app?vid=c69fa191-bb6a-4ea4-8639-a34c0b381fa4","ios":"levelo://app?vid=c69fa191-bb6a-4ea4-8639-a34c0b381fa4"},"vehicle_type_id":"4","last_reported":1743772824,"current_range_meters":9600,"station_id":"ce4bhah2rcd13ifvqej0","pricing_plan_id":"cebpf4jnsgd1na2vs0mg"},{"bike_id":"d14b437e-0d2c-43a9-ba19-3ca612984d74","system_id":"levelo_inurba_marseille","lat":43.27892,"lon":5.3801,"is_reserved":false,"is_disabled":false,"rental_uris":{"android":"levelo://app?vid=d14b437e-0d2c-43a9-ba19-3ca612984d74","ios":"levelo://app?vid=d14b437e-0d2c-43a9-ba19-3ca612984d74"},"vehicle_type_id":"4","last_reported":1743772824,"current_range_meters":9600,"station_id":"ce4bhf92rcd13ifvqf50","pricing_plan_id":"cebpf4jnsgd1na2vs0mg"},{"bike_id":"4faabd9b-45f5-48b9-977b-b766bc8888f5","system_id":"levelo_inurba_marseille","lat":43.26683,"lon":5.38271,"is_reserved":false,"is_disabled":false,"rental_uris":{"android":"levelo://app?vid=4faabd9b-45f5-48b9-977b-b766bc8888f5","ios":"levelo://app?vid=4faabd9b-45f5-48b9-977b-b766bc8888f5"},"vehicle_type_id":"4","last_reported":1743772824,"current_range_meters":9600,"station_id":"ce4bhg92rcd13ifvqf90","pricing_plan_id":"cebpf4jnsgd1na2vs0mg"},{"bike_id":"9901cdad-feb2-48ec-b80a-02caf890e151","system_id":"levelo_inurba_marseille","lat":43.31364,"lon":5.38498,"is_reserved":false,"is_disabled":false,"rental_uris":{"android":"levelo://app?vid=9901cdad-feb2-48ec-b80a-02caf890e151","ios":"levelo://app?vid=9901cdad-feb2-48ec-b80a-02caf890e151"},"vehicle_type_id":"4","last_reported":1743772824,"current_range_meters":9600,"station_id":"ce4bgt92rcd13ifvqcf0","pricing_plan_id":"cebpf4jnsgd1na2vs0mg"},{"bike_id":"12b3ada6-1ffe-48f7-8bfd-a7d49fbce8de","system_id":"levelo_inurba_marseille","lat":43.29963,"lon":5.37237,"is_reserved":false,"is_disabled":false,"rental_uris":{"android":"levelo://app?vid=12b3ada6-1ffe-48f7-8bfd-a7d49fbce8de","ios":"levelo://app?vid=12b3ada6-1ffe-48f7-8bfd-a7d49fbce8de"},"vehicle_type_id":"4","last_reported":1743772824,"current_range_meters":10000,"station_id":"ce4bgr92rcd13ifvqc7g","pricing_plan_id":"cebpf4jnsgd1na2vs0mg"},{"bike_id":"3e176c20-38e8-402a-a99f-3120aebf8c03","system_id":"levelo_inurba_marseille","lat":43.29257,"lon":5.40927,"is_reserved":false,"is_disabled":false,"rental_uris":{"android":"levelo://app?vid=3e176c20-38e8-402a-a99f-3120aebf8c03","ios":"levelo://app?vid=3e176c20-38e8-402a-a99f-3120aebf8c03"},"vehicle_type_id":"4","last_reported":1743772824,"current_range_meters":10000,"station_id":"ce4bh192rcd13ifvqdc0","pricing_plan_id":"cebpf4jnsgd1na2vs0mg"},{"bike_id":"64cd3283-8a55-4240-818a-8735273cc3b9","system_id":"levelo_inurba_marseille","lat":43.26684,"lon":5.38271,"is_reserved":false,"is_disabled":false,"rental_uris":{"android":"levelo://app?vid=64cd3283-8a55-4240-818a-8735273cc3b9","ios":"levelo://app?vid=64cd3283-8a55-4240-818a-8735273cc3b9"},"vehicle_type_id":"4","last_reported":1743772824,"current_range_meters":10000,"station_id":"ce4bhg92rcd13ifvqf90","pricing_plan_id":"cebpf4jnsgd1na2vs0mg"},{"bike_id":"aa55e310-da13-4eff-856b-8b75ec07b854","system_id":"levelo_inurba_marseille","lat":43.25923,"lon":5.40893,"is_reserved":false,"is_disabled":false,"rental_uris":{"android":"levelo://app?vid=aa55e310-da13-4eff-856b-8b75ec07b854","ios":"levelo://app?vid=aa55e310-da13-4eff-856b-8b75ec07b854"},"vehicle_type_id":"4","last_reported":1743772824,"current_range_meters":10000,"station_id":"ce4bhm92rcd13ifvqglg","pricing_plan_id":"cebpf4jnsgd1na2vs0mg"},{"bike_id":"5be4aed2-6d9f-43ef-9892-d353d4c7ec6b","system_id":"levelo_inurba_marseille","lat":43.28685,"lon":5.3866,"is_reserved":false,"is_disabled":false,"rental_uris":{"android":"levelo://app?vid=5be4aed2-6d9f-43ef-9892-d353d4c7ec6b","ios":"levelo://app?vid=5be4aed2-6d9f-43ef-9892-d353d4c7ec6b"},"vehicle_type_id":"4","last_reported":1743772824,"current_range_meters":9600,"station_id":"ce4bh492rcd13ifvqdug","pricing_plan_id":"cebpf4jnsgd1na2vs0mg"},{"bike_id":"f678e1b9-34df-4ef4-b53f-514c899c869f","system_id":"levelo_inurba_marseille","lat":43.23231,"lon":5.35571,"is_reserved":false,"is_disabled":false,"rental_uris":{"android":"levelo://app?vid=f678e1b9-34df-4ef4-b53f-514c899c869f","ios":"levelo://app?vid=f678e1b9-34df-4ef4-b53f-514c899c869f"},"vehicle_type_id":"4","last_reported":1743772824,"current_range_meters":10000,"station_id":"ce4bhu92rcd13ifvqi70","pricing_plan_id":"cebpf4jnsgd1na2vs0mg"},{"bike_id":"e3654dd8-cfeb-4ee4-9035-eda8509606b5","system_id":"levelo_inurba_marseille","lat":43.29232,"lon":5.36093,"is_reserved":false,"is_disabled":false,"rental_uris":{"android":"levelo://app?vid=e3654dd8-cfeb-4ee4-9035-eda8509606b5","ios":"levelo://app?vid=e3654dd8-cfeb-4ee4-9035-eda8509606b5"},"vehicle_type_id":"4","last_reported":1743772824,"current_range_meters":10000,"station_id":"ce4bhbh2rcd13ifvqeqg","pricing_plan_id":"cebpf4jnsgd1na2vs0mg"},{"bike_id":"758c2355-846a-4f3d-bcd8-eac4b3145cd6","system_id":"levelo_inurba_marseille","lat":43.23207,"lon":5.35555,"is_reserved":false,"is_disabled":false,"rental_uris":{"android":"levelo://app?vid=758c2355-846a-4f3d-bcd8-eac4b3145cd6","ios":"levelo://app?vid=758c2355-846a-4f3d-bcd8-eac4b3145cd6"},"vehicle_type_id":"4","last_reported":1743772824,"current_range_meters":10000,"station_id":"ce4bhu92rcd13ifvqi70","pricing_plan_id":"cebpf4jnsgd1na2vs0mg"},{"bike_id":"ed034283-1492-4da7-9409-35bdead80f30","system_id":"levelo_inurba_marseille","lat":43.30143,"lon":5.38779,"is_reserved":false,"is_disabled":true,"rental_uris":{"android":"levelo://app?vid=ed034283-1492-4da7-9409-35bdead80f30","ios":"levelo://app?vid=ed034283-1492-4da7-9409-35bdead80f30"},"vehicle_type_id":"4","last_reported":1743772824,"current_range_meters":10000,"station_id":"ce4bghh2rcd13ifvqb60","pricing_plan_id":"cebpf4jnsgd1na2vs0mg"},{"bike_id":"a0a43178-d68b-4363-8288-2b767dde46ca","system_id":"levelo_inurba_marseille","lat":43.28935,"lon":5.36663,"is_reserved":false,"is_disabled":false,"rental_uris":{"android":"levelo://app?vid=a0a43178-d68b-4363-8288-2b767dde46ca","ios":"levelo://app?vid=a0a43178-d68b-4363-8288-2b767dde46ca"},"vehicle_type_id":"4","last_reported":1743772824,"current_range_meters":10000,"station_id":"ce4bhap2rcd13ifvqek0","pricing_plan_id":"cebpf4jnsgd1na2vs0mg"},{"bike_id":"b038fdbf-86f2-4932-b980-ffbb1de44a82","system_id":"levelo_inurba_marseille","lat":43.22932,"lon":5.35377,"is_reserved":false,"is_disabled":false,"rental_uris":{"android":"levelo://app?vid=b038fdbf-86f2-4932-b980-ffbb1de44a82","ios":"levelo://app?vid=b038fdbf-86f2-4932-b980-ffbb1de44a82"},"vehicle_type_id":"4","last_reported":1743772824,"current_range_meters":10000,"station_id":"cpo3532slgdg3j2ikp40","pricing_plan_id":"cebpf4jnsgd1na2vs0mg"},{"bike_id":"f1e5f20d-e5bb-4349-9a72-f7ab8a004414","system_id":"levelo_inurba_marseille","lat":43.30316,"lon":5.40445,"is_reserved":false,"is_disabled":true,"rental_uris":{"android":"levelo://app?vid=f1e5f20d-e5bb-4349-9a72-f7ab8a004414","ios":"levelo://app?vid=f1e5f20d-e5bb-4349-9a72-f7ab8a004414"},"vehicle_type_id":"4","last_reported":1743772824,"current_range_meters":10000,"station_id":"ce4bh012rcd13ifvqd10","pricing_plan_id":"cebpf4jnsgd1na2vs0mg"},{"bike_id":"74a13a18-430a-4f50-ba26-e7dfbad23482","system_id":"levelo_inurba_marseille","lat":43.23069,"lon":5.35495,"is_reserved":false,"is_disabled":false,"rental_uris":{"android":"levelo://app?vid=74a13a18-430a-4f50-ba26-e7dfbad23482","ios":"levelo://app?vid=74a13a18-430a-4f50-ba26-e7dfbad23482"},"vehicle_type_id":"4","last_reported":1743772824,"current_range_meters":10000,"station_id":"cpo3342slgdg3j2ifvpg","pricing_plan_id":"cebpf4jnsgd1na2vs0mg"},{"bike_id":"386f038a-a86c-4c6a-bf90-638d2a627842","system_id":"levelo_inurba_marseille","lat":43.32471,"lon":5.36575,"is_reserved":false,"is_disabled":false,"rental_uris":{"android":"levelo://app?vid=386f038a-a86c-4c6a-bf90-638d2a627842","ios":"levelo://app?vid=386f038a-a86c-4c6a-bf90-638d2a627842"},"vehicle_type_id":"4","last_reported":1743772824,"current_range_meters":10800,"station_id":"ce4bhs12rcd13ifvqhvg","pricing_plan_id":"cebpf4jnsgd1na2vs0mg"},{"bike_id":"5dccdf1d-c5d9-4a00-80b1-20de93705e03","system_id":"levelo_inurba_marseille","lat":43.25496,"lon":5.3765,"is_reserved":false,"is_disabled":false,"rental_uris":{"android":"levelo://app?vid=5dccdf1d-c5d9-4a00-80b1-20de93705e03","ios":"levelo://app?vid=5dccdf1d-c5d9-4a00-80b1-20de93705e03"},"vehicle_type_id":"4","last_reported":1743772824,"current_range_meters":10800,"station_id":"ce4bhh12rcd13ifvqff0","pricing_plan_id":"cebpf4jnsgd1na2vs0mg"},{"bike_id":"3d02e593-6ce5-4ab8-8c5a-87e05115598c","system_id":"levelo_inurba_marseille","lat":43.292822,"lon":5.40116,"is_reserved":false,"is_disabled":false,"rental_uris":{"android":"levelo://app?vid=3d02e593-6ce5-4ab8-8c5a-87e05115598c","ios":"levelo://app?vid=3d02e593-6ce5-4ab8-8c5a-87e05115598c"},"vehicle_type_id":"4","last_reported":1743772824,"current_range_meters":10800,"station_id":"ce4bh2p2rcd13ifvqdi0","pricing_plan_id":"cebpf4jnsgd1na2vs0mg"},{"bike_id":"efcdf62e-3ccd-4f60-be09-cd2aafeaaa48","system_id":"levelo_inurba_marseille","lat":43.26795,"lon":5.39428,"is_reserved":false,"is_disabled":false,"rental_uris":{"android":"levelo://app?vid=efcdf62e-3ccd-4f60-be09-cd2aafeaaa48","ios":"levelo://app?vid=efcdf62e-3ccd-4f60-be09-cd2aafeaaa48"},"vehicle_type_id":"4","last_reported":1743772824,"current_range_meters":10800,"station_id":"ce4bhh12rcd13ifvqfg0","pricing_plan_id":"cebpf4jnsgd1na2vs0mg"},{"bike_id":"fb348b09-6abb-47a4-a266-91f2eeaee291","system_id":"levelo_inurba_marseille","lat":43.32127,"lon":5.36808,"is_reserved":false,"is_disabled":false,"rental_uris":{"android":"levelo://app?vid=fb348b09-6abb-47a4-a266-91f2eeaee291","ios":"levelo://app?vid=fb348b09-6abb-47a4-a266-91f2eeaee291"},"vehicle_type_id":"4","last_reported":1743772824,"current_range_meters":10800,"station_id":"","pricing_plan_id":"cebpf4jnsgd1na2vs0mg"},{"bike_id":"cbc5f726-b2a8-4076-a1b4-b658232cfb0b","system_id":"levelo_inurba_marseille","lat":43.30596,"lon":5.38032,"is_reserved":false,"is_disabled":false,"rental_uris":{"android":"levelo://app?vid=cbc5f726-b2a8-4076-a1b4-b658232cfb0b","ios":"levelo://app?vid=cbc5f726-b2a8-4076-a1b4-b658232cfb0b"},"vehicle_type_id":"4","last_reported":1743772824,"current_range_meters":10800,"station_id":"ce4bgup2rcd13ifvqcn0","pricing_plan_id":"cebpf4jnsgd1na2vs0mg"},{"bike_id":"25d55576-6348-4b26-babe-62ad02d3e0be","system_id":"levelo_inurba_marseille","lat":43.28087,"lon":5.39657,"is_reserved":false,"is_disabled":false,"rental_uris":{"android":"levelo://app?vid=25d55576-6348-4b26-babe-62ad02d3e0be","ios":"levelo://app?vid=25d55576-6348-4b26-babe-62ad02d3e0be"},"vehicle_type_id":"4","last_reported":1743772824,"current_range_meters":10800,"station_id":"ce4bho12rcd13ifvqh2g","pricing_plan_id":"cebpf4jnsgd1na2vs0mg"},{"bike_id":"f792615f-217c-4fec-85f7-df01eec4816f","system_id":"levelo_inurba_marseille","lat":43.31336,"lon":5.36706,"is_reserved":false,"is_disabled":false,"rental_uris":{"android":"levelo://app?vid=f792615f-217c-4fec-85f7-df01eec4816f","ios":"levelo://app?vid=f792615f-217c-4fec-85f7-df01eec4816f"},"vehicle_type_id":"4","last_reported":1743772824,"current_range_meters":10800,"station_id":"ce4bgr92rcd13ifvqc6g","pricing_plan_id":"cebpf4jnsgd1na2vs0mg"},{"bike_id":"14c7d4cc-5616-4939-af1b-9df7dd41c3c6","system_id":"levelo_inurba_marseille","lat":43.29684,"lon":5.37301,"is_reserved":false,"is_disabled":false,"rental_uris":{"android":"levelo://app?vid=14c7d4cc-5616-4939-af1b-9df7dd41c3c6","ios":"levelo://app?vid=14c7d4cc-5616-4939-af1b-9df7dd41c3c6"},"vehicle_type_id":"4","last_reported":1743772824,"current_range_meters":10800,"station_id":"ce4bgk12rcd13ifvqbj0","pricing_plan_id":"cebpf4jnsgd1na2vs0mg"},{"bike_id":"55ebdf25-0357-4ec1-a3b5-737d5b6b88c2","system_id":"levelo_inurba_marseille","lat":43.30544,"lon":5.36521,"is_reserved":false,"is_disabled":false,"rental_uris":{"android":"levelo://app?vid=55ebdf25-0357-4ec1-a3b5-737d5b6b88c2","ios":"levelo://app?vid=55ebdf25-0357-4ec1-a3b5-737d5b6b88c2"},"vehicle_type_id":"4","last_reported":1743772824,"current_range_meters":10800,"station_id":"ce4bgs12rcd13ifvqcag","pricing_plan_id":"cebpf4jnsgd1na2vs0mg"},{"bike_id":"ca28f870-5fbf-465c-89f5-a9332593d775","system_id":"levelo_inurba_marseille","lat":43.28075,"lon":5.39669,"is_reserved":false,"is_disabled":false,"rental_uris":{"android":"levelo://app?vid=ca28f870-5fbf-465c-89f5-a9332593d775","ios":"levelo://app?vid=ca28f870-5fbf-465c-89f5-a9332593d775"},"vehicle_type_id":"4","last_reported":1743772824,"current_range_meters":10800,"station_id":"ce4bho12rcd13ifvqh2g","pricing_plan_id":"cebpf4jnsgd1na2vs0mg"},{"bike_id":"0aafef83-61d2-4571-8805-8a9fe1c7f944","system_id":"levelo_inurba_marseille","lat":43.259369,"lon":5.409119,"is_reserved":false,"is_disabled":false,"rental_uris":{"android":"levelo://app?vid=0aafef83-61d2-4571-8805-8a9fe1c7f944","ios":"levelo://app?vid=0aafef83-61d2-4571-8805-8a9fe1c7f944"},"vehicle_type_id":"4","last_reported":1743772824,"current_range_meters":10800,"station_id":"ce4bh392rcd13ifvqdm0","pricing_plan_id":"cebpf4jnsgd1na2vs0mg"},{"bike_id":"d03e965e-1dfb-4891-92fc-37be59828007","system_id":"levelo_inurba_marseille","lat":43.28419,"lon":5.34997,"is_reserved":false,"is_disabled":false,"rental_uris":{"android":"levelo://app?vid=d03e965e-1dfb-4891-92fc-37be59828007","ios":"levelo://app?vid=d03e965e-1dfb-4891-92fc-37be59828007"},"vehicle_type_id":"4","last_reported":1743772824,"current_range_meters":11200,"station_id":"ce4bhbh2rcd13ifvqepg","pricing_plan_id":"cebpf4jnsgd1na2vs0mg"},{"bike_id":"7b663538-1c65-4eba-a59d-d3e8fe912702","system_id":"levelo_inurba_marseille","lat":43.29806,"lon":5.38089,"is_reserved":false,"is_disabled":false,"rental_uris":{"android":"levelo://app?vid=7b663538-1c65-4eba-a59d-d3e8fe912702","ios":"levelo://app?vid=7b663538-1c65-4eba-a59d-d3e8fe912702"},"vehicle_type_id":"4","last_reported":1743772824,"current_range_meters":11200,"station_id":"ce4bgip2rcd13ifvqbb0","pricing_plan_id":"cebpf4jnsgd1na2vs0mg"},{"bike_id":"d6112d82-b64b-4b5d-89f0-5e8e9e3412f8","system_id":"levelo_inurba_marseille","lat":43.29533,"lon":5.38555,"is_reserved":false,"is_disabled":false,"rental_uris":{"android":"levelo://app?vid=d6112d82-b64b-4b5d-89f0-5e8e9e3412f8","ios":"levelo://app?vid=d6112d82-b64b-4b5d-89f0-5e8e9e3412f8"},"vehicle_type_id":"4","last_reported":1743772824,"current_range_meters":11200,"station_id":"ce4bgih2rcd13ifvqba0","pricing_plan_id":"cebpf4jnsgd1na2vs0mg"},{"bike_id":"59a5536e-38af-46b6-a6b3-4d5a6c2954c9","system_id":"levelo_inurba_marseille","lat":43.29723,"lon":5.37704,"is_reserved":false,"is_disabled":false,"rental_uris":{"android":"levelo://app?vid=59a5536e-38af-46b6-a6b3-4d5a6c2954c9","ios":"levelo://app?vid=59a5536e-38af-46b6-a6b3-4d5a6c2954c9"},"vehicle_type_id":"4","last_reported":1743772824,"current_range_meters":11600,"station_id":"ce4bgkh2rcd13ifvqbl0","pricing_plan_id":"cebpf4jnsgd1na2vs0mg"},{"bike_id":"1b07f5d0-df62-4495-a42c-4a12cca8ef22","system_id":"levelo_inurba_marseille","lat":43.30246,"lon":5.40031,"is_reserved":false,"is_disabled":true,"rental_uris":{"android":"levelo://app?vid=1b07f5d0-df62-4495-a42c-4a12cca8ef22","ios":"levelo://app?vid=1b07f5d0-df62-4495-a42c-4a12cca8ef22"},"vehicle_type_id":"4","last_reported":1743772824,"current_range_meters":11600,"station_id":"ce4bgvh2rcd13ifvqcs0","pricing_plan_id":"cebpf4jnsgd1na2vs0mg"},{"bike_id":"7142cac9-8e01-4c96-90d0-42e28c5a3cd9","system_id":"levelo_inurba_marseille","lat":43.25582,"lon":5.38229,"is_reserved":false,"is_disabled":false,"rental_uris":{"android":"levelo://app?vid=7142cac9-8e01-4c96-90d0-42e28c5a3cd9","ios":"levelo://app?vid=7142cac9-8e01-4c96-90d0-42e28c5a3cd9"},"vehicle_type_id":"4","last_reported":1743772824,"current_range_meters":11600,"station_id":"ce4bhih2rcd13ifvqfs0","pricing_plan_id":"cebpf4jnsgd1na2vs0mg"},{"bike_id":"2a877350-b835-4223-9491-4ace09844217","system_id":"levelo_inurba_marseille","lat":43.23149,"lon":5.43721,"is_reserved":false,"is_disabled":false,"rental_uris":{"android":"levelo://app?vid=2a877350-b835-4223-9491-4ace09844217","ios":"levelo://app?vid=2a877350-b835-4223-9491-4ace09844217"},"vehicle_type_id":"4","last_reported":1743772824,"current_range_meters":11600,"station_id":"ce4bhmp2rcd13ifvqgog","pricing_plan_id":"cebpf4jnsgd1na2vs0mg"},{"bike_id":"c1330435-40b2-43ee-85a0-9fc2642caa1c","system_id":"levelo_inurba_marseille","lat":43.23145,"lon":5.43716,"is_reserved":false,"is_disabled":false,"rental_uris":{"android":"levelo://app?vid=c1330435-40b2-43ee-85a0-9fc2642caa1c","ios":"levelo://app?vid=c1330435-40b2-43ee-85a0-9fc2642caa1c"},"vehicle_type_id":"4","last_reported":1743772824,"current_range_meters":11600,"station_id":"ce4bhmp2rcd13ifvqgog","pricing_plan_id":"cebpf4jnsgd1na2vs0mg"},{"bike_id":"85743f22-71a2-4d23-b812-acdc88a31deb","system_id":"levelo_inurba_marseille","lat":43.29638,"lon":5.40607,"is_reserved":false,"is_disabled":false,"rental_uris":{"android":"levelo://app?vid=85743f22-71a2-4d23-b812-acdc88a31deb","ios":"levelo://app?vid=85743f22-71a2-4d23-b812-acdc88a31deb"},"vehicle_type_id":"4","last_reported":1743772824,"current_range_meters":12000,"station_id":"ce4bh0h2rcd13ifvqd60","pricing_plan_id":"cebpf4jnsgd1na2vs0mg"},{"bike_id":"8336c2e5-6021-4a8f-8e32-78361134cd8d","system_id":"levelo_inurba_marseille","lat":43.26658,"lon":5.38243,"is_reserved":false,"is_disabled":false,"rental_uris":{"android":"levelo://app?vid=8336c2e5-6021-4a8f-8e32-78361134cd8d","ios":"levelo://app?vid=8336c2e5-6021-4a8f-8e32-78361134cd8d"},"vehicle_type_id":"4","last_reported":1743772824,"current_range_meters":12000,"station_id":"ce4bhg92rcd13ifvqf90","pricing_plan_id":"cebpf4jnsgd1na2vs0mg"},{"bike_id":"f40fc4e8-cfdd-40aa-8507-3bd8857476a8","system_id":"levelo_inurba_marseille","lat":43.30221,"lon":5.40001,"is_reserved":false,"is_disabled":true,"rental_uris":{"android":"levelo://app?vid=f40fc4e8-cfdd-40aa-8507-3bd8857476a8","ios":"levelo://app?vid=f40fc4e8-cfdd-40aa-8507-3bd8857476a8"},"vehicle_type_id":"4","last_reported":1743772824,"current_range_meters":12400,"station_id":"ce4bgvh2rcd13ifvqcs0","pricing_plan_id":"cebpf4jnsgd1na2vs0mg"},{"bike_id":"3d693ca2-47d6-433d-ad14-d60a4e29f160","system_id":"levelo_inurba_marseille","lat":43.30149,"lon":5.38064,"is_reserved":false,"is_disabled":false,"rental_uris":{"android":"levelo://app?vid=3d693ca2-47d6-433d-ad14-d60a4e29f160","ios":"levelo://app?vid=3d693ca2-47d6-433d-ad14-d60a4e29f160"},"vehicle_type_id":"4","last_reported":1743772824,"current_range_meters":12400,"station_id":"ce4bgjp2rcd13ifvqbh0","pricing_plan_id":"cebpf4jnsgd1na2vs0mg"},{"bike_id":"c9ab5bfd-fa91-4b45-8fa2-52813c43fa45","system_id":"levelo_inurba_marseille","lat":43.23063,"lon":5.35488,"is_reserved":false,"is_disabled":false,"rental_uris":{"android":"levelo://app?vid=c9ab5bfd-fa91-4b45-8fa2-52813c43fa45","ios":"levelo://app?vid=c9ab5bfd-fa91-4b45-8fa2-52813c43fa45"},"vehicle_type_id":"4","last_reported":1743772824,"current_range_meters":12400,"station_id":"cpo3342slgdg3j2ifvpg","pricing_plan_id":"cebpf4jnsgd1na2vs0mg"},{"bike_id":"5639eca4-4c4c-4808-854f-bda3dfb37fcc","system_id":"levelo_inurba_marseille","lat":43.29801,"lon":5.3811,"is_reserved":false,"is_disabled":false,"rental_uris":{"android":"levelo://app?vid=5639eca4-4c4c-4808-854f-bda3dfb37fcc","ios":"levelo://app?vid=5639eca4-4c4c-4808-854f-bda3dfb37fcc"},"vehicle_type_id":"4","last_reported":1743772824,"current_range_meters":12400,"station_id":"ce4bgip2rcd13ifvqbb0","pricing_plan_id":"cebpf4jnsgd1na2vs0mg"},{"bike_id":"dd442ea5-6fd7-47f3-a560-f227d6691207","system_id":"levelo_inurba_marseille","lat":43.29776,"lon":5.38072,"is_reserved":false,"is_disabled":false,"rental_uris":{"android":"levelo://app?vid=dd442ea5-6fd7-47f3-a560-f227d6691207","ios":"levelo://app?vid=dd442ea5-6fd7-47f3-a560-f227d6691207"},"vehicle_type_id":"4","last_reported":1743772824,"current_range_meters":12400,"station_id":"ce4bgip2rcd13ifvqbb0","pricing_plan_id":"cebpf4jnsgd1na2vs0mg"},{"bike_id":"fb659555-a9fb-45dd-8faa-60add70f2620","system_id":"levelo_inurba_marseille","lat":43.25004,"lon":5.38948,"is_reserved":false,"is_disabled":false,"rental_uris":{"android":"levelo://app?vid=fb659555-a9fb-45dd-8faa-60add70f2620","ios":"levelo://app?vid=fb659555-a9fb-45dd-8faa-60add70f2620"},"vehicle_type_id":"4","last_reported":1743772824,"current_range_meters":12400,"station_id":"ce4bhgp2rcd13ifvqfd0","pricing_plan_id":"cebpf4jnsgd1na2vs0mg"},{"bike_id":"64fdbb2b-e20c-450b-87b0-deaa705d4ef0","system_id":"levelo_inurba_marseille","lat":43.3137,"lon":5.36791,"is_reserved":false,"is_disabled":false,"rental_uris":{"android":"levelo://app?vid=64fdbb2b-e20c-450b-87b0-deaa705d4ef0","ios":"levelo://app?vid=64fdbb2b-e20c-450b-87b0-deaa705d4ef0"},"vehicle_type_id":"4","last_reported":1743772824,"current_range_meters":12400,"station_id":"","pricing_plan_id":"cebpf4jnsgd1na2vs0mg"},{"bike_id":"a5767c78-124d-4df5-9a34-444b742cb735","system_id":"levelo_inurba_marseille","lat":43.24168,"lon":5.3973,"is_reserved":false,"is_disabled":false,"rental_uris":{"android":"levelo://app?vid=a5767c78-124d-4df5-9a34-444b742cb735","ios":"levelo://app?vid=a5767c78-124d-4df5-9a34-444b742cb735"},"vehicle_type_id":"4","last_reported":1743772824,"current_range_meters":12400,"station_id":"ce4bhn12rcd13ifvqgpg","pricing_plan_id":"cebpf4jnsgd1na2vs0mg"},{"bike_id":"ad5959fc-2f49-488f-9d14-1caafe6367bd","system_id":"levelo_inurba_marseille","lat":43.26196,"lon":5.37934,"is_reserved":false,"is_disabled":false,"rental_uris":{"android":"levelo://app?vid=ad5959fc-2f49-488f-9d14-1caafe6367bd","ios":"levelo://app?vid=ad5959fc-2f49-488f-9d14-1caafe6367bd"},"vehicle_type_id":"4","last_reported":1743772824,"current_range_meters":12800,"station_id":"ce4bhjp2rcd13ifvqg90","pricing_plan_id":"cebpf4jnsgd1na2vs0mg"},{"bike_id":"6e3e7f09-5238-43bc-9f1a-291b8565187d","system_id":"levelo_inurba_marseille","lat":43.30477,"lon":5.37916,"is_reserved":false,"is_disabled":true,"rental_uris":{"android":"levelo://app?vid=6e3e7f09-5238-43bc-9f1a-291b8565187d","ios":"levelo://app?vid=6e3e7f09-5238-43bc-9f1a-291b8565187d"},"vehicle_type_id":"4","last_reported":1743772824,"current_range_meters":12800,"station_id":"ce4bgup2rcd13ifvqcn0","pricing_plan_id":"cebpf4jnsgd1na2vs0mg"},{"bike_id":"538954b0-bc54-45c5-9cef-16a29fd18cc8","system_id":"levelo_inurba_marseille","lat":43.25938,"lon":5.40906,"is_reserved":false,"is_disabled":false,"rental_uris":{"android":"levelo://app?vid=538954b0-bc54-45c5-9cef-16a29fd18cc8","ios":"levelo://app?vid=538954b0-bc54-45c5-9cef-16a29fd18cc8"},"vehicle_type_id":"4","last_reported":1743772824,"current_range_meters":12800,"station_id":"ce4bhm92rcd13ifvqglg","pricing_plan_id":"cebpf4jnsgd1na2vs0mg"},{"bike_id":"f2d0dfa6-4061-4095-9771-02e6a4b8d9db","system_id":"levelo_inurba_marseille","lat":43.29021,"lon":5.38648,"is_reserved":false,"is_disabled":false,"rental_uris":{"android":"levelo://app?vid=f2d0dfa6-4061-4095-9771-02e6a4b8d9db","ios":"levelo://app?vid=f2d0dfa6-4061-4095-9771-02e6a4b8d9db"},"vehicle_type_id":"4","last_reported":1743772824,"current_range_meters":12800,"station_id":"ce4bh4p2rcd13ifvqe0g","pricing_plan_id":"cebpf4jnsgd1na2vs0mg"},{"bike_id":"f0edbcd3-dedc-4f3f-90ba-c3eb5a2b2379","system_id":"levelo_inurba_marseille","lat":43.34143,"lon":5.409,"is_reserved":false,"is_disabled":false,"rental_uris":{"android":"levelo://app?vid=f0edbcd3-dedc-4f3f-90ba-c3eb5a2b2379","ios":"levelo://app?vid=f0edbcd3-dedc-4f3f-90ba-c3eb5a2b2379"},"vehicle_type_id":"4","last_reported":1743772824,"current_range_meters":12800,"station_id":"ce4bhqh2rcd13ifvqhlg","pricing_plan_id":"cebpf4jnsgd1na2vs0mg"},{"bike_id":"5c6c44ee-642e-4a93-aa86-ac2550808972","system_id":"levelo_inurba_marseille","lat":43.3056,"lon":5.36554,"is_reserved":false,"is_disabled":false,"rental_uris":{"android":"levelo://app?vid=5c6c44ee-642e-4a93-aa86-ac2550808972","ios":"levelo://app?vid=5c6c44ee-642e-4a93-aa86-ac2550808972"},"vehicle_type_id":"4","last_reported":1743772824,"current_range_meters":13600,"station_id":"ce4bgs12rcd13ifvqcag","pricing_plan_id":"cebpf4jnsgd1na2vs0mg"},{"bike_id":"3b4ad8c6-6244-4378-90d7-dac703d1508d","system_id":"levelo_inurba_marseille","lat":43.23198,"lon":5.35565,"is_reserved":false,"is_disabled":false,"rental_uris":{"android":"levelo://app?vid=3b4ad8c6-6244-4378-90d7-dac703d1508d","ios":"levelo://app?vid=3b4ad8c6-6244-4378-90d7-dac703d1508d"},"vehicle_type_id":"4","last_reported":1743772824,"current_range_meters":13600,"station_id":"ce4bhu92rcd13ifvqi70","pricing_plan_id":"cebpf4jnsgd1na2vs0mg"},{"bike_id":"a6303451-5b45-435c-bf0e-748f94cc010d","system_id":"levelo_inurba_marseille","lat":43.23211,"lon":5.35541,"is_reserved":false,"is_disabled":false,"rental_uris":{"android":"levelo://app?vid=a6303451-5b45-435c-bf0e-748f94cc010d","ios":"levelo://app?vid=a6303451-5b45-435c-bf0e-748f94cc010d"},"vehicle_type_id":"4","last_reported":1743772824,"current_range_meters":13600,"station_id":"ce4bhu92rcd13ifvqi70","pricing_plan_id":"cebpf4jnsgd1na2vs0mg"},{"bike_id":"ac69ca6e-51d4-4dc2-9558-115be6a7d45c","system_id":"levelo_inurba_marseille","lat":43.30265,"lon":5.40084,"is_reserved":false,"is_disabled":false,"rental_uris":{"android":"levelo://app?vid=ac69ca6e-51d4-4dc2-9558-115be6a7d45c","ios":"levelo://app?vid=ac69ca6e-51d4-4dc2-9558-115be6a7d45c"},"vehicle_type_id":"4","last_reported":1743772824,"current_range_meters":13600,"station_id":"ce4bgvh2rcd13ifvqcs0","pricing_plan_id":"cebpf4jnsgd1na2vs0mg"},{"bike_id":"82453746-837e-49a5-86e1-f8fabd56478b","system_id":"levelo_inurba_marseille","lat":43.28433,"lon":5.39191,"is_reserved":false,"is_disabled":false,"rental_uris":{"android":"levelo://app?vid=82453746-837e-49a5-86e1-f8fabd56478b","ios":"levelo://app?vid=82453746-837e-49a5-86e1-f8fabd56478b"},"vehicle_type_id":"4","last_reported":1743772824,"current_range_meters":13600,"station_id":"ce4bhoh2rcd13ifvqh5g","pricing_plan_id":"cebpf4jnsgd1na2vs0mg"},{"bike_id":"33c10bab-98c6-4753-a81e-6e78e41d2e35","system_id":"levelo_inurba_marseille","lat":43.28083,"lon":5.39662,"is_reserved":false,"is_disabled":false,"rental_uris":{"android":"levelo://app?vid=33c10bab-98c6-4753-a81e-6e78e41d2e35","ios":"levelo://app?vid=33c10bab-98c6-4753-a81e-6e78e41d2e35"},"vehicle_type_id":"4","last_reported":1743772824,"current_range_meters":13600,"station_id":"ce4bho12rcd13ifvqh2g","pricing_plan_id":"cebpf4jnsgd1na2vs0mg"},{"bike_id":"35aa8919-6b19-4fa8-819b-a266479cbdb7","system_id":"levelo_inurba_marseille","lat":43.30308,"lon":5.392,"is_reserved":false,"is_disabled":false,"rental_uris":{"android":"levelo://app?vid=35aa8919-6b19-4fa8-819b-a266479cbdb7","ios":"levelo://app?vid=35aa8919-6b19-4fa8-819b-a266479cbdb7"},"vehicle_type_id":"4","last_reported":1743772824,"current_range_meters":13600,"station_id":"ce4bgkh2rcd13ifvqbk0","pricing_plan_id":"cebpf4jnsgd1na2vs0mg"},{"bike_id":"ccbaad60-ee1e-4837-a1f8-1af8e79dfa40","system_id":"levelo_inurba_marseille","lat":43.30606,"lon":5.39317,"is_reserved":false,"is_disabled":true,"rental_uris":{"android":"levelo://app?vid=ccbaad60-ee1e-4837-a1f8-1af8e79dfa40","ios":"levelo://app?vid=ccbaad60-ee1e-4837-a1f8-1af8e79dfa40"},"vehicle_type_id":"4","last_reported":1743772824,"current_range_meters":13600,"station_id":"ce4bh0p2rcd13ifvqd80","pricing_plan_id":"cebpf4jnsgd1na2vs0mg"},{"bike_id":"05d00f93-8e3a-4dda-843a-8c55f4e7abcc","system_id":"levelo_inurba_marseille","lat":43.31334,"lon":5.36714,"is_reserved":false,"is_disabled":false,"rental_uris":{"android":"levelo://app?vid=05d00f93-8e3a-4dda-843a-8c55f4e7abcc","ios":"levelo://app?vid=05d00f93-8e3a-4dda-843a-8c55f4e7abcc"},"vehicle_type_id":"4","last_reported":1743772824,"current_range_meters":13600,"station_id":"ce4bgr92rcd13ifvqc6g","pricing_plan_id":"cebpf4jnsgd1na2vs0mg"},{"bike_id":"0eb30f16-826e-404e-9494-cbd59d704ab7","system_id":"levelo_inurba_marseille","lat":43.29021,"lon":5.38651,"is_reserved":false,"is_disabled":true,"rental_uris":{"android":"levelo://app?vid=0eb30f16-826e-404e-9494-cbd59d704ab7","ios":"levelo://app?vid=0eb30f16-826e-404e-9494-cbd59d704ab7"},"vehicle_type_id":"4","last_reported":1743772824,"current_range_meters":13600,"station_id":"ce4bh4p2rcd13ifvqe0g","pricing_plan_id":"cebpf4jnsgd1na2vs0mg"},{"bike_id":"978f00e3-47d2-481d-80c8-31e1e7283ad6","system_id":"levelo_inurba_marseille","lat":43.22924,"lon":5.35382,"is_reserved":false,"is_disabled":false,"rental_uris":{"android":"levelo://app?vid=978f00e3-47d2-481d-80c8-31e1e7283ad6","ios":"levelo://app?vid=978f00e3-47d2-481d-80c8-31e1e7283ad6"},"vehicle_type_id":"4","last_reported":1743772824,"current_range_meters":13600,"station_id":"cpo3532slgdg3j2ikp40","pricing_plan_id":"cebpf4jnsgd1na2vs0mg"},{"bike_id":"c8ffe9dd-8ee4-4135-bb87-7494b2ea5a6f","system_id":"levelo_inurba_marseille","lat":43.26492,"lon":5.3955,"is_reserved":false,"is_disabled":false,"rental_uris":{"android":"levelo://app?vid=c8ffe9dd-8ee4-4135-bb87-7494b2ea5a6f","ios":"levelo://app?vid=c8ffe9dd-8ee4-4135-bb87-7494b2ea5a6f"},"vehicle_type_id":"4","last_reported":1743772824,"current_range_meters":13600,"station_id":"ce4bhi12rcd13ifvqfq0","pricing_plan_id":"cebpf4jnsgd1na2vs0mg"},{"bike_id":"9404994d-e86a-4ae3-bd80-3b8ea87d90cf","system_id":"levelo_inurba_marseille","lat":43.28859,"lon":5.35849,"is_reserved":false,"is_disabled":false,"rental_uris":{"android":"levelo://app?vid=9404994d-e86a-4ae3-bd80-3b8ea87d90cf","ios":"levelo://app?vid=9404994d-e86a-4ae3-bd80-3b8ea87d90cf"},"vehicle_type_id":"4","last_reported":1743772824,"current_range_meters":13600,"station_id":"ce4bhb12rcd13ifvqem0","pricing_plan_id":"cebpf4jnsgd1na2vs0mg"},{"bike_id":"c2055a2a-1cff-4f19-a52d-9b52baeaa63f","system_id":"levelo_inurba_marseille","lat":43.3203,"lon":5.3813,"is_reserved":false,"is_disabled":true,"rental_uris":{"android":"levelo://app?vid=c2055a2a-1cff-4f19-a52d-9b52baeaa63f","ios":"levelo://app?vid=c2055a2a-1cff-4f19-a52d-9b52baeaa63f"},"vehicle_type_id":"4","last_reported":1743772824,"current_range_meters":13600,"station_id":"","pricing_plan_id":"cebpf4jnsgd1na2vs0mg"},{"bike_id":"a07480da-f5a9-4597-b3e6-cc405effeae7","system_id":"levelo_inurba_marseille","lat":43.28945,"lon":5.39646,"is_reserved":false,"is_disabled":true,"rental_uris":{"android":"levelo://app?vid=a07480da-f5a9-4597-b3e6-cc405effeae7","ios":"levelo://app?vid=a07480da-f5a9-4597-b3e6-cc405effeae7"},"vehicle_type_id":"4","last_reported":1743772824,"current_range_meters":14000,"station_id":"ce4bh3h2rcd13ifvqdn0","pricing_plan_id":"cebpf4jnsgd1na2vs0mg"},{"bike_id":"75a118ae-7ce0-4715-ae45-d809562d69cc","system_id":"levelo_inurba_marseille","lat":43.304413,"lon":5.398769,"is_reserved":false,"is_disabled":false,"rental_uris":{"android":"levelo://app?vid=75a118ae-7ce0-4715-ae45-d809562d69cc","ios":"levelo://app?vid=75a118ae-7ce0-4715-ae45-d809562d69cc"},"vehicle_type_id":"4","last_reported":1743772824,"current_range_meters":14000,"station_id":"ce4bh112rcd13ifvqda0","pricing_plan_id":"cebpf4jnsgd1na2vs0mg"},{"bike_id":"27ebc7eb-5de4-43f0-933c-44535f627bc9","system_id":"levelo_inurba_marseille","lat":43.25397,"lon":5.41859,"is_reserved":false,"is_disabled":false,"rental_uris":{"android":"levelo://app?vid=27ebc7eb-5de4-43f0-933c-44535f627bc9","ios":"levelo://app?vid=27ebc7eb-5de4-43f0-933c-44535f627bc9"},"vehicle_type_id":"4","last_reported":1743772824,"current_range_meters":14000,"station_id":"","pricing_plan_id":"cebpf4jnsgd1na2vs0mg"},{"bike_id":"2347672d-49bf-46e0-b0c7-f0ee6a326807","system_id":"levelo_inurba_marseille","lat":43.278107,"lon":5.407363,"is_reserved":false,"is_disabled":false,"rental_uris":{"android":"levelo://app?vid=2347672d-49bf-46e0-b0c7-f0ee6a326807","ios":"levelo://app?vid=2347672d-49bf-46e0-b0c7-f0ee6a326807"},"vehicle_type_id":"4","last_reported":1743772824,"current_range_meters":14000,"station_id":"ce4bhnh2rcd13ifvqgtg","pricing_plan_id":"cebpf4jnsgd1na2vs0mg"},{"bike_id":"b386ac95-b662-4954-b9c9-61a707945cd2","system_id":"levelo_inurba_marseille","lat":43.29578,"lon":5.37518,"is_reserved":false,"is_disabled":false,"rental_uris":{"android":"levelo://app?vid=b386ac95-b662-4954-b9c9-61a707945cd2","ios":"levelo://app?vid=b386ac95-b662-4954-b9c9-61a707945cd2"},"vehicle_type_id":"4","last_reported":1743772824,"current_range_meters":14000,"station_id":"ce4bgh92rcd13ifvqb50","pricing_plan_id":"cebpf4jnsgd1na2vs0mg"},{"bike_id":"35eb44b1-5c56-4e0d-822d-06037732683a","system_id":"levelo_inurba_marseille","lat":43.29588,"lon":5.40423,"is_reserved":false,"is_disabled":false,"rental_uris":{"android":"levelo://app?vid=35eb44b1-5c56-4e0d-822d-06037732683a","ios":"levelo://app?vid=35eb44b1-5c56-4e0d-822d-06037732683a"},"vehicle_type_id":"4","last_reported":1743772824,"current_range_meters":14000,"station_id":"ce4bh3h2rcd13ifvqdo0","pricing_plan_id":"cebpf4jnsgd1na2vs0mg"},{"bike_id":"1d5ef6d0-a413-45b3-8100-7222d11689f2","system_id":"levelo_inurba_marseille","lat":43.2894,"lon":5.38377,"is_reserved":false,"is_disabled":true,"rental_uris":{"android":"levelo://app?vid=1d5ef6d0-a413-45b3-8100-7222d11689f2","ios":"levelo://app?vid=1d5ef6d0-a413-45b3-8100-7222d11689f2"},"vehicle_type_id":"4","last_reported":1743772824,"current_range_meters":14000,"station_id":"ce4bh612rcd13ifvqe6g","pricing_plan_id":"cebpf4jnsgd1na2vs0mg"},{"bike_id":"68684b95-0e3c-44e7-b1d2-300a59fdf395","system_id":"levelo_inurba_marseille","lat":43.29972,"lon":5.38489,"is_reserved":false,"is_disabled":false,"rental_uris":{"android":"levelo://app?vid=68684b95-0e3c-44e7-b1d2-300a59fdf395","ios":"levelo://app?vid=68684b95-0e3c-44e7-b1d2-300a59fdf395"},"vehicle_type_id":"4","last_reported":1743772824,"current_range_meters":14400,"station_id":"ce4bgj92rcd13ifvqbd0","pricing_plan_id":"cebpf4jnsgd1na2vs0mg"},{"bike_id":"23f6cb5d-dabc-4389-9116-fee6e3822fcd","system_id":"levelo_inurba_marseille","lat":43.29557,"lon":5.42294,"is_reserved":false,"is_disabled":false,"rental_uris":{"android":"levelo://app?vid=23f6cb5d-dabc-4389-9116-fee6e3822fcd","ios":"levelo://app?vid=23f6cb5d-dabc-4389-9116-fee6e3822fcd"},"vehicle_type_id":"4","last_reported":1743772824,"current_range_meters":14400,"station_id":"ce4bhph2rcd13ifvqhdg","pricing_plan_id":"cebpf4jnsgd1na2vs0mg"},{"bike_id":"39dbf333-5fb6-4cd0-b3dc-8865a1a9715b","system_id":"levelo_inurba_marseille","lat":43.27939,"lon":5.4105,"is_reserved":false,"is_disabled":false,"rental_uris":{"android":"levelo://app?vid=39dbf333-5fb6-4cd0-b3dc-8865a1a9715b","ios":"levelo://app?vid=39dbf333-5fb6-4cd0-b3dc-8865a1a9715b"},"vehicle_type_id":"4","last_reported":1743772824,"current_range_meters":14400,"station_id":"ce4bhnp2rcd13ifvqh0g","pricing_plan_id":"cebpf4jnsgd1na2vs0mg"},{"bike_id":"033599cc-b93e-4c5d-9ef4-b9629cb08363","system_id":"levelo_inurba_marseille","lat":43.27499,"lon":5.42454,"is_reserved":false,"is_disabled":false,"rental_uris":{"android":"levelo://app?vid=033599cc-b93e-4c5d-9ef4-b9629cb08363","ios":"levelo://app?vid=033599cc-b93e-4c5d-9ef4-b9629cb08363"},"vehicle_type_id":"4","last_reported":1743772824,"current_range_meters":14400,"station_id":"ce4bhn92rcd13ifvqgrg","pricing_plan_id":"cebpf4jnsgd1na2vs0mg"},{"bike_id":"1f96b2fc-634f-47dc-af40-3a60c077cc7c","system_id":"levelo_inurba_marseille","lat":43.23154,"lon":5.43718,"is_reserved":false,"is_disabled":false,"rental_uris":{"android":"levelo://app?vid=1f96b2fc-634f-47dc-af40-3a60c077cc7c","ios":"levelo://app?vid=1f96b2fc-634f-47dc-af40-3a60c077cc7c"},"vehicle_type_id":"4","last_reported":1743772824,"current_range_meters":14400,"station_id":"ce4bhmp2rcd13ifvqgog","pricing_plan_id":"cebpf4jnsgd1na2vs0mg"},{"bike_id":"cccce150-77a7-4565-8ca1-36858ce9e6b0","system_id":"levelo_inurba_marseille","lat":43.321,"lon":5.36791,"is_reserved":false,"is_disabled":false,"rental_uris":{"android":"levelo://app?vid=cccce150-77a7-4565-8ca1-36858ce9e6b0","ios":"levelo://app?vid=cccce150-77a7-4565-8ca1-36858ce9e6b0"},"vehicle_type_id":"4","last_reported":1743772824,"current_range_meters":14400,"station_id":"ce4bhrh2rcd13ifvqhug","pricing_plan_id":"cebpf4jnsgd1na2vs0mg"},{"bike_id":"e0025ce5-fe29-4293-8000-c88ee2bac657","system_id":"levelo_inurba_marseille","lat":43.31334,"lon":5.39701,"is_reserved":false,"is_disabled":false,"rental_uris":{"android":"levelo://app?vid=e0025ce5-fe29-4293-8000-c88ee2bac657","ios":"levelo://app?vid=e0025ce5-fe29-4293-8000-c88ee2bac657"},"vehicle_type_id":"4","last_reported":1743772824,"current_range_meters":14400,"station_id":"ce4bgvp2rcd13ifvqcu0","pricing_plan_id":"cebpf4jnsgd1na2vs0mg"},{"bike_id":"1ba89fa2-b482-46df-9870-97f88b0eb2f5","system_id":"levelo_inurba_marseille","lat":43.241844,"lon":5.397254,"is_reserved":false,"is_disabled":false,"rental_uris":{"android":"levelo://app?vid=1ba89fa2-b482-46df-9870-97f88b0eb2f5","ios":"levelo://app?vid=1ba89fa2-b482-46df-9870-97f88b0eb2f5"},"vehicle_type_id":"4","last_reported":1743772824,"current_range_meters":14800,"station_id":"ce4bhn12rcd13ifvqgpg","pricing_plan_id":"cebpf4jnsgd1na2vs0mg"},{"bike_id":"e813d21d-0535-48c2-a365-6043f5531165","system_id":"levelo_inurba_marseille","lat":43.28702,"lon":5.39998,"is_reserved":false,"is_disabled":false,"rental_uris":{"android":"levelo://app?vid=e813d21d-0535-48c2-a365-6043f5531165","ios":"levelo://app?vid=e813d21d-0535-48c2-a365-6043f5531165"},"vehicle_type_id":"4","last_reported":1743772824,"current_range_meters":14800,"station_id":"ce4bho92rcd13ifvqh3g","pricing_plan_id":"cebpf4jnsgd1na2vs0mg"},{"bike_id":"2a99c5f8-c3b9-4c3c-9620-a2048665fa62","system_id":"levelo_inurba_marseille","lat":43.28615,"lon":5.35104,"is_reserved":false,"is_disabled":false,"rental_uris":{"android":"levelo://app?vid=2a99c5f8-c3b9-4c3c-9620-a2048665fa62","ios":"levelo://app?vid=2a99c5f8-c3b9-4c3c-9620-a2048665fa62"},"vehicle_type_id":"4","last_reported":1743772824,"current_range_meters":14800,"station_id":"ce4bhch2rcd13ifvqeug","pricing_plan_id":"cebpf4jnsgd1na2vs0mg"},{"bike_id":"40c5c920-b782-49f4-8bfa-a420350c24c5","system_id":"levelo_inurba_marseille","lat":43.25942,"lon":5.40903,"is_reserved":false,"is_disabled":false,"rental_uris":{"android":"levelo://app?vid=40c5c920-b782-49f4-8bfa-a420350c24c5","ios":"levelo://app?vid=40c5c920-b782-49f4-8bfa-a420350c24c5"},"vehicle_type_id":"4","last_reported":1743772824,"current_range_meters":14800,"station_id":"ce4bhm92rcd13ifvqglg","pricing_plan_id":"cebpf4jnsgd1na2vs0mg"},{"bike_id":"48ec1fe3-fdf4-49a5-977a-526829b4e2e3","system_id":"levelo_inurba_marseille","lat":43.23075,"lon":5.35496,"is_reserved":false,"is_disabled":false,"rental_uris":{"android":"levelo://app?vid=48ec1fe3-fdf4-49a5-977a-526829b4e2e3","ios":"levelo://app?vid=48ec1fe3-fdf4-49a5-977a-526829b4e2e3"},"vehicle_type_id":"4","last_reported":1743772824,"current_range_meters":14800,"station_id":"cpo3342slgdg3j2ifvpg","pricing_plan_id":"cebpf4jnsgd1na2vs0mg"},{"bike_id":"7802f9b7-cc91-41c4-8d3c-017e8ca07dd5","system_id":"levelo_inurba_marseille","lat":43.31699,"lon":5.37808,"is_reserved":false,"is_disabled":false,"rental_uris":{"android":"levelo://app?vid=7802f9b7-cc91-41c4-8d3c-017e8ca07dd5","ios":"levelo://app?vid=7802f9b7-cc91-41c4-8d3c-017e8ca07dd5"},"vehicle_type_id":"4","last_reported":1743772824,"current_range_meters":14800,"station_id":"","pricing_plan_id":"cebpf4jnsgd1na2vs0mg"},{"bike_id":"87d05d76-597c-478f-9ffe-2e9a2a5a0716","system_id":"levelo_inurba_marseille","lat":43.34141,"lon":5.40908,"is_reserved":false,"is_disabled":false,"rental_uris":{"android":"levelo://app?vid=87d05d76-597c-478f-9ffe-2e9a2a5a0716","ios":"levelo://app?vid=87d05d76-597c-478f-9ffe-2e9a2a5a0716"},"vehicle_type_id":"4","last_reported":1743772824,"current_range_meters":14800,"station_id":"ce4bhqh2rcd13ifvqhlg","pricing_plan_id":"cebpf4jnsgd1na2vs0mg"},{"bike_id":"188e01b9-65db-4a5b-b580-c3a2d1a3e000","system_id":"levelo_inurba_marseille","lat":43.287336,"lon":5.370991,"is_reserved":false,"is_disabled":false,"rental_uris":{"android":"levelo://app?vid=188e01b9-65db-4a5b-b580-c3a2d1a3e000","ios":"levelo://app?vid=188e01b9-65db-4a5b-b580-c3a2d1a3e000"},"vehicle_type_id":"4","last_reported":1743772824,"current_range_meters":14800,"station_id":"","pricing_plan_id":"cebpf4jnsgd1na2vs0mg"},{"bike_id":"6d9715e6-045f-417b-844a-144b6e5c1132","system_id":"levelo_inurba_marseille","lat":43.29214,"lon":5.35718,"is_reserved":false,"is_disabled":false,"rental_uris":{"android":"levelo://app?vid=6d9715e6-045f-417b-844a-144b6e5c1132","ios":"levelo://app?vid=6d9715e6-045f-417b-844a-144b6e5c1132"},"vehicle_type_id":"4","last_reported":1743772824,"current_range_meters":14800,"station_id":"","pricing_plan_id":"cebpf4jnsgd1na2vs0mg"},{"bike_id":"eb79d1f9-7c91-4ea2-b5f8-796189743e1a","system_id":"levelo_inurba_marseille","lat":43.337276,"lon":5.391796,"is_reserved":false,"is_disabled":false,"rental_uris":{"android":"levelo://app?vid=eb79d1f9-7c91-4ea2-b5f8-796189743e1a","ios":"levelo://app?vid=eb79d1f9-7c91-4ea2-b5f8-796189743e1a"},"vehicle_type_id":"4","last_reported":1743772824,"current_range_meters":15200,"station_id":"ce4bhr92rcd13ifvqhsg","pricing_plan_id":"cebpf4jnsgd1na2vs0mg"},{"bike_id":"e8295bc1-c10a-4d29-b710-6a1c7fd0dc11","system_id":"levelo_inurba_marseille","lat":43.27488,"lon":5.42456,"is_reserved":false,"is_disabled":false,"rental_uris":{"android":"levelo://app?vid=e8295bc1-c10a-4d29-b710-6a1c7fd0dc11","ios":"levelo://app?vid=e8295bc1-c10a-4d29-b710-6a1c7fd0dc11"},"vehicle_type_id":"4","last_reported":1743772824,"current_range_meters":15200,"station_id":"ce4bhn92rcd13ifvqgrg","pricing_plan_id":"cebpf4jnsgd1na2vs0mg"},{"bike_id":"19b80c7f-db25-40c8-945f-67fe43b6cc5f","system_id":"levelo_inurba_marseille","lat":43.30558,"lon":5.36515,"is_reserved":false,"is_disabled":false,"rental_uris":{"android":"levelo://app?vid=19b80c7f-db25-40c8-945f-67fe43b6cc5f","ios":"levelo://app?vid=19b80c7f-db25-40c8-945f-67fe43b6cc5f"},"vehicle_type_id":"4","last_reported":1743772824,"current_range_meters":15200,"station_id":"ce4bgs12rcd13ifvqcag","pricing_plan_id":"cebpf4jnsgd1na2vs0mg"},{"bike_id":"d658d92c-091d-49d9-82c2-f766c7ab2694","system_id":"levelo_inurba_marseille","lat":43.28267,"lon":5.35065,"is_reserved":false,"is_disabled":false,"rental_uris":{"android":"levelo://app?vid=d658d92c-091d-49d9-82c2-f766c7ab2694","ios":"levelo://app?vid=d658d92c-091d-49d9-82c2-f766c7ab2694"},"vehicle_type_id":"4","last_reported":1743772824,"current_range_meters":15200,"station_id":"ce4bhbp2rcd13ifvqerg","pricing_plan_id":"cebpf4jnsgd1na2vs0mg"},{"bike_id":"3bfb251e-b88a-44e9-9f26-ad07c7ee0b89","system_id":"levelo_inurba_marseille","lat":43.2962,"lon":5.37169,"is_reserved":false,"is_disabled":false,"rental_uris":{"android":"levelo://app?vid=3bfb251e-b88a-44e9-9f26-ad07c7ee0b89","ios":"levelo://app?vid=3bfb251e-b88a-44e9-9f26-ad07c7ee0b89"},"vehicle_type_id":"4","last_reported":1743772824,"current_range_meters":15200,"station_id":"ce4bgnh2rcd13ifvqc0g","pricing_plan_id":"cebpf4jnsgd1na2vs0mg"},{"bike_id":"d72ae546-019d-42c4-ab8a-aa9b8ed4f063","system_id":"levelo_inurba_marseille","lat":43.30472,"lon":5.37899,"is_reserved":false,"is_disabled":false,"rental_uris":{"android":"levelo://app?vid=d72ae546-019d-42c4-ab8a-aa9b8ed4f063","ios":"levelo://app?vid=d72ae546-019d-42c4-ab8a-aa9b8ed4f063"},"vehicle_type_id":"4","last_reported":1743772824,"current_range_meters":16000,"station_id":"ce4bgup2rcd13ifvqcn0","pricing_plan_id":"cebpf4jnsgd1na2vs0mg"},{"bike_id":"30250048-b00d-4891-bf46-9ffa21307bb0","system_id":"levelo_inurba_marseille","lat":43.31357,"lon":5.396847,"is_reserved":false,"is_disabled":false,"rental_uris":{"android":"levelo://app?vid=30250048-b00d-4891-bf46-9ffa21307bb0","ios":"levelo://app?vid=30250048-b00d-4891-bf46-9ffa21307bb0"},"vehicle_type_id":"4","last_reported":1743772824,"current_range_meters":16000,"station_id":"ce4bgvp2rcd13ifvqcu0","pricing_plan_id":"cebpf4jnsgd1na2vs0mg"},{"bike_id":"fa3e5d89-fa1e-4836-97d3-3e5628c401c7","system_id":"levelo_inurba_marseille","lat":43.28611,"lon":5.3706,"is_reserved":false,"is_disabled":false,"rental_uris":{"android":"levelo://app?vid=fa3e5d89-fa1e-4836-97d3-3e5628c401c7","ios":"levelo://app?vid=fa3e5d89-fa1e-4836-97d3-3e5628c401c7"},"vehicle_type_id":"4","last_reported":1743772824,"current_range_meters":16000,"station_id":"ce4bht12rcd13ifvqi60","pricing_plan_id":"cebpf4jnsgd1na2vs0mg"},{"bike_id":"293a303f-e432-4fe3-bf78-d168aac8745c","system_id":"levelo_inurba_marseille","lat":43.29258,"lon":5.40907,"is_reserved":false,"is_disabled":false,"rental_uris":{"android":"levelo://app?vid=293a303f-e432-4fe3-bf78-d168aac8745c","ios":"levelo://app?vid=293a303f-e432-4fe3-bf78-d168aac8745c"},"vehicle_type_id":"4","last_reported":1743772824,"current_range_meters":16000,"station_id":"ce4bh192rcd13ifvqdc0","pricing_plan_id":"cebpf4jnsgd1na2vs0mg"},{"bike_id":"30d05ece-b2e3-4ab4-811a-4d9cb3163a09","system_id":"levelo_inurba_marseille","lat":43.29267,"lon":5.38434,"is_reserved":false,"is_disabled":false,"rental_uris":{"android":"levelo://app?vid=30d05ece-b2e3-4ab4-811a-4d9cb3163a09","ios":"levelo://app?vid=30d05ece-b2e3-4ab4-811a-4d9cb3163a09"},"vehicle_type_id":"4","last_reported":1743772824,"current_range_meters":16000,"station_id":"ce4bh692rcd13ifvqea0","pricing_plan_id":"cebpf4jnsgd1na2vs0mg"},{"bike_id":"788181dd-702f-41e8-ad91-4e239577bd78","system_id":"levelo_inurba_marseille","lat":43.26787,"lon":5.39414,"is_reserved":false,"is_disabled":false,"rental_uris":{"android":"levelo://app?vid=788181dd-702f-41e8-ad91-4e239577bd78","ios":"levelo://app?vid=788181dd-702f-41e8-ad91-4e239577bd78"},"vehicle_type_id":"4","last_reported":1743772824,"current_range_meters":16000,"station_id":"ce4bhh12rcd13ifvqfg0","pricing_plan_id":"cebpf4jnsgd1na2vs0mg"},{"bike_id":"ae85a7a4-7c38-4e25-9e50-a9a925b58789","system_id":"levelo_inurba_marseille","lat":43.31083,"lon":5.42437,"is_reserved":false,"is_disabled":false,"rental_uris":{"android":"levelo://app?vid=ae85a7a4-7c38-4e25-9e50-a9a925b58789","ios":"levelo://app?vid=ae85a7a4-7c38-4e25-9e50-a9a925b58789"},"vehicle_type_id":"4","last_reported":1743772824,"current_range_meters":16000,"station_id":"ce4bhp92rcd13ifvqhag","pricing_plan_id":"cebpf4jnsgd1na2vs0mg"},{"bike_id":"19636f9f-7ce9-4a47-b030-b967c42e6a3c","system_id":"levelo_inurba_marseille","lat":43.2871,"lon":5.37366,"is_reserved":false,"is_disabled":false,"rental_uris":{"android":"levelo://app?vid=19636f9f-7ce9-4a47-b030-b967c42e6a3c","ios":"levelo://app?vid=19636f9f-7ce9-4a47-b030-b967c42e6a3c"},"vehicle_type_id":"4","last_reported":1743772824,"current_range_meters":16000,"station_id":"ce4bh3p2rcd13ifvqdq0","pricing_plan_id":"cebpf4jnsgd1na2vs0mg"},{"bike_id":"f0d41e88-9023-4f5b-b5fd-5c2b25093e98","system_id":"levelo_inurba_marseille","lat":43.30477,"lon":5.37919,"is_reserved":false,"is_disabled":false,"rental_uris":{"android":"levelo://app?vid=f0d41e88-9023-4f5b-b5fd-5c2b25093e98","ios":"levelo://app?vid=f0d41e88-9023-4f5b-b5fd-5c2b25093e98"},"vehicle_type_id":"4","last_reported":1743772824,"current_range_meters":16000,"station_id":"ce4bgup2rcd13ifvqcn0","pricing_plan_id":"cebpf4jnsgd1na2vs0mg"},{"bike_id":"1c6a9a4d-5ef6-476b-b921-e44abfffd79e","system_id":"levelo_inurba_marseille","lat":43.25943,"lon":5.40909,"is_reserved":false,"is_disabled":false,"rental_uris":{"android":"levelo://app?vid=1c6a9a4d-5ef6-476b-b921-e44abfffd79e","ios":"levelo://app?vid=1c6a9a4d-5ef6-476b-b921-e44abfffd79e"},"vehicle_type_id":"4","last_reported":1743772824,"current_range_meters":16400,"station_id":"ce4bhm92rcd13ifvqglg","pricing_plan_id":"cebpf4jnsgd1na2vs0mg"},{"bike_id":"eaf859a6-ff3d-4281-be3e-7de787fa533a","system_id":"levelo_inurba_marseille","lat":43.30302,"lon":5.39213,"is_reserved":false,"is_disabled":true,"rental_uris":{"android":"levelo://app?vid=eaf859a6-ff3d-4281-be3e-7de787fa533a","ios":"levelo://app?vid=eaf859a6-ff3d-4281-be3e-7de787fa533a"},"vehicle_type_id":"4","last_reported":1743772824,"current_range_meters":16400,"station_id":"ce4bgkh2rcd13ifvqbk0","pricing_plan_id":"cebpf4jnsgd1na2vs0mg"},{"bike_id":"0c0d7a80-b2f8-4f05-9d7e-531e5935f685","system_id":"levelo_inurba_marseille","lat":43.298714,"lon":5.397338,"is_reserved":false,"is_disabled":false,"rental_uris":{"android":"levelo://app?vid=0c0d7a80-b2f8-4f05-9d7e-531e5935f685","ios":"levelo://app?vid=0c0d7a80-b2f8-4f05-9d7e-531e5935f685"},"vehicle_type_id":"4","last_reported":1743772824,"current_range_meters":16400,"station_id":"ce4bh0h2rcd13ifvqd50","pricing_plan_id":"cebpf4jnsgd1na2vs0mg"},{"bike_id":"88834d1b-c7f4-482d-8588-796d6d7044b0","system_id":"levelo_inurba_marseille","lat":43.29524,"lon":5.39391,"is_reserved":false,"is_disabled":false,"rental_uris":{"android":"levelo://app?vid=88834d1b-c7f4-482d-8588-796d6d7044b0","ios":"levelo://app?vid=88834d1b-c7f4-482d-8588-796d6d7044b0"},"vehicle_type_id":"4","last_reported":1743772824,"current_range_meters":16400,"station_id":"ce4bh292rcd13ifvqdf0","pricing_plan_id":"cebpf4jnsgd1na2vs0mg"},{"bike_id":"49ee9a1e-490a-40c1-b4e9-6f6180de0b7a","system_id":"levelo_inurba_marseille","lat":43.27495,"lon":5.424533,"is_reserved":false,"is_disabled":false,"rental_uris":{"android":"levelo://app?vid=49ee9a1e-490a-40c1-b4e9-6f6180de0b7a","ios":"levelo://app?vid=49ee9a1e-490a-40c1-b4e9-6f6180de0b7a"},"vehicle_type_id":"4","last_reported":1743772824,"current_range_meters":16400,"station_id":"ce4bhn92rcd13ifvqgrg","pricing_plan_id":"cebpf4jnsgd1na2vs0mg"},{"bike_id":"d4948dad-2836-467c-a8f9-d35dfd9ffe60","system_id":"levelo_inurba_marseille","lat":43.29574,"lon":5.39973,"is_reserved":false,"is_disabled":false,"rental_uris":{"android":"levelo://app?vid=d4948dad-2836-467c-a8f9-d35dfd9ffe60","ios":"levelo://app?vid=d4948dad-2836-467c-a8f9-d35dfd9ffe60"},"vehicle_type_id":"4","last_reported":1743772824,"current_range_meters":16400,"station_id":"ce4bh312rcd13ifvqdj0","pricing_plan_id":"cebpf4jnsgd1na2vs0mg"},{"bike_id":"30b57730-cb66-4122-bd93-7dabcaba84e7","system_id":"levelo_inurba_marseille","lat":43.2492,"lon":5.40672,"is_reserved":false,"is_disabled":false,"rental_uris":{"android":"levelo://app?vid=30b57730-cb66-4122-bd93-7dabcaba84e7","ios":"levelo://app?vid=30b57730-cb66-4122-bd93-7dabcaba84e7"},"vehicle_type_id":"4","last_reported":1743772824,"current_range_meters":16400,"station_id":"","pricing_plan_id":"cebpf4jnsgd1na2vs0mg"},{"bike_id":"507eb123-e9fa-4137-a5c6-adbacd5eb2bf","system_id":"levelo_inurba_marseille","lat":43.25082,"lon":5.3952,"is_reserved":false,"is_disabled":false,"rental_uris":{"android":"levelo://app?vid=507eb123-e9fa-4137-a5c6-adbacd5eb2bf","ios":"levelo://app?vid=507eb123-e9fa-4137-a5c6-adbacd5eb2bf"},"vehicle_type_id":"4","last_reported":1743772824,"current_range_meters":16400,"station_id":"ce4bhm12rcd13ifvqgkg","pricing_plan_id":"cebpf4jnsgd1na2vs0mg"},{"bike_id":"875f7220-eb0a-4e21-b284-cbcd5cffd6c6","system_id":"levelo_inurba_marseille","lat":43.32106,"lon":5.36785,"is_reserved":false,"is_disabled":false,"rental_uris":{"android":"levelo://app?vid=875f7220-eb0a-4e21-b284-cbcd5cffd6c6","ios":"levelo://app?vid=875f7220-eb0a-4e21-b284-cbcd5cffd6c6"},"vehicle_type_id":"4","last_reported":1743772824,"current_range_meters":16800,"station_id":"ce4bhrh2rcd13ifvqhug","pricing_plan_id":"cebpf4jnsgd1na2vs0mg"},{"bike_id":"83c28a49-322c-40db-bce7-4ae2098b85e6","system_id":"levelo_inurba_marseille","lat":43.2919,"lon":5.3931,"is_reserved":false,"is_disabled":false,"rental_uris":{"android":"levelo://app?vid=83c28a49-322c-40db-bce7-4ae2098b85e6","ios":"levelo://app?vid=83c28a49-322c-40db-bce7-4ae2098b85e6"},"vehicle_type_id":"4","last_reported":1743772824,"current_range_meters":16800,"station_id":"ce4bh192rcd13ifvqdd0","pricing_plan_id":"cebpf4jnsgd1na2vs0mg"},{"bike_id":"108e3618-1ff6-4411-a4b6-7f7137061ef5","system_id":"levelo_inurba_marseille","lat":43.31281,"lon":5.40182,"is_reserved":false,"is_disabled":true,"rental_uris":{"android":"levelo://app?vid=108e3618-1ff6-4411-a4b6-7f7137061ef5","ios":"levelo://app?vid=108e3618-1ff6-4411-a4b6-7f7137061ef5"},"vehicle_type_id":"4","last_reported":1743772824,"current_range_meters":16800,"station_id":"ce4bh092rcd13ifvqd30","pricing_plan_id":"cebpf4jnsgd1na2vs0mg"},{"bike_id":"ede395c0-6b29-4ac7-9296-413a996988e9","system_id":"levelo_inurba_marseille","lat":43.306057,"lon":5.372283,"is_reserved":false,"is_disabled":false,"rental_uris":{"android":"levelo://app?vid=ede395c0-6b29-4ac7-9296-413a996988e9","ios":"levelo://app?vid=ede395c0-6b29-4ac7-9296-413a996988e9"},"vehicle_type_id":"4","last_reported":1743772824,"current_range_meters":16800,"station_id":"ce4bgqh2rcd13ifvqc4g","pricing_plan_id":"cebpf4jnsgd1na2vs0mg"},{"bike_id":"2e0c68ea-3361-418e-9d72-bccb3e4de1ab","system_id":"levelo_inurba_marseille","lat":43.305498,"lon":5.365283,"is_reserved":false,"is_disabled":false,"rental_uris":{"android":"levelo://app?vid=2e0c68ea-3361-418e-9d72-bccb3e4de1ab","ios":"levelo://app?vid=2e0c68ea-3361-418e-9d72-bccb3e4de1ab"},"vehicle_type_id":"4","last_reported":1743772824,"current_range_meters":16800,"station_id":"ce4bgs12rcd13ifvqcag","pricing_plan_id":"cebpf4jnsgd1na2vs0mg"},{"bike_id":"69d1cb94-56c0-44d7-bf03-9a1c85959e5f","system_id":"levelo_inurba_marseille","lat":43.26496,"lon":5.39578,"is_reserved":false,"is_disabled":false,"rental_uris":{"android":"levelo://app?vid=69d1cb94-56c0-44d7-bf03-9a1c85959e5f","ios":"levelo://app?vid=69d1cb94-56c0-44d7-bf03-9a1c85959e5f"},"vehicle_type_id":"4","last_reported":1743772824,"current_range_meters":16800,"station_id":"ce4bhi12rcd13ifvqfq0","pricing_plan_id":"cebpf4jnsgd1na2vs0mg"},{"bike_id":"5b8d1103-1921-4c53-912e-93d122cd3cdc","system_id":"levelo_inurba_marseille","lat":43.24392,"lon":5.37068,"is_reserved":false,"is_disabled":true,"rental_uris":{"android":"levelo://app?vid=5b8d1103-1921-4c53-912e-93d122cd3cdc","ios":"levelo://app?vid=5b8d1103-1921-4c53-912e-93d122cd3cdc"},"vehicle_type_id":"4","last_reported":1743772824,"current_range_meters":16800,"station_id":"ce4bhhh2rcd13ifvqfk0","pricing_plan_id":"cebpf4jnsgd1na2vs0mg"},{"bike_id":"d0af8e3a-06bf-4cee-bae3-44fd7d6ae859","system_id":"levelo_inurba_marseille","lat":43.23064,"lon":5.35484,"is_reserved":false,"is_disabled":false,"rental_uris":{"android":"levelo://app?vid=d0af8e3a-06bf-4cee-bae3-44fd7d6ae859","ios":"levelo://app?vid=d0af8e3a-06bf-4cee-bae3-44fd7d6ae859"},"vehicle_type_id":"4","last_reported":1743772824,"current_range_meters":17200,"station_id":"cpo3342slgdg3j2ifvpg","pricing_plan_id":"cebpf4jnsgd1na2vs0mg"},{"bike_id":"d9ba9551-893e-4cab-8633-3f34cc33ee19","system_id":"levelo_inurba_marseille","lat":43.30891,"lon":5.37185,"is_reserved":false,"is_disabled":false,"rental_uris":{"android":"levelo://app?vid=d9ba9551-893e-4cab-8633-3f34cc33ee19","ios":"levelo://app?vid=d9ba9551-893e-4cab-8633-3f34cc33ee19"},"vehicle_type_id":"4","last_reported":1743772824,"current_range_meters":17200,"station_id":"ce4bguh2rcd13ifvqckg","pricing_plan_id":"cebpf4jnsgd1na2vs0mg"},{"bike_id":"852ae433-cc4e-4f80-9afa-60b2796b15fb","system_id":"levelo_inurba_marseille","lat":43.32373,"lon":5.39306,"is_reserved":false,"is_disabled":false,"rental_uris":{"android":"levelo://app?vid=852ae433-cc4e-4f80-9afa-60b2796b15fb","ios":"levelo://app?vid=852ae433-cc4e-4f80-9afa-60b2796b15fb"},"vehicle_type_id":"4","last_reported":1743772824,"current_range_meters":17200,"station_id":"","pricing_plan_id":"cebpf4jnsgd1na2vs0mg"},{"bike_id":"24f08616-84da-4998-b067-7aa5f2c1aa1d","system_id":"levelo_inurba_marseille","lat":43.27071,"lon":5.42282,"is_reserved":false,"is_disabled":false,"rental_uris":{"android":"levelo://app?vid=24f08616-84da-4998-b067-7aa5f2c1aa1d","ios":"levelo://app?vid=24f08616-84da-4998-b067-7aa5f2c1aa1d"},"vehicle_type_id":"4","last_reported":1743772824,"current_range_meters":17200,"station_id":"ce4bhk92rcd13ifvqgb0","pricing_plan_id":"cebpf4jnsgd1na2vs0mg"},{"bike_id":"a99b7cca-dde9-4993-97fd-e31d23b732be","system_id":"levelo_inurba_marseille","lat":43.30177,"lon":5.37389,"is_reserved":false,"is_disabled":false,"rental_uris":{"android":"levelo://app?vid=a99b7cca-dde9-4993-97fd-e31d23b732be","ios":"levelo://app?vid=a99b7cca-dde9-4993-97fd-e31d23b732be"},"vehicle_type_id":"4","last_reported":1743772824,"current_range_meters":17200,"station_id":"ce4bgs92rcd13ifvqcc0","pricing_plan_id":"cebpf4jnsgd1na2vs0mg"},{"bike_id":"fee6c8b8-57fd-4ef1-a793-b3a9a5ae15c1","system_id":"levelo_inurba_marseille","lat":43.27633,"lon":5.36131,"is_reserved":false,"is_disabled":false,"rental_uris":{"android":"levelo://app?vid=fee6c8b8-57fd-4ef1-a793-b3a9a5ae15c1","ios":"levelo://app?vid=fee6c8b8-57fd-4ef1-a793-b3a9a5ae15c1"},"vehicle_type_id":"4","last_reported":1743772824,"current_range_meters":17200,"station_id":"ce4bgj92rcd13ifvqbe0","pricing_plan_id":"cebpf4jnsgd1na2vs0mg"},{"bike_id":"d499ce30-7dcf-4ee4-a1de-3ec49cacf4a9","system_id":"levelo_inurba_marseille","lat":43.29789,"lon":5.37093,"is_reserved":false,"is_disabled":false,"rental_uris":{"android":"levelo://app?vid=d499ce30-7dcf-4ee4-a1de-3ec49cacf4a9","ios":"levelo://app?vid=d499ce30-7dcf-4ee4-a1de-3ec49cacf4a9"},"vehicle_type_id":"4","last_reported":1743772824,"current_range_meters":17200,"station_id":"ce4bgop2rcd13ifvqc1g","pricing_plan_id":"cebpf4jnsgd1na2vs0mg"},{"bike_id":"5f8f5a93-261a-47f6-85fc-cc301ff6d3cf","system_id":"levelo_inurba_marseille","lat":43.292664,"lon":5.384422,"is_reserved":false,"is_disabled":false,"rental_uris":{"android":"levelo://app?vid=5f8f5a93-261a-47f6-85fc-cc301ff6d3cf","ios":"levelo://app?vid=5f8f5a93-261a-47f6-85fc-cc301ff6d3cf"},"vehicle_type_id":"4","last_reported":1743772824,"current_range_meters":17600,"station_id":"ce4bh692rcd13ifvqea0","pricing_plan_id":"cebpf4jnsgd1na2vs0mg"},{"bike_id":"ed81289f-b9f3-4d86-9f8f-d8896cd8f07f","system_id":"levelo_inurba_marseille","lat":43.30431,"lon":5.39756,"is_reserved":false,"is_disabled":true,"rental_uris":{"android":"levelo://app?vid=ed81289f-b9f3-4d86-9f8f-d8896cd8f07f","ios":"levelo://app?vid=ed81289f-b9f3-4d86-9f8f-d8896cd8f07f"},"vehicle_type_id":"4","last_reported":1743772824,"current_range_meters":17600,"station_id":"ce4bh092rcd13ifvqd20","pricing_plan_id":"cebpf4jnsgd1na2vs0mg"},{"bike_id":"89709091-486f-4116-b203-524c8e73acee","system_id":"levelo_inurba_marseille","lat":43.32348,"lon":5.40614,"is_reserved":false,"is_disabled":false,"rental_uris":{"android":"levelo://app?vid=89709091-486f-4116-b203-524c8e73acee","ios":"levelo://app?vid=89709091-486f-4116-b203-524c8e73acee"},"vehicle_type_id":"4","last_reported":1743772824,"current_range_meters":17600,"station_id":"ce4bhq92rcd13ifvqhjg","pricing_plan_id":"cebpf4jnsgd1na2vs0mg"},{"bike_id":"13b2c0b4-342f-4564-8399-a17604a3a4b3","system_id":"levelo_inurba_marseille","lat":43.32492,"lon":5.3655,"is_reserved":false,"is_disabled":false,"rental_uris":{"android":"levelo://app?vid=13b2c0b4-342f-4564-8399-a17604a3a4b3","ios":"levelo://app?vid=13b2c0b4-342f-4564-8399-a17604a3a4b3"},"vehicle_type_id":"4","last_reported":1743772824,"current_range_meters":17600,"station_id":"ce4bhs12rcd13ifvqhvg","pricing_plan_id":"cebpf4jnsgd1na2vs0mg"},{"bike_id":"294fc0ad-e5b3-48e3-b5aa-84945da2e4dd","system_id":"levelo_inurba_marseille","lat":43.25593,"lon":5.38264,"is_reserved":false,"is_disabled":false,"rental_uris":{"android":"levelo://app?vid=294fc0ad-e5b3-48e3-b5aa-84945da2e4dd","ios":"levelo://app?vid=294fc0ad-e5b3-48e3-b5aa-84945da2e4dd"},"vehicle_type_id":"4","last_reported":1743772824,"current_range_meters":17600,"station_id":"ce4bhih2rcd13ifvqfs0","pricing_plan_id":"cebpf4jnsgd1na2vs0mg"},{"bike_id":"0b508004-db37-41e4-aeca-4baa5225e42f","system_id":"levelo_inurba_marseille","lat":43.26196,"lon":5.37931,"is_reserved":false,"is_disabled":false,"rental_uris":{"android":"levelo://app?vid=0b508004-db37-41e4-aeca-4baa5225e42f","ios":"levelo://app?vid=0b508004-db37-41e4-aeca-4baa5225e42f"},"vehicle_type_id":"4","last_reported":1743772824,"current_range_meters":17600,"station_id":"ce4bhjp2rcd13ifvqg90","pricing_plan_id":"cebpf4jnsgd1na2vs0mg"},{"bike_id":"758364e2-9ab4-4d3e-b7b9-861ec34253be","system_id":"levelo_inurba_marseille","lat":43.30309,"lon":5.36893,"is_reserved":false,"is_disabled":false,"rental_uris":{"android":"levelo://app?vid=758364e2-9ab4-4d3e-b7b9-861ec34253be","ios":"levelo://app?vid=758364e2-9ab4-4d3e-b7b9-861ec34253be"},"vehicle_type_id":"4","last_reported":1743772824,"current_range_meters":17600,"station_id":"ce4bgqh2rcd13ifvqc5g","pricing_plan_id":"cebpf4jnsgd1na2vs0mg"},{"bike_id":"2657219d-10a5-4566-8880-89227630f3f2","system_id":"levelo_inurba_marseille","lat":43.2937,"lon":5.37862,"is_reserved":false,"is_disabled":false,"rental_uris":{"android":"levelo://app?vid=2657219d-10a5-4566-8880-89227630f3f2","ios":"levelo://app?vid=2657219d-10a5-4566-8880-89227630f3f2"},"vehicle_type_id":"4","last_reported":1743772824,"current_range_meters":17600,"station_id":"ce4bgjh2rcd13ifvqbf0","pricing_plan_id":"cebpf4jnsgd1na2vs0mg"},{"bike_id":"b6dfab1d-e8e1-40fc-bf8c-07a249c927a6","system_id":"levelo_inurba_marseille","lat":43.30601,"lon":5.37218,"is_reserved":false,"is_disabled":false,"rental_uris":{"android":"levelo://app?vid=b6dfab1d-e8e1-40fc-bf8c-07a249c927a6","ios":"levelo://app?vid=b6dfab1d-e8e1-40fc-bf8c-07a249c927a6"},"vehicle_type_id":"4","last_reported":1743772824,"current_range_meters":17600,"station_id":"ce4bgqh2rcd13ifvqc4g","pricing_plan_id":"cebpf4jnsgd1na2vs0mg"},{"bike_id":"a935ac24-12e4-4f59-8000-4b0064e018f5","system_id":"levelo_inurba_marseille","lat":43.30733,"lon":5.4244,"is_reserved":false,"is_disabled":false,"rental_uris":{"android":"levelo://app?vid=a935ac24-12e4-4f59-8000-4b0064e018f5","ios":"levelo://app?vid=a935ac24-12e4-4f59-8000-4b0064e018f5"},"vehicle_type_id":"4","last_reported":1743772824,"current_range_meters":17600,"station_id":"st_cvj6ca6bvosntc0bfgr0","pricing_plan_id":"cebpf4jnsgd1na2vs0mg"},{"bike_id":"1f796f8f-e19b-4ce7-a2e6-d147870da191","system_id":"levelo_inurba_marseille","lat":43.27175,"lon":5.41002,"is_reserved":false,"is_disabled":false,"rental_uris":{"android":"levelo://app?vid=1f796f8f-e19b-4ce7-a2e6-d147870da191","ios":"levelo://app?vid=1f796f8f-e19b-4ce7-a2e6-d147870da191"},