{"last_updated":1773696512,"ttl":60,"version":"2.2","data":{"bikes":[{"bike_id":"6d39685c-6b1f-4bf5-b59b-e69e4f627432","system_id":"levelo_inurba_marseille","lat":43.2837,"lon":5.38612,"is_reserved":false,"is_disabled":false,"rental_uris":{"android":"levelo://app?vid=6d39685c-6b1f-4bf5-b59b-e69e4f627432","ios":"levelo://app?vid=6d39685c-6b1f-4bf5-b59b-e69e4f627432"},"vehicle_type_id":"4","last_reported":1773696512,"current_range_meters":2800,"station_id":"ce4bh492rcd13ifvqdvg","pricing_plan_id":"cebpf4jnsgd1na2vs0mg"},{"bike_id":"0c820ed4-4827-4b66-8a18-7e0bf2659973","system_id":"levelo_inurba_marseille","lat":43.27655,"lon":5.38914,"is_reserved":false,"is_disabled":false,"rental_uris":{"android":"levelo://app?vid=0c820ed4-4827-4b66-8a18-7e0bf2659973","ios":"levelo://app?vid=0c820ed4-4827-4b66-8a18-7e0bf2659973"},"vehicle_type_id":"4","last_reported":1773696512,"current_range_meters":2800,"station_id":"ce4bhi12rcd13ifvqfo0","pricing_plan_id":"cebpf4jnsgd1na2vs0mg"},{"bike_id":"89276cbe-0cdf-4f47-865b-96ac2eb1b545","system_id":"levelo_inurba_marseille","lat":43.32656,"lon":5.41011,"is_reserved":false,"is_disabled":false,"rental_uris":{"android":"levelo://app?vid=89276cbe-0cdf-4f47-865b-96ac2eb1b545","ios":"levelo://app?vid=89276cbe-0cdf-4f47-865b-96ac2eb1b545"},"vehicle_type_id":"4","last_reported":1773696512,"current_range_meters":2800,"station_id":"ce4bhpp2rcd13ifvqhgg","pricing_plan_id":"cebpf4jnsgd1na2vs0mg"},{"bike_id":"8a144603-ac8c-4aa4-a51d-83c7a20a9d8e","system_id":"levelo_inurba_marseille","lat":43.29523,"lon":5.38539,"is_reserved":false,"is_disabled":false,"rental_uris":{"android":"levelo://app?vid=8a144603-ac8c-4aa4-a51d-83c7a20a9d8e","ios":"levelo://app?vid=8a144603-ac8c-4aa4-a51d-83c7a20a9d8e"},"vehicle_type_id":"4","last_reported":1773696512,"current_range_meters":2800,"station_id":"ce4bgih2rcd13ifvqba0","pricing_plan_id":"cebpf4jnsgd1na2vs0mg"},{"bike_id":"330fe512-5a4f-4dc0-af53-e34acc96e946","system_id":"levelo_inurba_marseille","lat":43.25336,"lon":5.42168,"is_reserved":false,"is_disabled":false,"rental_uris":{"android":"levelo://app?vid=330fe512-5a4f-4dc0-af53-e34acc96e946","ios":"levelo://app?vid=330fe512-5a4f-4dc0-af53-e34acc96e946"},"vehicle_type_id":"4","last_reported":1773696512,"current_range_meters":2800,"station_id":"st_d2m65c5bi1j21697t3ng","pricing_plan_id":"cebpf4jnsgd1na2vs0mg"},{"bike_id":"4b092209-bd21-45a2-9498-2120e63f8ff6","system_id":"levelo_inurba_marseille","lat":43.284,"lon":5.37534,"is_reserved":false,"is_disabled":false,"rental_uris":{"android":"levelo://app?vid=4b092209-bd21-45a2-9498-2120e63f8ff6","ios":"levelo://app?vid=4b092209-bd21-45a2-9498-2120e63f8ff6"},"vehicle_type_id":"4","last_reported":1773696512,"current_range_meters":2800,"station_id":"ce4bh412rcd13ifvqds0","pricing_plan_id":"cebpf4jnsgd1na2vs0mg"},{"bike_id":"52f8387a-5c4b-4838-a7bd-d44d361a12f8","system_id":"levelo_inurba_marseille","lat":43.29251,"lon":5.40125,"is_reserved":false,"is_disabled":true,"rental_uris":{"android":"levelo://app?vid=52f8387a-5c4b-4838-a7bd-d44d361a12f8","ios":"levelo://app?vid=52f8387a-5c4b-4838-a7bd-d44d361a12f8"},"vehicle_type_id":"4","last_reported":1773696512,"current_range_meters":2800,"station_id":"ce4bh312rcd13ifvqdk0","pricing_plan_id":"cebpf4jnsgd1na2vs0mg"},{"bike_id":"352ab6c3-8434-4d91-9b71-41c803fc0f1c","system_id":"levelo_inurba_marseille","lat":43.27934,"lon":5.3872,"is_reserved":false,"is_disabled":false,"rental_uris":{"android":"levelo://app?vid=352ab6c3-8434-4d91-9b71-41c803fc0f1c","ios":"levelo://app?vid=352ab6c3-8434-4d91-9b71-41c803fc0f1c"},"vehicle_type_id":"4","last_reported":1773696512,"current_range_meters":2800,"station_id":"ce4bhg12rcd13ifvqf80","pricing_plan_id":"cebpf4jnsgd1na2vs0mg"},{"bike_id":"f5372c5c-de7c-43bf-a281-739de2abcc41","system_id":"levelo_inurba_marseille","lat":43.3001,"lon":5.37663,"is_reserved":false,"is_disabled":false,"rental_uris":{"android":"levelo://app?vid=f5372c5c-de7c-43bf-a281-739de2abcc41","ios":"levelo://app?vid=f5372c5c-de7c-43bf-a281-739de2abcc41"},"vehicle_type_id":"4","last_reported":1773696512,"current_range_meters":2800,"station_id":"","pricing_plan_id":"cebpf4jnsgd1na2vs0mg"},{"bike_id":"7fac5b02-4a97-4685-9698-3ca7be611b50","system_id":"levelo_inurba_marseille","lat":43.29025,"lon":5.38628,"is_reserved":false,"is_disabled":false,"rental_uris":{"android":"levelo://app?vid=7fac5b02-4a97-4685-9698-3ca7be611b50","ios":"levelo://app?vid=7fac5b02-4a97-4685-9698-3ca7be611b50"},"vehicle_type_id":"4","last_reported":1773696512,"current_range_meters":2800,"station_id":"ce4bh4p2rcd13ifvqe0g","pricing_plan_id":"cebpf4jnsgd1na2vs0mg"},{"bike_id":"47628d6e-8fe8-4b74-9d84-a52272072eb8","system_id":"levelo_inurba_marseille","lat":43.2749,"lon":5.41599,"is_reserved":false,"is_disabled":false,"rental_uris":{"android":"levelo://app?vid=47628d6e-8fe8-4b74-9d84-a52272072eb8","ios":"levelo://app?vid=47628d6e-8fe8-4b74-9d84-a52272072eb8"},"vehicle_type_id":"4","last_reported":1773696512,"current_range_meters":2800,"station_id":"st_d6im8g6chgec73a5pndg","pricing_plan_id":"cebpf4jnsgd1na2vs0mg"},{"bike_id":"d75ad9c7-fd62-44c6-8112-82581592c067","system_id":"levelo_inurba_marseille","lat":43.30822,"lon":5.38158,"is_reserved":false,"is_disabled":false,"rental_uris":{"android":"levelo://app?vid=d75ad9c7-fd62-44c6-8112-82581592c067","ios":"levelo://app?vid=d75ad9c7-fd62-44c6-8112-82581592c067"},"vehicle_type_id":"4","last_reported":1773696512,"current_range_meters":2800,"station_id":"ce4bgt12rcd13ifvqce0","pricing_plan_id":"cebpf4jnsgd1na2vs0mg"},{"bike_id":"c9fc3b63-ba8f-4d8c-ad81-5a027f121e54","system_id":"levelo_inurba_marseille","lat":43.24173,"lon":5.36391,"is_reserved":false,"is_disabled":false,"rental_uris":{"android":"levelo://app?vid=c9fc3b63-ba8f-4d8c-ad81-5a027f121e54","ios":"levelo://app?vid=c9fc3b63-ba8f-4d8c-ad81-5a027f121e54"},"vehicle_type_id":"4","last_reported":1773696512,"current_range_meters":2800,"station_id":"cpo36qri1sfpv3e86is0","pricing_plan_id":"cebpf4jnsgd1na2vs0mg"},{"bike_id":"0fea55da-8901-452f-bb7d-d31b2f47481a","system_id":"levelo_inurba_marseille","lat":43.306154,"lon":5.372277,"is_reserved":false,"is_disabled":false,"rental_uris":{"android":"levelo://app?vid=0fea55da-8901-452f-bb7d-d31b2f47481a","ios":"levelo://app?vid=0fea55da-8901-452f-bb7d-d31b2f47481a"},"vehicle_type_id":"4","last_reported":1773696512,"current_range_meters":2800,"station_id":"ce4bgqh2rcd13ifvqc4g","pricing_plan_id":"cebpf4jnsgd1na2vs0mg"},{"bike_id":"7d096fb4-10af-42e9-99af-bee63b4b122d","system_id":"levelo_inurba_marseille","lat":43.25335,"lon":5.42186,"is_reserved":false,"is_disabled":false,"rental_uris":{"android":"levelo://app?vid=7d096fb4-10af-42e9-99af-bee63b4b122d","ios":"levelo://app?vid=7d096fb4-10af-42e9-99af-bee63b4b122d"},"vehicle_type_id":"4","last_reported":1773696512,"current_range_meters":2800,"station_id":"st_d2m65c5bi1j21697t3ng","pricing_plan_id":"cebpf4jnsgd1na2vs0mg"},{"bike_id":"efee3775-ad1a-47f0-a076-1808197e4b5c","system_id":"levelo_inurba_marseille","lat":43.29857,"lon":5.36241,"is_reserved":false,"is_disabled":false,"rental_uris":{"android":"levelo://app?vid=efee3775-ad1a-47f0-a076-1808197e4b5c","ios":"levelo://app?vid=efee3775-ad1a-47f0-a076-1808197e4b5c"},"vehicle_type_id":"4","last_reported":1773696512,"current_range_meters":2800,"station_id":"ce4bgpp2rcd13ifvqc3g","pricing_plan_id":"cebpf4jnsgd1na2vs0mg"},{"bike_id":"80804dce-9c24-4933-96dc-bbf82390f99c","system_id":"levelo_inurba_marseille","lat":43.27822,"lon":5.40723,"is_reserved":false,"is_disabled":false,"rental_uris":{"android":"levelo://app?vid=80804dce-9c24-4933-96dc-bbf82390f99c","ios":"levelo://app?vid=80804dce-9c24-4933-96dc-bbf82390f99c"},"vehicle_type_id":"4","last_reported":1773696512,"current_range_meters":3200,"station_id":"ce4bhnh2rcd13ifvqgtg","pricing_plan_id":"cebpf4jnsgd1na2vs0mg"},{"bike_id":"05f53a66-f4ee-4e6c-a890-5da9b44d7c68","system_id":"levelo_inurba_marseille","lat":43.25059,"lon":5.39599,"is_reserved":false,"is_disabled":false,"rental_uris":{"android":"levelo://app?vid=05f53a66-f4ee-4e6c-a890-5da9b44d7c68","ios":"levelo://app?vid=05f53a66-f4ee-4e6c-a890-5da9b44d7c68"},"vehicle_type_id":"4","last_reported":1773696512,"current_range_meters":3200,"station_id":"","pricing_plan_id":"cebpf4jnsgd1na2vs0mg"},{"bike_id":"4d9d5a78-b8c2-4aee-ab9e-6f39d9b6846b","system_id":"levelo_inurba_marseille","lat":43.30556,"lon":5.38413,"is_reserved":false,"is_disabled":false,"rental_uris":{"android":"levelo://app?vid=4d9d5a78-b8c2-4aee-ab9e-6f39d9b6846b","ios":"levelo://app?vid=4d9d5a78-b8c2-4aee-ab9e-6f39d9b6846b"},"vehicle_type_id":"4","last_reported":1773696512,"current_range_meters":3200,"station_id":"ce4bgg92rcd13ifvqb30","pricing_plan_id":"cebpf4jnsgd1na2vs0mg"},{"bike_id":"20cdd2bd-a142-4979-a5d5-9d757961db74","system_id":"levelo_inurba_marseille","lat":43.23192,"lon":5.39978,"is_reserved":false,"is_disabled":false,"rental_uris":{"android":"levelo://app?vid=20cdd2bd-a142-4979-a5d5-9d757961db74","ios":"levelo://app?vid=20cdd2bd-a142-4979-a5d5-9d757961db74"},"vehicle_type_id":"4","last_reported":1773696512,"current_range_meters":3200,"station_id":"ce4bhn12rcd13ifvqgqg","pricing_plan_id":"cebpf4jnsgd1na2vs0mg"},{"bike_id":"215f000c-7aae-4a16-925f-9cdd26b79237","system_id":"levelo_inurba_marseille","lat":43.24549,"lon":5.39531,"is_reserved":false,"is_disabled":false,"rental_uris":{"android":"levelo://app?vid=215f000c-7aae-4a16-925f-9cdd26b79237","ios":"levelo://app?vid=215f000c-7aae-4a16-925f-9cdd26b79237"},"vehicle_type_id":"4","last_reported":1773696512,"current_range_meters":3200,"station_id":"ce4bhlp2rcd13ifvqgjg","pricing_plan_id":"cebpf4jnsgd1na2vs0mg"},{"bike_id":"5afe27eb-310a-4db3-a8ce-1f7801095127","system_id":"levelo_inurba_marseille","lat":43.29553,"lon":5.39031,"is_reserved":false,"is_disabled":false,"rental_uris":{"android":"levelo://app?vid=5afe27eb-310a-4db3-a8ce-1f7801095127","ios":"levelo://app?vid=5afe27eb-310a-4db3-a8ce-1f7801095127"},"vehicle_type_id":"4","last_reported":1773696512,"current_range_meters":3200,"station_id":"ce4bh3p2rcd13ifvqdp0","pricing_plan_id":"cebpf4jnsgd1na2vs0mg"},{"bike_id":"203dcb47-4518-49de-8ce5-fbb4cd7a5aff","system_id":"levelo_inurba_marseille","lat":43.29774,"lon":5.39348,"is_reserved":false,"is_disabled":false,"rental_uris":{"android":"levelo://app?vid=203dcb47-4518-49de-8ce5-fbb4cd7a5aff","ios":"levelo://app?vid=203dcb47-4518-49de-8ce5-fbb4cd7a5aff"},"vehicle_type_id":"4","last_reported":1773696512,"current_range_meters":3200,"station_id":"chh1huq6cuj3fo74tm60","pricing_plan_id":"cebpf4jnsgd1na2vs0mg"},{"bike_id":"a937509f-9824-4594-8553-c7207654f27e","system_id":"levelo_inurba_marseille","lat":43.3316,"lon":5.37667,"is_reserved":false,"is_disabled":false,"rental_uris":{"android":"levelo://app?vid=a937509f-9824-4594-8553-c7207654f27e","ios":"levelo://app?vid=a937509f-9824-4594-8553-c7207654f27e"},"vehicle_type_id":"4","last_reported":1773696512,"current_range_meters":3200,"station_id":"st_d46cu089ee8s73dldbu0","pricing_plan_id":"cebpf4jnsgd1na2vs0mg"},{"bike_id":"3efc73f7-482f-4ad9-9564-024a3d5a1c41","system_id":"levelo_inurba_marseille","lat":43.28148,"lon":5.42646,"is_reserved":false,"is_disabled":false,"rental_uris":{"android":"levelo://app?vid=3efc73f7-482f-4ad9-9564-024a3d5a1c41","ios":"levelo://app?vid=3efc73f7-482f-4ad9-9564-024a3d5a1c41"},"vehicle_type_id":"4","last_reported":1773696512,"current_range_meters":3200,"station_id":"ce4bhnh2rcd13ifvqgug","pricing_plan_id":"cebpf4jnsgd1na2vs0mg"},{"bike_id":"e1944edb-2bec-4780-a4fc-74d3d7993546","system_id":"levelo_inurba_marseille","lat":43.29718,"lon":5.36581,"is_reserved":false,"is_disabled":false,"rental_uris":{"android":"levelo://app?vid=e1944edb-2bec-4780-a4fc-74d3d7993546","ios":"levelo://app?vid=e1944edb-2bec-4780-a4fc-74d3d7993546"},"vehicle_type_id":"4","last_reported":1773696512,"current_range_meters":3200,"station_id":"ce4bgn12rcd13ifvqbt0","pricing_plan_id":"cebpf4jnsgd1na2vs0mg"},{"bike_id":"6c150669-2f7a-4346-9b1f-f883a5f54a39","system_id":"levelo_inurba_marseille","lat":43.29508,"lon":5.38552,"is_reserved":false,"is_disabled":false,"rental_uris":{"android":"levelo://app?vid=6c150669-2f7a-4346-9b1f-f883a5f54a39","ios":"levelo://app?vid=6c150669-2f7a-4346-9b1f-f883a5f54a39"},"vehicle_type_id":"4","last_reported":1773696512,"current_range_meters":3200,"station_id":"ce4bgih2rcd13ifvqba0","pricing_plan_id":"cebpf4jnsgd1na2vs0mg"},{"bike_id":"113a10dd-0d0f-44e9-9da4-49a2b0168cba","system_id":"levelo_inurba_marseille","lat":43.28479,"lon":5.3899,"is_reserved":false,"is_disabled":true,"rental_uris":{"android":"levelo://app?vid=113a10dd-0d0f-44e9-9da4-49a2b0168cba","ios":"levelo://app?vid=113a10dd-0d0f-44e9-9da4-49a2b0168cba"},"vehicle_type_id":"4","last_reported":1773696512,"current_range_meters":3600,"station_id":"","pricing_plan_id":"cebpf4jnsgd1na2vs0mg"},{"bike_id":"6d93de22-0746-46ca-8677-2ed1ec482026","system_id":"levelo_inurba_marseille","lat":43.31115,"lon":5.37767,"is_reserved":false,"is_disabled":true,"rental_uris":{"android":"levelo://app?vid=6d93de22-0746-46ca-8677-2ed1ec482026","ios":"levelo://app?vid=6d93de22-0746-46ca-8677-2ed1ec482026"},"vehicle_type_id":"4","last_reported":1773696512,"current_range_meters":3600,"station_id":"ce4bgt92rcd13ifvqcg0","pricing_plan_id":"cebpf4jnsgd1na2vs0mg"},{"bike_id":"7acaf8a2-2699-4ecf-9155-b67097af4851","system_id":"levelo_inurba_marseille","lat":43.29043,"lon":5.3998,"is_reserved":false,"is_disabled":false,"rental_uris":{"android":"levelo://app?vid=7acaf8a2-2699-4ecf-9155-b67097af4851","ios":"levelo://app?vid=7acaf8a2-2699-4ecf-9155-b67097af4851"},"vehicle_type_id":"4","last_reported":1773696512,"current_range_meters":3600,"station_id":"ce4bh392rcd13ifvqdm0","pricing_plan_id":"cebpf4jnsgd1na2vs0mg"},{"bike_id":"7840d694-5a2d-41c4-979d-103673bac454","system_id":"levelo_inurba_marseille","lat":43.305761,"lon":5.371991,"is_reserved":false,"is_disabled":false,"rental_uris":{"android":"levelo://app?vid=7840d694-5a2d-41c4-979d-103673bac454","ios":"levelo://app?vid=7840d694-5a2d-41c4-979d-103673bac454"},"vehicle_type_id":"4","last_reported":1773696512,"current_range_meters":3600,"station_id":"ce4bgqh2rcd13ifvqc4g","pricing_plan_id":"cebpf4jnsgd1na2vs0mg"},{"bike_id":"bea8cb99-c773-4a35-9790-1809707f41b7","system_id":"levelo_inurba_marseille","lat":43.28605,"lon":5.35139,"is_reserved":false,"is_disabled":false,"rental_uris":{"android":"levelo://app?vid=bea8cb99-c773-4a35-9790-1809707f41b7","ios":"levelo://app?vid=bea8cb99-c773-4a35-9790-1809707f41b7"},"vehicle_type_id":"4","last_reported":1773696512,"current_range_meters":3600,"station_id":"ce4bhch2rcd13ifvqeug","pricing_plan_id":"cebpf4jnsgd1na2vs0mg"},{"bike_id":"a4addb3a-a047-4331-a446-3453272202ec","system_id":"levelo_inurba_marseille","lat":43.30079,"lon":5.39074,"is_reserved":false,"is_disabled":false,"rental_uris":{"android":"levelo://app?vid=a4addb3a-a047-4331-a446-3453272202ec","ios":"levelo://app?vid=a4addb3a-a047-4331-a446-3453272202ec"},"vehicle_type_id":"4","last_reported":1773696512,"current_range_meters":3600,"station_id":"ce4bh192rcd13ifvqdb0","pricing_plan_id":"cebpf4jnsgd1na2vs0mg"},{"bike_id":"2fda11bd-7f9a-4872-97da-6fea63af4fee","system_id":"levelo_inurba_marseille","lat":43.29827,"lon":5.36256,"is_reserved":false,"is_disabled":false,"rental_uris":{"android":"levelo://app?vid=2fda11bd-7f9a-4872-97da-6fea63af4fee","ios":"levelo://app?vid=2fda11bd-7f9a-4872-97da-6fea63af4fee"},"vehicle_type_id":"4","last_reported":1773696512,"current_range_meters":3600,"station_id":"ce4bgpp2rcd13ifvqc3g","pricing_plan_id":"cebpf4jnsgd1na2vs0mg"},{"bike_id":"0ac8d60b-03cf-4381-84ae-bd6858e3df58","system_id":"levelo_inurba_marseille","lat":43.25571,"lon":5.38253,"is_reserved":false,"is_disabled":false,"rental_uris":{"android":"levelo://app?vid=0ac8d60b-03cf-4381-84ae-bd6858e3df58","ios":"levelo://app?vid=0ac8d60b-03cf-4381-84ae-bd6858e3df58"},"vehicle_type_id":"4","last_reported":1773696512,"current_range_meters":3600,"station_id":"ce4bhih2rcd13ifvqfs0","pricing_plan_id":"cebpf4jnsgd1na2vs0mg"},{"bike_id":"0f513732-f4ff-46d3-8e9a-fe754aff2883","system_id":"levelo_inurba_marseille","lat":43.30603,"lon":5.37229,"is_reserved":false,"is_disabled":false,"rental_uris":{"android":"levelo://app?vid=0f513732-f4ff-46d3-8e9a-fe754aff2883","ios":"levelo://app?vid=0f513732-f4ff-46d3-8e9a-fe754aff2883"},"vehicle_type_id":"4","last_reported":1773696512,"current_range_meters":3600,"station_id":"ce4bgqh2rcd13ifvqc4g","pricing_plan_id":"cebpf4jnsgd1na2vs0mg"},{"bike_id":"77e37876-4c61-4a20-94cd-e388696dab37","system_id":"levelo_inurba_marseille","lat":43.29784,"lon":5.38114,"is_reserved":false,"is_disabled":false,"rental_uris":{"android":"levelo://app?vid=77e37876-4c61-4a20-94cd-e388696dab37","ios":"levelo://app?vid=77e37876-4c61-4a20-94cd-e388696dab37"},"vehicle_type_id":"4","last_reported":1773696512,"current_range_meters":3600,"station_id":"ce4bgip2rcd13ifvqbb0","pricing_plan_id":"cebpf4jnsgd1na2vs0mg"},{"bike_id":"ecad3eff-9e16-47ad-ade7-527ba1de2135","system_id":"levelo_inurba_marseille","lat":43.26216,"lon":5.37446,"is_reserved":false,"is_disabled":false,"rental_uris":{"android":"levelo://app?vid=ecad3eff-9e16-47ad-ade7-527ba1de2135","ios":"levelo://app?vid=ecad3eff-9e16-47ad-ade7-527ba1de2135"},"vehicle_type_id":"4","last_reported":1773696512,"current_range_meters":3600,"station_id":"ce4bhgp2rcd13ifvqfc0","pricing_plan_id":"cebpf4jnsgd1na2vs0mg"},{"bike_id":"3e70d9b4-40bd-4c62-951e-843ea541fb29","system_id":"levelo_inurba_marseille","lat":43.29878,"lon":5.38905,"is_reserved":false,"is_disabled":false,"rental_uris":{"android":"levelo://app?vid=3e70d9b4-40bd-4c62-951e-843ea541fb29","ios":"levelo://app?vid=3e70d9b4-40bd-4c62-951e-843ea541fb29"},"vehicle_type_id":"4","last_reported":1773696512,"current_range_meters":3600,"station_id":"ce4bh392rcd13ifvqdl0","pricing_plan_id":"cebpf4jnsgd1na2vs0mg"},{"bike_id":"e7209666-dbbe-4a03-8ae9-cb180c8c1a2f","system_id":"levelo_inurba_marseille","lat":43.29881,"lon":5.39729,"is_reserved":false,"is_disabled":false,"rental_uris":{"android":"levelo://app?vid=e7209666-dbbe-4a03-8ae9-cb180c8c1a2f","ios":"levelo://app?vid=e7209666-dbbe-4a03-8ae9-cb180c8c1a2f"},"vehicle_type_id":"4","last_reported":1773696512,"current_range_meters":3600,"station_id":"ce4bh0h2rcd13ifvqd50","pricing_plan_id":"cebpf4jnsgd1na2vs0mg"},{"bike_id":"6ac0509d-fba8-4ac9-836d-d37ff0afd78e","system_id":"levelo_inurba_marseille","lat":43.25849,"lon":5.39931,"is_reserved":false,"is_disabled":true,"rental_uris":{"android":"levelo://app?vid=6ac0509d-fba8-4ac9-836d-d37ff0afd78e","ios":"levelo://app?vid=6ac0509d-fba8-4ac9-836d-d37ff0afd78e"},"vehicle_type_id":"4","last_reported":1773696512,"current_range_meters":3600,"station_id":"ce4bhl92rcd13ifvqghg","pricing_plan_id":"cebpf4jnsgd1na2vs0mg"},{"bike_id":"1df13793-c5c3-4eaf-9c72-921245fffd38","system_id":"levelo_inurba_marseille","lat":43.24641,"lon":5.38925,"is_reserved":false,"is_disabled":false,"rental_uris":{"android":"levelo://app?vid=1df13793-c5c3-4eaf-9c72-921245fffd38","ios":"levelo://app?vid=1df13793-c5c3-4eaf-9c72-921245fffd38"},"vehicle_type_id":"4","last_reported":1773696512,"current_range_meters":4000,"station_id":"ce4bhg12rcd13ifvqf60","pricing_plan_id":"cebpf4jnsgd1na2vs0mg"},{"bike_id":"5e87c911-22fd-412b-9217-a6ba71b77b44","system_id":"levelo_inurba_marseille","lat":43.25341,"lon":5.42157,"is_reserved":false,"is_disabled":false,"rental_uris":{"android":"levelo://app?vid=5e87c911-22fd-412b-9217-a6ba71b77b44","ios":"levelo://app?vid=5e87c911-22fd-412b-9217-a6ba71b77b44"},"vehicle_type_id":"4","last_reported":1773696512,"current_range_meters":4000,"station_id":"st_d2m65c5bi1j21697t3ng","pricing_plan_id":"cebpf4jnsgd1na2vs0mg"},{"bike_id":"c0c678a9-6df6-4429-8591-1987ddef7b39","system_id":"levelo_inurba_marseille","lat":43.31326,"lon":5.39684,"is_reserved":false,"is_disabled":false,"rental_uris":{"android":"levelo://app?vid=c0c678a9-6df6-4429-8591-1987ddef7b39","ios":"levelo://app?vid=c0c678a9-6df6-4429-8591-1987ddef7b39"},"vehicle_type_id":"4","last_reported":1773696512,"current_range_meters":4000,"station_id":"ce4bgvp2rcd13ifvqcu0","pricing_plan_id":"cebpf4jnsgd1na2vs0mg"},{"bike_id":"fe1d6d40-79c3-4068-8512-f35564645462","system_id":"levelo_inurba_marseille","lat":43.28545,"lon":5.39898,"is_reserved":false,"is_disabled":false,"rental_uris":{"android":"levelo://app?vid=fe1d6d40-79c3-4068-8512-f35564645462","ios":"levelo://app?vid=fe1d6d40-79c3-4068-8512-f35564645462"},"vehicle_type_id":"4","last_reported":1773696512,"current_range_meters":4000,"station_id":"st_d4a7ka997mjs738ck50g","pricing_plan_id":"cebpf4jnsgd1na2vs0mg"},{"bike_id":"ff52470e-31d9-4b12-8688-269178bfc564","system_id":"levelo_inurba_marseille","lat":43.29558,"lon":5.39955,"is_reserved":false,"is_disabled":true,"rental_uris":{"android":"levelo://app?vid=ff52470e-31d9-4b12-8688-269178bfc564","ios":"levelo://app?vid=ff52470e-31d9-4b12-8688-269178bfc564"},"vehicle_type_id":"4","last_reported":1773696512,"current_range_meters":4000,"station_id":"ce4bh312rcd13ifvqdj0","pricing_plan_id":"cebpf4jnsgd1na2vs0mg"},{"bike_id":"0c26d593-a4f8-4a56-aa92-586e9ee15cfb","system_id":"levelo_inurba_marseille","lat":43.29029,"lon":5.40002,"is_reserved":false,"is_disabled":false,"rental_uris":{"android":"levelo://app?vid=0c26d593-a4f8-4a56-aa92-586e9ee15cfb","ios":"levelo://app?vid=0c26d593-a4f8-4a56-aa92-586e9ee15cfb"},"vehicle_type_id":"4","last_reported":1773696512,"current_range_meters":4000,"station_id":"ce4bh392rcd13ifvqdm0","pricing_plan_id":"cebpf4jnsgd1na2vs0mg"},{"bike_id":"09a03a54-3477-4d42-a4dd-49f0886ccb84","system_id":"levelo_inurba_marseille","lat":43.3354,"lon":5.37452,"is_reserved":false,"is_disabled":false,"rental_uris":{"android":"levelo://app?vid=09a03a54-3477-4d42-a4dd-49f0886ccb84","ios":"levelo://app?vid=09a03a54-3477-4d42-a4dd-49f0886ccb84"},"vehicle_type_id":"4","last_reported":1773696512,"current_range_meters":4000,"station_id":"st_d46tts09ee8s73dlu43g","pricing_plan_id":"cebpf4jnsgd1na2vs0mg"},{"bike_id":"af8257a1-4f51-47f6-b4bc-8a8fd49598ee","system_id":"levelo_inurba_marseille","lat":43.28667,"lon":5.40015,"is_reserved":false,"is_disabled":false,"rental_uris":{"android":"levelo://app?vid=af8257a1-4f51-47f6-b4bc-8a8fd49598ee","ios":"levelo://app?vid=af8257a1-4f51-47f6-b4bc-8a8fd49598ee"},"vehicle_type_id":"4","last_reported":1773696512,"current_range_meters":4000,"station_id":"","pricing_plan_id":"cebpf4jnsgd1na2vs0mg"},{"bike_id":"fb557160-2a07-4528-8b25-3dddc12a17e9","system_id":"levelo_inurba_marseille","lat":43.31476,"lon":5.37298,"is_reserved":false,"is_disabled":false,"rental_uris":{"android":"levelo://app?vid=fb557160-2a07-4528-8b25-3dddc12a17e9","ios":"levelo://app?vid=fb557160-2a07-4528-8b25-3dddc12a17e9"},"vehicle_type_id":"4","last_reported":1773696512,"current_range_meters":4000,"station_id":"ce4bgt12rcd13ifvqcd0","pricing_plan_id":"cebpf4jnsgd1na2vs0mg"},{"bike_id":"bb2f2682-e85d-41f2-90ad-6763b4458381","system_id":"levelo_inurba_marseille","lat":43.2892,"lon":5.36392,"is_reserved":false,"is_disabled":false,"rental_uris":{"android":"levelo://app?vid=bb2f2682-e85d-41f2-90ad-6763b4458381","ios":"levelo://app?vid=bb2f2682-e85d-41f2-90ad-6763b4458381"},"vehicle_type_id":"4","last_reported":1773696512,"current_range_meters":4000,"station_id":"ce4bhc92rcd13ifvqetg","pricing_plan_id":"cebpf4jnsgd1na2vs0mg"},{"bike_id":"f01e1219-c778-4c48-9628-73dc914f07c9","system_id":"levelo_inurba_marseille","lat":43.28428,"lon":5.39209,"is_reserved":false,"is_disabled":false,"rental_uris":{"android":"levelo://app?vid=f01e1219-c778-4c48-9628-73dc914f07c9","ios":"levelo://app?vid=f01e1219-c778-4c48-9628-73dc914f07c9"},"vehicle_type_id":"4","last_reported":1773696512,"current_range_meters":4000,"station_id":"ce4bhoh2rcd13ifvqh5g","pricing_plan_id":"cebpf4jnsgd1na2vs0mg"},{"bike_id":"b394f1ff-b00b-44b8-91bb-61252e638bd9","system_id":"levelo_inurba_marseille","lat":43.30822,"lon":5.38131,"is_reserved":false,"is_disabled":false,"rental_uris":{"android":"levelo://app?vid=b394f1ff-b00b-44b8-91bb-61252e638bd9","ios":"levelo://app?vid=b394f1ff-b00b-44b8-91bb-61252e638bd9"},"vehicle_type_id":"4","last_reported":1773696512,"current_range_meters":4000,"station_id":"ce4bgt12rcd13ifvqce0","pricing_plan_id":"cebpf4jnsgd1na2vs0mg"},{"bike_id":"95b2d6fb-0296-484d-a011-270e210f16a5","system_id":"levelo_inurba_marseille","lat":43.31686,"lon":5.40478,"is_reserved":false,"is_disabled":false,"rental_uris":{"android":"levelo://app?vid=95b2d6fb-0296-484d-a011-270e210f16a5","ios":"levelo://app?vid=95b2d6fb-0296-484d-a011-270e210f16a5"},"vehicle_type_id":"4","last_reported":1773696512,"current_range_meters":4000,"station_id":"ce4bh012rcd13ifvqd00","pricing_plan_id":"cebpf4jnsgd1na2vs0mg"},{"bike_id":"2a3fb117-14db-4bb4-8017-c02bcd77eb87","system_id":"levelo_inurba_marseille","lat":43.28396,"lon":5.37544,"is_reserved":false,"is_disabled":false,"rental_uris":{"android":"levelo://app?vid=2a3fb117-14db-4bb4-8017-c02bcd77eb87","ios":"levelo://app?vid=2a3fb117-14db-4bb4-8017-c02bcd77eb87"},"vehicle_type_id":"4","last_reported":1773696512,"current_range_meters":4000,"station_id":"ce4bh412rcd13ifvqds0","pricing_plan_id":"cebpf4jnsgd1na2vs0mg"},{"bike_id":"fb205df0-14f5-497e-9645-0f06c85189e5","system_id":"levelo_inurba_marseille","lat":43.28716,"lon":5.35204,"is_reserved":false,"is_disabled":false,"rental_uris":{"android":"levelo://app?vid=fb205df0-14f5-497e-9645-0f06c85189e5","ios":"levelo://app?vid=fb205df0-14f5-497e-9645-0f06c85189e5"},"vehicle_type_id":"4","last_reported":1773696512,"current_range_meters":4400,"station_id":"","pricing_plan_id":"cebpf4jnsgd1na2vs0mg"},{"bike_id":"96b8cd26-2a67-483c-9d87-f928671b1c14","system_id":"levelo_inurba_marseille","lat":43.23219,"lon":5.39947,"is_reserved":false,"is_disabled":false,"rental_uris":{"android":"levelo://app?vid=96b8cd26-2a67-483c-9d87-f928671b1c14","ios":"levelo://app?vid=96b8cd26-2a67-483c-9d87-f928671b1c14"},"vehicle_type_id":"4","last_reported":1773696512,"current_range_meters":4400,"station_id":"","pricing_plan_id":"cebpf4jnsgd1na2vs0mg"},{"bike_id":"162a09a4-04f4-49fe-b042-0ccbba2b391e","system_id":"levelo_inurba_marseille","lat":43.24657,"lon":5.43137,"is_reserved":false,"is_disabled":false,"rental_uris":{"android":"levelo://app?vid=162a09a4-04f4-49fe-b042-0ccbba2b391e","ios":"levelo://app?vid=162a09a4-04f4-49fe-b042-0ccbba2b391e"},"vehicle_type_id":"4","last_reported":1773696512,"current_range_meters":4400,"station_id":"","pricing_plan_id":"cebpf4jnsgd1na2vs0mg"},{"bike_id":"5656b650-91cc-4afc-8ef2-c4a31176e0ea","system_id":"levelo_inurba_marseille","lat":43.29584,"lon":5.37763,"is_reserved":false,"is_disabled":false,"rental_uris":{"android":"levelo://app?vid=5656b650-91cc-4afc-8ef2-c4a31176e0ea","ios":"levelo://app?vid=5656b650-91cc-4afc-8ef2-c4a31176e0ea"},"vehicle_type_id":"4","last_reported":1773696512,"current_range_meters":4400,"station_id":"","pricing_plan_id":"cebpf4jnsgd1na2vs0mg"},{"bike_id":"9356019c-cf2c-489c-ad6f-5ac5a6e94ed0","system_id":"levelo_inurba_marseille","lat":43.28985,"lon":5.38139,"is_reserved":false,"is_disabled":true,"rental_uris":{"android":"levelo://app?vid=9356019c-cf2c-489c-ad6f-5ac5a6e94ed0","ios":"levelo://app?vid=9356019c-cf2c-489c-ad6f-5ac5a6e94ed0"},"vehicle_type_id":"4","last_reported":1773696512,"current_range_meters":4400,"station_id":"ce4bh4p2rcd13ifvqe1g","pricing_plan_id":"cebpf4jnsgd1na2vs0mg"},{"bike_id":"c90382b0-e849-4385-8fa8-3258977ce5b8","system_id":"levelo_inurba_marseille","lat":43.30896,"lon":5.36853,"is_reserved":false,"is_disabled":false,"rental_uris":{"android":"levelo://app?vid=c90382b0-e849-4385-8fa8-3258977ce5b8","ios":"levelo://app?vid=c90382b0-e849-4385-8fa8-3258977ce5b8"},"vehicle_type_id":"4","last_reported":1773696512,"current_range_meters":4400,"station_id":"ce4bgn92rcd13ifvqbvg","pricing_plan_id":"cebpf4jnsgd1na2vs0mg"},{"bike_id":"c5e12d9b-6e5b-48d8-afc8-3e5af009d179","system_id":"levelo_inurba_marseille","lat":43.28391,"lon":5.37543,"is_reserved":false,"is_disabled":false,"rental_uris":{"android":"levelo://app?vid=c5e12d9b-6e5b-48d8-afc8-3e5af009d179","ios":"levelo://app?vid=c5e12d9b-6e5b-48d8-afc8-3e5af009d179"},"vehicle_type_id":"4","last_reported":1773696512,"current_range_meters":4400,"station_id":"ce4bh412rcd13ifvqds0","pricing_plan_id":"cebpf4jnsgd1na2vs0mg"},{"bike_id":"94c7c5c3-055a-428d-8583-99d88f2d6ac6","system_id":"levelo_inurba_marseille","lat":43.22567,"lon":5.41625,"is_reserved":false,"is_disabled":false,"rental_uris":{"android":"levelo://app?vid=94c7c5c3-055a-428d-8583-99d88f2d6ac6","ios":"levelo://app?vid=94c7c5c3-055a-428d-8583-99d88f2d6ac6"},"vehicle_type_id":"4","last_reported":1773696512,"current_range_meters":4400,"station_id":"st_d2o4gvlbi1j2169b742g","pricing_plan_id":"cebpf4jnsgd1na2vs0mg"},{"bike_id":"e89a9c90-e436-40ef-ba7e-83a8ed68680e","system_id":"levelo_inurba_marseille","lat":43.22571,"lon":5.41642,"is_reserved":false,"is_disabled":false,"rental_uris":{"android":"levelo://app?vid=e89a9c90-e436-40ef-ba7e-83a8ed68680e","ios":"levelo://app?vid=e89a9c90-e436-40ef-ba7e-83a8ed68680e"},"vehicle_type_id":"4","last_reported":1773696512,"current_range_meters":4400,"station_id":"st_d2o4gvlbi1j2169b742g","pricing_plan_id":"cebpf4jnsgd1na2vs0mg"},{"bike_id":"c5ba3f74-e0d0-43e7-a8d1-078863503eec","system_id":"levelo_inurba_marseille","lat":43.30795,"lon":5.38157,"is_reserved":false,"is_disabled":false,"rental_uris":{"android":"levelo://app?vid=c5ba3f74-e0d0-43e7-a8d1-078863503eec","ios":"levelo://app?vid=c5ba3f74-e0d0-43e7-a8d1-078863503eec"},"vehicle_type_id":"4","last_reported":1773696512,"current_range_meters":4400,"station_id":"ce4bgt12rcd13ifvqce0","pricing_plan_id":"cebpf4jnsgd1na2vs0mg"},{"bike_id":"e7dcb867-a1b1-407f-b89e-d76b1fc4b4e7","system_id":"levelo_inurba_marseille","lat":43.25494,"lon":5.37635,"is_reserved":false,"is_disabled":false,"rental_uris":{"android":"levelo://app?vid=e7dcb867-a1b1-407f-b89e-d76b1fc4b4e7","ios":"levelo://app?vid=e7dcb867-a1b1-407f-b89e-d76b1fc4b4e7"},"vehicle_type_id":"4","last_reported":1773696512,"current_range_meters":4400,"station_id":"ce4bhh12rcd13ifvqff0","pricing_plan_id":"cebpf4jnsgd1na2vs0mg"},{"bike_id":"43f31789-02f5-4927-9d67-7246cee695e2","system_id":"levelo_inurba_marseille","lat":43.29898,"lon":5.3748,"is_reserved":false,"is_disabled":false,"rental_uris":{"android":"levelo://app?vid=43f31789-02f5-4927-9d67-7246cee695e2","ios":"levelo://app?vid=43f31789-02f5-4927-9d67-7246cee695e2"},"vehicle_type_id":"4","last_reported":1773696512,"current_range_meters":4400,"station_id":"ce4bgjh2rcd13ifvqbg0","pricing_plan_id":"cebpf4jnsgd1na2vs0mg"},{"bike_id":"b5ab56b5-06f8-4463-b747-a1ff4511f236","system_id":"levelo_inurba_marseille","lat":43.30133,"lon":5.39843,"is_reserved":false,"is_disabled":false,"rental_uris":{"android":"levelo://app?vid=b5ab56b5-06f8-4463-b747-a1ff4511f236","ios":"levelo://app?vid=b5ab56b5-06f8-4463-b747-a1ff4511f236"},"vehicle_type_id":"4","last_reported":1773696512,"current_range_meters":4400,"station_id":"ce4bh0h2rcd13ifvqd40","pricing_plan_id":"cebpf4jnsgd1na2vs0mg"},{"bike_id":"8a733d26-3bea-4400-9674-b3365d481c4a","system_id":"levelo_inurba_marseille","lat":43.21756,"lon":5.34607,"is_reserved":false,"is_disabled":false,"rental_uris":{"android":"levelo://app?vid=8a733d26-3bea-4400-9674-b3365d481c4a","ios":"levelo://app?vid=8a733d26-3bea-4400-9674-b3365d481c4a"},"vehicle_type_id":"4","last_reported":1773696512,"current_range_meters":4400,"station_id":"st_cvj6r9ubvosntc0bgbag","pricing_plan_id":"cebpf4jnsgd1na2vs0mg"},{"bike_id":"bd8ff244-9d25-43a9-81c3-b439b3f3ff7d","system_id":"levelo_inurba_marseille","lat":43.28387,"lon":5.37556,"is_reserved":false,"is_disabled":false,"rental_uris":{"android":"levelo://app?vid=bd8ff244-9d25-43a9-81c3-b439b3f3ff7d","ios":"levelo://app?vid=bd8ff244-9d25-43a9-81c3-b439b3f3ff7d"},"vehicle_type_id":"4","last_reported":1773696512,"current_range_meters":4800,"station_id":"ce4bh412rcd13ifvqds0","pricing_plan_id":"cebpf4jnsgd1na2vs0mg"},{"bike_id":"0c335a06-bb8d-4e60-b16b-2272ae511e41","system_id":"levelo_inurba_marseille","lat":43.287026,"lon":5.373634,"is_reserved":false,"is_disabled":false,"rental_uris":{"android":"levelo://app?vid=0c335a06-bb8d-4e60-b16b-2272ae511e41","ios":"levelo://app?vid=0c335a06-bb8d-4e60-b16b-2272ae511e41"},"vehicle_type_id":"4","last_reported":1773696512,"current_range_meters":4800,"station_id":"ce4bh3p2rcd13ifvqdq0","pricing_plan_id":"cebpf4jnsgd1na2vs0mg"},{"bike_id":"2204d452-1e8d-43d0-9038-aa59f58897e7","system_id":"levelo_inurba_marseille","lat":43.246546,"lon":5.381586,"is_reserved":false,"is_disabled":false,"rental_uris":{"android":"levelo://app?vid=2204d452-1e8d-43d0-9038-aa59f58897e7","ios":"levelo://app?vid=2204d452-1e8d-43d0-9038-aa59f58897e7"},"vehicle_type_id":"4","last_reported":1773696512,"current_range_meters":4800,"station_id":"ce4bhih2rcd13ifvqfr0","pricing_plan_id":"cebpf4jnsgd1na2vs0mg"},{"bike_id":"bcc8e6aa-96f0-4f28-afeb-6669fabdb4fc","system_id":"levelo_inurba_marseille","lat":43.31475,"lon":5.37288,"is_reserved":false,"is_disabled":false,"rental_uris":{"android":"levelo://app?vid=bcc8e6aa-96f0-4f28-afeb-6669fabdb4fc","ios":"levelo://app?vid=bcc8e6aa-96f0-4f28-afeb-6669fabdb4fc"},"vehicle_type_id":"4","last_reported":1773696512,"current_range_meters":4800,"station_id":"ce4bgt12rcd13ifvqcd0","pricing_plan_id":"cebpf4jnsgd1na2vs0mg"},{"bike_id":"3d735fa8-0069-4c0a-ac38-9ba65a5df755","system_id":"levelo_inurba_marseille","lat":43.2454,"lon":5.39538,"is_reserved":false,"is_disabled":false,"rental_uris":{"android":"levelo://app?vid=3d735fa8-0069-4c0a-ac38-9ba65a5df755","ios":"levelo://app?vid=3d735fa8-0069-4c0a-ac38-9ba65a5df755"},"vehicle_type_id":"4","last_reported":1773696512,"current_range_meters":4800,"station_id":"ce4bhlp2rcd13ifvqgjg","pricing_plan_id":"cebpf4jnsgd1na2vs0mg"},{"bike_id":"6dd5bc46-d652-487e-bb29-76e29f0774c7","system_id":"levelo_inurba_marseille","lat":43.28424,"lon":5.37515,"is_reserved":false,"is_disabled":false,"rental_uris":{"android":"levelo://app?vid=6dd5bc46-d652-487e-bb29-76e29f0774c7","ios":"levelo://app?vid=6dd5bc46-d652-487e-bb29-76e29f0774c7"},"vehicle_type_id":"4","last_reported":1773696512,"current_range_meters":4800,"station_id":"ce4bh412rcd13ifvqds0","pricing_plan_id":"cebpf4jnsgd1na2vs0mg"},{"bike_id":"c7314240-9d20-4fa1-95d9-00b5429e5958","system_id":"levelo_inurba_marseille","lat":43.28935,"lon":5.39618,"is_reserved":false,"is_disabled":false,"rental_uris":{"android":"levelo://app?vid=c7314240-9d20-4fa1-95d9-00b5429e5958","ios":"levelo://app?vid=c7314240-9d20-4fa1-95d9-00b5429e5958"},"vehicle_type_id":"4","last_reported":1773696512,"current_range_meters":4800,"station_id":"ce4bh3h2rcd13ifvqdn0","pricing_plan_id":"cebpf4jnsgd1na2vs0mg"},{"bike_id":"bbfaabdc-d345-4dee-a206-74444fda18e0","system_id":"levelo_inurba_marseille","lat":43.29621,"lon":5.40602,"is_reserved":false,"is_disabled":false,"rental_uris":{"android":"levelo://app?vid=bbfaabdc-d345-4dee-a206-74444fda18e0","ios":"levelo://app?vid=bbfaabdc-d345-4dee-a206-74444fda18e0"},"vehicle_type_id":"4","last_reported":1773696512,"current_range_meters":4800,"station_id":"ce4bh0h2rcd13ifvqd60","pricing_plan_id":"cebpf4jnsgd1na2vs0mg"},{"bike_id":"f3041050-db25-4d4b-ae9c-9e3ebc17b49c","system_id":"levelo_inurba_marseille","lat":43.31173,"lon":5.3872,"is_reserved":false,"is_disabled":false,"rental_uris":{"android":"levelo://app?vid=f3041050-db25-4d4b-ae9c-9e3ebc17b49c","ios":"levelo://app?vid=f3041050-db25-4d4b-ae9c-9e3ebc17b49c"},"vehicle_type_id":"4","last_reported":1773696512,"current_range_meters":4800,"station_id":"ce4bgv12rcd13ifvqcp0","pricing_plan_id":"cebpf4jnsgd1na2vs0mg"},{"bike_id":"6740b991-1e20-4c8c-9f2c-3871e13a61e4","system_id":"levelo_inurba_marseille","lat":43.31484,"lon":5.3732,"is_reserved":false,"is_disabled":false,"rental_uris":{"android":"levelo://app?vid=6740b991-1e20-4c8c-9f2c-3871e13a61e4","ios":"levelo://app?vid=6740b991-1e20-4c8c-9f2c-3871e13a61e4"},"vehicle_type_id":"4","last_reported":1773696512,"current_range_meters":4800,"station_id":"ce4bgt12rcd13ifvqcd0","pricing_plan_id":"cebpf4jnsgd1na2vs0mg"},{"bike_id":"6f998006-284a-42cc-bb11-f33d8ade65f4","system_id":"levelo_inurba_marseille","lat":43.286083,"lon":5.398745,"is_reserved":false,"is_disabled":false,"rental_uris":{"android":"levelo://app?vid=6f998006-284a-42cc-bb11-f33d8ade65f4","ios":"levelo://app?vid=6f998006-284a-42cc-bb11-f33d8ade65f4"},"vehicle_type_id":"4","last_reported":1773696512,"current_range_meters":4800,"station_id":"st_d4a7ka997mjs738ck50g","pricing_plan_id":"cebpf4jnsgd1na2vs0mg"},{"bike_id":"c72d8521-675b-40aa-9aaa-61731cb85742","system_id":"levelo_inurba_marseille","lat":43.29847,"lon":5.36282,"is_reserved":false,"is_disabled":false,"rental_uris":{"android":"levelo://app?vid=c72d8521-675b-40aa-9aaa-61731cb85742","ios":"levelo://app?vid=c72d8521-675b-40aa-9aaa-61731cb85742"},"vehicle_type_id":"4","last_reported":1773696512,"current_range_meters":4800,"station_id":"ce4bgpp2rcd13ifvqc3g","pricing_plan_id":"cebpf4jnsgd1na2vs0mg"},{"bike_id":"9443d89d-feb3-476c-bce1-b5b17f81a583","system_id":"levelo_inurba_marseille","lat":43.24475,"lon":5.42545,"is_reserved":false,"is_disabled":false,"rental_uris":{"android":"levelo://app?vid=9443d89d-feb3-476c-bce1-b5b17f81a583","ios":"levelo://app?vid=9443d89d-feb3-476c-bce1-b5b17f81a583"},"vehicle_type_id":"4","last_reported":1773696512,"current_range_meters":5600,"station_id":"st_d4a3vfp97mjs738cd8kg","pricing_plan_id":"cebpf4jnsgd1na2vs0mg"},{"bike_id":"eae81de0-4c13-4562-a942-ee9c6b13e9b2","system_id":"levelo_inurba_marseille","lat":43.284007,"lon":5.375041,"is_reserved":false,"is_disabled":false,"rental_uris":{"android":"levelo://app?vid=eae81de0-4c13-4562-a942-ee9c6b13e9b2","ios":"levelo://app?vid=eae81de0-4c13-4562-a942-ee9c6b13e9b2"},"vehicle_type_id":"4","last_reported":1773696512,"current_range_meters":5600,"station_id":"ce4bh412rcd13ifvqds0","pricing_plan_id":"cebpf4jnsgd1na2vs0mg"},{"bike_id":"2a029d8b-1bc5-4736-b010-c12618934f0f","system_id":"levelo_inurba_marseille","lat":43.29282,"lon":5.36842,"is_reserved":false,"is_disabled":true,"rental_uris":{"android":"levelo://app?vid=2a029d8b-1bc5-4736-b010-c12618934f0f","ios":"levelo://app?vid=2a029d8b-1bc5-4736-b010-c12618934f0f"},"vehicle_type_id":"4","last_reported":1773696512,"current_range_meters":5600,"station_id":"ce4bhbp2rcd13ifvqesg","pricing_plan_id":"cebpf4jnsgd1na2vs0mg"},{"bike_id":"ee08aa37-ca1a-4c1f-996d-ec0f8f7f31e5","system_id":"levelo_inurba_marseille","lat":43.33554,"lon":5.37466,"is_reserved":false,"is_disabled":false,"rental_uris":{"android":"levelo://app?vid=ee08aa37-ca1a-4c1f-996d-ec0f8f7f31e5","ios":"levelo://app?vid=ee08aa37-ca1a-4c1f-996d-ec0f8f7f31e5"},"vehicle_type_id":"4","last_reported":1773696512,"current_range_meters":5600,"station_id":"st_d46tts09ee8s73dlu43g","pricing_plan_id":"cebpf4jnsgd1na2vs0mg"},{"bike_id":"8271fb01-8cae-4787-a778-02a637a71a1d","system_id":"levelo_inurba_marseille","lat":43.30163,"lon":5.36958,"is_reserved":false,"is_disabled":false,"rental_uris":{"android":"levelo://app?vid=8271fb01-8cae-4787-a778-02a637a71a1d","ios":"levelo://app?vid=8271fb01-8cae-4787-a778-02a637a71a1d"},"vehicle_type_id":"4","last_reported":1773696512,"current_range_meters":5600,"station_id":"","pricing_plan_id":"cebpf4jnsgd1na2vs0mg"},{"bike_id":"ba3f2c88-013c-4fa6-a75a-c9c5bea86738","system_id":"levelo_inurba_marseille","lat":43.21713,"lon":5.34611,"is_reserved":false,"is_disabled":false,"rental_uris":{"android":"levelo://app?vid=ba3f2c88-013c-4fa6-a75a-c9c5bea86738","ios":"levelo://app?vid=ba3f2c88-013c-4fa6-a75a-c9c5bea86738"},"vehicle_type_id":"4","last_reported":1773696512,"current_range_meters":5600,"station_id":"st_cvj6r9ubvosntc0bgbag","pricing_plan_id":"cebpf4jnsgd1na2vs0mg"},{"bike_id":"2e0ccf0b-9667-45fb-99ba-44104dae0873","system_id":"levelo_inurba_marseille","lat":43.33461,"lon":5.37567,"is_reserved":false,"is_disabled":false,"rental_uris":{"android":"levelo://app?vid=2e0ccf0b-9667-45fb-99ba-44104dae0873","ios":"levelo://app?vid=2e0ccf0b-9667-45fb-99ba-44104dae0873"},"vehicle_type_id":"4","last_reported":1773696512,"current_range_meters":5600,"station_id":"st_d46tts09ee8s73dlu43g","pricing_plan_id":"cebpf4jnsgd1na2vs0mg"},{"bike_id":"510a8508-5171-4bf6-a8d6-a17248a012b1","system_id":"levelo_inurba_marseille","lat":43.3019,"lon":5.39827,"is_reserved":false,"is_disabled":false,"rental_uris":{"android":"levelo://app?vid=510a8508-5171-4bf6-a8d6-a17248a012b1","ios":"levelo://app?vid=510a8508-5171-4bf6-a8d6-a17248a012b1"},"vehicle_type_id":"4","last_reported":1773696512,"current_range_meters":5600,"station_id":"","pricing_plan_id":"cebpf4jnsgd1na2vs0mg"},{"bike_id":"eb5e5820-0429-4da1-8d37-440241da5579","system_id":"levelo_inurba_marseille","lat":43.24668,"lon":5.38165,"is_reserved":false,"is_disabled":false,"rental_uris":{"android":"levelo://app?vid=eb5e5820-0429-4da1-8d37-440241da5579","ios":"levelo://app?vid=eb5e5820-0429-4da1-8d37-440241da5579"},"vehicle_type_id":"4","last_reported":1773696512,"current_range_meters":5600,"station_id":"ce4bhih2rcd13ifvqfr0","pricing_plan_id":"cebpf4jnsgd1na2vs0mg"},{"bike_id":"614d7870-f82e-40fe-959d-ace58e74ba21","system_id":"levelo_inurba_marseille","lat":43.28631,"lon":5.39868,"is_reserved":false,"is_disabled":false,"rental_uris":{"android":"levelo://app?vid=614d7870-f82e-40fe-959d-ace58e74ba21","ios":"levelo://app?vid=614d7870-f82e-40fe-959d-ace58e74ba21"},"vehicle_type_id":"4","last_reported":1773696512,"current_range_meters":5600,"station_id":"st_d4a7ka997mjs738ck50g","pricing_plan_id":"cebpf4jnsgd1na2vs0mg"},{"bike_id":"8a72c898-125a-444b-95cb-af7357664536","system_id":"levelo_inurba_marseille","lat":43.29595,"lon":5.36751,"is_reserved":false,"is_disabled":false,"rental_uris":{"android":"levelo://app?vid=8a72c898-125a-444b-95cb-af7357664536","ios":"levelo://app?vid=8a72c898-125a-444b-95cb-af7357664536"},"vehicle_type_id":"4","last_reported":1773696512,"current_range_meters":5600,"station_id":"ce4bgph2rcd13ifvqc2g","pricing_plan_id":"cebpf4jnsgd1na2vs0mg"},{"bike_id":"f4c86c3f-07bc-4af5-98d4-b3f685666ca8","system_id":"levelo_inurba_marseille","lat":43.30206,"lon":5.40018,"is_reserved":false,"is_disabled":false,"rental_uris":{"android":"levelo://app?vid=f4c86c3f-07bc-4af5-98d4-b3f685666ca8","ios":"levelo://app?vid=f4c86c3f-07bc-4af5-98d4-b3f685666ca8"},"vehicle_type_id":"4","last_reported":1773696512,"current_range_meters":5600,"station_id":"","pricing_plan_id":"cebpf4jnsgd1na2vs0mg"},{"bike_id":"e4ef0cfc-65cf-4753-808d-9b333cbf3fd7","system_id":"levelo_inurba_marseille","lat":43.2798,"lon":5.41656,"is_reserved":false,"is_disabled":false,"rental_uris":{"android":"levelo://app?vid=e4ef0cfc-65cf-4753-808d-9b333cbf3fd7","ios":"levelo://app?vid=e4ef0cfc-65cf-4753-808d-9b333cbf3fd7"},"vehicle_type_id":"4","last_reported":1773696512,"current_range_meters":6000,"station_id":"ce4bho12rcd13ifvqh1g","pricing_plan_id":"cebpf4jnsgd1na2vs0mg"},{"bike_id":"80a6c00c-1913-429c-9838-34984d03a597","system_id":"levelo_inurba_marseille","lat":43.28439,"lon":5.39206,"is_reserved":false,"is_disabled":false,"rental_uris":{"android":"levelo://app?vid=80a6c00c-1913-429c-9838-34984d03a597","ios":"levelo://app?vid=80a6c00c-1913-429c-9838-34984d03a597"},"vehicle_type_id":"4","last_reported":1773696512,"current_range_meters":6000,"station_id":"ce4bhoh2rcd13ifvqh5g","pricing_plan_id":"cebpf4jnsgd1na2vs0mg"},{"bike_id":"38ae23e6-23d1-448c-8e70-f2eee48d35ba","system_id":"levelo_inurba_marseille","lat":43.26382,"lon":5.41045,"is_reserved":false,"is_disabled":false,"rental_uris":{"android":"levelo://app?vid=38ae23e6-23d1-448c-8e70-f2eee48d35ba","ios":"levelo://app?vid=38ae23e6-23d1-448c-8e70-f2eee48d35ba"},"vehicle_type_id":"4","last_reported":1773696512,"current_range_meters":6000,"station_id":"st_d4e5ca6na9uc73bfl5fg","pricing_plan_id":"cebpf4jnsgd1na2vs0mg"},{"bike_id":"55836559-5990-44a9-9e64-26cee1370358","system_id":"levelo_inurba_marseille","lat":43.29091,"lon":5.37114,"is_reserved":false,"is_disabled":true,"rental_uris":{"android":"levelo://app?vid=55836559-5990-44a9-9e64-26cee1370358","ios":"levelo://app?vid=55836559-5990-44a9-9e64-26cee1370358"},"vehicle_type_id":"4","last_reported":1773696512,"current_range_meters":6000,"station_id":"ce4bh5p2rcd13ifvqe4g","pricing_plan_id":"cebpf4jnsgd1na2vs0mg"},{"bike_id":"09928bae-984c-476e-b9c2-413b0f4a97a7","system_id":"levelo_inurba_marseille","lat":43.2823,"lon":5.39065,"is_reserved":false,"is_disabled":false,"rental_uris":{"android":"levelo://app?vid=09928bae-984c-476e-b9c2-413b0f4a97a7","ios":"levelo://app?vid=09928bae-984c-476e-b9c2-413b0f4a97a7"},"vehicle_type_id":"4","last_reported":1773696512,"current_range_meters":6000,"station_id":"ce4bhn92rcd13ifvqgsg","pricing_plan_id":"cebpf4jnsgd1na2vs0mg"},{"bike_id":"b64a0aec-50d6-4a7f-b597-2e61c2627c3c","system_id":"levelo_inurba_marseille","lat":43.31045,"lon":5.37158,"is_reserved":false,"is_disabled":false,"rental_uris":{"android":"levelo://app?vid=b64a0aec-50d6-4a7f-b597-2e61c2627c3c","ios":"levelo://app?vid=b64a0aec-50d6-4a7f-b597-2e61c2627c3c"},"vehicle_type_id":"4","last_reported":1773696512,"current_range_meters":6000,"station_id":"st_d4kl2rp97mjs73e7tdfg","pricing_plan_id":"cebpf4jnsgd1na2vs0mg"},{"bike_id":"3d36474f-f8a8-4519-b285-8d0b431dded8","system_id":"levelo_inurba_marseille","lat":43.31175,"lon":5.38714,"is_reserved":false,"is_disabled":false,"rental_uris":{"android":"levelo://app?vid=3d36474f-f8a8-4519-b285-8d0b431dded8","ios":"levelo://app?vid=3d36474f-f8a8-4519-b285-8d0b431dded8"},"vehicle_type_id":"4","last_reported":1773696512,"current_range_meters":6000,"station_id":"ce4bgv12rcd13ifvqcp0","pricing_plan_id":"cebpf4jnsgd1na2vs0mg"},{"bike_id":"ce9ad2ce-bcf1-4e22-b1db-a513ed5fe488","system_id":"levelo_inurba_marseille","lat":43.31047,"lon":5.3716,"is_reserved":false,"is_disabled":false,"rental_uris":{"android":"levelo://app?vid=ce9ad2ce-bcf1-4e22-b1db-a513ed5fe488","ios":"levelo://app?vid=ce9ad2ce-bcf1-4e22-b1db-a513ed5fe488"},"vehicle_type_id":"4","last_reported":1773696512,"current_range_meters":6000,"station_id":"st_d4kl2rp97mjs73e7tdfg","pricing_plan_id":"cebpf4jnsgd1na2vs0mg"},{"bike_id":"1c737dbe-34de-4357-9453-719dff49eeef","system_id":"levelo_inurba_marseille","lat":43.25317,"lon":5.42186,"is_reserved":false,"is_disabled":false,"rental_uris":{"android":"levelo://app?vid=1c737dbe-34de-4357-9453-719dff49eeef","ios":"levelo://app?vid=1c737dbe-34de-4357-9453-719dff49eeef"},"vehicle_type_id":"4","last_reported":1773696512,"current_range_meters":6000,"station_id":"st_d2m65c5bi1j21697t3ng","pricing_plan_id":"cebpf4jnsgd1na2vs0mg"},{"bike_id":"b73f89f3-a8e6-4527-b89e-530ba374165e","system_id":"levelo_inurba_marseille","lat":43.30729,"lon":5.42434,"is_reserved":false,"is_disabled":false,"rental_uris":{"android":"levelo://app?vid=b73f89f3-a8e6-4527-b89e-530ba374165e","ios":"levelo://app?vid=b73f89f3-a8e6-4527-b89e-530ba374165e"},"vehicle_type_id":"4","last_reported":1773696512,"current_range_meters":6000,"station_id":"st_cvj6ca6bvosntc0bfgr0","pricing_plan_id":"cebpf4jnsgd1na2vs0mg"},{"bike_id":"5070df3f-2560-45d1-9609-e080429039da","system_id":"levelo_inurba_marseille","lat":43.27493,"lon":5.4245,"is_reserved":false,"is_disabled":false,"rental_uris":{"android":"levelo://app?vid=5070df3f-2560-45d1-9609-e080429039da","ios":"levelo://app?vid=5070df3f-2560-45d1-9609-e080429039da"},"vehicle_type_id":"4","last_reported":1773696512,"current_range_meters":6000,"station_id":"ce4bhn92rcd13ifvqgrg","pricing_plan_id":"cebpf4jnsgd1na2vs0mg"},{"bike_id":"330fa00b-b68f-4160-a4e5-d3b9915d949b","system_id":"levelo_inurba_marseille","lat":43.21198,"lon":5.35046,"is_reserved":false,"is_disabled":false,"rental_uris":{"android":"levelo://app?vid=330fa00b-b68f-4160-a4e5-d3b9915d949b","ios":"levelo://app?vid=330fa00b-b68f-4160-a4e5-d3b9915d949b"},"vehicle_type_id":"4","last_reported":1773696512,"current_range_meters":6000,"station_id":"st_cvj6sg6p6f1abm77japg","pricing_plan_id":"cebpf4jnsgd1na2vs0mg"},{"bike_id":"3166b5cb-18d1-4ac2-93c2-033b7de60c7b","system_id":"levelo_inurba_marseille","lat":43.25038,"lon":5.38921,"is_reserved":false,"is_disabled":true,"rental_uris":{"android":"levelo://app?vid=3166b5cb-18d1-4ac2-93c2-033b7de60c7b","ios":"levelo://app?vid=3166b5cb-18d1-4ac2-93c2-033b7de60c7b"},"vehicle_type_id":"4","last_reported":1773696512,"current_range_meters":6000,"station_id":"ce4bhgp2rcd13ifvqfd0","pricing_plan_id":"cebpf4jnsgd1na2vs0mg"},{"bike_id":"2c43b80d-fef9-4d6c-9666-38d21e73390d","system_id":"levelo_inurba_marseille","lat":43.27889,"lon":5.38014,"is_reserved":false,"is_disabled":false,"rental_uris":{"android":"levelo://app?vid=2c43b80d-fef9-4d6c-9666-38d21e73390d","ios":"levelo://app?vid=2c43b80d-fef9-4d6c-9666-38d21e73390d"},"vehicle_type_id":"4","last_reported":1773696512,"current_range_meters":6000,"station_id":"ce4bhf92rcd13ifvqf50","pricing_plan_id":"cebpf4jnsgd1na2vs0mg"},{"bike_id":"310c6acd-7844-4ae8-800c-63e79c334314","system_id":"levelo_inurba_marseille","lat":43.29529,"lon":5.38546,"is_reserved":false,"is_disabled":false,"rental_uris":{"android":"levelo://app?vid=310c6acd-7844-4ae8-800c-63e79c334314","ios":"levelo://app?vid=310c6acd-7844-4ae8-800c-63e79c334314"},"vehicle_type_id":"4","last_reported":1773696512,"current_range_meters":6000,"station_id":"ce4bgih2rcd13ifvqba0","pricing_plan_id":"cebpf4jnsgd1na2vs0mg"},{"bike_id":"ac4a335d-e4ee-499e-bb25-2c82977e8c9b","system_id":"levelo_inurba_marseille","lat":43.28483,"lon":5.48397,"is_reserved":false,"is_disabled":false,"rental_uris":{"android":"levelo://app?vid=ac4a335d-e4ee-499e-bb25-2c82977e8c9b","ios":"levelo://app?vid=ac4a335d-e4ee-499e-bb25-2c82977e8c9b"},"vehicle_type_id":"4","last_reported":1773696512,"current_range_meters":6000,"station_id":"","pricing_plan_id":"cebpf4jnsgd1na2vs0mg"},{"bike_id":"7cd60be8-0b65-4d1d-a1d6-175ba90b64b3","system_id":"levelo_inurba_marseille","lat":43.28123,"lon":5.40639,"is_reserved":false,"is_disabled":true,"rental_uris":{"android":"levelo://app?vid=7cd60be8-0b65-4d1d-a1d6-175ba90b64b3","ios":"levelo://app?vid=7cd60be8-0b65-4d1d-a1d6-175ba90b64b3"},"vehicle_type_id":"4","last_reported":1773696512,"current_range_meters":6400,"station_id":"","pricing_plan_id":"cebpf4jnsgd1na2vs0mg"},{"bike_id":"2c954639-c0f2-4783-b15e-28c14eab276f","system_id":"levelo_inurba_marseille","lat":43.31355,"lon":5.38499,"is_reserved":false,"is_disabled":false,"rental_uris":{"android":"levelo://app?vid=2c954639-c0f2-4783-b15e-28c14eab276f","ios":"levelo://app?vid=2c954639-c0f2-4783-b15e-28c14eab276f"},"vehicle_type_id":"4","last_reported":1773696512,"current_range_meters":6400,"station_id":"ce4bgt92rcd13ifvqcf0","pricing_plan_id":"cebpf4jnsgd1na2vs0mg"},{"bike_id":"a0d867cb-b97b-4168-932e-ec7fd3fbd32b","system_id":"levelo_inurba_marseille","lat":43.22549,"lon":5.4164,"is_reserved":false,"is_disabled":false,"rental_uris":{"android":"levelo://app?vid=a0d867cb-b97b-4168-932e-ec7fd3fbd32b","ios":"levelo://app?vid=a0d867cb-b97b-4168-932e-ec7fd3fbd32b"},"vehicle_type_id":"4","last_reported":1773696512,"current_range_meters":6400,"station_id":"st_d2o4gvlbi1j2169b742g","pricing_plan_id":"cebpf4jnsgd1na2vs0mg"},{"bike_id":"4bf98024-7bc8-4d54-bd00-6b0873dc2014","system_id":"levelo_inurba_marseille","lat":43.25333,"lon":5.42172,"is_reserved":false,"is_disabled":false,"rental_uris":{"android":"levelo://app?vid=4bf98024-7bc8-4d54-bd00-6b0873dc2014","ios":"levelo://app?vid=4bf98024-7bc8-4d54-bd00-6b0873dc2014"},"vehicle_type_id":"4","last_reported":1773696512,"current_range_meters":6400,"station_id":"st_d2m65c5bi1j21697t3ng","pricing_plan_id":"cebpf4jnsgd1na2vs0mg"},{"bike_id":"34309bea-e1e9-4079-b4f6-df8586ef004e","system_id":"levelo_inurba_marseille","lat":43.28417,"lon":5.34989,"is_reserved":false,"is_disabled":false,"rental_uris":{"android":"levelo://app?vid=34309bea-e1e9-4079-b4f6-df8586ef004e","ios":"levelo://app?vid=34309bea-e1e9-4079-b4f6-df8586ef004e"},"vehicle_type_id":"4","last_reported":1773696512,"current_range_meters":6400,"station_id":"ce4bhbh2rcd13ifvqepg","pricing_plan_id":"cebpf4jnsgd1na2vs0mg"},{"bike_id":"3cc705dd-f58b-4194-8692-3ae4cdcde2be","system_id":"levelo_inurba_marseille","lat":43.28405,"lon":5.3727,"is_reserved":false,"is_disabled":false,"rental_uris":{"android":"levelo://app?vid=3cc705dd-f58b-4194-8692-3ae4cdcde2be","ios":"levelo://app?vid=3cc705dd-f58b-4194-8692-3ae4cdcde2be"},"vehicle_type_id":"4","last_reported":1773696512,"current_range_meters":6400,"station_id":"ce4bh412rcd13ifvqds0","pricing_plan_id":"cebpf4jnsgd1na2vs0mg"},{"bike_id":"cd7717c9-c217-41ab-9beb-b1fb95d127ba","system_id":"levelo_inurba_marseille","lat":43.29166,"lon":5.37158,"is_reserved":false,"is_disabled":false,"rental_uris":{"android":"levelo://app?vid=cd7717c9-c217-41ab-9beb-b1fb95d127ba","ios":"levelo://app?vid=cd7717c9-c217-41ab-9beb-b1fb95d127ba"},"vehicle_type_id":"4","last_reported":1773696512,"current_range_meters":6400,"station_id":"ce4bha92rcd13ifvqeh0","pricing_plan_id":"cebpf4jnsgd1na2vs0mg"},{"bike_id":"fc1da8b1-0780-414b-bb37-49311ca06c86","system_id":"levelo_inurba_marseille","lat":43.28494,"lon":5.48383,"is_reserved":false,"is_disabled":false,"rental_uris":{"android":"levelo://app?vid=fc1da8b1-0780-414b-bb37-49311ca06c86","ios":"levelo://app?vid=fc1da8b1-0780-414b-bb37-49311ca06c86"},"vehicle_type_id":"4","last_reported":1773696512,"current_range_meters":6400,"station_id":"st_d3svhcjqgbts73a3dn0g","pricing_plan_id":"cebpf4jnsgd1na2vs0mg"},{"bike_id":"e2cb8bc0-efd9-43da-8e33-b818f7ab7685","system_id":"levelo_inurba_marseille","lat":43.29761,"lon":5.4277,"is_reserved":false,"is_disabled":false,"rental_uris":{"android":"levelo://app?vid=e2cb8bc0-efd9-43da-8e33-b818f7ab7685","ios":"levelo://app?vid=e2cb8bc0-efd9-43da-8e33-b818f7ab7685"},"vehicle_type_id":"4","last_reported":1773696512,"current_range_meters":6400,"station_id":"st_d3md5207bmas73dh9klg","pricing_plan_id":"cebpf4jnsgd1na2vs0mg"},{"bike_id":"3550da26-6046-4015-a9fb-7701525b5e8a","system_id":"levelo_inurba_marseille","lat":43.24469,"lon":5.42536,"is_reserved":false,"is_disabled":false,"rental_uris":{"android":"levelo://app?vid=3550da26-6046-4015-a9fb-7701525b5e8a","ios":"levelo://app?vid=3550da26-6046-4015-a9fb-7701525b5e8a"},"vehicle_type_id":"4","last_reported":1773696512,"current_range_meters":6400,"station_id":"st_d4a3vfp97mjs738cd8kg","pricing_plan_id":"cebpf4jnsgd1na2vs0mg"},{"bike_id":"13f661f4-94b3-4670-a9ca-95a2e28b52d8","system_id":"levelo_inurba_marseille","lat":43.2256,"lon":5.41634,"is_reserved":false,"is_disabled":false,"rental_uris":{"android":"levelo://app?vid=13f661f4-94b3-4670-a9ca-95a2e28b52d8","ios":"levelo://app?vid=13f661f4-94b3-4670-a9ca-95a2e28b52d8"},"vehicle_type_id":"4","last_reported":1773696512,"current_range_meters":6400,"station_id":"st_d2o4gvlbi1j2169b742g","pricing_plan_id":"cebpf4jnsgd1na2vs0mg"},{"bike_id":"ea397162-17cc-4898-8ca5-d0b3d5ea33fe","system_id":"levelo_inurba_marseille","lat":43.24658,"lon":5.43152,"is_reserved":false,"is_disabled":false,"rental_uris":{"android":"levelo://app?vid=ea397162-17cc-4898-8ca5-d0b3d5ea33fe","ios":"levelo://app?vid=ea397162-17cc-4898-8ca5-d0b3d5ea33fe"},"vehicle_type_id":"4","last_reported":1773696512,"current_range_meters":6400,"station_id":"","pricing_plan_id":"cebpf4jnsgd1na2vs0mg"},{"bike_id":"45bd2f1a-185a-47a7-8662-22a7c4d38515","system_id":"levelo_inurba_marseille","lat":43.21743,"lon":5.34604,"is_reserved":false,"is_disabled":false,"rental_uris":{"android":"levelo://app?vid=45bd2f1a-185a-47a7-8662-22a7c4d38515","ios":"levelo://app?vid=45bd2f1a-185a-47a7-8662-22a7c4d38515"},"vehicle_type_id":"4","last_reported":1773696512,"current_range_meters":6400,"station_id":"st_cvj6r9ubvosntc0bgbag","pricing_plan_id":"cebpf4jnsgd1na2vs0mg"},{"bike_id":"4c3db936-e69a-41de-afbf-75ba732077fd","system_id":"levelo_inurba_marseille","lat":43.21205,"lon":5.35041,"is_reserved":false,"is_disabled":false,"rental_uris":{"android":"levelo://app?vid=4c3db936-e69a-41de-afbf-75ba732077fd","ios":"levelo://app?vid=4c3db936-e69a-41de-afbf-75ba732077fd"},"vehicle_type_id":"4","last_reported":1773696512,"current_range_meters":6400,"station_id":"st_cvj6sg6p6f1abm77japg","pricing_plan_id":"cebpf4jnsgd1na2vs0mg"},{"bike_id":"116a4daa-634f-4bd7-a89c-815ae85f437b","system_id":"levelo_inurba_marseille","lat":43.28838,"lon":5.39308,"is_reserved":false,"is_disabled":false,"rental_uris":{"android":"levelo://app?vid=116a4daa-634f-4bd7-a89c-815ae85f437b","ios":"levelo://app?vid=116a4daa-634f-4bd7-a89c-815ae85f437b"},"vehicle_type_id":"4","last_reported":1773696512,"current_range_meters":6400,"station_id":"ce4bh2p2rcd13ifvqdi0","pricing_plan_id":"cebpf4jnsgd1na2vs0mg"},{"bike_id":"cc1d4b46-c341-4a78-bbbe-8b9b6e3eb5f6","system_id":"levelo_inurba_marseille","lat":43.26916,"lon":5.40246,"is_reserved":false,"is_disabled":false,"rental_uris":{"android":"levelo://app?vid=cc1d4b46-c341-4a78-bbbe-8b9b6e3eb5f6","ios":"levelo://app?vid=cc1d4b46-c341-4a78-bbbe-8b9b6e3eb5f6"},"vehicle_type_id":"4","last_reported":1773696512,"current_range_meters":6400,"station_id":"cjm6bp8fraef2m0cb0m0","pricing_plan_id":"cebpf4jnsgd1na2vs0mg"},{"bike_id":"511d8639-daa4-47aa-98c3-8d96d6bb746d","system_id":"levelo_inurba_marseille","lat":43.27056,"lon":5.40253,"is_reserved":false,"is_disabled":false,"rental_uris":{"android":"levelo://app?vid=511d8639-daa4-47aa-98c3-8d96d6bb746d","ios":"levelo://app?vid=511d8639-daa4-47aa-98c3-8d96d6bb746d"},"vehicle_type_id":"4","last_reported":1773696512,"current_range_meters":6400,"station_id":"ce4bhk92rcd13ifvqgc0","pricing_plan_id":"cebpf4jnsgd1na2vs0mg"},{"bike_id":"fa2dbaee-68d1-4500-b1bb-59e2d6b100a2","system_id":"levelo_inurba_marseille","lat":43.28418,"lon":5.37516,"is_reserved":false,"is_disabled":false,"rental_uris":{"android":"levelo://app?vid=fa2dbaee-68d1-4500-b1bb-59e2d6b100a2","ios":"levelo://app?vid=fa2dbaee-68d1-4500-b1bb-59e2d6b100a2"},"vehicle_type_id":"4","last_reported":1773696512,"current_range_meters":6400,"station_id":"ce4bh412rcd13ifvqds0","pricing_plan_id":"cebpf4jnsgd1na2vs0mg"},{"bike_id":"673469c2-d54f-4b4c-9099-35d90cf7c1ec","system_id":"levelo_inurba_marseille","lat":43.29483,"lon":5.3945,"is_reserved":false,"is_disabled":false,"rental_uris":{"android":"levelo://app?vid=673469c2-d54f-4b4c-9099-35d90cf7c1ec","ios":"levelo://app?vid=673469c2-d54f-4b4c-9099-35d90cf7c1ec"},"vehicle_type_id":"4","last_reported":1773696512,"current_range_meters":6800,"station_id":"","pricing_plan_id":"cebpf4jnsgd1na2vs0mg"},{"bike_id":"a5550b5f-44b8-4aae-b426-0055e4f9b868","system_id":"levelo_inurba_marseille","lat":43.25308,"lon":5.42171,"is_reserved":false,"is_disabled":false,"rental_uris":{"android":"levelo://app?vid=a5550b5f-44b8-4aae-b426-0055e4f9b868","ios":"levelo://app?vid=a5550b5f-44b8-4aae-b426-0055e4f9b868"},"vehicle_type_id":"4","last_reported":1773696512,"current_range_meters":6800,"station_id":"st_d2m65c5bi1j21697t3ng","pricing_plan_id":"cebpf4jnsgd1na2vs0mg"},{"bike_id":"77145b46-58f5-47ad-acc4-b91b6f461c88","system_id":"levelo_inurba_marseille","lat":43.28396,"lon":5.37522,"is_reserved":false,"is_disabled":false,"rental_uris":{"android":"levelo://app?vid=77145b46-58f5-47ad-acc4-b91b6f461c88","ios":"levelo://app?vid=77145b46-58f5-47ad-acc4-b91b6f461c88"},"vehicle_type_id":"4","last_reported":1773696512,"current_range_meters":6800,"station_id":"ce4bh412rcd13ifvqds0","pricing_plan_id":"cebpf4jnsgd1na2vs0mg"},{"bike_id":"88468e56-7c4c-4a90-8442-41ce4e8f9f2a","system_id":"levelo_inurba_marseille","lat":43.28385,"lon":5.37535,"is_reserved":false,"is_disabled":false,"rental_uris":{"android":"levelo://app?vid=88468e56-7c4c-4a90-8442-41ce4e8f9f2a","ios":"levelo://app?vid=88468e56-7c4c-4a90-8442-41ce4e8f9f2a"},"vehicle_type_id":"4","last_reported":1773696512,"current_range_meters":6800,"station_id":"ce4bh412rcd13ifvqds0","pricing_plan_id":"cebpf4jnsgd1na2vs0mg"},{"bike_id":"a46383b6-187e-4da7-b4cb-3b01d866b479","system_id":"levelo_inurba_marseille","lat":43.31169,"lon":5.38718,"is_reserved":false,"is_disabled":false,"rental_uris":{"android":"levelo://app?vid=a46383b6-187e-4da7-b4cb-3b01d866b479","ios":"levelo://app?vid=a46383b6-187e-4da7-b4cb-3b01d866b479"},"vehicle_type_id":"4","last_reported":1773696512,"current_range_meters":6800,"station_id":"ce4bgv12rcd13ifvqcp0","pricing_plan_id":"cebpf4jnsgd1na2vs0mg"},{"bike_id":"70e7ea10-d65d-463a-8670-38249b8c71db","system_id":"levelo_inurba_marseille","lat":43.29595,"lon":5.38105,"is_reserved":false,"is_disabled":false,"rental_uris":{"android":"levelo://app?vid=70e7ea10-d65d-463a-8670-38249b8c71db","ios":"levelo://app?vid=70e7ea10-d65d-463a-8670-38249b8c71db"},"vehicle_type_id":"4","last_reported":1773696512,"current_range_meters":6800,"station_id":"ce4bgl12rcd13ifvqbo0","pricing_plan_id":"cebpf4jnsgd1na2vs0mg"},{"bike_id":"efff081d-3492-461b-8be7-f11196a57462","system_id":"levelo_inurba_marseille","lat":43.23196,"lon":5.39984,"is_reserved":false,"is_disabled":false,"rental_uris":{"android":"levelo://app?vid=efff081d-3492-461b-8be7-f11196a57462","ios":"levelo://app?vid=efff081d-3492-461b-8be7-f11196a57462"},"vehicle_type_id":"4","last_reported":1773696512,"current_range_meters":6800,"station_id":"ce4bhn12rcd13ifvqgqg","pricing_plan_id":"cebpf4jnsgd1na2vs0mg"},{"bike_id":"3aa6d3b0-d8e8-4a37-a131-591ec6e0fe54","system_id":"levelo_inurba_marseille","lat":43.3135,"lon":5.38497,"is_reserved":false,"is_disabled":true,"rental_uris":{"android":"levelo://app?vid=3aa6d3b0-d8e8-4a37-a131-591ec6e0fe54","ios":"levelo://app?vid=3aa6d3b0-d8e8-4a37-a131-591ec6e0fe54"},"vehicle_type_id":"4","last_reported":1773696512,"current_range_meters":6800,"station_id":"ce4bgt92rcd13ifvqcf0","pricing_plan_id":"cebpf4jnsgd1na2vs0mg"},{"bike_id":"aced12fd-99e6-4bbd-a20a-edda28943985","system_id":"levelo_inurba_marseille","lat":43.29261,"lon":5.38451,"is_reserved":false,"is_disabled":false,"rental_uris":{"android":"levelo://app?vid=aced12fd-99e6-4bbd-a20a-edda28943985","ios":"levelo://app?vid=aced12fd-99e6-4bbd-a20a-edda28943985"},"vehicle_type_id":"4","last_reported":1773696512,"current_range_meters":6800,"station_id":"ce4bh692rcd13ifvqea0","pricing_plan_id":"cebpf4jnsgd1na2vs0mg"},{"bike_id":"fb709e4b-58a2-4349-bc60-6e2833f96ea9","system_id":"levelo_inurba_marseille","lat":43.28462,"lon":5.48412,"is_reserved":false,"is_disabled":false,"rental_uris":{"android":"levelo://app?vid=fb709e4b-58a2-4349-bc60-6e2833f96ea9","ios":"levelo://app?vid=fb709e4b-58a2-4349-bc60-6e2833f96ea9"},"vehicle_type_id":"4","last_reported":1773696512,"current_range_meters":7200,"station_id":"","pricing_plan_id":"cebpf4jnsgd1na2vs0mg"},{"bike_id":"706d9f6d-66d3-4569-9c3d-ced163161277","system_id":"levelo_inurba_marseille","lat":43.30302,"lon":5.36914,"is_reserved":false,"is_disabled":true,"rental_uris":{"android":"levelo://app?vid=706d9f6d-66d3-4569-9c3d-ced163161277","ios":"levelo://app?vid=706d9f6d-66d3-4569-9c3d-ced163161277"},"vehicle_type_id":"4","last_reported":1773696512,"current_range_meters":7200,"station_id":"ce4bgqh2rcd13ifvqc5g","pricing_plan_id":"cebpf4jnsgd1na2vs0mg"},{"bike_id":"4e025545-ed8d-4eae-8dea-76bd0aad9403","system_id":"levelo_inurba_marseille","lat":43.31458,"lon":5.37331,"is_reserved":false,"is_disabled":false,"rental_uris":{"android":"levelo://app?vid=4e025545-ed8d-4eae-8dea-76bd0aad9403","ios":"levelo://app?vid=4e025545-ed8d-4eae-8dea-76bd0aad9403"},"vehicle_type_id":"4","last_reported":1773696512,"current_range_meters":7200,"station_id":"ce4bgt12rcd13ifvqcd0","pricing_plan_id":"cebpf4jnsgd1na2vs0mg"},{"bike_id":"70547423-de32-409b-a041-97b9f42b0aef","system_id":"levelo_inurba_marseille","lat":43.29567,"lon":5.39975,"is_reserved":false,"is_disabled":false,"rental_uris":{"android":"levelo://app?vid=70547423-de32-409b-a041-97b9f42b0aef","ios":"levelo://app?vid=70547423-de32-409b-a041-97b9f42b0aef"},"vehicle_type_id":"4","last_reported":1773696512,"current_range_meters":7200,"station_id":"ce4bh312rcd13ifvqdj0","pricing_plan_id":"cebpf4jnsgd1na2vs0mg"},{"bike_id":"26b2c97f-bcfd-45d1-b2a5-515f9e341531","system_id":"levelo_inurba_marseille","lat":43.29769,"lon":5.38541,"is_reserved":false,"is_disabled":false,"rental_uris":{"android":"levelo://app?vid=26b2c97f-bcfd-45d1-b2a5-515f9e341531","ios":"levelo://app?vid=26b2c97f-bcfd-45d1-b2a5-515f9e341531"},"vehicle_type_id":"4","last_reported":1773696512,"current_range_meters":7200,"station_id":"","pricing_plan_id":"cebpf4jnsgd1na2vs0mg"},{"bike_id":"12c70c69-a0b8-43b5-9e2f-12e8ea312b37","system_id":"levelo_inurba_marseille","lat":43.30202,"lon":5.39472,"is_reserved":false,"is_disabled":true,"rental_uris":{"android":"levelo://app?vid=12c70c69-a0b8-43b5-9e2f-12e8ea312b37","ios":"levelo://app?vid=12c70c69-a0b8-43b5-9e2f-12e8ea312b37"},"vehicle_type_id":"4","last_reported":1773696512,"current_range_meters":7200,"station_id":"ce4bh0p2rcd13ifvqd70","pricing_plan_id":"cebpf4jnsgd1na2vs0mg"},{"bike_id":"f68ebebf-db93-47ca-9d50-d5d38dbe85ed","system_id":"levelo_inurba_marseille","lat":43.33157,"lon":5.37683,"is_reserved":false,"is_disabled":false,"rental_uris":{"android":"levelo://app?vid=f68ebebf-db93-47ca-9d50-d5d38dbe85ed","ios":"levelo://app?vid=f68ebebf-db93-47ca-9d50-d5d38dbe85ed"},"vehicle_type_id":"4","last_reported":1773696512,"current_range_meters":7200,"station_id":"st_d46cu089ee8s73dldbu0","pricing_plan_id":"cebpf4jnsgd1na2vs0mg"},{"bike_id":"94f57199-aa29-467b-99b1-bc511201aba3","system_id":"levelo_inurba_marseille","lat":43.2848,"lon":5.48388,"is_reserved":false,"is_disabled":false,"rental_uris":{"android":"levelo://app?vid=94f57199-aa29-467b-99b1-bc511201aba3","ios":"levelo://app?vid=94f57199-aa29-467b-99b1-bc511201aba3"},"vehicle_type_id":"4","last_reported":1773696512,"current_range_meters":7200,"station_id":"st_d3svhcjqgbts73a3dn0g","pricing_plan_id":"cebpf4jnsgd1na2vs0mg"},{"bike_id":"e01c7d9e-0e3b-41a1-9ded-3a0b6ca728a8","system_id":"levelo_inurba_marseille","lat":43.24153,"lon":5.36403,"is_reserved":false,"is_disabled":false,"rental_uris":{"android":"levelo://app?vid=e01c7d9e-0e3b-41a1-9ded-3a0b6ca728a8","ios":"levelo://app?vid=e01c7d9e-0e3b-41a1-9ded-3a0b6ca728a8"},"vehicle_type_id":"4","last_reported":1773696512,"current_range_meters":7200,"station_id":"cpo36qri1sfpv3e86is0","pricing_plan_id":"cebpf4jnsgd1na2vs0mg"},{"bike_id":"10104653-e4f6-4410-b616-dff8cfc2bc80","system_id":"levelo_inurba_marseille","lat":43.29304,"lon":5.39297,"is_reserved":false,"is_disabled":false,"rental_uris":{"android":"levelo://app?vid=10104653-e4f6-4410-b616-dff8cfc2bc80","ios":"levelo://app?vid=10104653-e4f6-4410-b616-dff8cfc2bc80"},"vehicle_type_id":"4","last_reported":1773696512,"current_range_meters":7200,"station_id":"","pricing_plan_id":"cebpf4jnsgd1na2vs0mg"},{"bike_id":"4fe96584-a2a1-4906-9fa5-07cec2d82775","system_id":"levelo_inurba_marseille","lat":43.30237,"lon":5.40048,"is_reserved":false,"is_disabled":false,"rental_uris":{"android":"levelo://app?vid=4fe96584-a2a1-4906-9fa5-07cec2d82775","ios":"levelo://app?vid=4fe96584-a2a1-4906-9fa5-07cec2d82775"},"vehicle_type_id":"4","last_reported":1773696512,"current_range_meters":7200,"station_id":"","pricing_plan_id":"cebpf4jnsgd1na2vs0mg"},{"bike_id":"3854dfa7-ba2f-4c25-aed9-1ff5408517ca","system_id":"levelo_inurba_marseille","lat":43.2953,"lon":5.38167,"is_reserved":false,"is_disabled":false,"rental_uris":{"android":"levelo://app?vid=3854dfa7-ba2f-4c25-aed9-1ff5408517ca","ios":"levelo://app?vid=3854dfa7-ba2f-4c25-aed9-1ff5408517ca"},"vehicle_type_id":"4","last_reported":1773696512,"current_range_meters":7200,"station_id":"","pricing_plan_id":"cebpf4jnsgd1na2vs0mg"},{"bike_id":"d39240c3-2eb0-40f0-af93-a3488b65785e","system_id":"levelo_inurba_marseille","lat":43.29859,"lon":5.36257,"is_reserved":false,"is_disabled":false,"rental_uris":{"android":"levelo://app?vid=d39240c3-2eb0-40f0-af93-a3488b65785e","ios":"levelo://app?vid=d39240c3-2eb0-40f0-af93-a3488b65785e"},"vehicle_type_id":"4","last_reported":1773696512,"current_range_meters":7200,"station_id":"ce4bgpp2rcd13ifvqc3g","pricing_plan_id":"cebpf4jnsgd1na2vs0mg"},{"bike_id":"24de5249-abf8-48a2-b004-3a4fcb767e0c","system_id":"levelo_inurba_marseille","lat":43.2175,"lon":5.34588,"is_reserved":false,"is_disabled":false,"rental_uris":{"android":"levelo://app?vid=24de5249-abf8-48a2-b004-3a4fcb767e0c","ios":"levelo://app?vid=24de5249-abf8-48a2-b004-3a4fcb767e0c"},"vehicle_type_id":"4","last_reported":1773696512,"current_range_meters":7200,"station_id":"st_cvj6r9ubvosntc0bgbag","pricing_plan_id":"cebpf4jnsgd1na2vs0mg"},{"bike_id":"8afdd292-ab63-46e7-b1b1-1e2caafb1ef7","system_id":"levelo_inurba_marseille","lat":43.25578,"lon":5.38224,"is_reserved":false,"is_disabled":false,"rental_uris":{"android":"levelo://app?vid=8afdd292-ab63-46e7-b1b1-1e2caafb1ef7","ios":"levelo://app?vid=8afdd292-ab63-46e7-b1b1-1e2caafb1ef7"},"vehicle_type_id":"4","last_reported":1773696512,"current_range_meters":7200,"station_id":"ce4bhih2rcd13ifvqfs0","pricing_plan_id":"cebpf4jnsgd1na2vs0mg"},{"bike_id":"37a3d953-abf9-4169-96d4-21b63e36958a","system_id":"levelo_inurba_marseille","lat":43.29185,"lon":5.3581,"is_reserved":false,"is_disabled":true,"rental_uris":{"android":"levelo://app?vid=37a3d953-abf9-4169-96d4-21b63e36958a","ios":"levelo://app?vid=37a3d953-abf9-4169-96d4-21b63e36958a"},"vehicle_type_id":"4","last_reported":1773696512,"current_range_meters":7200,"station_id":"ce4bhb12rcd13ifvqel0","pricing_plan_id":"cebpf4jnsgd1na2vs0mg"},{"bike_id":"4ae70e12-865a-4387-a80b-d88f17a7c39b","system_id":"levelo_inurba_marseille","lat":43.21752,"lon":5.34603,"is_reserved":false,"is_disabled":false,"rental_uris":{"android":"levelo://app?vid=4ae70e12-865a-4387-a80b-d88f17a7c39b","ios":"levelo://app?vid=4ae70e12-865a-4387-a80b-d88f17a7c39b"},"vehicle_type_id":"4","last_reported":1773696512,"current_range_meters":7200,"station_id":"st_cvj6r9ubvosntc0bgbag","pricing_plan_id":"cebpf4jnsgd1na2vs0mg"},{"bike_id":"fb65d9a5-e6ae-439b-8668-a277dbf2dfb8","system_id":"levelo_inurba_marseille","lat":43.24998,"lon":5.38929,"is_reserved":false,"is_disabled":false,"rental_uris":{"android":"levelo://app?vid=fb65d9a5-e6ae-439b-8668-a277dbf2dfb8","ios":"levelo://app?vid=fb65d9a5-e6ae-439b-8668-a277dbf2dfb8"},"vehicle_type_id":"4","last_reported":1773696512,"current_range_meters":8000,"station_id":"ce4bhgp2rcd13ifvqfd0","pricing_plan_id":"cebpf4jnsgd1na2vs0mg"},{"bike_id":"1a84020a-456e-442d-a4af-de588b00d377","system_id":"levelo_inurba_marseille","lat":43.29815,"lon":5.44028,"is_reserved":false,"is_disabled":false,"rental_uris":{"android":"levelo://app?vid=1a84020a-456e-442d-a4af-de588b00d377","ios":"levelo://app?vid=1a84020a-456e-442d-a4af-de588b00d377"},"vehicle_type_id":"4","last_reported":1773696512,"current_range_meters":8000,"station_id":"st_d3jp68qikq2c7381ktn0","pricing_plan_id":"cebpf4jnsgd1na2vs0mg"},{"bike_id":"4eb4878c-5fb7-451b-9650-ccb7a5374052","system_id":"levelo_inurba_marseille","lat":43.26495,"lon":5.39537,"is_reserved":false,"is_disabled":false,"rental_uris":{"android":"levelo://app?vid=4eb4878c-5fb7-451b-9650-ccb7a5374052","ios":"levelo://app?vid=4eb4878c-5fb7-451b-9650-ccb7a5374052"},"vehicle_type_id":"4","last_reported":1773696512,"current_range_meters":8000,"station_id":"ce4bhi12rcd13ifvqfq0","pricing_plan_id":"cebpf4jnsgd1na2vs0mg"},{"bike_id":"cbc1a0e1-9f88-4095-9d77-d755dca9c42c","system_id":"levelo_inurba_marseille","lat":43.29623,"lon":5.38428,"is_reserved":false,"is_disabled":false,"rental_uris":{"android":"levelo://app?vid=cbc1a0e1-9f88-4095-9d77-d755dca9c42c","ios":"levelo://app?vid=cbc1a0e1-9f88-4095-9d77-d755dca9c42c"},"vehicle_type_id":"4","last_reported":1773696512,"current_range_meters":8000,"station_id":"","pricing_plan_id":"cebpf4jnsgd1na2vs0mg"},{"bike_id":"a994d427-5c52-4ca1-a426-5055e7833490","system_id":"levelo_inurba_marseille","lat":43.28612,"lon":5.39868,"is_reserved":false,"is_disabled":false,"rental_uris":{"android":"levelo://app?vid=a994d427-5c52-4ca1-a426-5055e7833490","ios":"levelo://app?vid=a994d427-5c52-4ca1-a426-5055e7833490"},"vehicle_type_id":"4","last_reported":1773696512,"current_range_meters":8000,"station_id":"st_d4a7ka997mjs738ck50g","pricing_plan_id":"cebpf4jnsgd1na2vs0mg"},{"bike_id":"2942f135-530e-48d1-97e5-d52701f4ed07","system_id":"levelo_inurba_marseille","lat":43.26545,"lon":5.37344,"is_reserved":false,"is_disabled":false,"rental_uris":{"android":"levelo://app?vid=2942f135-530e-48d1-97e5-d52701f4ed07","ios":"levelo://app?vid=2942f135-530e-48d1-97e5-d52701f4ed07"},"vehicle_type_id":"4","last_reported":1773696512,"current_range_meters":8000,"station_id":"ce4bhg12rcd13ifvqf70","pricing_plan_id":"cebpf4jnsgd1na2vs0mg"},{"bike_id":"af5e586f-4011-4ddb-ad2a-4f6dcb0ef2d5","system_id":"levelo_inurba_marseille","lat":43.23794,"lon":5.36627,"is_reserved":false,"is_disabled":false,"rental_uris":{"android":"levelo://app?vid=af5e586f-4011-4ddb-ad2a-4f6dcb0ef2d5","ios":"levelo://app?vid=af5e586f-4011-4ddb-ad2a-4f6dcb0ef2d5"},"vehicle_type_id":"4","last_reported":1773696512,"current_range_meters":8000,"station_id":"st_d3nk18o9ro0c73en2l3g","pricing_plan_id":"cebpf4jnsgd1na2vs0mg"},{"bike_id":"23558b0a-8d30-4d0a-9da4-073b4ff56939","system_id":"levelo_inurba_marseille","lat":43.29279,"lon":5.3685,"is_reserved":false,"is_disabled":false,"rental_uris":{"android":"levelo://app?vid=23558b0a-8d30-4d0a-9da4-073b4ff56939","ios":"levelo://app?vid=23558b0a-8d30-4d0a-9da4-073b4ff56939"},"vehicle_type_id":"4","last_reported":1773696512,"current_range_meters":8000,"station_id":"ce4bhbp2rcd13ifvqesg","pricing_plan_id":"cebpf4jnsgd1na2vs0mg"},{"bike_id":"6833ac7f-55e7-46a7-8771-ab1768b33aa6","system_id":"levelo_inurba_marseille","lat":43.31166,"lon":5.38739,"is_reserved":false,"is_disabled":false,"rental_uris":{"android":"levelo://app?vid=6833ac7f-55e7-46a7-8771-ab1768b33aa6","ios":"levelo://app?vid=6833ac7f-55e7-46a7-8771-ab1768b33aa6"},"vehicle_type_id":"4","last_reported":1773696512,"current_range_meters":8000,"station_id":"ce4bgv12rcd13ifvqcp0","pricing_plan_id":"cebpf4jnsgd1na2vs0mg"},{"bike_id":"2b305a9b-7982-4e8d-8f1d-8e975931dd94","system_id":"levelo_inurba_marseille","lat":43.29201,"lon":5.39334,"is_reserved":false,"is_disabled":false,"rental_uris":{"android":"levelo://app?vid=2b305a9b-7982-4e8d-8f1d-8e975931dd94","ios":"levelo://app?vid=2b305a9b-7982-4e8d-8f1d-8e975931dd94"},"vehicle_type_id":"4","last_reported":1773696512,"current_range_meters":8000,"station_id":"ce4bh192rcd13ifvqdd0","pricing_plan_id":"cebpf4jnsgd1na2vs0mg"},{"bike_id":"39b21da8-0830-470e-a1d2-8d03480419f8","system_id":"levelo_inurba_marseille","lat":43.30743,"lon":5.44002,"is_reserved":false,"is_disabled":false,"rental_uris":{"android":"levelo://app?vid=39b21da8-0830-470e-a1d2-8d03480419f8","ios":"levelo://app?vid=39b21da8-0830-470e-a1d2-8d03480419f8"},"vehicle_type_id":"4","last_reported":1773696512,"current_range_meters":8000,"station_id":"","pricing_plan_id":"cebpf4jnsgd1na2vs0mg"},{"bike_id":"ce468619-5338-42f6-9c02-b883f67a2730","system_id":"levelo_inurba_marseille","lat":43.25723,"lon":5.41095,"is_reserved":false,"is_disabled":false,"rental_uris":{"android":"levelo://app?vid=ce468619-5338-42f6-9c02-b883f67a2730","ios":"levelo://app?vid=ce468619-5338-42f6-9c02-b883f67a2730"},"vehicle_type_id":"4","last_reported":1773696512,"current_range_meters":8000,"station_id":"ce4bhkp2rcd13ifvqgd0","pricing_plan_id":"cebpf4jnsgd1na2vs0mg"},{"bike_id":"c9c78441-890b-4b8a-a403-28974123dae8","system_id":"levelo_inurba_marseille","lat":43.29095,"lon":5.38109,"is_reserved":false,"is_disabled":false,"rental_uris":{"android":"levelo://app?vid=c9c78441-890b-4b8a-a403-28974123dae8","ios":"levelo://app?vid=c9c78441-890b-4b8a-a403-28974123dae8"},"vehicle_type_id":"4","last_reported":1773696512,"current_range_meters":8000,"station_id":"ce4bh512rcd13ifvqe2g","pricing_plan_id":"cebpf4jnsgd1na2vs0mg"},{"bike_id":"d8721eca-bc32-4d2a-9674-7c121d528c27","system_id":"levelo_inurba_marseille","lat":43.3,"lon":5.37162,"is_reserved":false,"is_disabled":false,"rental_uris":{"android":"levelo://app?vid=d8721eca-bc32-4d2a-9674-7c121d528c27","ios":"levelo://app?vid=d8721eca-bc32-4d2a-9674-7c121d528c27"},"vehicle_type_id":"4","last_reported":1773696512,"current_range_meters":8000,"station_id":"ce4bgr92rcd13ifvqc7g","pricing_plan_id":"cebpf4jnsgd1na2vs0mg"},{"bike_id":"3c6c571a-3ba4-40b9-8a29-d5d98942df6a","system_id":"levelo_inurba_marseille","lat":43.29717,"lon":5.36604,"is_reserved":false,"is_disabled":false,"rental_uris":{"android":"levelo://app?vid=3c6c571a-3ba4-40b9-8a29-d5d98942df6a","ios":"levelo://app?vid=3c6c571a-3ba4-40b9-8a29-d5d98942df6a"},"vehicle_type_id":"4","last_reported":1773696512,"current_range_meters":8000,"station_id":"ce4bgn12rcd13ifvqbt0","pricing_plan_id":"cebpf4jnsgd1na2vs0mg"},{"bike_id":"de37d312-895c-4d9a-a732-dab830fd8951","system_id":"levelo_inurba_marseille","lat":43.28651,"lon":5.36358,"is_reserved":false,"is_disabled":false,"rental_uris":{"android":"levelo://app?vid=de37d312-895c-4d9a-a732-dab830fd8951","ios":"levelo://app?vid=de37d312-895c-4d9a-a732-dab830fd8951"},"vehicle_type_id":"4","last_reported":1773696512,"current_range_meters":8000,"station_id":"ce4bhah2rcd13ifvqej0","pricing_plan_id":"cebpf4jnsgd1na2vs0mg"},{"bike_id":"5f89a99f-ff18-4e64-8f16-de7dc256b202","system_id":"levelo_inurba_marseille","lat":43.27953,"lon":5.41603,"is_reserved":false,"is_disabled":false,"rental_uris":{"android":"levelo://app?vid=5f89a99f-ff18-4e64-8f16-de7dc256b202","ios":"levelo://app?vid=5f89a99f-ff18-4e64-8f16-de7dc256b202"},"vehicle_type_id":"4","last_reported":1773696512,"current_range_meters":8000,"station_id":"","pricing_plan_id":"cebpf4jnsgd1na2vs0mg"},{"bike_id":"edbf7259-fee1-4917-8333-f321aca11081","system_id":"levelo_inurba_marseille","lat":43.3031,"lon":5.40448,"is_reserved":false,"is_disabled":false,"rental_uris":{"android":"levelo://app?vid=edbf7259-fee1-4917-8333-f321aca11081","ios":"levelo://app?vid=edbf7259-fee1-4917-8333-f321aca11081"},"vehicle_type_id":"4","last_reported":1773696512,"current_range_meters":8000,"station_id":"ce4bh012rcd13ifvqd10","pricing_plan_id":"cebpf4jnsgd1na2vs0mg"},{"bike_id":"f144629b-c9ea-423a-8941-3b62db104992","system_id":"levelo_inurba_marseille","lat":43.28554,"lon":5.44083,"is_reserved":false,"is_disabled":false,"rental_uris":{"android":"levelo://app?vid=f144629b-c9ea-423a-8941-3b62db104992","ios":"levelo://app?vid=f144629b-c9ea-423a-8941-3b62db104992"},"vehicle_type_id":"4","last_reported":1773696512,"current_range_meters":8000,"station_id":"st_d3j3df2ikq2c7380ej80","pricing_plan_id":"cebpf4jnsgd1na2vs0mg"},{"bike_id":"f80a0e4c-d57a-49ca-bb04-5e2145b03e21","system_id":"levelo_inurba_marseille","lat":43.24316,"lon":5.40233,"is_reserved":false,"is_disabled":false,"rental_uris":{"android":"levelo://app?vid=f80a0e4c-d57a-49ca-bb04-5e2145b03e21","ios":"levelo://app?vid=f80a0e4c-d57a-49ca-bb04-5e2145b03e21"},"vehicle_type_id":"4","last_reported":1773696512,"current_range_meters":8000,"station_id":"","pricing_plan_id":"cebpf4jnsgd1na2vs0mg"},{"bike_id":"dc90c9c6-4d31-4538-a7d0-1b6c7bdaf8d3","system_id":"levelo_inurba_marseille","lat":43.31159,"lon":5.38732,"is_reserved":false,"is_disabled":false,"rental_uris":{"android":"levelo://app?vid=dc90c9c6-4d31-4538-a7d0-1b6c7bdaf8d3","ios":"levelo://app?vid=dc90c9c6-4d31-4538-a7d0-1b6c7bdaf8d3"},"vehicle_type_id":"4","last_reported":1773696512,"current_range_meters":8000,"station_id":"ce4bgv12rcd13ifvqcp0","pricing_plan_id":"cebpf4jnsgd1na2vs0mg"},{"bike_id":"9a4bbdec-3e83-48ee-978f-aeba653aaf1f","system_id":"levelo_inurba_marseille","lat":43.2865,"lon":5.3636,"is_reserved":false,"is_disabled":false,"rental_uris":{"android":"levelo://app?vid=9a4bbdec-3e83-48ee-978f-aeba653aaf1f","ios":"levelo://app?vid=9a4bbdec-3e83-48ee-978f-aeba653aaf1f"},"vehicle_type_id":"4","last_reported":1773696512,"current_range_meters":8000,"station_id":"ce4bhah2rcd13ifvqej0","pricing_plan_id":"cebpf4jnsgd1na2vs0mg"},{"bike_id":"a8d16a38-1e1f-4098-97ea-af865e0d84d0","system_id":"levelo_inurba_marseille","lat":43.30734,"lon":5.42486,"is_reserved":false,"is_disabled":false,"rental_uris":{"android":"levelo://app?vid=a8d16a38-1e1f-4098-97ea-af865e0d84d0","ios":"levelo://app?vid=a8d16a38-1e1f-4098-97ea-af865e0d84d0"},"vehicle_type_id":"4","last_reported":1773696512,"current_range_meters":8000,"station_id":"st_cvj6ca6bvosntc0bfgr0","pricing_plan_id":"cebpf4jnsgd1na2vs0mg"},{"bike_id":"bc8f0dcd-b887-435f-81f3-d7c31bdc7ccb","system_id":"levelo_inurba_marseille","lat":43.29727,"lon":5.38746,"is_reserved":false,"is_disabled":false,"rental_uris":{"android":"levelo://app?vid=bc8f0dcd-b887-435f-81f3-d7c31bdc7ccb","ios":"levelo://app?vid=bc8f0dcd-b887-435f-81f3-d7c31bdc7ccb"},"vehicle_type_id":"4","last_reported":1773696512,"current_range_meters":8000,"station_id":"","pricing_plan_id":"cebpf4jnsgd1na2vs0mg"},{"bike_id":"70f5dc2f-023d-4884-a29b-a1fd8ac95735","system_id":"levelo_inurba_marseille","lat":43.22546,"lon":5.41622,"is_reserved":false,"is_disabled":false,"rental_uris":{"android":"levelo://app?vid=70f5dc2f-023d-4884-a29b-a1fd8ac95735","ios":"levelo://app?vid=70f5dc2f-023d-4884-a29b-a1fd8ac95735"},"vehicle_type_id":"4","last_reported":1773696512,"current_range_meters":8400,"station_id":"st_d2o4gvlbi1j2169b742g","pricing_plan_id":"cebpf4jnsgd1na2vs0mg"},{"bike_id":"afebd6f1-ad36-4715-af7d-d0ee74a946c8","system_id":"levelo_inurba_marseille","lat":43.27368,"lon":5.36264,"is_reserved":false,"is_disabled":false,"rental_uris":{"android":"levelo://app?vid=afebd6f1-ad36-4715-af7d-d0ee74a946c8","ios":"levelo://app?vid=afebd6f1-ad36-4715-af7d-d0ee74a946c8"},"vehicle_type_id":"4","last_reported":1773696512,"current_range_meters":8400,"station_id":"ce4bhbh2rcd13ifvqeo0","pricing_plan_id":"cebpf4jnsgd1na2vs0mg"},{"bike_id":"0d78d831-edcd-4155-a7f6-b62c63e038fe","system_id":"levelo_inurba_marseille","lat":43.3303,"lon":5.39015,"is_reserved":false,"is_disabled":false,"rental_uris":{"android":"levelo://app?vid=0d78d831-edcd-4155-a7f6-b62c63e038fe","ios":"levelo://app?vid=0d78d831-edcd-4155-a7f6-b62c63e038fe"},"vehicle_type_id":"4","last_reported":1773696512,"current_range_meters":8400,"station_id":"ce4bhr92rcd13ifvqhrg","pricing_plan_id":"cebpf4jnsgd1na2vs0mg"},{"bike_id":"e3cbef5e-856d-4878-a9dd-a74b00a2bbd4","system_id":"levelo_inurba_marseille","lat":43.23052,"lon":5.3549,"is_reserved":false,"is_disabled":false,"rental_uris":{"android":"levelo://app?vid=e3cbef5e-856d-4878-a9dd-a74b00a2bbd4","ios":"levelo://app?vid=e3cbef5e-856d-4878-a9dd-a74b00a2bbd4"},"vehicle_type_id":"4","last_reported":1773696512,"current_range_meters":8400,"station_id":"cpo3342slgdg3j2ifvpg","pricing_plan_id":"cebpf4jnsgd1na2vs0mg"},{"bike_id":"dd8558f2-de46-4a6f-a78a-82f6e24400fe","system_id":"levelo_inurba_marseille","lat":43.27493,"lon":5.41623,"is_reserved":false,"is_disabled":false,"rental_uris":{"android":"levelo://app?vid=dd8558f2-de46-4a6f-a78a-82f6e24400fe","ios":"levelo://app?vid=dd8558f2-de46-4a6f-a78a-82f6e24400fe"},"vehicle_type_id":"4","last_reported":1773696512,"current_range_meters":8400,"station_id":"st_d6im8g6chgec73a5pndg","pricing_plan_id":"cebpf4jnsgd1na2vs0mg"},{"bike_id":"e0c5b89b-a605-4cd7-832a-ebeb999b977d","system_id":"levelo_inurba_marseille","lat":43.27828,"lon":5.40676,"is_reserved":false,"is_disabled":false,"rental_uris":{"android":"levelo://app?vid=e0c5b89b-a605-4cd7-832a-ebeb999b977d","ios":"levelo://app?vid=e0c5b89b-a605-4cd7-832a-ebeb999b977d"},"vehicle_type_id":"4","last_reported":1773696512,"current_range_meters":8400,"station_id":"ce4bhnh2rcd13ifvqgtg","pricing_plan_id":"cebpf4jnsgd1na2vs0mg"},{"bike_id":"86f5ca5a-43c3-42be-98e4-dd293014b338","system_id":"levelo_inurba_marseille","lat":43.27525,"lon":5.41579,"is_reserved":false,"is_disabled":false,"rental_uris":{"android":"levelo://app?vid=86f5ca5a-43c3-42be-98e4-dd293014b338","ios":"levelo://app?vid=86f5ca5a-43c3-42be-98e4-dd293014b338"},"vehicle_type_id":"4","last_reported":1773696512,"current_range_meters":8400,"station_id":"st_d6im8g6chgec73a5pndg","pricing_plan_id":"cebpf4jnsgd1na2vs0mg"},{"bike_id":"69367e57-392e-4711-a0a9-7d5d0b1ee4d1","system_id":"levelo_inurba_marseille","lat":43.2835,"lon":5.38105,"is_reserved":false,"is_disabled":false,"rental_uris":{"android":"levelo://app?vid=69367e57-392e-4711-a0a9-7d5d0b1ee4d1","ios":"levelo://app?vid=69367e57-392e-4711-a0a9-7d5d0b1ee4d1"},"vehicle_type_id":"4","last_reported":1773696512,"current_range_meters":8400,"station_id":"ce4bh412rcd13ifvqdr0","pricing_plan_id":"cebpf4jnsgd1na2vs0mg"},{"bike_id":"2fb99335-cc3c-4ea1-b61c-2cc0898375b6","system_id":"levelo_inurba_marseille","lat":43.29533,"lon":5.38533,"is_reserved":false,"is_disabled":false,"rental_uris":{"android":"levelo://app?vid=2fb99335-cc3c-4ea1-b61c-2cc0898375b6","ios":"levelo://app?vid=2fb99335-cc3c-4ea1-b61c-2cc0898375b6"},"vehicle_type_id":"4","last_reported":1773696512,"current_range_meters":8400,"station_id":"ce4bgih2rcd13ifvqba0","pricing_plan_id":"cebpf4jnsgd1na2vs0mg"},{"bike_id":"fc9e1ad4-6717-4128-9222-3bb01969928b","system_id":"levelo_inurba_marseille","lat":43.28408,"lon":5.37527,"is_reserved":false,"is_disabled":false,"rental_uris":{"android":"levelo://app?vid=fc9e1ad4-6717-4128-9222-3bb01969928b","ios":"levelo://app?vid=fc9e1ad4-6717-4128-9222-3bb01969928b"},"vehicle_type_id":"4","last_reported":1773696512,"current_range_meters":8400,"station_id":"ce4bh412rcd13ifvqds0","pricing_plan_id":"cebpf4jnsgd1na2vs0mg"},{"bike_id":"c5068d6e-fa35-466c-8d97-fd6e210c6de3","system_id":"levelo_inurba_marseille","lat":43.2496,"lon":5.40475,"is_reserved":false,"is_disabled":false,"rental_uris":{"android":"levelo://app?vid=c5068d6e-fa35-466c-8d97-fd6e210c6de3","ios":"levelo://app?vid=c5068d6e-fa35-466c-8d97-fd6e210c6de3"},"vehicle_type_id":"4","last_reported":1773696512,"current_range_meters":8400,"station_id":"st_d2ngiaodas8pm72gd1h0","pricing_plan_id":"cebpf4jnsgd1na2vs0mg"},{"bike_id":"914f680f-0073-41d5-8a40-4d7e34a4e9b2","system_id":"levelo_inurba_marseille","lat":43.22905,"lon":5.35386,"is_reserved":false,"is_disabled":false,"rental_uris":{"android":"levelo://app?vid=914f680f-0073-41d5-8a40-4d7e34a4e9b2","ios":"levelo://app?vid=914f680f-0073-41d5-8a40-4d7e34a4e9b2"},"vehicle_type_id":"4","last_reported":1773696512,"current_range_meters":8400,"station_id":"cpo3532slgdg3j2ikp40","pricing_plan_id":"cebpf4jnsgd1na2vs0mg"},{"bike_id":"5ba62be3-39e9-4667-b8d1-ae0198fa2406","system_id":"levelo_inurba_marseille","lat":43.25086,"lon":5.39517,"is_reserved":false,"is_disabled":false,"rental_uris":{"android":"levelo://app?vid=5ba62be3-39e9-4667-b8d1-ae0198fa2406","ios":"levelo://app?vid=5ba62be3-39e9-4667-b8d1-ae0198fa2406"},"vehicle_type_id":"4","last_reported":1773696512,"current_range_meters":8400,"station_id":"ce4bhm12rcd13ifvqgkg","pricing_plan_id":"cebpf4jnsgd1na2vs0mg"},{"bike_id":"3e92e118-f3f1-439d-bfb2-a7f837d5e846","system_id":"levelo_inurba_marseille","lat":43.29539,"lon":5.38543,"is_reserved":false,"is_disabled":false,"rental_uris":{"android":"levelo://app?vid=3e92e118-f3f1-439d-bfb2-a7f837d5e846","ios":"levelo://app?vid=3e92e118-f3f1-439d-bfb2-a7f837d5e846"},"vehicle_type_id":"4","last_reported":1773696512,"current_range_meters":8400,"station_id":"ce4bgih2rcd13ifvqba0","pricing_plan_id":"cebpf4jnsgd1na2vs0mg"},{"bike_id":"4f82b206-5c61-42ba-98f8-68a02db3941b","system_id":"levelo_inurba_marseille","lat":43.28412,"lon":5.37512,"is_reserved":false,"is_disabled":false,"rental_uris":{"android":"levelo://app?vid=4f82b206-5c61-42ba-98f8-68a02db3941b","ios":"levelo://app?vid=4f82b206-5c61-42ba-98f8-68a02db3941b"},"vehicle_type_id":"4","last_reported":1773696512,"current_range_meters":8400,"station_id":"ce4bh412rcd13ifvqds0","pricing_plan_id":"cebpf4jnsgd1na2vs0mg"},{"bike_id":"4ab18dc6-a011-496c-9dde-ff6c3dfdd1aa","system_id":"levelo_inurba_marseille","lat":43.29761,"lon":5.42765,"is_reserved":false,"is_disabled":false,"rental_uris":{"android":"levelo://app?vid=4ab18dc6-a011-496c-9dde-ff6c3dfdd1aa","ios":"levelo://app?vid=4ab18dc6-a011-496c-9dde-ff6c3dfdd1aa"},"vehicle_type_id":"4","last_reported":1773696512,"current_range_meters":8400,"station_id":"st_d3md5207bmas73dh9klg","pricing_plan_id":"cebpf4jnsgd1na2vs0mg"},{"bike_id":"c8be7d1b-3fac-4b82-b59e-2f9d2b16ff77","system_id":"levelo_inurba_marseille","lat":43.28488,"lon":5.48377,"is_reserved":false,"is_disabled":false,"rental_uris":{"android":"levelo://app?vid=c8be7d1b-3fac-4b82-b59e-2f9d2b16ff77","ios":"levelo://app?vid=c8be7d1b-3fac-4b82-b59e-2f9d2b16ff77"},"vehicle_type_id":"4","last_reported":1773696512,"current_range_meters":8400,"station_id":"","pricing_plan_id":"cebpf4jnsgd1na2vs0mg"},{"bike_id":"a06955b3-2d6d-4c13-9926-d37354e87d37","system_id":"levelo_inurba_marseille","lat":43.25798,"lon":5.39435,"is_reserved":false,"is_disabled":false,"rental_uris":{"android":"levelo://app?vid=a06955b3-2d6d-4c13-9926-d37354e87d37","ios":"levelo://app?vid=a06955b3-2d6d-4c13-9926-d37354e87d37"},"vehicle_type_id":"4","last_reported":1773696512,"current_range_meters":8400,"station_id":"ce4bhip2rcd13ifvqft0","pricing_plan_id":"cebpf4jnsgd1na2vs0mg"},{"bike_id":"271764bc-6e33-48ae-8003-54d63581f07e","system_id":"levelo_inurba_marseille","lat":43.28992,"lon":5.38655,"is_reserved":false,"is_disabled":false,"rental_uris":{"android":"levelo://app?vid=271764bc-6e33-48ae-8003-54d63581f07e","ios":"levelo://app?vid=271764bc-6e33-48ae-8003-54d63581f07e"},"vehicle_type_id":"4","last_reported":1773696512,"current_range_meters":8400,"station_id":"ce4bh4p2rcd13ifvqe0g","pricing_plan_id":"cebpf4jnsgd1na2vs0mg"},{"bike_id":"e532ffda-e3e1-4a75-8c27-e11e295e16ed","system_id":"levelo_inurba_marseille","lat":43.29188,"lon":5.35819,"is_reserved":false,"is_disabled":false,"rental_uris":{"android":"levelo://app?vid=e532ffda-e3e1-4a75-8c27-e11e295e16ed","ios":"levelo://app?vid=e532ffda-e3e1-4a75-8c27-e11e295e16ed"},"vehicle_type_id":"4","last_reported":1773696512,"current_range_meters":8400,"station_id":"ce4bhb12rcd13ifvqel0","pricing_plan_id":"cebpf4jnsgd1na2vs0mg"},{"bike_id":"a412617c-f628-4d7d-bdac-6d93931fd973","system_id":"levelo_inurba_marseille","lat":43.3017,"lon":5.43719,"is_reserved":false,"is_disabled":false,"rental_uris":{"android":"levelo://app?vid=a412617c-f628-4d7d-bdac-6d93931fd973","ios":"levelo://app?vid=a412617c-f628-4d7d-bdac-6d93931fd973"},"vehicle_type_id":"4","last_reported":1773696512,"current_range_meters":8400,"station_id":"","pricing_plan_id":"cebpf4jnsgd1na2vs0mg"},{"bike_id":"11a650ec-404b-47dc-a3ed-5c9b7a724b65","system_id":"levelo_inurba_marseille","lat":43.28674,"lon":5.38654,"is_reserved":false,"is_disabled":false,"rental_uris":{"android":"levelo://app?vid=11a650ec-404b-47dc-a3ed-5c9b7a724b65","ios":"levelo://app?vid=11a650ec-404b-47dc-a3ed-5c9b7a724b65"},"vehicle_type_id":"4","last_reported":1773696512,"current_range_meters":8400,"station_id":"ce4bh492rcd13ifvqdug","pricing_plan_id":"cebpf4jnsgd1na2vs0mg"},{"bike_id":"a43f5778-0a57-44af-89f8-2d820cab149e","system_id":"levelo_inurba_marseille","lat":43.21751,"lon":5.34604,"is_reserved":false,"is_disabled":false,"rental_uris":{"android":"levelo://app?vid=a43f5778-0a57-44af-89f8-2d820cab149e","ios":"levelo://app?vid=a43f5778-0a57-44af-89f8-2d820cab149e"},"vehicle_type_id":"4","last_reported":1773696512,"current_range_meters":8400,"station_id":"st_cvj6r9ubvosntc0bgbag","pricing_plan_id":"cebpf4jnsgd1na2vs0mg"},{"bike_id":"4a5368c7-ef65-4b3c-83b2-a1f3a192e6ce","system_id":"levelo_inurba_marseille","lat":43.21732,"lon":5.34596,"is_reserved":false,"is_disabled":false,"rental_uris":{"android":"levelo://app?vid=4a5368c7-ef65-4b3c-83b2-a1f3a192e6ce","ios":"levelo://app?vid=4a5368c7-ef65-4b3c-83b2-a1f3a192e6ce"},"vehicle_type_id":"4","last_reported":1773696512,"current_range_meters":8800,"station_id":"st_cvj6r9ubvosntc0bgbag","pricing_plan_id":"cebpf4jnsgd1na2vs0mg"},{"bike_id":"3729112e-ffd9-483c-8ca8-963145a03be4","system_id":"levelo_inurba_marseille","lat":43.29606,"lon":5.37709,"is_reserved":false,"is_disabled":false,"rental_uris":{"android":"levelo://app?vid=3729112e-ffd9-483c-8ca8-963145a03be4","ios":"levelo://app?vid=3729112e-ffd9-483c-8ca8-963145a03be4"},"vehicle_type_id":"4","last_reported":1773696512,"current_range_meters":8800,"station_id":"ce4bgi92rcd13ifvqb90","pricing_plan_id":"cebpf4jnsgd1na2vs0mg"},{"bike_id":"3fd9b977-bd80-48b1-9c56-de1c9b173b76","system_id":"levelo_inurba_marseille","lat":43.2379,"lon":5.36629,"is_reserved":false,"is_disabled":false,"rental_uris":{"android":"levelo://app?vid=3fd9b977-bd80-48b1-9c56-de1c9b173b76","ios":"levelo://app?vid=3fd9b977-bd80-48b1-9c56-de1c9b173b76"},"vehicle_type_id":"4","last_reported":1773696512,"current_range_meters":8800,"station_id":"st_d3nk18o9ro0c73en2l3g","pricing_plan_id":"cebpf4jnsgd1na2vs0mg"},{"bike_id":"79cded9c-12c2-42da-980c-3dc499ca9932","system_id":"levelo_inurba_marseille","lat":43.29739,"lon":5.3876,"is_reserved":false,"is_disabled":false,"rental_uris":{"android":"levelo://app?vid=79cded9c-12c2-42da-980c-3dc499ca9932","ios":"levelo://app?vid=79cded9c-12c2-42da-980c-3dc499ca9932"},"vehicle_type_id":"4","last_reported":1773696512,"current_range_meters":8800,"station_id":"","pricing_plan_id":"cebpf4jnsgd1na2vs0mg"},{"bike_id":"dc23daad-4dee-4502-a50b-d22b3eb16921","system_id":"levelo_inurba_marseille","lat":43.24811,"lon":5.37457,"is_reserved":false,"is_disabled":false,"rental_uris":{"android":"levelo://app?vid=dc23daad-4dee-4502-a50b-d22b3eb16921","ios":"levelo://app?vid=dc23daad-4dee-4502-a50b-d22b3eb16921"},"vehicle_type_id":"4","last_reported":1773696512,"current_range_meters":8800,"station_id":"ce4bhgh2rcd13ifvqfb0","pricing_plan_id":"cebpf4jnsgd1na2vs0mg"},{"bike_id":"ad3aeb7a-c19e-4a87-84b2-1697e07aae46","system_id":"levelo_inurba_marseille","lat":43.29516,"lon":5.39422,"is_reserved":false,"is_disabled":false,"rental_uris":{"android":"levelo://app?vid=ad3aeb7a-c19e-4a87-84b2-1697e07aae46","ios":"levelo://app?vid=ad3aeb7a-c19e-4a87-84b2-1697e07aae46"},"vehicle_type_id":"4","last_reported":1773696512,"current_range_meters":8800,"station_id":"ce4bh292rcd13ifvqdf0","pricing_plan_id":"cebpf4jnsgd1na2vs0mg"},{"bike_id":"ea1f0381-1e97-4f63-ab3d-6e793a69c46c","system_id":"levelo_inurba_marseille","lat":43.25871,"lon":5.39899,"is_reserved":false,"is_disabled":false,"rental_uris":{"android":"levelo://app?vid=ea1f0381-1e97-4f63-ab3d-6e793a69c46c","ios":"levelo://app?vid=ea1f0381-1e97-4f63-ab3d-6e793a69c46c"},"vehicle_type_id":"4","last_reported":1773696512,"current_range_meters":8800,"station_id":"ce4bhl92rcd13ifvqghg","pricing_plan_id":"cebpf4jnsgd1na2vs0mg"},{"bike_id":"c0b2ab3a-ddb0-4968-adf7-e5ae2cd0abcd","system_id":"levelo_inurba_marseille","lat":43.23197,"lon":5.35546,"is_reserved":false,"is_disabled":false,"rental_uris":{"android":"levelo://app?vid=c0b2ab3a-ddb0-4968-adf7-e5ae2cd0abcd","ios":"levelo://app?vid=c0b2ab3a-ddb0-4968-adf7-e5ae2cd0abcd"},"vehicle_type_id":"4","last_reported":1773696512,"current_range_meters":8800,"station_id":"ce4bhu92rcd13ifvqi70","pricing_plan_id":"cebpf4jnsgd1na2vs0mg"},{"bike_id":"a9ea1cdc-3087-49d2-8431-42111ecb501e","system_id":"levelo_inurba_marseille","lat":43.21189,"lon":5.35067,"is_reserved":false,"is_disabled":false,"rental_uris":{"android":"levelo://app?vid=a9ea1cdc-3087-49d2-8431-42111ecb501e","ios":"levelo://app?vid=a9ea1cdc-3087-49d2-8431-42111ecb501e"},"vehicle_type_id":"4","last_reported":1773696512,"current_range_meters":8800,"station_id":"st_cvj6sg6p6f1abm77japg","pricing_plan_id":"cebpf4jnsgd1na2vs0mg"},{"bike_id":"1c2eeded-2b83-4c92-a1b4-02ff58ffc9c9","system_id":"levelo_inurba_marseille","lat":43.28929,"lon":5.36395,"is_reserved":false,"is_disabled":false,"rental_uris":{"android":"levelo://app?vid=1c2eeded-2b83-4c92-a1b4-02ff58ffc9c9","ios":"levelo://app?vid=1c2eeded-2b83-4c92-a1b4-02ff58ffc9c9"},"vehicle_type_id":"4","last_reported":1773696512,"current_range_meters":8800,"station_id":"ce4bhc92rcd13ifvqetg","pricing_plan_id":"cebpf4jnsgd1na2vs0mg"},{"bike_id":"fbb3aca8-55b6-4646-ac1a-997999b6b08f","system_id":"levelo_inurba_marseille","lat":43.29551,"lon":5.39965,"is_reserved":false,"is_disabled":false,"rental_uris":{"android":"levelo://app?vid=fbb3aca8-55b6-4646-ac1a-997999b6b08f","ios":"levelo://app?vid=fbb3aca8-55b6-4646-ac1a-997999b6b08f"},"vehicle_type_id":"4","last_reported":1773696512,"current_range_meters":8800,"station_id":"ce4bh312rcd13ifvqdj0","pricing_plan_id":"cebpf4jnsgd1na2vs0mg"},{"bike_id":"8d5e8fd3-e2d1-4788-a586-6e671925e300","system_id":"levelo_inurba_marseille","lat":43.22942,"lon":5.35339,"is_reserved":false,"is_disabled":false,"rental_uris":{"android":"levelo://app?vid=8d5e8fd3-e2d1-4788-a586-6e671925e300","ios":"levelo://app?vid=8d5e8fd3-e2d1-4788-a586-6e671925e300"},"vehicle_type_id":"4","last_reported":1773696512,"current_range_meters":8800,"station_id":"cpo3532slgdg3j2ikp40","pricing_plan_id":"cebpf4jnsgd1na2vs0mg"},{"bike_id":"f97e8681-60a9-4e2b-b5cd-897892e96788","system_id":"levelo_inurba_marseille","lat":43.24994,"lon":5.38931,"is_reserved":false,"is_disabled":false,"rental_uris":{"android":"levelo://app?vid=f97e8681-60a9-4e2b-b5cd-897892e96788","ios":"levelo://app?vid=f97e8681-60a9-4e2b-b5cd-897892e96788"},"vehicle_type_id":"4","last_reported":1773696512,"current_range_meters":8800,"station_id":"ce4bhgp2rcd13ifvqfd0","pricing_plan_id":"cebpf4jnsgd1na2vs0mg"},{"bike_id":"394e9a10-4994-45e4-891f-3d0d082955e5","system_id":"levelo_inurba_marseille","lat":43.30324,"lon":5.40432,"is_reserved":false,"is_disabled":false,"rental_uris":{"android":"levelo://app?vid=394e9a10-4994-45e4-891f-3d0d082955e5","ios":"levelo://app?vid=394e9a10-4994-45e4-891f-3d0d082955e5"},"vehicle_type_id":"4","last_reported":1773696512,"current_range_meters":8800,"station_id":"ce4bh012rcd13ifvqd10","pricing_plan_id":"cebpf4jnsgd1na2vs0mg"},{"bike_id":"5dcb4815-6000-4648-acbd-5f58233ed44d","system_id":"levelo_inurba_marseille","lat":43.3014,"lon":5.38096,"is_reserved":false,"is_disabled":true,"rental_uris":{"android":"levelo://app?vid=5dcb4815-6000-4648-acbd-5f58233ed44d","ios":"levelo://app?vid=5dcb4815-6000-4648-acbd-5f58233ed44d"},"vehicle_type_id":"4","last_reported":1773696512,"current_range_meters":8800,"station_id":"ce4bgjp2rcd13ifvqbh0","pricing_plan_id":"cebpf4jnsgd1na2vs0mg"},{"bike_id":"e3cdee97-285b-44dd-b4f0-9d7ee0bc8e94","system_id":"levelo_inurba_marseille","lat":43.21159,"lon":5.35071,"is_reserved":false,"is_disabled":false,"rental_uris":{"android":"levelo://app?vid=e3cdee97-285b-44dd-b4f0-9d7ee0bc8e94","ios":"levelo://app?vid=e3cdee97-285b-44dd-b4f0-9d7ee0bc8e94"},"vehicle_type_id":"4","last_reported":1773696512,"current_range_meters":8800,"station_id":"st_cvj6sg6p6f1abm77japg","pricing_plan_id":"cebpf4jnsgd1na2vs0mg"},{"bike_id":"004eca10-d53c-4c3e-a794-3a3f18d4e111","system_id":"levelo_inurba_marseille","lat":43.29238,"lon":5.40903,"is_reserved":false,"is_disabled":false,"rental_uris":{"android":"levelo://app?vid=004eca10-d53c-4c3e-a794-3a3f18d4e111","ios":"levelo://app?vid=004eca10-d53c-4c3e-a794-3a3f18d4e111"},"vehicle_type_id":"4","last_reported":1773696512,"current_range_meters":8800,"station_id":"ce4bh192rcd13ifvqdc0","pricing_plan_id":"cebpf4jnsgd1na2vs0mg"},{"bike_id":"5793868a-4d81-41f5-8b83-6ab0e33cf8bb","system_id":"levelo_inurba_marseille","lat":43.30966,"lon":5.39054,"is_reserved":false,"is_disabled":true,"rental_uris":{"android":"levelo://app?vid=5793868a-4d81-41f5-8b83-6ab0e33cf8bb","ios":"levelo://app?vid=5793868a-4d81-41f5-8b83-6ab0e33cf8bb"},"vehicle_type_id":"4","last_reported":1773696512,"current_range_meters":8800,"station_id":"ce4bgup2rcd13ifvqco0","pricing_plan_id":"cebpf4jnsgd1na2vs0mg"},{"bike_id":"2c246cd0-1447-4211-998d-6b7d0cbe68e3","system_id":"levelo_inurba_marseille","lat":43.29903,"lon":5.43673,"is_reserved":false,"is_disabled":false,"rental_uris":{"android":"levelo://app?vid=2c246cd0-1447-4211-998d-6b7d0cbe68e3","ios":"levelo://app?vid=2c246cd0-1447-4211-998d-6b7d0cbe68e3"},"vehicle_type_id":"4","last_reported":1773696512,"current_range_meters":8800,"station_id":"ce4bhpp2rcd13ifvqhfg","pricing_plan_id":"cebpf4jnsgd1na2vs0mg"},{"bike_id":"701da738-d1f9-4e93-907d-4f308ea80e6a","system_id":"levelo_inurba_marseille","lat":43.2558,"lon":5.38253,"is_reserved":false,"is_disabled":false,"rental_uris":{"android":"levelo://app?vid=701da738-d1f9-4e93-907d-4f308ea80e6a","ios":"levelo://app?vid=701da738-d1f9-4e93-907d-4f308ea80e6a"},"vehicle_type_id":"4","last_reported":1773696512,"current_range_meters":8800,"station_id":"ce4bhih2rcd13ifvqfs0","pricing_plan_id":"cebpf4jnsgd1na2vs0mg"},