{"last_updated":1777292057,"ttl":60,"version":"2.2","data":{"bikes":[{"bike_id":"5fdff1d7-b2d7-4e39-ad7f-00ed09411d1d","system_id":"levelo_inurba_marseille","lat":43.28492,"lon":5.48377,"is_reserved":false,"is_disabled":false,"rental_uris":{"android":"levelo://app?vid=5fdff1d7-b2d7-4e39-ad7f-00ed09411d1d","ios":"levelo://app?vid=5fdff1d7-b2d7-4e39-ad7f-00ed09411d1d"},"vehicle_type_id":"4","last_reported":1777292058,"current_range_meters":2800,"station_id":"st_d3svhcjqgbts73a3dn0g","pricing_plan_id":"cebpf4jnsgd1na2vs0mg"},{"bike_id":"757fdfcb-45d7-4c45-8e18-f9ab346e8260","system_id":"levelo_inurba_marseille","lat":43.25439,"lon":5.38152,"is_reserved":false,"is_disabled":false,"rental_uris":{"android":"levelo://app?vid=757fdfcb-45d7-4c45-8e18-f9ab346e8260","ios":"levelo://app?vid=757fdfcb-45d7-4c45-8e18-f9ab346e8260"},"vehicle_type_id":"4","last_reported":1777292058,"current_range_meters":2800,"station_id":"","pricing_plan_id":"cebpf4jnsgd1na2vs0mg"},{"bike_id":"ae39d7c4-205f-4324-8d19-ae83888cf973","system_id":"levelo_inurba_marseille","lat":43.28363,"lon":5.38113,"is_reserved":false,"is_disabled":true,"rental_uris":{"android":"levelo://app?vid=ae39d7c4-205f-4324-8d19-ae83888cf973","ios":"levelo://app?vid=ae39d7c4-205f-4324-8d19-ae83888cf973"},"vehicle_type_id":"4","last_reported":1777292058,"current_range_meters":2800,"station_id":"ce4bh412rcd13ifvqdr0","pricing_plan_id":"cebpf4jnsgd1na2vs0mg"},{"bike_id":"8e864376-8b3a-42df-abb1-7e5139c8e42c","system_id":"levelo_inurba_marseille","lat":43.24627,"lon":5.43159,"is_reserved":false,"is_disabled":false,"rental_uris":{"android":"levelo://app?vid=8e864376-8b3a-42df-abb1-7e5139c8e42c","ios":"levelo://app?vid=8e864376-8b3a-42df-abb1-7e5139c8e42c"},"vehicle_type_id":"4","last_reported":1777292058,"current_range_meters":2800,"station_id":"st_d2m6c4gdas8pm72e190g","pricing_plan_id":"cebpf4jnsgd1na2vs0mg"},{"bike_id":"6b60b3c8-da35-492c-9411-418199a97ad7","system_id":"levelo_inurba_marseille","lat":43.28483,"lon":5.48379,"is_reserved":false,"is_disabled":false,"rental_uris":{"android":"levelo://app?vid=6b60b3c8-da35-492c-9411-418199a97ad7","ios":"levelo://app?vid=6b60b3c8-da35-492c-9411-418199a97ad7"},"vehicle_type_id":"4","last_reported":1777292058,"current_range_meters":2800,"station_id":"","pricing_plan_id":"cebpf4jnsgd1na2vs0mg"},{"bike_id":"a4e0de55-f192-4960-9a67-538436bafa06","system_id":"levelo_inurba_marseille","lat":43.28184,"lon":5.39051,"is_reserved":false,"is_disabled":false,"rental_uris":{"android":"levelo://app?vid=a4e0de55-f192-4960-9a67-538436bafa06","ios":"levelo://app?vid=a4e0de55-f192-4960-9a67-538436bafa06"},"vehicle_type_id":"4","last_reported":1777292058,"current_range_meters":2800,"station_id":"","pricing_plan_id":"cebpf4jnsgd1na2vs0mg"},{"bike_id":"f6a6a40e-05f0-4393-b8b0-4334610bb5c1","system_id":"levelo_inurba_marseille","lat":43.28271,"lon":5.35076,"is_reserved":false,"is_disabled":false,"rental_uris":{"android":"levelo://app?vid=f6a6a40e-05f0-4393-b8b0-4334610bb5c1","ios":"levelo://app?vid=f6a6a40e-05f0-4393-b8b0-4334610bb5c1"},"vehicle_type_id":"4","last_reported":1777292058,"current_range_meters":2800,"station_id":"ce4bhbp2rcd13ifvqerg","pricing_plan_id":"cebpf4jnsgd1na2vs0mg"},{"bike_id":"fff509b0-5473-4bee-b5d6-79a70b026164","system_id":"levelo_inurba_marseille","lat":43.29018,"lon":5.38129,"is_reserved":false,"is_disabled":false,"rental_uris":{"android":"levelo://app?vid=fff509b0-5473-4bee-b5d6-79a70b026164","ios":"levelo://app?vid=fff509b0-5473-4bee-b5d6-79a70b026164"},"vehicle_type_id":"4","last_reported":1777292058,"current_range_meters":2800,"station_id":"ce4bh4p2rcd13ifvqe1g","pricing_plan_id":"cebpf4jnsgd1na2vs0mg"},{"bike_id":"b1075c16-6a3a-458e-a07d-9536a0849bcd","system_id":"levelo_inurba_marseille","lat":43.26365,"lon":5.41078,"is_reserved":false,"is_disabled":false,"rental_uris":{"android":"levelo://app?vid=b1075c16-6a3a-458e-a07d-9536a0849bcd","ios":"levelo://app?vid=b1075c16-6a3a-458e-a07d-9536a0849bcd"},"vehicle_type_id":"4","last_reported":1777292058,"current_range_meters":3200,"station_id":"st_d4e5ca6na9uc73bfl5fg","pricing_plan_id":"cebpf4jnsgd1na2vs0mg"},{"bike_id":"c35ef435-7351-4292-8bd0-8be9078d3a7d","system_id":"levelo_inurba_marseille","lat":43.309481,"lon":5.390292,"is_reserved":false,"is_disabled":true,"rental_uris":{"android":"levelo://app?vid=c35ef435-7351-4292-8bd0-8be9078d3a7d","ios":"levelo://app?vid=c35ef435-7351-4292-8bd0-8be9078d3a7d"},"vehicle_type_id":"4","last_reported":1777292058,"current_range_meters":3200,"station_id":"ce4bgup2rcd13ifvqco0","pricing_plan_id":"cebpf4jnsgd1na2vs0mg"},{"bike_id":"1fa7c290-baf4-43ed-aa99-7181dabef99e","system_id":"levelo_inurba_marseille","lat":43.33562,"lon":5.37464,"is_reserved":false,"is_disabled":false,"rental_uris":{"android":"levelo://app?vid=1fa7c290-baf4-43ed-aa99-7181dabef99e","ios":"levelo://app?vid=1fa7c290-baf4-43ed-aa99-7181dabef99e"},"vehicle_type_id":"4","last_reported":1777292058,"current_range_meters":3200,"station_id":"st_d46tts09ee8s73dlu43g","pricing_plan_id":"cebpf4jnsgd1na2vs0mg"},{"bike_id":"a2e61c29-3d88-4c0b-806f-a8d5b2e37b18","system_id":"levelo_inurba_marseille","lat":43.26553,"lon":5.37294,"is_reserved":false,"is_disabled":false,"rental_uris":{"android":"levelo://app?vid=a2e61c29-3d88-4c0b-806f-a8d5b2e37b18","ios":"levelo://app?vid=a2e61c29-3d88-4c0b-806f-a8d5b2e37b18"},"vehicle_type_id":"4","last_reported":1777292058,"current_range_meters":3200,"station_id":"ce4bhg12rcd13ifvqf70","pricing_plan_id":"cebpf4jnsgd1na2vs0mg"},{"bike_id":"be8d6ed7-1d7d-46e8-b447-0498c6a41d2c","system_id":"levelo_inurba_marseille","lat":43.26947,"lon":5.38903,"is_reserved":false,"is_disabled":true,"rental_uris":{"android":"levelo://app?vid=be8d6ed7-1d7d-46e8-b447-0498c6a41d2c","ios":"levelo://app?vid=be8d6ed7-1d7d-46e8-b447-0498c6a41d2c"},"vehicle_type_id":"4","last_reported":1777292058,"current_range_meters":3200,"station_id":"ce4bhhh2rcd13ifvqfl0","pricing_plan_id":"cebpf4jnsgd1na2vs0mg"},{"bike_id":"2e79f888-9059-4334-a85c-faad43e4625d","system_id":"levelo_inurba_marseille","lat":43.28266,"lon":5.3507,"is_reserved":false,"is_disabled":false,"rental_uris":{"android":"levelo://app?vid=2e79f888-9059-4334-a85c-faad43e4625d","ios":"levelo://app?vid=2e79f888-9059-4334-a85c-faad43e4625d"},"vehicle_type_id":"4","last_reported":1777292058,"current_range_meters":3200,"station_id":"ce4bhbp2rcd13ifvqerg","pricing_plan_id":"cebpf4jnsgd1na2vs0mg"},{"bike_id":"7c9f8783-6387-4155-af60-d5f693b2f1a1","system_id":"levelo_inurba_marseille","lat":43.29495,"lon":5.43283,"is_reserved":false,"is_disabled":false,"rental_uris":{"android":"levelo://app?vid=7c9f8783-6387-4155-af60-d5f693b2f1a1","ios":"levelo://app?vid=7c9f8783-6387-4155-af60-d5f693b2f1a1"},"vehicle_type_id":"4","last_reported":1777292058,"current_range_meters":3200,"station_id":"st_d3j5ugp08ojc73fj9d10","pricing_plan_id":"cebpf4jnsgd1na2vs0mg"},{"bike_id":"31ce8eff-1c0a-4202-bd1b-24b41234d06b","system_id":"levelo_inurba_marseille","lat":43.28567,"lon":5.39915,"is_reserved":false,"is_disabled":false,"rental_uris":{"android":"levelo://app?vid=31ce8eff-1c0a-4202-bd1b-24b41234d06b","ios":"levelo://app?vid=31ce8eff-1c0a-4202-bd1b-24b41234d06b"},"vehicle_type_id":"4","last_reported":1777292058,"current_range_meters":3200,"station_id":"","pricing_plan_id":"cebpf4jnsgd1na2vs0mg"},{"bike_id":"9db5bd37-9512-440d-90f8-ee025702f657","system_id":"levelo_inurba_marseille","lat":43.25582,"lon":5.38225,"is_reserved":false,"is_disabled":false,"rental_uris":{"android":"levelo://app?vid=9db5bd37-9512-440d-90f8-ee025702f657","ios":"levelo://app?vid=9db5bd37-9512-440d-90f8-ee025702f657"},"vehicle_type_id":"4","last_reported":1777292058,"current_range_meters":3200,"station_id":"ce4bhih2rcd13ifvqfs0","pricing_plan_id":"cebpf4jnsgd1na2vs0mg"},{"bike_id":"494fd0fc-3b39-4504-a26b-321afbf22977","system_id":"levelo_inurba_marseille","lat":43.23842,"lon":5.38591,"is_reserved":false,"is_disabled":false,"rental_uris":{"android":"levelo://app?vid=494fd0fc-3b39-4504-a26b-321afbf22977","ios":"levelo://app?vid=494fd0fc-3b39-4504-a26b-321afbf22977"},"vehicle_type_id":"4","last_reported":1777292058,"current_range_meters":3600,"station_id":"","pricing_plan_id":"cebpf4jnsgd1na2vs0mg"},{"bike_id":"3c5ff493-c024-4ac3-afb4-c638078757ca","system_id":"levelo_inurba_marseille","lat":43.29658,"lon":5.37132,"is_reserved":false,"is_disabled":false,"rental_uris":{"android":"levelo://app?vid=3c5ff493-c024-4ac3-afb4-c638078757ca","ios":"levelo://app?vid=3c5ff493-c024-4ac3-afb4-c638078757ca"},"vehicle_type_id":"4","last_reported":1777292058,"current_range_meters":3600,"station_id":"ce4bgnh2rcd13ifvqc0g","pricing_plan_id":"cebpf4jnsgd1na2vs0mg"},{"bike_id":"fe68548b-6b28-4aa7-943b-1002530032e8","system_id":"levelo_inurba_marseille","lat":43.32045,"lon":5.41541,"is_reserved":false,"is_disabled":false,"rental_uris":{"android":"levelo://app?vid=fe68548b-6b28-4aa7-943b-1002530032e8","ios":"levelo://app?vid=fe68548b-6b28-4aa7-943b-1002530032e8"},"vehicle_type_id":"4","last_reported":1777292058,"current_range_meters":3600,"station_id":"ce4bhq92rcd13ifvqhkg","pricing_plan_id":"cebpf4jnsgd1na2vs0mg"},{"bike_id":"0980030a-b87a-4740-8a90-830bb2342bf9","system_id":"levelo_inurba_marseille","lat":43.27496,"lon":5.42424,"is_reserved":false,"is_disabled":false,"rental_uris":{"android":"levelo://app?vid=0980030a-b87a-4740-8a90-830bb2342bf9","ios":"levelo://app?vid=0980030a-b87a-4740-8a90-830bb2342bf9"},"vehicle_type_id":"4","last_reported":1777292058,"current_range_meters":3600,"station_id":"ce4bhn92rcd13ifvqgrg","pricing_plan_id":"cebpf4jnsgd1na2vs0mg"},{"bike_id":"d1ddfc9f-8635-405e-891b-d6e3bf0079a6","system_id":"levelo_inurba_marseille","lat":43.28403,"lon":5.37516,"is_reserved":false,"is_disabled":false,"rental_uris":{"android":"levelo://app?vid=d1ddfc9f-8635-405e-891b-d6e3bf0079a6","ios":"levelo://app?vid=d1ddfc9f-8635-405e-891b-d6e3bf0079a6"},"vehicle_type_id":"4","last_reported":1777292058,"current_range_meters":3600,"station_id":"ce4bh412rcd13ifvqds0","pricing_plan_id":"cebpf4jnsgd1na2vs0mg"},{"bike_id":"28f8bca0-b6c7-4f56-8e7f-51ca74679586","system_id":"levelo_inurba_marseille","lat":43.29225,"lon":5.36067,"is_reserved":false,"is_disabled":false,"rental_uris":{"android":"levelo://app?vid=28f8bca0-b6c7-4f56-8e7f-51ca74679586","ios":"levelo://app?vid=28f8bca0-b6c7-4f56-8e7f-51ca74679586"},"vehicle_type_id":"4","last_reported":1777292058,"current_range_meters":3600,"station_id":"ce4bhbh2rcd13ifvqeqg","pricing_plan_id":"cebpf4jnsgd1na2vs0mg"},{"bike_id":"47f666a4-1df2-4bb6-b81c-fc97e6d74f98","system_id":"levelo_inurba_marseille","lat":43.28034,"lon":5.36946,"is_reserved":false,"is_disabled":false,"rental_uris":{"android":"levelo://app?vid=47f666a4-1df2-4bb6-b81c-fc97e6d74f98","ios":"levelo://app?vid=47f666a4-1df2-4bb6-b81c-fc97e6d74f98"},"vehicle_type_id":"4","last_reported":1777292058,"current_range_meters":4000,"station_id":"ce4bha12rcd13ifvqef0","pricing_plan_id":"cebpf4jnsgd1na2vs0mg"},{"bike_id":"a5d1c5f8-e551-41de-b7f3-a52119a1050b","system_id":"levelo_inurba_marseille","lat":43.27812,"lon":5.37455,"is_reserved":false,"is_disabled":false,"rental_uris":{"android":"levelo://app?vid=a5d1c5f8-e551-41de-b7f3-a52119a1050b","ios":"levelo://app?vid=a5d1c5f8-e551-41de-b7f3-a52119a1050b"},"vehicle_type_id":"4","last_reported":1777292058,"current_range_meters":4000,"station_id":"","pricing_plan_id":"cebpf4jnsgd1na2vs0mg"},{"bike_id":"c371eacd-76d9-4b79-8904-a82a1892e1f1","system_id":"levelo_inurba_marseille","lat":43.28412,"lon":5.34983,"is_reserved":false,"is_disabled":false,"rental_uris":{"android":"levelo://app?vid=c371eacd-76d9-4b79-8904-a82a1892e1f1","ios":"levelo://app?vid=c371eacd-76d9-4b79-8904-a82a1892e1f1"},"vehicle_type_id":"4","last_reported":1777292058,"current_range_meters":4000,"station_id":"ce4bhbh2rcd13ifvqepg","pricing_plan_id":"cebpf4jnsgd1na2vs0mg"},{"bike_id":"1e467ca0-2768-4108-a598-baca0cc991f8","system_id":"levelo_inurba_marseille","lat":43.27489,"lon":5.41568,"is_reserved":false,"is_disabled":true,"rental_uris":{"android":"levelo://app?vid=1e467ca0-2768-4108-a598-baca0cc991f8","ios":"levelo://app?vid=1e467ca0-2768-4108-a598-baca0cc991f8"},"vehicle_type_id":"4","last_reported":1777292058,"current_range_meters":4000,"station_id":"st_d6im8g6chgec73a5pndg","pricing_plan_id":"cebpf4jnsgd1na2vs0mg"},{"bike_id":"8fe127c6-34c2-4871-83c2-5470f90f2c9d","system_id":"levelo_inurba_marseille","lat":43.26941,"lon":5.38624,"is_reserved":false,"is_disabled":true,"rental_uris":{"android":"levelo://app?vid=8fe127c6-34c2-4871-83c2-5470f90f2c9d","ios":"levelo://app?vid=8fe127c6-34c2-4871-83c2-5470f90f2c9d"},"vehicle_type_id":"4","last_reported":1777292058,"current_range_meters":4400,"station_id":"ce4bhh92rcd13ifvqfh0","pricing_plan_id":"cebpf4jnsgd1na2vs0mg"},{"bike_id":"cb3aaa73-7d28-49f5-8847-405a515c50b9","system_id":"levelo_inurba_marseille","lat":43.26949,"lon":5.38641,"is_reserved":false,"is_disabled":false,"rental_uris":{"android":"levelo://app?vid=cb3aaa73-7d28-49f5-8847-405a515c50b9","ios":"levelo://app?vid=cb3aaa73-7d28-49f5-8847-405a515c50b9"},"vehicle_type_id":"4","last_reported":1777292058,"current_range_meters":4400,"station_id":"ce4bhh92rcd13ifvqfh0","pricing_plan_id":"cebpf4jnsgd1na2vs0mg"},{"bike_id":"027ec466-f198-4cfe-979e-0dc85bf7f0d5","system_id":"levelo_inurba_marseille","lat":43.28278,"lon":5.35071,"is_reserved":false,"is_disabled":false,"rental_uris":{"android":"levelo://app?vid=027ec466-f198-4cfe-979e-0dc85bf7f0d5","ios":"levelo://app?vid=027ec466-f198-4cfe-979e-0dc85bf7f0d5"},"vehicle_type_id":"4","last_reported":1777292058,"current_range_meters":4400,"station_id":"ce4bhbp2rcd13ifvqerg","pricing_plan_id":"cebpf4jnsgd1na2vs0mg"},{"bike_id":"7582504f-db10-45ad-8eae-9360229bd3e9","system_id":"levelo_inurba_marseille","lat":43.27059,"lon":5.42283,"is_reserved":false,"is_disabled":false,"rental_uris":{"android":"levelo://app?vid=7582504f-db10-45ad-8eae-9360229bd3e9","ios":"levelo://app?vid=7582504f-db10-45ad-8eae-9360229bd3e9"},"vehicle_type_id":"4","last_reported":1777292058,"current_range_meters":4400,"station_id":"ce4bhk92rcd13ifvqgb0","pricing_plan_id":"cebpf4jnsgd1na2vs0mg"},{"bike_id":"ba54c037-f92d-4268-aaf4-53c9f179da6a","system_id":"levelo_inurba_marseille","lat":43.33781,"lon":5.37486,"is_reserved":false,"is_disabled":false,"rental_uris":{"android":"levelo://app?vid=ba54c037-f92d-4268-aaf4-53c9f179da6a","ios":"levelo://app?vid=ba54c037-f92d-4268-aaf4-53c9f179da6a"},"vehicle_type_id":"4","last_reported":1777292058,"current_range_meters":4400,"station_id":"st_d46tts09ee8s73dlu43g","pricing_plan_id":"cebpf4jnsgd1na2vs0mg"},{"bike_id":"35ef112e-98e9-4c5d-b945-e6e7b1469a12","system_id":"levelo_inurba_marseille","lat":43.28147,"lon":5.42643,"is_reserved":false,"is_disabled":false,"rental_uris":{"android":"levelo://app?vid=35ef112e-98e9-4c5d-b945-e6e7b1469a12","ios":"levelo://app?vid=35ef112e-98e9-4c5d-b945-e6e7b1469a12"},"vehicle_type_id":"4","last_reported":1777292058,"current_range_meters":4400,"station_id":"ce4bhnh2rcd13ifvqgug","pricing_plan_id":"cebpf4jnsgd1na2vs0mg"},{"bike_id":"7917a9d5-4ac9-40bd-8834-5d3047c76c9d","system_id":"levelo_inurba_marseille","lat":43.32497,"lon":5.40755,"is_reserved":false,"is_disabled":false,"rental_uris":{"android":"levelo://app?vid=7917a9d5-4ac9-40bd-8834-5d3047c76c9d","ios":"levelo://app?vid=7917a9d5-4ac9-40bd-8834-5d3047c76c9d"},"vehicle_type_id":"4","last_reported":1777292058,"current_range_meters":4400,"station_id":"","pricing_plan_id":"cebpf4jnsgd1na2vs0mg"},{"bike_id":"73dacbea-87a6-453e-bcf8-51760c8a906f","system_id":"levelo_inurba_marseille","lat":43.29033,"lon":5.37556,"is_reserved":false,"is_disabled":false,"rental_uris":{"android":"levelo://app?vid=73dacbea-87a6-453e-bcf8-51760c8a906f","ios":"levelo://app?vid=73dacbea-87a6-453e-bcf8-51760c8a906f"},"vehicle_type_id":"4","last_reported":1777292058,"current_range_meters":4400,"station_id":"ce4bh692rcd13ifvqe90","pricing_plan_id":"cebpf4jnsgd1na2vs0mg"},{"bike_id":"50fcb081-4b05-4355-adf3-07f022c0399c","system_id":"levelo_inurba_marseille","lat":43.30993,"lon":5.37913,"is_reserved":false,"is_disabled":false,"rental_uris":{"android":"levelo://app?vid=50fcb081-4b05-4355-adf3-07f022c0399c","ios":"levelo://app?vid=50fcb081-4b05-4355-adf3-07f022c0399c"},"vehicle_type_id":"4","last_reported":1777292058,"current_range_meters":4400,"station_id":"","pricing_plan_id":"cebpf4jnsgd1na2vs0mg"},{"bike_id":"6a83de66-14c9-4031-b1e4-5224cff4b10d","system_id":"levelo_inurba_marseille","lat":43.29435,"lon":5.3975,"is_reserved":false,"is_disabled":false,"rental_uris":{"android":"levelo://app?vid=6a83de66-14c9-4031-b1e4-5224cff4b10d","ios":"levelo://app?vid=6a83de66-14c9-4031-b1e4-5224cff4b10d"},"vehicle_type_id":"4","last_reported":1777292058,"current_range_meters":4400,"station_id":"ce4bh3h2rcd13ifvqdo0","pricing_plan_id":"cebpf4jnsgd1na2vs0mg"},{"bike_id":"d84dad1f-3355-427c-a81e-a3f872caa973","system_id":"levelo_inurba_marseille","lat":43.28709,"lon":5.46672,"is_reserved":false,"is_disabled":false,"rental_uris":{"android":"levelo://app?vid=d84dad1f-3355-427c-a81e-a3f872caa973","ios":"levelo://app?vid=d84dad1f-3355-427c-a81e-a3f872caa973"},"vehicle_type_id":"4","last_reported":1777292058,"current_range_meters":4800,"station_id":"st_d6tc3vkotcvc738tfjhg","pricing_plan_id":"cebpf4jnsgd1na2vs0mg"},{"bike_id":"b94b5f96-79f0-48ca-b92d-080a31da1387","system_id":"levelo_inurba_marseille","lat":43.24088,"lon":5.37744,"is_reserved":false,"is_disabled":false,"rental_uris":{"android":"levelo://app?vid=b94b5f96-79f0-48ca-b92d-080a31da1387","ios":"levelo://app?vid=b94b5f96-79f0-48ca-b92d-080a31da1387"},"vehicle_type_id":"4","last_reported":1777292058,"current_range_meters":4800,"station_id":"ce4bhnp2rcd13ifvqgvg","pricing_plan_id":"cebpf4jnsgd1na2vs0mg"},{"bike_id":"724d0869-017c-4e7e-9911-705be0df09b1","system_id":"levelo_inurba_marseille","lat":43.31428,"lon":5.3736,"is_reserved":false,"is_disabled":false,"rental_uris":{"android":"levelo://app?vid=724d0869-017c-4e7e-9911-705be0df09b1","ios":"levelo://app?vid=724d0869-017c-4e7e-9911-705be0df09b1"},"vehicle_type_id":"4","last_reported":1777292058,"current_range_meters":4800,"station_id":"","pricing_plan_id":"cebpf4jnsgd1na2vs0mg"},{"bike_id":"1f13452b-ac27-48ca-bbd2-1255b0865067","system_id":"levelo_inurba_marseille","lat":43.27828,"lon":5.37941,"is_reserved":false,"is_disabled":false,"rental_uris":{"android":"levelo://app?vid=1f13452b-ac27-48ca-bbd2-1255b0865067","ios":"levelo://app?vid=1f13452b-ac27-48ca-bbd2-1255b0865067"},"vehicle_type_id":"4","last_reported":1777292058,"current_range_meters":4800,"station_id":"","pricing_plan_id":"cebpf4jnsgd1na2vs0mg"},{"bike_id":"c6941364-0b3e-415d-827c-e48038694e60","system_id":"levelo_inurba_marseille","lat":43.3078,"lon":5.43506,"is_reserved":false,"is_disabled":false,"rental_uris":{"android":"levelo://app?vid=c6941364-0b3e-415d-827c-e48038694e60","ios":"levelo://app?vid=c6941364-0b3e-415d-827c-e48038694e60"},"vehicle_type_id":"4","last_reported":1777292058,"current_range_meters":4800,"station_id":"","pricing_plan_id":"cebpf4jnsgd1na2vs0mg"},{"bike_id":"a622452f-d7f8-43f3-8edd-5eb1e81489d8","system_id":"levelo_inurba_marseille","lat":43.23161,"lon":5.43708,"is_reserved":false,"is_disabled":false,"rental_uris":{"android":"levelo://app?vid=a622452f-d7f8-43f3-8edd-5eb1e81489d8","ios":"levelo://app?vid=a622452f-d7f8-43f3-8edd-5eb1e81489d8"},"vehicle_type_id":"4","last_reported":1777292058,"current_range_meters":4800,"station_id":"ce4bhmp2rcd13ifvqgog","pricing_plan_id":"cebpf4jnsgd1na2vs0mg"},{"bike_id":"be0faf87-4df9-40d4-a37a-f983ea89937e","system_id":"levelo_inurba_marseille","lat":43.26727,"lon":5.38263,"is_reserved":false,"is_disabled":false,"rental_uris":{"android":"levelo://app?vid=be0faf87-4df9-40d4-a37a-f983ea89937e","ios":"levelo://app?vid=be0faf87-4df9-40d4-a37a-f983ea89937e"},"vehicle_type_id":"4","last_reported":1777292058,"current_range_meters":4800,"station_id":"","pricing_plan_id":"cebpf4jnsgd1na2vs0mg"},{"bike_id":"8bd8e528-5bef-409e-b5f7-cfe4c9ffb74d","system_id":"levelo_inurba_marseille","lat":43.31734,"lon":5.37737,"is_reserved":false,"is_disabled":false,"rental_uris":{"android":"levelo://app?vid=8bd8e528-5bef-409e-b5f7-cfe4c9ffb74d","ios":"levelo://app?vid=8bd8e528-5bef-409e-b5f7-cfe4c9ffb74d"},"vehicle_type_id":"4","last_reported":1777292058,"current_range_meters":4800,"station_id":"ce4bgth2rcd13ifvqch0","pricing_plan_id":"cebpf4jnsgd1na2vs0mg"},{"bike_id":"867e4efb-03e8-466f-a027-d873140a375d","system_id":"levelo_inurba_marseille","lat":43.24777,"lon":5.37501,"is_reserved":false,"is_disabled":false,"rental_uris":{"android":"levelo://app?vid=867e4efb-03e8-466f-a027-d873140a375d","ios":"levelo://app?vid=867e4efb-03e8-466f-a027-d873140a375d"},"vehicle_type_id":"4","last_reported":1777292058,"current_range_meters":4800,"station_id":"ce4bhgh2rcd13ifvqfb0","pricing_plan_id":"cebpf4jnsgd1na2vs0mg"},{"bike_id":"1e85b119-41e1-4230-b10a-2da667c13d61","system_id":"levelo_inurba_marseille","lat":43.2619,"lon":5.37474,"is_reserved":false,"is_disabled":false,"rental_uris":{"android":"levelo://app?vid=1e85b119-41e1-4230-b10a-2da667c13d61","ios":"levelo://app?vid=1e85b119-41e1-4230-b10a-2da667c13d61"},"vehicle_type_id":"4","last_reported":1777292058,"current_range_meters":4800,"station_id":"ce4bhgp2rcd13ifvqfc0","pricing_plan_id":"cebpf4jnsgd1na2vs0mg"},{"bike_id":"5676b1df-3102-49f0-94ea-6bd037dc90c9","system_id":"levelo_inurba_marseille","lat":43.3112,"lon":5.38052,"is_reserved":false,"is_disabled":false,"rental_uris":{"android":"levelo://app?vid=5676b1df-3102-49f0-94ea-6bd037dc90c9","ios":"levelo://app?vid=5676b1df-3102-49f0-94ea-6bd037dc90c9"},"vehicle_type_id":"4","last_reported":1777292058,"current_range_meters":5600,"station_id":"","pricing_plan_id":"cebpf4jnsgd1na2vs0mg"},{"bike_id":"824dc4f0-4019-4ee1-afbb-4142be1cf723","system_id":"levelo_inurba_marseille","lat":43.2902,"lon":5.38625,"is_reserved":false,"is_disabled":false,"rental_uris":{"android":"levelo://app?vid=824dc4f0-4019-4ee1-afbb-4142be1cf723","ios":"levelo://app?vid=824dc4f0-4019-4ee1-afbb-4142be1cf723"},"vehicle_type_id":"4","last_reported":1777292058,"current_range_meters":5600,"station_id":"ce4bh4p2rcd13ifvqe0g","pricing_plan_id":"cebpf4jnsgd1na2vs0mg"},{"bike_id":"8d761791-abe3-4480-80c3-622e3add9a35","system_id":"levelo_inurba_marseille","lat":43.266812,"lon":5.382645,"is_reserved":false,"is_disabled":false,"rental_uris":{"android":"levelo://app?vid=8d761791-abe3-4480-80c3-622e3add9a35","ios":"levelo://app?vid=8d761791-abe3-4480-80c3-622e3add9a35"},"vehicle_type_id":"4","last_reported":1777292058,"current_range_meters":5600,"station_id":"ce4bhg92rcd13ifvqf90","pricing_plan_id":"cebpf4jnsgd1na2vs0mg"},{"bike_id":"b21748b2-fb24-4ee6-8e6a-c7c61264faec","system_id":"levelo_inurba_marseille","lat":43.2739,"lon":5.42217,"is_reserved":false,"is_disabled":false,"rental_uris":{"android":"levelo://app?vid=b21748b2-fb24-4ee6-8e6a-c7c61264faec","ios":"levelo://app?vid=b21748b2-fb24-4ee6-8e6a-c7c61264faec"},"vehicle_type_id":"4","last_reported":1777292058,"current_range_meters":5600,"station_id":"","pricing_plan_id":"cebpf4jnsgd1na2vs0mg"},{"bike_id":"fd583349-9e7d-4e5b-8155-1da1a7a44b99","system_id":"levelo_inurba_marseille","lat":43.27944,"lon":5.41051,"is_reserved":false,"is_disabled":false,"rental_uris":{"android":"levelo://app?vid=fd583349-9e7d-4e5b-8155-1da1a7a44b99","ios":"levelo://app?vid=fd583349-9e7d-4e5b-8155-1da1a7a44b99"},"vehicle_type_id":"4","last_reported":1777292058,"current_range_meters":5600,"station_id":"ce4bhnp2rcd13ifvqh0g","pricing_plan_id":"cebpf4jnsgd1na2vs0mg"},{"bike_id":"33df6e29-c806-4495-8d8e-b20e3793326b","system_id":"levelo_inurba_marseille","lat":43.289258,"lon":5.384103,"is_reserved":false,"is_disabled":false,"rental_uris":{"android":"levelo://app?vid=33df6e29-c806-4495-8d8e-b20e3793326b","ios":"levelo://app?vid=33df6e29-c806-4495-8d8e-b20e3793326b"},"vehicle_type_id":"4","last_reported":1777292058,"current_range_meters":5600,"station_id":"ce4bh612rcd13ifvqe6g","pricing_plan_id":"cebpf4jnsgd1na2vs0mg"},{"bike_id":"7649a36f-27d9-4c16-a4bb-526427f1369d","system_id":"levelo_inurba_marseille","lat":43.272068,"lon":5.391869,"is_reserved":false,"is_disabled":false,"rental_uris":{"android":"levelo://app?vid=7649a36f-27d9-4c16-a4bb-526427f1369d","ios":"levelo://app?vid=7649a36f-27d9-4c16-a4bb-526427f1369d"},"vehicle_type_id":"4","last_reported":1777292058,"current_range_meters":5600,"station_id":"ce4bhhp2rcd13ifvqfm0","pricing_plan_id":"cebpf4jnsgd1na2vs0mg"},{"bike_id":"27cd71a7-0940-4415-a67f-21597fbf1cd9","system_id":"levelo_inurba_marseille","lat":43.34646,"lon":5.37595,"is_reserved":false,"is_disabled":false,"rental_uris":{"android":"levelo://app?vid=27cd71a7-0940-4415-a67f-21597fbf1cd9","ios":"levelo://app?vid=27cd71a7-0940-4415-a67f-21597fbf1cd9"},"vehicle_type_id":"4","last_reported":1777292058,"current_range_meters":6000,"station_id":"","pricing_plan_id":"cebpf4jnsgd1na2vs0mg"},{"bike_id":"ad06fbeb-2893-47bd-9310-693ccba410e9","system_id":"levelo_inurba_marseille","lat":43.28763,"lon":5.46823,"is_reserved":false,"is_disabled":false,"rental_uris":{"android":"levelo://app?vid=ad06fbeb-2893-47bd-9310-693ccba410e9","ios":"levelo://app?vid=ad06fbeb-2893-47bd-9310-693ccba410e9"},"vehicle_type_id":"4","last_reported":1777292058,"current_range_meters":6000,"station_id":"","pricing_plan_id":"cebpf4jnsgd1na2vs0mg"},{"bike_id":"cf4537a9-051c-4080-9a3f-93f632ce0082","system_id":"levelo_inurba_marseille","lat":43.337444,"lon":5.374475,"is_reserved":false,"is_disabled":false,"rental_uris":{"android":"levelo://app?vid=cf4537a9-051c-4080-9a3f-93f632ce0082","ios":"levelo://app?vid=cf4537a9-051c-4080-9a3f-93f632ce0082"},"vehicle_type_id":"4","last_reported":1777292058,"current_range_meters":6000,"station_id":"","pricing_plan_id":"cebpf4jnsgd1na2vs0mg"},{"bike_id":"c11d1808-32dc-4683-bc6f-c818ed8e14de","system_id":"levelo_inurba_marseille","lat":43.2749,"lon":5.42457,"is_reserved":false,"is_disabled":true,"rental_uris":{"android":"levelo://app?vid=c11d1808-32dc-4683-bc6f-c818ed8e14de","ios":"levelo://app?vid=c11d1808-32dc-4683-bc6f-c818ed8e14de"},"vehicle_type_id":"4","last_reported":1777292058,"current_range_meters":6000,"station_id":"ce4bhn92rcd13ifvqgrg","pricing_plan_id":"cebpf4jnsgd1na2vs0mg"},{"bike_id":"daa88225-e0d8-4902-989b-918dd752413a","system_id":"levelo_inurba_marseille","lat":43.24179,"lon":5.39722,"is_reserved":false,"is_disabled":false,"rental_uris":{"android":"levelo://app?vid=daa88225-e0d8-4902-989b-918dd752413a","ios":"levelo://app?vid=daa88225-e0d8-4902-989b-918dd752413a"},"vehicle_type_id":"4","last_reported":1777292058,"current_range_meters":6000,"station_id":"ce4bhn12rcd13ifvqgpg","pricing_plan_id":"cebpf4jnsgd1na2vs0mg"},{"bike_id":"2abe6f4a-c619-4ff9-87d0-66e79b76c887","system_id":"levelo_inurba_marseille","lat":43.3032,"lon":5.40435,"is_reserved":false,"is_disabled":false,"rental_uris":{"android":"levelo://app?vid=2abe6f4a-c619-4ff9-87d0-66e79b76c887","ios":"levelo://app?vid=2abe6f4a-c619-4ff9-87d0-66e79b76c887"},"vehicle_type_id":"4","last_reported":1777292058,"current_range_meters":6000,"station_id":"ce4bh012rcd13ifvqd10","pricing_plan_id":"cebpf4jnsgd1na2vs0mg"},{"bike_id":"c21e35f4-46d6-45ef-bcab-fb65850f7dbd","system_id":"levelo_inurba_marseille","lat":43.28033,"lon":5.36942,"is_reserved":false,"is_disabled":false,"rental_uris":{"android":"levelo://app?vid=c21e35f4-46d6-45ef-bcab-fb65850f7dbd","ios":"levelo://app?vid=c21e35f4-46d6-45ef-bcab-fb65850f7dbd"},"vehicle_type_id":"4","last_reported":1777292058,"current_range_meters":6000,"station_id":"ce4bha12rcd13ifvqef0","pricing_plan_id":"cebpf4jnsgd1na2vs0mg"},{"bike_id":"9a2d92de-2fc0-4078-a871-9356c80c3977","system_id":"levelo_inurba_marseille","lat":43.290064,"lon":5.356169,"is_reserved":false,"is_disabled":false,"rental_uris":{"android":"levelo://app?vid=9a2d92de-2fc0-4078-a871-9356c80c3977","ios":"levelo://app?vid=9a2d92de-2fc0-4078-a871-9356c80c3977"},"vehicle_type_id":"4","last_reported":1777292058,"current_range_meters":6000,"station_id":"ce4bhb92rcd13ifvqen0","pricing_plan_id":"cebpf4jnsgd1na2vs0mg"},{"bike_id":"7bd078b8-5763-4165-b755-f63cd947f307","system_id":"levelo_inurba_marseille","lat":43.27374,"lon":5.36255,"is_reserved":false,"is_disabled":false,"rental_uris":{"android":"levelo://app?vid=7bd078b8-5763-4165-b755-f63cd947f307","ios":"levelo://app?vid=7bd078b8-5763-4165-b755-f63cd947f307"},"vehicle_type_id":"4","last_reported":1777292058,"current_range_meters":6000,"station_id":"ce4bhbh2rcd13ifvqeo0","pricing_plan_id":"cebpf4jnsgd1na2vs0mg"},{"bike_id":"0c3f7afa-85c2-46e7-b3f4-2373cbe053e2","system_id":"levelo_inurba_marseille","lat":43.28856,"lon":5.35851,"is_reserved":false,"is_disabled":false,"rental_uris":{"android":"levelo://app?vid=0c3f7afa-85c2-46e7-b3f4-2373cbe053e2","ios":"levelo://app?vid=0c3f7afa-85c2-46e7-b3f4-2373cbe053e2"},"vehicle_type_id":"4","last_reported":1777292058,"current_range_meters":6400,"station_id":"ce4bhb12rcd13ifvqem0","pricing_plan_id":"cebpf4jnsgd1na2vs0mg"},{"bike_id":"5367fafd-42a5-4c52-bd35-5d85953af91c","system_id":"levelo_inurba_marseille","lat":43.30827,"lon":5.38095,"is_reserved":false,"is_disabled":true,"rental_uris":{"android":"levelo://app?vid=5367fafd-42a5-4c52-bd35-5d85953af91c","ios":"levelo://app?vid=5367fafd-42a5-4c52-bd35-5d85953af91c"},"vehicle_type_id":"4","last_reported":1777292058,"current_range_meters":6400,"station_id":"","pricing_plan_id":"cebpf4jnsgd1na2vs0mg"},{"bike_id":"91e4eed8-7aa0-4ca6-bc8b-33ffc5693469","system_id":"levelo_inurba_marseille","lat":43.31334,"lon":5.37908,"is_reserved":false,"is_disabled":false,"rental_uris":{"android":"levelo://app?vid=91e4eed8-7aa0-4ca6-bc8b-33ffc5693469","ios":"levelo://app?vid=91e4eed8-7aa0-4ca6-bc8b-33ffc5693469"},"vehicle_type_id":"4","last_reported":1777292058,"current_range_meters":6400,"station_id":"","pricing_plan_id":"cebpf4jnsgd1na2vs0mg"},{"bike_id":"8d1518d9-6ddc-4a25-b663-620f747ede72","system_id":"levelo_inurba_marseille","lat":43.26195,"lon":5.37437,"is_reserved":false,"is_disabled":false,"rental_uris":{"android":"levelo://app?vid=8d1518d9-6ddc-4a25-b663-620f747ede72","ios":"levelo://app?vid=8d1518d9-6ddc-4a25-b663-620f747ede72"},"vehicle_type_id":"4","last_reported":1777292058,"current_range_meters":6400,"station_id":"ce4bhgp2rcd13ifvqfc0","pricing_plan_id":"cebpf4jnsgd1na2vs0mg"},{"bike_id":"d2a170e9-4683-45e4-8ad8-6a20e503868b","system_id":"levelo_inurba_marseille","lat":43.2551,"lon":5.37659,"is_reserved":false,"is_disabled":false,"rental_uris":{"android":"levelo://app?vid=d2a170e9-4683-45e4-8ad8-6a20e503868b","ios":"levelo://app?vid=d2a170e9-4683-45e4-8ad8-6a20e503868b"},"vehicle_type_id":"4","last_reported":1777292058,"current_range_meters":6400,"station_id":"ce4bhh12rcd13ifvqff0","pricing_plan_id":"cebpf4jnsgd1na2vs0mg"},{"bike_id":"52072f7f-0ff3-4bcb-b899-5d616ea82d49","system_id":"levelo_inurba_marseille","lat":43.30533,"lon":5.3843,"is_reserved":false,"is_disabled":false,"rental_uris":{"android":"levelo://app?vid=52072f7f-0ff3-4bcb-b899-5d616ea82d49","ios":"levelo://app?vid=52072f7f-0ff3-4bcb-b899-5d616ea82d49"},"vehicle_type_id":"4","last_reported":1777292058,"current_range_meters":6400,"station_id":"ce4bgg92rcd13ifvqb30","pricing_plan_id":"cebpf4jnsgd1na2vs0mg"},{"bike_id":"d1063a8e-a667-4f9b-9166-4b2ea1244e5f","system_id":"levelo_inurba_marseille","lat":43.24796,"lon":5.37452,"is_reserved":false,"is_disabled":false,"rental_uris":{"android":"levelo://app?vid=d1063a8e-a667-4f9b-9166-4b2ea1244e5f","ios":"levelo://app?vid=d1063a8e-a667-4f9b-9166-4b2ea1244e5f"},"vehicle_type_id":"4","last_reported":1777292058,"current_range_meters":6400,"station_id":"ce4bhgh2rcd13ifvqfb0","pricing_plan_id":"cebpf4jnsgd1na2vs0mg"},{"bike_id":"e6e0181d-d51b-42d7-93b1-7e8f4d00629c","system_id":"levelo_inurba_marseille","lat":43.29845,"lon":5.42019,"is_reserved":false,"is_disabled":true,"rental_uris":{"android":"levelo://app?vid=e6e0181d-d51b-42d7-93b1-7e8f4d00629c","ios":"levelo://app?vid=e6e0181d-d51b-42d7-93b1-7e8f4d00629c"},"vehicle_type_id":"4","last_reported":1777292058,"current_range_meters":6400,"station_id":"","pricing_plan_id":"cebpf4jnsgd1na2vs0mg"},{"bike_id":"a9335f62-4c73-44b2-8914-e3f52e6941ca","system_id":"levelo_inurba_marseille","lat":43.32088,"lon":5.36811,"is_reserved":false,"is_disabled":false,"rental_uris":{"android":"levelo://app?vid=a9335f62-4c73-44b2-8914-e3f52e6941ca","ios":"levelo://app?vid=a9335f62-4c73-44b2-8914-e3f52e6941ca"},"vehicle_type_id":"4","last_reported":1777292058,"current_range_meters":6400,"station_id":"ce4bhrh2rcd13ifvqhug","pricing_plan_id":"cebpf4jnsgd1na2vs0mg"},{"bike_id":"8297a8c5-4415-47bf-85be-aeed7fdf7ea2","system_id":"levelo_inurba_marseille","lat":43.27491,"lon":5.42451,"is_reserved":false,"is_disabled":false,"rental_uris":{"android":"levelo://app?vid=8297a8c5-4415-47bf-85be-aeed7fdf7ea2","ios":"levelo://app?vid=8297a8c5-4415-47bf-85be-aeed7fdf7ea2"},"vehicle_type_id":"4","last_reported":1777292058,"current_range_meters":6400,"station_id":"ce4bhn92rcd13ifvqgrg","pricing_plan_id":"cebpf4jnsgd1na2vs0mg"},{"bike_id":"b26e1fbd-2338-4342-9209-c6a61c746d99","system_id":"levelo_inurba_marseille","lat":43.26701,"lon":5.38263,"is_reserved":false,"is_disabled":false,"rental_uris":{"android":"levelo://app?vid=b26e1fbd-2338-4342-9209-c6a61c746d99","ios":"levelo://app?vid=b26e1fbd-2338-4342-9209-c6a61c746d99"},"vehicle_type_id":"4","last_reported":1777292058,"current_range_meters":6400,"station_id":"ce4bhg92rcd13ifvqf90","pricing_plan_id":"cebpf4jnsgd1na2vs0mg"},{"bike_id":"3948647e-4375-46fe-af22-f9d7353635ef","system_id":"levelo_inurba_marseille","lat":43.27988,"lon":5.41684,"is_reserved":false,"is_disabled":false,"rental_uris":{"android":"levelo://app?vid=3948647e-4375-46fe-af22-f9d7353635ef","ios":"levelo://app?vid=3948647e-4375-46fe-af22-f9d7353635ef"},"vehicle_type_id":"4","last_reported":1777292058,"current_range_meters":6400,"station_id":"ce4bho12rcd13ifvqh1g","pricing_plan_id":"cebpf4jnsgd1na2vs0mg"},{"bike_id":"5f507e31-3dd6-447e-a9b5-15992546554f","system_id":"levelo_inurba_marseille","lat":43.28148,"lon":5.42643,"is_reserved":false,"is_disabled":false,"rental_uris":{"android":"levelo://app?vid=5f507e31-3dd6-447e-a9b5-15992546554f","ios":"levelo://app?vid=5f507e31-3dd6-447e-a9b5-15992546554f"},"vehicle_type_id":"4","last_reported":1777292058,"current_range_meters":6400,"station_id":"ce4bhnh2rcd13ifvqgug","pricing_plan_id":"cebpf4jnsgd1na2vs0mg"},{"bike_id":"53db2370-9a8f-4a62-bbd2-88fd31cc7e46","system_id":"levelo_inurba_marseille","lat":43.29601,"lon":5.38109,"is_reserved":false,"is_disabled":false,"rental_uris":{"android":"levelo://app?vid=53db2370-9a8f-4a62-bbd2-88fd31cc7e46","ios":"levelo://app?vid=53db2370-9a8f-4a62-bbd2-88fd31cc7e46"},"vehicle_type_id":"4","last_reported":1777292058,"current_range_meters":6400,"station_id":"ce4bgl12rcd13ifvqbo0","pricing_plan_id":"cebpf4jnsgd1na2vs0mg"},{"bike_id":"706ecd89-bafe-46bb-8b99-a5d007005819","system_id":"levelo_inurba_marseille","lat":43.24788,"lon":5.37476,"is_reserved":false,"is_disabled":false,"rental_uris":{"android":"levelo://app?vid=706ecd89-bafe-46bb-8b99-a5d007005819","ios":"levelo://app?vid=706ecd89-bafe-46bb-8b99-a5d007005819"},"vehicle_type_id":"4","last_reported":1777292058,"current_range_meters":6800,"station_id":"ce4bhgh2rcd13ifvqfb0","pricing_plan_id":"cebpf4jnsgd1na2vs0mg"},{"bike_id":"11a5074f-be5e-43a9-8f56-2fea90effe08","system_id":"levelo_inurba_marseille","lat":43.2456,"lon":5.39495,"is_reserved":false,"is_disabled":false,"rental_uris":{"android":"levelo://app?vid=11a5074f-be5e-43a9-8f56-2fea90effe08","ios":"levelo://app?vid=11a5074f-be5e-43a9-8f56-2fea90effe08"},"vehicle_type_id":"4","last_reported":1777292058,"current_range_meters":6800,"station_id":"ce4bhlp2rcd13ifvqgjg","pricing_plan_id":"cebpf4jnsgd1na2vs0mg"},{"bike_id":"44e6dbbf-5fac-40be-8268-1dc6c83b237e","system_id":"levelo_inurba_marseille","lat":43.24169,"lon":5.36386,"is_reserved":false,"is_disabled":false,"rental_uris":{"android":"levelo://app?vid=44e6dbbf-5fac-40be-8268-1dc6c83b237e","ios":"levelo://app?vid=44e6dbbf-5fac-40be-8268-1dc6c83b237e"},"vehicle_type_id":"4","last_reported":1777292058,"current_range_meters":6800,"station_id":"cpo36qri1sfpv3e86is0","pricing_plan_id":"cebpf4jnsgd1na2vs0mg"},{"bike_id":"6b5b9e45-67f3-4a64-a294-ead66e30dbef","system_id":"levelo_inurba_marseille","lat":43.2475,"lon":5.38118,"is_reserved":false,"is_disabled":false,"rental_uris":{"android":"levelo://app?vid=6b5b9e45-67f3-4a64-a294-ead66e30dbef","ios":"levelo://app?vid=6b5b9e45-67f3-4a64-a294-ead66e30dbef"},"vehicle_type_id":"4","last_reported":1777292058,"current_range_meters":6800,"station_id":"ce4bhih2rcd13ifvqfr0","pricing_plan_id":"cebpf4jnsgd1na2vs0mg"},{"bike_id":"ad26b8dc-edee-444c-8fc3-cb83169b331a","system_id":"levelo_inurba_marseille","lat":43.28155,"lon":5.42652,"is_reserved":false,"is_disabled":false,"rental_uris":{"android":"levelo://app?vid=ad26b8dc-edee-444c-8fc3-cb83169b331a","ios":"levelo://app?vid=ad26b8dc-edee-444c-8fc3-cb83169b331a"},"vehicle_type_id":"4","last_reported":1777292058,"current_range_meters":6800,"station_id":"ce4bhnh2rcd13ifvqgug","pricing_plan_id":"cebpf4jnsgd1na2vs0mg"},{"bike_id":"34c90ce6-0466-4001-8dce-7f55b9daf2f7","system_id":"levelo_inurba_marseille","lat":43.27068,"lon":5.4228,"is_reserved":false,"is_disabled":false,"rental_uris":{"android":"levelo://app?vid=34c90ce6-0466-4001-8dce-7f55b9daf2f7","ios":"levelo://app?vid=34c90ce6-0466-4001-8dce-7f55b9daf2f7"},"vehicle_type_id":"4","last_reported":1777292058,"current_range_meters":6800,"station_id":"ce4bhk92rcd13ifvqgb0","pricing_plan_id":"cebpf4jnsgd1na2vs0mg"},{"bike_id":"50f8bdff-b169-44f8-8920-840c94d5e30a","system_id":"levelo_inurba_marseille","lat":43.28483,"lon":5.48387,"is_reserved":false,"is_disabled":true,"rental_uris":{"android":"levelo://app?vid=50f8bdff-b169-44f8-8920-840c94d5e30a","ios":"levelo://app?vid=50f8bdff-b169-44f8-8920-840c94d5e30a"},"vehicle_type_id":"4","last_reported":1777292058,"current_range_meters":6800,"station_id":"","pricing_plan_id":"cebpf4jnsgd1na2vs0mg"},{"bike_id":"0a8ae4a2-e857-4ab4-83cb-6a3bf39cb4b6","system_id":"levelo_inurba_marseille","lat":43.28722,"lon":5.37931,"is_reserved":false,"is_disabled":false,"rental_uris":{"android":"levelo://app?vid=0a8ae4a2-e857-4ab4-83cb-6a3bf39cb4b6","ios":"levelo://app?vid=0a8ae4a2-e857-4ab4-83cb-6a3bf39cb4b6"},"vehicle_type_id":"4","last_reported":1777292058,"current_range_meters":6800,"station_id":"ce4bh9p2rcd13ifvqec0","pricing_plan_id":"cebpf4jnsgd1na2vs0mg"},{"bike_id":"a20c828c-7e17-4850-9066-77d1ff8b1605","system_id":"levelo_inurba_marseille","lat":43.3052,"lon":5.3652,"is_reserved":false,"is_disabled":false,"rental_uris":{"android":"levelo://app?vid=a20c828c-7e17-4850-9066-77d1ff8b1605","ios":"levelo://app?vid=a20c828c-7e17-4850-9066-77d1ff8b1605"},"vehicle_type_id":"4","last_reported":1777292058,"current_range_meters":6800,"station_id":"","pricing_plan_id":"cebpf4jnsgd1na2vs0mg"},{"bike_id":"8050b833-adef-43e8-8f24-94a8d1b4458b","system_id":"levelo_inurba_marseille","lat":43.27497,"lon":5.42456,"is_reserved":false,"is_disabled":false,"rental_uris":{"android":"levelo://app?vid=8050b833-adef-43e8-8f24-94a8d1b4458b","ios":"levelo://app?vid=8050b833-adef-43e8-8f24-94a8d1b4458b"},"vehicle_type_id":"4","last_reported":1777292058,"current_range_meters":6800,"station_id":"ce4bhn92rcd13ifvqgrg","pricing_plan_id":"cebpf4jnsgd1na2vs0mg"},{"bike_id":"cfa40bf7-7c5f-4567-b9c8-9841fba1763e","system_id":"levelo_inurba_marseille","lat":43.26599,"lon":5.40318,"is_reserved":false,"is_disabled":false,"rental_uris":{"android":"levelo://app?vid=cfa40bf7-7c5f-4567-b9c8-9841fba1763e","ios":"levelo://app?vid=cfa40bf7-7c5f-4567-b9c8-9841fba1763e"},"vehicle_type_id":"4","last_reported":1777292058,"current_range_meters":6800,"station_id":"ce4bhmp2rcd13ifvqgng","pricing_plan_id":"cebpf4jnsgd1na2vs0mg"},{"bike_id":"4f465bf4-0c78-4d50-9f59-791dd8da1732","system_id":"levelo_inurba_marseille","lat":43.26947,"lon":5.38646,"is_reserved":false,"is_disabled":false,"rental_uris":{"android":"levelo://app?vid=4f465bf4-0c78-4d50-9f59-791dd8da1732","ios":"levelo://app?vid=4f465bf4-0c78-4d50-9f59-791dd8da1732"},"vehicle_type_id":"4","last_reported":1777292058,"current_range_meters":7200,"station_id":"ce4bhh92rcd13ifvqfh0","pricing_plan_id":"cebpf4jnsgd1na2vs0mg"},{"bike_id":"5c6dbc22-6dc1-4a74-95d1-677c3ccf7a7b","system_id":"levelo_inurba_marseille","lat":43.29942,"lon":5.36555,"is_reserved":false,"is_disabled":false,"rental_uris":{"android":"levelo://app?vid=5c6dbc22-6dc1-4a74-95d1-677c3ccf7a7b","ios":"levelo://app?vid=5c6dbc22-6dc1-4a74-95d1-677c3ccf7a7b"},"vehicle_type_id":"4","last_reported":1777292058,"current_range_meters":7200,"station_id":"ce4bgm92rcd13ifvqbr0","pricing_plan_id":"cebpf4jnsgd1na2vs0mg"},{"bike_id":"c14336fa-2d5d-48b6-863d-09b5884806aa","system_id":"levelo_inurba_marseille","lat":43.2898,"lon":5.37821,"is_reserved":false,"is_disabled":false,"rental_uris":{"android":"levelo://app?vid=c14336fa-2d5d-48b6-863d-09b5884806aa","ios":"levelo://app?vid=c14336fa-2d5d-48b6-863d-09b5884806aa"},"vehicle_type_id":"4","last_reported":1777292058,"current_range_meters":7200,"station_id":"ce4bh9p2rcd13ifvqed0","pricing_plan_id":"cebpf4jnsgd1na2vs0mg"},{"bike_id":"70ab68a7-f252-47fa-a529-01a3240781ee","system_id":"levelo_inurba_marseille","lat":43.23148,"lon":5.43717,"is_reserved":false,"is_disabled":false,"rental_uris":{"android":"levelo://app?vid=70ab68a7-f252-47fa-a529-01a3240781ee","ios":"levelo://app?vid=70ab68a7-f252-47fa-a529-01a3240781ee"},"vehicle_type_id":"4","last_reported":1777292058,"current_range_meters":7200,"station_id":"ce4bhmp2rcd13ifvqgog","pricing_plan_id":"cebpf4jnsgd1na2vs0mg"},{"bike_id":"95fcacf0-7086-4a79-916d-eb3549d744d3","system_id":"levelo_inurba_marseille","lat":43.337444,"lon":5.374475,"is_reserved":false,"is_disabled":false,"rental_uris":{"android":"levelo://app?vid=95fcacf0-7086-4a79-916d-eb3549d744d3","ios":"levelo://app?vid=95fcacf0-7086-4a79-916d-eb3549d744d3"},"vehicle_type_id":"4","last_reported":1777292058,"current_range_meters":7200,"station_id":"","pricing_plan_id":"cebpf4jnsgd1na2vs0mg"},{"bike_id":"8566a950-70e0-4304-90df-6849e1a802d9","system_id":"levelo_inurba_marseille","lat":43.275276,"lon":5.43436,"is_reserved":false,"is_disabled":false,"rental_uris":{"android":"levelo://app?vid=8566a950-70e0-4304-90df-6849e1a802d9","ios":"levelo://app?vid=8566a950-70e0-4304-90df-6849e1a802d9"},"vehicle_type_id":"4","last_reported":1777292058,"current_range_meters":7200,"station_id":"","pricing_plan_id":"cebpf4jnsgd1na2vs0mg"},{"bike_id":"bd2c7d31-fe9e-468d-9d54-feca4b12126c","system_id":"levelo_inurba_marseille","lat":43.30885,"lon":5.37174,"is_reserved":false,"is_disabled":false,"rental_uris":{"android":"levelo://app?vid=bd2c7d31-fe9e-468d-9d54-feca4b12126c","ios":"levelo://app?vid=bd2c7d31-fe9e-468d-9d54-feca4b12126c"},"vehicle_type_id":"4","last_reported":1777292058,"current_range_meters":7200,"station_id":"ce4bguh2rcd13ifvqckg","pricing_plan_id":"cebpf4jnsgd1na2vs0mg"},{"bike_id":"0d8c3362-be20-49ce-8a46-7df1fa0c42ea","system_id":"levelo_inurba_marseille","lat":43.24801,"lon":5.37477,"is_reserved":false,"is_disabled":false,"rental_uris":{"android":"levelo://app?vid=0d8c3362-be20-49ce-8a46-7df1fa0c42ea","ios":"levelo://app?vid=0d8c3362-be20-49ce-8a46-7df1fa0c42ea"},"vehicle_type_id":"4","last_reported":1777292058,"current_range_meters":7200,"station_id":"ce4bhgh2rcd13ifvqfb0","pricing_plan_id":"cebpf4jnsgd1na2vs0mg"},{"bike_id":"d52e1645-df44-4071-b1cb-b900a44b7ad1","system_id":"levelo_inurba_marseille","lat":43.29587,"lon":5.3748,"is_reserved":false,"is_disabled":false,"rental_uris":{"android":"levelo://app?vid=d52e1645-df44-4071-b1cb-b900a44b7ad1","ios":"levelo://app?vid=d52e1645-df44-4071-b1cb-b900a44b7ad1"},"vehicle_type_id":"4","last_reported":1777292058,"current_range_meters":7200,"station_id":"ce4bgh92rcd13ifvqb50","pricing_plan_id":"cebpf4jnsgd1na2vs0mg"},{"bike_id":"71016f77-2094-4ed9-8956-75ef0073cf6a","system_id":"levelo_inurba_marseille","lat":43.24546,"lon":5.39512,"is_reserved":false,"is_disabled":false,"rental_uris":{"android":"levelo://app?vid=71016f77-2094-4ed9-8956-75ef0073cf6a","ios":"levelo://app?vid=71016f77-2094-4ed9-8956-75ef0073cf6a"},"vehicle_type_id":"4","last_reported":1777292058,"current_range_meters":8000,"station_id":"ce4bhlp2rcd13ifvqgjg","pricing_plan_id":"cebpf4jnsgd1na2vs0mg"},{"bike_id":"6953a9bb-2d85-44f1-9cfb-c42b8165eeb8","system_id":"levelo_inurba_marseille","lat":43.27814,"lon":5.40708,"is_reserved":false,"is_disabled":false,"rental_uris":{"android":"levelo://app?vid=6953a9bb-2d85-44f1-9cfb-c42b8165eeb8","ios":"levelo://app?vid=6953a9bb-2d85-44f1-9cfb-c42b8165eeb8"},"vehicle_type_id":"4","last_reported":1777292058,"current_range_meters":8000,"station_id":"ce4bhnh2rcd13ifvqgtg","pricing_plan_id":"cebpf4jnsgd1na2vs0mg"},{"bike_id":"4d53291f-1e95-4498-b587-2368cae42bea","system_id":"levelo_inurba_marseille","lat":43.3068,"lon":5.37041,"is_reserved":false,"is_disabled":false,"rental_uris":{"android":"levelo://app?vid=4d53291f-1e95-4498-b587-2368cae42bea","ios":"levelo://app?vid=4d53291f-1e95-4498-b587-2368cae42bea"},"vehicle_type_id":"4","last_reported":1777292058,"current_range_meters":8000,"station_id":"","pricing_plan_id":"cebpf4jnsgd1na2vs0mg"},{"bike_id":"b492b0b1-54c7-4f13-a8a7-868a06bf6c91","system_id":"levelo_inurba_marseille","lat":43.30432,"lon":5.38892,"is_reserved":false,"is_disabled":false,"rental_uris":{"android":"levelo://app?vid=b492b0b1-54c7-4f13-a8a7-868a06bf6c91","ios":"levelo://app?vid=b492b0b1-54c7-4f13-a8a7-868a06bf6c91"},"vehicle_type_id":"4","last_reported":1777292058,"current_range_meters":8000,"station_id":"ce4bgk12rcd13ifvqbi0","pricing_plan_id":"cebpf4jnsgd1na2vs0mg"},{"bike_id":"c5e4557e-a579-4ba0-b540-76be6c2c51d2","system_id":"levelo_inurba_marseille","lat":43.26947,"lon":5.40273,"is_reserved":false,"is_disabled":false,"rental_uris":{"android":"levelo://app?vid=c5e4557e-a579-4ba0-b540-76be6c2c51d2","ios":"levelo://app?vid=c5e4557e-a579-4ba0-b540-76be6c2c51d2"},"vehicle_type_id":"4","last_reported":1777292058,"current_range_meters":8000,"station_id":"cjm6bp8fraef2m0cb0m0","pricing_plan_id":"cebpf4jnsgd1na2vs0mg"},{"bike_id":"50411b38-8683-4316-9356-dbd23e388090","system_id":"levelo_inurba_marseille","lat":43.29671,"lon":5.37292,"is_reserved":false,"is_disabled":false,"rental_uris":{"android":"levelo://app?vid=50411b38-8683-4316-9356-dbd23e388090","ios":"levelo://app?vid=50411b38-8683-4316-9356-dbd23e388090"},"vehicle_type_id":"4","last_reported":1777292058,"current_range_meters":8000,"station_id":"ce4bgk12rcd13ifvqbj0","pricing_plan_id":"cebpf4jnsgd1na2vs0mg"},{"bike_id":"e71479ac-2c75-4920-9d3c-08826be0b2df","system_id":"levelo_inurba_marseille","lat":43.2887,"lon":5.42516,"is_reserved":false,"is_disabled":false,"rental_uris":{"android":"levelo://app?vid=e71479ac-2c75-4920-9d3c-08826be0b2df","ios":"levelo://app?vid=e71479ac-2c75-4920-9d3c-08826be0b2df"},"vehicle_type_id":"4","last_reported":1777292058,"current_range_meters":8000,"station_id":"st_d3b462108ojc7389ooeg","pricing_plan_id":"cebpf4jnsgd1na2vs0mg"},{"bike_id":"6b9ceb44-f98b-4474-bf14-5e53602be7a5","system_id":"levelo_inurba_marseille","lat":43.33537,"lon":5.37492,"is_reserved":false,"is_disabled":false,"rental_uris":{"android":"levelo://app?vid=6b9ceb44-f98b-4474-bf14-5e53602be7a5","ios":"levelo://app?vid=6b9ceb44-f98b-4474-bf14-5e53602be7a5"},"vehicle_type_id":"4","last_reported":1777292058,"current_range_meters":8000,"station_id":"st_d46tts09ee8s73dlu43g","pricing_plan_id":"cebpf4jnsgd1na2vs0mg"},{"bike_id":"11effbb2-3489-4e85-aec9-0e018fcdcc03","system_id":"levelo_inurba_marseille","lat":43.23195,"lon":5.35571,"is_reserved":false,"is_disabled":false,"rental_uris":{"android":"levelo://app?vid=11effbb2-3489-4e85-aec9-0e018fcdcc03","ios":"levelo://app?vid=11effbb2-3489-4e85-aec9-0e018fcdcc03"},"vehicle_type_id":"4","last_reported":1777292058,"current_range_meters":8000,"station_id":"ce4bhu92rcd13ifvqi70","pricing_plan_id":"cebpf4jnsgd1na2vs0mg"},{"bike_id":"2e013045-b635-4629-a87d-995ec1628a85","system_id":"levelo_inurba_marseille","lat":43.32112,"lon":5.36774,"is_reserved":false,"is_disabled":false,"rental_uris":{"android":"levelo://app?vid=2e013045-b635-4629-a87d-995ec1628a85","ios":"levelo://app?vid=2e013045-b635-4629-a87d-995ec1628a85"},"vehicle_type_id":"4","last_reported":1777292058,"current_range_meters":8000,"station_id":"ce4bhrh2rcd13ifvqhug","pricing_plan_id":"cebpf4jnsgd1na2vs0mg"},{"bike_id":"53a3123f-fa9d-45d9-b284-09876e4c2ad8","system_id":"levelo_inurba_marseille","lat":43.24039,"lon":5.37733,"is_reserved":false,"is_disabled":false,"rental_uris":{"android":"levelo://app?vid=53a3123f-fa9d-45d9-b284-09876e4c2ad8","ios":"levelo://app?vid=53a3123f-fa9d-45d9-b284-09876e4c2ad8"},"vehicle_type_id":"4","last_reported":1777292058,"current_range_meters":8000,"station_id":"ce4bhnp2rcd13ifvqgvg","pricing_plan_id":"cebpf4jnsgd1na2vs0mg"},{"bike_id":"6b8549bf-30d2-490f-8f61-d9ca43e4d06c","system_id":"levelo_inurba_marseille","lat":43.27025,"lon":5.4024,"is_reserved":false,"is_disabled":false,"rental_uris":{"android":"levelo://app?vid=6b8549bf-30d2-490f-8f61-d9ca43e4d06c","ios":"levelo://app?vid=6b8549bf-30d2-490f-8f61-d9ca43e4d06c"},"vehicle_type_id":"4","last_reported":1777292058,"current_range_meters":8000,"station_id":"ce4bhk92rcd13ifvqgc0","pricing_plan_id":"cebpf4jnsgd1na2vs0mg"},{"bike_id":"02f03480-132f-4ba2-8692-4d2160fb9d35","system_id":"levelo_inurba_marseille","lat":43.21198,"lon":5.35049,"is_reserved":false,"is_disabled":false,"rental_uris":{"android":"levelo://app?vid=02f03480-132f-4ba2-8692-4d2160fb9d35","ios":"levelo://app?vid=02f03480-132f-4ba2-8692-4d2160fb9d35"},"vehicle_type_id":"4","last_reported":1777292058,"current_range_meters":8000,"station_id":"st_cvj6sg6p6f1abm77japg","pricing_plan_id":"cebpf4jnsgd1na2vs0mg"},{"bike_id":"11609c4d-9dc3-4a55-988f-faa6a53a3eff","system_id":"levelo_inurba_marseille","lat":43.21743,"lon":5.34603,"is_reserved":false,"is_disabled":false,"rental_uris":{"android":"levelo://app?vid=11609c4d-9dc3-4a55-988f-faa6a53a3eff","ios":"levelo://app?vid=11609c4d-9dc3-4a55-988f-faa6a53a3eff"},"vehicle_type_id":"4","last_reported":1777292058,"current_range_meters":8000,"station_id":"st_cvj6r9ubvosntc0bgbag","pricing_plan_id":"cebpf4jnsgd1na2vs0mg"},{"bike_id":"a2d12c47-cf12-413d-83d4-73ef3bfa0848","system_id":"levelo_inurba_marseille","lat":43.29313,"lon":5.37166,"is_reserved":false,"is_disabled":false,"rental_uris":{"android":"levelo://app?vid=a2d12c47-cf12-413d-83d4-73ef3bfa0848","ios":"levelo://app?vid=a2d12c47-cf12-413d-83d4-73ef3bfa0848"},"vehicle_type_id":"4","last_reported":1777292058,"current_range_meters":8000,"station_id":"ce4bgh92rcd13ifvqb40","pricing_plan_id":"cebpf4jnsgd1na2vs0mg"},{"bike_id":"bbd4b557-3184-4427-af74-50a1783bcb30","system_id":"levelo_inurba_marseille","lat":43.28616,"lon":5.35097,"is_reserved":false,"is_disabled":false,"rental_uris":{"android":"levelo://app?vid=bbd4b557-3184-4427-af74-50a1783bcb30","ios":"levelo://app?vid=bbd4b557-3184-4427-af74-50a1783bcb30"},"vehicle_type_id":"4","last_reported":1777292058,"current_range_meters":8000,"station_id":"ce4bhch2rcd13ifvqeug","pricing_plan_id":"cebpf4jnsgd1na2vs0mg"},{"bike_id":"a613ec48-8652-47ac-9246-dcfba5774b3a","system_id":"levelo_inurba_marseille","lat":43.24393,"lon":5.37064,"is_reserved":false,"is_disabled":false,"rental_uris":{"android":"levelo://app?vid=a613ec48-8652-47ac-9246-dcfba5774b3a","ios":"levelo://app?vid=a613ec48-8652-47ac-9246-dcfba5774b3a"},"vehicle_type_id":"4","last_reported":1777292058,"current_range_meters":8000,"station_id":"ce4bhhh2rcd13ifvqfk0","pricing_plan_id":"cebpf4jnsgd1na2vs0mg"},{"bike_id":"969b0eaf-1182-4875-a1f1-5398a28d21b3","system_id":"levelo_inurba_marseille","lat":43.2316,"lon":5.4372,"is_reserved":false,"is_disabled":false,"rental_uris":{"android":"levelo://app?vid=969b0eaf-1182-4875-a1f1-5398a28d21b3","ios":"levelo://app?vid=969b0eaf-1182-4875-a1f1-5398a28d21b3"},"vehicle_type_id":"4","last_reported":1777292058,"current_range_meters":8000,"station_id":"ce4bhmp2rcd13ifvqgog","pricing_plan_id":"cebpf4jnsgd1na2vs0mg"},{"bike_id":"00d185af-f40f-470b-9a81-753daa27287d","system_id":"levelo_inurba_marseille","lat":43.31232,"lon":5.36851,"is_reserved":false,"is_disabled":false,"rental_uris":{"android":"levelo://app?vid=00d185af-f40f-470b-9a81-753daa27287d","ios":"levelo://app?vid=00d185af-f40f-470b-9a81-753daa27287d"},"vehicle_type_id":"4","last_reported":1777292058,"current_range_meters":8000,"station_id":"ce4bgl92rcd13ifvqbq0","pricing_plan_id":"cebpf4jnsgd1na2vs0mg"},{"bike_id":"6c0e44b5-b4c6-4989-a0ec-b3c6d257ac1d","system_id":"levelo_inurba_marseille","lat":43.33186,"lon":5.37828,"is_reserved":false,"is_disabled":false,"rental_uris":{"android":"levelo://app?vid=6c0e44b5-b4c6-4989-a0ec-b3c6d257ac1d","ios":"levelo://app?vid=6c0e44b5-b4c6-4989-a0ec-b3c6d257ac1d"},"vehicle_type_id":"4","last_reported":1777292058,"current_range_meters":8400,"station_id":"","pricing_plan_id":"cebpf4jnsgd1na2vs0mg"},{"bike_id":"f78bf31c-df78-48c6-9a47-5c19da562946","system_id":"levelo_inurba_marseille","lat":43.30471,"lon":5.37892,"is_reserved":false,"is_disabled":false,"rental_uris":{"android":"levelo://app?vid=f78bf31c-df78-48c6-9a47-5c19da562946","ios":"levelo://app?vid=f78bf31c-df78-48c6-9a47-5c19da562946"},"vehicle_type_id":"4","last_reported":1777292058,"current_range_meters":8400,"station_id":"ce4bgup2rcd13ifvqcn0","pricing_plan_id":"cebpf4jnsgd1na2vs0mg"},{"bike_id":"c31b5d1c-46cc-4d73-b4e1-46ad96a77cbe","system_id":"levelo_inurba_marseille","lat":43.24081,"lon":5.37736,"is_reserved":false,"is_disabled":false,"rental_uris":{"android":"levelo://app?vid=c31b5d1c-46cc-4d73-b4e1-46ad96a77cbe","ios":"levelo://app?vid=c31b5d1c-46cc-4d73-b4e1-46ad96a77cbe"},"vehicle_type_id":"4","last_reported":1777292058,"current_range_meters":8400,"station_id":"ce4bhnp2rcd13ifvqgvg","pricing_plan_id":"cebpf4jnsgd1na2vs0mg"},{"bike_id":"2f755aa1-105e-447f-807e-a8d37a45e600","system_id":"levelo_inurba_marseille","lat":43.28953,"lon":5.39269,"is_reserved":false,"is_disabled":false,"rental_uris":{"android":"levelo://app?vid=2f755aa1-105e-447f-807e-a8d37a45e600","ios":"levelo://app?vid=2f755aa1-105e-447f-807e-a8d37a45e600"},"vehicle_type_id":"4","last_reported":1777292058,"current_range_meters":8400,"station_id":"","pricing_plan_id":"cebpf4jnsgd1na2vs0mg"},{"bike_id":"8f13b61e-8a25-4927-8213-0f8d3090195b","system_id":"levelo_inurba_marseille","lat":43.28464,"lon":5.4843,"is_reserved":false,"is_disabled":false,"rental_uris":{"android":"levelo://app?vid=8f13b61e-8a25-4927-8213-0f8d3090195b","ios":"levelo://app?vid=8f13b61e-8a25-4927-8213-0f8d3090195b"},"vehicle_type_id":"4","last_reported":1777292058,"current_range_meters":8400,"station_id":"","pricing_plan_id":"cebpf4jnsgd1na2vs0mg"},{"bike_id":"e1ed0d6c-571b-47d3-bd40-eea4fd60ac4e","system_id":"levelo_inurba_marseille","lat":43.28697,"lon":5.37949,"is_reserved":false,"is_disabled":false,"rental_uris":{"android":"levelo://app?vid=e1ed0d6c-571b-47d3-bd40-eea4fd60ac4e","ios":"levelo://app?vid=e1ed0d6c-571b-47d3-bd40-eea4fd60ac4e"},"vehicle_type_id":"4","last_reported":1777292058,"current_range_meters":8400,"station_id":"ce4bh9p2rcd13ifvqec0","pricing_plan_id":"cebpf4jnsgd1na2vs0mg"},{"bike_id":"d87e5569-0261-4533-9033-6ed1790b62fb","system_id":"levelo_inurba_marseille","lat":43.27501,"lon":5.42451,"is_reserved":false,"is_disabled":false,"rental_uris":{"android":"levelo://app?vid=d87e5569-0261-4533-9033-6ed1790b62fb","ios":"levelo://app?vid=d87e5569-0261-4533-9033-6ed1790b62fb"},"vehicle_type_id":"4","last_reported":1777292058,"current_range_meters":8400,"station_id":"ce4bhn92rcd13ifvqgrg","pricing_plan_id":"cebpf4jnsgd1na2vs0mg"},{"bike_id":"29583756-f587-48b8-9ddd-9f821205dd65","system_id":"levelo_inurba_marseille","lat":43.29529,"lon":5.37506,"is_reserved":false,"is_disabled":false,"rental_uris":{"android":"levelo://app?vid=29583756-f587-48b8-9ddd-9f821205dd65","ios":"levelo://app?vid=29583756-f587-48b8-9ddd-9f821205dd65"},"vehicle_type_id":"4","last_reported":1777292058,"current_range_meters":8400,"station_id":"ce4bgkp2rcd13ifvqbmg","pricing_plan_id":"cebpf4jnsgd1na2vs0mg"},{"bike_id":"f1972612-70a3-43ba-a6ee-8060bb047f56","system_id":"levelo_inurba_marseille","lat":43.27838,"lon":5.40718,"is_reserved":false,"is_disabled":false,"rental_uris":{"android":"levelo://app?vid=f1972612-70a3-43ba-a6ee-8060bb047f56","ios":"levelo://app?vid=f1972612-70a3-43ba-a6ee-8060bb047f56"},"vehicle_type_id":"4","last_reported":1777292058,"current_range_meters":8400,"station_id":"ce4bhnh2rcd13ifvqgtg","pricing_plan_id":"cebpf4jnsgd1na2vs0mg"},{"bike_id":"213d89ca-ed42-47d5-a7e0-3dc14fc3ceab","system_id":"levelo_inurba_marseille","lat":43.2826,"lon":5.35059,"is_reserved":false,"is_disabled":false,"rental_uris":{"android":"levelo://app?vid=213d89ca-ed42-47d5-a7e0-3dc14fc3ceab","ios":"levelo://app?vid=213d89ca-ed42-47d5-a7e0-3dc14fc3ceab"},"vehicle_type_id":"4","last_reported":1777292058,"current_range_meters":8400,"station_id":"ce4bhbp2rcd13ifvqerg","pricing_plan_id":"cebpf4jnsgd1na2vs0mg"},{"bike_id":"2e1487b5-ffbe-4174-a3cb-5f2ca03b60ce","system_id":"levelo_inurba_marseille","lat":43.28496,"lon":5.48385,"is_reserved":false,"is_disabled":false,"rental_uris":{"android":"levelo://app?vid=2e1487b5-ffbe-4174-a3cb-5f2ca03b60ce","ios":"levelo://app?vid=2e1487b5-ffbe-4174-a3cb-5f2ca03b60ce"},"vehicle_type_id":"4","last_reported":1777292058,"current_range_meters":8400,"station_id":"st_d3svhcjqgbts73a3dn0g","pricing_plan_id":"cebpf4jnsgd1na2vs0mg"},{"bike_id":"fd2d5cdd-668e-474d-b85f-8e17dc95e099","system_id":"levelo_inurba_marseille","lat":43.29305,"lon":5.3746,"is_reserved":false,"is_disabled":false,"rental_uris":{"android":"levelo://app?vid=fd2d5cdd-668e-474d-b85f-8e17dc95e099","ios":"levelo://app?vid=fd2d5cdd-668e-474d-b85f-8e17dc95e099"},"vehicle_type_id":"4","last_reported":1777292058,"current_range_meters":8400,"station_id":"ce4bgi12rcd13ifvqb70","pricing_plan_id":"cebpf4jnsgd1na2vs0mg"},{"bike_id":"62e4c2e7-f13d-4635-bde4-080c251abf7e","system_id":"levelo_inurba_marseille","lat":43.29573,"lon":5.39968,"is_reserved":false,"is_disabled":false,"rental_uris":{"android":"levelo://app?vid=62e4c2e7-f13d-4635-bde4-080c251abf7e","ios":"levelo://app?vid=62e4c2e7-f13d-4635-bde4-080c251abf7e"},"vehicle_type_id":"4","last_reported":1777292058,"current_range_meters":8400,"station_id":"ce4bh312rcd13ifvqdj0","pricing_plan_id":"cebpf4jnsgd1na2vs0mg"},{"bike_id":"9668853e-b5b8-4eff-a715-7c0d9a106cad","system_id":"levelo_inurba_marseille","lat":43.30553,"lon":5.38095,"is_reserved":false,"is_disabled":false,"rental_uris":{"android":"levelo://app?vid=9668853e-b5b8-4eff-a715-7c0d9a106cad","ios":"levelo://app?vid=9668853e-b5b8-4eff-a715-7c0d9a106cad"},"vehicle_type_id":"4","last_reported":1777292058,"current_range_meters":8400,"station_id":"","pricing_plan_id":"cebpf4jnsgd1na2vs0mg"},{"bike_id":"20390428-a7a1-452e-834a-56424711f53c","system_id":"levelo_inurba_marseille","lat":43.26486,"lon":5.39541,"is_reserved":false,"is_disabled":false,"rental_uris":{"android":"levelo://app?vid=20390428-a7a1-452e-834a-56424711f53c","ios":"levelo://app?vid=20390428-a7a1-452e-834a-56424711f53c"},"vehicle_type_id":"4","last_reported":1777292058,"current_range_meters":8400,"station_id":"ce4bhi12rcd13ifvqfq0","pricing_plan_id":"cebpf4jnsgd1na2vs0mg"},{"bike_id":"4b49ab9b-eeca-4117-b1e9-4b53277a58b0","system_id":"levelo_inurba_marseille","lat":43.23196,"lon":5.3554,"is_reserved":false,"is_disabled":false,"rental_uris":{"android":"levelo://app?vid=4b49ab9b-eeca-4117-b1e9-4b53277a58b0","ios":"levelo://app?vid=4b49ab9b-eeca-4117-b1e9-4b53277a58b0"},"vehicle_type_id":"4","last_reported":1777292058,"current_range_meters":8400,"station_id":"ce4bhu92rcd13ifvqi70","pricing_plan_id":"cebpf4jnsgd1na2vs0mg"},{"bike_id":"58ed6a13-d208-4ebb-82ad-8708a5bbec55","system_id":"levelo_inurba_marseille","lat":43.32108,"lon":5.36758,"is_reserved":false,"is_disabled":false,"rental_uris":{"android":"levelo://app?vid=58ed6a13-d208-4ebb-82ad-8708a5bbec55","ios":"levelo://app?vid=58ed6a13-d208-4ebb-82ad-8708a5bbec55"},"vehicle_type_id":"4","last_reported":1777292058,"current_range_meters":8400,"station_id":"ce4bhrh2rcd13ifvqhug","pricing_plan_id":"cebpf4jnsgd1na2vs0mg"},{"bike_id":"1d51c702-75ba-494d-89c9-6b8c4379e860","system_id":"levelo_inurba_marseille","lat":43.31218,"lon":5.37813,"is_reserved":false,"is_disabled":false,"rental_uris":{"android":"levelo://app?vid=1d51c702-75ba-494d-89c9-6b8c4379e860","ios":"levelo://app?vid=1d51c702-75ba-494d-89c9-6b8c4379e860"},"vehicle_type_id":"4","last_reported":1777292058,"current_range_meters":8400,"station_id":"","pricing_plan_id":"cebpf4jnsgd1na2vs0mg"},{"bike_id":"76b92ed2-bd33-4f23-8e21-d765c14d6eb5","system_id":"levelo_inurba_marseille","lat":43.24187,"lon":5.39701,"is_reserved":false,"is_disabled":true,"rental_uris":{"android":"levelo://app?vid=76b92ed2-bd33-4f23-8e21-d765c14d6eb5","ios":"levelo://app?vid=76b92ed2-bd33-4f23-8e21-d765c14d6eb5"},"vehicle_type_id":"4","last_reported":1777292058,"current_range_meters":8400,"station_id":"ce4bhn12rcd13ifvqgpg","pricing_plan_id":"cebpf4jnsgd1na2vs0mg"},{"bike_id":"f9d371b3-5eca-4684-83e4-83febb4192ee","system_id":"levelo_inurba_marseille","lat":43.25933,"lon":5.40869,"is_reserved":false,"is_disabled":false,"rental_uris":{"android":"levelo://app?vid=f9d371b3-5eca-4684-83e4-83febb4192ee","ios":"levelo://app?vid=f9d371b3-5eca-4684-83e4-83febb4192ee"},"vehicle_type_id":"4","last_reported":1777292058,"current_range_meters":8800,"station_id":"ce4bhm92rcd13ifvqglg","pricing_plan_id":"cebpf4jnsgd1na2vs0mg"},{"bike_id":"7d24a3ee-0eb9-47a1-8904-33af700bdc69","system_id":"levelo_inurba_marseille","lat":43.28481,"lon":5.48386,"is_reserved":false,"is_disabled":false,"rental_uris":{"android":"levelo://app?vid=7d24a3ee-0eb9-47a1-8904-33af700bdc69","ios":"levelo://app?vid=7d24a3ee-0eb9-47a1-8904-33af700bdc69"},"vehicle_type_id":"4","last_reported":1777292058,"current_range_meters":8800,"station_id":"st_d3svhcjqgbts73a3dn0g","pricing_plan_id":"cebpf4jnsgd1na2vs0mg"},{"bike_id":"1401200e-5936-42c2-aba3-47659625462c","system_id":"levelo_inurba_marseille","lat":43.28506,"lon":5.38445,"is_reserved":false,"is_disabled":false,"rental_uris":{"android":"levelo://app?vid=1401200e-5936-42c2-aba3-47659625462c","ios":"levelo://app?vid=1401200e-5936-42c2-aba3-47659625462c"},"vehicle_type_id":"4","last_reported":1777292058,"current_range_meters":8800,"station_id":"ce4bh512rcd13ifvqe3g","pricing_plan_id":"cebpf4jnsgd1na2vs0mg"},{"bike_id":"ff8d3f37-8ad4-405e-ba70-67022972202f","system_id":"levelo_inurba_marseille","lat":43.30953,"lon":5.39051,"is_reserved":false,"is_disabled":false,"rental_uris":{"android":"levelo://app?vid=ff8d3f37-8ad4-405e-ba70-67022972202f","ios":"levelo://app?vid=ff8d3f37-8ad4-405e-ba70-67022972202f"},"vehicle_type_id":"4","last_reported":1777292058,"current_range_meters":8800,"station_id":"ce4bgup2rcd13ifvqco0","pricing_plan_id":"cebpf4jnsgd1na2vs0mg"},{"bike_id":"633a7919-24b3-4ba2-b51c-27b65dc34870","system_id":"levelo_inurba_marseille","lat":43.26214,"lon":5.37444,"is_reserved":false,"is_disabled":false,"rental_uris":{"android":"levelo://app?vid=633a7919-24b3-4ba2-b51c-27b65dc34870","ios":"levelo://app?vid=633a7919-24b3-4ba2-b51c-27b65dc34870"},"vehicle_type_id":"4","last_reported":1777292058,"current_range_meters":8800,"station_id":"ce4bhgp2rcd13ifvqfc0","pricing_plan_id":"cebpf4jnsgd1na2vs0mg"},{"bike_id":"d91a79ea-757d-4fb0-822d-efffb3df9a9a","system_id":"levelo_inurba_marseille","lat":43.24639,"lon":5.38887,"is_reserved":false,"is_disabled":false,"rental_uris":{"android":"levelo://app?vid=d91a79ea-757d-4fb0-822d-efffb3df9a9a","ios":"levelo://app?vid=d91a79ea-757d-4fb0-822d-efffb3df9a9a"},"vehicle_type_id":"4","last_reported":1777292058,"current_range_meters":8800,"station_id":"ce4bhg12rcd13ifvqf60","pricing_plan_id":"cebpf4jnsgd1na2vs0mg"},{"bike_id":"93480eab-73de-42fb-842b-e764295ed010","system_id":"levelo_inurba_marseille","lat":43.26784,"lon":5.39409,"is_reserved":false,"is_disabled":false,"rental_uris":{"android":"levelo://app?vid=93480eab-73de-42fb-842b-e764295ed010","ios":"levelo://app?vid=93480eab-73de-42fb-842b-e764295ed010"},"vehicle_type_id":"4","last_reported":1777292058,"current_range_meters":8800,"station_id":"ce4bhh12rcd13ifvqfg0","pricing_plan_id":"cebpf4jnsgd1na2vs0mg"},{"bike_id":"95a526e4-5021-4159-9ccb-232553afdc79","system_id":"levelo_inurba_marseille","lat":43.31122,"lon":5.37749,"is_reserved":false,"is_disabled":false,"rental_uris":{"android":"levelo://app?vid=95a526e4-5021-4159-9ccb-232553afdc79","ios":"levelo://app?vid=95a526e4-5021-4159-9ccb-232553afdc79"},"vehicle_type_id":"4","last_reported":1777292058,"current_range_meters":8800,"station_id":"ce4bgt92rcd13ifvqcg0","pricing_plan_id":"cebpf4jnsgd1na2vs0mg"},{"bike_id":"751bc786-9504-4c6e-af89-5b2ef3a43b0a","system_id":"levelo_inurba_marseille","lat":43.24468,"lon":5.42537,"is_reserved":false,"is_disabled":false,"rental_uris":{"android":"levelo://app?vid=751bc786-9504-4c6e-af89-5b2ef3a43b0a","ios":"levelo://app?vid=751bc786-9504-4c6e-af89-5b2ef3a43b0a"},"vehicle_type_id":"4","last_reported":1777292058,"current_range_meters":8800,"station_id":"st_d4a3vfp97mjs738cd8kg","pricing_plan_id":"cebpf4jnsgd1na2vs0mg"},{"bike_id":"a94fa734-9369-4182-8465-885f52524494","system_id":"levelo_inurba_marseille","lat":43.31222,"lon":5.36857,"is_reserved":false,"is_disabled":false,"rental_uris":{"android":"levelo://app?vid=a94fa734-9369-4182-8465-885f52524494","ios":"levelo://app?vid=a94fa734-9369-4182-8465-885f52524494"},"vehicle_type_id":"4","last_reported":1777292058,"current_range_meters":8800,"station_id":"ce4bgl92rcd13ifvqbq0","pricing_plan_id":"cebpf4jnsgd1na2vs0mg"},{"bike_id":"f40f981e-bc71-4234-9e60-367c83195fe5","system_id":"levelo_inurba_marseille","lat":43.29602,"lon":5.37718,"is_reserved":false,"is_disabled":false,"rental_uris":{"android":"levelo://app?vid=f40f981e-bc71-4234-9e60-367c83195fe5","ios":"levelo://app?vid=f40f981e-bc71-4234-9e60-367c83195fe5"},"vehicle_type_id":"4","last_reported":1777292058,"current_range_meters":8800,"station_id":"ce4bgi92rcd13ifvqb90","pricing_plan_id":"cebpf4jnsgd1na2vs0mg"},{"bike_id":"dd590341-7511-4484-a775-ab80f8d34f5b","system_id":"levelo_inurba_marseille","lat":43.30545,"lon":5.36551,"is_reserved":false,"is_disabled":false,"rental_uris":{"android":"levelo://app?vid=dd590341-7511-4484-a775-ab80f8d34f5b","ios":"levelo://app?vid=dd590341-7511-4484-a775-ab80f8d34f5b"},"vehicle_type_id":"4","last_reported":1777292058,"current_range_meters":8800,"station_id":"ce4bgs12rcd13ifvqcag","pricing_plan_id":"cebpf4jnsgd1na2vs0mg"},{"bike_id":"486a6bd7-6877-47a7-872d-b6d92138ce35","system_id":"levelo_inurba_marseille","lat":43.28155,"lon":5.42627,"is_reserved":false,"is_disabled":false,"rental_uris":{"android":"levelo://app?vid=486a6bd7-6877-47a7-872d-b6d92138ce35","ios":"levelo://app?vid=486a6bd7-6877-47a7-872d-b6d92138ce35"},"vehicle_type_id":"4","last_reported":1777292058,"current_range_meters":8800,"station_id":"ce4bhnh2rcd13ifvqgug","pricing_plan_id":"cebpf4jnsgd1na2vs0mg"},{"bike_id":"312799b7-bca9-4abf-91f7-76a61892299b","system_id":"levelo_inurba_marseille","lat":43.24055,"lon":5.37772,"is_reserved":false,"is_disabled":false,"rental_uris":{"android":"levelo://app?vid=312799b7-bca9-4abf-91f7-76a61892299b","ios":"levelo://app?vid=312799b7-bca9-4abf-91f7-76a61892299b"},"vehicle_type_id":"4","last_reported":1777292058,"current_range_meters":8800,"station_id":"ce4bhnp2rcd13ifvqgvg","pricing_plan_id":"cebpf4jnsgd1na2vs0mg"},{"bike_id":"3462feaa-c9a2-441c-b3a1-f70058c367e6","system_id":"levelo_inurba_marseille","lat":43.24386,"lon":5.37077,"is_reserved":false,"is_disabled":false,"rental_uris":{"android":"levelo://app?vid=3462feaa-c9a2-441c-b3a1-f70058c367e6","ios":"levelo://app?vid=3462feaa-c9a2-441c-b3a1-f70058c367e6"},"vehicle_type_id":"4","last_reported":1777292058,"current_range_meters":9200,"station_id":"ce4bhhh2rcd13ifvqfk0","pricing_plan_id":"cebpf4jnsgd1na2vs0mg"},{"bike_id":"2bf5909e-db5d-4f9b-8a8e-19055fa02988","system_id":"levelo_inurba_marseille","lat":43.23896,"lon":5.37449,"is_reserved":false,"is_disabled":false,"rental_uris":{"android":"levelo://app?vid=2bf5909e-db5d-4f9b-8a8e-19055fa02988","ios":"levelo://app?vid=2bf5909e-db5d-4f9b-8a8e-19055fa02988"},"vehicle_type_id":"4","last_reported":1777292058,"current_range_meters":9200,"station_id":"st_d6sm7csbq4hs73f8fpjg","pricing_plan_id":"cebpf4jnsgd1na2vs0mg"},{"bike_id":"6e626c2d-0f0f-49cb-8986-100ce2bef12f","system_id":"levelo_inurba_marseille","lat":43.29959,"lon":5.41322,"is_reserved":false,"is_disabled":false,"rental_uris":{"android":"levelo://app?vid=6e626c2d-0f0f-49cb-8986-100ce2bef12f","ios":"levelo://app?vid=6e626c2d-0f0f-49cb-8986-100ce2bef12f"},"vehicle_type_id":"4","last_reported":1777292058,"current_range_meters":9200,"station_id":"ce4bhp12rcd13ifvqh9g","pricing_plan_id":"cebpf4jnsgd1na2vs0mg"},{"bike_id":"a81e7873-8538-45aa-91fc-d0ac52b881da","system_id":"levelo_inurba_marseille","lat":43.3248,"lon":5.3825,"is_reserved":false,"is_disabled":false,"rental_uris":{"android":"levelo://app?vid=a81e7873-8538-45aa-91fc-d0ac52b881da","ios":"levelo://app?vid=a81e7873-8538-45aa-91fc-d0ac52b881da"},"vehicle_type_id":"4","last_reported":1777292058,"current_range_meters":9200,"station_id":"st_d4asgbiv49dc73anf9m0","pricing_plan_id":"cebpf4jnsgd1na2vs0mg"},{"bike_id":"e593377f-0b04-468e-be39-461905e9f322","system_id":"levelo_inurba_marseille","lat":43.24659,"lon":5.38881,"is_reserved":false,"is_disabled":false,"rental_uris":{"android":"levelo://app?vid=e593377f-0b04-468e-be39-461905e9f322","ios":"levelo://app?vid=e593377f-0b04-468e-be39-461905e9f322"},"vehicle_type_id":"4","last_reported":1777292058,"current_range_meters":9200,"station_id":"ce4bhg12rcd13ifvqf60","pricing_plan_id":"cebpf4jnsgd1na2vs0mg"},{"bike_id":"16d472fe-eb19-4acc-8aa8-94088ad37de6","system_id":"levelo_inurba_marseille","lat":43.35202,"lon":5.36383,"is_reserved":false,"is_disabled":false,"rental_uris":{"android":"levelo://app?vid=16d472fe-eb19-4acc-8aa8-94088ad37de6","ios":"levelo://app?vid=16d472fe-eb19-4acc-8aa8-94088ad37de6"},"vehicle_type_id":"4","last_reported":1777292058,"current_range_meters":9200,"station_id":"","pricing_plan_id":"cebpf4jnsgd1na2vs0mg"},{"bike_id":"5bc4f588-a829-4b77-b07b-903334e8a9e6","system_id":"levelo_inurba_marseille","lat":43.33717,"lon":5.39184,"is_reserved":false,"is_disabled":false,"rental_uris":{"android":"levelo://app?vid=5bc4f588-a829-4b77-b07b-903334e8a9e6","ios":"levelo://app?vid=5bc4f588-a829-4b77-b07b-903334e8a9e6"},"vehicle_type_id":"4","last_reported":1777292058,"current_range_meters":9200,"station_id":"ce4bhr92rcd13ifvqhsg","pricing_plan_id":"cebpf4jnsgd1na2vs0mg"},{"bike_id":"72abf62e-932a-415b-b521-2732bf33c432","system_id":"levelo_inurba_marseille","lat":43.32476,"lon":5.36571,"is_reserved":false,"is_disabled":false,"rental_uris":{"android":"levelo://app?vid=72abf62e-932a-415b-b521-2732bf33c432","ios":"levelo://app?vid=72abf62e-932a-415b-b521-2732bf33c432"},"vehicle_type_id":"4","last_reported":1777292058,"current_range_meters":9200,"station_id":"ce4bhs12rcd13ifvqhvg","pricing_plan_id":"cebpf4jnsgd1na2vs0mg"},{"bike_id":"a15c039d-dcd1-4a55-add3-1c3f0f1d12e3","system_id":"levelo_inurba_marseille","lat":43.28612,"lon":5.3512,"is_reserved":false,"is_disabled":false,"rental_uris":{"android":"levelo://app?vid=a15c039d-dcd1-4a55-add3-1c3f0f1d12e3","ios":"levelo://app?vid=a15c039d-dcd1-4a55-add3-1c3f0f1d12e3"},"vehicle_type_id":"4","last_reported":1777292058,"current_range_meters":9200,"station_id":"ce4bhch2rcd13ifvqeug","pricing_plan_id":"cebpf4jnsgd1na2vs0mg"},{"bike_id":"646a0f9b-3490-45e5-8f45-66c37f96ae83","system_id":"levelo_inurba_marseille","lat":43.29007,"lon":5.35601,"is_reserved":false,"is_disabled":false,"rental_uris":{"android":"levelo://app?vid=646a0f9b-3490-45e5-8f45-66c37f96ae83","ios":"levelo://app?vid=646a0f9b-3490-45e5-8f45-66c37f96ae83"},"vehicle_type_id":"4","last_reported":1777292058,"current_range_meters":9200,"station_id":"ce4bhb92rcd13ifvqen0","pricing_plan_id":"cebpf4jnsgd1na2vs0mg"},{"bike_id":"511b6884-6d1a-4909-add3-762ec103ac5b","system_id":"levelo_inurba_marseille","lat":43.29006,"lon":5.35608,"is_reserved":false,"is_disabled":false,"rental_uris":{"android":"levelo://app?vid=511b6884-6d1a-4909-add3-762ec103ac5b","ios":"levelo://app?vid=511b6884-6d1a-4909-add3-762ec103ac5b"},"vehicle_type_id":"4","last_reported":1777292058,"current_range_meters":9200,"station_id":"ce4bhb92rcd13ifvqen0","pricing_plan_id":"cebpf4jnsgd1na2vs0mg"},{"bike_id":"677af1d9-938e-4b6c-b039-133bb7651a17","system_id":"levelo_inurba_marseille","lat":43.28401,"lon":5.37535,"is_reserved":false,"is_disabled":false,"rental_uris":{"android":"levelo://app?vid=677af1d9-938e-4b6c-b039-133bb7651a17","ios":"levelo://app?vid=677af1d9-938e-4b6c-b039-133bb7651a17"},"vehicle_type_id":"4","last_reported":1777292058,"current_range_meters":9600,"station_id":"ce4bh412rcd13ifvqds0","pricing_plan_id":"cebpf4jnsgd1na2vs0mg"},{"bike_id":"0d4dfb01-63c5-4be7-bdb0-5163c6b2578c","system_id":"levelo_inurba_marseille","lat":43.31883,"lon":5.36809,"is_reserved":false,"is_disabled":false,"rental_uris":{"android":"levelo://app?vid=0d4dfb01-63c5-4be7-bdb0-5163c6b2578c","ios":"levelo://app?vid=0d4dfb01-63c5-4be7-bdb0-5163c6b2578c"},"vehicle_type_id":"4","last_reported":1777292058,"current_range_meters":9600,"station_id":"st_d6o2h0d0559c73evc1b0","pricing_plan_id":"cebpf4jnsgd1na2vs0mg"},{"bike_id":"24100535-7ffb-4941-9370-cff5c33ee78c","system_id":"levelo_inurba_marseille","lat":43.30886,"lon":5.39647,"is_reserved":false,"is_disabled":false,"rental_uris":{"android":"levelo://app?vid=24100535-7ffb-4941-9370-cff5c33ee78c","ios":"levelo://app?vid=24100535-7ffb-4941-9370-cff5c33ee78c"},"vehicle_type_id":"4","last_reported":1777292058,"current_range_meters":9600,"station_id":"ce4bh012rcd13ifvqcv0","pricing_plan_id":"cebpf4jnsgd1na2vs0mg"},{"bike_id":"b5088cd7-5e45-457a-ae9f-32446d67355c","system_id":"levelo_inurba_marseille","lat":43.32461,"lon":5.36536,"is_reserved":false,"is_disabled":false,"rental_uris":{"android":"levelo://app?vid=b5088cd7-5e45-457a-ae9f-32446d67355c","ios":"levelo://app?vid=b5088cd7-5e45-457a-ae9f-32446d67355c"},"vehicle_type_id":"4","last_reported":1777292058,"current_range_meters":9600,"station_id":"ce4bhs12rcd13ifvqhvg","pricing_plan_id":"cebpf4jnsgd1na2vs0mg"},{"bike_id":"36080542-6349-4f50-a674-af97dd89998f","system_id":"levelo_inurba_marseille","lat":43.23916,"lon":5.37457,"is_reserved":false,"is_disabled":false,"rental_uris":{"android":"levelo://app?vid=36080542-6349-4f50-a674-af97dd89998f","ios":"levelo://app?vid=36080542-6349-4f50-a674-af97dd89998f"},"vehicle_type_id":"4","last_reported":1777292058,"current_range_meters":9600,"station_id":"st_d6sm7csbq4hs73f8fpjg","pricing_plan_id":"cebpf4jnsgd1na2vs0mg"},{"bike_id":"25907a73-66a7-4a9f-ab0f-7f2f35ddc394","system_id":"levelo_inurba_marseille","lat":43.29614,"lon":5.37196,"is_reserved":false,"is_disabled":false,"rental_uris":{"android":"levelo://app?vid=25907a73-66a7-4a9f-ab0f-7f2f35ddc394","ios":"levelo://app?vid=25907a73-66a7-4a9f-ab0f-7f2f35ddc394"},"vehicle_type_id":"4","last_reported":1777292058,"current_range_meters":9600,"station_id":"ce4bgnh2rcd13ifvqc0g","pricing_plan_id":"cebpf4jnsgd1na2vs0mg"},{"bike_id":"a7ef47ae-ac7a-4811-8371-2ebdbd6eea38","system_id":"levelo_inurba_marseille","lat":43.2174,"lon":5.34613,"is_reserved":false,"is_disabled":false,"rental_uris":{"android":"levelo://app?vid=a7ef47ae-ac7a-4811-8371-2ebdbd6eea38","ios":"levelo://app?vid=a7ef47ae-ac7a-4811-8371-2ebdbd6eea38"},"vehicle_type_id":"4","last_reported":1777292058,"current_range_meters":9600,"station_id":"st_cvj6r9ubvosntc0bgbag","pricing_plan_id":"cebpf4jnsgd1na2vs0mg"},{"bike_id":"76907408-a8ff-4688-9cbf-66e48bb415e8","system_id":"levelo_inurba_marseille","lat":43.28696,"lon":5.46678,"is_reserved":false,"is_disabled":false,"rental_uris":{"android":"levelo://app?vid=76907408-a8ff-4688-9cbf-66e48bb415e8","ios":"levelo://app?vid=76907408-a8ff-4688-9cbf-66e48bb415e8"},"vehicle_type_id":"4","last_reported":1777292058,"current_range_meters":9600,"station_id":"st_d6tc3vkotcvc738tfjhg","pricing_plan_id":"cebpf4jnsgd1na2vs0mg"},{"bike_id":"987eda33-b3ad-4fac-a63c-0e3ff496e921","system_id":"levelo_inurba_marseille","lat":43.32346,"lon":5.36726,"is_reserved":false,"is_disabled":false,"rental_uris":{"android":"levelo://app?vid=987eda33-b3ad-4fac-a63c-0e3ff496e921","ios":"levelo://app?vid=987eda33-b3ad-4fac-a63c-0e3ff496e921"},"vehicle_type_id":"4","last_reported":1777292058,"current_range_meters":9600,"station_id":"ce4bhsh2rcd13ifvqi2g","pricing_plan_id":"cebpf4jnsgd1na2vs0mg"},{"bike_id":"73bacf58-9c9f-44e6-94e2-540146408774","system_id":"levelo_inurba_marseille","lat":43.29796,"lon":5.38099,"is_reserved":false,"is_disabled":false,"rental_uris":{"android":"levelo://app?vid=73bacf58-9c9f-44e6-94e2-540146408774","ios":"levelo://app?vid=73bacf58-9c9f-44e6-94e2-540146408774"},"vehicle_type_id":"4","last_reported":1777292058,"current_range_meters":9600,"station_id":"ce4bgip2rcd13ifvqbb0","pricing_plan_id":"cebpf4jnsgd1na2vs0mg"},{"bike_id":"9daae5fc-029a-4575-8080-71abfd7ee94e","system_id":"levelo_inurba_marseille","lat":43.21199,"lon":5.35048,"is_reserved":false,"is_disabled":false,"rental_uris":{"android":"levelo://app?vid=9daae5fc-029a-4575-8080-71abfd7ee94e","ios":"levelo://app?vid=9daae5fc-029a-4575-8080-71abfd7ee94e"},"vehicle_type_id":"4","last_reported":1777292058,"current_range_meters":9600,"station_id":"st_cvj6sg6p6f1abm77japg","pricing_plan_id":"cebpf4jnsgd1na2vs0mg"},{"bike_id":"8c453933-3cc8-45c9-b512-89b777a9b3cd","system_id":"levelo_inurba_marseille","lat":43.30459,"lon":5.37903,"is_reserved":false,"is_disabled":false,"rental_uris":{"android":"levelo://app?vid=8c453933-3cc8-45c9-b512-89b777a9b3cd","ios":"levelo://app?vid=8c453933-3cc8-45c9-b512-89b777a9b3cd"},"vehicle_type_id":"4","last_reported":1777292058,"current_range_meters":9600,"station_id":"ce4bgup2rcd13ifvqcn0","pricing_plan_id":"cebpf4jnsgd1na2vs0mg"},{"bike_id":"61352da7-57b7-47da-b645-e0f90250dafb","system_id":"levelo_inurba_marseille","lat":43.27939,"lon":5.38716,"is_reserved":false,"is_disabled":false,"rental_uris":{"android":"levelo://app?vid=61352da7-57b7-47da-b645-e0f90250dafb","ios":"levelo://app?vid=61352da7-57b7-47da-b645-e0f90250dafb"},"vehicle_type_id":"4","last_reported":1777292058,"current_range_meters":9600,"station_id":"ce4bhg12rcd13ifvqf80","pricing_plan_id":"cebpf4jnsgd1na2vs0mg"},{"bike_id":"bed6db5e-5528-400f-a413-ad4f89dd386f","system_id":"levelo_inurba_marseille","lat":43.27371,"lon":5.36257,"is_reserved":false,"is_disabled":false,"rental_uris":{"android":"levelo://app?vid=bed6db5e-5528-400f-a413-ad4f89dd386f","ios":"levelo://app?vid=bed6db5e-5528-400f-a413-ad4f89dd386f"},"vehicle_type_id":"4","last_reported":1777292058,"current_range_meters":9600,"station_id":"ce4bhbh2rcd13ifvqeo0","pricing_plan_id":"cebpf4jnsgd1na2vs0mg"},{"bike_id":"8b4e6bd3-1e82-4277-a45a-3a8abaa4e3ab","system_id":"levelo_inurba_marseille","lat":43.28476,"lon":5.48392,"is_reserved":false,"is_disabled":false,"rental_uris":{"android":"levelo://app?vid=8b4e6bd3-1e82-4277-a45a-3a8abaa4e3ab","ios":"levelo://app?vid=8b4e6bd3-1e82-4277-a45a-3a8abaa4e3ab"},"vehicle_type_id":"4","last_reported":1777292058,"current_range_meters":9600,"station_id":"","pricing_plan_id":"cebpf4jnsgd1na2vs0mg"},{"bike_id":"105efc9e-3838-46fd-901a-00c028de905e","system_id":"levelo_inurba_marseille","lat":43.29703,"lon":5.36604,"is_reserved":false,"is_disabled":false,"rental_uris":{"android":"levelo://app?vid=105efc9e-3838-46fd-901a-00c028de905e","ios":"levelo://app?vid=105efc9e-3838-46fd-901a-00c028de905e"},"vehicle_type_id":"4","last_reported":1777292058,"current_range_meters":9600,"station_id":"ce4bgn12rcd13ifvqbt0","pricing_plan_id":"cebpf4jnsgd1na2vs0mg"},{"bike_id":"d22d4105-2f6c-4b18-949d-c0d1d665c21d","system_id":"levelo_inurba_marseille","lat":43.31736,"lon":5.42379,"is_reserved":false,"is_disabled":false,"rental_uris":{"android":"levelo://app?vid=d22d4105-2f6c-4b18-949d-c0d1d665c21d","ios":"levelo://app?vid=d22d4105-2f6c-4b18-949d-c0d1d665c21d"},"vehicle_type_id":"4","last_reported":1777292058,"current_range_meters":9600,"station_id":"ce4bhp92rcd13ifvqhbg","pricing_plan_id":"cebpf4jnsgd1na2vs0mg"},{"bike_id":"3cf26fe4-db96-49b5-bc58-4564bf731331","system_id":"levelo_inurba_marseille","lat":43.26806,"lon":5.40266,"is_reserved":false,"is_disabled":false,"rental_uris":{"android":"levelo://app?vid=3cf26fe4-db96-49b5-bc58-4564bf731331","ios":"levelo://app?vid=3cf26fe4-db96-49b5-bc58-4564bf731331"},"vehicle_type_id":"4","last_reported":1777292058,"current_range_meters":9600,"station_id":"ce501612rcd8frsf0b60","pricing_plan_id":"cebpf4jnsgd1na2vs0mg"},{"bike_id":"c04c42cf-36a4-4a3c-b656-dde2fe1bae7e","system_id":"levelo_inurba_marseille","lat":43.28574,"lon":5.40268,"is_reserved":false,"is_disabled":false,"rental_uris":{"android":"levelo://app?vid=c04c42cf-36a4-4a3c-b656-dde2fe1bae7e","ios":"levelo://app?vid=c04c42cf-36a4-4a3c-b656-dde2fe1bae7e"},"vehicle_type_id":"4","last_reported":1777292058,"current_range_meters":9600,"station_id":"","pricing_plan_id":"cebpf4jnsgd1na2vs0mg"},{"bike_id":"ca970bed-dff0-40b1-aa6e-d0db5b10d8ee","system_id":"levelo_inurba_marseille","lat":43.27431,"lon":5.39408,"is_reserved":false,"is_disabled":true,"rental_uris":{"android":"levelo://app?vid=ca970bed-dff0-40b1-aa6e-d0db5b10d8ee","ios":"levelo://app?vid=ca970bed-dff0-40b1-aa6e-d0db5b10d8ee"},"vehicle_type_id":"4","last_reported":1777292058,"current_range_meters":10000,"station_id":"ce4bhdp2rcd13ifvqf20","pricing_plan_id":"cebpf4jnsgd1na2vs0mg"},{"bike_id":"5f9c3b69-bd1f-4193-8539-44f621c927b9","system_id":"levelo_inurba_marseille","lat":43.23157,"lon":5.43692,"is_reserved":false,"is_disabled":true,"rental_uris":{"android":"levelo://app?vid=5f9c3b69-bd1f-4193-8539-44f621c927b9","ios":"levelo://app?vid=5f9c3b69-bd1f-4193-8539-44f621c927b9"},"vehicle_type_id":"4","last_reported":1777292058,"current_range_meters":10000,"station_id":"ce4bhmp2rcd13ifvqgog","pricing_plan_id":"cebpf4jnsgd1na2vs0mg"},{"bike_id":"61d91b6f-51c5-4c97-9b15-0d227be874ce","system_id":"levelo_inurba_marseille","lat":43.29307,"lon":5.37454,"is_reserved":false,"is_disabled":false,"rental_uris":{"android":"levelo://app?vid=61d91b6f-51c5-4c97-9b15-0d227be874ce","ios":"levelo://app?vid=61d91b6f-51c5-4c97-9b15-0d227be874ce"},"vehicle_type_id":"4","last_reported":1777292058,"current_range_meters":10000,"station_id":"ce4bgi12rcd13ifvqb70","pricing_plan_id":"cebpf4jnsgd1na2vs0mg"},{"bike_id":"dabc5e28-b9df-4b1a-affa-f2e365a8b45b","system_id":"levelo_inurba_marseille","lat":43.32094,"lon":5.36776,"is_reserved":false,"is_disabled":false,"rental_uris":{"android":"levelo://app?vid=dabc5e28-b9df-4b1a-affa-f2e365a8b45b","ios":"levelo://app?vid=dabc5e28-b9df-4b1a-affa-f2e365a8b45b"},"vehicle_type_id":"4","last_reported":1777292058,"current_range_meters":10000,"station_id":"ce4bhrh2rcd13ifvqhug","pricing_plan_id":"cebpf4jnsgd1na2vs0mg"},{"bike_id":"697fb2a4-e494-4242-8576-17a670ff6a6a","system_id":"levelo_inurba_marseille","lat":43.31426,"lon":5.367,"is_reserved":false,"is_disabled":false,"rental_uris":{"android":"levelo://app?vid=697fb2a4-e494-4242-8576-17a670ff6a6a","ios":"levelo://app?vid=697fb2a4-e494-4242-8576-17a670ff6a6a"},"vehicle_type_id":"4","last_reported":1777292058,"current_range_meters":10000,"station_id":"","pricing_plan_id":"cebpf4jnsgd1na2vs0mg"},{"bike_id":"89b292ff-19a4-45e1-8050-c13116ae5eed","system_id":"levelo_inurba_marseille","lat":43.28982,"lon":5.37815,"is_reserved":false,"is_disabled":false,"rental_uris":{"android":"levelo://app?vid=89b292ff-19a4-45e1-8050-c13116ae5eed","ios":"levelo://app?vid=89b292ff-19a4-45e1-8050-c13116ae5eed"},"vehicle_type_id":"4","last_reported":1777292058,"current_range_meters":10000,"station_id":"","pricing_plan_id":"cebpf4jnsgd1na2vs0mg"},{"bike_id":"f447fec5-f118-42c2-be2c-8ef32b6d20a2","system_id":"levelo_inurba_marseille","lat":43.26002,"lon":5.4171,"is_reserved":false,"is_disabled":false,"rental_uris":{"android":"levelo://app?vid=f447fec5-f118-42c2-be2c-8ef32b6d20a2","ios":"levelo://app?vid=f447fec5-f118-42c2-be2c-8ef32b6d20a2"},"vehicle_type_id":"4","last_reported":1777292058,"current_range_meters":10000,"station_id":"","pricing_plan_id":"cebpf4jnsgd1na2vs0mg"},{"bike_id":"73aae967-5a2a-40a5-b2c3-e9f615f0a5f1","system_id":"levelo_inurba_marseille","lat":43.27815,"lon":5.40708,"is_reserved":false,"is_disabled":false,"rental_uris":{"android":"levelo://app?vid=73aae967-5a2a-40a5-b2c3-e9f615f0a5f1","ios":"levelo://app?vid=73aae967-5a2a-40a5-b2c3-e9f615f0a5f1"},"vehicle_type_id":"4","last_reported":1777292058,"current_range_meters":10000,"station_id":"ce4bhnh2rcd13ifvqgtg","pricing_plan_id":"cebpf4jnsgd1na2vs0mg"},{"bike_id":"3f36396b-1b61-4d76-bb22-7d600ffeb289","system_id":"levelo_inurba_marseille","lat":43.29298,"lon":5.37149,"is_reserved":false,"is_disabled":false,"rental_uris":{"android":"levelo://app?vid=3f36396b-1b61-4d76-bb22-7d600ffeb289","ios":"levelo://app?vid=3f36396b-1b61-4d76-bb22-7d600ffeb289"},"vehicle_type_id":"4","last_reported":1777292058,"current_range_meters":10000,"station_id":"ce4bgh92rcd13ifvqb40","pricing_plan_id":"cebpf4jnsgd1na2vs0mg"},{"bike_id":"4470e9b0-5d96-4aee-9a22-d394cb29d060","system_id":"levelo_inurba_marseille","lat":43.31036,"lon":5.37171,"is_reserved":false,"is_disabled":false,"rental_uris":{"android":"levelo://app?vid=4470e9b0-5d96-4aee-9a22-d394cb29d060","ios":"levelo://app?vid=4470e9b0-5d96-4aee-9a22-d394cb29d060"},"vehicle_type_id":"4","last_reported":1777292058,"current_range_meters":10000,"station_id":"st_d4kl2rp97mjs73e7tdfg","pricing_plan_id":"cebpf4jnsgd1na2vs0mg"},{"bike_id":"61066481-f8b0-42ad-802b-ad134997e95c","system_id":"levelo_inurba_marseille","lat":43.24636,"lon":5.43148,"is_reserved":false,"is_disabled":true,"rental_uris":{"android":"levelo://app?vid=61066481-f8b0-42ad-802b-ad134997e95c","ios":"levelo://app?vid=61066481-f8b0-42ad-802b-ad134997e95c"},"vehicle_type_id":"4","last_reported":1777292058,"current_range_meters":10000,"station_id":"st_d2m6c4gdas8pm72e190g","pricing_plan_id":"cebpf4jnsgd1na2vs0mg"},{"bike_id":"74929e98-c2e0-43cc-b447-0901251d01cb","system_id":"levelo_inurba_marseille","lat":43.2549,"lon":5.37677,"is_reserved":false,"is_disabled":false,"rental_uris":{"android":"levelo://app?vid=74929e98-c2e0-43cc-b447-0901251d01cb","ios":"levelo://app?vid=74929e98-c2e0-43cc-b447-0901251d01cb"},"vehicle_type_id":"4","last_reported":1777292058,"current_range_meters":10000,"station_id":"ce4bhh12rcd13ifvqff0","pricing_plan_id":"cebpf4jnsgd1na2vs0mg"},{"bike_id":"81e52b6e-bff7-4875-a0d8-d533ea21c465","system_id":"levelo_inurba_marseille","lat":43.28177,"lon":5.42621,"is_reserved":false,"is_disabled":false,"rental_uris":{"android":"levelo://app?vid=81e52b6e-bff7-4875-a0d8-d533ea21c465","ios":"levelo://app?vid=81e52b6e-bff7-4875-a0d8-d533ea21c465"},"vehicle_type_id":"4","last_reported":1777292058,"current_range_meters":10000,"station_id":"ce4bhnh2rcd13ifvqgug","pricing_plan_id":"cebpf4jnsgd1na2vs0mg"},{"bike_id":"2d159d75-7449-4a89-89d7-23cc8db011ad","system_id":"levelo_inurba_marseille","lat":43.29042,"lon":5.39958,"is_reserved":false,"is_disabled":false,"rental_uris":{"android":"levelo://app?vid=2d159d75-7449-4a89-89d7-23cc8db011ad","ios":"levelo://app?vid=2d159d75-7449-4a89-89d7-23cc8db011ad"},"vehicle_type_id":"4","last_reported":1777292058,"current_range_meters":10000,"station_id":"ce4bh392rcd13ifvqdm0","pricing_plan_id":"cebpf4jnsgd1na2vs0mg"},{"bike_id":"e5cd69c7-9379-4379-93b8-62cf25a54177","system_id":"levelo_inurba_marseille","lat":43.337497,"lon":5.374492,"is_reserved":false,"is_disabled":false,"rental_uris":{"android":"levelo://app?vid=e5cd69c7-9379-4379-93b8-62cf25a54177","ios":"levelo://app?vid=e5cd69c7-9379-4379-93b8-62cf25a54177"},"vehicle_type_id":"4","last_reported":1777292058,"current_range_meters":10000,"station_id":"","pricing_plan_id":"cebpf4jnsgd1na2vs0mg"},{"bike_id":"7bcedf02-9a8d-4c48-9322-c8f1820e6785","system_id":"levelo_inurba_marseille","lat":43.30538,"lon":5.36554,"is_reserved":false,"is_disabled":false,"rental_uris":{"android":"levelo://app?vid=7bcedf02-9a8d-4c48-9322-c8f1820e6785","ios":"levelo://app?vid=7bcedf02-9a8d-4c48-9322-c8f1820e6785"},"vehicle_type_id":"4","last_reported":1777292058,"current_range_meters":10000,"station_id":"ce4bgs12rcd13ifvqcag","pricing_plan_id":"cebpf4jnsgd1na2vs0mg"},{"bike_id":"4ba61b34-f7bb-4ca0-9046-9b3e3c519121","system_id":"levelo_inurba_marseille","lat":43.24092,"lon":5.37736,"is_reserved":false,"is_disabled":false,"rental_uris":{"android":"levelo://app?vid=4ba61b34-f7bb-4ca0-9046-9b3e3c519121","ios":"levelo://app?vid=4ba61b34-f7bb-4ca0-9046-9b3e3c519121"},"vehicle_type_id":"4","last_reported":1777292058,"current_range_meters":10000,"station_id":"ce4bhnp2rcd13ifvqgvg","pricing_plan_id":"cebpf4jnsgd1na2vs0mg"},{"bike_id":"afde96ac-1493-4085-af72-e5da568a87fd","system_id":"levelo_inurba_marseille","lat":43.28533,"lon":5.48375,"is_reserved":false,"is_disabled":false,"rental_uris":{"android":"levelo://app?vid=afde96ac-1493-4085-af72-e5da568a87fd","ios":"levelo://app?vid=afde96ac-1493-4085-af72-e5da568a87fd"},"vehicle_type_id":"4","last_reported":1777292058,"current_range_meters":10000,"station_id":"st_d3svhcjqgbts73a3dn0g","pricing_plan_id":"cebpf4jnsgd1na2vs0mg"},{"bike_id":"d2dcdcc5-6d4d-4600-bd20-6f143cfea1e9","system_id":"levelo_inurba_marseille","lat":43.25114,"lon":5.40328,"is_reserved":false,"is_disabled":false,"rental_uris":{"android":"levelo://app?vid=d2dcdcc5-6d4d-4600-bd20-6f143cfea1e9","ios":"levelo://app?vid=d2dcdcc5-6d4d-4600-bd20-6f143cfea1e9"},"vehicle_type_id":"4","last_reported":1777292058,"current_range_meters":10000,"station_id":"ce4bhlh2rcd13ifvqgig","pricing_plan_id":"cebpf4jnsgd1na2vs0mg"},{"bike_id":"ccc64b12-fba8-4953-9e4c-789c15629674","system_id":"levelo_inurba_marseille","lat":43.2319,"lon":5.35027,"is_reserved":false,"is_disabled":false,"rental_uris":{"android":"levelo://app?vid=ccc64b12-fba8-4953-9e4c-789c15629674","ios":"levelo://app?vid=ccc64b12-fba8-4953-9e4c-789c15629674"},"vehicle_type_id":"4","last_reported":1777292058,"current_range_meters":10000,"station_id":"","pricing_plan_id":"cebpf4jnsgd1na2vs0mg"},{"bike_id":"f910f006-6469-4189-b18f-2d7d32e9f493","system_id":"levelo_inurba_marseille","lat":43.23158,"lon":5.43706,"is_reserved":false,"is_disabled":false,"rental_uris":{"android":"levelo://app?vid=f910f006-6469-4189-b18f-2d7d32e9f493","ios":"levelo://app?vid=f910f006-6469-4189-b18f-2d7d32e9f493"},"vehicle_type_id":"4","last_reported":1777292058,"current_range_meters":10000,"station_id":"ce4bhmp2rcd13ifvqgog","pricing_plan_id":"cebpf4jnsgd1na2vs0mg"},{"bike_id":"20111a87-41c4-4eaf-9fe8-f7469b02a4e4","system_id":"levelo_inurba_marseille","lat":43.30123,"lon":5.43106,"is_reserved":false,"is_disabled":false,"rental_uris":{"android":"levelo://app?vid=20111a87-41c4-4eaf-9fe8-f7469b02a4e4","ios":"levelo://app?vid=20111a87-41c4-4eaf-9fe8-f7469b02a4e4"},"vehicle_type_id":"4","last_reported":1777292058,"current_range_meters":10000,"station_id":"st_d3js3co5814s73ftftug","pricing_plan_id":"cebpf4jnsgd1na2vs0mg"},{"bike_id":"dc4f256b-dad1-4b0e-b0aa-70815278bacb","system_id":"levelo_inurba_marseille","lat":43.28967,"lon":5.39318,"is_reserved":false,"is_disabled":false,"rental_uris":{"android":"levelo://app?vid=dc4f256b-dad1-4b0e-b0aa-70815278bacb","ios":"levelo://app?vid=dc4f256b-dad1-4b0e-b0aa-70815278bacb"},"vehicle_type_id":"4","last_reported":1777292058,"current_range_meters":10000,"station_id":"","pricing_plan_id":"cebpf4jnsgd1na2vs0mg"},{"bike_id":"a47cfbcd-20dd-4aea-84bd-621220a0698b","system_id":"levelo_inurba_marseille","lat":43.30474,"lon":5.37899,"is_reserved":false,"is_disabled":false,"rental_uris":{"android":"levelo://app?vid=a47cfbcd-20dd-4aea-84bd-621220a0698b","ios":"levelo://app?vid=a47cfbcd-20dd-4aea-84bd-621220a0698b"},"vehicle_type_id":"4","last_reported":1777292058,"current_range_meters":10000,"station_id":"ce4bgup2rcd13ifvqcn0","pricing_plan_id":"cebpf4jnsgd1na2vs0mg"},{"bike_id":"bd8c90d7-60d3-4d36-ba77-9cf5ca28e807","system_id":"levelo_inurba_marseille","lat":43.23154,"lon":5.43707,"is_reserved":false,"is_disabled":false,"rental_uris":{"android":"levelo://app?vid=bd8c90d7-60d3-4d36-ba77-9cf5ca28e807","ios":"levelo://app?vid=bd8c90d7-60d3-4d36-ba77-9cf5ca28e807"},"vehicle_type_id":"4","last_reported":1777292058,"current_range_meters":10000,"station_id":"ce4bhmp2rcd13ifvqgog","pricing_plan_id":"cebpf4jnsgd1na2vs0mg"},{"bike_id":"64276637-3e1c-443b-93ab-151270870127","system_id":"levelo_inurba_marseille","lat":43.23164,"lon":5.43714,"is_reserved":false,"is_disabled":false,"rental_uris":{"android":"levelo://app?vid=64276637-3e1c-443b-93ab-151270870127","ios":"levelo://app?vid=64276637-3e1c-443b-93ab-151270870127"},"vehicle_type_id":"4","last_reported":1777292058,"current_range_meters":10000,"station_id":"ce4bhmp2rcd13ifvqgog","pricing_plan_id":"cebpf4jnsgd1na2vs0mg"},{"bike_id":"dd203bea-73f8-483b-9ab1-161a950b0c6a","system_id":"levelo_inurba_marseille","lat":43.337444,"lon":5.374475,"is_reserved":false,"is_disabled":false,"rental_uris":{"android":"levelo://app?vid=dd203bea-73f8-483b-9ab1-161a950b0c6a","ios":"levelo://app?vid=dd203bea-73f8-483b-9ab1-161a950b0c6a"},"vehicle_type_id":"4","last_reported":1777292058,"current_range_meters":10000,"station_id":"","pricing_plan_id":"cebpf4jnsgd1na2vs0mg"},{"bike_id":"ffd5c4f5-564f-4571-abe7-44df0387d92e","system_id":"levelo_inurba_marseille","lat":43.28755,"lon":5.37844,"is_reserved":false,"is_disabled":false,"rental_uris":{"android":"levelo://app?vid=ffd5c4f5-564f-4571-abe7-44df0387d92e","ios":"levelo://app?vid=ffd5c4f5-564f-4571-abe7-44df0387d92e"},"vehicle_type_id":"4","last_reported":1777292058,"current_range_meters":10800,"station_id":"","pricing_plan_id":"cebpf4jnsgd1na2vs0mg"},{"bike_id":"a97570da-d984-488e-84d7-de616d98f899","system_id":"levelo_inurba_marseille","lat":43.29034,"lon":5.39973,"is_reserved":false,"is_disabled":false,"rental_uris":{"android":"levelo://app?vid=a97570da-d984-488e-84d7-de616d98f899","ios":"levelo://app?vid=a97570da-d984-488e-84d7-de616d98f899"},"vehicle_type_id":"4","last_reported":1777292058,"current_range_meters":10800,"station_id":"ce4bh392rcd13ifvqdm0","pricing_plan_id":"cebpf4jnsgd1na2vs0mg"},{"bike_id":"ad56de6f-fe93-490d-a436-ad6e3cda9489","system_id":"levelo_inurba_marseille","lat":43.24071,"lon":5.37748,"is_reserved":false,"is_disabled":false,"rental_uris":{"android":"levelo://app?vid=ad56de6f-fe93-490d-a436-ad6e3cda9489","ios":"levelo://app?vid=ad56de6f-fe93-490d-a436-ad6e3cda9489"},"vehicle_type_id":"4","last_reported":1777292058,"current_range_meters":10800,"station_id":"ce4bhnp2rcd13ifvqgvg","pricing_plan_id":"cebpf4jnsgd1na2vs0mg"},{"bike_id":"23b9edcd-305b-48b3-b42b-c5b2d1a2cdca","system_id":"levelo_inurba_marseille","lat":43.26971,"lon":5.38535,"is_reserved":false,"is_disabled":false,"rental_uris":{"android":"levelo://app?vid=23b9edcd-305b-48b3-b42b-c5b2d1a2cdca","ios":"levelo://app?vid=23b9edcd-305b-48b3-b42b-c5b2d1a2cdca"},"vehicle_type_id":"4","last_reported":1777292058,"current_range_meters":10800,"station_id":"","pricing_plan_id":"cebpf4jnsgd1na2vs0mg"},{"bike_id":"94b1d427-102e-4c64-aa76-0c93e226150f","system_id":"levelo_inurba_marseille","lat":43.28473,"lon":5.4841,"is_reserved":false,"is_disabled":false,"rental_uris":{"android":"levelo://app?vid=94b1d427-102e-4c64-aa76-0c93e226150f","ios":"levelo://app?vid=94b1d427-102e-4c64-aa76-0c93e226150f"},"vehicle_type_id":"4","last_reported":1777292058,"current_range_meters":10800,"station_id":"st_d3svhcjqgbts73a3dn0g","pricing_plan_id":"cebpf4jnsgd1na2vs0mg"},{"bike_id":"eaacdb91-1c5b-4303-af36-dd942656ca09","system_id":"levelo_inurba_marseille","lat":43.2583,"lon":5.39403,"is_reserved":false,"is_disabled":false,"rental_uris":{"android":"levelo://app?vid=eaacdb91-1c5b-4303-af36-dd942656ca09","ios":"levelo://app?vid=eaacdb91-1c5b-4303-af36-dd942656ca09"},"vehicle_type_id":"4","last_reported":1777292058,"current_range_meters":10800,"station_id":"ce4bhip2rcd13ifvqft0","pricing_plan_id":"cebpf4jnsgd1na2vs0mg"},{"bike_id":"1f016d3d-9fe4-4abc-b992-a842e1174acb","system_id":"levelo_inurba_marseille","lat":43.24683,"lon":5.3812,"is_reserved":false,"is_disabled":false,"rental_uris":{"android":"levelo://app?vid=1f016d3d-9fe4-4abc-b992-a842e1174acb","ios":"levelo://app?vid=1f016d3d-9fe4-4abc-b992-a842e1174acb"},"vehicle_type_id":"4","last_reported":1777292058,"current_range_meters":10800,"station_id":"ce4bhih2rcd13ifvqfr0","pricing_plan_id":"cebpf4jnsgd1na2vs0mg"},{"bike_id":"80c54143-499b-4ed6-aa32-8025b020d580","system_id":"levelo_inurba_marseille","lat":43.29274,"lon":5.36846,"is_reserved":false,"is_disabled":false,"rental_uris":{"android":"levelo://app?vid=80c54143-499b-4ed6-aa32-8025b020d580","ios":"levelo://app?vid=80c54143-499b-4ed6-aa32-8025b020d580"},"vehicle_type_id":"4","last_reported":1777292058,"current_range_meters":10800,"station_id":"ce4bhbp2rcd13ifvqesg","pricing_plan_id":"cebpf4jnsgd1na2vs0mg"},{"bike_id":"626afedd-d732-4bc8-be6f-6408a29380b2","system_id":"levelo_inurba_marseille","lat":43.21207,"lon":5.35085,"is_reserved":false,"is_disabled":false,"rental_uris":{"android":"levelo://app?vid=626afedd-d732-4bc8-be6f-6408a29380b2","ios":"levelo://app?vid=626afedd-d732-4bc8-be6f-6408a29380b2"},"vehicle_type_id":"4","last_reported":1777292058,"current_range_meters":10800,"station_id":"st_cvj6sg6p6f1abm77japg","pricing_plan_id":"cebpf4jnsgd1na2vs0mg"},{"bike_id":"8645f80a-80c6-4ed4-a15e-683f6be96bbe","system_id":"levelo_inurba_marseille","lat":43.24074,"lon":5.37751,"is_reserved":false,"is_disabled":false,"rental_uris":{"android":"levelo://app?vid=8645f80a-80c6-4ed4-a15e-683f6be96bbe","ios":"levelo://app?vid=8645f80a-80c6-4ed4-a15e-683f6be96bbe"},"vehicle_type_id":"4","last_reported":1777292058,"current_range_meters":10800,"station_id":"ce4bhnp2rcd13ifvqgvg","pricing_plan_id":"cebpf4jnsgd1na2vs0mg"},{"bike_id":"f13a84ba-7f91-4dec-b7cf-a4af721da0e0","system_id":"levelo_inurba_marseille","lat":43.31343,"lon":5.36721,"is_reserved":false,"is_disabled":false,"rental_uris":{"android":"levelo://app?vid=f13a84ba-7f91-4dec-b7cf-a4af721da0e0","ios":"levelo://app?vid=f13a84ba-7f91-4dec-b7cf-a4af721da0e0"},"vehicle_type_id":"4","last_reported":1777292058,"current_range_meters":10800,"station_id":"ce4bgr92rcd13ifvqc6g","pricing_plan_id":"cebpf4jnsgd1na2vs0mg"},{"bike_id":"68ecf2f6-4ac5-45b8-9640-383e9e07a83c","system_id":"levelo_inurba_marseille","lat":43.24558,"lon":5.41586,"is_reserved":false,"is_disabled":false,"rental_uris":{"android":"levelo://app?vid=68ecf2f6-4ac5-45b8-9640-383e9e07a83c","ios":"levelo://app?vid=68ecf2f6-4ac5-45b8-9640-383e9e07a83c"},"vehicle_type_id":"4","last_reported":1777292058,"current_range_meters":10800,"station_id":"","pricing_plan_id":"cebpf4jnsgd1na2vs0mg"},{"bike_id":"f13c1412-9987-4b53-aa5c-79a6ecb2ba2d","system_id":"levelo_inurba_marseille","lat":43.32357,"lon":5.36723,"is_reserved":false,"is_disabled":false,"rental_uris":{"android":"levelo://app?vid=f13c1412-9987-4b53-aa5c-79a6ecb2ba2d","ios":"levelo://app?vid=f13c1412-9987-4b53-aa5c-79a6ecb2ba2d"},"vehicle_type_id":"4","last_reported":1777292058,"current_range_meters":10800,"station_id":"ce4bhsh2rcd13ifvqi2g","pricing_plan_id":"cebpf4jnsgd1na2vs0mg"},{"bike_id":"6aa1b58b-9662-431b-b1b1-f3858553d765","system_id":"levelo_inurba_marseille","lat":43.25111,"lon":5.40316,"is_reserved":false,"is_disabled":false,"rental_uris":{"android":"levelo://app?vid=6aa1b58b-9662-431b-b1b1-f3858553d765","ios":"levelo://app?vid=6aa1b58b-9662-431b-b1b1-f3858553d765"},"vehicle_type_id":"4","last_reported":1777292058,"current_range_meters":10800,"station_id":"ce4bhlh2rcd13ifvqgig","pricing_plan_id":"cebpf4jnsgd1na2vs0mg"},{"bike_id":"a66923f3-e74e-4f93-b64a-a0c137af3049","system_id":"levelo_inurba_marseille","lat":43.27373,"lon":5.36257,"is_reserved":false,"is_disabled":false,"rental_uris":{"android":"levelo://app?vid=a66923f3-e74e-4f93-b64a-a0c137af3049","ios":"levelo://app?vid=a66923f3-e74e-4f93-b64a-a0c137af3049"},