{"last_updated":1705342183,"ttl":30,"version":"2.2","data":{"bikes":[{"bike_id":"52150d56-873f-43f1-b652-7cf98f4536f8","system_id":"levelo_inurba_marseille","lat":43.31341,"lon":5.367098,"is_reserved":false,"is_disabled":false,"rental_uris":{"android":"levelo://app?vid=52150d56-873f-43f1-b652-7cf98f4536f8","ios":"levelo://app?vid=52150d56-873f-43f1-b652-7cf98f4536f8"},"vehicle_type_id":"4","last_reported":1705342183,"current_range_meters":14400,"station_id":"ce4bgr92rcd13ifvqc6g","pricing_plan_id":"free"},{"bike_id":"5732d2da-d87e-4f92-a1eb-11d97d0aeca0","system_id":"levelo_inurba_marseille","lat":43.313604,"lon":5.367086,"is_reserved":false,"is_disabled":false,"rental_uris":{"android":"levelo://app?vid=5732d2da-d87e-4f92-a1eb-11d97d0aeca0","ios":"levelo://app?vid=5732d2da-d87e-4f92-a1eb-11d97d0aeca0"},"vehicle_type_id":"4","last_reported":1705342183,"current_range_meters":30000,"station_id":"ce4bgr92rcd13ifvqc6g","pricing_plan_id":"free"},{"bike_id":"a1578017-92f3-4dcb-870f-2624d68afe26","system_id":"levelo_inurba_marseille","lat":43.312239,"lon":5.368562,"is_reserved":false,"is_disabled":false,"rental_uris":{"android":"levelo://app?vid=a1578017-92f3-4dcb-870f-2624d68afe26","ios":"levelo://app?vid=a1578017-92f3-4dcb-870f-2624d68afe26"},"vehicle_type_id":"4","last_reported":1705342183,"current_range_meters":30000,"station_id":"ce4bgl92rcd13ifvqbq0","pricing_plan_id":"free"},{"bike_id":"c0a6b11b-e18f-4954-afe1-c9ec2007ebc4","system_id":"levelo_inurba_marseille","lat":43.312314,"lon":5.368521,"is_reserved":false,"is_disabled":false,"rental_uris":{"android":"levelo://app?vid=c0a6b11b-e18f-4954-afe1-c9ec2007ebc4","ios":"levelo://app?vid=c0a6b11b-e18f-4954-afe1-c9ec2007ebc4"},"vehicle_type_id":"4","last_reported":1705342183,"current_range_meters":23200,"station_id":"ce4bgl92rcd13ifvqbq0","pricing_plan_id":"free"},{"bike_id":"717df459-9b55-41a2-8844-35a77b1aacd3","system_id":"levelo_inurba_marseille","lat":43.312239,"lon":5.368562,"is_reserved":false,"is_disabled":false,"rental_uris":{"android":"levelo://app?vid=717df459-9b55-41a2-8844-35a77b1aacd3","ios":"levelo://app?vid=717df459-9b55-41a2-8844-35a77b1aacd3"},"vehicle_type_id":"4","last_reported":1705342183,"current_range_meters":30800,"station_id":"ce4bgl92rcd13ifvqbq0","pricing_plan_id":"free"},{"bike_id":"2907ce8a-3c8a-4637-b09d-7231030d412d","system_id":"levelo_inurba_marseille","lat":43.314811,"lon":5.373104,"is_reserved":false,"is_disabled":false,"rental_uris":{"android":"levelo://app?vid=2907ce8a-3c8a-4637-b09d-7231030d412d","ios":"levelo://app?vid=2907ce8a-3c8a-4637-b09d-7231030d412d"},"vehicle_type_id":"4","last_reported":1705342183,"current_range_meters":10400,"station_id":"ce4bgt12rcd13ifvqcd0","pricing_plan_id":"free"},{"bike_id":"2751fe63-7b8e-4a23-aa70-8680c00ee2b6","system_id":"levelo_inurba_marseille","lat":43.3102,"lon":5.37317,"is_reserved":false,"is_disabled":false,"rental_uris":{"android":"levelo://app?vid=2751fe63-7b8e-4a23-aa70-8680c00ee2b6","ios":"levelo://app?vid=2751fe63-7b8e-4a23-aa70-8680c00ee2b6"},"vehicle_type_id":"4","last_reported":1705342183,"current_range_meters":6800,"station_id":"","pricing_plan_id":"free"},{"bike_id":"21756fff-cd2e-463c-8244-307e26c40654","system_id":"levelo_inurba_marseille","lat":43.309039,"lon":5.371797,"is_reserved":false,"is_disabled":false,"rental_uris":{"android":"levelo://app?vid=21756fff-cd2e-463c-8244-307e26c40654","ios":"levelo://app?vid=21756fff-cd2e-463c-8244-307e26c40654"},"vehicle_type_id":"4","last_reported":1705342183,"current_range_meters":19200,"station_id":"ce4bguh2rcd13ifvqckg","pricing_plan_id":"free"},{"bike_id":"f78a4275-ebb9-48d7-9e7b-b8d471e64cfd","system_id":"levelo_inurba_marseille","lat":43.309039,"lon":5.371797,"is_reserved":false,"is_disabled":false,"rental_uris":{"android":"levelo://app?vid=f78a4275-ebb9-48d7-9e7b-b8d471e64cfd","ios":"levelo://app?vid=f78a4275-ebb9-48d7-9e7b-b8d471e64cfd"},"vehicle_type_id":"4","last_reported":1705342183,"current_range_meters":2400,"station_id":"ce4bguh2rcd13ifvqckg","pricing_plan_id":"free"},{"bike_id":"ed8d5e5a-f187-4ccd-8dcf-57f34fd6843d","system_id":"levelo_inurba_marseille","lat":43.30803,"lon":5.37197,"is_reserved":false,"is_disabled":false,"rental_uris":{"android":"levelo://app?vid=ed8d5e5a-f187-4ccd-8dcf-57f34fd6843d","ios":"levelo://app?vid=ed8d5e5a-f187-4ccd-8dcf-57f34fd6843d"},"vehicle_type_id":"4","last_reported":1705342183,"current_range_meters":8000,"station_id":"","pricing_plan_id":"free"},{"bike_id":"0d9c7b88-bd5c-4b84-92eb-a72da325e32b","system_id":"levelo_inurba_marseille","lat":43.309039,"lon":5.371797,"is_reserved":false,"is_disabled":false,"rental_uris":{"android":"levelo://app?vid=0d9c7b88-bd5c-4b84-92eb-a72da325e32b","ios":"levelo://app?vid=0d9c7b88-bd5c-4b84-92eb-a72da325e32b"},"vehicle_type_id":"4","last_reported":1705342183,"current_range_meters":18800,"station_id":"ce4bguh2rcd13ifvqckg","pricing_plan_id":"free"},{"bike_id":"5f259a1c-ff8e-45db-84da-acfdcb3f67e2","system_id":"levelo_inurba_marseille","lat":43.30547,"lon":5.36538,"is_reserved":false,"is_disabled":false,"rental_uris":{"android":"levelo://app?vid=5f259a1c-ff8e-45db-84da-acfdcb3f67e2","ios":"levelo://app?vid=5f259a1c-ff8e-45db-84da-acfdcb3f67e2"},"vehicle_type_id":"4","last_reported":1705342183,"current_range_meters":0,"station_id":"ce4bgs12rcd13ifvqcag","pricing_plan_id":"free"},{"bike_id":"c34e9da4-dde0-4431-ab8b-cd0d9565f987","system_id":"levelo_inurba_marseille","lat":43.305706,"lon":5.365654,"is_reserved":false,"is_disabled":false,"rental_uris":{"android":"levelo://app?vid=c34e9da4-dde0-4431-ab8b-cd0d9565f987","ios":"levelo://app?vid=c34e9da4-dde0-4431-ab8b-cd0d9565f987"},"vehicle_type_id":"4","last_reported":1705342183,"current_range_meters":4800,"station_id":"ce4bgs12rcd13ifvqcag","pricing_plan_id":"free"},{"bike_id":"66f83372-4674-4104-967d-76cd24e109b9","system_id":"levelo_inurba_marseille","lat":43.304959,"lon":5.365473,"is_reserved":false,"is_disabled":false,"rental_uris":{"android":"levelo://app?vid=66f83372-4674-4104-967d-76cd24e109b9","ios":"levelo://app?vid=66f83372-4674-4104-967d-76cd24e109b9"},"vehicle_type_id":"4","last_reported":1705342183,"current_range_meters":2800,"station_id":"ce4bgs12rcd13ifvqcag","pricing_plan_id":"free"},{"bike_id":"23e95a30-9ad2-436a-8f7f-255af3d95af3","system_id":"levelo_inurba_marseille","lat":43.311125,"lon":5.377624,"is_reserved":false,"is_disabled":false,"rental_uris":{"android":"levelo://app?vid=23e95a30-9ad2-436a-8f7f-255af3d95af3","ios":"levelo://app?vid=23e95a30-9ad2-436a-8f7f-255af3d95af3"},"vehicle_type_id":"4","last_reported":1705342183,"current_range_meters":7200,"station_id":"ce4bgt92rcd13ifvqcg0","pricing_plan_id":"free"},{"bike_id":"65f2fa48-ce59-464f-9a82-7d90c2ccfa9c","system_id":"levelo_inurba_marseille","lat":43.307945,"lon":5.376487,"is_reserved":false,"is_disabled":false,"rental_uris":{"android":"levelo://app?vid=65f2fa48-ce59-464f-9a82-7d90c2ccfa9c","ios":"levelo://app?vid=65f2fa48-ce59-464f-9a82-7d90c2ccfa9c"},"vehicle_type_id":"4","last_reported":1705342183,"current_range_meters":1200,"station_id":"ce4bgv92rcd13ifvqcq0","pricing_plan_id":"free"},{"bike_id":"c3b02fbc-b181-45f9-ac99-bb8f373a6aad","system_id":"levelo_inurba_marseille","lat":43.307945,"lon":5.376487,"is_reserved":false,"is_disabled":false,"rental_uris":{"android":"levelo://app?vid=c3b02fbc-b181-45f9-ac99-bb8f373a6aad","ios":"levelo://app?vid=c3b02fbc-b181-45f9-ac99-bb8f373a6aad"},"vehicle_type_id":"4","last_reported":1705342183,"current_range_meters":26400,"station_id":"ce4bgv92rcd13ifvqcq0","pricing_plan_id":"free"},{"bike_id":"7c48b09d-b406-45fc-b34c-28b4f27078ce","system_id":"levelo_inurba_marseille","lat":43.307945,"lon":5.376487,"is_reserved":false,"is_disabled":false,"rental_uris":{"android":"levelo://app?vid=7c48b09d-b406-45fc-b34c-28b4f27078ce","ios":"levelo://app?vid=7c48b09d-b406-45fc-b34c-28b4f27078ce"},"vehicle_type_id":"4","last_reported":1705342183,"current_range_meters":8800,"station_id":"ce4bgv92rcd13ifvqcq0","pricing_plan_id":"free"},{"bike_id":"ba9458d4-865a-4e2a-9617-d97dbbf28042","system_id":"levelo_inurba_marseille","lat":43.3171,"lon":5.37743,"is_reserved":false,"is_disabled":false,"rental_uris":{"android":"levelo://app?vid=ba9458d4-865a-4e2a-9617-d97dbbf28042","ios":"levelo://app?vid=ba9458d4-865a-4e2a-9617-d97dbbf28042"},"vehicle_type_id":"4","last_reported":1705342183,"current_range_meters":26000,"station_id":"ce4bgth2rcd13ifvqch0","pricing_plan_id":"free"},{"bike_id":"95249445-5af6-4e4d-94fe-bd6a68385312","system_id":"levelo_inurba_marseille","lat":43.317017,"lon":5.377652,"is_reserved":false,"is_disabled":false,"rental_uris":{"android":"levelo://app?vid=95249445-5af6-4e4d-94fe-bd6a68385312","ios":"levelo://app?vid=95249445-5af6-4e4d-94fe-bd6a68385312"},"vehicle_type_id":"4","last_reported":1705342183,"current_range_meters":15200,"station_id":"ce4bgth2rcd13ifvqch0","pricing_plan_id":"free"},{"bike_id":"c3693f65-6d4f-417d-9113-c677ab748206","system_id":"levelo_inurba_marseille","lat":43.317075,"lon":5.377367,"is_reserved":false,"is_disabled":false,"rental_uris":{"android":"levelo://app?vid=c3693f65-6d4f-417d-9113-c677ab748206","ios":"levelo://app?vid=c3693f65-6d4f-417d-9113-c677ab748206"},"vehicle_type_id":"4","last_reported":1705342183,"current_range_meters":28400,"station_id":"ce4bgth2rcd13ifvqch0","pricing_plan_id":"free"},{"bike_id":"88ee119e-4e4c-48f6-b780-962e47f09349","system_id":"levelo_inurba_marseille","lat":43.317075,"lon":5.377367,"is_reserved":false,"is_disabled":false,"rental_uris":{"android":"levelo://app?vid=88ee119e-4e4c-48f6-b780-962e47f09349","ios":"levelo://app?vid=88ee119e-4e4c-48f6-b780-962e47f09349"},"vehicle_type_id":"4","last_reported":1705342183,"current_range_meters":14400,"station_id":"ce4bgth2rcd13ifvqch0","pricing_plan_id":"free"},{"bike_id":"bca0d356-3344-4eb0-8f2c-0763e3a5c8b4","system_id":"levelo_inurba_marseille","lat":43.308012,"lon":5.381511,"is_reserved":false,"is_disabled":false,"rental_uris":{"android":"levelo://app?vid=bca0d356-3344-4eb0-8f2c-0763e3a5c8b4","ios":"levelo://app?vid=bca0d356-3344-4eb0-8f2c-0763e3a5c8b4"},"vehicle_type_id":"4","last_reported":1705342183,"current_range_meters":18800,"station_id":"ce4bgt12rcd13ifvqce0","pricing_plan_id":"free"},{"bike_id":"ff81b347-3d9a-43a2-9ce1-9c9187c3f7a4","system_id":"levelo_inurba_marseille","lat":43.308012,"lon":5.381511,"is_reserved":false,"is_disabled":false,"rental_uris":{"android":"levelo://app?vid=ff81b347-3d9a-43a2-9ce1-9c9187c3f7a4","ios":"levelo://app?vid=ff81b347-3d9a-43a2-9ce1-9c9187c3f7a4"},"vehicle_type_id":"4","last_reported":1705342183,"current_range_meters":20800,"station_id":"ce4bgt12rcd13ifvqce0","pricing_plan_id":"free"},{"bike_id":"04d2ed69-b307-4594-af44-5b33bac227de","system_id":"levelo_inurba_marseille","lat":43.304606,"lon":5.379026,"is_reserved":false,"is_disabled":false,"rental_uris":{"android":"levelo://app?vid=04d2ed69-b307-4594-af44-5b33bac227de","ios":"levelo://app?vid=04d2ed69-b307-4594-af44-5b33bac227de"},"vehicle_type_id":"4","last_reported":1705342183,"current_range_meters":10400,"station_id":"ce4bgup2rcd13ifvqcn0","pricing_plan_id":"free"},{"bike_id":"f84f59aa-9755-4cff-b94f-3aaeb709a4a2","system_id":"levelo_inurba_marseille","lat":43.324771,"lon":5.36557,"is_reserved":false,"is_disabled":false,"rental_uris":{"android":"levelo://app?vid=f84f59aa-9755-4cff-b94f-3aaeb709a4a2","ios":"levelo://app?vid=f84f59aa-9755-4cff-b94f-3aaeb709a4a2"},"vehicle_type_id":"4","last_reported":1705342183,"current_range_meters":14400,"station_id":"ce4bhs12rcd13ifvqhvg","pricing_plan_id":"free"},{"bike_id":"af63ebf0-376c-4b10-ad75-e535dada07f5","system_id":"levelo_inurba_marseille","lat":43.324771,"lon":5.36557,"is_reserved":false,"is_disabled":false,"rental_uris":{"android":"levelo://app?vid=af63ebf0-376c-4b10-ad75-e535dada07f5","ios":"levelo://app?vid=af63ebf0-376c-4b10-ad75-e535dada07f5"},"vehicle_type_id":"4","last_reported":1705342183,"current_range_meters":13200,"station_id":"ce4bhs12rcd13ifvqhvg","pricing_plan_id":"free"},{"bike_id":"fa3ab309-d9a3-4112-a5ab-4b51c48d0b83","system_id":"levelo_inurba_marseille","lat":43.324771,"lon":5.36557,"is_reserved":false,"is_disabled":false,"rental_uris":{"android":"levelo://app?vid=fa3ab309-d9a3-4112-a5ab-4b51c48d0b83","ios":"levelo://app?vid=fa3ab309-d9a3-4112-a5ab-4b51c48d0b83"},"vehicle_type_id":"4","last_reported":1705342183,"current_range_meters":400,"station_id":"ce4bhs12rcd13ifvqhvg","pricing_plan_id":"free"},{"bike_id":"8a69b4bb-38b7-4beb-aa2f-45028b2eee05","system_id":"levelo_inurba_marseille","lat":43.31996,"lon":5.38166,"is_reserved":false,"is_disabled":false,"rental_uris":{"android":"levelo://app?vid=8a69b4bb-38b7-4beb-aa2f-45028b2eee05","ios":"levelo://app?vid=8a69b4bb-38b7-4beb-aa2f-45028b2eee05"},"vehicle_type_id":"4","last_reported":1705342183,"current_range_meters":7200,"station_id":"ce4bhr12rcd13ifvqhpg","pricing_plan_id":"free"},{"bike_id":"173bc767-4fa9-4076-a558-efde0cc60f7c","system_id":"levelo_inurba_marseille","lat":43.319935,"lon":5.381699,"is_reserved":false,"is_disabled":false,"rental_uris":{"android":"levelo://app?vid=173bc767-4fa9-4076-a558-efde0cc60f7c","ios":"levelo://app?vid=173bc767-4fa9-4076-a558-efde0cc60f7c"},"vehicle_type_id":"4","last_reported":1705342183,"current_range_meters":16000,"station_id":"ce4bhr12rcd13ifvqhpg","pricing_plan_id":"free"},{"bike_id":"0b0b6f3a-68fe-4dd4-8392-c6c3ebc321fb","system_id":"levelo_inurba_marseille","lat":43.313571,"lon":5.384829,"is_reserved":false,"is_disabled":false,"rental_uris":{"android":"levelo://app?vid=0b0b6f3a-68fe-4dd4-8392-c6c3ebc321fb","ios":"levelo://app?vid=0b0b6f3a-68fe-4dd4-8392-c6c3ebc321fb"},"vehicle_type_id":"4","last_reported":1705342183,"current_range_meters":20000,"station_id":"ce4bgt92rcd13ifvqcf0","pricing_plan_id":"free"},{"bike_id":"8d394dc3-defd-4892-82d5-93f92cccc786","system_id":"levelo_inurba_marseille","lat":43.313571,"lon":5.384829,"is_reserved":false,"is_disabled":false,"rental_uris":{"android":"levelo://app?vid=8d394dc3-defd-4892-82d5-93f92cccc786","ios":"levelo://app?vid=8d394dc3-defd-4892-82d5-93f92cccc786"},"vehicle_type_id":"4","last_reported":1705342183,"current_range_meters":30000,"station_id":"ce4bgt92rcd13ifvqcf0","pricing_plan_id":"free"},{"bike_id":"622d04c7-1788-4804-baa8-78ac56fa315a","system_id":"levelo_inurba_marseille","lat":43.313571,"lon":5.384829,"is_reserved":false,"is_disabled":false,"rental_uris":{"android":"levelo://app?vid=622d04c7-1788-4804-baa8-78ac56fa315a","ios":"levelo://app?vid=622d04c7-1788-4804-baa8-78ac56fa315a"},"vehicle_type_id":"4","last_reported":1705342183,"current_range_meters":5200,"station_id":"ce4bgt92rcd13ifvqcf0","pricing_plan_id":"free"},{"bike_id":"ff067333-f810-497a-a4ac-4d50a0b18406","system_id":"levelo_inurba_marseille","lat":43.299222,"lon":5.365554,"is_reserved":false,"is_disabled":false,"rental_uris":{"android":"levelo://app?vid=ff067333-f810-497a-a4ac-4d50a0b18406","ios":"levelo://app?vid=ff067333-f810-497a-a4ac-4d50a0b18406"},"vehicle_type_id":"4","last_reported":1705342183,"current_range_meters":4000,"station_id":"ce4bgm92rcd13ifvqbr0","pricing_plan_id":"free"},{"bike_id":"62b7145e-5c70-470e-ab5f-e132627e7145","system_id":"levelo_inurba_marseille","lat":43.299222,"lon":5.365554,"is_reserved":false,"is_disabled":false,"rental_uris":{"android":"levelo://app?vid=62b7145e-5c70-470e-ab5f-e132627e7145","ios":"levelo://app?vid=62b7145e-5c70-470e-ab5f-e132627e7145"},"vehicle_type_id":"4","last_reported":1705342183,"current_range_meters":24400,"station_id":"ce4bgm92rcd13ifvqbr0","pricing_plan_id":"free"},{"bike_id":"7568b06e-55ca-45b4-b8ac-c39d771126dd","system_id":"levelo_inurba_marseille","lat":43.300134,"lon":5.374426,"is_reserved":false,"is_disabled":false,"rental_uris":{"android":"levelo://app?vid=7568b06e-55ca-45b4-b8ac-c39d771126dd","ios":"levelo://app?vid=7568b06e-55ca-45b4-b8ac-c39d771126dd"},"vehicle_type_id":"4","last_reported":1705342183,"current_range_meters":6400,"station_id":"","pricing_plan_id":"free"},{"bike_id":"394e09ab-bff8-467a-bfb2-d5785877769b","system_id":"levelo_inurba_marseille","lat":43.322872,"lon":5.382756,"is_reserved":false,"is_disabled":false,"rental_uris":{"android":"levelo://app?vid=394e09ab-bff8-467a-bfb2-d5785877769b","ios":"levelo://app?vid=394e09ab-bff8-467a-bfb2-d5785877769b"},"vehicle_type_id":"4","last_reported":1705342183,"current_range_meters":0,"station_id":"ce4bhr12rcd13ifvqhqg","pricing_plan_id":"free"},{"bike_id":"c5348b86-2ab4-4dc2-b9ef-358d10d3a8e3","system_id":"levelo_inurba_marseille","lat":43.298433,"lon":5.362774,"is_reserved":false,"is_disabled":false,"rental_uris":{"android":"levelo://app?vid=c5348b86-2ab4-4dc2-b9ef-358d10d3a8e3","ios":"levelo://app?vid=c5348b86-2ab4-4dc2-b9ef-358d10d3a8e3"},"vehicle_type_id":"4","last_reported":1705342183,"current_range_meters":4800,"station_id":"ce4bgpp2rcd13ifvqc3g","pricing_plan_id":"free"},{"bike_id":"ce3ad7e1-2e60-4d80-9aa8-f5453115a7e4","system_id":"levelo_inurba_marseille","lat":43.298433,"lon":5.362774,"is_reserved":false,"is_disabled":false,"rental_uris":{"android":"levelo://app?vid=ce3ad7e1-2e60-4d80-9aa8-f5453115a7e4","ios":"levelo://app?vid=ce3ad7e1-2e60-4d80-9aa8-f5453115a7e4"},"vehicle_type_id":"4","last_reported":1705342183,"current_range_meters":0,"station_id":"ce4bgpp2rcd13ifvqc3g","pricing_plan_id":"free"},{"bike_id":"317ea389-f265-4f00-971c-a66b76312af0","system_id":"levelo_inurba_marseille","lat":43.29932,"lon":5.37474,"is_reserved":false,"is_disabled":false,"rental_uris":{"android":"levelo://app?vid=317ea389-f265-4f00-971c-a66b76312af0","ios":"levelo://app?vid=317ea389-f265-4f00-971c-a66b76312af0"},"vehicle_type_id":"4","last_reported":1705342183,"current_range_meters":2000,"station_id":"ce4bgjh2rcd13ifvqbg0","pricing_plan_id":"free"},{"bike_id":"fb1b08f5-582c-476b-aea1-628fdcea161f","system_id":"levelo_inurba_marseille","lat":43.298433,"lon":5.362774,"is_reserved":false,"is_disabled":false,"rental_uris":{"android":"levelo://app?vid=fb1b08f5-582c-476b-aea1-628fdcea161f","ios":"levelo://app?vid=fb1b08f5-582c-476b-aea1-628fdcea161f"},"vehicle_type_id":"4","last_reported":1705342183,"current_range_meters":25600,"station_id":"ce4bgpp2rcd13ifvqc3g","pricing_plan_id":"free"},{"bike_id":"7b4f528d-13a4-4cc1-9ffc-f7acb0fb7934","system_id":"levelo_inurba_marseille","lat":43.298433,"lon":5.362774,"is_reserved":false,"is_disabled":false,"rental_uris":{"android":"levelo://app?vid=7b4f528d-13a4-4cc1-9ffc-f7acb0fb7934","ios":"levelo://app?vid=7b4f528d-13a4-4cc1-9ffc-f7acb0fb7934"},"vehicle_type_id":"4","last_reported":1705342183,"current_range_meters":22000,"station_id":"ce4bgpp2rcd13ifvqc3g","pricing_plan_id":"free"},{"bike_id":"4efa0e27-3934-4868-878b-d0dd8de3f5e6","system_id":"levelo_inurba_marseille","lat":43.298433,"lon":5.362774,"is_reserved":false,"is_disabled":false,"rental_uris":{"android":"levelo://app?vid=4efa0e27-3934-4868-878b-d0dd8de3f5e6","ios":"levelo://app?vid=4efa0e27-3934-4868-878b-d0dd8de3f5e6"},"vehicle_type_id":"4","last_reported":1705342183,"current_range_meters":3600,"station_id":"ce4bgpp2rcd13ifvqc3g","pricing_plan_id":"free"},{"bike_id":"80439201-c19e-473e-81fa-aea06b14cd1f","system_id":"levelo_inurba_marseille","lat":43.298433,"lon":5.362774,"is_reserved":false,"is_disabled":false,"rental_uris":{"android":"levelo://app?vid=80439201-c19e-473e-81fa-aea06b14cd1f","ios":"levelo://app?vid=80439201-c19e-473e-81fa-aea06b14cd1f"},"vehicle_type_id":"4","last_reported":1705342183,"current_range_meters":28400,"station_id":"ce4bgpp2rcd13ifvqc3g","pricing_plan_id":"free"},{"bike_id":"fb561db5-f420-49c7-9f25-e789fc347594","system_id":"levelo_inurba_marseille","lat":43.298433,"lon":5.362774,"is_reserved":false,"is_disabled":false,"rental_uris":{"android":"levelo://app?vid=fb561db5-f420-49c7-9f25-e789fc347594","ios":"levelo://app?vid=fb561db5-f420-49c7-9f25-e789fc347594"},"vehicle_type_id":"4","last_reported":1705342183,"current_range_meters":6400,"station_id":"ce4bgpp2rcd13ifvqc3g","pricing_plan_id":"free"},{"bike_id":"b63fe313-a400-4a40-9c8f-6beb14f58611","system_id":"levelo_inurba_marseille","lat":43.299243,"lon":5.37481,"is_reserved":false,"is_disabled":false,"rental_uris":{"android":"levelo://app?vid=b63fe313-a400-4a40-9c8f-6beb14f58611","ios":"levelo://app?vid=b63fe313-a400-4a40-9c8f-6beb14f58611"},"vehicle_type_id":"4","last_reported":1705342183,"current_range_meters":28800,"station_id":"ce4bgjh2rcd13ifvqbg0","pricing_plan_id":"free"},{"bike_id":"ba866863-2616-47d9-a2cb-49157e000897","system_id":"levelo_inurba_marseille","lat":43.298433,"lon":5.362774,"is_reserved":false,"is_disabled":false,"rental_uris":{"android":"levelo://app?vid=ba866863-2616-47d9-a2cb-49157e000897","ios":"levelo://app?vid=ba866863-2616-47d9-a2cb-49157e000897"},"vehicle_type_id":"4","last_reported":1705342183,"current_range_meters":26000,"station_id":"ce4bgpp2rcd13ifvqc3g","pricing_plan_id":"free"},{"bike_id":"e54f158b-cb16-4cdd-b433-b59e2f507efe","system_id":"levelo_inurba_marseille","lat":43.311722,"lon":5.387247,"is_reserved":false,"is_disabled":false,"rental_uris":{"android":"levelo://app?vid=e54f158b-cb16-4cdd-b433-b59e2f507efe","ios":"levelo://app?vid=e54f158b-cb16-4cdd-b433-b59e2f507efe"},"vehicle_type_id":"4","last_reported":1705342183,"current_range_meters":2800,"station_id":"ce4bgv12rcd13ifvqcp0","pricing_plan_id":"free"},{"bike_id":"58bdbdde-56d1-4f6e-9e40-7b977706d455","system_id":"levelo_inurba_marseille","lat":43.298433,"lon":5.362774,"is_reserved":false,"is_disabled":false,"rental_uris":{"android":"levelo://app?vid=58bdbdde-56d1-4f6e-9e40-7b977706d455","ios":"levelo://app?vid=58bdbdde-56d1-4f6e-9e40-7b977706d455"},"vehicle_type_id":"4","last_reported":1705342183,"current_range_meters":5600,"station_id":"ce4bgpp2rcd13ifvqc3g","pricing_plan_id":"free"},{"bike_id":"ed2d819d-f8ea-46e8-bdea-fbe642f44219","system_id":"levelo_inurba_marseille","lat":43.298433,"lon":5.362774,"is_reserved":false,"is_disabled":false,"rental_uris":{"android":"levelo://app?vid=ed2d819d-f8ea-46e8-bdea-fbe642f44219","ios":"levelo://app?vid=ed2d819d-f8ea-46e8-bdea-fbe642f44219"},"vehicle_type_id":"4","last_reported":1705342183,"current_range_meters":28000,"station_id":"ce4bgpp2rcd13ifvqc3g","pricing_plan_id":"free"},{"bike_id":"54680b81-909b-4403-a6e3-a408eae6ddce","system_id":"levelo_inurba_marseille","lat":43.297794,"lon":5.370888,"is_reserved":false,"is_disabled":false,"rental_uris":{"android":"levelo://app?vid=54680b81-909b-4403-a6e3-a408eae6ddce","ios":"levelo://app?vid=54680b81-909b-4403-a6e3-a408eae6ddce"},"vehicle_type_id":"4","last_reported":1705342183,"current_range_meters":7200,"station_id":"ce4bgop2rcd13ifvqc1g","pricing_plan_id":"free"},{"bike_id":"15eff74b-6120-49bb-b9af-ec6175798a8e","system_id":"levelo_inurba_marseille","lat":43.297794,"lon":5.370888,"is_reserved":false,"is_disabled":false,"rental_uris":{"android":"levelo://app?vid=15eff74b-6120-49bb-b9af-ec6175798a8e","ios":"levelo://app?vid=15eff74b-6120-49bb-b9af-ec6175798a8e"},"vehicle_type_id":"4","last_reported":1705342183,"current_range_meters":22800,"station_id":"ce4bgop2rcd13ifvqc1g","pricing_plan_id":"free"},{"bike_id":"717847e4-a784-40f8-a1bf-5a94b6cabac5","system_id":"levelo_inurba_marseille","lat":43.322872,"lon":5.382756,"is_reserved":false,"is_disabled":false,"rental_uris":{"android":"levelo://app?vid=717847e4-a784-40f8-a1bf-5a94b6cabac5","ios":"levelo://app?vid=717847e4-a784-40f8-a1bf-5a94b6cabac5"},"vehicle_type_id":"4","last_reported":1705342183,"current_range_meters":16400,"station_id":"ce4bhr12rcd13ifvqhqg","pricing_plan_id":"free"},{"bike_id":"8d48de35-2dbc-4021-aa4a-57d51b66dd96","system_id":"levelo_inurba_marseille","lat":43.322872,"lon":5.382756,"is_reserved":false,"is_disabled":false,"rental_uris":{"android":"levelo://app?vid=8d48de35-2dbc-4021-aa4a-57d51b66dd96","ios":"levelo://app?vid=8d48de35-2dbc-4021-aa4a-57d51b66dd96"},"vehicle_type_id":"4","last_reported":1705342183,"current_range_meters":5200,"station_id":"ce4bhr12rcd13ifvqhqg","pricing_plan_id":"free"},{"bike_id":"0d666429-792d-477e-b03b-8d07152545bb","system_id":"levelo_inurba_marseille","lat":43.322872,"lon":5.382756,"is_reserved":false,"is_disabled":false,"rental_uris":{"android":"levelo://app?vid=0d666429-792d-477e-b03b-8d07152545bb","ios":"levelo://app?vid=0d666429-792d-477e-b03b-8d07152545bb"},"vehicle_type_id":"4","last_reported":1705342183,"current_range_meters":12400,"station_id":"ce4bhr12rcd13ifvqhqg","pricing_plan_id":"free"},{"bike_id":"360d8370-a6d5-4eeb-9fdc-87624eb21c71","system_id":"levelo_inurba_marseille","lat":43.322872,"lon":5.382756,"is_reserved":false,"is_disabled":false,"rental_uris":{"android":"levelo://app?vid=360d8370-a6d5-4eeb-9fdc-87624eb21c71","ios":"levelo://app?vid=360d8370-a6d5-4eeb-9fdc-87624eb21c71"},"vehicle_type_id":"4","last_reported":1705342183,"current_range_meters":8800,"station_id":"ce4bhr12rcd13ifvqhqg","pricing_plan_id":"free"},{"bike_id":"9c1b8a19-45ab-4b8b-ad67-e93f349439a6","system_id":"levelo_inurba_marseille","lat":43.322872,"lon":5.382756,"is_reserved":false,"is_disabled":false,"rental_uris":{"android":"levelo://app?vid=9c1b8a19-45ab-4b8b-ad67-e93f349439a6","ios":"levelo://app?vid=9c1b8a19-45ab-4b8b-ad67-e93f349439a6"},"vehicle_type_id":"4","last_reported":1705342183,"current_range_meters":27600,"station_id":"ce4bhr12rcd13ifvqhqg","pricing_plan_id":"free"},{"bike_id":"76dbc126-45b8-4af6-b09a-63156e6e6960","system_id":"levelo_inurba_marseille","lat":43.322872,"lon":5.382756,"is_reserved":false,"is_disabled":false,"rental_uris":{"android":"levelo://app?vid=76dbc126-45b8-4af6-b09a-63156e6e6960","ios":"levelo://app?vid=76dbc126-45b8-4af6-b09a-63156e6e6960"},"vehicle_type_id":"4","last_reported":1705342183,"current_range_meters":6800,"station_id":"ce4bhr12rcd13ifvqhqg","pricing_plan_id":"free"},{"bike_id":"034cc7ad-d6a8-4154-a3ea-ced9b23eb5aa","system_id":"levelo_inurba_marseille","lat":43.322872,"lon":5.382756,"is_reserved":false,"is_disabled":false,"rental_uris":{"android":"levelo://app?vid=034cc7ad-d6a8-4154-a3ea-ced9b23eb5aa","ios":"levelo://app?vid=034cc7ad-d6a8-4154-a3ea-ced9b23eb5aa"},"vehicle_type_id":"4","last_reported":1705342183,"current_range_meters":27200,"station_id":"ce4bhr12rcd13ifvqhqg","pricing_plan_id":"free"},{"bike_id":"34c8b400-5074-46e3-aa02-f5d274dfaa4f","system_id":"levelo_inurba_marseille","lat":43.322872,"lon":5.382756,"is_reserved":false,"is_disabled":false,"rental_uris":{"android":"levelo://app?vid=34c8b400-5074-46e3-aa02-f5d274dfaa4f","ios":"levelo://app?vid=34c8b400-5074-46e3-aa02-f5d274dfaa4f"},"vehicle_type_id":"4","last_reported":1705342183,"current_range_meters":23600,"station_id":"ce4bhr12rcd13ifvqhqg","pricing_plan_id":"free"},{"bike_id":"3a46592c-9142-46ce-8556-a80e672a6412","system_id":"levelo_inurba_marseille","lat":43.32289,"lon":5.38272,"is_reserved":false,"is_disabled":false,"rental_uris":{"android":"levelo://app?vid=3a46592c-9142-46ce-8556-a80e672a6412","ios":"levelo://app?vid=3a46592c-9142-46ce-8556-a80e672a6412"},"vehicle_type_id":"4","last_reported":1705342183,"current_range_meters":4000,"station_id":"ce4bhr12rcd13ifvqhqg","pricing_plan_id":"free"},{"bike_id":"e4cad359-bf16-42a6-b7ad-19b9dba9592b","system_id":"levelo_inurba_marseille","lat":43.322909,"lon":5.382739,"is_reserved":false,"is_disabled":false,"rental_uris":{"android":"levelo://app?vid=e4cad359-bf16-42a6-b7ad-19b9dba9592b","ios":"levelo://app?vid=e4cad359-bf16-42a6-b7ad-19b9dba9592b"},"vehicle_type_id":"4","last_reported":1705342183,"current_range_meters":14800,"station_id":"ce4bhr12rcd13ifvqhqg","pricing_plan_id":"free"},{"bike_id":"be5c14c2-d069-4824-b2b4-323fba6ab1b5","system_id":"levelo_inurba_marseille","lat":43.32822,"lon":5.3668,"is_reserved":false,"is_disabled":false,"rental_uris":{"android":"levelo://app?vid=be5c14c2-d069-4824-b2b4-323fba6ab1b5","ios":"levelo://app?vid=be5c14c2-d069-4824-b2b4-323fba6ab1b5"},"vehicle_type_id":"4","last_reported":1705342183,"current_range_meters":13200,"station_id":"ce4bhs92rcd13ifvqi0g","pricing_plan_id":"free"},{"bike_id":"ea0178f3-2c6b-4af6-b062-91b0b8dde1df","system_id":"levelo_inurba_marseille","lat":43.32824,"lon":5.36687,"is_reserved":false,"is_disabled":false,"rental_uris":{"android":"levelo://app?vid=ea0178f3-2c6b-4af6-b062-91b0b8dde1df","ios":"levelo://app?vid=ea0178f3-2c6b-4af6-b062-91b0b8dde1df"},"vehicle_type_id":"4","last_reported":1705342183,"current_range_meters":15600,"station_id":"ce4bhs92rcd13ifvqi0g","pricing_plan_id":"free"},{"bike_id":"85cedcff-9e9a-415d-8415-195178ea3cb7","system_id":"levelo_inurba_marseille","lat":43.32825,"lon":5.36668,"is_reserved":false,"is_disabled":false,"rental_uris":{"android":"levelo://app?vid=85cedcff-9e9a-415d-8415-195178ea3cb7","ios":"levelo://app?vid=85cedcff-9e9a-415d-8415-195178ea3cb7"},"vehicle_type_id":"4","last_reported":1705342183,"current_range_meters":28800,"station_id":"ce4bhs92rcd13ifvqi0g","pricing_plan_id":"free"},{"bike_id":"9e10fca8-afff-413a-a971-97b89741c75b","system_id":"levelo_inurba_marseille","lat":43.328253,"lon":5.366839,"is_reserved":false,"is_disabled":false,"rental_uris":{"android":"levelo://app?vid=9e10fca8-afff-413a-a971-97b89741c75b","ios":"levelo://app?vid=9e10fca8-afff-413a-a971-97b89741c75b"},"vehicle_type_id":"4","last_reported":1705342183,"current_range_meters":18000,"station_id":"ce4bhs92rcd13ifvqi0g","pricing_plan_id":"free"},{"bike_id":"8463d0da-e03a-4a02-8a84-4dd7b137838e","system_id":"levelo_inurba_marseille","lat":43.32827,"lon":5.36689,"is_reserved":false,"is_disabled":false,"rental_uris":{"android":"levelo://app?vid=8463d0da-e03a-4a02-8a84-4dd7b137838e","ios":"levelo://app?vid=8463d0da-e03a-4a02-8a84-4dd7b137838e"},"vehicle_type_id":"4","last_reported":1705342183,"current_range_meters":29200,"station_id":"ce4bhs92rcd13ifvqi0g","pricing_plan_id":"free"},{"bike_id":"d6e71fc0-c662-46a4-9ce2-a4da97cef68b","system_id":"levelo_inurba_marseille","lat":43.32827,"lon":5.36676,"is_reserved":false,"is_disabled":false,"rental_uris":{"android":"levelo://app?vid=d6e71fc0-c662-46a4-9ce2-a4da97cef68b","ios":"levelo://app?vid=d6e71fc0-c662-46a4-9ce2-a4da97cef68b"},"vehicle_type_id":"4","last_reported":1705342183,"current_range_meters":24000,"station_id":"ce4bhs92rcd13ifvqi0g","pricing_plan_id":"free"},{"bike_id":"b47ac642-666b-4fa3-9c1d-748c98ce0511","system_id":"levelo_inurba_marseille","lat":43.328276,"lon":5.366816,"is_reserved":false,"is_disabled":false,"rental_uris":{"android":"levelo://app?vid=b47ac642-666b-4fa3-9c1d-748c98ce0511","ios":"levelo://app?vid=b47ac642-666b-4fa3-9c1d-748c98ce0511"},"vehicle_type_id":"4","last_reported":1705342183,"current_range_meters":19200,"station_id":"ce4bhs92rcd13ifvqi0g","pricing_plan_id":"free"},{"bike_id":"947a5c0b-0299-4cd2-aecd-5f351114aaf8","system_id":"levelo_inurba_marseille","lat":43.328281,"lon":5.366794,"is_reserved":false,"is_disabled":false,"rental_uris":{"android":"levelo://app?vid=947a5c0b-0299-4cd2-aecd-5f351114aaf8","ios":"levelo://app?vid=947a5c0b-0299-4cd2-aecd-5f351114aaf8"},"vehicle_type_id":"4","last_reported":1705342183,"current_range_meters":29600,"station_id":"ce4bhs92rcd13ifvqi0g","pricing_plan_id":"free"},{"bike_id":"6b4ea496-3016-42db-af64-ba8beb6e73fc","system_id":"levelo_inurba_marseille","lat":43.328371,"lon":5.366909,"is_reserved":false,"is_disabled":false,"rental_uris":{"android":"levelo://app?vid=6b4ea496-3016-42db-af64-ba8beb6e73fc","ios":"levelo://app?vid=6b4ea496-3016-42db-af64-ba8beb6e73fc"},"vehicle_type_id":"4","last_reported":1705342183,"current_range_meters":31200,"station_id":"ce4bhs92rcd13ifvqi0g","pricing_plan_id":"free"},{"bike_id":"09621f87-561a-4138-9bcf-5568c59432a9","system_id":"levelo_inurba_marseille","lat":43.32829,"lon":5.36679,"is_reserved":false,"is_disabled":false,"rental_uris":{"android":"levelo://app?vid=09621f87-561a-4138-9bcf-5568c59432a9","ios":"levelo://app?vid=09621f87-561a-4138-9bcf-5568c59432a9"},"vehicle_type_id":"4","last_reported":1705342183,"current_range_meters":9200,"station_id":"ce4bhs92rcd13ifvqi0g","pricing_plan_id":"free"},{"bike_id":"1782ad4d-7cbc-4ac0-af82-b65688e9d34c","system_id":"levelo_inurba_marseille","lat":43.328294,"lon":5.366913,"is_reserved":false,"is_disabled":false,"rental_uris":{"android":"levelo://app?vid=1782ad4d-7cbc-4ac0-af82-b65688e9d34c","ios":"levelo://app?vid=1782ad4d-7cbc-4ac0-af82-b65688e9d34c"},"vehicle_type_id":"4","last_reported":1705342183,"current_range_meters":31200,"station_id":"ce4bhs92rcd13ifvqi0g","pricing_plan_id":"free"},{"bike_id":"de8453f6-af4c-4f9d-91f4-6c1cc39bd96e","system_id":"levelo_inurba_marseille","lat":43.3283,"lon":5.36688,"is_reserved":false,"is_disabled":false,"rental_uris":{"android":"levelo://app?vid=de8453f6-af4c-4f9d-91f4-6c1cc39bd96e","ios":"levelo://app?vid=de8453f6-af4c-4f9d-91f4-6c1cc39bd96e"},"vehicle_type_id":"4","last_reported":1705342183,"current_range_meters":25600,"station_id":"ce4bhs92rcd13ifvqi0g","pricing_plan_id":"free"},{"bike_id":"9949c318-cd33-4e7f-93e5-9b978c57ddec","system_id":"levelo_inurba_marseille","lat":43.328305,"lon":5.36676,"is_reserved":false,"is_disabled":false,"rental_uris":{"android":"levelo://app?vid=9949c318-cd33-4e7f-93e5-9b978c57ddec","ios":"levelo://app?vid=9949c318-cd33-4e7f-93e5-9b978c57ddec"},"vehicle_type_id":"4","last_reported":1705342183,"current_range_meters":28800,"station_id":"ce4bhs92rcd13ifvqi0g","pricing_plan_id":"free"},{"bike_id":"eb82efee-7e46-4cef-a643-d731882b95f4","system_id":"levelo_inurba_marseille","lat":43.328308,"lon":5.366777,"is_reserved":false,"is_disabled":false,"rental_uris":{"android":"levelo://app?vid=eb82efee-7e46-4cef-a643-d731882b95f4","ios":"levelo://app?vid=eb82efee-7e46-4cef-a643-d731882b95f4"},"vehicle_type_id":"4","last_reported":1705342183,"current_range_meters":18000,"station_id":"ce4bhs92rcd13ifvqi0g","pricing_plan_id":"free"},{"bike_id":"d6ffc100-b75a-4ec5-bd31-f537672cea7e","system_id":"levelo_inurba_marseille","lat":43.297163,"lon":5.365866,"is_reserved":false,"is_disabled":false,"rental_uris":{"android":"levelo://app?vid=d6ffc100-b75a-4ec5-bd31-f537672cea7e","ios":"levelo://app?vid=d6ffc100-b75a-4ec5-bd31-f537672cea7e"},"vehicle_type_id":"4","last_reported":1705342183,"current_range_meters":11200,"station_id":"ce4bgn12rcd13ifvqbt0","pricing_plan_id":"free"},{"bike_id":"88638e12-da12-4596-b7e2-600ab2f62219","system_id":"levelo_inurba_marseille","lat":43.328333,"lon":5.366853,"is_reserved":false,"is_disabled":false,"rental_uris":{"android":"levelo://app?vid=88638e12-da12-4596-b7e2-600ab2f62219","ios":"levelo://app?vid=88638e12-da12-4596-b7e2-600ab2f62219"},"vehicle_type_id":"4","last_reported":1705342183,"current_range_meters":18800,"station_id":"ce4bhs92rcd13ifvqi0g","pricing_plan_id":"free"},{"bike_id":"641739e6-19de-47df-9491-35da26c3c9da","system_id":"levelo_inurba_marseille","lat":43.328371,"lon":5.366909,"is_reserved":false,"is_disabled":false,"rental_uris":{"android":"levelo://app?vid=641739e6-19de-47df-9491-35da26c3c9da","ios":"levelo://app?vid=641739e6-19de-47df-9491-35da26c3c9da"},"vehicle_type_id":"4","last_reported":1705342183,"current_range_meters":11200,"station_id":"ce4bhs92rcd13ifvqi0g","pricing_plan_id":"free"},{"bike_id":"c17c074b-d152-4390-be91-e6a6ee3d80d7","system_id":"levelo_inurba_marseille","lat":43.328344,"lon":5.36676,"is_reserved":false,"is_disabled":false,"rental_uris":{"android":"levelo://app?vid=c17c074b-d152-4390-be91-e6a6ee3d80d7","ios":"levelo://app?vid=c17c074b-d152-4390-be91-e6a6ee3d80d7"},"vehicle_type_id":"4","last_reported":1705342183,"current_range_meters":24800,"station_id":"ce4bhs92rcd13ifvqi0g","pricing_plan_id":"free"},{"bike_id":"00240506-f51a-4e5e-8e4b-da47fbef48ec","system_id":"levelo_inurba_marseille","lat":43.32836,"lon":5.36674,"is_reserved":false,"is_disabled":false,"rental_uris":{"android":"levelo://app?vid=00240506-f51a-4e5e-8e4b-da47fbef48ec","ios":"levelo://app?vid=00240506-f51a-4e5e-8e4b-da47fbef48ec"},"vehicle_type_id":"4","last_reported":1705342183,"current_range_meters":31200,"station_id":"ce4bhs92rcd13ifvqi0g","pricing_plan_id":"free"},{"bike_id":"317be026-d265-4964-8b9f-14b31317b61c","system_id":"levelo_inurba_marseille","lat":43.32836,"lon":5.36669,"is_reserved":false,"is_disabled":false,"rental_uris":{"android":"levelo://app?vid=317be026-d265-4964-8b9f-14b31317b61c","ios":"levelo://app?vid=317be026-d265-4964-8b9f-14b31317b61c"},"vehicle_type_id":"4","last_reported":1705342183,"current_range_meters":12800,"station_id":"ce4bhs92rcd13ifvqi0g","pricing_plan_id":"free"},{"bike_id":"42f5b626-5e71-456b-8041-5da45f31b04b","system_id":"levelo_inurba_marseille","lat":43.297163,"lon":5.365866,"is_reserved":false,"is_disabled":false,"rental_uris":{"android":"levelo://app?vid=42f5b626-5e71-456b-8041-5da45f31b04b","ios":"levelo://app?vid=42f5b626-5e71-456b-8041-5da45f31b04b"},"vehicle_type_id":"4","last_reported":1705342183,"current_range_meters":28800,"station_id":"ce4bgn12rcd13ifvqbt0","pricing_plan_id":"free"},{"bike_id":"0bc9666f-407a-45ee-a647-9e7db5d81a5c","system_id":"levelo_inurba_marseille","lat":43.297163,"lon":5.365866,"is_reserved":false,"is_disabled":false,"rental_uris":{"android":"levelo://app?vid=0bc9666f-407a-45ee-a647-9e7db5d81a5c","ios":"levelo://app?vid=0bc9666f-407a-45ee-a647-9e7db5d81a5c"},"vehicle_type_id":"4","last_reported":1705342183,"current_range_meters":14400,"station_id":"ce4bgn12rcd13ifvqbt0","pricing_plan_id":"free"},{"bike_id":"38082c03-fac1-44d3-a79f-5142b4a113a9","system_id":"levelo_inurba_marseille","lat":43.328373,"lon":5.366902,"is_reserved":false,"is_disabled":false,"rental_uris":{"android":"levelo://app?vid=38082c03-fac1-44d3-a79f-5142b4a113a9","ios":"levelo://app?vid=38082c03-fac1-44d3-a79f-5142b4a113a9"},"vehicle_type_id":"4","last_reported":1705342183,"current_range_meters":30400,"station_id":"ce4bhs92rcd13ifvqi0g","pricing_plan_id":"free"},{"bike_id":"da093ae5-1f9b-4c78-aaf1-9f0fe1705d47","system_id":"levelo_inurba_marseille","lat":43.297112,"lon":5.366112,"is_reserved":false,"is_disabled":false,"rental_uris":{"android":"levelo://app?vid=da093ae5-1f9b-4c78-aaf1-9f0fe1705d47","ios":"levelo://app?vid=da093ae5-1f9b-4c78-aaf1-9f0fe1705d47"},"vehicle_type_id":"4","last_reported":1705342183,"current_range_meters":11600,"station_id":"ce4bgn12rcd13ifvqbt0","pricing_plan_id":"free"},{"bike_id":"7c960355-bc65-4ce2-b191-b1c17561f2d9","system_id":"levelo_inurba_marseille","lat":43.297163,"lon":5.365866,"is_reserved":false,"is_disabled":false,"rental_uris":{"android":"levelo://app?vid=7c960355-bc65-4ce2-b191-b1c17561f2d9","ios":"levelo://app?vid=7c960355-bc65-4ce2-b191-b1c17561f2d9"},"vehicle_type_id":"4","last_reported":1705342183,"current_range_meters":22000,"station_id":"ce4bgn12rcd13ifvqbt0","pricing_plan_id":"free"},{"bike_id":"64c3f387-35e4-4aaf-8a00-356e575aa7ae","system_id":"levelo_inurba_marseille","lat":43.297163,"lon":5.365866,"is_reserved":false,"is_disabled":false,"rental_uris":{"android":"levelo://app?vid=64c3f387-35e4-4aaf-8a00-356e575aa7ae","ios":"levelo://app?vid=64c3f387-35e4-4aaf-8a00-356e575aa7ae"},"vehicle_type_id":"4","last_reported":1705342183,"current_range_meters":20800,"station_id":"ce4bgn12rcd13ifvqbt0","pricing_plan_id":"free"},{"bike_id":"3bf0cd0d-54d2-407b-809a-766378451449","system_id":"levelo_inurba_marseille","lat":43.297163,"lon":5.365866,"is_reserved":false,"is_disabled":false,"rental_uris":{"android":"levelo://app?vid=3bf0cd0d-54d2-407b-809a-766378451449","ios":"levelo://app?vid=3bf0cd0d-54d2-407b-809a-766378451449"},"vehicle_type_id":"4","last_reported":1705342183,"current_range_meters":18400,"station_id":"ce4bgn12rcd13ifvqbt0","pricing_plan_id":"free"},{"bike_id":"b7f19553-caf3-42e9-85f2-de3629dabc8e","system_id":"levelo_inurba_marseille","lat":43.328407,"lon":5.366746,"is_reserved":false,"is_disabled":false,"rental_uris":{"android":"levelo://app?vid=b7f19553-caf3-42e9-85f2-de3629dabc8e","ios":"levelo://app?vid=b7f19553-caf3-42e9-85f2-de3629dabc8e"},"vehicle_type_id":"4","last_reported":1705342183,"current_range_meters":27600,"station_id":"ce4bhs92rcd13ifvqi0g","pricing_plan_id":"free"},{"bike_id":"a07aca90-d738-4a9c-9c07-8b0897ad99ba","system_id":"levelo_inurba_marseille","lat":43.297163,"lon":5.365866,"is_reserved":false,"is_disabled":false,"rental_uris":{"android":"levelo://app?vid=a07aca90-d738-4a9c-9c07-8b0897ad99ba","ios":"levelo://app?vid=a07aca90-d738-4a9c-9c07-8b0897ad99ba"},"vehicle_type_id":"4","last_reported":1705342183,"current_range_meters":5600,"station_id":"ce4bgn12rcd13ifvqbt0","pricing_plan_id":"free"},{"bike_id":"f92529ae-85f7-4871-9e38-825845e30b54","system_id":"levelo_inurba_marseille","lat":43.297163,"lon":5.365866,"is_reserved":false,"is_disabled":false,"rental_uris":{"android":"levelo://app?vid=f92529ae-85f7-4871-9e38-825845e30b54","ios":"levelo://app?vid=f92529ae-85f7-4871-9e38-825845e30b54"},"vehicle_type_id":"4","last_reported":1705342183,"current_range_meters":21200,"station_id":"ce4bgn12rcd13ifvqbt0","pricing_plan_id":"free"},{"bike_id":"5b531715-f859-4ce7-b4d9-97b3cbbc54d4","system_id":"levelo_inurba_marseille","lat":43.29708,"lon":5.366082,"is_reserved":false,"is_disabled":false,"rental_uris":{"android":"levelo://app?vid=5b531715-f859-4ce7-b4d9-97b3cbbc54d4","ios":"levelo://app?vid=5b531715-f859-4ce7-b4d9-97b3cbbc54d4"},"vehicle_type_id":"4","last_reported":1705342183,"current_range_meters":22000,"station_id":"ce4bgn12rcd13ifvqbt0","pricing_plan_id":"free"},{"bike_id":"54ecc17b-7683-4623-a502-4bc336d1ef8a","system_id":"levelo_inurba_marseille","lat":43.297163,"lon":5.365866,"is_reserved":false,"is_disabled":false,"rental_uris":{"android":"levelo://app?vid=54ecc17b-7683-4623-a502-4bc336d1ef8a","ios":"levelo://app?vid=54ecc17b-7683-4623-a502-4bc336d1ef8a"},"vehicle_type_id":"4","last_reported":1705342183,"current_range_meters":14800,"station_id":"ce4bgn12rcd13ifvqbt0","pricing_plan_id":"free"},{"bike_id":"0b2274a5-5bbe-4b6c-917c-31a9425daec4","system_id":"levelo_inurba_marseille","lat":43.297163,"lon":5.365866,"is_reserved":false,"is_disabled":false,"rental_uris":{"android":"levelo://app?vid=0b2274a5-5bbe-4b6c-917c-31a9425daec4","ios":"levelo://app?vid=0b2274a5-5bbe-4b6c-917c-31a9425daec4"},"vehicle_type_id":"4","last_reported":1705342183,"current_range_meters":5200,"station_id":"ce4bgn12rcd13ifvqbt0","pricing_plan_id":"free"},{"bike_id":"cc249608-6a43-41d8-a019-2a9e52c7e346","system_id":"levelo_inurba_marseille","lat":43.297163,"lon":5.365866,"is_reserved":false,"is_disabled":false,"rental_uris":{"android":"levelo://app?vid=cc249608-6a43-41d8-a019-2a9e52c7e346","ios":"levelo://app?vid=cc249608-6a43-41d8-a019-2a9e52c7e346"},"vehicle_type_id":"4","last_reported":1705342183,"current_range_meters":4800,"station_id":"ce4bgn12rcd13ifvqbt0","pricing_plan_id":"free"},{"bike_id":"27af08c6-c543-4e3f-a44b-6e25a364e1b8","system_id":"levelo_inurba_marseille","lat":43.297163,"lon":5.365866,"is_reserved":false,"is_disabled":false,"rental_uris":{"android":"levelo://app?vid=27af08c6-c543-4e3f-a44b-6e25a364e1b8","ios":"levelo://app?vid=27af08c6-c543-4e3f-a44b-6e25a364e1b8"},"vehicle_type_id":"4","last_reported":1705342183,"current_range_meters":4000,"station_id":"ce4bgn12rcd13ifvqbt0","pricing_plan_id":"free"},{"bike_id":"d7853949-ae2f-4022-b304-b24f911f3140","system_id":"levelo_inurba_marseille","lat":43.297163,"lon":5.365866,"is_reserved":false,"is_disabled":false,"rental_uris":{"android":"levelo://app?vid=d7853949-ae2f-4022-b304-b24f911f3140","ios":"levelo://app?vid=d7853949-ae2f-4022-b304-b24f911f3140"},"vehicle_type_id":"4","last_reported":1705342183,"current_range_meters":18800,"station_id":"ce4bgn12rcd13ifvqbt0","pricing_plan_id":"free"},{"bike_id":"9dada86c-99bf-4a70-b80b-baafa28eaf7a","system_id":"levelo_inurba_marseille","lat":43.297163,"lon":5.365866,"is_reserved":false,"is_disabled":false,"rental_uris":{"android":"levelo://app?vid=9dada86c-99bf-4a70-b80b-baafa28eaf7a","ios":"levelo://app?vid=9dada86c-99bf-4a70-b80b-baafa28eaf7a"},"vehicle_type_id":"4","last_reported":1705342183,"current_range_meters":22800,"station_id":"ce4bgn12rcd13ifvqbt0","pricing_plan_id":"free"},{"bike_id":"29610c47-e948-4ab3-aa4b-8757b401841d","system_id":"levelo_inurba_marseille","lat":43.296131,"lon":5.370791,"is_reserved":false,"is_disabled":false,"rental_uris":{"android":"levelo://app?vid=29610c47-e948-4ab3-aa4b-8757b401841d","ios":"levelo://app?vid=29610c47-e948-4ab3-aa4b-8757b401841d"},"vehicle_type_id":"4","last_reported":1705342183,"current_range_meters":26000,"station_id":"ce4bgnh2rcd13ifvqc0g","pricing_plan_id":"free"},{"bike_id":"500d9a30-be43-47dc-92e0-ef276180c838","system_id":"levelo_inurba_marseille","lat":43.295842,"lon":5.367391,"is_reserved":false,"is_disabled":false,"rental_uris":{"android":"levelo://app?vid=500d9a30-be43-47dc-92e0-ef276180c838","ios":"levelo://app?vid=500d9a30-be43-47dc-92e0-ef276180c838"},"vehicle_type_id":"4","last_reported":1705342183,"current_range_meters":30800,"station_id":"ce4bgph2rcd13ifvqc2g","pricing_plan_id":"free"},{"bike_id":"a9a91145-8576-4095-96f0-f91382b0cf5d","system_id":"levelo_inurba_marseille","lat":43.29584,"lon":5.36749,"is_reserved":false,"is_disabled":false,"rental_uris":{"android":"levelo://app?vid=a9a91145-8576-4095-96f0-f91382b0cf5d","ios":"levelo://app?vid=a9a91145-8576-4095-96f0-f91382b0cf5d"},"vehicle_type_id":"4","last_reported":1705342183,"current_range_meters":0,"station_id":"ce4bgph2rcd13ifvqc2g","pricing_plan_id":"free"},{"bike_id":"c8b0f5de-653e-4f6f-b1c9-cb8868329ce6","system_id":"levelo_inurba_marseille","lat":43.29881,"lon":5.38012,"is_reserved":false,"is_disabled":false,"rental_uris":{"android":"levelo://app?vid=c8b0f5de-653e-4f6f-b1c9-cb8868329ce6","ios":"levelo://app?vid=c8b0f5de-653e-4f6f-b1c9-cb8868329ce6"},"vehicle_type_id":"4","last_reported":1705342183,"current_range_meters":800,"station_id":"","pricing_plan_id":"free"},{"bike_id":"0257f64c-66d4-4425-9f9e-f3200ecb6ee3","system_id":"levelo_inurba_marseille","lat":43.29573,"lon":5.367355,"is_reserved":false,"is_disabled":false,"rental_uris":{"android":"levelo://app?vid=0257f64c-66d4-4425-9f9e-f3200ecb6ee3","ios":"levelo://app?vid=0257f64c-66d4-4425-9f9e-f3200ecb6ee3"},"vehicle_type_id":"4","last_reported":1705342183,"current_range_meters":31200,"station_id":"ce4bgph2rcd13ifvqc2g","pricing_plan_id":"free"},{"bike_id":"0295665f-44a4-4850-a211-1dc4e8528edf","system_id":"levelo_inurba_marseille","lat":43.309589,"lon":5.390258,"is_reserved":false,"is_disabled":false,"rental_uris":{"android":"levelo://app?vid=0295665f-44a4-4850-a211-1dc4e8528edf","ios":"levelo://app?vid=0295665f-44a4-4850-a211-1dc4e8528edf"},"vehicle_type_id":"4","last_reported":1705342183,"current_range_meters":2400,"station_id":"ce4bgup2rcd13ifvqco0","pricing_plan_id":"free"},{"bike_id":"065bbc66-2cc8-43eb-8770-e11bbf36d9c6","system_id":"levelo_inurba_marseille","lat":43.317557,"lon":5.390173,"is_reserved":false,"is_disabled":false,"rental_uris":{"android":"levelo://app?vid=065bbc66-2cc8-43eb-8770-e11bbf36d9c6","ios":"levelo://app?vid=065bbc66-2cc8-43eb-8770-e11bbf36d9c6"},"vehicle_type_id":"4","last_reported":1705342183,"current_range_meters":11200,"station_id":"ce4bhqp2rcd13ifvqhng","pricing_plan_id":"free"},{"bike_id":"ca837b07-86d7-42f7-a045-e3da06473611","system_id":"levelo_inurba_marseille","lat":43.317527,"lon":5.39002,"is_reserved":false,"is_disabled":false,"rental_uris":{"android":"levelo://app?vid=ca837b07-86d7-42f7-a045-e3da06473611","ios":"levelo://app?vid=ca837b07-86d7-42f7-a045-e3da06473611"},"vehicle_type_id":"4","last_reported":1705342183,"current_range_meters":3600,"station_id":"ce4bhqp2rcd13ifvqhng","pricing_plan_id":"free"},{"bike_id":"dc32a96b-7ada-4d72-a662-fafa00ef0837","system_id":"levelo_inurba_marseille","lat":43.296978,"lon":5.378069,"is_reserved":false,"is_disabled":false,"rental_uris":{"android":"levelo://app?vid=dc32a96b-7ada-4d72-a662-fafa00ef0837","ios":"levelo://app?vid=dc32a96b-7ada-4d72-a662-fafa00ef0837"},"vehicle_type_id":"4","last_reported":1705342183,"current_range_meters":0,"station_id":"ce4bgkh2rcd13ifvqbl0","pricing_plan_id":"free"},{"bike_id":"9b1706b6-bf46-40c9-9f57-00c8b0745e28","system_id":"levelo_inurba_marseille","lat":43.295748,"lon":5.37522,"is_reserved":false,"is_disabled":false,"rental_uris":{"android":"levelo://app?vid=9b1706b6-bf46-40c9-9f57-00c8b0745e28","ios":"levelo://app?vid=9b1706b6-bf46-40c9-9f57-00c8b0745e28"},"vehicle_type_id":"4","last_reported":1705342183,"current_range_meters":0,"station_id":"ce4bgh92rcd13ifvqb50","pricing_plan_id":"free"},{"bike_id":"5e83a9bd-feb4-4612-926d-62481bf765e4","system_id":"levelo_inurba_marseille","lat":43.304274,"lon":5.388873,"is_reserved":false,"is_disabled":false,"rental_uris":{"android":"levelo://app?vid=5e83a9bd-feb4-4612-926d-62481bf765e4","ios":"levelo://app?vid=5e83a9bd-feb4-4612-926d-62481bf765e4"},"vehicle_type_id":"4","last_reported":1705342183,"current_range_meters":0,"station_id":"ce4bgk12rcd13ifvqbi0","pricing_plan_id":"free"},{"bike_id":"7d5db27c-61b8-4405-a6e8-11dd69f86344","system_id":"levelo_inurba_marseille","lat":43.295748,"lon":5.37522,"is_reserved":false,"is_disabled":false,"rental_uris":{"android":"levelo://app?vid=7d5db27c-61b8-4405-a6e8-11dd69f86344","ios":"levelo://app?vid=7d5db27c-61b8-4405-a6e8-11dd69f86344"},"vehicle_type_id":"4","last_reported":1705342183,"current_range_meters":8000,"station_id":"ce4bgh92rcd13ifvqb50","pricing_plan_id":"free"},{"bike_id":"6a3dc8be-3970-4f71-9364-eb9c7e527316","system_id":"levelo_inurba_marseille","lat":43.298433,"lon":5.362774,"is_reserved":false,"is_disabled":false,"rental_uris":{"android":"levelo://app?vid=6a3dc8be-3970-4f71-9364-eb9c7e527316","ios":"levelo://app?vid=6a3dc8be-3970-4f71-9364-eb9c7e527316"},"vehicle_type_id":"4","last_reported":1705342183,"current_range_meters":20000,"station_id":"ce4bgpp2rcd13ifvqc3g","pricing_plan_id":"free"},{"bike_id":"e90d9cd5-21eb-4b64-9135-e4bf100b58dd","system_id":"levelo_inurba_marseille","lat":43.32367,"lon":5.388836,"is_reserved":false,"is_disabled":false,"rental_uris":{"android":"levelo://app?vid=e90d9cd5-21eb-4b64-9135-e4bf100b58dd","ios":"levelo://app?vid=e90d9cd5-21eb-4b64-9135-e4bf100b58dd"},"vehicle_type_id":"4","last_reported":1705342183,"current_range_meters":16800,"station_id":"ce4bhqp2rcd13ifvqhog","pricing_plan_id":"free"},{"bike_id":"65200528-92c8-43dc-a28c-65f22643d5f6","system_id":"levelo_inurba_marseille","lat":43.32365,"lon":5.38885,"is_reserved":false,"is_disabled":false,"rental_uris":{"android":"levelo://app?vid=65200528-92c8-43dc-a28c-65f22643d5f6","ios":"levelo://app?vid=65200528-92c8-43dc-a28c-65f22643d5f6"},"vehicle_type_id":"4","last_reported":1705342183,"current_range_meters":19600,"station_id":"ce4bhqp2rcd13ifvqhog","pricing_plan_id":"free"},{"bike_id":"cc87a345-89b3-41ab-8017-45dd8003fb76","system_id":"levelo_inurba_marseille","lat":43.32367,"lon":5.388836,"is_reserved":false,"is_disabled":false,"rental_uris":{"android":"levelo://app?vid=cc87a345-89b3-41ab-8017-45dd8003fb76","ios":"levelo://app?vid=cc87a345-89b3-41ab-8017-45dd8003fb76"},"vehicle_type_id":"4","last_reported":1705342183,"current_range_meters":0,"station_id":"ce4bhqp2rcd13ifvqhog","pricing_plan_id":"free"},{"bike_id":"93a7541d-594c-4713-9c37-84d0b76dd655","system_id":"levelo_inurba_marseille","lat":43.32366,"lon":5.38888,"is_reserved":false,"is_disabled":false,"rental_uris":{"android":"levelo://app?vid=93a7541d-594c-4713-9c37-84d0b76dd655","ios":"levelo://app?vid=93a7541d-594c-4713-9c37-84d0b76dd655"},"vehicle_type_id":"4","last_reported":1705342183,"current_range_meters":3200,"station_id":"ce4bhqp2rcd13ifvqhog","pricing_plan_id":"free"},{"bike_id":"6d8ef8e9-eae9-4379-93be-30289b73e918","system_id":"levelo_inurba_marseille","lat":43.317557,"lon":5.390173,"is_reserved":false,"is_disabled":false,"rental_uris":{"android":"levelo://app?vid=6d8ef8e9-eae9-4379-93be-30289b73e918","ios":"levelo://app?vid=6d8ef8e9-eae9-4379-93be-30289b73e918"},"vehicle_type_id":"4","last_reported":1705342183,"current_range_meters":15200,"station_id":"ce4bhqp2rcd13ifvqhng","pricing_plan_id":"free"},{"bike_id":"9834aea9-4da6-4932-9918-527c42d1a8af","system_id":"levelo_inurba_marseille","lat":43.29601,"lon":5.381084,"is_reserved":false,"is_disabled":false,"rental_uris":{"android":"levelo://app?vid=9834aea9-4da6-4932-9918-527c42d1a8af","ios":"levelo://app?vid=9834aea9-4da6-4932-9918-527c42d1a8af"},"vehicle_type_id":"4","last_reported":1705342183,"current_range_meters":0,"station_id":"ce4bgl12rcd13ifvqbo0","pricing_plan_id":"free"},{"bike_id":"e744cc95-f015-425e-9c6b-ddedf3233bda","system_id":"levelo_inurba_marseille","lat":43.29601,"lon":5.381084,"is_reserved":false,"is_disabled":false,"rental_uris":{"android":"levelo://app?vid=e744cc95-f015-425e-9c6b-ddedf3233bda","ios":"levelo://app?vid=e744cc95-f015-425e-9c6b-ddedf3233bda"},"vehicle_type_id":"4","last_reported":1705342183,"current_range_meters":12400,"station_id":"ce4bgl12rcd13ifvqbo0","pricing_plan_id":"free"},{"bike_id":"5f77cd68-ab94-4245-a1f7-88164e03550f","system_id":"levelo_inurba_marseille","lat":43.305994,"lon":5.393687,"is_reserved":false,"is_disabled":false,"rental_uris":{"android":"levelo://app?vid=5f77cd68-ab94-4245-a1f7-88164e03550f","ios":"levelo://app?vid=5f77cd68-ab94-4245-a1f7-88164e03550f"},"vehicle_type_id":"4","last_reported":1705342183,"current_range_meters":19200,"station_id":"ce4bh0p2rcd13ifvqd80","pricing_plan_id":"free"},{"bike_id":"43aa2ef8-f23a-481a-9690-b7bf03ee5d15","system_id":"levelo_inurba_marseille","lat":43.292311,"lon":5.360731,"is_reserved":false,"is_disabled":false,"rental_uris":{"android":"levelo://app?vid=43aa2ef8-f23a-481a-9690-b7bf03ee5d15","ios":"levelo://app?vid=43aa2ef8-f23a-481a-9690-b7bf03ee5d15"},"vehicle_type_id":"4","last_reported":1705342183,"current_range_meters":12400,"station_id":"ce4bhbh2rcd13ifvqeqg","pricing_plan_id":"free"},{"bike_id":"6ce6ff1f-7574-4c07-ae29-26be6cab494f","system_id":"levelo_inurba_marseille","lat":43.309038,"lon":5.396546,"is_reserved":false,"is_disabled":false,"rental_uris":{"android":"levelo://app?vid=6ce6ff1f-7574-4c07-ae29-26be6cab494f","ios":"levelo://app?vid=6ce6ff1f-7574-4c07-ae29-26be6cab494f"},"vehicle_type_id":"4","last_reported":1705342183,"current_range_meters":15600,"station_id":"ce4bh012rcd13ifvqcv0","pricing_plan_id":"free"},{"bike_id":"b1d6e2da-2a99-4503-8665-3cbdfb02fc0d","system_id":"levelo_inurba_marseille","lat":43.300852,"lon":5.390859,"is_reserved":false,"is_disabled":false,"rental_uris":{"android":"levelo://app?vid=b1d6e2da-2a99-4503-8665-3cbdfb02fc0d","ios":"levelo://app?vid=b1d6e2da-2a99-4503-8665-3cbdfb02fc0d"},"vehicle_type_id":"4","last_reported":1705342183,"current_range_meters":4800,"station_id":"ce4bh192rcd13ifvqdb0","pricing_plan_id":"free"},{"bike_id":"2636b231-4206-4490-9f91-c070f0b1544b","system_id":"levelo_inurba_marseille","lat":43.313291,"lon":5.396838,"is_reserved":false,"is_disabled":false,"rental_uris":{"android":"levelo://app?vid=2636b231-4206-4490-9f91-c070f0b1544b","ios":"levelo://app?vid=2636b231-4206-4490-9f91-c070f0b1544b"},"vehicle_type_id":"4","last_reported":1705342183,"current_range_meters":9200,"station_id":"ce4bgvp2rcd13ifvqcu0","pricing_plan_id":"free"},{"bike_id":"5d613254-b166-4242-a63f-f57f32c5121d","system_id":"levelo_inurba_marseille","lat":43.291994,"lon":5.357886,"is_reserved":false,"is_disabled":false,"rental_uris":{"android":"levelo://app?vid=5d613254-b166-4242-a63f-f57f32c5121d","ios":"levelo://app?vid=5d613254-b166-4242-a63f-f57f32c5121d"},"vehicle_type_id":"4","last_reported":1705342183,"current_range_meters":0,"station_id":"ce4bhb12rcd13ifvqel0","pricing_plan_id":"free"},{"bike_id":"51464891-7099-4d77-a4fa-502482b7396e","system_id":"levelo_inurba_marseille","lat":43.309038,"lon":5.396546,"is_reserved":false,"is_disabled":false,"rental_uris":{"android":"levelo://app?vid=51464891-7099-4d77-a4fa-502482b7396e","ios":"levelo://app?vid=51464891-7099-4d77-a4fa-502482b7396e"},"vehicle_type_id":"4","last_reported":1705342183,"current_range_meters":14000,"station_id":"ce4bh012rcd13ifvqcv0","pricing_plan_id":"free"},{"bike_id":"043d867f-89ec-45fa-bff7-692395f9b5aa","system_id":"levelo_inurba_marseille","lat":43.313291,"lon":5.396838,"is_reserved":false,"is_disabled":false,"rental_uris":{"android":"levelo://app?vid=043d867f-89ec-45fa-bff7-692395f9b5aa","ios":"levelo://app?vid=043d867f-89ec-45fa-bff7-692395f9b5aa"},"vehicle_type_id":"4","last_reported":1705342183,"current_range_meters":2400,"station_id":"ce4bgvp2rcd13ifvqcu0","pricing_plan_id":"free"},{"bike_id":"05f3e013-f23f-4e19-b210-e978d2056fba","system_id":"levelo_inurba_marseille","lat":43.313291,"lon":5.396838,"is_reserved":false,"is_disabled":false,"rental_uris":{"android":"levelo://app?vid=05f3e013-f23f-4e19-b210-e978d2056fba","ios":"levelo://app?vid=05f3e013-f23f-4e19-b210-e978d2056fba"},"vehicle_type_id":"4","last_reported":1705342183,"current_range_meters":15600,"station_id":"ce4bgvp2rcd13ifvqcu0","pricing_plan_id":"free"},{"bike_id":"d32bb74b-777c-47ce-b0b4-c4c03b0bf715","system_id":"levelo_inurba_marseille","lat":43.313291,"lon":5.396838,"is_reserved":false,"is_disabled":false,"rental_uris":{"android":"levelo://app?vid=d32bb74b-777c-47ce-b0b4-c4c03b0bf715","ios":"levelo://app?vid=d32bb74b-777c-47ce-b0b4-c4c03b0bf715"},"vehicle_type_id":"4","last_reported":1705342183,"current_range_meters":17600,"station_id":"ce4bgvp2rcd13ifvqcu0","pricing_plan_id":"free"},{"bike_id":"c0f02293-aa3d-4dce-b4c6-0ccc51373fd8","system_id":"levelo_inurba_marseille","lat":43.313291,"lon":5.396838,"is_reserved":false,"is_disabled":false,"rental_uris":{"android":"levelo://app?vid=c0f02293-aa3d-4dce-b4c6-0ccc51373fd8","ios":"levelo://app?vid=c0f02293-aa3d-4dce-b4c6-0ccc51373fd8"},"vehicle_type_id":"4","last_reported":1705342183,"current_range_meters":30400,"station_id":"ce4bgvp2rcd13ifvqcu0","pricing_plan_id":"free"},{"bike_id":"2136494a-63e9-48e2-b09d-20a9b552a9c0","system_id":"levelo_inurba_marseille","lat":43.313291,"lon":5.396838,"is_reserved":false,"is_disabled":false,"rental_uris":{"android":"levelo://app?vid=2136494a-63e9-48e2-b09d-20a9b552a9c0","ios":"levelo://app?vid=2136494a-63e9-48e2-b09d-20a9b552a9c0"},"vehicle_type_id":"4","last_reported":1705342183,"current_range_meters":1200,"station_id":"ce4bgvp2rcd13ifvqcu0","pricing_plan_id":"free"},{"bike_id":"ba3cef4a-f0e3-4fa9-b1d6-1d3cd0d807ab","system_id":"levelo_inurba_marseille","lat":43.313291,"lon":5.396838,"is_reserved":false,"is_disabled":false,"rental_uris":{"android":"levelo://app?vid=ba3cef4a-f0e3-4fa9-b1d6-1d3cd0d807ab","ios":"levelo://app?vid=ba3cef4a-f0e3-4fa9-b1d6-1d3cd0d807ab"},"vehicle_type_id":"4","last_reported":1705342183,"current_range_meters":8800,"station_id":"ce4bgvp2rcd13ifvqcu0","pricing_plan_id":"free"},{"bike_id":"7cb619bb-cd5d-4891-b238-2f4e98436201","system_id":"levelo_inurba_marseille","lat":43.313291,"lon":5.396838,"is_reserved":false,"is_disabled":false,"rental_uris":{"android":"levelo://app?vid=7cb619bb-cd5d-4891-b238-2f4e98436201","ios":"levelo://app?vid=7cb619bb-cd5d-4891-b238-2f4e98436201"},"vehicle_type_id":"4","last_reported":1705342183,"current_range_meters":8400,"station_id":"ce4bgvp2rcd13ifvqcu0","pricing_plan_id":"free"},{"bike_id":"a0a3e436-f134-47e5-ac13-980dabf9329c","system_id":"levelo_inurba_marseille","lat":43.313291,"lon":5.396838,"is_reserved":false,"is_disabled":false,"rental_uris":{"android":"levelo://app?vid=a0a3e436-f134-47e5-ac13-980dabf9329c","ios":"levelo://app?vid=a0a3e436-f134-47e5-ac13-980dabf9329c"},"vehicle_type_id":"4","last_reported":1705342183,"current_range_meters":24000,"station_id":"ce4bgvp2rcd13ifvqcu0","pricing_plan_id":"free"},{"bike_id":"075d879c-2c2b-4773-a072-eb3a1e7ff3ee","system_id":"levelo_inurba_marseille","lat":43.309038,"lon":5.396546,"is_reserved":false,"is_disabled":false,"rental_uris":{"android":"levelo://app?vid=075d879c-2c2b-4773-a072-eb3a1e7ff3ee","ios":"levelo://app?vid=075d879c-2c2b-4773-a072-eb3a1e7ff3ee"},"vehicle_type_id":"4","last_reported":1705342183,"current_range_meters":0,"station_id":"ce4bh012rcd13ifvqcv0","pricing_plan_id":"free"},{"bike_id":"9401e676-a838-49e0-abe4-8a414a8ce041","system_id":"levelo_inurba_marseille","lat":43.313291,"lon":5.396838,"is_reserved":false,"is_disabled":false,"rental_uris":{"android":"levelo://app?vid=9401e676-a838-49e0-abe4-8a414a8ce041","ios":"levelo://app?vid=9401e676-a838-49e0-abe4-8a414a8ce041"},"vehicle_type_id":"4","last_reported":1705342183,"current_range_meters":14000,"station_id":"ce4bgvp2rcd13ifvqcu0","pricing_plan_id":"free"},{"bike_id":"dc7fc9eb-be7e-48ed-b16e-98f66dd11501","system_id":"levelo_inurba_marseille","lat":43.313291,"lon":5.396838,"is_reserved":false,"is_disabled":false,"rental_uris":{"android":"levelo://app?vid=dc7fc9eb-be7e-48ed-b16e-98f66dd11501","ios":"levelo://app?vid=dc7fc9eb-be7e-48ed-b16e-98f66dd11501"},"vehicle_type_id":"4","last_reported":1705342183,"current_range_meters":16800,"station_id":"ce4bgvp2rcd13ifvqcu0","pricing_plan_id":"free"},{"bike_id":"e02c11c2-9959-4cf7-a61f-5572f7381533","system_id":"levelo_inurba_marseille","lat":43.313291,"lon":5.396838,"is_reserved":false,"is_disabled":false,"rental_uris":{"android":"levelo://app?vid=e02c11c2-9959-4cf7-a61f-5572f7381533","ios":"levelo://app?vid=e02c11c2-9959-4cf7-a61f-5572f7381533"},"vehicle_type_id":"4","last_reported":1705342183,"current_range_meters":15600,"station_id":"ce4bgvp2rcd13ifvqcu0","pricing_plan_id":"free"},{"bike_id":"6559cdb6-2faf-49f7-801e-39131101e175","system_id":"levelo_inurba_marseille","lat":43.313291,"lon":5.396838,"is_reserved":false,"is_disabled":false,"rental_uris":{"android":"levelo://app?vid=6559cdb6-2faf-49f7-801e-39131101e175","ios":"levelo://app?vid=6559cdb6-2faf-49f7-801e-39131101e175"},"vehicle_type_id":"4","last_reported":1705342183,"current_range_meters":22400,"station_id":"ce4bgvp2rcd13ifvqcu0","pricing_plan_id":"free"},{"bike_id":"f633d584-c7ae-4af1-8cf8-7c8c7d38dde4","system_id":"levelo_inurba_marseille","lat":43.313291,"lon":5.396838,"is_reserved":false,"is_disabled":false,"rental_uris":{"android":"levelo://app?vid=f633d584-c7ae-4af1-8cf8-7c8c7d38dde4","ios":"levelo://app?vid=f633d584-c7ae-4af1-8cf8-7c8c7d38dde4"},"vehicle_type_id":"4","last_reported":1705342183,"current_range_meters":31600,"station_id":"ce4bgvp2rcd13ifvqcu0","pricing_plan_id":"free"},{"bike_id":"d745d548-4b45-4abc-8a5c-fac4a834e3a5","system_id":"levelo_inurba_marseille","lat":43.313291,"lon":5.396838,"is_reserved":false,"is_disabled":false,"rental_uris":{"android":"levelo://app?vid=d745d548-4b45-4abc-8a5c-fac4a834e3a5","ios":"levelo://app?vid=d745d548-4b45-4abc-8a5c-fac4a834e3a5"},"vehicle_type_id":"4","last_reported":1705342183,"current_range_meters":21600,"station_id":"ce4bgvp2rcd13ifvqcu0","pricing_plan_id":"free"},{"bike_id":"f4baf2cb-b721-49c1-bfd8-dc795f2dcb63","system_id":"levelo_inurba_marseille","lat":43.291994,"lon":5.357886,"is_reserved":false,"is_disabled":false,"rental_uris":{"android":"levelo://app?vid=f4baf2cb-b721-49c1-bfd8-dc795f2dcb63","ios":"levelo://app?vid=f4baf2cb-b721-49c1-bfd8-dc795f2dcb63"},"vehicle_type_id":"4","last_reported":1705342183,"current_range_meters":0,"station_id":"ce4bhb12rcd13ifvqel0","pricing_plan_id":"free"},{"bike_id":"56e604ee-f180-4014-8a58-3c7f8eb01b29","system_id":"levelo_inurba_marseille","lat":43.294162,"lon":5.386292,"is_reserved":false,"is_disabled":false,"rental_uris":{"android":"levelo://app?vid=56e604ee-f180-4014-8a58-3c7f8eb01b29","ios":"levelo://app?vid=56e604ee-f180-4014-8a58-3c7f8eb01b29"},"vehicle_type_id":"4","last_reported":1705342183,"current_range_meters":20000,"station_id":"ce4bh2h2rcd13ifvqdh0","pricing_plan_id":"free"},{"bike_id":"34481da4-989f-464f-a0c0-9cfb5ecfb22f","system_id":"levelo_inurba_marseille","lat":43.313291,"lon":5.396838,"is_reserved":false,"is_disabled":false,"rental_uris":{"android":"levelo://app?vid=34481da4-989f-464f-a0c0-9cfb5ecfb22f","ios":"levelo://app?vid=34481da4-989f-464f-a0c0-9cfb5ecfb22f"},"vehicle_type_id":"4","last_reported":1705342183,"current_range_meters":11200,"station_id":"ce4bgvp2rcd13ifvqcu0","pricing_plan_id":"free"},{"bike_id":"32d91121-d766-4137-9df2-1977d98c812e","system_id":"levelo_inurba_marseille","lat":43.309047,"lon":5.396551,"is_reserved":false,"is_disabled":false,"rental_uris":{"android":"levelo://app?vid=32d91121-d766-4137-9df2-1977d98c812e","ios":"levelo://app?vid=32d91121-d766-4137-9df2-1977d98c812e"},"vehicle_type_id":"4","last_reported":1705342183,"current_range_meters":19600,"station_id":"ce4bh012rcd13ifvqcv0","pricing_plan_id":"free"},{"bike_id":"b7470b05-6a21-47b8-a353-6aa535052877","system_id":"levelo_inurba_marseille","lat":43.309038,"lon":5.396546,"is_reserved":false,"is_disabled":false,"rental_uris":{"android":"levelo://app?vid=b7470b05-6a21-47b8-a353-6aa535052877","ios":"levelo://app?vid=b7470b05-6a21-47b8-a353-6aa535052877"},"vehicle_type_id":"4","last_reported":1705342183,"current_range_meters":7600,"station_id":"ce4bh012rcd13ifvqcv0","pricing_plan_id":"free"},{"bike_id":"c2b39b24-b68b-404d-bb28-e9dafb664f06","system_id":"levelo_inurba_marseille","lat":43.313291,"lon":5.396838,"is_reserved":false,"is_disabled":false,"rental_uris":{"android":"levelo://app?vid=c2b39b24-b68b-404d-bb28-e9dafb664f06","ios":"levelo://app?vid=c2b39b24-b68b-404d-bb28-e9dafb664f06"},"vehicle_type_id":"4","last_reported":1705342183,"current_range_meters":0,"station_id":"ce4bgvp2rcd13ifvqcu0","pricing_plan_id":"free"},{"bike_id":"bd6223db-08e3-467f-92f2-48856eeb05b0","system_id":"levelo_inurba_marseille","lat":43.29529,"lon":5.385581,"is_reserved":false,"is_disabled":false,"rental_uris":{"android":"levelo://app?vid=bd6223db-08e3-467f-92f2-48856eeb05b0","ios":"levelo://app?vid=bd6223db-08e3-467f-92f2-48856eeb05b0"},"vehicle_type_id":"4","last_reported":1705342183,"current_range_meters":11200,"station_id":"ce4bgih2rcd13ifvqba0","pricing_plan_id":"free"},{"bike_id":"a2d4b3d1-1156-4531-bfb9-09afdb190309","system_id":"levelo_inurba_marseille","lat":43.313291,"lon":5.396838,"is_reserved":false,"is_disabled":false,"rental_uris":{"android":"levelo://app?vid=a2d4b3d1-1156-4531-bfb9-09afdb190309","ios":"levelo://app?vid=a2d4b3d1-1156-4531-bfb9-09afdb190309"},"vehicle_type_id":"4","last_reported":1705342183,"current_range_meters":9600,"station_id":"ce4bgvp2rcd13ifvqcu0","pricing_plan_id":"free"},{"bike_id":"de559a31-3f51-403b-82f9-e78fe113abd5","system_id":"levelo_inurba_marseille","lat":43.290631,"lon":5.359244,"is_reserved":false,"is_disabled":false,"rental_uris":{"android":"levelo://app?vid=de559a31-3f51-403b-82f9-e78fe113abd5","ios":"levelo://app?vid=de559a31-3f51-403b-82f9-e78fe113abd5"},"vehicle_type_id":"4","last_reported":1705342183,"current_range_meters":10000,"station_id":"ce4bha92rcd13ifvqeg0","pricing_plan_id":"free"},{"bike_id":"08b2e5aa-ea20-4922-b520-ef0f53dae965","system_id":"levelo_inurba_marseille","lat":43.299243,"lon":5.37481,"is_reserved":false,"is_disabled":false,"rental_uris":{"android":"levelo://app?vid=08b2e5aa-ea20-4922-b520-ef0f53dae965","ios":"levelo://app?vid=08b2e5aa-ea20-4922-b520-ef0f53dae965"},"vehicle_type_id":"4","last_reported":1705342183,"current_range_meters":22000,"station_id":"ce4bgjh2rcd13ifvqbg0","pricing_plan_id":"free"},{"bike_id":"29a57fcc-5c15-4796-9c96-28e3e2a9859f","system_id":"levelo_inurba_marseille","lat":43.290631,"lon":5.359244,"is_reserved":false,"is_disabled":false,"rental_uris":{"android":"levelo://app?vid=29a57fcc-5c15-4796-9c96-28e3e2a9859f","ios":"levelo://app?vid=29a57fcc-5c15-4796-9c96-28e3e2a9859f"},"vehicle_type_id":"4","last_reported":1705342183,"current_range_meters":11200,"station_id":"ce4bha92rcd13ifvqeg0","pricing_plan_id":"free"},{"bike_id":"3ecce6cb-9fc6-48a0-8612-1cb9f20af49d","system_id":"levelo_inurba_marseille","lat":43.294153,"lon":5.386305,"is_reserved":false,"is_disabled":false,"rental_uris":{"android":"levelo://app?vid=3ecce6cb-9fc6-48a0-8612-1cb9f20af49d","ios":"levelo://app?vid=3ecce6cb-9fc6-48a0-8612-1cb9f20af49d"},"vehicle_type_id":"4","last_reported":1705342183,"current_range_meters":400,"station_id":"ce4bh2h2rcd13ifvqdh0","pricing_plan_id":"free"},{"bike_id":"649d9d79-6791-42a4-bb1c-ebbfedac957d","system_id":"levelo_inurba_marseille","lat":43.294162,"lon":5.386292,"is_reserved":false,"is_disabled":false,"rental_uris":{"android":"levelo://app?vid=649d9d79-6791-42a4-bb1c-ebbfedac957d","ios":"levelo://app?vid=649d9d79-6791-42a4-bb1c-ebbfedac957d"},"vehicle_type_id":"4","last_reported":1705342183,"current_range_meters":19200,"station_id":"ce4bh2h2rcd13ifvqdh0","pricing_plan_id":"free"},{"bike_id":"a1fce36e-5404-4a71-92e7-ae834cc4ce09","system_id":"levelo_inurba_marseille","lat":43.290327,"lon":5.375711,"is_reserved":false,"is_disabled":false,"rental_uris":{"android":"levelo://app?vid=a1fce36e-5404-4a71-92e7-ae834cc4ce09","ios":"levelo://app?vid=a1fce36e-5404-4a71-92e7-ae834cc4ce09"},"vehicle_type_id":"4","last_reported":1705342183,"current_range_meters":20400,"station_id":"ce4bh692rcd13ifvqe90","pricing_plan_id":"free"},{"bike_id":"d77ef732-34fc-4bd7-baa2-41b22caa4fce","system_id":"levelo_inurba_marseille","lat":43.294153,"lon":5.386305,"is_reserved":false,"is_disabled":false,"rental_uris":{"android":"levelo://app?vid=d77ef732-34fc-4bd7-baa2-41b22caa4fce","ios":"levelo://app?vid=d77ef732-34fc-4bd7-baa2-41b22caa4fce"},"vehicle_type_id":"4","last_reported":1705342183,"current_range_meters":10400,"station_id":"ce4bh2h2rcd13ifvqdh0","pricing_plan_id":"free"},{"bike_id":"3b93fc36-597b-4a26-894d-3c9edadc2592","system_id":"levelo_inurba_marseille","lat":43.289184,"lon":5.366408,"is_reserved":false,"is_disabled":false,"rental_uris":{"android":"levelo://app?vid=3b93fc36-597b-4a26-894d-3c9edadc2592","ios":"levelo://app?vid=3b93fc36-597b-4a26-894d-3c9edadc2592"},"vehicle_type_id":"4","last_reported":1705342183,"current_range_meters":19200,"station_id":"ce4bhap2rcd13ifvqek0","pricing_plan_id":"free"},{"bike_id":"6be50228-7d8a-4482-9243-e68a95846eac","system_id":"levelo_inurba_marseille","lat":43.294162,"lon":5.386292,"is_reserved":false,"is_disabled":false,"rental_uris":{"android":"levelo://app?vid=6be50228-7d8a-4482-9243-e68a95846eac","ios":"levelo://app?vid=6be50228-7d8a-4482-9243-e68a95846eac"},"vehicle_type_id":"4","last_reported":1705342183,"current_range_meters":0,"station_id":"ce4bh2h2rcd13ifvqdh0","pricing_plan_id":"free"},{"bike_id":"389897a2-2f76-4d1f-ac0b-345569cb03ac","system_id":"levelo_inurba_marseille","lat":43.294162,"lon":5.386292,"is_reserved":false,"is_disabled":false,"rental_uris":{"android":"levelo://app?vid=389897a2-2f76-4d1f-ac0b-345569cb03ac","ios":"levelo://app?vid=389897a2-2f76-4d1f-ac0b-345569cb03ac"},"vehicle_type_id":"4","last_reported":1705342183,"current_range_meters":22400,"station_id":"ce4bh2h2rcd13ifvqdh0","pricing_plan_id":"free"},{"bike_id":"486fc52a-c169-46b2-94ea-b6f8fadc1dd1","system_id":"levelo_inurba_marseille","lat":43.294162,"lon":5.386292,"is_reserved":false,"is_disabled":false,"rental_uris":{"android":"levelo://app?vid=486fc52a-c169-46b2-94ea-b6f8fadc1dd1","ios":"levelo://app?vid=486fc52a-c169-46b2-94ea-b6f8fadc1dd1"},"vehicle_type_id":"4","last_reported":1705342183,"current_range_meters":18400,"station_id":"ce4bh2h2rcd13ifvqdh0","pricing_plan_id":"free"},{"bike_id":"e9861792-9bc5-47e7-a6d4-c179bee7dcfe","system_id":"levelo_inurba_marseille","lat":43.290624,"lon":5.359245,"is_reserved":false,"is_disabled":false,"rental_uris":{"android":"levelo://app?vid=e9861792-9bc5-47e7-a6d4-c179bee7dcfe","ios":"levelo://app?vid=e9861792-9bc5-47e7-a6d4-c179bee7dcfe"},"vehicle_type_id":"4","last_reported":1705342183,"current_range_meters":16800,"station_id":"ce4bha92rcd13ifvqeg0","pricing_plan_id":"free"},{"bike_id":"f230f96a-24dd-4875-9e24-53515e2cdf06","system_id":"levelo_inurba_marseille","lat":43.289428,"lon":5.366273,"is_reserved":false,"is_disabled":false,"rental_uris":{"android":"levelo://app?vid=f230f96a-24dd-4875-9e24-53515e2cdf06","ios":"levelo://app?vid=f230f96a-24dd-4875-9e24-53515e2cdf06"},"vehicle_type_id":"4","last_reported":1705342183,"current_range_meters":0,"station_id":"ce4bhap2rcd13ifvqek0","pricing_plan_id":"free"},{"bike_id":"d7d604d7-fd3e-4c49-934c-996963812cd5","system_id":"levelo_inurba_marseille","lat":43.289468,"lon":5.363719,"is_reserved":false,"is_disabled":false,"rental_uris":{"android":"levelo://app?vid=d7d604d7-fd3e-4c49-934c-996963812cd5","ios":"levelo://app?vid=d7d604d7-fd3e-4c49-934c-996963812cd5"},"vehicle_type_id":"4","last_reported":1705342183,"current_range_meters":18400,"station_id":"ce4bhc92rcd13ifvqetg","pricing_plan_id":"free"},{"bike_id":"499fa21d-87ad-444f-a863-3a060c3f24eb","system_id":"levelo_inurba_marseille","lat":43.289184,"lon":5.366408,"is_reserved":false,"is_disabled":false,"rental_uris":{"android":"levelo://app?vid=499fa21d-87ad-444f-a863-3a060c3f24eb","ios":"levelo://app?vid=499fa21d-87ad-444f-a863-3a060c3f24eb"},"vehicle_type_id":"4","last_reported":1705342183,"current_range_meters":3600,"station_id":"ce4bhap2rcd13ifvqek0","pricing_plan_id":"free"},{"bike_id":"b3d44a06-9889-40dc-b5e7-50727bb558a1","system_id":"levelo_inurba_marseille","lat":43.289184,"lon":5.366408,"is_reserved":false,"is_disabled":false,"rental_uris":{"android":"levelo://app?vid=b3d44a06-9889-40dc-b5e7-50727bb558a1","ios":"levelo://app?vid=b3d44a06-9889-40dc-b5e7-50727bb558a1"},"vehicle_type_id":"4","last_reported":1705342183,"current_range_meters":8400,"station_id":"ce4bhap2rcd13ifvqek0","pricing_plan_id":"free"},{"bike_id":"0b89b948-99c6-4b24-b536-630fe51b9d61","system_id":"levelo_inurba_marseille","lat":43.289468,"lon":5.363719,"is_reserved":false,"is_disabled":false,"rental_uris":{"android":"levelo://app?vid=0b89b948-99c6-4b24-b536-630fe51b9d61","ios":"levelo://app?vid=0b89b948-99c6-4b24-b536-630fe51b9d61"},"vehicle_type_id":"4","last_reported":1705342183,"current_range_meters":0,"station_id":"ce4bhc92rcd13ifvqetg","pricing_plan_id":"free"},{"bike_id":"e4d68649-2897-478c-bb6c-f209987f0e90","system_id":"levelo_inurba_marseille","lat":43.289468,"lon":5.363719,"is_reserved":false,"is_disabled":false,"rental_uris":{"android":"levelo://app?vid=e4d68649-2897-478c-bb6c-f209987f0e90","ios":"levelo://app?vid=e4d68649-2897-478c-bb6c-f209987f0e90"},"vehicle_type_id":"4","last_reported":1705342183,"current_range_meters":5200,"station_id":"ce4bhc92rcd13ifvqetg","pricing_plan_id":"free"},{"bike_id":"8bf6d281-8cc0-48b2-b479-d25cc468506f","system_id":"levelo_inurba_marseille","lat":43.289184,"lon":5.366408,"is_reserved":false,"is_disabled":false,"rental_uris":{"android":"levelo://app?vid=8bf6d281-8cc0-48b2-b479-d25cc468506f","ios":"levelo://app?vid=8bf6d281-8cc0-48b2-b479-d25cc468506f"},"vehicle_type_id":"4","last_reported":1705342183,"current_range_meters":0,"station_id":"ce4bhap2rcd13ifvqek0","pricing_plan_id":"free"},{"bike_id":"5280d89d-8c68-4655-b936-ef918b0d0e42","system_id":"levelo_inurba_marseille","lat":43.294162,"lon":5.386292,"is_reserved":false,"is_disabled":false,"rental_uris":{"android":"levelo://app?vid=5280d89d-8c68-4655-b936-ef918b0d0e42","ios":"levelo://app?vid=5280d89d-8c68-4655-b936-ef918b0d0e42"},"vehicle_type_id":"4","last_reported":1705342183,"current_range_meters":0,"station_id":"ce4bh2h2rcd13ifvqdh0","pricing_plan_id":"free"},{"bike_id":"6ec6d612-93f0-4f91-bbe1-e14341d18b9e","system_id":"levelo_inurba_marseille","lat":43.290631,"lon":5.359244,"is_reserved":false,"is_disabled":false,"rental_uris":{"android":"levelo://app?vid=6ec6d612-93f0-4f91-bbe1-e14341d18b9e","ios":"levelo://app?vid=6ec6d612-93f0-4f91-bbe1-e14341d18b9e"},"vehicle_type_id":"4","last_reported":1705342183,"current_range_meters":25200,"station_id":"ce4bha92rcd13ifvqeg0","pricing_plan_id":"free"},{"bike_id":"b948eb07-91a6-4d32-8f48-c3adb16fd935","system_id":"levelo_inurba_marseille","lat":43.292642,"lon":5.384254,"is_reserved":false,"is_disabled":false,"rental_uris":{"android":"levelo://app?vid=b948eb07-91a6-4d32-8f48-c3adb16fd935","ios":"levelo://app?vid=b948eb07-91a6-4d32-8f48-c3adb16fd935"},"vehicle_type_id":"4","last_reported":1705342183,"current_range_meters":5600,"station_id":"ce4bh692rcd13ifvqea0","pricing_plan_id":"free"},{"bike_id":"281ca9c2-64cb-445f-b55f-58f31fe1b195","system_id":"levelo_inurba_marseille","lat":43.292642,"lon":5.384254,"is_reserved":false,"is_disabled":false,"rental_uris":{"android":"levelo://app?vid=281ca9c2-64cb-445f-b55f-58f31fe1b195","ios":"levelo://app?vid=281ca9c2-64cb-445f-b55f-58f31fe1b195"},"vehicle_type_id":"4","last_reported":1705342183,"current_range_meters":8400,"station_id":"ce4bh692rcd13ifvqea0","pricing_plan_id":"free"},{"bike_id":"4029ca4d-6691-4ede-8196-3031021f381e","system_id":"levelo_inurba_marseille","lat":43.292644,"lon":5.384257,"is_reserved":false,"is_disabled":false,"rental_uris":{"android":"levelo://app?vid=4029ca4d-6691-4ede-8196-3031021f381e","ios":"levelo://app?vid=4029ca4d-6691-4ede-8196-3031021f381e"},"vehicle_type_id":"4","last_reported":1705342183,"current_range_meters":8800,"station_id":"ce4bh692rcd13ifvqea0","pricing_plan_id":"free"},{"bike_id":"1499407a-126a-498e-a253-793237301a99","system_id":"levelo_inurba_marseille","lat":43.292642,"lon":5.384254,"is_reserved":false,"is_disabled":false,"rental_uris":{"android":"levelo://app?vid=1499407a-126a-498e-a253-793237301a99","ios":"levelo://app?vid=1499407a-126a-498e-a253-793237301a99"},"vehicle_type_id":"4","last_reported":1705342183,"current_range_meters":20800,"station_id":"ce4bh692rcd13ifvqea0","pricing_plan_id":"free"},{"bike_id":"8c25479f-7fc8-47c6-b57a-9b6f8cf67d88","system_id":"levelo_inurba_marseille","lat":43.309047,"lon":5.396551,"is_reserved":false,"is_disabled":false,"rental_uris":{"android":"levelo://app?vid=8c25479f-7fc8-47c6-b57a-9b6f8cf67d88","ios":"levelo://app?vid=8c25479f-7fc8-47c6-b57a-9b6f8cf67d88"},"vehicle_type_id":"4","last_reported":1705342183,"current_range_meters":4400,"station_id":"ce4bh012rcd13ifvqcv0","pricing_plan_id":"free"},{"bike_id":"d6a663e3-46eb-4d86-a8a1-b9fd54408048","system_id":"levelo_inurba_marseille","lat":43.292642,"lon":5.384254,"is_reserved":false,"is_disabled":false,"rental_uris":{"android":"levelo://app?vid=d6a663e3-46eb-4d86-a8a1-b9fd54408048","ios":"levelo://app?vid=d6a663e3-46eb-4d86-a8a1-b9fd54408048"},"vehicle_type_id":"4","last_reported":1705342183,"current_range_meters":21600,"station_id":"ce4bh692rcd13ifvqea0","pricing_plan_id":"free"},{"bike_id":"4ffbc5bc-7668-4937-9470-52b6f70fe71c","system_id":"levelo_inurba_marseille","lat":43.290104,"lon":5.356111,"is_reserved":false,"is_disabled":false,"rental_uris":{"android":"levelo://app?vid=4ffbc5bc-7668-4937-9470-52b6f70fe71c","ios":"levelo://app?vid=4ffbc5bc-7668-4937-9470-52b6f70fe71c"},"vehicle_type_id":"4","last_reported":1705342183,"current_range_meters":24000,"station_id":"ce4bhb92rcd13ifvqen0","pricing_plan_id":"free"},{"bike_id":"4e19a295-da7d-4a97-b37f-348040ba4092","system_id":"levelo_inurba_marseille","lat":43.292642,"lon":5.384254,"is_reserved":false,"is_disabled":false,"rental_uris":{"android":"levelo://app?vid=4e19a295-da7d-4a97-b37f-348040ba4092","ios":"levelo://app?vid=4e19a295-da7d-4a97-b37f-348040ba4092"},"vehicle_type_id":"4","last_reported":1705342183,"current_range_meters":20400,"station_id":"ce4bh692rcd13ifvqea0","pricing_plan_id":"free"},{"bike_id":"e9152025-6812-4de5-8ae9-3b2eb7faef00","system_id":"levelo_inurba_marseille","lat":43.290995,"lon":5.381361,"is_reserved":false,"is_disabled":false,"rental_uris":{"android":"levelo://app?vid=e9152025-6812-4de5-8ae9-3b2eb7faef00","ios":"levelo://app?vid=e9152025-6812-4de5-8ae9-3b2eb7faef00"},"vehicle_type_id":"4","last_reported":1705342183,"current_range_meters":0,"station_id":"ce4bh512rcd13ifvqe2g","pricing_plan_id":"free"},{"bike_id":"f1d18d94-61d7-478a-a27a-a3b39f163e04","system_id":"levelo_inurba_marseille","lat":43.290995,"lon":5.381361,"is_reserved":false,"is_disabled":false,"rental_uris":{"android":"levelo://app?vid=f1d18d94-61d7-478a-a27a-a3b39f163e04","ios":"levelo://app?vid=f1d18d94-61d7-478a-a27a-a3b39f163e04"},"vehicle_type_id":"4","last_reported":1705342183,"current_range_meters":19600,"station_id":"ce4bh512rcd13ifvqe2g","pricing_plan_id":"free"},{"bike_id":"01e38aca-98ec-4cb6-92bd-560feff5052c","system_id":"levelo_inurba_marseille","lat":43.2978,"lon":5.39339,"is_reserved":false,"is_disabled":false,"rental_uris":{"android":"levelo://app?vid=01e38aca-98ec-4cb6-92bd-560feff5052c","ios":"levelo://app?vid=01e38aca-98ec-4cb6-92bd-560feff5052c"},"vehicle_type_id":"4","last_reported":1705342183,"current_range_meters":8400,"station_id":"chh1huq6cuj3fo74tm60","pricing_plan_id":"free"},{"bike_id":"42fde5db-d54c-4b1d-8b46-33603db2d2d1","system_id":"levelo_inurba_marseille","lat":43.3302,"lon":5.39035,"is_reserved":false,"is_disabled":false,"rental_uris":{"android":"levelo://app?vid=42fde5db-d54c-4b1d-8b46-33603db2d2d1","ios":"levelo://app?vid=42fde5db-d54c-4b1d-8b46-33603db2d2d1"},"vehicle_type_id":"4","last_reported":1705342183,"current_range_meters":14000,"station_id":"ce4bhr92rcd13ifvqhrg","pricing_plan_id":"free"},{"bike_id":"1c911b6d-8c17-4da7-ab47-9a84f6bf8381","system_id":"levelo_inurba_marseille","lat":43.295169,"lon":5.390426,"is_reserved":false,"is_disabled":false,"rental_uris":{"android":"levelo://app?vid=1c911b6d-8c17-4da7-ab47-9a84f6bf8381","ios":"levelo://app?vid=1c911b6d-8c17-4da7-ab47-9a84f6bf8381"},"vehicle_type_id":"4","last_reported":1705342183,"current_range_meters":12000,"station_id":"ce4bh3p2rcd13ifvqdp0","pricing_plan_id":"free"},{"bike_id":"5e21ea74-79fb-445f-a1fd-0d2b8da69ae3","system_id":"levelo_inurba_marseille","lat":43.33022,"lon":5.39039,"is_reserved":false,"is_disabled":false,"rental_uris":{"android":"levelo://app?vid=5e21ea74-79fb-445f-a1fd-0d2b8da69ae3","ios":"levelo://app?vid=5e21ea74-79fb-445f-a1fd-0d2b8da69ae3"},"vehicle_type_id":"4","last_reported":1705342183,"current_range_meters":23200,"station_id":"ce4bhr92rcd13ifvqhrg","pricing_plan_id":"free"},{"bike_id":"8d2e7982-b1fd-42e5-9f73-d9ebc784f624","system_id":"levelo_inurba_marseille","lat":43.29523,"lon":5.39035,"is_reserved":false,"is_disabled":false,"rental_uris":{"android":"levelo://app?vid=8d2e7982-b1fd-42e5-9f73-d9ebc784f624","ios":"levelo://app?vid=8d2e7982-b1fd-42e5-9f73-d9ebc784f624"},"vehicle_type_id":"4","last_reported":1705342183,"current_range_meters":0,"station_id":"ce4bh3p2rcd13ifvqdp0","pricing_plan_id":"free"},{"bike_id":"7c64a78d-cf44-415c-a807-707bdbdb0e66","system_id":"levelo_inurba_marseille","lat":43.330236,"lon":5.39039,"is_reserved":false,"is_disabled":false,"rental_uris":{"android":"levelo://app?vid=7c64a78d-cf44-415c-a807-707bdbdb0e66","ios":"levelo://app?vid=7c64a78d-cf44-415c-a807-707bdbdb0e66"},"vehicle_type_id":"4","last_reported":1705342183,"current_range_meters":6000,"station_id":"ce4bhr92rcd13ifvqhrg","pricing_plan_id":"free"},{"bike_id":"7ec97ec1-9aa4-4992-bd41-3f0540e3b4f2","system_id":"levelo_inurba_marseille","lat":43.290103,"lon":5.356114,"is_reserved":false,"is_disabled":false,"rental_uris":{"android":"levelo://app?vid=7ec97ec1-9aa4-4992-bd41-3f0540e3b4f2","ios":"levelo://app?vid=7ec97ec1-9aa4-4992-bd41-3f0540e3b4f2"},"vehicle_type_id":"4","last_reported":1705342183,"current_range_meters":17200,"station_id":"ce4bhb92rcd13ifvqen0","pricing_plan_id":"free"},{"bike_id":"59bdac10-b5e9-4f03-b04f-68439b974a96","system_id":"levelo_inurba_marseille","lat":43.33025,"lon":5.39039,"is_reserved":false,"is_disabled":false,"rental_uris":{"android":"levelo://app?vid=59bdac10-b5e9-4f03-b04f-68439b974a96","ios":"levelo://app?vid=59bdac10-b5e9-4f03-b04f-68439b974a96"},"vehicle_type_id":"4","last_reported":1705342183,"current_range_meters":18400,"station_id":"ce4bhr92rcd13ifvqhrg","pricing_plan_id":"free"},{"bike_id":"cf2a8e79-1286-47b7-b507-ef7bebc2955c","system_id":"levelo_inurba_marseille","lat":43.330442,"lon":5.389148,"is_reserved":false,"is_disabled":false,"rental_uris":{"android":"levelo://app?vid=cf2a8e79-1286-47b7-b507-ef7bebc2955c","ios":"levelo://app?vid=cf2a8e79-1286-47b7-b507-ef7bebc2955c"},"vehicle_type_id":"4","last_reported":1705342183,"current_range_meters":6800,"station_id":"ce4bhr92rcd13ifvqhrg","pricing_plan_id":"free"},{"bike_id":"12cf2268-0c09-4f12-b5d8-7ee86d88a231","system_id":"levelo_inurba_marseille","lat":43.330442,"lon":5.389148,"is_reserved":false,"is_disabled":false,"rental_uris":{"android":"levelo://app?vid=12cf2268-0c09-4f12-b5d8-7ee86d88a231","ios":"levelo://app?vid=12cf2268-0c09-4f12-b5d8-7ee86d88a231"},"vehicle_type_id":"4","last_reported":1705342183,"current_range_meters":25200,"station_id":"ce4bhr92rcd13ifvqhrg","pricing_plan_id":"free"},{"bike_id":"517b0d0b-d608-45bf-9461-35b6ce418c5d","system_id":"levelo_inurba_marseille","lat":43.330442,"lon":5.389148,"is_reserved":false,"is_disabled":false,"rental_uris":{"android":"levelo://app?vid=517b0d0b-d608-45bf-9461-35b6ce418c5d","ios":"levelo://app?vid=517b0d0b-d608-45bf-9461-35b6ce418c5d"},"vehicle_type_id":"4","last_reported":1705342183,"current_range_meters":1600,"station_id":"ce4bhr92rcd13ifvqhrg","pricing_plan_id":"free"},{"bike_id":"3d40baa4-ccb2-46d4-8535-caa245f6decf","system_id":"levelo_inurba_marseille","lat":43.330442,"lon":5.389148,"is_reserved":false,"is_disabled":false,"rental_uris":{"android":"levelo://app?vid=3d40baa4-ccb2-46d4-8535-caa245f6decf","ios":"levelo://app?vid=3d40baa4-ccb2-46d4-8535-caa245f6decf"},"vehicle_type_id":"4","last_reported":1705342183,"current_range_meters":16400,"station_id":"ce4bhr92rcd13ifvqhrg","pricing_plan_id":"free"},{"bike_id":"95d7b378-6f0f-43ff-a8e6-7582e575c578","system_id":"levelo_inurba_marseille","lat":43.330442,"lon":5.389148,"is_reserved":false,"is_disabled":false,"rental_uris":{"android":"levelo://app?vid=95d7b378-6f0f-43ff-a8e6-7582e575c578","ios":"levelo://app?vid=95d7b378-6f0f-43ff-a8e6-7582e575c578"},"vehicle_type_id":"4","last_reported":1705342183,"current_range_meters":20000,"station_id":"ce4bhr92rcd13ifvqhrg","pricing_plan_id":"free"},{"bike_id":"4035c2ec-9a4d-4c49-8b6c-e9cb484872d4","system_id":"levelo_inurba_marseille","lat":43.295169,"lon":5.390426,"is_reserved":false,"is_disabled":false,"rental_uris":{"android":"levelo://app?vid=4035c2ec-9a4d-4c49-8b6c-e9cb484872d4","ios":"levelo://app?vid=4035c2ec-9a4d-4c49-8b6c-e9cb484872d4"},"vehicle_type_id":"4","last_reported":1705342183,"current_range_meters":22000,"station_id":"ce4bh3p2rcd13ifvqdp0","pricing_plan_id":"free"},{"bike_id":"51967a66-2d0a-417d-83c4-2fbac803c597","system_id":"levelo_inurba_marseille","lat":43.301117,"lon":5.398795,"is_reserved":false,"is_disabled":false,"rental_uris":{"android":"levelo://app?vid=51967a66-2d0a-417d-83c4-2fbac803c597","ios":"levelo://app?vid=51967a66-2d0a-417d-83c4-2fbac803c597"},"vehicle_type_id":"4","last_reported":1705342183,"current_range_meters":20400,"station_id":"ce4bh0h2rcd13ifvqd40","pricing_plan_id":"free"},{"bike_id":"0f434689-d934-44b5-965b-5bd7db99c7a1","system_id":"levelo_inurba_marseille","lat":43.290094,"lon":5.381264,"is_reserved":false,"is_disabled":false,"rental_uris":{"android":"levelo://app?vid=0f434689-d934-44b5-965b-5bd7db99c7a1","ios":"levelo://app?vid=0f434689-d934-44b5-965b-5bd7db99c7a1"},"vehicle_type_id":"4","last_reported":1705342183,"current_range_meters":4400,"station_id":"ce4bh4p2rcd13ifvqe1g","pricing_plan_id":"free"},{"bike_id":"59d8c2f5-e469-4c63-8260-12b2c9040799","system_id":"levelo_inurba_marseille","lat":43.28856,"lon":5.358371,"is_reserved":false,"is_disabled":false,"rental_uris":{"android":"levelo://app?vid=59d8c2f5-e469-4c63-8260-12b2c9040799","ios":"levelo://app?vid=59d8c2f5-e469-4c63-8260-12b2c9040799"},"vehicle_type_id":"4","last_reported":1705342183,"current_range_meters":9200,"station_id":"ce4bhb12rcd13ifvqem0","pricing_plan_id":"free"},{"bike_id":"01c8fe3b-8929-45c4-8ddd-cf2f64cb3102","system_id":"levelo_inurba_marseille","lat":43.28856,"lon":5.358371,"is_reserved":false,"is_disabled":false,"rental_uris":{"android":"levelo://app?vid=01c8fe3b-8929-45c4-8ddd-cf2f64cb3102","ios":"levelo://app?vid=01c8fe3b-8929-45c4-8ddd-cf2f64cb3102"},"vehicle_type_id":"4","last_reported":1705342183,"current_range_meters":22400,"station_id":"ce4bhb12rcd13ifvqem0","pricing_plan_id":"free"},{"bike_id":"67affa55-6dee-4b0d-aeaa-30e9be8984de","system_id":"levelo_inurba_marseille","lat":43.28856,"lon":5.358371,"is_reserved":false,"is_disabled":false,"rental_uris":{"android":"levelo://app?vid=67affa55-6dee-4b0d-aeaa-30e9be8984de","ios":"levelo://app?vid=67affa55-6dee-4b0d-aeaa-30e9be8984de"},"vehicle_type_id":"4","last_reported":1705342183,"current_range_meters":27200,"station_id":"ce4bhb12rcd13ifvqem0","pricing_plan_id":"free"},{"bike_id":"151fe49a-05ca-4c1d-91c4-c37e963fad3d","system_id":"levelo_inurba_marseille","lat":43.28856,"lon":5.358371,"is_reserved":false,"is_disabled":false,"rental_uris":{"android":"levelo://app?vid=151fe49a-05ca-4c1d-91c4-c37e963fad3d","ios":"levelo://app?vid=151fe49a-05ca-4c1d-91c4-c37e963fad3d"},"vehicle_type_id":"4","last_reported":1705342183,"current_range_meters":11200,"station_id":"ce4bhb12rcd13ifvqem0","pricing_plan_id":"free"},{"bike_id":"09eb47b1-ddbd-4e09-88fa-70115c1b472e","system_id":"levelo_inurba_marseille","lat":43.28856,"lon":5.358371,"is_reserved":false,"is_disabled":false,"rental_uris":{"android":"levelo://app?vid=09eb47b1-ddbd-4e09-88fa-70115c1b472e","ios":"levelo://app?vid=09eb47b1-ddbd-4e09-88fa-70115c1b472e"},"vehicle_type_id":"4","last_reported":1705342183,"current_range_meters":3600,"station_id":"ce4bhb12rcd13ifvqem0","pricing_plan_id":"free"},{"bike_id":"d90b0516-407e-48cf-90e5-f42772a8e5d1","system_id":"levelo_inurba_marseille","lat":43.312609,"lon":5.401662,"is_reserved":false,"is_disabled":false,"rental_uris":{"android":"levelo://app?vid=d90b0516-407e-48cf-90e5-f42772a8e5d1","ios":"levelo://app?vid=d90b0516-407e-48cf-90e5-f42772a8e5d1"},"vehicle_type_id":"4","last_reported":1705342183,"current_range_meters":25200,"station_id":"ce4bh092rcd13ifvqd30","pricing_plan_id":"free"},{"bike_id":"24c63183-063a-4fde-9fd0-561cf1cbcc3f","system_id":"levelo_inurba_marseille","lat":43.30939,"lon":5.40135,"is_reserved":false,"is_disabled":false,"rental_uris":{"android":"levelo://app?vid=24c63183-063a-4fde-9fd0-561cf1cbcc3f","ios":"levelo://app?vid=24c63183-063a-4fde-9fd0-561cf1cbcc3f"},"vehicle_type_id":"4","last_reported":1705342183,"current_range_meters":4800,"station_id":"ce4bgvp2rcd13ifvqct0","pricing_plan_id":"free"},{"bike_id":"dd2b4e72-bc6f-4552-acd0-5003987b5300","system_id":"levelo_inurba_marseille","lat":43.30943,"lon":5.4014,"is_reserved":false,"is_disabled":false,"rental_uris":{"android":"levelo://app?vid=dd2b4e72-bc6f-4552-acd0-5003987b5300","ios":"levelo://app?vid=dd2b4e72-bc6f-4552-acd0-5003987b5300"},"vehicle_type_id":"4","last_reported":1705342183,"current_range_meters":12800,"station_id":"ce4bgvp2rcd13ifvqct0","pricing_plan_id":"free"},{"bike_id":"c3b8b9b5-f0f3-4daf-9533-540dbe5865ea","system_id":"levelo_inurba_marseille","lat":43.312609,"lon":5.401662,"is_reserved":false,"is_disabled":false,"rental_uris":{"android":"levelo://app?vid=c3b8b9b5-f0f3-4daf-9533-540dbe5865ea","ios":"levelo://app?vid=c3b8b9b5-f0f3-4daf-9533-540dbe5865ea"},"vehicle_type_id":"4","last_reported":1705342183,"current_range_meters":24000,"station_id":"ce4bh092rcd13ifvqd30","pricing_plan_id":"free"},{"bike_id":"06405606-0690-4d0c-96cf-3195f4482854","system_id":"levelo_inurba_marseille","lat":43.286591,"lon":5.363346,"is_reserved":false,"is_disabled":false,"rental_uris":{"android":"levelo://app?vid=06405606-0690-4d0c-96cf-3195f4482854","ios":"levelo://app?vid=06405606-0690-4d0c-96cf-3195f4482854"},"vehicle_type_id":"4","last_reported":1705342183,"current_range_meters":22400,"station_id":"ce4bhah2rcd13ifvqej0","pricing_plan_id":"free"},{"bike_id":"6c1f0c60-d4c7-4179-a1ef-03ebccb4b844","system_id":"levelo_inurba_marseille","lat":43.33753,"lon":5.37444,"is_reserved":false,"is_disabled":false,"rental_uris":{"android":"levelo://app?vid=6c1f0c60-d4c7-4179-a1ef-03ebccb4b844","ios":"levelo://app?vid=6c1f0c60-d4c7-4179-a1ef-03ebccb4b844"},"vehicle_type_id":"4","last_reported":1705342183,"current_range_meters":28000,"station_id":"","pricing_plan_id":"free"},{"bike_id":"dc41b4fb-ec2d-4148-b3b6-3c66f748eeeb","system_id":"levelo_inurba_marseille","lat":43.309371,"lon":5.401449,"is_reserved":false,"is_disabled":false,"rental_uris":{"android":"levelo://app?vid=dc41b4fb-ec2d-4148-b3b6-3c66f748eeeb","ios":"levelo://app?vid=dc41b4fb-ec2d-4148-b3b6-3c66f748eeeb"},"vehicle_type_id":"4","last_reported":1705342183,"current_range_meters":17600,"station_id":"ce4bgvp2rcd13ifvqct0","pricing_plan_id":"free"},{"bike_id":"476a256b-8b48-41b7-80d4-e2dfa67998a5","system_id":"levelo_inurba_marseille","lat":43.301117,"lon":5.398795,"is_reserved":false,"is_disabled":false,"rental_uris":{"android":"levelo://app?vid=476a256b-8b48-41b7-80d4-e2dfa67998a5","ios":"levelo://app?vid=476a256b-8b48-41b7-80d4-e2dfa67998a5"},"vehicle_type_id":"4","last_reported":1705342183,"current_range_meters":23200,"station_id":"ce4bh0h2rcd13ifvqd40","pricing_plan_id":"free"},{"bike_id":"0ee7efc3-83de-4193-9c85-db41465cbb9f","system_id":"levelo_inurba_marseille","lat":43.301117,"lon":5.398795,"is_reserved":false,"is_disabled":false,"rental_uris":{"android":"levelo://app?vid=0ee7efc3-83de-4193-9c85-db41465cbb9f","ios":"levelo://app?vid=0ee7efc3-83de-4193-9c85-db41465cbb9f"},"vehicle_type_id":"4","last_reported":1705342183,"current_range_meters":11600,"station_id":"ce4bh0h2rcd13ifvqd40","pricing_plan_id":"free"},{"bike_id":"b8a97e74-7344-419b-ae80-3353600080ad","system_id":"levelo_inurba_marseille","lat":43.301117,"lon":5.398795,"is_reserved":false,"is_disabled":false,"rental_uris":{"android":"levelo://app?vid=b8a97e74-7344-419b-ae80-3353600080ad","ios":"levelo://app?vid=b8a97e74-7344-419b-ae80-3353600080ad"},"vehicle_type_id":"4","last_reported":1705342183,"current_range_meters":14400,"station_id":"ce4bh0h2rcd13ifvqd40","pricing_plan_id":"free"},{"bike_id":"d907a7ed-c95c-4403-9c63-ce65b86da356","system_id":"levelo_inurba_marseille","lat":43.28727,"lon":5.36078,"is_reserved":false,"is_disabled":false,"rental_uris":{"android":"levelo://app?vid=d907a7ed-c95c-4403-9c63-ce65b86da356","ios":"levelo://app?vid=d907a7ed-c95c-4403-9c63-ce65b86da356"},"vehicle_type_id":"4","last_reported":1705342183,"current_range_meters":26000,"station_id":"cki0cbj6b192h4jlfktg","pricing_plan_id":"free"},{"bike_id":"697aacd8-9a49-4840-81d2-4ab955fda697","system_id":"levelo_inurba_marseille","lat":43.301117,"lon":5.398795,"is_reserved":false,"is_disabled":false,"rental_uris":{"android":"levelo://app?vid=697aacd8-9a49-4840-81d2-4ab955fda697","ios":"levelo://app?vid=697aacd8-9a49-4840-81d2-4ab955fda697"},"vehicle_type_id":"4","last_reported":1705342183,"current_range_meters":14000,"station_id":"ce4bh0h2rcd13ifvqd40","pricing_plan_id":"free"},{"bike_id":"38a61d73-fe15-467a-919f-66257500e048","system_id":"levelo_inurba_marseille","lat":43.28727,"lon":5.36078,"is_reserved":false,"is_disabled":false,"rental_uris":{"android":"levelo://app?vid=38a61d73-fe15-467a-919f-66257500e048","ios":"levelo://app?vid=38a61d73-fe15-467a-919f-66257500e048"},"vehicle_type_id":"4","last_reported":1705342183,"current_range_meters":30000,"station_id":"cki0cbj6b192h4jlfktg","pricing_plan_id":"free"},{"bike_id":"099be6f4-2b47-4b75-9d56-4d7386e3701b","system_id":"levelo_inurba_marseille","lat":43.28727,"lon":5.36078,"is_reserved":false,"is_disabled":false,"rental_uris":{"android":"levelo://app?vid=099be6f4-2b47-4b75-9d56-4d7386e3701b","ios":"levelo://app?vid=099be6f4-2b47-4b75-9d56-4d7386e3701b"},"vehicle_type_id":"4","last_reported":1705342183,"current_range_meters":19200,"station_id":"cki0cbj6b192h4jlfktg","pricing_plan_id":"free"},{"bike_id":"63f4fe10-acaf-4af8-a655-a53f356861d9","system_id":"levelo_inurba_marseille","lat":43.286961,"lon":5.373785,"is_reserved":false,"is_disabled":false,"rental_uris":{"android":"levelo://app?vid=63f4fe10-acaf-4af8-a655-a53f356861d9","ios":"levelo://app?vid=63f4fe10-acaf-4af8-a655-a53f356861d9"},"vehicle_type_id":"4","last_reported":1705342183,"current_range_meters":6000,"station_id":"ce4bh3p2rcd13ifvqdq0","pricing_plan_id":"free"},{"bike_id":"66da564a-d195-4742-ab34-ae4e90839509","system_id":"levelo_inurba_marseille","lat":43.298681,"lon":5.397225,"is_reserved":false,"is_disabled":false,"rental_uris":{"android":"levelo://app?vid=66da564a-d195-4742-ab34-ae4e90839509","ios":"levelo://app?vid=66da564a-d195-4742-ab34-ae4e90839509"},"vehicle_type_id":"4","last_reported":1705342183,"current_range_meters":7200,"station_id":"ce4bh0h2rcd13ifvqd50","pricing_plan_id":"free"},{"bike_id":"ddf3e015-429e-4475-b0d5-5c14b7ce50f4","system_id":"levelo_inurba_marseille","lat":43.298681,"lon":5.397225,"is_reserved":false,"is_disabled":false,"rental_uris":{"android":"levelo://app?vid=ddf3e015-429e-4475-b0d5-5c14b7ce50f4","ios":"levelo://app?vid=ddf3e015-429e-4475-b0d5-5c14b7ce50f4"},"vehicle_type_id":"4","last_reported":1705342183,"current_range_meters":19200,"station_id":"ce4bh0h2rcd13ifvqd50","pricing_plan_id":"free"},{"bike_id":"a924de26-38c4-4ff4-bf5e-6bf1b8badead","system_id":"levelo_inurba_marseille","lat":43.286593,"lon":5.363346,"is_reserved":false,"is_disabled":false,"rental_uris":{"android":"levelo://app?vid=a924de26-38c4-4ff4-bf5e-6bf1b8badead","ios":"levelo://app?vid=a924de26-38c4-4ff4-bf5e-6bf1b8badead"},"vehicle_type_id":"4","last_reported":1705342183,"current_range_meters":21200,"station_id":"ce4bhah2rcd13ifvqej0","pricing_plan_id":"free"},{"bike_id":"3e4f9109-69f1-45ff-8153-743d67c963c1","system_id":"levelo_inurba_marseille","lat":43.286961,"lon":5.373785,"is_reserved":false,"is_disabled":false,"rental_uris":{"android":"levelo://app?vid=3e4f9109-69f1-45ff-8153-743d67c963c1","ios":"levelo://app?vid=3e4f9109-69f1-45ff-8153-743d67c963c1"},"vehicle_type_id":"4","last_reported":1705342183,"current_range_meters":3600,"station_id":"ce4bh3p2rcd13ifvqdq0","pricing_plan_id":"free"},{"bike_id":"7fbdfdac-7fad-42b6-9d87-a7e5d85d285e","system_id":"levelo_inurba_marseille","lat":43.298681,"lon":5.397225,"is_reserved":false,"is_disabled":false,"rental_uris":{"android":"levelo://app?vid=7fbdfdac-7fad-42b6-9d87-a7e5d85d285e","ios":"levelo://app?vid=7fbdfdac-7fad-42b6-9d87-a7e5d85d285e"},"vehicle_type_id":"4","last_reported":1705342183,"current_range_meters":22800,"station_id":"ce4bh0h2rcd13ifvqd50","pricing_plan_id":"free"},{"bike_id":"00f72dcd-4af3-4b31-884e-eb0ca6dc3827","system_id":"levelo_inurba_marseille","lat":43.286598,"lon":5.363503,"is_reserved":false,"is_disabled":false,"rental_uris":{"android":"levelo://app?vid=00f72dcd-4af3-4b31-884e-eb0ca6dc3827","ios":"levelo://app?vid=00f72dcd-4af3-4b31-884e-eb0ca6dc3827"},"vehicle_type_id":"4","last_reported":1705342183,"current_range_meters":0,"station_id":"ce4bhah2rcd13ifvqej0","pricing_plan_id":"free"},{"bike_id":"a934b5fb-cdf2-4e18-b7bc-6e9c29e80067","system_id":"levelo_inurba_marseille","lat":43.284534,"lon":5.358662,"is_reserved":false,"is_disabled":false,"rental_uris":{"android":"levelo://app?vid=a934b5fb-cdf2-4e18-b7bc-6e9c29e80067","ios":"levelo://app?vid=a934b5fb-cdf2-4e18-b7bc-6e9c29e80067"},"vehicle_type_id":"4","last_reported":1705342183,"current_range_meters":17200,"station_id":"ce4bhah2rcd13ifvqei0","pricing_plan_id":"free"},{"bike_id":"10fade3d-d8c5-4293-aa22-3d658bab712e","system_id":"levelo_inurba_marseille","lat":43.286593,"lon":5.363346,"is_reserved":false,"is_disabled":false,"rental_uris":{"android":"levelo://app?vid=10fade3d-d8c5-4293-aa22-3d658bab712e","ios":"levelo://app?vid=10fade3d-d8c5-4293-aa22-3d658bab712e"},"vehicle_type_id":"4","last_reported":1705342183,"current_range_meters":20400,"station_id":"ce4bhah2rcd13ifvqej0","pricing_plan_id":"free"},{"bike_id":"918322c3-3fb9-44f2-a1df-14f3dc11023c","system_id":"levelo_inurba_marseille","lat":43.29031,"lon":5.38642,"is_reserved":false,"is_disabled":false,"rental_uris":{"android":"levelo://app?vid=918322c3-3fb9-44f2-a1df-14f3dc11023c","ios":"levelo://app?vid=918322c3-3fb9-44f2-a1df-14f3dc11023c"},"vehicle_type_id":"4","last_reported":1705342183,"current_range_meters":13200,"station_id":"ce4bh4p2rcd13ifvqe0g","pricing_plan_id":"free"},{"bike_id":"74324e13-5f39-443b-be33-3c803affa64a","system_id":"levelo_inurba_marseille","lat":43.295194,"lon":5.39397,"is_reserved":false,"is_disabled":false,"rental_uris":{"android":"levelo://app?vid=74324e13-5f39-443b-be33-3c803affa64a","ios":"levelo://app?vid=74324e13-5f39-443b-be33-3c803affa64a"},"vehicle_type_id":"4","last_reported":1705342183,"current_range_meters":0,"station_id":"ce4bh292rcd13ifvqdf0","pricing_plan_id":"free"},