{"last_updated":1726088919,"ttl":30,"version":"2.2","data":{"bikes":[{"bike_id":"29e9de13-18ed-43c4-99f9-4e96b406362a","system_id":"levelo_inurba_marseille","lat":43.26493,"lon":5.39548,"is_reserved":false,"is_disabled":false,"rental_uris":{"android":"levelo://app?vid=29e9de13-18ed-43c4-99f9-4e96b406362a","ios":"levelo://app?vid=29e9de13-18ed-43c4-99f9-4e96b406362a"},"vehicle_type_id":"4","last_reported":1726088919,"current_range_meters":38800,"station_id":"ce4bhi12rcd13ifvqfq0","pricing_plan_id":"cebpf4jnsgd1na2vs0mg"},{"bike_id":"4b38a238-757c-4094-bae9-4fcc987cc55d","system_id":"levelo_inurba_marseille","lat":43.31166,"lon":5.38724,"is_reserved":false,"is_disabled":false,"rental_uris":{"android":"levelo://app?vid=4b38a238-757c-4094-bae9-4fcc987cc55d","ios":"levelo://app?vid=4b38a238-757c-4094-bae9-4fcc987cc55d"},"vehicle_type_id":"4","last_reported":1726088919,"current_range_meters":25200,"station_id":"ce4bgv12rcd13ifvqcp0","pricing_plan_id":"cebpf4jnsgd1na2vs0mg"},{"bike_id":"2e4787fb-289c-4d26-9cf5-9d43dc019d88","system_id":"levelo_inurba_marseille","lat":43.27834,"lon":5.39205,"is_reserved":false,"is_disabled":false,"rental_uris":{"android":"levelo://app?vid=2e4787fb-289c-4d26-9cf5-9d43dc019d88","ios":"levelo://app?vid=2e4787fb-289c-4d26-9cf5-9d43dc019d88"},"vehicle_type_id":"4","last_reported":1726088919,"current_range_meters":11600,"station_id":"ce4bhjp2rcd13ifvqga0","pricing_plan_id":"cebpf4jnsgd1na2vs0mg"},{"bike_id":"a85d2524-270b-4a56-8aee-7a41a1e4e1b6","system_id":"levelo_inurba_marseille","lat":43.31333,"lon":5.39699,"is_reserved":false,"is_disabled":false,"rental_uris":{"android":"levelo://app?vid=a85d2524-270b-4a56-8aee-7a41a1e4e1b6","ios":"levelo://app?vid=a85d2524-270b-4a56-8aee-7a41a1e4e1b6"},"vehicle_type_id":"4","last_reported":1726088919,"current_range_meters":6400,"station_id":"ce4bgvp2rcd13ifvqcu0","pricing_plan_id":"cebpf4jnsgd1na2vs0mg"},{"bike_id":"cfb93c23-b2b0-4200-9db4-511b807eda0c","system_id":"levelo_inurba_marseille","lat":43.30797,"lon":5.38167,"is_reserved":false,"is_disabled":false,"rental_uris":{"android":"levelo://app?vid=cfb93c23-b2b0-4200-9db4-511b807eda0c","ios":"levelo://app?vid=cfb93c23-b2b0-4200-9db4-511b807eda0c"},"vehicle_type_id":"4","last_reported":1726088919,"current_range_meters":22000,"station_id":"ce4bgt12rcd13ifvqce0","pricing_plan_id":"cebpf4jnsgd1na2vs0mg"},{"bike_id":"c83b1ddb-4161-4995-aa60-5bb4950cf536","system_id":"levelo_inurba_marseille","lat":43.29007,"lon":5.35607,"is_reserved":false,"is_disabled":false,"rental_uris":{"android":"levelo://app?vid=c83b1ddb-4161-4995-aa60-5bb4950cf536","ios":"levelo://app?vid=c83b1ddb-4161-4995-aa60-5bb4950cf536"},"vehicle_type_id":"4","last_reported":1726088919,"current_range_meters":39200,"station_id":"ce4bhb92rcd13ifvqen0","pricing_plan_id":"cebpf4jnsgd1na2vs0mg"},{"bike_id":"683651e2-686d-4cf8-b3c8-52f4698c9c78","system_id":"levelo_inurba_marseille","lat":43.29898,"lon":5.40261,"is_reserved":false,"is_disabled":false,"rental_uris":{"android":"levelo://app?vid=683651e2-686d-4cf8-b3c8-52f4698c9c78","ios":"levelo://app?vid=683651e2-686d-4cf8-b3c8-52f4698c9c78"},"vehicle_type_id":"4","last_reported":1726088919,"current_range_meters":18800,"station_id":"","pricing_plan_id":"cebpf4jnsgd1na2vs0mg"},{"bike_id":"87d742ef-c9db-4604-89f5-6aec595f740f","system_id":"levelo_inurba_marseille","lat":43.27818,"lon":5.40716,"is_reserved":false,"is_disabled":false,"rental_uris":{"android":"levelo://app?vid=87d742ef-c9db-4604-89f5-6aec595f740f","ios":"levelo://app?vid=87d742ef-c9db-4604-89f5-6aec595f740f"},"vehicle_type_id":"4","last_reported":1726088919,"current_range_meters":38800,"station_id":"ce4bhnh2rcd13ifvqgtg","pricing_plan_id":"cebpf4jnsgd1na2vs0mg"},{"bike_id":"fffd6d98-9aa9-4c52-8fec-a8c210be0600","system_id":"levelo_inurba_marseille","lat":43.30803,"lon":5.43527,"is_reserved":false,"is_disabled":false,"rental_uris":{"android":"levelo://app?vid=fffd6d98-9aa9-4c52-8fec-a8c210be0600","ios":"levelo://app?vid=fffd6d98-9aa9-4c52-8fec-a8c210be0600"},"vehicle_type_id":"4","last_reported":1726088919,"current_range_meters":22400,"station_id":"ce4bhph2rcd13ifvqheg","pricing_plan_id":"cebpf4jnsgd1na2vs0mg"},{"bike_id":"95ddfe09-ea7a-4bd5-bbbf-2219eb6f1999","system_id":"levelo_inurba_marseille","lat":43.30192,"lon":5.36628,"is_reserved":false,"is_disabled":false,"rental_uris":{"android":"levelo://app?vid=95ddfe09-ea7a-4bd5-bbbf-2219eb6f1999","ios":"levelo://app?vid=95ddfe09-ea7a-4bd5-bbbf-2219eb6f1999"},"vehicle_type_id":"4","last_reported":1726088919,"current_range_meters":32400,"station_id":"ce4bgrh2rcd13ifvqc8g","pricing_plan_id":"cebpf4jnsgd1na2vs0mg"},{"bike_id":"4a36f624-934a-49c6-8d82-beb2e7aa8fd3","system_id":"levelo_inurba_marseille","lat":43.31282,"lon":5.40175,"is_reserved":false,"is_disabled":false,"rental_uris":{"android":"levelo://app?vid=4a36f624-934a-49c6-8d82-beb2e7aa8fd3","ios":"levelo://app?vid=4a36f624-934a-49c6-8d82-beb2e7aa8fd3"},"vehicle_type_id":"4","last_reported":1726088919,"current_range_meters":38800,"station_id":"ce4bh092rcd13ifvqd30","pricing_plan_id":"cebpf4jnsgd1na2vs0mg"},{"bike_id":"44afa468-7a10-4ffd-b2f6-c33d839b594f","system_id":"levelo_inurba_marseille","lat":43.30813,"lon":5.38155,"is_reserved":false,"is_disabled":false,"rental_uris":{"android":"levelo://app?vid=44afa468-7a10-4ffd-b2f6-c33d839b594f","ios":"levelo://app?vid=44afa468-7a10-4ffd-b2f6-c33d839b594f"},"vehicle_type_id":"4","last_reported":1726088919,"current_range_meters":30400,"station_id":"ce4bgt12rcd13ifvqce0","pricing_plan_id":"cebpf4jnsgd1na2vs0mg"},{"bike_id":"9e0b801e-5e69-49f7-9046-a0346f58d51e","system_id":"levelo_inurba_marseille","lat":43.27066,"lon":5.42286,"is_reserved":false,"is_disabled":false,"rental_uris":{"android":"levelo://app?vid=9e0b801e-5e69-49f7-9046-a0346f58d51e","ios":"levelo://app?vid=9e0b801e-5e69-49f7-9046-a0346f58d51e"},"vehicle_type_id":"4","last_reported":1726088919,"current_range_meters":37600,"station_id":"ce4bhk92rcd13ifvqgb0","pricing_plan_id":"cebpf4jnsgd1na2vs0mg"},{"bike_id":"b3be17d8-c440-49f0-8452-97666668cbf6","system_id":"levelo_inurba_marseille","lat":43.2804,"lon":5.36964,"is_reserved":false,"is_disabled":false,"rental_uris":{"android":"levelo://app?vid=b3be17d8-c440-49f0-8452-97666668cbf6","ios":"levelo://app?vid=b3be17d8-c440-49f0-8452-97666668cbf6"},"vehicle_type_id":"4","last_reported":1726088919,"current_range_meters":19200,"station_id":"ce4bha12rcd13ifvqef0","pricing_plan_id":"cebpf4jnsgd1na2vs0mg"},{"bike_id":"693d4565-6060-4b49-b940-b7ddd059cb2b","system_id":"levelo_inurba_marseille","lat":43.2871,"lon":5.37402,"is_reserved":false,"is_disabled":false,"rental_uris":{"android":"levelo://app?vid=693d4565-6060-4b49-b940-b7ddd059cb2b","ios":"levelo://app?vid=693d4565-6060-4b49-b940-b7ddd059cb2b"},"vehicle_type_id":"4","last_reported":1726088919,"current_range_meters":13600,"station_id":"ce4bh3p2rcd13ifvqdq0","pricing_plan_id":"cebpf4jnsgd1na2vs0mg"},{"bike_id":"5ce6cd8b-eaf4-4670-977f-004d099d9e83","system_id":"levelo_inurba_marseille","lat":43.31333,"lon":5.39699,"is_reserved":false,"is_disabled":false,"rental_uris":{"android":"levelo://app?vid=5ce6cd8b-eaf4-4670-977f-004d099d9e83","ios":"levelo://app?vid=5ce6cd8b-eaf4-4670-977f-004d099d9e83"},"vehicle_type_id":"4","last_reported":1726088919,"current_range_meters":7200,"station_id":"ce4bgvp2rcd13ifvqcu0","pricing_plan_id":"cebpf4jnsgd1na2vs0mg"},{"bike_id":"8f1994d1-01e1-4dd7-98fe-ffede7321f06","system_id":"levelo_inurba_marseille","lat":43.3229,"lon":5.38276,"is_reserved":false,"is_disabled":false,"rental_uris":{"android":"levelo://app?vid=8f1994d1-01e1-4dd7-98fe-ffede7321f06","ios":"levelo://app?vid=8f1994d1-01e1-4dd7-98fe-ffede7321f06"},"vehicle_type_id":"4","last_reported":1726088919,"current_range_meters":35200,"station_id":"ce4bhr12rcd13ifvqhqg","pricing_plan_id":"cebpf4jnsgd1na2vs0mg"},{"bike_id":"52fab483-8ee3-4a31-b738-42b2ad293f1a","system_id":"levelo_inurba_marseille","lat":43.30904,"lon":5.37203,"is_reserved":false,"is_disabled":false,"rental_uris":{"android":"levelo://app?vid=52fab483-8ee3-4a31-b738-42b2ad293f1a","ios":"levelo://app?vid=52fab483-8ee3-4a31-b738-42b2ad293f1a"},"vehicle_type_id":"4","last_reported":1726088919,"current_range_meters":39200,"station_id":"ce4bguh2rcd13ifvqckg","pricing_plan_id":"cebpf4jnsgd1na2vs0mg"},{"bike_id":"28f4ccce-dc02-47dd-b435-6d4942df0a9e","system_id":"levelo_inurba_marseille","lat":43.28695,"lon":5.3739,"is_reserved":false,"is_disabled":false,"rental_uris":{"android":"levelo://app?vid=28f4ccce-dc02-47dd-b435-6d4942df0a9e","ios":"levelo://app?vid=28f4ccce-dc02-47dd-b435-6d4942df0a9e"},"vehicle_type_id":"4","last_reported":1726088919,"current_range_meters":20000,"station_id":"ce4bh3p2rcd13ifvqdq0","pricing_plan_id":"cebpf4jnsgd1na2vs0mg"},{"bike_id":"961568ba-032f-4b85-bec6-dcbad56b093c","system_id":"levelo_inurba_marseille","lat":43.24663,"lon":5.38166,"is_reserved":false,"is_disabled":false,"rental_uris":{"android":"levelo://app?vid=961568ba-032f-4b85-bec6-dcbad56b093c","ios":"levelo://app?vid=961568ba-032f-4b85-bec6-dcbad56b093c"},"vehicle_type_id":"4","last_reported":1726088919,"current_range_meters":3200,"station_id":"ce4bhih2rcd13ifvqfr0","pricing_plan_id":"cebpf4jnsgd1na2vs0mg"},{"bike_id":"e7a5839c-8fe9-4805-a0e8-ec1c242be023","system_id":"levelo_inurba_marseille","lat":43.29881,"lon":5.38096,"is_reserved":false,"is_disabled":false,"rental_uris":{"android":"levelo://app?vid=e7a5839c-8fe9-4805-a0e8-ec1c242be023","ios":"levelo://app?vid=e7a5839c-8fe9-4805-a0e8-ec1c242be023"},"vehicle_type_id":"4","last_reported":1726088919,"current_range_meters":9200,"station_id":"ce4bgj12rcd13ifvqbc0","pricing_plan_id":"cebpf4jnsgd1na2vs0mg"},{"bike_id":"2ae72ef9-8ea0-4afb-adfa-56518bd25486","system_id":"levelo_inurba_marseille","lat":43.26956,"lon":5.40241,"is_reserved":false,"is_disabled":false,"rental_uris":{"android":"levelo://app?vid=2ae72ef9-8ea0-4afb-adfa-56518bd25486","ios":"levelo://app?vid=2ae72ef9-8ea0-4afb-adfa-56518bd25486"},"vehicle_type_id":"4","last_reported":1726088919,"current_range_meters":38800,"station_id":"cjm6bp8fraef2m0cb0m0","pricing_plan_id":"cebpf4jnsgd1na2vs0mg"},{"bike_id":"f89dc3a4-b5ff-4ffe-b079-97cd11a5f5cc","system_id":"levelo_inurba_marseille","lat":43.27066,"lon":5.42278,"is_reserved":false,"is_disabled":false,"rental_uris":{"android":"levelo://app?vid=f89dc3a4-b5ff-4ffe-b079-97cd11a5f5cc","ios":"levelo://app?vid=f89dc3a4-b5ff-4ffe-b079-97cd11a5f5cc"},"vehicle_type_id":"4","last_reported":1726088919,"current_range_meters":13600,"station_id":"ce4bhk92rcd13ifvqgb0","pricing_plan_id":"cebpf4jnsgd1na2vs0mg"},{"bike_id":"57b80d35-c0e4-4b30-9521-92e365268361","system_id":"levelo_inurba_marseille","lat":43.30882,"lon":5.37199,"is_reserved":false,"is_disabled":false,"rental_uris":{"android":"levelo://app?vid=57b80d35-c0e4-4b30-9521-92e365268361","ios":"levelo://app?vid=57b80d35-c0e4-4b30-9521-92e365268361"},"vehicle_type_id":"4","last_reported":1726088919,"current_range_meters":18000,"station_id":"ce4bguh2rcd13ifvqckg","pricing_plan_id":"cebpf4jnsgd1na2vs0mg"},{"bike_id":"2ff6e11c-a488-4da1-b459-2efaeedc89ed","system_id":"levelo_inurba_marseille","lat":43.306,"lon":5.37239,"is_reserved":false,"is_disabled":false,"rental_uris":{"android":"levelo://app?vid=2ff6e11c-a488-4da1-b459-2efaeedc89ed","ios":"levelo://app?vid=2ff6e11c-a488-4da1-b459-2efaeedc89ed"},"vehicle_type_id":"4","last_reported":1726088919,"current_range_meters":18000,"station_id":"ce4bgqh2rcd13ifvqc4g","pricing_plan_id":"cebpf4jnsgd1na2vs0mg"},{"bike_id":"b0af54d1-a7ee-48fb-b3e6-0eb7ce098886","system_id":"levelo_inurba_marseille","lat":43.27993,"lon":5.40011,"is_reserved":false,"is_disabled":false,"rental_uris":{"android":"levelo://app?vid=b0af54d1-a7ee-48fb-b3e6-0eb7ce098886","ios":"levelo://app?vid=b0af54d1-a7ee-48fb-b3e6-0eb7ce098886"},"vehicle_type_id":"4","last_reported":1726088919,"current_range_meters":19600,"station_id":"ce4bho92rcd13ifvqh4g","pricing_plan_id":"cebpf4jnsgd1na2vs0mg"},{"bike_id":"397183b4-e098-4277-91eb-af8cc9770ea1","system_id":"levelo_inurba_marseille","lat":43.286299,"lon":5.383429,"is_reserved":false,"is_disabled":false,"rental_uris":{"android":"levelo://app?vid=397183b4-e098-4277-91eb-af8cc9770ea1","ios":"levelo://app?vid=397183b4-e098-4277-91eb-af8cc9770ea1"},"vehicle_type_id":"4","last_reported":1726088919,"current_range_meters":33200,"station_id":"ce4bgrp2rcd13ifvqc9g","pricing_plan_id":"cebpf4jnsgd1na2vs0mg"},{"bike_id":"161941ed-d680-4b42-9f7c-57a0ee769efc","system_id":"levelo_inurba_marseille","lat":43.32491,"lon":5.36565,"is_reserved":false,"is_disabled":false,"rental_uris":{"android":"levelo://app?vid=161941ed-d680-4b42-9f7c-57a0ee769efc","ios":"levelo://app?vid=161941ed-d680-4b42-9f7c-57a0ee769efc"},"vehicle_type_id":"4","last_reported":1726088919,"current_range_meters":38800,"station_id":"ce4bhs12rcd13ifvqhvg","pricing_plan_id":"cebpf4jnsgd1na2vs0mg"},{"bike_id":"e5728ffc-a633-4db5-81f3-11f9746c9f47","system_id":"levelo_inurba_marseille","lat":43.23182,"lon":5.39998,"is_reserved":false,"is_disabled":false,"rental_uris":{"android":"levelo://app?vid=e5728ffc-a633-4db5-81f3-11f9746c9f47","ios":"levelo://app?vid=e5728ffc-a633-4db5-81f3-11f9746c9f47"},"vehicle_type_id":"4","last_reported":1726088919,"current_range_meters":1600,"station_id":"ce4bhn12rcd13ifvqgqg","pricing_plan_id":"cebpf4jnsgd1na2vs0mg"},{"bike_id":"0dadd2a4-f091-4058-9b7b-55a6ede489cf","system_id":"levelo_inurba_marseille","lat":43.28003,"lon":5.40004,"is_reserved":false,"is_disabled":false,"rental_uris":{"android":"levelo://app?vid=0dadd2a4-f091-4058-9b7b-55a6ede489cf","ios":"levelo://app?vid=0dadd2a4-f091-4058-9b7b-55a6ede489cf"},"vehicle_type_id":"4","last_reported":1726088919,"current_range_meters":10000,"station_id":"ce4bho92rcd13ifvqh4g","pricing_plan_id":"cebpf4jnsgd1na2vs0mg"},{"bike_id":"ba15a6b6-bf5f-469a-84d8-43b119d7a0b2","system_id":"levelo_inurba_marseille","lat":43.29941,"lon":5.36559,"is_reserved":false,"is_disabled":false,"rental_uris":{"android":"levelo://app?vid=ba15a6b6-bf5f-469a-84d8-43b119d7a0b2","ios":"levelo://app?vid=ba15a6b6-bf5f-469a-84d8-43b119d7a0b2"},"vehicle_type_id":"4","last_reported":1726088919,"current_range_meters":38800,"station_id":"ce4bgm92rcd13ifvqbr0","pricing_plan_id":"cebpf4jnsgd1na2vs0mg"},{"bike_id":"96f76945-9546-4b69-acf4-cf27cbf0afdf","system_id":"levelo_inurba_marseille","lat":43.3176,"lon":5.39024,"is_reserved":false,"is_disabled":false,"rental_uris":{"android":"levelo://app?vid=96f76945-9546-4b69-acf4-cf27cbf0afdf","ios":"levelo://app?vid=96f76945-9546-4b69-acf4-cf27cbf0afdf"},"vehicle_type_id":"4","last_reported":1726088919,"current_range_meters":24800,"station_id":"ce4bhqp2rcd13ifvqhng","pricing_plan_id":"cebpf4jnsgd1na2vs0mg"},{"bike_id":"967e51d6-1cfe-47a9-99b5-8e4a3d3080bf","system_id":"levelo_inurba_marseille","lat":43.304016,"lon":5.367871,"is_reserved":false,"is_disabled":false,"rental_uris":{"android":"levelo://app?vid=967e51d6-1cfe-47a9-99b5-8e4a3d3080bf","ios":"levelo://app?vid=967e51d6-1cfe-47a9-99b5-8e4a3d3080bf"},"vehicle_type_id":"4","last_reported":1726088919,"current_range_meters":26800,"station_id":"ce4bgrp2rcd13ifvqc9g","pricing_plan_id":"cebpf4jnsgd1na2vs0mg"},{"bike_id":"c3a84de0-e074-45d2-96a4-3ff17abba9fe","system_id":"levelo_inurba_marseille","lat":43.2408,"lon":5.3774,"is_reserved":false,"is_disabled":false,"rental_uris":{"android":"levelo://app?vid=c3a84de0-e074-45d2-96a4-3ff17abba9fe","ios":"levelo://app?vid=c3a84de0-e074-45d2-96a4-3ff17abba9fe"},"vehicle_type_id":"4","last_reported":1726088919,"current_range_meters":12800,"station_id":"ce4bhnp2rcd13ifvqgvg","pricing_plan_id":"cebpf4jnsgd1na2vs0mg"},{"bike_id":"860e8e16-d241-4579-a82b-a2556547c624","system_id":"levelo_inurba_marseille","lat":43.31765,"lon":5.39017,"is_reserved":false,"is_disabled":false,"rental_uris":{"android":"levelo://app?vid=860e8e16-d241-4579-a82b-a2556547c624","ios":"levelo://app?vid=860e8e16-d241-4579-a82b-a2556547c624"},"vehicle_type_id":"4","last_reported":1726088919,"current_range_meters":28000,"station_id":"ce4bhqp2rcd13ifvqhng","pricing_plan_id":"cebpf4jnsgd1na2vs0mg"},{"bike_id":"c62bfb1c-0174-4256-a6d3-9b9b288f6ffb","system_id":"levelo_inurba_marseille","lat":43.25083,"lon":5.39514,"is_reserved":false,"is_disabled":false,"rental_uris":{"android":"levelo://app?vid=c62bfb1c-0174-4256-a6d3-9b9b288f6ffb","ios":"levelo://app?vid=c62bfb1c-0174-4256-a6d3-9b9b288f6ffb"},"vehicle_type_id":"4","last_reported":1726088919,"current_range_meters":27200,"station_id":"ce4bhm12rcd13ifvqgkg","pricing_plan_id":"cebpf4jnsgd1na2vs0mg"},{"bike_id":"3070669e-e22c-4aac-922e-2322c3987a32","system_id":"levelo_inurba_marseille","lat":43.28434,"lon":5.392,"is_reserved":false,"is_disabled":false,"rental_uris":{"android":"levelo://app?vid=3070669e-e22c-4aac-922e-2322c3987a32","ios":"levelo://app?vid=3070669e-e22c-4aac-922e-2322c3987a32"},"vehicle_type_id":"4","last_reported":1726088919,"current_range_meters":12000,"station_id":"ce4bhoh2rcd13ifvqh5g","pricing_plan_id":"cebpf4jnsgd1na2vs0mg"},{"bike_id":"bf2d2172-be9c-4d8b-b2a9-e8472749e9f2","system_id":"levelo_inurba_marseille","lat":43.24548,"lon":5.39527,"is_reserved":false,"is_disabled":false,"rental_uris":{"android":"levelo://app?vid=bf2d2172-be9c-4d8b-b2a9-e8472749e9f2","ios":"levelo://app?vid=bf2d2172-be9c-4d8b-b2a9-e8472749e9f2"},"vehicle_type_id":"4","last_reported":1726088919,"current_range_meters":30400,"station_id":"ce4bhlp2rcd13ifvqgjg","pricing_plan_id":"cebpf4jnsgd1na2vs0mg"},{"bike_id":"0eeb4de0-fed0-4908-a175-5ca6c52e7139","system_id":"levelo_inurba_marseille","lat":43.28663,"lon":5.36369,"is_reserved":false,"is_disabled":false,"rental_uris":{"android":"levelo://app?vid=0eeb4de0-fed0-4908-a175-5ca6c52e7139","ios":"levelo://app?vid=0eeb4de0-fed0-4908-a175-5ca6c52e7139"},"vehicle_type_id":"4","last_reported":1726088919,"current_range_meters":24400,"station_id":"ce4bhah2rcd13ifvqej0","pricing_plan_id":"cebpf4jnsgd1na2vs0mg"},{"bike_id":"90278c2d-9707-4ab3-853f-34fa9f89acf0","system_id":"levelo_inurba_marseille","lat":43.27946,"lon":5.41051,"is_reserved":false,"is_disabled":false,"rental_uris":{"android":"levelo://app?vid=90278c2d-9707-4ab3-853f-34fa9f89acf0","ios":"levelo://app?vid=90278c2d-9707-4ab3-853f-34fa9f89acf0"},"vehicle_type_id":"4","last_reported":1726088919,"current_range_meters":38000,"station_id":"ce4bhnp2rcd13ifvqh0g","pricing_plan_id":"cebpf4jnsgd1na2vs0mg"},{"bike_id":"35486024-5b1c-4b57-8d58-676d8c5a5151","system_id":"levelo_inurba_marseille","lat":43.284821,"lon":5.383994,"is_reserved":false,"is_disabled":false,"rental_uris":{"android":"levelo://app?vid=35486024-5b1c-4b57-8d58-676d8c5a5151","ios":"levelo://app?vid=35486024-5b1c-4b57-8d58-676d8c5a5151"},"vehicle_type_id":"4","last_reported":1726088919,"current_range_meters":37600,"station_id":"ce4bh512rcd13ifvqe3g","pricing_plan_id":"cebpf4jnsgd1na2vs0mg"},{"bike_id":"0133b2cd-39f4-42f8-a493-f14fe56d8a7c","system_id":"levelo_inurba_marseille","lat":43.30807,"lon":5.38157,"is_reserved":false,"is_disabled":false,"rental_uris":{"android":"levelo://app?vid=0133b2cd-39f4-42f8-a493-f14fe56d8a7c","ios":"levelo://app?vid=0133b2cd-39f4-42f8-a493-f14fe56d8a7c"},"vehicle_type_id":"4","last_reported":1726088919,"current_range_meters":23200,"station_id":"ce4bgt12rcd13ifvqce0","pricing_plan_id":"cebpf4jnsgd1na2vs0mg"},{"bike_id":"399ac478-604a-4a4d-8571-c3f918ab8cde","system_id":"levelo_inurba_marseille","lat":43.26193,"lon":5.3745,"is_reserved":false,"is_disabled":false,"rental_uris":{"android":"levelo://app?vid=399ac478-604a-4a4d-8571-c3f918ab8cde","ios":"levelo://app?vid=399ac478-604a-4a4d-8571-c3f918ab8cde"},"vehicle_type_id":"4","last_reported":1726088919,"current_range_meters":13600,"station_id":"ce4bhgp2rcd13ifvqfc0","pricing_plan_id":"cebpf4jnsgd1na2vs0mg"},{"bike_id":"45d6bd0c-79f1-4e11-87ba-123791eb6fbc","system_id":"levelo_inurba_marseille","lat":43.30456,"lon":5.37876,"is_reserved":false,"is_disabled":false,"rental_uris":{"android":"levelo://app?vid=45d6bd0c-79f1-4e11-87ba-123791eb6fbc","ios":"levelo://app?vid=45d6bd0c-79f1-4e11-87ba-123791eb6fbc"},"vehicle_type_id":"4","last_reported":1726088919,"current_range_meters":31200,"station_id":"ce4bgup2rcd13ifvqcn0","pricing_plan_id":"cebpf4jnsgd1na2vs0mg"},{"bike_id":"dd6d94c7-f35e-4acc-863e-4063ec5abc48","system_id":"levelo_inurba_marseille","lat":43.32369,"lon":5.38856,"is_reserved":false,"is_disabled":false,"rental_uris":{"android":"levelo://app?vid=dd6d94c7-f35e-4acc-863e-4063ec5abc48","ios":"levelo://app?vid=dd6d94c7-f35e-4acc-863e-4063ec5abc48"},"vehicle_type_id":"4","last_reported":1726088919,"current_range_meters":38800,"station_id":"ce4bhqp2rcd13ifvqhog","pricing_plan_id":"cebpf4jnsgd1na2vs0mg"},{"bike_id":"d090fb71-d34b-4c48-aad9-af511ac4a6e7","system_id":"levelo_inurba_marseille","lat":43.31502,"lon":5.37307,"is_reserved":false,"is_disabled":false,"rental_uris":{"android":"levelo://app?vid=d090fb71-d34b-4c48-aad9-af511ac4a6e7","ios":"levelo://app?vid=d090fb71-d34b-4c48-aad9-af511ac4a6e7"},"vehicle_type_id":"4","last_reported":1726088919,"current_range_meters":12000,"station_id":"ce4bgt12rcd13ifvqcd0","pricing_plan_id":"cebpf4jnsgd1na2vs0mg"},{"bike_id":"cf5a6d6a-12c1-45cd-b415-051d5156920d","system_id":"levelo_inurba_marseille","lat":43.33616,"lon":5.41015,"is_reserved":false,"is_disabled":false,"rental_uris":{"android":"levelo://app?vid=cf5a6d6a-12c1-45cd-b415-051d5156920d","ios":"levelo://app?vid=cf5a6d6a-12c1-45cd-b415-051d5156920d"},"vehicle_type_id":"4","last_reported":1726088919,"current_range_meters":36800,"station_id":"ce4bhqh2rcd13ifvqhmg","pricing_plan_id":"cebpf4jnsgd1na2vs0mg"},{"bike_id":"ca4f8271-b557-49a6-a0a1-983a8640833d","system_id":"levelo_inurba_marseille","lat":43.29373,"lon":5.37852,"is_reserved":false,"is_disabled":false,"rental_uris":{"android":"levelo://app?vid=ca4f8271-b557-49a6-a0a1-983a8640833d","ios":"levelo://app?vid=ca4f8271-b557-49a6-a0a1-983a8640833d"},"vehicle_type_id":"4","last_reported":1726088919,"current_range_meters":6400,"station_id":"ce4bgjh2rcd13ifvqbf0","pricing_plan_id":"cebpf4jnsgd1na2vs0mg"},{"bike_id":"9adcffd3-0dae-4115-856f-7a4edd3d0f80","system_id":"levelo_inurba_marseille","lat":43.3112,"lon":5.37782,"is_reserved":false,"is_disabled":false,"rental_uris":{"android":"levelo://app?vid=9adcffd3-0dae-4115-856f-7a4edd3d0f80","ios":"levelo://app?vid=9adcffd3-0dae-4115-856f-7a4edd3d0f80"},"vehicle_type_id":"4","last_reported":1726088919,"current_range_meters":30400,"station_id":"ce4bgt92rcd13ifvqcg0","pricing_plan_id":"cebpf4jnsgd1na2vs0mg"},{"bike_id":"a36a6131-7175-4d21-afcf-16a3b952996a","system_id":"levelo_inurba_marseille","lat":43.30819,"lon":5.37658,"is_reserved":false,"is_disabled":false,"rental_uris":{"android":"levelo://app?vid=a36a6131-7175-4d21-afcf-16a3b952996a","ios":"levelo://app?vid=a36a6131-7175-4d21-afcf-16a3b952996a"},"vehicle_type_id":"4","last_reported":1726088919,"current_range_meters":8400,"station_id":"ce4bgv92rcd13ifvqcq0","pricing_plan_id":"cebpf4jnsgd1na2vs0mg"},{"bike_id":"9b44caca-60f5-4121-900d-17ef84be31ac","system_id":"levelo_inurba_marseille","lat":43.31276,"lon":5.374,"is_reserved":false,"is_disabled":false,"rental_uris":{"android":"levelo://app?vid=9b44caca-60f5-4121-900d-17ef84be31ac","ios":"levelo://app?vid=9b44caca-60f5-4121-900d-17ef84be31ac"},"vehicle_type_id":"4","last_reported":1726088919,"current_range_meters":9600,"station_id":"","pricing_plan_id":"cebpf4jnsgd1na2vs0mg"},{"bike_id":"02507801-169d-46eb-954a-0a629f8f5b1e","system_id":"levelo_inurba_marseille","lat":43.31354,"lon":5.38502,"is_reserved":false,"is_disabled":false,"rental_uris":{"android":"levelo://app?vid=02507801-169d-46eb-954a-0a629f8f5b1e","ios":"levelo://app?vid=02507801-169d-46eb-954a-0a629f8f5b1e"},"vehicle_type_id":"4","last_reported":1726088919,"current_range_meters":19600,"station_id":"ce4bgt92rcd13ifvqcf0","pricing_plan_id":"cebpf4jnsgd1na2vs0mg"},{"bike_id":"e9cee468-d8ec-437a-b77c-2bb05679786e","system_id":"levelo_inurba_marseille","lat":43.28073,"lon":5.3966,"is_reserved":false,"is_disabled":false,"rental_uris":{"android":"levelo://app?vid=e9cee468-d8ec-437a-b77c-2bb05679786e","ios":"levelo://app?vid=e9cee468-d8ec-437a-b77c-2bb05679786e"},"vehicle_type_id":"4","last_reported":1726088919,"current_range_meters":16800,"station_id":"ce4bho12rcd13ifvqh2g","pricing_plan_id":"cebpf4jnsgd1na2vs0mg"},{"bike_id":"18133a1b-df7b-42d0-89d1-ccdedf5f5524","system_id":"levelo_inurba_marseille","lat":43.30541,"lon":5.36558,"is_reserved":false,"is_disabled":false,"rental_uris":{"android":"levelo://app?vid=18133a1b-df7b-42d0-89d1-ccdedf5f5524","ios":"levelo://app?vid=18133a1b-df7b-42d0-89d1-ccdedf5f5524"},"vehicle_type_id":"4","last_reported":1726088919,"current_range_meters":20400,"station_id":"ce4bgs12rcd13ifvqcag","pricing_plan_id":"cebpf4jnsgd1na2vs0mg"},{"bike_id":"257df995-474c-489e-93e6-1898def2a181","system_id":"levelo_inurba_marseille","lat":43.31068,"lon":5.40104,"is_reserved":false,"is_disabled":false,"rental_uris":{"android":"levelo://app?vid=257df995-474c-489e-93e6-1898def2a181","ios":"levelo://app?vid=257df995-474c-489e-93e6-1898def2a181"},"vehicle_type_id":"4","last_reported":1726088919,"current_range_meters":14000,"station_id":"","pricing_plan_id":"cebpf4jnsgd1na2vs0mg"},{"bike_id":"afe38ed7-fe42-4ad9-a058-284074bea4e6","system_id":"levelo_inurba_marseille","lat":43.27997,"lon":5.41656,"is_reserved":false,"is_disabled":false,"rental_uris":{"android":"levelo://app?vid=afe38ed7-fe42-4ad9-a058-284074bea4e6","ios":"levelo://app?vid=afe38ed7-fe42-4ad9-a058-284074bea4e6"},"vehicle_type_id":"4","last_reported":1726088919,"current_range_meters":13600,"station_id":"ce4bho12rcd13ifvqh1g","pricing_plan_id":"cebpf4jnsgd1na2vs0mg"},{"bike_id":"521ac9eb-aeb3-4716-a5c7-40c1c5dfc1ab","system_id":"levelo_inurba_marseille","lat":43.28034,"lon":5.36959,"is_reserved":false,"is_disabled":false,"rental_uris":{"android":"levelo://app?vid=521ac9eb-aeb3-4716-a5c7-40c1c5dfc1ab","ios":"levelo://app?vid=521ac9eb-aeb3-4716-a5c7-40c1c5dfc1ab"},"vehicle_type_id":"4","last_reported":1726088919,"current_range_meters":37600,"station_id":"ce4bha12rcd13ifvqef0","pricing_plan_id":"cebpf4jnsgd1na2vs0mg"},{"bike_id":"4a92778e-72b5-4c49-8ded-e1a031e3ab86","system_id":"levelo_inurba_marseille","lat":43.24668,"lon":5.38165,"is_reserved":false,"is_disabled":false,"rental_uris":{"android":"levelo://app?vid=4a92778e-72b5-4c49-8ded-e1a031e3ab86","ios":"levelo://app?vid=4a92778e-72b5-4c49-8ded-e1a031e3ab86"},"vehicle_type_id":"4","last_reported":1726088919,"current_range_meters":26000,"station_id":"ce4bhih2rcd13ifvqfr0","pricing_plan_id":"cebpf4jnsgd1na2vs0mg"},{"bike_id":"ecca6509-f0ec-44bb-a9ea-81382cf67e4e","system_id":"levelo_inurba_marseille","lat":43.28862,"lon":5.35856,"is_reserved":false,"is_disabled":false,"rental_uris":{"android":"levelo://app?vid=ecca6509-f0ec-44bb-a9ea-81382cf67e4e","ios":"levelo://app?vid=ecca6509-f0ec-44bb-a9ea-81382cf67e4e"},"vehicle_type_id":"4","last_reported":1726088919,"current_range_meters":38800,"station_id":"ce4bhb12rcd13ifvqem0","pricing_plan_id":"cebpf4jnsgd1na2vs0mg"},{"bike_id":"003b1cc7-9136-4dfc-b9bf-1124dbe99a52","system_id":"levelo_inurba_marseille","lat":43.28858,"lon":5.3932,"is_reserved":false,"is_disabled":false,"rental_uris":{"android":"levelo://app?vid=003b1cc7-9136-4dfc-b9bf-1124dbe99a52","ios":"levelo://app?vid=003b1cc7-9136-4dfc-b9bf-1124dbe99a52"},"vehicle_type_id":"4","last_reported":1726088919,"current_range_meters":19200,"station_id":"ce4bh2p2rcd13ifvqdi0","pricing_plan_id":"cebpf4jnsgd1na2vs0mg"},{"bike_id":"94f6c337-6484-4cc8-a69a-39e5832a27d9","system_id":"levelo_inurba_marseille","lat":43.2846,"lon":5.35896,"is_reserved":false,"is_disabled":false,"rental_uris":{"android":"levelo://app?vid=94f6c337-6484-4cc8-a69a-39e5832a27d9","ios":"levelo://app?vid=94f6c337-6484-4cc8-a69a-39e5832a27d9"},"vehicle_type_id":"4","last_reported":1726088919,"current_range_meters":36800,"station_id":"ce4bhah2rcd13ifvqei0","pricing_plan_id":"cebpf4jnsgd1na2vs0mg"},{"bike_id":"00a1a554-7e62-4f47-b14b-44b2d7b319bd","system_id":"levelo_inurba_marseille","lat":43.24655,"lon":5.38895,"is_reserved":false,"is_disabled":false,"rental_uris":{"android":"levelo://app?vid=00a1a554-7e62-4f47-b14b-44b2d7b319bd","ios":"levelo://app?vid=00a1a554-7e62-4f47-b14b-44b2d7b319bd"},"vehicle_type_id":"4","last_reported":1726088919,"current_range_meters":27200,"station_id":"ce4bhg12rcd13ifvqf60","pricing_plan_id":"cebpf4jnsgd1na2vs0mg"},{"bike_id":"78a74e8e-a0fa-4c01-bdb3-d4cb8b6944a2","system_id":"levelo_inurba_marseille","lat":43.28707,"lon":5.37388,"is_reserved":false,"is_disabled":false,"rental_uris":{"android":"levelo://app?vid=78a74e8e-a0fa-4c01-bdb3-d4cb8b6944a2","ios":"levelo://app?vid=78a74e8e-a0fa-4c01-bdb3-d4cb8b6944a2"},"vehicle_type_id":"4","last_reported":1726088919,"current_range_meters":23200,"station_id":"ce4bh3p2rcd13ifvqdq0","pricing_plan_id":"cebpf4jnsgd1na2vs0mg"},{"bike_id":"ca33d2bf-c9f2-4944-aec8-d1b6204ec37b","system_id":"levelo_inurba_marseille","lat":43.29553,"lon":5.4228,"is_reserved":false,"is_disabled":false,"rental_uris":{"android":"levelo://app?vid=ca33d2bf-c9f2-4944-aec8-d1b6204ec37b","ios":"levelo://app?vid=ca33d2bf-c9f2-4944-aec8-d1b6204ec37b"},"vehicle_type_id":"4","last_reported":1726088919,"current_range_meters":25600,"station_id":"ce4bhph2rcd13ifvqhdg","pricing_plan_id":"cebpf4jnsgd1na2vs0mg"},{"bike_id":"e4a5e406-b72a-4f07-9791-f4133102a158","system_id":"levelo_inurba_marseille","lat":43.32485,"lon":5.36571,"is_reserved":false,"is_disabled":false,"rental_uris":{"android":"levelo://app?vid=e4a5e406-b72a-4f07-9791-f4133102a158","ios":"levelo://app?vid=e4a5e406-b72a-4f07-9791-f4133102a158"},"vehicle_type_id":"4","last_reported":1726088919,"current_range_meters":16400,"station_id":"ce4bhs12rcd13ifvqhvg","pricing_plan_id":"cebpf4jnsgd1na2vs0mg"},{"bike_id":"b78d5341-59bc-4519-8e43-bff7844379a0","system_id":"levelo_inurba_marseille","lat":43.25085,"lon":5.39527,"is_reserved":false,"is_disabled":false,"rental_uris":{"android":"levelo://app?vid=b78d5341-59bc-4519-8e43-bff7844379a0","ios":"levelo://app?vid=b78d5341-59bc-4519-8e43-bff7844379a0"},"vehicle_type_id":"4","last_reported":1726088919,"current_range_meters":23200,"station_id":"ce4bhm12rcd13ifvqgkg","pricing_plan_id":"cebpf4jnsgd1na2vs0mg"},{"bike_id":"4243a25d-7b76-4234-830d-95bb2228f8cb","system_id":"levelo_inurba_marseille","lat":43.29791,"lon":5.39339,"is_reserved":false,"is_disabled":false,"rental_uris":{"android":"levelo://app?vid=4243a25d-7b76-4234-830d-95bb2228f8cb","ios":"levelo://app?vid=4243a25d-7b76-4234-830d-95bb2228f8cb"},"vehicle_type_id":"4","last_reported":1726088919,"current_range_meters":35200,"station_id":"chh1huq6cuj3fo74tm60","pricing_plan_id":"cebpf4jnsgd1na2vs0mg"},{"bike_id":"8e118b2d-c24e-48c9-9681-52323f5e84b7","system_id":"levelo_inurba_marseille","lat":43.2847,"lon":5.35891,"is_reserved":false,"is_disabled":false,"rental_uris":{"android":"levelo://app?vid=8e118b2d-c24e-48c9-9681-52323f5e84b7","ios":"levelo://app?vid=8e118b2d-c24e-48c9-9681-52323f5e84b7"},"vehicle_type_id":"4","last_reported":1726088919,"current_range_meters":16000,"station_id":"ce4bhah2rcd13ifvqei0","pricing_plan_id":"cebpf4jnsgd1na2vs0mg"},{"bike_id":"c7cf569b-33ad-4641-a358-dccbe008f61e","system_id":"levelo_inurba_marseille","lat":43.28366,"lon":5.38648,"is_reserved":false,"is_disabled":false,"rental_uris":{"android":"levelo://app?vid=c7cf569b-33ad-4641-a358-dccbe008f61e","ios":"levelo://app?vid=c7cf569b-33ad-4641-a358-dccbe008f61e"},"vehicle_type_id":"4","last_reported":1726088919,"current_range_meters":5600,"station_id":"ce4bh492rcd13ifvqdvg","pricing_plan_id":"cebpf4jnsgd1na2vs0mg"},{"bike_id":"cbccffca-fad5-48ed-b993-98702f1e3c32","system_id":"levelo_inurba_marseille","lat":43.3033,"lon":5.40443,"is_reserved":false,"is_disabled":false,"rental_uris":{"android":"levelo://app?vid=cbccffca-fad5-48ed-b993-98702f1e3c32","ios":"levelo://app?vid=cbccffca-fad5-48ed-b993-98702f1e3c32"},"vehicle_type_id":"4","last_reported":1726088919,"current_range_meters":25200,"station_id":"ce4bh012rcd13ifvqd10","pricing_plan_id":"cebpf4jnsgd1na2vs0mg"},{"bike_id":"8a3075b8-1b9b-48a9-9df3-b52b60a36057","system_id":"levelo_inurba_marseille","lat":43.27383,"lon":5.36259,"is_reserved":false,"is_disabled":false,"rental_uris":{"android":"levelo://app?vid=8a3075b8-1b9b-48a9-9df3-b52b60a36057","ios":"levelo://app?vid=8a3075b8-1b9b-48a9-9df3-b52b60a36057"},"vehicle_type_id":"4","last_reported":1726088919,"current_range_meters":36400,"station_id":"ce4bhbh2rcd13ifvqeo0","pricing_plan_id":"cebpf4jnsgd1na2vs0mg"},{"bike_id":"66aacd5b-f53e-41d8-9077-a4ee96205f3d","system_id":"levelo_inurba_marseille","lat":43.28462,"lon":5.35896,"is_reserved":false,"is_disabled":false,"rental_uris":{"android":"levelo://app?vid=66aacd5b-f53e-41d8-9077-a4ee96205f3d","ios":"levelo://app?vid=66aacd5b-f53e-41d8-9077-a4ee96205f3d"},"vehicle_type_id":"4","last_reported":1726088919,"current_range_meters":38800,"station_id":"ce4bhah2rcd13ifvqei0","pricing_plan_id":"cebpf4jnsgd1na2vs0mg"},{"bike_id":"9b1b98e7-85e2-49ca-8cf5-ceffa5092746","system_id":"levelo_inurba_marseille","lat":43.30795,"lon":5.38167,"is_reserved":false,"is_disabled":false,"rental_uris":{"android":"levelo://app?vid=9b1b98e7-85e2-49ca-8cf5-ceffa5092746","ios":"levelo://app?vid=9b1b98e7-85e2-49ca-8cf5-ceffa5092746"},"vehicle_type_id":"4","last_reported":1726088919,"current_range_meters":7200,"station_id":"ce4bgt12rcd13ifvqce0","pricing_plan_id":"cebpf4jnsgd1na2vs0mg"},{"bike_id":"2f10cceb-7c16-4011-b586-4b493cfa220d","system_id":"levelo_inurba_marseille","lat":43.23195,"lon":5.35559,"is_reserved":false,"is_disabled":false,"rental_uris":{"android":"levelo://app?vid=2f10cceb-7c16-4011-b586-4b493cfa220d","ios":"levelo://app?vid=2f10cceb-7c16-4011-b586-4b493cfa220d"},"vehicle_type_id":"4","last_reported":1726088919,"current_range_meters":19200,"station_id":"ce4bhu92rcd13ifvqi70","pricing_plan_id":"cebpf4jnsgd1na2vs0mg"},{"bike_id":"d2fb6048-f7c1-4585-bf2c-a2363cbad570","system_id":"levelo_inurba_marseille","lat":43.29883,"lon":5.38907,"is_reserved":false,"is_disabled":false,"rental_uris":{"android":"levelo://app?vid=d2fb6048-f7c1-4585-bf2c-a2363cbad570","ios":"levelo://app?vid=d2fb6048-f7c1-4585-bf2c-a2363cbad570"},"vehicle_type_id":"4","last_reported":1726088919,"current_range_meters":38800,"station_id":"ce4bh392rcd13ifvqdl0","pricing_plan_id":"cebpf4jnsgd1na2vs0mg"},{"bike_id":"8e06870f-59b1-4019-8c4e-0fd97a649554","system_id":"levelo_inurba_marseille","lat":43.28002,"lon":5.40012,"is_reserved":false,"is_disabled":false,"rental_uris":{"android":"levelo://app?vid=8e06870f-59b1-4019-8c4e-0fd97a649554","ios":"levelo://app?vid=8e06870f-59b1-4019-8c4e-0fd97a649554"},"vehicle_type_id":"4","last_reported":1726088919,"current_range_meters":13600,"station_id":"ce4bho92rcd13ifvqh4g","pricing_plan_id":"cebpf4jnsgd1na2vs0mg"},{"bike_id":"b8874638-8b29-42bd-985f-e578d29b63f6","system_id":"levelo_inurba_marseille","lat":43.31273,"lon":5.40169,"is_reserved":false,"is_disabled":false,"rental_uris":{"android":"levelo://app?vid=b8874638-8b29-42bd-985f-e578d29b63f6","ios":"levelo://app?vid=b8874638-8b29-42bd-985f-e578d29b63f6"},"vehicle_type_id":"4","last_reported":1726088919,"current_range_meters":3600,"station_id":"ce4bh092rcd13ifvqd30","pricing_plan_id":"cebpf4jnsgd1na2vs0mg"},{"bike_id":"c3baa9f4-1a80-441e-aae4-6876a6aba553","system_id":"levelo_inurba_marseille","lat":43.32299,"lon":5.38268,"is_reserved":false,"is_disabled":false,"rental_uris":{"android":"levelo://app?vid=c3baa9f4-1a80-441e-aae4-6876a6aba553","ios":"levelo://app?vid=c3baa9f4-1a80-441e-aae4-6876a6aba553"},"vehicle_type_id":"4","last_reported":1726088919,"current_range_meters":38400,"station_id":"ce4bhr12rcd13ifvqhqg","pricing_plan_id":"cebpf4jnsgd1na2vs0mg"},{"bike_id":"2f68e336-a1cf-4578-b713-97ec937e1f6c","system_id":"levelo_inurba_marseille","lat":43.247348,"lon":5.382354,"is_reserved":false,"is_disabled":false,"rental_uris":{"android":"levelo://app?vid=2f68e336-a1cf-4578-b713-97ec937e1f6c","ios":"levelo://app?vid=2f68e336-a1cf-4578-b713-97ec937e1f6c"},"vehicle_type_id":"4","last_reported":1726088919,"current_range_meters":23200,"station_id":"ce4bhih2rcd13ifvqfr0","pricing_plan_id":"cebpf4jnsgd1na2vs0mg"},{"bike_id":"8adb56f4-6683-489d-88d9-6f233b6f80f5","system_id":"levelo_inurba_marseille","lat":43.29525,"lon":5.39047,"is_reserved":false,"is_disabled":false,"rental_uris":{"android":"levelo://app?vid=8adb56f4-6683-489d-88d9-6f233b6f80f5","ios":"levelo://app?vid=8adb56f4-6683-489d-88d9-6f233b6f80f5"},"vehicle_type_id":"4","last_reported":1726088919,"current_range_meters":38800,"station_id":"ce4bh3p2rcd13ifvqdp0","pricing_plan_id":"cebpf4jnsgd1na2vs0mg"},{"bike_id":"4537addb-8470-4f0f-9eea-56b017d37d11","system_id":"levelo_inurba_marseille","lat":43.28468,"lon":5.35889,"is_reserved":false,"is_disabled":false,"rental_uris":{"android":"levelo://app?vid=4537addb-8470-4f0f-9eea-56b017d37d11","ios":"levelo://app?vid=4537addb-8470-4f0f-9eea-56b017d37d11"},"vehicle_type_id":"4","last_reported":1726088919,"current_range_meters":38800,"station_id":"ce4bhah2rcd13ifvqei0","pricing_plan_id":"cebpf4jnsgd1na2vs0mg"},{"bike_id":"ecddd1ac-ef53-401c-8d94-f5ba6b0b03bb","system_id":"levelo_inurba_marseille","lat":43.28696,"lon":5.39984,"is_reserved":false,"is_disabled":false,"rental_uris":{"android":"levelo://app?vid=ecddd1ac-ef53-401c-8d94-f5ba6b0b03bb","ios":"levelo://app?vid=ecddd1ac-ef53-401c-8d94-f5ba6b0b03bb"},"vehicle_type_id":"4","last_reported":1726088919,"current_range_meters":28800,"station_id":"ce4bho92rcd13ifvqh3g","pricing_plan_id":"cebpf4jnsgd1na2vs0mg"},{"bike_id":"cf556c10-8298-4e7b-996a-26eaad4467f9","system_id":"levelo_inurba_marseille","lat":43.30664,"lon":5.40094,"is_reserved":false,"is_disabled":false,"rental_uris":{"android":"levelo://app?vid=cf556c10-8298-4e7b-996a-26eaad4467f9","ios":"levelo://app?vid=cf556c10-8298-4e7b-996a-26eaad4467f9"},"vehicle_type_id":"4","last_reported":1726088919,"current_range_meters":20400,"station_id":"ce4bh112rcd13ifvqda0","pricing_plan_id":"cebpf4jnsgd1na2vs0mg"},{"bike_id":"cc1aed92-534a-46df-ba29-9d0168224558","system_id":"levelo_inurba_marseille","lat":43.27952,"lon":5.41049,"is_reserved":false,"is_disabled":false,"rental_uris":{"android":"levelo://app?vid=cc1aed92-534a-46df-ba29-9d0168224558","ios":"levelo://app?vid=cc1aed92-534a-46df-ba29-9d0168224558"},"vehicle_type_id":"4","last_reported":1726088919,"current_range_meters":3200,"station_id":"ce4bhnp2rcd13ifvqh0g","pricing_plan_id":"cebpf4jnsgd1na2vs0mg"},{"bike_id":"f657fd88-6956-4b9e-987b-07745f983ac4","system_id":"levelo_inurba_marseille","lat":43.28845,"lon":5.35834,"is_reserved":false,"is_disabled":false,"rental_uris":{"android":"levelo://app?vid=f657fd88-6956-4b9e-987b-07745f983ac4","ios":"levelo://app?vid=f657fd88-6956-4b9e-987b-07745f983ac4"},"vehicle_type_id":"4","last_reported":1726088919,"current_range_meters":28400,"station_id":"ce4bhb12rcd13ifvqem0","pricing_plan_id":"cebpf4jnsgd1na2vs0mg"},{"bike_id":"a43e1637-4ac0-4f8c-9bb2-16729953d8ed","system_id":"levelo_inurba_marseille","lat":43.30931,"lon":5.40154,"is_reserved":false,"is_disabled":false,"rental_uris":{"android":"levelo://app?vid=a43e1637-4ac0-4f8c-9bb2-16729953d8ed","ios":"levelo://app?vid=a43e1637-4ac0-4f8c-9bb2-16729953d8ed"},"vehicle_type_id":"4","last_reported":1726088919,"current_range_meters":33600,"station_id":"ce4bgvp2rcd13ifvqct0","pricing_plan_id":"cebpf4jnsgd1na2vs0mg"},{"bike_id":"c2416efc-d5d1-4d64-b1a3-2ebbc203a1e2","system_id":"levelo_inurba_marseille","lat":43.26806,"lon":5.40271,"is_reserved":false,"is_disabled":false,"rental_uris":{"android":"levelo://app?vid=c2416efc-d5d1-4d64-b1a3-2ebbc203a1e2","ios":"levelo://app?vid=c2416efc-d5d1-4d64-b1a3-2ebbc203a1e2"},"vehicle_type_id":"4","last_reported":1726088919,"current_range_meters":38800,"station_id":"ce501612rcd8frsf0b60","pricing_plan_id":"cebpf4jnsgd1na2vs0mg"},{"bike_id":"af94e171-14eb-46b7-a1e5-2afb9a8b7127","system_id":"levelo_inurba_marseille","lat":43.24998,"lon":5.38936,"is_reserved":false,"is_disabled":false,"rental_uris":{"android":"levelo://app?vid=af94e171-14eb-46b7-a1e5-2afb9a8b7127","ios":"levelo://app?vid=af94e171-14eb-46b7-a1e5-2afb9a8b7127"},"vehicle_type_id":"4","last_reported":1726088919,"current_range_meters":10000,"station_id":"ce4bhgp2rcd13ifvqfd0","pricing_plan_id":"cebpf4jnsgd1na2vs0mg"},{"bike_id":"1218d328-fdf6-45d1-9541-091fda7f65d0","system_id":"levelo_inurba_marseille","lat":43.30886,"lon":5.39655,"is_reserved":false,"is_disabled":false,"rental_uris":{"android":"levelo://app?vid=1218d328-fdf6-45d1-9541-091fda7f65d0","ios":"levelo://app?vid=1218d328-fdf6-45d1-9541-091fda7f65d0"},"vehicle_type_id":"4","last_reported":1726088919,"current_range_meters":20000,"station_id":"ce4bh012rcd13ifvqcv0","pricing_plan_id":"cebpf4jnsgd1na2vs0mg"},{"bike_id":"661e1689-1569-4281-9515-d3f5f8fda053","system_id":"levelo_inurba_marseille","lat":43.25722,"lon":5.41106,"is_reserved":false,"is_disabled":false,"rental_uris":{"android":"levelo://app?vid=661e1689-1569-4281-9515-d3f5f8fda053","ios":"levelo://app?vid=661e1689-1569-4281-9515-d3f5f8fda053"},"vehicle_type_id":"4","last_reported":1726088919,"current_range_meters":8400,"station_id":"ce4bhkp2rcd13ifvqgd0","pricing_plan_id":"cebpf4jnsgd1na2vs0mg"},{"bike_id":"e46ed35b-fa7a-4275-b1d1-fde76a590acf","system_id":"levelo_inurba_marseille","lat":43.29868,"lon":5.39732,"is_reserved":false,"is_disabled":false,"rental_uris":{"android":"levelo://app?vid=e46ed35b-fa7a-4275-b1d1-fde76a590acf","ios":"levelo://app?vid=e46ed35b-fa7a-4275-b1d1-fde76a590acf"},"vehicle_type_id":"4","last_reported":1726088919,"current_range_meters":32800,"station_id":"ce4bh0h2rcd13ifvqd50","pricing_plan_id":"cebpf4jnsgd1na2vs0mg"},{"bike_id":"7179f83f-4a34-4e7c-a589-50892c3fdc41","system_id":"levelo_inurba_marseille","lat":43.30299,"lon":5.3922,"is_reserved":false,"is_disabled":false,"rental_uris":{"android":"levelo://app?vid=7179f83f-4a34-4e7c-a589-50892c3fdc41","ios":"levelo://app?vid=7179f83f-4a34-4e7c-a589-50892c3fdc41"},"vehicle_type_id":"4","last_reported":1726088919,"current_range_meters":34800,"station_id":"ce4bhb12rcd13ifvqel0","pricing_plan_id":"cebpf4jnsgd1na2vs0mg"},{"bike_id":"58448de1-ab2f-443d-b40a-a5ff14b7b895","system_id":"levelo_inurba_marseille","lat":43.25095,"lon":5.39512,"is_reserved":false,"is_disabled":false,"rental_uris":{"android":"levelo://app?vid=58448de1-ab2f-443d-b40a-a5ff14b7b895","ios":"levelo://app?vid=58448de1-ab2f-443d-b40a-a5ff14b7b895"},"vehicle_type_id":"4","last_reported":1726088919,"current_range_meters":7200,"station_id":"ce4bhm12rcd13ifvqgkg","pricing_plan_id":"cebpf4jnsgd1na2vs0mg"},{"bike_id":"66432ce5-f04a-448c-8beb-6a930dab7258","system_id":"levelo_inurba_marseille","lat":43.29254,"lon":5.40914,"is_reserved":false,"is_disabled":false,"rental_uris":{"android":"levelo://app?vid=66432ce5-f04a-448c-8beb-6a930dab7258","ios":"levelo://app?vid=66432ce5-f04a-448c-8beb-6a930dab7258"},"vehicle_type_id":"4","last_reported":1726088919,"current_range_meters":35200,"station_id":"ce4bh192rcd13ifvqdc0","pricing_plan_id":"cebpf4jnsgd1na2vs0mg"},{"bike_id":"4e6d73f3-08d2-41ee-a075-ff4836ed77d4","system_id":"levelo_inurba_marseille","lat":43.2603,"lon":5.37546,"is_reserved":false,"is_disabled":false,"rental_uris":{"android":"levelo://app?vid=4e6d73f3-08d2-41ee-a075-ff4836ed77d4","ios":"levelo://app?vid=4e6d73f3-08d2-41ee-a075-ff4836ed77d4"},"vehicle_type_id":"4","last_reported":1726088919,"current_range_meters":5600,"station_id":"ce4bhgh2rcd13ifvqfa0","pricing_plan_id":"cebpf4jnsgd1na2vs0mg"},{"bike_id":"82b0b7ec-b0d8-4da0-af19-1162a9d2c0d1","system_id":"levelo_inurba_marseille","lat":43.30884,"lon":5.39651,"is_reserved":false,"is_disabled":false,"rental_uris":{"android":"levelo://app?vid=82b0b7ec-b0d8-4da0-af19-1162a9d2c0d1","ios":"levelo://app?vid=82b0b7ec-b0d8-4da0-af19-1162a9d2c0d1"},"vehicle_type_id":"4","last_reported":1726088919,"current_range_meters":30800,"station_id":"ce4bh012rcd13ifvqcv0","pricing_plan_id":"cebpf4jnsgd1na2vs0mg"},{"bike_id":"93323f62-227d-4360-9df3-2e5b3fdf1fba","system_id":"levelo_inurba_marseille","lat":43.28945,"lon":5.3841,"is_reserved":false,"is_disabled":false,"rental_uris":{"android":"levelo://app?vid=93323f62-227d-4360-9df3-2e5b3fdf1fba","ios":"levelo://app?vid=93323f62-227d-4360-9df3-2e5b3fdf1fba"},"vehicle_type_id":"4","last_reported":1726088919,"current_range_meters":39200,"station_id":"ce4bh612rcd13ifvqe6g","pricing_plan_id":"cebpf4jnsgd1na2vs0mg"},{"bike_id":"16eb705f-fa5b-4358-90bf-3d8ae027cc84","system_id":"levelo_inurba_marseille","lat":43.287133,"lon":5.379694,"is_reserved":false,"is_disabled":false,"rental_uris":{"android":"levelo://app?vid=16eb705f-fa5b-4358-90bf-3d8ae027cc84","ios":"levelo://app?vid=16eb705f-fa5b-4358-90bf-3d8ae027cc84"},"vehicle_type_id":"4","last_reported":1726088919,"current_range_meters":27200,"station_id":"ce4bh412rcd13ifvqdr0","pricing_plan_id":"cebpf4jnsgd1na2vs0mg"},{"bike_id":"02e2d12f-736f-4c36-ac7d-51c5550806d2","system_id":"levelo_inurba_marseille","lat":43.29001,"lon":5.35615,"is_reserved":false,"is_disabled":false,"rental_uris":{"android":"levelo://app?vid=02e2d12f-736f-4c36-ac7d-51c5550806d2","ios":"levelo://app?vid=02e2d12f-736f-4c36-ac7d-51c5550806d2"},"vehicle_type_id":"4","last_reported":1726088919,"current_range_meters":16400,"station_id":"ce4bhb92rcd13ifvqen0","pricing_plan_id":"cebpf4jnsgd1na2vs0mg"},{"bike_id":"fe440cf0-fe95-46c1-86aa-409bfd6b0113","system_id":"levelo_inurba_marseille","lat":43.30653,"lon":5.40102,"is_reserved":false,"is_disabled":false,"rental_uris":{"android":"levelo://app?vid=fe440cf0-fe95-46c1-86aa-409bfd6b0113","ios":"levelo://app?vid=fe440cf0-fe95-46c1-86aa-409bfd6b0113"},"vehicle_type_id":"4","last_reported":1726088919,"current_range_meters":7200,"station_id":"ce4bh112rcd13ifvqda0","pricing_plan_id":"cebpf4jnsgd1na2vs0mg"},{"bike_id":"deaeb920-23ab-4b51-a90a-3a4d369b9959","system_id":"levelo_inurba_marseille","lat":43.26556,"lon":5.37287,"is_reserved":false,"is_disabled":false,"rental_uris":{"android":"levelo://app?vid=deaeb920-23ab-4b51-a90a-3a4d369b9959","ios":"levelo://app?vid=deaeb920-23ab-4b51-a90a-3a4d369b9959"},"vehicle_type_id":"4","last_reported":1726088919,"current_range_meters":16400,"station_id":"ce4bhg12rcd13ifvqf70","pricing_plan_id":"cebpf4jnsgd1na2vs0mg"},{"bike_id":"23dd40db-11b2-4466-ac94-32064395d882","system_id":"levelo_inurba_marseille","lat":43.30419,"lon":5.38899,"is_reserved":false,"is_disabled":false,"rental_uris":{"android":"levelo://app?vid=23dd40db-11b2-4466-ac94-32064395d882","ios":"levelo://app?vid=23dd40db-11b2-4466-ac94-32064395d882"},"vehicle_type_id":"4","last_reported":1726088919,"current_range_meters":24400,"station_id":"ce4bgk12rcd13ifvqbi0","pricing_plan_id":"cebpf4jnsgd1na2vs0mg"},{"bike_id":"d4f0b123-7331-4b3c-ae15-c59f6efdc435","system_id":"levelo_inurba_marseille","lat":43.29259,"lon":5.40902,"is_reserved":false,"is_disabled":false,"rental_uris":{"android":"levelo://app?vid=d4f0b123-7331-4b3c-ae15-c59f6efdc435","ios":"levelo://app?vid=d4f0b123-7331-4b3c-ae15-c59f6efdc435"},"vehicle_type_id":"4","last_reported":1726088919,"current_range_meters":17200,"station_id":"ce4bh192rcd13ifvqdc0","pricing_plan_id":"cebpf4jnsgd1na2vs0mg"},{"bike_id":"bd54f45c-ee79-46cf-b4c1-c934e5dec5e4","system_id":"levelo_inurba_marseille","lat":43.25827,"lon":5.39446,"is_reserved":false,"is_disabled":false,"rental_uris":{"android":"levelo://app?vid=bd54f45c-ee79-46cf-b4c1-c934e5dec5e4","ios":"levelo://app?vid=bd54f45c-ee79-46cf-b4c1-c934e5dec5e4"},"vehicle_type_id":"4","last_reported":1726088919,"current_range_meters":38400,"station_id":"ce4bhip2rcd13ifvqft0","pricing_plan_id":"cebpf4jnsgd1na2vs0mg"},{"bike_id":"1313402d-e00d-4778-873f-b9c505bf9a45","system_id":"levelo_inurba_marseille","lat":43.295532,"lon":5.422955,"is_reserved":false,"is_disabled":false,"rental_uris":{"android":"levelo://app?vid=1313402d-e00d-4778-873f-b9c505bf9a45","ios":"levelo://app?vid=1313402d-e00d-4778-873f-b9c505bf9a45"},"vehicle_type_id":"4","last_reported":1726088919,"current_range_meters":30000,"station_id":"ce4bhph2rcd13ifvqhdg","pricing_plan_id":"cebpf4jnsgd1na2vs0mg"},{"bike_id":"7388bcdf-c056-430d-a30d-fc38727e4671","system_id":"levelo_inurba_marseille","lat":43.31538,"lon":5.38023,"is_reserved":false,"is_disabled":false,"rental_uris":{"android":"levelo://app?vid=7388bcdf-c056-430d-a30d-fc38727e4671","ios":"levelo://app?vid=7388bcdf-c056-430d-a30d-fc38727e4671"},"vehicle_type_id":"4","last_reported":1726088919,"current_range_meters":10000,"station_id":"ce4bhsp2rcd13ifvqi50","pricing_plan_id":"cebpf4jnsgd1na2vs0mg"},{"bike_id":"66c25716-1b58-45db-915f-78eb2a682e64","system_id":"levelo_inurba_marseille","lat":43.246527,"lon":5.388921,"is_reserved":false,"is_disabled":false,"rental_uris":{"android":"levelo://app?vid=66c25716-1b58-45db-915f-78eb2a682e64","ios":"levelo://app?vid=66c25716-1b58-45db-915f-78eb2a682e64"},"vehicle_type_id":"4","last_reported":1726088919,"current_range_meters":6000,"station_id":"ce4bhg12rcd13ifvqf60","pricing_plan_id":"cebpf4jnsgd1na2vs0mg"},{"bike_id":"95bcb544-7f1c-4b2a-b990-3fadd6fce4c4","system_id":"levelo_inurba_marseille","lat":43.24649,"lon":5.38896,"is_reserved":false,"is_disabled":false,"rental_uris":{"android":"levelo://app?vid=95bcb544-7f1c-4b2a-b990-3fadd6fce4c4","ios":"levelo://app?vid=95bcb544-7f1c-4b2a-b990-3fadd6fce4c4"},"vehicle_type_id":"4","last_reported":1726088919,"current_range_meters":25200,"station_id":"ce4bhg12rcd13ifvqf60","pricing_plan_id":"cebpf4jnsgd1na2vs0mg"},{"bike_id":"732a2560-5687-44cf-91e4-2bd0f3001508","system_id":"levelo_inurba_marseille","lat":43.28381,"lon":5.38646,"is_reserved":false,"is_disabled":false,"rental_uris":{"android":"levelo://app?vid=732a2560-5687-44cf-91e4-2bd0f3001508","ios":"levelo://app?vid=732a2560-5687-44cf-91e4-2bd0f3001508"},"vehicle_type_id":"4","last_reported":1726088919,"current_range_meters":32000,"station_id":"ce4bh492rcd13ifvqdvg","pricing_plan_id":"cebpf4jnsgd1na2vs0mg"},{"bike_id":"729f692d-02cf-40a7-81c2-6c7c7fd098f7","system_id":"levelo_inurba_marseille","lat":43.27916,"lon":5.39579,"is_reserved":false,"is_disabled":false,"rental_uris":{"android":"levelo://app?vid=729f692d-02cf-40a7-81c2-6c7c7fd098f7","ios":"levelo://app?vid=729f692d-02cf-40a7-81c2-6c7c7fd098f7"},"vehicle_type_id":"4","last_reported":1726088919,"current_range_meters":28000,"station_id":"ce4bhf92rcd13ifvqf40","pricing_plan_id":"cebpf4jnsgd1na2vs0mg"},{"bike_id":"9251d649-9d8a-442d-bd03-5baf7e9851ab","system_id":"levelo_inurba_marseille","lat":43.27068,"lon":5.42278,"is_reserved":false,"is_disabled":false,"rental_uris":{"android":"levelo://app?vid=9251d649-9d8a-442d-bd03-5baf7e9851ab","ios":"levelo://app?vid=9251d649-9d8a-442d-bd03-5baf7e9851ab"},"vehicle_type_id":"4","last_reported":1726088919,"current_range_meters":9600,"station_id":"ce4bhk92rcd13ifvqgb0","pricing_plan_id":"cebpf4jnsgd1na2vs0mg"},{"bike_id":"7febc141-5a04-4a2c-a79e-f05574b041f1","system_id":"levelo_inurba_marseille","lat":43.24673,"lon":5.38164,"is_reserved":false,"is_disabled":false,"rental_uris":{"android":"levelo://app?vid=7febc141-5a04-4a2c-a79e-f05574b041f1","ios":"levelo://app?vid=7febc141-5a04-4a2c-a79e-f05574b041f1"},"vehicle_type_id":"4","last_reported":1726088919,"current_range_meters":30000,"station_id":"ce4bhih2rcd13ifvqfr0","pricing_plan_id":"cebpf4jnsgd1na2vs0mg"},{"bike_id":"54bdbcf0-5c7c-4a5a-880a-6557518ad592","system_id":"levelo_inurba_marseille","lat":43.288474,"lon":5.393091,"is_reserved":false,"is_disabled":false,"rental_uris":{"android":"levelo://app?vid=54bdbcf0-5c7c-4a5a-880a-6557518ad592","ios":"levelo://app?vid=54bdbcf0-5c7c-4a5a-880a-6557518ad592"},"vehicle_type_id":"4","last_reported":1726088919,"current_range_meters":35200,"station_id":"ce4bh692rcd13ifvqea0","pricing_plan_id":"cebpf4jnsgd1na2vs0mg"},{"bike_id":"b5c74026-88c8-4590-abdf-fc90ab245935","system_id":"levelo_inurba_marseille","lat":43.31491,"lon":5.37308,"is_reserved":false,"is_disabled":false,"rental_uris":{"android":"levelo://app?vid=b5c74026-88c8-4590-abdf-fc90ab245935","ios":"levelo://app?vid=b5c74026-88c8-4590-abdf-fc90ab245935"},"vehicle_type_id":"4","last_reported":1726088919,"current_range_meters":26000,"station_id":"ce4bgt12rcd13ifvqcd0","pricing_plan_id":"cebpf4jnsgd1na2vs0mg"},{"bike_id":"8bcd04b5-3718-4fd8-b6d2-93f8e6edcc56","system_id":"levelo_inurba_marseille","lat":43.278339,"lon":5.392043,"is_reserved":false,"is_disabled":false,"rental_uris":{"android":"levelo://app?vid=8bcd04b5-3718-4fd8-b6d2-93f8e6edcc56","ios":"levelo://app?vid=8bcd04b5-3718-4fd8-b6d2-93f8e6edcc56"},"vehicle_type_id":"4","last_reported":1726088919,"current_range_meters":25600,"station_id":"ce4bhjp2rcd13ifvqga0","pricing_plan_id":"cebpf4jnsgd1na2vs0mg"},{"bike_id":"bd93ad96-3d66-4dab-a975-716363825001","system_id":"levelo_inurba_marseille","lat":43.31723,"lon":5.42405,"is_reserved":false,"is_disabled":false,"rental_uris":{"android":"levelo://app?vid=bd93ad96-3d66-4dab-a975-716363825001","ios":"levelo://app?vid=bd93ad96-3d66-4dab-a975-716363825001"},"vehicle_type_id":"4","last_reported":1726088919,"current_range_meters":35600,"station_id":"ce4bhp92rcd13ifvqhbg","pricing_plan_id":"cebpf4jnsgd1na2vs0mg"},{"bike_id":"a5ceea97-dd13-490a-9e73-3570214f740d","system_id":"levelo_inurba_marseille","lat":43.289429,"lon":5.364019,"is_reserved":false,"is_disabled":false,"rental_uris":{"android":"levelo://app?vid=a5ceea97-dd13-490a-9e73-3570214f740d","ios":"levelo://app?vid=a5ceea97-dd13-490a-9e73-3570214f740d"},"vehicle_type_id":"4","last_reported":1726088919,"current_range_meters":30000,"station_id":"ce4bhc92rcd13ifvqetg","pricing_plan_id":"cebpf4jnsgd1na2vs0mg"},{"bike_id":"bb75b410-b4dc-4f52-84e0-29894fcaecdf","system_id":"levelo_inurba_marseille","lat":43.33027,"lon":5.3904,"is_reserved":false,"is_disabled":false,"rental_uris":{"android":"levelo://app?vid=bb75b410-b4dc-4f52-84e0-29894fcaecdf","ios":"levelo://app?vid=bb75b410-b4dc-4f52-84e0-29894fcaecdf"},"vehicle_type_id":"4","last_reported":1726088919,"current_range_meters":32000,"station_id":"ce4bhr92rcd13ifvqhrg","pricing_plan_id":"cebpf4jnsgd1na2vs0mg"},{"bike_id":"bb143e7e-7ffb-4ad1-9cd0-b372fd7071ad","system_id":"levelo_inurba_marseille","lat":43.30601,"lon":5.37221,"is_reserved":false,"is_disabled":false,"rental_uris":{"android":"levelo://app?vid=bb143e7e-7ffb-4ad1-9cd0-b372fd7071ad","ios":"levelo://app?vid=bb143e7e-7ffb-4ad1-9cd0-b372fd7071ad"},"vehicle_type_id":"4","last_reported":1726088919,"current_range_meters":8000,"station_id":"ce4bgqh2rcd13ifvqc4g","pricing_plan_id":"cebpf4jnsgd1na2vs0mg"},{"bike_id":"fc687bec-2f47-495e-ae6a-ffc4a39a99ea","system_id":"levelo_inurba_marseille","lat":43.27816,"lon":5.40717,"is_reserved":false,"is_disabled":false,"rental_uris":{"android":"levelo://app?vid=fc687bec-2f47-495e-ae6a-ffc4a39a99ea","ios":"levelo://app?vid=fc687bec-2f47-495e-ae6a-ffc4a39a99ea"},"vehicle_type_id":"4","last_reported":1726088919,"current_range_meters":37600,"station_id":"ce4bhnh2rcd13ifvqgtg","pricing_plan_id":"cebpf4jnsgd1na2vs0mg"},{"bike_id":"2f70f0c7-f23a-452f-bacb-aed7d187568b","system_id":"levelo_inurba_marseille","lat":43.29029,"lon":5.38147,"is_reserved":false,"is_disabled":false,"rental_uris":{"android":"levelo://app?vid=2f70f0c7-f23a-452f-bacb-aed7d187568b","ios":"levelo://app?vid=2f70f0c7-f23a-452f-bacb-aed7d187568b"},"vehicle_type_id":"4","last_reported":1726088919,"current_range_meters":37600,"station_id":"ce4bh4p2rcd13ifvqe1g","pricing_plan_id":"cebpf4jnsgd1na2vs0mg"},{"bike_id":"fce4cc1a-788c-46e9-b3f6-5d774bb3fd53","system_id":"levelo_inurba_marseille","lat":43.30538,"lon":5.36714,"is_reserved":false,"is_disabled":false,"rental_uris":{"android":"levelo://app?vid=fce4cc1a-788c-46e9-b3f6-5d774bb3fd53","ios":"levelo://app?vid=fce4cc1a-788c-46e9-b3f6-5d774bb3fd53"},"vehicle_type_id":"4","last_reported":1726088919,"current_range_meters":28000,"station_id":"ce4bgrp2rcd13ifvqc9g","pricing_plan_id":"cebpf4jnsgd1na2vs0mg"},{"bike_id":"49037cf7-ab7f-4327-8a2e-9dfbc463b5bb","system_id":"levelo_inurba_marseille","lat":43.28853,"lon":5.35827,"is_reserved":false,"is_disabled":false,"rental_uris":{"android":"levelo://app?vid=49037cf7-ab7f-4327-8a2e-9dfbc463b5bb","ios":"levelo://app?vid=49037cf7-ab7f-4327-8a2e-9dfbc463b5bb"},"vehicle_type_id":"4","last_reported":1726088919,"current_range_meters":29600,"station_id":"ce4bhb12rcd13ifvqem0","pricing_plan_id":"cebpf4jnsgd1na2vs0mg"},{"bike_id":"708978b1-af26-486f-810c-fbf08c534275","system_id":"levelo_inurba_marseille","lat":43.2793,"lon":5.3958,"is_reserved":false,"is_disabled":false,"rental_uris":{"android":"levelo://app?vid=708978b1-af26-486f-810c-fbf08c534275","ios":"levelo://app?vid=708978b1-af26-486f-810c-fbf08c534275"},"vehicle_type_id":"4","last_reported":1726088919,"current_range_meters":6800,"station_id":"ce4bhf92rcd13ifvqf40","pricing_plan_id":"cebpf4jnsgd1na2vs0mg"},{"bike_id":"dd2d66a6-976d-43e6-83be-d6211ff78acc","system_id":"levelo_inurba_marseille","lat":43.33722,"lon":5.39185,"is_reserved":false,"is_disabled":false,"rental_uris":{"android":"levelo://app?vid=dd2d66a6-976d-43e6-83be-d6211ff78acc","ios":"levelo://app?vid=dd2d66a6-976d-43e6-83be-d6211ff78acc"},"vehicle_type_id":"4","last_reported":1726088919,"current_range_meters":15200,"station_id":"ce4bhr92rcd13ifvqhsg","pricing_plan_id":"cebpf4jnsgd1na2vs0mg"},{"bike_id":"82a54478-31a0-4fbb-b63b-0e81d6432e80","system_id":"levelo_inurba_marseille","lat":43.304361,"lon":5.397399,"is_reserved":false,"is_disabled":false,"rental_uris":{"android":"levelo://app?vid=82a54478-31a0-4fbb-b63b-0e81d6432e80","ios":"levelo://app?vid=82a54478-31a0-4fbb-b63b-0e81d6432e80"},"vehicle_type_id":"4","last_reported":1726088919,"current_range_meters":19200,"station_id":"ce4bh292rcd13ifvqdg0","pricing_plan_id":"cebpf4jnsgd1na2vs0mg"},{"bike_id":"641a0d22-c00d-46c9-924e-81c7009727e7","system_id":"levelo_inurba_marseille","lat":43.30138,"lon":5.39852,"is_reserved":false,"is_disabled":false,"rental_uris":{"android":"levelo://app?vid=641a0d22-c00d-46c9-924e-81c7009727e7","ios":"levelo://app?vid=641a0d22-c00d-46c9-924e-81c7009727e7"},"vehicle_type_id":"4","last_reported":1726088919,"current_range_meters":19600,"station_id":"ce4bh0h2rcd13ifvqd40","pricing_plan_id":"cebpf4jnsgd1na2vs0mg"},{"bike_id":"9c99abf4-ddb2-47ea-a3eb-652558b42316","system_id":"levelo_inurba_marseille","lat":43.29204,"lon":5.39327,"is_reserved":false,"is_disabled":false,"rental_uris":{"android":"levelo://app?vid=9c99abf4-ddb2-47ea-a3eb-652558b42316","ios":"levelo://app?vid=9c99abf4-ddb2-47ea-a3eb-652558b42316"},"vehicle_type_id":"4","last_reported":1726088919,"current_range_meters":22800,"station_id":"ce4bh192rcd13ifvqdd0","pricing_plan_id":"cebpf4jnsgd1na2vs0mg"},{"bike_id":"5ec244f9-8806-4663-a010-a1b3d78ee466","system_id":"levelo_inurba_marseille","lat":43.28439,"lon":5.39196,"is_reserved":false,"is_disabled":false,"rental_uris":{"android":"levelo://app?vid=5ec244f9-8806-4663-a010-a1b3d78ee466","ios":"levelo://app?vid=5ec244f9-8806-4663-a010-a1b3d78ee466"},"vehicle_type_id":"4","last_reported":1726088919,"current_range_meters":19200,"station_id":"ce4bhoh2rcd13ifvqh5g","pricing_plan_id":"cebpf4jnsgd1na2vs0mg"},{"bike_id":"01906d26-6cb4-4012-8836-890840694aea","system_id":"levelo_inurba_marseille","lat":43.28414,"lon":5.37513,"is_reserved":false,"is_disabled":false,"rental_uris":{"android":"levelo://app?vid=01906d26-6cb4-4012-8836-890840694aea","ios":"levelo://app?vid=01906d26-6cb4-4012-8836-890840694aea"},"vehicle_type_id":"4","last_reported":1726088919,"current_range_meters":35600,"station_id":"ce4bh412rcd13ifvqds0","pricing_plan_id":"cebpf4jnsgd1na2vs0mg"},{"bike_id":"dd8048dc-c5b2-4df4-8736-44c5cbcf9ef0","system_id":"levelo_inurba_marseille","lat":43.2942,"lon":5.38623,"is_reserved":false,"is_disabled":false,"rental_uris":{"android":"levelo://app?vid=dd8048dc-c5b2-4df4-8736-44c5cbcf9ef0","ios":"levelo://app?vid=dd8048dc-c5b2-4df4-8736-44c5cbcf9ef0"},"vehicle_type_id":"4","last_reported":1726088919,"current_range_meters":35600,"station_id":"ce4bh2h2rcd13ifvqdh0","pricing_plan_id":"cebpf4jnsgd1na2vs0mg"},{"bike_id":"5876c5ef-9fac-478d-bd3c-ea1780c21005","system_id":"levelo_inurba_marseille","lat":43.33755,"lon":5.37446,"is_reserved":false,"is_disabled":false,"rental_uris":{"android":"levelo://app?vid=5876c5ef-9fac-478d-bd3c-ea1780c21005","ios":"levelo://app?vid=5876c5ef-9fac-478d-bd3c-ea1780c21005"},"vehicle_type_id":"4","last_reported":1726088919,"current_range_meters":38000,"station_id":"","pricing_plan_id":"cebpf4jnsgd1na2vs0mg"},{"bike_id":"e677b515-5319-4216-9c4c-b1dda00cce1f","system_id":"levelo_inurba_marseille","lat":43.24802,"lon":5.37459,"is_reserved":false,"is_disabled":false,"rental_uris":{"android":"levelo://app?vid=e677b515-5319-4216-9c4c-b1dda00cce1f","ios":"levelo://app?vid=e677b515-5319-4216-9c4c-b1dda00cce1f"},"vehicle_type_id":"4","last_reported":1726088919,"current_range_meters":32000,"station_id":"ce4bhgh2rcd13ifvqfb0","pricing_plan_id":"cebpf4jnsgd1na2vs0mg"},{"bike_id":"c74261a9-01ce-4042-8d2b-81c82ad12f19","system_id":"levelo_inurba_marseille","lat":43.29006,"lon":5.35615,"is_reserved":false,"is_disabled":false,"rental_uris":{"android":"levelo://app?vid=c74261a9-01ce-4042-8d2b-81c82ad12f19","ios":"levelo://app?vid=c74261a9-01ce-4042-8d2b-81c82ad12f19"},"vehicle_type_id":"4","last_reported":1726088919,"current_range_meters":27200,"station_id":"ce4bhb92rcd13ifvqen0","pricing_plan_id":"cebpf4jnsgd1na2vs0mg"},{"bike_id":"94e3be6d-edb8-4f40-b233-7b65a9bd1023","system_id":"levelo_inurba_marseille","lat":43.28708,"lon":5.39997,"is_reserved":false,"is_disabled":false,"rental_uris":{"android":"levelo://app?vid=94e3be6d-edb8-4f40-b233-7b65a9bd1023","ios":"levelo://app?vid=94e3be6d-edb8-4f40-b233-7b65a9bd1023"},"vehicle_type_id":"4","last_reported":1726088919,"current_range_meters":24800,"station_id":"ce4bho92rcd13ifvqh3g","pricing_plan_id":"cebpf4jnsgd1na2vs0mg"},{"bike_id":"6eddef9d-b65f-41bc-ac84-5ea2a73bcc6e","system_id":"levelo_inurba_marseille","lat":43.31712,"lon":5.37752,"is_reserved":false,"is_disabled":false,"rental_uris":{"android":"levelo://app?vid=6eddef9d-b65f-41bc-ac84-5ea2a73bcc6e","ios":"levelo://app?vid=6eddef9d-b65f-41bc-ac84-5ea2a73bcc6e"},"vehicle_type_id":"4","last_reported":1726088919,"current_range_meters":36400,"station_id":"ce4bgth2rcd13ifvqch0","pricing_plan_id":"cebpf4jnsgd1na2vs0mg"},{"bike_id":"926b2a48-8dd8-4764-aca3-bab40b5d8bd7","system_id":"levelo_inurba_marseille","lat":43.30432,"lon":5.38842,"is_reserved":false,"is_disabled":false,"rental_uris":{"android":"levelo://app?vid=926b2a48-8dd8-4764-aca3-bab40b5d8bd7","ios":"levelo://app?vid=926b2a48-8dd8-4764-aca3-bab40b5d8bd7"},"vehicle_type_id":"4","last_reported":1726088919,"current_range_meters":24000,"station_id":"ce4bgk12rcd13ifvqbi0","pricing_plan_id":"cebpf4jnsgd1na2vs0mg"},{"bike_id":"8877dbff-0e68-4869-9c33-32eb29fd50c2","system_id":"levelo_inurba_marseille","lat":43.30601,"lon":5.37226,"is_reserved":false,"is_disabled":false,"rental_uris":{"android":"levelo://app?vid=8877dbff-0e68-4869-9c33-32eb29fd50c2","ios":"levelo://app?vid=8877dbff-0e68-4869-9c33-32eb29fd50c2"},"vehicle_type_id":"4","last_reported":1726088919,"current_range_meters":25600,"station_id":"ce4bgqh2rcd13ifvqc4g","pricing_plan_id":"cebpf4jnsgd1na2vs0mg"},{"bike_id":"dccadc39-7e75-4ff6-801e-d97b0e1812f2","system_id":"levelo_inurba_marseille","lat":43.33027,"lon":5.39036,"is_reserved":false,"is_disabled":false,"rental_uris":{"android":"levelo://app?vid=dccadc39-7e75-4ff6-801e-d97b0e1812f2","ios":"levelo://app?vid=dccadc39-7e75-4ff6-801e-d97b0e1812f2"},"vehicle_type_id":"4","last_reported":1726088919,"current_range_meters":32400,"station_id":"ce4bhr92rcd13ifvqhrg","pricing_plan_id":"cebpf4jnsgd1na2vs0mg"},{"bike_id":"8155f705-bfe5-4e14-8d0a-71180c35e5fc","system_id":"levelo_inurba_marseille","lat":43.300803,"lon":5.390814,"is_reserved":false,"is_disabled":false,"rental_uris":{"android":"levelo://app?vid=8155f705-bfe5-4e14-8d0a-71180c35e5fc","ios":"levelo://app?vid=8155f705-bfe5-4e14-8d0a-71180c35e5fc"},"vehicle_type_id":"4","last_reported":1726088919,"current_range_meters":17600,"station_id":"ce4bh4p2rcd13ifvqe1g","pricing_plan_id":"cebpf4jnsgd1na2vs0mg"},{"bike_id":"9ec21d34-7b90-4a8a-a838-a99011bc093b","system_id":"levelo_inurba_marseille","lat":43.28122,"lon":5.37833,"is_reserved":false,"is_disabled":false,"rental_uris":{"android":"levelo://app?vid=9ec21d34-7b90-4a8a-a838-a99011bc093b","ios":"levelo://app?vid=9ec21d34-7b90-4a8a-a838-a99011bc093b"},"vehicle_type_id":"4","last_reported":1726088919,"current_range_meters":18800,"station_id":"ce4bha12rcd13ifvqee0","pricing_plan_id":"cebpf4jnsgd1na2vs0mg"},{"bike_id":"a7016953-646e-4f03-a618-9dc2f28c3e53","system_id":"levelo_inurba_marseille","lat":43.24809,"lon":5.37457,"is_reserved":false,"is_disabled":false,"rental_uris":{"android":"levelo://app?vid=a7016953-646e-4f03-a618-9dc2f28c3e53","ios":"levelo://app?vid=a7016953-646e-4f03-a618-9dc2f28c3e53"},"vehicle_type_id":"4","last_reported":1726088919,"current_range_meters":33200,"station_id":"ce4bhgh2rcd13ifvqfb0","pricing_plan_id":"cebpf4jnsgd1na2vs0mg"},{"bike_id":"4b02a7e9-8265-4f92-8a5b-523194dc96fe","system_id":"levelo_inurba_marseille","lat":43.25829,"lon":5.39438,"is_reserved":false,"is_disabled":false,"rental_uris":{"android":"levelo://app?vid=4b02a7e9-8265-4f92-8a5b-523194dc96fe","ios":"levelo://app?vid=4b02a7e9-8265-4f92-8a5b-523194dc96fe"},"vehicle_type_id":"4","last_reported":1726088919,"current_range_meters":30800,"station_id":"ce4bhip2rcd13ifvqft0","pricing_plan_id":"cebpf4jnsgd1na2vs0mg"},{"bike_id":"4a5e3fd3-f0d3-4421-9132-64c9602b5812","system_id":"levelo_inurba_marseille","lat":43.32046,"lon":5.41549,"is_reserved":false,"is_disabled":false,"rental_uris":{"android":"levelo://app?vid=4a5e3fd3-f0d3-4421-9132-64c9602b5812","ios":"levelo://app?vid=4a5e3fd3-f0d3-4421-9132-64c9602b5812"},"vehicle_type_id":"4","last_reported":1726088919,"current_range_meters":6400,"station_id":"ce4bhq92rcd13ifvqhkg","pricing_plan_id":"cebpf4jnsgd1na2vs0mg"},{"bike_id":"19fc74b2-0977-409b-9d38-b0cf563ca0ec","system_id":"levelo_inurba_marseille","lat":43.30323,"lon":5.40452,"is_reserved":false,"is_disabled":false,"rental_uris":{"android":"levelo://app?vid=19fc74b2-0977-409b-9d38-b0cf563ca0ec","ios":"levelo://app?vid=19fc74b2-0977-409b-9d38-b0cf563ca0ec"},"vehicle_type_id":"4","last_reported":1726088919,"current_range_meters":38800,"station_id":"ce4bh012rcd13ifvqd10","pricing_plan_id":"cebpf4jnsgd1na2vs0mg"},{"bike_id":"5f496e81-63cb-4e63-8056-10225544c09f","system_id":"levelo_inurba_marseille","lat":43.30899,"lon":5.37214,"is_reserved":false,"is_disabled":false,"rental_uris":{"android":"levelo://app?vid=5f496e81-63cb-4e63-8056-10225544c09f","ios":"levelo://app?vid=5f496e81-63cb-4e63-8056-10225544c09f"},"vehicle_type_id":"4","last_reported":1726088919,"current_range_meters":33600,"station_id":"ce4bguh2rcd13ifvqckg","pricing_plan_id":"cebpf4jnsgd1na2vs0mg"},{"bike_id":"7551d42d-8659-416d-896d-f767a7f37efa","system_id":"levelo_inurba_marseille","lat":43.24541,"lon":5.39519,"is_reserved":false,"is_disabled":false,"rental_uris":{"android":"levelo://app?vid=7551d42d-8659-416d-896d-f767a7f37efa","ios":"levelo://app?vid=7551d42d-8659-416d-896d-f767a7f37efa"},"vehicle_type_id":"4","last_reported":1726088919,"current_range_meters":38800,"station_id":"ce4bhlp2rcd13ifvqgjg","pricing_plan_id":"cebpf4jnsgd1na2vs0mg"},{"bike_id":"39c1b11c-22b3-4985-bc06-759eab3d9453","system_id":"levelo_inurba_marseille","lat":43.29577,"lon":5.39974,"is_reserved":false,"is_disabled":false,"rental_uris":{"android":"levelo://app?vid=39c1b11c-22b3-4985-bc06-759eab3d9453","ios":"levelo://app?vid=39c1b11c-22b3-4985-bc06-759eab3d9453"},"vehicle_type_id":"4","last_reported":1726088919,"current_range_meters":5600,"station_id":"ce4bh312rcd13ifvqdj0","pricing_plan_id":"cebpf4jnsgd1na2vs0mg"},{"bike_id":"be45a701-ee67-4928-b7e1-4e1546c93241","system_id":"levelo_inurba_marseille","lat":43.2919,"lon":5.35809,"is_reserved":false,"is_disabled":false,"rental_uris":{"android":"levelo://app?vid=be45a701-ee67-4928-b7e1-4e1546c93241","ios":"levelo://app?vid=be45a701-ee67-4928-b7e1-4e1546c93241"},"vehicle_type_id":"4","last_reported":1726088919,"current_range_meters":30800,"station_id":"ce4bhb12rcd13ifvqel0","pricing_plan_id":"cebpf4jnsgd1na2vs0mg"},{"bike_id":"368d04a0-4bac-4f2a-9d3c-1420da4a7c23","system_id":"levelo_inurba_marseille","lat":43.2816,"lon":5.42649,"is_reserved":false,"is_disabled":false,"rental_uris":{"android":"levelo://app?vid=368d04a0-4bac-4f2a-9d3c-1420da4a7c23","ios":"levelo://app?vid=368d04a0-4bac-4f2a-9d3c-1420da4a7c23"},"vehicle_type_id":"4","last_reported":1726088919,"current_range_meters":16000,"station_id":"ce4bhnh2rcd13ifvqgug","pricing_plan_id":"cebpf4jnsgd1na2vs0mg"},{"bike_id":"4c386efd-d18a-4ef4-bea2-49d99e7c4947","system_id":"levelo_inurba_marseille","lat":43.28006,"lon":5.40008,"is_reserved":false,"is_disabled":false,"rental_uris":{"android":"levelo://app?vid=4c386efd-d18a-4ef4-bea2-49d99e7c4947","ios":"levelo://app?vid=4c386efd-d18a-4ef4-bea2-49d99e7c4947"},"vehicle_type_id":"4","last_reported":1726088919,"current_range_meters":12000,"station_id":"ce4bho92rcd13ifvqh4g","pricing_plan_id":"cebpf4jnsgd1na2vs0mg"},{"bike_id":"e06bfd01-c40b-47c2-94ca-ace2b2ea2d8f","system_id":"levelo_inurba_marseille","lat":43.25109,"lon":5.40327,"is_reserved":false,"is_disabled":false,"rental_uris":{"android":"levelo://app?vid=e06bfd01-c40b-47c2-94ca-ace2b2ea2d8f","ios":"levelo://app?vid=e06bfd01-c40b-47c2-94ca-ace2b2ea2d8f"},"vehicle_type_id":"4","last_reported":1726088919,"current_range_meters":11600,"station_id":"ce4bhlh2rcd13ifvqgig","pricing_plan_id":"cebpf4jnsgd1na2vs0mg"},{"bike_id":"18283699-1048-4762-92d9-9f06fb8223b6","system_id":"levelo_inurba_marseille","lat":43.269533,"lon":5.386297,"is_reserved":false,"is_disabled":false,"rental_uris":{"android":"levelo://app?vid=18283699-1048-4762-92d9-9f06fb8223b6","ios":"levelo://app?vid=18283699-1048-4762-92d9-9f06fb8223b6"},"vehicle_type_id":"4","last_reported":1726088919,"current_range_meters":36800,"station_id":"ce4bhh92rcd13ifvqfh0","pricing_plan_id":"cebpf4jnsgd1na2vs0mg"},{"bike_id":"201264b9-bf7a-49b2-a7f3-fabac44b2803","system_id":"levelo_inurba_marseille","lat":43.28117,"lon":5.37827,"is_reserved":false,"is_disabled":false,"rental_uris":{"android":"levelo://app?vid=201264b9-bf7a-49b2-a7f3-fabac44b2803","ios":"levelo://app?vid=201264b9-bf7a-49b2-a7f3-fabac44b2803"},"vehicle_type_id":"4","last_reported":1726088919,"current_range_meters":38800,"station_id":"ce4bha12rcd13ifvqee0","pricing_plan_id":"cebpf4jnsgd1na2vs0mg"},{"bike_id":"2f79ea44-c8f1-4958-b0a2-1222c9e88e43","system_id":"levelo_inurba_marseille","lat":43.25583,"lon":5.38228,"is_reserved":false,"is_disabled":false,"rental_uris":{"android":"levelo://app?vid=2f79ea44-c8f1-4958-b0a2-1222c9e88e43","ios":"levelo://app?vid=2f79ea44-c8f1-4958-b0a2-1222c9e88e43"},"vehicle_type_id":"4","last_reported":1726088919,"current_range_meters":15200,"station_id":"ce4bhih2rcd13ifvqfs0","pricing_plan_id":"cebpf4jnsgd1na2vs0mg"},{"bike_id":"c53f312a-8843-4479-930b-8443410ae2ac","system_id":"levelo_inurba_marseille","lat":43.269455,"lon":5.40258,"is_reserved":false,"is_disabled":false,"rental_uris":{"android":"levelo://app?vid=c53f312a-8843-4479-930b-8443410ae2ac","ios":"levelo://app?vid=c53f312a-8843-4479-930b-8443410ae2ac"},"vehicle_type_id":"4","last_reported":1726088919,"current_range_meters":26800,"station_id":"cjm6bp8fraef2m0cb0m0","pricing_plan_id":"cebpf4jnsgd1na2vs0mg"},{"bike_id":"217b12d7-0655-4772-b8b6-d4b4b765627c","system_id":"levelo_inurba_marseille","lat":43.25581,"lon":5.38235,"is_reserved":false,"is_disabled":false,"rental_uris":{"android":"levelo://app?vid=217b12d7-0655-4772-b8b6-d4b4b765627c","ios":"levelo://app?vid=217b12d7-0655-4772-b8b6-d4b4b765627c"},"vehicle_type_id":"4","last_reported":1726088919,"current_range_meters":15200,"station_id":"ce4bhih2rcd13ifvqfs0","pricing_plan_id":"cebpf4jnsgd1na2vs0mg"},{"bike_id":"93b2458e-8e5a-4f85-8e3f-fb612b790f6f","system_id":"levelo_inurba_marseille","lat":43.30145,"lon":5.39267,"is_reserved":false,"is_disabled":false,"rental_uris":{"android":"levelo://app?vid=93b2458e-8e5a-4f85-8e3f-fb612b790f6f","ios":"levelo://app?vid=93b2458e-8e5a-4f85-8e3f-fb612b790f6f"},"vehicle_type_id":"4","last_reported":1726088919,"current_range_meters":39200,"station_id":"ce4bh0p2rcd13ifvqd70","pricing_plan_id":"cebpf4jnsgd1na2vs0mg"},{"bike_id":"758477df-2f5f-429c-85cb-c996e19f24fa","system_id":"levelo_inurba_marseille","lat":43.27995,"lon":5.41666,"is_reserved":false,"is_disabled":false,"rental_uris":{"android":"levelo://app?vid=758477df-2f5f-429c-85cb-c996e19f24fa","ios":"levelo://app?vid=758477df-2f5f-429c-85cb-c996e19f24fa"},"vehicle_type_id":"4","last_reported":1726088919,"current_range_meters":38400,"station_id":"ce4bho12rcd13ifvqh1g","pricing_plan_id":"cebpf4jnsgd1na2vs0mg"},{"bike_id":"913b0980-9af3-414f-93d0-679a03b5ff67","system_id":"levelo_inurba_marseille","lat":43.30431,"lon":5.38891,"is_reserved":false,"is_disabled":false,"rental_uris":{"android":"levelo://app?vid=913b0980-9af3-414f-93d0-679a03b5ff67","ios":"levelo://app?vid=913b0980-9af3-414f-93d0-679a03b5ff67"},"vehicle_type_id":"4","last_reported":1726088919,"current_range_meters":14000,"station_id":"ce4bgk12rcd13ifvqbi0","pricing_plan_id":"cebpf4jnsgd1na2vs0mg"},{"bike_id":"e07fa6d2-2d1f-44f3-905c-c692618ea56b","system_id":"levelo_inurba_marseille","lat":43.27062,"lon":5.40061,"is_reserved":false,"is_disabled":false,"rental_uris":{"android":"levelo://app?vid=e07fa6d2-2d1f-44f3-905c-c692618ea56b","ios":"levelo://app?vid=e07fa6d2-2d1f-44f3-905c-c692618ea56b"},"vehicle_type_id":"4","last_reported":1726088919,"current_range_meters":20400,"station_id":"","pricing_plan_id":"cebpf4jnsgd1na2vs0mg"},{"bike_id":"f0ab1e44-8ac5-4033-a7ac-b3e3da389903","system_id":"levelo_inurba_marseille","lat":43.27072,"lon":5.42283,"is_reserved":false,"is_disabled":false,"rental_uris":{"android":"levelo://app?vid=f0ab1e44-8ac5-4033-a7ac-b3e3da389903","ios":"levelo://app?vid=f0ab1e44-8ac5-4033-a7ac-b3e3da389903"},"vehicle_type_id":"4","last_reported":1726088919,"current_range_meters":32000,"station_id":"ce4bhk92rcd13ifvqgb0","pricing_plan_id":"cebpf4jnsgd1na2vs0mg"},{"bike_id":"0c511aa2-dfea-41af-91ae-be84664efb23","system_id":"levelo_inurba_marseille","lat":43.30551,"lon":5.36699,"is_reserved":false,"is_disabled":false,"rental_uris":{"android":"levelo://app?vid=0c511aa2-dfea-41af-91ae-be84664efb23","ios":"levelo://app?vid=0c511aa2-dfea-41af-91ae-be84664efb23"},"vehicle_type_id":"4","last_reported":1726088919,"current_range_meters":39200,"station_id":"ce4bgrp2rcd13ifvqc9g","pricing_plan_id":"cebpf4jnsgd1na2vs0mg"},{"bike_id":"e9ec6f40-6b8d-4ea9-a6b4-10969fb237e6","system_id":"levelo_inurba_marseille","lat":43.28935,"lon":5.38397,"is_reserved":false,"is_disabled":false,"rental_uris":{"android":"levelo://app?vid=e9ec6f40-6b8d-4ea9-a6b4-10969fb237e6","ios":"levelo://app?vid=e9ec6f40-6b8d-4ea9-a6b4-10969fb237e6"},"vehicle_type_id":"4","last_reported":1726088919,"current_range_meters":31200,"station_id":"ce4bh612rcd13ifvqe6g","pricing_plan_id":"cebpf4jnsgd1na2vs0mg"},{"bike_id":"aff8180b-128b-4d32-b6f2-f1eab6c38f27","system_id":"levelo_inurba_marseille","lat":43.27215,"lon":5.39178,"is_reserved":false,"is_disabled":false,"rental_uris":{"android":"levelo://app?vid=aff8180b-128b-4d32-b6f2-f1eab6c38f27","ios":"levelo://app?vid=aff8180b-128b-4d32-b6f2-f1eab6c38f27"},"vehicle_type_id":"4","last_reported":1726088919,"current_range_meters":8000,"station_id":"ce4bhhp2rcd13ifvqfm0","pricing_plan_id":"cebpf4jnsgd1na2vs0mg"},{"bike_id":"78acf389-8e62-4eb1-a9d9-4acb4ddc40ba","system_id":"levelo_inurba_marseille","lat":43.3081,"lon":5.38161,"is_reserved":false,"is_disabled":false,"rental_uris":{"android":"levelo://app?vid=78acf389-8e62-4eb1-a9d9-4acb4ddc40ba","ios":"levelo://app?vid=78acf389-8e62-4eb1-a9d9-4acb4ddc40ba"},"vehicle_type_id":"4","last_reported":1726088919,"current_range_meters":35600,"station_id":"ce4bgt12rcd13ifvqce0","pricing_plan_id":"cebpf4jnsgd1na2vs0mg"},{"bike_id":"8ffaee8b-0381-4dc9-b214-5028c4bf56a9","system_id":"levelo_inurba_marseille","lat":43.32367,"lon":5.38882,"is_reserved":false,"is_disabled":false,"rental_uris":{"android":"levelo://app?vid=8ffaee8b-0381-4dc9-b214-5028c4bf56a9","ios":"levelo://app?vid=8ffaee8b-0381-4dc9-b214-5028c4bf56a9"},"vehicle_type_id":"4","last_reported":1726088919,"current_range_meters":38800,"station_id":"ce4bhqp2rcd13ifvqhog","pricing_plan_id":"cebpf4jnsgd1na2vs0mg"},{"bike_id":"d5992e5a-6bbf-4d9e-81d5-e6aa3743b2c8","system_id":"levelo_inurba_marseille","lat":43.30535,"lon":5.36707,"is_reserved":false,"is_disabled":false,"rental_uris":{"android":"levelo://app?vid=d5992e5a-6bbf-4d9e-81d5-e6aa3743b2c8","ios":"levelo://app?vid=d5992e5a-6bbf-4d9e-81d5-e6aa3743b2c8"},"vehicle_type_id":"4","last_reported":1726088919,"current_range_meters":27600,"station_id":"ce4bgrp2rcd13ifvqc9g","pricing_plan_id":"cebpf4jnsgd1na2vs0mg"},{"bike_id":"579641ed-2c24-4796-a1d8-c864c4daf845","system_id":"levelo_inurba_marseille","lat":43.33023,"lon":5.39042,"is_reserved":false,"is_disabled":false,"rental_uris":{"android":"levelo://app?vid=579641ed-2c24-4796-a1d8-c864c4daf845","ios":"levelo://app?vid=579641ed-2c24-4796-a1d8-c864c4daf845"},"vehicle_type_id":"4","last_reported":1726088919,"current_range_meters":10800,"station_id":"ce4bhr92rcd13ifvqhrg","pricing_plan_id":"cebpf4jnsgd1na2vs0mg"},{"bike_id":"309a7169-56f1-4c44-a45e-96df3696fc7d","system_id":"levelo_inurba_marseille","lat":43.311141,"lon":5.377725,"is_reserved":false,"is_disabled":false,"rental_uris":{"android":"levelo://app?vid=309a7169-56f1-4c44-a45e-96df3696fc7d","ios":"levelo://app?vid=309a7169-56f1-4c44-a45e-96df3696fc7d"},"vehicle_type_id":"4","last_reported":1726088919,"current_range_meters":35600,"station_id":"ce4bgt92rcd13ifvqcg0","pricing_plan_id":"cebpf4jnsgd1na2vs0mg"},{"bike_id":"24990dba-cb5c-44e3-b39e-9413cf954095","system_id":"levelo_inurba_marseille","lat":43.2319,"lon":5.39986,"is_reserved":false,"is_disabled":false,"rental_uris":{"android":"levelo://app?vid=24990dba-cb5c-44e3-b39e-9413cf954095","ios":"levelo://app?vid=24990dba-cb5c-44e3-b39e-9413cf954095"},"vehicle_type_id":"4","last_reported":1726088919,"current_range_meters":21600,"station_id":"ce4bhn12rcd13ifvqgqg","pricing_plan_id":"cebpf4jnsgd1na2vs0mg"},{"bike_id":"36a991a0-2c39-4f40-8c8e-380d339d17d7","system_id":"levelo_inurba_marseille","lat":43.30902,"lon":5.37208,"is_reserved":false,"is_disabled":false,"rental_uris":{"android":"levelo://app?vid=36a991a0-2c39-4f40-8c8e-380d339d17d7","ios":"levelo://app?vid=36a991a0-2c39-4f40-8c8e-380d339d17d7"},"vehicle_type_id":"4","last_reported":1726088919,"current_range_meters":26800,"station_id":"ce4bguh2rcd13ifvqckg","pricing_plan_id":"cebpf4jnsgd1na2vs0mg"},{"bike_id":"f7383583-f6d9-4a1f-9651-744703bbb837","system_id":"levelo_inurba_marseille","lat":43.30802,"lon":5.43535,"is_reserved":false,"is_disabled":false,"rental_uris":{"android":"levelo://app?vid=f7383583-f6d9-4a1f-9651-744703bbb837","ios":"levelo://app?vid=f7383583-f6d9-4a1f-9651-744703bbb837"},"vehicle_type_id":"4","last_reported":1726088919,"current_range_meters":8400,"station_id":"ce4bhph2rcd13ifvqheg","pricing_plan_id":"cebpf4jnsgd1na2vs0mg"},{"bike_id":"ff4f60d0-2f47-42df-af7a-52a06324408c","system_id":"levelo_inurba_marseille","lat":43.28866,"lon":5.39321,"is_reserved":false,"is_disabled":false,"rental_uris":{"android":"levelo://app?vid=ff4f60d0-2f47-42df-af7a-52a06324408c","ios":"levelo://app?vid=ff4f60d0-2f47-42df-af7a-52a06324408c"},"vehicle_type_id":"4","last_reported":1726088919,"current_range_meters":3200,"station_id":"ce4bh2p2rcd13ifvqdi0","pricing_plan_id":"cebpf4jnsgd1na2vs0mg"},{"bike_id":"54fc95fd-2852-4c59-8eea-f3f9eada4067","system_id":"levelo_inurba_marseille","lat":43.28474,"lon":5.3589,"is_reserved":false,"is_disabled":false,"rental_uris":{"android":"levelo://app?vid=54fc95fd-2852-4c59-8eea-f3f9eada4067","ios":"levelo://app?vid=54fc95fd-2852-4c59-8eea-f3f9eada4067"},"vehicle_type_id":"4","last_reported":1726088919,"current_range_meters":30400,"station_id":"ce4bhah2rcd13ifvqei0","pricing_plan_id":"cebpf4jnsgd1na2vs0mg"},{"bike_id":"2cf6c505-4850-445d-aa79-fecfcf094308","system_id":"levelo_inurba_marseille","lat":43.34156,"lon":5.40901,"is_reserved":false,"is_disabled":false,"rental_uris":{"android":"levelo://app?vid=2cf6c505-4850-445d-aa79-fecfcf094308","ios":"levelo://app?vid=2cf6c505-4850-445d-aa79-fecfcf094308"},"vehicle_type_id":"4","last_reported":1726088919,"current_range_meters":38800,"station_id":"ce4bhqh2rcd13ifvqhlg","pricing_plan_id":"cebpf4jnsgd1na2vs0mg"},{"bike_id":"5f8714c2-4691-49c6-af6f-ae88c4dd369a","system_id":"levelo_inurba_marseille","lat":43.28001,"lon":5.40012,"is_reserved":false,"is_disabled":false,"rental_uris":{"android":"levelo://app?vid=5f8714c2-4691-49c6-af6f-ae88c4dd369a","ios":"levelo://app?vid=5f8714c2-4691-49c6-af6f-ae88c4dd369a"},"vehicle_type_id":"4","last_reported":1726088919,"current_range_meters":4400,"station_id":"ce4bho92rcd13ifvqh4g","pricing_plan_id":"cebpf4jnsgd1na2vs0mg"},{"bike_id":"2990fcc6-d23e-44af-b42a-9273d54dc1da","system_id":"levelo_inurba_marseille","lat":43.28931,"lon":5.3641,"is_reserved":false,"is_disabled":false,"rental_uris":{"android":"levelo://app?vid=2990fcc6-d23e-44af-b42a-9273d54dc1da","ios":"levelo://app?vid=2990fcc6-d23e-44af-b42a-9273d54dc1da"},"vehicle_type_id":"4","last_reported":1726088919,"current_range_meters":36400,"station_id":"ce4bhc92rcd13ifvqetg","pricing_plan_id":"cebpf4jnsgd1na2vs0mg"},{"bike_id":"51774a63-e7e6-4deb-b0c6-86c7c36edf31","system_id":"levelo_inurba_marseille","lat":43.28734,"lon":5.36085,"is_reserved":false,"is_disabled":false,"rental_uris":{"android":"levelo://app?vid=51774a63-e7e6-4deb-b0c6-86c7c36edf31","ios":"levelo://app?vid=51774a63-e7e6-4deb-b0c6-86c7c36edf31"},"vehicle_type_id":"4","last_reported":1726088919,"current_range_meters":26000,"station_id":"cki0cbj6b192h4jlfktg","pricing_plan_id":"cebpf4jnsgd1na2vs0mg"},{"bike_id":"86869976-ecff-4195-bafd-afcf61c729dc","system_id":"levelo_inurba_marseille","lat":43.28155,"lon":5.42648,"is_reserved":false,"is_disabled":false,"rental_uris":{"android":"levelo://app?vid=86869976-ecff-4195-bafd-afcf61c729dc","ios":"levelo://app?vid=86869976-ecff-4195-bafd-afcf61c729dc"},"vehicle_type_id":"4","last_reported":1726088919,"current_range_meters":35600,"station_id":"ce4bhnh2rcd13ifvqgug","pricing_plan_id":"cebpf4jnsgd1na2vs0mg"},{"bike_id":"2cd888bf-ec36-424b-a743-7b998951e41e","system_id":"levelo_inurba_marseille","lat":43.25832,"lon":5.39439,"is_reserved":false,"is_disabled":false,"rental_uris":{"android":"levelo://app?vid=2cd888bf-ec36-424b-a743-7b998951e41e","ios":"levelo://app?vid=2cd888bf-ec36-424b-a743-7b998951e41e"},"vehicle_type_id":"4","last_reported":1726088919,"current_range_meters":39200,"station_id":"ce4bhip2rcd13ifvqft0","pricing_plan_id":"cebpf4jnsgd1na2vs0mg"},{"bike_id":"dc346b80-33dd-4e8d-bd17-85fcf95d706f","system_id":"levelo_inurba_marseille","lat":43.33613,"lon":5.41035,"is_reserved":false,"is_disabled":false,"rental_uris":{"android":"levelo://app?vid=dc346b80-33dd-4e8d-bd17-85fcf95d706f","ios":"levelo://app?vid=dc346b80-33dd-4e8d-bd17-85fcf95d706f"},"vehicle_type_id":"4","last_reported":1726088919,"current_range_meters":27200,"station_id":"ce4bhqh2rcd13ifvqhmg","pricing_plan_id":"cebpf4jnsgd1na2vs0mg"},{"bike_id":"c097fc37-870d-4768-ab94-ae87094395af","system_id":"levelo_inurba_marseille","lat":43.31756,"lon":5.39023,"is_reserved":false,"is_disabled":false,"rental_uris":{"android":"levelo://app?vid=c097fc37-870d-4768-ab94-ae87094395af","ios":"levelo://app?vid=c097fc37-870d-4768-ab94-ae87094395af"},"vehicle_type_id":"4","last_reported":1726088919,"current_range_meters":21600,"station_id":"ce4bhqp2rcd13ifvqhng","pricing_plan_id":"cebpf4jnsgd1na2vs0mg"},{"bike_id":"ac397521-116e-4968-8552-bc290d7f4bf6","system_id":"levelo_inurba_marseille","lat":43.2783,"lon":5.392,"is_reserved":false,"is_disabled":false,"rental_uris":{"android":"levelo://app?vid=ac397521-116e-4968-8552-bc290d7f4bf6","ios":"levelo://app?vid=ac397521-116e-4968-8552-bc290d7f4bf6"},"vehicle_type_id":"4","last_reported":1726088919,"current_range_meters":35600,"station_id":"ce4bhjp2rcd13ifvqga0","pricing_plan_id":"cebpf4jnsgd1na2vs0mg"},{"bike_id":"2d00abd8-6131-4a2a-8ce1-4f64b5e97d45","system_id":"levelo_inurba_marseille","lat":43.24676,"lon":5.38156,"is_reserved":false,"is_disabled":false,"rental_uris":{"android":"levelo://app?vid=2d00abd8-6131-4a2a-8ce1-4f64b5e97d45","ios":"levelo://app?vid=2d00abd8-6131-4a2a-8ce1-4f64b5e97d45"},"vehicle_type_id":"4","last_reported":1726088919,"current_range_meters":17200,"station_id":"ce4bhih2rcd13ifvqfr0","pricing_plan_id":"cebpf4jnsgd1na2vs0mg"},{"bike_id":"e89939ad-b3ff-4373-8849-95825f6ad315","system_id":"levelo_inurba_marseille","lat":43.28573,"lon":5.39499,"is_reserved":false,"is_disabled":false,"rental_uris":{"android":"levelo://app?vid=e89939ad-b3ff-4373-8849-95825f6ad315","ios":"levelo://app?vid=e89939ad-b3ff-4373-8849-95825f6ad315"},"vehicle_type_id":"4","last_reported":1726088919,"current_range_meters":36000,"station_id":"ce4bh292rcd13ifvqdg0","pricing_plan_id":"cebpf4jnsgd1na2vs0mg"},{"bike_id":"f400d370-a20e-4ced-86f0-64f62510749c","system_id":"levelo_inurba_marseille","lat":43.3237,"lon":5.38926,"is_reserved":false,"is_disabled":false,"rental_uris":{"android":"levelo://app?vid=f400d370-a20e-4ced-86f0-64f62510749c","ios":"levelo://app?vid=f400d370-a20e-4ced-86f0-64f62510749c"},"vehicle_type_id":"4","last_reported":1726088919,"current_range_meters":12400,"station_id":"","pricing_plan_id":"cebpf4jnsgd1na2vs0mg"},{"bike_id":"c648adae-edd0-4062-98a2-2eb15f195c82","system_id":"levelo_inurba_marseille","lat":43.30443,"lon":5.38903,"is_reserved":false,"is_disabled":false,"rental_uris":{"android":"levelo://app?vid=c648adae-edd0-4062-98a2-2eb15f195c82","ios":"levelo://app?vid=c648adae-edd0-4062-98a2-2eb15f195c82"},"vehicle_type_id":"4","last_reported":1726088919,"current_range_meters":25600,"station_id":"ce4bgk12rcd13ifvqbi0","pricing_plan_id":"cebpf4jnsgd1na2vs0mg"},{"bike_id":"b5e980e2-3619-401e-bbd1-349e3aaf8a12","system_id":"levelo_inurba_marseille","lat":43.24672,"lon":5.38167,"is_reserved":false,"is_disabled":false,"rental_uris":{"android":"levelo://app?vid=b5e980e2-3619-401e-bbd1-349e3aaf8a12","ios":"levelo://app?vid=b5e980e2-3619-401e-bbd1-349e3aaf8a12"},"vehicle_type_id":"4","last_reported":1726088919,"current_range_meters":39200,"station_id":"ce4bhih2rcd13ifvqfr0","pricing_plan_id":"cebpf4jnsgd1na2vs0mg"},{"bike_id":"3c7e2569-50e4-43f2-a3c4-8e919a6856b2","system_id":"levelo_inurba_marseille","lat":43.28035,"lon":5.36958,"is_reserved":false,"is_disabled":false,"rental_uris":{"android":"levelo://app?vid=3c7e2569-50e4-43f2-a3c4-8e919a6856b2","ios":"levelo://app?vid=3c7e2569-50e4-43f2-a3c4-8e919a6856b2"},"vehicle_type_id":"4","last_reported":1726088919,"current_range_meters":28800,"station_id":"ce4bha12rcd13ifvqef0","pricing_plan_id":"cebpf4jnsgd1na2vs0mg"},{"bike_id":"693a8a68-24a2-4859-9697-adff1b55320a","system_id":"levelo_inurba_marseille","lat":43.31332,"lon":5.39695,"is_reserved":false,"is_disabled":false,"rental_uris":{"android":"levelo://app?vid=693a8a68-24a2-4859-9697-adff1b55320a","ios":"levelo://app?vid=693a8a68-24a2-4859-9697-adff1b55320a"},"vehicle_type_id":"4","last_reported":1726088919,"current_range_meters":28800,"station_id":"ce4bgvp2rcd13ifvqcu0","pricing_plan_id":"cebpf4jnsgd1na2vs0mg"},{"bike_id":"109c0077-7dcb-4af3-8996-3dc7be5e60ff","system_id":"levelo_inurba_marseille","lat":43.25125,"lon":5.40317,"is_reserved":false,"is_disabled":false,"rental_uris":{"android":"levelo://app?vid=109c0077-7dcb-4af3-8996-3dc7be5e60ff","ios":"levelo://app?vid=109c0077-7dcb-4af3-8996-3dc7be5e60ff"},"vehicle_type_id":"4","last_reported":1726088919,"current_range_meters":39200,"station_id":"ce4bhlh2rcd13ifvqgig","pricing_plan_id":"cebpf4jnsgd1na2vs0mg"},{"bike_id":"143049cf-4830-4219-a121-2a60df83aa5d","system_id":"levelo_inurba_marseille","lat":43.337444,"lon":5.374475,"is_reserved":false,"is_disabled":false,"rental_uris":{"android":"levelo://app?vid=143049cf-4830-4219-a121-2a60df83aa5d","ios":"levelo://app?vid=143049cf-4830-4219-a121-2a60df83aa5d"},"vehicle_type_id":"4","last_reported":1726088919,"current_range_meters":30800,"station_id":"","pricing_plan_id":"cebpf4jnsgd1na2vs0mg"},{"bike_id":"a7e7422c-1f60-44de-8a1a-16176eb7e9bb","system_id":"levelo_inurba_marseille","lat":43.31272,"lon":5.4018,"is_reserved":false,"is_disabled":false,"rental_uris":{"android":"levelo://app?vid=a7e7422c-1f60-44de-8a1a-16176eb7e9bb","ios":"levelo://app?vid=a7e7422c-1f60-44de-8a1a-16176eb7e9bb"},"vehicle_type_id":"4","last_reported":1726088919,"current_range_meters":36400,"station_id":"ce4bh092rcd13ifvqd30","pricing_plan_id":"cebpf4jnsgd1na2vs0mg"},{"bike_id":"1f06ecf4-437a-428b-b95e-d957937db09e","system_id":"levelo_inurba_marseille","lat":43.29265,"lon":5.40907,"is_reserved":false,"is_disabled":false,"rental_uris":{"android":"levelo://app?vid=1f06ecf4-437a-428b-b95e-d957937db09e","ios":"levelo://app?vid=1f06ecf4-437a-428b-b95e-d957937db09e"},"vehicle_type_id":"4","last_reported":1726088919,"current_range_meters":4400,"station_id":"ce4bh192rcd13ifvqdc0","pricing_plan_id":"cebpf4jnsgd1na2vs0mg"},{"bike_id":"3b3bee2d-7053-4676-8fc4-7bcf9f853937","system_id":"levelo_inurba_marseille","lat":43.32285,"lon":5.38284,"is_reserved":false,"is_disabled":false,"rental_uris":{"android":"levelo://app?vid=3b3bee2d-7053-4676-8fc4-7bcf9f853937","ios":"levelo://app?vid=3b3bee2d-7053-4676-8fc4-7bcf9f853937"},"vehicle_type_id":"4","last_reported":1726088919,"current_range_meters":38800,"station_id":"ce4bhr12rcd13ifvqhqg","pricing_plan_id":"cebpf4jnsgd1na2vs0mg"},{"bike_id":"be683ab2-b847-4396-80fe-4d8f97fe5b3a","system_id":"levelo_inurba_marseille","lat":43.28161,"lon":5.42647,"is_reserved":false,"is_disabled":false,"rental_uris":{"android":"levelo://app?vid=be683ab2-b847-4396-80fe-4d8f97fe5b3a","ios":"levelo://app?vid=be683ab2-b847-4396-80fe-4d8f97fe5b3a"},"vehicle_type_id":"4","last_reported":1726088919,"current_range_meters":28800,"station_id":"ce4bhnh2rcd13ifvqgug","pricing_plan_id":"cebpf4jnsgd1na2vs0mg"},{"bike_id":"70d82921-7ba3-4c72-97c3-047c419025e0","system_id":"levelo_inurba_marseille","lat":43.306596,"lon":5.400803,"is_reserved":false,"is_disabled":false,"rental_uris":{"android":"levelo://app?vid=70d82921-7ba3-4c72-97c3-047c419025e0","ios":"levelo://app?vid=70d82921-7ba3-4c72-97c3-047c419025e0"},"vehicle_type_id":"4","last_reported":1726088919,"current_range_meters":24000,"station_id":"ce4bh112rcd13ifvqda0","pricing_plan_id":"cebpf4jnsgd1na2vs0mg"},{"bike_id":"4d801d30-664d-4075-a602-3948f9fa7911","system_id":"levelo_inurba_marseille","lat":43.27816,"lon":5.40715,"is_reserved":false,"is_disabled":false,"rental_uris":{"android":"levelo://app?vid=4d801d30-664d-4075-a602-3948f9fa7911","ios":"levelo://app?vid=4d801d30-664d-4075-a602-3948f9fa7911"},"vehicle_type_id":"4","last_reported":1726088919,"current_range_meters":36800,"station_id":"ce4bhnh2rcd13ifvqgtg","pricing_plan_id":"cebpf4jnsgd1na2vs0mg"},{"bike_id":"d95f91b3-685d-40d4-b9e1-0282665758c8","system_id":"levelo_inurba_marseille","lat":43.24672,"lon":5.38165,"is_reserved":false,"is_disabled":false,"rental_uris":{"android":"levelo://app?vid=d95f91b3-685d-40d4-b9e1-0282665758c8","ios":"levelo://app?vid=d95f91b3-685d-40d4-b9e1-0282665758c8"},"vehicle_type_id":"4","last_reported":1726088919,"current_range_meters":4400,"station_id":"ce4bhih2rcd13ifvqfr0","pricing_plan_id":"cebpf4jnsgd1na2vs0mg"},{"bike_id":"a0886e4c-9e92-41d1-98a8-edeea3cec731","system_id":"levelo_inurba_marseille","lat":43.33614,"lon":5.4104,"is_reserved":false,"is_disabled":false,"rental_uris":{"android":"levelo://app?vid=a0886e4c-9e92-41d1-98a8-edeea3cec731","ios":"levelo://app?vid=a0886e4c-9e92-41d1-98a8-edeea3cec731"},"vehicle_type_id":"4","last_reported":1726088919,"current_range_meters":22800,"station_id":"ce4bhqh2rcd13ifvqhmg","pricing_plan_id":"cebpf4jnsgd1na2vs0mg"},{"bike_id":"3d298cd3-4bd7-44eb-8726-ca29b59c9eb2","system_id":"levelo_inurba_marseille","lat":43.28111,"lon":5.37839,"is_reserved":false,"is_disabled":false,"rental_uris":{"android":"levelo://app?vid=3d298cd3-4bd7-44eb-8726-ca29b59c9eb2","ios":"levelo://app?vid=3d298cd3-4bd7-44eb-8726-ca29b59c9eb2"},"vehicle_type_id":"4","last_reported":1726088919,"current_range_meters":39200,"station_id":"ce4bha12rcd13ifvqee0","pricing_plan_id":"cebpf4jnsgd1na2vs0mg"},{"bike_id":"cec131b6-6c84-4899-9723-159f4b060af5","system_id":"levelo_inurba_marseille","lat":43.31705,"lon":5.37664,"is_reserved":false,"is_disabled":false,"rental_uris":{"android":"levelo://app?vid=cec131b6-6c84-4899-9723-159f4b060af5","ios":"levelo://app?vid=cec131b6-6c84-4899-9723-159f4b060af5"},"vehicle_type_id":"4","last_reported":1726088919,"current_range_meters":6000,"station_id":"","pricing_plan_id":"cebpf4jnsgd1na2vs0mg"},{"bike_id":"f2b3b549-7f8a-4eae-b464-4b6623533f44","system_id":"levelo_inurba_marseille","lat":43.33749,"lon":5.37451,"is_reserved":false,"is_disabled":false,"rental_uris":{"android":"levelo://app?vid=f2b3b549-7f8a-4eae-b464-4b6623533f44","ios":"levelo://app?vid=f2b3b549-7f8a-4eae-b464-4b6623533f44"},"vehicle_type_id":"4","last_reported":1726088919,"current_range_meters":30800,"station_id":"","pricing_plan_id":"cebpf4jnsgd1na2vs0mg"},{"bike_id":"5506403e-5d36-43e7-bcdf-c4f77af02653","system_id":"levelo_inurba_marseille","lat":43.3026,"lon":5.4008,"is_reserved":false,"is_disabled":false,"rental_uris":{"android":"levelo://app?vid=5506403e-5d36-43e7-bcdf-c4f77af02653","ios":"levelo://app?vid=5506403e-5d36-43e7-bcdf-c4f77af02653"},"vehicle_type_id":"4","last_reported":1726088919,"current_range_meters":32000,"station_id":"ce4bgvh2rcd13ifvqcs0","pricing_plan_id":"cebpf4jnsgd1na2vs0mg"},{"bike_id":"c3e1dafc-4267-4cb7-95bf-481c0201e229","system_id":"levelo_inurba_marseille","lat":43.25831,"lon":5.3943,"is_reserved":false,"is_disabled":false,"rental_uris":{"android":"levelo://app?vid=c3e1dafc-4267-4cb7-95bf-481c0201e229","ios":"levelo://app?vid=c3e1dafc-4267-4cb7-95bf-481c0201e229"},"vehicle_type_id":"4","last_reported":1726088919,"current_range_meters":20400,"station_id":"ce4bhip2rcd13ifvqft0","pricing_plan_id":"cebpf4jnsgd1na2vs0mg"},{"bike_id":"7758185f-0c4e-46ce-9ac8-147614b78430","system_id":"levelo_inurba_marseille","lat":43.29035,"lon":5.37554,"is_reserved":false,"is_disabled":false,"rental_uris":{"android":"levelo://app?vid=7758185f-0c4e-46ce-9ac8-147614b78430","ios":"levelo://app?vid=7758185f-0c4e-46ce-9ac8-147614b78430"},"vehicle_type_id":"4","last_reported":1726088919,"current_range_meters":31200,"station_id":"ce4bh692rcd13ifvqe90","pricing_plan_id":"cebpf4jnsgd1na2vs0mg"},{"bike_id":"b1f61873-d694-4abc-98af-27b6cc343ecd","system_id":"levelo_inurba_marseille","lat":43.31319,"lon":5.39703,"is_reserved":false,"is_disabled":false,"rental_uris":{"android":"levelo://app?vid=b1f61873-d694-4abc-98af-27b6cc343ecd","ios":"levelo://app?vid=b1f61873-d694-4abc-98af-27b6cc343ecd"},"vehicle_type_id":"4","last_reported":1726088919,"current_range_meters":35600,"station_id":"ce4bgvp2rcd13ifvqcu0","pricing_plan_id":"cebpf4jnsgd1na2vs0mg"},{"bike_id":"beac5734-e1a9-4bf5-bd98-5a5aa5d81d2b","system_id":"levelo_inurba_marseille","lat":43.29203,"lon":5.39336,"is_reserved":false,"is_disabled":false,"rental_uris":{"android":"levelo://app?vid=beac5734-e1a9-4bf5-bd98-5a5aa5d81d2b","ios":"levelo://app?vid=beac5734-e1a9-4bf5-bd98-5a5aa5d81d2b"},"vehicle_type_id":"4","last_reported":1726088919,"current_range_meters":37600,"station_id":"ce4bh192rcd13ifvqdd0","pricing_plan_id":"cebpf4jnsgd1na2vs0mg"},{"bike_id":"8de97c49-3cb4-4419-920a-6dad2547512d","system_id":"levelo_inurba_marseille","lat":43.27925,"lon":5.39582,"is_reserved":false,"is_disabled":false,"rental_uris":{"android":"levelo://app?vid=8de97c49-3cb4-4419-920a-6dad2547512d","ios":"levelo://app?vid=8de97c49-3cb4-4419-920a-6dad2547512d"},"vehicle_type_id":"4","last_reported":1726088919,"current_range_meters":38800,"station_id":"ce4bhf92rcd13ifvqf40","pricing_plan_id":"cebpf4jnsgd1na2vs0mg"},{"bike_id":"fffbd652-9d9a-47e9-892c-68dc09e02ddb","system_id":"levelo_inurba_marseille","lat":43.24087,"lon":5.37744,"is_reserved":false,"is_disabled":false,"rental_uris":{"android":"levelo://app?vid=fffbd652-9d9a-47e9-892c-68dc09e02ddb","ios":"levelo://app?vid=fffbd652-9d9a-47e9-892c-68dc09e02ddb"},"vehicle_type_id":"4","last_reported":1726088919,"current_range_meters":31200,"station_id":"ce4bhnp2rcd13ifvqgvg","pricing_plan_id":"cebpf4jnsgd1na2vs0mg"},{"bike_id":"23456880-74b4-4977-83dd-98d8404ca8d6","system_id":"levelo_inurba_marseille","lat":43.27072,"lon":5.42279,"is_reserved":false,"is_disabled":false,"rental_uris":{"android":"levelo://app?vid=23456880-74b4-4977-83dd-98d8404ca8d6","ios":"levelo://app?vid=23456880-74b4-4977-83dd-98d8404ca8d6"},"vehicle_type_id":"4","last_reported":1726088919,"current_range_meters":36000,"station_id":"ce4bhk92rcd13ifvqgb0","pricing_plan_id":"cebpf4jnsgd1na2vs0mg"},{"bike_id":"a0a148a0-3ff4-4c3e-b861-f993675c022d","system_id":"levelo_inurba_marseille","lat":43.24075,"lon":5.37764,"is_reserved":false,"is_disabled":false,"rental_uris":{"android":"levelo://app?vid=a0a148a0-3ff4-4c3e-b861-f993675c022d","ios":"levelo://app?vid=a0a148a0-3ff4-4c3e-b861-f993675c022d"},"vehicle_type_id":"4","last_reported":1726088919,"current_range_meters":8400,"station_id":"ce4bhnp2rcd13ifvqgvg","pricing_plan_id":"cebpf4jnsgd1na2vs0mg"},{"bike_id":"b5c6c76e-03fc-4943-960a-3378f76aecf2","system_id":"levelo_inurba_marseille","lat":43.29448,"lon":5.39758,"is_reserved":false,"is_disabled":false,"rental_uris":{"android":"levelo://app?vid=b5c6c76e-03fc-4943-960a-3378f76aecf2","ios":"levelo://app?vid=b5c6c76e-03fc-4943-960a-3378f76aecf2"},"vehicle_type_id":"4","last_reported":1726088919,"current_range_meters":39200,"station_id":"ce4bh3h2rcd13ifvqdo0","pricing_plan_id":"cebpf4jnsgd1na2vs0mg"},{"bike_id":"fef90997-36c3-4e75-88fa-27da0e1cadcd","system_id":"levelo_inurba_marseille","lat":43.29261,"lon":5.40908,"is_reserved":false,"is_disabled":false,"rental_uris":{"android":"levelo://app?vid=fef90997-36c3-4e75-88fa-27da0e1cadcd","ios":"levelo://app?vid=fef90997-36c3-4e75-88fa-27da0e1cadcd"},"vehicle_type_id":"4","last_reported":1726088919,"current_range_meters":25200,"station_id":"ce4bh192rcd13ifvqdc0","pricing_plan_id":"cebpf4jnsgd1na2vs0mg"},{"bike_id":"c1a52399-72f6-43f3-a209-526627a73018","system_id":"levelo_inurba_marseille","lat":43.28371,"lon":5.38647,"is_reserved":false,"is_disabled":false,"rental_uris":{"android":"levelo://app?vid=c1a52399-72f6-43f3-a209-526627a73018","ios":"levelo://app?vid=c1a52399-72f6-43f3-a209-526627a73018"},"vehicle_type_id":"4","last_reported":1726088919,"current_range_meters":8800,"station_id":"ce4bh492rcd13ifvqdvg","pricing_plan_id":"cebpf4jnsgd1na2vs0mg"},{"bike_id":"1b798f21-a5c3-4d13-b023-b90a7963bd8b","system_id":"levelo_inurba_marseille","lat":43.29205,"lon":5.39329,"is_reserved":false,"is_disabled":false,"rental_uris":{"android":"levelo://app?vid=1b798f21-a5c3-4d13-b023-b90a7963bd8b","ios":"levelo://app?vid=1b798f21-a5c3-4d13-b023-b90a7963bd8b"},"vehicle_type_id":"4","last_reported":1726088919,"current_range_meters":38800,"station_id":"ce4bh192rcd13ifvqdd0","pricing_plan_id":"cebpf4jnsgd1na2vs0mg"},{"bike_id":"2ac1ce92-e83f-48c1-8be0-35e4da4cb98f","system_id":"levelo_inurba_marseille","lat":43.24185,"lon":5.39733,"is_reserved":false,"is_disabled":false,"rental_uris":{"android":"levelo://app?vid=2ac1ce92-e83f-48c1-8be0-35e4da4cb98f","ios":"levelo://app?vid=2ac1ce92-e83f-48c1-8be0-35e4da4cb98f"},"vehicle_type_id":"4","last_reported":1726088919,"current_range_meters":20800,"station_id":"ce4bhn12rcd13ifvqgpg","pricing_plan_id":"cebpf4jnsgd1na2vs0mg"},{"bike_id":"39a8f548-b837-4270-b538-c9947c89ff37","system_id":"levelo_inurba_marseille","lat":43.2455,"lon":5.39525,"is_reserved":false,"is_disabled":false,"rental_uris":{"android":"levelo://app?vid=39a8f548-b837-4270-b538-c9947c89ff37","ios":"levelo://app?vid=39a8f548-b837-4270-b538-c9947c89ff37"},"vehicle_type_id":"4","last_reported":1726088919,"current_range_meters":20400,"station_id":"ce4bhlp2rcd13ifvqgjg","pricing_plan_id":"cebpf4jnsgd1na2vs0mg"},