{"last_updated":1742479807,"ttl":60,"version":"2.2","data":{"bikes":[{"bike_id":"6a01d35b-27fc-49e9-962c-6b5cad105822","system_id":"levelo_inurba_marseille","lat":43.30934,"lon":5.39052,"is_reserved":false,"is_disabled":false,"rental_uris":{"android":"levelo://app?vid=6a01d35b-27fc-49e9-962c-6b5cad105822","ios":"levelo://app?vid=6a01d35b-27fc-49e9-962c-6b5cad105822"},"vehicle_type_id":"4","last_reported":1742479807,"current_range_meters":2800,"station_id":"ce4bgup2rcd13ifvqco0","pricing_plan_id":"cebpf4jnsgd1na2vs0mg"},{"bike_id":"316a70b1-dcf4-457b-8d7f-0285a7e6bf48","system_id":"levelo_inurba_marseille","lat":43.2923,"lon":5.37151,"is_reserved":false,"is_disabled":false,"rental_uris":{"android":"levelo://app?vid=316a70b1-dcf4-457b-8d7f-0285a7e6bf48","ios":"levelo://app?vid=316a70b1-dcf4-457b-8d7f-0285a7e6bf48"},"vehicle_type_id":"4","last_reported":1742479807,"current_range_meters":2800,"station_id":"ce4bgrp2rcd13ifvqc9g","pricing_plan_id":"cebpf4jnsgd1na2vs0mg"},{"bike_id":"f2dc44ab-4460-4ae6-9e8f-1abed24c55ae","system_id":"levelo_inurba_marseille","lat":43.27173,"lon":5.40998,"is_reserved":false,"is_disabled":false,"rental_uris":{"android":"levelo://app?vid=f2dc44ab-4460-4ae6-9e8f-1abed24c55ae","ios":"levelo://app?vid=f2dc44ab-4460-4ae6-9e8f-1abed24c55ae"},"vehicle_type_id":"4","last_reported":1742479807,"current_range_meters":2800,"station_id":"ce4bhl12rcd13ifvqgf0","pricing_plan_id":"cebpf4jnsgd1na2vs0mg"},{"bike_id":"877b50da-d813-486a-afd5-931ac2390ec8","system_id":"levelo_inurba_marseille","lat":43.2992,"lon":5.38544,"is_reserved":false,"is_disabled":false,"rental_uris":{"android":"levelo://app?vid=877b50da-d813-486a-afd5-931ac2390ec8","ios":"levelo://app?vid=877b50da-d813-486a-afd5-931ac2390ec8"},"vehicle_type_id":"4","last_reported":1742479807,"current_range_meters":3200,"station_id":"","pricing_plan_id":"cebpf4jnsgd1na2vs0mg"},{"bike_id":"a342afa1-fe1b-4de5-8f98-f3f81167fac6","system_id":"levelo_inurba_marseille","lat":43.22934,"lon":5.35368,"is_reserved":false,"is_disabled":false,"rental_uris":{"android":"levelo://app?vid=a342afa1-fe1b-4de5-8f98-f3f81167fac6","ios":"levelo://app?vid=a342afa1-fe1b-4de5-8f98-f3f81167fac6"},"vehicle_type_id":"4","last_reported":1742479807,"current_range_meters":3200,"station_id":"cpo3532slgdg3j2ikp40","pricing_plan_id":"cebpf4jnsgd1na2vs0mg"},{"bike_id":"6c25cfbd-1f7a-41b1-9966-98ff041098e0","system_id":"levelo_inurba_marseille","lat":43.27376,"lon":5.36255,"is_reserved":false,"is_disabled":false,"rental_uris":{"android":"levelo://app?vid=6c25cfbd-1f7a-41b1-9966-98ff041098e0","ios":"levelo://app?vid=6c25cfbd-1f7a-41b1-9966-98ff041098e0"},"vehicle_type_id":"4","last_reported":1742479807,"current_range_meters":3200,"station_id":"ce4bhbh2rcd13ifvqeo0","pricing_plan_id":"cebpf4jnsgd1na2vs0mg"},{"bike_id":"00843a9d-3ec5-4fa5-9157-0b59f195aafd","system_id":"levelo_inurba_marseille","lat":43.26573,"lon":5.39011,"is_reserved":false,"is_disabled":false,"rental_uris":{"android":"levelo://app?vid=00843a9d-3ec5-4fa5-9157-0b59f195aafd","ios":"levelo://app?vid=00843a9d-3ec5-4fa5-9157-0b59f195aafd"},"vehicle_type_id":"4","last_reported":1742479807,"current_range_meters":3200,"station_id":"ce4bhe12rcd13ifvqf30","pricing_plan_id":"cebpf4jnsgd1na2vs0mg"},{"bike_id":"ce28ec21-fe4c-4faa-8e7e-ce9767bd4ded","system_id":"levelo_inurba_marseille","lat":43.25828,"lon":5.39432,"is_reserved":false,"is_disabled":false,"rental_uris":{"android":"levelo://app?vid=ce28ec21-fe4c-4faa-8e7e-ce9767bd4ded","ios":"levelo://app?vid=ce28ec21-fe4c-4faa-8e7e-ce9767bd4ded"},"vehicle_type_id":"4","last_reported":1742479807,"current_range_meters":3200,"station_id":"ce4bhip2rcd13ifvqft0","pricing_plan_id":"cebpf4jnsgd1na2vs0mg"},{"bike_id":"af4c47ca-9253-4b5a-90a6-b76c4796915b","system_id":"levelo_inurba_marseille","lat":43.31267,"lon":5.4015,"is_reserved":false,"is_disabled":false,"rental_uris":{"android":"levelo://app?vid=af4c47ca-9253-4b5a-90a6-b76c4796915b","ios":"levelo://app?vid=af4c47ca-9253-4b5a-90a6-b76c4796915b"},"vehicle_type_id":"4","last_reported":1742479807,"current_range_meters":3200,"station_id":"ce4bh092rcd13ifvqd30","pricing_plan_id":"cebpf4jnsgd1na2vs0mg"},{"bike_id":"002f7e31-f376-4a90-8a25-ff3a5a693a19","system_id":"levelo_inurba_marseille","lat":43.26689,"lon":5.38278,"is_reserved":false,"is_disabled":false,"rental_uris":{"android":"levelo://app?vid=002f7e31-f376-4a90-8a25-ff3a5a693a19","ios":"levelo://app?vid=002f7e31-f376-4a90-8a25-ff3a5a693a19"},"vehicle_type_id":"4","last_reported":1742479807,"current_range_meters":3200,"station_id":"ce4bhg92rcd13ifvqf90","pricing_plan_id":"cebpf4jnsgd1na2vs0mg"},{"bike_id":"71dff211-587c-48fd-b820-f4b0f1f384a3","system_id":"levelo_inurba_marseille","lat":43.2876,"lon":5.3723,"is_reserved":false,"is_disabled":false,"rental_uris":{"android":"levelo://app?vid=71dff211-587c-48fd-b820-f4b0f1f384a3","ios":"levelo://app?vid=71dff211-587c-48fd-b820-f4b0f1f384a3"},"vehicle_type_id":"4","last_reported":1742479807,"current_range_meters":3600,"station_id":"ce4bh3p2rcd13ifvqdq0","pricing_plan_id":"cebpf4jnsgd1na2vs0mg"},{"bike_id":"293089b4-dcf0-4672-9c32-bbd688d949e9","system_id":"levelo_inurba_marseille","lat":43.31349,"lon":5.397,"is_reserved":false,"is_disabled":false,"rental_uris":{"android":"levelo://app?vid=293089b4-dcf0-4672-9c32-bbd688d949e9","ios":"levelo://app?vid=293089b4-dcf0-4672-9c32-bbd688d949e9"},"vehicle_type_id":"4","last_reported":1742479807,"current_range_meters":3600,"station_id":"ce4bgvp2rcd13ifvqcu0","pricing_plan_id":"cebpf4jnsgd1na2vs0mg"},{"bike_id":"23138128-b611-4075-87c8-71599f58b265","system_id":"levelo_inurba_marseille","lat":43.287785,"lon":5.362519,"is_reserved":false,"is_disabled":false,"rental_uris":{"android":"levelo://app?vid=23138128-b611-4075-87c8-71599f58b265","ios":"levelo://app?vid=23138128-b611-4075-87c8-71599f58b265"},"vehicle_type_id":"4","last_reported":1742479807,"current_range_meters":3600,"station_id":"cki0cbj6b192h4jlfktg","pricing_plan_id":"cebpf4jnsgd1na2vs0mg"},{"bike_id":"97678fe8-68f4-4ad6-9af8-34a7931474e9","system_id":"levelo_inurba_marseille","lat":43.28362,"lon":5.38636,"is_reserved":false,"is_disabled":false,"rental_uris":{"android":"levelo://app?vid=97678fe8-68f4-4ad6-9af8-34a7931474e9","ios":"levelo://app?vid=97678fe8-68f4-4ad6-9af8-34a7931474e9"},"vehicle_type_id":"4","last_reported":1742479807,"current_range_meters":3600,"station_id":"ce4bh492rcd13ifvqdvg","pricing_plan_id":"cebpf4jnsgd1na2vs0mg"},{"bike_id":"6e8b95b1-8856-49e5-81dd-69de6c1cf2a2","system_id":"levelo_inurba_marseille","lat":43.32351,"lon":5.3889,"is_reserved":false,"is_disabled":false,"rental_uris":{"android":"levelo://app?vid=6e8b95b1-8856-49e5-81dd-69de6c1cf2a2","ios":"levelo://app?vid=6e8b95b1-8856-49e5-81dd-69de6c1cf2a2"},"vehicle_type_id":"4","last_reported":1742479807,"current_range_meters":4000,"station_id":"ce4bhqp2rcd13ifvqhog","pricing_plan_id":"cebpf4jnsgd1na2vs0mg"},{"bike_id":"5b3ff475-ca55-448f-8b2b-049578202de3","system_id":"levelo_inurba_marseille","lat":43.2928,"lon":5.40125,"is_reserved":false,"is_disabled":false,"rental_uris":{"android":"levelo://app?vid=5b3ff475-ca55-448f-8b2b-049578202de3","ios":"levelo://app?vid=5b3ff475-ca55-448f-8b2b-049578202de3"},"vehicle_type_id":"4","last_reported":1742479807,"current_range_meters":4000,"station_id":"ce4bh312rcd13ifvqdk0","pricing_plan_id":"cebpf4jnsgd1na2vs0mg"},{"bike_id":"fc1892c1-5043-4f30-aa08-a6825c6bf2ab","system_id":"levelo_inurba_marseille","lat":43.27222,"lon":5.39164,"is_reserved":false,"is_disabled":false,"rental_uris":{"android":"levelo://app?vid=fc1892c1-5043-4f30-aa08-a6825c6bf2ab","ios":"levelo://app?vid=fc1892c1-5043-4f30-aa08-a6825c6bf2ab"},"vehicle_type_id":"4","last_reported":1742479807,"current_range_meters":4000,"station_id":"ce4bhhp2rcd13ifvqfm0","pricing_plan_id":"cebpf4jnsgd1na2vs0mg"},{"bike_id":"770a8d6d-1953-448c-92f8-5b95b03d16a0","system_id":"levelo_inurba_marseille","lat":43.2319,"lon":5.35548,"is_reserved":false,"is_disabled":false,"rental_uris":{"android":"levelo://app?vid=770a8d6d-1953-448c-92f8-5b95b03d16a0","ios":"levelo://app?vid=770a8d6d-1953-448c-92f8-5b95b03d16a0"},"vehicle_type_id":"4","last_reported":1742479807,"current_range_meters":4000,"station_id":"ce4bhu92rcd13ifvqi70","pricing_plan_id":"cebpf4jnsgd1na2vs0mg"},{"bike_id":"6104af7c-6dc7-41e8-a24c-c63b4579f8ab","system_id":"levelo_inurba_marseille","lat":43.32046,"lon":5.41573,"is_reserved":false,"is_disabled":false,"rental_uris":{"android":"levelo://app?vid=6104af7c-6dc7-41e8-a24c-c63b4579f8ab","ios":"levelo://app?vid=6104af7c-6dc7-41e8-a24c-c63b4579f8ab"},"vehicle_type_id":"4","last_reported":1742479807,"current_range_meters":4000,"station_id":"ce4bhq92rcd13ifvqhkg","pricing_plan_id":"cebpf4jnsgd1na2vs0mg"},{"bike_id":"37c15726-71e2-4d07-a1f1-43b0f4d634b3","system_id":"levelo_inurba_marseille","lat":43.29262,"lon":5.4091,"is_reserved":false,"is_disabled":false,"rental_uris":{"android":"levelo://app?vid=37c15726-71e2-4d07-a1f1-43b0f4d634b3","ios":"levelo://app?vid=37c15726-71e2-4d07-a1f1-43b0f4d634b3"},"vehicle_type_id":"4","last_reported":1742479807,"current_range_meters":4000,"station_id":"ce4bh192rcd13ifvqdc0","pricing_plan_id":"cebpf4jnsgd1na2vs0mg"},{"bike_id":"6edf5ddf-b385-40b8-a114-663c0765f059","system_id":"levelo_inurba_marseille","lat":43.2843,"lon":5.39191,"is_reserved":false,"is_disabled":false,"rental_uris":{"android":"levelo://app?vid=6edf5ddf-b385-40b8-a114-663c0765f059","ios":"levelo://app?vid=6edf5ddf-b385-40b8-a114-663c0765f059"},"vehicle_type_id":"4","last_reported":1742479807,"current_range_meters":4400,"station_id":"ce4bhoh2rcd13ifvqh5g","pricing_plan_id":"cebpf4jnsgd1na2vs0mg"},{"bike_id":"3c0f86bf-2134-4462-a7ab-79aaede557c9","system_id":"levelo_inurba_marseille","lat":43.31712,"lon":5.43709,"is_reserved":false,"is_disabled":false,"rental_uris":{"android":"levelo://app?vid=3c0f86bf-2134-4462-a7ab-79aaede557c9","ios":"levelo://app?vid=3c0f86bf-2134-4462-a7ab-79aaede557c9"},"vehicle_type_id":"4","last_reported":1742479807,"current_range_meters":4400,"station_id":"ce4bhp92rcd13ifvqhcg","pricing_plan_id":"cebpf4jnsgd1na2vs0mg"},{"bike_id":"0d844f3b-b121-4520-bf77-a4f5f90a6492","system_id":"levelo_inurba_marseille","lat":43.23954,"lon":5.36649,"is_reserved":false,"is_disabled":false,"rental_uris":{"android":"levelo://app?vid=0d844f3b-b121-4520-bf77-a4f5f90a6492","ios":"levelo://app?vid=0d844f3b-b121-4520-bf77-a4f5f90a6492"},"vehicle_type_id":"4","last_reported":1742479807,"current_range_meters":4400,"station_id":"ce4bhi12rcd13ifvqfp0","pricing_plan_id":"cebpf4jnsgd1na2vs0mg"},{"bike_id":"6026a6c5-1fd5-40c0-a5de-2dd9350002e1","system_id":"levelo_inurba_marseille","lat":43.31341,"lon":5.36719,"is_reserved":false,"is_disabled":false,"rental_uris":{"android":"levelo://app?vid=6026a6c5-1fd5-40c0-a5de-2dd9350002e1","ios":"levelo://app?vid=6026a6c5-1fd5-40c0-a5de-2dd9350002e1"},"vehicle_type_id":"4","last_reported":1742479807,"current_range_meters":4800,"station_id":"ce4bgr92rcd13ifvqc6g","pricing_plan_id":"cebpf4jnsgd1na2vs0mg"},{"bike_id":"50c954ca-534e-44cb-b298-4b0e6941aece","system_id":"levelo_inurba_marseille","lat":43.27182,"lon":5.40991,"is_reserved":false,"is_disabled":false,"rental_uris":{"android":"levelo://app?vid=50c954ca-534e-44cb-b298-4b0e6941aece","ios":"levelo://app?vid=50c954ca-534e-44cb-b298-4b0e6941aece"},"vehicle_type_id":"4","last_reported":1742479807,"current_range_meters":4800,"station_id":"ce4bhl12rcd13ifvqgf0","pricing_plan_id":"cebpf4jnsgd1na2vs0mg"},{"bike_id":"a045fb2a-2587-4994-9868-0340a87c6827","system_id":"levelo_inurba_marseille","lat":43.24672,"lon":5.38169,"is_reserved":false,"is_disabled":false,"rental_uris":{"android":"levelo://app?vid=a045fb2a-2587-4994-9868-0340a87c6827","ios":"levelo://app?vid=a045fb2a-2587-4994-9868-0340a87c6827"},"vehicle_type_id":"4","last_reported":1742479807,"current_range_meters":4800,"station_id":"ce4bhih2rcd13ifvqfr0","pricing_plan_id":"cebpf4jnsgd1na2vs0mg"},{"bike_id":"c91333b4-a5e1-431d-9e59-399477910306","system_id":"levelo_inurba_marseille","lat":43.28481,"lon":5.3842,"is_reserved":false,"is_disabled":false,"rental_uris":{"android":"levelo://app?vid=c91333b4-a5e1-431d-9e59-399477910306","ios":"levelo://app?vid=c91333b4-a5e1-431d-9e59-399477910306"},"vehicle_type_id":"4","last_reported":1742479807,"current_range_meters":5600,"station_id":"ce4bh512rcd13ifvqe3g","pricing_plan_id":"cebpf4jnsgd1na2vs0mg"},{"bike_id":"f4f1b281-5e09-4545-ac9f-5d3a5a5072a3","system_id":"levelo_inurba_marseille","lat":43.26228,"lon":5.40463,"is_reserved":false,"is_disabled":false,"rental_uris":{"android":"levelo://app?vid=f4f1b281-5e09-4545-ac9f-5d3a5a5072a3","ios":"levelo://app?vid=f4f1b281-5e09-4545-ac9f-5d3a5a5072a3"},"vehicle_type_id":"4","last_reported":1742479807,"current_range_meters":5600,"station_id":"ce4bhmh2rcd13ifvqgmg","pricing_plan_id":"cebpf4jnsgd1na2vs0mg"},{"bike_id":"d2b8be9a-9db4-47b5-8a71-21a29067547f","system_id":"levelo_inurba_marseille","lat":43.28947,"lon":5.36636,"is_reserved":false,"is_disabled":false,"rental_uris":{"android":"levelo://app?vid=d2b8be9a-9db4-47b5-8a71-21a29067547f","ios":"levelo://app?vid=d2b8be9a-9db4-47b5-8a71-21a29067547f"},"vehicle_type_id":"4","last_reported":1742479807,"current_range_meters":5600,"station_id":"ce4bhap2rcd13ifvqek0","pricing_plan_id":"cebpf4jnsgd1na2vs0mg"},{"bike_id":"7281c9ed-92ac-4a63-9c67-eff51afa89ba","system_id":"levelo_inurba_marseille","lat":43.27317,"lon":5.39085,"is_reserved":false,"is_disabled":false,"rental_uris":{"android":"levelo://app?vid=7281c9ed-92ac-4a63-9c67-eff51afa89ba","ios":"levelo://app?vid=7281c9ed-92ac-4a63-9c67-eff51afa89ba"},"vehicle_type_id":"4","last_reported":1742479807,"current_range_meters":4800,"station_id":"ce4bhgp2rcd13ifvqfe0","pricing_plan_id":"cebpf4jnsgd1na2vs0mg"},{"bike_id":"8f4aba26-310a-4061-907d-dd7bcaaf0b61","system_id":"levelo_inurba_marseille","lat":43.23188,"lon":5.40001,"is_reserved":false,"is_disabled":false,"rental_uris":{"android":"levelo://app?vid=8f4aba26-310a-4061-907d-dd7bcaaf0b61","ios":"levelo://app?vid=8f4aba26-310a-4061-907d-dd7bcaaf0b61"},"vehicle_type_id":"4","last_reported":1742479807,"current_range_meters":6000,"station_id":"ce4bhn12rcd13ifvqgqg","pricing_plan_id":"cebpf4jnsgd1na2vs0mg"},{"bike_id":"eb1150f3-3317-42ed-829e-f29cf3de9ad5","system_id":"levelo_inurba_marseille","lat":43.27497,"lon":5.4246,"is_reserved":false,"is_disabled":false,"rental_uris":{"android":"levelo://app?vid=eb1150f3-3317-42ed-829e-f29cf3de9ad5","ios":"levelo://app?vid=eb1150f3-3317-42ed-829e-f29cf3de9ad5"},"vehicle_type_id":"4","last_reported":1742479807,"current_range_meters":6000,"station_id":"ce4bhn92rcd13ifvqgrg","pricing_plan_id":"cebpf4jnsgd1na2vs0mg"},{"bike_id":"7c9cf1fe-d9a2-4001-a629-fcc670d7bf93","system_id":"levelo_inurba_marseille","lat":43.32668,"lon":5.40999,"is_reserved":false,"is_disabled":false,"rental_uris":{"android":"levelo://app?vid=7c9cf1fe-d9a2-4001-a629-fcc670d7bf93","ios":"levelo://app?vid=7c9cf1fe-d9a2-4001-a629-fcc670d7bf93"},"vehicle_type_id":"4","last_reported":1742479807,"current_range_meters":6000,"station_id":"ce4bhpp2rcd13ifvqhgg","pricing_plan_id":"cebpf4jnsgd1na2vs0mg"},{"bike_id":"80937476-76a2-44fb-bfd6-8b81e2498280","system_id":"levelo_inurba_marseille","lat":43.30915,"lon":5.36852,"is_reserved":false,"is_disabled":false,"rental_uris":{"android":"levelo://app?vid=80937476-76a2-44fb-bfd6-8b81e2498280","ios":"levelo://app?vid=80937476-76a2-44fb-bfd6-8b81e2498280"},"vehicle_type_id":"4","last_reported":1742479807,"current_range_meters":6000,"station_id":"ce4bgn92rcd13ifvqbvg","pricing_plan_id":"cebpf4jnsgd1na2vs0mg"},{"bike_id":"0134c4eb-cb81-45fb-8190-07fb52725b22","system_id":"levelo_inurba_marseille","lat":43.27181,"lon":5.40989,"is_reserved":false,"is_disabled":false,"rental_uris":{"android":"levelo://app?vid=0134c4eb-cb81-45fb-8190-07fb52725b22","ios":"levelo://app?vid=0134c4eb-cb81-45fb-8190-07fb52725b22"},"vehicle_type_id":"4","last_reported":1742479807,"current_range_meters":6000,"station_id":"ce4bhl12rcd13ifvqgf0","pricing_plan_id":"cebpf4jnsgd1na2vs0mg"},{"bike_id":"5d6040da-a22d-4644-92cc-c182b7481377","system_id":"levelo_inurba_marseille","lat":43.2718,"lon":5.40992,"is_reserved":false,"is_disabled":false,"rental_uris":{"android":"levelo://app?vid=5d6040da-a22d-4644-92cc-c182b7481377","ios":"levelo://app?vid=5d6040da-a22d-4644-92cc-c182b7481377"},"vehicle_type_id":"4","last_reported":1742479807,"current_range_meters":6400,"station_id":"ce4bhl12rcd13ifvqgf0","pricing_plan_id":"cebpf4jnsgd1na2vs0mg"},{"bike_id":"e0acd047-5d11-4818-8efb-54e47c1b506a","system_id":"levelo_inurba_marseille","lat":43.29105,"lon":5.38127,"is_reserved":false,"is_disabled":false,"rental_uris":{"android":"levelo://app?vid=e0acd047-5d11-4818-8efb-54e47c1b506a","ios":"levelo://app?vid=e0acd047-5d11-4818-8efb-54e47c1b506a"},"vehicle_type_id":"4","last_reported":1742479807,"current_range_meters":6400,"station_id":"ce4bh512rcd13ifvqe2g","pricing_plan_id":"cebpf4jnsgd1na2vs0mg"},{"bike_id":"89e77184-82ea-48be-911d-cf4c00043d5b","system_id":"levelo_inurba_marseille","lat":43.3009,"lon":5.39077,"is_reserved":false,"is_disabled":false,"rental_uris":{"android":"levelo://app?vid=89e77184-82ea-48be-911d-cf4c00043d5b","ios":"levelo://app?vid=89e77184-82ea-48be-911d-cf4c00043d5b"},"vehicle_type_id":"4","last_reported":1742479807,"current_range_meters":6400,"station_id":"ce4bh192rcd13ifvqdb0","pricing_plan_id":"cebpf4jnsgd1na2vs0mg"},{"bike_id":"3455258b-4135-46b9-9a26-10bf95160e40","system_id":"levelo_inurba_marseille","lat":43.23194,"lon":5.35555,"is_reserved":false,"is_disabled":false,"rental_uris":{"android":"levelo://app?vid=3455258b-4135-46b9-9a26-10bf95160e40","ios":"levelo://app?vid=3455258b-4135-46b9-9a26-10bf95160e40"},"vehicle_type_id":"4","last_reported":1742479807,"current_range_meters":6400,"station_id":"ce4bhu92rcd13ifvqi70","pricing_plan_id":"cebpf4jnsgd1na2vs0mg"},{"bike_id":"c403edea-75e8-41a8-a98f-77e0078b6964","system_id":"levelo_inurba_marseille","lat":43.30153,"lon":5.38086,"is_reserved":false,"is_disabled":false,"rental_uris":{"android":"levelo://app?vid=c403edea-75e8-41a8-a98f-77e0078b6964","ios":"levelo://app?vid=c403edea-75e8-41a8-a98f-77e0078b6964"},"vehicle_type_id":"4","last_reported":1742479807,"current_range_meters":6400,"station_id":"ce4bgjp2rcd13ifvqbh0","pricing_plan_id":"cebpf4jnsgd1na2vs0mg"},{"bike_id":"30448cfc-53ac-4088-86ed-3a624fbeb1f7","system_id":"levelo_inurba_marseille","lat":43.23968,"lon":5.36621,"is_reserved":false,"is_disabled":false,"rental_uris":{"android":"levelo://app?vid=30448cfc-53ac-4088-86ed-3a624fbeb1f7","ios":"levelo://app?vid=30448cfc-53ac-4088-86ed-3a624fbeb1f7"},"vehicle_type_id":"4","last_reported":1742479807,"current_range_meters":6400,"station_id":"ce4bhi12rcd13ifvqfp0","pricing_plan_id":"cebpf4jnsgd1na2vs0mg"},{"bike_id":"0054eef3-ee29-4a36-ab07-3d96b8ef5456","system_id":"levelo_inurba_marseille","lat":43.2871,"lon":5.37933,"is_reserved":false,"is_disabled":false,"rental_uris":{"android":"levelo://app?vid=0054eef3-ee29-4a36-ab07-3d96b8ef5456","ios":"levelo://app?vid=0054eef3-ee29-4a36-ab07-3d96b8ef5456"},"vehicle_type_id":"4","last_reported":1742479807,"current_range_meters":6400,"station_id":"ce4bh9p2rcd13ifvqec0","pricing_plan_id":"cebpf4jnsgd1na2vs0mg"},{"bike_id":"516a14f2-e527-4a6d-99db-d5ad118faf7c","system_id":"levelo_inurba_marseille","lat":43.25929,"lon":5.40879,"is_reserved":false,"is_disabled":false,"rental_uris":{"android":"levelo://app?vid=516a14f2-e527-4a6d-99db-d5ad118faf7c","ios":"levelo://app?vid=516a14f2-e527-4a6d-99db-d5ad118faf7c"},"vehicle_type_id":"4","last_reported":1742479807,"current_range_meters":6400,"station_id":"ce4bhm92rcd13ifvqglg","pricing_plan_id":"cebpf4jnsgd1na2vs0mg"},{"bike_id":"06d3f1c0-f428-429d-9ab3-e931004fbba8","system_id":"levelo_inurba_marseille","lat":43.27504,"lon":5.42451,"is_reserved":false,"is_disabled":false,"rental_uris":{"android":"levelo://app?vid=06d3f1c0-f428-429d-9ab3-e931004fbba8","ios":"levelo://app?vid=06d3f1c0-f428-429d-9ab3-e931004fbba8"},"vehicle_type_id":"4","last_reported":1742479807,"current_range_meters":6400,"station_id":"ce4bhn92rcd13ifvqgrg","pricing_plan_id":"cebpf4jnsgd1na2vs0mg"},{"bike_id":"3058eb37-35b9-4277-898b-f9025638e045","system_id":"levelo_inurba_marseille","lat":43.25934,"lon":5.409,"is_reserved":false,"is_disabled":false,"rental_uris":{"android":"levelo://app?vid=3058eb37-35b9-4277-898b-f9025638e045","ios":"levelo://app?vid=3058eb37-35b9-4277-898b-f9025638e045"},"vehicle_type_id":"4","last_reported":1742479807,"current_range_meters":6800,"station_id":"ce4bhm92rcd13ifvqglg","pricing_plan_id":"cebpf4jnsgd1na2vs0mg"},{"bike_id":"0f0379d0-9e31-4d59-aa71-1b8fef29c39c","system_id":"levelo_inurba_marseille","lat":43.25726,"lon":5.4111,"is_reserved":false,"is_disabled":false,"rental_uris":{"android":"levelo://app?vid=0f0379d0-9e31-4d59-aa71-1b8fef29c39c","ios":"levelo://app?vid=0f0379d0-9e31-4d59-aa71-1b8fef29c39c"},"vehicle_type_id":"4","last_reported":1742479807,"current_range_meters":6800,"station_id":"ce4bhkp2rcd13ifvqgd0","pricing_plan_id":"cebpf4jnsgd1na2vs0mg"},{"bike_id":"d45aa902-4bcb-471b-8a0f-8cdc3416ec8c","system_id":"levelo_inurba_marseille","lat":43.27619,"lon":5.36104,"is_reserved":false,"is_disabled":false,"rental_uris":{"android":"levelo://app?vid=d45aa902-4bcb-471b-8a0f-8cdc3416ec8c","ios":"levelo://app?vid=d45aa902-4bcb-471b-8a0f-8cdc3416ec8c"},"vehicle_type_id":"4","last_reported":1742479807,"current_range_meters":6800,"station_id":"ce4bgj92rcd13ifvqbe0","pricing_plan_id":"cebpf4jnsgd1na2vs0mg"},{"bike_id":"be01b7c8-af71-412f-9da3-ca0c2f5a71d4","system_id":"levelo_inurba_marseille","lat":43.31077,"lon":5.38357,"is_reserved":false,"is_disabled":false,"rental_uris":{"android":"levelo://app?vid=be01b7c8-af71-412f-9da3-ca0c2f5a71d4","ios":"levelo://app?vid=be01b7c8-af71-412f-9da3-ca0c2f5a71d4"},"vehicle_type_id":"4","last_reported":1742479807,"current_range_meters":6800,"station_id":"ce4bgv92rcd13ifvqcr0","pricing_plan_id":"cebpf4jnsgd1na2vs0mg"},{"bike_id":"5d4ca67a-fa62-481d-be64-072aea44ee68","system_id":"levelo_inurba_marseille","lat":43.28936,"lon":5.36648,"is_reserved":false,"is_disabled":false,"rental_uris":{"android":"levelo://app?vid=5d4ca67a-fa62-481d-be64-072aea44ee68","ios":"levelo://app?vid=5d4ca67a-fa62-481d-be64-072aea44ee68"},"vehicle_type_id":"4","last_reported":1742479807,"current_range_meters":6800,"station_id":"ce4bhap2rcd13ifvqek0","pricing_plan_id":"cebpf4jnsgd1na2vs0mg"},{"bike_id":"ee87f031-6d3b-4a2a-ac4f-80f1ab09529a","system_id":"levelo_inurba_marseille","lat":43.23147,"lon":5.43701,"is_reserved":false,"is_disabled":false,"rental_uris":{"android":"levelo://app?vid=ee87f031-6d3b-4a2a-ac4f-80f1ab09529a","ios":"levelo://app?vid=ee87f031-6d3b-4a2a-ac4f-80f1ab09529a"},"vehicle_type_id":"4","last_reported":1742479807,"current_range_meters":6800,"station_id":"ce4bhmp2rcd13ifvqgog","pricing_plan_id":"cebpf4jnsgd1na2vs0mg"},{"bike_id":"feee4f95-eaad-4cb7-a78d-fc3c31261f89","system_id":"levelo_inurba_marseille","lat":43.24691,"lon":5.38158,"is_reserved":false,"is_disabled":false,"rental_uris":{"android":"levelo://app?vid=feee4f95-eaad-4cb7-a78d-fc3c31261f89","ios":"levelo://app?vid=feee4f95-eaad-4cb7-a78d-fc3c31261f89"},"vehicle_type_id":"4","last_reported":1742479807,"current_range_meters":6800,"station_id":"ce4bhih2rcd13ifvqfr0","pricing_plan_id":"cebpf4jnsgd1na2vs0mg"},{"bike_id":"1fea0b3c-94ab-41af-b18e-d9bbaa7dda49","system_id":"levelo_inurba_marseille","lat":43.31714,"lon":5.43699,"is_reserved":false,"is_disabled":false,"rental_uris":{"android":"levelo://app?vid=1fea0b3c-94ab-41af-b18e-d9bbaa7dda49","ios":"levelo://app?vid=1fea0b3c-94ab-41af-b18e-d9bbaa7dda49"},"vehicle_type_id":"4","last_reported":1742479807,"current_range_meters":6800,"station_id":"ce4bhp92rcd13ifvqhcg","pricing_plan_id":"cebpf4jnsgd1na2vs0mg"},{"bike_id":"35971730-6c6f-4719-99f2-a8cdad28de63","system_id":"levelo_inurba_marseille","lat":43.299009,"lon":5.436537,"is_reserved":false,"is_disabled":false,"rental_uris":{"android":"levelo://app?vid=35971730-6c6f-4719-99f2-a8cdad28de63","ios":"levelo://app?vid=35971730-6c6f-4719-99f2-a8cdad28de63"},"vehicle_type_id":"4","last_reported":1742479807,"current_range_meters":6800,"station_id":"ce4bhpp2rcd13ifvqhfg","pricing_plan_id":"cebpf4jnsgd1na2vs0mg"},{"bike_id":"ea91aac8-fd90-4aa0-97fd-ec515209a88f","system_id":"levelo_inurba_marseille","lat":43.27979,"lon":5.38762,"is_reserved":false,"is_disabled":false,"rental_uris":{"android":"levelo://app?vid=ea91aac8-fd90-4aa0-97fd-ec515209a88f","ios":"levelo://app?vid=ea91aac8-fd90-4aa0-97fd-ec515209a88f"},"vehicle_type_id":"4","last_reported":1742479807,"current_range_meters":6800,"station_id":"ce4bhg12rcd13ifvqf80","pricing_plan_id":"cebpf4jnsgd1na2vs0mg"},{"bike_id":"c76a4d35-3f4b-4728-a54f-decfdc407403","system_id":"levelo_inurba_marseille","lat":43.246659,"lon":5.381607,"is_reserved":false,"is_disabled":false,"rental_uris":{"android":"levelo://app?vid=c76a4d35-3f4b-4728-a54f-decfdc407403","ios":"levelo://app?vid=c76a4d35-3f4b-4728-a54f-decfdc407403"},"vehicle_type_id":"4","last_reported":1742479807,"current_range_meters":7200,"station_id":"ce4bhih2rcd13ifvqfr0","pricing_plan_id":"cebpf4jnsgd1na2vs0mg"},{"bike_id":"a27e9e25-06bf-4175-9bd6-9c00c02ad86d","system_id":"levelo_inurba_marseille","lat":43.24405,"lon":5.37064,"is_reserved":false,"is_disabled":false,"rental_uris":{"android":"levelo://app?vid=a27e9e25-06bf-4175-9bd6-9c00c02ad86d","ios":"levelo://app?vid=a27e9e25-06bf-4175-9bd6-9c00c02ad86d"},"vehicle_type_id":"4","last_reported":1742479807,"current_range_meters":7200,"station_id":"ce4bhhh2rcd13ifvqfk0","pricing_plan_id":"cebpf4jnsgd1na2vs0mg"},{"bike_id":"d96160e5-8d5b-4a20-ab7c-388f9914087a","system_id":"levelo_inurba_marseille","lat":43.27318,"lon":5.39117,"is_reserved":false,"is_disabled":false,"rental_uris":{"android":"levelo://app?vid=d96160e5-8d5b-4a20-ab7c-388f9914087a","ios":"levelo://app?vid=d96160e5-8d5b-4a20-ab7c-388f9914087a"},"vehicle_type_id":"4","last_reported":1742479807,"current_range_meters":7200,"station_id":"ce4bhgp2rcd13ifvqfe0","pricing_plan_id":"cebpf4jnsgd1na2vs0mg"},{"bike_id":"02f43b01-3b74-45fa-a40e-2df823c84cda","system_id":"levelo_inurba_marseille","lat":43.24191,"lon":5.39712,"is_reserved":false,"is_disabled":false,"rental_uris":{"android":"levelo://app?vid=02f43b01-3b74-45fa-a40e-2df823c84cda","ios":"levelo://app?vid=02f43b01-3b74-45fa-a40e-2df823c84cda"},"vehicle_type_id":"4","last_reported":1742479807,"current_range_meters":7200,"station_id":"ce4bhn12rcd13ifvqgpg","pricing_plan_id":"cebpf4jnsgd1na2vs0mg"},{"bike_id":"f8e532d6-e317-445d-91cb-19a6e01b4151","system_id":"levelo_inurba_marseille","lat":43.25933,"lon":5.40899,"is_reserved":false,"is_disabled":false,"rental_uris":{"android":"levelo://app?vid=f8e532d6-e317-445d-91cb-19a6e01b4151","ios":"levelo://app?vid=f8e532d6-e317-445d-91cb-19a6e01b4151"},"vehicle_type_id":"4","last_reported":1742479807,"current_range_meters":7200,"station_id":"ce4bhm92rcd13ifvqglg","pricing_plan_id":"cebpf4jnsgd1na2vs0mg"},{"bike_id":"24a62d5a-3514-4888-880e-8a2f7f2046a9","system_id":"levelo_inurba_marseille","lat":43.24071,"lon":5.37752,"is_reserved":false,"is_disabled":false,"rental_uris":{"android":"levelo://app?vid=24a62d5a-3514-4888-880e-8a2f7f2046a9","ios":"levelo://app?vid=24a62d5a-3514-4888-880e-8a2f7f2046a9"},"vehicle_type_id":"4","last_reported":1742479807,"current_range_meters":7200,"station_id":"ce4bhnp2rcd13ifvqgvg","pricing_plan_id":"cebpf4jnsgd1na2vs0mg"},{"bike_id":"c22de885-16c5-4c6e-b1c1-bd13bb312ed1","system_id":"levelo_inurba_marseille","lat":43.23068,"lon":5.35498,"is_reserved":false,"is_disabled":false,"rental_uris":{"android":"levelo://app?vid=c22de885-16c5-4c6e-b1c1-bd13bb312ed1","ios":"levelo://app?vid=c22de885-16c5-4c6e-b1c1-bd13bb312ed1"},"vehicle_type_id":"4","last_reported":1742479807,"current_range_meters":7200,"station_id":"cpo3342slgdg3j2ifvpg","pricing_plan_id":"cebpf4jnsgd1na2vs0mg"},{"bike_id":"26a32adc-4cec-4fa6-8e7c-13ceddf1d741","system_id":"levelo_inurba_marseille","lat":43.28402,"lon":5.37514,"is_reserved":false,"is_disabled":false,"rental_uris":{"android":"levelo://app?vid=26a32adc-4cec-4fa6-8e7c-13ceddf1d741","ios":"levelo://app?vid=26a32adc-4cec-4fa6-8e7c-13ceddf1d741"},"vehicle_type_id":"4","last_reported":1742479807,"current_range_meters":8000,"station_id":"ce4bh412rcd13ifvqds0","pricing_plan_id":"cebpf4jnsgd1na2vs0mg"},{"bike_id":"a8b8dae1-87ef-4f8a-a2c8-fe9fd9bf0f77","system_id":"levelo_inurba_marseille","lat":43.2353,"lon":5.37761,"is_reserved":false,"is_disabled":false,"rental_uris":{"android":"levelo://app?vid=a8b8dae1-87ef-4f8a-a2c8-fe9fd9bf0f77","ios":"levelo://app?vid=a8b8dae1-87ef-4f8a-a2c8-fe9fd9bf0f77"},"vehicle_type_id":"4","last_reported":1742479807,"current_range_meters":8000,"station_id":"","pricing_plan_id":"cebpf4jnsgd1na2vs0mg"},{"bike_id":"51303281-4f04-43e8-b00c-08d0d12305ef","system_id":"levelo_inurba_marseille","lat":43.32638,"lon":5.40955,"is_reserved":false,"is_disabled":false,"rental_uris":{"android":"levelo://app?vid=51303281-4f04-43e8-b00c-08d0d12305ef","ios":"levelo://app?vid=51303281-4f04-43e8-b00c-08d0d12305ef"},"vehicle_type_id":"4","last_reported":1742479807,"current_range_meters":8000,"station_id":"ce4bhpp2rcd13ifvqhgg","pricing_plan_id":"cebpf4jnsgd1na2vs0mg"},{"bike_id":"bfd67b10-fd7c-4b25-bc6e-0830b23c1f4b","system_id":"levelo_inurba_marseille","lat":43.2583,"lon":5.39444,"is_reserved":false,"is_disabled":false,"rental_uris":{"android":"levelo://app?vid=bfd67b10-fd7c-4b25-bc6e-0830b23c1f4b","ios":"levelo://app?vid=bfd67b10-fd7c-4b25-bc6e-0830b23c1f4b"},"vehicle_type_id":"4","last_reported":1742479807,"current_range_meters":8000,"station_id":"ce4bhip2rcd13ifvqft0","pricing_plan_id":"cebpf4jnsgd1na2vs0mg"},{"bike_id":"9d26c008-8ec1-4269-9cd2-f45774f03ccb","system_id":"levelo_inurba_marseille","lat":43.27986,"lon":5.37948,"is_reserved":false,"is_disabled":false,"rental_uris":{"android":"levelo://app?vid=9d26c008-8ec1-4269-9cd2-f45774f03ccb","ios":"levelo://app?vid=9d26c008-8ec1-4269-9cd2-f45774f03ccb"},"vehicle_type_id":"4","last_reported":1742479807,"current_range_meters":8000,"station_id":"","pricing_plan_id":"cebpf4jnsgd1na2vs0mg"},{"bike_id":"ace03f6b-f2d6-45e9-8357-f872c39bd7e9","system_id":"levelo_inurba_marseille","lat":43.23194,"lon":5.35555,"is_reserved":false,"is_disabled":false,"rental_uris":{"android":"levelo://app?vid=ace03f6b-f2d6-45e9-8357-f872c39bd7e9","ios":"levelo://app?vid=ace03f6b-f2d6-45e9-8357-f872c39bd7e9"},"vehicle_type_id":"4","last_reported":1742479807,"current_range_meters":8000,"station_id":"ce4bhu92rcd13ifvqi70","pricing_plan_id":"cebpf4jnsgd1na2vs0mg"},{"bike_id":"6eb98e18-92f8-411c-92c0-82d5569fb85c","system_id":"levelo_inurba_marseille","lat":43.32362,"lon":5.36749,"is_reserved":false,"is_disabled":false,"rental_uris":{"android":"levelo://app?vid=6eb98e18-92f8-411c-92c0-82d5569fb85c","ios":"levelo://app?vid=6eb98e18-92f8-411c-92c0-82d5569fb85c"},"vehicle_type_id":"4","last_reported":1742479807,"current_range_meters":8400,"station_id":"ce4bhsh2rcd13ifvqi2g","pricing_plan_id":"cebpf4jnsgd1na2vs0mg"},{"bike_id":"e2373ad1-2b50-4dc9-9234-06298adab2ab","system_id":"levelo_inurba_marseille","lat":43.27317,"lon":5.39084,"is_reserved":false,"is_disabled":false,"rental_uris":{"android":"levelo://app?vid=e2373ad1-2b50-4dc9-9234-06298adab2ab","ios":"levelo://app?vid=e2373ad1-2b50-4dc9-9234-06298adab2ab"},"vehicle_type_id":"4","last_reported":1742479807,"current_range_meters":8400,"station_id":"ce4bhgp2rcd13ifvqfe0","pricing_plan_id":"cebpf4jnsgd1na2vs0mg"},{"bike_id":"f4c4bf6d-48a4-4198-942b-eda89b945e41","system_id":"levelo_inurba_marseille","lat":43.27377,"lon":5.36256,"is_reserved":false,"is_disabled":false,"rental_uris":{"android":"levelo://app?vid=f4c4bf6d-48a4-4198-942b-eda89b945e41","ios":"levelo://app?vid=f4c4bf6d-48a4-4198-942b-eda89b945e41"},"vehicle_type_id":"4","last_reported":1742479807,"current_range_meters":8400,"station_id":"ce4bhbh2rcd13ifvqeo0","pricing_plan_id":"cebpf4jnsgd1na2vs0mg"},{"bike_id":"ed5cea79-0bea-4c86-8c80-f8de23687c7f","system_id":"levelo_inurba_marseille","lat":43.27492,"lon":5.43985,"is_reserved":false,"is_disabled":false,"rental_uris":{"android":"levelo://app?vid=ed5cea79-0bea-4c86-8c80-f8de23687c7f","ios":"levelo://app?vid=ed5cea79-0bea-4c86-8c80-f8de23687c7f"},"vehicle_type_id":"4","last_reported":1742479807,"current_range_meters":8400,"station_id":"","pricing_plan_id":"cebpf4jnsgd1na2vs0mg"},{"bike_id":"5f468083-4325-4bf5-8a57-449036f6052a","system_id":"levelo_inurba_marseille","lat":43.309479,"lon":5.390165,"is_reserved":false,"is_disabled":false,"rental_uris":{"android":"levelo://app?vid=5f468083-4325-4bf5-8a57-449036f6052a","ios":"levelo://app?vid=5f468083-4325-4bf5-8a57-449036f6052a"},"vehicle_type_id":"4","last_reported":1742479807,"current_range_meters":8000,"station_id":"ce4bgup2rcd13ifvqco0","pricing_plan_id":"cebpf4jnsgd1na2vs0mg"},{"bike_id":"a0acd976-b4f4-4737-9f66-09d652177ef4","system_id":"levelo_inurba_marseille","lat":43.26927,"lon":5.38901,"is_reserved":false,"is_disabled":false,"rental_uris":{"android":"levelo://app?vid=a0acd976-b4f4-4737-9f66-09d652177ef4","ios":"levelo://app?vid=a0acd976-b4f4-4737-9f66-09d652177ef4"},"vehicle_type_id":"4","last_reported":1742479807,"current_range_meters":8400,"station_id":"ce4bhhh2rcd13ifvqfl0","pricing_plan_id":"cebpf4jnsgd1na2vs0mg"},{"bike_id":"b7d7f342-1a92-4d45-8c3a-58d5270f4a90","system_id":"levelo_inurba_marseille","lat":43.2594,"lon":5.40899,"is_reserved":false,"is_disabled":false,"rental_uris":{"android":"levelo://app?vid=b7d7f342-1a92-4d45-8c3a-58d5270f4a90","ios":"levelo://app?vid=b7d7f342-1a92-4d45-8c3a-58d5270f4a90"},"vehicle_type_id":"4","last_reported":1742479807,"current_range_meters":8400,"station_id":"ce4bhm92rcd13ifvqglg","pricing_plan_id":"cebpf4jnsgd1na2vs0mg"},{"bike_id":"98591ddb-482a-4ee5-9c50-96b6f3404234","system_id":"levelo_inurba_marseille","lat":43.29229,"lon":5.36059,"is_reserved":false,"is_disabled":false,"rental_uris":{"android":"levelo://app?vid=98591ddb-482a-4ee5-9c50-96b6f3404234","ios":"levelo://app?vid=98591ddb-482a-4ee5-9c50-96b6f3404234"},"vehicle_type_id":"4","last_reported":1742479807,"current_range_meters":8400,"station_id":"ce4bhbh2rcd13ifvqeqg","pricing_plan_id":"cebpf4jnsgd1na2vs0mg"},{"bike_id":"f73ea29f-f283-48fd-b3f6-955c325c870d","system_id":"levelo_inurba_marseille","lat":43.25939,"lon":5.40903,"is_reserved":false,"is_disabled":false,"rental_uris":{"android":"levelo://app?vid=f73ea29f-f283-48fd-b3f6-955c325c870d","ios":"levelo://app?vid=f73ea29f-f283-48fd-b3f6-955c325c870d"},"vehicle_type_id":"4","last_reported":1742479807,"current_range_meters":8400,"station_id":"ce4bhm92rcd13ifvqglg","pricing_plan_id":"cebpf4jnsgd1na2vs0mg"},{"bike_id":"b7021ac2-ba71-4144-ae8a-7bf630d62fb6","system_id":"levelo_inurba_marseille","lat":43.32039,"lon":5.41563,"is_reserved":false,"is_disabled":false,"rental_uris":{"android":"levelo://app?vid=b7021ac2-ba71-4144-ae8a-7bf630d62fb6","ios":"levelo://app?vid=b7021ac2-ba71-4144-ae8a-7bf630d62fb6"},"vehicle_type_id":"4","last_reported":1742479807,"current_range_meters":8000,"station_id":"ce4bhq92rcd13ifvqhkg","pricing_plan_id":"cebpf4jnsgd1na2vs0mg"},{"bike_id":"176d2e0b-da43-4b98-b92e-b45d4ab12b2f","system_id":"levelo_inurba_marseille","lat":43.30229,"lon":5.38433,"is_reserved":false,"is_disabled":false,"rental_uris":{"android":"levelo://app?vid=176d2e0b-da43-4b98-b92e-b45d4ab12b2f","ios":"levelo://app?vid=176d2e0b-da43-4b98-b92e-b45d4ab12b2f"},"vehicle_type_id":"4","last_reported":1742479807,"current_range_meters":8400,"station_id":"","pricing_plan_id":"cebpf4jnsgd1na2vs0mg"},{"bike_id":"7ade570d-3604-49b0-810a-fdeff6c96512","system_id":"levelo_inurba_marseille","lat":43.29202,"lon":5.39326,"is_reserved":false,"is_disabled":false,"rental_uris":{"android":"levelo://app?vid=7ade570d-3604-49b0-810a-fdeff6c96512","ios":"levelo://app?vid=7ade570d-3604-49b0-810a-fdeff6c96512"},"vehicle_type_id":"4","last_reported":1742479807,"current_range_meters":8800,"station_id":"ce4bh192rcd13ifvqdd0","pricing_plan_id":"cebpf4jnsgd1na2vs0mg"},{"bike_id":"471b8c1a-1a85-4080-b533-fb41f3dbfd81","system_id":"levelo_inurba_marseille","lat":43.23192,"lon":5.35574,"is_reserved":false,"is_disabled":false,"rental_uris":{"android":"levelo://app?vid=471b8c1a-1a85-4080-b533-fb41f3dbfd81","ios":"levelo://app?vid=471b8c1a-1a85-4080-b533-fb41f3dbfd81"},"vehicle_type_id":"4","last_reported":1742479807,"current_range_meters":8800,"station_id":"ce4bhu92rcd13ifvqi70","pricing_plan_id":"cebpf4jnsgd1na2vs0mg"},{"bike_id":"504ee4bc-f94f-46d1-b4aa-bb159ff861b7","system_id":"levelo_inurba_marseille","lat":43.27203,"lon":5.40985,"is_reserved":false,"is_disabled":false,"rental_uris":{"android":"levelo://app?vid=504ee4bc-f94f-46d1-b4aa-bb159ff861b7","ios":"levelo://app?vid=504ee4bc-f94f-46d1-b4aa-bb159ff861b7"},"vehicle_type_id":"4","last_reported":1742479807,"current_range_meters":8800,"station_id":"ce4bhl12rcd13ifvqgf0","pricing_plan_id":"cebpf4jnsgd1na2vs0mg"},{"bike_id":"958ed087-d508-45c3-9970-18102de3afd7","system_id":"levelo_inurba_marseille","lat":43.23969,"lon":5.36637,"is_reserved":false,"is_disabled":false,"rental_uris":{"android":"levelo://app?vid=958ed087-d508-45c3-9970-18102de3afd7","ios":"levelo://app?vid=958ed087-d508-45c3-9970-18102de3afd7"},"vehicle_type_id":"4","last_reported":1742479807,"current_range_meters":8800,"station_id":"ce4bhi12rcd13ifvqfp0","pricing_plan_id":"cebpf4jnsgd1na2vs0mg"},{"bike_id":"671210b1-9e8f-4893-953f-985ab8b97e34","system_id":"levelo_inurba_marseille","lat":43.32108,"lon":5.36767,"is_reserved":false,"is_disabled":false,"rental_uris":{"android":"levelo://app?vid=671210b1-9e8f-4893-953f-985ab8b97e34","ios":"levelo://app?vid=671210b1-9e8f-4893-953f-985ab8b97e34"},"vehicle_type_id":"4","last_reported":1742479807,"current_range_meters":8800,"station_id":"ce4bhrh2rcd13ifvqhug","pricing_plan_id":"cebpf4jnsgd1na2vs0mg"},{"bike_id":"0b74de9f-e2b4-4a02-b6c3-278b27f0b52d","system_id":"levelo_inurba_marseille","lat":43.2315,"lon":5.43714,"is_reserved":false,"is_disabled":false,"rental_uris":{"android":"levelo://app?vid=0b74de9f-e2b4-4a02-b6c3-278b27f0b52d","ios":"levelo://app?vid=0b74de9f-e2b4-4a02-b6c3-278b27f0b52d"},"vehicle_type_id":"4","last_reported":1742479807,"current_range_meters":8800,"station_id":"ce4bhmp2rcd13ifvqgog","pricing_plan_id":"cebpf4jnsgd1na2vs0mg"},{"bike_id":"6d3f830c-4185-4d92-aa5d-1c17ab550c3a","system_id":"levelo_inurba_marseille","lat":43.3212,"lon":5.36777,"is_reserved":false,"is_disabled":false,"rental_uris":{"android":"levelo://app?vid=6d3f830c-4185-4d92-aa5d-1c17ab550c3a","ios":"levelo://app?vid=6d3f830c-4185-4d92-aa5d-1c17ab550c3a"},"vehicle_type_id":"4","last_reported":1742479807,"current_range_meters":9200,"station_id":"ce4bhrh2rcd13ifvqhug","pricing_plan_id":"cebpf4jnsgd1na2vs0mg"},{"bike_id":"8c09415f-84fe-40ab-ba10-9f921ca59ca8","system_id":"levelo_inurba_marseille","lat":43.27423,"lon":5.39418,"is_reserved":false,"is_disabled":false,"rental_uris":{"android":"levelo://app?vid=8c09415f-84fe-40ab-ba10-9f921ca59ca8","ios":"levelo://app?vid=8c09415f-84fe-40ab-ba10-9f921ca59ca8"},"vehicle_type_id":"4","last_reported":1742479807,"current_range_meters":8800,"station_id":"ce4bhdp2rcd13ifvqf20","pricing_plan_id":"cebpf4jnsgd1na2vs0mg"},{"bike_id":"9b2a4ae1-45d2-42a7-b1d8-970226b193d0","system_id":"levelo_inurba_marseille","lat":43.24174,"lon":5.3971,"is_reserved":false,"is_disabled":false,"rental_uris":{"android":"levelo://app?vid=9b2a4ae1-45d2-42a7-b1d8-970226b193d0","ios":"levelo://app?vid=9b2a4ae1-45d2-42a7-b1d8-970226b193d0"},"vehicle_type_id":"4","last_reported":1742479807,"current_range_meters":9200,"station_id":"ce4bhn12rcd13ifvqgpg","pricing_plan_id":"cebpf4jnsgd1na2vs0mg"},{"bike_id":"9f93e99b-2a42-4255-a23d-041ebf559883","system_id":"levelo_inurba_marseille","lat":43.26064,"lon":5.394,"is_reserved":false,"is_disabled":false,"rental_uris":{"android":"levelo://app?vid=9f93e99b-2a42-4255-a23d-041ebf559883","ios":"levelo://app?vid=9f93e99b-2a42-4255-a23d-041ebf559883"},"vehicle_type_id":"4","last_reported":1742479807,"current_range_meters":9200,"station_id":"ce4bhh92rcd13ifvqfj0","pricing_plan_id":"cebpf4jnsgd1na2vs0mg"},{"bike_id":"de84da4a-3571-420d-b198-b16185707696","system_id":"levelo_inurba_marseille","lat":43.2593,"lon":5.40873,"is_reserved":false,"is_disabled":false,"rental_uris":{"android":"levelo://app?vid=de84da4a-3571-420d-b198-b16185707696","ios":"levelo://app?vid=de84da4a-3571-420d-b198-b16185707696"},"vehicle_type_id":"4","last_reported":1742479807,"current_range_meters":9200,"station_id":"ce4bhm92rcd13ifvqglg","pricing_plan_id":"cebpf4jnsgd1na2vs0mg"},{"bike_id":"0ab7b613-0ac9-48c8-b0bb-4a524a87a4bd","system_id":"levelo_inurba_marseille","lat":43.29049,"lon":5.35911,"is_reserved":false,"is_disabled":false,"rental_uris":{"android":"levelo://app?vid=0ab7b613-0ac9-48c8-b0bb-4a524a87a4bd","ios":"levelo://app?vid=0ab7b613-0ac9-48c8-b0bb-4a524a87a4bd"},"vehicle_type_id":"4","last_reported":1742479807,"current_range_meters":9200,"station_id":"ce4bha92rcd13ifvqeg0","pricing_plan_id":"cebpf4jnsgd1na2vs0mg"},{"bike_id":"5bb77139-1578-4a8e-8114-9c0f2450d678","system_id":"levelo_inurba_marseille","lat":43.3055,"lon":5.36529,"is_reserved":false,"is_disabled":true,"rental_uris":{"android":"levelo://app?vid=5bb77139-1578-4a8e-8114-9c0f2450d678","ios":"levelo://app?vid=5bb77139-1578-4a8e-8114-9c0f2450d678"},"vehicle_type_id":"4","last_reported":1742479807,"current_range_meters":9200,"station_id":"ce4bgs12rcd13ifvqcag","pricing_plan_id":"cebpf4jnsgd1na2vs0mg"},{"bike_id":"eeb3a972-c918-4208-9059-236d71c45874","system_id":"levelo_inurba_marseille","lat":43.22928,"lon":5.35374,"is_reserved":false,"is_disabled":false,"rental_uris":{"android":"levelo://app?vid=eeb3a972-c918-4208-9059-236d71c45874","ios":"levelo://app?vid=eeb3a972-c918-4208-9059-236d71c45874"},"vehicle_type_id":"4","last_reported":1742479807,"current_range_meters":8800,"station_id":"cpo3532slgdg3j2ikp40","pricing_plan_id":"cebpf4jnsgd1na2vs0mg"},{"bike_id":"1983241e-dcf4-412a-b965-b9e661a9d6d5","system_id":"levelo_inurba_marseille","lat":43.29822,"lon":5.40183,"is_reserved":false,"is_disabled":false,"rental_uris":{"android":"levelo://app?vid=1983241e-dcf4-412a-b965-b9e661a9d6d5","ios":"levelo://app?vid=1983241e-dcf4-412a-b965-b9e661a9d6d5"},"vehicle_type_id":"4","last_reported":1742479807,"current_range_meters":9200,"station_id":"","pricing_plan_id":"cebpf4jnsgd1na2vs0mg"},{"bike_id":"cb6062cd-3cfa-4917-b79b-5707b99e3c03","system_id":"levelo_inurba_marseille","lat":43.321185,"lon":5.367534,"is_reserved":false,"is_disabled":false,"rental_uris":{"android":"levelo://app?vid=cb6062cd-3cfa-4917-b79b-5707b99e3c03","ios":"levelo://app?vid=cb6062cd-3cfa-4917-b79b-5707b99e3c03"},"vehicle_type_id":"4","last_reported":1742479807,"current_range_meters":9600,"station_id":"ce4bho92rcd13ifvqh3g","pricing_plan_id":"cebpf4jnsgd1na2vs0mg"},{"bike_id":"2b71114a-f108-4918-b5bf-1aa88ebf1246","system_id":"levelo_inurba_marseille","lat":43.28857,"lon":5.35873,"is_reserved":false,"is_disabled":false,"rental_uris":{"android":"levelo://app?vid=2b71114a-f108-4918-b5bf-1aa88ebf1246","ios":"levelo://app?vid=2b71114a-f108-4918-b5bf-1aa88ebf1246"},"vehicle_type_id":"4","last_reported":1742479807,"current_range_meters":9600,"station_id":"ce4bhb12rcd13ifvqem0","pricing_plan_id":"cebpf4jnsgd1na2vs0mg"},{"bike_id":"efb9ed43-dd51-4c99-a034-3cda93bac910","system_id":"levelo_inurba_marseille","lat":43.29935,"lon":5.36533,"is_reserved":false,"is_disabled":false,"rental_uris":{"android":"levelo://app?vid=efb9ed43-dd51-4c99-a034-3cda93bac910","ios":"levelo://app?vid=efb9ed43-dd51-4c99-a034-3cda93bac910"},"vehicle_type_id":"4","last_reported":1742479807,"current_range_meters":9600,"station_id":"ce4bgm92rcd13ifvqbr0","pricing_plan_id":"cebpf4jnsgd1na2vs0mg"},{"bike_id":"aae1ce88-77c2-44e8-8f2c-6493d7570278","system_id":"levelo_inurba_marseille","lat":43.28103,"lon":5.37845,"is_reserved":false,"is_disabled":false,"rental_uris":{"android":"levelo://app?vid=aae1ce88-77c2-44e8-8f2c-6493d7570278","ios":"levelo://app?vid=aae1ce88-77c2-44e8-8f2c-6493d7570278"},"vehicle_type_id":"4","last_reported":1742479807,"current_range_meters":9600,"station_id":"ce4bha12rcd13ifvqee0","pricing_plan_id":"cebpf4jnsgd1na2vs0mg"},{"bike_id":"d7645557-54c5-44ed-8c44-41e433a350da","system_id":"levelo_inurba_marseille","lat":43.29468,"lon":5.35557,"is_reserved":false,"is_disabled":false,"rental_uris":{"android":"levelo://app?vid=d7645557-54c5-44ed-8c44-41e433a350da","ios":"levelo://app?vid=d7645557-54c5-44ed-8c44-41e433a350da"},"vehicle_type_id":"4","last_reported":1742479807,"current_range_meters":9600,"station_id":"","pricing_plan_id":"cebpf4jnsgd1na2vs0mg"},{"bike_id":"1eb184b9-f9c4-475e-8f1b-3e68d655e933","system_id":"levelo_inurba_marseille","lat":43.30437,"lon":5.39747,"is_reserved":false,"is_disabled":false,"rental_uris":{"android":"levelo://app?vid=1eb184b9-f9c4-475e-8f1b-3e68d655e933","ios":"levelo://app?vid=1eb184b9-f9c4-475e-8f1b-3e68d655e933"},"vehicle_type_id":"4","last_reported":1742479807,"current_range_meters":10000,"station_id":"ce4bh092rcd13ifvqd20","pricing_plan_id":"cebpf4jnsgd1na2vs0mg"},{"bike_id":"0d95e6a4-60fa-4989-a414-058ecea80aee","system_id":"levelo_inurba_marseille","lat":43.30574,"lon":5.36551,"is_reserved":false,"is_disabled":false,"rental_uris":{"android":"levelo://app?vid=0d95e6a4-60fa-4989-a414-058ecea80aee","ios":"levelo://app?vid=0d95e6a4-60fa-4989-a414-058ecea80aee"},"vehicle_type_id":"4","last_reported":1742479807,"current_range_meters":10000,"station_id":"ce4bgs12rcd13ifvqcag","pricing_plan_id":"cebpf4jnsgd1na2vs0mg"},{"bike_id":"a80aecbc-bbde-4ee6-a952-ab370dc9e7a5","system_id":"levelo_inurba_marseille","lat":43.2293,"lon":5.35373,"is_reserved":false,"is_disabled":false,"rental_uris":{"android":"levelo://app?vid=a80aecbc-bbde-4ee6-a952-ab370dc9e7a5","ios":"levelo://app?vid=a80aecbc-bbde-4ee6-a952-ab370dc9e7a5"},"vehicle_type_id":"4","last_reported":1742479807,"current_range_meters":10000,"station_id":"cpo3532slgdg3j2ikp40","pricing_plan_id":"cebpf4jnsgd1na2vs0mg"},{"bike_id":"77561014-0c4e-4f5e-9806-7aaf6b12de16","system_id":"levelo_inurba_marseille","lat":43.29169,"lon":5.37154,"is_reserved":false,"is_disabled":false,"rental_uris":{"android":"levelo://app?vid=77561014-0c4e-4f5e-9806-7aaf6b12de16","ios":"levelo://app?vid=77561014-0c4e-4f5e-9806-7aaf6b12de16"},"vehicle_type_id":"4","last_reported":1742479807,"current_range_meters":10000,"station_id":"ce4bha92rcd13ifvqeh0","pricing_plan_id":"cebpf4jnsgd1na2vs0mg"},{"bike_id":"a0deeb6c-62a7-4efb-834c-1bec837aaba6","system_id":"levelo_inurba_marseille","lat":43.337,"lon":5.37813,"is_reserved":false,"is_disabled":false,"rental_uris":{"android":"levelo://app?vid=a0deeb6c-62a7-4efb-834c-1bec837aaba6","ios":"levelo://app?vid=a0deeb6c-62a7-4efb-834c-1bec837aaba6"},"vehicle_type_id":"4","last_reported":1742479807,"current_range_meters":10000,"station_id":"","pricing_plan_id":"cebpf4jnsgd1na2vs0mg"},{"bike_id":"fa4d50fe-6fe5-4054-8a6f-4f7de3d3445b","system_id":"levelo_inurba_marseille","lat":43.2512,"lon":5.40319,"is_reserved":false,"is_disabled":false,"rental_uris":{"android":"levelo://app?vid=fa4d50fe-6fe5-4054-8a6f-4f7de3d3445b","ios":"levelo://app?vid=fa4d50fe-6fe5-4054-8a6f-4f7de3d3445b"},"vehicle_type_id":"4","last_reported":1742479807,"current_range_meters":10000,"station_id":"ce4bhlh2rcd13ifvqgig","pricing_plan_id":"cebpf4jnsgd1na2vs0mg"},{"bike_id":"bb7b7256-324f-4182-85d8-e1af41498e96","system_id":"levelo_inurba_marseille","lat":43.2397,"lon":5.36648,"is_reserved":false,"is_disabled":false,"rental_uris":{"android":"levelo://app?vid=bb7b7256-324f-4182-85d8-e1af41498e96","ios":"levelo://app?vid=bb7b7256-324f-4182-85d8-e1af41498e96"},"vehicle_type_id":"4","last_reported":1742479807,"current_range_meters":10000,"station_id":"ce4bhi12rcd13ifvqfp0","pricing_plan_id":"cebpf4jnsgd1na2vs0mg"},{"bike_id":"b4a87fae-79f9-413f-b20e-16a6a0565279","system_id":"levelo_inurba_marseille","lat":43.26683,"lon":5.38266,"is_reserved":false,"is_disabled":false,"rental_uris":{"android":"levelo://app?vid=b4a87fae-79f9-413f-b20e-16a6a0565279","ios":"levelo://app?vid=b4a87fae-79f9-413f-b20e-16a6a0565279"},"vehicle_type_id":"4","last_reported":1742479807,"current_range_meters":10000,"station_id":"ce4bhg92rcd13ifvqf90","pricing_plan_id":"cebpf4jnsgd1na2vs0mg"},{"bike_id":"85782564-15b3-42d4-8810-12088c1abb61","system_id":"levelo_inurba_marseille","lat":43.30182,"lon":5.38071,"is_reserved":false,"is_disabled":false,"rental_uris":{"android":"levelo://app?vid=85782564-15b3-42d4-8810-12088c1abb61","ios":"levelo://app?vid=85782564-15b3-42d4-8810-12088c1abb61"},"vehicle_type_id":"4","last_reported":1742479807,"current_range_meters":10000,"station_id":"ce4bgjp2rcd13ifvqbh0","pricing_plan_id":"cebpf4jnsgd1na2vs0mg"},{"bike_id":"6883c811-8746-429a-bd41-848ecf4dd19e","system_id":"levelo_inurba_marseille","lat":43.23518,"lon":5.37731,"is_reserved":false,"is_disabled":false,"rental_uris":{"android":"levelo://app?vid=6883c811-8746-429a-bd41-848ecf4dd19e","ios":"levelo://app?vid=6883c811-8746-429a-bd41-848ecf4dd19e"},"vehicle_type_id":"4","last_reported":1742479807,"current_range_meters":10000,"station_id":"","pricing_plan_id":"cebpf4jnsgd1na2vs0mg"},{"bike_id":"181b1742-09ee-46ab-8712-67d8396af664","system_id":"levelo_inurba_marseille","lat":43.24185,"lon":5.39734,"is_reserved":false,"is_disabled":false,"rental_uris":{"android":"levelo://app?vid=181b1742-09ee-46ab-8712-67d8396af664","ios":"levelo://app?vid=181b1742-09ee-46ab-8712-67d8396af664"},"vehicle_type_id":"4","last_reported":1742479807,"current_range_meters":10000,"station_id":"ce4bhn12rcd13ifvqgpg","pricing_plan_id":"cebpf4jnsgd1na2vs0mg"},{"bike_id":"d4f7973b-5481-40ab-b1cc-10535c63e0c8","system_id":"levelo_inurba_marseille","lat":43.28426,"lon":5.37521,"is_reserved":false,"is_disabled":false,"rental_uris":{"android":"levelo://app?vid=d4f7973b-5481-40ab-b1cc-10535c63e0c8","ios":"levelo://app?vid=d4f7973b-5481-40ab-b1cc-10535c63e0c8"},"vehicle_type_id":"4","last_reported":1742479807,"current_range_meters":10800,"station_id":"ce4bh412rcd13ifvqds0","pricing_plan_id":"cebpf4jnsgd1na2vs0mg"},{"bike_id":"f32def60-4f1a-4807-ac2f-c107a8732cdb","system_id":"levelo_inurba_marseille","lat":43.23158,"lon":5.43722,"is_reserved":false,"is_disabled":false,"rental_uris":{"android":"levelo://app?vid=f32def60-4f1a-4807-ac2f-c107a8732cdb","ios":"levelo://app?vid=f32def60-4f1a-4807-ac2f-c107a8732cdb"},"vehicle_type_id":"4","last_reported":1742479807,"current_range_meters":10800,"station_id":"ce4bhmp2rcd13ifvqgog","pricing_plan_id":"cebpf4jnsgd1na2vs0mg"},{"bike_id":"ffbee1c9-ab8d-45ee-b606-c546ab78c5f2","system_id":"levelo_inurba_marseille","lat":43.29734,"lon":5.37765,"is_reserved":false,"is_disabled":false,"rental_uris":{"android":"levelo://app?vid=ffbee1c9-ab8d-45ee-b606-c546ab78c5f2","ios":"levelo://app?vid=ffbee1c9-ab8d-45ee-b606-c546ab78c5f2"},"vehicle_type_id":"4","last_reported":1742479807,"current_range_meters":10800,"station_id":"","pricing_plan_id":"cebpf4jnsgd1na2vs0mg"},{"bike_id":"b46f02c5-de65-4d20-a3b5-5375d1218a72","system_id":"levelo_inurba_marseille","lat":43.23969,"lon":5.36633,"is_reserved":false,"is_disabled":false,"rental_uris":{"android":"levelo://app?vid=b46f02c5-de65-4d20-a3b5-5375d1218a72","ios":"levelo://app?vid=b46f02c5-de65-4d20-a3b5-5375d1218a72"},"vehicle_type_id":"4","last_reported":1742479807,"current_range_meters":10800,"station_id":"ce4bhi12rcd13ifvqfp0","pricing_plan_id":"cebpf4jnsgd1na2vs0mg"},{"bike_id":"92f31abb-25e7-481b-baf0-01963f45f7b3","system_id":"levelo_inurba_marseille","lat":43.30543,"lon":5.36537,"is_reserved":false,"is_disabled":false,"rental_uris":{"android":"levelo://app?vid=92f31abb-25e7-481b-baf0-01963f45f7b3","ios":"levelo://app?vid=92f31abb-25e7-481b-baf0-01963f45f7b3"},"vehicle_type_id":"4","last_reported":1742479807,"current_range_meters":10800,"station_id":"ce4bgs12rcd13ifvqcag","pricing_plan_id":"cebpf4jnsgd1na2vs0mg"},{"bike_id":"b9e4bdd0-024c-4547-9a94-39d0c7923642","system_id":"levelo_inurba_marseille","lat":43.24165,"lon":5.36417,"is_reserved":false,"is_disabled":false,"rental_uris":{"android":"levelo://app?vid=b9e4bdd0-024c-4547-9a94-39d0c7923642","ios":"levelo://app?vid=b9e4bdd0-024c-4547-9a94-39d0c7923642"},"vehicle_type_id":"4","last_reported":1742479807,"current_range_meters":10800,"station_id":"cpo36qri1sfpv3e86is0","pricing_plan_id":"cebpf4jnsgd1na2vs0mg"},{"bike_id":"5a744e10-af42-4895-8ea6-4be2388dba33","system_id":"levelo_inurba_marseille","lat":43.28441,"lon":5.39187,"is_reserved":false,"is_disabled":false,"rental_uris":{"android":"levelo://app?vid=5a744e10-af42-4895-8ea6-4be2388dba33","ios":"levelo://app?vid=5a744e10-af42-4895-8ea6-4be2388dba33"},"vehicle_type_id":"4","last_reported":1742479807,"current_range_meters":10800,"station_id":"ce4bhoh2rcd13ifvqh5g","pricing_plan_id":"cebpf4jnsgd1na2vs0mg"},{"bike_id":"d4968c5d-6a9d-4f03-8e9c-0729802138af","system_id":"levelo_inurba_marseille","lat":43.33606,"lon":5.4102,"is_reserved":false,"is_disabled":false,"rental_uris":{"android":"levelo://app?vid=d4968c5d-6a9d-4f03-8e9c-0729802138af","ios":"levelo://app?vid=d4968c5d-6a9d-4f03-8e9c-0729802138af"},"vehicle_type_id":"4","last_reported":1742479807,"current_range_meters":10800,"station_id":"ce4bhqh2rcd13ifvqhmg","pricing_plan_id":"cebpf4jnsgd1na2vs0mg"},{"bike_id":"c5bb5dca-1dc9-450e-9a3d-9fa737cf345d","system_id":"levelo_inurba_marseille","lat":43.24656,"lon":5.38884,"is_reserved":false,"is_disabled":false,"rental_uris":{"android":"levelo://app?vid=c5bb5dca-1dc9-450e-9a3d-9fa737cf345d","ios":"levelo://app?vid=c5bb5dca-1dc9-450e-9a3d-9fa737cf345d"},"vehicle_type_id":"4","last_reported":1742479807,"current_range_meters":10800,"station_id":"ce4bhg12rcd13ifvqf60","pricing_plan_id":"cebpf4jnsgd1na2vs0mg"},{"bike_id":"b4f58fb9-f8fc-49f3-b537-d6ea695f1338","system_id":"levelo_inurba_marseille","lat":43.24659,"lon":5.38163,"is_reserved":false,"is_disabled":false,"rental_uris":{"android":"levelo://app?vid=b4f58fb9-f8fc-49f3-b537-d6ea695f1338","ios":"levelo://app?vid=b4f58fb9-f8fc-49f3-b537-d6ea695f1338"},"vehicle_type_id":"4","last_reported":1742479807,"current_range_meters":10800,"station_id":"ce4bhih2rcd13ifvqfr0","pricing_plan_id":"cebpf4jnsgd1na2vs0mg"},{"bike_id":"2e78a2bb-c8fd-40f0-816e-5e0fec01c77f","system_id":"levelo_inurba_marseille","lat":43.31371,"lon":5.3669,"is_reserved":false,"is_disabled":false,"rental_uris":{"android":"levelo://app?vid=2e78a2bb-c8fd-40f0-816e-5e0fec01c77f","ios":"levelo://app?vid=2e78a2bb-c8fd-40f0-816e-5e0fec01c77f"},"vehicle_type_id":"4","last_reported":1742479807,"current_range_meters":11200,"station_id":"ce4bgr92rcd13ifvqc6g","pricing_plan_id":"cebpf4jnsgd1na2vs0mg"},{"bike_id":"e4fa4be4-c48f-4bf6-af84-7a8304cec4b3","system_id":"levelo_inurba_marseille","lat":43.24172,"lon":5.39712,"is_reserved":false,"is_disabled":false,"rental_uris":{"android":"levelo://app?vid=e4fa4be4-c48f-4bf6-af84-7a8304cec4b3","ios":"levelo://app?vid=e4fa4be4-c48f-4bf6-af84-7a8304cec4b3"},"vehicle_type_id":"4","last_reported":1742479807,"current_range_meters":11200,"station_id":"ce4bhn12rcd13ifvqgpg","pricing_plan_id":"cebpf4jnsgd1na2vs0mg"},{"bike_id":"c5544639-2d44-4b2d-a154-7c53abb9719f","system_id":"levelo_inurba_marseille","lat":43.2407,"lon":5.3773,"is_reserved":false,"is_disabled":false,"rental_uris":{"android":"levelo://app?vid=c5544639-2d44-4b2d-a154-7c53abb9719f","ios":"levelo://app?vid=c5544639-2d44-4b2d-a154-7c53abb9719f"},"vehicle_type_id":"4","last_reported":1742479807,"current_range_meters":11200,"station_id":"ce4bhnp2rcd13ifvqgvg","pricing_plan_id":"cebpf4jnsgd1na2vs0mg"},{"bike_id":"c169c3ed-b0b4-46a8-b8f6-cf446124b8df","system_id":"levelo_inurba_marseille","lat":43.24685,"lon":5.38151,"is_reserved":false,"is_disabled":false,"rental_uris":{"android":"levelo://app?vid=c169c3ed-b0b4-46a8-b8f6-cf446124b8df","ios":"levelo://app?vid=c169c3ed-b0b4-46a8-b8f6-cf446124b8df"},"vehicle_type_id":"4","last_reported":1742479807,"current_range_meters":11200,"station_id":"ce4bhih2rcd13ifvqfr0","pricing_plan_id":"cebpf4jnsgd1na2vs0mg"},{"bike_id":"6e4254e4-47f0-4825-8947-e2db3a4fe5d7","system_id":"levelo_inurba_marseille","lat":43.28366,"lon":5.3863,"is_reserved":false,"is_disabled":false,"rental_uris":{"android":"levelo://app?vid=6e4254e4-47f0-4825-8947-e2db3a4fe5d7","ios":"levelo://app?vid=6e4254e4-47f0-4825-8947-e2db3a4fe5d7"},"vehicle_type_id":"4","last_reported":1742479807,"current_range_meters":11600,"station_id":"ce4bh492rcd13ifvqdvg","pricing_plan_id":"cebpf4jnsgd1na2vs0mg"},{"bike_id":"f7dd368a-f3e4-428c-8e69-9fa2dbd7bc73","system_id":"levelo_inurba_marseille","lat":43.33422,"lon":5.3964,"is_reserved":false,"is_disabled":false,"rental_uris":{"android":"levelo://app?vid=f7dd368a-f3e4-428c-8e69-9fa2dbd7bc73","ios":"levelo://app?vid=f7dd368a-f3e4-428c-8e69-9fa2dbd7bc73"},"vehicle_type_id":"4","last_reported":1742479807,"current_range_meters":11600,"station_id":"","pricing_plan_id":"cebpf4jnsgd1na2vs0mg"},{"bike_id":"1c216d3b-50b8-4037-9790-072766a4a8f3","system_id":"levelo_inurba_marseille","lat":43.26216,"lon":5.37442,"is_reserved":false,"is_disabled":false,"rental_uris":{"android":"levelo://app?vid=1c216d3b-50b8-4037-9790-072766a4a8f3","ios":"levelo://app?vid=1c216d3b-50b8-4037-9790-072766a4a8f3"},"vehicle_type_id":"4","last_reported":1742479807,"current_range_meters":11600,"station_id":"ce4bhgp2rcd13ifvqfc0","pricing_plan_id":"cebpf4jnsgd1na2vs0mg"},{"bike_id":"6370e802-1ce7-46b3-ab38-c299ec041499","system_id":"levelo_inurba_marseille","lat":43.26685,"lon":5.38272,"is_reserved":false,"is_disabled":false,"rental_uris":{"android":"levelo://app?vid=6370e802-1ce7-46b3-ab38-c299ec041499","ios":"levelo://app?vid=6370e802-1ce7-46b3-ab38-c299ec041499"},"vehicle_type_id":"4","last_reported":1742479807,"current_range_meters":11600,"station_id":"ce4bhg92rcd13ifvqf90","pricing_plan_id":"cebpf4jnsgd1na2vs0mg"},{"bike_id":"9269b32f-6675-49cb-866b-55f3ac9dd7c0","system_id":"levelo_inurba_marseille","lat":43.30889,"lon":5.37187,"is_reserved":false,"is_disabled":false,"rental_uris":{"android":"levelo://app?vid=9269b32f-6675-49cb-866b-55f3ac9dd7c0","ios":"levelo://app?vid=9269b32f-6675-49cb-866b-55f3ac9dd7c0"},"vehicle_type_id":"4","last_reported":1742479807,"current_range_meters":11600,"station_id":"ce4bguh2rcd13ifvqckg","pricing_plan_id":"cebpf4jnsgd1na2vs0mg"},{"bike_id":"b69aff3d-ab98-43be-8d0d-ebe24eaf69ef","system_id":"levelo_inurba_marseille","lat":43.30537,"lon":5.36547,"is_reserved":false,"is_disabled":false,"rental_uris":{"android":"levelo://app?vid=b69aff3d-ab98-43be-8d0d-ebe24eaf69ef","ios":"levelo://app?vid=b69aff3d-ab98-43be-8d0d-ebe24eaf69ef"},"vehicle_type_id":"4","last_reported":1742479807,"current_range_meters":11600,"station_id":"ce4bgs12rcd13ifvqcag","pricing_plan_id":"cebpf4jnsgd1na2vs0mg"},{"bike_id":"10040ff5-09c7-4549-9697-fbeae20cf216","system_id":"levelo_inurba_marseille","lat":43.24656,"lon":5.38876,"is_reserved":false,"is_disabled":false,"rental_uris":{"android":"levelo://app?vid=10040ff5-09c7-4549-9697-fbeae20cf216","ios":"levelo://app?vid=10040ff5-09c7-4549-9697-fbeae20cf216"},"vehicle_type_id":"4","last_reported":1742479807,"current_range_meters":12000,"station_id":"ce4bhg12rcd13ifvqf60","pricing_plan_id":"cebpf4jnsgd1na2vs0mg"},{"bike_id":"76195f92-5f7c-4730-828f-35b5ef1014cf","system_id":"levelo_inurba_marseille","lat":43.273167,"lon":5.390755,"is_reserved":false,"is_disabled":false,"rental_uris":{"android":"levelo://app?vid=76195f92-5f7c-4730-828f-35b5ef1014cf","ios":"levelo://app?vid=76195f92-5f7c-4730-828f-35b5ef1014cf"},"vehicle_type_id":"4","last_reported":1742479807,"current_range_meters":12000,"station_id":"ce4bhlh2rcd13ifvqgig","pricing_plan_id":"cebpf4jnsgd1na2vs0mg"},{"bike_id":"12c8d64e-a113-46d0-a4a4-ed59d367ed5e","system_id":"levelo_inurba_marseille","lat":43.28414,"lon":5.37539,"is_reserved":false,"is_disabled":false,"rental_uris":{"android":"levelo://app?vid=12c8d64e-a113-46d0-a4a4-ed59d367ed5e","ios":"levelo://app?vid=12c8d64e-a113-46d0-a4a4-ed59d367ed5e"},"vehicle_type_id":"4","last_reported":1742479807,"current_range_meters":12000,"station_id":"ce4bh412rcd13ifvqds0","pricing_plan_id":"cebpf4jnsgd1na2vs0mg"},{"bike_id":"ff43cedd-1f0c-437e-b994-18caa88f5862","system_id":"levelo_inurba_marseille","lat":43.29934,"lon":5.36545,"is_reserved":false,"is_disabled":false,"rental_uris":{"android":"levelo://app?vid=ff43cedd-1f0c-437e-b994-18caa88f5862","ios":"levelo://app?vid=ff43cedd-1f0c-437e-b994-18caa88f5862"},"vehicle_type_id":"4","last_reported":1742479807,"current_range_meters":12400,"station_id":"ce4bgm92rcd13ifvqbr0","pricing_plan_id":"cebpf4jnsgd1na2vs0mg"},{"bike_id":"ba215028-e5f1-4477-80e1-6d7eece7c5ae","system_id":"levelo_inurba_marseille","lat":43.28698,"lon":5.39978,"is_reserved":false,"is_disabled":false,"rental_uris":{"android":"levelo://app?vid=ba215028-e5f1-4477-80e1-6d7eece7c5ae","ios":"levelo://app?vid=ba215028-e5f1-4477-80e1-6d7eece7c5ae"},"vehicle_type_id":"4","last_reported":1742479807,"current_range_meters":12400,"station_id":"ce4bho92rcd13ifvqh3g","pricing_plan_id":"cebpf4jnsgd1na2vs0mg"},{"bike_id":"24ea597e-5efe-4b0e-b607-64144170e3ec","system_id":"levelo_inurba_marseille","lat":43.28718,"lon":5.37962,"is_reserved":false,"is_disabled":false,"rental_uris":{"android":"levelo://app?vid=24ea597e-5efe-4b0e-b607-64144170e3ec","ios":"levelo://app?vid=24ea597e-5efe-4b0e-b607-64144170e3ec"},"vehicle_type_id":"4","last_reported":1742479807,"current_range_meters":12400,"station_id":"ce4bh9p2rcd13ifvqec0","pricing_plan_id":"cebpf4jnsgd1na2vs0mg"},{"bike_id":"8243db06-e2ef-426c-a473-8f681558dd6b","system_id":"levelo_inurba_marseille","lat":43.29985,"lon":5.385,"is_reserved":false,"is_disabled":false,"rental_uris":{"android":"levelo://app?vid=8243db06-e2ef-426c-a473-8f681558dd6b","ios":"levelo://app?vid=8243db06-e2ef-426c-a473-8f681558dd6b"},"vehicle_type_id":"4","last_reported":1742479807,"current_range_meters":12400,"station_id":"ce4bgj92rcd13ifvqbd0","pricing_plan_id":"cebpf4jnsgd1na2vs0mg"},{"bike_id":"1c3b5361-695c-4ccc-94f9-aca7f37b6d45","system_id":"levelo_inurba_marseille","lat":43.23191,"lon":5.35559,"is_reserved":false,"is_disabled":false,"rental_uris":{"android":"levelo://app?vid=1c3b5361-695c-4ccc-94f9-aca7f37b6d45","ios":"levelo://app?vid=1c3b5361-695c-4ccc-94f9-aca7f37b6d45"},"vehicle_type_id":"4","last_reported":1742479807,"current_range_meters":12800,"station_id":"ce4bhu92rcd13ifvqi70","pricing_plan_id":"cebpf4jnsgd1na2vs0mg"},{"bike_id":"16dd521d-50df-4f0b-a335-57ba62bdd742","system_id":"levelo_inurba_marseille","lat":43.24079,"lon":5.37738,"is_reserved":false,"is_disabled":false,"rental_uris":{"android":"levelo://app?vid=16dd521d-50df-4f0b-a335-57ba62bdd742","ios":"levelo://app?vid=16dd521d-50df-4f0b-a335-57ba62bdd742"},"vehicle_type_id":"4","last_reported":1742479807,"current_range_meters":12800,"station_id":"ce4bhnp2rcd13ifvqgvg","pricing_plan_id":"cebpf4jnsgd1na2vs0mg"},{"bike_id":"42510201-02b4-4f38-82bc-9dc134d4342c","system_id":"levelo_inurba_marseille","lat":43.22936,"lon":5.35372,"is_reserved":false,"is_disabled":false,"rental_uris":{"android":"levelo://app?vid=42510201-02b4-4f38-82bc-9dc134d4342c","ios":"levelo://app?vid=42510201-02b4-4f38-82bc-9dc134d4342c"},"vehicle_type_id":"4","last_reported":1742479807,"current_range_meters":12800,"station_id":"cpo3532slgdg3j2ikp40","pricing_plan_id":"cebpf4jnsgd1na2vs0mg"},{"bike_id":"33eac996-04c1-4244-862e-d262aa2b7f9f","system_id":"levelo_inurba_marseille","lat":43.29916,"lon":5.36494,"is_reserved":false,"is_disabled":false,"rental_uris":{"android":"levelo://app?vid=33eac996-04c1-4244-862e-d262aa2b7f9f","ios":"levelo://app?vid=33eac996-04c1-4244-862e-d262aa2b7f9f"},"vehicle_type_id":"4","last_reported":1742479807,"current_range_meters":12800,"station_id":"ce4bgm92rcd13ifvqbr0","pricing_plan_id":"cebpf4jnsgd1na2vs0mg"},{"bike_id":"f587a394-c1e9-4403-85ce-2987d325f0a0","system_id":"levelo_inurba_marseille","lat":43.31077,"lon":5.38361,"is_reserved":false,"is_disabled":false,"rental_uris":{"android":"levelo://app?vid=f587a394-c1e9-4403-85ce-2987d325f0a0","ios":"levelo://app?vid=f587a394-c1e9-4403-85ce-2987d325f0a0"},"vehicle_type_id":"4","last_reported":1742479807,"current_range_meters":12800,"station_id":"ce4bgv92rcd13ifvqcr0","pricing_plan_id":"cebpf4jnsgd1na2vs0mg"},{"bike_id":"83fe4b7d-c313-402b-a1b1-9f765824d193","system_id":"levelo_inurba_marseille","lat":43.26207,"lon":5.37449,"is_reserved":false,"is_disabled":false,"rental_uris":{"android":"levelo://app?vid=83fe4b7d-c313-402b-a1b1-9f765824d193","ios":"levelo://app?vid=83fe4b7d-c313-402b-a1b1-9f765824d193"},"vehicle_type_id":"4","last_reported":1742479807,"current_range_meters":12800,"station_id":"ce4bhgp2rcd13ifvqfc0","pricing_plan_id":"cebpf4jnsgd1na2vs0mg"},{"bike_id":"89931dd0-537e-48bf-be5a-31a31475b33b","system_id":"levelo_inurba_marseille","lat":43.30324,"lon":5.36892,"is_reserved":false,"is_disabled":false,"rental_uris":{"android":"levelo://app?vid=89931dd0-537e-48bf-be5a-31a31475b33b","ios":"levelo://app?vid=89931dd0-537e-48bf-be5a-31a31475b33b"},"vehicle_type_id":"4","last_reported":1742479807,"current_range_meters":13600,"station_id":"ce4bgqh2rcd13ifvqc5g","pricing_plan_id":"cebpf4jnsgd1na2vs0mg"},{"bike_id":"d563f5ab-583e-43f4-aa48-a1eb9b3c4dac","system_id":"levelo_inurba_marseille","lat":43.27899,"lon":5.38013,"is_reserved":false,"is_disabled":false,"rental_uris":{"android":"levelo://app?vid=d563f5ab-583e-43f4-aa48-a1eb9b3c4dac","ios":"levelo://app?vid=d563f5ab-583e-43f4-aa48-a1eb9b3c4dac"},"vehicle_type_id":"4","last_reported":1742479807,"current_range_meters":13600,"station_id":"ce4bhf92rcd13ifvqf50","pricing_plan_id":"cebpf4jnsgd1na2vs0mg"},{"bike_id":"c34e1eb4-695a-47d2-9efe-b13fa6a7a54e","system_id":"levelo_inurba_marseille","lat":43.33601,"lon":5.41016,"is_reserved":false,"is_disabled":false,"rental_uris":{"android":"levelo://app?vid=c34e1eb4-695a-47d2-9efe-b13fa6a7a54e","ios":"levelo://app?vid=c34e1eb4-695a-47d2-9efe-b13fa6a7a54e"},"vehicle_type_id":"4","last_reported":1742479807,"current_range_meters":13600,"station_id":"ce4bhqh2rcd13ifvqhmg","pricing_plan_id":"cebpf4jnsgd1na2vs0mg"},{"bike_id":"0f4829c5-f12d-44ea-8a46-b6170105c343","system_id":"levelo_inurba_marseille","lat":43.230626,"lon":5.354974,"is_reserved":false,"is_disabled":false,"rental_uris":{"android":"levelo://app?vid=0f4829c5-f12d-44ea-8a46-b6170105c343","ios":"levelo://app?vid=0f4829c5-f12d-44ea-8a46-b6170105c343"},"vehicle_type_id":"4","last_reported":1742479807,"current_range_meters":13600,"station_id":"cpo3342slgdg3j2ifvpg","pricing_plan_id":"cebpf4jnsgd1na2vs0mg"},{"bike_id":"bb657bda-96fd-4cbb-a0e8-4bafe9c06e5c","system_id":"levelo_inurba_marseille","lat":43.26945,"lon":5.38921,"is_reserved":false,"is_disabled":false,"rental_uris":{"android":"levelo://app?vid=bb657bda-96fd-4cbb-a0e8-4bafe9c06e5c","ios":"levelo://app?vid=bb657bda-96fd-4cbb-a0e8-4bafe9c06e5c"},"vehicle_type_id":"4","last_reported":1742479807,"current_range_meters":13600,"station_id":"ce4bhhh2rcd13ifvqfl0","pricing_plan_id":"cebpf4jnsgd1na2vs0mg"},{"bike_id":"bf4a0afc-3175-4d11-9f2f-cb7b67f48439","system_id":"levelo_inurba_marseille","lat":43.30549,"lon":5.38425,"is_reserved":false,"is_disabled":false,"rental_uris":{"android":"levelo://app?vid=bf4a0afc-3175-4d11-9f2f-cb7b67f48439","ios":"levelo://app?vid=bf4a0afc-3175-4d11-9f2f-cb7b67f48439"},"vehicle_type_id":"4","last_reported":1742479807,"current_range_meters":13600,"station_id":"ce4bgg92rcd13ifvqb30","pricing_plan_id":"cebpf4jnsgd1na2vs0mg"},{"bike_id":"9017bc12-aea0-4353-8ed3-70f846d30db2","system_id":"levelo_inurba_marseille","lat":43.29284,"lon":5.36847,"is_reserved":false,"is_disabled":false,"rental_uris":{"android":"levelo://app?vid=9017bc12-aea0-4353-8ed3-70f846d30db2","ios":"levelo://app?vid=9017bc12-aea0-4353-8ed3-70f846d30db2"},"vehicle_type_id":"4","last_reported":1742479807,"current_range_meters":14000,"station_id":"ce4bhbp2rcd13ifvqesg","pricing_plan_id":"cebpf4jnsgd1na2vs0mg"},{"bike_id":"ac175b87-6392-45f4-b206-972201e6c7e6","system_id":"levelo_inurba_marseille","lat":43.30211,"lon":5.39473,"is_reserved":false,"is_disabled":false,"rental_uris":{"android":"levelo://app?vid=ac175b87-6392-45f4-b206-972201e6c7e6","ios":"levelo://app?vid=ac175b87-6392-45f4-b206-972201e6c7e6"},"vehicle_type_id":"4","last_reported":1742479807,"current_range_meters":14000,"station_id":"ce4bh0p2rcd13ifvqd70","pricing_plan_id":"cebpf4jnsgd1na2vs0mg"},{"bike_id":"194fbb2e-f73a-4478-9e1d-3edf69598831","system_id":"levelo_inurba_marseille","lat":43.29518,"lon":5.39409,"is_reserved":false,"is_disabled":false,"rental_uris":{"android":"levelo://app?vid=194fbb2e-f73a-4478-9e1d-3edf69598831","ios":"levelo://app?vid=194fbb2e-f73a-4478-9e1d-3edf69598831"},"vehicle_type_id":"4","last_reported":1742479807,"current_range_meters":14000,"station_id":"ce4bh292rcd13ifvqdf0","pricing_plan_id":"cebpf4jnsgd1na2vs0mg"},{"bike_id":"2678929a-312d-4089-b116-1e816de7db90","system_id":"levelo_inurba_marseille","lat":43.32103,"lon":5.368,"is_reserved":false,"is_disabled":false,"rental_uris":{"android":"levelo://app?vid=2678929a-312d-4089-b116-1e816de7db90","ios":"levelo://app?vid=2678929a-312d-4089-b116-1e816de7db90"},"vehicle_type_id":"4","last_reported":1742479807,"current_range_meters":14000,"station_id":"ce4bhrh2rcd13ifvqhug","pricing_plan_id":"cebpf4jnsgd1na2vs0mg"},{"bike_id":"2a1c36e9-5d3d-431a-817b-5ebd05b6ff8a","system_id":"levelo_inurba_marseille","lat":43.30136,"lon":5.38788,"is_reserved":false,"is_disabled":false,"rental_uris":{"android":"levelo://app?vid=2a1c36e9-5d3d-431a-817b-5ebd05b6ff8a","ios":"levelo://app?vid=2a1c36e9-5d3d-431a-817b-5ebd05b6ff8a"},"vehicle_type_id":"4","last_reported":1742479807,"current_range_meters":14000,"station_id":"ce4bghh2rcd13ifvqb60","pricing_plan_id":"cebpf4jnsgd1na2vs0mg"},{"bike_id":"e0159e1b-5937-4432-8704-7da513d13a58","system_id":"levelo_inurba_marseille","lat":43.30797,"lon":5.38154,"is_reserved":false,"is_disabled":false,"rental_uris":{"android":"levelo://app?vid=e0159e1b-5937-4432-8704-7da513d13a58","ios":"levelo://app?vid=e0159e1b-5937-4432-8704-7da513d13a58"},"vehicle_type_id":"4","last_reported":1742479807,"current_range_meters":14000,"station_id":"ce4bgt12rcd13ifvqce0","pricing_plan_id":"cebpf4jnsgd1na2vs0mg"},{"bike_id":"a5efa801-f8ad-4966-b515-a69e27617883","system_id":"levelo_inurba_marseille","lat":43.24661,"lon":5.38168,"is_reserved":false,"is_disabled":false,"rental_uris":{"android":"levelo://app?vid=a5efa801-f8ad-4966-b515-a69e27617883","ios":"levelo://app?vid=a5efa801-f8ad-4966-b515-a69e27617883"},"vehicle_type_id":"4","last_reported":1742479807,"current_range_meters":14000,"station_id":"ce4bhih2rcd13ifvqfr0","pricing_plan_id":"cebpf4jnsgd1na2vs0mg"},{"bike_id":"c24d9f67-ee61-4261-b17d-f7544fd66cff","system_id":"levelo_inurba_marseille","lat":43.2844,"lon":5.39193,"is_reserved":false,"is_disabled":false,"rental_uris":{"android":"levelo://app?vid=c24d9f67-ee61-4261-b17d-f7544fd66cff","ios":"levelo://app?vid=c24d9f67-ee61-4261-b17d-f7544fd66cff"},"vehicle_type_id":"4","last_reported":1742479807,"current_range_meters":14000,"station_id":"ce4bhoh2rcd13ifvqh5g","pricing_plan_id":"cebpf4jnsgd1na2vs0mg"},{"bike_id":"15e909e8-db09-4887-bdd6-1d34a850a4fe","system_id":"levelo_inurba_marseille","lat":43.28471,"lon":5.38423,"is_reserved":false,"is_disabled":false,"rental_uris":{"android":"levelo://app?vid=15e909e8-db09-4887-bdd6-1d34a850a4fe","ios":"levelo://app?vid=15e909e8-db09-4887-bdd6-1d34a850a4fe"},"vehicle_type_id":"4","last_reported":1742479807,"current_range_meters":14400,"station_id":"ce4bh512rcd13ifvqe3g","pricing_plan_id":"cebpf4jnsgd1na2vs0mg"},{"bike_id":"6641d614-2ae6-4c08-a02f-3cdb507a027a","system_id":"levelo_inurba_marseille","lat":43.26063,"lon":5.39393,"is_reserved":false,"is_disabled":false,"rental_uris":{"android":"levelo://app?vid=6641d614-2ae6-4c08-a02f-3cdb507a027a","ios":"levelo://app?vid=6641d614-2ae6-4c08-a02f-3cdb507a027a"},"vehicle_type_id":"4","last_reported":1742479807,"current_range_meters":14400,"station_id":"ce4bhh92rcd13ifvqfj0","pricing_plan_id":"cebpf4jnsgd1na2vs0mg"},{"bike_id":"c854a7e1-028c-44bd-bcf0-de6667cf9622","system_id":"levelo_inurba_marseille","lat":43.284165,"lon":5.349679,"is_reserved":false,"is_disabled":false,"rental_uris":{"android":"levelo://app?vid=c854a7e1-028c-44bd-bcf0-de6667cf9622","ios":"levelo://app?vid=c854a7e1-028c-44bd-bcf0-de6667cf9622"},"vehicle_type_id":"4","last_reported":1742479807,"current_range_meters":14400,"station_id":"ce4bgv92rcd13ifvqcq0","pricing_plan_id":"cebpf4jnsgd1na2vs0mg"},{"bike_id":"569fe875-8d1d-4e48-9948-a69acd8d6001","system_id":"levelo_inurba_marseille","lat":43.3056,"lon":5.36536,"is_reserved":false,"is_disabled":false,"rental_uris":{"android":"levelo://app?vid=569fe875-8d1d-4e48-9948-a69acd8d6001","ios":"levelo://app?vid=569fe875-8d1d-4e48-9948-a69acd8d6001"},"vehicle_type_id":"4","last_reported":1742479807,"current_range_meters":14400,"station_id":"ce4bgih2rcd13ifvqba0","pricing_plan_id":"cebpf4jnsgd1na2vs0mg"},{"bike_id":"6d912d52-cfce-4799-acca-e1dcfde97817","system_id":"levelo_inurba_marseille","lat":43.23191,"lon":5.39979,"is_reserved":false,"is_disabled":false,"rental_uris":{"android":"levelo://app?vid=6d912d52-cfce-4799-acca-e1dcfde97817","ios":"levelo://app?vid=6d912d52-cfce-4799-acca-e1dcfde97817"},"vehicle_type_id":"4","last_reported":1742479807,"current_range_meters":14400,"station_id":"ce4bhn12rcd13ifvqgqg","pricing_plan_id":"cebpf4jnsgd1na2vs0mg"},{"bike_id":"45839125-6170-42f2-a406-763e0fb3fd06","system_id":"levelo_inurba_marseille","lat":43.301422,"lon":5.387746,"is_reserved":false,"is_disabled":false,"rental_uris":{"android":"levelo://app?vid=45839125-6170-42f2-a406-763e0fb3fd06","ios":"levelo://app?vid=45839125-6170-42f2-a406-763e0fb3fd06"},"vehicle_type_id":"4","last_reported":1742479807,"current_range_meters":14400,"station_id":"ce4bh612rcd13ifvqe6g","pricing_plan_id":"cebpf4jnsgd1na2vs0mg"},{"bike_id":"e74fce09-490e-4ae2-9de7-a533dd9876c1","system_id":"levelo_inurba_marseille","lat":43.23165,"lon":5.43704,"is_reserved":false,"is_disabled":false,"rental_uris":{"android":"levelo://app?vid=e74fce09-490e-4ae2-9de7-a533dd9876c1","ios":"levelo://app?vid=e74fce09-490e-4ae2-9de7-a533dd9876c1"},"vehicle_type_id":"4","last_reported":1742479807,"current_range_meters":14400,"station_id":"ce4bhmp2rcd13ifvqgog","pricing_plan_id":"cebpf4jnsgd1na2vs0mg"},{"bike_id":"5f7ebdce-bcfd-49f5-b353-98d524adb295","system_id":"levelo_inurba_marseille","lat":43.23077,"lon":5.35483,"is_reserved":false,"is_disabled":false,"rental_uris":{"android":"levelo://app?vid=5f7ebdce-bcfd-49f5-b353-98d524adb295","ios":"levelo://app?vid=5f7ebdce-bcfd-49f5-b353-98d524adb295"},"vehicle_type_id":"4","last_reported":1742479807,"current_range_meters":14400,"station_id":"cpo3342slgdg3j2ifvpg","pricing_plan_id":"cebpf4jnsgd1na2vs0mg"},{"bike_id":"52801b30-faa5-4912-8b1c-d6f2e330bea2","system_id":"levelo_inurba_marseille","lat":43.29778,"lon":5.3807,"is_reserved":false,"is_disabled":false,"rental_uris":{"android":"levelo://app?vid=52801b30-faa5-4912-8b1c-d6f2e330bea2","ios":"levelo://app?vid=52801b30-faa5-4912-8b1c-d6f2e330bea2"},"vehicle_type_id":"4","last_reported":1742479807,"current_range_meters":14400,"station_id":"ce4bgip2rcd13ifvqbb0","pricing_plan_id":"cebpf4jnsgd1na2vs0mg"},{"bike_id":"1115e6ca-2c82-41e7-9787-96ce300aabb4","system_id":"levelo_inurba_marseille","lat":43.30798,"lon":5.3816,"is_reserved":false,"is_disabled":false,"rental_uris":{"android":"levelo://app?vid=1115e6ca-2c82-41e7-9787-96ce300aabb4","ios":"levelo://app?vid=1115e6ca-2c82-41e7-9787-96ce300aabb4"},"vehicle_type_id":"4","last_reported":1742479807,"current_range_meters":14400,"station_id":"ce4bgt12rcd13ifvqce0","pricing_plan_id":"cebpf4jnsgd1na2vs0mg"},{"bike_id":"7a142c40-c597-4214-96c7-c209a9ae0a3a","system_id":"levelo_inurba_marseille","lat":43.27491,"lon":5.42459,"is_reserved":false,"is_disabled":false,"rental_uris":{"android":"levelo://app?vid=7a142c40-c597-4214-96c7-c209a9ae0a3a","ios":"levelo://app?vid=7a142c40-c597-4214-96c7-c209a9ae0a3a"},"vehicle_type_id":"4","last_reported":1742479807,"current_range_meters":14800,"station_id":"ce4bhn92rcd13ifvqgrg","pricing_plan_id":"cebpf4jnsgd1na2vs0mg"},{"bike_id":"e3dcf81a-a673-4ac1-be2e-1db043500701","system_id":"levelo_inurba_marseille","lat":43.31243,"lon":5.36849,"is_reserved":false,"is_disabled":false,"rental_uris":{"android":"levelo://app?vid=e3dcf81a-a673-4ac1-be2e-1db043500701","ios":"levelo://app?vid=e3dcf81a-a673-4ac1-be2e-1db043500701"},"vehicle_type_id":"4","last_reported":1742479807,"current_range_meters":14800,"station_id":"ce4bgl92rcd13ifvqbq0","pricing_plan_id":"cebpf4jnsgd1na2vs0mg"},{"bike_id":"208631cd-3387-4e41-8f64-bd48453d1b77","system_id":"levelo_inurba_marseille","lat":43.29104,"lon":5.38137,"is_reserved":false,"is_disabled":false,"rental_uris":{"android":"levelo://app?vid=208631cd-3387-4e41-8f64-bd48453d1b77","ios":"levelo://app?vid=208631cd-3387-4e41-8f64-bd48453d1b77"},"vehicle_type_id":"4","last_reported":1742479807,"current_range_meters":14800,"station_id":"ce4bh512rcd13ifvqe2g","pricing_plan_id":"cebpf4jnsgd1na2vs0mg"},{"bike_id":"f77d678a-eb89-45d8-a268-4d8f4f21bf10","system_id":"levelo_inurba_marseille","lat":43.28971,"lon":5.37834,"is_reserved":false,"is_disabled":false,"rental_uris":{"android":"levelo://app?vid=f77d678a-eb89-45d8-a268-4d8f4f21bf10","ios":"levelo://app?vid=f77d678a-eb89-45d8-a268-4d8f4f21bf10"},"vehicle_type_id":"4","last_reported":1742479807,"current_range_meters":14400,"station_id":"ce4bh9p2rcd13ifvqed0","pricing_plan_id":"cebpf4jnsgd1na2vs0mg"},{"bike_id":"64b23608-5262-4170-aae9-7993eea173db","system_id":"levelo_inurba_marseille","lat":43.30301,"lon":5.39205,"is_reserved":false,"is_disabled":false,"rental_uris":{"android":"levelo://app?vid=64b23608-5262-4170-aae9-7993eea173db","ios":"levelo://app?vid=64b23608-5262-4170-aae9-7993eea173db"},"vehicle_type_id":"4","last_reported":1742479807,"current_range_meters":15200,"station_id":"ce4bgkh2rcd13ifvqbk0","pricing_plan_id":"cebpf4jnsgd1na2vs0mg"},{"bike_id":"bf5d7bdb-65a8-4310-b955-6a76e2cbd7fe","system_id":"levelo_inurba_marseille","lat":43.33725,"lon":5.3918,"is_reserved":false,"is_disabled":false,"rental_uris":{"android":"levelo://app?vid=bf5d7bdb-65a8-4310-b955-6a76e2cbd7fe","ios":"levelo://app?vid=bf5d7bdb-65a8-4310-b955-6a76e2cbd7fe"},"vehicle_type_id":"4","last_reported":1742479807,"current_range_meters":15200,"station_id":"ce4bhr92rcd13ifvqhsg","pricing_plan_id":"cebpf4jnsgd1na2vs0mg"},{"bike_id":"7c308d17-47b4-4e84-9444-4de893488002","system_id":"levelo_inurba_marseille","lat":43.29374,"lon":5.37862,"is_reserved":false,"is_disabled":false,"rental_uris":{"android":"levelo://app?vid=7c308d17-47b4-4e84-9444-4de893488002","ios":"levelo://app?vid=7c308d17-47b4-4e84-9444-4de893488002"},"vehicle_type_id":"4","last_reported":1742479807,"current_range_meters":15200,"station_id":"ce4bgjh2rcd13ifvqbf0","pricing_plan_id":"cebpf4jnsgd1na2vs0mg"},{"bike_id":"47607dd3-629d-4f70-878c-8cf1fb291880","system_id":"levelo_inurba_marseille","lat":43.26561,"lon":5.39019,"is_reserved":false,"is_disabled":false,"rental_uris":{"android":"levelo://app?vid=47607dd3-629d-4f70-878c-8cf1fb291880","ios":"levelo://app?vid=47607dd3-629d-4f70-878c-8cf1fb291880"},"vehicle_type_id":"4","last_reported":1742479807,"current_range_meters":15200,"station_id":"ce4bhe12rcd13ifvqf30","pricing_plan_id":"cebpf4jnsgd1na2vs0mg"},{"bike_id":"3577e5e4-993d-4976-8fa5-97a123d88fe8","system_id":"levelo_inurba_marseille","lat":43.31175,"lon":5.38718,"is_reserved":false,"is_disabled":false,"rental_uris":{"android":"levelo://app?vid=3577e5e4-993d-4976-8fa5-97a123d88fe8","ios":"levelo://app?vid=3577e5e4-993d-4976-8fa5-97a123d88fe8"},"vehicle_type_id":"4","last_reported":1742479807,"current_range_meters":15200,"station_id":"ce4bgv12rcd13ifvqcp0","pricing_plan_id":"cebpf4jnsgd1na2vs0mg"},{"bike_id":"038f15d6-d891-4e98-bd84-5d32715ec46c","system_id":"levelo_inurba_marseille","lat":43.29531,"lon":5.39043,"is_reserved":false,"is_disabled":false,"rental_uris":{"android":"levelo://app?vid=038f15d6-d891-4e98-bd84-5d32715ec46c","ios":"levelo://app?vid=038f15d6-d891-4e98-bd84-5d32715ec46c"},"vehicle_type_id":"4","last_reported":1742479807,"current_range_meters":15200,"station_id":"ce4bh3p2rcd13ifvqdp0","pricing_plan_id":"cebpf4jnsgd1na2vs0mg"},{"bike_id":"19efec77-f1cb-4d07-bdbf-b6268935f3e4","system_id":"levelo_inurba_marseille","lat":43.30897,"lon":5.36854,"is_reserved":false,"is_disabled":false,"rental_uris":{"android":"levelo://app?vid=19efec77-f1cb-4d07-bdbf-b6268935f3e4","ios":"levelo://app?vid=19efec77-f1cb-4d07-bdbf-b6268935f3e4"},"vehicle_type_id":"4","last_reported":1742479807,"current_range_meters":15200,"station_id":"ce4bgn92rcd13ifvqbvg","pricing_plan_id":"cebpf4jnsgd1na2vs0mg"},{"bike_id":"ab392795-033a-4f18-9239-498e82197522","system_id":"levelo_inurba_marseille","lat":43.24073,"lon":5.3776,"is_reserved":false,"is_disabled":false,"rental_uris":{"android":"levelo://app?vid=ab392795-033a-4f18-9239-498e82197522","ios":"levelo://app?vid=ab392795-033a-4f18-9239-498e82197522"},"vehicle_type_id":"4","last_reported":1742479807,"current_range_meters":15200,"station_id":"ce4bhnp2rcd13ifvqgvg","pricing_plan_id":"cebpf4jnsgd1na2vs0mg"},{"bike_id":"c239b307-a42c-4cfd-b5fc-105d04a3256f","system_id":"levelo_inurba_marseille","lat":43.23964,"lon":5.36632,"is_reserved":false,"is_disabled":false,"rental_uris":{"android":"levelo://app?vid=c239b307-a42c-4cfd-b5fc-105d04a3256f","ios":"levelo://app?vid=c239b307-a42c-4cfd-b5fc-105d04a3256f"},"vehicle_type_id":"4","last_reported":1742479807,"current_range_meters":16000,"station_id":"ce4bhi12rcd13ifvqfp0","pricing_plan_id":"cebpf4jnsgd1na2vs0mg"},{"bike_id":"a1041188-6377-4dc0-808b-553dfa8836d0","system_id":"levelo_inurba_marseille","lat":43.30516,"lon":5.36523,"is_reserved":false,"is_disabled":false,"rental_uris":{"android":"levelo://app?vid=a1041188-6377-4dc0-808b-553dfa8836d0","ios":"levelo://app?vid=a1041188-6377-4dc0-808b-553dfa8836d0"},"vehicle_type_id":"4","last_reported":1742479807,"current_range_meters":16000,"station_id":"ce4bgs12rcd13ifvqcag","pricing_plan_id":"cebpf4jnsgd1na2vs0mg"},{"bike_id":"5aaffbf1-0195-45a0-9700-484a2fabd484","system_id":"levelo_inurba_marseille","lat":43.31078,"lon":5.38354,"is_reserved":false,"is_disabled":false,"rental_uris":{"android":"levelo://app?vid=5aaffbf1-0195-45a0-9700-484a2fabd484","ios":"levelo://app?vid=5aaffbf1-0195-45a0-9700-484a2fabd484"},"vehicle_type_id":"4","last_reported":1742479807,"current_range_meters":16000,"station_id":"ce4bgv92rcd13ifvqcr0","pricing_plan_id":"cebpf4jnsgd1na2vs0mg"},{"bike_id":"aca85f7e-b8a2-4870-b39b-b288e2417b85","system_id":"levelo_inurba_marseille","lat":43.32481,"lon":5.36562,"is_reserved":false,"is_disabled":false,"rental_uris":{"android":"levelo://app?vid=aca85f7e-b8a2-4870-b39b-b288e2417b85","ios":"levelo://app?vid=aca85f7e-b8a2-4870-b39b-b288e2417b85"},"vehicle_type_id":"4","last_reported":1742479807,"current_range_meters":16000,"station_id":"ce4bhs12rcd13ifvqhvg","pricing_plan_id":"cebpf4jnsgd1na2vs0mg"},{"bike_id":"f0e30bc4-f88c-4d1b-a663-53b5c936569b","system_id":"levelo_inurba_marseille","lat":43.27967,"lon":5.38734,"is_reserved":false,"is_disabled":false,"rental_uris":{"android":"levelo://app?vid=f0e30bc4-f88c-4d1b-a663-53b5c936569b","ios":"levelo://app?vid=f0e30bc4-f88c-4d1b-a663-53b5c936569b"},"vehicle_type_id":"4","last_reported":1742479807,"current_range_meters":16400,"station_id":"ce4bhg12rcd13ifvqf80","pricing_plan_id":"cebpf4jnsgd1na2vs0mg"},{"bike_id":"e3bf5ea8-ad8d-4ba6-a100-e3541bef8efd","system_id":"levelo_inurba_marseille","lat":43.29036,"lon":5.3997,"is_reserved":false,"is_disabled":false,"rental_uris":{"android":"levelo://app?vid=e3bf5ea8-ad8d-4ba6-a100-e3541bef8efd","ios":"levelo://app?vid=e3bf5ea8-ad8d-4ba6-a100-e3541bef8efd"},"vehicle_type_id":"4","last_reported":1742479807,"current_range_meters":16400,"station_id":"ce4bh392rcd13ifvqdm0","pricing_plan_id":"cebpf4jnsgd1na2vs0mg"},{"bike_id":"77a46c2d-9cbd-4f3f-a42c-10ade93a5563","system_id":"levelo_inurba_marseille","lat":43.26935,"lon":5.38923,"is_reserved":false,"is_disabled":false,"rental_uris":{"android":"levelo://app?vid=77a46c2d-9cbd-4f3f-a42c-10ade93a5563","ios":"levelo://app?vid=77a46c2d-9cbd-4f3f-a42c-10ade93a5563"},"vehicle_type_id":"4","last_reported":1742479807,"current_range_meters":16400,"station_id":"ce4bhhh2rcd13ifvqfl0","pricing_plan_id":"cebpf4jnsgd1na2vs0mg"},{"bike_id":"1f2ec6e1-f05f-40fc-9729-eca2a83af9d8","system_id":"levelo_inurba_marseille","lat":43.25939,"lon":5.40918,"is_reserved":false,"is_disabled":false,"rental_uris":{"android":"levelo://app?vid=1f2ec6e1-f05f-40fc-9729-eca2a83af9d8","ios":"levelo://app?vid=1f2ec6e1-f05f-40fc-9729-eca2a83af9d8"},"vehicle_type_id":"4","last_reported":1742479807,"current_range_meters":16400,"station_id":"ce4bhm92rcd13ifvqglg","pricing_plan_id":"cebpf4jnsgd1na2vs0mg"},{"bike_id":"1d88d6ad-cc36-4cac-ba43-a0c0a09f760d","system_id":"levelo_inurba_marseille","lat":43.25011,"lon":5.38926,"is_reserved":false,"is_disabled":false,"rental_uris":{"android":"levelo://app?vid=1d88d6ad-cc36-4cac-ba43-a0c0a09f760d","ios":"levelo://app?vid=1d88d6ad-cc36-4cac-ba43-a0c0a09f760d"},"vehicle_type_id":"4","last_reported":1742479807,"current_range_meters":16000,"station_id":"ce4bhgp2rcd13ifvqfd0","pricing_plan_id":"cebpf4jnsgd1na2vs0mg"},{"bike_id":"15c04b88-d898-4f59-9522-4058565a4835","system_id":"levelo_inurba_marseille","lat":43.23193,"lon":5.35565,"is_reserved":false,"is_disabled":false,"rental_uris":{"android":"levelo://app?vid=15c04b88-d898-4f59-9522-4058565a4835","ios":"levelo://app?vid=15c04b88-d898-4f59-9522-4058565a4835"},"vehicle_type_id":"4","last_reported":1742479807,"current_range_meters":16400,"station_id":"ce4bhu92rcd13ifvqi70","pricing_plan_id":"cebpf4jnsgd1na2vs0mg"},{"bike_id":"addc9e43-cb17-41f3-a0d8-a264d0dc9a57","system_id":"levelo_inurba_marseille","lat":43.34869,"lon":5.38135,"is_reserved":false,"is_disabled":false,"rental_uris":{"android":"levelo://app?vid=addc9e43-cb17-41f3-a0d8-a264d0dc9a57","ios":"levelo://app?vid=addc9e43-cb17-41f3-a0d8-a264d0dc9a57"},"vehicle_type_id":"4","last_reported":1742479807,"current_range_meters":16400,"station_id":"","pricing_plan_id":"cebpf4jnsgd1na2vs0mg"},{"bike_id":"2156f1fc-c1b8-48ef-9645-fa1d17b65e4a","system_id":"levelo_inurba_marseille","lat":43.27503,"lon":5.42462,"is_reserved":false,"is_disabled":false,"rental_uris":{"android":"levelo://app?vid=2156f1fc-c1b8-48ef-9645-fa1d17b65e4a","ios":"levelo://app?vid=2156f1fc-c1b8-48ef-9645-fa1d17b65e4a"},"vehicle_type_id":"4","last_reported":1742479807,"current_range_meters":16800,"station_id":"ce4bhn92rcd13ifvqgrg","pricing_plan_id":"cebpf4jnsgd1na2vs0mg"},{"bike_id":"b282d051-1739-43e2-96ba-16e2a033d829","system_id":"levelo_inurba_marseille","lat":43.26569,"lon":5.39001,"is_reserved":false,"is_disabled":false,"rental_uris":{"android":"levelo://app?vid=b282d051-1739-43e2-96ba-16e2a033d829","ios":"levelo://app?vid=b282d051-1739-43e2-96ba-16e2a033d829"},"vehicle_type_id":"4","last_reported":1742479807,"current_range_meters":16800,"station_id":"ce4bhe12rcd13ifvqf30","pricing_plan_id":"cebpf4jnsgd1na2vs0mg"},{"bike_id":"141e4538-1f64-4f7a-83b9-c8f36a5d0fbc","system_id":"levelo_inurba_marseille","lat":43.24182,"lon":5.36369,"is_reserved":false,"is_disabled":false,"rental_uris":{"android":"levelo://app?vid=141e4538-1f64-4f7a-83b9-c8f36a5d0fbc","ios":"levelo://app?vid=141e4538-1f64-4f7a-83b9-c8f36a5d0fbc"},"vehicle_type_id":"4","last_reported":1742479807,"current_range_meters":16800,"station_id":"cpo36qri1sfpv3e86is0","pricing_plan_id":"cebpf4jnsgd1na2vs0mg"},{"bike_id":"fbbb3028-b15b-4750-98dc-ac90972ecc9b","system_id":"levelo_inurba_marseille","lat":43.32109,"lon":5.36781,"is_reserved":false,"is_disabled":false,"rental_uris":{"android":"levelo://app?vid=fbbb3028-b15b-4750-98dc-ac90972ecc9b","ios":"levelo://app?vid=fbbb3028-b15b-4750-98dc-ac90972ecc9b"},"vehicle_type_id":"4","last_reported":1742479807,"current_range_meters":16800,"station_id":"ce4bhrh2rcd13ifvqhug","pricing_plan_id":"cebpf4jnsgd1na2vs0mg"},{"bike_id":"40581038-c973-4ae1-a655-98cbbbf65297","system_id":"levelo_inurba_marseille","lat":43.25929,"lon":5.40895,"is_reserved":false,"is_disabled":false,"rental_uris":{"android":"levelo://app?vid=40581038-c973-4ae1-a655-98cbbbf65297","ios":"levelo://app?vid=40581038-c973-4ae1-a655-98cbbbf65297"},"vehicle_type_id":"4","last_reported":1742479807,"current_range_meters":16800,"station_id":"ce4bhm92rcd13ifvqglg","pricing_plan_id":"cebpf4jnsgd1na2vs0mg"},{"bike_id":"c8af2ad6-63a7-400e-8c64-da51482f91e1","system_id":"levelo_inurba_marseille","lat":43.3129,"lon":5.40179,"is_reserved":false,"is_disabled":false,"rental_uris":{"android":"levelo://app?vid=c8af2ad6-63a7-400e-8c64-da51482f91e1","ios":"levelo://app?vid=c8af2ad6-63a7-400e-8c64-da51482f91e1"},"vehicle_type_id":"4","last_reported":1742479807,"current_range_meters":16800,"station_id":"ce4bh092rcd13ifvqd30","pricing_plan_id":"cebpf4jnsgd1na2vs0mg"},{"bike_id":"adf9b4fe-5db7-4357-b293-cc0424d5d9b6","system_id":"levelo_inurba_marseille","lat":43.29851,"lon":5.36286,"is_reserved":false,"is_disabled":false,"rental_uris":{"android":"levelo://app?vid=adf9b4fe-5db7-4357-b293-cc0424d5d9b6","ios":"levelo://app?vid=adf9b4fe-5db7-4357-b293-cc0424d5d9b6"},"vehicle_type_id":"4","last_reported":1742479807,"current_range_meters":16800,"station_id":"ce4bgpp2rcd13ifvqc3g","pricing_plan_id":"cebpf4jnsgd1na2vs0mg"},{"bike_id":"0ae8b85b-0c5d-4e11-9c4d-0c3c57c36aca","system_id":"levelo_inurba_marseille","lat":43.3048,"lon":5.36679,"is_reserved":false,"is_disabled":false,"rental_uris":{"android":"levelo://app?vid=0ae8b85b-0c5d-4e11-9c4d-0c3c57c36aca","ios":"levelo://app?vid=0ae8b85b-0c5d-4e11-9c4d-0c3c57c36aca"},"vehicle_type_id":"4","last_reported":1742479807,"current_range_meters":16800,"station_id":"ce4bgrp2rcd13ifvqc9g","pricing_plan_id":"cebpf4jnsgd1na2vs0mg"},{"bike_id":"71dff424-5717-40a4-af65-6501953b5097","system_id":"levelo_inurba_marseille","lat":43.29823,"lon":5.39111,"is_reserved":false,"is_disabled":false,"rental_uris":{"android":"levelo://app?vid=71dff424-5717-40a4-af65-6501953b5097","ios":"levelo://app?vid=71dff424-5717-40a4-af65-6501953b5097"},"vehicle_type_id":"4","last_reported":1742479807,"current_range_meters":16800,"station_id":"ce4bh292rcd13ifvqdf0","pricing_plan_id":"cebpf4jnsgd1na2vs0mg"},{"bike_id":"81221047-9250-4a0c-a00c-3114bad37245","system_id":"levelo_inurba_marseille","lat":43.25119,"lon":5.40323,"is_reserved":false,"is_disabled":false,"rental_uris":{"android":"levelo://app?vid=81221047-9250-4a0c-a00c-3114bad37245","ios":"levelo://app?vid=81221047-9250-4a0c-a00c-3114bad37245"},"vehicle_type_id":"4","last_reported":1742479807,"current_range_meters":16800,"station_id":"ce4bhlh2rcd13ifvqgig","pricing_plan_id":"cebpf4jnsgd1na2vs0mg"},{"bike_id":"c40cad6e-50ff-46e7-8ccd-6fea39167325","system_id":"levelo_inurba_marseille","lat":43.25936,"lon":5.40884,"is_reserved":false,"is_disabled":false,"rental_uris":{"android":"levelo://app?vid=c40cad6e-50ff-46e7-8ccd-6fea39167325","ios":"levelo://app?vid=c40cad6e-50ff-46e7-8ccd-6fea39167325"},"vehicle_type_id":"4","last_reported":1742479807,"current_range_meters":16800,"station_id":"ce4bhm92rcd13ifvqglg","pricing_plan_id":"cebpf4jnsgd1na2vs0mg"},{"bike_id":"a06df953-ee24-4eee-acd9-cfb685fc1c62","system_id":"levelo_inurba_marseille","lat":43.31406,"lon":5.37441,"is_reserved":false,"is_disabled":false,"rental_uris":{"android":"levelo://app?vid=a06df953-ee24-4eee-acd9-cfb685fc1c62","ios":"levelo://app?vid=a06df953-ee24-4eee-acd9-cfb685fc1c62"},"vehicle_type_id":"4","last_reported":1742479807,"current_range_meters":17200,"station_id":"","pricing_plan_id":"cebpf4jnsgd1na2vs0mg"},{"bike_id":"c5c72dbc-bdee-478c-8ffc-2a91e1c31a40","system_id":"levelo_inurba_marseille","lat":43.30142,"lon":5.38555,"is_reserved":false,"is_disabled":false,"rental_uris":{"android":"levelo://app?vid=c5c72dbc-bdee-478c-8ffc-2a91e1c31a40","ios":"levelo://app?vid=c5c72dbc-bdee-478c-8ffc-2a91e1c31a40"},"vehicle_type_id":"4","last_reported":1742479807,"current_range_meters":17200,"station_id":"","pricing_plan_id":"cebpf4jnsgd1na2vs0mg"},{"bike_id":"2f608053-a475-4cd0-9217-fb6dc09de981","system_id":"levelo_inurba_marseille","lat":43.2465,"lon":5.38899,"is_reserved":false,"is_disabled":false,"rental_uris":{"android":"levelo://app?vid=2f608053-a475-4cd0-9217-fb6dc09de981","ios":"levelo://app?vid=2f608053-a475-4cd0-9217-fb6dc09de981"},"vehicle_type_id":"4","last_reported":1742479807,"current_range_meters":17200,"station_id":"ce4bhg12rcd13ifvqf60","pricing_plan_id":"cebpf4jnsgd1na2vs0mg"},{"bike_id":"be8ab77c-d173-44ef-8ada-1be9b78970ba","system_id":"levelo_inurba_marseille","lat":43.29871,"lon":5.39735,"is_reserved":false,"is_disabled":false,"rental_uris":{"android":"levelo://app?vid=be8ab77c-d173-44ef-8ada-1be9b78970ba","ios":"levelo://app?vid=be8ab77c-d173-44ef-8ada-1be9b78970ba"},"vehicle_type_id":"4","last_reported":1742479807,"current_range_meters":17200,"station_id":"ce4bh0h2rcd13ifvqd50","pricing_plan_id":"cebpf4jnsgd1na2vs0mg"},{"bike_id":"52c16ac5-3447-4053-956c-78fc8bf0dc7c","system_id":"levelo_inurba_marseille","lat":43.32348,"lon":5.36747,"is_reserved":false,"is_disabled":false,"rental_uris":{"android":"levelo://app?vid=52c16ac5-3447-4053-956c-78fc8bf0dc7c","ios":"levelo://app?vid=52c16ac5-3447-4053-956c-78fc8bf0dc7c"},"vehicle_type_id":"4","last_reported":1742479807,"current_range_meters":17200,"station_id":"ce4bhsh2rcd13ifvqi2g","pricing_plan_id":"cebpf4jnsgd1na2vs0mg"},{"bike_id":"88a445ef-6243-4533-acd3-56faf0819909","system_id":"levelo_inurba_marseille","lat":43.291016,"lon":5.381338,"is_reserved":false,"is_disabled":false,"rental_uris":{"android":"levelo://app?vid=88a445ef-6243-4533-acd3-56faf0819909","ios":"levelo://app?vid=88a445ef-6243-4533-acd3-56faf0819909"},"vehicle_type_id":"4","last_reported":1742479807,"current_range_meters":17200,"station_id":"ce4bhph2rcd13ifvqhdg","pricing_plan_id":"cebpf4jnsgd1na2vs0mg"},{"bike_id":"9f1c3e5c-869d-4869-b7c6-0c926f2da6bf","system_id":"levelo_inurba_marseille","lat":43.28342,"lon":5.39805,"is_reserved":false,"is_disabled":false,"rental_uris":{"android":"levelo://app?vid=9f1c3e5c-869d-4869-b7c6-0c926f2da6bf","ios":"levelo://app?vid=9f1c3e5c-869d-4869-b7c6-0c926f2da6bf"},"vehicle_type_id":"4","last_reported":1742479807,"current_range_meters":17200,"station_id":"","pricing_plan_id":"cebpf4jnsgd1na2vs0mg"},{"bike_id":"9e3d55ff-203d-46ab-99fa-69313c0f2ab9","system_id":"levelo_inurba_marseille","lat":43.30931,"lon":5.40147,"is_reserved":false,"is_disabled":false,"rental_uris":{"android":"levelo://app?vid=9e3d55ff-203d-46ab-99fa-69313c0f2ab9","ios":"levelo://app?vid=9e3d55ff-203d-46ab-99fa-69313c0f2ab9"},"vehicle_type_id":"4","last_reported":1742479807,"current_range_meters":17200,"station_id":"ce4bgvp2rcd13ifvqct0","pricing_plan_id":"cebpf4jnsgd1na2vs0mg"},{"bike_id":"c27bf79e-52cc-4497-80ae-353b40223afb","system_id":"levelo_inurba_marseille","lat":43.28706,"lon":5.37959,"is_reserved":false,"is_disabled":false,"rental_uris":{"android":"levelo://app?vid=c27bf79e-52cc-4497-80ae-353b40223afb","ios":"levelo://app?vid=c27bf79e-52cc-4497-80ae-353b40223afb"},"vehicle_type_id":"4","last_reported":1742479807,"current_range_meters":17200,"station_id":"ce4bh9p2rcd13ifvqec0","pricing_plan_id":"cebpf4jnsgd1na2vs0mg"},{"bike_id":"3594ef93-c32c-4441-8fa9-65bceef7808c","system_id":"levelo_inurba_marseille","lat":43.26945,"lon":5.3865,"is_reserved":false,"is_disabled":false,"rental_uris":{"android":"levelo://app?vid=3594ef93-c32c-4441-8fa9-65bceef7808c","ios":"levelo://app?vid=3594ef93-c32c-4441-8fa9-65bceef7808c"},"vehicle_type_id":"4","last_reported":1742479807,"current_range_meters":17200,"station_id":"ce4bhh92rcd13ifvqfh0","pricing_plan_id":"cebpf4jnsgd1na2vs0mg"},{"bike_id":"2b94e4dd-2dd5-4881-ab38-40eb855f87c1","system_id":"levelo_inurba_marseille","lat":43.29847,"lon":5.36284,"is_reserved":false,"is_disabled":false,"rental_uris":{"android":"levelo://app?vid=2b94e4dd-2dd5-4881-ab38-40eb855f87c1","ios":"levelo://app?vid=2b94e4dd-2dd5-4881-ab38-40eb855f87c1"},"vehicle_type_id":"4","last_reported":1742479807,"current_range_meters":17200,"station_id":"ce4bgpp2rcd13ifvqc3g","pricing_plan_id":"cebpf4jnsgd1na2vs0mg"},{"bike_id":"b34ee15a-4d1a-46ba-86bc-ebbd23b7583a","system_id":"levelo_inurba_marseille","lat":43.29156,"lon":5.37162,"is_reserved":false,"is_disabled":false,"rental_uris":{"android":"levelo://app?vid=b34ee15a-4d1a-46ba-86bc-ebbd23b7583a","ios":"levelo://app?vid=b34ee15a-4d1a-46ba-86bc-ebbd23b7583a"},"vehicle_type_id":"4","last_reported":1742479807,"current_range_meters":17200,"station_id":"ce4bha92rcd13ifvqeh0","pricing_plan_id":"cebpf4jnsgd1na2vs0mg"},{"bike_id":"01f4bda3-0c44-4479-b697-f25973546437","system_id":"levelo_inurba_marseille","lat":43.27685,"lon":5.38876,"is_reserved":false,"is_disabled":false,"rental_uris":{"android":"levelo://app?vid=01f4bda3-0c44-4479-b697-f25973546437","ios":"levelo://app?vid=01f4bda3-0c44-4479-b697-f25973546437"},"vehicle_type_id":"4","last_reported":1742479807,"current_range_meters":17200,"station_id":"ce4bhi12rcd13ifvqfo0","pricing_plan_id":"cebpf4jnsgd1na2vs0mg"},{"bike_id":"d39b314b-ead5-434b-b1bc-9b843e591a57","system_id":"levelo_inurba_marseille","lat":43.29625,"lon":5.37176,"is_reserved":false,"is_disabled":false,"rental_uris":{"android":"levelo://app?vid=d39b314b-ead5-434b-b1bc-9b843e591a57","ios":"levelo://app?vid=d39b314b-ead5-434b-b1bc-9b843e591a57"},"vehicle_type_id":"4","last_reported":1742479807,"current_range_meters":17200,"station_id":"ce4bgnh2rcd13ifvqc0g","pricing_plan_id":"cebpf4jnsgd1na2vs0mg"},{"bike_id":"c23beabc-bc1c-4727-b49d-ebbef1e1991c","system_id":"levelo_inurba_marseille","lat":43.31573,"lon":5.38939,"is_reserved":false,"is_disabled":false,"rental_uris":{"android":"levelo://app?vid=c23beabc-bc1c-4727-b49d-ebbef1e1991c","ios":"levelo://app?vid=c23beabc-bc1c-4727-b49d-ebbef1e1991c"},"vehicle_type_id":"4","last_reported":1742479807,"current_range_meters":17600,"station_id":"","pricing_plan_id":"cebpf4jnsgd1na2vs0mg"},{"bike_id":"2c694cef-fb74-4304-821f-d9695eae9712","system_id":"levelo_inurba_marseille","lat":43.25841,"lon":5.39394,"is_reserved":false,"is_disabled":false,"rental_uris":{"android":"levelo://app?vid=2c694cef-fb74-4304-821f-d9695eae9712","ios":"levelo://app?vid=2c694cef-fb74-4304-821f-d9695eae9712"},"vehicle_type_id":"4","last_reported":1742479807,"current_range_meters":17600,"station_id":"ce4bhip2rcd13ifvqft0","pricing_plan_id":"cebpf4jnsgd1na2vs0mg"},{"bike_id":"bb03a72a-df51-482d-bf72-f84c1a33438d","system_id":"levelo_inurba_marseille","lat":43.23156,"lon":5.43701,"is_reserved":false,"is_disabled":false,"rental_uris":{"android":"levelo://app?vid=bb03a72a-df51-482d-bf72-f84c1a33438d","ios":"levelo://app?vid=bb03a72a-df51-482d-bf72-f84c1a33438d"},"vehicle_type_id":"4","last_reported":1742479807,"current_range_meters":17600,"station_id":"ce4bhmp2rcd13ifvqgog","pricing_plan_id":"cebpf4jnsgd1na2vs0mg"},{"bike_id":"71d7fcdc-614e-482b-bce5-073343101454","system_id":"levelo_inurba_marseille","lat":43.29268,"lon":5.38441,"is_reserved":false,"is_disabled":false,"rental_uris":{"android":"levelo://app?vid=71d7fcdc-614e-482b-bce5-073343101454","ios":"levelo://app?vid=71d7fcdc-614e-482b-bce5-073343101454"},"vehicle_type_id":"4","last_reported":1742479807,"current_range_meters":17600,"station_id":"ce4bh692rcd13ifvqea0","pricing_plan_id":"cebpf4jnsgd1na2vs0mg"},{"bike_id":"b236369d-55f2-4011-90e3-920e7146804e","system_id":"levelo_inurba_marseille","lat":43.29915,"lon":5.37471,"is_reserved":false,"is_disabled":false,"rental_uris":{"android":"levelo://app?vid=b236369d-55f2-4011-90e3-920e7146804e","ios":"levelo://app?vid=b236369d-55f2-4011-90e3-920e7146804e"},"vehicle_type_id":"4","last_reported":1742479807,"current_range_meters":17600,"station_id":"ce4bgjh2rcd13ifvqbg0","pricing_plan_id":"cebpf4jnsgd1na2vs0mg"},{"bike_id":"5fa8d522-5d89-4b0f-a122-9d67c97c9521","system_id":"levelo_inurba_marseille","lat":43.30469,"lon":5.379,"is_reserved":false,"is_disabled":false,"rental_uris":{"android":"levelo://app?vid=5fa8d522-5d89-4b0f-a122-9d67c97c9521","ios":"levelo://app?vid=5fa8d522-5d89-4b0f-a122-9d67c97c9521"},