{"last_updated":1741049310,"ttl":60,"version":"2.2","data":{"bikes":[{"bike_id":"95afa0c0-f166-412a-9dc9-36b516bde54c","system_id":"levelo_inurba_marseille","lat":43.31109,"lon":5.3778,"is_reserved":false,"is_disabled":false,"rental_uris":{"android":"levelo://app?vid=95afa0c0-f166-412a-9dc9-36b516bde54c","ios":"levelo://app?vid=95afa0c0-f166-412a-9dc9-36b516bde54c"},"vehicle_type_id":"4","last_reported":1741049310,"current_range_meters":2800,"station_id":"ce4bgt92rcd13ifvqcg0","pricing_plan_id":"cebpf4jnsgd1na2vs0mg"},{"bike_id":"fbb434ec-fb3e-4b4d-be26-675e17ec36af","system_id":"levelo_inurba_marseille","lat":43.23135,"lon":5.43716,"is_reserved":false,"is_disabled":true,"rental_uris":{"android":"levelo://app?vid=fbb434ec-fb3e-4b4d-be26-675e17ec36af","ios":"levelo://app?vid=fbb434ec-fb3e-4b4d-be26-675e17ec36af"},"vehicle_type_id":"4","last_reported":1741049310,"current_range_meters":3200,"station_id":"ce4bhmp2rcd13ifvqgog","pricing_plan_id":"cebpf4jnsgd1na2vs0mg"},{"bike_id":"7294fa1b-6789-4d34-92da-72d6801cf1aa","system_id":"levelo_inurba_marseille","lat":43.32723,"lon":5.36262,"is_reserved":false,"is_disabled":false,"rental_uris":{"android":"levelo://app?vid=7294fa1b-6789-4d34-92da-72d6801cf1aa","ios":"levelo://app?vid=7294fa1b-6789-4d34-92da-72d6801cf1aa"},"vehicle_type_id":"4","last_reported":1741049310,"current_range_meters":3200,"station_id":"","pricing_plan_id":"cebpf4jnsgd1na2vs0mg"},{"bike_id":"2c15bcff-6aec-40d5-8ca8-80a2ed6cf8a4","system_id":"levelo_inurba_marseille","lat":43.27808,"lon":5.42828,"is_reserved":false,"is_disabled":true,"rental_uris":{"android":"levelo://app?vid=2c15bcff-6aec-40d5-8ca8-80a2ed6cf8a4","ios":"levelo://app?vid=2c15bcff-6aec-40d5-8ca8-80a2ed6cf8a4"},"vehicle_type_id":"4","last_reported":1741049310,"current_range_meters":3600,"station_id":"","pricing_plan_id":"cebpf4jnsgd1na2vs0mg"},{"bike_id":"b4a958b6-c20a-49d7-b146-1203321285d8","system_id":"levelo_inurba_marseille","lat":43.23192,"lon":5.39984,"is_reserved":false,"is_disabled":false,"rental_uris":{"android":"levelo://app?vid=b4a958b6-c20a-49d7-b146-1203321285d8","ios":"levelo://app?vid=b4a958b6-c20a-49d7-b146-1203321285d8"},"vehicle_type_id":"4","last_reported":1741049310,"current_range_meters":3600,"station_id":"ce4bhn12rcd13ifvqgqg","pricing_plan_id":"cebpf4jnsgd1na2vs0mg"},{"bike_id":"ed66d6d0-2199-4330-a81f-5b8beacb5347","system_id":"levelo_inurba_marseille","lat":43.28393,"lon":5.37508,"is_reserved":false,"is_disabled":false,"rental_uris":{"android":"levelo://app?vid=ed66d6d0-2199-4330-a81f-5b8beacb5347","ios":"levelo://app?vid=ed66d6d0-2199-4330-a81f-5b8beacb5347"},"vehicle_type_id":"4","last_reported":1741049310,"current_range_meters":3600,"station_id":"ce4bh412rcd13ifvqds0","pricing_plan_id":"cebpf4jnsgd1na2vs0mg"},{"bike_id":"face0865-d642-455a-b3a5-4e8ed90ff01b","system_id":"levelo_inurba_marseille","lat":43.25826,"lon":5.39427,"is_reserved":false,"is_disabled":true,"rental_uris":{"android":"levelo://app?vid=face0865-d642-455a-b3a5-4e8ed90ff01b","ios":"levelo://app?vid=face0865-d642-455a-b3a5-4e8ed90ff01b"},"vehicle_type_id":"4","last_reported":1741049310,"current_range_meters":4400,"station_id":"ce4bhip2rcd13ifvqft0","pricing_plan_id":"cebpf4jnsgd1na2vs0mg"},{"bike_id":"e0fc8d54-7aea-4d6e-8fa8-926448c099ad","system_id":"levelo_inurba_marseille","lat":43.26058,"lon":5.39388,"is_reserved":false,"is_disabled":false,"rental_uris":{"android":"levelo://app?vid=e0fc8d54-7aea-4d6e-8fa8-926448c099ad","ios":"levelo://app?vid=e0fc8d54-7aea-4d6e-8fa8-926448c099ad"},"vehicle_type_id":"4","last_reported":1741049310,"current_range_meters":4400,"station_id":"ce4bhh92rcd13ifvqfj0","pricing_plan_id":"cebpf4jnsgd1na2vs0mg"},{"bike_id":"de12ae88-8a49-4127-a4ae-0c2d4331cb91","system_id":"levelo_inurba_marseille","lat":43.2439,"lon":5.37059,"is_reserved":false,"is_disabled":false,"rental_uris":{"android":"levelo://app?vid=de12ae88-8a49-4127-a4ae-0c2d4331cb91","ios":"levelo://app?vid=de12ae88-8a49-4127-a4ae-0c2d4331cb91"},"vehicle_type_id":"4","last_reported":1741049310,"current_range_meters":4800,"station_id":"ce4bhhh2rcd13ifvqfk0","pricing_plan_id":"cebpf4jnsgd1na2vs0mg"},{"bike_id":"3d315e61-6315-47c9-98dc-c9d68e05f756","system_id":"levelo_inurba_marseille","lat":43.31112,"lon":5.37771,"is_reserved":false,"is_disabled":false,"rental_uris":{"android":"levelo://app?vid=3d315e61-6315-47c9-98dc-c9d68e05f756","ios":"levelo://app?vid=3d315e61-6315-47c9-98dc-c9d68e05f756"},"vehicle_type_id":"4","last_reported":1741049310,"current_range_meters":4800,"station_id":"ce4bgt92rcd13ifvqcg0","pricing_plan_id":"cebpf4jnsgd1na2vs0mg"},{"bike_id":"c86d1b11-0279-493b-bb19-a442b89eceb2","system_id":"levelo_inurba_marseille","lat":43.31321,"lon":5.39721,"is_reserved":false,"is_disabled":false,"rental_uris":{"android":"levelo://app?vid=c86d1b11-0279-493b-bb19-a442b89eceb2","ios":"levelo://app?vid=c86d1b11-0279-493b-bb19-a442b89eceb2"},"vehicle_type_id":"4","last_reported":1741049310,"current_range_meters":4800,"station_id":"ce4bgvp2rcd13ifvqcu0","pricing_plan_id":"cebpf4jnsgd1na2vs0mg"},{"bike_id":"fd55ec61-ea03-4691-8f74-530e74ea7311","system_id":"levelo_inurba_marseille","lat":43.25014,"lon":5.38943,"is_reserved":false,"is_disabled":false,"rental_uris":{"android":"levelo://app?vid=fd55ec61-ea03-4691-8f74-530e74ea7311","ios":"levelo://app?vid=fd55ec61-ea03-4691-8f74-530e74ea7311"},"vehicle_type_id":"4","last_reported":1741049310,"current_range_meters":5600,"station_id":"ce4bhgp2rcd13ifvqfd0","pricing_plan_id":"cebpf4jnsgd1na2vs0mg"},{"bike_id":"e7bf9aa4-ebab-4733-bd2d-62b9efb9b294","system_id":"levelo_inurba_marseille","lat":43.274922,"lon":5.424477,"is_reserved":false,"is_disabled":true,"rental_uris":{"android":"levelo://app?vid=e7bf9aa4-ebab-4733-bd2d-62b9efb9b294","ios":"levelo://app?vid=e7bf9aa4-ebab-4733-bd2d-62b9efb9b294"},"vehicle_type_id":"4","last_reported":1741049310,"current_range_meters":5600,"station_id":"ce4bhn92rcd13ifvqgrg","pricing_plan_id":"cebpf4jnsgd1na2vs0mg"},{"bike_id":"76d92f8d-2b0e-4c55-81e9-d5cf026b0e01","system_id":"levelo_inurba_marseille","lat":43.30784,"lon":5.37642,"is_reserved":false,"is_disabled":false,"rental_uris":{"android":"levelo://app?vid=76d92f8d-2b0e-4c55-81e9-d5cf026b0e01","ios":"levelo://app?vid=76d92f8d-2b0e-4c55-81e9-d5cf026b0e01"},"vehicle_type_id":"4","last_reported":1741049310,"current_range_meters":5600,"station_id":"ce4bgv92rcd13ifvqcq0","pricing_plan_id":"cebpf4jnsgd1na2vs0mg"},{"bike_id":"51dac736-e1f7-43ae-a021-5c1e738d6bef","system_id":"levelo_inurba_marseille","lat":43.28845,"lon":5.35826,"is_reserved":false,"is_disabled":true,"rental_uris":{"android":"levelo://app?vid=51dac736-e1f7-43ae-a021-5c1e738d6bef","ios":"levelo://app?vid=51dac736-e1f7-43ae-a021-5c1e738d6bef"},"vehicle_type_id":"4","last_reported":1741049310,"current_range_meters":6000,"station_id":"ce4bhb12rcd13ifvqem0","pricing_plan_id":"cebpf4jnsgd1na2vs0mg"},{"bike_id":"39417ca2-2175-48b1-b974-d12a550664e9","system_id":"levelo_inurba_marseille","lat":43.26955,"lon":5.38618,"is_reserved":false,"is_disabled":false,"rental_uris":{"android":"levelo://app?vid=39417ca2-2175-48b1-b974-d12a550664e9","ios":"levelo://app?vid=39417ca2-2175-48b1-b974-d12a550664e9"},"vehicle_type_id":"4","last_reported":1741049310,"current_range_meters":6400,"station_id":"ce4bhh92rcd13ifvqfh0","pricing_plan_id":"cebpf4jnsgd1na2vs0mg"},{"bike_id":"23c20c41-e8a4-4dc6-b7b9-05b6d6793f3e","system_id":"levelo_inurba_marseille","lat":43.27807,"lon":5.40716,"is_reserved":false,"is_disabled":false,"rental_uris":{"android":"levelo://app?vid=23c20c41-e8a4-4dc6-b7b9-05b6d6793f3e","ios":"levelo://app?vid=23c20c41-e8a4-4dc6-b7b9-05b6d6793f3e"},"vehicle_type_id":"4","last_reported":1741049310,"current_range_meters":6400,"station_id":"ce4bhnh2rcd13ifvqgtg","pricing_plan_id":"cebpf4jnsgd1na2vs0mg"},{"bike_id":"5cd0c11b-f9d6-428f-9f34-0abc9c264bfe","system_id":"levelo_inurba_marseille","lat":43.27987,"lon":5.4167,"is_reserved":false,"is_disabled":false,"rental_uris":{"android":"levelo://app?vid=5cd0c11b-f9d6-428f-9f34-0abc9c264bfe","ios":"levelo://app?vid=5cd0c11b-f9d6-428f-9f34-0abc9c264bfe"},"vehicle_type_id":"4","last_reported":1741049310,"current_range_meters":6400,"station_id":"ce4bho12rcd13ifvqh1g","pricing_plan_id":"cebpf4jnsgd1na2vs0mg"},{"bike_id":"232499b3-0afe-409e-b179-d21bfa5b759f","system_id":"levelo_inurba_marseille","lat":43.27175,"lon":5.40965,"is_reserved":false,"is_disabled":false,"rental_uris":{"android":"levelo://app?vid=232499b3-0afe-409e-b179-d21bfa5b759f","ios":"levelo://app?vid=232499b3-0afe-409e-b179-d21bfa5b759f"},"vehicle_type_id":"4","last_reported":1741049310,"current_range_meters":6400,"station_id":"ce4bhl12rcd13ifvqgf0","pricing_plan_id":"cebpf4jnsgd1na2vs0mg"},{"bike_id":"9db49163-1bcf-4cb4-975b-b1e9ddf4e6d9","system_id":"levelo_inurba_marseille","lat":43.27199,"lon":5.40996,"is_reserved":false,"is_disabled":false,"rental_uris":{"android":"levelo://app?vid=9db49163-1bcf-4cb4-975b-b1e9ddf4e6d9","ios":"levelo://app?vid=9db49163-1bcf-4cb4-975b-b1e9ddf4e6d9"},"vehicle_type_id":"4","last_reported":1741049310,"current_range_meters":6400,"station_id":"ce4bhl12rcd13ifvqgf0","pricing_plan_id":"cebpf4jnsgd1na2vs0mg"},{"bike_id":"1621e0c3-0194-4d15-8a8b-87beecb39238","system_id":"levelo_inurba_marseille","lat":43.32019,"lon":5.38121,"is_reserved":false,"is_disabled":true,"rental_uris":{"android":"levelo://app?vid=1621e0c3-0194-4d15-8a8b-87beecb39238","ios":"levelo://app?vid=1621e0c3-0194-4d15-8a8b-87beecb39238"},"vehicle_type_id":"4","last_reported":1741049310,"current_range_meters":6800,"station_id":"ce4bhr12rcd13ifvqhpg","pricing_plan_id":"cebpf4jnsgd1na2vs0mg"},{"bike_id":"339ea272-f25a-456c-877c-feadbff46552","system_id":"levelo_inurba_marseille","lat":43.27382,"lon":5.3936,"is_reserved":false,"is_disabled":false,"rental_uris":{"android":"levelo://app?vid=339ea272-f25a-456c-877c-feadbff46552","ios":"levelo://app?vid=339ea272-f25a-456c-877c-feadbff46552"},"vehicle_type_id":"4","last_reported":1741049310,"current_range_meters":6800,"station_id":"ce4bhdp2rcd13ifvqf20","pricing_plan_id":"cebpf4jnsgd1na2vs0mg"},{"bike_id":"db4fc20d-ab97-4929-95e5-f6242e1f0965","system_id":"levelo_inurba_marseille","lat":43.25587,"lon":5.38234,"is_reserved":false,"is_disabled":false,"rental_uris":{"android":"levelo://app?vid=db4fc20d-ab97-4929-95e5-f6242e1f0965","ios":"levelo://app?vid=db4fc20d-ab97-4929-95e5-f6242e1f0965"},"vehicle_type_id":"4","last_reported":1741049310,"current_range_meters":6800,"station_id":"ce4bhih2rcd13ifvqfs0","pricing_plan_id":"cebpf4jnsgd1na2vs0mg"},{"bike_id":"73681137-6538-4684-87ec-aa9b29720d1e","system_id":"levelo_inurba_marseille","lat":43.23194,"lon":5.35547,"is_reserved":false,"is_disabled":false,"rental_uris":{"android":"levelo://app?vid=73681137-6538-4684-87ec-aa9b29720d1e","ios":"levelo://app?vid=73681137-6538-4684-87ec-aa9b29720d1e"},"vehicle_type_id":"4","last_reported":1741049310,"current_range_meters":6800,"station_id":"ce4bhu92rcd13ifvqi70","pricing_plan_id":"cebpf4jnsgd1na2vs0mg"},{"bike_id":"2daa11be-071f-479c-9bd0-92101cc53d8c","system_id":"levelo_inurba_marseille","lat":43.28071,"lon":5.39648,"is_reserved":false,"is_disabled":false,"rental_uris":{"android":"levelo://app?vid=2daa11be-071f-479c-9bd0-92101cc53d8c","ios":"levelo://app?vid=2daa11be-071f-479c-9bd0-92101cc53d8c"},"vehicle_type_id":"4","last_reported":1741049310,"current_range_meters":6800,"station_id":"ce4bho12rcd13ifvqh2g","pricing_plan_id":"cebpf4jnsgd1na2vs0mg"},{"bike_id":"93c78c45-afab-486c-8bef-c2b3d219a8cf","system_id":"levelo_inurba_marseille","lat":43.27067,"lon":5.42288,"is_reserved":false,"is_disabled":false,"rental_uris":{"android":"levelo://app?vid=93c78c45-afab-486c-8bef-c2b3d219a8cf","ios":"levelo://app?vid=93c78c45-afab-486c-8bef-c2b3d219a8cf"},"vehicle_type_id":"4","last_reported":1741049310,"current_range_meters":6800,"station_id":"ce4bhk92rcd13ifvqgb0","pricing_plan_id":"cebpf4jnsgd1na2vs0mg"},{"bike_id":"3df256a4-3af2-4e09-ac29-246774d99c68","system_id":"levelo_inurba_marseille","lat":43.23182,"lon":5.3998,"is_reserved":false,"is_disabled":false,"rental_uris":{"android":"levelo://app?vid=3df256a4-3af2-4e09-ac29-246774d99c68","ios":"levelo://app?vid=3df256a4-3af2-4e09-ac29-246774d99c68"},"vehicle_type_id":"4","last_reported":1741049310,"current_range_meters":6800,"station_id":"ce4bhn12rcd13ifvqgqg","pricing_plan_id":"cebpf4jnsgd1na2vs0mg"},{"bike_id":"0a42b506-aec3-4369-808c-c91f0f7eb197","system_id":"levelo_inurba_marseille","lat":43.25579,"lon":5.38203,"is_reserved":false,"is_disabled":false,"rental_uris":{"android":"levelo://app?vid=0a42b506-aec3-4369-808c-c91f0f7eb197","ios":"levelo://app?vid=0a42b506-aec3-4369-808c-c91f0f7eb197"},"vehicle_type_id":"4","last_reported":1741049310,"current_range_meters":6800,"station_id":"ce4bhih2rcd13ifvqfs0","pricing_plan_id":"cebpf4jnsgd1na2vs0mg"},{"bike_id":"40323d2b-7fa4-44fa-8afd-3105efa74518","system_id":"levelo_inurba_marseille","lat":43.24154,"lon":5.39765,"is_reserved":false,"is_disabled":false,"rental_uris":{"android":"levelo://app?vid=40323d2b-7fa4-44fa-8afd-3105efa74518","ios":"levelo://app?vid=40323d2b-7fa4-44fa-8afd-3105efa74518"},"vehicle_type_id":"4","last_reported":1741049310,"current_range_meters":7200,"station_id":"ce4bhn12rcd13ifvqgpg","pricing_plan_id":"cebpf4jnsgd1na2vs0mg"},{"bike_id":"9ee3d017-a864-4e85-a47f-e27d4c7b327f","system_id":"levelo_inurba_marseille","lat":43.27816,"lon":5.4071,"is_reserved":false,"is_disabled":false,"rental_uris":{"android":"levelo://app?vid=9ee3d017-a864-4e85-a47f-e27d4c7b327f","ios":"levelo://app?vid=9ee3d017-a864-4e85-a47f-e27d4c7b327f"},"vehicle_type_id":"4","last_reported":1741049310,"current_range_meters":7200,"station_id":"ce4bhnh2rcd13ifvqgtg","pricing_plan_id":"cebpf4jnsgd1na2vs0mg"},{"bike_id":"2ab11bbe-a968-4ea2-8a15-b47f3045ae38","system_id":"levelo_inurba_marseille","lat":43.23194,"lon":5.39972,"is_reserved":false,"is_disabled":false,"rental_uris":{"android":"levelo://app?vid=2ab11bbe-a968-4ea2-8a15-b47f3045ae38","ios":"levelo://app?vid=2ab11bbe-a968-4ea2-8a15-b47f3045ae38"},"vehicle_type_id":"4","last_reported":1741049310,"current_range_meters":7200,"station_id":"ce4bhn12rcd13ifvqgqg","pricing_plan_id":"cebpf4jnsgd1na2vs0mg"},{"bike_id":"2d4e1c3e-7392-4616-b3cf-646345a17bd5","system_id":"levelo_inurba_marseille","lat":43.29544,"lon":5.42267,"is_reserved":false,"is_disabled":true,"rental_uris":{"android":"levelo://app?vid=2d4e1c3e-7392-4616-b3cf-646345a17bd5","ios":"levelo://app?vid=2d4e1c3e-7392-4616-b3cf-646345a17bd5"},"vehicle_type_id":"4","last_reported":1741049310,"current_range_meters":7200,"station_id":"ce4bhph2rcd13ifvqhdg","pricing_plan_id":"cebpf4jnsgd1na2vs0mg"},{"bike_id":"20fcd85d-61d8-4d54-9d4c-b8949ba5f654","system_id":"levelo_inurba_marseille","lat":43.29966,"lon":5.41307,"is_reserved":false,"is_disabled":false,"rental_uris":{"android":"levelo://app?vid=20fcd85d-61d8-4d54-9d4c-b8949ba5f654","ios":"levelo://app?vid=20fcd85d-61d8-4d54-9d4c-b8949ba5f654"},"vehicle_type_id":"4","last_reported":1741049310,"current_range_meters":7200,"station_id":"ce4bhp12rcd13ifvqh9g","pricing_plan_id":"cebpf4jnsgd1na2vs0mg"},{"bike_id":"55ea9caf-613b-4c31-ba2e-f6b9436a5dae","system_id":"levelo_inurba_marseille","lat":43.3088,"lon":5.39631,"is_reserved":false,"is_disabled":false,"rental_uris":{"android":"levelo://app?vid=55ea9caf-613b-4c31-ba2e-f6b9436a5dae","ios":"levelo://app?vid=55ea9caf-613b-4c31-ba2e-f6b9436a5dae"},"vehicle_type_id":"4","last_reported":1741049310,"current_range_meters":7200,"station_id":"ce4bh012rcd13ifvqcv0","pricing_plan_id":"cebpf4jnsgd1na2vs0mg"},{"bike_id":"5da70b26-5045-4fcf-85cf-7f68a925e135","system_id":"levelo_inurba_marseille","lat":43.28002,"lon":5.41661,"is_reserved":false,"is_disabled":false,"rental_uris":{"android":"levelo://app?vid=5da70b26-5045-4fcf-85cf-7f68a925e135","ios":"levelo://app?vid=5da70b26-5045-4fcf-85cf-7f68a925e135"},"vehicle_type_id":"4","last_reported":1741049310,"current_range_meters":7200,"station_id":"ce4bho12rcd13ifvqh1g","pricing_plan_id":"cebpf4jnsgd1na2vs0mg"},{"bike_id":"9aa030fc-75b6-46d2-bc65-2c1c00869ae1","system_id":"levelo_inurba_marseille","lat":43.25085,"lon":5.39507,"is_reserved":false,"is_disabled":false,"rental_uris":{"android":"levelo://app?vid=9aa030fc-75b6-46d2-bc65-2c1c00869ae1","ios":"levelo://app?vid=9aa030fc-75b6-46d2-bc65-2c1c00869ae1"},"vehicle_type_id":"4","last_reported":1741049310,"current_range_meters":7200,"station_id":"ce4bhm12rcd13ifvqgkg","pricing_plan_id":"cebpf4jnsgd1na2vs0mg"},{"bike_id":"5de910b9-0982-426e-92ef-dce90a9b8ac0","system_id":"levelo_inurba_marseille","lat":43.29283,"lon":5.40118,"is_reserved":false,"is_disabled":false,"rental_uris":{"android":"levelo://app?vid=5de910b9-0982-426e-92ef-dce90a9b8ac0","ios":"levelo://app?vid=5de910b9-0982-426e-92ef-dce90a9b8ac0"},"vehicle_type_id":"4","last_reported":1741049310,"current_range_meters":7200,"station_id":"ce4bh312rcd13ifvqdk0","pricing_plan_id":"cebpf4jnsgd1na2vs0mg"},{"bike_id":"f381c9bd-14fa-41ab-b589-3ecebd6dfe48","system_id":"levelo_inurba_marseille","lat":43.32365,"lon":5.36756,"is_reserved":false,"is_disabled":false,"rental_uris":{"android":"levelo://app?vid=f381c9bd-14fa-41ab-b589-3ecebd6dfe48","ios":"levelo://app?vid=f381c9bd-14fa-41ab-b589-3ecebd6dfe48"},"vehicle_type_id":"4","last_reported":1741049310,"current_range_meters":7200,"station_id":"ce4bhsh2rcd13ifvqi2g","pricing_plan_id":"cebpf4jnsgd1na2vs0mg"},{"bike_id":"47764461-a083-4491-b7d7-d67e7951e162","system_id":"levelo_inurba_marseille","lat":43.25724,"lon":5.41103,"is_reserved":false,"is_disabled":false,"rental_uris":{"android":"levelo://app?vid=47764461-a083-4491-b7d7-d67e7951e162","ios":"levelo://app?vid=47764461-a083-4491-b7d7-d67e7951e162"},"vehicle_type_id":"4","last_reported":1741049310,"current_range_meters":8000,"station_id":"ce4bhkp2rcd13ifvqgd0","pricing_plan_id":"cebpf4jnsgd1na2vs0mg"},{"bike_id":"81550f35-e057-4f5f-85ab-a64f8f806073","system_id":"levelo_inurba_marseille","lat":43.28837,"lon":5.39322,"is_reserved":false,"is_disabled":false,"rental_uris":{"android":"levelo://app?vid=81550f35-e057-4f5f-85ab-a64f8f806073","ios":"levelo://app?vid=81550f35-e057-4f5f-85ab-a64f8f806073"},"vehicle_type_id":"4","last_reported":1741049310,"current_range_meters":8000,"station_id":"ce4bh2p2rcd13ifvqdi0","pricing_plan_id":"cebpf4jnsgd1na2vs0mg"},{"bike_id":"89cb348e-b4f6-4810-b86f-98d924074122","system_id":"levelo_inurba_marseille","lat":43.32367,"lon":5.38882,"is_reserved":false,"is_disabled":false,"rental_uris":{"android":"levelo://app?vid=89cb348e-b4f6-4810-b86f-98d924074122","ios":"levelo://app?vid=89cb348e-b4f6-4810-b86f-98d924074122"},"vehicle_type_id":"4","last_reported":1741049310,"current_range_meters":8000,"station_id":"ce4bhqp2rcd13ifvqhog","pricing_plan_id":"cebpf4jnsgd1na2vs0mg"},{"bike_id":"b7baf54f-5a7f-48ec-9282-59f318b50e79","system_id":"levelo_inurba_marseille","lat":43.29246,"lon":5.40895,"is_reserved":false,"is_disabled":false,"rental_uris":{"android":"levelo://app?vid=b7baf54f-5a7f-48ec-9282-59f318b50e79","ios":"levelo://app?vid=b7baf54f-5a7f-48ec-9282-59f318b50e79"},"vehicle_type_id":"4","last_reported":1741049310,"current_range_meters":8000,"station_id":"ce4bh192rcd13ifvqdc0","pricing_plan_id":"cebpf4jnsgd1na2vs0mg"},{"bike_id":"3d5c50e1-2bc4-477d-ab16-0b0d1c7d5d18","system_id":"levelo_inurba_marseille","lat":43.31274,"lon":5.40169,"is_reserved":false,"is_disabled":false,"rental_uris":{"android":"levelo://app?vid=3d5c50e1-2bc4-477d-ab16-0b0d1c7d5d18","ios":"levelo://app?vid=3d5c50e1-2bc4-477d-ab16-0b0d1c7d5d18"},"vehicle_type_id":"4","last_reported":1741049310,"current_range_meters":8000,"station_id":"ce4bh092rcd13ifvqd30","pricing_plan_id":"cebpf4jnsgd1na2vs0mg"},{"bike_id":"cc33fbb4-9af6-4003-b965-a7312e3c1cb7","system_id":"levelo_inurba_marseille","lat":43.29715,"lon":5.37926,"is_reserved":false,"is_disabled":false,"rental_uris":{"android":"levelo://app?vid=cc33fbb4-9af6-4003-b965-a7312e3c1cb7","ios":"levelo://app?vid=cc33fbb4-9af6-4003-b965-a7312e3c1cb7"},"vehicle_type_id":"4","last_reported":1741049310,"current_range_meters":8000,"station_id":"","pricing_plan_id":"cebpf4jnsgd1na2vs0mg"},{"bike_id":"03dd3bde-f878-4cdd-b6d6-20dffc9da189","system_id":"levelo_inurba_marseille","lat":43.29239,"lon":5.4019,"is_reserved":false,"is_disabled":false,"rental_uris":{"android":"levelo://app?vid=03dd3bde-f878-4cdd-b6d6-20dffc9da189","ios":"levelo://app?vid=03dd3bde-f878-4cdd-b6d6-20dffc9da189"},"vehicle_type_id":"4","last_reported":1741049310,"current_range_meters":8000,"station_id":"ce4bh312rcd13ifvqdk0","pricing_plan_id":"cebpf4jnsgd1na2vs0mg"},{"bike_id":"31b2184d-2679-404d-b959-56eaf43114d2","system_id":"levelo_inurba_marseille","lat":43.26207,"lon":5.40453,"is_reserved":false,"is_disabled":false,"rental_uris":{"android":"levelo://app?vid=31b2184d-2679-404d-b959-56eaf43114d2","ios":"levelo://app?vid=31b2184d-2679-404d-b959-56eaf43114d2"},"vehicle_type_id":"4","last_reported":1741049310,"current_range_meters":8000,"station_id":"ce4bhmh2rcd13ifvqgmg","pricing_plan_id":"cebpf4jnsgd1na2vs0mg"},{"bike_id":"76d154d9-de45-47c4-aa4e-ebc4dd631146","system_id":"levelo_inurba_marseille","lat":43.292596,"lon":5.376194,"is_reserved":false,"is_disabled":false,"rental_uris":{"android":"levelo://app?vid=76d154d9-de45-47c4-aa4e-ebc4dd631146","ios":"levelo://app?vid=76d154d9-de45-47c4-aa4e-ebc4dd631146"},"vehicle_type_id":"4","last_reported":1741049310,"current_range_meters":8000,"station_id":"ce4bgi12rcd13ifvqb80","pricing_plan_id":"cebpf4jnsgd1na2vs0mg"},{"bike_id":"f17ea63a-db17-447a-a811-21a7bc82155d","system_id":"levelo_inurba_marseille","lat":43.29265,"lon":5.37624,"is_reserved":false,"is_disabled":false,"rental_uris":{"android":"levelo://app?vid=f17ea63a-db17-447a-a811-21a7bc82155d","ios":"levelo://app?vid=f17ea63a-db17-447a-a811-21a7bc82155d"},"vehicle_type_id":"4","last_reported":1741049310,"current_range_meters":8000,"station_id":"ce4bgi12rcd13ifvqb80","pricing_plan_id":"cebpf4jnsgd1na2vs0mg"},{"bike_id":"69539ccb-ca63-4555-bd43-968ddad5c3c6","system_id":"levelo_inurba_marseille","lat":43.25009,"lon":5.38909,"is_reserved":false,"is_disabled":false,"rental_uris":{"android":"levelo://app?vid=69539ccb-ca63-4555-bd43-968ddad5c3c6","ios":"levelo://app?vid=69539ccb-ca63-4555-bd43-968ddad5c3c6"},"vehicle_type_id":"4","last_reported":1741049310,"current_range_meters":8000,"station_id":"ce4bhgp2rcd13ifvqfd0","pricing_plan_id":"cebpf4jnsgd1na2vs0mg"},{"bike_id":"c82ed515-533d-442c-95f2-5ddb43b4dcca","system_id":"levelo_inurba_marseille","lat":43.29191,"lon":5.35793,"is_reserved":false,"is_disabled":false,"rental_uris":{"android":"levelo://app?vid=c82ed515-533d-442c-95f2-5ddb43b4dcca","ios":"levelo://app?vid=c82ed515-533d-442c-95f2-5ddb43b4dcca"},"vehicle_type_id":"4","last_reported":1741049310,"current_range_meters":8000,"station_id":"ce4bhb12rcd13ifvqel0","pricing_plan_id":"cebpf4jnsgd1na2vs0mg"},{"bike_id":"b21e25bd-5fe3-4b4c-9515-724946c2cde8","system_id":"levelo_inurba_marseille","lat":43.28438,"lon":5.35892,"is_reserved":false,"is_disabled":false,"rental_uris":{"android":"levelo://app?vid=b21e25bd-5fe3-4b4c-9515-724946c2cde8","ios":"levelo://app?vid=b21e25bd-5fe3-4b4c-9515-724946c2cde8"},"vehicle_type_id":"4","last_reported":1741049310,"current_range_meters":8400,"station_id":"ce4bhah2rcd13ifvqei0","pricing_plan_id":"cebpf4jnsgd1na2vs0mg"},{"bike_id":"8ade5181-cd88-4ece-8534-46a6372826ef","system_id":"levelo_inurba_marseille","lat":43.27695,"lon":5.41524,"is_reserved":false,"is_disabled":false,"rental_uris":{"android":"levelo://app?vid=8ade5181-cd88-4ece-8534-46a6372826ef","ios":"levelo://app?vid=8ade5181-cd88-4ece-8534-46a6372826ef"},"vehicle_type_id":"4","last_reported":1741049310,"current_range_meters":8400,"station_id":"","pricing_plan_id":"cebpf4jnsgd1na2vs0mg"},{"bike_id":"c19d77a8-5520-45f7-9712-a3f89cb69d9f","system_id":"levelo_inurba_marseille","lat":43.2833,"lon":5.3892,"is_reserved":false,"is_disabled":false,"rental_uris":{"android":"levelo://app?vid=c19d77a8-5520-45f7-9712-a3f89cb69d9f","ios":"levelo://app?vid=c19d77a8-5520-45f7-9712-a3f89cb69d9f"},"vehicle_type_id":"4","last_reported":1741049310,"current_range_meters":8400,"station_id":"","pricing_plan_id":"cebpf4jnsgd1na2vs0mg"},{"bike_id":"90a47c55-7d0c-4b6b-94e5-81e21155469e","system_id":"levelo_inurba_marseille","lat":43.2316,"lon":5.43733,"is_reserved":false,"is_disabled":false,"rental_uris":{"android":"levelo://app?vid=90a47c55-7d0c-4b6b-94e5-81e21155469e","ios":"levelo://app?vid=90a47c55-7d0c-4b6b-94e5-81e21155469e"},"vehicle_type_id":"4","last_reported":1741049310,"current_range_meters":8400,"station_id":"ce4bhmp2rcd13ifvqgog","pricing_plan_id":"cebpf4jnsgd1na2vs0mg"},{"bike_id":"c55f943c-a1f5-4b2f-86d0-ef3cfa5b4d57","system_id":"levelo_inurba_marseille","lat":43.25118,"lon":5.40318,"is_reserved":false,"is_disabled":false,"rental_uris":{"android":"levelo://app?vid=c55f943c-a1f5-4b2f-86d0-ef3cfa5b4d57","ios":"levelo://app?vid=c55f943c-a1f5-4b2f-86d0-ef3cfa5b4d57"},"vehicle_type_id":"4","last_reported":1741049310,"current_range_meters":8400,"station_id":"ce4bhlh2rcd13ifvqgig","pricing_plan_id":"cebpf4jnsgd1na2vs0mg"},{"bike_id":"fb971aeb-b114-4044-b8fd-9a7cf18c4741","system_id":"levelo_inurba_marseille","lat":43.3042,"lon":5.39754,"is_reserved":false,"is_disabled":false,"rental_uris":{"android":"levelo://app?vid=fb971aeb-b114-4044-b8fd-9a7cf18c4741","ios":"levelo://app?vid=fb971aeb-b114-4044-b8fd-9a7cf18c4741"},"vehicle_type_id":"4","last_reported":1741049310,"current_range_meters":8400,"station_id":"ce4bh092rcd13ifvqd20","pricing_plan_id":"cebpf4jnsgd1na2vs0mg"},{"bike_id":"e41e0bb8-6c1c-4ce2-b18d-069e130ca183","system_id":"levelo_inurba_marseille","lat":43.23062,"lon":5.3549,"is_reserved":false,"is_disabled":false,"rental_uris":{"android":"levelo://app?vid=e41e0bb8-6c1c-4ce2-b18d-069e130ca183","ios":"levelo://app?vid=e41e0bb8-6c1c-4ce2-b18d-069e130ca183"},"vehicle_type_id":"4","last_reported":1741049310,"current_range_meters":8400,"station_id":"cpo3342slgdg3j2ifvpg","pricing_plan_id":"cebpf4jnsgd1na2vs0mg"},{"bike_id":"c8c30254-af6a-4a88-b0b6-9a3a52022bea","system_id":"levelo_inurba_marseille","lat":43.32436,"lon":5.42666,"is_reserved":false,"is_disabled":false,"rental_uris":{"android":"levelo://app?vid=c8c30254-af6a-4a88-b0b6-9a3a52022bea","ios":"levelo://app?vid=c8c30254-af6a-4a88-b0b6-9a3a52022bea"},"vehicle_type_id":"4","last_reported":1741049310,"current_range_meters":8800,"station_id":"","pricing_plan_id":"cebpf4jnsgd1na2vs0mg"},{"bike_id":"1a8af668-2d08-4b2d-a918-6d19270993f1","system_id":"levelo_inurba_marseille","lat":43.3088,"lon":5.39649,"is_reserved":false,"is_disabled":false,"rental_uris":{"android":"levelo://app?vid=1a8af668-2d08-4b2d-a918-6d19270993f1","ios":"levelo://app?vid=1a8af668-2d08-4b2d-a918-6d19270993f1"},"vehicle_type_id":"4","last_reported":1741049310,"current_range_meters":8800,"station_id":"ce4bh012rcd13ifvqcv0","pricing_plan_id":"cebpf4jnsgd1na2vs0mg"},{"bike_id":"ce8ef3d2-07e3-4512-8813-bcde53a01429","system_id":"levelo_inurba_marseille","lat":43.2417,"lon":5.36402,"is_reserved":false,"is_disabled":false,"rental_uris":{"android":"levelo://app?vid=ce8ef3d2-07e3-4512-8813-bcde53a01429","ios":"levelo://app?vid=ce8ef3d2-07e3-4512-8813-bcde53a01429"},"vehicle_type_id":"4","last_reported":1741049310,"current_range_meters":8800,"station_id":"cpo36qri1sfpv3e86is0","pricing_plan_id":"cebpf4jnsgd1na2vs0mg"},{"bike_id":"8a926c1c-bce9-43a8-b444-8cbd0ddeca91","system_id":"levelo_inurba_marseille","lat":43.337444,"lon":5.374475,"is_reserved":false,"is_disabled":true,"rental_uris":{"android":"levelo://app?vid=8a926c1c-bce9-43a8-b444-8cbd0ddeca91","ios":"levelo://app?vid=8a926c1c-bce9-43a8-b444-8cbd0ddeca91"},"vehicle_type_id":"4","last_reported":1741049310,"current_range_meters":8800,"station_id":"","pricing_plan_id":"cebpf4jnsgd1na2vs0mg"},{"bike_id":"b240d511-138a-48c0-af7a-005b95321099","system_id":"levelo_inurba_marseille","lat":43.27921,"lon":5.3958,"is_reserved":false,"is_disabled":false,"rental_uris":{"android":"levelo://app?vid=b240d511-138a-48c0-af7a-005b95321099","ios":"levelo://app?vid=b240d511-138a-48c0-af7a-005b95321099"},"vehicle_type_id":"4","last_reported":1741049310,"current_range_meters":8800,"station_id":"ce4bhf92rcd13ifvqf40","pricing_plan_id":"cebpf4jnsgd1na2vs0mg"},{"bike_id":"8853f3b9-20a3-4480-9c1d-81721e27d9f9","system_id":"levelo_inurba_marseille","lat":43.2606,"lon":5.39382,"is_reserved":false,"is_disabled":false,"rental_uris":{"android":"levelo://app?vid=8853f3b9-20a3-4480-9c1d-81721e27d9f9","ios":"levelo://app?vid=8853f3b9-20a3-4480-9c1d-81721e27d9f9"},"vehicle_type_id":"4","last_reported":1741049310,"current_range_meters":8800,"station_id":"ce4bhh92rcd13ifvqfj0","pricing_plan_id":"cebpf4jnsgd1na2vs0mg"},{"bike_id":"48d33537-7de8-4746-9396-b1f5f4e83f13","system_id":"levelo_inurba_marseille","lat":43.24083,"lon":5.37762,"is_reserved":false,"is_disabled":false,"rental_uris":{"android":"levelo://app?vid=48d33537-7de8-4746-9396-b1f5f4e83f13","ios":"levelo://app?vid=48d33537-7de8-4746-9396-b1f5f4e83f13"},"vehicle_type_id":"4","last_reported":1741049310,"current_range_meters":8800,"station_id":"ce4bhnp2rcd13ifvqgvg","pricing_plan_id":"cebpf4jnsgd1na2vs0mg"},{"bike_id":"fcc1e2d7-d27d-4efa-925e-da5eb0b689fc","system_id":"levelo_inurba_marseille","lat":43.28103,"lon":5.37849,"is_reserved":false,"is_disabled":false,"rental_uris":{"android":"levelo://app?vid=fcc1e2d7-d27d-4efa-925e-da5eb0b689fc","ios":"levelo://app?vid=fcc1e2d7-d27d-4efa-925e-da5eb0b689fc"},"vehicle_type_id":"4","last_reported":1741049310,"current_range_meters":8800,"station_id":"ce4bha12rcd13ifvqee0","pricing_plan_id":"cebpf4jnsgd1na2vs0mg"},{"bike_id":"ffd5fa35-92ec-4cc7-9a87-e8633ad3e1d2","system_id":"levelo_inurba_marseille","lat":43.27823,"lon":5.40706,"is_reserved":false,"is_disabled":false,"rental_uris":{"android":"levelo://app?vid=ffd5fa35-92ec-4cc7-9a87-e8633ad3e1d2","ios":"levelo://app?vid=ffd5fa35-92ec-4cc7-9a87-e8633ad3e1d2"},"vehicle_type_id":"4","last_reported":1741049310,"current_range_meters":8800,"station_id":"ce4bhnh2rcd13ifvqgtg","pricing_plan_id":"cebpf4jnsgd1na2vs0mg"},{"bike_id":"4586ca83-2f5e-4b63-b2a9-29ed75f9f1db","system_id":"levelo_inurba_marseille","lat":43.287242,"lon":5.360963,"is_reserved":false,"is_disabled":false,"rental_uris":{"android":"levelo://app?vid=4586ca83-2f5e-4b63-b2a9-29ed75f9f1db","ios":"levelo://app?vid=4586ca83-2f5e-4b63-b2a9-29ed75f9f1db"},"vehicle_type_id":"4","last_reported":1741049310,"current_range_meters":8800,"station_id":"cki0cbj6b192h4jlfktg","pricing_plan_id":"cebpf4jnsgd1na2vs0mg"},{"bike_id":"54621c9d-624d-4cde-91dc-efca90547327","system_id":"levelo_inurba_marseille","lat":43.22937,"lon":5.35374,"is_reserved":false,"is_disabled":false,"rental_uris":{"android":"levelo://app?vid=54621c9d-624d-4cde-91dc-efca90547327","ios":"levelo://app?vid=54621c9d-624d-4cde-91dc-efca90547327"},"vehicle_type_id":"4","last_reported":1741049310,"current_range_meters":8800,"station_id":"cpo3532slgdg3j2ikp40","pricing_plan_id":"cebpf4jnsgd1na2vs0mg"},{"bike_id":"b53e751e-c2f6-4da9-aba0-fe23543b117d","system_id":"levelo_inurba_marseille","lat":43.28079,"lon":5.39661,"is_reserved":false,"is_disabled":false,"rental_uris":{"android":"levelo://app?vid=b53e751e-c2f6-4da9-aba0-fe23543b117d","ios":"levelo://app?vid=b53e751e-c2f6-4da9-aba0-fe23543b117d"},"vehicle_type_id":"4","last_reported":1741049310,"current_range_meters":8800,"station_id":"ce4bho12rcd13ifvqh2g","pricing_plan_id":"cebpf4jnsgd1na2vs0mg"},{"bike_id":"f3cd6fd4-60b1-4d0a-8ba2-ff80b7f418e3","system_id":"levelo_inurba_marseille","lat":43.31168,"lon":5.38722,"is_reserved":false,"is_disabled":false,"rental_uris":{"android":"levelo://app?vid=f3cd6fd4-60b1-4d0a-8ba2-ff80b7f418e3","ios":"levelo://app?vid=f3cd6fd4-60b1-4d0a-8ba2-ff80b7f418e3"},"vehicle_type_id":"4","last_reported":1741049310,"current_range_meters":8800,"station_id":"ce4bgv12rcd13ifvqcp0","pricing_plan_id":"cebpf4jnsgd1na2vs0mg"},{"bike_id":"a195e6bc-b894-442a-bea7-6f9808515ae7","system_id":"levelo_inurba_marseille","lat":43.30896,"lon":5.39646,"is_reserved":false,"is_disabled":false,"rental_uris":{"android":"levelo://app?vid=a195e6bc-b894-442a-bea7-6f9808515ae7","ios":"levelo://app?vid=a195e6bc-b894-442a-bea7-6f9808515ae7"},"vehicle_type_id":"4","last_reported":1741049310,"current_range_meters":8800,"station_id":"ce4bh012rcd13ifvqcv0","pricing_plan_id":"cebpf4jnsgd1na2vs0mg"},{"bike_id":"e5af46d8-756e-4b29-887f-202b12c3baa0","system_id":"levelo_inurba_marseille","lat":43.30417,"lon":5.4129,"is_reserved":false,"is_disabled":false,"rental_uris":{"android":"levelo://app?vid=e5af46d8-756e-4b29-887f-202b12c3baa0","ios":"levelo://app?vid=e5af46d8-756e-4b29-887f-202b12c3baa0"},"vehicle_type_id":"4","last_reported":1741049310,"current_range_meters":8800,"station_id":"ce4bhop2rcd13ifvqh8g","pricing_plan_id":"cebpf4jnsgd1na2vs0mg"},{"bike_id":"5f6058f8-17d6-41f9-bf21-73aab62a2071","system_id":"levelo_inurba_marseille","lat":43.25819,"lon":5.39437,"is_reserved":false,"is_disabled":false,"rental_uris":{"android":"levelo://app?vid=5f6058f8-17d6-41f9-bf21-73aab62a2071","ios":"levelo://app?vid=5f6058f8-17d6-41f9-bf21-73aab62a2071"},"vehicle_type_id":"4","last_reported":1741049310,"current_range_meters":9200,"station_id":"ce4bhip2rcd13ifvqft0","pricing_plan_id":"cebpf4jnsgd1na2vs0mg"},{"bike_id":"e1993c30-bf76-4bdd-b6e8-6751d5d1e137","system_id":"levelo_inurba_marseille","lat":43.28567,"lon":5.39495,"is_reserved":false,"is_disabled":false,"rental_uris":{"android":"levelo://app?vid=e1993c30-bf76-4bdd-b6e8-6751d5d1e137","ios":"levelo://app?vid=e1993c30-bf76-4bdd-b6e8-6751d5d1e137"},"vehicle_type_id":"4","last_reported":1741049310,"current_range_meters":9200,"station_id":"ce4bh292rcd13ifvqdg0","pricing_plan_id":"cebpf4jnsgd1na2vs0mg"},{"bike_id":"25430e09-75cf-47bc-9a97-d3cc6d2ee108","system_id":"levelo_inurba_marseille","lat":43.27972,"lon":5.38746,"is_reserved":false,"is_disabled":false,"rental_uris":{"android":"levelo://app?vid=25430e09-75cf-47bc-9a97-d3cc6d2ee108","ios":"levelo://app?vid=25430e09-75cf-47bc-9a97-d3cc6d2ee108"},"vehicle_type_id":"4","last_reported":1741049310,"current_range_meters":9200,"station_id":"ce4bhg12rcd13ifvqf80","pricing_plan_id":"cebpf4jnsgd1na2vs0mg"},{"bike_id":"71cd5d9d-c4a9-4d7f-b25c-bd7ceef0b27e","system_id":"levelo_inurba_marseille","lat":43.31303,"lon":5.37749,"is_reserved":false,"is_disabled":false,"rental_uris":{"android":"levelo://app?vid=71cd5d9d-c4a9-4d7f-b25c-bd7ceef0b27e","ios":"levelo://app?vid=71cd5d9d-c4a9-4d7f-b25c-bd7ceef0b27e"},"vehicle_type_id":"4","last_reported":1741049310,"current_range_meters":9200,"station_id":"","pricing_plan_id":"cebpf4jnsgd1na2vs0mg"},{"bike_id":"07f56688-c23f-4b0c-8af0-19bac8f9d72c","system_id":"levelo_inurba_marseille","lat":43.26199,"lon":5.37927,"is_reserved":false,"is_disabled":false,"rental_uris":{"android":"levelo://app?vid=07f56688-c23f-4b0c-8af0-19bac8f9d72c","ios":"levelo://app?vid=07f56688-c23f-4b0c-8af0-19bac8f9d72c"},"vehicle_type_id":"4","last_reported":1741049310,"current_range_meters":9200,"station_id":"ce4bhjp2rcd13ifvqg90","pricing_plan_id":"cebpf4jnsgd1na2vs0mg"},{"bike_id":"9de31664-78c8-4270-8903-4906d276beb2","system_id":"levelo_inurba_marseille","lat":43.28083,"lon":5.39639,"is_reserved":false,"is_disabled":false,"rental_uris":{"android":"levelo://app?vid=9de31664-78c8-4270-8903-4906d276beb2","ios":"levelo://app?vid=9de31664-78c8-4270-8903-4906d276beb2"},"vehicle_type_id":"4","last_reported":1741049310,"current_range_meters":9200,"station_id":"ce4bho12rcd13ifvqh2g","pricing_plan_id":"cebpf4jnsgd1na2vs0mg"},{"bike_id":"8445baf1-babd-45fd-bde0-38bf964b444c","system_id":"levelo_inurba_marseille","lat":43.31164,"lon":5.38714,"is_reserved":false,"is_disabled":false,"rental_uris":{"android":"levelo://app?vid=8445baf1-babd-45fd-bde0-38bf964b444c","ios":"levelo://app?vid=8445baf1-babd-45fd-bde0-38bf964b444c"},"vehicle_type_id":"4","last_reported":1741049310,"current_range_meters":9200,"station_id":"ce4bgv12rcd13ifvqcp0","pricing_plan_id":"cebpf4jnsgd1na2vs0mg"},{"bike_id":"20f28f92-adf9-48e3-a33b-83ded65127c5","system_id":"levelo_inurba_marseille","lat":43.23065,"lon":5.35497,"is_reserved":false,"is_disabled":false,"rental_uris":{"android":"levelo://app?vid=20f28f92-adf9-48e3-a33b-83ded65127c5","ios":"levelo://app?vid=20f28f92-adf9-48e3-a33b-83ded65127c5"},"vehicle_type_id":"4","last_reported":1741049310,"current_range_meters":9200,"station_id":"cpo3342slgdg3j2ifvpg","pricing_plan_id":"cebpf4jnsgd1na2vs0mg"},{"bike_id":"dd1f8279-3140-4cc7-9d4f-2981bc73d236","system_id":"levelo_inurba_marseille","lat":43.3236,"lon":5.40652,"is_reserved":false,"is_disabled":false,"rental_uris":{"android":"levelo://app?vid=dd1f8279-3140-4cc7-9d4f-2981bc73d236","ios":"levelo://app?vid=dd1f8279-3140-4cc7-9d4f-2981bc73d236"},"vehicle_type_id":"4","last_reported":1741049310,"current_range_meters":9600,"station_id":"ce4bhq92rcd13ifvqhjg","pricing_plan_id":"cebpf4jnsgd1na2vs0mg"},{"bike_id":"f71f9016-cd7a-4d2f-a244-6b67297b159e","system_id":"levelo_inurba_marseille","lat":43.2797,"lon":5.41657,"is_reserved":false,"is_disabled":false,"rental_uris":{"android":"levelo://app?vid=f71f9016-cd7a-4d2f-a244-6b67297b159e","ios":"levelo://app?vid=f71f9016-cd7a-4d2f-a244-6b67297b159e"},"vehicle_type_id":"4","last_reported":1741049310,"current_range_meters":9600,"station_id":"ce4bho12rcd13ifvqh1g","pricing_plan_id":"cebpf4jnsgd1na2vs0mg"},{"bike_id":"853e9f93-6f18-4242-b269-d87025e7bb93","system_id":"levelo_inurba_marseille","lat":43.30731,"lon":5.37094,"is_reserved":false,"is_disabled":false,"rental_uris":{"android":"levelo://app?vid=853e9f93-6f18-4242-b269-d87025e7bb93","ios":"levelo://app?vid=853e9f93-6f18-4242-b269-d87025e7bb93"},"vehicle_type_id":"4","last_reported":1741049310,"current_range_meters":9600,"station_id":"","pricing_plan_id":"cebpf4jnsgd1na2vs0mg"},{"bike_id":"b9314492-a56a-4787-bda8-bd2f48e84ce6","system_id":"levelo_inurba_marseille","lat":43.26221,"lon":5.40434,"is_reserved":false,"is_disabled":false,"rental_uris":{"android":"levelo://app?vid=b9314492-a56a-4787-bda8-bd2f48e84ce6","ios":"levelo://app?vid=b9314492-a56a-4787-bda8-bd2f48e84ce6"},"vehicle_type_id":"4","last_reported":1741049310,"current_range_meters":9600,"station_id":"ce4bhmh2rcd13ifvqgmg","pricing_plan_id":"cebpf4jnsgd1na2vs0mg"},{"bike_id":"caedf473-9313-4874-87c8-230b4a1efdb8","system_id":"levelo_inurba_marseille","lat":43.32479,"lon":5.3657,"is_reserved":false,"is_disabled":false,"rental_uris":{"android":"levelo://app?vid=caedf473-9313-4874-87c8-230b4a1efdb8","ios":"levelo://app?vid=caedf473-9313-4874-87c8-230b4a1efdb8"},"vehicle_type_id":"4","last_reported":1741049310,"current_range_meters":9600,"station_id":"ce4bhs12rcd13ifvqhvg","pricing_plan_id":"cebpf4jnsgd1na2vs0mg"},{"bike_id":"66f40a1c-7781-4ebb-9051-0263d44179e7","system_id":"levelo_inurba_marseille","lat":43.28721,"lon":5.36092,"is_reserved":false,"is_disabled":false,"rental_uris":{"android":"levelo://app?vid=66f40a1c-7781-4ebb-9051-0263d44179e7","ios":"levelo://app?vid=66f40a1c-7781-4ebb-9051-0263d44179e7"},"vehicle_type_id":"4","last_reported":1741049310,"current_range_meters":9600,"station_id":"cki0cbj6b192h4jlfktg","pricing_plan_id":"cebpf4jnsgd1na2vs0mg"},{"bike_id":"16d90626-06af-4b37-91ae-d8b6129ba1c9","system_id":"levelo_inurba_marseille","lat":43.30425,"lon":5.39753,"is_reserved":false,"is_disabled":false,"rental_uris":{"android":"levelo://app?vid=16d90626-06af-4b37-91ae-d8b6129ba1c9","ios":"levelo://app?vid=16d90626-06af-4b37-91ae-d8b6129ba1c9"},"vehicle_type_id":"4","last_reported":1741049310,"current_range_meters":9600,"station_id":"ce4bh092rcd13ifvqd20","pricing_plan_id":"cebpf4jnsgd1na2vs0mg"},{"bike_id":"64953142-7637-42b4-b0d1-c449e63f1db7","system_id":"levelo_inurba_marseille","lat":43.29654,"lon":5.3606,"is_reserved":false,"is_disabled":false,"rental_uris":{"android":"levelo://app?vid=64953142-7637-42b4-b0d1-c449e63f1db7","ios":"levelo://app?vid=64953142-7637-42b4-b0d1-c449e63f1db7"},"vehicle_type_id":"4","last_reported":1741049310,"current_range_meters":10000,"station_id":"","pricing_plan_id":"cebpf4jnsgd1na2vs0mg"},{"bike_id":"4ac02a66-da50-4129-b13c-39bc5c01eb98","system_id":"levelo_inurba_marseille","lat":43.30146,"lon":5.37418,"is_reserved":false,"is_disabled":false,"rental_uris":{"android":"levelo://app?vid=4ac02a66-da50-4129-b13c-39bc5c01eb98","ios":"levelo://app?vid=4ac02a66-da50-4129-b13c-39bc5c01eb98"},"vehicle_type_id":"4","last_reported":1741049310,"current_range_meters":9600,"station_id":"ce4bgs92rcd13ifvqcc0","pricing_plan_id":"cebpf4jnsgd1na2vs0mg"},{"bike_id":"ee26afb6-ba4c-4dc4-8464-b764cc25857b","system_id":"levelo_inurba_marseille","lat":43.27947,"lon":5.410432,"is_reserved":false,"is_disabled":false,"rental_uris":{"android":"levelo://app?vid=ee26afb6-ba4c-4dc4-8464-b764cc25857b","ios":"levelo://app?vid=ee26afb6-ba4c-4dc4-8464-b764cc25857b"},"vehicle_type_id":"4","last_reported":1741049310,"current_range_meters":9600,"station_id":"ce4bhnp2rcd13ifvqh0g","pricing_plan_id":"cebpf4jnsgd1na2vs0mg"},{"bike_id":"2ed2e3e7-e95c-4cb5-a2ea-92715e7ed6d7","system_id":"levelo_inurba_marseille","lat":43.28353,"lon":5.3811,"is_reserved":false,"is_disabled":false,"rental_uris":{"android":"levelo://app?vid=2ed2e3e7-e95c-4cb5-a2ea-92715e7ed6d7","ios":"levelo://app?vid=2ed2e3e7-e95c-4cb5-a2ea-92715e7ed6d7"},"vehicle_type_id":"4","last_reported":1741049310,"current_range_meters":10000,"station_id":"ce4bh412rcd13ifvqdr0","pricing_plan_id":"cebpf4jnsgd1na2vs0mg"},{"bike_id":"1901130a-ffd5-42a0-b994-e2aa42548e35","system_id":"levelo_inurba_marseille","lat":43.26099,"lon":5.41497,"is_reserved":false,"is_disabled":false,"rental_uris":{"android":"levelo://app?vid=1901130a-ffd5-42a0-b994-e2aa42548e35","ios":"levelo://app?vid=1901130a-ffd5-42a0-b994-e2aa42548e35"},"vehicle_type_id":"4","last_reported":1741049310,"current_range_meters":10000,"station_id":"","pricing_plan_id":"cebpf4jnsgd1na2vs0mg"},{"bike_id":"442e17cf-9700-477c-a555-09fc8cf0081c","system_id":"levelo_inurba_marseille","lat":43.28449,"lon":5.35886,"is_reserved":false,"is_disabled":false,"rental_uris":{"android":"levelo://app?vid=442e17cf-9700-477c-a555-09fc8cf0081c","ios":"levelo://app?vid=442e17cf-9700-477c-a555-09fc8cf0081c"},"vehicle_type_id":"4","last_reported":1741049310,"current_range_meters":10000,"station_id":"ce4bhah2rcd13ifvqei0","pricing_plan_id":"cebpf4jnsgd1na2vs0mg"},{"bike_id":"a18fece4-236b-4528-b0b9-389d2006a2ed","system_id":"levelo_inurba_marseille","lat":43.29402,"lon":5.40323,"is_reserved":false,"is_disabled":false,"rental_uris":{"android":"levelo://app?vid=a18fece4-236b-4528-b0b9-389d2006a2ed","ios":"levelo://app?vid=a18fece4-236b-4528-b0b9-389d2006a2ed"},"vehicle_type_id":"4","last_reported":1741049310,"current_range_meters":10000,"station_id":"","pricing_plan_id":"cebpf4jnsgd1na2vs0mg"},{"bike_id":"0753ec27-48d6-4162-a59d-54d599fb737c","system_id":"levelo_inurba_marseille","lat":43.23188,"lon":5.39991,"is_reserved":false,"is_disabled":false,"rental_uris":{"android":"levelo://app?vid=0753ec27-48d6-4162-a59d-54d599fb737c","ios":"levelo://app?vid=0753ec27-48d6-4162-a59d-54d599fb737c"},"vehicle_type_id":"4","last_reported":1741049310,"current_range_meters":10000,"station_id":"ce4bhn12rcd13ifvqgqg","pricing_plan_id":"cebpf4jnsgd1na2vs0mg"},{"bike_id":"41ed89d3-77cd-4311-8513-748a0ca63c4f","system_id":"levelo_inurba_marseille","lat":43.212405,"lon":5.353366,"is_reserved":false,"is_disabled":false,"rental_uris":{"android":"levelo://app?vid=41ed89d3-77cd-4311-8513-748a0ca63c4f","ios":"levelo://app?vid=41ed89d3-77cd-4311-8513-748a0ca63c4f"},"vehicle_type_id":"4","last_reported":1741049310,"current_range_meters":10000,"station_id":"","pricing_plan_id":"cebpf4jnsgd1na2vs0mg"},{"bike_id":"9a386038-9cc6-4b52-b406-e6a33e3dcf23","system_id":"levelo_inurba_marseille","lat":43.28455,"lon":5.35894,"is_reserved":false,"is_disabled":false,"rental_uris":{"android":"levelo://app?vid=9a386038-9cc6-4b52-b406-e6a33e3dcf23","ios":"levelo://app?vid=9a386038-9cc6-4b52-b406-e6a33e3dcf23"},"vehicle_type_id":"4","last_reported":1741049310,"current_range_meters":10000,"station_id":"ce4bhah2rcd13ifvqei0","pricing_plan_id":"cebpf4jnsgd1na2vs0mg"},{"bike_id":"4b8bcc6a-b1ee-4044-9ae8-7c00efea0717","system_id":"levelo_inurba_marseille","lat":43.28412,"lon":5.37513,"is_reserved":false,"is_disabled":false,"rental_uris":{"android":"levelo://app?vid=4b8bcc6a-b1ee-4044-9ae8-7c00efea0717","ios":"levelo://app?vid=4b8bcc6a-b1ee-4044-9ae8-7c00efea0717"},"vehicle_type_id":"4","last_reported":1741049310,"current_range_meters":10000,"station_id":"ce4bh412rcd13ifvqds0","pricing_plan_id":"cebpf4jnsgd1na2vs0mg"},{"bike_id":"bba5c829-32fe-4a1d-9461-a852d59caa6b","system_id":"levelo_inurba_marseille","lat":43.2885,"lon":5.39341,"is_reserved":false,"is_disabled":true,"rental_uris":{"android":"levelo://app?vid=bba5c829-32fe-4a1d-9461-a852d59caa6b","ios":"levelo://app?vid=bba5c829-32fe-4a1d-9461-a852d59caa6b"},"vehicle_type_id":"4","last_reported":1741049310,"current_range_meters":10000,"station_id":"ce4bh2p2rcd13ifvqdi0","pricing_plan_id":"cebpf4jnsgd1na2vs0mg"},{"bike_id":"362b2e41-0f7d-42ca-85b4-447baad17196","system_id":"levelo_inurba_marseille","lat":43.27197,"lon":5.418883,"is_reserved":false,"is_disabled":false,"rental_uris":{"android":"levelo://app?vid=362b2e41-0f7d-42ca-85b4-447baad17196","ios":"levelo://app?vid=362b2e41-0f7d-42ca-85b4-447baad17196"},"vehicle_type_id":"4","last_reported":1741049310,"current_range_meters":10000,"station_id":"","pricing_plan_id":"cebpf4jnsgd1na2vs0mg"},{"bike_id":"0b818497-4d97-451b-b637-cef3d02b5c9d","system_id":"levelo_inurba_marseille","lat":43.31709,"lon":5.43682,"is_reserved":false,"is_disabled":true,"rental_uris":{"android":"levelo://app?vid=0b818497-4d97-451b-b637-cef3d02b5c9d","ios":"levelo://app?vid=0b818497-4d97-451b-b637-cef3d02b5c9d"},"vehicle_type_id":"4","last_reported":1741049310,"current_range_meters":10800,"station_id":"ce4bhp92rcd13ifvqhcg","pricing_plan_id":"cebpf4jnsgd1na2vs0mg"},{"bike_id":"9c9f0913-f60e-48c1-a059-193d8823879b","system_id":"levelo_inurba_marseille","lat":43.29164,"lon":5.39333,"is_reserved":false,"is_disabled":false,"rental_uris":{"android":"levelo://app?vid=9c9f0913-f60e-48c1-a059-193d8823879b","ios":"levelo://app?vid=9c9f0913-f60e-48c1-a059-193d8823879b"},"vehicle_type_id":"4","last_reported":1741049310,"current_range_meters":10800,"station_id":"","pricing_plan_id":"cebpf4jnsgd1na2vs0mg"},{"bike_id":"e09dd725-3dd2-4788-b7e4-7ae67a6ccfcf","system_id":"levelo_inurba_marseille","lat":43.28824,"lon":5.39344,"is_reserved":false,"is_disabled":false,"rental_uris":{"android":"levelo://app?vid=e09dd725-3dd2-4788-b7e4-7ae67a6ccfcf","ios":"levelo://app?vid=e09dd725-3dd2-4788-b7e4-7ae67a6ccfcf"},"vehicle_type_id":"4","last_reported":1741049310,"current_range_meters":10800,"station_id":"ce4bh2p2rcd13ifvqdi0","pricing_plan_id":"cebpf4jnsgd1na2vs0mg"},{"bike_id":"9de42f25-f760-4086-9a08-2934eee1b520","system_id":"levelo_inurba_marseille","lat":43.21229,"lon":5.35327,"is_reserved":false,"is_disabled":false,"rental_uris":{"android":"levelo://app?vid=9de42f25-f760-4086-9a08-2934eee1b520","ios":"levelo://app?vid=9de42f25-f760-4086-9a08-2934eee1b520"},"vehicle_type_id":"4","last_reported":1741049310,"current_range_meters":11200,"station_id":"","pricing_plan_id":"cebpf4jnsgd1na2vs0mg"},{"bike_id":"641bc30e-b086-411e-a196-950ba8189dd3","system_id":"levelo_inurba_marseille","lat":43.30323,"lon":5.40454,"is_reserved":false,"is_disabled":false,"rental_uris":{"android":"levelo://app?vid=641bc30e-b086-411e-a196-950ba8189dd3","ios":"levelo://app?vid=641bc30e-b086-411e-a196-950ba8189dd3"},"vehicle_type_id":"4","last_reported":1741049310,"current_range_meters":11200,"station_id":"ce4bh012rcd13ifvqd10","pricing_plan_id":"cebpf4jnsgd1na2vs0mg"},{"bike_id":"095be3af-e43e-4c12-8377-caa0ebb75794","system_id":"levelo_inurba_marseille","lat":43.28412,"lon":5.37528,"is_reserved":false,"is_disabled":false,"rental_uris":{"android":"levelo://app?vid=095be3af-e43e-4c12-8377-caa0ebb75794","ios":"levelo://app?vid=095be3af-e43e-4c12-8377-caa0ebb75794"},"vehicle_type_id":"4","last_reported":1741049310,"current_range_meters":11200,"station_id":"ce4bh412rcd13ifvqds0","pricing_plan_id":"cebpf4jnsgd1na2vs0mg"},{"bike_id":"36f40a18-1797-485d-9d52-f860a3297b44","system_id":"levelo_inurba_marseille","lat":43.29515,"lon":5.39408,"is_reserved":false,"is_disabled":false,"rental_uris":{"android":"levelo://app?vid=36f40a18-1797-485d-9d52-f860a3297b44","ios":"levelo://app?vid=36f40a18-1797-485d-9d52-f860a3297b44"},"vehicle_type_id":"4","last_reported":1741049310,"current_range_meters":11200,"station_id":"ce4bh292rcd13ifvqdf0","pricing_plan_id":"cebpf4jnsgd1na2vs0mg"},{"bike_id":"102de46f-1f3d-42c6-b125-cb45380886c0","system_id":"levelo_inurba_marseille","lat":43.28454,"lon":5.35901,"is_reserved":false,"is_disabled":false,"rental_uris":{"android":"levelo://app?vid=102de46f-1f3d-42c6-b125-cb45380886c0","ios":"levelo://app?vid=102de46f-1f3d-42c6-b125-cb45380886c0"},"vehicle_type_id":"4","last_reported":1741049310,"current_range_meters":11200,"station_id":"ce4bhah2rcd13ifvqei0","pricing_plan_id":"cebpf4jnsgd1na2vs0mg"},{"bike_id":"2fe8f916-4590-4cd4-978d-98051b849535","system_id":"levelo_inurba_marseille","lat":43.279885,"lon":5.416583,"is_reserved":false,"is_disabled":false,"rental_uris":{"android":"levelo://app?vid=2fe8f916-4590-4cd4-978d-98051b849535","ios":"levelo://app?vid=2fe8f916-4590-4cd4-978d-98051b849535"},"vehicle_type_id":"4","last_reported":1741049310,"current_range_meters":11600,"station_id":"ce4bho12rcd13ifvqh1g","pricing_plan_id":"cebpf4jnsgd1na2vs0mg"},{"bike_id":"e4e91370-e554-4387-b1fb-5ffddc6d4231","system_id":"levelo_inurba_marseille","lat":43.25834,"lon":5.39427,"is_reserved":false,"is_disabled":false,"rental_uris":{"android":"levelo://app?vid=e4e91370-e554-4387-b1fb-5ffddc6d4231","ios":"levelo://app?vid=e4e91370-e554-4387-b1fb-5ffddc6d4231"},"vehicle_type_id":"4","last_reported":1741049310,"current_range_meters":11600,"station_id":"ce4bhip2rcd13ifvqft0","pricing_plan_id":"cebpf4jnsgd1na2vs0mg"},{"bike_id":"37879935-4cf9-468e-9cee-d7233264c869","system_id":"levelo_inurba_marseille","lat":43.30437,"lon":5.39748,"is_reserved":false,"is_disabled":false,"rental_uris":{"android":"levelo://app?vid=37879935-4cf9-468e-9cee-d7233264c869","ios":"levelo://app?vid=37879935-4cf9-468e-9cee-d7233264c869"},"vehicle_type_id":"4","last_reported":1741049310,"current_range_meters":11600,"station_id":"ce4bh092rcd13ifvqd20","pricing_plan_id":"cebpf4jnsgd1na2vs0mg"},{"bike_id":"e29f86e8-2c96-484f-9c1f-a6eb3cd7348e","system_id":"levelo_inurba_marseille","lat":43.27982,"lon":5.4167,"is_reserved":false,"is_disabled":false,"rental_uris":{"android":"levelo://app?vid=e29f86e8-2c96-484f-9c1f-a6eb3cd7348e","ios":"levelo://app?vid=e29f86e8-2c96-484f-9c1f-a6eb3cd7348e"},"vehicle_type_id":"4","last_reported":1741049310,"current_range_meters":11600,"station_id":"ce4bho12rcd13ifvqh1g","pricing_plan_id":"cebpf4jnsgd1na2vs0mg"},{"bike_id":"32cac79a-bb75-480e-9e14-d7497b0ae56e","system_id":"levelo_inurba_marseille","lat":43.2499,"lon":5.38938,"is_reserved":false,"is_disabled":false,"rental_uris":{"android":"levelo://app?vid=32cac79a-bb75-480e-9e14-d7497b0ae56e","ios":"levelo://app?vid=32cac79a-bb75-480e-9e14-d7497b0ae56e"},"vehicle_type_id":"4","last_reported":1741049310,"current_range_meters":11600,"station_id":"ce4bhgp2rcd13ifvqfd0","pricing_plan_id":"cebpf4jnsgd1na2vs0mg"},{"bike_id":"bce611a7-5044-470a-9dc2-ccdbc1151c5c","system_id":"levelo_inurba_marseille","lat":43.32486,"lon":5.36559,"is_reserved":false,"is_disabled":false,"rental_uris":{"android":"levelo://app?vid=bce611a7-5044-470a-9dc2-ccdbc1151c5c","ios":"levelo://app?vid=bce611a7-5044-470a-9dc2-ccdbc1151c5c"},"vehicle_type_id":"4","last_reported":1741049310,"current_range_meters":11600,"station_id":"ce4bhs12rcd13ifvqhvg","pricing_plan_id":"cebpf4jnsgd1na2vs0mg"},{"bike_id":"29c60754-9df2-4a82-8936-100fec420b4c","system_id":"levelo_inurba_marseille","lat":43.29865,"lon":5.39742,"is_reserved":false,"is_disabled":false,"rental_uris":{"android":"levelo://app?vid=29c60754-9df2-4a82-8936-100fec420b4c","ios":"levelo://app?vid=29c60754-9df2-4a82-8936-100fec420b4c"},"vehicle_type_id":"4","last_reported":1741049310,"current_range_meters":12000,"station_id":"ce4bh0h2rcd13ifvqd50","pricing_plan_id":"cebpf4jnsgd1na2vs0mg"},{"bike_id":"e7ec1ac1-2323-47bd-a2b5-7cd3afb282cf","system_id":"levelo_inurba_marseille","lat":43.26552,"lon":5.37288,"is_reserved":false,"is_disabled":false,"rental_uris":{"android":"levelo://app?vid=e7ec1ac1-2323-47bd-a2b5-7cd3afb282cf","ios":"levelo://app?vid=e7ec1ac1-2323-47bd-a2b5-7cd3afb282cf"},"vehicle_type_id":"4","last_reported":1741049310,"current_range_meters":12000,"station_id":"ce4bhg12rcd13ifvqf70","pricing_plan_id":"cebpf4jnsgd1na2vs0mg"},{"bike_id":"e732d9f9-ef41-4e2f-8b17-b7fa6b0dc70f","system_id":"levelo_inurba_marseille","lat":43.30301,"lon":5.36907,"is_reserved":false,"is_disabled":false,"rental_uris":{"android":"levelo://app?vid=e732d9f9-ef41-4e2f-8b17-b7fa6b0dc70f","ios":"levelo://app?vid=e732d9f9-ef41-4e2f-8b17-b7fa6b0dc70f"},"vehicle_type_id":"4","last_reported":1741049310,"current_range_meters":12000,"station_id":"ce4bgqh2rcd13ifvqc5g","pricing_plan_id":"cebpf4jnsgd1na2vs0mg"},{"bike_id":"a5193847-231c-4c8c-b335-8579028b0ddd","system_id":"levelo_inurba_marseille","lat":43.27822,"lon":5.40701,"is_reserved":false,"is_disabled":false,"rental_uris":{"android":"levelo://app?vid=a5193847-231c-4c8c-b335-8579028b0ddd","ios":"levelo://app?vid=a5193847-231c-4c8c-b335-8579028b0ddd"},"vehicle_type_id":"4","last_reported":1741049310,"current_range_meters":12000,"station_id":"ce4bhnh2rcd13ifvqgtg","pricing_plan_id":"cebpf4jnsgd1na2vs0mg"},{"bike_id":"ca062356-a8b7-4a61-8f3f-0e74b13a3ad4","system_id":"levelo_inurba_marseille","lat":43.31125,"lon":5.3776,"is_reserved":false,"is_disabled":false,"rental_uris":{"android":"levelo://app?vid=ca062356-a8b7-4a61-8f3f-0e74b13a3ad4","ios":"levelo://app?vid=ca062356-a8b7-4a61-8f3f-0e74b13a3ad4"},"vehicle_type_id":"4","last_reported":1741049310,"current_range_meters":12000,"station_id":"ce4bgt92rcd13ifvqcg0","pricing_plan_id":"cebpf4jnsgd1na2vs0mg"},{"bike_id":"d1b38336-63c7-4d2d-a2d6-75d4567269de","system_id":"levelo_inurba_marseille","lat":43.30948,"lon":5.40162,"is_reserved":false,"is_disabled":false,"rental_uris":{"android":"levelo://app?vid=d1b38336-63c7-4d2d-a2d6-75d4567269de","ios":"levelo://app?vid=d1b38336-63c7-4d2d-a2d6-75d4567269de"},"vehicle_type_id":"4","last_reported":1741049310,"current_range_meters":12000,"station_id":"ce4bgvp2rcd13ifvqct0","pricing_plan_id":"cebpf4jnsgd1na2vs0mg"},{"bike_id":"cb014a6b-6553-43cb-90ee-c6d22cf5883f","system_id":"levelo_inurba_marseille","lat":43.26062,"lon":5.39392,"is_reserved":false,"is_disabled":false,"rental_uris":{"android":"levelo://app?vid=cb014a6b-6553-43cb-90ee-c6d22cf5883f","ios":"levelo://app?vid=cb014a6b-6553-43cb-90ee-c6d22cf5883f"},"vehicle_type_id":"4","last_reported":1741049310,"current_range_meters":12000,"station_id":"ce4bhh92rcd13ifvqfj0","pricing_plan_id":"cebpf4jnsgd1na2vs0mg"},{"bike_id":"373d78c5-16bc-4095-9a66-2b440c99b361","system_id":"levelo_inurba_marseille","lat":43.27813,"lon":5.4072,"is_reserved":false,"is_disabled":false,"rental_uris":{"android":"levelo://app?vid=373d78c5-16bc-4095-9a66-2b440c99b361","ios":"levelo://app?vid=373d78c5-16bc-4095-9a66-2b440c99b361"},"vehicle_type_id":"4","last_reported":1741049310,"current_range_meters":12400,"station_id":"ce4bhnh2rcd13ifvqgtg","pricing_plan_id":"cebpf4jnsgd1na2vs0mg"},{"bike_id":"33d78023-4d5b-48ce-9665-2809bebb67ae","system_id":"levelo_inurba_marseille","lat":43.28468,"lon":5.35892,"is_reserved":false,"is_disabled":false,"rental_uris":{"android":"levelo://app?vid=33d78023-4d5b-48ce-9665-2809bebb67ae","ios":"levelo://app?vid=33d78023-4d5b-48ce-9665-2809bebb67ae"},"vehicle_type_id":"4","last_reported":1741049310,"current_range_meters":12400,"station_id":"ce4bhah2rcd13ifvqei0","pricing_plan_id":"cebpf4jnsgd1na2vs0mg"},{"bike_id":"edbf45de-8c0c-4479-9d63-ef4b01957d93","system_id":"levelo_inurba_marseille","lat":43.28732,"lon":5.36076,"is_reserved":false,"is_disabled":false,"rental_uris":{"android":"levelo://app?vid=edbf45de-8c0c-4479-9d63-ef4b01957d93","ios":"levelo://app?vid=edbf45de-8c0c-4479-9d63-ef4b01957d93"},"vehicle_type_id":"4","last_reported":1741049310,"current_range_meters":12400,"station_id":"cki0cbj6b192h4jlfktg","pricing_plan_id":"cebpf4jnsgd1na2vs0mg"},{"bike_id":"355e1532-21c7-4584-bd3e-0af4695c627f","system_id":"levelo_inurba_marseille","lat":43.28424,"lon":5.34995,"is_reserved":false,"is_disabled":false,"rental_uris":{"android":"levelo://app?vid=355e1532-21c7-4584-bd3e-0af4695c627f","ios":"levelo://app?vid=355e1532-21c7-4584-bd3e-0af4695c627f"},"vehicle_type_id":"4","last_reported":1741049310,"current_range_meters":12400,"station_id":"ce4bhbh2rcd13ifvqepg","pricing_plan_id":"cebpf4jnsgd1na2vs0mg"},{"bike_id":"dd08d469-0e07-4995-a332-b3086215ce48","system_id":"levelo_inurba_marseille","lat":43.30952,"lon":5.39031,"is_reserved":false,"is_disabled":true,"rental_uris":{"android":"levelo://app?vid=dd08d469-0e07-4995-a332-b3086215ce48","ios":"levelo://app?vid=dd08d469-0e07-4995-a332-b3086215ce48"},"vehicle_type_id":"4","last_reported":1741049310,"current_range_meters":12400,"station_id":"ce4bgup2rcd13ifvqco0","pricing_plan_id":"cebpf4jnsgd1na2vs0mg"},{"bike_id":"fc538172-abdb-42d0-9e73-20cebfb49ebf","system_id":"levelo_inurba_marseille","lat":43.28414,"lon":5.37522,"is_reserved":false,"is_disabled":false,"rental_uris":{"android":"levelo://app?vid=fc538172-abdb-42d0-9e73-20cebfb49ebf","ios":"levelo://app?vid=fc538172-abdb-42d0-9e73-20cebfb49ebf"},"vehicle_type_id":"4","last_reported":1741049310,"current_range_meters":12400,"station_id":"ce4bh412rcd13ifvqds0","pricing_plan_id":"cebpf4jnsgd1na2vs0mg"},{"bike_id":"e5136b97-99d8-49fc-aff2-faca0326e8ae","system_id":"levelo_inurba_marseille","lat":43.27938,"lon":5.41045,"is_reserved":false,"is_disabled":false,"rental_uris":{"android":"levelo://app?vid=e5136b97-99d8-49fc-aff2-faca0326e8ae","ios":"levelo://app?vid=e5136b97-99d8-49fc-aff2-faca0326e8ae"},"vehicle_type_id":"4","last_reported":1741049310,"current_range_meters":12400,"station_id":"ce4bhnp2rcd13ifvqh0g","pricing_plan_id":"cebpf4jnsgd1na2vs0mg"},{"bike_id":"68672aba-bfef-489c-8b16-0ad43702e8cc","system_id":"levelo_inurba_marseille","lat":43.29281,"lon":5.40115,"is_reserved":false,"is_disabled":false,"rental_uris":{"android":"levelo://app?vid=68672aba-bfef-489c-8b16-0ad43702e8cc","ios":"levelo://app?vid=68672aba-bfef-489c-8b16-0ad43702e8cc"},"vehicle_type_id":"4","last_reported":1741049310,"current_range_meters":12800,"station_id":"ce4bh312rcd13ifvqdk0","pricing_plan_id":"cebpf4jnsgd1na2vs0mg"},{"bike_id":"cb813df4-3836-4634-974a-d02d99a32d8a","system_id":"levelo_inurba_marseille","lat":43.32705,"lon":5.39232,"is_reserved":false,"is_disabled":false,"rental_uris":{"android":"levelo://app?vid=cb813df4-3836-4634-974a-d02d99a32d8a","ios":"levelo://app?vid=cb813df4-3836-4634-974a-d02d99a32d8a"},"vehicle_type_id":"4","last_reported":1741049310,"current_range_meters":12800,"station_id":"","pricing_plan_id":"cebpf4jnsgd1na2vs0mg"},{"bike_id":"5f1d296f-6ce4-41d6-a062-067b6ce493ca","system_id":"levelo_inurba_marseille","lat":43.27888,"lon":5.38034,"is_reserved":false,"is_disabled":false,"rental_uris":{"android":"levelo://app?vid=5f1d296f-6ce4-41d6-a062-067b6ce493ca","ios":"levelo://app?vid=5f1d296f-6ce4-41d6-a062-067b6ce493ca"},"vehicle_type_id":"4","last_reported":1741049310,"current_range_meters":12800,"station_id":"ce4bhf92rcd13ifvqf50","pricing_plan_id":"cebpf4jnsgd1na2vs0mg"},{"bike_id":"a4c3698b-40cd-4d33-a9d9-689474fbe572","system_id":"levelo_inurba_marseille","lat":43.309541,"lon":5.390411,"is_reserved":false,"is_disabled":false,"rental_uris":{"android":"levelo://app?vid=a4c3698b-40cd-4d33-a9d9-689474fbe572","ios":"levelo://app?vid=a4c3698b-40cd-4d33-a9d9-689474fbe572"},"vehicle_type_id":"4","last_reported":1741049310,"current_range_meters":12800,"station_id":"ce4bgup2rcd13ifvqco0","pricing_plan_id":"cebpf4jnsgd1na2vs0mg"},{"bike_id":"2e75e4e9-8c17-4333-9511-e3e2cb3711c0","system_id":"levelo_inurba_marseille","lat":43.300366,"lon":5.375672,"is_reserved":false,"is_disabled":false,"rental_uris":{"android":"levelo://app?vid=2e75e4e9-8c17-4333-9511-e3e2cb3711c0","ios":"levelo://app?vid=2e75e4e9-8c17-4333-9511-e3e2cb3711c0"},"vehicle_type_id":"4","last_reported":1741049310,"current_range_meters":12800,"station_id":"","pricing_plan_id":"cebpf4jnsgd1na2vs0mg"},{"bike_id":"44a7153b-0fd7-4509-836b-676bbf84fb06","system_id":"levelo_inurba_marseille","lat":43.23188,"lon":5.35556,"is_reserved":false,"is_disabled":false,"rental_uris":{"android":"levelo://app?vid=44a7153b-0fd7-4509-836b-676bbf84fb06","ios":"levelo://app?vid=44a7153b-0fd7-4509-836b-676bbf84fb06"},"vehicle_type_id":"4","last_reported":1741049310,"current_range_meters":12800,"station_id":"ce4bhu92rcd13ifvqi70","pricing_plan_id":"cebpf4jnsgd1na2vs0mg"},{"bike_id":"ee1d2ad1-36ca-49dd-a328-f2a9a9994ecb","system_id":"levelo_inurba_marseille","lat":43.31094,"lon":5.38129,"is_reserved":false,"is_disabled":false,"rental_uris":{"android":"levelo://app?vid=ee1d2ad1-36ca-49dd-a328-f2a9a9994ecb","ios":"levelo://app?vid=ee1d2ad1-36ca-49dd-a328-f2a9a9994ecb"},"vehicle_type_id":"4","last_reported":1741049310,"current_range_meters":13600,"station_id":"","pricing_plan_id":"cebpf4jnsgd1na2vs0mg"},{"bike_id":"089251b4-101d-44dd-a4b2-0e114c7f8e04","system_id":"levelo_inurba_marseille","lat":43.30425,"lon":5.39745,"is_reserved":false,"is_disabled":false,"rental_uris":{"android":"levelo://app?vid=089251b4-101d-44dd-a4b2-0e114c7f8e04","ios":"levelo://app?vid=089251b4-101d-44dd-a4b2-0e114c7f8e04"},"vehicle_type_id":"4","last_reported":1741049310,"current_range_meters":13600,"station_id":"ce4bh092rcd13ifvqd20","pricing_plan_id":"cebpf4jnsgd1na2vs0mg"},{"bike_id":"eb01ef88-05e0-4c7b-b2b2-90ea98a3b163","system_id":"levelo_inurba_marseille","lat":43.30256,"lon":5.40041,"is_reserved":false,"is_disabled":false,"rental_uris":{"android":"levelo://app?vid=eb01ef88-05e0-4c7b-b2b2-90ea98a3b163","ios":"levelo://app?vid=eb01ef88-05e0-4c7b-b2b2-90ea98a3b163"},"vehicle_type_id":"4","last_reported":1741049310,"current_range_meters":13600,"station_id":"ce4bgvh2rcd13ifvqcs0","pricing_plan_id":"cebpf4jnsgd1na2vs0mg"},{"bike_id":"474b314c-3a52-4e17-bbda-10f41385b1a6","system_id":"levelo_inurba_marseille","lat":43.30586,"lon":5.37207,"is_reserved":false,"is_disabled":false,"rental_uris":{"android":"levelo://app?vid=474b314c-3a52-4e17-bbda-10f41385b1a6","ios":"levelo://app?vid=474b314c-3a52-4e17-bbda-10f41385b1a6"},"vehicle_type_id":"4","last_reported":1741049310,"current_range_meters":13600,"station_id":"ce4bgqh2rcd13ifvqc4g","pricing_plan_id":"cebpf4jnsgd1na2vs0mg"},{"bike_id":"4ced6644-ce8d-40ca-9170-d9cd2beeedb6","system_id":"levelo_inurba_marseille","lat":43.30427,"lon":5.39748,"is_reserved":false,"is_disabled":false,"rental_uris":{"android":"levelo://app?vid=4ced6644-ce8d-40ca-9170-d9cd2beeedb6","ios":"levelo://app?vid=4ced6644-ce8d-40ca-9170-d9cd2beeedb6"},"vehicle_type_id":"4","last_reported":1741049310,"current_range_meters":14000,"station_id":"ce4bh092rcd13ifvqd20","pricing_plan_id":"cebpf4jnsgd1na2vs0mg"},{"bike_id":"442bfba6-bd18-40c4-a34b-7d774854ee17","system_id":"levelo_inurba_marseille","lat":43.29252,"lon":5.37636,"is_reserved":false,"is_disabled":false,"rental_uris":{"android":"levelo://app?vid=442bfba6-bd18-40c4-a34b-7d774854ee17","ios":"levelo://app?vid=442bfba6-bd18-40c4-a34b-7d774854ee17"},"vehicle_type_id":"4","last_reported":1741049310,"current_range_meters":14000,"station_id":"ce4bgi12rcd13ifvqb80","pricing_plan_id":"cebpf4jnsgd1na2vs0mg"},{"bike_id":"6a2f443b-bc7f-4630-b851-1b63f59abf78","system_id":"levelo_inurba_marseille","lat":43.26072,"lon":5.39394,"is_reserved":false,"is_disabled":false,"rental_uris":{"android":"levelo://app?vid=6a2f443b-bc7f-4630-b851-1b63f59abf78","ios":"levelo://app?vid=6a2f443b-bc7f-4630-b851-1b63f59abf78"},"vehicle_type_id":"4","last_reported":1741049310,"current_range_meters":14000,"station_id":"ce4bhh92rcd13ifvqfj0","pricing_plan_id":"cebpf4jnsgd1na2vs0mg"},{"bike_id":"a9e4db3f-a424-4a70-bbb1-9ffa5bd94433","system_id":"levelo_inurba_marseille","lat":43.32339,"lon":5.38907,"is_reserved":false,"is_disabled":false,"rental_uris":{"android":"levelo://app?vid=a9e4db3f-a424-4a70-bbb1-9ffa5bd94433","ios":"levelo://app?vid=a9e4db3f-a424-4a70-bbb1-9ffa5bd94433"},"vehicle_type_id":"4","last_reported":1741049310,"current_range_meters":14000,"station_id":"ce4bhqp2rcd13ifvqhog","pricing_plan_id":"cebpf4jnsgd1na2vs0mg"},{"bike_id":"ed7f448a-2ee8-49f9-aca5-39dcd6dc9acb","system_id":"levelo_inurba_marseille","lat":43.29025,"lon":5.35934,"is_reserved":false,"is_disabled":false,"rental_uris":{"android":"levelo://app?vid=ed7f448a-2ee8-49f9-aca5-39dcd6dc9acb","ios":"levelo://app?vid=ed7f448a-2ee8-49f9-aca5-39dcd6dc9acb"},"vehicle_type_id":"4","last_reported":1741049310,"current_range_meters":14000,"station_id":"ce4bha92rcd13ifvqeg0","pricing_plan_id":"cebpf4jnsgd1na2vs0mg"},{"bike_id":"9de8de23-382e-4035-b9d0-ffd8bcdb1f44","system_id":"levelo_inurba_marseille","lat":43.30812,"lon":5.43517,"is_reserved":false,"is_disabled":false,"rental_uris":{"android":"levelo://app?vid=9de8de23-382e-4035-b9d0-ffd8bcdb1f44","ios":"levelo://app?vid=9de8de23-382e-4035-b9d0-ffd8bcdb1f44"},"vehicle_type_id":"4","last_reported":1741049310,"current_range_meters":14000,"station_id":"ce4bhph2rcd13ifvqheg","pricing_plan_id":"cebpf4jnsgd1na2vs0mg"},{"bike_id":"2a73bee1-ecae-487e-abe1-b632005b8e15","system_id":"levelo_inurba_marseille","lat":43.27057,"lon":5.40255,"is_reserved":false,"is_disabled":false,"rental_uris":{"android":"levelo://app?vid=2a73bee1-ecae-487e-abe1-b632005b8e15","ios":"levelo://app?vid=2a73bee1-ecae-487e-abe1-b632005b8e15"},"vehicle_type_id":"4","last_reported":1741049310,"current_range_meters":14400,"station_id":"ce4bhk92rcd13ifvqgc0","pricing_plan_id":"cebpf4jnsgd1na2vs0mg"},{"bike_id":"443a506e-3487-4634-8f70-3912280dd197","system_id":"levelo_inurba_marseille","lat":43.2841,"lon":5.37517,"is_reserved":false,"is_disabled":false,"rental_uris":{"android":"levelo://app?vid=443a506e-3487-4634-8f70-3912280dd197","ios":"levelo://app?vid=443a506e-3487-4634-8f70-3912280dd197"},"vehicle_type_id":"4","last_reported":1741049310,"current_range_meters":14400,"station_id":"ce4bh412rcd13ifvqds0","pricing_plan_id":"cebpf4jnsgd1na2vs0mg"},{"bike_id":"4f6a53e2-adc0-4f21-a484-100d8eb7192f","system_id":"levelo_inurba_marseille","lat":43.27814,"lon":5.40725,"is_reserved":false,"is_disabled":false,"rental_uris":{"android":"levelo://app?vid=4f6a53e2-adc0-4f21-a484-100d8eb7192f","ios":"levelo://app?vid=4f6a53e2-adc0-4f21-a484-100d8eb7192f"},"vehicle_type_id":"4","last_reported":1741049310,"current_range_meters":14400,"station_id":"ce4bhnh2rcd13ifvqgtg","pricing_plan_id":"cebpf4jnsgd1na2vs0mg"},{"bike_id":"a672a65c-d1fc-4716-9934-f7368b43bb6f","system_id":"levelo_inurba_marseille","lat":43.28336,"lon":5.37504,"is_reserved":false,"is_disabled":false,"rental_uris":{"android":"levelo://app?vid=a672a65c-d1fc-4716-9934-f7368b43bb6f","ios":"levelo://app?vid=a672a65c-d1fc-4716-9934-f7368b43bb6f"},"vehicle_type_id":"4","last_reported":1741049310,"current_range_meters":14400,"station_id":"","pricing_plan_id":"cebpf4jnsgd1na2vs0mg"},{"bike_id":"2458e0f1-a8b2-4533-b3c9-d2a934eb6fd5","system_id":"levelo_inurba_marseille","lat":43.28862,"lon":5.3582,"is_reserved":false,"is_disabled":false,"rental_uris":{"android":"levelo://app?vid=2458e0f1-a8b2-4533-b3c9-d2a934eb6fd5","ios":"levelo://app?vid=2458e0f1-a8b2-4533-b3c9-d2a934eb6fd5"},"vehicle_type_id":"4","last_reported":1741049310,"current_range_meters":14800,"station_id":"ce4bhb12rcd13ifvqem0","pricing_plan_id":"cebpf4jnsgd1na2vs0mg"},{"bike_id":"9e4f53fe-e434-44c9-a146-29f149bf6c3f","system_id":"levelo_inurba_marseille","lat":43.24165,"lon":5.39732,"is_reserved":false,"is_disabled":false,"rental_uris":{"android":"levelo://app?vid=9e4f53fe-e434-44c9-a146-29f149bf6c3f","ios":"levelo://app?vid=9e4f53fe-e434-44c9-a146-29f149bf6c3f"},"vehicle_type_id":"4","last_reported":1741049310,"current_range_meters":14800,"station_id":"ce4bhn12rcd13ifvqgpg","pricing_plan_id":"cebpf4jnsgd1na2vs0mg"},{"bike_id":"e0bbd19f-dbed-424f-998c-e43cb85c9ec3","system_id":"levelo_inurba_marseille","lat":43.24165,"lon":5.36398,"is_reserved":false,"is_disabled":false,"rental_uris":{"android":"levelo://app?vid=e0bbd19f-dbed-424f-998c-e43cb85c9ec3","ios":"levelo://app?vid=e0bbd19f-dbed-424f-998c-e43cb85c9ec3"},"vehicle_type_id":"4","last_reported":1741049310,"current_range_meters":14800,"station_id":"cpo36qri1sfpv3e86is0","pricing_plan_id":"cebpf4jnsgd1na2vs0mg"},{"bike_id":"90394b7f-0ce7-45bd-b4c9-c7a4ad2fafa6","system_id":"levelo_inurba_marseille","lat":43.23149,"lon":5.43724,"is_reserved":false,"is_disabled":false,"rental_uris":{"android":"levelo://app?vid=90394b7f-0ce7-45bd-b4c9-c7a4ad2fafa6","ios":"levelo://app?vid=90394b7f-0ce7-45bd-b4c9-c7a4ad2fafa6"},"vehicle_type_id":"4","last_reported":1741049310,"current_range_meters":14800,"station_id":"ce4bhmp2rcd13ifvqgog","pricing_plan_id":"cebpf4jnsgd1na2vs0mg"},{"bike_id":"fe65d165-e4f8-45e4-b0cc-6ba4a385c0db","system_id":"levelo_inurba_marseille","lat":43.29247,"lon":5.37626,"is_reserved":false,"is_disabled":false,"rental_uris":{"android":"levelo://app?vid=fe65d165-e4f8-45e4-b0cc-6ba4a385c0db","ios":"levelo://app?vid=fe65d165-e4f8-45e4-b0cc-6ba4a385c0db"},"vehicle_type_id":"4","last_reported":1741049310,"current_range_meters":15200,"station_id":"ce4bgi12rcd13ifvqb80","pricing_plan_id":"cebpf4jnsgd1na2vs0mg"},{"bike_id":"2fb48ac2-c912-4652-8222-33170e70e2e0","system_id":"levelo_inurba_marseille","lat":43.29201,"lon":5.39314,"is_reserved":false,"is_disabled":false,"rental_uris":{"android":"levelo://app?vid=2fb48ac2-c912-4652-8222-33170e70e2e0","ios":"levelo://app?vid=2fb48ac2-c912-4652-8222-33170e70e2e0"},"vehicle_type_id":"4","last_reported":1741049310,"current_range_meters":15200,"station_id":"ce4bh192rcd13ifvqdd0","pricing_plan_id":"cebpf4jnsgd1na2vs0mg"},{"bike_id":"cfd37df0-b1c6-4f94-a627-4f20422c897a","system_id":"levelo_inurba_marseille","lat":43.27698,"lon":5.41537,"is_reserved":false,"is_disabled":false,"rental_uris":{"android":"levelo://app?vid=cfd37df0-b1c6-4f94-a627-4f20422c897a","ios":"levelo://app?vid=cfd37df0-b1c6-4f94-a627-4f20422c897a"},"vehicle_type_id":"4","last_reported":1741049310,"current_range_meters":15200,"station_id":"","pricing_plan_id":"cebpf4jnsgd1na2vs0mg"},{"bike_id":"a701abf8-3ece-4dc1-a4be-d00e444adcf7","system_id":"levelo_inurba_marseille","lat":43.25577,"lon":5.38239,"is_reserved":false,"is_disabled":false,"rental_uris":{"android":"levelo://app?vid=a701abf8-3ece-4dc1-a4be-d00e444adcf7","ios":"levelo://app?vid=a701abf8-3ece-4dc1-a4be-d00e444adcf7"},"vehicle_type_id":"4","last_reported":1741049310,"current_range_meters":15200,"station_id":"ce4bhih2rcd13ifvqfs0","pricing_plan_id":"cebpf4jnsgd1na2vs0mg"},{"bike_id":"dc7ff41a-bd66-48fb-95fc-dadc422033f1","system_id":"levelo_inurba_marseille","lat":43.28082,"lon":5.39661,"is_reserved":false,"is_disabled":false,"rental_uris":{"android":"levelo://app?vid=dc7ff41a-bd66-48fb-95fc-dadc422033f1","ios":"levelo://app?vid=dc7ff41a-bd66-48fb-95fc-dadc422033f1"},"vehicle_type_id":"4","last_reported":1741049310,"current_range_meters":16000,"station_id":"ce4bho12rcd13ifvqh2g","pricing_plan_id":"cebpf4jnsgd1na2vs0mg"},{"bike_id":"bc389614-a1bd-4bd1-ae6c-15acadf8db1a","system_id":"levelo_inurba_marseille","lat":43.28319,"lon":5.43257,"is_reserved":false,"is_disabled":false,"rental_uris":{"android":"levelo://app?vid=bc389614-a1bd-4bd1-ae6c-15acadf8db1a","ios":"levelo://app?vid=bc389614-a1bd-4bd1-ae6c-15acadf8db1a"},"vehicle_type_id":"4","last_reported":1741049310,"current_range_meters":16000,"station_id":"","pricing_plan_id":"cebpf4jnsgd1na2vs0mg"},{"bike_id":"7cea7b38-f7a0-4e92-8d25-24dec4d43a08","system_id":"levelo_inurba_marseille","lat":43.2669,"lon":5.38271,"is_reserved":false,"is_disabled":true,"rental_uris":{"android":"levelo://app?vid=7cea7b38-f7a0-4e92-8d25-24dec4d43a08","ios":"levelo://app?vid=7cea7b38-f7a0-4e92-8d25-24dec4d43a08"},"vehicle_type_id":"4","last_reported":1741049310,"current_range_meters":16000,"station_id":"ce4bhg92rcd13ifvqf90","pricing_plan_id":"cebpf4jnsgd1na2vs0mg"},{"bike_id":"d7ef5145-0bca-4f45-a0cf-6b1d49f6690d","system_id":"levelo_inurba_marseille","lat":43.31392,"lon":5.39188,"is_reserved":false,"is_disabled":false,"rental_uris":{"android":"levelo://app?vid=d7ef5145-0bca-4f45-a0cf-6b1d49f6690d","ios":"levelo://app?vid=d7ef5145-0bca-4f45-a0cf-6b1d49f6690d"},"vehicle_type_id":"4","last_reported":1741049310,"current_range_meters":16000,"station_id":"","pricing_plan_id":"cebpf4jnsgd1na2vs0mg"},{"bike_id":"38f37a23-5169-4d18-ab25-4dff16ba5bae","system_id":"levelo_inurba_marseille","lat":43.28604,"lon":5.37074,"is_reserved":false,"is_disabled":false,"rental_uris":{"android":"levelo://app?vid=38f37a23-5169-4d18-ab25-4dff16ba5bae","ios":"levelo://app?vid=38f37a23-5169-4d18-ab25-4dff16ba5bae"},"vehicle_type_id":"4","last_reported":1741049310,"current_range_meters":16000,"station_id":"ce4bht12rcd13ifvqi60","pricing_plan_id":"cebpf4jnsgd1na2vs0mg"},{"bike_id":"f83a09a1-05e9-4f34-b3b0-a301d7d23141","system_id":"levelo_inurba_marseille","lat":43.292999,"lon":5.427086,"is_reserved":false,"is_disabled":false,"rental_uris":{"android":"levelo://app?vid=f83a09a1-05e9-4f34-b3b0-a301d7d23141","ios":"levelo://app?vid=f83a09a1-05e9-4f34-b3b0-a301d7d23141"},"vehicle_type_id":"4","last_reported":1741049310,"current_range_meters":16000,"station_id":"","pricing_plan_id":"cebpf4jnsgd1na2vs0mg"},{"bike_id":"642c7792-3e94-4263-87b3-9666d4f3535e","system_id":"levelo_inurba_marseille","lat":43.25505,"lon":5.37676,"is_reserved":false,"is_disabled":false,"rental_uris":{"android":"levelo://app?vid=642c7792-3e94-4263-87b3-9666d4f3535e","ios":"levelo://app?vid=642c7792-3e94-4263-87b3-9666d4f3535e"},"vehicle_type_id":"4","last_reported":1741049310,"current_range_meters":16000,"station_id":"ce4bhh12rcd13ifvqff0","pricing_plan_id":"cebpf4jnsgd1na2vs0mg"},{"bike_id":"186c2e13-106b-4934-b963-46eca3550d97","system_id":"levelo_inurba_marseille","lat":43.31104,"lon":5.37773,"is_reserved":false,"is_disabled":false,"rental_uris":{"android":"levelo://app?vid=186c2e13-106b-4934-b963-46eca3550d97","ios":"levelo://app?vid=186c2e13-106b-4934-b963-46eca3550d97"},"vehicle_type_id":"4","last_reported":1741049310,"current_range_meters":16400,"station_id":"ce4bgt92rcd13ifvqcg0","pricing_plan_id":"cebpf4jnsgd1na2vs0mg"},{"bike_id":"81feccab-f4e0-464a-a8fb-d5d3cb5e3510","system_id":"levelo_inurba_marseille","lat":43.30427,"lon":5.39734,"is_reserved":false,"is_disabled":false,"rental_uris":{"android":"levelo://app?vid=81feccab-f4e0-464a-a8fb-d5d3cb5e3510","ios":"levelo://app?vid=81feccab-f4e0-464a-a8fb-d5d3cb5e3510"},"vehicle_type_id":"4","last_reported":1741049310,"current_range_meters":16400,"station_id":"ce4bh092rcd13ifvqd20","pricing_plan_id":"cebpf4jnsgd1na2vs0mg"},{"bike_id":"811bf25c-9b41-4fd0-9c9f-36e1e5f39574","system_id":"levelo_inurba_marseille","lat":43.28459,"lon":5.35908,"is_reserved":false,"is_disabled":false,"rental_uris":{"android":"levelo://app?vid=811bf25c-9b41-4fd0-9c9f-36e1e5f39574","ios":"levelo://app?vid=811bf25c-9b41-4fd0-9c9f-36e1e5f39574"},"vehicle_type_id":"4","last_reported":1741049310,"current_range_meters":16400,"station_id":"ce4bhah2rcd13ifvqei0","pricing_plan_id":"cebpf4jnsgd1na2vs0mg"},{"bike_id":"b579293e-a70a-4d49-92be-7c642d91f6bb","system_id":"levelo_inurba_marseille","lat":43.31179,"lon":5.38713,"is_reserved":false,"is_disabled":false,"rental_uris":{"android":"levelo://app?vid=b579293e-a70a-4d49-92be-7c642d91f6bb","ios":"levelo://app?vid=b579293e-a70a-4d49-92be-7c642d91f6bb"},"vehicle_type_id":"4","last_reported":1741049310,"current_range_meters":16400,"station_id":"ce4bgv12rcd13ifvqcp0","pricing_plan_id":"cebpf4jnsgd1na2vs0mg"},{"bike_id":"954be03c-bedc-4d79-b23c-ddf297b60e57","system_id":"levelo_inurba_marseille","lat":43.25079,"lon":5.39545,"is_reserved":false,"is_disabled":false,"rental_uris":{"android":"levelo://app?vid=954be03c-bedc-4d79-b23c-ddf297b60e57","ios":"levelo://app?vid=954be03c-bedc-4d79-b23c-ddf297b60e57"},"vehicle_type_id":"4","last_reported":1741049310,"current_range_meters":16400,"station_id":"ce4bhm12rcd13ifvqgkg","pricing_plan_id":"cebpf4jnsgd1na2vs0mg"},{"bike_id":"2f3067f0-7bbc-458f-8e14-d4bc08996548","system_id":"levelo_inurba_marseille","lat":43.2922,"lon":5.36056,"is_reserved":false,"is_disabled":false,"rental_uris":{"android":"levelo://app?vid=2f3067f0-7bbc-458f-8e14-d4bc08996548","ios":"levelo://app?vid=2f3067f0-7bbc-458f-8e14-d4bc08996548"},"vehicle_type_id":"4","last_reported":1741049310,"current_range_meters":16400,"station_id":"ce4bhbh2rcd13ifvqeqg","pricing_plan_id":"cebpf4jnsgd1na2vs0mg"},{"bike_id":"51f6f578-8898-487a-9da7-ff3d6d379d1b","system_id":"levelo_inurba_marseille","lat":43.32123,"lon":5.3677,"is_reserved":false,"is_disabled":false,"rental_uris":{"android":"levelo://app?vid=51f6f578-8898-487a-9da7-ff3d6d379d1b","ios":"levelo://app?vid=51f6f578-8898-487a-9da7-ff3d6d379d1b"},"vehicle_type_id":"4","last_reported":1741049310,"current_range_meters":16400,"station_id":"ce4bhrh2rcd13ifvqhug","pricing_plan_id":"cebpf4jnsgd1na2vs0mg"},{"bike_id":"95b3e919-4fbc-4512-83db-4e0e404f4f62","system_id":"levelo_inurba_marseille","lat":43.33017,"lon":5.390487,"is_reserved":false,"is_disabled":false,"rental_uris":{"android":"levelo://app?vid=95b3e919-4fbc-4512-83db-4e0e404f4f62","ios":"levelo://app?vid=95b3e919-4fbc-4512-83db-4e0e404f4f62"},"vehicle_type_id":"4","last_reported":1741049310,"current_range_meters":16400,"station_id":"ce4bhr92rcd13ifvqhrg","pricing_plan_id":"cebpf4jnsgd1na2vs0mg"},{"bike_id":"4ec810ea-73dc-400a-8074-0b79c1f6310a","system_id":"levelo_inurba_marseille","lat":43.31128,"lon":5.37773,"is_reserved":false,"is_disabled":false,"rental_uris":{"android":"levelo://app?vid=4ec810ea-73dc-400a-8074-0b79c1f6310a","ios":"levelo://app?vid=4ec810ea-73dc-400a-8074-0b79c1f6310a"},"vehicle_type_id":"4","last_reported":1741049310,"current_range_meters":16400,"station_id":"ce4bgt92rcd13ifvqcg0","pricing_plan_id":"cebpf4jnsgd1na2vs0mg"},{"bike_id":"9fec91bd-d7aa-4149-bd43-cd46ffb8d0a9","system_id":"levelo_inurba_marseille","lat":43.291917,"lon":5.393213,"is_reserved":false,"is_disabled":false,"rental_uris":{"android":"levelo://app?vid=9fec91bd-d7aa-4149-bd43-cd46ffb8d0a9","ios":"levelo://app?vid=9fec91bd-d7aa-4149-bd43-cd46ffb8d0a9"},"vehicle_type_id":"4","last_reported":1741049310,"current_range_meters":16400,"station_id":"ce4bh192rcd13ifvqdd0","pricing_plan_id":"cebpf4jnsgd1na2vs0mg"},{"bike_id":"72eb316f-b406-4368-b692-99c81bec4002","system_id":"levelo_inurba_marseille","lat":43.30416,"lon":5.4128,"is_reserved":false,"is_disabled":true,"rental_uris":{"android":"levelo://app?vid=72eb316f-b406-4368-b692-99c81bec4002","ios":"levelo://app?vid=72eb316f-b406-4368-b692-99c81bec4002"},"vehicle_type_id":"4","last_reported":1741049310,"current_range_meters":16800,"station_id":"ce4bhop2rcd13ifvqh8g","pricing_plan_id":"cebpf4jnsgd1na2vs0mg"},{"bike_id":"f9399c72-5c7c-4b08-ab63-acba36776af1","system_id":"levelo_inurba_marseille","lat":43.28418,"lon":5.37508,"is_reserved":false,"is_disabled":false,"rental_uris":{"android":"levelo://app?vid=f9399c72-5c7c-4b08-ab63-acba36776af1","ios":"levelo://app?vid=f9399c72-5c7c-4b08-ab63-acba36776af1"},"vehicle_type_id":"4","last_reported":1741049310,"current_range_meters":16800,"station_id":"ce4bh412rcd13ifvqds0","pricing_plan_id":"cebpf4jnsgd1na2vs0mg"},{"bike_id":"7b666837-cc3e-4351-806a-7fe04083b529","system_id":"levelo_inurba_marseille","lat":43.32351,"lon":5.38891,"is_reserved":false,"is_disabled":false,"rental_uris":{"android":"levelo://app?vid=7b666837-cc3e-4351-806a-7fe04083b529","ios":"levelo://app?vid=7b666837-cc3e-4351-806a-7fe04083b529"},"vehicle_type_id":"4","last_reported":1741049310,"current_range_meters":16800,"station_id":"ce4bhqp2rcd13ifvqhog","pricing_plan_id":"cebpf4jnsgd1na2vs0mg"},{"bike_id":"0f921424-afa4-4686-90b3-7f97a03d67ae","system_id":"levelo_inurba_marseille","lat":43.31074,"lon":5.38357,"is_reserved":false,"is_disabled":false,"rental_uris":{"android":"levelo://app?vid=0f921424-afa4-4686-90b3-7f97a03d67ae","ios":"levelo://app?vid=0f921424-afa4-4686-90b3-7f97a03d67ae"},"vehicle_type_id":"4","last_reported":1741049310,"current_range_meters":16800,"station_id":"ce4bgv92rcd13ifvqcr0","pricing_plan_id":"cebpf4jnsgd1na2vs0mg"},{"bike_id":"cfb79c28-2385-459b-9ebc-a306ff70636d","system_id":"levelo_inurba_marseille","lat":43.27068,"lon":5.42292,"is_reserved":false,"is_disabled":false,"rental_uris":{"android":"levelo://app?vid=cfb79c28-2385-459b-9ebc-a306ff70636d","ios":"levelo://app?vid=cfb79c28-2385-459b-9ebc-a306ff70636d"},"vehicle_type_id":"4","last_reported":1741049310,"current_range_meters":16800,"station_id":"ce4bhk92rcd13ifvqgb0","pricing_plan_id":"cebpf4jnsgd1na2vs0mg"},{"bike_id":"8ef12c96-4a02-4ab6-af53-ca8fd7864c6a","system_id":"levelo_inurba_marseille","lat":43.30955,"lon":5.39018,"is_reserved":false,"is_disabled":false,"rental_uris":{"android":"levelo://app?vid=8ef12c96-4a02-4ab6-af53-ca8fd7864c6a","ios":"levelo://app?vid=8ef12c96-4a02-4ab6-af53-ca8fd7864c6a"},"vehicle_type_id":"4","last_reported":1741049310,"current_range_meters":16800,"station_id":"ce4bgup2rcd13ifvqco0","pricing_plan_id":"cebpf4jnsgd1na2vs0mg"},{"bike_id":"f576a1ae-e102-419b-80ff-f4ed46edec56","system_id":"levelo_inurba_marseille","lat":43.29867,"lon":5.397344,"is_reserved":false,"is_disabled":false,"rental_uris":{"android":"levelo://app?vid=f576a1ae-e102-419b-80ff-f4ed46edec56","ios":"levelo://app?vid=f576a1ae-e102-419b-80ff-f4ed46edec56"},"vehicle_type_id":"4","last_reported":1741049310,"current_range_meters":16800,"station_id":"ce4bh0h2rcd13ifvqd50","pricing_plan_id":"cebpf4jnsgd1na2vs0mg"},{"bike_id":"1105fc3b-6282-499e-87fb-f45d91439c5c","system_id":"levelo_inurba_marseille","lat":43.28665,"lon":5.36358,"is_reserved":false,"is_disabled":false,"rental_uris":{"android":"levelo://app?vid=1105fc3b-6282-499e-87fb-f45d91439c5c","ios":"levelo://app?vid=1105fc3b-6282-499e-87fb-f45d91439c5c"},"vehicle_type_id":"4","last_reported":1741049310,"current_range_meters":16800,"station_id":"ce4bhah2rcd13ifvqej0","pricing_plan_id":"cebpf4jnsgd1na2vs0mg"},{"bike_id":"d5debced-2b81-4e17-9b50-d781ba86435e","system_id":"levelo_inurba_marseille","lat":43.29533,"lon":5.39418,"is_reserved":false,"is_disabled":false,"rental_uris":{"android":"levelo://app?vid=d5debced-2b81-4e17-9b50-d781ba86435e","ios":"levelo://app?vid=d5debced-2b81-4e17-9b50-d781ba86435e"},"vehicle_type_id":"4","last_reported":1741049310,"current_range_meters":16800,"station_id":"ce4bh292rcd13ifvqdf0","pricing_plan_id":"cebpf4jnsgd1na2vs0mg"},{"bike_id":"746fd962-f6f9-4941-83ba-433d3b12a1cc","system_id":"levelo_inurba_marseille","lat":43.29252,"lon":5.37628,"is_reserved":false,"is_disabled":false,"rental_uris":{"android":"levelo://app?vid=746fd962-f6f9-4941-83ba-433d3b12a1cc","ios":"levelo://app?vid=746fd962-f6f9-4941-83ba-433d3b12a1cc"},"vehicle_type_id":"4","last_reported":1741049310,"current_range_meters":16800,"station_id":"ce4bgi12rcd13ifvqb80","pricing_plan_id":"cebpf4jnsgd1na2vs0mg"},{"bike_id":"e6ce3260-6e42-4334-a434-b7f25aa0a5bb","system_id":"levelo_inurba_marseille","lat":43.3187,"lon":5.37931,"is_reserved":false,"is_disabled":false,"rental_uris":{"android":"levelo://app?vid=e6ce3260-6e42-4334-a434-b7f25aa0a5bb","ios":"levelo://app?vid=e6ce3260-6e42-4334-a434-b7f25aa0a5bb"},"vehicle_type_id":"4","last_reported":1741049310,"current_range_meters":16800,"station_id":"","pricing_plan_id":"cebpf4jnsgd1na2vs0mg"},{"bike_id":"fb442df0-4591-499a-ab4c-321abd668e0e","system_id":"levelo_inurba_marseille","lat":43.28272,"lon":5.35066,"is_reserved":false,"is_disabled":false,"rental_uris":{"android":"levelo://app?vid=fb442df0-4591-499a-ab4c-321abd668e0e","ios":"levelo://app?vid=fb442df0-4591-499a-ab4c-321abd668e0e"},"vehicle_type_id":"4","last_reported":1741049310,"current_range_meters":16800,"station_id":"ce4bhbp2rcd13ifvqerg","pricing_plan_id":"cebpf4jnsgd1na2vs0mg"},{"bike_id":"71e7e831-7788-449a-bf40-47f97d1d588c","system_id":"levelo_inurba_marseille","lat":43.32059,"lon":5.40988,"is_reserved":false,"is_disabled":false,"rental_uris":{"android":"levelo://app?vid=71e7e831-7788-449a-bf40-47f97d1d588c","ios":"levelo://app?vid=71e7e831-7788-449a-bf40-47f97d1d588c"},"vehicle_type_id":"4","last_reported":1741049310,"current_range_meters":16800,"station_id":"","pricing_plan_id":"cebpf4jnsgd1na2vs0mg"},{"bike_id":"a2b9d686-216a-4f50-ae4b-e7710a444cd6","system_id":"levelo_inurba_marseille","lat":43.25006,"lon":5.38908,"is_reserved":false,"is_disabled":false,"rental_uris":{"android":"levelo://app?vid=a2b9d686-216a-4f50-ae4b-e7710a444cd6","ios":"levelo://app?vid=a2b9d686-216a-4f50-ae4b-e7710a444cd6"},"vehicle_type_id":"4","last_reported":1741049310,"current_range_meters":16800,"station_id":"ce4bhgp2rcd13ifvqfd0","pricing_plan_id":"cebpf4jnsgd1na2vs0mg"},{"bike_id":"7f7e1c62-8591-4bd5-b418-84accf5550de","system_id":"levelo_inurba_marseille","lat":43.29816,"lon":5.4026,"is_reserved":false,"is_disabled":false,"rental_uris":{"android":"levelo://app?vid=7f7e1c62-8591-4bd5-b418-84accf5550de","ios":"levelo://app?vid=7f7e1c62-8591-4bd5-b418-84accf5550de"},"vehicle_type_id":"4","last_reported":1741049310,"current_range_meters":16800,"station_id":"","pricing_plan_id":"cebpf4jnsgd1na2vs0mg"},{"bike_id":"526f4f9d-8c74-4c28-a37f-a1f42b8a281d","system_id":"levelo_inurba_marseille","lat":43.28613,"lon":5.37064,"is_reserved":false,"is_disabled":false,"rental_uris":{"android":"levelo://app?vid=526f4f9d-8c74-4c28-a37f-a1f42b8a281d","ios":"levelo://app?vid=526f4f9d-8c74-4c28-a37f-a1f42b8a281d"},"vehicle_type_id":"4","last_reported":1741049310,"current_range_meters":17200,"station_id":"ce4bht12rcd13ifvqi60","pricing_plan_id":"cebpf4jnsgd1na2vs0mg"},{"bike_id":"47ca7176-dcba-4b9e-8dbb-e2bb239319ab","system_id":"levelo_inurba_marseille","lat":43.31435,"lon":5.38568,"is_reserved":false,"is_disabled":false,"rental_uris":{"android":"levelo://app?vid=47ca7176-dcba-4b9e-8dbb-e2bb239319ab","ios":"levelo://app?vid=47ca7176-dcba-4b9e-8dbb-e2bb239319ab"},"vehicle_type_id":"4","last_reported":1741049310,"current_range_meters":17200,"station_id":"","pricing_plan_id":"cebpf4jnsgd1na2vs0mg"},{"bike_id":"428ddc3d-05a8-4b76-b027-89ba3c31dbda","system_id":"levelo_inurba_marseille","lat":43.255763,"lon":5.382406,"is_reserved":false,"is_disabled":false,"rental_uris":{"android":"levelo://app?vid=428ddc3d-05a8-4b76-b027-89ba3c31dbda","ios":"levelo://app?vid=428ddc3d-05a8-4b76-b027-89ba3c31dbda"},"vehicle_type_id":"4","last_reported":1741049310,"current_range_meters":17200,"station_id":"ce4bhih2rcd13ifvqfs0","pricing_plan_id":"cebpf4jnsgd1na2vs0mg"},{"bike_id":"985d2fa7-01f5-44f0-8aae-9e1fc7712f86","system_id":"levelo_inurba_marseille","lat":43.29269,"lon":5.37516,"is_reserved":false,"is_disabled":false,"rental_uris":{"android":"levelo://app?vid=985d2fa7-01f5-44f0-8aae-9e1fc7712f86","ios":"levelo://app?vid=985d2fa7-01f5-44f0-8aae-9e1fc7712f86"},"vehicle_type_id":"4","last_reported":1741049310,"current_range_meters":17200,"station_id":"ce4bgi12rcd13ifvqb70","pricing_plan_id":"cebpf4jnsgd1na2vs0mg"},{"bike_id":"cf947015-5435-411e-b787-33b824bbdfb2","system_id":"levelo_inurba_marseille","lat":43.3235,"lon":5.38892,"is_reserved":false,"is_disabled":false,"rental_uris":{"android":"levelo://app?vid=cf947015-5435-411e-b787-33b824bbdfb2","ios":"levelo://app?vid=cf947015-5435-411e-b787-33b824bbdfb2"},"vehicle_type_id":"4","last_reported":1741049310,"current_range_meters":17200,"station_id":"ce4bhqp2rcd13ifvqhog","pricing_plan_id":"cebpf4jnsgd1na2vs0mg"},{"bike_id":"3e925b0e-6733-433e-a32e-494b1720606b","system_id":"levelo_inurba_marseille","lat":43.30813,"lon":5.38178,"is_reserved":false,"is_disabled":false,"rental_uris":{"android":"levelo://app?vid=3e925b0e-6733-433e-a32e-494b1720606b","ios":"levelo://app?vid=3e925b0e-6733-433e-a32e-494b1720606b"},"vehicle_type_id":"4","last_reported":1741049310,"current_range_meters":17200,"station_id":"ce4bgt12rcd13ifvqce0","pricing_plan_id":"cebpf4jnsgd1na2vs0mg"},{"bike_id":"5cf485f0-0424-4195-84d9-8609b01e21ea","system_id":"levelo_inurba_marseille","lat":43.30602,"lon":5.37211,"is_reserved":false,"is_disabled":false,"rental_uris":{"android":"levelo://app?vid=5cf485f0-0424-4195-84d9-8609b01e21ea","ios":"levelo://app?vid=5cf485f0-0424-4195-84d9-8609b01e21ea"},"vehicle_type_id":"4","last_reported":1741049310,"current_range_meters":17200,"station_id":"ce4bgqh2rcd13ifvqc4g","pricing_plan_id":"cebpf4jnsgd1na2vs0mg"},{"bike_id":"be253866-ad6c-4629-8185-8f58e3b119e0","system_id":"levelo_inurba_marseille","lat":43.30254,"lon":5.40058,"is_reserved":false,"is_disabled":false,"rental_uris":{"android":"levelo://app?vid=be253866-ad6c-4629-8185-8f58e3b119e0","ios":"levelo://app?vid=be253866-ad6c-4629-8185-8f58e3b119e0"},"vehicle_type_id":"4","last_reported":1741049310,"current_range_meters":17200,"station_id":"ce4bgvh2rcd13ifvqcs0","pricing_plan_id":"cebpf4jnsgd1na2vs0mg"},{"bike_id":"4f22ed03-3f01-49f0-87ec-77cf8c324e7e","system_id":"levelo_inurba_marseille","lat":43.30998,"lon":5.38474,"is_reserved":false,"is_disabled":false,"rental_uris":{"android":"levelo://app?vid=4f22ed03-3f01-49f0-87ec-77cf8c324e7e","ios":"levelo://app?vid=4f22ed03-3f01-49f0-87ec-77cf8c324e7e"},"vehicle_type_id":"4","last_reported":1741049310,"current_range_meters":17600,"station_id":"","pricing_plan_id":"cebpf4jnsgd1na2vs0mg"},{"bike_id":"13b1630c-5e74-4cfd-83cc-1cf9628086bc","system_id":"levelo_inurba_marseille","lat":43.28455,"lon":5.35889,"is_reserved":false,"is_disabled":false,"rental_uris":{"android":"levelo://app?vid=13b1630c-5e74-4cfd-83cc-1cf9628086bc","ios":"levelo://app?vid=13b1630c-5e74-4cfd-83cc-1cf9628086bc"},"vehicle_type_id":"4","last_reported":1741049310,"current_range_meters":17600,"station_id":"ce4bhah2rcd13ifvqei0","pricing_plan_id":"cebpf4jnsgd1na2vs0mg"},{"bike_id":"0ec27d6f-b876-4c34-ba71-7d1aea070692","system_id":"levelo_inurba_marseille","lat":43.28088,"lon":5.39656,"is_reserved":false,"is_disabled":false,"rental_uris":{"android":"levelo://app?vid=0ec27d6f-b876-4c34-ba71-7d1aea070692","ios":"levelo://app?vid=0ec27d6f-b876-4c34-ba71-7d1aea070692"},"vehicle_type_id":"4","last_reported":1741049310,"current_range_meters":17600,"station_id":"ce4bho12rcd13ifvqh2g","pricing_plan_id":"cebpf4jnsgd1na2vs0mg"},{"bike_id":"7cd5e07c-ad2a-4af8-99d9-77c41335ce79","system_id":"levelo_inurba_marseille","lat":43.24165,"lon":5.363949,"is_reserved":false,"is_disabled":false,"rental_uris":{"android":"levelo://app?vid=7cd5e07c-ad2a-4af8-99d9-77c41335ce79","ios":"levelo://app?vid=7cd5e07c-ad2a-4af8-99d9-77c41335ce79"},"vehicle_type_id":"4","last_reported":1741049310,"current_range_meters":17600,"station_id":"cpo36qri1sfpv3e86is0","pricing_plan_id":"cebpf4jnsgd1na2vs0mg"},{"bike_id":"95d7778b-2b79-4249-abba-96e616b8ac44","system_id":"levelo_inurba_marseille","lat":43.30445,"lon":5.39754,"is_reserved":false,"is_disabled":false,"rental_uris":{"android":"levelo://app?vid=95d7778b-2b79-4249-abba-96e616b8ac44","ios":"levelo://app?vid=95d7778b-2b79-4249-abba-96e616b8ac44"},"vehicle_type_id":"4","last_reported":1741049310,"current_range_meters":17600,"station_id":"ce4bh092rcd13ifvqd20","pricing_plan_id":"cebpf4jnsgd1na2vs0mg"},{"bike_id":"afb56fc1-0a52-48dd-8451-90adf393ee15","system_id":"levelo_inurba_marseille","lat":43.28847,"lon":5.39329,"is_reserved":false,"is_disabled":false,"rental_uris":{"android":"levelo://app?vid=afb56fc1-0a52-48dd-8451-90adf393ee15","ios":"levelo://app?vid=afb56fc1-0a52-48dd-8451-90adf393ee15"},"vehicle_type_id":"4","last_reported":1741049310,"current_range_meters":17600,"station_id":"ce4bh2p2rcd13ifvqdi0","pricing_plan_id":"cebpf4jnsgd1na2vs0mg"},{"bike_id":"03d5bd23-db2c-4a3d-9573-a1403447f741","system_id":"levelo_inurba_marseille","lat":43.27816,"lon":5.40699,"is_reserved":false,"is_disabled":false,"rental_uris":{"android":"levelo://app?vid=03d5bd23-db2c-4a3d-9573-a1403447f741","ios":"levelo://app?vid=03d5bd23-db2c-4a3d-9573-a1403447f741"},"vehicle_type_id":"4","last_reported":1741049310,"current_range_meters":17600,"station_id":"ce4bhnh2rcd13ifvqgtg","pricing_plan_id":"cebpf4jnsgd1na2vs0mg"},{"bike_id":"e96e0c5f-d0e5-478b-b4aa-43a39d7ff26e","system_id":"levelo_inurba_marseille","lat":43.32362,"lon":5.36761,"is_reserved":false,"is_disabled":false,"rental_uris":{"android":"levelo://app?vid=e96e0c5f-d0e5-478b-b4aa-43a39d7ff26e","ios":"levelo://app?vid=e96e0c5f-d0e5-478b-b4aa-43a39d7ff26e"},"vehicle_type_id":"4","last_reported":1741049310,"current_range_meters":17600,"station_id":"ce4bhsh2rcd13ifvqi2g","pricing_plan_id":"cebpf4jnsgd1na2vs0mg"},{"bike_id":"2d874c5e-182d-451e-a14f-2936f1e1d544","system_id":"levelo_inurba_marseille","lat":43.2926,"lon":5.40899,"is_reserved":false,"is_disabled":false,"rental_uris":{"android":"levelo://app?vid=2d874c5e-182d-451e-a14f-2936f1e1d544","ios":"levelo://app?vid=2d874c5e-182d-451e-a14f-2936f1e1d544"},"vehicle_type_id":"4","last_reported":1741049310,"current_range_meters":17600,"station_id":"ce4bh192rcd13ifvqdc0","pricing_plan_id":"cebpf4jnsgd1na2vs0mg"},{"bike_id":"0ba22404-67c9-4eb7-9136-36c97968d0b2","system_id":"levelo_inurba_marseille","lat":43.28565,"lon":5.39501,"is_reserved":false,"is_disabled":false,"rental_uris":{"android":"levelo://app?vid=0ba22404-67c9-4eb7-9136-36c97968d0b2","ios":"levelo://app?vid=0ba22404-67c9-4eb7-9136-36c97968d0b2"},"vehicle_type_id":"4","last_reported":1741049310,"current_range_meters":17600,"station_id":"ce4bh292rcd13ifvqdg0","pricing_plan_id":"cebpf4jnsgd1na2vs0mg"},{"bike_id":"b80cbd13-a968-4a3e-a1cc-9ee6fb7b0c92","system_id":"levelo_inurba_marseille","lat":43.28044,"lon":5.3694,"is_reserved":false,"is_disabled":true,"rental_uris":{"android":"levelo://app?vid=b80cbd13-a968-4a3e-a1cc-9ee6fb7b0c92","ios":"levelo://app?vid=b80cbd13-a968-4a3e-a1cc-9ee6fb7b0c92"},"vehicle_type_id":"4","last_reported":1741049310,"current_range_meters":17600,"station_id":"ce4bha12rcd13ifvqef0","pricing_plan_id":"cebpf4jnsgd1na2vs0mg"},{"bike_id":"dfe0f8e4-f5d4-4a79-9b64-260d70e4c2be","system_id":"levelo_inurba_marseille","lat":43.31324,"lon":5.39699,"is_reserved":false,"is_disabled":false,"rental_uris":{"android":"levelo://app?vid=dfe0f8e4-f5d4-4a79-9b64-260d70e4c2be","ios":"levelo://app?vid=dfe0f8e4-f5d4-4a79-9b64-260d70e4c2be"},"vehicle_type_id":"4","last_reported":1741049310,"current_range_meters":18000,"station_id":"ce4bgvp2rcd13ifvqcu0","pricing_plan_id":"cebpf4jnsgd1na2vs0mg"},{"bike_id":"b61de86e-763a-4c41-8050-2a3cc34c0988","system_id":"levelo_inurba_marseille","lat":43.30595,"lon":5.37214,"is_reserved":false,"is_disabled":false,"rental_uris":{"android":"levelo://app?vid=b61de86e-763a-4c41-8050-2a3cc34c0988","ios":"levelo://app?vid=b61de86e-763a-4c41-8050-2a3cc34c0988"},"vehicle_type_id":"4","last_reported":1741049310,"current_range_meters":18000,"station_id":"ce4bgqh2rcd13ifvqc4g","pricing_plan_id":"cebpf4jnsgd1na2vs0mg"},{"bike_id":"e14ef293-eb82-44d0-8012-6fe5ab3c92d9","system_id":"levelo_inurba_marseille","lat":43.26025,"lon":5.37547,"is_reserved":false,"is_disabled":false,"rental_uris":{"android":"levelo://app?vid=e14ef293-eb82-44d0-8012-6fe5ab3c92d9","ios":"levelo://app?vid=e14ef293-eb82-44d0-8012-6fe5ab3c92d9"},"vehicle_type_id":"4","last_reported":1741049310,"current_range_meters":18800,"station_id":"ce4bhgh2rcd13ifvqfa0","pricing_plan_id":"cebpf4jnsgd1na2vs0mg"},{"bike_id":"e5e10333-14b5-4cd3-83e1-2adeb14fe709","system_id":"levelo_inurba_marseille","lat":43.28577,"lon":5.39492,"is_reserved":false,"is_disabled":false,"rental_uris":{"android":"levelo://app?vid=e5e10333-14b5-4cd3-83e1-2adeb14fe709","ios":"levelo://app?vid=e5e10333-14b5-4cd3-83e1-2adeb14fe709"},"vehicle_type_id":"4","last_reported":1741049310,"current_range_meters":18000,"station_id":"ce4bh292rcd13ifvqdg0","pricing_plan_id":"cebpf4jnsgd1na2vs0mg"},{"bike_id":"75b2f01b-8abe-4cdc-b90e-57d73a0ef659","system_id":"levelo_inurba_marseille","lat":43.28907,"lon":5.36621,"is_reserved":false,"is_disabled":true,"rental_uris":{"android":"levelo://app?vid=75b2f01b-8abe-4cdc-b90e-57d73a0ef659","ios":"levelo://app?vid=75b2f01b-8abe-4cdc-b90e-57d73a0ef659"},"vehicle_type_id":"4","last_reported":1741049310,"current_range_meters":18000,"station_id":"ce4bhap2rcd13ifvqek0","pricing_plan_id":"cebpf4jnsgd1na2vs0mg"},{"bike_id":"fe81107b-90f0-4fa6-bf96-50f85c1af8fd","system_id":"levelo_inurba_marseille","lat":43.29599,"lon":5.38094,"is_reserved":false,"is_disabled":false,"rental_uris":{"android":"levelo://app?vid=fe81107b-90f0-4fa6-bf96-50f85c1af8fd","ios":"levelo://app?vid=fe81107b-90f0-4fa6-bf96-50f85c1af8fd"},"vehicle_type_id":"4","last_reported":1741049310,"current_range_meters":18000,"station_id":"ce4bgl12rcd13ifvqbo0","pricing_plan_id":"cebpf4jnsgd1na2vs0mg"},{"bike_id":"3eee0dc5-ae82-4a87-84bd-e56ec3329485","system_id":"levelo_inurba_marseille","lat":43.24641,"lon":5.38896,"is_reserved":false,"is_disabled":false,"rental_uris":{"android":"levelo://app?vid=3eee0dc5-ae82-4a87-84bd-e56ec3329485","ios":"levelo://app?vid=3eee0dc5-ae82-4a87-84bd-e56ec3329485"},"vehicle_type_id":"4","last_reported":1741049310,"current_range_meters":18000,"station_id":"ce4bhg12rcd13ifvqf60","pricing_plan_id":"cebpf4jnsgd1na2vs0mg"},{"bike_id":"d0c1d623-11ab-4348-95de-20d490237449","system_id":"levelo_inurba_marseille","lat":43.30957,"lon":5.39057,"is_reserved":false,"is_disabled":false,"rental_uris":{"android":"levelo://app?vid=d0c1d623-11ab-4348-95de-20d490237449","ios":"levelo://app?vid=d0c1d623-11ab-4348-95de-20d490237449"},"vehicle_type_id":"4","last_reported":1741049310,"current_range_meters":18000,"station_id":"ce4bgup2rcd13ifvqco0","pricing_plan_id":"cebpf4jnsgd1na2vs0mg"},{"bike_id":"422b67af-3f16-4580-920a-06e096d2a37c","system_id":"levelo_inurba_marseille","lat":43.28692,"lon":5.37397,"is_reserved":false,"is_disabled":false,"rental_uris":{"android":"levelo://app?vid=422b67af-3f16-4580-920a-06e096d2a37c","ios":"levelo://app?vid=422b67af-3f16-4580-920a-06e096d2a37c"},"vehicle_type_id":"4","last_reported":1741049310,"current_range_meters":18000,"station_id":"ce4bh3p2rcd13ifvqdq0","pricing_plan_id":"cebpf4jnsgd1na2vs0mg"},{"bike_id":"19927819-4488-4fee-bee2-a2a35891795f","system_id":"levelo_inurba_marseille","lat":43.28397,"lon":5.37516,"is_reserved":false,"is_disabled":true,"rental_uris":{"android":"levelo://app?vid=19927819-4488-4fee-bee2-a2a35891795f","ios":"levelo://app?vid=19927819-4488-4fee-bee2-a2a35891795f"},"vehicle_type_id":"4","last_reported":1741049310,"current_range_meters":18000,"station_id":"ce4bh412rcd13ifvqds0","pricing_plan_id":"cebpf4jnsgd1na2vs0mg"},{"bike_id":"0798275a-ebea-47ce-84e9-db2a1c955ac9","system_id":"levelo_inurba_marseille","lat":43.29585,"lon":5.38676,"is_reserved":false,"is_disabled":false,"rental_uris":{"android":"levelo://app?vid=0798275a-ebea-47ce-84e9-db2a1c955ac9","ios":"levelo://app?vid=0798275a-ebea-47ce-84e9-db2a1c955ac9"},"vehicle_type_id":"4","last_reported":1741049310,"current_range_meters":18000,"station_id":"","pricing_plan_id":"cebpf4jnsgd1na2vs0mg"},{"bike_id":"a97c7e93-7e5d-44cd-9648-a62234ae51ba","system_id":"levelo_inurba_marseille","lat":43.306,"lon":5.37207,"is_reserved":false,"is_disabled":false,"rental_uris":{"android":"levelo://app?vid=a97c7e93-7e5d-44cd-9648-a62234ae51ba","ios":"levelo://app?vid=a97c7e93-7e5d-44cd-9648-a62234ae51ba"},"vehicle_type_id":"4","last_reported":1741049310,"current_range_meters":18000,"station_id":"ce4bgqh2rcd13ifvqc4g","pricing_plan_id":"cebpf4jnsgd1na2vs0mg"},{"bike_id":"c32f0fb3-9a9c-4f87-82c0-7c4aa19cb97e","system_id":"levelo_inurba_marseille","lat":43.28449,"lon":5.3589,"is_reserved":false,"is_disabled":false,"rental_uris":{"android":"levelo://app?vid=c32f0fb3-9a9c-4f87-82c0-7c4aa19cb97e","ios":"levelo://app?vid=c32f0fb3-9a9c-4f87-82c0-7c4aa19cb97e"},"vehicle_type_id":"4","last_reported":1741049310,"current_range_meters":18800,"station_id":"ce4bhah2rcd13ifvqei0","pricing_plan_id":"cebpf4jnsgd1na2vs0mg"},