{"last_updated":1741432016,"ttl":60,"version":"2.2","data":{"bikes":[{"bike_id":"a1732c9c-53a2-4acb-856e-308a156296df","system_id":"levelo_inurba_marseille","lat":43.29946,"lon":5.36569,"is_reserved":false,"is_disabled":false,"rental_uris":{"android":"levelo://app?vid=a1732c9c-53a2-4acb-856e-308a156296df","ios":"levelo://app?vid=a1732c9c-53a2-4acb-856e-308a156296df"},"vehicle_type_id":"4","last_reported":1741432016,"current_range_meters":2800,"station_id":"ce4bgm92rcd13ifvqbr0","pricing_plan_id":"cebpf4jnsgd1na2vs0mg"},{"bike_id":"b73174b0-07e8-467a-b7e4-afac5a25886b","system_id":"levelo_inurba_marseille","lat":43.30221,"lon":5.3948,"is_reserved":false,"is_disabled":false,"rental_uris":{"android":"levelo://app?vid=b73174b0-07e8-467a-b7e4-afac5a25886b","ios":"levelo://app?vid=b73174b0-07e8-467a-b7e4-afac5a25886b"},"vehicle_type_id":"4","last_reported":1741432016,"current_range_meters":2000,"station_id":"ce4bh0p2rcd13ifvqd70","pricing_plan_id":"cebpf4jnsgd1na2vs0mg"},{"bike_id":"914bbafb-3768-41ed-9924-1947bd4ab869","system_id":"levelo_inurba_marseille","lat":43.30142,"lon":5.38379,"is_reserved":false,"is_disabled":false,"rental_uris":{"android":"levelo://app?vid=914bbafb-3768-41ed-9924-1947bd4ab869","ios":"levelo://app?vid=914bbafb-3768-41ed-9924-1947bd4ab869"},"vehicle_type_id":"4","last_reported":1741432016,"current_range_meters":2800,"station_id":"","pricing_plan_id":"cebpf4jnsgd1na2vs0mg"},{"bike_id":"08ad243a-e6f2-4c40-8067-fd98f3b69554","system_id":"levelo_inurba_marseille","lat":43.25934,"lon":5.40905,"is_reserved":false,"is_disabled":false,"rental_uris":{"android":"levelo://app?vid=08ad243a-e6f2-4c40-8067-fd98f3b69554","ios":"levelo://app?vid=08ad243a-e6f2-4c40-8067-fd98f3b69554"},"vehicle_type_id":"4","last_reported":1741432016,"current_range_meters":2800,"station_id":"ce4bhm92rcd13ifvqglg","pricing_plan_id":"cebpf4jnsgd1na2vs0mg"},{"bike_id":"fd5bc0f3-28c9-4f0c-afd7-bb4c32b651b7","system_id":"levelo_inurba_marseille","lat":43.2958,"lon":5.36737,"is_reserved":false,"is_disabled":false,"rental_uris":{"android":"levelo://app?vid=fd5bc0f3-28c9-4f0c-afd7-bb4c32b651b7","ios":"levelo://app?vid=fd5bc0f3-28c9-4f0c-afd7-bb4c32b651b7"},"vehicle_type_id":"4","last_reported":1741432016,"current_range_meters":2800,"station_id":"ce4bgph2rcd13ifvqc2g","pricing_plan_id":"cebpf4jnsgd1na2vs0mg"},{"bike_id":"c5d9a748-fb84-4751-9008-dc4467d9ed9a","system_id":"levelo_inurba_marseille","lat":43.23216,"lon":5.35557,"is_reserved":false,"is_disabled":false,"rental_uris":{"android":"levelo://app?vid=c5d9a748-fb84-4751-9008-dc4467d9ed9a","ios":"levelo://app?vid=c5d9a748-fb84-4751-9008-dc4467d9ed9a"},"vehicle_type_id":"4","last_reported":1741432016,"current_range_meters":3200,"station_id":"ce4bhu92rcd13ifvqi70","pricing_plan_id":"cebpf4jnsgd1na2vs0mg"},{"bike_id":"3763ca09-281c-481c-9755-79dce3edd104","system_id":"levelo_inurba_marseille","lat":43.32004,"lon":5.38166,"is_reserved":false,"is_disabled":false,"rental_uris":{"android":"levelo://app?vid=3763ca09-281c-481c-9755-79dce3edd104","ios":"levelo://app?vid=3763ca09-281c-481c-9755-79dce3edd104"},"vehicle_type_id":"4","last_reported":1741432016,"current_range_meters":3200,"station_id":"ce4bhr12rcd13ifvqhpg","pricing_plan_id":"cebpf4jnsgd1na2vs0mg"},{"bike_id":"023cc0e9-d30c-44e3-ab91-91789c99fd43","system_id":"levelo_inurba_marseille","lat":43.280885,"lon":5.398819,"is_reserved":false,"is_disabled":false,"rental_uris":{"android":"levelo://app?vid=023cc0e9-d30c-44e3-ab91-91789c99fd43","ios":"levelo://app?vid=023cc0e9-d30c-44e3-ab91-91789c99fd43"},"vehicle_type_id":"4","last_reported":1741432016,"current_range_meters":3600,"station_id":"","pricing_plan_id":"cebpf4jnsgd1na2vs0mg"},{"bike_id":"c9151ceb-fd35-4b40-9877-b7757062111e","system_id":"levelo_inurba_marseille","lat":43.27837,"lon":5.4073,"is_reserved":false,"is_disabled":false,"rental_uris":{"android":"levelo://app?vid=c9151ceb-fd35-4b40-9877-b7757062111e","ios":"levelo://app?vid=c9151ceb-fd35-4b40-9877-b7757062111e"},"vehicle_type_id":"4","last_reported":1741432016,"current_range_meters":3600,"station_id":"ce4bhnh2rcd13ifvqgtg","pricing_plan_id":"cebpf4jnsgd1na2vs0mg"},{"bike_id":"24d9e58c-b2f0-4930-949c-9b29267ed908","system_id":"levelo_inurba_marseille","lat":43.29691,"lon":5.36594,"is_reserved":false,"is_disabled":false,"rental_uris":{"android":"levelo://app?vid=24d9e58c-b2f0-4930-949c-9b29267ed908","ios":"levelo://app?vid=24d9e58c-b2f0-4930-949c-9b29267ed908"},"vehicle_type_id":"4","last_reported":1741432016,"current_range_meters":3600,"station_id":"ce4bgn12rcd13ifvqbt0","pricing_plan_id":"cebpf4jnsgd1na2vs0mg"},{"bike_id":"0b0120c5-71f6-4626-8ebd-61931507ca52","system_id":"levelo_inurba_marseille","lat":43.29607,"lon":5.37735,"is_reserved":false,"is_disabled":false,"rental_uris":{"android":"levelo://app?vid=0b0120c5-71f6-4626-8ebd-61931507ca52","ios":"levelo://app?vid=0b0120c5-71f6-4626-8ebd-61931507ca52"},"vehicle_type_id":"4","last_reported":1741432016,"current_range_meters":3600,"station_id":"ce4bgi92rcd13ifvqb90","pricing_plan_id":"cebpf4jnsgd1na2vs0mg"},{"bike_id":"6e55cb3d-1337-4aba-a677-1ed7fedf215a","system_id":"levelo_inurba_marseille","lat":43.265588,"lon":5.37281,"is_reserved":false,"is_disabled":false,"rental_uris":{"android":"levelo://app?vid=6e55cb3d-1337-4aba-a677-1ed7fedf215a","ios":"levelo://app?vid=6e55cb3d-1337-4aba-a677-1ed7fedf215a"},"vehicle_type_id":"4","last_reported":1741432016,"current_range_meters":4000,"station_id":"ce4bhg12rcd13ifvqf70","pricing_plan_id":"cebpf4jnsgd1na2vs0mg"},{"bike_id":"0d28db34-88c7-4e8d-9eb0-a5cb539c41bb","system_id":"levelo_inurba_marseille","lat":43.23943,"lon":5.3665,"is_reserved":false,"is_disabled":false,"rental_uris":{"android":"levelo://app?vid=0d28db34-88c7-4e8d-9eb0-a5cb539c41bb","ios":"levelo://app?vid=0d28db34-88c7-4e8d-9eb0-a5cb539c41bb"},"vehicle_type_id":"4","last_reported":1741432016,"current_range_meters":4000,"station_id":"ce4bhi12rcd13ifvqfp0","pricing_plan_id":"cebpf4jnsgd1na2vs0mg"},{"bike_id":"43bc5e18-7bfb-4e30-b758-942e653f0d5a","system_id":"levelo_inurba_marseille","lat":43.246321,"lon":5.40276,"is_reserved":false,"is_disabled":false,"rental_uris":{"android":"levelo://app?vid=43bc5e18-7bfb-4e30-b758-942e653f0d5a","ios":"levelo://app?vid=43bc5e18-7bfb-4e30-b758-942e653f0d5a"},"vehicle_type_id":"4","last_reported":1741432016,"current_range_meters":4000,"station_id":"","pricing_plan_id":"cebpf4jnsgd1na2vs0mg"},{"bike_id":"94e5c145-3ad9-419d-a025-3c7dea81bc8c","system_id":"levelo_inurba_marseille","lat":43.27621,"lon":5.36114,"is_reserved":false,"is_disabled":false,"rental_uris":{"android":"levelo://app?vid=94e5c145-3ad9-419d-a025-3c7dea81bc8c","ios":"levelo://app?vid=94e5c145-3ad9-419d-a025-3c7dea81bc8c"},"vehicle_type_id":"4","last_reported":1741432016,"current_range_meters":4000,"station_id":"ce4bgj92rcd13ifvqbe0","pricing_plan_id":"cebpf4jnsgd1na2vs0mg"},{"bike_id":"c7b856f3-5384-43d0-9239-d897a865fee4","system_id":"levelo_inurba_marseille","lat":43.230586,"lon":5.354934,"is_reserved":false,"is_disabled":false,"rental_uris":{"android":"levelo://app?vid=c7b856f3-5384-43d0-9239-d897a865fee4","ios":"levelo://app?vid=c7b856f3-5384-43d0-9239-d897a865fee4"},"vehicle_type_id":"4","last_reported":1741432016,"current_range_meters":4000,"station_id":"cpo3342slgdg3j2ifvpg","pricing_plan_id":"cebpf4jnsgd1na2vs0mg"},{"bike_id":"5dbeed0d-ba48-4d8a-a808-0452a76091c8","system_id":"levelo_inurba_marseille","lat":43.26561,"lon":5.39009,"is_reserved":false,"is_disabled":false,"rental_uris":{"android":"levelo://app?vid=5dbeed0d-ba48-4d8a-a808-0452a76091c8","ios":"levelo://app?vid=5dbeed0d-ba48-4d8a-a808-0452a76091c8"},"vehicle_type_id":"4","last_reported":1741432016,"current_range_meters":4000,"station_id":"ce4bhe12rcd13ifvqf30","pricing_plan_id":"cebpf4jnsgd1na2vs0mg"},{"bike_id":"bb3cad49-1f44-4ca8-8b53-a9a721609bc8","system_id":"levelo_inurba_marseille","lat":43.313277,"lon":5.396917,"is_reserved":false,"is_disabled":false,"rental_uris":{"android":"levelo://app?vid=bb3cad49-1f44-4ca8-8b53-a9a721609bc8","ios":"levelo://app?vid=bb3cad49-1f44-4ca8-8b53-a9a721609bc8"},"vehicle_type_id":"4","last_reported":1741432016,"current_range_meters":4400,"station_id":"ce4bgvp2rcd13ifvqcu0","pricing_plan_id":"cebpf4jnsgd1na2vs0mg"},{"bike_id":"6ef91162-727a-4c9c-8efa-12cb0d1c5b19","system_id":"levelo_inurba_marseille","lat":43.23967,"lon":5.36619,"is_reserved":false,"is_disabled":false,"rental_uris":{"android":"levelo://app?vid=6ef91162-727a-4c9c-8efa-12cb0d1c5b19","ios":"levelo://app?vid=6ef91162-727a-4c9c-8efa-12cb0d1c5b19"},"vehicle_type_id":"4","last_reported":1741432016,"current_range_meters":4400,"station_id":"ce4bhi12rcd13ifvqfp0","pricing_plan_id":"cebpf4jnsgd1na2vs0mg"},{"bike_id":"3332297b-ddda-468e-86eb-33cdac2c9b94","system_id":"levelo_inurba_marseille","lat":43.30373,"lon":5.41872,"is_reserved":false,"is_disabled":false,"rental_uris":{"android":"levelo://app?vid=3332297b-ddda-468e-86eb-33cdac2c9b94","ios":"levelo://app?vid=3332297b-ddda-468e-86eb-33cdac2c9b94"},"vehicle_type_id":"4","last_reported":1741432016,"current_range_meters":4400,"station_id":"ce4bhop2rcd13ifvqh7g","pricing_plan_id":"cebpf4jnsgd1na2vs0mg"},{"bike_id":"5fe1400e-4080-4cdc-8b18-0a0798382385","system_id":"levelo_inurba_marseille","lat":43.2836,"lon":5.38641,"is_reserved":false,"is_disabled":false,"rental_uris":{"android":"levelo://app?vid=5fe1400e-4080-4cdc-8b18-0a0798382385","ios":"levelo://app?vid=5fe1400e-4080-4cdc-8b18-0a0798382385"},"vehicle_type_id":"4","last_reported":1741432016,"current_range_meters":4400,"station_id":"ce4bh492rcd13ifvqdvg","pricing_plan_id":"cebpf4jnsgd1na2vs0mg"},{"bike_id":"53ba06d6-3b6c-4f49-bc80-8f7e1937ded3","system_id":"levelo_inurba_marseille","lat":43.279,"lon":5.41253,"is_reserved":false,"is_disabled":false,"rental_uris":{"android":"levelo://app?vid=53ba06d6-3b6c-4f49-bc80-8f7e1937ded3","ios":"levelo://app?vid=53ba06d6-3b6c-4f49-bc80-8f7e1937ded3"},"vehicle_type_id":"4","last_reported":1741432016,"current_range_meters":4400,"station_id":"","pricing_plan_id":"cebpf4jnsgd1na2vs0mg"},{"bike_id":"17862a34-3eec-4197-9fce-46ac0067e359","system_id":"levelo_inurba_marseille","lat":43.27054,"lon":5.4026,"is_reserved":false,"is_disabled":false,"rental_uris":{"android":"levelo://app?vid=17862a34-3eec-4197-9fce-46ac0067e359","ios":"levelo://app?vid=17862a34-3eec-4197-9fce-46ac0067e359"},"vehicle_type_id":"4","last_reported":1741432016,"current_range_meters":4400,"station_id":"ce4bhk92rcd13ifvqgc0","pricing_plan_id":"cebpf4jnsgd1na2vs0mg"},{"bike_id":"a8412a7a-010e-484a-b42c-cb34a76c7697","system_id":"levelo_inurba_marseille","lat":43.32655,"lon":5.4099,"is_reserved":false,"is_disabled":false,"rental_uris":{"android":"levelo://app?vid=a8412a7a-010e-484a-b42c-cb34a76c7697","ios":"levelo://app?vid=a8412a7a-010e-484a-b42c-cb34a76c7697"},"vehicle_type_id":"4","last_reported":1741432016,"current_range_meters":4800,"station_id":"ce4bhpp2rcd13ifvqhgg","pricing_plan_id":"cebpf4jnsgd1na2vs0mg"},{"bike_id":"3a090aba-8792-4e90-ae22-5154f3f7f1bc","system_id":"levelo_inurba_marseille","lat":43.32115,"lon":5.36781,"is_reserved":false,"is_disabled":false,"rental_uris":{"android":"levelo://app?vid=3a090aba-8792-4e90-ae22-5154f3f7f1bc","ios":"levelo://app?vid=3a090aba-8792-4e90-ae22-5154f3f7f1bc"},"vehicle_type_id":"4","last_reported":1741432016,"current_range_meters":4800,"station_id":"ce4bhrh2rcd13ifvqhug","pricing_plan_id":"cebpf4jnsgd1na2vs0mg"},{"bike_id":"b48e3b6a-7cf9-4820-99df-d6e4e7cc9cab","system_id":"levelo_inurba_marseille","lat":43.25514,"lon":5.37656,"is_reserved":false,"is_disabled":false,"rental_uris":{"android":"levelo://app?vid=b48e3b6a-7cf9-4820-99df-d6e4e7cc9cab","ios":"levelo://app?vid=b48e3b6a-7cf9-4820-99df-d6e4e7cc9cab"},"vehicle_type_id":"4","last_reported":1741432016,"current_range_meters":5600,"station_id":"ce4bhh12rcd13ifvqff0","pricing_plan_id":"cebpf4jnsgd1na2vs0mg"},{"bike_id":"72ad35d5-229e-4395-b775-8a505aad1b5e","system_id":"levelo_inurba_marseille","lat":43.27634,"lon":5.36102,"is_reserved":false,"is_disabled":false,"rental_uris":{"android":"levelo://app?vid=72ad35d5-229e-4395-b775-8a505aad1b5e","ios":"levelo://app?vid=72ad35d5-229e-4395-b775-8a505aad1b5e"},"vehicle_type_id":"4","last_reported":1741432016,"current_range_meters":5600,"station_id":"ce4bgj92rcd13ifvqbe0","pricing_plan_id":"cebpf4jnsgd1na2vs0mg"},{"bike_id":"1fee6973-e38d-4ace-bdac-29acc87ed0ab","system_id":"levelo_inurba_marseille","lat":43.298924,"lon":5.436568,"is_reserved":false,"is_disabled":false,"rental_uris":{"android":"levelo://app?vid=1fee6973-e38d-4ace-bdac-29acc87ed0ab","ios":"levelo://app?vid=1fee6973-e38d-4ace-bdac-29acc87ed0ab"},"vehicle_type_id":"4","last_reported":1741432016,"current_range_meters":6000,"station_id":"ce4bhpp2rcd13ifvqhfg","pricing_plan_id":"cebpf4jnsgd1na2vs0mg"},{"bike_id":"ca251e6c-5c4d-423b-b49a-64ae49954f70","system_id":"levelo_inurba_marseille","lat":43.29576,"lon":5.36753,"is_reserved":false,"is_disabled":false,"rental_uris":{"android":"levelo://app?vid=ca251e6c-5c4d-423b-b49a-64ae49954f70","ios":"levelo://app?vid=ca251e6c-5c4d-423b-b49a-64ae49954f70"},"vehicle_type_id":"4","last_reported":1741432016,"current_range_meters":6000,"station_id":"ce4bgph2rcd13ifvqc2g","pricing_plan_id":"cebpf4jnsgd1na2vs0mg"},{"bike_id":"4ef37d01-3a7e-42f1-a9f7-e3be7c1afc72","system_id":"levelo_inurba_marseille","lat":43.23195,"lon":5.3556,"is_reserved":false,"is_disabled":false,"rental_uris":{"android":"levelo://app?vid=4ef37d01-3a7e-42f1-a9f7-e3be7c1afc72","ios":"levelo://app?vid=4ef37d01-3a7e-42f1-a9f7-e3be7c1afc72"},"vehicle_type_id":"4","last_reported":1741432016,"current_range_meters":6000,"station_id":"ce4bhu92rcd13ifvqi70","pricing_plan_id":"cebpf4jnsgd1na2vs0mg"},{"bike_id":"4afdbfd0-98cd-490e-8f08-f8fabefa21b1","system_id":"levelo_inurba_marseille","lat":43.23956,"lon":5.36644,"is_reserved":false,"is_disabled":false,"rental_uris":{"android":"levelo://app?vid=4afdbfd0-98cd-490e-8f08-f8fabefa21b1","ios":"levelo://app?vid=4afdbfd0-98cd-490e-8f08-f8fabefa21b1"},"vehicle_type_id":"4","last_reported":1741432016,"current_range_meters":6800,"station_id":"ce4bhi12rcd13ifvqfp0","pricing_plan_id":"cebpf4jnsgd1na2vs0mg"},{"bike_id":"e1cdb9a5-b153-4cec-8a45-7316e6bb6b13","system_id":"levelo_inurba_marseille","lat":43.25137,"lon":5.40352,"is_reserved":false,"is_disabled":false,"rental_uris":{"android":"levelo://app?vid=e1cdb9a5-b153-4cec-8a45-7316e6bb6b13","ios":"levelo://app?vid=e1cdb9a5-b153-4cec-8a45-7316e6bb6b13"},"vehicle_type_id":"4","last_reported":1741432016,"current_range_meters":6400,"station_id":"ce4bhlh2rcd13ifvqgig","pricing_plan_id":"cebpf4jnsgd1na2vs0mg"},{"bike_id":"07ef0988-ff49-442c-a938-0dcb18e77445","system_id":"levelo_inurba_marseille","lat":43.29623,"lon":5.40597,"is_reserved":false,"is_disabled":false,"rental_uris":{"android":"levelo://app?vid=07ef0988-ff49-442c-a938-0dcb18e77445","ios":"levelo://app?vid=07ef0988-ff49-442c-a938-0dcb18e77445"},"vehicle_type_id":"4","last_reported":1741432016,"current_range_meters":6400,"station_id":"ce4bh0h2rcd13ifvqd60","pricing_plan_id":"cebpf4jnsgd1na2vs0mg"},{"bike_id":"62391f34-3130-43d3-9ff9-87e80b4db075","system_id":"levelo_inurba_marseille","lat":43.32119,"lon":5.36791,"is_reserved":false,"is_disabled":false,"rental_uris":{"android":"levelo://app?vid=62391f34-3130-43d3-9ff9-87e80b4db075","ios":"levelo://app?vid=62391f34-3130-43d3-9ff9-87e80b4db075"},"vehicle_type_id":"4","last_reported":1741432016,"current_range_meters":6800,"station_id":"ce4bhrh2rcd13ifvqhug","pricing_plan_id":"cebpf4jnsgd1na2vs0mg"},{"bike_id":"0af30f24-954a-46d7-b033-51d52f807b8c","system_id":"levelo_inurba_marseille","lat":43.25025,"lon":5.38926,"is_reserved":false,"is_disabled":false,"rental_uris":{"android":"levelo://app?vid=0af30f24-954a-46d7-b033-51d52f807b8c","ios":"levelo://app?vid=0af30f24-954a-46d7-b033-51d52f807b8c"},"vehicle_type_id":"4","last_reported":1741432016,"current_range_meters":6800,"station_id":"ce4bhgp2rcd13ifvqfd0","pricing_plan_id":"cebpf4jnsgd1na2vs0mg"},{"bike_id":"51510a95-54e3-4b84-9b22-bfa3391426f3","system_id":"levelo_inurba_marseille","lat":43.23207,"lon":5.35554,"is_reserved":false,"is_disabled":false,"rental_uris":{"android":"levelo://app?vid=51510a95-54e3-4b84-9b22-bfa3391426f3","ios":"levelo://app?vid=51510a95-54e3-4b84-9b22-bfa3391426f3"},"vehicle_type_id":"4","last_reported":1741432016,"current_range_meters":6800,"station_id":"ce4bhu92rcd13ifvqi70","pricing_plan_id":"cebpf4jnsgd1na2vs0mg"},{"bike_id":"b2cada68-d22d-4962-a15a-eab832155af1","system_id":"levelo_inurba_marseille","lat":43.31323,"lon":5.39702,"is_reserved":false,"is_disabled":false,"rental_uris":{"android":"levelo://app?vid=b2cada68-d22d-4962-a15a-eab832155af1","ios":"levelo://app?vid=b2cada68-d22d-4962-a15a-eab832155af1"},"vehicle_type_id":"4","last_reported":1741432016,"current_range_meters":6800,"station_id":"ce4bgvp2rcd13ifvqcu0","pricing_plan_id":"cebpf4jnsgd1na2vs0mg"},{"bike_id":"41ea5092-adc0-4c66-a3bb-cb61291d5969","system_id":"levelo_inurba_marseille","lat":43.23148,"lon":5.43725,"is_reserved":false,"is_disabled":false,"rental_uris":{"android":"levelo://app?vid=41ea5092-adc0-4c66-a3bb-cb61291d5969","ios":"levelo://app?vid=41ea5092-adc0-4c66-a3bb-cb61291d5969"},"vehicle_type_id":"4","last_reported":1741432016,"current_range_meters":6800,"station_id":"ce4bhmp2rcd13ifvqgog","pricing_plan_id":"cebpf4jnsgd1na2vs0mg"},{"bike_id":"d9708d6d-83b9-47c9-a90c-62bff4505670","system_id":"levelo_inurba_marseille","lat":43.27499,"lon":5.42465,"is_reserved":false,"is_disabled":false,"rental_uris":{"android":"levelo://app?vid=d9708d6d-83b9-47c9-a90c-62bff4505670","ios":"levelo://app?vid=d9708d6d-83b9-47c9-a90c-62bff4505670"},"vehicle_type_id":"4","last_reported":1741432016,"current_range_meters":7200,"station_id":"ce4bhn92rcd13ifvqgrg","pricing_plan_id":"cebpf4jnsgd1na2vs0mg"},{"bike_id":"bd1ca430-15b2-40f5-ab85-6f767aed8061","system_id":"levelo_inurba_marseille","lat":43.230501,"lon":5.355264,"is_reserved":false,"is_disabled":false,"rental_uris":{"android":"levelo://app?vid=bd1ca430-15b2-40f5-ab85-6f767aed8061","ios":"levelo://app?vid=bd1ca430-15b2-40f5-ab85-6f767aed8061"},"vehicle_type_id":"4","last_reported":1741432016,"current_range_meters":7200,"station_id":"cpo3342slgdg3j2ifvpg","pricing_plan_id":"cebpf4jnsgd1na2vs0mg"},{"bike_id":"904a8371-ebed-45e5-8cc3-b64b65860481","system_id":"levelo_inurba_marseille","lat":43.317067,"lon":5.377627,"is_reserved":false,"is_disabled":false,"rental_uris":{"android":"levelo://app?vid=904a8371-ebed-45e5-8cc3-b64b65860481","ios":"levelo://app?vid=904a8371-ebed-45e5-8cc3-b64b65860481"},"vehicle_type_id":"4","last_reported":1741432016,"current_range_meters":7200,"station_id":"ce4bgth2rcd13ifvqch0","pricing_plan_id":"cebpf4jnsgd1na2vs0mg"},{"bike_id":"73854ce3-7660-45ea-9739-2942303efa10","system_id":"levelo_inurba_marseille","lat":43.29699,"lon":5.36609,"is_reserved":false,"is_disabled":false,"rental_uris":{"android":"levelo://app?vid=73854ce3-7660-45ea-9739-2942303efa10","ios":"levelo://app?vid=73854ce3-7660-45ea-9739-2942303efa10"},"vehicle_type_id":"4","last_reported":1741432016,"current_range_meters":7200,"station_id":"ce4bgn12rcd13ifvqbt0","pricing_plan_id":"cebpf4jnsgd1na2vs0mg"},{"bike_id":"59ef7ab1-f072-4315-9e2a-a3482cc569d5","system_id":"levelo_inurba_marseille","lat":43.2989,"lon":5.43649,"is_reserved":false,"is_disabled":false,"rental_uris":{"android":"levelo://app?vid=59ef7ab1-f072-4315-9e2a-a3482cc569d5","ios":"levelo://app?vid=59ef7ab1-f072-4315-9e2a-a3482cc569d5"},"vehicle_type_id":"4","last_reported":1741432016,"current_range_meters":8000,"station_id":"ce4bhpp2rcd13ifvqhfg","pricing_plan_id":"cebpf4jnsgd1na2vs0mg"},{"bike_id":"0c339209-f8b5-41e6-8b08-67f692b6b7a8","system_id":"levelo_inurba_marseille","lat":43.3303,"lon":5.39053,"is_reserved":false,"is_disabled":false,"rental_uris":{"android":"levelo://app?vid=0c339209-f8b5-41e6-8b08-67f692b6b7a8","ios":"levelo://app?vid=0c339209-f8b5-41e6-8b08-67f692b6b7a8"},"vehicle_type_id":"4","last_reported":1741432016,"current_range_meters":8000,"station_id":"ce4bhr92rcd13ifvqhrg","pricing_plan_id":"cebpf4jnsgd1na2vs0mg"},{"bike_id":"2fc70a1d-f235-4d4d-8d59-5144d963da00","system_id":"levelo_inurba_marseille","lat":43.27499,"lon":5.42448,"is_reserved":false,"is_disabled":false,"rental_uris":{"android":"levelo://app?vid=2fc70a1d-f235-4d4d-8d59-5144d963da00","ios":"levelo://app?vid=2fc70a1d-f235-4d4d-8d59-5144d963da00"},"vehicle_type_id":"4","last_reported":1741432016,"current_range_meters":8000,"station_id":"ce4bhn92rcd13ifvqgrg","pricing_plan_id":"cebpf4jnsgd1na2vs0mg"},{"bike_id":"57a062bd-39ac-4dcc-a9a6-c2caa45e6924","system_id":"levelo_inurba_marseille","lat":43.3096,"lon":5.39052,"is_reserved":false,"is_disabled":false,"rental_uris":{"android":"levelo://app?vid=57a062bd-39ac-4dcc-a9a6-c2caa45e6924","ios":"levelo://app?vid=57a062bd-39ac-4dcc-a9a6-c2caa45e6924"},"vehicle_type_id":"4","last_reported":1741432016,"current_range_meters":8000,"station_id":"ce4bgup2rcd13ifvqco0","pricing_plan_id":"cebpf4jnsgd1na2vs0mg"},{"bike_id":"ee5335f6-de94-472b-8895-35c940c1ad8d","system_id":"levelo_inurba_marseille","lat":43.30957,"lon":5.39035,"is_reserved":false,"is_disabled":false,"rental_uris":{"android":"levelo://app?vid=ee5335f6-de94-472b-8895-35c940c1ad8d","ios":"levelo://app?vid=ee5335f6-de94-472b-8895-35c940c1ad8d"},"vehicle_type_id":"4","last_reported":1741432016,"current_range_meters":8000,"station_id":"ce4bgup2rcd13ifvqco0","pricing_plan_id":"cebpf4jnsgd1na2vs0mg"},{"bike_id":"b9c7ad84-7bfa-4cc0-90ab-2011c1896e0e","system_id":"levelo_inurba_marseille","lat":43.22926,"lon":5.35377,"is_reserved":false,"is_disabled":false,"rental_uris":{"android":"levelo://app?vid=b9c7ad84-7bfa-4cc0-90ab-2011c1896e0e","ios":"levelo://app?vid=b9c7ad84-7bfa-4cc0-90ab-2011c1896e0e"},"vehicle_type_id":"4","last_reported":1741432016,"current_range_meters":8000,"station_id":"cpo3532slgdg3j2ikp40","pricing_plan_id":"cebpf4jnsgd1na2vs0mg"},{"bike_id":"0a9bc1bd-e305-40d4-8852-5005300b12a0","system_id":"levelo_inurba_marseille","lat":43.22927,"lon":5.35337,"is_reserved":false,"is_disabled":false,"rental_uris":{"android":"levelo://app?vid=0a9bc1bd-e305-40d4-8852-5005300b12a0","ios":"levelo://app?vid=0a9bc1bd-e305-40d4-8852-5005300b12a0"},"vehicle_type_id":"4","last_reported":1741432016,"current_range_meters":8400,"station_id":"cpo3532slgdg3j2ikp40","pricing_plan_id":"cebpf4jnsgd1na2vs0mg"},{"bike_id":"7ae71350-4bf9-4444-b431-4c0ce0ad5ff8","system_id":"levelo_inurba_marseille","lat":43.31078,"lon":5.4243,"is_reserved":false,"is_disabled":false,"rental_uris":{"android":"levelo://app?vid=7ae71350-4bf9-4444-b431-4c0ce0ad5ff8","ios":"levelo://app?vid=7ae71350-4bf9-4444-b431-4c0ce0ad5ff8"},"vehicle_type_id":"4","last_reported":1741432016,"current_range_meters":8000,"station_id":"ce4bhp92rcd13ifvqhag","pricing_plan_id":"cebpf4jnsgd1na2vs0mg"},{"bike_id":"7b62c62b-d961-49e1-afe1-b0b21a291801","system_id":"levelo_inurba_marseille","lat":43.27879,"lon":5.41757,"is_reserved":false,"is_disabled":false,"rental_uris":{"android":"levelo://app?vid=7b62c62b-d961-49e1-afe1-b0b21a291801","ios":"levelo://app?vid=7b62c62b-d961-49e1-afe1-b0b21a291801"},"vehicle_type_id":"4","last_reported":1741432016,"current_range_meters":8400,"station_id":"","pricing_plan_id":"cebpf4jnsgd1na2vs0mg"},{"bike_id":"33c5a516-9ae0-4ab5-a6a4-d23665003a6e","system_id":"levelo_inurba_marseille","lat":43.30428,"lon":5.38891,"is_reserved":false,"is_disabled":false,"rental_uris":{"android":"levelo://app?vid=33c5a516-9ae0-4ab5-a6a4-d23665003a6e","ios":"levelo://app?vid=33c5a516-9ae0-4ab5-a6a4-d23665003a6e"},"vehicle_type_id":"4","last_reported":1741432016,"current_range_meters":8400,"station_id":"ce4bgk12rcd13ifvqbi0","pricing_plan_id":"cebpf4jnsgd1na2vs0mg"},{"bike_id":"71697849-ec58-4518-9158-9a1b7a1ea659","system_id":"levelo_inurba_marseille","lat":43.25116,"lon":5.40312,"is_reserved":false,"is_disabled":false,"rental_uris":{"android":"levelo://app?vid=71697849-ec58-4518-9158-9a1b7a1ea659","ios":"levelo://app?vid=71697849-ec58-4518-9158-9a1b7a1ea659"},"vehicle_type_id":"4","last_reported":1741432016,"current_range_meters":8400,"station_id":"ce4bhlh2rcd13ifvqgig","pricing_plan_id":"cebpf4jnsgd1na2vs0mg"},{"bike_id":"cbf0227f-ed2e-48cd-a1df-9d824882c0c4","system_id":"levelo_inurba_marseille","lat":43.23075,"lon":5.355,"is_reserved":false,"is_disabled":false,"rental_uris":{"android":"levelo://app?vid=cbf0227f-ed2e-48cd-a1df-9d824882c0c4","ios":"levelo://app?vid=cbf0227f-ed2e-48cd-a1df-9d824882c0c4"},"vehicle_type_id":"4","last_reported":1741432016,"current_range_meters":8400,"station_id":"cpo3342slgdg3j2ifvpg","pricing_plan_id":"cebpf4jnsgd1na2vs0mg"},{"bike_id":"01a6afe2-d645-4130-8890-22799000c76a","system_id":"levelo_inurba_marseille","lat":43.27968,"lon":5.40035,"is_reserved":false,"is_disabled":false,"rental_uris":{"android":"levelo://app?vid=01a6afe2-d645-4130-8890-22799000c76a","ios":"levelo://app?vid=01a6afe2-d645-4130-8890-22799000c76a"},"vehicle_type_id":"4","last_reported":1741432016,"current_range_meters":8400,"station_id":"ce4bho92rcd13ifvqh4g","pricing_plan_id":"cebpf4jnsgd1na2vs0mg"},{"bike_id":"384b9fd8-3fa5-4abd-8bcb-035be6b884e8","system_id":"levelo_inurba_marseille","lat":43.29596,"lon":5.37735,"is_reserved":false,"is_disabled":false,"rental_uris":{"android":"levelo://app?vid=384b9fd8-3fa5-4abd-8bcb-035be6b884e8","ios":"levelo://app?vid=384b9fd8-3fa5-4abd-8bcb-035be6b884e8"},"vehicle_type_id":"4","last_reported":1741432016,"current_range_meters":8400,"station_id":"ce4bgi92rcd13ifvqb90","pricing_plan_id":"cebpf4jnsgd1na2vs0mg"},{"bike_id":"2f7d9f34-8c81-40c4-9800-77242899a452","system_id":"levelo_inurba_marseille","lat":43.26562,"lon":5.3728,"is_reserved":false,"is_disabled":false,"rental_uris":{"android":"levelo://app?vid=2f7d9f34-8c81-40c4-9800-77242899a452","ios":"levelo://app?vid=2f7d9f34-8c81-40c4-9800-77242899a452"},"vehicle_type_id":"4","last_reported":1741432016,"current_range_meters":8400,"station_id":"ce4bhg12rcd13ifvqf70","pricing_plan_id":"cebpf4jnsgd1na2vs0mg"},{"bike_id":"60fba7df-4520-4d63-9c5b-9a7a002cedfb","system_id":"levelo_inurba_marseille","lat":43.28044,"lon":5.39141,"is_reserved":false,"is_disabled":false,"rental_uris":{"android":"levelo://app?vid=60fba7df-4520-4d63-9c5b-9a7a002cedfb","ios":"levelo://app?vid=60fba7df-4520-4d63-9c5b-9a7a002cedfb"},"vehicle_type_id":"4","last_reported":1741432016,"current_range_meters":8800,"station_id":"","pricing_plan_id":"cebpf4jnsgd1na2vs0mg"},{"bike_id":"086d469f-dff5-4ec5-8e53-42a42c799cc9","system_id":"levelo_inurba_marseille","lat":43.29565,"lon":5.42294,"is_reserved":false,"is_disabled":false,"rental_uris":{"android":"levelo://app?vid=086d469f-dff5-4ec5-8e53-42a42c799cc9","ios":"levelo://app?vid=086d469f-dff5-4ec5-8e53-42a42c799cc9"},"vehicle_type_id":"4","last_reported":1741432016,"current_range_meters":8800,"station_id":"ce4bhph2rcd13ifvqhdg","pricing_plan_id":"cebpf4jnsgd1na2vs0mg"},{"bike_id":"4ce1148f-94dc-4742-8f6c-b798d2b0023b","system_id":"levelo_inurba_marseille","lat":43.27986,"lon":5.41678,"is_reserved":false,"is_disabled":false,"rental_uris":{"android":"levelo://app?vid=4ce1148f-94dc-4742-8f6c-b798d2b0023b","ios":"levelo://app?vid=4ce1148f-94dc-4742-8f6c-b798d2b0023b"},"vehicle_type_id":"4","last_reported":1741432016,"current_range_meters":8800,"station_id":"ce4bho12rcd13ifvqh1g","pricing_plan_id":"cebpf4jnsgd1na2vs0mg"},{"bike_id":"1afdf865-9f6c-4bea-99fe-f8f2d36b2395","system_id":"levelo_inurba_marseille","lat":43.26207,"lon":5.37929,"is_reserved":false,"is_disabled":false,"rental_uris":{"android":"levelo://app?vid=1afdf865-9f6c-4bea-99fe-f8f2d36b2395","ios":"levelo://app?vid=1afdf865-9f6c-4bea-99fe-f8f2d36b2395"},"vehicle_type_id":"4","last_reported":1741432016,"current_range_meters":8800,"station_id":"ce4bhjp2rcd13ifvqg90","pricing_plan_id":"cebpf4jnsgd1na2vs0mg"},{"bike_id":"b4989edc-c87e-4a97-900a-5d1ebee0d515","system_id":"levelo_inurba_marseille","lat":43.27615,"lon":5.36109,"is_reserved":false,"is_disabled":false,"rental_uris":{"android":"levelo://app?vid=b4989edc-c87e-4a97-900a-5d1ebee0d515","ios":"levelo://app?vid=b4989edc-c87e-4a97-900a-5d1ebee0d515"},"vehicle_type_id":"4","last_reported":1741432016,"current_range_meters":8800,"station_id":"ce4bgj92rcd13ifvqbe0","pricing_plan_id":"cebpf4jnsgd1na2vs0mg"},{"bike_id":"ae99eef4-0d01-432b-b9f3-30beda5f0e73","system_id":"levelo_inurba_marseille","lat":43.29902,"lon":5.43688,"is_reserved":false,"is_disabled":false,"rental_uris":{"android":"levelo://app?vid=ae99eef4-0d01-432b-b9f3-30beda5f0e73","ios":"levelo://app?vid=ae99eef4-0d01-432b-b9f3-30beda5f0e73"},"vehicle_type_id":"4","last_reported":1741432016,"current_range_meters":9200,"station_id":"ce4bhpp2rcd13ifvqhfg","pricing_plan_id":"cebpf4jnsgd1na2vs0mg"},{"bike_id":"6c3f18ad-4e8f-4578-a676-2e9a1c0e966b","system_id":"levelo_inurba_marseille","lat":43.31094,"lon":5.42425,"is_reserved":false,"is_disabled":false,"rental_uris":{"android":"levelo://app?vid=6c3f18ad-4e8f-4578-a676-2e9a1c0e966b","ios":"levelo://app?vid=6c3f18ad-4e8f-4578-a676-2e9a1c0e966b"},"vehicle_type_id":"4","last_reported":1741432016,"current_range_meters":9200,"station_id":"ce4bhp92rcd13ifvqhag","pricing_plan_id":"cebpf4jnsgd1na2vs0mg"},{"bike_id":"062b5c01-6a3f-4e31-85ad-cd4470c894b5","system_id":"levelo_inurba_marseille","lat":43.25116,"lon":5.40316,"is_reserved":false,"is_disabled":false,"rental_uris":{"android":"levelo://app?vid=062b5c01-6a3f-4e31-85ad-cd4470c894b5","ios":"levelo://app?vid=062b5c01-6a3f-4e31-85ad-cd4470c894b5"},"vehicle_type_id":"4","last_reported":1741432016,"current_range_meters":9200,"station_id":"ce4bhlh2rcd13ifvqgig","pricing_plan_id":"cebpf4jnsgd1na2vs0mg"},{"bike_id":"dac09d9e-9ab6-4c54-8fe2-7fcfc9203869","system_id":"levelo_inurba_marseille","lat":43.2656,"lon":5.37299,"is_reserved":false,"is_disabled":false,"rental_uris":{"android":"levelo://app?vid=dac09d9e-9ab6-4c54-8fe2-7fcfc9203869","ios":"levelo://app?vid=dac09d9e-9ab6-4c54-8fe2-7fcfc9203869"},"vehicle_type_id":"4","last_reported":1741432016,"current_range_meters":9200,"station_id":"ce4bhg12rcd13ifvqf70","pricing_plan_id":"cebpf4jnsgd1na2vs0mg"},{"bike_id":"0e674cb4-f37d-4bd5-aaff-7ec953d386c6","system_id":"levelo_inurba_marseille","lat":43.24165,"lon":5.36374,"is_reserved":false,"is_disabled":false,"rental_uris":{"android":"levelo://app?vid=0e674cb4-f37d-4bd5-aaff-7ec953d386c6","ios":"levelo://app?vid=0e674cb4-f37d-4bd5-aaff-7ec953d386c6"},"vehicle_type_id":"4","last_reported":1741432016,"current_range_meters":9200,"station_id":"cpo36qri1sfpv3e86is0","pricing_plan_id":"cebpf4jnsgd1na2vs0mg"},{"bike_id":"9bfe4e82-241b-4620-b471-d226beb88b23","system_id":"levelo_inurba_marseille","lat":43.22925,"lon":5.35386,"is_reserved":false,"is_disabled":false,"rental_uris":{"android":"levelo://app?vid=9bfe4e82-241b-4620-b471-d226beb88b23","ios":"levelo://app?vid=9bfe4e82-241b-4620-b471-d226beb88b23"},"vehicle_type_id":"4","last_reported":1741432016,"current_range_meters":9200,"station_id":"cpo3532slgdg3j2ikp40","pricing_plan_id":"cebpf4jnsgd1na2vs0mg"},{"bike_id":"a1912a78-9550-4bc6-b31d-d8c66467133a","system_id":"levelo_inurba_marseille","lat":43.28965,"lon":5.37812,"is_reserved":false,"is_disabled":false,"rental_uris":{"android":"levelo://app?vid=a1912a78-9550-4bc6-b31d-d8c66467133a","ios":"levelo://app?vid=a1912a78-9550-4bc6-b31d-d8c66467133a"},"vehicle_type_id":"4","last_reported":1741432016,"current_range_meters":9200,"station_id":"ce4bh9p2rcd13ifvqed0","pricing_plan_id":"cebpf4jnsgd1na2vs0mg"},{"bike_id":"e524bcef-a391-41b2-bad2-673eae53ea51","system_id":"levelo_inurba_marseille","lat":43.31718,"lon":5.43711,"is_reserved":false,"is_disabled":false,"rental_uris":{"android":"levelo://app?vid=e524bcef-a391-41b2-bad2-673eae53ea51","ios":"levelo://app?vid=e524bcef-a391-41b2-bad2-673eae53ea51"},"vehicle_type_id":"4","last_reported":1741432016,"current_range_meters":9600,"station_id":"ce4bhp92rcd13ifvqhcg","pricing_plan_id":"cebpf4jnsgd1na2vs0mg"},{"bike_id":"ba1993c2-4a65-43bb-a1cc-36e375788125","system_id":"levelo_inurba_marseille","lat":43.2801,"lon":5.40009,"is_reserved":false,"is_disabled":false,"rental_uris":{"android":"levelo://app?vid=ba1993c2-4a65-43bb-a1cc-36e375788125","ios":"levelo://app?vid=ba1993c2-4a65-43bb-a1cc-36e375788125"},"vehicle_type_id":"4","last_reported":1741432016,"current_range_meters":9600,"station_id":"ce4bho92rcd13ifvqh4g","pricing_plan_id":"cebpf4jnsgd1na2vs0mg"},{"bike_id":"7a6390d5-30f1-42a9-81f6-77c4114cf172","system_id":"levelo_inurba_marseille","lat":43.27828,"lon":5.40708,"is_reserved":false,"is_disabled":false,"rental_uris":{"android":"levelo://app?vid=7a6390d5-30f1-42a9-81f6-77c4114cf172","ios":"levelo://app?vid=7a6390d5-30f1-42a9-81f6-77c4114cf172"},"vehicle_type_id":"4","last_reported":1741432016,"current_range_meters":9600,"station_id":"ce4bhnh2rcd13ifvqgtg","pricing_plan_id":"cebpf4jnsgd1na2vs0mg"},{"bike_id":"8de6288a-503b-4fd2-b318-ec3a7dad448b","system_id":"levelo_inurba_marseille","lat":43.30553,"lon":5.36558,"is_reserved":false,"is_disabled":false,"rental_uris":{"android":"levelo://app?vid=8de6288a-503b-4fd2-b318-ec3a7dad448b","ios":"levelo://app?vid=8de6288a-503b-4fd2-b318-ec3a7dad448b"},"vehicle_type_id":"4","last_reported":1741432016,"current_range_meters":9600,"station_id":"ce4bgs12rcd13ifvqcag","pricing_plan_id":"cebpf4jnsgd1na2vs0mg"},{"bike_id":"4048f4cb-c79a-4e84-a8e6-068b2a53463d","system_id":"levelo_inurba_marseille","lat":43.297186,"lon":5.393963,"is_reserved":false,"is_disabled":false,"rental_uris":{"android":"levelo://app?vid=4048f4cb-c79a-4e84-a8e6-068b2a53463d","ios":"levelo://app?vid=4048f4cb-c79a-4e84-a8e6-068b2a53463d"},"vehicle_type_id":"4","last_reported":1741432016,"current_range_meters":9600,"station_id":"","pricing_plan_id":"cebpf4jnsgd1na2vs0mg"},{"bike_id":"201e16e9-1f9c-45a3-8dec-2d516ef1efcb","system_id":"levelo_inurba_marseille","lat":43.23968,"lon":5.36639,"is_reserved":false,"is_disabled":false,"rental_uris":{"android":"levelo://app?vid=201e16e9-1f9c-45a3-8dec-2d516ef1efcb","ios":"levelo://app?vid=201e16e9-1f9c-45a3-8dec-2d516ef1efcb"},"vehicle_type_id":"4","last_reported":1741432016,"current_range_meters":9600,"station_id":"ce4bhi12rcd13ifvqfp0","pricing_plan_id":"cebpf4jnsgd1na2vs0mg"},{"bike_id":"9b8789be-c150-4679-b8ba-e1d5e4639da2","system_id":"levelo_inurba_marseille","lat":43.25669,"lon":5.41143,"is_reserved":false,"is_disabled":false,"rental_uris":{"android":"levelo://app?vid=9b8789be-c150-4679-b8ba-e1d5e4639da2","ios":"levelo://app?vid=9b8789be-c150-4679-b8ba-e1d5e4639da2"},"vehicle_type_id":"4","last_reported":1741432016,"current_range_meters":9600,"station_id":"","pricing_plan_id":"cebpf4jnsgd1na2vs0mg"},{"bike_id":"eefe66a8-9b10-4ded-8e0a-619e66601e02","system_id":"levelo_inurba_marseille","lat":43.29626,"lon":5.42602,"is_reserved":false,"is_disabled":false,"rental_uris":{"android":"levelo://app?vid=eefe66a8-9b10-4ded-8e0a-619e66601e02","ios":"levelo://app?vid=eefe66a8-9b10-4ded-8e0a-619e66601e02"},"vehicle_type_id":"4","last_reported":1741432016,"current_range_meters":9600,"station_id":"","pricing_plan_id":"cebpf4jnsgd1na2vs0mg"},{"bike_id":"ac269663-43a8-4f28-8118-be61d0478060","system_id":"levelo_inurba_marseille","lat":43.28727,"lon":5.40766,"is_reserved":false,"is_disabled":false,"rental_uris":{"android":"levelo://app?vid=ac269663-43a8-4f28-8118-be61d0478060","ios":"levelo://app?vid=ac269663-43a8-4f28-8118-be61d0478060"},"vehicle_type_id":"4","last_reported":1741432016,"current_range_meters":9600,"station_id":"","pricing_plan_id":"cebpf4jnsgd1na2vs0mg"},{"bike_id":"fe26fd78-c21a-489a-935f-586d6749759b","system_id":"levelo_inurba_marseille","lat":43.29284,"lon":5.36837,"is_reserved":false,"is_disabled":true,"rental_uris":{"android":"levelo://app?vid=fe26fd78-c21a-489a-935f-586d6749759b","ios":"levelo://app?vid=fe26fd78-c21a-489a-935f-586d6749759b"},"vehicle_type_id":"4","last_reported":1741432016,"current_range_meters":9600,"station_id":"ce4bhbp2rcd13ifvqesg","pricing_plan_id":"cebpf4jnsgd1na2vs0mg"},{"bike_id":"f434f250-6f3b-4f81-87f7-8be1eb48cad2","system_id":"levelo_inurba_marseille","lat":43.25716,"lon":5.41103,"is_reserved":false,"is_disabled":false,"rental_uris":{"android":"levelo://app?vid=f434f250-6f3b-4f81-87f7-8be1eb48cad2","ios":"levelo://app?vid=f434f250-6f3b-4f81-87f7-8be1eb48cad2"},"vehicle_type_id":"4","last_reported":1741432016,"current_range_meters":10000,"station_id":"ce4bhkp2rcd13ifvqgd0","pricing_plan_id":"cebpf4jnsgd1na2vs0mg"},{"bike_id":"4f508b50-1e3d-40c5-be77-1e6495edbe07","system_id":"levelo_inurba_marseille","lat":43.25732,"lon":5.41111,"is_reserved":false,"is_disabled":false,"rental_uris":{"android":"levelo://app?vid=4f508b50-1e3d-40c5-be77-1e6495edbe07","ios":"levelo://app?vid=4f508b50-1e3d-40c5-be77-1e6495edbe07"},"vehicle_type_id":"4","last_reported":1741432016,"current_range_meters":10000,"station_id":"ce4bhkp2rcd13ifvqgd0","pricing_plan_id":"cebpf4jnsgd1na2vs0mg"},{"bike_id":"c787a0ef-03a5-4d36-b53c-60238e9036da","system_id":"levelo_inurba_marseille","lat":43.23193,"lon":5.40005,"is_reserved":false,"is_disabled":false,"rental_uris":{"android":"levelo://app?vid=c787a0ef-03a5-4d36-b53c-60238e9036da","ios":"levelo://app?vid=c787a0ef-03a5-4d36-b53c-60238e9036da"},"vehicle_type_id":"4","last_reported":1741432016,"current_range_meters":10000,"station_id":"ce4bhn12rcd13ifvqgqg","pricing_plan_id":"cebpf4jnsgd1na2vs0mg"},{"bike_id":"b54292f7-ba5a-4ca2-851d-b34190bdf4a8","system_id":"levelo_inurba_marseille","lat":43.33028,"lon":5.39041,"is_reserved":false,"is_disabled":false,"rental_uris":{"android":"levelo://app?vid=b54292f7-ba5a-4ca2-851d-b34190bdf4a8","ios":"levelo://app?vid=b54292f7-ba5a-4ca2-851d-b34190bdf4a8"},"vehicle_type_id":"4","last_reported":1741432016,"current_range_meters":10000,"station_id":"ce4bhr92rcd13ifvqhrg","pricing_plan_id":"cebpf4jnsgd1na2vs0mg"},{"bike_id":"3571d77e-ec62-4dea-aca9-ee9e0f409793","system_id":"levelo_inurba_marseille","lat":43.22938,"lon":5.35393,"is_reserved":false,"is_disabled":false,"rental_uris":{"android":"levelo://app?vid=3571d77e-ec62-4dea-aca9-ee9e0f409793","ios":"levelo://app?vid=3571d77e-ec62-4dea-aca9-ee9e0f409793"},"vehicle_type_id":"4","last_reported":1741432016,"current_range_meters":9600,"station_id":"cpo3532slgdg3j2ikp40","pricing_plan_id":"cebpf4jnsgd1na2vs0mg"},{"bike_id":"11e7fc3b-ed5a-4401-a0af-6e80583f87e8","system_id":"levelo_inurba_marseille","lat":43.27816,"lon":5.40665,"is_reserved":false,"is_disabled":false,"rental_uris":{"android":"levelo://app?vid=11e7fc3b-ed5a-4401-a0af-6e80583f87e8","ios":"levelo://app?vid=11e7fc3b-ed5a-4401-a0af-6e80583f87e8"},"vehicle_type_id":"4","last_reported":1741432016,"current_range_meters":10000,"station_id":"ce4bhnh2rcd13ifvqgtg","pricing_plan_id":"cebpf4jnsgd1na2vs0mg"},{"bike_id":"fe542ddd-18c7-4091-ae33-539b60b871f6","system_id":"levelo_inurba_marseille","lat":43.29907,"lon":5.38125,"is_reserved":false,"is_disabled":false,"rental_uris":{"android":"levelo://app?vid=fe542ddd-18c7-4091-ae33-539b60b871f6","ios":"levelo://app?vid=fe542ddd-18c7-4091-ae33-539b60b871f6"},"vehicle_type_id":"4","last_reported":1741432016,"current_range_meters":11200,"station_id":"ce4bgj12rcd13ifvqbc0","pricing_plan_id":"cebpf4jnsgd1na2vs0mg"},{"bike_id":"46a5c188-5b19-4928-bbc5-89c890ac45ec","system_id":"levelo_inurba_marseille","lat":43.29622,"lon":5.4059,"is_reserved":false,"is_disabled":false,"rental_uris":{"android":"levelo://app?vid=46a5c188-5b19-4928-bbc5-89c890ac45ec","ios":"levelo://app?vid=46a5c188-5b19-4928-bbc5-89c890ac45ec"},"vehicle_type_id":"4","last_reported":1741432016,"current_range_meters":10800,"station_id":"ce4bh0h2rcd13ifvqd60","pricing_plan_id":"cebpf4jnsgd1na2vs0mg"},{"bike_id":"44c0f9a1-99ba-41cb-8f36-0e033c5e16cc","system_id":"levelo_inurba_marseille","lat":43.26193,"lon":5.37454,"is_reserved":false,"is_disabled":false,"rental_uris":{"android":"levelo://app?vid=44c0f9a1-99ba-41cb-8f36-0e033c5e16cc","ios":"levelo://app?vid=44c0f9a1-99ba-41cb-8f36-0e033c5e16cc"},"vehicle_type_id":"4","last_reported":1741432016,"current_range_meters":10800,"station_id":"","pricing_plan_id":"cebpf4jnsgd1na2vs0mg"},{"bike_id":"c2a1a41e-9732-4e30-b1fa-2a89d88d4682","system_id":"levelo_inurba_marseille","lat":43.23152,"lon":5.43716,"is_reserved":false,"is_disabled":false,"rental_uris":{"android":"levelo://app?vid=c2a1a41e-9732-4e30-b1fa-2a89d88d4682","ios":"levelo://app?vid=c2a1a41e-9732-4e30-b1fa-2a89d88d4682"},"vehicle_type_id":"4","last_reported":1741432016,"current_range_meters":10800,"station_id":"ce4bhmp2rcd13ifvqgog","pricing_plan_id":"cebpf4jnsgd1na2vs0mg"},{"bike_id":"b533f38f-df9a-4e01-86fb-08f4b9bfcdfb","system_id":"levelo_inurba_marseille","lat":43.262407,"lon":5.4213,"is_reserved":false,"is_disabled":false,"rental_uris":{"android":"levelo://app?vid=b533f38f-df9a-4e01-86fb-08f4b9bfcdfb","ios":"levelo://app?vid=b533f38f-df9a-4e01-86fb-08f4b9bfcdfb"},"vehicle_type_id":"4","last_reported":1741432016,"current_range_meters":10800,"station_id":"","pricing_plan_id":"cebpf4jnsgd1na2vs0mg"},{"bike_id":"5832083a-af6c-455b-9dbd-d8b68bd79a1e","system_id":"levelo_inurba_marseille","lat":43.29896,"lon":5.43666,"is_reserved":false,"is_disabled":false,"rental_uris":{"android":"levelo://app?vid=5832083a-af6c-455b-9dbd-d8b68bd79a1e","ios":"levelo://app?vid=5832083a-af6c-455b-9dbd-d8b68bd79a1e"},"vehicle_type_id":"4","last_reported":1741432016,"current_range_meters":11200,"station_id":"ce4bhpp2rcd13ifvqhfg","pricing_plan_id":"cebpf4jnsgd1na2vs0mg"},{"bike_id":"b2c2514d-58df-4080-9acc-0a3325c87525","system_id":"levelo_inurba_marseille","lat":43.32362,"lon":5.367636,"is_reserved":false,"is_disabled":false,"rental_uris":{"android":"levelo://app?vid=b2c2514d-58df-4080-9acc-0a3325c87525","ios":"levelo://app?vid=b2c2514d-58df-4080-9acc-0a3325c87525"},"vehicle_type_id":"4","last_reported":1741432016,"current_range_meters":11200,"station_id":"ce4bhsh2rcd13ifvqi2g","pricing_plan_id":"cebpf4jnsgd1na2vs0mg"},{"bike_id":"a0ead2fb-be6c-4810-83a1-911d9ca59556","system_id":"levelo_inurba_marseille","lat":43.28358,"lon":5.38631,"is_reserved":false,"is_disabled":false,"rental_uris":{"android":"levelo://app?vid=a0ead2fb-be6c-4810-83a1-911d9ca59556","ios":"levelo://app?vid=a0ead2fb-be6c-4810-83a1-911d9ca59556"},"vehicle_type_id":"4","last_reported":1741432016,"current_range_meters":11200,"station_id":"ce4bh492rcd13ifvqdvg","pricing_plan_id":"cebpf4jnsgd1na2vs0mg"},{"bike_id":"4971b3ff-261f-40af-8f8b-2369ef77942a","system_id":"levelo_inurba_marseille","lat":43.26564,"lon":5.37294,"is_reserved":false,"is_disabled":false,"rental_uris":{"android":"levelo://app?vid=4971b3ff-261f-40af-8f8b-2369ef77942a","ios":"levelo://app?vid=4971b3ff-261f-40af-8f8b-2369ef77942a"},"vehicle_type_id":"4","last_reported":1741432016,"current_range_meters":11200,"station_id":"ce4bhg12rcd13ifvqf70","pricing_plan_id":"cebpf4jnsgd1na2vs0mg"},{"bike_id":"355260a4-604d-41bc-ae7b-4e51ca2ff49b","system_id":"levelo_inurba_marseille","lat":43.250751,"lon":5.395421,"is_reserved":false,"is_disabled":false,"rental_uris":{"android":"levelo://app?vid=355260a4-604d-41bc-ae7b-4e51ca2ff49b","ios":"levelo://app?vid=355260a4-604d-41bc-ae7b-4e51ca2ff49b"},"vehicle_type_id":"4","last_reported":1741432016,"current_range_meters":10800,"station_id":"ce4bhm12rcd13ifvqgkg","pricing_plan_id":"cebpf4jnsgd1na2vs0mg"},{"bike_id":"fb626a73-8dff-437b-b442-b1f6ec537a81","system_id":"levelo_inurba_marseille","lat":43.319961,"lon":5.381705,"is_reserved":false,"is_disabled":false,"rental_uris":{"android":"levelo://app?vid=fb626a73-8dff-437b-b442-b1f6ec537a81","ios":"levelo://app?vid=fb626a73-8dff-437b-b442-b1f6ec537a81"},"vehicle_type_id":"4","last_reported":1741432016,"current_range_meters":11200,"station_id":"ce4bhr12rcd13ifvqhpg","pricing_plan_id":"cebpf4jnsgd1na2vs0mg"},{"bike_id":"42a96660-5369-4d1c-976c-242db1fc067b","system_id":"levelo_inurba_marseille","lat":43.27218,"lon":5.39179,"is_reserved":false,"is_disabled":false,"rental_uris":{"android":"levelo://app?vid=42a96660-5369-4d1c-976c-242db1fc067b","ios":"levelo://app?vid=42a96660-5369-4d1c-976c-242db1fc067b"},"vehicle_type_id":"4","last_reported":1741432016,"current_range_meters":11200,"station_id":"ce4bhhp2rcd13ifvqfm0","pricing_plan_id":"cebpf4jnsgd1na2vs0mg"},{"bike_id":"3c7cb629-a989-4010-917f-b6565022dddc","system_id":"levelo_inurba_marseille","lat":43.31336,"lon":5.39694,"is_reserved":false,"is_disabled":false,"rental_uris":{"android":"levelo://app?vid=3c7cb629-a989-4010-917f-b6565022dddc","ios":"levelo://app?vid=3c7cb629-a989-4010-917f-b6565022dddc"},"vehicle_type_id":"4","last_reported":1741432016,"current_range_meters":11600,"station_id":"ce4bgvp2rcd13ifvqcu0","pricing_plan_id":"cebpf4jnsgd1na2vs0mg"},{"bike_id":"17dd494e-da0c-4bcb-96d7-b04b4316b338","system_id":"levelo_inurba_marseille","lat":43.26554,"lon":5.372776,"is_reserved":false,"is_disabled":false,"rental_uris":{"android":"levelo://app?vid=17dd494e-da0c-4bcb-96d7-b04b4316b338","ios":"levelo://app?vid=17dd494e-da0c-4bcb-96d7-b04b4316b338"},"vehicle_type_id":"4","last_reported":1741432016,"current_range_meters":11200,"station_id":"ce4bhg92rcd13ifvqf90","pricing_plan_id":"cebpf4jnsgd1na2vs0mg"},{"bike_id":"989c6158-3635-40cb-8c39-29bb2ff85ba4","system_id":"levelo_inurba_marseille","lat":43.2408,"lon":5.37752,"is_reserved":false,"is_disabled":false,"rental_uris":{"android":"levelo://app?vid=989c6158-3635-40cb-8c39-29bb2ff85ba4","ios":"levelo://app?vid=989c6158-3635-40cb-8c39-29bb2ff85ba4"},"vehicle_type_id":"4","last_reported":1741432016,"current_range_meters":11600,"station_id":"ce4bhnp2rcd13ifvqgvg","pricing_plan_id":"cebpf4jnsgd1na2vs0mg"},{"bike_id":"97d95439-94cf-421a-af98-a49a3db92d1a","system_id":"levelo_inurba_marseille","lat":43.24802,"lon":5.41776,"is_reserved":false,"is_disabled":false,"rental_uris":{"android":"levelo://app?vid=97d95439-94cf-421a-af98-a49a3db92d1a","ios":"levelo://app?vid=97d95439-94cf-421a-af98-a49a3db92d1a"},"vehicle_type_id":"4","last_reported":1741432016,"current_range_meters":12000,"station_id":"","pricing_plan_id":"cebpf4jnsgd1na2vs0mg"},{"bike_id":"8b722601-abad-44fa-88e3-ce51624ce56d","system_id":"levelo_inurba_marseille","lat":43.31115,"lon":5.37752,"is_reserved":false,"is_disabled":false,"rental_uris":{"android":"levelo://app?vid=8b722601-abad-44fa-88e3-ce51624ce56d","ios":"levelo://app?vid=8b722601-abad-44fa-88e3-ce51624ce56d"},"vehicle_type_id":"4","last_reported":1741432016,"current_range_meters":12000,"station_id":"ce4bgt92rcd13ifvqcg0","pricing_plan_id":"cebpf4jnsgd1na2vs0mg"},{"bike_id":"9fe07e2b-3a24-431b-a6da-56d8b589bbdf","system_id":"levelo_inurba_marseille","lat":43.29947,"lon":5.36549,"is_reserved":false,"is_disabled":false,"rental_uris":{"android":"levelo://app?vid=9fe07e2b-3a24-431b-a6da-56d8b589bbdf","ios":"levelo://app?vid=9fe07e2b-3a24-431b-a6da-56d8b589bbdf"},"vehicle_type_id":"4","last_reported":1741432016,"current_range_meters":12000,"station_id":"ce4bgm92rcd13ifvqbr0","pricing_plan_id":"cebpf4jnsgd1na2vs0mg"},{"bike_id":"388ea826-f5fa-4632-a530-45d13cc0a769","system_id":"levelo_inurba_marseille","lat":43.23178,"lon":5.39977,"is_reserved":false,"is_disabled":false,"rental_uris":{"android":"levelo://app?vid=388ea826-f5fa-4632-a530-45d13cc0a769","ios":"levelo://app?vid=388ea826-f5fa-4632-a530-45d13cc0a769"},"vehicle_type_id":"4","last_reported":1741432016,"current_range_meters":12000,"station_id":"ce4bhn12rcd13ifvqgqg","pricing_plan_id":"cebpf4jnsgd1na2vs0mg"},{"bike_id":"9c6ab9a3-feb7-430a-a960-261142622847","system_id":"levelo_inurba_marseille","lat":43.33045,"lon":5.39058,"is_reserved":false,"is_disabled":false,"rental_uris":{"android":"levelo://app?vid=9c6ab9a3-feb7-430a-a960-261142622847","ios":"levelo://app?vid=9c6ab9a3-feb7-430a-a960-261142622847"},"vehicle_type_id":"4","last_reported":1741432016,"current_range_meters":12000,"station_id":"ce4bhr92rcd13ifvqhrg","pricing_plan_id":"cebpf4jnsgd1na2vs0mg"},{"bike_id":"65d2271a-97b5-4913-95aa-cf77a293f0eb","system_id":"levelo_inurba_marseille","lat":43.26037,"lon":5.37563,"is_reserved":false,"is_disabled":false,"rental_uris":{"android":"levelo://app?vid=65d2271a-97b5-4913-95aa-cf77a293f0eb","ios":"levelo://app?vid=65d2271a-97b5-4913-95aa-cf77a293f0eb"},"vehicle_type_id":"4","last_reported":1741432016,"current_range_meters":12000,"station_id":"ce4bhgh2rcd13ifvqfa0","pricing_plan_id":"cebpf4jnsgd1na2vs0mg"},{"bike_id":"4b41f27f-b002-4d1e-8580-782d886ac7a1","system_id":"levelo_inurba_marseille","lat":43.291687,"lon":5.400102,"is_reserved":false,"is_disabled":false,"rental_uris":{"android":"levelo://app?vid=4b41f27f-b002-4d1e-8580-782d886ac7a1","ios":"levelo://app?vid=4b41f27f-b002-4d1e-8580-782d886ac7a1"},"vehicle_type_id":"4","last_reported":1741432016,"current_range_meters":11600,"station_id":"cjm6bp8fraef2m0cb0m0","pricing_plan_id":"cebpf4jnsgd1na2vs0mg"},{"bike_id":"fbf804d7-6c73-46e9-abdb-acb74deb6dc4","system_id":"levelo_inurba_marseille","lat":43.23027,"lon":5.35434,"is_reserved":false,"is_disabled":false,"rental_uris":{"android":"levelo://app?vid=fbf804d7-6c73-46e9-abdb-acb74deb6dc4","ios":"levelo://app?vid=fbf804d7-6c73-46e9-abdb-acb74deb6dc4"},"vehicle_type_id":"4","last_reported":1741432016,"current_range_meters":12400,"station_id":"cpo3342slgdg3j2ifvpg","pricing_plan_id":"cebpf4jnsgd1na2vs0mg"},{"bike_id":"91440df5-e3bc-4fe4-816a-c6036e6b9541","system_id":"levelo_inurba_marseille","lat":43.29608,"lon":5.37728,"is_reserved":false,"is_disabled":false,"rental_uris":{"android":"levelo://app?vid=91440df5-e3bc-4fe4-816a-c6036e6b9541","ios":"levelo://app?vid=91440df5-e3bc-4fe4-816a-c6036e6b9541"},"vehicle_type_id":"4","last_reported":1741432016,"current_range_meters":12400,"station_id":"ce4bgi92rcd13ifvqb90","pricing_plan_id":"cebpf4jnsgd1na2vs0mg"},{"bike_id":"dd8cec60-8ea0-4242-b7e4-eb6de8ca7419","system_id":"levelo_inurba_marseille","lat":43.26813,"lon":5.40256,"is_reserved":false,"is_disabled":false,"rental_uris":{"android":"levelo://app?vid=dd8cec60-8ea0-4242-b7e4-eb6de8ca7419","ios":"levelo://app?vid=dd8cec60-8ea0-4242-b7e4-eb6de8ca7419"},"vehicle_type_id":"4","last_reported":1741432016,"current_range_meters":12400,"station_id":"ce501612rcd8frsf0b60","pricing_plan_id":"cebpf4jnsgd1na2vs0mg"},{"bike_id":"ba19f21f-6b1c-4f26-ab9f-62514371ffa1","system_id":"levelo_inurba_marseille","lat":43.29382,"lon":5.37838,"is_reserved":false,"is_disabled":false,"rental_uris":{"android":"levelo://app?vid=ba19f21f-6b1c-4f26-ab9f-62514371ffa1","ios":"levelo://app?vid=ba19f21f-6b1c-4f26-ab9f-62514371ffa1"},"vehicle_type_id":"4","last_reported":1741432016,"current_range_meters":12400,"station_id":"ce4bgjh2rcd13ifvqbf0","pricing_plan_id":"cebpf4jnsgd1na2vs0mg"},{"bike_id":"b6d03f7d-48f0-4f19-9571-b5ead08ae183","system_id":"levelo_inurba_marseille","lat":43.23062,"lon":5.35491,"is_reserved":false,"is_disabled":false,"rental_uris":{"android":"levelo://app?vid=b6d03f7d-48f0-4f19-9571-b5ead08ae183","ios":"levelo://app?vid=b6d03f7d-48f0-4f19-9571-b5ead08ae183"},"vehicle_type_id":"4","last_reported":1741432016,"current_range_meters":12800,"station_id":"cpo3342slgdg3j2ifvpg","pricing_plan_id":"cebpf4jnsgd1na2vs0mg"},{"bike_id":"d8353299-8223-4274-b81a-4ea993f685e2","system_id":"levelo_inurba_marseille","lat":43.2587,"lon":5.39898,"is_reserved":false,"is_disabled":false,"rental_uris":{"android":"levelo://app?vid=d8353299-8223-4274-b81a-4ea993f685e2","ios":"levelo://app?vid=d8353299-8223-4274-b81a-4ea993f685e2"},"vehicle_type_id":"4","last_reported":1741432016,"current_range_meters":12400,"station_id":"ce4bhl92rcd13ifvqghg","pricing_plan_id":"cebpf4jnsgd1na2vs0mg"},{"bike_id":"c8846add-99ca-489e-a964-e3c7aace924c","system_id":"levelo_inurba_marseille","lat":43.29364,"lon":5.37855,"is_reserved":false,"is_disabled":false,"rental_uris":{"android":"levelo://app?vid=c8846add-99ca-489e-a964-e3c7aace924c","ios":"levelo://app?vid=c8846add-99ca-489e-a964-e3c7aace924c"},"vehicle_type_id":"4","last_reported":1741432016,"current_range_meters":12800,"station_id":"ce4bgjh2rcd13ifvqbf0","pricing_plan_id":"cebpf4jnsgd1na2vs0mg"},{"bike_id":"cdc6fa71-b8c0-46e7-902c-4e18b52385d2","system_id":"levelo_inurba_marseille","lat":43.2882,"lon":5.39977,"is_reserved":false,"is_disabled":false,"rental_uris":{"android":"levelo://app?vid=cdc6fa71-b8c0-46e7-902c-4e18b52385d2","ios":"levelo://app?vid=cdc6fa71-b8c0-46e7-902c-4e18b52385d2"},"vehicle_type_id":"4","last_reported":1741432016,"current_range_meters":12800,"station_id":"","pricing_plan_id":"cebpf4jnsgd1na2vs0mg"},{"bike_id":"816ca5bb-3f57-4d8e-8dc5-ffe543eacfd1","system_id":"levelo_inurba_marseille","lat":43.29275,"lon":5.36845,"is_reserved":false,"is_disabled":false,"rental_uris":{"android":"levelo://app?vid=816ca5bb-3f57-4d8e-8dc5-ffe543eacfd1","ios":"levelo://app?vid=816ca5bb-3f57-4d8e-8dc5-ffe543eacfd1"},"vehicle_type_id":"4","last_reported":1741432016,"current_range_meters":12800,"station_id":"ce4bhbp2rcd13ifvqesg","pricing_plan_id":"cebpf4jnsgd1na2vs0mg"},{"bike_id":"c1c412b3-ae23-45ab-894a-fe5b494cc9e6","system_id":"levelo_inurba_marseille","lat":43.23192,"lon":5.35568,"is_reserved":false,"is_disabled":false,"rental_uris":{"android":"levelo://app?vid=c1c412b3-ae23-45ab-894a-fe5b494cc9e6","ios":"levelo://app?vid=c1c412b3-ae23-45ab-894a-fe5b494cc9e6"},"vehicle_type_id":"4","last_reported":1741432016,"current_range_meters":12800,"station_id":"ce4bhu92rcd13ifvqi70","pricing_plan_id":"cebpf4jnsgd1na2vs0mg"},{"bike_id":"a4c567bd-3a3a-4f92-bec4-2b37e19a0310","system_id":"levelo_inurba_marseille","lat":43.28399,"lon":5.37515,"is_reserved":false,"is_disabled":false,"rental_uris":{"android":"levelo://app?vid=a4c567bd-3a3a-4f92-bec4-2b37e19a0310","ios":"levelo://app?vid=a4c567bd-3a3a-4f92-bec4-2b37e19a0310"},"vehicle_type_id":"4","last_reported":1741432016,"current_range_meters":12800,"station_id":"ce4bh412rcd13ifvqds0","pricing_plan_id":"cebpf4jnsgd1na2vs0mg"},{"bike_id":"21a97c5e-42a1-42dc-8f0b-c09a56ace1b8","system_id":"levelo_inurba_marseille","lat":43.3038,"lon":5.42481,"is_reserved":false,"is_disabled":true,"rental_uris":{"android":"levelo://app?vid=21a97c5e-42a1-42dc-8f0b-c09a56ace1b8","ios":"levelo://app?vid=21a97c5e-42a1-42dc-8f0b-c09a56ace1b8"},"vehicle_type_id":"4","last_reported":1741432016,"current_range_meters":12800,"station_id":"","pricing_plan_id":"cebpf4jnsgd1na2vs0mg"},{"bike_id":"5023f599-de6e-4385-96cf-ee3d013ef395","system_id":"levelo_inurba_marseille","lat":43.24994,"lon":5.38936,"is_reserved":false,"is_disabled":false,"rental_uris":{"android":"levelo://app?vid=5023f599-de6e-4385-96cf-ee3d013ef395","ios":"levelo://app?vid=5023f599-de6e-4385-96cf-ee3d013ef395"},"vehicle_type_id":"4","last_reported":1741432016,"current_range_meters":13600,"station_id":"ce4bhgp2rcd13ifvqfd0","pricing_plan_id":"cebpf4jnsgd1na2vs0mg"},{"bike_id":"26629525-c715-4b4d-bb8e-19b115bd14b4","system_id":"levelo_inurba_marseille","lat":43.29935,"lon":5.36542,"is_reserved":false,"is_disabled":false,"rental_uris":{"android":"levelo://app?vid=26629525-c715-4b4d-bb8e-19b115bd14b4","ios":"levelo://app?vid=26629525-c715-4b4d-bb8e-19b115bd14b4"},"vehicle_type_id":"4","last_reported":1741432016,"current_range_meters":13600,"station_id":"ce4bgm92rcd13ifvqbr0","pricing_plan_id":"cebpf4jnsgd1na2vs0mg"},{"bike_id":"66a188c2-b637-4841-9972-60562ff6d487","system_id":"levelo_inurba_marseille","lat":43.23151,"lon":5.43727,"is_reserved":false,"is_disabled":false,"rental_uris":{"android":"levelo://app?vid=66a188c2-b637-4841-9972-60562ff6d487","ios":"levelo://app?vid=66a188c2-b637-4841-9972-60562ff6d487"},"vehicle_type_id":"4","last_reported":1741432016,"current_range_meters":13600,"station_id":"ce4bhmp2rcd13ifvqgog","pricing_plan_id":"cebpf4jnsgd1na2vs0mg"},{"bike_id":"ec7b86b1-d2ba-4a31-a6b7-3733d23fbb99","system_id":"levelo_inurba_marseille","lat":43.28495,"lon":5.38559,"is_reserved":false,"is_disabled":false,"rental_uris":{"android":"levelo://app?vid=ec7b86b1-d2ba-4a31-a6b7-3733d23fbb99","ios":"levelo://app?vid=ec7b86b1-d2ba-4a31-a6b7-3733d23fbb99"},"vehicle_type_id":"4","last_reported":1741432016,"current_range_meters":14000,"station_id":"ce4bh8p2rcd13ifvqeb0","pricing_plan_id":"cebpf4jnsgd1na2vs0mg"},{"bike_id":"19bbe8da-d7df-496e-a677-cbaab925cf5e","system_id":"levelo_inurba_marseille","lat":43.24933,"lon":5.42539,"is_reserved":false,"is_disabled":false,"rental_uris":{"android":"levelo://app?vid=19bbe8da-d7df-496e-a677-cbaab925cf5e","ios":"levelo://app?vid=19bbe8da-d7df-496e-a677-cbaab925cf5e"},"vehicle_type_id":"4","last_reported":1741432016,"current_range_meters":14000,"station_id":"","pricing_plan_id":"cebpf4jnsgd1na2vs0mg"},{"bike_id":"6f0113c0-2a08-44bf-9262-84beb9043c86","system_id":"levelo_inurba_marseille","lat":43.231774,"lon":5.399814,"is_reserved":false,"is_disabled":false,"rental_uris":{"android":"levelo://app?vid=6f0113c0-2a08-44bf-9262-84beb9043c86","ios":"levelo://app?vid=6f0113c0-2a08-44bf-9262-84beb9043c86"},"vehicle_type_id":"4","last_reported":1741432016,"current_range_meters":14400,"station_id":"ce4bhn12rcd13ifvqgqg","pricing_plan_id":"cebpf4jnsgd1na2vs0mg"},{"bike_id":"716ad52e-6276-401a-9565-37b068cf8f1c","system_id":"levelo_inurba_marseille","lat":43.2481,"lon":5.37433,"is_reserved":false,"is_disabled":false,"rental_uris":{"android":"levelo://app?vid=716ad52e-6276-401a-9565-37b068cf8f1c","ios":"levelo://app?vid=716ad52e-6276-401a-9565-37b068cf8f1c"},"vehicle_type_id":"4","last_reported":1741432016,"current_range_meters":14800,"station_id":"ce4bhgh2rcd13ifvqfb0","pricing_plan_id":"cebpf4jnsgd1na2vs0mg"},{"bike_id":"6b72a95e-2eb5-46e6-9b71-2291d64795b6","system_id":"levelo_inurba_marseille","lat":43.31328,"lon":5.39708,"is_reserved":false,"is_disabled":false,"rental_uris":{"android":"levelo://app?vid=6b72a95e-2eb5-46e6-9b71-2291d64795b6","ios":"levelo://app?vid=6b72a95e-2eb5-46e6-9b71-2291d64795b6"},"vehicle_type_id":"4","last_reported":1741432016,"current_range_meters":14400,"station_id":"ce4bgvp2rcd13ifvqcu0","pricing_plan_id":"cebpf4jnsgd1na2vs0mg"},{"bike_id":"7010ed15-b1c0-4687-82e0-c5a65b3df130","system_id":"levelo_inurba_marseille","lat":43.27991,"lon":5.41667,"is_reserved":false,"is_disabled":false,"rental_uris":{"android":"levelo://app?vid=7010ed15-b1c0-4687-82e0-c5a65b3df130","ios":"levelo://app?vid=7010ed15-b1c0-4687-82e0-c5a65b3df130"},"vehicle_type_id":"4","last_reported":1741432016,"current_range_meters":14400,"station_id":"ce4bho12rcd13ifvqh1g","pricing_plan_id":"cebpf4jnsgd1na2vs0mg"},{"bike_id":"e3f7d249-f800-4435-a1ab-7e81d26a97e6","system_id":"levelo_inurba_marseille","lat":43.28936,"lon":5.36645,"is_reserved":false,"is_disabled":false,"rental_uris":{"android":"levelo://app?vid=e3f7d249-f800-4435-a1ab-7e81d26a97e6","ios":"levelo://app?vid=e3f7d249-f800-4435-a1ab-7e81d26a97e6"},"vehicle_type_id":"4","last_reported":1741432016,"current_range_meters":14000,"station_id":"ce4bhap2rcd13ifvqek0","pricing_plan_id":"cebpf4jnsgd1na2vs0mg"},{"bike_id":"5e5ea211-422d-499e-9b27-3615b7baa06d","system_id":"levelo_inurba_marseille","lat":43.26494,"lon":5.39549,"is_reserved":false,"is_disabled":false,"rental_uris":{"android":"levelo://app?vid=5e5ea211-422d-499e-9b27-3615b7baa06d","ios":"levelo://app?vid=5e5ea211-422d-499e-9b27-3615b7baa06d"},"vehicle_type_id":"4","last_reported":1741432016,"current_range_meters":14800,"station_id":"ce4bhi12rcd13ifvqfq0","pricing_plan_id":"cebpf4jnsgd1na2vs0mg"},{"bike_id":"480d18fa-401a-486f-94f6-a1419ec81c62","system_id":"levelo_inurba_marseille","lat":43.310813,"lon":5.424357,"is_reserved":false,"is_disabled":false,"rental_uris":{"android":"levelo://app?vid=480d18fa-401a-486f-94f6-a1419ec81c62","ios":"levelo://app?vid=480d18fa-401a-486f-94f6-a1419ec81c62"},"vehicle_type_id":"4","last_reported":1741432016,"current_range_meters":14800,"station_id":"ce4bhp92rcd13ifvqhag","pricing_plan_id":"cebpf4jnsgd1na2vs0mg"},{"bike_id":"3137b630-6f71-4182-b080-30eeff3af30e","system_id":"levelo_inurba_marseille","lat":43.28495,"lon":5.38419,"is_reserved":false,"is_disabled":false,"rental_uris":{"android":"levelo://app?vid=3137b630-6f71-4182-b080-30eeff3af30e","ios":"levelo://app?vid=3137b630-6f71-4182-b080-30eeff3af30e"},"vehicle_type_id":"4","last_reported":1741432016,"current_range_meters":14800,"station_id":"ce4bh512rcd13ifvqe3g","pricing_plan_id":"cebpf4jnsgd1na2vs0mg"},{"bike_id":"b22dbda2-c210-470a-a71e-6f4e283deb84","system_id":"levelo_inurba_marseille","lat":43.2455,"lon":5.39554,"is_reserved":false,"is_disabled":false,"rental_uris":{"android":"levelo://app?vid=b22dbda2-c210-470a-a71e-6f4e283deb84","ios":"levelo://app?vid=b22dbda2-c210-470a-a71e-6f4e283deb84"},"vehicle_type_id":"4","last_reported":1741432016,"current_range_meters":15200,"station_id":"ce4bhlp2rcd13ifvqgjg","pricing_plan_id":"cebpf4jnsgd1na2vs0mg"},{"bike_id":"f5bc50e0-18ac-466f-a238-faccbb25bd95","system_id":"levelo_inurba_marseille","lat":43.303138,"lon":5.404452,"is_reserved":false,"is_disabled":false,"rental_uris":{"android":"levelo://app?vid=f5bc50e0-18ac-466f-a238-faccbb25bd95","ios":"levelo://app?vid=f5bc50e0-18ac-466f-a238-faccbb25bd95"},"vehicle_type_id":"4","last_reported":1741432016,"current_range_meters":15200,"station_id":"ce4bh012rcd13ifvqd10","pricing_plan_id":"cebpf4jnsgd1na2vs0mg"},{"bike_id":"4094109c-8f28-42ec-8ddc-4ebff6a7927b","system_id":"levelo_inurba_marseille","lat":43.29308,"lon":5.37462,"is_reserved":false,"is_disabled":false,"rental_uris":{"android":"levelo://app?vid=4094109c-8f28-42ec-8ddc-4ebff6a7927b","ios":"levelo://app?vid=4094109c-8f28-42ec-8ddc-4ebff6a7927b"},"vehicle_type_id":"4","last_reported":1741432016,"current_range_meters":15200,"station_id":"ce4bgi12rcd13ifvqb70","pricing_plan_id":"cebpf4jnsgd1na2vs0mg"},{"bike_id":"276b8fa0-39d6-4080-8387-88943964b99f","system_id":"levelo_inurba_marseille","lat":43.33029,"lon":5.39053,"is_reserved":false,"is_disabled":false,"rental_uris":{"android":"levelo://app?vid=276b8fa0-39d6-4080-8387-88943964b99f","ios":"levelo://app?vid=276b8fa0-39d6-4080-8387-88943964b99f"},"vehicle_type_id":"4","last_reported":1741432016,"current_range_meters":16400,"station_id":"ce4bhr92rcd13ifvqhrg","pricing_plan_id":"cebpf4jnsgd1na2vs0mg"},{"bike_id":"e3604c2a-fed1-416a-8fc1-0d29ec7989a6","system_id":"levelo_inurba_marseille","lat":43.29663,"lon":5.40644,"is_reserved":false,"is_disabled":false,"rental_uris":{"android":"levelo://app?vid=e3604c2a-fed1-416a-8fc1-0d29ec7989a6","ios":"levelo://app?vid=e3604c2a-fed1-416a-8fc1-0d29ec7989a6"},"vehicle_type_id":"4","last_reported":1741432016,"current_range_meters":16400,"station_id":"","pricing_plan_id":"cebpf4jnsgd1na2vs0mg"},{"bike_id":"ee926f57-a308-4c18-a6fa-c5abc65e8c4e","system_id":"levelo_inurba_marseille","lat":43.23961,"lon":5.3664,"is_reserved":false,"is_disabled":false,"rental_uris":{"android":"levelo://app?vid=ee926f57-a308-4c18-a6fa-c5abc65e8c4e","ios":"levelo://app?vid=ee926f57-a308-4c18-a6fa-c5abc65e8c4e"},"vehicle_type_id":"4","last_reported":1741432016,"current_range_meters":16400,"station_id":"ce4bhi12rcd13ifvqfp0","pricing_plan_id":"cebpf4jnsgd1na2vs0mg"},{"bike_id":"35c1791e-aa31-4855-b00e-94e87190641b","system_id":"levelo_inurba_marseille","lat":43.27998,"lon":5.41586,"is_reserved":false,"is_disabled":false,"rental_uris":{"android":"levelo://app?vid=35c1791e-aa31-4855-b00e-94e87190641b","ios":"levelo://app?vid=35c1791e-aa31-4855-b00e-94e87190641b"},"vehicle_type_id":"4","last_reported":1741432016,"current_range_meters":16400,"station_id":"","pricing_plan_id":"cebpf4jnsgd1na2vs0mg"},{"bike_id":"e864a5f8-5d09-44e4-ac13-510caec44d44","system_id":"levelo_inurba_marseille","lat":43.29853,"lon":5.36299,"is_reserved":false,"is_disabled":false,"rental_uris":{"android":"levelo://app?vid=e864a5f8-5d09-44e4-ac13-510caec44d44","ios":"levelo://app?vid=e864a5f8-5d09-44e4-ac13-510caec44d44"},"vehicle_type_id":"4","last_reported":1741432016,"current_range_meters":16400,"station_id":"ce4bgpp2rcd13ifvqc3g","pricing_plan_id":"cebpf4jnsgd1na2vs0mg"},{"bike_id":"0b6b8dd8-3450-4779-834c-499fd12aab96","system_id":"levelo_inurba_marseille","lat":43.27788,"lon":5.40703,"is_reserved":false,"is_disabled":false,"rental_uris":{"android":"levelo://app?vid=0b6b8dd8-3450-4779-834c-499fd12aab96","ios":"levelo://app?vid=0b6b8dd8-3450-4779-834c-499fd12aab96"},"vehicle_type_id":"4","last_reported":1741432016,"current_range_meters":16400,"station_id":"ce4bhnh2rcd13ifvqgtg","pricing_plan_id":"cebpf4jnsgd1na2vs0mg"},{"bike_id":"0ec4da70-e915-4d24-afaa-0208633e5c01","system_id":"levelo_inurba_marseille","lat":43.26553,"lon":5.37286,"is_reserved":false,"is_disabled":false,"rental_uris":{"android":"levelo://app?vid=0ec4da70-e915-4d24-afaa-0208633e5c01","ios":"levelo://app?vid=0ec4da70-e915-4d24-afaa-0208633e5c01"},"vehicle_type_id":"4","last_reported":1741432016,"current_range_meters":16400,"station_id":"ce4bhg12rcd13ifvqf70","pricing_plan_id":"cebpf4jnsgd1na2vs0mg"},{"bike_id":"723c67fa-b4b3-48ca-834f-0eace723680b","system_id":"levelo_inurba_marseille","lat":43.26552,"lon":5.37286,"is_reserved":false,"is_disabled":false,"rental_uris":{"android":"levelo://app?vid=723c67fa-b4b3-48ca-834f-0eace723680b","ios":"levelo://app?vid=723c67fa-b4b3-48ca-834f-0eace723680b"},"vehicle_type_id":"4","last_reported":1741432016,"current_range_meters":16400,"station_id":"ce4bhg12rcd13ifvqf70","pricing_plan_id":"cebpf4jnsgd1na2vs0mg"},{"bike_id":"0974bb33-6573-42fe-9f09-74e203b97716","system_id":"levelo_inurba_marseille","lat":43.29004,"lon":5.356,"is_reserved":false,"is_disabled":false,"rental_uris":{"android":"levelo://app?vid=0974bb33-6573-42fe-9f09-74e203b97716","ios":"levelo://app?vid=0974bb33-6573-42fe-9f09-74e203b97716"},"vehicle_type_id":"4","last_reported":1741432016,"current_range_meters":16400,"station_id":"ce4bhb92rcd13ifvqen0","pricing_plan_id":"cebpf4jnsgd1na2vs0mg"},{"bike_id":"89cdc5a5-a744-4269-a86d-3ed5ecc287d5","system_id":"levelo_inurba_marseille","lat":43.24172,"lon":5.39696,"is_reserved":false,"is_disabled":false,"rental_uris":{"android":"levelo://app?vid=89cdc5a5-a744-4269-a86d-3ed5ecc287d5","ios":"levelo://app?vid=89cdc5a5-a744-4269-a86d-3ed5ecc287d5"},"vehicle_type_id":"4","last_reported":1741432016,"current_range_meters":16400,"station_id":"ce4bhn12rcd13ifvqgpg","pricing_plan_id":"cebpf4jnsgd1na2vs0mg"},{"bike_id":"55bc2df9-8a09-41a3-b363-d813b0def5f8","system_id":"levelo_inurba_marseille","lat":43.293,"lon":5.37451,"is_reserved":false,"is_disabled":false,"rental_uris":{"android":"levelo://app?vid=55bc2df9-8a09-41a3-b363-d813b0def5f8","ios":"levelo://app?vid=55bc2df9-8a09-41a3-b363-d813b0def5f8"},"vehicle_type_id":"4","last_reported":1741432016,"current_range_meters":16400,"station_id":"ce4bgi12rcd13ifvqb70","pricing_plan_id":"cebpf4jnsgd1na2vs0mg"},{"bike_id":"1d089c65-759c-4e0f-b41f-3bcde66009a1","system_id":"levelo_inurba_marseille","lat":43.29978,"lon":5.37164,"is_reserved":false,"is_disabled":false,"rental_uris":{"android":"levelo://app?vid=1d089c65-759c-4e0f-b41f-3bcde66009a1","ios":"levelo://app?vid=1d089c65-759c-4e0f-b41f-3bcde66009a1"},"vehicle_type_id":"4","last_reported":1741432016,"current_range_meters":16400,"station_id":"ce4bgr92rcd13ifvqc7g","pricing_plan_id":"cebpf4jnsgd1na2vs0mg"},{"bike_id":"fb9f8225-5e1c-45a7-8a05-ae65adc4cdef","system_id":"levelo_inurba_marseille","lat":43.23194,"lon":5.35557,"is_reserved":false,"is_disabled":false,"rental_uris":{"android":"levelo://app?vid=fb9f8225-5e1c-45a7-8a05-ae65adc4cdef","ios":"levelo://app?vid=fb9f8225-5e1c-45a7-8a05-ae65adc4cdef"},"vehicle_type_id":"4","last_reported":1741432016,"current_range_meters":16800,"station_id":"ce4bhu92rcd13ifvqi70","pricing_plan_id":"cebpf4jnsgd1na2vs0mg"},{"bike_id":"5b3feac3-b03c-46f0-be7e-bd037d3dd045","system_id":"levelo_inurba_marseille","lat":43.25731,"lon":5.41094,"is_reserved":false,"is_disabled":false,"rental_uris":{"android":"levelo://app?vid=5b3feac3-b03c-46f0-be7e-bd037d3dd045","ios":"levelo://app?vid=5b3feac3-b03c-46f0-be7e-bd037d3dd045"},"vehicle_type_id":"4","last_reported":1741432016,"current_range_meters":16800,"station_id":"ce4bhkp2rcd13ifvqgd0","pricing_plan_id":"cebpf4jnsgd1na2vs0mg"},{"bike_id":"d10f4563-0230-4e9a-817d-5d1c1f2e8988","system_id":"levelo_inurba_marseille","lat":43.31339,"lon":5.39688,"is_reserved":false,"is_disabled":false,"rental_uris":{"android":"levelo://app?vid=d10f4563-0230-4e9a-817d-5d1c1f2e8988","ios":"levelo://app?vid=d10f4563-0230-4e9a-817d-5d1c1f2e8988"},"vehicle_type_id":"4","last_reported":1741432016,"current_range_meters":16800,"station_id":"ce4bgvp2rcd13ifvqcu0","pricing_plan_id":"cebpf4jnsgd1na2vs0mg"},{"bike_id":"d224ba7e-9f7b-4ddf-b5f8-62a54fe45454","system_id":"levelo_inurba_marseille","lat":43.29523,"lon":5.37498,"is_reserved":false,"is_disabled":false,"rental_uris":{"android":"levelo://app?vid=d224ba7e-9f7b-4ddf-b5f8-62a54fe45454","ios":"levelo://app?vid=d224ba7e-9f7b-4ddf-b5f8-62a54fe45454"},"vehicle_type_id":"4","last_reported":1741432016,"current_range_meters":16800,"station_id":"ce4bgkp2rcd13ifvqbmg","pricing_plan_id":"cebpf4jnsgd1na2vs0mg"},{"bike_id":"64e905fb-ecad-426b-99ec-50e5af25c89f","system_id":"levelo_inurba_marseille","lat":43.30953,"lon":5.3904,"is_reserved":false,"is_disabled":false,"rental_uris":{"android":"levelo://app?vid=64e905fb-ecad-426b-99ec-50e5af25c89f","ios":"levelo://app?vid=64e905fb-ecad-426b-99ec-50e5af25c89f"},"vehicle_type_id":"4","last_reported":1741432016,"current_range_meters":16800,"station_id":"ce4bgup2rcd13ifvqco0","pricing_plan_id":"cebpf4jnsgd1na2vs0mg"},{"bike_id":"11f02c0c-36b5-4e80-95e2-65c889ddbfec","system_id":"levelo_inurba_marseille","lat":43.230621,"lon":5.354898,"is_reserved":false,"is_disabled":false,"rental_uris":{"android":"levelo://app?vid=11f02c0c-36b5-4e80-95e2-65c889ddbfec","ios":"levelo://app?vid=11f02c0c-36b5-4e80-95e2-65c889ddbfec"},"vehicle_type_id":"4","last_reported":1741432016,"current_range_meters":17200,"station_id":"ce4bhnp2rcd13ifvqgvg","pricing_plan_id":"cebpf4jnsgd1na2vs0mg"},{"bike_id":"81bd34eb-9c69-4f66-a226-112b562e597f","system_id":"levelo_inurba_marseille","lat":43.29554,"lon":5.39966,"is_reserved":false,"is_disabled":false,"rental_uris":{"android":"levelo://app?vid=81bd34eb-9c69-4f66-a226-112b562e597f","ios":"levelo://app?vid=81bd34eb-9c69-4f66-a226-112b562e597f"},"vehicle_type_id":"4","last_reported":1741432016,"current_range_meters":16400,"station_id":"ce4bh312rcd13ifvqdj0","pricing_plan_id":"cebpf4jnsgd1na2vs0mg"},{"bike_id":"4adf36fe-436b-4e1a-bd10-0a477bc57eeb","system_id":"levelo_inurba_marseille","lat":43.2511,"lon":5.40321,"is_reserved":false,"is_disabled":false,"rental_uris":{"android":"levelo://app?vid=4adf36fe-436b-4e1a-bd10-0a477bc57eeb","ios":"levelo://app?vid=4adf36fe-436b-4e1a-bd10-0a477bc57eeb"},"vehicle_type_id":"4","last_reported":1741432016,"current_range_meters":16400,"station_id":"ce4bhlh2rcd13ifvqgig","pricing_plan_id":"cebpf4jnsgd1na2vs0mg"},{"bike_id":"c2bc20d1-76ba-4e6b-8066-d199041ccae7","system_id":"levelo_inurba_marseille","lat":43.23156,"lon":5.43722,"is_reserved":false,"is_disabled":false,"rental_uris":{"android":"levelo://app?vid=c2bc20d1-76ba-4e6b-8066-d199041ccae7","ios":"levelo://app?vid=c2bc20d1-76ba-4e6b-8066-d199041ccae7"},"vehicle_type_id":"4","last_reported":1741432016,"current_range_meters":16800,"station_id":"ce4bhmp2rcd13ifvqgog","pricing_plan_id":"cebpf4jnsgd1na2vs0mg"},{"bike_id":"1c0184c6-72ad-4860-a550-18c4478dfce6","system_id":"levelo_inurba_marseille","lat":43.27957,"lon":5.41051,"is_reserved":false,"is_disabled":false,"rental_uris":{"android":"levelo://app?vid=1c0184c6-72ad-4860-a550-18c4478dfce6","ios":"levelo://app?vid=1c0184c6-72ad-4860-a550-18c4478dfce6"},"vehicle_type_id":"4","last_reported":1741432016,"current_range_meters":17200,"station_id":"ce4bhnp2rcd13ifvqh0g","pricing_plan_id":"cebpf4jnsgd1na2vs0mg"},{"bike_id":"f6a21c52-00c8-4b4b-931c-930f7a98513a","system_id":"levelo_inurba_marseille","lat":43.280154,"lon":5.387235,"is_reserved":false,"is_disabled":false,"rental_uris":{"android":"levelo://app?vid=f6a21c52-00c8-4b4b-931c-930f7a98513a","ios":"levelo://app?vid=f6a21c52-00c8-4b4b-931c-930f7a98513a"},"vehicle_type_id":"4","last_reported":1741432016,"current_range_meters":17200,"station_id":"ce4bha92rcd13ifvqeg0","pricing_plan_id":"cebpf4jnsgd1na2vs0mg"},{"bike_id":"e9dab2ce-7c7d-40d2-82aa-ed5c703d86fd","system_id":"levelo_inurba_marseille","lat":43.3207,"lon":5.36765,"is_reserved":false,"is_disabled":false,"rental_uris":{"android":"levelo://app?vid=e9dab2ce-7c7d-40d2-82aa-ed5c703d86fd","ios":"levelo://app?vid=e9dab2ce-7c7d-40d2-82aa-ed5c703d86fd"},"vehicle_type_id":"4","last_reported":1741432016,"current_range_meters":17200,"station_id":"ce4bhrh2rcd13ifvqhug","pricing_plan_id":"cebpf4jnsgd1na2vs0mg"},{"bike_id":"deb81f77-c6e9-45d2-b680-8c00a5704cb4","system_id":"levelo_inurba_marseille","lat":43.32123,"lon":5.36775,"is_reserved":false,"is_disabled":false,"rental_uris":{"android":"levelo://app?vid=deb81f77-c6e9-45d2-b680-8c00a5704cb4","ios":"levelo://app?vid=deb81f77-c6e9-45d2-b680-8c00a5704cb4"},"vehicle_type_id":"4","last_reported":1741432016,"current_range_meters":17200,"station_id":"ce4bhrh2rcd13ifvqhug","pricing_plan_id":"cebpf4jnsgd1na2vs0mg"},{"bike_id":"b67ea5ad-547c-47fe-9883-70652af03759","system_id":"levelo_inurba_marseille","lat":43.29303,"lon":5.40892,"is_reserved":false,"is_disabled":false,"rental_uris":{"android":"levelo://app?vid=b67ea5ad-547c-47fe-9883-70652af03759","ios":"levelo://app?vid=b67ea5ad-547c-47fe-9883-70652af03759"},"vehicle_type_id":"4","last_reported":1741432016,"current_range_meters":17200,"station_id":"ce4bh192rcd13ifvqdc0","pricing_plan_id":"cebpf4jnsgd1na2vs0mg"},{"bike_id":"dc404e46-8217-49df-a9f9-0b1fb5b9d87a","system_id":"levelo_inurba_marseille","lat":43.27986,"lon":5.40427,"is_reserved":false,"is_disabled":false,"rental_uris":{"android":"levelo://app?vid=dc404e46-8217-49df-a9f9-0b1fb5b9d87a","ios":"levelo://app?vid=dc404e46-8217-49df-a9f9-0b1fb5b9d87a"},"vehicle_type_id":"4","last_reported":1741432016,"current_range_meters":17200,"station_id":"","pricing_plan_id":"cebpf4jnsgd1na2vs0mg"},{"bike_id":"7d5784fa-4cd9-4805-80bd-e45d001be8a2","system_id":"levelo_inurba_marseille","lat":43.25724,"lon":5.411,"is_reserved":false,"is_disabled":false,"rental_uris":{"android":"levelo://app?vid=7d5784fa-4cd9-4805-80bd-e45d001be8a2","ios":"levelo://app?vid=7d5784fa-4cd9-4805-80bd-e45d001be8a2"},"vehicle_type_id":"4","last_reported":1741432016,"current_range_meters":17200,"station_id":"ce4bhkp2rcd13ifvqgd0","pricing_plan_id":"cebpf4jnsgd1na2vs0mg"},{"bike_id":"d95f7b9d-2457-4e15-b3e6-6fbf92f96d78","system_id":"levelo_inurba_marseille","lat":43.23063,"lon":5.35494,"is_reserved":false,"is_disabled":false,"rental_uris":{"android":"levelo://app?vid=d95f7b9d-2457-4e15-b3e6-6fbf92f96d78","ios":"levelo://app?vid=d95f7b9d-2457-4e15-b3e6-6fbf92f96d78"},"vehicle_type_id":"4","last_reported":1741432016,"current_range_meters":17600,"station_id":"cpo3342slgdg3j2ifvpg","pricing_plan_id":"cebpf4jnsgd1na2vs0mg"},{"bike_id":"1baeb851-e64e-441e-a1da-d8c7fa9b89db","system_id":"levelo_inurba_marseille","lat":43.29587,"lon":5.37742,"is_reserved":false,"is_disabled":false,"rental_uris":{"android":"levelo://app?vid=1baeb851-e64e-441e-a1da-d8c7fa9b89db","ios":"levelo://app?vid=1baeb851-e64e-441e-a1da-d8c7fa9b89db"},"vehicle_type_id":"4","last_reported":1741432016,"current_range_meters":17600,"station_id":"ce4bgi92rcd13ifvqb90","pricing_plan_id":"cebpf4jnsgd1na2vs0mg"},{"bike_id":"5ad480bd-73f0-4097-861e-6867434da7b0","system_id":"levelo_inurba_marseille","lat":43.29261,"lon":5.40903,"is_reserved":false,"is_disabled":false,"rental_uris":{"android":"levelo://app?vid=5ad480bd-73f0-4097-861e-6867434da7b0","ios":"levelo://app?vid=5ad480bd-73f0-4097-861e-6867434da7b0"},"vehicle_type_id":"4","last_reported":1741432016,"current_range_meters":17600,"station_id":"ce4bh192rcd13ifvqdc0","pricing_plan_id":"cebpf4jnsgd1na2vs0mg"},{"bike_id":"62fce812-019d-4f55-9f2b-2522f12f2e31","system_id":"levelo_inurba_marseille","lat":43.25118,"lon":5.40315,"is_reserved":false,"is_disabled":false,"rental_uris":{"android":"levelo://app?vid=62fce812-019d-4f55-9f2b-2522f12f2e31","ios":"levelo://app?vid=62fce812-019d-4f55-9f2b-2522f12f2e31"},"vehicle_type_id":"4","last_reported":1741432016,"current_range_meters":17600,"station_id":"ce4bhlh2rcd13ifvqgig","pricing_plan_id":"cebpf4jnsgd1na2vs0mg"},{"bike_id":"2d201668-e0ff-4085-9ec0-5c082a94ad30","system_id":"levelo_inurba_marseille","lat":43.3381,"lon":5.37422,"is_reserved":false,"is_disabled":false,"rental_uris":{"android":"levelo://app?vid=2d201668-e0ff-4085-9ec0-5c082a94ad30","ios":"levelo://app?vid=2d201668-e0ff-4085-9ec0-5c082a94ad30"},"vehicle_type_id":"4","last_reported":1741432016,"current_range_meters":17600,"station_id":"","pricing_plan_id":"cebpf4jnsgd1na2vs0mg"},{"bike_id":"a71f5391-91f9-4d09-a601-92c62e162a41","system_id":"levelo_inurba_marseille","lat":43.29333,"lon":5.37973,"is_reserved":false,"is_disabled":false,"rental_uris":{"android":"levelo://app?vid=a71f5391-91f9-4d09-a601-92c62e162a41","ios":"levelo://app?vid=a71f5391-91f9-4d09-a601-92c62e162a41"},"vehicle_type_id":"4","last_reported":1741432016,"current_range_meters":17600,"station_id":"","pricing_plan_id":"cebpf4jnsgd1na2vs0mg"},{"bike_id":"4c2f31be-d910-44a0-bf80-42c6447a123d","system_id":"levelo_inurba_marseille","lat":43.32046,"lon":5.41548,"is_reserved":false,"is_disabled":false,"rental_uris":{"android":"levelo://app?vid=4c2f31be-d910-44a0-bf80-42c6447a123d","ios":"levelo://app?vid=4c2f31be-d910-44a0-bf80-42c6447a123d"},"vehicle_type_id":"4","last_reported":1741432016,"current_range_meters":17600,"station_id":"ce4bhq92rcd13ifvqhkg","pricing_plan_id":"cebpf4jnsgd1na2vs0mg"},{"bike_id":"5f64f3cb-c8f1-4f0b-9f46-b39da18cc436","system_id":"levelo_inurba_marseille","lat":43.29609,"lon":5.37721,"is_reserved":false,"is_disabled":false,"rental_uris":{"android":"levelo://app?vid=5f64f3cb-c8f1-4f0b-9f46-b39da18cc436","ios":"levelo://app?vid=5f64f3cb-c8f1-4f0b-9f46-b39da18cc436"},"vehicle_type_id":"4","last_reported":1741432016,"current_range_meters":17600,"station_id":"ce4bgi92rcd13ifvqb90","pricing_plan_id":"cebpf4jnsgd1na2vs0mg"},{"bike_id":"98d6b5e7-ab8a-48b4-a847-7124bae4afc6","system_id":"levelo_inurba_marseille","lat":43.23074,"lon":5.35504,"is_reserved":false,"is_disabled":false,"rental_uris":{"android":"levelo://app?vid=98d6b5e7-ab8a-48b4-a847-7124bae4afc6","ios":"levelo://app?vid=98d6b5e7-ab8a-48b4-a847-7124bae4afc6"},"vehicle_type_id":"4","last_reported":1741432016,"current_range_meters":17600,"station_id":"cpo3342slgdg3j2ifvpg","pricing_plan_id":"cebpf4jnsgd1na2vs0mg"},{"bike_id":"99e69bf6-dc57-4127-a1aa-9a36825d1a88","system_id":"levelo_inurba_marseille","lat":43.32323,"lon":5.36703,"is_reserved":false,"is_disabled":false,"rental_uris":{"android":"levelo://app?vid=99e69bf6-dc57-4127-a1aa-9a36825d1a88","ios":"levelo://app?vid=99e69bf6-dc57-4127-a1aa-9a36825d1a88"},"vehicle_type_id":"4","last_reported":1741432016,"current_range_meters":17600,"station_id":"ce4bhsh2rcd13ifvqi2g","pricing_plan_id":"cebpf4jnsgd1na2vs0mg"},{"bike_id":"e6fa70be-66e2-4aec-8cf1-c430af3eabf8","system_id":"levelo_inurba_marseille","lat":43.23196,"lon":5.35563,"is_reserved":false,"is_disabled":false,"rental_uris":{"android":"levelo://app?vid=e6fa70be-66e2-4aec-8cf1-c430af3eabf8","ios":"levelo://app?vid=e6fa70be-66e2-4aec-8cf1-c430af3eabf8"},"vehicle_type_id":"4","last_reported":1741432016,"current_range_meters":17600,"station_id":"ce4bhu92rcd13ifvqi70","pricing_plan_id":"cebpf4jnsgd1na2vs0mg"},{"bike_id":"3a28e81b-0b61-43f7-9a78-761aabf632e6","system_id":"levelo_inurba_marseille","lat":43.30152,"lon":5.37409,"is_reserved":false,"is_disabled":false,"rental_uris":{"android":"levelo://app?vid=3a28e81b-0b61-43f7-9a78-761aabf632e6","ios":"levelo://app?vid=3a28e81b-0b61-43f7-9a78-761aabf632e6"},"vehicle_type_id":"4","last_reported":1741432016,"current_range_meters":17600,"station_id":"ce4bgs92rcd13ifvqcc0","pricing_plan_id":"cebpf4jnsgd1na2vs0mg"},{"bike_id":"d60e2ba2-9d3a-4067-8d8a-3ebb91302584","system_id":"levelo_inurba_marseille","lat":43.29286,"lon":5.37782,"is_reserved":false,"is_disabled":false,"rental_uris":{"android":"levelo://app?vid=d60e2ba2-9d3a-4067-8d8a-3ebb91302584","ios":"levelo://app?vid=d60e2ba2-9d3a-4067-8d8a-3ebb91302584"},"vehicle_type_id":"4","last_reported":1741432016,"current_range_meters":18000,"station_id":"","pricing_plan_id":"cebpf4jnsgd1na2vs0mg"},{"bike_id":"11ebf985-b073-454a-baa8-beec3c04cd37","system_id":"levelo_inurba_marseille","lat":43.33032,"lon":5.39023,"is_reserved":false,"is_disabled":false,"rental_uris":{"android":"levelo://app?vid=11ebf985-b073-454a-baa8-beec3c04cd37","ios":"levelo://app?vid=11ebf985-b073-454a-baa8-beec3c04cd37"},"vehicle_type_id":"4","last_reported":1741432016,"current_range_meters":18000,"station_id":"ce4bhr92rcd13ifvqhrg","pricing_plan_id":"cebpf4jnsgd1na2vs0mg"},{"bike_id":"e1a0293b-333d-4a97-9af3-0c51ffe4ad6e","system_id":"levelo_inurba_marseille","lat":43.26685,"lon":5.38257,"is_reserved":false,"is_disabled":false,"rental_uris":{"android":"levelo://app?vid=e1a0293b-333d-4a97-9af3-0c51ffe4ad6e","ios":"levelo://app?vid=e1a0293b-333d-4a97-9af3-0c51ffe4ad6e"},"vehicle_type_id":"4","last_reported":1741432016,"current_range_meters":18000,"station_id":"ce4bhg92rcd13ifvqf90","pricing_plan_id":"cebpf4jnsgd1na2vs0mg"},{"bike_id":"be1105b2-de23-4549-ae4d-98c856eb88ba","system_id":"levelo_inurba_marseille","lat":43.30416,"lon":5.41284,"is_reserved":false,"is_disabled":false,"rental_uris":{"android":"levelo://app?vid=be1105b2-de23-4549-ae4d-98c856eb88ba","ios":"levelo://app?vid=be1105b2-de23-4549-ae4d-98c856eb88ba"},"vehicle_type_id":"4","last_reported":1741432016,"current_range_meters":17600,"station_id":"ce4bhop2rcd13ifvqh8g","pricing_plan_id":"cebpf4jnsgd1na2vs0mg"},{"bike_id":"8387b606-38e9-4bc2-8fe3-4fd5d2fae38e","system_id":"levelo_inurba_marseille","lat":43.24654,"lon":5.38896,"is_reserved":false,"is_disabled":false,"rental_uris":{"android":"levelo://app?vid=8387b606-38e9-4bc2-8fe3-4fd5d2fae38e","ios":"levelo://app?vid=8387b606-38e9-4bc2-8fe3-4fd5d2fae38e"},"vehicle_type_id":"4","last_reported":1741432016,"current_range_meters":18000,"station_id":"ce4bhg12rcd13ifvqf60","pricing_plan_id":"cebpf4jnsgd1na2vs0mg"},{"bike_id":"313c10e1-f5b0-4f2c-be7e-593fa62b787b","system_id":"levelo_inurba_marseille","lat":43.2397,"lon":5.36634,"is_reserved":false,"is_disabled":false,"rental_uris":{"android":"levelo://app?vid=313c10e1-f5b0-4f2c-be7e-593fa62b787b","ios":"levelo://app?vid=313c10e1-f5b0-4f2c-be7e-593fa62b787b"},"vehicle_type_id":"4","last_reported":1741432016,"current_range_meters":18000,"station_id":"ce4bhi12rcd13ifvqfp0","pricing_plan_id":"cebpf4jnsgd1na2vs0mg"},{"bike_id":"a540861e-4176-4142-940d-a52c68ceae64","system_id":"levelo_inurba_marseille","lat":43.25501,"lon":5.37652,"is_reserved":false,"is_disabled":false,"rental_uris":{"android":"levelo://app?vid=a540861e-4176-4142-940d-a52c68ceae64","ios":"levelo://app?vid=a540861e-4176-4142-940d-a52c68ceae64"},"vehicle_type_id":"4","last_reported":1741432016,"current_range_meters":18000,"station_id":"ce4bhh12rcd13ifvqff0","pricing_plan_id":"cebpf4jnsgd1na2vs0mg"},{"bike_id":"7ae4cc03-86f2-424c-af59-36324aeefa46","system_id":"levelo_inurba_marseille","lat":43.30612,"lon":5.37221,"is_reserved":false,"is_disabled":false,"rental_uris":{"android":"levelo://app?vid=7ae4cc03-86f2-424c-af59-36324aeefa46","ios":"levelo://app?vid=7ae4cc03-86f2-424c-af59-36324aeefa46"},"vehicle_type_id":"4","last_reported":1741432016,"current_range_meters":18000,"station_id":"ce4bgqh2rcd13ifvqc4g","pricing_plan_id":"cebpf4jnsgd1na2vs0mg"},{"bike_id":"db770aa1-b2c8-4d91-980b-b1ead4bc1f13","system_id":"levelo_inurba_marseille","lat":43.27055,"lon":5.40216,"is_reserved":false,"is_disabled":false,"rental_uris":{"android":"levelo://app?vid=db770aa1-b2c8-4d91-980b-b1ead4bc1f13","ios":"levelo://app?vid=db770aa1-b2c8-4d91-980b-b1ead4bc1f13"},"vehicle_type_id":"4","last_reported":1741432016,"current_range_meters":18000,"station_id":"ce4bhk92rcd13ifvqgc0","pricing_plan_id":"cebpf4jnsgd1na2vs0mg"},{"bike_id":"83563c1c-bef7-4eab-bee7-f6756eeed608","system_id":"levelo_inurba_marseille","lat":43.25588,"lon":5.38237,"is_reserved":false,"is_disabled":false,"rental_uris":{"android":"levelo://app?vid=83563c1c-bef7-4eab-bee7-f6756eeed608","ios":"levelo://app?vid=83563c1c-bef7-4eab-bee7-f6756eeed608"},"vehicle_type_id":"4","last_reported":1741432016,"current_range_meters":18800,"station_id":"ce4bhih2rcd13ifvqfs0","pricing_plan_id":"cebpf4jnsgd1na2vs0mg"},{"bike_id":"e0ddd106-a55f-477a-ab46-cbf84d9e96c8","system_id":"levelo_inurba_marseille","lat":43.3036,"lon":5.41879,"is_reserved":false,"is_disabled":false,"rental_uris":{"android":"levelo://app?vid=e0ddd106-a55f-477a-ab46-cbf84d9e96c8","ios":"levelo://app?vid=e0ddd106-a55f-477a-ab46-cbf84d9e96c8"},"vehicle_type_id":"4","last_reported":1741432016,"current_range_meters":18800,"station_id":"ce4bhop2rcd13ifvqh7g","pricing_plan_id":"cebpf4jnsgd1na2vs0mg"},{"bike_id":"d35caae8-f4b3-4a1f-b4e5-a43076da933c","system_id":"levelo_inurba_marseille","lat":43.31721,"lon":5.37664,"is_reserved":false,"is_disabled":false,"rental_uris":{"android":"levelo://app?vid=d35caae8-f4b3-4a1f-b4e5-a43076da933c","ios":"levelo://app?vid=d35caae8-f4b3-4a1f-b4e5-a43076da933c"},"vehicle_type_id":"4","last_reported":1741432016,"current_range_meters":18800,"station_id":"","pricing_plan_id":"cebpf4jnsgd1na2vs0mg"},{"bike_id":"8793e281-1750-4f08-8c28-90158013580d","system_id":"levelo_inurba_marseille","lat":43.30959,"lon":5.39059,"is_reserved":false,"is_disabled":false,"rental_uris":{"android":"levelo://app?vid=8793e281-1750-4f08-8c28-90158013580d","ios":"levelo://app?vid=8793e281-1750-4f08-8c28-90158013580d"},"vehicle_type_id":"4","last_reported":1741432016,"current_range_meters":18800,"station_id":"ce4bgup2rcd13ifvqco0","pricing_plan_id":"cebpf4jnsgd1na2vs0mg"},{"bike_id":"746a93f7-48b8-47de-8ffb-c90833f2c4aa","system_id":"levelo_inurba_marseille","lat":43.27955,"lon":5.41048,"is_reserved":false,"is_disabled":false,"rental_uris":{"android":"levelo://app?vid=746a93f7-48b8-47de-8ffb-c90833f2c4aa","ios":"levelo://app?vid=746a93f7-48b8-47de-8ffb-c90833f2c4aa"},"vehicle_type_id":"4","last_reported":1741432016,"current_range_meters":18800,"station_id":"ce4bhnp2rcd13ifvqh0g","pricing_plan_id":"cebpf4jnsgd1na2vs0mg"},{"bike_id":"2fe8d537-4cdc-4305-a8ae-3f2765ad9f77","system_id":"levelo_inurba_marseille","lat":43.2408,"lon":5.37754,"is_reserved":false,"is_disabled":false,"rental_uris":{"android":"levelo://app?vid=2fe8d537-4cdc-4305-a8ae-3f2765ad9f77","ios":"levelo://app?vid=2fe8d537-4cdc-4305-a8ae-3f2765ad9f77"},"vehicle_type_id":"4","last_reported":1741432016,"current_range_meters":18800,"station_id":"ce4bhnp2rcd13ifvqgvg","pricing_plan_id":"cebpf4jnsgd1na2vs0mg"},{"bike_id":"5daf32e0-ab85-45e7-b292-2a0a67920f4b","system_id":"levelo_inurba_marseille","lat":43.26201,"lon":5.37447,"is_reserved":false,"is_disabled":false,"rental_uris":{"android":"levelo://app?vid=5daf32e0-ab85-45e7-b292-2a0a67920f4b","ios":"levelo://app?vid=5daf32e0-ab85-45e7-b292-2a0a67920f4b"},"vehicle_type_id":"4","last_reported":1741432016,"current_range_meters":18800,"station_id":"ce4bhgp2rcd13ifvqfc0","pricing_plan_id":"cebpf4jnsgd1na2vs0mg"},{"bike_id":"7f963301-df90-4303-b263-933cdfcaf613","system_id":"levelo_inurba_marseille","lat":43.29849,"lon":5.36293,"is_reserved":false,"is_disabled":false,"rental_uris":{"android":"levelo://app?vid=7f963301-df90-4303-b263-933cdfcaf613","ios":"levelo://app?vid=7f963301-df90-4303-b263-933cdfcaf613"},"vehicle_type_id":"4","last_reported":1741432016,"current_range_meters":18800,"station_id":"ce4bgpp2rcd13ifvqc3g","pricing_plan_id":"cebpf4jnsgd1na2vs0mg"},{"bike_id":"a0d5ee80-35ce-4f5a-8437-7920c4c9411f","system_id":"levelo_inurba_marseille","lat":43.29286,"lon":5.36851,"is_reserved":false,"is_disabled":false,"rental_uris":{"android":"levelo://app?vid=a0d5ee80-35ce-4f5a-8437-7920c4c9411f","ios":"levelo://app?vid=a0d5ee80-35ce-4f5a-8437-7920c4c9411f"},"vehicle_type_id":"4","last_reported":1741432016,"current_range_meters":19200,"station_id":"ce4bhbp2rcd13ifvqesg","pricing_plan_id":"cebpf4jnsgd1na2vs0mg"},{"bike_id":"3795c289-beea-44c3-a7ae-fd3e55b72f22","system_id":"levelo_inurba_marseille","lat":43.28618,"lon":5.35113,"is_reserved":false,"is_disabled":true,"rental_uris":{"android":"levelo://app?vid=3795c289-beea-44c3-a7ae-fd3e55b72f22","ios":"levelo://app?vid=3795c289-beea-44c3-a7ae-fd3e55b72f22"},"vehicle_type_id":"4","last_reported":1741432016,"current_range_meters":19200,"station_id":"ce4bhch2rcd13ifvqeug","pricing_plan_id":"cebpf4jnsgd1na2vs0mg"},{"bike_id":"eaf95cb1-b676-4e8c-b5d6-922a79f56434","system_id":"levelo_inurba_marseille","lat":43.23196,"lon":5.35557,"is_reserved":false,"is_disabled":false,"rental_uris":{"android":"levelo://app?vid=eaf95cb1-b676-4e8c-b5d6-922a79f56434","ios":"levelo://app?vid=eaf95cb1-b676-4e8c-b5d6-922a79f56434"},"vehicle_type_id":"4","last_reported":1741432016,"current_range_meters":19200,"station_id":"ce4bhu92rcd13ifvqi70","pricing_plan_id":"cebpf4jnsgd1na2vs0mg"},{"bike_id":"4ffb7926-746b-411f-8a97-44c30a4f3f54","system_id":"levelo_inurba_marseille","lat":43.24078,"lon":5.37754,"is_reserved":false,"is_disabled":false,"rental_uris":{"android":"levelo://app?vid=4ffb7926-746b-411f-8a97-44c30a4f3f54","ios":"levelo://app?vid=4ffb7926-746b-411f-8a97-44c30a4f3f54"},"vehicle_type_id":"4","last_reported":1741432016,"current_range_meters":24000,"station_id":"ce4bhnp2rcd13ifvqgvg","pricing_plan_id":"cebpf4jnsgd1na2vs0mg"},{"bike_id":"5a90c755-5607-4bf6-a7b2-4afdeca917ec","system_id":"levelo_inurba_marseille","lat":43.26563,"lon":5.37273,"is_reserved":false,"is_disabled":false,"rental_uris":{"android":"levelo://app?vid=5a90c755-5607-4bf6-a7b2-4afdeca917ec","ios":"levelo://app?vid=5a90c755-5607-4bf6-a7b2-4afdeca917ec"},"vehicle_type_id":"4","last_reported":1741432016,"current_range_meters":19200,"station_id":"ce4bhg12rcd13ifvqf70","pricing_plan_id":"cebpf4jnsgd1na2vs0mg"},{"bike_id":"8579e54f-565e-4025-a73c-88723bee831d","system_id":"levelo_inurba_marseille","lat":43.23172,"lon":5.39964,"is_reserved":false,"is_disabled":false,"rental_uris":{"android":"levelo://app?vid=8579e54f-565e-4025-a73c-88723bee831d","ios":"levelo://app?vid=8579e54f-565e-4025-a73c-88723bee831d"},"vehicle_type_id":"4","last_reported":1741432016,"current_range_meters":19200,"station_id":"ce4bhn12rcd13ifvqgqg","pricing_plan_id":"cebpf4jnsgd1na2vs0mg"},{"bike_id":"d0c68456-9cdf-4d5a-b117-40b9448f16e7","system_id":"levelo_inurba_marseille","lat":43.31332,"lon":5.39717,"is_reserved":false,"is_disabled":false,"rental_uris":{"android":"levelo://app?vid=d0c68456-9cdf-4d5a-b117-40b9448f16e7","ios":"levelo://app?vid=d0c68456-9cdf-4d5a-b117-40b9448f16e7"},"vehicle_type_id":"4","last_reported":1741432016,"current_range_meters":19200,"station_id":"ce4bgvp2rcd13ifvqcu0","pricing_plan_id":"cebpf4jnsgd1na2vs0mg"},{"bike_id":"25b778c2-7102-4dfe-8b16-b15e62a28bb6","system_id":"levelo_inurba_marseille","lat":43.31101,"lon":5.3775,"is_reserved":false,"is_disabled":false,"rental_uris":{"android":"levelo://app?vid=25b778c2-7102-4dfe-8b16-b15e62a28bb6","ios":"levelo://app?vid=25b778c2-7102-4dfe-8b16-b15e62a28bb6"},"vehicle_type_id":"4","last_reported":1741432016,"current_range_meters":19200,"station_id":"ce4bgt92rcd13ifvqcg0","pricing_plan_id":"cebpf4jnsgd1na2vs0mg"},{"bike_id":"d3067a3a-c937-4fb1-856f-1cd4410d68fd","system_id":"levelo_inurba_marseille","lat":43.23967,"lon":5.36636,"is_reserved":false,"is_disabled":false,"rental_uris":{"android":"levelo://app?vid=d3067a3a-c937-4fb1-856f-1cd4410d68fd","ios":"levelo://app?vid=d3067a3a-c937-4fb1-856f-1cd4410d68fd"},"vehicle_type_id":"4","last_reported":1741432016,"current_range_meters":19200,"station_id":"ce4bhi12rcd13ifvqfp0","pricing_plan_id":"cebpf4jnsgd1na2vs0mg"},{"bike_id":"58516daf-5c8f-48f7-a55c-f40a545449df","system_id":"levelo_inurba_marseille","lat":43.28103,"lon":5.37846,"is_reserved":false,"is_disabled":false,"rental_uris":{"android":"levelo://app?vid=58516daf-5c8f-48f7-a55c-f40a545449df","ios":"levelo://app?vid=58516daf-5c8f-48f7-a55c-f40a545449df"},"vehicle_type_id":"4","last_reported":1741432016,"current_range_meters":19600,"station_id":"ce4bha12rcd13ifvqee0","pricing_plan_id":"cebpf4jnsgd1na2vs0mg"},{"bike_id":"7f08542c-3622-4bee-8852-d0974c0ec085","system_id":"levelo_inurba_marseille","lat":43.24167,"lon":5.36401,"is_reserved":false,"is_disabled":false,"rental_uris":{"android":"levelo://app?vid=7f08542c-3622-4bee-8852-d0974c0ec085","ios":"levelo://app?vid=7f08542c-3622-4bee-8852-d0974c0ec085"},"vehicle_type_id":"4","last_reported":1741432016,"current_range_meters":19600,"station_id":"cpo36qri1sfpv3e86is0","pricing_plan_id":"cebpf4jnsgd1na2vs0mg"},{"bike_id":"a436ab59-d5bf-4504-babb-3bb8a063366a","system_id":"levelo_inurba_marseille","lat":43.28629,"lon":5.351,"is_reserved":false,"is_disabled":false,"rental_uris":{"android":"levelo://app?vid=a436ab59-d5bf-4504-babb-3bb8a063366a","ios":"levelo://app?vid=a436ab59-d5bf-4504-babb-3bb8a063366a"},"vehicle_type_id":"4","last_reported":1741432016,"current_range_meters":19600,"station_id":"ce4bhch2rcd13ifvqeug","pricing_plan_id":"cebpf4jnsgd1na2vs0mg"},{"bike_id":"17a6db54-ef2f-4511-a085-5bcf0dc414a8","system_id":"levelo_inurba_marseille","lat":43.24168,"lon":5.3637,"is_reserved":false,"is_disabled":false,"rental_uris":{"android":"levelo://app?vid=17a6db54-ef2f-4511-a085-5bcf0dc414a8","ios":"levelo://app?vid=17a6db54-ef2f-4511-a085-5bcf0dc414a8"},"vehicle_type_id":"4","last_reported":1741432016,"current_range_meters":19600,"station_id":"cpo36qri1sfpv3e86is0","pricing_plan_id":"cebpf4jnsgd1na2vs0mg"},{"bike_id":"4b4e7ff3-da5f-4c90-8304-48b81fcb1653","system_id":"levelo_inurba_marseille","lat":43.23964,"lon":5.3663,"is_reserved":false,"is_disabled":false,"rental_uris":{"android":"levelo://app?vid=4b4e7ff3-da5f-4c90-8304-48b81fcb1653","ios":"levelo://app?vid=4b4e7ff3-da5f-4c90-8304-48b81fcb1653"},"vehicle_type_id":"4","last_reported":1741432016,"current_range_meters":19600,"station_id":"ce4bhi12rcd13ifvqfp0","pricing_plan_id":"cebpf4jnsgd1na2vs0mg"},{"bike_id":"1f72adc6-3d1a-4fad-a905-cb9dcd596e26","system_id":"levelo_inurba_marseille","lat":43.23833,"lon":5.43577,"is_reserved":false,"is_disabled":false,"rental_uris":{"android":"levelo://app?vid=1f72adc6-3d1a-4fad-a905-cb9dcd596e26","ios":"levelo://app?vid=1f72adc6-3d1a-4fad-a905-cb9dcd596e26"},"vehicle_type_id":"4","last_reported":1741432016,"current_range_meters":19600,"station_id":"","pricing_plan_id":"cebpf4jnsgd1na2vs0mg"},{"bike_id":"0e536ed8-d572-4ff0-9d7e-e544a4129f31","system_id":"levelo_inurba_marseille","lat":43.29228,"lon":5.36091,"is_reserved":false,"is_disabled":false,"rental_uris":{"android":"levelo://app?vid=0e536ed8-d572-4ff0-9d7e-e544a4129f31","ios":"levelo://app?vid=0e536ed8-d572-4ff0-9d7e-e544a4129f31"},"vehicle_type_id":"4","last_reported":1741432016,"current_range_meters":19600,"station_id":"ce4bhbh2rcd13ifvqeqg","pricing_plan_id":"cebpf4jnsgd1na2vs0mg"},{"bike_id":"91ce4676-d8b6-4401-a97d-e8ec284f4793","system_id":"levelo_inurba_marseille","lat":43.27964,"lon":5.41682,"is_reserved":false,"is_disabled":false,"rental_uris":{"android":"levelo://app?vid=91ce4676-d8b6-4401-a97d-e8ec284f4793","ios":"levelo://app?vid=91ce4676-d8b6-4401-a97d-e8ec284f4793"},"vehicle_type_id":"4","last_reported":1741432016,"current_range_meters":20000,"station_id":"ce4bho12rcd13ifvqh1g","pricing_plan_id":"cebpf4jnsgd1na2vs0mg"},{"bike_id":"cf491025-9dbc-4cb8-ad77-2256a1209fbd","system_id":"levelo_inurba_marseille","lat":43.2407,"lon":5.3776,"is_reserved":false,"is_disabled":false,"rental_uris":{"android":"levelo://app?vid=cf491025-9dbc-4cb8-ad77-2256a1209fbd","ios":"levelo://app?vid=cf491025-9dbc-4cb8-ad77-2256a1209fbd"},"vehicle_type_id":"4","last_reported":1741432016,"current_range_meters":20000,"station_id":"ce4bhnp2rcd13ifvqgvg","pricing_plan_id":"cebpf4jnsgd1na2vs0mg"},{"bike_id":"59170c8b-cf45-45fd-b866-bc5f81d256b2","system_id":"levelo_inurba_marseille","lat":43.26521,"lon":5.39571,"is_reserved":false,"is_disabled":false,"rental_uris":{"android":"levelo://app?vid=59170c8b-cf45-45fd-b866-bc5f81d256b2","ios":"levelo://app?vid=59170c8b-cf45-45fd-b866-bc5f81d256b2"},"vehicle_type_id":"4","last_reported":1741432016,"current_range_meters":20000,"station_id":"ce4bhi12rcd13ifvqfq0","pricing_plan_id":"cebpf4jnsgd1na2vs0mg"},{"bike_id":"c17fce5f-cdf5-4004-ab7a-68ea8027865c","system_id":"levelo_inurba_marseille","lat":43.246489,"lon":5.409276,"is_reserved":false,"is_disabled":false,"rental_uris":{"android":"levelo://app?vid=c17fce5f-cdf5-4004-ab7a-68ea8027865c","ios":"levelo://app?vid=c17fce5f-cdf5-4004-ab7a-68ea8027865c"},"vehicle_type_id":"4","last_reported":1741432016,"current_range_meters":19600,"station_id":"ce4bhlh2rcd13ifvqgig","pricing_plan_id":"cebpf4jnsgd1na2vs0mg"},{"bike_id":"b98073ec-5e2d-4178-9620-47c51d37e565","system_id":"levelo_inurba_marseille","lat":43.32362,"lon":5.36743,"is_reserved":false,"is_disabled":false,"rental_uris":{"android":"levelo://app?vid=b98073ec-5e2d-4178-9620-47c51d37e565","ios":"levelo://app?vid=b98073ec-5e2d-4178-9620-47c51d37e565"},"vehicle_type_id":"4","last_reported":1741432016,"current_range_meters":20000,"station_id":"ce4bhsh2rcd13ifvqi2g","pricing_plan_id":"cebpf4jnsgd1na2vs0mg"},{"bike_id":"134d88e4-da3d-41ab-8d48-3bb26552d193","system_id":"levelo_inurba_marseille","lat":43.2317,"lon":5.39988,"is_reserved":false,"is_disabled":false,"rental_uris":{"android":"levelo://app?vid=134d88e4-da3d-41ab-8d48-3bb26552d193","ios":"levelo://app?vid=134d88e4-da3d-41ab-8d48-3bb26552d193"},"vehicle_type_id":"4","last_reported":1741432016,"current_range_meters":20000,"station_id":"ce4bhn12rcd13ifvqgqg","pricing_plan_id":"cebpf4jnsgd1na2vs0mg"},{"bike_id":"3ed0c8ba-c7f7-40d8-9403-a3f96d6af6b9","system_id":"levelo_inurba_marseille","lat":43.32359,"lon":5.36749,"is_reserved":false,"is_disabled":false,"rental_uris":{"android":"levelo://app?vid=3ed0c8ba-c7f7-40d8-9403-a3f96d6af6b9","ios":"levelo://app?vid=3ed0c8ba-c7f7-40d8-9403-a3f96d6af6b9"},"vehicle_type_id":"4","last_reported":1741432016,"current_range_meters":20000,"station_id":"ce4bhsh2rcd13ifvqi2g","pricing_plan_id":"cebpf4jnsgd1na2vs0mg"},{"bike_id":"40f15c61-3075-442e-8381-c7a78a2f5322","system_id":"levelo_inurba_marseille","lat":43.23215,"lon":5.35549,"is_reserved":false,"is_disabled":false,"rental_uris":{"android":"levelo://app?vid=40f15c61-3075-442e-8381-c7a78a2f5322","ios":"levelo://app?vid=40f15c61-3075-442e-8381-c7a78a2f5322"},"vehicle_type_id":"4","last_reported":1741432016,"current_range_meters":20400,"station_id":"ce4bhu92rcd13ifvqi70","pricing_plan_id":"cebpf4jnsgd1na2vs0mg"},{"bike_id":"6cf534b6-b239-4ede-b51d-b795d089ed04","system_id":"levelo_inurba_marseille","lat":43.28561,"lon":5.39487,"is_reserved":false,"is_disabled":false,"rental_uris":{"android":"levelo://app?vid=6cf534b6-b239-4ede-b51d-b795d089ed04","ios":"levelo://app?vid=6cf534b6-b239-4ede-b51d-b795d089ed04"},"vehicle_type_id":"4","last_reported":1741432016,"current_range_meters":20000,"station_id":"ce4bh292rcd13ifvqdg0","pricing_plan_id":"cebpf4jnsgd1na2vs0mg"},{"bike_id":"aa1b4c3f-f866-40ac-8d42-4db38fb7f1e5","system_id":"levelo_inurba_marseille","lat":43.29887,"lon":5.43667,"is_reserved":false,"is_disabled":false,"rental_uris":{"android":"levelo://app?vid=aa1b4c3f-f866-40ac-8d42-4db38fb7f1e5","ios":"levelo://app?vid=aa1b4c3f-f866-40ac-8d42-4db38fb7f1e5"},"vehicle_type_id":"4","last_reported":1741432016,"current_range_meters":20400,"station_id":"ce4bhpp2rcd13ifvqhfg","pricing_plan_id":"cebpf4jnsgd1na2vs0mg"},{"bike_id":"4104ecb3-caea-464a-b469-7aec41abff72","system_id":"levelo_inurba_marseille","lat":43.28268,"lon":5.35064,"is_reserved":false,"is_disabled":false,"rental_uris":{"android":"levelo://app?vid=4104ecb3-caea-464a-b469-7aec41abff72","ios":"levelo://app?vid=4104ecb3-caea-464a-b469-7aec41abff72"},"vehicle_type_id":"4","last_reported":1741432016,"current_range_meters":20000,"station_id":"ce4bhbp2rcd13ifvqerg","pricing_plan_id":"cebpf4jnsgd1na2vs0mg"},{"bike_id":"60079d15-2d0e-418f-be2f-017d46cf5037","system_id":"levelo_inurba_marseille","lat":43.27604,"lon":5.36128,"is_reserved":false,"is_disabled":false,"rental_uris":{"android":"levelo://app?vid=60079d15-2d0e-418f-be2f-017d46cf5037","ios":"levelo://app?vid=60079d15-2d0e-418f-be2f-017d46cf5037"},