{"last_updated":1751113140,"ttl":60,"version":"2.2","data":{"bikes":[{"bike_id":"3da29fb8-fc97-44c6-b9ac-31dd456b2fd4","system_id":"levelo_inurba_marseille","lat":43.33771,"lon":5.37424,"is_reserved":false,"is_disabled":true,"rental_uris":{"android":"levelo://app?vid=3da29fb8-fc97-44c6-b9ac-31dd456b2fd4","ios":"levelo://app?vid=3da29fb8-fc97-44c6-b9ac-31dd456b2fd4"},"vehicle_type_id":"4","last_reported":1751113140,"current_range_meters":0,"station_id":"","pricing_plan_id":"cebpf4jnsgd1na2vs0mg"},{"bike_id":"01861ad8-a8d7-4be6-816e-651927c87584","system_id":"levelo_inurba_marseille","lat":43.33751,"lon":5.37456,"is_reserved":false,"is_disabled":true,"rental_uris":{"android":"levelo://app?vid=01861ad8-a8d7-4be6-816e-651927c87584","ios":"levelo://app?vid=01861ad8-a8d7-4be6-816e-651927c87584"},"vehicle_type_id":"4","last_reported":1751113140,"current_range_meters":0,"station_id":"","pricing_plan_id":"cebpf4jnsgd1na2vs0mg"},{"bike_id":"77673b0f-fa8d-4a5f-802e-e3125964cb45","system_id":"levelo_inurba_marseille","lat":43.331188,"lon":5.365086,"is_reserved":false,"is_disabled":true,"rental_uris":{"android":"levelo://app?vid=77673b0f-fa8d-4a5f-802e-e3125964cb45","ios":"levelo://app?vid=77673b0f-fa8d-4a5f-802e-e3125964cb45"},"vehicle_type_id":"4","last_reported":1751113140,"current_range_meters":0,"station_id":"","pricing_plan_id":"cebpf4jnsgd1na2vs0mg"},{"bike_id":"e9a7f2ce-f5b2-41e5-b572-5533013492a4","system_id":"levelo_inurba_marseille","lat":43.337444,"lon":5.374475,"is_reserved":false,"is_disabled":true,"rental_uris":{"android":"levelo://app?vid=e9a7f2ce-f5b2-41e5-b572-5533013492a4","ios":"levelo://app?vid=e9a7f2ce-f5b2-41e5-b572-5533013492a4"},"vehicle_type_id":"4","last_reported":1751113140,"current_range_meters":0,"station_id":"","pricing_plan_id":"cebpf4jnsgd1na2vs0mg"},{"bike_id":"a0aa7f48-2c07-453d-845a-eaeace62b973","system_id":"levelo_inurba_marseille","lat":43.31107,"lon":5.37767,"is_reserved":false,"is_disabled":true,"rental_uris":{"android":"levelo://app?vid=a0aa7f48-2c07-453d-845a-eaeace62b973","ios":"levelo://app?vid=a0aa7f48-2c07-453d-845a-eaeace62b973"},"vehicle_type_id":"4","last_reported":1751113140,"current_range_meters":0,"station_id":"ce4bgt92rcd13ifvqcg0","pricing_plan_id":"cebpf4jnsgd1na2vs0mg"},{"bike_id":"5b68f880-b652-42a9-84da-3fd092f8ed0c","system_id":"levelo_inurba_marseille","lat":43.2909,"lon":5.38148,"is_reserved":false,"is_disabled":true,"rental_uris":{"android":"levelo://app?vid=5b68f880-b652-42a9-84da-3fd092f8ed0c","ios":"levelo://app?vid=5b68f880-b652-42a9-84da-3fd092f8ed0c"},"vehicle_type_id":"4","last_reported":1751113140,"current_range_meters":0,"station_id":"ce4bh512rcd13ifvqe2g","pricing_plan_id":"cebpf4jnsgd1na2vs0mg"},{"bike_id":"d9bfb422-0f63-4656-9993-29ff5ced1ab7","system_id":"levelo_inurba_marseille","lat":43.26557,"lon":5.37279,"is_reserved":false,"is_disabled":true,"rental_uris":{"android":"levelo://app?vid=d9bfb422-0f63-4656-9993-29ff5ced1ab7","ios":"levelo://app?vid=d9bfb422-0f63-4656-9993-29ff5ced1ab7"},"vehicle_type_id":"4","last_reported":1751113140,"current_range_meters":0,"station_id":"ce4bhg12rcd13ifvqf70","pricing_plan_id":"cebpf4jnsgd1na2vs0mg"},{"bike_id":"85072197-e9fe-4fc0-a926-3d1345b26b94","system_id":"levelo_inurba_marseille","lat":43.267846,"lon":5.394191,"is_reserved":false,"is_disabled":true,"rental_uris":{"android":"levelo://app?vid=85072197-e9fe-4fc0-a926-3d1345b26b94","ios":"levelo://app?vid=85072197-e9fe-4fc0-a926-3d1345b26b94"},"vehicle_type_id":"4","last_reported":1751113140,"current_range_meters":0,"station_id":"ce4bhh12rcd13ifvqfg0","pricing_plan_id":"cebpf4jnsgd1na2vs0mg"},{"bike_id":"6c62fe15-b37d-45e6-866e-a8f84312c5b8","system_id":"levelo_inurba_marseille","lat":43.284856,"lon":5.385639,"is_reserved":false,"is_disabled":true,"rental_uris":{"android":"levelo://app?vid=6c62fe15-b37d-45e6-866e-a8f84312c5b8","ios":"levelo://app?vid=6c62fe15-b37d-45e6-866e-a8f84312c5b8"},"vehicle_type_id":"4","last_reported":1751113140,"current_range_meters":0,"station_id":"ce4bhnp2rcd13ifvqgvg","pricing_plan_id":"cebpf4jnsgd1na2vs0mg"},{"bike_id":"92d3bb11-4cf3-47e6-bc0f-ff80eea58ad1","system_id":"levelo_inurba_marseille","lat":43.3037,"lon":5.42488,"is_reserved":false,"is_disabled":true,"rental_uris":{"android":"levelo://app?vid=92d3bb11-4cf3-47e6-bc0f-ff80eea58ad1","ios":"levelo://app?vid=92d3bb11-4cf3-47e6-bc0f-ff80eea58ad1"},"vehicle_type_id":"4","last_reported":1751113140,"current_range_meters":0,"station_id":"ce4bhoh2rcd13ifvqh6g","pricing_plan_id":"cebpf4jnsgd1na2vs0mg"},{"bike_id":"c8ce0351-fe68-40b1-beb5-45d8ee0eed11","system_id":"levelo_inurba_marseille","lat":43.30382,"lon":5.42498,"is_reserved":false,"is_disabled":true,"rental_uris":{"android":"levelo://app?vid=c8ce0351-fe68-40b1-beb5-45d8ee0eed11","ios":"levelo://app?vid=c8ce0351-fe68-40b1-beb5-45d8ee0eed11"},"vehicle_type_id":"4","last_reported":1751113140,"current_range_meters":0,"station_id":"ce4bhoh2rcd13ifvqh6g","pricing_plan_id":"cebpf4jnsgd1na2vs0mg"},{"bike_id":"fde70215-ce15-4258-a0bf-27a465a43a0d","system_id":"levelo_inurba_marseille","lat":43.321182,"lon":5.367896,"is_reserved":false,"is_disabled":true,"rental_uris":{"android":"levelo://app?vid=fde70215-ce15-4258-a0bf-27a465a43a0d","ios":"levelo://app?vid=fde70215-ce15-4258-a0bf-27a465a43a0d"},"vehicle_type_id":"4","last_reported":1751113140,"current_range_meters":0,"station_id":"ce4bhrh2rcd13ifvqhug","pricing_plan_id":"cebpf4jnsgd1na2vs0mg"},{"bike_id":"070a5204-3e73-4cf5-9fda-520c8795969f","system_id":"levelo_inurba_marseille","lat":43.2174,"lon":5.34601,"is_reserved":false,"is_disabled":true,"rental_uris":{"android":"levelo://app?vid=070a5204-3e73-4cf5-9fda-520c8795969f","ios":"levelo://app?vid=070a5204-3e73-4cf5-9fda-520c8795969f"},"vehicle_type_id":"4","last_reported":1751113140,"current_range_meters":0,"station_id":"st_cvj6r9ubvosntc0bgbag","pricing_plan_id":"cebpf4jnsgd1na2vs0mg"},{"bike_id":"9660d42f-62ac-4258-8a45-8063dd7e7505","system_id":"levelo_inurba_marseille","lat":43.22501,"lon":5.34774,"is_reserved":false,"is_disabled":true,"rental_uris":{"android":"levelo://app?vid=9660d42f-62ac-4258-8a45-8063dd7e7505","ios":"levelo://app?vid=9660d42f-62ac-4258-8a45-8063dd7e7505"},"vehicle_type_id":"4","last_reported":1751113140,"current_range_meters":400,"station_id":"","pricing_plan_id":"cebpf4jnsgd1na2vs0mg"},{"bike_id":"f47876d7-9c85-474e-92c5-7a242e08b67c","system_id":"levelo_inurba_marseille","lat":43.305538,"lon":5.375468,"is_reserved":false,"is_disabled":true,"rental_uris":{"android":"levelo://app?vid=f47876d7-9c85-474e-92c5-7a242e08b67c","ios":"levelo://app?vid=f47876d7-9c85-474e-92c5-7a242e08b67c"},"vehicle_type_id":"4","last_reported":1751113140,"current_range_meters":800,"station_id":"","pricing_plan_id":"cebpf4jnsgd1na2vs0mg"},{"bike_id":"289a7b61-3eba-4d0d-ae05-9704b6f10bf8","system_id":"levelo_inurba_marseille","lat":43.295689,"lon":5.367487,"is_reserved":false,"is_disabled":true,"rental_uris":{"android":"levelo://app?vid=289a7b61-3eba-4d0d-ae05-9704b6f10bf8","ios":"levelo://app?vid=289a7b61-3eba-4d0d-ae05-9704b6f10bf8"},"vehicle_type_id":"4","last_reported":1751113140,"current_range_meters":800,"station_id":"ce4bgph2rcd13ifvqc2g","pricing_plan_id":"cebpf4jnsgd1na2vs0mg"},{"bike_id":"36c8d399-edbb-48d2-9542-0e5343ae36e8","system_id":"levelo_inurba_marseille","lat":43.27381,"lon":5.36262,"is_reserved":false,"is_disabled":true,"rental_uris":{"android":"levelo://app?vid=36c8d399-edbb-48d2-9542-0e5343ae36e8","ios":"levelo://app?vid=36c8d399-edbb-48d2-9542-0e5343ae36e8"},"vehicle_type_id":"4","last_reported":1751113140,"current_range_meters":800,"station_id":"ce4bhbh2rcd13ifvqeo0","pricing_plan_id":"cebpf4jnsgd1na2vs0mg"},{"bike_id":"39a56903-e4ed-484b-b1ac-713f152fc0ad","system_id":"levelo_inurba_marseille","lat":43.29225,"lon":5.36065,"is_reserved":false,"is_disabled":true,"rental_uris":{"android":"levelo://app?vid=39a56903-e4ed-484b-b1ac-713f152fc0ad","ios":"levelo://app?vid=39a56903-e4ed-484b-b1ac-713f152fc0ad"},"vehicle_type_id":"4","last_reported":1751113140,"current_range_meters":800,"station_id":"ce4bhbh2rcd13ifvqeqg","pricing_plan_id":"cebpf4jnsgd1na2vs0mg"},{"bike_id":"e64ffff0-d52c-4c97-9ce5-afd24dca4bf7","system_id":"levelo_inurba_marseille","lat":43.30427,"lon":5.39744,"is_reserved":false,"is_disabled":true,"rental_uris":{"android":"levelo://app?vid=e64ffff0-d52c-4c97-9ce5-afd24dca4bf7","ios":"levelo://app?vid=e64ffff0-d52c-4c97-9ce5-afd24dca4bf7"},"vehicle_type_id":"4","last_reported":1751113140,"current_range_meters":1200,"station_id":"ce4bh092rcd13ifvqd20","pricing_plan_id":"cebpf4jnsgd1na2vs0mg"},{"bike_id":"ed776543-2d02-4eef-99bc-77c071154039","system_id":"levelo_inurba_marseille","lat":43.27568,"lon":5.38413,"is_reserved":false,"is_disabled":true,"rental_uris":{"android":"levelo://app?vid=ed776543-2d02-4eef-99bc-77c071154039","ios":"levelo://app?vid=ed776543-2d02-4eef-99bc-77c071154039"},"vehicle_type_id":"4","last_reported":1751113140,"current_range_meters":1200,"station_id":"ce4bhh92rcd13ifvqfi0","pricing_plan_id":"cebpf4jnsgd1na2vs0mg"},{"bike_id":"70ec4bdb-5b4b-4093-ba53-69cca3a4b565","system_id":"levelo_inurba_marseille","lat":43.24541,"lon":5.39529,"is_reserved":false,"is_disabled":true,"rental_uris":{"android":"levelo://app?vid=70ec4bdb-5b4b-4093-ba53-69cca3a4b565","ios":"levelo://app?vid=70ec4bdb-5b4b-4093-ba53-69cca3a4b565"},"vehicle_type_id":"4","last_reported":1751113140,"current_range_meters":1200,"station_id":"ce4bhlp2rcd13ifvqgjg","pricing_plan_id":"cebpf4jnsgd1na2vs0mg"},{"bike_id":"2e4b3190-9cc9-47cf-87ca-5dc482ba5b0d","system_id":"levelo_inurba_marseille","lat":43.231571,"lon":5.436991,"is_reserved":false,"is_disabled":true,"rental_uris":{"android":"levelo://app?vid=2e4b3190-9cc9-47cf-87ca-5dc482ba5b0d","ios":"levelo://app?vid=2e4b3190-9cc9-47cf-87ca-5dc482ba5b0d"},"vehicle_type_id":"4","last_reported":1751113140,"current_range_meters":1200,"station_id":"ce4bhmp2rcd13ifvqgog","pricing_plan_id":"cebpf4jnsgd1na2vs0mg"},{"bike_id":"5d07c5c9-0fd6-4a82-acd5-3d7d6609d9f1","system_id":"levelo_inurba_marseille","lat":43.31123,"lon":5.37769,"is_reserved":false,"is_disabled":true,"rental_uris":{"android":"levelo://app?vid=5d07c5c9-0fd6-4a82-acd5-3d7d6609d9f1","ios":"levelo://app?vid=5d07c5c9-0fd6-4a82-acd5-3d7d6609d9f1"},"vehicle_type_id":"4","last_reported":1751113140,"current_range_meters":1600,"station_id":"ce4bgt92rcd13ifvqcg0","pricing_plan_id":"cebpf4jnsgd1na2vs0mg"},{"bike_id":"d95b0cb6-f93c-43ea-8596-88cc68aea25c","system_id":"levelo_inurba_marseille","lat":43.24387,"lon":5.37065,"is_reserved":false,"is_disabled":true,"rental_uris":{"android":"levelo://app?vid=d95b0cb6-f93c-43ea-8596-88cc68aea25c","ios":"levelo://app?vid=d95b0cb6-f93c-43ea-8596-88cc68aea25c"},"vehicle_type_id":"4","last_reported":1751113140,"current_range_meters":1600,"station_id":"ce4bhhh2rcd13ifvqfk0","pricing_plan_id":"cebpf4jnsgd1na2vs0mg"},{"bike_id":"3ed97791-4fd1-4beb-9e6b-4998740d59d9","system_id":"levelo_inurba_marseille","lat":43.271719,"lon":5.410008,"is_reserved":false,"is_disabled":true,"rental_uris":{"android":"levelo://app?vid=3ed97791-4fd1-4beb-9e6b-4998740d59d9","ios":"levelo://app?vid=3ed97791-4fd1-4beb-9e6b-4998740d59d9"},"vehicle_type_id":"4","last_reported":1751113140,"current_range_meters":2000,"station_id":"","pricing_plan_id":"cebpf4jnsgd1na2vs0mg"},{"bike_id":"e2e2626c-8b8f-453c-8865-e45faaa34540","system_id":"levelo_inurba_marseille","lat":43.31067,"lon":5.38347,"is_reserved":false,"is_disabled":true,"rental_uris":{"android":"levelo://app?vid=e2e2626c-8b8f-453c-8865-e45faaa34540","ios":"levelo://app?vid=e2e2626c-8b8f-453c-8865-e45faaa34540"},"vehicle_type_id":"4","last_reported":1751113140,"current_range_meters":2000,"station_id":"ce4bgv92rcd13ifvqcr0","pricing_plan_id":"cebpf4jnsgd1na2vs0mg"},{"bike_id":"a1f363d0-1dcc-4cc5-889b-0fc3c97f42e5","system_id":"levelo_inurba_marseille","lat":43.31883,"lon":5.40735,"is_reserved":false,"is_disabled":true,"rental_uris":{"android":"levelo://app?vid=a1f363d0-1dcc-4cc5-889b-0fc3c97f42e5","ios":"levelo://app?vid=a1f363d0-1dcc-4cc5-889b-0fc3c97f42e5"},"vehicle_type_id":"4","last_reported":1751113140,"current_range_meters":2000,"station_id":"ce4bhq12rcd13ifvqhig","pricing_plan_id":"cebpf4jnsgd1na2vs0mg"},{"bike_id":"416ff97f-b496-45d1-a451-5405d9d6b8ae","system_id":"levelo_inurba_marseille","lat":43.31168,"lon":5.37213,"is_reserved":false,"is_disabled":false,"rental_uris":{"android":"levelo://app?vid=416ff97f-b496-45d1-a451-5405d9d6b8ae","ios":"levelo://app?vid=416ff97f-b496-45d1-a451-5405d9d6b8ae"},"vehicle_type_id":"4","last_reported":1751113140,"current_range_meters":2800,"station_id":"","pricing_plan_id":"cebpf4jnsgd1na2vs0mg"},{"bike_id":"87cfe256-aadd-4fc0-996d-b7629c129353","system_id":"levelo_inurba_marseille","lat":43.2949,"lon":5.37509,"is_reserved":false,"is_disabled":false,"rental_uris":{"android":"levelo://app?vid=87cfe256-aadd-4fc0-996d-b7629c129353","ios":"levelo://app?vid=87cfe256-aadd-4fc0-996d-b7629c129353"},"vehicle_type_id":"4","last_reported":1751113140,"current_range_meters":2800,"station_id":"ce4bgkp2rcd13ifvqbmg","pricing_plan_id":"cebpf4jnsgd1na2vs0mg"},{"bike_id":"f1024cc9-7948-4229-8546-3d50aa88034a","system_id":"levelo_inurba_marseille","lat":43.28266,"lon":5.35085,"is_reserved":false,"is_disabled":false,"rental_uris":{"android":"levelo://app?vid=f1024cc9-7948-4229-8546-3d50aa88034a","ios":"levelo://app?vid=f1024cc9-7948-4229-8546-3d50aa88034a"},"vehicle_type_id":"4","last_reported":1751113140,"current_range_meters":2800,"station_id":"ce4bhbp2rcd13ifvqerg","pricing_plan_id":"cebpf4jnsgd1na2vs0mg"},{"bike_id":"f06c8821-159e-421b-9570-b2b2e3869982","system_id":"levelo_inurba_marseille","lat":43.34149,"lon":5.40912,"is_reserved":false,"is_disabled":false,"rental_uris":{"android":"levelo://app?vid=f06c8821-159e-421b-9570-b2b2e3869982","ios":"levelo://app?vid=f06c8821-159e-421b-9570-b2b2e3869982"},"vehicle_type_id":"4","last_reported":1751113140,"current_range_meters":2800,"station_id":"ce4bhqh2rcd13ifvqhlg","pricing_plan_id":"cebpf4jnsgd1na2vs0mg"},{"bike_id":"94e84186-d780-461a-b647-8d1cf3f036ad","system_id":"levelo_inurba_marseille","lat":43.31725,"lon":5.3772,"is_reserved":false,"is_disabled":false,"rental_uris":{"android":"levelo://app?vid=94e84186-d780-461a-b647-8d1cf3f036ad","ios":"levelo://app?vid=94e84186-d780-461a-b647-8d1cf3f036ad"},"vehicle_type_id":"4","last_reported":1751113140,"current_range_meters":3600,"station_id":"ce4bgth2rcd13ifvqch0","pricing_plan_id":"cebpf4jnsgd1na2vs0mg"},{"bike_id":"d29fd179-7503-4773-a0f3-dca140ee5b9f","system_id":"levelo_inurba_marseille","lat":43.28411,"lon":5.35012,"is_reserved":false,"is_disabled":false,"rental_uris":{"android":"levelo://app?vid=d29fd179-7503-4773-a0f3-dca140ee5b9f","ios":"levelo://app?vid=d29fd179-7503-4773-a0f3-dca140ee5b9f"},"vehicle_type_id":"4","last_reported":1751113140,"current_range_meters":3600,"station_id":"ce4bhbh2rcd13ifvqepg","pricing_plan_id":"cebpf4jnsgd1na2vs0mg"},{"bike_id":"6b7d6a0e-ea21-4620-8459-d1379c1f29bf","system_id":"levelo_inurba_marseille","lat":43.28282,"lon":5.35077,"is_reserved":false,"is_disabled":false,"rental_uris":{"android":"levelo://app?vid=6b7d6a0e-ea21-4620-8459-d1379c1f29bf","ios":"levelo://app?vid=6b7d6a0e-ea21-4620-8459-d1379c1f29bf"},"vehicle_type_id":"4","last_reported":1751113140,"current_range_meters":3600,"station_id":"ce4bhbp2rcd13ifvqerg","pricing_plan_id":"cebpf4jnsgd1na2vs0mg"},{"bike_id":"5ef72e86-1a43-4fd4-b68c-fa43a6d7e936","system_id":"levelo_inurba_marseille","lat":43.26786,"lon":5.39418,"is_reserved":false,"is_disabled":false,"rental_uris":{"android":"levelo://app?vid=5ef72e86-1a43-4fd4-b68c-fa43a6d7e936","ios":"levelo://app?vid=5ef72e86-1a43-4fd4-b68c-fa43a6d7e936"},"vehicle_type_id":"4","last_reported":1751113140,"current_range_meters":3600,"station_id":"ce4bhh12rcd13ifvqfg0","pricing_plan_id":"cebpf4jnsgd1na2vs0mg"},{"bike_id":"df4f0b2c-85e7-4c83-b40d-97f2ce9ddfab","system_id":"levelo_inurba_marseille","lat":43.25942,"lon":5.40896,"is_reserved":false,"is_disabled":false,"rental_uris":{"android":"levelo://app?vid=df4f0b2c-85e7-4c83-b40d-97f2ce9ddfab","ios":"levelo://app?vid=df4f0b2c-85e7-4c83-b40d-97f2ce9ddfab"},"vehicle_type_id":"4","last_reported":1751113140,"current_range_meters":4000,"station_id":"ce4bhm92rcd13ifvqglg","pricing_plan_id":"cebpf4jnsgd1na2vs0mg"},{"bike_id":"a4c72be0-3226-4d5c-a841-94842c79c5e5","system_id":"levelo_inurba_marseille","lat":43.304204,"lon":5.412857,"is_reserved":false,"is_disabled":false,"rental_uris":{"android":"levelo://app?vid=a4c72be0-3226-4d5c-a841-94842c79c5e5","ios":"levelo://app?vid=a4c72be0-3226-4d5c-a841-94842c79c5e5"},"vehicle_type_id":"4","last_reported":1751113140,"current_range_meters":4400,"station_id":"ce4bhop2rcd13ifvqh8g","pricing_plan_id":"cebpf4jnsgd1na2vs0mg"},{"bike_id":"0a034962-a078-4cd8-ab5c-29a2f15ac163","system_id":"levelo_inurba_marseille","lat":43.29902,"lon":5.43676,"is_reserved":false,"is_disabled":false,"rental_uris":{"android":"levelo://app?vid=0a034962-a078-4cd8-ab5c-29a2f15ac163","ios":"levelo://app?vid=0a034962-a078-4cd8-ab5c-29a2f15ac163"},"vehicle_type_id":"4","last_reported":1751113140,"current_range_meters":4400,"station_id":"ce4bhpp2rcd13ifvqhfg","pricing_plan_id":"cebpf4jnsgd1na2vs0mg"},{"bike_id":"eda127d9-141a-48b2-8ed2-3a9e02faf287","system_id":"levelo_inurba_marseille","lat":43.30149,"lon":5.38087,"is_reserved":false,"is_disabled":false,"rental_uris":{"android":"levelo://app?vid=eda127d9-141a-48b2-8ed2-3a9e02faf287","ios":"levelo://app?vid=eda127d9-141a-48b2-8ed2-3a9e02faf287"},"vehicle_type_id":"4","last_reported":1751113140,"current_range_meters":4800,"station_id":"ce4bgjp2rcd13ifvqbh0","pricing_plan_id":"cebpf4jnsgd1na2vs0mg"},{"bike_id":"500342e8-a81a-4d30-b1ff-11757fb27253","system_id":"levelo_inurba_marseille","lat":43.2977,"lon":5.37102,"is_reserved":false,"is_disabled":false,"rental_uris":{"android":"levelo://app?vid=500342e8-a81a-4d30-b1ff-11757fb27253","ios":"levelo://app?vid=500342e8-a81a-4d30-b1ff-11757fb27253"},"vehicle_type_id":"4","last_reported":1751113140,"current_range_meters":5600,"station_id":"ce4bgop2rcd13ifvqc1g","pricing_plan_id":"cebpf4jnsgd1na2vs0mg"},{"bike_id":"62d00d38-f2db-4156-8357-0800893315bb","system_id":"levelo_inurba_marseille","lat":43.25499,"lon":5.37648,"is_reserved":false,"is_disabled":false,"rental_uris":{"android":"levelo://app?vid=62d00d38-f2db-4156-8357-0800893315bb","ios":"levelo://app?vid=62d00d38-f2db-4156-8357-0800893315bb"},"vehicle_type_id":"4","last_reported":1751113140,"current_range_meters":5600,"station_id":"ce4bhh12rcd13ifvqff0","pricing_plan_id":"cebpf4jnsgd1na2vs0mg"},{"bike_id":"ee0cefbd-183c-4652-9e08-64c989f4a0b1","system_id":"levelo_inurba_marseille","lat":43.24386,"lon":5.37062,"is_reserved":false,"is_disabled":false,"rental_uris":{"android":"levelo://app?vid=ee0cefbd-183c-4652-9e08-64c989f4a0b1","ios":"levelo://app?vid=ee0cefbd-183c-4652-9e08-64c989f4a0b1"},"vehicle_type_id":"4","last_reported":1751113140,"current_range_meters":5600,"station_id":"ce4bhhh2rcd13ifvqfk0","pricing_plan_id":"cebpf4jnsgd1na2vs0mg"},{"bike_id":"17bf16ee-a97a-4a1b-969f-da47bd1b96f3","system_id":"levelo_inurba_marseille","lat":43.32333,"lon":5.40622,"is_reserved":false,"is_disabled":false,"rental_uris":{"android":"levelo://app?vid=17bf16ee-a97a-4a1b-969f-da47bd1b96f3","ios":"levelo://app?vid=17bf16ee-a97a-4a1b-969f-da47bd1b96f3"},"vehicle_type_id":"4","last_reported":1751113140,"current_range_meters":5600,"station_id":"ce4bhq92rcd13ifvqhjg","pricing_plan_id":"cebpf4jnsgd1na2vs0mg"},{"bike_id":"dcea07ca-9323-4b9b-98f6-e1fc9b106559","system_id":"levelo_inurba_marseille","lat":43.30335,"lon":5.37632,"is_reserved":false,"is_disabled":false,"rental_uris":{"android":"levelo://app?vid=dcea07ca-9323-4b9b-98f6-e1fc9b106559","ios":"levelo://app?vid=dcea07ca-9323-4b9b-98f6-e1fc9b106559"},"vehicle_type_id":"4","last_reported":1751113140,"current_range_meters":6000,"station_id":"","pricing_plan_id":"cebpf4jnsgd1na2vs0mg"},{"bike_id":"666ef40e-8142-4330-a1bf-355f72ca0910","system_id":"levelo_inurba_marseille","lat":43.2649,"lon":5.39546,"is_reserved":false,"is_disabled":false,"rental_uris":{"android":"levelo://app?vid=666ef40e-8142-4330-a1bf-355f72ca0910","ios":"levelo://app?vid=666ef40e-8142-4330-a1bf-355f72ca0910"},"vehicle_type_id":"4","last_reported":1751113140,"current_range_meters":6000,"station_id":"","pricing_plan_id":"cebpf4jnsgd1na2vs0mg"},{"bike_id":"8f637162-9581-4eac-9da6-ae46f5de0acf","system_id":"levelo_inurba_marseille","lat":43.30885,"lon":5.37191,"is_reserved":false,"is_disabled":false,"rental_uris":{"android":"levelo://app?vid=8f637162-9581-4eac-9da6-ae46f5de0acf","ios":"levelo://app?vid=8f637162-9581-4eac-9da6-ae46f5de0acf"},"vehicle_type_id":"4","last_reported":1751113140,"current_range_meters":6000,"station_id":"ce4bguh2rcd13ifvqckg","pricing_plan_id":"cebpf4jnsgd1na2vs0mg"},{"bike_id":"703df58a-ef75-4ae2-b700-970a1de18756","system_id":"levelo_inurba_marseille","lat":43.29804,"lon":5.40427,"is_reserved":false,"is_disabled":false,"rental_uris":{"android":"levelo://app?vid=703df58a-ef75-4ae2-b700-970a1de18756","ios":"levelo://app?vid=703df58a-ef75-4ae2-b700-970a1de18756"},"vehicle_type_id":"4","last_reported":1751113140,"current_range_meters":6000,"station_id":"ce4bh112rcd13ifvqd90","pricing_plan_id":"cebpf4jnsgd1na2vs0mg"},{"bike_id":"4b8da722-ee9e-48a4-a5e5-3a8a10364708","system_id":"levelo_inurba_marseille","lat":43.31232,"lon":5.37825,"is_reserved":false,"is_disabled":false,"rental_uris":{"android":"levelo://app?vid=4b8da722-ee9e-48a4-a5e5-3a8a10364708","ios":"levelo://app?vid=4b8da722-ee9e-48a4-a5e5-3a8a10364708"},"vehicle_type_id":"4","last_reported":1751113140,"current_range_meters":6400,"station_id":"","pricing_plan_id":"cebpf4jnsgd1na2vs0mg"},{"bike_id":"73a03650-973e-42b0-bad4-545481e15f73","system_id":"levelo_inurba_marseille","lat":43.31238,"lon":5.39066,"is_reserved":false,"is_disabled":false,"rental_uris":{"android":"levelo://app?vid=73a03650-973e-42b0-bad4-545481e15f73","ios":"levelo://app?vid=73a03650-973e-42b0-bad4-545481e15f73"},"vehicle_type_id":"4","last_reported":1751113140,"current_range_meters":6400,"station_id":"","pricing_plan_id":"cebpf4jnsgd1na2vs0mg"},{"bike_id":"ca22c225-9637-4c3c-ac44-f766dfb205dd","system_id":"levelo_inurba_marseille","lat":43.28918,"lon":5.38396,"is_reserved":false,"is_disabled":false,"rental_uris":{"android":"levelo://app?vid=ca22c225-9637-4c3c-ac44-f766dfb205dd","ios":"levelo://app?vid=ca22c225-9637-4c3c-ac44-f766dfb205dd"},"vehicle_type_id":"4","last_reported":1751113140,"current_range_meters":6400,"station_id":"ce4bh612rcd13ifvqe6g","pricing_plan_id":"cebpf4jnsgd1na2vs0mg"},{"bike_id":"cb67eb09-d3a5-4aa3-9bb2-f47aff74a489","system_id":"levelo_inurba_marseille","lat":43.289358,"lon":5.366341,"is_reserved":false,"is_disabled":false,"rental_uris":{"android":"levelo://app?vid=cb67eb09-d3a5-4aa3-9bb2-f47aff74a489","ios":"levelo://app?vid=cb67eb09-d3a5-4aa3-9bb2-f47aff74a489"},"vehicle_type_id":"4","last_reported":1751113140,"current_range_meters":6400,"station_id":"ce4bhap2rcd13ifvqek0","pricing_plan_id":"cebpf4jnsgd1na2vs0mg"},{"bike_id":"f48eefeb-0fe1-4e99-91b4-2dda9b72749b","system_id":"levelo_inurba_marseille","lat":43.2465,"lon":5.38899,"is_reserved":false,"is_disabled":false,"rental_uris":{"android":"levelo://app?vid=f48eefeb-0fe1-4e99-91b4-2dda9b72749b","ios":"levelo://app?vid=f48eefeb-0fe1-4e99-91b4-2dda9b72749b"},"vehicle_type_id":"4","last_reported":1751113140,"current_range_meters":6400,"station_id":"ce4bhg12rcd13ifvqf60","pricing_plan_id":"cebpf4jnsgd1na2vs0mg"},{"bike_id":"96652e67-bbcc-40a2-8be1-ab20b55012b2","system_id":"levelo_inurba_marseille","lat":43.26028,"lon":5.37553,"is_reserved":false,"is_disabled":false,"rental_uris":{"android":"levelo://app?vid=96652e67-bbcc-40a2-8be1-ab20b55012b2","ios":"levelo://app?vid=96652e67-bbcc-40a2-8be1-ab20b55012b2"},"vehicle_type_id":"4","last_reported":1751113140,"current_range_meters":6400,"station_id":"ce4bhgh2rcd13ifvqfa0","pricing_plan_id":"cebpf4jnsgd1na2vs0mg"},{"bike_id":"7a92a51b-12db-41cc-98c0-2618d3831133","system_id":"levelo_inurba_marseille","lat":43.32276,"lon":5.38254,"is_reserved":false,"is_disabled":false,"rental_uris":{"android":"levelo://app?vid=7a92a51b-12db-41cc-98c0-2618d3831133","ios":"levelo://app?vid=7a92a51b-12db-41cc-98c0-2618d3831133"},"vehicle_type_id":"4","last_reported":1751113140,"current_range_meters":6400,"station_id":"ce4bhr12rcd13ifvqhqg","pricing_plan_id":"cebpf4jnsgd1na2vs0mg"},{"bike_id":"b7d0d8a1-c5dd-4278-8b3b-f5786872fe32","system_id":"levelo_inurba_marseille","lat":43.32081,"lon":5.36771,"is_reserved":false,"is_disabled":false,"rental_uris":{"android":"levelo://app?vid=b7d0d8a1-c5dd-4278-8b3b-f5786872fe32","ios":"levelo://app?vid=b7d0d8a1-c5dd-4278-8b3b-f5786872fe32"},"vehicle_type_id":"4","last_reported":1751113140,"current_range_meters":6400,"station_id":"ce4bhrh2rcd13ifvqhug","pricing_plan_id":"cebpf4jnsgd1na2vs0mg"},{"bike_id":"68d391af-b38d-4656-98f8-34a9305321e0","system_id":"levelo_inurba_marseille","lat":43.28269,"lon":5.35066,"is_reserved":false,"is_disabled":false,"rental_uris":{"android":"levelo://app?vid=68d391af-b38d-4656-98f8-34a9305321e0","ios":"levelo://app?vid=68d391af-b38d-4656-98f8-34a9305321e0"},"vehicle_type_id":"4","last_reported":1751113140,"current_range_meters":6800,"station_id":"ce4bhbp2rcd13ifvqerg","pricing_plan_id":"cebpf4jnsgd1na2vs0mg"},{"bike_id":"6dc43922-21b6-4b93-955e-4f022bd33e41","system_id":"levelo_inurba_marseille","lat":43.28268,"lon":5.35072,"is_reserved":false,"is_disabled":false,"rental_uris":{"android":"levelo://app?vid=6dc43922-21b6-4b93-955e-4f022bd33e41","ios":"levelo://app?vid=6dc43922-21b6-4b93-955e-4f022bd33e41"},"vehicle_type_id":"4","last_reported":1751113140,"current_range_meters":7200,"station_id":"ce4bhbp2rcd13ifvqerg","pricing_plan_id":"cebpf4jnsgd1na2vs0mg"},{"bike_id":"a440f2f6-8cf8-4348-9ba1-e21002a18a07","system_id":"levelo_inurba_marseille","lat":43.3209,"lon":5.36742,"is_reserved":false,"is_disabled":false,"rental_uris":{"android":"levelo://app?vid=a440f2f6-8cf8-4348-9ba1-e21002a18a07","ios":"levelo://app?vid=a440f2f6-8cf8-4348-9ba1-e21002a18a07"},"vehicle_type_id":"4","last_reported":1751113140,"current_range_meters":7200,"station_id":"ce4bhrh2rcd13ifvqhug","pricing_plan_id":"cebpf4jnsgd1na2vs0mg"},{"bike_id":"1607278f-b42f-46b5-b27b-ae886fe21bde","system_id":"levelo_inurba_marseille","lat":43.28725,"lon":5.36084,"is_reserved":false,"is_disabled":false,"rental_uris":{"android":"levelo://app?vid=1607278f-b42f-46b5-b27b-ae886fe21bde","ios":"levelo://app?vid=1607278f-b42f-46b5-b27b-ae886fe21bde"},"vehicle_type_id":"4","last_reported":1751113140,"current_range_meters":7200,"station_id":"cki0cbj6b192h4jlfktg","pricing_plan_id":"cebpf4jnsgd1na2vs0mg"},{"bike_id":"09699f02-56b2-484f-b917-b5c5d3901988","system_id":"levelo_inurba_marseille","lat":43.26556,"lon":5.37284,"is_reserved":false,"is_disabled":false,"rental_uris":{"android":"levelo://app?vid=09699f02-56b2-484f-b917-b5c5d3901988","ios":"levelo://app?vid=09699f02-56b2-484f-b917-b5c5d3901988"},"vehicle_type_id":"4","last_reported":1751113140,"current_range_meters":8000,"station_id":"ce4bhg12rcd13ifvqf70","pricing_plan_id":"cebpf4jnsgd1na2vs0mg"},{"bike_id":"a6d8b4b1-5e59-49c3-9865-ffd1d4c284d0","system_id":"levelo_inurba_marseille","lat":43.27981,"lon":5.41664,"is_reserved":false,"is_disabled":false,"rental_uris":{"android":"levelo://app?vid=a6d8b4b1-5e59-49c3-9865-ffd1d4c284d0","ios":"levelo://app?vid=a6d8b4b1-5e59-49c3-9865-ffd1d4c284d0"},"vehicle_type_id":"4","last_reported":1751113140,"current_range_meters":8000,"station_id":"ce4bho12rcd13ifvqh1g","pricing_plan_id":"cebpf4jnsgd1na2vs0mg"},{"bike_id":"b75c9cb8-fd78-4a80-9d1b-540023d5ad53","system_id":"levelo_inurba_marseille","lat":43.34133,"lon":5.40893,"is_reserved":false,"is_disabled":false,"rental_uris":{"android":"levelo://app?vid=b75c9cb8-fd78-4a80-9d1b-540023d5ad53","ios":"levelo://app?vid=b75c9cb8-fd78-4a80-9d1b-540023d5ad53"},"vehicle_type_id":"4","last_reported":1751113140,"current_range_meters":8000,"station_id":"ce4bhqh2rcd13ifvqhlg","pricing_plan_id":"cebpf4jnsgd1na2vs0mg"},{"bike_id":"d93518a7-acea-49d1-8b1d-66917831e25a","system_id":"levelo_inurba_marseille","lat":43.2836,"lon":5.39574,"is_reserved":false,"is_disabled":false,"rental_uris":{"android":"levelo://app?vid=d93518a7-acea-49d1-8b1d-66917831e25a","ios":"levelo://app?vid=d93518a7-acea-49d1-8b1d-66917831e25a"},"vehicle_type_id":"4","last_reported":1751113140,"current_range_meters":8400,"station_id":"","pricing_plan_id":"cebpf4jnsgd1na2vs0mg"},{"bike_id":"1422aae9-4428-4bc5-9f1e-88df6f664dde","system_id":"levelo_inurba_marseille","lat":43.30057,"lon":5.3711,"is_reserved":false,"is_disabled":false,"rental_uris":{"android":"levelo://app?vid=1422aae9-4428-4bc5-9f1e-88df6f664dde","ios":"levelo://app?vid=1422aae9-4428-4bc5-9f1e-88df6f664dde"},"vehicle_type_id":"4","last_reported":1751113140,"current_range_meters":8400,"station_id":"","pricing_plan_id":"cebpf4jnsgd1na2vs0mg"},{"bike_id":"1a094787-94a6-4e8b-ac61-449b124ec868","system_id":"levelo_inurba_marseille","lat":43.29856,"lon":5.36298,"is_reserved":false,"is_disabled":false,"rental_uris":{"android":"levelo://app?vid=1a094787-94a6-4e8b-ac61-449b124ec868","ios":"levelo://app?vid=1a094787-94a6-4e8b-ac61-449b124ec868"},"vehicle_type_id":"4","last_reported":1751113140,"current_range_meters":8400,"station_id":"ce4bgpp2rcd13ifvqc3g","pricing_plan_id":"cebpf4jnsgd1na2vs0mg"},{"bike_id":"25d4fc04-80fb-4942-b53b-19627ba1b64f","system_id":"levelo_inurba_marseille","lat":43.27065,"lon":5.4026,"is_reserved":false,"is_disabled":false,"rental_uris":{"android":"levelo://app?vid=25d4fc04-80fb-4942-b53b-19627ba1b64f","ios":"levelo://app?vid=25d4fc04-80fb-4942-b53b-19627ba1b64f"},"vehicle_type_id":"4","last_reported":1751113140,"current_range_meters":8400,"station_id":"ce4bhk92rcd13ifvqgc0","pricing_plan_id":"cebpf4jnsgd1na2vs0mg"},{"bike_id":"3e69fb4f-7c8a-4752-9909-712c19cbd3ec","system_id":"levelo_inurba_marseille","lat":43.24072,"lon":5.37769,"is_reserved":false,"is_disabled":false,"rental_uris":{"android":"levelo://app?vid=3e69fb4f-7c8a-4752-9909-712c19cbd3ec","ios":"levelo://app?vid=3e69fb4f-7c8a-4752-9909-712c19cbd3ec"},"vehicle_type_id":"4","last_reported":1751113140,"current_range_meters":8400,"station_id":"ce4bhnp2rcd13ifvqgvg","pricing_plan_id":"cebpf4jnsgd1na2vs0mg"},{"bike_id":"de0ba27c-9f2c-4c4d-abca-31aa5df09b3a","system_id":"levelo_inurba_marseille","lat":43.21749,"lon":5.34606,"is_reserved":false,"is_disabled":false,"rental_uris":{"android":"levelo://app?vid=de0ba27c-9f2c-4c4d-abca-31aa5df09b3a","ios":"levelo://app?vid=de0ba27c-9f2c-4c4d-abca-31aa5df09b3a"},"vehicle_type_id":"4","last_reported":1751113140,"current_range_meters":8400,"station_id":"st_cvj6r9ubvosntc0bgbag","pricing_plan_id":"cebpf4jnsgd1na2vs0mg"},{"bike_id":"5a01ae6d-9064-484c-8d77-2d9e141e2313","system_id":"levelo_inurba_marseille","lat":43.244854,"lon":5.3902,"is_reserved":false,"is_disabled":false,"rental_uris":{"android":"levelo://app?vid=5a01ae6d-9064-484c-8d77-2d9e141e2313","ios":"levelo://app?vid=5a01ae6d-9064-484c-8d77-2d9e141e2313"},"vehicle_type_id":"4","last_reported":1751113140,"current_range_meters":8800,"station_id":"","pricing_plan_id":"cebpf4jnsgd1na2vs0mg"},{"bike_id":"6616a2c3-87de-4897-a59c-94ad1c8bffff","system_id":"levelo_inurba_marseille","lat":43.30148,"lon":5.39883,"is_reserved":false,"is_disabled":false,"rental_uris":{"android":"levelo://app?vid=6616a2c3-87de-4897-a59c-94ad1c8bffff","ios":"levelo://app?vid=6616a2c3-87de-4897-a59c-94ad1c8bffff"},"vehicle_type_id":"4","last_reported":1751113140,"current_range_meters":8800,"station_id":"ce4bh0h2rcd13ifvqd40","pricing_plan_id":"cebpf4jnsgd1na2vs0mg"},{"bike_id":"7906cfcc-1ef6-439f-83d6-719a8a1442ac","system_id":"levelo_inurba_marseille","lat":43.24651,"lon":5.38894,"is_reserved":false,"is_disabled":false,"rental_uris":{"android":"levelo://app?vid=7906cfcc-1ef6-439f-83d6-719a8a1442ac","ios":"levelo://app?vid=7906cfcc-1ef6-439f-83d6-719a8a1442ac"},"vehicle_type_id":"4","last_reported":1751113140,"current_range_meters":8800,"station_id":"ce4bhg12rcd13ifvqf60","pricing_plan_id":"cebpf4jnsgd1na2vs0mg"},{"bike_id":"fe899312-7c32-4db0-84e5-45656165fec8","system_id":"levelo_inurba_marseille","lat":43.26212,"lon":5.37442,"is_reserved":false,"is_disabled":false,"rental_uris":{"android":"levelo://app?vid=fe899312-7c32-4db0-84e5-45656165fec8","ios":"levelo://app?vid=fe899312-7c32-4db0-84e5-45656165fec8"},"vehicle_type_id":"4","last_reported":1751113140,"current_range_meters":8800,"station_id":"ce4bhgp2rcd13ifvqfc0","pricing_plan_id":"cebpf4jnsgd1na2vs0mg"},{"bike_id":"1c8ab180-05fd-405f-9922-b2b2c2d5142f","system_id":"levelo_inurba_marseille","lat":43.32089,"lon":5.36789,"is_reserved":false,"is_disabled":false,"rental_uris":{"android":"levelo://app?vid=1c8ab180-05fd-405f-9922-b2b2c2d5142f","ios":"levelo://app?vid=1c8ab180-05fd-405f-9922-b2b2c2d5142f"},"vehicle_type_id":"4","last_reported":1751113140,"current_range_meters":8800,"station_id":"ce4bhrh2rcd13ifvqhug","pricing_plan_id":"cebpf4jnsgd1na2vs0mg"},{"bike_id":"ca130e0e-b5f2-49ee-bd1a-92ac18c0bde9","system_id":"levelo_inurba_marseille","lat":43.26803,"lon":5.40269,"is_reserved":false,"is_disabled":false,"rental_uris":{"android":"levelo://app?vid=ca130e0e-b5f2-49ee-bd1a-92ac18c0bde9","ios":"levelo://app?vid=ca130e0e-b5f2-49ee-bd1a-92ac18c0bde9"},"vehicle_type_id":"4","last_reported":1751113140,"current_range_meters":8800,"station_id":"ce501612rcd8frsf0b60","pricing_plan_id":"cebpf4jnsgd1na2vs0mg"},{"bike_id":"e82263ce-dd2d-4a79-9899-4981b8ea332c","system_id":"levelo_inurba_marseille","lat":43.28282,"lon":5.3508,"is_reserved":false,"is_disabled":false,"rental_uris":{"android":"levelo://app?vid=e82263ce-dd2d-4a79-9899-4981b8ea332c","ios":"levelo://app?vid=e82263ce-dd2d-4a79-9899-4981b8ea332c"},"vehicle_type_id":"4","last_reported":1751113140,"current_range_meters":9200,"station_id":"ce4bhbp2rcd13ifvqerg","pricing_plan_id":"cebpf4jnsgd1na2vs0mg"},{"bike_id":"03047c0b-d3f2-4299-b292-04c7da92b080","system_id":"levelo_inurba_marseille","lat":43.21188,"lon":5.35081,"is_reserved":false,"is_disabled":false,"rental_uris":{"android":"levelo://app?vid=03047c0b-d3f2-4299-b292-04c7da92b080","ios":"levelo://app?vid=03047c0b-d3f2-4299-b292-04c7da92b080"},"vehicle_type_id":"4","last_reported":1751113140,"current_range_meters":9600,"station_id":"","pricing_plan_id":"cebpf4jnsgd1na2vs0mg"},{"bike_id":"1e73d14b-1cf0-401c-8624-4ee1a7d61461","system_id":"levelo_inurba_marseille","lat":43.29303,"lon":5.37461,"is_reserved":false,"is_disabled":false,"rental_uris":{"android":"levelo://app?vid=1e73d14b-1cf0-401c-8624-4ee1a7d61461","ios":"levelo://app?vid=1e73d14b-1cf0-401c-8624-4ee1a7d61461"},"vehicle_type_id":"4","last_reported":1751113140,"current_range_meters":9600,"station_id":"ce4bgi12rcd13ifvqb70","pricing_plan_id":"cebpf4jnsgd1na2vs0mg"},{"bike_id":"10e0cc2e-10cc-4c9b-ba21-9d4c088b1b63","system_id":"levelo_inurba_marseille","lat":43.29895,"lon":5.43659,"is_reserved":false,"is_disabled":false,"rental_uris":{"android":"levelo://app?vid=10e0cc2e-10cc-4c9b-ba21-9d4c088b1b63","ios":"levelo://app?vid=10e0cc2e-10cc-4c9b-ba21-9d4c088b1b63"},"vehicle_type_id":"4","last_reported":1751113140,"current_range_meters":9600,"station_id":"ce4bhpp2rcd13ifvqhfg","pricing_plan_id":"cebpf4jnsgd1na2vs0mg"},{"bike_id":"a088378f-0ce3-484e-8679-92e899fe3aea","system_id":"levelo_inurba_marseille","lat":43.26941,"lon":5.40249,"is_reserved":false,"is_disabled":false,"rental_uris":{"android":"levelo://app?vid=a088378f-0ce3-484e-8679-92e899fe3aea","ios":"levelo://app?vid=a088378f-0ce3-484e-8679-92e899fe3aea"},"vehicle_type_id":"4","last_reported":1751113140,"current_range_meters":9600,"station_id":"cjm6bp8fraef2m0cb0m0","pricing_plan_id":"cebpf4jnsgd1na2vs0mg"},{"bike_id":"758c0e08-57a3-44f0-a876-58cfa4e8c718","system_id":"levelo_inurba_marseille","lat":43.28706,"lon":5.37393,"is_reserved":false,"is_disabled":false,"rental_uris":{"android":"levelo://app?vid=758c0e08-57a3-44f0-a876-58cfa4e8c718","ios":"levelo://app?vid=758c0e08-57a3-44f0-a876-58cfa4e8c718"},"vehicle_type_id":"4","last_reported":1751113140,"current_range_meters":10000,"station_id":"ce4bh3p2rcd13ifvqdq0","pricing_plan_id":"cebpf4jnsgd1na2vs0mg"},{"bike_id":"765bb39c-83ec-40de-ad4e-24f52d085827","system_id":"levelo_inurba_marseille","lat":43.2869,"lon":5.37391,"is_reserved":false,"is_disabled":false,"rental_uris":{"android":"levelo://app?vid=765bb39c-83ec-40de-ad4e-24f52d085827","ios":"levelo://app?vid=765bb39c-83ec-40de-ad4e-24f52d085827"},"vehicle_type_id":"4","last_reported":1751113140,"current_range_meters":10000,"station_id":"ce4bh3p2rcd13ifvqdq0","pricing_plan_id":"cebpf4jnsgd1na2vs0mg"},{"bike_id":"0b957ade-6683-45a3-971a-83842cef1a0e","system_id":"levelo_inurba_marseille","lat":43.27375,"lon":5.36262,"is_reserved":false,"is_disabled":false,"rental_uris":{"android":"levelo://app?vid=0b957ade-6683-45a3-971a-83842cef1a0e","ios":"levelo://app?vid=0b957ade-6683-45a3-971a-83842cef1a0e"},"vehicle_type_id":"4","last_reported":1751113140,"current_range_meters":10000,"station_id":"ce4bhbh2rcd13ifvqeo0","pricing_plan_id":"cebpf4jnsgd1na2vs0mg"},{"bike_id":"f48fdea1-2a26-4196-80fe-6c19cdd467cf","system_id":"levelo_inurba_marseille","lat":43.31066,"lon":5.42433,"is_reserved":false,"is_disabled":false,"rental_uris":{"android":"levelo://app?vid=f48fdea1-2a26-4196-80fe-6c19cdd467cf","ios":"levelo://app?vid=f48fdea1-2a26-4196-80fe-6c19cdd467cf"},"vehicle_type_id":"4","last_reported":1751113140,"current_range_meters":10000,"station_id":"ce4bhp92rcd13ifvqhag","pricing_plan_id":"cebpf4jnsgd1na2vs0mg"},{"bike_id":"d5e70777-ad97-4594-91b6-43ede9611b14","system_id":"levelo_inurba_marseille","lat":43.321133,"lon":5.36773,"is_reserved":false,"is_disabled":false,"rental_uris":{"android":"levelo://app?vid=d5e70777-ad97-4594-91b6-43ede9611b14","ios":"levelo://app?vid=d5e70777-ad97-4594-91b6-43ede9611b14"},"vehicle_type_id":"4","last_reported":1751113140,"current_range_meters":10000,"station_id":"ce4bhrh2rcd13ifvqhug","pricing_plan_id":"cebpf4jnsgd1na2vs0mg"},{"bike_id":"d641659c-64fc-486a-91a2-3cc8072043e6","system_id":"levelo_inurba_marseille","lat":43.32101,"lon":5.36766,"is_reserved":false,"is_disabled":false,"rental_uris":{"android":"levelo://app?vid=d641659c-64fc-486a-91a2-3cc8072043e6","ios":"levelo://app?vid=d641659c-64fc-486a-91a2-3cc8072043e6"},"vehicle_type_id":"4","last_reported":1751113140,"current_range_meters":10000,"station_id":"ce4bhrh2rcd13ifvqhug","pricing_plan_id":"cebpf4jnsgd1na2vs0mg"},{"bike_id":"c92b1d14-6727-44c4-b524-81490e184e51","system_id":"levelo_inurba_marseille","lat":43.29844,"lon":5.36248,"is_reserved":false,"is_disabled":false,"rental_uris":{"android":"levelo://app?vid=c92b1d14-6727-44c4-b524-81490e184e51","ios":"levelo://app?vid=c92b1d14-6727-44c4-b524-81490e184e51"},"vehicle_type_id":"4","last_reported":1751113140,"current_range_meters":10800,"station_id":"ce4bgpp2rcd13ifvqc3g","pricing_plan_id":"cebpf4jnsgd1na2vs0mg"},{"bike_id":"efdd6725-342c-453f-a9fe-876a495a74f5","system_id":"levelo_inurba_marseille","lat":43.26681,"lon":5.38271,"is_reserved":false,"is_disabled":false,"rental_uris":{"android":"levelo://app?vid=efdd6725-342c-453f-a9fe-876a495a74f5","ios":"levelo://app?vid=efdd6725-342c-453f-a9fe-876a495a74f5"},"vehicle_type_id":"4","last_reported":1751113140,"current_range_meters":10800,"station_id":"ce4bhg92rcd13ifvqf90","pricing_plan_id":"cebpf4jnsgd1na2vs0mg"},{"bike_id":"c3dd0795-fd90-4261-9ac0-8b9b03f129c6","system_id":"levelo_inurba_marseille","lat":43.26026,"lon":5.37548,"is_reserved":false,"is_disabled":false,"rental_uris":{"android":"levelo://app?vid=c3dd0795-fd90-4261-9ac0-8b9b03f129c6","ios":"levelo://app?vid=c3dd0795-fd90-4261-9ac0-8b9b03f129c6"},"vehicle_type_id":"4","last_reported":1751113140,"current_range_meters":10800,"station_id":"ce4bhgh2rcd13ifvqfa0","pricing_plan_id":"cebpf4jnsgd1na2vs0mg"},{"bike_id":"e6ce70f7-9138-485c-a4db-2c9174614cff","system_id":"levelo_inurba_marseille","lat":43.31779,"lon":5.36851,"is_reserved":false,"is_disabled":false,"rental_uris":{"android":"levelo://app?vid=e6ce70f7-9138-485c-a4db-2c9174614cff","ios":"levelo://app?vid=e6ce70f7-9138-485c-a4db-2c9174614cff"},"vehicle_type_id":"4","last_reported":1751113140,"current_range_meters":11200,"station_id":"","pricing_plan_id":"cebpf4jnsgd1na2vs0mg"},{"bike_id":"13726ea4-91b3-4b24-87ce-db653217d50c","system_id":"levelo_inurba_marseille","lat":43.32105,"lon":5.36779,"is_reserved":false,"is_disabled":false,"rental_uris":{"android":"levelo://app?vid=13726ea4-91b3-4b24-87ce-db653217d50c","ios":"levelo://app?vid=13726ea4-91b3-4b24-87ce-db653217d50c"},"vehicle_type_id":"4","last_reported":1751113140,"current_range_meters":11200,"station_id":"ce4bhrh2rcd13ifvqhug","pricing_plan_id":"cebpf4jnsgd1na2vs0mg"},{"bike_id":"bbc4a376-bee7-4ad5-a49a-1022d27c1489","system_id":"levelo_inurba_marseille","lat":43.3209,"lon":5.36775,"is_reserved":false,"is_disabled":false,"rental_uris":{"android":"levelo://app?vid=bbc4a376-bee7-4ad5-a49a-1022d27c1489","ios":"levelo://app?vid=bbc4a376-bee7-4ad5-a49a-1022d27c1489"},"vehicle_type_id":"4","last_reported":1751113140,"current_range_meters":11200,"station_id":"ce4bhrh2rcd13ifvqhug","pricing_plan_id":"cebpf4jnsgd1na2vs0mg"},{"bike_id":"4d853dc4-7680-4e64-a5ae-0996af5fc20b","system_id":"levelo_inurba_marseille","lat":43.32104,"lon":5.36775,"is_reserved":false,"is_disabled":false,"rental_uris":{"android":"levelo://app?vid=4d853dc4-7680-4e64-a5ae-0996af5fc20b","ios":"levelo://app?vid=4d853dc4-7680-4e64-a5ae-0996af5fc20b"},"vehicle_type_id":"4","last_reported":1751113140,"current_range_meters":11200,"station_id":"ce4bhrh2rcd13ifvqhug","pricing_plan_id":"cebpf4jnsgd1na2vs0mg"},{"bike_id":"f32e2464-38a7-4bae-860f-e45dbc6518be","system_id":"levelo_inurba_marseille","lat":43.29567,"lon":5.37528,"is_reserved":false,"is_disabled":false,"rental_uris":{"android":"levelo://app?vid=f32e2464-38a7-4bae-860f-e45dbc6518be","ios":"levelo://app?vid=f32e2464-38a7-4bae-860f-e45dbc6518be"},"vehicle_type_id":"4","last_reported":1751113140,"current_range_meters":11600,"station_id":"ce4bgh92rcd13ifvqb50","pricing_plan_id":"cebpf4jnsgd1na2vs0mg"},{"bike_id":"950cf2ce-806b-4570-a967-5e05bef2b48a","system_id":"levelo_inurba_marseille","lat":43.30146,"lon":5.38085,"is_reserved":false,"is_disabled":false,"rental_uris":{"android":"levelo://app?vid=950cf2ce-806b-4570-a967-5e05bef2b48a","ios":"levelo://app?vid=950cf2ce-806b-4570-a967-5e05bef2b48a"},"vehicle_type_id":"4","last_reported":1751113140,"current_range_meters":11600,"station_id":"ce4bgjp2rcd13ifvqbh0","pricing_plan_id":"cebpf4jnsgd1na2vs0mg"},{"bike_id":"d975ce47-fbe5-4778-8ddc-17afb03c0591","system_id":"levelo_inurba_marseille","lat":43.28489,"lon":5.38564,"is_reserved":false,"is_disabled":false,"rental_uris":{"android":"levelo://app?vid=d975ce47-fbe5-4778-8ddc-17afb03c0591","ios":"levelo://app?vid=d975ce47-fbe5-4778-8ddc-17afb03c0591"},"vehicle_type_id":"4","last_reported":1751113140,"current_range_meters":11600,"station_id":"ce4bh8p2rcd13ifvqeb0","pricing_plan_id":"cebpf4jnsgd1na2vs0mg"},{"bike_id":"730ff519-24e5-41b4-94ba-0c3302edc1d8","system_id":"levelo_inurba_marseille","lat":43.24813,"lon":5.37438,"is_reserved":false,"is_disabled":false,"rental_uris":{"android":"levelo://app?vid=730ff519-24e5-41b4-94ba-0c3302edc1d8","ios":"levelo://app?vid=730ff519-24e5-41b4-94ba-0c3302edc1d8"},"vehicle_type_id":"4","last_reported":1751113140,"current_range_meters":11600,"station_id":"ce4bhgh2rcd13ifvqfb0","pricing_plan_id":"cebpf4jnsgd1na2vs0mg"},{"bike_id":"a4bd29ca-f4b9-4a98-ad42-e38dc2d3b360","system_id":"levelo_inurba_marseille","lat":43.32661,"lon":5.40984,"is_reserved":false,"is_disabled":false,"rental_uris":{"android":"levelo://app?vid=a4bd29ca-f4b9-4a98-ad42-e38dc2d3b360","ios":"levelo://app?vid=a4bd29ca-f4b9-4a98-ad42-e38dc2d3b360"},"vehicle_type_id":"4","last_reported":1751113140,"current_range_meters":11600,"station_id":"ce4bhpp2rcd13ifvqhgg","pricing_plan_id":"cebpf4jnsgd1na2vs0mg"},{"bike_id":"a2588648-26dc-4121-bee2-c283e3f6b0c1","system_id":"levelo_inurba_marseille","lat":43.34123,"lon":5.4092,"is_reserved":false,"is_disabled":false,"rental_uris":{"android":"levelo://app?vid=a2588648-26dc-4121-bee2-c283e3f6b0c1","ios":"levelo://app?vid=a2588648-26dc-4121-bee2-c283e3f6b0c1"},"vehicle_type_id":"4","last_reported":1751113140,"current_range_meters":11600,"station_id":"ce4bhqh2rcd13ifvqhlg","pricing_plan_id":"cebpf4jnsgd1na2vs0mg"},{"bike_id":"3d3ec545-9ec4-464d-9d6e-99a3f82f7bd5","system_id":"levelo_inurba_marseille","lat":43.28622,"lon":5.37064,"is_reserved":false,"is_disabled":false,"rental_uris":{"android":"levelo://app?vid=3d3ec545-9ec4-464d-9d6e-99a3f82f7bd5","ios":"levelo://app?vid=3d3ec545-9ec4-464d-9d6e-99a3f82f7bd5"},"vehicle_type_id":"4","last_reported":1751113140,"current_range_meters":11600,"station_id":"ce4bht12rcd13ifvqi60","pricing_plan_id":"cebpf4jnsgd1na2vs0mg"},{"bike_id":"b266b36d-c328-4691-8298-fd36d6e08d51","system_id":"levelo_inurba_marseille","lat":43.22933,"lon":5.35393,"is_reserved":false,"is_disabled":false,"rental_uris":{"android":"levelo://app?vid=b266b36d-c328-4691-8298-fd36d6e08d51","ios":"levelo://app?vid=b266b36d-c328-4691-8298-fd36d6e08d51"},"vehicle_type_id":"4","last_reported":1751113140,"current_range_meters":11600,"station_id":"cpo3532slgdg3j2ikp40","pricing_plan_id":"cebpf4jnsgd1na2vs0mg"},{"bike_id":"7e413280-27cd-46c3-bfe2-c903a6806964","system_id":"levelo_inurba_marseille","lat":43.28708,"lon":5.3742,"is_reserved":false,"is_disabled":false,"rental_uris":{"android":"levelo://app?vid=7e413280-27cd-46c3-bfe2-c903a6806964","ios":"levelo://app?vid=7e413280-27cd-46c3-bfe2-c903a6806964"},"vehicle_type_id":"4","last_reported":1751113140,"current_range_meters":12000,"station_id":"ce4bh3p2rcd13ifvqdq0","pricing_plan_id":"cebpf4jnsgd1na2vs0mg"},{"bike_id":"f1953887-1b02-447a-bc77-4e2cfee8acd9","system_id":"levelo_inurba_marseille","lat":43.27891,"lon":5.39601,"is_reserved":false,"is_disabled":false,"rental_uris":{"android":"levelo://app?vid=f1953887-1b02-447a-bc77-4e2cfee8acd9","ios":"levelo://app?vid=f1953887-1b02-447a-bc77-4e2cfee8acd9"},"vehicle_type_id":"4","last_reported":1751113140,"current_range_meters":12000,"station_id":"ce4bhf92rcd13ifvqf40","pricing_plan_id":"cebpf4jnsgd1na2vs0mg"},{"bike_id":"c784de7c-de94-4d78-b759-456a881f31cb","system_id":"levelo_inurba_marseille","lat":43.28154,"lon":5.42664,"is_reserved":false,"is_disabled":false,"rental_uris":{"android":"levelo://app?vid=c784de7c-de94-4d78-b759-456a881f31cb","ios":"levelo://app?vid=c784de7c-de94-4d78-b759-456a881f31cb"},"vehicle_type_id":"4","last_reported":1751113140,"current_range_meters":12000,"station_id":"ce4bhnh2rcd13ifvqgug","pricing_plan_id":"cebpf4jnsgd1na2vs0mg"},{"bike_id":"2cbd26d7-8ccb-4bca-b892-7ed090bc3322","system_id":"levelo_inurba_marseille","lat":43.23202,"lon":5.35544,"is_reserved":false,"is_disabled":false,"rental_uris":{"android":"levelo://app?vid=2cbd26d7-8ccb-4bca-b892-7ed090bc3322","ios":"levelo://app?vid=2cbd26d7-8ccb-4bca-b892-7ed090bc3322"},"vehicle_type_id":"4","last_reported":1751113140,"current_range_meters":12000,"station_id":"ce4bhu92rcd13ifvqi70","pricing_plan_id":"cebpf4jnsgd1na2vs0mg"},{"bike_id":"2b902ddb-2c8c-48f9-932c-c7dd3cad3b78","system_id":"levelo_inurba_marseille","lat":43.24166,"lon":5.36397,"is_reserved":false,"is_disabled":false,"rental_uris":{"android":"levelo://app?vid=2b902ddb-2c8c-48f9-932c-c7dd3cad3b78","ios":"levelo://app?vid=2b902ddb-2c8c-48f9-932c-c7dd3cad3b78"},"vehicle_type_id":"4","last_reported":1751113140,"current_range_meters":12000,"station_id":"cpo36qri1sfpv3e86is0","pricing_plan_id":"cebpf4jnsgd1na2vs0mg"},{"bike_id":"8a50aac5-39f1-4536-bea7-43efb3a7f1fe","system_id":"levelo_inurba_marseille","lat":43.21758,"lon":5.346,"is_reserved":false,"is_disabled":false,"rental_uris":{"android":"levelo://app?vid=8a50aac5-39f1-4536-bea7-43efb3a7f1fe","ios":"levelo://app?vid=8a50aac5-39f1-4536-bea7-43efb3a7f1fe"},"vehicle_type_id":"4","last_reported":1751113140,"current_range_meters":12000,"station_id":"st_cvj6r9ubvosntc0bgbag","pricing_plan_id":"cebpf4jnsgd1na2vs0mg"},{"bike_id":"44b677c8-76ed-4eac-8888-58151f9d5d6e","system_id":"levelo_inurba_marseille","lat":43.319548,"lon":5.367545,"is_reserved":false,"is_disabled":false,"rental_uris":{"android":"levelo://app?vid=44b677c8-76ed-4eac-8888-58151f9d5d6e","ios":"levelo://app?vid=44b677c8-76ed-4eac-8888-58151f9d5d6e"},"vehicle_type_id":"4","last_reported":1751113140,"current_range_meters":12400,"station_id":"","pricing_plan_id":"cebpf4jnsgd1na2vs0mg"},{"bike_id":"079c0ff8-1ee1-41f7-be6f-b6a3291aeda3","system_id":"levelo_inurba_marseille","lat":43.29977,"lon":5.37174,"is_reserved":false,"is_disabled":false,"rental_uris":{"android":"levelo://app?vid=079c0ff8-1ee1-41f7-be6f-b6a3291aeda3","ios":"levelo://app?vid=079c0ff8-1ee1-41f7-be6f-b6a3291aeda3"},"vehicle_type_id":"4","last_reported":1751113140,"current_range_meters":12400,"station_id":"ce4bgr92rcd13ifvqc7g","pricing_plan_id":"cebpf4jnsgd1na2vs0mg"},{"bike_id":"a02a4cb9-df47-4851-a1e9-0476259e4369","system_id":"levelo_inurba_marseille","lat":43.27377,"lon":5.36257,"is_reserved":false,"is_disabled":false,"rental_uris":{"android":"levelo://app?vid=a02a4cb9-df47-4851-a1e9-0476259e4369","ios":"levelo://app?vid=a02a4cb9-df47-4851-a1e9-0476259e4369"},"vehicle_type_id":"4","last_reported":1751113140,"current_range_meters":12400,"station_id":"ce4bhbh2rcd13ifvqeo0","pricing_plan_id":"cebpf4jnsgd1na2vs0mg"},{"bike_id":"931d1eeb-189b-4aed-9420-06401100ddfa","system_id":"levelo_inurba_marseille","lat":43.28275,"lon":5.35073,"is_reserved":false,"is_disabled":false,"rental_uris":{"android":"levelo://app?vid=931d1eeb-189b-4aed-9420-06401100ddfa","ios":"levelo://app?vid=931d1eeb-189b-4aed-9420-06401100ddfa"},"vehicle_type_id":"4","last_reported":1751113140,"current_range_meters":12400,"station_id":"ce4bhbp2rcd13ifvqerg","pricing_plan_id":"cebpf4jnsgd1na2vs0mg"},{"bike_id":"dd5db90d-00f5-4fb3-90ec-75fbc2136dec","system_id":"levelo_inurba_marseille","lat":43.26691,"lon":5.38265,"is_reserved":false,"is_disabled":false,"rental_uris":{"android":"levelo://app?vid=dd5db90d-00f5-4fb3-90ec-75fbc2136dec","ios":"levelo://app?vid=dd5db90d-00f5-4fb3-90ec-75fbc2136dec"},"vehicle_type_id":"4","last_reported":1751113140,"current_range_meters":12400,"station_id":"ce4bhg92rcd13ifvqf90","pricing_plan_id":"cebpf4jnsgd1na2vs0mg"},{"bike_id":"de50c5e1-d260-4e2a-9d87-29d0d078654e","system_id":"levelo_inurba_marseille","lat":43.23207,"lon":5.3556,"is_reserved":false,"is_disabled":false,"rental_uris":{"android":"levelo://app?vid=de50c5e1-d260-4e2a-9d87-29d0d078654e","ios":"levelo://app?vid=de50c5e1-d260-4e2a-9d87-29d0d078654e"},"vehicle_type_id":"4","last_reported":1751113140,"current_range_meters":12400,"station_id":"ce4bhu92rcd13ifvqi70","pricing_plan_id":"cebpf4jnsgd1na2vs0mg"},{"bike_id":"3e932676-69f4-4d1f-8efe-f04119a399f0","system_id":"levelo_inurba_marseille","lat":43.29853,"lon":5.36284,"is_reserved":false,"is_disabled":false,"rental_uris":{"android":"levelo://app?vid=3e932676-69f4-4d1f-8efe-f04119a399f0","ios":"levelo://app?vid=3e932676-69f4-4d1f-8efe-f04119a399f0"},"vehicle_type_id":"4","last_reported":1751113140,"current_range_meters":12800,"station_id":"ce4bgpp2rcd13ifvqc3g","pricing_plan_id":"cebpf4jnsgd1na2vs0mg"},{"bike_id":"cf984e9c-fafd-4539-8384-f53854da8be6","system_id":"levelo_inurba_marseille","lat":43.27378,"lon":5.36265,"is_reserved":false,"is_disabled":false,"rental_uris":{"android":"levelo://app?vid=cf984e9c-fafd-4539-8384-f53854da8be6","ios":"levelo://app?vid=cf984e9c-fafd-4539-8384-f53854da8be6"},"vehicle_type_id":"4","last_reported":1751113140,"current_range_meters":12800,"station_id":"ce4bhbh2rcd13ifvqeo0","pricing_plan_id":"cebpf4jnsgd1na2vs0mg"},{"bike_id":"e33cafd1-8c4d-4f35-aba6-5250478e97ac","system_id":"levelo_inurba_marseille","lat":43.28411,"lon":5.34987,"is_reserved":false,"is_disabled":false,"rental_uris":{"android":"levelo://app?vid=e33cafd1-8c4d-4f35-aba6-5250478e97ac","ios":"levelo://app?vid=e33cafd1-8c4d-4f35-aba6-5250478e97ac"},"vehicle_type_id":"4","last_reported":1751113140,"current_range_meters":12800,"station_id":"ce4bhbh2rcd13ifvqepg","pricing_plan_id":"cebpf4jnsgd1na2vs0mg"},{"bike_id":"9c63e9b2-2323-48f2-93ab-713cdd6ccb8e","system_id":"levelo_inurba_marseille","lat":43.32056,"lon":5.41592,"is_reserved":false,"is_disabled":false,"rental_uris":{"android":"levelo://app?vid=9c63e9b2-2323-48f2-93ab-713cdd6ccb8e","ios":"levelo://app?vid=9c63e9b2-2323-48f2-93ab-713cdd6ccb8e"},"vehicle_type_id":"4","last_reported":1751113140,"current_range_meters":12800,"station_id":"ce4bhq92rcd13ifvqhkg","pricing_plan_id":"cebpf4jnsgd1na2vs0mg"},{"bike_id":"1ace9177-9433-425c-9204-3e2efa6efd42","system_id":"levelo_inurba_marseille","lat":43.211923,"lon":5.350709,"is_reserved":false,"is_disabled":false,"rental_uris":{"android":"levelo://app?vid=1ace9177-9433-425c-9204-3e2efa6efd42","ios":"levelo://app?vid=1ace9177-9433-425c-9204-3e2efa6efd42"},"vehicle_type_id":"4","last_reported":1751113140,"current_range_meters":12800,"station_id":"st_cvj6sg6p6f1abm77japg","pricing_plan_id":"cebpf4jnsgd1na2vs0mg"},{"bike_id":"ac547ce8-b94f-4324-a96a-5b8f710d982c","system_id":"levelo_inurba_marseille","lat":43.31069,"lon":5.38337,"is_reserved":false,"is_disabled":false,"rental_uris":{"android":"levelo://app?vid=ac547ce8-b94f-4324-a96a-5b8f710d982c","ios":"levelo://app?vid=ac547ce8-b94f-4324-a96a-5b8f710d982c"},"vehicle_type_id":"4","last_reported":1751113140,"current_range_meters":13600,"station_id":"ce4bgv92rcd13ifvqcr0","pricing_plan_id":"cebpf4jnsgd1na2vs0mg"},{"bike_id":"873ce198-d36d-4815-8778-b72bd2ca0116","system_id":"levelo_inurba_marseille","lat":43.32093,"lon":5.36812,"is_reserved":false,"is_disabled":false,"rental_uris":{"android":"levelo://app?vid=873ce198-d36d-4815-8778-b72bd2ca0116","ios":"levelo://app?vid=873ce198-d36d-4815-8778-b72bd2ca0116"},"vehicle_type_id":"4","last_reported":1751113140,"current_range_meters":13600,"station_id":"ce4bhrh2rcd13ifvqhug","pricing_plan_id":"cebpf4jnsgd1na2vs0mg"},{"bike_id":"7a63f1f0-ab92-4431-90a0-628ae7550c2d","system_id":"levelo_inurba_marseille","lat":43.21181,"lon":5.35077,"is_reserved":false,"is_disabled":false,"rental_uris":{"android":"levelo://app?vid=7a63f1f0-ab92-4431-90a0-628ae7550c2d","ios":"levelo://app?vid=7a63f1f0-ab92-4431-90a0-628ae7550c2d"},"vehicle_type_id":"4","last_reported":1751113140,"current_range_meters":13600,"station_id":"st_cvj6sg6p6f1abm77japg","pricing_plan_id":"cebpf4jnsgd1na2vs0mg"},{"bike_id":"12c7fc9f-7c7b-4185-9b2f-badd0c17e36b","system_id":"levelo_inurba_marseille","lat":43.24722,"lon":5.37449,"is_reserved":false,"is_disabled":false,"rental_uris":{"android":"levelo://app?vid=12c7fc9f-7c7b-4185-9b2f-badd0c17e36b","ios":"levelo://app?vid=12c7fc9f-7c7b-4185-9b2f-badd0c17e36b"},"vehicle_type_id":"4","last_reported":1751113140,"current_range_meters":14000,"station_id":"","pricing_plan_id":"cebpf4jnsgd1na2vs0mg"},{"bike_id":"721165c1-ef6f-40cc-8d33-af3a7999864b","system_id":"levelo_inurba_marseille","lat":43.326508,"lon":5.378855,"is_reserved":false,"is_disabled":false,"rental_uris":{"android":"levelo://app?vid=721165c1-ef6f-40cc-8d33-af3a7999864b","ios":"levelo://app?vid=721165c1-ef6f-40cc-8d33-af3a7999864b"},"vehicle_type_id":"4","last_reported":1751113140,"current_range_meters":14000,"station_id":"","pricing_plan_id":"cebpf4jnsgd1na2vs0mg"},{"bike_id":"93fb9e8a-2df2-41a2-afce-e0f72f6b7c05","system_id":"levelo_inurba_marseille","lat":43.23185,"lon":5.40034,"is_reserved":false,"is_disabled":false,"rental_uris":{"android":"levelo://app?vid=93fb9e8a-2df2-41a2-afce-e0f72f6b7c05","ios":"levelo://app?vid=93fb9e8a-2df2-41a2-afce-e0f72f6b7c05"},"vehicle_type_id":"4","last_reported":1751113140,"current_range_meters":14000,"station_id":"ce4bhn12rcd13ifvqgqg","pricing_plan_id":"cebpf4jnsgd1na2vs0mg"},{"bike_id":"a7883090-0e10-4075-944b-a3cca54bc544","system_id":"levelo_inurba_marseille","lat":43.22502,"lon":5.34781,"is_reserved":false,"is_disabled":false,"rental_uris":{"android":"levelo://app?vid=a7883090-0e10-4075-944b-a3cca54bc544","ios":"levelo://app?vid=a7883090-0e10-4075-944b-a3cca54bc544"},"vehicle_type_id":"4","last_reported":1751113140,"current_range_meters":14000,"station_id":"st_cvj5dfep6f1abm77gieg","pricing_plan_id":"cebpf4jnsgd1na2vs0mg"},{"bike_id":"db6aaebb-75a1-4c34-bf9a-52b3d4679d75","system_id":"levelo_inurba_marseille","lat":43.21753,"lon":5.34601,"is_reserved":false,"is_disabled":false,"rental_uris":{"android":"levelo://app?vid=db6aaebb-75a1-4c34-bf9a-52b3d4679d75","ios":"levelo://app?vid=db6aaebb-75a1-4c34-bf9a-52b3d4679d75"},"vehicle_type_id":"4","last_reported":1751113140,"current_range_meters":14000,"station_id":"st_cvj6r9ubvosntc0bgbag","pricing_plan_id":"cebpf4jnsgd1na2vs0mg"},{"bike_id":"762acdc5-9b99-47a0-bda1-ee8060271245","system_id":"levelo_inurba_marseille","lat":43.21192,"lon":5.35075,"is_reserved":false,"is_disabled":false,"rental_uris":{"android":"levelo://app?vid=762acdc5-9b99-47a0-bda1-ee8060271245","ios":"levelo://app?vid=762acdc5-9b99-47a0-bda1-ee8060271245"},"vehicle_type_id":"4","last_reported":1751113140,"current_range_meters":14400,"station_id":"","pricing_plan_id":"cebpf4jnsgd1na2vs0mg"},{"bike_id":"49f4e484-c361-471a-8562-e6b433c05357","system_id":"levelo_inurba_marseille","lat":43.29982,"lon":5.37169,"is_reserved":false,"is_disabled":false,"rental_uris":{"android":"levelo://app?vid=49f4e484-c361-471a-8562-e6b433c05357","ios":"levelo://app?vid=49f4e484-c361-471a-8562-e6b433c05357"},"vehicle_type_id":"4","last_reported":1751113140,"current_range_meters":14400,"station_id":"ce4bgr92rcd13ifvqc7g","pricing_plan_id":"cebpf4jnsgd1na2vs0mg"},{"bike_id":"b7f68847-7ee8-45e5-a2b5-7c6317a6ad64","system_id":"levelo_inurba_marseille","lat":43.28722,"lon":5.37941,"is_reserved":false,"is_disabled":false,"rental_uris":{"android":"levelo://app?vid=b7f68847-7ee8-45e5-a2b5-7c6317a6ad64","ios":"levelo://app?vid=b7f68847-7ee8-45e5-a2b5-7c6317a6ad64"},"vehicle_type_id":"4","last_reported":1751113140,"current_range_meters":14400,"station_id":"ce4bh9p2rcd13ifvqec0","pricing_plan_id":"cebpf4jnsgd1na2vs0mg"},{"bike_id":"465d715d-c466-435a-83c2-03d320454a0a","system_id":"levelo_inurba_marseille","lat":43.28408,"lon":5.34985,"is_reserved":false,"is_disabled":false,"rental_uris":{"android":"levelo://app?vid=465d715d-c466-435a-83c2-03d320454a0a","ios":"levelo://app?vid=465d715d-c466-435a-83c2-03d320454a0a"},"vehicle_type_id":"4","last_reported":1751113140,"current_range_meters":14400,"station_id":"ce4bhbh2rcd13ifvqepg","pricing_plan_id":"cebpf4jnsgd1na2vs0mg"},{"bike_id":"32983323-0cd0-407c-af59-7a38a9d92fd7","system_id":"levelo_inurba_marseille","lat":43.23185,"lon":5.39995,"is_reserved":false,"is_disabled":false,"rental_uris":{"android":"levelo://app?vid=32983323-0cd0-407c-af59-7a38a9d92fd7","ios":"levelo://app?vid=32983323-0cd0-407c-af59-7a38a9d92fd7"},"vehicle_type_id":"4","last_reported":1751113140,"current_range_meters":14400,"station_id":"ce4bhn12rcd13ifvqgqg","pricing_plan_id":"cebpf4jnsgd1na2vs0mg"},{"bike_id":"2add4761-f2bd-4330-9651-7afa0a7c6038","system_id":"levelo_inurba_marseille","lat":43.23189,"lon":5.35531,"is_reserved":false,"is_disabled":false,"rental_uris":{"android":"levelo://app?vid=2add4761-f2bd-4330-9651-7afa0a7c6038","ios":"levelo://app?vid=2add4761-f2bd-4330-9651-7afa0a7c6038"},"vehicle_type_id":"4","last_reported":1751113140,"current_range_meters":14400,"station_id":"ce4bhu92rcd13ifvqi70","pricing_plan_id":"cebpf4jnsgd1na2vs0mg"},{"bike_id":"52449cb5-0873-40cf-a836-49412ba8a8ea","system_id":"levelo_inurba_marseille","lat":43.22931,"lon":5.35371,"is_reserved":false,"is_disabled":false,"rental_uris":{"android":"levelo://app?vid=52449cb5-0873-40cf-a836-49412ba8a8ea","ios":"levelo://app?vid=52449cb5-0873-40cf-a836-49412ba8a8ea"},"vehicle_type_id":"4","last_reported":1751113140,"current_range_meters":14400,"station_id":"cpo3532slgdg3j2ikp40","pricing_plan_id":"cebpf4jnsgd1na2vs0mg"},{"bike_id":"14e8ef37-e834-4d76-9946-e98f7a083a2f","system_id":"levelo_inurba_marseille","lat":43.21189,"lon":5.35067,"is_reserved":false,"is_disabled":false,"rental_uris":{"android":"levelo://app?vid=14e8ef37-e834-4d76-9946-e98f7a083a2f","ios":"levelo://app?vid=14e8ef37-e834-4d76-9946-e98f7a083a2f"},"vehicle_type_id":"4","last_reported":1751113140,"current_range_meters":14400,"station_id":"st_cvj6sg6p6f1abm77japg","pricing_plan_id":"cebpf4jnsgd1na2vs0mg"},{"bike_id":"276087b7-2eea-4643-b492-f0f9e8a18e06","system_id":"levelo_inurba_marseille","lat":43.28405,"lon":5.37515,"is_reserved":false,"is_disabled":false,"rental_uris":{"android":"levelo://app?vid=276087b7-2eea-4643-b492-f0f9e8a18e06","ios":"levelo://app?vid=276087b7-2eea-4643-b492-f0f9e8a18e06"},"vehicle_type_id":"4","last_reported":1751113140,"current_range_meters":14800,"station_id":"ce4bh412rcd13ifvqds0","pricing_plan_id":"cebpf4jnsgd1na2vs0mg"},{"bike_id":"f0057ca2-de2d-4464-8902-068dc3677e00","system_id":"levelo_inurba_marseille","lat":43.21199,"lon":5.35071,"is_reserved":false,"is_disabled":false,"rental_uris":{"android":"levelo://app?vid=f0057ca2-de2d-4464-8902-068dc3677e00","ios":"levelo://app?vid=f0057ca2-de2d-4464-8902-068dc3677e00"},"vehicle_type_id":"4","last_reported":1751113140,"current_range_meters":14800,"station_id":"st_cvj6sg6p6f1abm77japg","pricing_plan_id":"cebpf4jnsgd1na2vs0mg"},{"bike_id":"0ca717a1-45d0-467a-befd-9d85a9b7f044","system_id":"levelo_inurba_marseille","lat":43.30311,"lon":5.40124,"is_reserved":false,"is_disabled":false,"rental_uris":{"android":"levelo://app?vid=0ca717a1-45d0-467a-befd-9d85a9b7f044","ios":"levelo://app?vid=0ca717a1-45d0-467a-befd-9d85a9b7f044"},"vehicle_type_id":"4","last_reported":1751113140,"current_range_meters":15200,"station_id":"","pricing_plan_id":"cebpf4jnsgd1na2vs0mg"},{"bike_id":"0c803610-f6e9-41d4-936d-0b433fa62796","system_id":"levelo_inurba_marseille","lat":43.294843,"lon":5.374383,"is_reserved":false,"is_disabled":false,"rental_uris":{"android":"levelo://app?vid=0c803610-f6e9-41d4-936d-0b433fa62796","ios":"levelo://app?vid=0c803610-f6e9-41d4-936d-0b433fa62796"},"vehicle_type_id":"4","last_reported":1751113140,"current_range_meters":15200,"station_id":"","pricing_plan_id":"cebpf4jnsgd1na2vs0mg"},{"bike_id":"03e0de36-bf27-4790-823b-078c473638df","system_id":"levelo_inurba_marseille","lat":43.295892,"lon":5.367404,"is_reserved":false,"is_disabled":false,"rental_uris":{"android":"levelo://app?vid=03e0de36-bf27-4790-823b-078c473638df","ios":"levelo://app?vid=03e0de36-bf27-4790-823b-078c473638df"},"vehicle_type_id":"4","last_reported":1751113140,"current_range_meters":15200,"station_id":"ce4bgph2rcd13ifvqc2g","pricing_plan_id":"cebpf4jnsgd1na2vs0mg"},{"bike_id":"387b6f9a-dc1c-4bf3-a780-978ce0357191","system_id":"levelo_inurba_marseille","lat":43.30529,"lon":5.36506,"is_reserved":false,"is_disabled":false,"rental_uris":{"android":"levelo://app?vid=387b6f9a-dc1c-4bf3-a780-978ce0357191","ios":"levelo://app?vid=387b6f9a-dc1c-4bf3-a780-978ce0357191"},"vehicle_type_id":"4","last_reported":1751113140,"current_range_meters":15200,"station_id":"ce4bgs12rcd13ifvqcag","pricing_plan_id":"cebpf4jnsgd1na2vs0mg"},{"bike_id":"e70acc99-1a30-467f-9721-3375d58ca749","system_id":"levelo_inurba_marseille","lat":43.25066,"lon":5.39538,"is_reserved":false,"is_disabled":false,"rental_uris":{"android":"levelo://app?vid=e70acc99-1a30-467f-9721-3375d58ca749","ios":"levelo://app?vid=e70acc99-1a30-467f-9721-3375d58ca749"},"vehicle_type_id":"4","last_reported":1751113140,"current_range_meters":15200,"station_id":"ce4bhm12rcd13ifvqgkg","pricing_plan_id":"cebpf4jnsgd1na2vs0mg"},{"bike_id":"444a82e0-a8d5-45a8-8562-9e9bfbc32eca","system_id":"levelo_inurba_marseille","lat":43.28611,"lon":5.37065,"is_reserved":false,"is_disabled":false,"rental_uris":{"android":"levelo://app?vid=444a82e0-a8d5-45a8-8562-9e9bfbc32eca","ios":"levelo://app?vid=444a82e0-a8d5-45a8-8562-9e9bfbc32eca"},"vehicle_type_id":"4","last_reported":1751113140,"current_range_meters":15200,"station_id":"ce4bht12rcd13ifvqi60","pricing_plan_id":"cebpf4jnsgd1na2vs0mg"},{"bike_id":"6af79a00-84aa-4908-a347-34425e08c383","system_id":"levelo_inurba_marseille","lat":43.30272,"lon":5.37509,"is_reserved":false,"is_disabled":false,"rental_uris":{"android":"levelo://app?vid=6af79a00-84aa-4908-a347-34425e08c383","ios":"levelo://app?vid=6af79a00-84aa-4908-a347-34425e08c383"},"vehicle_type_id":"4","last_reported":1751113140,"current_range_meters":16000,"station_id":"","pricing_plan_id":"cebpf4jnsgd1na2vs0mg"},{"bike_id":"802b2630-8376-4119-a81f-42e77fef6b85","system_id":"levelo_inurba_marseille","lat":43.2841,"lon":5.34997,"is_reserved":false,"is_disabled":false,"rental_uris":{"android":"levelo://app?vid=802b2630-8376-4119-a81f-42e77fef6b85","ios":"levelo://app?vid=802b2630-8376-4119-a81f-42e77fef6b85"},"vehicle_type_id":"4","last_reported":1751113140,"current_range_meters":16000,"station_id":"ce4bhbh2rcd13ifvqepg","pricing_plan_id":"cebpf4jnsgd1na2vs0mg"},{"bike_id":"daf45b22-cd27-4ccb-b47b-ee4b1d2a54cd","system_id":"levelo_inurba_marseille","lat":43.22927,"lon":5.35414,"is_reserved":false,"is_disabled":false,"rental_uris":{"android":"levelo://app?vid=daf45b22-cd27-4ccb-b47b-ee4b1d2a54cd","ios":"levelo://app?vid=daf45b22-cd27-4ccb-b47b-ee4b1d2a54cd"},"vehicle_type_id":"4","last_reported":1751113140,"current_range_meters":16000,"station_id":"cpo3532slgdg3j2ikp40","pricing_plan_id":"cebpf4jnsgd1na2vs0mg"},{"bike_id":"3d04c2f3-ce69-444d-bb8e-7994d4bffe2c","system_id":"levelo_inurba_marseille","lat":43.29634,"lon":5.37164,"is_reserved":false,"is_disabled":false,"rental_uris":{"android":"levelo://app?vid=3d04c2f3-ce69-444d-bb8e-7994d4bffe2c","ios":"levelo://app?vid=3d04c2f3-ce69-444d-bb8e-7994d4bffe2c"},"vehicle_type_id":"4","last_reported":1751113140,"current_range_meters":16400,"station_id":"ce4bgnh2rcd13ifvqc0g","pricing_plan_id":"cebpf4jnsgd1na2vs0mg"},{"bike_id":"5b083d6d-ff5e-4684-a4d8-69cd6ecfdee4","system_id":"levelo_inurba_marseille","lat":43.3054,"lon":5.36529,"is_reserved":false,"is_disabled":false,"rental_uris":{"android":"levelo://app?vid=5b083d6d-ff5e-4684-a4d8-69cd6ecfdee4","ios":"levelo://app?vid=5b083d6d-ff5e-4684-a4d8-69cd6ecfdee4"},"vehicle_type_id":"4","last_reported":1751113140,"current_range_meters":16400,"station_id":"ce4bgs12rcd13ifvqcag","pricing_plan_id":"cebpf4jnsgd1na2vs0mg"},{"bike_id":"641e6289-6811-41fe-a848-4459481912e3","system_id":"levelo_inurba_marseille","lat":43.27906,"lon":5.39587,"is_reserved":false,"is_disabled":false,"rental_uris":{"android":"levelo://app?vid=641e6289-6811-41fe-a848-4459481912e3","ios":"levelo://app?vid=641e6289-6811-41fe-a848-4459481912e3"},"vehicle_type_id":"4","last_reported":1751113140,"current_range_meters":16400,"station_id":"ce4bhf92rcd13ifvqf40","pricing_plan_id":"cebpf4jnsgd1na2vs0mg"},{"bike_id":"7025df18-330e-42a4-bc8d-a4cf9b4b300e","system_id":"levelo_inurba_marseille","lat":43.24797,"lon":5.37489,"is_reserved":false,"is_disabled":false,"rental_uris":{"android":"levelo://app?vid=7025df18-330e-42a4-bc8d-a4cf9b4b300e","ios":"levelo://app?vid=7025df18-330e-42a4-bc8d-a4cf9b4b300e"},"vehicle_type_id":"4","last_reported":1751113140,"current_range_meters":16400,"station_id":"ce4bhgh2rcd13ifvqfb0","pricing_plan_id":"cebpf4jnsgd1na2vs0mg"},{"bike_id":"91b5cd28-efa3-4d7f-9b9c-b7871e4d895b","system_id":"levelo_inurba_marseille","lat":43.24537,"lon":5.39529,"is_reserved":false,"is_disabled":false,"rental_uris":{"android":"levelo://app?vid=91b5cd28-efa3-4d7f-9b9c-b7871e4d895b","ios":"levelo://app?vid=91b5cd28-efa3-4d7f-9b9c-b7871e4d895b"},"vehicle_type_id":"4","last_reported":1751113140,"current_range_meters":16400,"station_id":"ce4bhlp2rcd13ifvqgjg","pricing_plan_id":"cebpf4jnsgd1na2vs0mg"},{"bike_id":"f810be2a-3c00-446f-9ba1-1f3840ce349d","system_id":"levelo_inurba_marseille","lat":43.321047,"lon":5.367724,"is_reserved":false,"is_disabled":false,"rental_uris":{"android":"levelo://app?vid=f810be2a-3c00-446f-9ba1-1f3840ce349d","ios":"levelo://app?vid=f810be2a-3c00-446f-9ba1-1f3840ce349d"},"vehicle_type_id":"4","last_reported":1751113140,"current_range_meters":16400,"station_id":"ce4bhrh2rcd13ifvqhug","pricing_plan_id":"cebpf4jnsgd1na2vs0mg"},{"bike_id":"bf525adf-9539-4b47-9dea-a6c9ac31b7a5","system_id":"levelo_inurba_marseille","lat":43.22948,"lon":5.35376,"is_reserved":false,"is_disabled":false,"rental_uris":{"android":"levelo://app?vid=bf525adf-9539-4b47-9dea-a6c9ac31b7a5","ios":"levelo://app?vid=bf525adf-9539-4b47-9dea-a6c9ac31b7a5"},"vehicle_type_id":"4","last_reported":1751113140,"current_range_meters":16400,"station_id":"cpo3532slgdg3j2ikp40","pricing_plan_id":"cebpf4jnsgd1na2vs0mg"},{"bike_id":"c0a2de0a-20e3-4e62-848e-f0dbd6b2e588","system_id":"levelo_inurba_marseille","lat":43.22514,"lon":5.34776,"is_reserved":false,"is_disabled":false,"rental_uris":{"android":"levelo://app?vid=c0a2de0a-20e3-4e62-848e-f0dbd6b2e588","ios":"levelo://app?vid=c0a2de0a-20e3-4e62-848e-f0dbd6b2e588"},"vehicle_type_id":"4","last_reported":1751113140,"current_range_meters":16400,"station_id":"st_cvj5dfep6f1abm77gieg","pricing_plan_id":"cebpf4jnsgd1na2vs0mg"},{"bike_id":"2a9a5366-8dad-42f1-bee6-ffb042c54776","system_id":"levelo_inurba_marseille","lat":43.211912,"lon":5.350722,"is_reserved":false,"is_disabled":false,"rental_uris":{"android":"levelo://app?vid=2a9a5366-8dad-42f1-bee6-ffb042c54776","ios":"levelo://app?vid=2a9a5366-8dad-42f1-bee6-ffb042c54776"},"vehicle_type_id":"4","last_reported":1751113140,"current_range_meters":16400,"station_id":"st_cvj6sg6p6f1abm77japg","pricing_plan_id":"cebpf4jnsgd1na2vs0mg"},{"bike_id":"e5e9e78b-4730-43b1-8651-5c571c638bbb","system_id":"levelo_inurba_marseille","lat":43.21185,"lon":5.35084,"is_reserved":false,"is_disabled":false,"rental_uris":{"android":"levelo://app?vid=e5e9e78b-4730-43b1-8651-5c571c638bbb","ios":"levelo://app?vid=e5e9e78b-4730-43b1-8651-5c571c638bbb"},"vehicle_type_id":"4","last_reported":1751113140,"current_range_meters":16400,"station_id":"st_cvj6sg6p6f1abm77japg","pricing_plan_id":"cebpf4jnsgd1na2vs0mg"},{"bike_id":"d88f7a9b-532d-4f16-a895-aad8a6fdc835","system_id":"levelo_inurba_marseille","lat":43.29592,"lon":5.36758,"is_reserved":false,"is_disabled":false,"rental_uris":{"android":"levelo://app?vid=d88f7a9b-532d-4f16-a895-aad8a6fdc835","ios":"levelo://app?vid=d88f7a9b-532d-4f16-a895-aad8a6fdc835"},"vehicle_type_id":"4","last_reported":1751113140,"current_range_meters":16800,"station_id":"ce4bgph2rcd13ifvqc2g","pricing_plan_id":"cebpf4jnsgd1na2vs0mg"},{"bike_id":"ce4cecc2-bcf9-48a1-ba49-90b1c8131a62","system_id":"levelo_inurba_marseille","lat":43.2694,"lon":5.38922,"is_reserved":false,"is_disabled":false,"rental_uris":{"android":"levelo://app?vid=ce4cecc2-bcf9-48a1-ba49-90b1c8131a62","ios":"levelo://app?vid=ce4cecc2-bcf9-48a1-ba49-90b1c8131a62"},"vehicle_type_id":"4","last_reported":1751113140,"current_range_meters":16800,"station_id":"ce4bhhh2rcd13ifvqfl0","pricing_plan_id":"cebpf4jnsgd1na2vs0mg"},{"bike_id":"0ac37032-b1f2-43a6-a6a4-6ef29f12da66","system_id":"levelo_inurba_marseille","lat":43.25085,"lon":5.39516,"is_reserved":false,"is_disabled":false,"rental_uris":{"android":"levelo://app?vid=0ac37032-b1f2-43a6-a6a4-6ef29f12da66","ios":"levelo://app?vid=0ac37032-b1f2-43a6-a6a4-6ef29f12da66"},"vehicle_type_id":"4","last_reported":1751113140,"current_range_meters":16800,"station_id":"ce4bhm12rcd13ifvqgkg","pricing_plan_id":"cebpf4jnsgd1na2vs0mg"},{"bike_id":"00932398-1409-4e32-8ce3-cdcf5ca03ae2","system_id":"levelo_inurba_marseille","lat":43.21743,"lon":5.34593,"is_reserved":false,"is_disabled":false,"rental_uris":{"android":"levelo://app?vid=00932398-1409-4e32-8ce3-cdcf5ca03ae2","ios":"levelo://app?vid=00932398-1409-4e32-8ce3-cdcf5ca03ae2"},"vehicle_type_id":"4","last_reported":1751113140,"current_range_meters":16800,"station_id":"st_cvj6r9ubvosntc0bgbag","pricing_plan_id":"cebpf4jnsgd1na2vs0mg"},{"bike_id":"6f4919b0-d9c4-4c52-b108-ac1dd2e153c7","system_id":"levelo_inurba_marseille","lat":43.31278,"lon":5.36878,"is_reserved":false,"is_disabled":false,"rental_uris":{"android":"levelo://app?vid=6f4919b0-d9c4-4c52-b108-ac1dd2e153c7","ios":"levelo://app?vid=6f4919b0-d9c4-4c52-b108-ac1dd2e153c7"},"vehicle_type_id":"4","last_reported":1751113140,"current_range_meters":17200,"station_id":"","pricing_plan_id":"cebpf4jnsgd1na2vs0mg"},{"bike_id":"d308c658-b19c-49c0-8014-5506ff26f69a","system_id":"levelo_inurba_marseille","lat":43.2308,"lon":5.40512,"is_reserved":false,"is_disabled":false,"rental_uris":{"android":"levelo://app?vid=d308c658-b19c-49c0-8014-5506ff26f69a","ios":"levelo://app?vid=d308c658-b19c-49c0-8014-5506ff26f69a"},"vehicle_type_id":"4","last_reported":1751113140,"current_range_meters":17200,"station_id":"","pricing_plan_id":"cebpf4jnsgd1na2vs0mg"},{"bike_id":"910652eb-a9d3-4ea9-95a8-4aadc7afb032","system_id":"levelo_inurba_marseille","lat":43.28417,"lon":5.34995,"is_reserved":false,"is_disabled":false,"rental_uris":{"android":"levelo://app?vid=910652eb-a9d3-4ea9-95a8-4aadc7afb032","ios":"levelo://app?vid=910652eb-a9d3-4ea9-95a8-4aadc7afb032"},"vehicle_type_id":"4","last_reported":1751113140,"current_range_meters":17200,"station_id":"ce4bhbh2rcd13ifvqepg","pricing_plan_id":"cebpf4jnsgd1na2vs0mg"},{"bike_id":"2d64210f-bc56-457a-9e63-d4602ac1eb88","system_id":"levelo_inurba_marseille","lat":43.26205,"lon":5.3743,"is_reserved":false,"is_disabled":false,"rental_uris":{"android":"levelo://app?vid=2d64210f-bc56-457a-9e63-d4602ac1eb88","ios":"levelo://app?vid=2d64210f-bc56-457a-9e63-d4602ac1eb88"},"vehicle_type_id":"4","last_reported":1751113140,"current_range_meters":17200,"station_id":"ce4bhgp2rcd13ifvqfc0","pricing_plan_id":"cebpf4jnsgd1na2vs0mg"},{"bike_id":"6fa337ad-535f-434b-85d3-ef8fe2518c55","system_id":"levelo_inurba_marseille","lat":43.30419,"lon":5.41283,"is_reserved":false,"is_disabled":false,"rental_uris":{"android":"levelo://app?vid=6fa337ad-535f-434b-85d3-ef8fe2518c55","ios":"levelo://app?vid=6fa337ad-535f-434b-85d3-ef8fe2518c55"},"vehicle_type_id":"4","last_reported":1751113140,"current_range_meters":17200,"station_id":"ce4bhop2rcd13ifvqh8g","pricing_plan_id":"cebpf4jnsgd1na2vs0mg"},{"bike_id":"e5e3cd02-05df-4eb6-ae19-0375beaace7c","system_id":"levelo_inurba_marseille","lat":43.24163,"lon":5.36414,"is_reserved":false,"is_disabled":false,"rental_uris":{"android":"levelo://app?vid=e5e3cd02-05df-4eb6-ae19-0375beaace7c","ios":"levelo://app?vid=e5e3cd02-05df-4eb6-ae19-0375beaace7c"},"vehicle_type_id":"4","last_reported":1751113140,"current_range_meters":17200,"station_id":"cpo36qri1sfpv3e86is0","pricing_plan_id":"cebpf4jnsgd1na2vs0mg"},{"bike_id":"4f7da216-f811-4c57-9e64-cdee7467bddd","system_id":"levelo_inurba_marseille","lat":43.22494,"lon":5.3479,"is_reserved":false,"is_disabled":false,"rental_uris":{"android":"levelo://app?vid=4f7da216-f811-4c57-9e64-cdee7467bddd","ios":"levelo://app?vid=4f7da216-f811-4c57-9e64-cdee7467bddd"},"vehicle_type_id":"4","last_reported":1751113140,"current_range_meters":17200,"station_id":"st_cvj5dfep6f1abm77gieg","pricing_plan_id":"cebpf4jnsgd1na2vs0mg"},{"bike_id":"9d080034-17a2-44ec-8dea-1ce7ef957941","system_id":"levelo_inurba_marseille","lat":43.21191,"lon":5.35069,"is_reserved":false,"is_disabled":false,"rental_uris":{"android":"levelo://app?vid=9d080034-17a2-44ec-8dea-1ce7ef957941","ios":"levelo://app?vid=9d080034-17a2-44ec-8dea-1ce7ef957941"},"vehicle_type_id":"4","last_reported":1751113140,"current_range_meters":17200,"station_id":"st_cvj6sg6p6f1abm77japg","pricing_plan_id":"cebpf4jnsgd1na2vs0mg"},{"bike_id":"5d5e13a4-10cc-485c-a362-06d02242e666","system_id":"levelo_inurba_marseille","lat":43.211891,"lon":5.350726,"is_reserved":false,"is_disabled":false,"rental_uris":{"android":"levelo://app?vid=5d5e13a4-10cc-485c-a362-06d02242e666","ios":"levelo://app?vid=5d5e13a4-10cc-485c-a362-06d02242e666"},"vehicle_type_id":"4","last_reported":1751113140,"current_range_meters":17200,"station_id":"st_cvj6sg6p6f1abm77japg","pricing_plan_id":"cebpf4jnsgd1na2vs0mg"},{"bike_id":"db821bdc-433a-4b87-abec-9312b5b57723","system_id":"levelo_inurba_marseille","lat":43.21187,"lon":5.35095,"is_reserved":false,"is_disabled":false,"rental_uris":{"android":"levelo://app?vid=db821bdc-433a-4b87-abec-9312b5b57723","ios":"levelo://app?vid=db821bdc-433a-4b87-abec-9312b5b57723"},"vehicle_type_id":"4","last_reported":1751113140,"current_range_meters":17200,"station_id":"st_cvj6sg6p6f1abm77japg","pricing_plan_id":"cebpf4jnsgd1na2vs0mg"},{"bike_id":"b13877a6-4825-4d82-b46b-67fa8ad66c5d","system_id":"levelo_inurba_marseille","lat":43.211926,"lon":5.350697,"is_reserved":false,"is_disabled":false,"rental_uris":{"android":"levelo://app?vid=b13877a6-4825-4d82-b46b-67fa8ad66c5d","ios":"levelo://app?vid=b13877a6-4825-4d82-b46b-67fa8ad66c5d"},"vehicle_type_id":"4","last_reported":1751113140,"current_range_meters":17200,"station_id":"st_cvj6sg6p6f1abm77japg","pricing_plan_id":"cebpf4jnsgd1na2vs0mg"},{"bike_id":"9063a283-04e6-416a-b7fe-b3ed16db32dd","system_id":"levelo_inurba_marseille","lat":43.21188,"lon":5.35064,"is_reserved":false,"is_disabled":false,"rental_uris":{"android":"levelo://app?vid=9063a283-04e6-416a-b7fe-b3ed16db32dd","ios":"levelo://app?vid=9063a283-04e6-416a-b7fe-b3ed16db32dd"},"vehicle_type_id":"4","last_reported":1751113140,"current_range_meters":17200,"station_id":"st_cvj6sg6p6f1abm77japg","pricing_plan_id":"cebpf4jnsgd1na2vs0mg"},{"bike_id":"735fb3ec-51d3-42a0-b0e0-35a6ef148211","system_id":"levelo_inurba_marseille","lat":43.31296,"lon":5.37329,"is_reserved":false,"is_disabled":false,"rental_uris":{"android":"levelo://app?vid=735fb3ec-51d3-42a0-b0e0-35a6ef148211","ios":"levelo://app?vid=735fb3ec-51d3-42a0-b0e0-35a6ef148211"},"vehicle_type_id":"4","last_reported":1751113140,"current_range_meters":17600,"station_id":"","pricing_plan_id":"cebpf4jnsgd1na2vs0mg"},{"bike_id":"d2c83c46-62e4-4cd9-a186-7d665d71ab21","system_id":"levelo_inurba_marseille","lat":43.29256,"lon":5.37619,"is_reserved":false,"is_disabled":false,"rental_uris":{"android":"levelo://app?vid=d2c83c46-62e4-4cd9-a186-7d665d71ab21","ios":"levelo://app?vid=d2c83c46-62e4-4cd9-a186-7d665d71ab21"},"vehicle_type_id":"4","last_reported":1751113140,"current_range_meters":17600,"station_id":"ce4bgi12rcd13ifvqb80","pricing_plan_id":"cebpf4jnsgd1na2vs0mg"},{"bike_id":"f3f4d5d9-9be5-45e0-880c-0af065b9699b","system_id":"levelo_inurba_marseille","lat":43.3122,"lon":5.3685,"is_reserved":false,"is_disabled":false,"rental_uris":{"android":"levelo://app?vid=f3f4d5d9-9be5-45e0-880c-0af065b9699b","ios":"levelo://app?vid=f3f4d5d9-9be5-45e0-880c-0af065b9699b"},"vehicle_type_id":"4","last_reported":1751113140,"current_range_meters":17600,"station_id":"ce4bgl92rcd13ifvqbq0","pricing_plan_id":"cebpf4jnsgd1na2vs0mg"},{"bike_id":"ec1641df-6975-481a-9083-9175bcb48235","system_id":"levelo_inurba_marseille","lat":43.31503,"lon":5.37313,"is_reserved":false,"is_disabled":false,"rental_uris":{"android":"levelo://app?vid=ec1641df-6975-481a-9083-9175bcb48235","ios":"levelo://app?vid=ec1641df-6975-481a-9083-9175bcb48235"},"vehicle_type_id":"4","last_reported":1751113140,"current_range_meters":17600,"station_id":"ce4bgt12rcd13ifvqcd0","pricing_plan_id":"cebpf4jnsgd1na2vs0mg"},{"bike_id":"3367abdb-bfbc-4eaa-8300-39fa59528352","system_id":"levelo_inurba_marseille","lat":43.28262,"lon":5.3507,"is_reserved":false,"is_disabled":false,"rental_uris":{"android":"levelo://app?vid=3367abdb-bfbc-4eaa-8300-39fa59528352","ios":"levelo://app?vid=3367abdb-bfbc-4eaa-8300-39fa59528352"},"vehicle_type_id":"4","last_reported":1751113140,"current_range_meters":17600,"station_id":"ce4bhbp2rcd13ifvqerg","pricing_plan_id":"cebpf4jnsgd1na2vs0mg"},{"bike_id":"1878645a-1a24-4fd6-a45f-79cb1f2bf6e4","system_id":"levelo_inurba_marseille","lat":43.24809,"lon":5.37456,"is_reserved":false,"is_disabled":false,"rental_uris":{"android":"levelo://app?vid=1878645a-1a24-4fd6-a45f-79cb1f2bf6e4","ios":"levelo://app?vid=1878645a-1a24-4fd6-a45f-79cb1f2bf6e4"},"vehicle_type_id":"4","last_reported":1751113140,"current_range_meters":17600,"station_id":"ce4bhgh2rcd13ifvqfb0","pricing_plan_id":"cebpf4jnsgd1na2vs0mg"},{"bike_id":"3dca7288-bece-41f0-9e3c-f330ee111a71","system_id":"levelo_inurba_marseille","lat":43.26963,"lon":5.38637,"is_reserved":false,"is_disabled":false,"rental_uris":{"android":"levelo://app?vid=3dca7288-bece-41f0-9e3c-f330ee111a71","ios":"levelo://app?vid=3dca7288-bece-41f0-9e3c-f330ee111a71"},"vehicle_type_id":"4","last_reported":1751113140,"current_range_meters":17600,"station_id":"ce4bhh92rcd13ifvqfh0","pricing_plan_id":"cebpf4jnsgd1na2vs0mg"},{"bike_id":"1c52be4d-e3b4-48b8-a2fb-9956dafa91b4","system_id":"levelo_inurba_marseille","lat":43.26486,"lon":5.39539,"is_reserved":false,"is_disabled":false,"rental_uris":{"android":"levelo://app?vid=1c52be4d-e3b4-48b8-a2fb-9956dafa91b4","ios":"levelo://app?vid=1c52be4d-e3b4-48b8-a2fb-9956dafa91b4"},"vehicle_type_id":"4","last_reported":1751113140,"current_range_meters":17600,"station_id":"ce4bhi12rcd13ifvqfq0","pricing_plan_id":"cebpf4jnsgd1na2vs0mg"},{"bike_id":"aff4423e-c2af-4b70-b9bd-2bdc17fafffc","system_id":"levelo_inurba_marseille","lat":43.24166,"lon":5.36406,"is_reserved":false,"is_disabled":false,"rental_uris":{"android":"levelo://app?vid=aff4423e-c2af-4b70-b9bd-2bdc17fafffc","ios":"levelo://app?vid=aff4423e-c2af-4b70-b9bd-2bdc17fafffc"},"vehicle_type_id":"4","last_reported":1751113140,"current_range_meters":17600,"station_id":"cpo36qri1sfpv3e86is0","pricing_plan_id":"cebpf4jnsgd1na2vs0mg"},{"bike_id":"c595d0e1-c778-4abe-9c79-a9dd74f54e27","system_id":"levelo_inurba_marseille","lat":43.24471,"lon":5.372254,"is_reserved":false,"is_disabled":false,"rental_uris":{"android":"levelo://app?vid=c595d0e1-c778-4abe-9c79-a9dd74f54e27","ios":"levelo://app?vid=c595d0e1-c778-4abe-9c79-a9dd74f54e27"},"vehicle_type_id":"4","last_reported":1751113140,"current_range_meters":18000,"station_id":"","pricing_plan_id":"cebpf4jnsgd1na2vs0mg"},{"bike_id":"0766b56a-7df9-4b96-bc06-ceced1ee7734","system_id":"levelo_inurba_marseille","lat":43.29169,"lon":5.37157,"is_reserved":false,"is_disabled":false,"rental_uris":{"android":"levelo://app?vid=0766b56a-7df9-4b96-bc06-ceced1ee7734","ios":"levelo://app?vid=0766b56a-7df9-4b96-bc06-ceced1ee7734"},"vehicle_type_id":"4","last_reported":1751113140,"current_range_meters":18000,"station_id":"ce4bha92rcd13ifvqeh0","pricing_plan_id":"cebpf4jnsgd1na2vs0mg"},{"bike_id":"9b7b63b8-e8b5-4be0-9f63-fdd6761bc436","system_id":"levelo_inurba_marseille","lat":43.28274,"lon":5.3507,"is_reserved":false,"is_disabled":false,"rental_uris":{"android":"levelo://app?vid=9b7b63b8-e8b5-4be0-9f63-fdd6761bc436","ios":"levelo://app?vid=9b7b63b8-e8b5-4be0-9f63-fdd6761bc436"},"vehicle_type_id":"4","last_reported":1751113140,"current_range_meters":18000,"station_id":"ce4bhbp2rcd13ifvqerg","pricing_plan_id":"cebpf4jnsgd1na2vs0mg"},{"bike_id":"37d19bb1-924a-4481-81ad-150c3a97924b","system_id":"levelo_inurba_marseille","lat":43.24388,"lon":5.37056,"is_reserved":false,"is_disabled":false,"rental_uris":{"android":"levelo://app?vid=37d19bb1-924a-4481-81ad-150c3a97924b","ios":"levelo://app?vid=37d19bb1-924a-4481-81ad-150c3a97924b"},"vehicle_type_id":"4","last_reported":1751113140,"current_range_meters":18000,"station_id":"ce4bhhh2rcd13ifvqfk0","pricing_plan_id":"cebpf4jnsgd1na2vs0mg"},{"bike_id":"825e166b-6115-40a8-8f2f-179c774061fd","system_id":"levelo_inurba_marseille","lat":43.21749,"lon":5.34614,"is_reserved":false,"is_disabled":false,"rental_uris":{"android":"levelo://app?vid=825e166b-6115-40a8-8f2f-179c774061fd","ios":"levelo://app?vid=825e166b-6115-40a8-8f2f-179c774061fd"},"vehicle_type_id":"4","last_reported":1751113140,"current_range_meters":18000,"station_id":"st_cvj6r9ubvosntc0bgbag","pricing_plan_id":"cebpf4jnsgd1na2vs0mg"},{"bike_id":"8e41df63-5922-4cd3-94e1-83a309f71dc9","system_id":"levelo_inurba_marseille","lat":43.21189,"lon":5.3506,"is_reserved":false,"is_disabled":false,"rental_uris":{"android":"levelo://app?vid=8e41df63-5922-4cd3-94e1-83a309f71dc9","ios":"levelo://app?vid=8e41df63-5922-4cd3-94e1-83a309f71dc9"},"vehicle_type_id":"4","last_reported":1751113140,"current_range_meters":18000,"station_id":"st_cvj6sg6p6f1abm77japg","pricing_plan_id":"cebpf4jnsgd1na2vs0mg"},{"bike_id":"e74c12e3-87e0-4b8a-83be-385330dd67e5","system_id":"levelo_inurba_marseille","lat":43.21187,"lon":5.35071,"is_reserved":false,"is_disabled":false,"rental_uris":{"android":"levelo://app?vid=e74c12e3-87e0-4b8a-83be-385330dd67e5","ios":"levelo://app?vid=e74c12e3-87e0-4b8a-83be-385330dd67e5"},"vehicle_type_id":"4","last_reported":1751113140,"current_range_meters":18000,"station_id":"st_cvj6sg6p6f1abm77japg","pricing_plan_id":"cebpf4jnsgd1na2vs0mg"},{"bike_id":"00232df6-47e0-4159-9a64-03051f9ea3a1","system_id":"levelo_inurba_marseille","lat":43.28117,"lon":5.3989,"is_reserved":false,"is_disabled":false,"rental_uris":{"android":"levelo://app?vid=00232df6-47e0-4159-9a64-03051f9ea3a1","ios":"levelo://app?vid=00232df6-47e0-4159-9a64-03051f9ea3a1"},"vehicle_type_id":"4","last_reported":1751113140,"current_range_meters":18800,"station_id":"","pricing_plan_id":"cebpf4jnsgd1na2vs0mg"},{"bike_id":"9c1a4e53-f207-44b9-be6d-d8c5ebfd8ff6","system_id":"levelo_inurba_marseille","lat":43.27582,"lon":5.36041,"is_reserved":false,"is_disabled":false,"rental_uris":{"android":"levelo://app?vid=9c1a4e53-f207-44b9-be6d-d8c5ebfd8ff6","ios":"levelo://app?vid=9c1a4e53-f207-44b9-be6d-d8c5ebfd8ff6"},"vehicle_type_id":"4","last_reported":1751113140,"current_range_meters":18800,"station_id":"ce4bgj92rcd13ifvqbe0","pricing_plan_id":"cebpf4jnsgd1na2vs0mg"},{"bike_id":"b18670cb-dfc0-44c9-9f9a-405cfe4ca685","system_id":"levelo_inurba_marseille","lat":43.273752,"lon":5.362604,"is_reserved":false,"is_disabled":false,"rental_uris":{"android":"levelo://app?vid=b18670cb-dfc0-44c9-9f9a-405cfe4ca685","ios":"levelo://app?vid=b18670cb-dfc0-44c9-9f9a-405cfe4ca685"},"vehicle_type_id":"4","last_reported":1751113140,"current_range_meters":18800,"station_id":"ce4bhbh2rcd13ifvqeo0","pricing_plan_id":"cebpf4jnsgd1na2vs0mg"},{"bike_id":"a1c95680-b010-4145-91d7-f19d109cc082","system_id":"levelo_inurba_marseille","lat":43.25572,"lon":5.38243,"is_reserved":false,"is_disabled":false,"rental_uris":{"android":"levelo://app?vid=a1c95680-b010-4145-91d7-f19d109cc082","ios":"levelo://app?vid=a1c95680-b010-4145-91d7-f19d109cc082"},"vehicle_type_id":"4","last_reported":1751113140,"current_range_meters":18800,"station_id":"ce4bhih2rcd13ifvqfs0","pricing_plan_id":"cebpf4jnsgd1na2vs0mg"},{"bike_id":"1c1e2c7a-f6a1-441d-9a07-f1850a88b957","system_id":"levelo_inurba_marseille","lat":43.3266,"lon":5.40986,"is_reserved":false,"is_disabled":false,"rental_uris":{"android":"levelo://app?vid=1c1e2c7a-f6a1-441d-9a07-f1850a88b957","ios":"levelo://app?vid=1c1e2c7a-f6a1-441d-9a07-f1850a88b957"},"vehicle_type_id":"4","last_reported":1751113140,"current_range_meters":18800,"station_id":"ce4bhpp2rcd13ifvqhgg","pricing_plan_id":"cebpf4jnsgd1na2vs0mg"},{"bike_id":"e0d25799-cb17-4211-bfde-68ae2503bf1f","system_id":"levelo_inurba_marseille","lat":43.23061,"lon":5.35522,"is_reserved":false,"is_disabled":false,"rental_uris":{"android":"levelo://app?vid=e0d25799-cb17-4211-bfde-68ae2503bf1f","ios":"levelo://app?vid=e0d25799-cb17-4211-bfde-68ae2503bf1f"},"vehicle_type_id":"4","last_reported":1751113140,"current_range_meters":18800,"station_id":"cpo3342slgdg3j2ifvpg","pricing_plan_id":"cebpf4jnsgd1na2vs0mg"},{"bike_id":"e8ea605e-e138-4e5e-ba06-7b44d8d7c125","system_id":"levelo_inurba_marseille","lat":43.21193,"lon":5.35084,"is_reserved":false,"is_disabled":false,"rental_uris":{"android":"levelo://app?vid=e8ea605e-e138-4e5e-ba06-7b44d8d7c125","ios":"levelo://app?vid=e8ea605e-e138-4e5e-ba06-7b44d8d7c125"},"vehicle_type_id":"4","last_reported":1751113140,"current_range_meters":18800,"station_id":"st_cvj6sg6p6f1abm77japg","pricing_plan_id":"cebpf4jnsgd1na2vs0mg"},{"bike_id":"f982334d-72e8-4b3a-b3eb-f6cf8245eee2","system_id":"levelo_inurba_marseille","lat":43.33763,"lon":5.37415,"is_reserved":false,"is_disabled":false,"rental_uris":{"android":"levelo://app?vid=f982334d-72e8-4b3a-b3eb-f6cf8245eee2","ios":"levelo://app?vid=f982334d-72e8-4b3a-b3eb-f6cf8245eee2"},"vehicle_type_id":"4","last_reported":1751113140,"current_range_meters":19200,"station_id":"","pricing_plan_id":"cebpf4jnsgd1na2vs0mg"},{"bike_id":"3a7e54b5-a2f5-42f3-a085-743ac5e93398","system_id":"levelo_inurba_marseille","lat":43.251917,"lon":5.422027,"is_reserved":false,"is_disabled":false,"rental_uris":{"android":"levelo://app?vid=3a7e54b5-a2f5-42f3-a085-743ac5e93398","ios":"levelo://app?vid=3a7e54b5-a2f5-42f3-a085-743ac5e93398"},"vehicle_type_id":"4","last_reported":1751113140,"current_range_meters":19200,"station_id":"","pricing_plan_id":"cebpf4jnsgd1na2vs0mg"},{"bike_id":"4bedbce9-d21f-44c9-a3e1-a6beae0e0ccb","system_id":"levelo_inurba_marseille","lat":43.2931,"lon":5.37171,"is_reserved":false,"is_disabled":false,"rental_uris":{"android":"levelo://app?vid=4bedbce9-d21f-44c9-a3e1-a6beae0e0ccb","ios":"levelo://app?vid=4bedbce9-d21f-44c9-a3e1-a6beae0e0ccb"},"vehicle_type_id":"4","last_reported":1751113140,"current_range_meters":19200,"station_id":"ce4bgh92rcd13ifvqb40","pricing_plan_id":"cebpf4jnsgd1na2vs0mg"},{"bike_id":"63cd8d22-aafd-45ff-8715-14b5a5b0080b","system_id":"levelo_inurba_marseille","lat":43.309,"lon":5.37145,"is_reserved":false,"is_disabled":false,"rental_uris":{"android":"levelo://app?vid=63cd8d22-aafd-45ff-8715-14b5a5b0080b","ios":"levelo://app?vid=63cd8d22-aafd-45ff-8715-14b5a5b0080b"},"vehicle_type_id":"4","last_reported":1751113140,"current_range_meters":19200,"station_id":"ce4bguh2rcd13ifvqckg","pricing_plan_id":"cebpf4jnsgd1na2vs0mg"},{"bike_id":"fede116f-fe8f-4996-bd86-bef08c43bb15","system_id":"levelo_inurba_marseille","lat":43.284209,"lon":5.349772,"is_reserved":false,"is_disabled":false,"rental_uris":{"android":"levelo://app?vid=fede116f-fe8f-4996-bd86-bef08c43bb15","ios":"levelo://app?vid=fede116f-fe8f-4996-bd86-bef08c43bb15"},"vehicle_type_id":"4","last_reported":1751113140,"current_range_meters":19200,"station_id":"ce4bhbh2rcd13ifvqepg","pricing_plan_id":"cebpf4jnsgd1na2vs0mg"},{"bike_id":"82c07fed-1c62-447f-9cc2-4b151ecb69ca","system_id":"levelo_inurba_marseille","lat":43.24808,"lon":5.37456,"is_reserved":false,"is_disabled":false,"rental_uris":{"android":"levelo://app?vid=82c07fed-1c62-447f-9cc2-4b151ecb69ca","ios":"levelo://app?vid=82c07fed-1c62-447f-9cc2-4b151ecb69ca"},"vehicle_type_id":"4","last_reported":1751113140,"current_range_meters":19200,"station_id":"ce4bhgh2rcd13ifvqfb0","pricing_plan_id":"cebpf4jnsgd1na2vs0mg"},{"bike_id":"4d4b7303-cdfa-4924-93f6-e1c817970ada","system_id":"levelo_inurba_marseille","lat":43.26065,"lon":5.39399,"is_reserved":false,"is_disabled":false,"rental_uris":{"android":"levelo://app?vid=4d4b7303-cdfa-4924-93f6-e1c817970ada","ios":"levelo://app?vid=4d4b7303-cdfa-4924-93f6-e1c817970ada"},"vehicle_type_id":"4","last_reported":1751113140,"current_range_meters":19200,"station_id":"ce4bhh92rcd13ifvqfj0","pricing_plan_id":"cebpf4jnsgd1na2vs0mg"},{"bike_id":"2daac026-6af2-4df0-b9c6-783933c63eee","system_id":"levelo_inurba_marseille","lat":43.26493,"lon":5.39493,"is_reserved":false,"is_disabled":false,"rental_uris":{"android":"levelo://app?vid=2daac026-6af2-4df0-b9c6-783933c63eee","ios":"levelo://app?vid=2daac026-6af2-4df0-b9c6-783933c63eee"},"vehicle_type_id":"4","last_reported":1751113140,"current_range_meters":19200,"station_id":"ce4bhi12rcd13ifvqfq0","pricing_plan_id":"cebpf4jnsgd1na2vs0mg"},{"bike_id":"9d292f0d-bfc0-4079-ac62-767c6fc24ede","system_id":"levelo_inurba_marseille","lat":43.27171,"lon":5.40996,"is_reserved":false,"is_disabled":false,"rental_uris":{"android":"levelo://app?vid=9d292f0d-bfc0-4079-ac62-767c6fc24ede","ios":"levelo://app?vid=9d292f0d-bfc0-4079-ac62-767c6fc24ede"},"vehicle_type_id":"4","last_reported":1751113140,"current_range_meters":19200,"station_id":"ce4bhl12rcd13ifvqgf0","pricing_plan_id":"cebpf4jnsgd1na2vs0mg"},{"bike_id":"9f8040a2-03fa-4290-9359-a234f7e22500","system_id":"levelo_inurba_marseille","lat":43.2956,"lon":5.37511,"is_reserved":false,"is_disabled":false,"rental_uris":{"android":"levelo://app?vid=9f8040a2-03fa-4290-9359-a234f7e22500","ios":"levelo://app?vid=9f8040a2-03fa-4290-9359-a234f7e22500"},"vehicle_type_id":"4","last_reported":1751113140,"current_range_meters":19600,"station_id":"ce4bgh92rcd13ifvqb50","pricing_plan_id":"cebpf4jnsgd1na2vs0mg"},{"bike_id":"a3843d62-0813-47bd-8a42-a3c57232b42a","system_id":"levelo_inurba_marseille","lat":43.31078,"lon":5.38352,"is_reserved":false,"is_disabled":false,"rental_uris":{"android":"levelo://app?vid=a3843d62-0813-47bd-8a42-a3c57232b42a","ios":"levelo://app?vid=a3843d62-0813-47bd-8a42-a3c57232b42a"},"vehicle_type_id":"4","last_reported":1751113140,"current_range_meters":19600,"station_id":"ce4bgv92rcd13ifvqcr0","pricing_plan_id":"cebpf4jnsgd1na2vs0mg"},{"bike_id":"bc0333fd-1397-4952-b6c9-b389233d6324","system_id":"levelo_inurba_marseille","lat":43.25502,"lon":5.3765,"is_reserved":false,"is_disabled":false,"rental_uris":{"android":"levelo://app?vid=bc0333fd-1397-4952-b6c9-b389233d6324","ios":"levelo://app?vid=bc0333fd-1397-4952-b6c9-b389233d6324"},"vehicle_type_id":"4","last_reported":1751113140,"current_range_meters":19600,"station_id":"ce4bhh12rcd13ifvqff0","pricing_plan_id":"cebpf4jnsgd1na2vs0mg"},{"bike_id":"72df8c60-f190-4633-b0af-a27bfeb7314d","system_id":"levelo_inurba_marseille","lat":43.24163,"lon":5.36397,"is_reserved":false,"is_disabled":false,"rental_uris":{"android":"levelo://app?vid=72df8c60-f190-4633-b0af-a27bfeb7314d","ios":"levelo://app?vid=72df8c60-f190-4633-b0af-a27bfeb7314d"},"vehicle_type_id":"4","last_reported":1751113140,"current_range_meters":19600,"station_id":"cpo36qri1sfpv3e86is0","pricing_plan_id":"cebpf4jnsgd1na2vs0mg"},{"bike_id":"39391c58-0ced-47c1-ad0c-ead1501fc7b8","system_id":"levelo_inurba_marseille","lat":43.21762,"lon":5.34603,"is_reserved":false,"is_disabled":false,"rental_uris":{"android":"levelo://app?vid=39391c58-0ced-47c1-ad0c-ead1501fc7b8","ios":"levelo://app?vid=39391c58-0ced-47c1-ad0c-ead1501fc7b8"},"vehicle_type_id":"4","last_reported":1751113140,"current_range_meters":19600,"station_id":"st_cvj6r9ubvosntc0bgbag","pricing_plan_id":"cebpf4jnsgd1na2vs0mg"},{"bike_id":"6e53ad1f-d4f5-4de6-9418-67b290ec993f","system_id":"levelo_inurba_marseille","lat":43.30941,"lon":5.4103,"is_reserved":false,"is_disabled":false,"rental_uris":{"android":"levelo://app?vid=6e53ad1f-d4f5-4de6-9418-67b290ec993f","ios":"levelo://app?vid=6e53ad1f-d4f5-4de6-9418-67b290ec993f"},"vehicle_type_id":"4","last_reported":1751113140,"current_range_meters":20000,"station_id":"","pricing_plan_id":"cebpf4jnsgd1na2vs0mg"},{"bike_id":"3e82f598-9d1d-4257-8afa-a4dc7305de09","system_id":"levelo_inurba_marseille","lat":43.21209,"lon":5.35035,"is_reserved":false,"is_disabled":false,"rental_uris":{"android":"levelo://app?vid=3e82f598-9d1d-4257-8afa-a4dc7305de09","ios":"levelo://app?vid=3e82f598-9d1d-4257-8afa-a4dc7305de09"},"vehicle_type_id":"4","last_reported":1751113140,"current_range_meters":20000,"station_id":"","pricing_plan_id":"cebpf4jnsgd1na2vs0mg"},{"bike_id":"a8e8c878-eec7-465b-ae42-8a34da47b984","system_id":"levelo_inurba_marseille","lat":43.29973,"lon":5.37172,"is_reserved":false,"is_disabled":false,"rental_uris":{"android":"levelo://app?vid=a8e8c878-eec7-465b-ae42-8a34da47b984","ios":"levelo://app?vid=a8e8c878-eec7-465b-ae42-8a34da47b984"},"vehicle_type_id":"4","last_reported":1751113140,"current_range_meters":20000,"station_id":"ce4bgr92rcd13ifvqc7g","pricing_plan_id":"cebpf4jnsgd1na2vs0mg"},{"bike_id":"057b664f-87ea-4974-adc4-1a1cfd4fe97a","system_id":"levelo_inurba_marseille","lat":43.31998,"lon":5.38168,"is_reserved":false,"is_disabled":false,"rental_uris":{"android":"levelo://app?vid=057b664f-87ea-4974-adc4-1a1cfd4fe97a","ios":"levelo://app?vid=057b664f-87ea-4974-adc4-1a1cfd4fe97a"},"vehicle_type_id":"4","last_reported":1751113140,"current_range_meters":20000,"station_id":"ce4bhr12rcd13ifvqhpg","pricing_plan_id":"cebpf4jnsgd1na2vs0mg"},{"bike_id":"e944c186-8ec1-47f8-9675-34444e0957dc","system_id":"levelo_inurba_marseille","lat":43.32481,"lon":5.36578,"is_reserved":false,"is_disabled":false,"rental_uris":{"android":"levelo://app?vid=e944c186-8ec1-47f8-9675-34444e0957dc","ios":"levelo://app?vid=e944c186-8ec1-47f8-9675-34444e0957dc"},"vehicle_type_id":"4","last_reported":1751113140,"current_range_meters":20000,"station_id":"ce4bhs12rcd13ifvqhvg","pricing_plan_id":"cebpf4jnsgd1na2vs0mg"},{"bike_id":"bf24b26e-7f51-4120-9a48-54c87edaa2f7","system_id":"levelo_inurba_marseille","lat":43.21193,"lon":5.35068,"is_reserved":false,"is_disabled":false,"rental_uris":{"android":"levelo://app?vid=bf24b26e-7f51-4120-9a48-54c87edaa2f7","ios":"levelo://app?vid=bf24b26e-7f51-4120-9a48-54c87edaa2f7"},"vehicle_type_id":"4","last_reported":1751113140,"current_range_meters":20000,"station_id":"st_cvj6sg6p6f1abm77japg","pricing_plan_id":"cebpf4jnsgd1na2vs0mg"},{"bike_id":"09cb3b7f-3ebf-4726-ab49-a55d4fd48b3c","system_id":"levelo_inurba_marseille","lat":43.28089,"lon":5.40759,"is_reserved":false,"is_disabled":false,"rental_uris":{"android":"levelo://app?vid=09cb3b7f-3ebf-4726-ab49-a55d4fd48b3c","ios":"levelo://app?vid=09cb3b7f-3ebf-4726-ab49-a55d4fd48b3c"},"vehicle_type_id":"4","last_reported":1751113140,"current_range_meters":20400,"station_id":"","pricing_plan_id":"cebpf4jnsgd1na2vs0mg"},{"bike_id":"7cd73daf-6410-4b72-a872-e5224e9d29ff","system_id":"levelo_inurba_marseille","lat":43.27426,"lon":5.41186,"is_reserved":false,"is_disabled":false,"rental_uris":{"android":"levelo://app?vid=7cd73daf-6410-4b72-a872-e5224e9d29ff","ios":"levelo://app?vid=7cd73daf-6410-4b72-a872-e5224e9d29ff"},"vehicle_type_id":"4","last_reported":1751113140,"current_range_meters":20400,"station_id":"","pricing_plan_id":"cebpf4jnsgd1na2vs0mg"},{"bike_id":"eec58f9f-acf5-4048-a70b-5543298b660b","system_id":"levelo_inurba_marseille","lat":43.28493,"lon":5.38581,"is_reserved":false,"is_disabled":false,"rental_uris":{"android":"levelo://app?vid=eec58f9f-acf5-4048-a70b-5543298b660b","ios":"levelo://app?vid=eec58f9f-acf5-4048-a70b-5543298b660b"},"vehicle_type_id":"4","last_reported":1751113140,"current_range_meters":20400,"station_id":"ce4bh8p2rcd13ifvqeb0","pricing_plan_id":"cebpf4jnsgd1na2vs0mg"},{"bike_id":"b352cade-3d65-4db0-8f94-7eb9864c6f94","system_id":"levelo_inurba_marseille","lat":43.284103,"lon":5.349722,"is_reserved":false,"is_disabled":false,"rental_uris":{"android":"levelo://app?vid=b352cade-3d65-4db0-8f94-7eb9864c6f94","ios":"levelo://app?vid=b352cade-3d65-4db0-8f94-7eb9864c6f94"},"vehicle_type_id":"4","last_reported":1751113140,"current_range_meters":20400,"station_id":"ce4bhbh2rcd13ifvqepg","pricing_plan_id":"cebpf4jnsgd1na2vs0mg"},{"bike_id":"5b4b4e9c-7c9c-4795-a910-99a55d544f3d","system_id":"levelo_inurba_marseille","lat":43.28263,"lon":5.35078,"is_reserved":false,"is_disabled":false,"rental_uris":{"android":"levelo://app?vid=5b4b4e9c-7c9c-4795-a910-99a55d544f3d","ios":"levelo://app?vid=5b4b4e9c-7c9c-4795-a910-99a55d544f3d"},"vehicle_type_id":"4","last_reported":1751113140,"current_range_meters":20400,"station_id":"ce4bhbp2rcd13ifvqerg","pricing_plan_id":"cebpf4jnsgd1na2vs0mg"},{"bike_id":"108380d7-0c6f-4f4b-a7f1-0b1b5aef0f6e","system_id":"levelo_inurba_marseille","lat":43.26562,"lon":5.37279,"is_reserved":false,"is_disabled":false,"rental_uris":{"android":"levelo://app?vid=108380d7-0c6f-4f4b-a7f1-0b1b5aef0f6e","ios":"levelo://app?vid=108380d7-0c6f-4f4b-a7f1-0b1b5aef0f6e"},"vehicle_type_id":"4","last_reported":1751113140,"current_range_meters":20400,"station_id":"ce4bhg12rcd13ifvqf70","pricing_plan_id":"cebpf4jnsgd1na2vs0mg"},{"bike_id":"ed92a9c0-fb64-496e-9fee-b9638536839a","system_id":"levelo_inurba_marseille","lat":43.23184,"lon":5.35531,"is_reserved":false,"is_disabled":false,"rental_uris":{"android":"levelo://app?vid=ed92a9c0-fb64-496e-9fee-b9638536839a","ios":"levelo://app?vid=ed92a9c0-fb64-496e-9fee-b9638536839a"},"vehicle_type_id":"4","last_reported":1751113140,"current_range_meters":20400,"station_id":"ce4bhu92rcd13ifvqi70","pricing_plan_id":"cebpf4jnsgd1na2vs0mg"},