{"last_updated":1711393570,"ttl":30,"version":"2.2","data":{"bikes":[{"bike_id":"5c954502-cb7b-4fef-b4a4-3a443be56713","system_id":"levelo_inurba_marseille","lat":43.31488,"lon":5.37309,"is_reserved":false,"is_disabled":false,"rental_uris":{"android":"levelo://app?vid=5c954502-cb7b-4fef-b4a4-3a443be56713","ios":"levelo://app?vid=5c954502-cb7b-4fef-b4a4-3a443be56713"},"vehicle_type_id":"4","last_reported":1711393570,"current_range_meters":0,"station_id":"ce4bgt12rcd13ifvqcd0","pricing_plan_id":"cebpf4jnsgd1na2vs0mg"},{"bike_id":"f60e54ce-160a-4193-936e-b83a29e04023","system_id":"levelo_inurba_marseille","lat":43.308887,"lon":5.37194,"is_reserved":false,"is_disabled":false,"rental_uris":{"android":"levelo://app?vid=f60e54ce-160a-4193-936e-b83a29e04023","ios":"levelo://app?vid=f60e54ce-160a-4193-936e-b83a29e04023"},"vehicle_type_id":"4","last_reported":1711393570,"current_range_meters":0,"station_id":"ce4bguh2rcd13ifvqckg","pricing_plan_id":"cebpf4jnsgd1na2vs0mg"},{"bike_id":"dec3a290-00b1-4f19-b6b4-d73842f7b8eb","system_id":"levelo_inurba_marseille","lat":43.309034,"lon":5.371783,"is_reserved":false,"is_disabled":false,"rental_uris":{"android":"levelo://app?vid=dec3a290-00b1-4f19-b6b4-d73842f7b8eb","ios":"levelo://app?vid=dec3a290-00b1-4f19-b6b4-d73842f7b8eb"},"vehicle_type_id":"4","last_reported":1711393570,"current_range_meters":0,"station_id":"ce4bguh2rcd13ifvqckg","pricing_plan_id":"cebpf4jnsgd1na2vs0mg"},{"bike_id":"80140b6e-52b2-4b1d-9be7-ae3320d3bf43","system_id":"levelo_inurba_marseille","lat":43.305472,"lon":5.366937,"is_reserved":false,"is_disabled":false,"rental_uris":{"android":"levelo://app?vid=80140b6e-52b2-4b1d-9be7-ae3320d3bf43","ios":"levelo://app?vid=80140b6e-52b2-4b1d-9be7-ae3320d3bf43"},"vehicle_type_id":"4","last_reported":1711393570,"current_range_meters":0,"station_id":"ce4bgrp2rcd13ifvqc9g","pricing_plan_id":"cebpf4jnsgd1na2vs0mg"},{"bike_id":"2c376556-f259-48ad-bdb0-4ced627720a9","system_id":"levelo_inurba_marseille","lat":43.309076,"lon":5.368465,"is_reserved":false,"is_disabled":false,"rental_uris":{"android":"levelo://app?vid=2c376556-f259-48ad-bdb0-4ced627720a9","ios":"levelo://app?vid=2c376556-f259-48ad-bdb0-4ced627720a9"},"vehicle_type_id":"4","last_reported":1711393570,"current_range_meters":19200,"station_id":"ce4bgn92rcd13ifvqbvg","pricing_plan_id":"cebpf4jnsgd1na2vs0mg"},{"bike_id":"1a9b279f-0a29-47e9-9d6d-46f5bbe69853","system_id":"levelo_inurba_marseille","lat":43.30548,"lon":5.36527,"is_reserved":false,"is_disabled":false,"rental_uris":{"android":"levelo://app?vid=1a9b279f-0a29-47e9-9d6d-46f5bbe69853","ios":"levelo://app?vid=1a9b279f-0a29-47e9-9d6d-46f5bbe69853"},"vehicle_type_id":"4","last_reported":1711393570,"current_range_meters":0,"station_id":"ce4bgs12rcd13ifvqcag","pricing_plan_id":"cebpf4jnsgd1na2vs0mg"},{"bike_id":"25ff5cdd-008f-4062-be2e-643246b4cf88","system_id":"levelo_inurba_marseille","lat":43.305989,"lon":5.37225,"is_reserved":false,"is_disabled":false,"rental_uris":{"android":"levelo://app?vid=25ff5cdd-008f-4062-be2e-643246b4cf88","ios":"levelo://app?vid=25ff5cdd-008f-4062-be2e-643246b4cf88"},"vehicle_type_id":"4","last_reported":1711393570,"current_range_meters":3600,"station_id":"ce4bgqh2rcd13ifvqc4g","pricing_plan_id":"cebpf4jnsgd1na2vs0mg"},{"bike_id":"b44ae1e2-3f4f-46b4-9167-b987dcd67eb4","system_id":"levelo_inurba_marseille","lat":43.305989,"lon":5.37225,"is_reserved":false,"is_disabled":false,"rental_uris":{"android":"levelo://app?vid=b44ae1e2-3f4f-46b4-9167-b987dcd67eb4","ios":"levelo://app?vid=b44ae1e2-3f4f-46b4-9167-b987dcd67eb4"},"vehicle_type_id":"4","last_reported":1711393570,"current_range_meters":30800,"station_id":"ce4bgqh2rcd13ifvqc4g","pricing_plan_id":"cebpf4jnsgd1na2vs0mg"},{"bike_id":"11442762-72f2-455c-8395-1033c1cc093e","system_id":"levelo_inurba_marseille","lat":43.305989,"lon":5.37225,"is_reserved":false,"is_disabled":false,"rental_uris":{"android":"levelo://app?vid=11442762-72f2-455c-8395-1033c1cc093e","ios":"levelo://app?vid=11442762-72f2-455c-8395-1033c1cc093e"},"vehicle_type_id":"4","last_reported":1711393570,"current_range_meters":22000,"station_id":"ce4bgqh2rcd13ifvqc4g","pricing_plan_id":"cebpf4jnsgd1na2vs0mg"},{"bike_id":"6cc7b0be-6217-482d-b938-f15fad2b0c8b","system_id":"levelo_inurba_marseille","lat":43.305989,"lon":5.37225,"is_reserved":false,"is_disabled":false,"rental_uris":{"android":"levelo://app?vid=6cc7b0be-6217-482d-b938-f15fad2b0c8b","ios":"levelo://app?vid=6cc7b0be-6217-482d-b938-f15fad2b0c8b"},"vehicle_type_id":"4","last_reported":1711393570,"current_range_meters":4000,"station_id":"ce4bgqh2rcd13ifvqc4g","pricing_plan_id":"cebpf4jnsgd1na2vs0mg"},{"bike_id":"e5db101a-223c-47a4-b033-122757f93170","system_id":"levelo_inurba_marseille","lat":43.305989,"lon":5.37225,"is_reserved":false,"is_disabled":false,"rental_uris":{"android":"levelo://app?vid=e5db101a-223c-47a4-b033-122757f93170","ios":"levelo://app?vid=e5db101a-223c-47a4-b033-122757f93170"},"vehicle_type_id":"4","last_reported":1711393570,"current_range_meters":13600,"station_id":"ce4bgqh2rcd13ifvqc4g","pricing_plan_id":"cebpf4jnsgd1na2vs0mg"},{"bike_id":"8175b5c9-87b8-4f3b-9942-8d7abff753dd","system_id":"levelo_inurba_marseille","lat":43.311131,"lon":5.377651,"is_reserved":false,"is_disabled":false,"rental_uris":{"android":"levelo://app?vid=8175b5c9-87b8-4f3b-9942-8d7abff753dd","ios":"levelo://app?vid=8175b5c9-87b8-4f3b-9942-8d7abff753dd"},"vehicle_type_id":"4","last_reported":1711393570,"current_range_meters":2400,"station_id":"ce4bgt92rcd13ifvqcg0","pricing_plan_id":"cebpf4jnsgd1na2vs0mg"},{"bike_id":"79a63b1f-4c54-4dea-b3e8-ebb487525e23","system_id":"levelo_inurba_marseille","lat":43.3112,"lon":5.37759,"is_reserved":false,"is_disabled":false,"rental_uris":{"android":"levelo://app?vid=79a63b1f-4c54-4dea-b3e8-ebb487525e23","ios":"levelo://app?vid=79a63b1f-4c54-4dea-b3e8-ebb487525e23"},"vehicle_type_id":"4","last_reported":1711393570,"current_range_meters":1600,"station_id":"ce4bgt92rcd13ifvqcg0","pricing_plan_id":"cebpf4jnsgd1na2vs0mg"},{"bike_id":"ab964618-9c75-416a-b523-cf987f78803c","system_id":"levelo_inurba_marseille","lat":43.31122,"lon":5.3776,"is_reserved":false,"is_disabled":false,"rental_uris":{"android":"levelo://app?vid=ab964618-9c75-416a-b523-cf987f78803c","ios":"levelo://app?vid=ab964618-9c75-416a-b523-cf987f78803c"},"vehicle_type_id":"4","last_reported":1711393570,"current_range_meters":22400,"station_id":"ce4bgt92rcd13ifvqcg0","pricing_plan_id":"cebpf4jnsgd1na2vs0mg"},{"bike_id":"cc5aeda6-80d2-4c78-824e-7c3ff0476091","system_id":"levelo_inurba_marseille","lat":43.311125,"lon":5.377624,"is_reserved":false,"is_disabled":false,"rental_uris":{"android":"levelo://app?vid=cc5aeda6-80d2-4c78-824e-7c3ff0476091","ios":"levelo://app?vid=cc5aeda6-80d2-4c78-824e-7c3ff0476091"},"vehicle_type_id":"4","last_reported":1711393570,"current_range_meters":3600,"station_id":"ce4bgt92rcd13ifvqcg0","pricing_plan_id":"cebpf4jnsgd1na2vs0mg"},{"bike_id":"7d595eec-56cb-43af-ae34-05e3133f22a3","system_id":"levelo_inurba_marseille","lat":43.311131,"lon":5.377651,"is_reserved":false,"is_disabled":false,"rental_uris":{"android":"levelo://app?vid=7d595eec-56cb-43af-ae34-05e3133f22a3","ios":"levelo://app?vid=7d595eec-56cb-43af-ae34-05e3133f22a3"},"vehicle_type_id":"4","last_reported":1711393570,"current_range_meters":17600,"station_id":"ce4bgt92rcd13ifvqcg0","pricing_plan_id":"cebpf4jnsgd1na2vs0mg"},{"bike_id":"ff9d9e8c-7c56-4b79-a9c5-d4bd947b6bff","system_id":"levelo_inurba_marseille","lat":43.311131,"lon":5.377651,"is_reserved":false,"is_disabled":false,"rental_uris":{"android":"levelo://app?vid=ff9d9e8c-7c56-4b79-a9c5-d4bd947b6bff","ios":"levelo://app?vid=ff9d9e8c-7c56-4b79-a9c5-d4bd947b6bff"},"vehicle_type_id":"4","last_reported":1711393570,"current_range_meters":20000,"station_id":"ce4bgt92rcd13ifvqcg0","pricing_plan_id":"cebpf4jnsgd1na2vs0mg"},{"bike_id":"4ba7046e-f007-450a-9d18-f5ae2ebea832","system_id":"levelo_inurba_marseille","lat":43.311131,"lon":5.377651,"is_reserved":false,"is_disabled":false,"rental_uris":{"android":"levelo://app?vid=4ba7046e-f007-450a-9d18-f5ae2ebea832","ios":"levelo://app?vid=4ba7046e-f007-450a-9d18-f5ae2ebea832"},"vehicle_type_id":"4","last_reported":1711393570,"current_range_meters":22000,"station_id":"ce4bgt92rcd13ifvqcg0","pricing_plan_id":"cebpf4jnsgd1na2vs0mg"},{"bike_id":"f2f18540-950a-4b10-9631-954c78198c90","system_id":"levelo_inurba_marseille","lat":43.311131,"lon":5.377651,"is_reserved":false,"is_disabled":false,"rental_uris":{"android":"levelo://app?vid=f2f18540-950a-4b10-9631-954c78198c90","ios":"levelo://app?vid=f2f18540-950a-4b10-9631-954c78198c90"},"vehicle_type_id":"4","last_reported":1711393570,"current_range_meters":18400,"station_id":"ce4bgt92rcd13ifvqcg0","pricing_plan_id":"cebpf4jnsgd1na2vs0mg"},{"bike_id":"547ca70b-0b86-4a96-a1cc-5f0cd3aad070","system_id":"levelo_inurba_marseille","lat":43.311125,"lon":5.377624,"is_reserved":false,"is_disabled":false,"rental_uris":{"android":"levelo://app?vid=547ca70b-0b86-4a96-a1cc-5f0cd3aad070","ios":"levelo://app?vid=547ca70b-0b86-4a96-a1cc-5f0cd3aad070"},"vehicle_type_id":"4","last_reported":1711393570,"current_range_meters":10000,"station_id":"ce4bgt92rcd13ifvqcg0","pricing_plan_id":"cebpf4jnsgd1na2vs0mg"},{"bike_id":"25b11bef-050b-49e0-9df8-4a4fdcb79237","system_id":"levelo_inurba_marseille","lat":43.311125,"lon":5.377624,"is_reserved":false,"is_disabled":false,"rental_uris":{"android":"levelo://app?vid=25b11bef-050b-49e0-9df8-4a4fdcb79237","ios":"levelo://app?vid=25b11bef-050b-49e0-9df8-4a4fdcb79237"},"vehicle_type_id":"4","last_reported":1711393570,"current_range_meters":12800,"station_id":"ce4bgt92rcd13ifvqcg0","pricing_plan_id":"cebpf4jnsgd1na2vs0mg"},{"bike_id":"2dcc38a2-fed9-4260-ad30-59d5730321df","system_id":"levelo_inurba_marseille","lat":43.311131,"lon":5.377651,"is_reserved":false,"is_disabled":false,"rental_uris":{"android":"levelo://app?vid=2dcc38a2-fed9-4260-ad30-59d5730321df","ios":"levelo://app?vid=2dcc38a2-fed9-4260-ad30-59d5730321df"},"vehicle_type_id":"4","last_reported":1711393570,"current_range_meters":12800,"station_id":"ce4bgt92rcd13ifvqcg0","pricing_plan_id":"cebpf4jnsgd1na2vs0mg"},{"bike_id":"52b53beb-5fc2-4e6f-81e5-8687a6ef1b9c","system_id":"levelo_inurba_marseille","lat":43.31123,"lon":5.37773,"is_reserved":false,"is_disabled":false,"rental_uris":{"android":"levelo://app?vid=52b53beb-5fc2-4e6f-81e5-8687a6ef1b9c","ios":"levelo://app?vid=52b53beb-5fc2-4e6f-81e5-8687a6ef1b9c"},"vehicle_type_id":"4","last_reported":1711393570,"current_range_meters":23200,"station_id":"ce4bgt92rcd13ifvqcg0","pricing_plan_id":"cebpf4jnsgd1na2vs0mg"},{"bike_id":"dbf09931-ef74-427f-bd36-825c31cd2a1f","system_id":"levelo_inurba_marseille","lat":43.307945,"lon":5.376487,"is_reserved":false,"is_disabled":false,"rental_uris":{"android":"levelo://app?vid=dbf09931-ef74-427f-bd36-825c31cd2a1f","ios":"levelo://app?vid=dbf09931-ef74-427f-bd36-825c31cd2a1f"},"vehicle_type_id":"4","last_reported":1711393570,"current_range_meters":0,"station_id":"ce4bgv92rcd13ifvqcq0","pricing_plan_id":"cebpf4jnsgd1na2vs0mg"},{"bike_id":"939b6bf5-1fce-4acd-bd94-4a1c05f12092","system_id":"levelo_inurba_marseille","lat":43.317075,"lon":5.377367,"is_reserved":false,"is_disabled":false,"rental_uris":{"android":"levelo://app?vid=939b6bf5-1fce-4acd-bd94-4a1c05f12092","ios":"levelo://app?vid=939b6bf5-1fce-4acd-bd94-4a1c05f12092"},"vehicle_type_id":"4","last_reported":1711393570,"current_range_meters":7200,"station_id":"ce4bgth2rcd13ifvqch0","pricing_plan_id":"cebpf4jnsgd1na2vs0mg"},{"bike_id":"fa12fedc-c150-4959-8172-462b429a0446","system_id":"levelo_inurba_marseille","lat":43.317075,"lon":5.377367,"is_reserved":false,"is_disabled":false,"rental_uris":{"android":"levelo://app?vid=fa12fedc-c150-4959-8172-462b429a0446","ios":"levelo://app?vid=fa12fedc-c150-4959-8172-462b429a0446"},"vehicle_type_id":"4","last_reported":1711393570,"current_range_meters":14000,"station_id":"ce4bgth2rcd13ifvqch0","pricing_plan_id":"cebpf4jnsgd1na2vs0mg"},{"bike_id":"4736424f-4df1-4b70-9ae1-e126f3809c46","system_id":"levelo_inurba_marseille","lat":43.317075,"lon":5.377367,"is_reserved":false,"is_disabled":false,"rental_uris":{"android":"levelo://app?vid=4736424f-4df1-4b70-9ae1-e126f3809c46","ios":"levelo://app?vid=4736424f-4df1-4b70-9ae1-e126f3809c46"},"vehicle_type_id":"4","last_reported":1711393570,"current_range_meters":3600,"station_id":"ce4bgth2rcd13ifvqch0","pricing_plan_id":"cebpf4jnsgd1na2vs0mg"},{"bike_id":"b4e5d7d1-723e-4af0-8684-0a80a02c9a14","system_id":"levelo_inurba_marseille","lat":43.317075,"lon":5.377367,"is_reserved":false,"is_disabled":false,"rental_uris":{"android":"levelo://app?vid=b4e5d7d1-723e-4af0-8684-0a80a02c9a14","ios":"levelo://app?vid=b4e5d7d1-723e-4af0-8684-0a80a02c9a14"},"vehicle_type_id":"4","last_reported":1711393570,"current_range_meters":28000,"station_id":"ce4bgth2rcd13ifvqch0","pricing_plan_id":"cebpf4jnsgd1na2vs0mg"},{"bike_id":"e75c7c12-fc1e-41b7-bf58-a9b899f4f0f6","system_id":"levelo_inurba_marseille","lat":43.317075,"lon":5.377367,"is_reserved":false,"is_disabled":false,"rental_uris":{"android":"levelo://app?vid=e75c7c12-fc1e-41b7-bf58-a9b899f4f0f6","ios":"levelo://app?vid=e75c7c12-fc1e-41b7-bf58-a9b899f4f0f6"},"vehicle_type_id":"4","last_reported":1711393570,"current_range_meters":18400,"station_id":"ce4bgth2rcd13ifvqch0","pricing_plan_id":"cebpf4jnsgd1na2vs0mg"},{"bike_id":"fac2e688-97a5-4e04-97ca-8f5d608dfe28","system_id":"levelo_inurba_marseille","lat":43.317075,"lon":5.377367,"is_reserved":false,"is_disabled":false,"rental_uris":{"android":"levelo://app?vid=fac2e688-97a5-4e04-97ca-8f5d608dfe28","ios":"levelo://app?vid=fac2e688-97a5-4e04-97ca-8f5d608dfe28"},"vehicle_type_id":"4","last_reported":1711393570,"current_range_meters":13600,"station_id":"ce4bgth2rcd13ifvqch0","pricing_plan_id":"cebpf4jnsgd1na2vs0mg"},{"bike_id":"d786829b-5310-4a29-91e8-f1ec5b58b820","system_id":"levelo_inurba_marseille","lat":43.317075,"lon":5.377367,"is_reserved":false,"is_disabled":false,"rental_uris":{"android":"levelo://app?vid=d786829b-5310-4a29-91e8-f1ec5b58b820","ios":"levelo://app?vid=d786829b-5310-4a29-91e8-f1ec5b58b820"},"vehicle_type_id":"4","last_reported":1711393570,"current_range_meters":31600,"station_id":"ce4bgth2rcd13ifvqch0","pricing_plan_id":"cebpf4jnsgd1na2vs0mg"},{"bike_id":"4cc62c72-7fe4-487a-b27a-e2e39f9c9a71","system_id":"levelo_inurba_marseille","lat":43.30304,"lon":5.368987,"is_reserved":false,"is_disabled":false,"rental_uris":{"android":"levelo://app?vid=4cc62c72-7fe4-487a-b27a-e2e39f9c9a71","ios":"levelo://app?vid=4cc62c72-7fe4-487a-b27a-e2e39f9c9a71"},"vehicle_type_id":"4","last_reported":1711393570,"current_range_meters":6400,"station_id":"ce4bgqh2rcd13ifvqc5g","pricing_plan_id":"cebpf4jnsgd1na2vs0mg"},{"bike_id":"6a7093ab-9264-4195-8edc-d846648d4205","system_id":"levelo_inurba_marseille","lat":43.315293,"lon":5.380349,"is_reserved":false,"is_disabled":false,"rental_uris":{"android":"levelo://app?vid=6a7093ab-9264-4195-8edc-d846648d4205","ios":"levelo://app?vid=6a7093ab-9264-4195-8edc-d846648d4205"},"vehicle_type_id":"4","last_reported":1711393570,"current_range_meters":24800,"station_id":"ce4bhsp2rcd13ifvqi50","pricing_plan_id":"cebpf4jnsgd1na2vs0mg"},{"bike_id":"9282e943-a5a8-49fc-bf3d-789afadecf5a","system_id":"levelo_inurba_marseille","lat":43.31525,"lon":5.38042,"is_reserved":false,"is_disabled":false,"rental_uris":{"android":"levelo://app?vid=9282e943-a5a8-49fc-bf3d-789afadecf5a","ios":"levelo://app?vid=9282e943-a5a8-49fc-bf3d-789afadecf5a"},"vehicle_type_id":"4","last_reported":1711393570,"current_range_meters":16400,"station_id":"ce4bhsp2rcd13ifvqi50","pricing_plan_id":"cebpf4jnsgd1na2vs0mg"},{"bike_id":"490da5e3-94fa-4df0-9e1c-fcaef4f55067","system_id":"levelo_inurba_marseille","lat":43.267959,"lon":5.402685,"is_reserved":false,"is_disabled":false,"rental_uris":{"android":"levelo://app?vid=490da5e3-94fa-4df0-9e1c-fcaef4f55067","ios":"levelo://app?vid=490da5e3-94fa-4df0-9e1c-fcaef4f55067"},"vehicle_type_id":"4","last_reported":1711393570,"current_range_meters":8400,"station_id":"ce501612rcd8frsf0b60","pricing_plan_id":"cebpf4jnsgd1na2vs0mg"},{"bike_id":"30153296-c32f-48ab-9a35-ee61b57bd1ef","system_id":"levelo_inurba_marseille","lat":43.289468,"lon":5.363719,"is_reserved":false,"is_disabled":false,"rental_uris":{"android":"levelo://app?vid=30153296-c32f-48ab-9a35-ee61b57bd1ef","ios":"levelo://app?vid=30153296-c32f-48ab-9a35-ee61b57bd1ef"},"vehicle_type_id":"4","last_reported":1711393570,"current_range_meters":8400,"station_id":"ce4bhc92rcd13ifvqetg","pricing_plan_id":"cebpf4jnsgd1na2vs0mg"},{"bike_id":"f45b14ff-2a14-44ee-8d35-e66646b9db2c","system_id":"levelo_inurba_marseille","lat":43.301939,"lon":5.366286,"is_reserved":false,"is_disabled":false,"rental_uris":{"android":"levelo://app?vid=f45b14ff-2a14-44ee-8d35-e66646b9db2c","ios":"levelo://app?vid=f45b14ff-2a14-44ee-8d35-e66646b9db2c"},"vehicle_type_id":"4","last_reported":1711393570,"current_range_meters":4000,"station_id":"ce4bgrh2rcd13ifvqc8g","pricing_plan_id":"cebpf4jnsgd1na2vs0mg"},{"bike_id":"c0e2dbea-3c21-4e66-b050-4884c9ac2745","system_id":"levelo_inurba_marseille","lat":43.301939,"lon":5.366286,"is_reserved":false,"is_disabled":false,"rental_uris":{"android":"levelo://app?vid=c0e2dbea-3c21-4e66-b050-4884c9ac2745","ios":"levelo://app?vid=c0e2dbea-3c21-4e66-b050-4884c9ac2745"},"vehicle_type_id":"4","last_reported":1711393570,"current_range_meters":0,"station_id":"ce4bgrh2rcd13ifvqc8g","pricing_plan_id":"cebpf4jnsgd1na2vs0mg"},{"bike_id":"d30283bb-7450-4bc5-8107-7977689bea67","system_id":"levelo_inurba_marseille","lat":43.292642,"lon":5.384254,"is_reserved":false,"is_disabled":false,"rental_uris":{"android":"levelo://app?vid=d30283bb-7450-4bc5-8107-7977689bea67","ios":"levelo://app?vid=d30283bb-7450-4bc5-8107-7977689bea67"},"vehicle_type_id":"4","last_reported":1711393570,"current_range_meters":11200,"station_id":"ce4bh692rcd13ifvqea0","pricing_plan_id":"cebpf4jnsgd1na2vs0mg"},{"bike_id":"979d3e24-a397-4a50-91f1-401def5b6817","system_id":"levelo_inurba_marseille","lat":43.301939,"lon":5.366286,"is_reserved":false,"is_disabled":false,"rental_uris":{"android":"levelo://app?vid=979d3e24-a397-4a50-91f1-401def5b6817","ios":"levelo://app?vid=979d3e24-a397-4a50-91f1-401def5b6817"},"vehicle_type_id":"4","last_reported":1711393570,"current_range_meters":22400,"station_id":"ce4bgrh2rcd13ifvqc8g","pricing_plan_id":"cebpf4jnsgd1na2vs0mg"},{"bike_id":"07b05e7e-b240-49b2-aa30-ec278519be68","system_id":"levelo_inurba_marseille","lat":43.308012,"lon":5.381511,"is_reserved":false,"is_disabled":false,"rental_uris":{"android":"levelo://app?vid=07b05e7e-b240-49b2-aa30-ec278519be68","ios":"levelo://app?vid=07b05e7e-b240-49b2-aa30-ec278519be68"},"vehicle_type_id":"4","last_reported":1711393570,"current_range_meters":0,"station_id":"ce4bgt12rcd13ifvqce0","pricing_plan_id":"cebpf4jnsgd1na2vs0mg"},{"bike_id":"aa5b0390-5d05-4819-bc6b-6552633e7bed","system_id":"levelo_inurba_marseille","lat":43.308012,"lon":5.381511,"is_reserved":false,"is_disabled":false,"rental_uris":{"android":"levelo://app?vid=aa5b0390-5d05-4819-bc6b-6552633e7bed","ios":"levelo://app?vid=aa5b0390-5d05-4819-bc6b-6552633e7bed"},"vehicle_type_id":"4","last_reported":1711393570,"current_range_meters":23200,"station_id":"ce4bgt12rcd13ifvqce0","pricing_plan_id":"cebpf4jnsgd1na2vs0mg"},{"bike_id":"68bcaff6-c169-448d-82e9-b5405e03ddca","system_id":"levelo_inurba_marseille","lat":43.308012,"lon":5.381511,"is_reserved":false,"is_disabled":false,"rental_uris":{"android":"levelo://app?vid=68bcaff6-c169-448d-82e9-b5405e03ddca","ios":"levelo://app?vid=68bcaff6-c169-448d-82e9-b5405e03ddca"},"vehicle_type_id":"4","last_reported":1711393570,"current_range_meters":14800,"station_id":"ce4bgt12rcd13ifvqce0","pricing_plan_id":"cebpf4jnsgd1na2vs0mg"},{"bike_id":"5e693aa7-d1c0-408e-a6c7-00d944c7d643","system_id":"levelo_inurba_marseille","lat":43.308012,"lon":5.381511,"is_reserved":false,"is_disabled":false,"rental_uris":{"android":"levelo://app?vid=5e693aa7-d1c0-408e-a6c7-00d944c7d643","ios":"levelo://app?vid=5e693aa7-d1c0-408e-a6c7-00d944c7d643"},"vehicle_type_id":"4","last_reported":1711393570,"current_range_meters":13200,"station_id":"ce4bgt12rcd13ifvqce0","pricing_plan_id":"cebpf4jnsgd1na2vs0mg"},{"bike_id":"12be5ff7-81c8-4883-b903-f46e1f342699","system_id":"levelo_inurba_marseille","lat":43.308012,"lon":5.381511,"is_reserved":false,"is_disabled":false,"rental_uris":{"android":"levelo://app?vid=12be5ff7-81c8-4883-b903-f46e1f342699","ios":"levelo://app?vid=12be5ff7-81c8-4883-b903-f46e1f342699"},"vehicle_type_id":"4","last_reported":1711393570,"current_range_meters":0,"station_id":"ce4bgt12rcd13ifvqce0","pricing_plan_id":"cebpf4jnsgd1na2vs0mg"},{"bike_id":"7dd01b89-6d16-4938-9cc7-c039c5ea68cd","system_id":"levelo_inurba_marseille","lat":43.308012,"lon":5.381511,"is_reserved":false,"is_disabled":false,"rental_uris":{"android":"levelo://app?vid=7dd01b89-6d16-4938-9cc7-c039c5ea68cd","ios":"levelo://app?vid=7dd01b89-6d16-4938-9cc7-c039c5ea68cd"},"vehicle_type_id":"4","last_reported":1711393570,"current_range_meters":14800,"station_id":"ce4bgt12rcd13ifvqce0","pricing_plan_id":"cebpf4jnsgd1na2vs0mg"},{"bike_id":"0964b34e-6c70-40e8-9aa5-77bb6b27f6b6","system_id":"levelo_inurba_marseille","lat":43.308012,"lon":5.381511,"is_reserved":false,"is_disabled":false,"rental_uris":{"android":"levelo://app?vid=0964b34e-6c70-40e8-9aa5-77bb6b27f6b6","ios":"levelo://app?vid=0964b34e-6c70-40e8-9aa5-77bb6b27f6b6"},"vehicle_type_id":"4","last_reported":1711393570,"current_range_meters":31600,"station_id":"ce4bgt12rcd13ifvqce0","pricing_plan_id":"cebpf4jnsgd1na2vs0mg"},{"bike_id":"3d83bb26-8fe9-4e72-b963-618648458d18","system_id":"levelo_inurba_marseille","lat":43.308012,"lon":5.381511,"is_reserved":false,"is_disabled":false,"rental_uris":{"android":"levelo://app?vid=3d83bb26-8fe9-4e72-b963-618648458d18","ios":"levelo://app?vid=3d83bb26-8fe9-4e72-b963-618648458d18"},"vehicle_type_id":"4","last_reported":1711393570,"current_range_meters":7200,"station_id":"ce4bgt12rcd13ifvqce0","pricing_plan_id":"cebpf4jnsgd1na2vs0mg"},{"bike_id":"58371cc5-a47b-4bc4-922d-28eeafc57730","system_id":"levelo_inurba_marseille","lat":43.294153,"lon":5.386305,"is_reserved":false,"is_disabled":false,"rental_uris":{"android":"levelo://app?vid=58371cc5-a47b-4bc4-922d-28eeafc57730","ios":"levelo://app?vid=58371cc5-a47b-4bc4-922d-28eeafc57730"},"vehicle_type_id":"4","last_reported":1711393570,"current_range_meters":24800,"station_id":"ce4bh2h2rcd13ifvqdh0","pricing_plan_id":"cebpf4jnsgd1na2vs0mg"},{"bike_id":"23c42816-bf0d-43a9-8ae6-64c9135215f2","system_id":"levelo_inurba_marseille","lat":43.304606,"lon":5.379026,"is_reserved":false,"is_disabled":false,"rental_uris":{"android":"levelo://app?vid=23c42816-bf0d-43a9-8ae6-64c9135215f2","ios":"levelo://app?vid=23c42816-bf0d-43a9-8ae6-64c9135215f2"},"vehicle_type_id":"4","last_reported":1711393570,"current_range_meters":12000,"station_id":"ce4bgup2rcd13ifvqcn0","pricing_plan_id":"cebpf4jnsgd1na2vs0mg"},{"bike_id":"858e03b0-a5ef-4ad1-8a6d-ec4f44b319fb","system_id":"levelo_inurba_marseille","lat":43.310804,"lon":5.38359,"is_reserved":false,"is_disabled":false,"rental_uris":{"android":"levelo://app?vid=858e03b0-a5ef-4ad1-8a6d-ec4f44b319fb","ios":"levelo://app?vid=858e03b0-a5ef-4ad1-8a6d-ec4f44b319fb"},"vehicle_type_id":"4","last_reported":1711393570,"current_range_meters":4400,"station_id":"ce4bgv92rcd13ifvqcr0","pricing_plan_id":"cebpf4jnsgd1na2vs0mg"},{"bike_id":"ddce3042-bf74-416c-a499-881177e70432","system_id":"levelo_inurba_marseille","lat":43.304606,"lon":5.379026,"is_reserved":false,"is_disabled":false,"rental_uris":{"android":"levelo://app?vid=ddce3042-bf74-416c-a499-881177e70432","ios":"levelo://app?vid=ddce3042-bf74-416c-a499-881177e70432"},"vehicle_type_id":"4","last_reported":1711393570,"current_range_meters":4400,"station_id":"ce4bgup2rcd13ifvqcn0","pricing_plan_id":"cebpf4jnsgd1na2vs0mg"},{"bike_id":"ee315106-341d-4bf1-9af2-6b11388a77d8","system_id":"levelo_inurba_marseille","lat":43.324771,"lon":5.36557,"is_reserved":false,"is_disabled":false,"rental_uris":{"android":"levelo://app?vid=ee315106-341d-4bf1-9af2-6b11388a77d8","ios":"levelo://app?vid=ee315106-341d-4bf1-9af2-6b11388a77d8"},"vehicle_type_id":"4","last_reported":1711393570,"current_range_meters":26800,"station_id":"ce4bhs12rcd13ifvqhvg","pricing_plan_id":"cebpf4jnsgd1na2vs0mg"},{"bike_id":"bc324ee1-7145-4546-bfe0-869dc99daef8","system_id":"levelo_inurba_marseille","lat":43.324771,"lon":5.36557,"is_reserved":false,"is_disabled":false,"rental_uris":{"android":"levelo://app?vid=bc324ee1-7145-4546-bfe0-869dc99daef8","ios":"levelo://app?vid=bc324ee1-7145-4546-bfe0-869dc99daef8"},"vehicle_type_id":"4","last_reported":1711393570,"current_range_meters":16400,"station_id":"ce4bhs12rcd13ifvqhvg","pricing_plan_id":"cebpf4jnsgd1na2vs0mg"},{"bike_id":"4aa023fc-bd6a-49d9-bb66-0067c94f6096","system_id":"levelo_inurba_marseille","lat":43.324799,"lon":5.365698,"is_reserved":false,"is_disabled":false,"rental_uris":{"android":"levelo://app?vid=4aa023fc-bd6a-49d9-bb66-0067c94f6096","ios":"levelo://app?vid=4aa023fc-bd6a-49d9-bb66-0067c94f6096"},"vehicle_type_id":"4","last_reported":1711393570,"current_range_meters":28000,"station_id":"ce4bhs12rcd13ifvqhvg","pricing_plan_id":"cebpf4jnsgd1na2vs0mg"},{"bike_id":"a0d31af7-370b-4f99-8c08-89a40e47803f","system_id":"levelo_inurba_marseille","lat":43.324771,"lon":5.36557,"is_reserved":false,"is_disabled":false,"rental_uris":{"android":"levelo://app?vid=a0d31af7-370b-4f99-8c08-89a40e47803f","ios":"levelo://app?vid=a0d31af7-370b-4f99-8c08-89a40e47803f"},"vehicle_type_id":"4","last_reported":1711393570,"current_range_meters":28400,"station_id":"ce4bhs12rcd13ifvqhvg","pricing_plan_id":"cebpf4jnsgd1na2vs0mg"},{"bike_id":"e798ed94-d5c5-4ed4-b08a-ed6148056e31","system_id":"levelo_inurba_marseille","lat":43.324771,"lon":5.36557,"is_reserved":false,"is_disabled":false,"rental_uris":{"android":"levelo://app?vid=e798ed94-d5c5-4ed4-b08a-ed6148056e31","ios":"levelo://app?vid=e798ed94-d5c5-4ed4-b08a-ed6148056e31"},"vehicle_type_id":"4","last_reported":1711393570,"current_range_meters":25600,"station_id":"ce4bhs12rcd13ifvqhvg","pricing_plan_id":"cebpf4jnsgd1na2vs0mg"},{"bike_id":"a26085b4-c08f-407f-92bc-4fa83dbf1dee","system_id":"levelo_inurba_marseille","lat":43.324771,"lon":5.36557,"is_reserved":false,"is_disabled":false,"rental_uris":{"android":"levelo://app?vid=a26085b4-c08f-407f-92bc-4fa83dbf1dee","ios":"levelo://app?vid=a26085b4-c08f-407f-92bc-4fa83dbf1dee"},"vehicle_type_id":"4","last_reported":1711393570,"current_range_meters":9200,"station_id":"ce4bhs12rcd13ifvqhvg","pricing_plan_id":"cebpf4jnsgd1na2vs0mg"},{"bike_id":"26aab7eb-0fed-402e-8f7d-f704da75ca7c","system_id":"levelo_inurba_marseille","lat":43.324771,"lon":5.36557,"is_reserved":false,"is_disabled":false,"rental_uris":{"android":"levelo://app?vid=26aab7eb-0fed-402e-8f7d-f704da75ca7c","ios":"levelo://app?vid=26aab7eb-0fed-402e-8f7d-f704da75ca7c"},"vehicle_type_id":"4","last_reported":1711393570,"current_range_meters":6800,"station_id":"ce4bhs12rcd13ifvqhvg","pricing_plan_id":"cebpf4jnsgd1na2vs0mg"},{"bike_id":"6dad4fc3-4c62-4281-bde5-d218ebeaa143","system_id":"levelo_inurba_marseille","lat":43.310804,"lon":5.38359,"is_reserved":false,"is_disabled":false,"rental_uris":{"android":"levelo://app?vid=6dad4fc3-4c62-4281-bde5-d218ebeaa143","ios":"levelo://app?vid=6dad4fc3-4c62-4281-bde5-d218ebeaa143"},"vehicle_type_id":"4","last_reported":1711393570,"current_range_meters":28400,"station_id":"ce4bgv92rcd13ifvqcr0","pricing_plan_id":"cebpf4jnsgd1na2vs0mg"},{"bike_id":"36a2e22e-53e2-4a3e-973e-5d7d4b4ccf20","system_id":"levelo_inurba_marseille","lat":43.31074,"lon":5.383518,"is_reserved":false,"is_disabled":false,"rental_uris":{"android":"levelo://app?vid=36a2e22e-53e2-4a3e-973e-5d7d4b4ccf20","ios":"levelo://app?vid=36a2e22e-53e2-4a3e-973e-5d7d4b4ccf20"},"vehicle_type_id":"4","last_reported":1711393570,"current_range_meters":2800,"station_id":"ce4bgv92rcd13ifvqcr0","pricing_plan_id":"cebpf4jnsgd1na2vs0mg"},{"bike_id":"3827812e-6bb5-40be-a7d6-7224aababdd1","system_id":"levelo_inurba_marseille","lat":43.310804,"lon":5.38359,"is_reserved":false,"is_disabled":false,"rental_uris":{"android":"levelo://app?vid=3827812e-6bb5-40be-a7d6-7224aababdd1","ios":"levelo://app?vid=3827812e-6bb5-40be-a7d6-7224aababdd1"},"vehicle_type_id":"4","last_reported":1711393570,"current_range_meters":15600,"station_id":"ce4bgv92rcd13ifvqcr0","pricing_plan_id":"cebpf4jnsgd1na2vs0mg"},{"bike_id":"16af20af-f1d9-4070-a2a6-5e14d17201ac","system_id":"levelo_inurba_marseille","lat":43.302784,"lon":5.377158,"is_reserved":false,"is_disabled":false,"rental_uris":{"android":"levelo://app?vid=16af20af-f1d9-4070-a2a6-5e14d17201ac","ios":"levelo://app?vid=16af20af-f1d9-4070-a2a6-5e14d17201ac"},"vehicle_type_id":"4","last_reported":1711393570,"current_range_meters":10400,"station_id":"ce4bguh2rcd13ifvqcj0","pricing_plan_id":"cebpf4jnsgd1na2vs0mg"},{"bike_id":"62be9f93-0bba-4b5a-baaf-305f53ed08f3","system_id":"levelo_inurba_marseille","lat":43.310804,"lon":5.38359,"is_reserved":false,"is_disabled":false,"rental_uris":{"android":"levelo://app?vid=62be9f93-0bba-4b5a-baaf-305f53ed08f3","ios":"levelo://app?vid=62be9f93-0bba-4b5a-baaf-305f53ed08f3"},"vehicle_type_id":"4","last_reported":1711393570,"current_range_meters":15600,"station_id":"ce4bgv92rcd13ifvqcr0","pricing_plan_id":"cebpf4jnsgd1na2vs0mg"},{"bike_id":"86c2095f-66b9-4109-aff6-f9cda9639c22","system_id":"levelo_inurba_marseille","lat":43.31074,"lon":5.38365,"is_reserved":false,"is_disabled":false,"rental_uris":{"android":"levelo://app?vid=86c2095f-66b9-4109-aff6-f9cda9639c22","ios":"levelo://app?vid=86c2095f-66b9-4109-aff6-f9cda9639c22"},"vehicle_type_id":"4","last_reported":1711393570,"current_range_meters":12000,"station_id":"ce4bgv92rcd13ifvqcr0","pricing_plan_id":"cebpf4jnsgd1na2vs0mg"},{"bike_id":"69d526d4-9734-42c5-851b-8721205cf073","system_id":"levelo_inurba_marseille","lat":43.30143,"lon":5.37413,"is_reserved":false,"is_disabled":false,"rental_uris":{"android":"levelo://app?vid=69d526d4-9734-42c5-851b-8721205cf073","ios":"levelo://app?vid=69d526d4-9734-42c5-851b-8721205cf073"},"vehicle_type_id":"4","last_reported":1711393570,"current_range_meters":14000,"station_id":"ce4bgs92rcd13ifvqcc0","pricing_plan_id":"cebpf4jnsgd1na2vs0mg"},{"bike_id":"4d26ee56-9bcf-4272-8c14-a4d8249a3897","system_id":"levelo_inurba_marseille","lat":43.301429,"lon":5.37413,"is_reserved":false,"is_disabled":false,"rental_uris":{"android":"levelo://app?vid=4d26ee56-9bcf-4272-8c14-a4d8249a3897","ios":"levelo://app?vid=4d26ee56-9bcf-4272-8c14-a4d8249a3897"},"vehicle_type_id":"4","last_reported":1711393570,"current_range_meters":25200,"station_id":"ce4bgs92rcd13ifvqcc0","pricing_plan_id":"cebpf4jnsgd1na2vs0mg"},{"bike_id":"0248e6ce-0201-4e04-9ac2-876973a617ba","system_id":"levelo_inurba_marseille","lat":43.31995,"lon":5.38151,"is_reserved":false,"is_disabled":false,"rental_uris":{"android":"levelo://app?vid=0248e6ce-0201-4e04-9ac2-876973a617ba","ios":"levelo://app?vid=0248e6ce-0201-4e04-9ac2-876973a617ba"},"vehicle_type_id":"4","last_reported":1711393570,"current_range_meters":0,"station_id":"ce4bhr12rcd13ifvqhpg","pricing_plan_id":"cebpf4jnsgd1na2vs0mg"},{"bike_id":"013472d7-ab0a-47b8-86c5-cdb685af73af","system_id":"levelo_inurba_marseille","lat":43.319935,"lon":5.381699,"is_reserved":false,"is_disabled":false,"rental_uris":{"android":"levelo://app?vid=013472d7-ab0a-47b8-86c5-cdb685af73af","ios":"levelo://app?vid=013472d7-ab0a-47b8-86c5-cdb685af73af"},"vehicle_type_id":"4","last_reported":1711393570,"current_range_meters":0,"station_id":"ce4bhr12rcd13ifvqhpg","pricing_plan_id":"cebpf4jnsgd1na2vs0mg"},{"bike_id":"a99c9cd2-0155-4db4-a1c3-427a6c1c8bde","system_id":"levelo_inurba_marseille","lat":43.32,"lon":5.38154,"is_reserved":false,"is_disabled":false,"rental_uris":{"android":"levelo://app?vid=a99c9cd2-0155-4db4-a1c3-427a6c1c8bde","ios":"levelo://app?vid=a99c9cd2-0155-4db4-a1c3-427a6c1c8bde"},"vehicle_type_id":"4","last_reported":1711393570,"current_range_meters":8400,"station_id":"ce4bhr12rcd13ifvqhpg","pricing_plan_id":"cebpf4jnsgd1na2vs0mg"},{"bike_id":"ea959437-bf8b-414f-b285-d8869b036858","system_id":"levelo_inurba_marseille","lat":43.319935,"lon":5.381699,"is_reserved":false,"is_disabled":false,"rental_uris":{"android":"levelo://app?vid=ea959437-bf8b-414f-b285-d8869b036858","ios":"levelo://app?vid=ea959437-bf8b-414f-b285-d8869b036858"},"vehicle_type_id":"4","last_reported":1711393570,"current_range_meters":0,"station_id":"ce4bhr12rcd13ifvqhpg","pricing_plan_id":"cebpf4jnsgd1na2vs0mg"},{"bike_id":"bbf42f37-4afe-48b4-8fef-06263ca2a926","system_id":"levelo_inurba_marseille","lat":43.319935,"lon":5.381699,"is_reserved":false,"is_disabled":false,"rental_uris":{"android":"levelo://app?vid=bbf42f37-4afe-48b4-8fef-06263ca2a926","ios":"levelo://app?vid=bbf42f37-4afe-48b4-8fef-06263ca2a926"},"vehicle_type_id":"4","last_reported":1711393570,"current_range_meters":10000,"station_id":"ce4bhr12rcd13ifvqhpg","pricing_plan_id":"cebpf4jnsgd1na2vs0mg"},{"bike_id":"a969d855-85ef-438a-b930-3993343da247","system_id":"levelo_inurba_marseille","lat":43.31999,"lon":5.38168,"is_reserved":false,"is_disabled":false,"rental_uris":{"android":"levelo://app?vid=a969d855-85ef-438a-b930-3993343da247","ios":"levelo://app?vid=a969d855-85ef-438a-b930-3993343da247"},"vehicle_type_id":"4","last_reported":1711393570,"current_range_meters":4800,"station_id":"ce4bhr12rcd13ifvqhpg","pricing_plan_id":"cebpf4jnsgd1na2vs0mg"},{"bike_id":"206ba75c-9952-4ba0-b1f4-587f73e81c95","system_id":"levelo_inurba_marseille","lat":43.313571,"lon":5.384829,"is_reserved":false,"is_disabled":false,"rental_uris":{"android":"levelo://app?vid=206ba75c-9952-4ba0-b1f4-587f73e81c95","ios":"levelo://app?vid=206ba75c-9952-4ba0-b1f4-587f73e81c95"},"vehicle_type_id":"4","last_reported":1711393570,"current_range_meters":21600,"station_id":"ce4bgt92rcd13ifvqcf0","pricing_plan_id":"cebpf4jnsgd1na2vs0mg"},{"bike_id":"a7765369-4add-4cf6-a153-4d4e55db0c32","system_id":"levelo_inurba_marseille","lat":43.313571,"lon":5.384829,"is_reserved":false,"is_disabled":false,"rental_uris":{"android":"levelo://app?vid=a7765369-4add-4cf6-a153-4d4e55db0c32","ios":"levelo://app?vid=a7765369-4add-4cf6-a153-4d4e55db0c32"},"vehicle_type_id":"4","last_reported":1711393570,"current_range_meters":8000,"station_id":"ce4bgt92rcd13ifvqcf0","pricing_plan_id":"cebpf4jnsgd1na2vs0mg"},{"bike_id":"b59df600-7181-4c56-b4b9-7e3d13c1d242","system_id":"levelo_inurba_marseille","lat":43.313571,"lon":5.384829,"is_reserved":false,"is_disabled":false,"rental_uris":{"android":"levelo://app?vid=b59df600-7181-4c56-b4b9-7e3d13c1d242","ios":"levelo://app?vid=b59df600-7181-4c56-b4b9-7e3d13c1d242"},"vehicle_type_id":"4","last_reported":1711393570,"current_range_meters":22400,"station_id":"ce4bgt92rcd13ifvqcf0","pricing_plan_id":"cebpf4jnsgd1na2vs0mg"},{"bike_id":"b3c5eb3f-4c38-404b-96d9-a2f01db2dcf1","system_id":"levelo_inurba_marseille","lat":43.313571,"lon":5.384829,"is_reserved":false,"is_disabled":false,"rental_uris":{"android":"levelo://app?vid=b3c5eb3f-4c38-404b-96d9-a2f01db2dcf1","ios":"levelo://app?vid=b3c5eb3f-4c38-404b-96d9-a2f01db2dcf1"},"vehicle_type_id":"4","last_reported":1711393570,"current_range_meters":3600,"station_id":"ce4bgt92rcd13ifvqcf0","pricing_plan_id":"cebpf4jnsgd1na2vs0mg"},{"bike_id":"99d678d3-d934-4b19-b92a-63bb907f434f","system_id":"levelo_inurba_marseille","lat":43.292569,"lon":5.409107,"is_reserved":false,"is_disabled":false,"rental_uris":{"android":"levelo://app?vid=99d678d3-d934-4b19-b92a-63bb907f434f","ios":"levelo://app?vid=99d678d3-d934-4b19-b92a-63bb907f434f"},"vehicle_type_id":"4","last_reported":1711393570,"current_range_meters":20800,"station_id":"ce4bh192rcd13ifvqdc0","pricing_plan_id":"cebpf4jnsgd1na2vs0mg"},{"bike_id":"04ac1f9f-a9c5-4476-8f4b-3ada3dd0a0c8","system_id":"levelo_inurba_marseille","lat":43.29945,"lon":5.36537,"is_reserved":false,"is_disabled":false,"rental_uris":{"android":"levelo://app?vid=04ac1f9f-a9c5-4476-8f4b-3ada3dd0a0c8","ios":"levelo://app?vid=04ac1f9f-a9c5-4476-8f4b-3ada3dd0a0c8"},"vehicle_type_id":"4","last_reported":1711393570,"current_range_meters":0,"station_id":"ce4bgm92rcd13ifvqbr0","pricing_plan_id":"cebpf4jnsgd1na2vs0mg"},{"bike_id":"3341888b-532e-4b39-a9ef-8e62e555861c","system_id":"levelo_inurba_marseille","lat":43.299222,"lon":5.365554,"is_reserved":false,"is_disabled":false,"rental_uris":{"android":"levelo://app?vid=3341888b-532e-4b39-a9ef-8e62e555861c","ios":"levelo://app?vid=3341888b-532e-4b39-a9ef-8e62e555861c"},"vehicle_type_id":"4","last_reported":1711393570,"current_range_meters":3200,"station_id":"ce4bgm92rcd13ifvqbr0","pricing_plan_id":"cebpf4jnsgd1na2vs0mg"},{"bike_id":"1f79d937-ed18-41cd-8ad5-7820cbbf4b74","system_id":"levelo_inurba_marseille","lat":43.299222,"lon":5.365554,"is_reserved":false,"is_disabled":false,"rental_uris":{"android":"levelo://app?vid=1f79d937-ed18-41cd-8ad5-7820cbbf4b74","ios":"levelo://app?vid=1f79d937-ed18-41cd-8ad5-7820cbbf4b74"},"vehicle_type_id":"4","last_reported":1711393570,"current_range_meters":16800,"station_id":"ce4bgm92rcd13ifvqbr0","pricing_plan_id":"cebpf4jnsgd1na2vs0mg"},{"bike_id":"df517d41-ebaa-4c07-b2b8-3bbf2677abee","system_id":"levelo_inurba_marseille","lat":43.299222,"lon":5.365554,"is_reserved":false,"is_disabled":false,"rental_uris":{"android":"levelo://app?vid=df517d41-ebaa-4c07-b2b8-3bbf2677abee","ios":"levelo://app?vid=df517d41-ebaa-4c07-b2b8-3bbf2677abee"},"vehicle_type_id":"4","last_reported":1711393570,"current_range_meters":26800,"station_id":"ce4bgm92rcd13ifvqbr0","pricing_plan_id":"cebpf4jnsgd1na2vs0mg"},{"bike_id":"338a3a6c-15a0-4ad2-8376-42ede2b7c842","system_id":"levelo_inurba_marseille","lat":43.299222,"lon":5.365554,"is_reserved":false,"is_disabled":false,"rental_uris":{"android":"levelo://app?vid=338a3a6c-15a0-4ad2-8376-42ede2b7c842","ios":"levelo://app?vid=338a3a6c-15a0-4ad2-8376-42ede2b7c842"},"vehicle_type_id":"4","last_reported":1711393570,"current_range_meters":0,"station_id":"ce4bgm92rcd13ifvqbr0","pricing_plan_id":"cebpf4jnsgd1na2vs0mg"},{"bike_id":"799db745-fb9c-44c6-bdfc-34631884089a","system_id":"levelo_inurba_marseille","lat":43.299222,"lon":5.365554,"is_reserved":false,"is_disabled":false,"rental_uris":{"android":"levelo://app?vid=799db745-fb9c-44c6-bdfc-34631884089a","ios":"levelo://app?vid=799db745-fb9c-44c6-bdfc-34631884089a"},"vehicle_type_id":"4","last_reported":1711393570,"current_range_meters":23600,"station_id":"ce4bgm92rcd13ifvqbr0","pricing_plan_id":"cebpf4jnsgd1na2vs0mg"},{"bike_id":"76e988ec-a7ef-4746-a1ef-958f798ae014","system_id":"levelo_inurba_marseille","lat":43.299222,"lon":5.365554,"is_reserved":false,"is_disabled":false,"rental_uris":{"android":"levelo://app?vid=76e988ec-a7ef-4746-a1ef-958f798ae014","ios":"levelo://app?vid=76e988ec-a7ef-4746-a1ef-958f798ae014"},"vehicle_type_id":"4","last_reported":1711393570,"current_range_meters":27600,"station_id":"ce4bgm92rcd13ifvqbr0","pricing_plan_id":"cebpf4jnsgd1na2vs0mg"},{"bike_id":"98ed5738-0d9e-4d90-a6c0-d118fe1409e7","system_id":"levelo_inurba_marseille","lat":43.299222,"lon":5.365554,"is_reserved":false,"is_disabled":false,"rental_uris":{"android":"levelo://app?vid=98ed5738-0d9e-4d90-a6c0-d118fe1409e7","ios":"levelo://app?vid=98ed5738-0d9e-4d90-a6c0-d118fe1409e7"},"vehicle_type_id":"4","last_reported":1711393570,"current_range_meters":16800,"station_id":"ce4bgm92rcd13ifvqbr0","pricing_plan_id":"cebpf4jnsgd1na2vs0mg"},{"bike_id":"e6189788-8d4a-41bc-8d47-3262e18fecab","system_id":"levelo_inurba_marseille","lat":43.299222,"lon":5.365554,"is_reserved":false,"is_disabled":false,"rental_uris":{"android":"levelo://app?vid=e6189788-8d4a-41bc-8d47-3262e18fecab","ios":"levelo://app?vid=e6189788-8d4a-41bc-8d47-3262e18fecab"},"vehicle_type_id":"4","last_reported":1711393570,"current_range_meters":20400,"station_id":"ce4bgm92rcd13ifvqbr0","pricing_plan_id":"cebpf4jnsgd1na2vs0mg"},{"bike_id":"51b26688-0d40-44df-a7fa-64d4a0766f8c","system_id":"levelo_inurba_marseille","lat":43.299222,"lon":5.365554,"is_reserved":false,"is_disabled":false,"rental_uris":{"android":"levelo://app?vid=51b26688-0d40-44df-a7fa-64d4a0766f8c","ios":"levelo://app?vid=51b26688-0d40-44df-a7fa-64d4a0766f8c"},"vehicle_type_id":"4","last_reported":1711393570,"current_range_meters":15600,"station_id":"ce4bgm92rcd13ifvqbr0","pricing_plan_id":"cebpf4jnsgd1na2vs0mg"},{"bike_id":"3eb0f228-7a2e-429a-858a-b650a345ee7a","system_id":"levelo_inurba_marseille","lat":43.29934,"lon":5.36559,"is_reserved":false,"is_disabled":false,"rental_uris":{"android":"levelo://app?vid=3eb0f228-7a2e-429a-858a-b650a345ee7a","ios":"levelo://app?vid=3eb0f228-7a2e-429a-858a-b650a345ee7a"},"vehicle_type_id":"4","last_reported":1711393570,"current_range_meters":4000,"station_id":"ce4bgm92rcd13ifvqbr0","pricing_plan_id":"cebpf4jnsgd1na2vs0mg"},{"bike_id":"3285bb61-75dc-4c2a-a2c0-887f68a25840","system_id":"levelo_inurba_marseille","lat":43.299222,"lon":5.365554,"is_reserved":false,"is_disabled":false,"rental_uris":{"android":"levelo://app?vid=3285bb61-75dc-4c2a-a2c0-887f68a25840","ios":"levelo://app?vid=3285bb61-75dc-4c2a-a2c0-887f68a25840"},"vehicle_type_id":"4","last_reported":1711393570,"current_range_meters":7600,"station_id":"ce4bgm92rcd13ifvqbr0","pricing_plan_id":"cebpf4jnsgd1na2vs0mg"},{"bike_id":"9d0ba807-fa21-4e1a-99d6-5dc9598cbe31","system_id":"levelo_inurba_marseille","lat":43.299222,"lon":5.365554,"is_reserved":false,"is_disabled":false,"rental_uris":{"android":"levelo://app?vid=9d0ba807-fa21-4e1a-99d6-5dc9598cbe31","ios":"levelo://app?vid=9d0ba807-fa21-4e1a-99d6-5dc9598cbe31"},"vehicle_type_id":"4","last_reported":1711393570,"current_range_meters":18800,"station_id":"ce4bgm92rcd13ifvqbr0","pricing_plan_id":"cebpf4jnsgd1na2vs0mg"},{"bike_id":"b4195580-bee4-4ecc-8d9b-25e623e314c1","system_id":"levelo_inurba_marseille","lat":43.299222,"lon":5.365554,"is_reserved":false,"is_disabled":false,"rental_uris":{"android":"levelo://app?vid=b4195580-bee4-4ecc-8d9b-25e623e314c1","ios":"levelo://app?vid=b4195580-bee4-4ecc-8d9b-25e623e314c1"},"vehicle_type_id":"4","last_reported":1711393570,"current_range_meters":13600,"station_id":"ce4bgm92rcd13ifvqbr0","pricing_plan_id":"cebpf4jnsgd1na2vs0mg"},{"bike_id":"65716318-ae04-474e-9e58-973b7a4068b5","system_id":"levelo_inurba_marseille","lat":43.299222,"lon":5.365554,"is_reserved":false,"is_disabled":false,"rental_uris":{"android":"levelo://app?vid=65716318-ae04-474e-9e58-973b7a4068b5","ios":"levelo://app?vid=65716318-ae04-474e-9e58-973b7a4068b5"},"vehicle_type_id":"4","last_reported":1711393570,"current_range_meters":8800,"station_id":"ce4bgm92rcd13ifvqbr0","pricing_plan_id":"cebpf4jnsgd1na2vs0mg"},{"bike_id":"bc6a9603-b55a-4601-896c-b51cf007ab64","system_id":"levelo_inurba_marseille","lat":43.299724,"lon":5.371829,"is_reserved":false,"is_disabled":false,"rental_uris":{"android":"levelo://app?vid=bc6a9603-b55a-4601-896c-b51cf007ab64","ios":"levelo://app?vid=bc6a9603-b55a-4601-896c-b51cf007ab64"},"vehicle_type_id":"4","last_reported":1711393570,"current_range_meters":7600,"station_id":"ce4bgr92rcd13ifvqc7g","pricing_plan_id":"cebpf4jnsgd1na2vs0mg"},{"bike_id":"6d4f2143-f8c7-4b2b-ba64-117b2ab94dca","system_id":"levelo_inurba_marseille","lat":43.299222,"lon":5.365554,"is_reserved":false,"is_disabled":false,"rental_uris":{"android":"levelo://app?vid=6d4f2143-f8c7-4b2b-ba64-117b2ab94dca","ios":"levelo://app?vid=6d4f2143-f8c7-4b2b-ba64-117b2ab94dca"},"vehicle_type_id":"4","last_reported":1711393570,"current_range_meters":9200,"station_id":"ce4bgm92rcd13ifvqbr0","pricing_plan_id":"cebpf4jnsgd1na2vs0mg"},{"bike_id":"0dbaca67-1f83-4015-8ad1-68094b56c43f","system_id":"levelo_inurba_marseille","lat":43.299724,"lon":5.371829,"is_reserved":false,"is_disabled":false,"rental_uris":{"android":"levelo://app?vid=0dbaca67-1f83-4015-8ad1-68094b56c43f","ios":"levelo://app?vid=0dbaca67-1f83-4015-8ad1-68094b56c43f"},"vehicle_type_id":"4","last_reported":1711393570,"current_range_meters":19200,"station_id":"ce4bgr92rcd13ifvqc7g","pricing_plan_id":"cebpf4jnsgd1na2vs0mg"},{"bike_id":"d39adc66-119f-44b1-8b2d-8e105556edb6","system_id":"levelo_inurba_marseille","lat":43.299724,"lon":5.371829,"is_reserved":false,"is_disabled":false,"rental_uris":{"android":"levelo://app?vid=d39adc66-119f-44b1-8b2d-8e105556edb6","ios":"levelo://app?vid=d39adc66-119f-44b1-8b2d-8e105556edb6"},"vehicle_type_id":"4","last_reported":1711393570,"current_range_meters":0,"station_id":"ce4bgr92rcd13ifvqc7g","pricing_plan_id":"cebpf4jnsgd1na2vs0mg"},{"bike_id":"7b5bf5d3-e500-4c19-b958-5fb4665f1f92","system_id":"levelo_inurba_marseille","lat":43.299724,"lon":5.371829,"is_reserved":false,"is_disabled":false,"rental_uris":{"android":"levelo://app?vid=7b5bf5d3-e500-4c19-b958-5fb4665f1f92","ios":"levelo://app?vid=7b5bf5d3-e500-4c19-b958-5fb4665f1f92"},"vehicle_type_id":"4","last_reported":1711393570,"current_range_meters":4800,"station_id":"ce4bgr92rcd13ifvqc7g","pricing_plan_id":"cebpf4jnsgd1na2vs0mg"},{"bike_id":"6cd53467-b346-4878-b615-b48abe508e3d","system_id":"levelo_inurba_marseille","lat":43.305364,"lon":5.384119,"is_reserved":false,"is_disabled":false,"rental_uris":{"android":"levelo://app?vid=6cd53467-b346-4878-b615-b48abe508e3d","ios":"levelo://app?vid=6cd53467-b346-4878-b615-b48abe508e3d"},"vehicle_type_id":"4","last_reported":1711393570,"current_range_meters":7600,"station_id":"ce4bgg92rcd13ifvqb30","pricing_plan_id":"cebpf4jnsgd1na2vs0mg"},{"bike_id":"e81796bc-9933-48f1-a382-8022c3b30cb8","system_id":"levelo_inurba_marseille","lat":43.29846,"lon":5.36283,"is_reserved":false,"is_disabled":false,"rental_uris":{"android":"levelo://app?vid=e81796bc-9933-48f1-a382-8022c3b30cb8","ios":"levelo://app?vid=e81796bc-9933-48f1-a382-8022c3b30cb8"},"vehicle_type_id":"4","last_reported":1711393570,"current_range_meters":7200,"station_id":"ce4bgpp2rcd13ifvqc3g","pricing_plan_id":"cebpf4jnsgd1na2vs0mg"},{"bike_id":"6d04aba3-6dc1-436f-baff-c4f2e9efa807","system_id":"levelo_inurba_marseille","lat":43.298433,"lon":5.362774,"is_reserved":false,"is_disabled":false,"rental_uris":{"android":"levelo://app?vid=6d04aba3-6dc1-436f-baff-c4f2e9efa807","ios":"levelo://app?vid=6d04aba3-6dc1-436f-baff-c4f2e9efa807"},"vehicle_type_id":"4","last_reported":1711393570,"current_range_meters":10400,"station_id":"ce4bgpp2rcd13ifvqc3g","pricing_plan_id":"cebpf4jnsgd1na2vs0mg"},{"bike_id":"d6d9dfda-4d17-4f3f-b3ee-d082b487bbe7","system_id":"levelo_inurba_marseille","lat":43.29845,"lon":5.3628,"is_reserved":false,"is_disabled":false,"rental_uris":{"android":"levelo://app?vid=d6d9dfda-4d17-4f3f-b3ee-d082b487bbe7","ios":"levelo://app?vid=d6d9dfda-4d17-4f3f-b3ee-d082b487bbe7"},"vehicle_type_id":"4","last_reported":1711393570,"current_range_meters":19600,"station_id":"ce4bgpp2rcd13ifvqc3g","pricing_plan_id":"cebpf4jnsgd1na2vs0mg"},{"bike_id":"0461083a-43d7-4ce4-854c-efc7eaaa830e","system_id":"levelo_inurba_marseille","lat":43.298433,"lon":5.362774,"is_reserved":false,"is_disabled":false,"rental_uris":{"android":"levelo://app?vid=0461083a-43d7-4ce4-854c-efc7eaaa830e","ios":"levelo://app?vid=0461083a-43d7-4ce4-854c-efc7eaaa830e"},"vehicle_type_id":"4","last_reported":1711393570,"current_range_meters":21600,"station_id":"ce4bgpp2rcd13ifvqc3g","pricing_plan_id":"cebpf4jnsgd1na2vs0mg"},{"bike_id":"de05d736-3c36-4b52-bda3-f1e0b011883b","system_id":"levelo_inurba_marseille","lat":43.299243,"lon":5.37481,"is_reserved":false,"is_disabled":false,"rental_uris":{"android":"levelo://app?vid=de05d736-3c36-4b52-bda3-f1e0b011883b","ios":"levelo://app?vid=de05d736-3c36-4b52-bda3-f1e0b011883b"},"vehicle_type_id":"4","last_reported":1711393570,"current_range_meters":15600,"station_id":"ce4bgjh2rcd13ifvqbg0","pricing_plan_id":"cebpf4jnsgd1na2vs0mg"},{"bike_id":"3a8efc07-3d43-4768-b551-b7e7450ddcb5","system_id":"levelo_inurba_marseille","lat":43.298433,"lon":5.362774,"is_reserved":false,"is_disabled":false,"rental_uris":{"android":"levelo://app?vid=3a8efc07-3d43-4768-b551-b7e7450ddcb5","ios":"levelo://app?vid=3a8efc07-3d43-4768-b551-b7e7450ddcb5"},"vehicle_type_id":"4","last_reported":1711393570,"current_range_meters":19600,"station_id":"ce4bgpp2rcd13ifvqc3g","pricing_plan_id":"cebpf4jnsgd1na2vs0mg"},{"bike_id":"3ce052c8-95d1-4211-9329-7bbad41db032","system_id":"levelo_inurba_marseille","lat":43.31171,"lon":5.387,"is_reserved":false,"is_disabled":false,"rental_uris":{"android":"levelo://app?vid=3ce052c8-95d1-4211-9329-7bbad41db032","ios":"levelo://app?vid=3ce052c8-95d1-4211-9329-7bbad41db032"},"vehicle_type_id":"4","last_reported":1711393570,"current_range_meters":24000,"station_id":"ce4bgv12rcd13ifvqcp0","pricing_plan_id":"cebpf4jnsgd1na2vs0mg"},{"bike_id":"e5b84a8d-e10e-407f-8c1e-2d09644cea71","system_id":"levelo_inurba_marseille","lat":43.299243,"lon":5.37481,"is_reserved":false,"is_disabled":false,"rental_uris":{"android":"levelo://app?vid=e5b84a8d-e10e-407f-8c1e-2d09644cea71","ios":"levelo://app?vid=e5b84a8d-e10e-407f-8c1e-2d09644cea71"},"vehicle_type_id":"4","last_reported":1711393570,"current_range_meters":18000,"station_id":"ce4bgjh2rcd13ifvqbg0","pricing_plan_id":"cebpf4jnsgd1na2vs0mg"},{"bike_id":"075d0c82-316e-4ca6-8d43-f933834428e9","system_id":"levelo_inurba_marseille","lat":43.311722,"lon":5.387247,"is_reserved":false,"is_disabled":false,"rental_uris":{"android":"levelo://app?vid=075d0c82-316e-4ca6-8d43-f933834428e9","ios":"levelo://app?vid=075d0c82-316e-4ca6-8d43-f933834428e9"},"vehicle_type_id":"4","last_reported":1711393570,"current_range_meters":16400,"station_id":"ce4bgv12rcd13ifvqcp0","pricing_plan_id":"cebpf4jnsgd1na2vs0mg"},{"bike_id":"b0979dc7-052c-4f48-b806-d86ba087c45b","system_id":"levelo_inurba_marseille","lat":43.311722,"lon":5.387247,"is_reserved":false,"is_disabled":false,"rental_uris":{"android":"levelo://app?vid=b0979dc7-052c-4f48-b806-d86ba087c45b","ios":"levelo://app?vid=b0979dc7-052c-4f48-b806-d86ba087c45b"},"vehicle_type_id":"4","last_reported":1711393570,"current_range_meters":17600,"station_id":"ce4bgv12rcd13ifvqcp0","pricing_plan_id":"cebpf4jnsgd1na2vs0mg"},{"bike_id":"0e0fb9fe-ae02-4160-a09f-d2209629f3ba","system_id":"levelo_inurba_marseille","lat":43.291675,"lon":5.371583,"is_reserved":false,"is_disabled":false,"rental_uris":{"android":"levelo://app?vid=0e0fb9fe-ae02-4160-a09f-d2209629f3ba","ios":"levelo://app?vid=0e0fb9fe-ae02-4160-a09f-d2209629f3ba"},"vehicle_type_id":"4","last_reported":1711393570,"current_range_meters":25200,"station_id":"ce4bha92rcd13ifvqeh0","pricing_plan_id":"cebpf4jnsgd1na2vs0mg"},{"bike_id":"cd830b48-fe4b-43aa-ad4e-b60b9e1aa068","system_id":"levelo_inurba_marseille","lat":43.31174,"lon":5.38716,"is_reserved":false,"is_disabled":false,"rental_uris":{"android":"levelo://app?vid=cd830b48-fe4b-43aa-ad4e-b60b9e1aa068","ios":"levelo://app?vid=cd830b48-fe4b-43aa-ad4e-b60b9e1aa068"},"vehicle_type_id":"4","last_reported":1711393570,"current_range_meters":6000,"station_id":"ce4bgv12rcd13ifvqcp0","pricing_plan_id":"cebpf4jnsgd1na2vs0mg"},{"bike_id":"6e132044-7ff4-4219-acc0-3e56688ed51d","system_id":"levelo_inurba_marseille","lat":43.299243,"lon":5.37481,"is_reserved":false,"is_disabled":false,"rental_uris":{"android":"levelo://app?vid=6e132044-7ff4-4219-acc0-3e56688ed51d","ios":"levelo://app?vid=6e132044-7ff4-4219-acc0-3e56688ed51d"},"vehicle_type_id":"4","last_reported":1711393570,"current_range_meters":14000,"station_id":"ce4bgjh2rcd13ifvqbg0","pricing_plan_id":"cebpf4jnsgd1na2vs0mg"},{"bike_id":"7436b88e-0991-4d88-a975-fb1163463dd5","system_id":"levelo_inurba_marseille","lat":43.311722,"lon":5.387247,"is_reserved":false,"is_disabled":false,"rental_uris":{"android":"levelo://app?vid=7436b88e-0991-4d88-a975-fb1163463dd5","ios":"levelo://app?vid=7436b88e-0991-4d88-a975-fb1163463dd5"},"vehicle_type_id":"4","last_reported":1711393570,"current_range_meters":21200,"station_id":"ce4bgv12rcd13ifvqcp0","pricing_plan_id":"cebpf4jnsgd1na2vs0mg"},{"bike_id":"cea09421-7776-4b41-b3e8-8cf37d274c98","system_id":"levelo_inurba_marseille","lat":43.311722,"lon":5.387247,"is_reserved":false,"is_disabled":false,"rental_uris":{"android":"levelo://app?vid=cea09421-7776-4b41-b3e8-8cf37d274c98","ios":"levelo://app?vid=cea09421-7776-4b41-b3e8-8cf37d274c98"},"vehicle_type_id":"4","last_reported":1711393570,"current_range_meters":6800,"station_id":"ce4bgv12rcd13ifvqcp0","pricing_plan_id":"cebpf4jnsgd1na2vs0mg"},{"bike_id":"feead7e7-9cee-4c57-94a6-da647512767c","system_id":"levelo_inurba_marseille","lat":43.322896,"lon":5.382515,"is_reserved":false,"is_disabled":false,"rental_uris":{"android":"levelo://app?vid=feead7e7-9cee-4c57-94a6-da647512767c","ios":"levelo://app?vid=feead7e7-9cee-4c57-94a6-da647512767c"},"vehicle_type_id":"4","last_reported":1711393570,"current_range_meters":0,"station_id":"ce4bhr12rcd13ifvqhqg","pricing_plan_id":"cebpf4jnsgd1na2vs0mg"},{"bike_id":"ac18a901-aff0-4f99-bd5b-270feddb1e94","system_id":"levelo_inurba_marseille","lat":43.322872,"lon":5.382756,"is_reserved":false,"is_disabled":false,"rental_uris":{"android":"levelo://app?vid=ac18a901-aff0-4f99-bd5b-270feddb1e94","ios":"levelo://app?vid=ac18a901-aff0-4f99-bd5b-270feddb1e94"},"vehicle_type_id":"4","last_reported":1711393570,"current_range_meters":24000,"station_id":"ce4bhr12rcd13ifvqhqg","pricing_plan_id":"cebpf4jnsgd1na2vs0mg"},{"bike_id":"6e17a8b0-cf86-4965-b9e4-db0ed7a190d1","system_id":"levelo_inurba_marseille","lat":43.297163,"lon":5.365866,"is_reserved":false,"is_disabled":false,"rental_uris":{"android":"levelo://app?vid=6e17a8b0-cf86-4965-b9e4-db0ed7a190d1","ios":"levelo://app?vid=6e17a8b0-cf86-4965-b9e4-db0ed7a190d1"},"vehicle_type_id":"4","last_reported":1711393570,"current_range_meters":11200,"station_id":"ce4bgn12rcd13ifvqbt0","pricing_plan_id":"cebpf4jnsgd1na2vs0mg"},{"bike_id":"58633ef5-e17b-4678-9e20-3f4f63f775c7","system_id":"levelo_inurba_marseille","lat":43.29711,"lon":5.365975,"is_reserved":false,"is_disabled":false,"rental_uris":{"android":"levelo://app?vid=58633ef5-e17b-4678-9e20-3f4f63f775c7","ios":"levelo://app?vid=58633ef5-e17b-4678-9e20-3f4f63f775c7"},"vehicle_type_id":"4","last_reported":1711393570,"current_range_meters":0,"station_id":"ce4bgn12rcd13ifvqbt0","pricing_plan_id":"cebpf4jnsgd1na2vs0mg"},{"bike_id":"cc6de53c-688b-482c-aba1-71ea4e3a836b","system_id":"levelo_inurba_marseille","lat":43.297163,"lon":5.365866,"is_reserved":false,"is_disabled":false,"rental_uris":{"android":"levelo://app?vid=cc6de53c-688b-482c-aba1-71ea4e3a836b","ios":"levelo://app?vid=cc6de53c-688b-482c-aba1-71ea4e3a836b"},"vehicle_type_id":"4","last_reported":1711393570,"current_range_meters":6800,"station_id":"ce4bgn12rcd13ifvqbt0","pricing_plan_id":"cebpf4jnsgd1na2vs0mg"},{"bike_id":"d1081c21-8fe3-45c1-9163-f6393635e832","system_id":"levelo_inurba_marseille","lat":43.297163,"lon":5.365866,"is_reserved":false,"is_disabled":false,"rental_uris":{"android":"levelo://app?vid=d1081c21-8fe3-45c1-9163-f6393635e832","ios":"levelo://app?vid=d1081c21-8fe3-45c1-9163-f6393635e832"},"vehicle_type_id":"4","last_reported":1711393570,"current_range_meters":30800,"station_id":"ce4bgn12rcd13ifvqbt0","pricing_plan_id":"cebpf4jnsgd1na2vs0mg"},{"bike_id":"85a669f5-2610-4f20-8e1e-b7489f36a6fc","system_id":"levelo_inurba_marseille","lat":43.297163,"lon":5.365866,"is_reserved":false,"is_disabled":false,"rental_uris":{"android":"levelo://app?vid=85a669f5-2610-4f20-8e1e-b7489f36a6fc","ios":"levelo://app?vid=85a669f5-2610-4f20-8e1e-b7489f36a6fc"},"vehicle_type_id":"4","last_reported":1711393570,"current_range_meters":5200,"station_id":"ce4bgn12rcd13ifvqbt0","pricing_plan_id":"cebpf4jnsgd1na2vs0mg"},{"bike_id":"df1e6ea2-2d2a-4468-bf41-ca2da1e31172","system_id":"levelo_inurba_marseille","lat":43.31556,"lon":5.38842,"is_reserved":false,"is_disabled":false,"rental_uris":{"android":"levelo://app?vid=df1e6ea2-2d2a-4468-bf41-ca2da1e31172","ios":"levelo://app?vid=df1e6ea2-2d2a-4468-bf41-ca2da1e31172"},"vehicle_type_id":"4","last_reported":1711393570,"current_range_meters":10400,"station_id":"","pricing_plan_id":"cebpf4jnsgd1na2vs0mg"},{"bike_id":"67b9b8db-57e6-44fd-a81f-69b316e31ab8","system_id":"levelo_inurba_marseille","lat":43.2968,"lon":5.37291,"is_reserved":false,"is_disabled":false,"rental_uris":{"android":"levelo://app?vid=67b9b8db-57e6-44fd-a81f-69b316e31ab8","ios":"levelo://app?vid=67b9b8db-57e6-44fd-a81f-69b316e31ab8"},"vehicle_type_id":"4","last_reported":1711393570,"current_range_meters":0,"station_id":"ce4bgk12rcd13ifvqbj0","pricing_plan_id":"cebpf4jnsgd1na2vs0mg"},{"bike_id":"9b3c3e18-a89a-4792-8a87-2358f71853c0","system_id":"levelo_inurba_marseille","lat":43.2968,"lon":5.37291,"is_reserved":false,"is_disabled":false,"rental_uris":{"android":"levelo://app?vid=9b3c3e18-a89a-4792-8a87-2358f71853c0","ios":"levelo://app?vid=9b3c3e18-a89a-4792-8a87-2358f71853c0"},"vehicle_type_id":"4","last_reported":1711393570,"current_range_meters":22800,"station_id":"ce4bgk12rcd13ifvqbj0","pricing_plan_id":"cebpf4jnsgd1na2vs0mg"},{"bike_id":"8abf8cef-d940-4052-8d3c-22ace98d234c","system_id":"levelo_inurba_marseille","lat":43.299707,"lon":5.384859,"is_reserved":false,"is_disabled":false,"rental_uris":{"android":"levelo://app?vid=8abf8cef-d940-4052-8d3c-22ace98d234c","ios":"levelo://app?vid=8abf8cef-d940-4052-8d3c-22ace98d234c"},"vehicle_type_id":"4","last_reported":1711393570,"current_range_meters":5600,"station_id":"ce4bgj92rcd13ifvqbd0","pricing_plan_id":"cebpf4jnsgd1na2vs0mg"},{"bike_id":"da820c1c-1fed-456c-86bc-512167abb381","system_id":"levelo_inurba_marseille","lat":43.317557,"lon":5.390173,"is_reserved":false,"is_disabled":false,"rental_uris":{"android":"levelo://app?vid=da820c1c-1fed-456c-86bc-512167abb381","ios":"levelo://app?vid=da820c1c-1fed-456c-86bc-512167abb381"},"vehicle_type_id":"4","last_reported":1711393570,"current_range_meters":31200,"station_id":"ce4bhqp2rcd13ifvqhng","pricing_plan_id":"cebpf4jnsgd1na2vs0mg"},{"bike_id":"6ed3f315-b466-4c8c-b739-9fdd02609004","system_id":"levelo_inurba_marseille","lat":43.29573,"lon":5.367355,"is_reserved":false,"is_disabled":false,"rental_uris":{"android":"levelo://app?vid=6ed3f315-b466-4c8c-b739-9fdd02609004","ios":"levelo://app?vid=6ed3f315-b466-4c8c-b739-9fdd02609004"},"vehicle_type_id":"4","last_reported":1711393570,"current_range_meters":14800,"station_id":"ce4bgph2rcd13ifvqc2g","pricing_plan_id":"cebpf4jnsgd1na2vs0mg"},{"bike_id":"0eee8c77-d137-4c85-8220-8db95ebcb2b4","system_id":"levelo_inurba_marseille","lat":43.315289,"lon":5.380349,"is_reserved":false,"is_disabled":false,"rental_uris":{"android":"levelo://app?vid=0eee8c77-d137-4c85-8220-8db95ebcb2b4","ios":"levelo://app?vid=0eee8c77-d137-4c85-8220-8db95ebcb2b4"},"vehicle_type_id":"4","last_reported":1711393570,"current_range_meters":18000,"station_id":"ce4bhsp2rcd13ifvqi50","pricing_plan_id":"cebpf4jnsgd1na2vs0mg"},{"bike_id":"acfd3c17-98f2-4dc3-bcca-eaca310381f0","system_id":"levelo_inurba_marseille","lat":43.29573,"lon":5.367355,"is_reserved":false,"is_disabled":false,"rental_uris":{"android":"levelo://app?vid=acfd3c17-98f2-4dc3-bcca-eaca310381f0","ios":"levelo://app?vid=acfd3c17-98f2-4dc3-bcca-eaca310381f0"},"vehicle_type_id":"4","last_reported":1711393570,"current_range_meters":4800,"station_id":"ce4bgph2rcd13ifvqc2g","pricing_plan_id":"cebpf4jnsgd1na2vs0mg"},{"bike_id":"8ba22294-92ae-4be2-9fd0-b3c28535b08c","system_id":"levelo_inurba_marseille","lat":43.29911,"lon":5.38136,"is_reserved":false,"is_disabled":false,"rental_uris":{"android":"levelo://app?vid=8ba22294-92ae-4be2-9fd0-b3c28535b08c","ios":"levelo://app?vid=8ba22294-92ae-4be2-9fd0-b3c28535b08c"},"vehicle_type_id":"4","last_reported":1711393570,"current_range_meters":26000,"station_id":"ce4bgj12rcd13ifvqbc0","pricing_plan_id":"cebpf4jnsgd1na2vs0mg"},{"bike_id":"1e83c1d6-592b-4e34-bfd8-4d87907738e4","system_id":"levelo_inurba_marseille","lat":43.2991,"lon":5.38135,"is_reserved":false,"is_disabled":false,"rental_uris":{"android":"levelo://app?vid=1e83c1d6-592b-4e34-bfd8-4d87907738e4","ios":"levelo://app?vid=1e83c1d6-592b-4e34-bfd8-4d87907738e4"},"vehicle_type_id":"4","last_reported":1711393570,"current_range_meters":16800,"station_id":"ce4bgj12rcd13ifvqbc0","pricing_plan_id":"cebpf4jnsgd1na2vs0mg"},{"bike_id":"c7d74c21-23a8-4e30-81fd-a49895d15dd9","system_id":"levelo_inurba_marseille","lat":43.29909,"lon":5.381361,"is_reserved":false,"is_disabled":false,"rental_uris":{"android":"levelo://app?vid=c7d74c21-23a8-4e30-81fd-a49895d15dd9","ios":"levelo://app?vid=c7d74c21-23a8-4e30-81fd-a49895d15dd9"},"vehicle_type_id":"4","last_reported":1711393570,"current_range_meters":24400,"station_id":"ce4bgj12rcd13ifvqbc0","pricing_plan_id":"cebpf4jnsgd1na2vs0mg"},{"bike_id":"8b064251-d7b8-4a87-9510-762b2692927c","system_id":"levelo_inurba_marseille","lat":43.299028,"lon":5.381509,"is_reserved":false,"is_disabled":false,"rental_uris":{"android":"levelo://app?vid=8b064251-d7b8-4a87-9510-762b2692927c","ios":"levelo://app?vid=8b064251-d7b8-4a87-9510-762b2692927c"},"vehicle_type_id":"4","last_reported":1711393570,"current_range_meters":11200,"station_id":"ce4bgj12rcd13ifvqbc0","pricing_plan_id":"cebpf4jnsgd1na2vs0mg"},{"bike_id":"fb84d0cc-adbe-4cb1-8700-d31dd45402c5","system_id":"levelo_inurba_marseille","lat":43.296921,"lon":5.376579,"is_reserved":false,"is_disabled":false,"rental_uris":{"android":"levelo://app?vid=fb84d0cc-adbe-4cb1-8700-d31dd45402c5","ios":"levelo://app?vid=fb84d0cc-adbe-4cb1-8700-d31dd45402c5"},"vehicle_type_id":"4","last_reported":1711393570,"current_range_meters":25200,"station_id":"ce4bgkh2rcd13ifvqbl0","pricing_plan_id":"cebpf4jnsgd1na2vs0mg"},{"bike_id":"279ffde6-1d7a-48e7-9fa5-76b2e4d98bb5","system_id":"levelo_inurba_marseille","lat":43.299028,"lon":5.381509,"is_reserved":false,"is_disabled":false,"rental_uris":{"android":"levelo://app?vid=279ffde6-1d7a-48e7-9fa5-76b2e4d98bb5","ios":"levelo://app?vid=279ffde6-1d7a-48e7-9fa5-76b2e4d98bb5"},"vehicle_type_id":"4","last_reported":1711393570,"current_range_meters":27600,"station_id":"ce4bgj12rcd13ifvqbc0","pricing_plan_id":"cebpf4jnsgd1na2vs0mg"},{"bike_id":"725adf9a-5f69-4413-a99b-a54efb88c760","system_id":"levelo_inurba_marseille","lat":43.299028,"lon":5.381509,"is_reserved":false,"is_disabled":false,"rental_uris":{"android":"levelo://app?vid=725adf9a-5f69-4413-a99b-a54efb88c760","ios":"levelo://app?vid=725adf9a-5f69-4413-a99b-a54efb88c760"},"vehicle_type_id":"4","last_reported":1711393570,"current_range_meters":31600,"station_id":"ce4bgj12rcd13ifvqbc0","pricing_plan_id":"cebpf4jnsgd1na2vs0mg"},{"bike_id":"955e23fb-88c9-4da1-b661-4a3624b4e31f","system_id":"levelo_inurba_marseille","lat":43.299028,"lon":5.381509,"is_reserved":false,"is_disabled":false,"rental_uris":{"android":"levelo://app?vid=955e23fb-88c9-4da1-b661-4a3624b4e31f","ios":"levelo://app?vid=955e23fb-88c9-4da1-b661-4a3624b4e31f"},"vehicle_type_id":"4","last_reported":1711393570,"current_range_meters":30000,"station_id":"ce4bgj12rcd13ifvqbc0","pricing_plan_id":"cebpf4jnsgd1na2vs0mg"},{"bike_id":"ab679f16-ddbd-477f-a751-6b1e3db94117","system_id":"levelo_inurba_marseille","lat":43.299028,"lon":5.381509,"is_reserved":false,"is_disabled":false,"rental_uris":{"android":"levelo://app?vid=ab679f16-ddbd-477f-a751-6b1e3db94117","ios":"levelo://app?vid=ab679f16-ddbd-477f-a751-6b1e3db94117"},"vehicle_type_id":"4","last_reported":1711393570,"current_range_meters":19200,"station_id":"ce4bgj12rcd13ifvqbc0","pricing_plan_id":"cebpf4jnsgd1na2vs0mg"},{"bike_id":"d9466f7e-4a41-4144-b158-e836b230dc92","system_id":"levelo_inurba_marseille","lat":43.317557,"lon":5.390173,"is_reserved":false,"is_disabled":false,"rental_uris":{"android":"levelo://app?vid=d9466f7e-4a41-4144-b158-e836b230dc92","ios":"levelo://app?vid=d9466f7e-4a41-4144-b158-e836b230dc92"},"vehicle_type_id":"4","last_reported":1711393570,"current_range_meters":6800,"station_id":"ce4bhqp2rcd13ifvqhng","pricing_plan_id":"cebpf4jnsgd1na2vs0mg"},{"bike_id":"2c472e10-af38-410d-bfda-03dd98b036dd","system_id":"levelo_inurba_marseille","lat":43.296921,"lon":5.376579,"is_reserved":false,"is_disabled":false,"rental_uris":{"android":"levelo://app?vid=2c472e10-af38-410d-bfda-03dd98b036dd","ios":"levelo://app?vid=2c472e10-af38-410d-bfda-03dd98b036dd"},"vehicle_type_id":"4","last_reported":1711393570,"current_range_meters":6400,"station_id":"ce4bgkh2rcd13ifvqbl0","pricing_plan_id":"cebpf4jnsgd1na2vs0mg"},{"bike_id":"74974c3e-a3ed-4db4-862b-8a3a954f9899","system_id":"levelo_inurba_marseille","lat":43.317557,"lon":5.390173,"is_reserved":false,"is_disabled":false,"rental_uris":{"android":"levelo://app?vid=74974c3e-a3ed-4db4-862b-8a3a954f9899","ios":"levelo://app?vid=74974c3e-a3ed-4db4-862b-8a3a954f9899"},"vehicle_type_id":"4","last_reported":1711393570,"current_range_meters":16400,"station_id":"ce4bhqp2rcd13ifvqhng","pricing_plan_id":"cebpf4jnsgd1na2vs0mg"},{"bike_id":"a931c455-d728-49e7-b88a-2acee71fb49c","system_id":"levelo_inurba_marseille","lat":43.317557,"lon":5.390173,"is_reserved":false,"is_disabled":false,"rental_uris":{"android":"levelo://app?vid=a931c455-d728-49e7-b88a-2acee71fb49c","ios":"levelo://app?vid=a931c455-d728-49e7-b88a-2acee71fb49c"},"vehicle_type_id":"4","last_reported":1711393570,"current_range_meters":24400,"station_id":"ce4bhqp2rcd13ifvqhng","pricing_plan_id":"cebpf4jnsgd1na2vs0mg"},{"bike_id":"61811189-75cf-4d15-a6f4-1f7399341d0f","system_id":"levelo_inurba_marseille","lat":43.31758,"lon":5.39015,"is_reserved":false,"is_disabled":false,"rental_uris":{"android":"levelo://app?vid=61811189-75cf-4d15-a6f4-1f7399341d0f","ios":"levelo://app?vid=61811189-75cf-4d15-a6f4-1f7399341d0f"},"vehicle_type_id":"4","last_reported":1711393570,"current_range_meters":14800,"station_id":"ce4bhqp2rcd13ifvqhng","pricing_plan_id":"cebpf4jnsgd1na2vs0mg"},{"bike_id":"5a0fd1d2-8e65-443e-9fca-b2ba02caa8e8","system_id":"levelo_inurba_marseille","lat":43.31756,"lon":5.39019,"is_reserved":false,"is_disabled":false,"rental_uris":{"android":"levelo://app?vid=5a0fd1d2-8e65-443e-9fca-b2ba02caa8e8","ios":"levelo://app?vid=5a0fd1d2-8e65-443e-9fca-b2ba02caa8e8"},"vehicle_type_id":"4","last_reported":1711393570,"current_range_meters":25600,"station_id":"ce4bhqp2rcd13ifvqhng","pricing_plan_id":"cebpf4jnsgd1na2vs0mg"},{"bike_id":"83108d97-d6fa-4d19-b3b0-1dbede4bac67","system_id":"levelo_inurba_marseille","lat":43.31755,"lon":5.39021,"is_reserved":false,"is_disabled":false,"rental_uris":{"android":"levelo://app?vid=83108d97-d6fa-4d19-b3b0-1dbede4bac67","ios":"levelo://app?vid=83108d97-d6fa-4d19-b3b0-1dbede4bac67"},"vehicle_type_id":"4","last_reported":1711393570,"current_range_meters":16800,"station_id":"ce4bhqp2rcd13ifvqhng","pricing_plan_id":"cebpf4jnsgd1na2vs0mg"},{"bike_id":"d5f55ddd-68b1-43b4-a156-720154add23b","system_id":"levelo_inurba_marseille","lat":43.317592,"lon":5.390206,"is_reserved":false,"is_disabled":false,"rental_uris":{"android":"levelo://app?vid=d5f55ddd-68b1-43b4-a156-720154add23b","ios":"levelo://app?vid=d5f55ddd-68b1-43b4-a156-720154add23b"},"vehicle_type_id":"4","last_reported":1711393570,"current_range_meters":0,"station_id":"ce4bhqp2rcd13ifvqhng","pricing_plan_id":"cebpf4jnsgd1na2vs0mg"},{"bike_id":"d642746c-c3b3-4993-8c11-edc5a35ab173","system_id":"levelo_inurba_marseille","lat":43.3176,"lon":5.39021,"is_reserved":false,"is_disabled":false,"rental_uris":{"android":"levelo://app?vid=d642746c-c3b3-4993-8c11-edc5a35ab173","ios":"levelo://app?vid=d642746c-c3b3-4993-8c11-edc5a35ab173"},"vehicle_type_id":"4","last_reported":1711393570,"current_range_meters":26400,"station_id":"ce4bhqp2rcd13ifvqhng","pricing_plan_id":"cebpf4jnsgd1na2vs0mg"},{"bike_id":"96880fb3-9072-474a-b7df-b58771331d89","system_id":"levelo_inurba_marseille","lat":43.3176,"lon":5.39022,"is_reserved":false,"is_disabled":false,"rental_uris":{"android":"levelo://app?vid=96880fb3-9072-474a-b7df-b58771331d89","ios":"levelo://app?vid=96880fb3-9072-474a-b7df-b58771331d89"},"vehicle_type_id":"4","last_reported":1711393570,"current_range_meters":14800,"station_id":"ce4bhqp2rcd13ifvqhng","pricing_plan_id":"cebpf4jnsgd1na2vs0mg"},{"bike_id":"054286f3-dcfd-43ed-a4c3-b31f9b4c7ac3","system_id":"levelo_inurba_marseille","lat":43.298037,"lon":5.381066,"is_reserved":false,"is_disabled":false,"rental_uris":{"android":"levelo://app?vid=054286f3-dcfd-43ed-a4c3-b31f9b4c7ac3","ios":"levelo://app?vid=054286f3-dcfd-43ed-a4c3-b31f9b4c7ac3"},"vehicle_type_id":"4","last_reported":1711393570,"current_range_meters":12400,"station_id":"ce4bgip2rcd13ifvqbb0","pricing_plan_id":"cebpf4jnsgd1na2vs0mg"},{"bike_id":"4bf22dce-9c2b-48f0-baaf-41ed4f0acd51","system_id":"levelo_inurba_marseille","lat":43.29674,"lon":5.377615,"is_reserved":false,"is_disabled":false,"rental_uris":{"android":"levelo://app?vid=4bf22dce-9c2b-48f0-baaf-41ed4f0acd51","ios":"levelo://app?vid=4bf22dce-9c2b-48f0-baaf-41ed4f0acd51"},"vehicle_type_id":"4","last_reported":1711393570,"current_range_meters":8000,"station_id":"","pricing_plan_id":"cebpf4jnsgd1na2vs0mg"},{"bike_id":"2b2ac124-b264-4926-8575-f40c749c4fb2","system_id":"levelo_inurba_marseille","lat":43.29803,"lon":5.380837,"is_reserved":false,"is_disabled":false,"rental_uris":{"android":"levelo://app?vid=2b2ac124-b264-4926-8575-f40c749c4fb2","ios":"levelo://app?vid=2b2ac124-b264-4926-8575-f40c749c4fb2"},"vehicle_type_id":"4","last_reported":1711393570,"current_range_meters":20800,"station_id":"ce4bgip2rcd13ifvqbb0","pricing_plan_id":"cebpf4jnsgd1na2vs0mg"},{"bike_id":"c53fb633-8406-412f-a1a7-11a6d3affcf5","system_id":"levelo_inurba_marseille","lat":43.298037,"lon":5.381066,"is_reserved":false,"is_disabled":false,"rental_uris":{"android":"levelo://app?vid=c53fb633-8406-412f-a1a7-11a6d3affcf5","ios":"levelo://app?vid=c53fb633-8406-412f-a1a7-11a6d3affcf5"},"vehicle_type_id":"4","last_reported":1711393570,"current_range_meters":9200,"station_id":"ce4bgip2rcd13ifvqbb0","pricing_plan_id":"cebpf4jnsgd1na2vs0mg"},{"bike_id":"306afbaa-2e53-45f2-b12a-0d9f06c661af","system_id":"levelo_inurba_marseille","lat":43.298,"lon":5.38087,"is_reserved":false,"is_disabled":false,"rental_uris":{"android":"levelo://app?vid=306afbaa-2e53-45f2-b12a-0d9f06c661af","ios":"levelo://app?vid=306afbaa-2e53-45f2-b12a-0d9f06c661af"},"vehicle_type_id":"4","last_reported":1711393570,"current_range_meters":4800,"station_id":"ce4bgip2rcd13ifvqbb0","pricing_plan_id":"cebpf4jnsgd1na2vs0mg"},{"bike_id":"7492b609-bf5e-4cfb-9f75-6433539c6169","system_id":"levelo_inurba_marseille","lat":43.298037,"lon":5.381066,"is_reserved":false,"is_disabled":false,"rental_uris":{"android":"levelo://app?vid=7492b609-bf5e-4cfb-9f75-6433539c6169","ios":"levelo://app?vid=7492b609-bf5e-4cfb-9f75-6433539c6169"},"vehicle_type_id":"4","last_reported":1711393570,"current_range_meters":18800,"station_id":"ce4bgip2rcd13ifvqbb0","pricing_plan_id":"cebpf4jnsgd1na2vs0mg"},{"bike_id":"82b9cced-47d8-455b-820c-feb9c373bfe9","system_id":"levelo_inurba_marseille","lat":43.298049,"lon":5.381003,"is_reserved":false,"is_disabled":false,"rental_uris":{"android":"levelo://app?vid=82b9cced-47d8-455b-820c-feb9c373bfe9","ios":"levelo://app?vid=82b9cced-47d8-455b-820c-feb9c373bfe9"},"vehicle_type_id":"4","last_reported":1711393570,"current_range_meters":17200,"station_id":"ce4bgip2rcd13ifvqbb0","pricing_plan_id":"cebpf4jnsgd1na2vs0mg"},{"bike_id":"05eddafb-518c-4a16-9ece-ffdfe8adb215","system_id":"levelo_inurba_marseille","lat":43.29799,"lon":5.38094,"is_reserved":false,"is_disabled":false,"rental_uris":{"android":"levelo://app?vid=05eddafb-518c-4a16-9ece-ffdfe8adb215","ios":"levelo://app?vid=05eddafb-518c-4a16-9ece-ffdfe8adb215"},"vehicle_type_id":"4","last_reported":1711393570,"current_range_meters":7200,"station_id":"ce4bgip2rcd13ifvqbb0","pricing_plan_id":"cebpf4jnsgd1na2vs0mg"},{"bike_id":"eb17bc20-5992-448c-bde1-8b5a3dc5b909","system_id":"levelo_inurba_marseille","lat":43.298037,"lon":5.381066,"is_reserved":false,"is_disabled":false,"rental_uris":{"android":"levelo://app?vid=eb17bc20-5992-448c-bde1-8b5a3dc5b909","ios":"levelo://app?vid=eb17bc20-5992-448c-bde1-8b5a3dc5b909"},"vehicle_type_id":"4","last_reported":1711393570,"current_range_meters":5600,"station_id":"ce4bgip2rcd13ifvqbb0","pricing_plan_id":"cebpf4jnsgd1na2vs0mg"},{"bike_id":"c28ce3db-8c00-43b0-8f6f-a838c536f144","system_id":"levelo_inurba_marseille","lat":43.297973,"lon":5.380933,"is_reserved":false,"is_disabled":false,"rental_uris":{"android":"levelo://app?vid=c28ce3db-8c00-43b0-8f6f-a838c536f144","ios":"levelo://app?vid=c28ce3db-8c00-43b0-8f6f-a838c536f144"},"vehicle_type_id":"4","last_reported":1711393570,"current_range_meters":13200,"station_id":"ce4bgip2rcd13ifvqbb0","pricing_plan_id":"cebpf4jnsgd1na2vs0mg"},{"bike_id":"dc5c9905-7f6d-41a6-af08-3f889ebd878e","system_id":"levelo_inurba_marseille","lat":43.298037,"lon":5.381066,"is_reserved":false,"is_disabled":false,"rental_uris":{"android":"levelo://app?vid=dc5c9905-7f6d-41a6-af08-3f889ebd878e","ios":"levelo://app?vid=dc5c9905-7f6d-41a6-af08-3f889ebd878e"},"vehicle_type_id":"4","last_reported":1711393570,"current_range_meters":14400,"station_id":"ce4bgip2rcd13ifvqbb0","pricing_plan_id":"cebpf4jnsgd1na2vs0mg"},{"bike_id":"617b0e6f-676e-40f0-bbaf-c9395e5b4dcd","system_id":"levelo_inurba_marseille","lat":43.31476,"lon":5.39155,"is_reserved":false,"is_disabled":false,"rental_uris":{"android":"levelo://app?vid=617b0e6f-676e-40f0-bbaf-c9395e5b4dcd","ios":"levelo://app?vid=617b0e6f-676e-40f0-bbaf-c9395e5b4dcd"},"vehicle_type_id":"4","last_reported":1711393570,"current_range_meters":1600,"station_id":"","pricing_plan_id":"cebpf4jnsgd1na2vs0mg"},{"bike_id":"c0f102ad-f3de-4602-9d24-0c03e55544f7","system_id":"levelo_inurba_marseille","lat":43.284538,"lon":5.358657,"is_reserved":false,"is_disabled":false,"rental_uris":{"android":"levelo://app?vid=c0f102ad-f3de-4602-9d24-0c03e55544f7","ios":"levelo://app?vid=c0f102ad-f3de-4602-9d24-0c03e55544f7"},"vehicle_type_id":"4","last_reported":1711393570,"current_range_meters":6400,"station_id":"ce4bhah2rcd13ifvqei0","pricing_plan_id":"cebpf4jnsgd1na2vs0mg"},{"bike_id":"b9708c25-241a-42f2-ae3d-9b372f34da63","system_id":"levelo_inurba_marseille","lat":43.30443,"lon":5.388937,"is_reserved":false,"is_disabled":false,"rental_uris":{"android":"levelo://app?vid=b9708c25-241a-42f2-ae3d-9b372f34da63","ios":"levelo://app?vid=b9708c25-241a-42f2-ae3d-9b372f34da63"},"vehicle_type_id":"4","last_reported":1711393570,"current_range_meters":3200,"station_id":"ce4bgk12rcd13ifvqbi0","pricing_plan_id":"cebpf4jnsgd1na2vs0mg"},{"bike_id":"ca99c337-0e96-4b2f-8d70-8a47a7f6cac4","system_id":"levelo_inurba_marseille","lat":43.296277,"lon":5.377108,"is_reserved":false,"is_disabled":false,"rental_uris":{"android":"levelo://app?vid=ca99c337-0e96-4b2f-8d70-8a47a7f6cac4","ios":"levelo://app?vid=ca99c337-0e96-4b2f-8d70-8a47a7f6cac4"},"vehicle_type_id":"4","last_reported":1711393570,"current_range_meters":20400,"station_id":"ce4bgi92rcd13ifvqb90","pricing_plan_id":"cebpf4jnsgd1na2vs0mg"},{"bike_id":"1d6bb016-60ae-4985-891f-85cf96f49f42","system_id":"levelo_inurba_marseille","lat":43.298037,"lon":5.381066,"is_reserved":false,"is_disabled":false,"rental_uris":{"android":"levelo://app?vid=1d6bb016-60ae-4985-891f-85cf96f49f42","ios":"levelo://app?vid=1d6bb016-60ae-4985-891f-85cf96f49f42"},"vehicle_type_id":"4","last_reported":1711393570,"current_range_meters":12000,"station_id":"ce4bgip2rcd13ifvqbb0","pricing_plan_id":"cebpf4jnsgd1na2vs0mg"},{"bike_id":"719862f6-78a0-4539-929e-10936c2762f9","system_id":"levelo_inurba_marseille","lat":43.30443,"lon":5.38895,"is_reserved":false,"is_disabled":false,"rental_uris":{"android":"levelo://app?vid=719862f6-78a0-4539-929e-10936c2762f9","ios":"levelo://app?vid=719862f6-78a0-4539-929e-10936c2762f9"},"vehicle_type_id":"4","last_reported":1711393570,"current_range_meters":26400,"station_id":"ce4bgk12rcd13ifvqbi0","pricing_plan_id":"cebpf4jnsgd1na2vs0mg"},{"bike_id":"f584ee81-0bef-482e-bcf0-659940834a9f","system_id":"levelo_inurba_marseille","lat":43.296263,"lon":5.377094,"is_reserved":false,"is_disabled":false,"rental_uris":{"android":"levelo://app?vid=f584ee81-0bef-482e-bcf0-659940834a9f","ios":"levelo://app?vid=f584ee81-0bef-482e-bcf0-659940834a9f"},"vehicle_type_id":"4","last_reported":1711393570,"current_range_meters":8400,"station_id":"ce4bgi92rcd13ifvqb90","pricing_plan_id":"cebpf4jnsgd1na2vs0mg"},{"bike_id":"9a676102-78b8-4644-ad1d-fadc8eabb8b2","system_id":"levelo_inurba_marseille","lat":43.296249,"lon":5.377386,"is_reserved":false,"is_disabled":false,"rental_uris":{"android":"levelo://app?vid=9a676102-78b8-4644-ad1d-fadc8eabb8b2","ios":"levelo://app?vid=9a676102-78b8-4644-ad1d-fadc8eabb8b2"},"vehicle_type_id":"4","last_reported":1711393570,"current_range_meters":0,"station_id":"ce4bgi92rcd13ifvqb90","pricing_plan_id":"cebpf4jnsgd1na2vs0mg"},{"bike_id":"bf9bf615-bce6-4b76-a67d-ae2385bcd89c","system_id":"levelo_inurba_marseille","lat":43.31462,"lon":5.39196,"is_reserved":false,"is_disabled":false,"rental_uris":{"android":"levelo://app?vid=bf9bf615-bce6-4b76-a67d-ae2385bcd89c","ios":"levelo://app?vid=bf9bf615-bce6-4b76-a67d-ae2385bcd89c"},"vehicle_type_id":"4","last_reported":1711393570,"current_range_meters":27600,"station_id":"","pricing_plan_id":"cebpf4jnsgd1na2vs0mg"},{"bike_id":"fa5c3893-8bd7-4ede-a002-bbc566ec9e50","system_id":"levelo_inurba_marseille","lat":43.295279,"lon":5.375048,"is_reserved":false,"is_disabled":false,"rental_uris":{"android":"levelo://app?vid=fa5c3893-8bd7-4ede-a002-bbc566ec9e50","ios":"levelo://app?vid=fa5c3893-8bd7-4ede-a002-bbc566ec9e50"},"vehicle_type_id":"4","last_reported":1711393570,"current_range_meters":0,"station_id":"ce4bgkp2rcd13ifvqbmg","pricing_plan_id":"cebpf4jnsgd1na2vs0mg"},{"bike_id":"513e8a6e-7bf4-4d8e-906c-6c2e9280826b","system_id":"levelo_inurba_marseille","lat":43.298037,"lon":5.381066,"is_reserved":false,"is_disabled":false,"rental_uris":{"android":"levelo://app?vid=513e8a6e-7bf4-4d8e-906c-6c2e9280826b","ios":"levelo://app?vid=513e8a6e-7bf4-4d8e-906c-6c2e9280826b"},"vehicle_type_id":"4","last_reported":1711393570,"current_range_meters":11200,"station_id":"ce4bgip2rcd13ifvqbb0","pricing_plan_id":"cebpf4jnsgd1na2vs0mg"},{"bike_id":"7a98862f-2e2d-417c-b6d2-7c1eecf8eeea","system_id":"levelo_inurba_marseille","lat":43.299683,"lon":5.384994,"is_reserved":false,"is_disabled":false,"rental_uris":{"android":"levelo://app?vid=7a98862f-2e2d-417c-b6d2-7c1eecf8eeea","ios":"levelo://app?vid=7a98862f-2e2d-417c-b6d2-7c1eecf8eeea"},"vehicle_type_id":"4","last_reported":1711393570,"current_range_meters":0,"station_id":"ce4bgj92rcd13ifvqbd0","pricing_plan_id":"cebpf4jnsgd1na2vs0mg"},{"bike_id":"21b79d44-9200-40a5-99ae-450ce18d9383","system_id":"levelo_inurba_marseille","lat":43.32367,"lon":5.388836,"is_reserved":false,"is_disabled":false,"rental_uris":{"android":"levelo://app?vid=21b79d44-9200-40a5-99ae-450ce18d9383","ios":"levelo://app?vid=21b79d44-9200-40a5-99ae-450ce18d9383"},"vehicle_type_id":"4","last_reported":1711393570,"current_range_meters":18000,"station_id":"ce4bhqp2rcd13ifvqhog","pricing_plan_id":"cebpf4jnsgd1na2vs0mg"},{"bike_id":"5cb30f96-5704-4c25-9377-17b6d030ac1a","system_id":"levelo_inurba_marseille","lat":43.32367,"lon":5.388836,"is_reserved":false,"is_disabled":false,"rental_uris":{"android":"levelo://app?vid=5cb30f96-5704-4c25-9377-17b6d030ac1a","ios":"levelo://app?vid=5cb30f96-5704-4c25-9377-17b6d030ac1a"},"vehicle_type_id":"4","last_reported":1711393570,"current_range_meters":8800,"station_id":"ce4bhqp2rcd13ifvqhog","pricing_plan_id":"cebpf4jnsgd1na2vs0mg"},{"bike_id":"13e571f2-6100-4b3f-8f21-368c46a93a66","system_id":"levelo_inurba_marseille","lat":43.32365,"lon":5.38886,"is_reserved":false,"is_disabled":false,"rental_uris":{"android":"levelo://app?vid=13e571f2-6100-4b3f-8f21-368c46a93a66","ios":"levelo://app?vid=13e571f2-6100-4b3f-8f21-368c46a93a66"},"vehicle_type_id":"4","last_reported":1711393570,"current_range_meters":0,"station_id":"ce4bhqp2rcd13ifvqhog","pricing_plan_id":"cebpf4jnsgd1na2vs0mg"},{"bike_id":"3aa46326-71f7-4121-8f47-dfcc74d3bb25","system_id":"levelo_inurba_marseille","lat":43.32367,"lon":5.388836,"is_reserved":false,"is_disabled":false,"rental_uris":{"android":"levelo://app?vid=3aa46326-71f7-4121-8f47-dfcc74d3bb25","ios":"levelo://app?vid=3aa46326-71f7-4121-8f47-dfcc74d3bb25"},"vehicle_type_id":"4","last_reported":1711393570,"current_range_meters":9200,"station_id":"ce4bhqp2rcd13ifvqhog","pricing_plan_id":"cebpf4jnsgd1na2vs0mg"},{"bike_id":"e9957f63-2478-4f71-8e28-e8a1e63aaf51","system_id":"levelo_inurba_marseille","lat":43.32367,"lon":5.388836,"is_reserved":false,"is_disabled":false,"rental_uris":{"android":"levelo://app?vid=e9957f63-2478-4f71-8e28-e8a1e63aaf51","ios":"levelo://app?vid=e9957f63-2478-4f71-8e28-e8a1e63aaf51"},"vehicle_type_id":"4","last_reported":1711393570,"current_range_meters":17200,"station_id":"ce4bhqp2rcd13ifvqhog","pricing_plan_id":"cebpf4jnsgd1na2vs0mg"},{"bike_id":"c56e3e85-d19c-4dc5-b26c-a5fb7445c568","system_id":"levelo_inurba_marseille","lat":43.32367,"lon":5.388836,"is_reserved":false,"is_disabled":false,"rental_uris":{"android":"levelo://app?vid=c56e3e85-d19c-4dc5-b26c-a5fb7445c568","ios":"levelo://app?vid=c56e3e85-d19c-4dc5-b26c-a5fb7445c568"},"vehicle_type_id":"4","last_reported":1711393570,"current_range_meters":11200,"station_id":"ce4bhqp2rcd13ifvqhog","pricing_plan_id":"cebpf4jnsgd1na2vs0mg"},{"bike_id":"d9eb9426-2649-485f-af63-69b7c1ee6113","system_id":"levelo_inurba_marseille","lat":43.29601,"lon":5.381084,"is_reserved":false,"is_disabled":false,"rental_uris":{"android":"levelo://app?vid=d9eb9426-2649-485f-af63-69b7c1ee6113","ios":"levelo://app?vid=d9eb9426-2649-485f-af63-69b7c1ee6113"},"vehicle_type_id":"4","last_reported":1711393570,"current_range_meters":7600,"station_id":"ce4bgl12rcd13ifvqbo0","pricing_plan_id":"cebpf4jnsgd1na2vs0mg"},{"bike_id":"51da314f-d3e9-4207-b1d1-9859a5d3a83c","system_id":"levelo_inurba_marseille","lat":43.29601,"lon":5.381084,"is_reserved":false,"is_disabled":false,"rental_uris":{"android":"levelo://app?vid=51da314f-d3e9-4207-b1d1-9859a5d3a83c","ios":"levelo://app?vid=51da314f-d3e9-4207-b1d1-9859a5d3a83c"},"vehicle_type_id":"4","last_reported":1711393570,"current_range_meters":0,"station_id":"ce4bgl12rcd13ifvqbo0","pricing_plan_id":"cebpf4jnsgd1na2vs0mg"},{"bike_id":"a526125e-9eae-40b6-8588-1349379a07e8","system_id":"levelo_inurba_marseille","lat":43.293249,"lon":5.371578,"is_reserved":false,"is_disabled":false,"rental_uris":{"android":"levelo://app?vid=a526125e-9eae-40b6-8588-1349379a07e8","ios":"levelo://app?vid=a526125e-9eae-40b6-8588-1349379a07e8"},"vehicle_type_id":"4","last_reported":1711393570,"current_range_meters":8400,"station_id":"ce4bgh92rcd13ifvqb40","pricing_plan_id":"cebpf4jnsgd1na2vs0mg"},{"bike_id":"c98a98f9-7c01-4dd4-888c-7db7b3db503c","system_id":"levelo_inurba_marseille","lat":43.293249,"lon":5.371578,"is_reserved":false,"is_disabled":false,"rental_uris":{"android":"levelo://app?vid=c98a98f9-7c01-4dd4-888c-7db7b3db503c","ios":"levelo://app?vid=c98a98f9-7c01-4dd4-888c-7db7b3db503c"},"vehicle_type_id":"4","last_reported":1711393570,"current_range_meters":22000,"station_id":"ce4bgh92rcd13ifvqb40","pricing_plan_id":"cebpf4jnsgd1na2vs0mg"},{"bike_id":"a8f453aa-bc9f-4699-9e28-ef9e6edea0fb","system_id":"levelo_inurba_marseille","lat":43.293249,"lon":5.371578,"is_reserved":false,"is_disabled":false,"rental_uris":{"android":"levelo://app?vid=a8f453aa-bc9f-4699-9e28-ef9e6edea0fb","ios":"levelo://app?vid=a8f453aa-bc9f-4699-9e28-ef9e6edea0fb"},"vehicle_type_id":"4","last_reported":1711393570,"current_range_meters":31200,"station_id":"ce4bgh92rcd13ifvqb40","pricing_plan_id":"cebpf4jnsgd1na2vs0mg"},{"bike_id":"8ff20be1-7b50-4aa8-b52c-e753bd078ff1","system_id":"levelo_inurba_marseille","lat":43.293259,"lon":5.371586,"is_reserved":false,"is_disabled":false,"rental_uris":{"android":"levelo://app?vid=8ff20be1-7b50-4aa8-b52c-e753bd078ff1","ios":"levelo://app?vid=8ff20be1-7b50-4aa8-b52c-e753bd078ff1"},"vehicle_type_id":"4","last_reported":1711393570,"current_range_meters":26400,"station_id":"ce4bgh92rcd13ifvqb40","pricing_plan_id":"cebpf4jnsgd1na2vs0mg"},{"bike_id":"6527265a-64b7-498c-9da5-194ed5a87985","system_id":"levelo_inurba_marseille","lat":43.292749,"lon":5.368402,"is_reserved":false,"is_disabled":false,"rental_uris":{"android":"levelo://app?vid=6527265a-64b7-498c-9da5-194ed5a87985","ios":"levelo://app?vid=6527265a-64b7-498c-9da5-194ed5a87985"},"vehicle_type_id":"4","last_reported":1711393570,"current_range_meters":29600,"station_id":"ce4bhbp2rcd13ifvqesg","pricing_plan_id":"cebpf4jnsgd1na2vs0mg"},{"bike_id":"ec730550-b626-4509-a8fc-ded8f49b7d9e","system_id":"levelo_inurba_marseille","lat":43.305994,"lon":5.393687,"is_reserved":false,"is_disabled":false,"rental_uris":{"android":"levelo://app?vid=ec730550-b626-4509-a8fc-ded8f49b7d9e","ios":"levelo://app?vid=ec730550-b626-4509-a8fc-ded8f49b7d9e"},"vehicle_type_id":"4","last_reported":1711393570,"current_range_meters":11600,"station_id":"ce4bh0p2rcd13ifvqd80","pricing_plan_id":"cebpf4jnsgd1na2vs0mg"},{"bike_id":"9d3a3382-fcff-4f08-ba7a-72bd864573ae","system_id":"levelo_inurba_marseille","lat":43.305994,"lon":5.393687,"is_reserved":false,"is_disabled":false,"rental_uris":{"android":"levelo://app?vid=9d3a3382-fcff-4f08-ba7a-72bd864573ae","ios":"levelo://app?vid=9d3a3382-fcff-4f08-ba7a-72bd864573ae"},"vehicle_type_id":"4","last_reported":1711393570,"current_range_meters":20800,"station_id":"ce4bh0p2rcd13ifvqd80","pricing_plan_id":"cebpf4jnsgd1na2vs0mg"},{"bike_id":"07dfbf1d-5ded-4daa-bc97-9498a09fcf5e","system_id":"levelo_inurba_marseille","lat":43.293009,"lon":5.374584,"is_reserved":false,"is_disabled":false,"rental_uris":{"android":"levelo://app?vid=07dfbf1d-5ded-4daa-bc97-9498a09fcf5e","ios":"levelo://app?vid=07dfbf1d-5ded-4daa-bc97-9498a09fcf5e"},"vehicle_type_id":"4","last_reported":1711393570,"current_range_meters":14000,"station_id":"ce4bgi12rcd13ifvqb70","pricing_plan_id":"cebpf4jnsgd1na2vs0mg"},{"bike_id":"3d64f94d-0aa6-4090-973b-f5f96e514398","system_id":"levelo_inurba_marseille","lat":43.293009,"lon":5.374584,"is_reserved":false,"is_disabled":false,"rental_uris":{"android":"levelo://app?vid=3d64f94d-0aa6-4090-973b-f5f96e514398","ios":"levelo://app?vid=3d64f94d-0aa6-4090-973b-f5f96e514398"},"vehicle_type_id":"4","last_reported":1711393570,"current_range_meters":3600,"station_id":"ce4bgi12rcd13ifvqb70","pricing_plan_id":"cebpf4jnsgd1na2vs0mg"},{"bike_id":"774d3589-8691-40b5-a0d9-cf9c3bf3109a","system_id":"levelo_inurba_marseille","lat":43.305994,"lon":5.393687,"is_reserved":false,"is_disabled":false,"rental_uris":{"android":"levelo://app?vid=774d3589-8691-40b5-a0d9-cf9c3bf3109a","ios":"levelo://app?vid=774d3589-8691-40b5-a0d9-cf9c3bf3109a"},"vehicle_type_id":"4","last_reported":1711393570,"current_range_meters":13600,"station_id":"ce4bh0p2rcd13ifvqd80","pricing_plan_id":"cebpf4jnsgd1na2vs0mg"},{"bike_id":"5fd42894-e8bd-444b-aad8-9590c4e60676","system_id":"levelo_inurba_marseille","lat":43.293009,"lon":5.374584,"is_reserved":false,"is_disabled":false,"rental_uris":{"android":"levelo://app?vid=5fd42894-e8bd-444b-aad8-9590c4e60676","ios":"levelo://app?vid=5fd42894-e8bd-444b-aad8-9590c4e60676"},"vehicle_type_id":"4","last_reported":1711393570,"current_range_meters":24000,"station_id":"ce4bgi12rcd13ifvqb70","pricing_plan_id":"cebpf4jnsgd1na2vs0mg"},{"bike_id":"28df2d05-564f-40a5-988b-8de5dd21da5e","system_id":"levelo_inurba_marseille","lat":43.29284,"lon":5.37454,"is_reserved":false,"is_disabled":false,"rental_uris":{"android":"levelo://app?vid=28df2d05-564f-40a5-988b-8de5dd21da5e","ios":"levelo://app?vid=28df2d05-564f-40a5-988b-8de5dd21da5e"},"vehicle_type_id":"4","last_reported":1711393570,"current_range_meters":0,"station_id":"ce4bgi12rcd13ifvqb70","pricing_plan_id":"cebpf4jnsgd1na2vs0mg"},{"bike_id":"a589c2a6-560c-4e2f-9f61-0b43c4466135","system_id":"levelo_inurba_marseille","lat":43.30301,"lon":5.39204,"is_reserved":false,"is_disabled":false,"rental_uris":{"android":"levelo://app?vid=a589c2a6-560c-4e2f-9f61-0b43c4466135","ios":"levelo://app?vid=a589c2a6-560c-4e2f-9f61-0b43c4466135"},"vehicle_type_id":"4","last_reported":1711393570,"current_range_meters":21600,"station_id":"ce4bgkh2rcd13ifvqbk0","pricing_plan_id":"cebpf4jnsgd1na2vs0mg"},{"bike_id":"827fe0b4-9690-4838-949b-21496237f7fd","system_id":"levelo_inurba_marseille","lat":43.302992,"lon":5.392136,"is_reserved":false,"is_disabled":false,"rental_uris":{"android":"levelo://app?vid=827fe0b4-9690-4838-949b-21496237f7fd","ios":"levelo://app?vid=827fe0b4-9690-4838-949b-21496237f7fd"},"vehicle_type_id":"4","last_reported":1711393570,"current_range_meters":4000,"station_id":"ce4bgkh2rcd13ifvqbk0","pricing_plan_id":"cebpf4jnsgd1na2vs0mg"},{"bike_id":"cac10537-6dfe-422d-9a5b-20dae560a1fe","system_id":"levelo_inurba_marseille","lat":43.302992,"lon":5.392136,"is_reserved":false,"is_disabled":false,"rental_uris":{"android":"levelo://app?vid=cac10537-6dfe-422d-9a5b-20dae560a1fe","ios":"levelo://app?vid=cac10537-6dfe-422d-9a5b-20dae560a1fe"},"vehicle_type_id":"4","last_reported":1711393570,"current_range_meters":8400,"station_id":"ce4bgkh2rcd13ifvqbk0","pricing_plan_id":"cebpf4jnsgd1na2vs0mg"},{"bike_id":"325d6f9c-7a1d-4a7c-9ebb-ae37d271080b","system_id":"levelo_inurba_marseille","lat":43.30305,"lon":5.39212,"is_reserved":false,"is_disabled":false,"rental_uris":{"android":"levelo://app?vid=325d6f9c-7a1d-4a7c-9ebb-ae37d271080b","ios":"levelo://app?vid=325d6f9c-7a1d-4a7c-9ebb-ae37d271080b"},"vehicle_type_id":"4","last_reported":1711393570,"current_range_meters":18400,"station_id":"ce4bgkh2rcd13ifvqbk0","pricing_plan_id":"cebpf4jnsgd1na2vs0mg"},{"bike_id":"fed7a894-4e77-4fb4-bd11-dfbba7a05fb3","system_id":"levelo_inurba_marseille","lat":43.302992,"lon":5.392136,"is_reserved":false,"is_disabled":false,"rental_uris":{"android":"levelo://app?vid=fed7a894-4e77-4fb4-bd11-dfbba7a05fb3","ios":"levelo://app?vid=fed7a894-4e77-4fb4-bd11-dfbba7a05fb3"},"vehicle_type_id":"4","last_reported":1711393570,"current_range_meters":15600,"station_id":"ce4bgkh2rcd13ifvqbk0","pricing_plan_id":"cebpf4jnsgd1na2vs0mg"},{"bike_id":"5eae039c-685c-45e6-8fc9-8f06b9aa0d84","system_id":"levelo_inurba_marseille","lat":43.30311,"lon":5.39217,"is_reserved":false,"is_disabled":false,"rental_uris":{"android":"levelo://app?vid=5eae039c-685c-45e6-8fc9-8f06b9aa0d84","ios":"levelo://app?vid=5eae039c-685c-45e6-8fc9-8f06b9aa0d84"},"vehicle_type_id":"4","last_reported":1711393570,"current_range_meters":20800,"station_id":"ce4bgkh2rcd13ifvqbk0","pricing_plan_id":"cebpf4jnsgd1na2vs0mg"},{"bike_id":"7b085e9b-f9c8-4539-a113-d36d09a69ead","system_id":"levelo_inurba_marseille","lat":43.302992,"lon":5.392136,"is_reserved":false,"is_disabled":false,"rental_uris":{"android":"levelo://app?vid=7b085e9b-f9c8-4539-a113-d36d09a69ead","ios":"levelo://app?vid=7b085e9b-f9c8-4539-a113-d36d09a69ead"},"vehicle_type_id":"4","last_reported":1711393570,"current_range_meters":25200,"station_id":"ce4bgkh2rcd13ifvqbk0","pricing_plan_id":"cebpf4jnsgd1na2vs0mg"},{"bike_id":"d602dbad-fc4b-40c6-b612-0933bdb313f4","system_id":"levelo_inurba_marseille","lat":43.302992,"lon":5.392136,"is_reserved":false,"is_disabled":false,"rental_uris":{"android":"levelo://app?vid=d602dbad-fc4b-40c6-b612-0933bdb313f4","ios":"levelo://app?vid=d602dbad-fc4b-40c6-b612-0933bdb313f4"},"vehicle_type_id":"4","last_reported":1711393570,"current_range_meters":25600,"station_id":"ce4bgkh2rcd13ifvqbk0","pricing_plan_id":"cebpf4jnsgd1na2vs0mg"},{"bike_id":"557c422c-89f1-40b2-8bad-db26082296e5","system_id":"levelo_inurba_marseille","lat":43.302992,"lon":5.392136,"is_reserved":false,"is_disabled":false,"rental_uris":{"android":"levelo://app?vid=557c422c-89f1-40b2-8bad-db26082296e5","ios":"levelo://app?vid=557c422c-89f1-40b2-8bad-db26082296e5"},"vehicle_type_id":"4","last_reported":1711393570,"current_range_meters":7200,"station_id":"ce4bgkh2rcd13ifvqbk0","pricing_plan_id":"cebpf4jnsgd1na2vs0mg"},{"bike_id":"c7a97149-aefe-4ac5-b884-443e778f3b9c","system_id":"levelo_inurba_marseille","lat":43.2936,"lon":5.37835,"is_reserved":false,"is_disabled":false,"rental_uris":{"android":"levelo://app?vid=c7a97149-aefe-4ac5-b884-443e778f3b9c","ios":"levelo://app?vid=c7a97149-aefe-4ac5-b884-443e778f3b9c"},"vehicle_type_id":"4","last_reported":1711393570,"current_range_meters":24000,"station_id":"ce4bgjh2rcd13ifvqbf0","pricing_plan_id":"cebpf4jnsgd1na2vs0mg"},{"bike_id":"9ba1934a-1a7a-4ceb-9908-962cc4d04896","system_id":"levelo_inurba_marseille","lat":43.2936,"lon":5.37835,"is_reserved":false,"is_disabled":false,"rental_uris":{"android":"levelo://app?vid=9ba1934a-1a7a-4ceb-9908-962cc4d04896","ios":"levelo://app?vid=9ba1934a-1a7a-4ceb-9908-962cc4d04896"},"vehicle_type_id":"4","last_reported":1711393570,"current_range_meters":24800,"station_id":"ce4bgjh2rcd13ifvqbf0","pricing_plan_id":"cebpf4jnsgd1na2vs0mg"},{"bike_id":"c86b70ff-0cec-4278-b891-1a73ed6bda98","system_id":"levelo_inurba_marseille","lat":43.300852,"lon":5.390859,"is_reserved":false,"is_disabled":false,"rental_uris":{"android":"levelo://app?vid=c86b70ff-0cec-4278-b891-1a73ed6bda98","ios":"levelo://app?vid=c86b70ff-0cec-4278-b891-1a73ed6bda98"},"vehicle_type_id":"4","last_reported":1711393570,"current_range_meters":13600,"station_id":"ce4bh192rcd13ifvqdb0","pricing_plan_id":"cebpf4jnsgd1na2vs0mg"},{"bike_id":"bbfa64f3-6f6b-4825-a854-76c3cd11ea4e","system_id":"levelo_inurba_marseille","lat":43.300852,"lon":5.390859,"is_reserved":false,"is_disabled":false,"rental_uris":{"android":"levelo://app?vid=bbfa64f3-6f6b-4825-a854-76c3cd11ea4e","ios":"levelo://app?vid=bbfa64f3-6f6b-4825-a854-76c3cd11ea4e"},"vehicle_type_id":"4","last_reported":1711393570,"current_range_meters":7200,"station_id":"ce4bh192rcd13ifvqdb0","pricing_plan_id":"cebpf4jnsgd1na2vs0mg"},{"bike_id":"3f110dd4-6ba9-4c11-8718-7c1647c4e388","system_id":"levelo_inurba_marseille","lat":43.292311,"lon":5.360731,"is_reserved":false,"is_disabled":false,"rental_uris":{"android":"levelo://app?vid=3f110dd4-6ba9-4c11-8718-7c1647c4e388","ios":"levelo://app?vid=3f110dd4-6ba9-4c11-8718-7c1647c4e388"},"vehicle_type_id":"4","last_reported":1711393570,"current_range_meters":2000,"station_id":"ce4bhbh2rcd13ifvqeqg","pricing_plan_id":"cebpf4jnsgd1na2vs0mg"},{"bike_id":"4b3ffb18-6fa8-4f3f-a36c-a5ed02b409cb","system_id":"levelo_inurba_marseille","lat":43.2936,"lon":5.37835,"is_reserved":false,"is_disabled":false,"rental_uris":{"android":"levelo://app?vid=4b3ffb18-6fa8-4f3f-a36c-a5ed02b409cb","ios":"levelo://app?vid=4b3ffb18-6fa8-4f3f-a36c-a5ed02b409cb"},"vehicle_type_id":"4","last_reported":1711393570,"current_range_meters":20800,"station_id":"ce4bgjh2rcd13ifvqbf0","pricing_plan_id":"cebpf4jnsgd1na2vs0mg"},{"bike_id":"7a05dfde-e4fe-4597-ab56-abc7a2dc8a8d","system_id":"levelo_inurba_marseille","lat":43.30085,"lon":5.390856,"is_reserved":false,"is_disabled":false,"rental_uris":{"android":"levelo://app?vid=7a05dfde-e4fe-4597-ab56-abc7a2dc8a8d","ios":"levelo://app?vid=7a05dfde-e4fe-4597-ab56-abc7a2dc8a8d"},"vehicle_type_id":"4","last_reported":1711393570,"current_range_meters":9200,"station_id":"ce4bh192rcd13ifvqdb0","pricing_plan_id":"cebpf4jnsgd1na2vs0mg"},{"bike_id":"876e35e1-9830-4b6d-9e67-3f0f0d897c3d","system_id":"levelo_inurba_marseille","lat":43.292311,"lon":5.360731,"is_reserved":false,"is_disabled":false,"rental_uris":{"android":"levelo://app?vid=876e35e1-9830-4b6d-9e67-3f0f0d897c3d","ios":"levelo://app?vid=876e35e1-9830-4b6d-9e67-3f0f0d897c3d"},"vehicle_type_id":"4","last_reported":1711393570,"current_range_meters":21200,"station_id":"ce4bhbh2rcd13ifvqeqg","pricing_plan_id":"cebpf4jnsgd1na2vs0mg"},{"bike_id":"17dd726f-48a3-4ad3-8985-1580ef0108a1","system_id":"levelo_inurba_marseille","lat":43.30085,"lon":5.390856,"is_reserved":false,"is_disabled":false,"rental_uris":{"android":"levelo://app?vid=17dd726f-48a3-4ad3-8985-1580ef0108a1","ios":"levelo://app?vid=17dd726f-48a3-4ad3-8985-1580ef0108a1"},"vehicle_type_id":"4","last_reported":1711393570,"current_range_meters":10000,"station_id":"ce4bh192rcd13ifvqdb0","pricing_plan_id":"cebpf4jnsgd1na2vs0mg"},{"bike_id":"d813b456-f03d-474c-a8bc-771f48e5b85d","system_id":"levelo_inurba_marseille","lat":43.300852,"lon":5.390859,"is_reserved":false,"is_disabled":false,"rental_uris":{"android":"levelo://app?vid=d813b456-f03d-474c-a8bc-771f48e5b85d","ios":"levelo://app?vid=d813b456-f03d-474c-a8bc-771f48e5b85d"},"vehicle_type_id":"4","last_reported":1711393570,"current_range_meters":0,"station_id":"ce4bh192rcd13ifvqdb0","pricing_plan_id":"cebpf4jnsgd1na2vs0mg"},{"bike_id":"72154de6-756f-4110-acbb-e106b43ac5d1","system_id":"levelo_inurba_marseille","lat":43.30085,"lon":5.390856,"is_reserved":false,"is_disabled":false,"rental_uris":{"android":"levelo://app?vid=72154de6-756f-4110-acbb-e106b43ac5d1","ios":"levelo://app?vid=72154de6-756f-4110-acbb-e106b43ac5d1"},"vehicle_type_id":"4","last_reported":1711393570,"current_range_meters":7200,"station_id":"ce4bh192rcd13ifvqdb0","pricing_plan_id":"cebpf4jnsgd1na2vs0mg"},{"bike_id":"c5480326-5475-4606-8fee-92de8b9ac89c","system_id":"levelo_inurba_marseille","lat":43.300852,"lon":5.390859,"is_reserved":false,"is_disabled":false,"rental_uris":{"android":"levelo://app?vid=c5480326-5475-4606-8fee-92de8b9ac89c","ios":"levelo://app?vid=c5480326-5475-4606-8fee-92de8b9ac89c"},"vehicle_type_id":"4","last_reported":1711393570,"current_range_meters":14400,"station_id":"ce4bh192rcd13ifvqdb0","pricing_plan_id":"cebpf4jnsgd1na2vs0mg"},{"bike_id":"411125ea-5693-4d8d-b264-09718afbf630","system_id":"levelo_inurba_marseille","lat":43.300852,"lon":5.390859,"is_reserved":false,"is_disabled":false,"rental_uris":{"android":"levelo://app?vid=411125ea-5693-4d8d-b264-09718afbf630","ios":"levelo://app?vid=411125ea-5693-4d8d-b264-09718afbf630"},"vehicle_type_id":"4","last_reported":1711393570,"current_range_meters":12000,"station_id":"ce4bh192rcd13ifvqdb0","pricing_plan_id":"cebpf4jnsgd1na2vs0mg"},{"bike_id":"1c334546-2d61-4713-8df6-e566cfa35e55","system_id":"levelo_inurba_marseille","lat":43.291675,"lon":5.371583,"is_reserved":false,"is_disabled":false,"rental_uris":{"android":"levelo://app?vid=1c334546-2d61-4713-8df6-e566cfa35e55","ios":"levelo://app?vid=1c334546-2d61-4713-8df6-e566cfa35e55"},"vehicle_type_id":"4","last_reported":1711393570,"current_range_meters":20800,"station_id":"ce4bha92rcd13ifvqeh0","pricing_plan_id":"cebpf4jnsgd1na2vs0mg"},{"bike_id":"88df83f1-8508-44c2-ba1e-1fabadbfba0a","system_id":"levelo_inurba_marseille","lat":43.291671,"lon":5.371575,"is_reserved":false,"is_disabled":false,"rental_uris":{"android":"levelo://app?vid=88df83f1-8508-44c2-ba1e-1fabadbfba0a","ios":"levelo://app?vid=88df83f1-8508-44c2-ba1e-1fabadbfba0a"},"vehicle_type_id":"4","last_reported":1711393570,"current_range_meters":15200,"station_id":"ce4bha92rcd13ifvqeh0","pricing_plan_id":"cebpf4jnsgd1na2vs0mg"},{"bike_id":"7d676dee-121d-46b4-a959-cf9206b758d7","system_id":"levelo_inurba_marseille","lat":43.298764,"lon":5.388973,"is_reserved":false,"is_disabled":false,"rental_uris":{"android":"levelo://app?vid=7d676dee-121d-46b4-a959-cf9206b758d7","ios":"levelo://app?vid=7d676dee-121d-46b4-a959-cf9206b758d7"},"vehicle_type_id":"4","last_reported":1711393570,"current_range_meters":19200,"station_id":"ce4bh392rcd13ifvqdl0","pricing_plan_id":"cebpf4jnsgd1na2vs0mg"},{"bike_id":"bf812015-5cad-4cdb-9256-c19ba442b447","system_id":"levelo_inurba_marseille","lat":43.29883,"lon":5.38904,"is_reserved":false,"is_disabled":false,"rental_uris":{"android":"levelo://app?vid=bf812015-5cad-4cdb-9256-c19ba442b447","ios":"levelo://app?vid=bf812015-5cad-4cdb-9256-c19ba442b447"},"vehicle_type_id":"4","last_reported":1711393570,"current_range_meters":4800,"station_id":"ce4bh392rcd13ifvqdl0","pricing_plan_id":"cebpf4jnsgd1na2vs0mg"},{"bike_id":"527b1cde-35a7-429f-a828-401892e85bd1","system_id":"levelo_inurba_marseille","lat":43.298764,"lon":5.388973,"is_reserved":false,"is_disabled":false,"rental_uris":{"android":"levelo://app?vid=527b1cde-35a7-429f-a828-401892e85bd1","ios":"levelo://app?vid=527b1cde-35a7-429f-a828-401892e85bd1"},"vehicle_type_id":"4","last_reported":1711393570,"current_range_meters":22800,"station_id":"ce4bh392rcd13ifvqdl0","pricing_plan_id":"cebpf4jnsgd1na2vs0mg"},