{"last_updated":1738750212,"ttl":60,"version":"2.2","data":{"bikes":[{"bike_id":"5aa17bed-e19f-41ae-9fc6-0f4d961fb09b","system_id":"levelo_inurba_marseille","lat":43.30508,"lon":5.36677,"is_reserved":false,"is_disabled":false,"rental_uris":{"android":"levelo://app?vid=5aa17bed-e19f-41ae-9fc6-0f4d961fb09b","ios":"levelo://app?vid=5aa17bed-e19f-41ae-9fc6-0f4d961fb09b"},"vehicle_type_id":"4","last_reported":1738750212,"current_range_meters":36800,"station_id":"ce4bgrp2rcd13ifvqc9g","pricing_plan_id":"cebpf4jnsgd1na2vs0mg"},{"bike_id":"1751002d-cff6-41a6-b3fd-1d48813f1797","system_id":"levelo_inurba_marseille","lat":43.31469,"lon":5.37283,"is_reserved":false,"is_disabled":false,"rental_uris":{"android":"levelo://app?vid=1751002d-cff6-41a6-b3fd-1d48813f1797","ios":"levelo://app?vid=1751002d-cff6-41a6-b3fd-1d48813f1797"},"vehicle_type_id":"4","last_reported":1738750212,"current_range_meters":24000,"station_id":"ce4bgt12rcd13ifvqcd0","pricing_plan_id":"cebpf4jnsgd1na2vs0mg"},{"bike_id":"419c8c22-86a4-4ef5-91f4-a06b4c2e4bba","system_id":"levelo_inurba_marseille","lat":43.22931,"lon":5.35393,"is_reserved":false,"is_disabled":false,"rental_uris":{"android":"levelo://app?vid=419c8c22-86a4-4ef5-91f4-a06b4c2e4bba","ios":"levelo://app?vid=419c8c22-86a4-4ef5-91f4-a06b4c2e4bba"},"vehicle_type_id":"4","last_reported":1738750212,"current_range_meters":27200,"station_id":"cpo3532slgdg3j2ikp40","pricing_plan_id":"cebpf4jnsgd1na2vs0mg"},{"bike_id":"9fa5934b-265d-4647-ad90-fd53fb1906bf","system_id":"levelo_inurba_marseille","lat":43.29505,"lon":5.37526,"is_reserved":false,"is_disabled":false,"rental_uris":{"android":"levelo://app?vid=9fa5934b-265d-4647-ad90-fd53fb1906bf","ios":"levelo://app?vid=9fa5934b-265d-4647-ad90-fd53fb1906bf"},"vehicle_type_id":"4","last_reported":1738750212,"current_range_meters":17600,"station_id":"ce4bgkp2rcd13ifvqbmg","pricing_plan_id":"cebpf4jnsgd1na2vs0mg"},{"bike_id":"da231ac6-b8fa-4bb9-9631-5e122f4f79b3","system_id":"levelo_inurba_marseille","lat":43.28489,"lon":5.38435,"is_reserved":false,"is_disabled":true,"rental_uris":{"android":"levelo://app?vid=da231ac6-b8fa-4bb9-9631-5e122f4f79b3","ios":"levelo://app?vid=da231ac6-b8fa-4bb9-9631-5e122f4f79b3"},"vehicle_type_id":"4","last_reported":1738750212,"current_range_meters":1600,"station_id":"ce4bh512rcd13ifvqe3g","pricing_plan_id":"cebpf4jnsgd1na2vs0mg"},{"bike_id":"ba05dbef-cf19-40fa-8248-bd31b49bcc49","system_id":"levelo_inurba_marseille","lat":43.25926,"lon":5.40889,"is_reserved":false,"is_disabled":false,"rental_uris":{"android":"levelo://app?vid=ba05dbef-cf19-40fa-8248-bd31b49bcc49","ios":"levelo://app?vid=ba05dbef-cf19-40fa-8248-bd31b49bcc49"},"vehicle_type_id":"4","last_reported":1738750212,"current_range_meters":38800,"station_id":"ce4bhm92rcd13ifvqglg","pricing_plan_id":"cebpf4jnsgd1na2vs0mg"},{"bike_id":"c6772c51-2c26-4b21-a7b8-bae9a8e291d6","system_id":"levelo_inurba_marseille","lat":43.29263,"lon":5.36839,"is_reserved":false,"is_disabled":false,"rental_uris":{"android":"levelo://app?vid=c6772c51-2c26-4b21-a7b8-bae9a8e291d6","ios":"levelo://app?vid=c6772c51-2c26-4b21-a7b8-bae9a8e291d6"},"vehicle_type_id":"4","last_reported":1738750212,"current_range_meters":37600,"station_id":"ce4bhbp2rcd13ifvqesg","pricing_plan_id":"cebpf4jnsgd1na2vs0mg"},{"bike_id":"a5c1c6e4-93b1-41f9-9cd6-2e43eca69d7b","system_id":"levelo_inurba_marseille","lat":43.30527,"lon":5.36714,"is_reserved":false,"is_disabled":false,"rental_uris":{"android":"levelo://app?vid=a5c1c6e4-93b1-41f9-9cd6-2e43eca69d7b","ios":"levelo://app?vid=a5c1c6e4-93b1-41f9-9cd6-2e43eca69d7b"},"vehicle_type_id":"4","last_reported":1738750212,"current_range_meters":12800,"station_id":"ce4bgrp2rcd13ifvqc9g","pricing_plan_id":"cebpf4jnsgd1na2vs0mg"},{"bike_id":"8a02c9a1-15e4-471d-ab6d-e972dacf97b1","system_id":"levelo_inurba_marseille","lat":43.30545,"lon":5.36553,"is_reserved":false,"is_disabled":false,"rental_uris":{"android":"levelo://app?vid=8a02c9a1-15e4-471d-ab6d-e972dacf97b1","ios":"levelo://app?vid=8a02c9a1-15e4-471d-ab6d-e972dacf97b1"},"vehicle_type_id":"4","last_reported":1738750212,"current_range_meters":36000,"station_id":"ce4bgs12rcd13ifvqcag","pricing_plan_id":"cebpf4jnsgd1na2vs0mg"},{"bike_id":"f7927dcb-3d25-4026-856f-9fd478d653e8","system_id":"levelo_inurba_marseille","lat":43.29271,"lon":5.40115,"is_reserved":false,"is_disabled":false,"rental_uris":{"android":"levelo://app?vid=f7927dcb-3d25-4026-856f-9fd478d653e8","ios":"levelo://app?vid=f7927dcb-3d25-4026-856f-9fd478d653e8"},"vehicle_type_id":"4","last_reported":1738750212,"current_range_meters":27200,"station_id":"ce4bh312rcd13ifvqdk0","pricing_plan_id":"cebpf4jnsgd1na2vs0mg"},{"bike_id":"caf558c3-a9ad-4fe3-92b6-038f06ef09fe","system_id":"levelo_inurba_marseille","lat":43.23191,"lon":5.35562,"is_reserved":false,"is_disabled":false,"rental_uris":{"android":"levelo://app?vid=caf558c3-a9ad-4fe3-92b6-038f06ef09fe","ios":"levelo://app?vid=caf558c3-a9ad-4fe3-92b6-038f06ef09fe"},"vehicle_type_id":"4","last_reported":1738750212,"current_range_meters":12000,"station_id":"ce4bhu92rcd13ifvqi70","pricing_plan_id":"cebpf4jnsgd1na2vs0mg"},{"bike_id":"ca569277-7b06-46b6-8f6f-cd357d4d7164","system_id":"levelo_inurba_marseille","lat":43.240785,"lon":5.37745,"is_reserved":false,"is_disabled":false,"rental_uris":{"android":"levelo://app?vid=ca569277-7b06-46b6-8f6f-cd357d4d7164","ios":"levelo://app?vid=ca569277-7b06-46b6-8f6f-cd357d4d7164"},"vehicle_type_id":"4","last_reported":1738750212,"current_range_meters":20400,"station_id":"ce4bhnp2rcd13ifvqgvg","pricing_plan_id":"cebpf4jnsgd1na2vs0mg"},{"bike_id":"43556b86-ce6d-4bb9-ad95-0864305fc9ce","system_id":"levelo_inurba_marseille","lat":43.28493,"lon":5.38408,"is_reserved":false,"is_disabled":false,"rental_uris":{"android":"levelo://app?vid=43556b86-ce6d-4bb9-ad95-0864305fc9ce","ios":"levelo://app?vid=43556b86-ce6d-4bb9-ad95-0864305fc9ce"},"vehicle_type_id":"4","last_reported":1738750212,"current_range_meters":35600,"station_id":"ce4bh512rcd13ifvqe3g","pricing_plan_id":"cebpf4jnsgd1na2vs0mg"},{"bike_id":"7e19e353-1331-446b-aa47-ecd228ac2406","system_id":"levelo_inurba_marseille","lat":43.30475,"lon":5.37909,"is_reserved":false,"is_disabled":false,"rental_uris":{"android":"levelo://app?vid=7e19e353-1331-446b-aa47-ecd228ac2406","ios":"levelo://app?vid=7e19e353-1331-446b-aa47-ecd228ac2406"},"vehicle_type_id":"4","last_reported":1738750212,"current_range_meters":37600,"station_id":"ce4bgup2rcd13ifvqcn0","pricing_plan_id":"cebpf4jnsgd1na2vs0mg"},{"bike_id":"3b3750dc-9cdb-41a8-a721-f3277ba575c5","system_id":"levelo_inurba_marseille","lat":43.29682,"lon":5.37299,"is_reserved":false,"is_disabled":false,"rental_uris":{"android":"levelo://app?vid=3b3750dc-9cdb-41a8-a721-f3277ba575c5","ios":"levelo://app?vid=3b3750dc-9cdb-41a8-a721-f3277ba575c5"},"vehicle_type_id":"4","last_reported":1738750212,"current_range_meters":18800,"station_id":"ce4bgk12rcd13ifvqbj0","pricing_plan_id":"cebpf4jnsgd1na2vs0mg"},{"bike_id":"871d744f-603f-4760-b431-db645b4d7803","system_id":"levelo_inurba_marseille","lat":43.23137,"lon":5.43726,"is_reserved":false,"is_disabled":false,"rental_uris":{"android":"levelo://app?vid=871d744f-603f-4760-b431-db645b4d7803","ios":"levelo://app?vid=871d744f-603f-4760-b431-db645b4d7803"},"vehicle_type_id":"4","last_reported":1738750212,"current_range_meters":28400,"station_id":"ce4bhmp2rcd13ifvqgog","pricing_plan_id":"cebpf4jnsgd1na2vs0mg"},{"bike_id":"27788668-d35d-4e3b-b85e-35c52733c3a9","system_id":"levelo_inurba_marseille","lat":43.2439,"lon":5.37064,"is_reserved":false,"is_disabled":false,"rental_uris":{"android":"levelo://app?vid=27788668-d35d-4e3b-b85e-35c52733c3a9","ios":"levelo://app?vid=27788668-d35d-4e3b-b85e-35c52733c3a9"},"vehicle_type_id":"4","last_reported":1738750212,"current_range_meters":6400,"station_id":"ce4bhhh2rcd13ifvqfk0","pricing_plan_id":"cebpf4jnsgd1na2vs0mg"},{"bike_id":"eb755d59-7afc-4519-b8a7-b1014a179d3c","system_id":"levelo_inurba_marseille","lat":43.27802,"lon":5.40714,"is_reserved":false,"is_disabled":false,"rental_uris":{"android":"levelo://app?vid=eb755d59-7afc-4519-b8a7-b1014a179d3c","ios":"levelo://app?vid=eb755d59-7afc-4519-b8a7-b1014a179d3c"},"vehicle_type_id":"4","last_reported":1738750212,"current_range_meters":38800,"station_id":"ce4bhnh2rcd13ifvqgtg","pricing_plan_id":"cebpf4jnsgd1na2vs0mg"},{"bike_id":"52ec9d16-8d16-4322-a5d9-68534ef66132","system_id":"levelo_inurba_marseille","lat":43.30513,"lon":5.3654,"is_reserved":false,"is_disabled":false,"rental_uris":{"android":"levelo://app?vid=52ec9d16-8d16-4322-a5d9-68534ef66132","ios":"levelo://app?vid=52ec9d16-8d16-4322-a5d9-68534ef66132"},"vehicle_type_id":"4","last_reported":1738750212,"current_range_meters":20800,"station_id":"ce4bgs12rcd13ifvqcag","pricing_plan_id":"cebpf4jnsgd1na2vs0mg"},{"bike_id":"9faedc02-9e18-48a4-bf32-ec0d86769a61","system_id":"levelo_inurba_marseille","lat":43.29289,"lon":5.37461,"is_reserved":false,"is_disabled":false,"rental_uris":{"android":"levelo://app?vid=9faedc02-9e18-48a4-bf32-ec0d86769a61","ios":"levelo://app?vid=9faedc02-9e18-48a4-bf32-ec0d86769a61"},"vehicle_type_id":"4","last_reported":1738750212,"current_range_meters":38800,"station_id":"ce4bgi12rcd13ifvqb70","pricing_plan_id":"cebpf4jnsgd1na2vs0mg"},{"bike_id":"d72f401d-7e85-4e85-abe3-8fc4222030a1","system_id":"levelo_inurba_marseille","lat":43.29953,"lon":5.3776,"is_reserved":false,"is_disabled":false,"rental_uris":{"android":"levelo://app?vid=d72f401d-7e85-4e85-abe3-8fc4222030a1","ios":"levelo://app?vid=d72f401d-7e85-4e85-abe3-8fc4222030a1"},"vehicle_type_id":"4","last_reported":1738750212,"current_range_meters":26800,"station_id":"","pricing_plan_id":"cebpf4jnsgd1na2vs0mg"},{"bike_id":"d1d80a62-4509-4b59-af48-34da3b50ae26","system_id":"levelo_inurba_marseille","lat":43.29714,"lon":5.37686,"is_reserved":false,"is_disabled":false,"rental_uris":{"android":"levelo://app?vid=d1d80a62-4509-4b59-af48-34da3b50ae26","ios":"levelo://app?vid=d1d80a62-4509-4b59-af48-34da3b50ae26"},"vehicle_type_id":"4","last_reported":1738750212,"current_range_meters":30400,"station_id":"ce4bgkh2rcd13ifvqbl0","pricing_plan_id":"cebpf4jnsgd1na2vs0mg"},{"bike_id":"f3bdf16f-6a63-4d06-ab37-e146a7f9818a","system_id":"levelo_inurba_marseille","lat":43.26784,"lon":5.39416,"is_reserved":false,"is_disabled":false,"rental_uris":{"android":"levelo://app?vid=f3bdf16f-6a63-4d06-ab37-e146a7f9818a","ios":"levelo://app?vid=f3bdf16f-6a63-4d06-ab37-e146a7f9818a"},"vehicle_type_id":"4","last_reported":1738750212,"current_range_meters":20800,"station_id":"ce4bhh12rcd13ifvqfg0","pricing_plan_id":"cebpf4jnsgd1na2vs0mg"},{"bike_id":"3e5cf5e4-131f-4a77-b805-66f70898d89e","system_id":"levelo_inurba_marseille","lat":43.274325,"lon":5.394203,"is_reserved":false,"is_disabled":false,"rental_uris":{"android":"levelo://app?vid=3e5cf5e4-131f-4a77-b805-66f70898d89e","ios":"levelo://app?vid=3e5cf5e4-131f-4a77-b805-66f70898d89e"},"vehicle_type_id":"4","last_reported":1738750212,"current_range_meters":38400,"station_id":"ce4bhdp2rcd13ifvqf20","pricing_plan_id":"cebpf4jnsgd1na2vs0mg"},{"bike_id":"7eaacd34-10f9-4246-8aa1-4a22e07a7c06","system_id":"levelo_inurba_marseille","lat":43.31498,"lon":5.37331,"is_reserved":false,"is_disabled":false,"rental_uris":{"android":"levelo://app?vid=7eaacd34-10f9-4246-8aa1-4a22e07a7c06","ios":"levelo://app?vid=7eaacd34-10f9-4246-8aa1-4a22e07a7c06"},"vehicle_type_id":"4","last_reported":1738750212,"current_range_meters":27200,"station_id":"ce4bgt12rcd13ifvqcd0","pricing_plan_id":"cebpf4jnsgd1na2vs0mg"},{"bike_id":"44f755c4-e658-4722-a1fb-cde32921bef7","system_id":"levelo_inurba_marseille","lat":43.29718,"lon":5.37326,"is_reserved":false,"is_disabled":true,"rental_uris":{"android":"levelo://app?vid=44f755c4-e658-4722-a1fb-cde32921bef7","ios":"levelo://app?vid=44f755c4-e658-4722-a1fb-cde32921bef7"},"vehicle_type_id":"4","last_reported":1738750212,"current_range_meters":400,"station_id":"","pricing_plan_id":"cebpf4jnsgd1na2vs0mg"},{"bike_id":"01c5c94f-a782-4469-a6a6-86f497f2a50c","system_id":"levelo_inurba_marseille","lat":43.33611,"lon":5.41031,"is_reserved":false,"is_disabled":false,"rental_uris":{"android":"levelo://app?vid=01c5c94f-a782-4469-a6a6-86f497f2a50c","ios":"levelo://app?vid=01c5c94f-a782-4469-a6a6-86f497f2a50c"},"vehicle_type_id":"4","last_reported":1738750212,"current_range_meters":22400,"station_id":"ce4bhqh2rcd13ifvqhmg","pricing_plan_id":"cebpf4jnsgd1na2vs0mg"},{"bike_id":"5f12060b-9ee7-4a7e-afd6-168eb1ba1fa0","system_id":"levelo_inurba_marseille","lat":43.26682,"lon":5.38269,"is_reserved":false,"is_disabled":false,"rental_uris":{"android":"levelo://app?vid=5f12060b-9ee7-4a7e-afd6-168eb1ba1fa0","ios":"levelo://app?vid=5f12060b-9ee7-4a7e-afd6-168eb1ba1fa0"},"vehicle_type_id":"4","last_reported":1738750212,"current_range_meters":29600,"station_id":"ce4bhg92rcd13ifvqf90","pricing_plan_id":"cebpf4jnsgd1na2vs0mg"},{"bike_id":"9d0de974-8143-4260-8c90-8e26cc33d946","system_id":"levelo_inurba_marseille","lat":43.26021,"lon":5.37566,"is_reserved":false,"is_disabled":false,"rental_uris":{"android":"levelo://app?vid=9d0de974-8143-4260-8c90-8e26cc33d946","ios":"levelo://app?vid=9d0de974-8143-4260-8c90-8e26cc33d946"},"vehicle_type_id":"4","last_reported":1738750212,"current_range_meters":38800,"station_id":"ce4bhgh2rcd13ifvqfa0","pricing_plan_id":"cebpf4jnsgd1na2vs0mg"},{"bike_id":"1a78f126-15bb-40e4-a379-1a33eae10b94","system_id":"levelo_inurba_marseille","lat":43.321,"lon":5.36788,"is_reserved":false,"is_disabled":false,"rental_uris":{"android":"levelo://app?vid=1a78f126-15bb-40e4-a379-1a33eae10b94","ios":"levelo://app?vid=1a78f126-15bb-40e4-a379-1a33eae10b94"},"vehicle_type_id":"4","last_reported":1738750212,"current_range_meters":36400,"station_id":"ce4bhrh2rcd13ifvqhug","pricing_plan_id":"cebpf4jnsgd1na2vs0mg"},{"bike_id":"95dfb3ed-a02f-4b20-9602-3463ddc791a3","system_id":"levelo_inurba_marseille","lat":43.30455,"lon":5.37912,"is_reserved":false,"is_disabled":false,"rental_uris":{"android":"levelo://app?vid=95dfb3ed-a02f-4b20-9602-3463ddc791a3","ios":"levelo://app?vid=95dfb3ed-a02f-4b20-9602-3463ddc791a3"},"vehicle_type_id":"4","last_reported":1738750212,"current_range_meters":33200,"station_id":"ce4bgup2rcd13ifvqcn0","pricing_plan_id":"cebpf4jnsgd1na2vs0mg"},{"bike_id":"f49db839-cde4-4b48-8e5e-2b64dac550bb","system_id":"levelo_inurba_marseille","lat":43.241691,"lon":5.397291,"is_reserved":false,"is_disabled":false,"rental_uris":{"android":"levelo://app?vid=f49db839-cde4-4b48-8e5e-2b64dac550bb","ios":"levelo://app?vid=f49db839-cde4-4b48-8e5e-2b64dac550bb"},"vehicle_type_id":"4","last_reported":1738750212,"current_range_meters":12800,"station_id":"ce4bhn12rcd13ifvqgpg","pricing_plan_id":"cebpf4jnsgd1na2vs0mg"},{"bike_id":"f53cc797-2e23-4ec6-a462-85989923c05c","system_id":"levelo_inurba_marseille","lat":43.25008,"lon":5.38931,"is_reserved":false,"is_disabled":false,"rental_uris":{"android":"levelo://app?vid=f53cc797-2e23-4ec6-a462-85989923c05c","ios":"levelo://app?vid=f53cc797-2e23-4ec6-a462-85989923c05c"},"vehicle_type_id":"4","last_reported":1738750212,"current_range_meters":39200,"station_id":"ce4bhgp2rcd13ifvqfd0","pricing_plan_id":"cebpf4jnsgd1na2vs0mg"},{"bike_id":"a31da492-d404-42a4-a173-3e8c75aeef5d","system_id":"levelo_inurba_marseille","lat":43.24374,"lon":5.37089,"is_reserved":false,"is_disabled":false,"rental_uris":{"android":"levelo://app?vid=a31da492-d404-42a4-a173-3e8c75aeef5d","ios":"levelo://app?vid=a31da492-d404-42a4-a173-3e8c75aeef5d"},"vehicle_type_id":"4","last_reported":1738750212,"current_range_meters":32000,"station_id":"ce4bhhh2rcd13ifvqfk0","pricing_plan_id":"cebpf4jnsgd1na2vs0mg"},{"bike_id":"4a89115a-e175-423b-94ae-4ae952e897cd","system_id":"levelo_inurba_marseille","lat":43.28476,"lon":5.38551,"is_reserved":false,"is_disabled":false,"rental_uris":{"android":"levelo://app?vid=4a89115a-e175-423b-94ae-4ae952e897cd","ios":"levelo://app?vid=4a89115a-e175-423b-94ae-4ae952e897cd"},"vehicle_type_id":"4","last_reported":1738750212,"current_range_meters":23200,"station_id":"ce4bh8p2rcd13ifvqeb0","pricing_plan_id":"cebpf4jnsgd1na2vs0mg"},{"bike_id":"a1a7079b-68b5-45ca-9af8-b6bc9f7cd559","system_id":"levelo_inurba_marseille","lat":43.22936,"lon":5.35382,"is_reserved":false,"is_disabled":false,"rental_uris":{"android":"levelo://app?vid=a1a7079b-68b5-45ca-9af8-b6bc9f7cd559","ios":"levelo://app?vid=a1a7079b-68b5-45ca-9af8-b6bc9f7cd559"},"vehicle_type_id":"4","last_reported":1738750212,"current_range_meters":38800,"station_id":"cpo3532slgdg3j2ikp40","pricing_plan_id":"cebpf4jnsgd1na2vs0mg"},{"bike_id":"4cff4c18-6936-40ba-b1b4-9d0ae4647e78","system_id":"levelo_inurba_marseille","lat":43.27569,"lon":5.38438,"is_reserved":false,"is_disabled":false,"rental_uris":{"android":"levelo://app?vid=4cff4c18-6936-40ba-b1b4-9d0ae4647e78","ios":"levelo://app?vid=4cff4c18-6936-40ba-b1b4-9d0ae4647e78"},"vehicle_type_id":"4","last_reported":1738750212,"current_range_meters":28800,"station_id":"ce4bhh92rcd13ifvqfi0","pricing_plan_id":"cebpf4jnsgd1na2vs0mg"},{"bike_id":"29805978-3f90-4e1f-a2f8-4f8391d994c3","system_id":"levelo_inurba_marseille","lat":43.24168,"lon":5.39723,"is_reserved":false,"is_disabled":false,"rental_uris":{"android":"levelo://app?vid=29805978-3f90-4e1f-a2f8-4f8391d994c3","ios":"levelo://app?vid=29805978-3f90-4e1f-a2f8-4f8391d994c3"},"vehicle_type_id":"4","last_reported":1738750212,"current_range_meters":18800,"station_id":"ce4bhn12rcd13ifvqgpg","pricing_plan_id":"cebpf4jnsgd1na2vs0mg"},{"bike_id":"e900f4fe-f287-4f7a-a111-e62d22c31fb5","system_id":"levelo_inurba_marseille","lat":43.2557,"lon":5.382523,"is_reserved":false,"is_disabled":false,"rental_uris":{"android":"levelo://app?vid=e900f4fe-f287-4f7a-a111-e62d22c31fb5","ios":"levelo://app?vid=e900f4fe-f287-4f7a-a111-e62d22c31fb5"},"vehicle_type_id":"4","last_reported":1738750212,"current_range_meters":28400,"station_id":"ce4bhih2rcd13ifvqfs0","pricing_plan_id":"cebpf4jnsgd1na2vs0mg"},{"bike_id":"c00d955d-9989-477b-9f00-8ff13f0bda8e","system_id":"levelo_inurba_marseille","lat":43.28357,"lon":5.38108,"is_reserved":false,"is_disabled":false,"rental_uris":{"android":"levelo://app?vid=c00d955d-9989-477b-9f00-8ff13f0bda8e","ios":"levelo://app?vid=c00d955d-9989-477b-9f00-8ff13f0bda8e"},"vehicle_type_id":"4","last_reported":1738750212,"current_range_meters":38800,"station_id":"ce4bh412rcd13ifvqdr0","pricing_plan_id":"cebpf4jnsgd1na2vs0mg"},{"bike_id":"3726dff5-00e4-45e5-9db7-c906f7e13ea9","system_id":"levelo_inurba_marseille","lat":43.27188,"lon":5.4097,"is_reserved":false,"is_disabled":false,"rental_uris":{"android":"levelo://app?vid=3726dff5-00e4-45e5-9db7-c906f7e13ea9","ios":"levelo://app?vid=3726dff5-00e4-45e5-9db7-c906f7e13ea9"},"vehicle_type_id":"4","last_reported":1738750212,"current_range_meters":29600,"station_id":"ce4bhl12rcd13ifvqgf0","pricing_plan_id":"cebpf4jnsgd1na2vs0mg"},{"bike_id":"75283e25-dc65-4401-868c-b7891e66653f","system_id":"levelo_inurba_marseille","lat":43.27678,"lon":5.38905,"is_reserved":false,"is_disabled":false,"rental_uris":{"android":"levelo://app?vid=75283e25-dc65-4401-868c-b7891e66653f","ios":"levelo://app?vid=75283e25-dc65-4401-868c-b7891e66653f"},"vehicle_type_id":"4","last_reported":1738750212,"current_range_meters":19200,"station_id":"ce4bhi12rcd13ifvqfo0","pricing_plan_id":"cebpf4jnsgd1na2vs0mg"},{"bike_id":"101a3db2-bd4e-4e61-bcd9-4cd3d1af1d3a","system_id":"levelo_inurba_marseille","lat":43.25929,"lon":5.40912,"is_reserved":false,"is_disabled":false,"rental_uris":{"android":"levelo://app?vid=101a3db2-bd4e-4e61-bcd9-4cd3d1af1d3a","ios":"levelo://app?vid=101a3db2-bd4e-4e61-bcd9-4cd3d1af1d3a"},"vehicle_type_id":"4","last_reported":1738750212,"current_range_meters":24800,"station_id":"ce4bhm92rcd13ifvqglg","pricing_plan_id":"cebpf4jnsgd1na2vs0mg"},{"bike_id":"ecfd8047-b75a-4e87-a298-ba28fe0083c2","system_id":"levelo_inurba_marseille","lat":43.29623,"lon":5.38064,"is_reserved":false,"is_disabled":true,"rental_uris":{"android":"levelo://app?vid=ecfd8047-b75a-4e87-a298-ba28fe0083c2","ios":"levelo://app?vid=ecfd8047-b75a-4e87-a298-ba28fe0083c2"},"vehicle_type_id":"4","last_reported":1738750212,"current_range_meters":0,"station_id":"ce4bgl12rcd13ifvqbo0","pricing_plan_id":"cebpf4jnsgd1na2vs0mg"},{"bike_id":"91c53a12-bfb5-4d75-8638-43c02b53d613","system_id":"levelo_inurba_marseille","lat":43.30463,"lon":5.37915,"is_reserved":false,"is_disabled":false,"rental_uris":{"android":"levelo://app?vid=91c53a12-bfb5-4d75-8638-43c02b53d613","ios":"levelo://app?vid=91c53a12-bfb5-4d75-8638-43c02b53d613"},"vehicle_type_id":"4","last_reported":1738750212,"current_range_meters":36800,"station_id":"ce4bgup2rcd13ifvqcn0","pricing_plan_id":"cebpf4jnsgd1na2vs0mg"},{"bike_id":"4b2a8578-2196-4092-93b0-dd230b814241","system_id":"levelo_inurba_marseille","lat":43.286133,"lon":5.351096,"is_reserved":false,"is_disabled":false,"rental_uris":{"android":"levelo://app?vid=4b2a8578-2196-4092-93b0-dd230b814241","ios":"levelo://app?vid=4b2a8578-2196-4092-93b0-dd230b814241"},"vehicle_type_id":"4","last_reported":1738750212,"current_range_meters":19600,"station_id":"ce4bhch2rcd13ifvqeug","pricing_plan_id":"cebpf4jnsgd1na2vs0mg"},{"bike_id":"9a3d8afe-6430-4f53-aba8-27d653fab8bf","system_id":"levelo_inurba_marseille","lat":43.24992,"lon":5.38941,"is_reserved":false,"is_disabled":false,"rental_uris":{"android":"levelo://app?vid=9a3d8afe-6430-4f53-aba8-27d653fab8bf","ios":"levelo://app?vid=9a3d8afe-6430-4f53-aba8-27d653fab8bf"},"vehicle_type_id":"4","last_reported":1738750212,"current_range_meters":38800,"station_id":"ce4bhgp2rcd13ifvqfd0","pricing_plan_id":"cebpf4jnsgd1na2vs0mg"},{"bike_id":"272335b6-dc24-496f-b8c5-36817206bf50","system_id":"levelo_inurba_marseille","lat":43.299006,"lon":5.436759,"is_reserved":false,"is_disabled":false,"rental_uris":{"android":"levelo://app?vid=272335b6-dc24-496f-b8c5-36817206bf50","ios":"levelo://app?vid=272335b6-dc24-496f-b8c5-36817206bf50"},"vehicle_type_id":"4","last_reported":1738750212,"current_range_meters":38400,"station_id":"ce4bhpp2rcd13ifvqhfg","pricing_plan_id":"cebpf4jnsgd1na2vs0mg"},{"bike_id":"30ad2c1b-d91a-4c69-b941-7d3c940f9ac5","system_id":"levelo_inurba_marseille","lat":43.30533,"lon":5.36701,"is_reserved":false,"is_disabled":false,"rental_uris":{"android":"levelo://app?vid=30ad2c1b-d91a-4c69-b941-7d3c940f9ac5","ios":"levelo://app?vid=30ad2c1b-d91a-4c69-b941-7d3c940f9ac5"},"vehicle_type_id":"4","last_reported":1738750212,"current_range_meters":38800,"station_id":"ce4bgrp2rcd13ifvqc9g","pricing_plan_id":"cebpf4jnsgd1na2vs0mg"},{"bike_id":"0d10f978-6cf2-4f16-95f6-172ed5fa00c8","system_id":"levelo_inurba_marseille","lat":43.33594,"lon":5.41021,"is_reserved":false,"is_disabled":false,"rental_uris":{"android":"levelo://app?vid=0d10f978-6cf2-4f16-95f6-172ed5fa00c8","ios":"levelo://app?vid=0d10f978-6cf2-4f16-95f6-172ed5fa00c8"},"vehicle_type_id":"4","last_reported":1738750212,"current_range_meters":16000,"station_id":"ce4bhqh2rcd13ifvqhmg","pricing_plan_id":"cebpf4jnsgd1na2vs0mg"},{"bike_id":"17b1a83f-f008-47e8-9f74-209e6cf0cf56","system_id":"levelo_inurba_marseille","lat":43.31298,"lon":5.36777,"is_reserved":false,"is_disabled":false,"rental_uris":{"android":"levelo://app?vid=17b1a83f-f008-47e8-9f74-209e6cf0cf56","ios":"levelo://app?vid=17b1a83f-f008-47e8-9f74-209e6cf0cf56"},"vehicle_type_id":"4","last_reported":1738750212,"current_range_meters":38800,"station_id":"ce4bgr92rcd13ifvqc6g","pricing_plan_id":"cebpf4jnsgd1na2vs0mg"},{"bike_id":"f307f8ea-df8b-425d-97d7-c4f570c0ee32","system_id":"levelo_inurba_marseille","lat":43.2396,"lon":5.36632,"is_reserved":false,"is_disabled":false,"rental_uris":{"android":"levelo://app?vid=f307f8ea-df8b-425d-97d7-c4f570c0ee32","ios":"levelo://app?vid=f307f8ea-df8b-425d-97d7-c4f570c0ee32"},"vehicle_type_id":"4","last_reported":1738750212,"current_range_meters":18800,"station_id":"ce4bhi12rcd13ifvqfp0","pricing_plan_id":"cebpf4jnsgd1na2vs0mg"},{"bike_id":"cf0d534e-429a-4742-b2cb-4793faf704ac","system_id":"levelo_inurba_marseille","lat":43.24646,"lon":5.38901,"is_reserved":false,"is_disabled":false,"rental_uris":{"android":"levelo://app?vid=cf0d534e-429a-4742-b2cb-4793faf704ac","ios":"levelo://app?vid=cf0d534e-429a-4742-b2cb-4793faf704ac"},"vehicle_type_id":"4","last_reported":1738750212,"current_range_meters":38800,"station_id":"ce4bhg12rcd13ifvqf60","pricing_plan_id":"cebpf4jnsgd1na2vs0mg"},{"bike_id":"0ea366da-703f-42f0-96a5-ad4df6280b47","system_id":"levelo_inurba_marseille","lat":43.29051,"lon":5.37172,"is_reserved":false,"is_disabled":false,"rental_uris":{"android":"levelo://app?vid=0ea366da-703f-42f0-96a5-ad4df6280b47","ios":"levelo://app?vid=0ea366da-703f-42f0-96a5-ad4df6280b47"},"vehicle_type_id":"4","last_reported":1738750212,"current_range_meters":38800,"station_id":"ce4bh5p2rcd13ifvqe4g","pricing_plan_id":"cebpf4jnsgd1na2vs0mg"},{"bike_id":"3a5aa9c9-bc8f-448e-aeb5-c9e98d56970c","system_id":"levelo_inurba_marseille","lat":43.33592,"lon":5.41024,"is_reserved":false,"is_disabled":false,"rental_uris":{"android":"levelo://app?vid=3a5aa9c9-bc8f-448e-aeb5-c9e98d56970c","ios":"levelo://app?vid=3a5aa9c9-bc8f-448e-aeb5-c9e98d56970c"},"vehicle_type_id":"4","last_reported":1738750212,"current_range_meters":38800,"station_id":"ce4bhqh2rcd13ifvqhmg","pricing_plan_id":"cebpf4jnsgd1na2vs0mg"},{"bike_id":"ce808bf0-f0c8-4d3e-9b47-49372e4f723f","system_id":"levelo_inurba_marseille","lat":43.29053,"lon":5.37177,"is_reserved":false,"is_disabled":false,"rental_uris":{"android":"levelo://app?vid=ce808bf0-f0c8-4d3e-9b47-49372e4f723f","ios":"levelo://app?vid=ce808bf0-f0c8-4d3e-9b47-49372e4f723f"},"vehicle_type_id":"4","last_reported":1738750212,"current_range_meters":37600,"station_id":"ce4bh5p2rcd13ifvqe4g","pricing_plan_id":"cebpf4jnsgd1na2vs0mg"},{"bike_id":"ca3721f7-080c-44bf-8f62-de54b11f91f0","system_id":"levelo_inurba_marseille","lat":43.34142,"lon":5.40907,"is_reserved":false,"is_disabled":false,"rental_uris":{"android":"levelo://app?vid=ca3721f7-080c-44bf-8f62-de54b11f91f0","ios":"levelo://app?vid=ca3721f7-080c-44bf-8f62-de54b11f91f0"},"vehicle_type_id":"4","last_reported":1738750212,"current_range_meters":38400,"station_id":"ce4bhqh2rcd13ifvqhlg","pricing_plan_id":"cebpf4jnsgd1na2vs0mg"},{"bike_id":"30d68ac6-7ba6-4749-8154-bf914e372a6a","system_id":"levelo_inurba_marseille","lat":43.32365,"lon":5.38878,"is_reserved":false,"is_disabled":false,"rental_uris":{"android":"levelo://app?vid=30d68ac6-7ba6-4749-8154-bf914e372a6a","ios":"levelo://app?vid=30d68ac6-7ba6-4749-8154-bf914e372a6a"},"vehicle_type_id":"4","last_reported":1738750212,"current_range_meters":34000,"station_id":"ce4bhqp2rcd13ifvqhog","pricing_plan_id":"cebpf4jnsgd1na2vs0mg"},{"bike_id":"0acdf2e3-9994-4cd7-8666-b1d47f91042f","system_id":"levelo_inurba_marseille","lat":43.27692,"lon":5.38867,"is_reserved":false,"is_disabled":false,"rental_uris":{"android":"levelo://app?vid=0acdf2e3-9994-4cd7-8666-b1d47f91042f","ios":"levelo://app?vid=0acdf2e3-9994-4cd7-8666-b1d47f91042f"},"vehicle_type_id":"4","last_reported":1738750212,"current_range_meters":35200,"station_id":"ce4bhi12rcd13ifvqfo0","pricing_plan_id":"cebpf4jnsgd1na2vs0mg"},{"bike_id":"d7612fe3-c24f-460a-978f-01663b32ea49","system_id":"levelo_inurba_marseille","lat":43.30546,"lon":5.36704,"is_reserved":false,"is_disabled":false,"rental_uris":{"android":"levelo://app?vid=d7612fe3-c24f-460a-978f-01663b32ea49","ios":"levelo://app?vid=d7612fe3-c24f-460a-978f-01663b32ea49"},"vehicle_type_id":"4","last_reported":1738750212,"current_range_meters":38800,"station_id":"ce4bgrp2rcd13ifvqc9g","pricing_plan_id":"cebpf4jnsgd1na2vs0mg"},{"bike_id":"2cd60774-c2f8-4e8f-9236-a6b0c03a1062","system_id":"levelo_inurba_marseille","lat":43.28079,"lon":5.3965,"is_reserved":false,"is_disabled":false,"rental_uris":{"android":"levelo://app?vid=2cd60774-c2f8-4e8f-9236-a6b0c03a1062","ios":"levelo://app?vid=2cd60774-c2f8-4e8f-9236-a6b0c03a1062"},"vehicle_type_id":"4","last_reported":1738750212,"current_range_meters":14400,"station_id":"ce4bho12rcd13ifvqh2g","pricing_plan_id":"cebpf4jnsgd1na2vs0mg"},{"bike_id":"8ee87df9-54eb-45e1-8f2a-e58581528d70","system_id":"levelo_inurba_marseille","lat":43.29584,"lon":5.3674,"is_reserved":false,"is_disabled":false,"rental_uris":{"android":"levelo://app?vid=8ee87df9-54eb-45e1-8f2a-e58581528d70","ios":"levelo://app?vid=8ee87df9-54eb-45e1-8f2a-e58581528d70"},"vehicle_type_id":"4","last_reported":1738750212,"current_range_meters":29600,"station_id":"ce4bgph2rcd13ifvqc2g","pricing_plan_id":"cebpf4jnsgd1na2vs0mg"},{"bike_id":"e040da88-b421-4173-9ede-61ba1a6ca5b4","system_id":"levelo_inurba_marseille","lat":43.2418,"lon":5.39729,"is_reserved":false,"is_disabled":false,"rental_uris":{"android":"levelo://app?vid=e040da88-b421-4173-9ede-61ba1a6ca5b4","ios":"levelo://app?vid=e040da88-b421-4173-9ede-61ba1a6ca5b4"},"vehicle_type_id":"4","last_reported":1738750212,"current_range_meters":18000,"station_id":"ce4bhn12rcd13ifvqgpg","pricing_plan_id":"cebpf4jnsgd1na2vs0mg"},{"bike_id":"6712f04b-f35d-4e3a-a70d-c89aec85d9b2","system_id":"levelo_inurba_marseille","lat":43.22925,"lon":5.35401,"is_reserved":false,"is_disabled":false,"rental_uris":{"android":"levelo://app?vid=6712f04b-f35d-4e3a-a70d-c89aec85d9b2","ios":"levelo://app?vid=6712f04b-f35d-4e3a-a70d-c89aec85d9b2"},"vehicle_type_id":"4","last_reported":1738750212,"current_range_meters":38800,"station_id":"cpo3532slgdg3j2ikp40","pricing_plan_id":"cebpf4jnsgd1na2vs0mg"},{"bike_id":"bbd64154-5005-4cba-8533-1e321102e4c1","system_id":"levelo_inurba_marseille","lat":43.30469,"lon":5.37914,"is_reserved":false,"is_disabled":false,"rental_uris":{"android":"levelo://app?vid=bbd64154-5005-4cba-8533-1e321102e4c1","ios":"levelo://app?vid=bbd64154-5005-4cba-8533-1e321102e4c1"},"vehicle_type_id":"4","last_reported":1738750212,"current_range_meters":24800,"station_id":"ce4bgup2rcd13ifvqcn0","pricing_plan_id":"cebpf4jnsgd1na2vs0mg"},{"bike_id":"97d81fde-d0e8-4145-a522-d087ac268a46","system_id":"levelo_inurba_marseille","lat":43.29281,"lon":5.40117,"is_reserved":false,"is_disabled":false,"rental_uris":{"android":"levelo://app?vid=97d81fde-d0e8-4145-a522-d087ac268a46","ios":"levelo://app?vid=97d81fde-d0e8-4145-a522-d087ac268a46"},"vehicle_type_id":"4","last_reported":1738750212,"current_range_meters":27600,"station_id":"ce4bh312rcd13ifvqdk0","pricing_plan_id":"cebpf4jnsgd1na2vs0mg"},{"bike_id":"5ea2a550-3391-42ff-9a63-a359ef251c82","system_id":"levelo_inurba_marseille","lat":43.29563,"lon":5.37526,"is_reserved":false,"is_disabled":false,"rental_uris":{"android":"levelo://app?vid=5ea2a550-3391-42ff-9a63-a359ef251c82","ios":"levelo://app?vid=5ea2a550-3391-42ff-9a63-a359ef251c82"},"vehicle_type_id":"4","last_reported":1738750212,"current_range_meters":30400,"station_id":"ce4bgh92rcd13ifvqb50","pricing_plan_id":"cebpf4jnsgd1na2vs0mg"},{"bike_id":"6443e507-9d05-4793-b39b-bb90f0c0644b","system_id":"levelo_inurba_marseille","lat":43.29905,"lon":5.37466,"is_reserved":false,"is_disabled":false,"rental_uris":{"android":"levelo://app?vid=6443e507-9d05-4793-b39b-bb90f0c0644b","ios":"levelo://app?vid=6443e507-9d05-4793-b39b-bb90f0c0644b"},"vehicle_type_id":"4","last_reported":1738750212,"current_range_meters":16400,"station_id":"ce4bgjh2rcd13ifvqbg0","pricing_plan_id":"cebpf4jnsgd1na2vs0mg"},{"bike_id":"b0a6d881-1ff0-46de-b2a9-6eea6edb41d2","system_id":"levelo_inurba_marseille","lat":43.30275,"lon":5.37713,"is_reserved":false,"is_disabled":false,"rental_uris":{"android":"levelo://app?vid=b0a6d881-1ff0-46de-b2a9-6eea6edb41d2","ios":"levelo://app?vid=b0a6d881-1ff0-46de-b2a9-6eea6edb41d2"},"vehicle_type_id":"4","last_reported":1738750212,"current_range_meters":38800,"station_id":"ce4bguh2rcd13ifvqcj0","pricing_plan_id":"cebpf4jnsgd1na2vs0mg"},{"bike_id":"01387558-154d-42a4-b95e-a5c1626f164d","system_id":"levelo_inurba_marseille","lat":43.29288,"lon":5.37159,"is_reserved":false,"is_disabled":false,"rental_uris":{"android":"levelo://app?vid=01387558-154d-42a4-b95e-a5c1626f164d","ios":"levelo://app?vid=01387558-154d-42a4-b95e-a5c1626f164d"},"vehicle_type_id":"4","last_reported":1738750212,"current_range_meters":37600,"station_id":"ce4bgh92rcd13ifvqb40","pricing_plan_id":"cebpf4jnsgd1na2vs0mg"},{"bike_id":"4b197a1c-33eb-4967-965c-046d95290a0a","system_id":"levelo_inurba_marseille","lat":43.30517,"lon":5.36723,"is_reserved":false,"is_disabled":false,"rental_uris":{"android":"levelo://app?vid=4b197a1c-33eb-4967-965c-046d95290a0a","ios":"levelo://app?vid=4b197a1c-33eb-4967-965c-046d95290a0a"},"vehicle_type_id":"4","last_reported":1738750212,"current_range_meters":38800,"station_id":"ce4bgrp2rcd13ifvqc9g","pricing_plan_id":"cebpf4jnsgd1na2vs0mg"},{"bike_id":"89b2ac96-e45d-4cc2-9207-fc9bc3a110a8","system_id":"levelo_inurba_marseille","lat":43.31387,"lon":5.38503,"is_reserved":false,"is_disabled":false,"rental_uris":{"android":"levelo://app?vid=89b2ac96-e45d-4cc2-9207-fc9bc3a110a8","ios":"levelo://app?vid=89b2ac96-e45d-4cc2-9207-fc9bc3a110a8"},"vehicle_type_id":"4","last_reported":1738750212,"current_range_meters":23200,"station_id":"ce4bgt92rcd13ifvqcf0","pricing_plan_id":"cebpf4jnsgd1na2vs0mg"},{"bike_id":"4f711729-11db-4481-a558-983b7b381ab1","system_id":"levelo_inurba_marseille","lat":43.33609,"lon":5.40959,"is_reserved":false,"is_disabled":false,"rental_uris":{"android":"levelo://app?vid=4f711729-11db-4481-a558-983b7b381ab1","ios":"levelo://app?vid=4f711729-11db-4481-a558-983b7b381ab1"},"vehicle_type_id":"4","last_reported":1738750212,"current_range_meters":30800,"station_id":"ce4bhqh2rcd13ifvqhmg","pricing_plan_id":"cebpf4jnsgd1na2vs0mg"},{"bike_id":"8b50d5d6-3993-4367-b1cc-aee79b36e4de","system_id":"levelo_inurba_marseille","lat":43.29902,"lon":5.3747,"is_reserved":false,"is_disabled":false,"rental_uris":{"android":"levelo://app?vid=8b50d5d6-3993-4367-b1cc-aee79b36e4de","ios":"levelo://app?vid=8b50d5d6-3993-4367-b1cc-aee79b36e4de"},"vehicle_type_id":"4","last_reported":1738750212,"current_range_meters":38400,"station_id":"ce4bgjh2rcd13ifvqbg0","pricing_plan_id":"cebpf4jnsgd1na2vs0mg"},{"bike_id":"37f58142-e4da-4fa5-b6ac-f1f84075e5c0","system_id":"levelo_inurba_marseille","lat":43.296194,"lon":5.371584,"is_reserved":false,"is_disabled":true,"rental_uris":{"android":"levelo://app?vid=37f58142-e4da-4fa5-b6ac-f1f84075e5c0","ios":"levelo://app?vid=37f58142-e4da-4fa5-b6ac-f1f84075e5c0"},"vehicle_type_id":"4","last_reported":1738750212,"current_range_meters":38000,"station_id":"ce4bgnh2rcd13ifvqc0g","pricing_plan_id":"cebpf4jnsgd1na2vs0mg"},{"bike_id":"a4feb191-8532-43e6-9e74-6ad8af8a54c9","system_id":"levelo_inurba_marseille","lat":43.27493,"lon":5.4246,"is_reserved":false,"is_disabled":false,"rental_uris":{"android":"levelo://app?vid=a4feb191-8532-43e6-9e74-6ad8af8a54c9","ios":"levelo://app?vid=a4feb191-8532-43e6-9e74-6ad8af8a54c9"},"vehicle_type_id":"4","last_reported":1738750212,"current_range_meters":39200,"station_id":"ce4bhn92rcd13ifvqgrg","pricing_plan_id":"cebpf4jnsgd1na2vs0mg"},{"bike_id":"e9d9f904-c5dd-4ad1-afd5-91f024e42c8c","system_id":"levelo_inurba_marseille","lat":43.25571,"lon":5.38241,"is_reserved":false,"is_disabled":false,"rental_uris":{"android":"levelo://app?vid=e9d9f904-c5dd-4ad1-afd5-91f024e42c8c","ios":"levelo://app?vid=e9d9f904-c5dd-4ad1-afd5-91f024e42c8c"},"vehicle_type_id":"4","last_reported":1738750212,"current_range_meters":26000,"station_id":"ce4bhih2rcd13ifvqfs0","pricing_plan_id":"cebpf4jnsgd1na2vs0mg"},{"bike_id":"ae352de6-6485-4b39-ba45-334def8966b9","system_id":"levelo_inurba_marseille","lat":43.27717,"lon":5.38909,"is_reserved":false,"is_disabled":false,"rental_uris":{"android":"levelo://app?vid=ae352de6-6485-4b39-ba45-334def8966b9","ios":"levelo://app?vid=ae352de6-6485-4b39-ba45-334def8966b9"},"vehicle_type_id":"4","last_reported":1738750212,"current_range_meters":27600,"station_id":"ce4bhi12rcd13ifvqfo0","pricing_plan_id":"cebpf4jnsgd1na2vs0mg"},{"bike_id":"c817b1d7-5c83-4d81-97ef-78c783fd9d65","system_id":"levelo_inurba_marseille","lat":43.27903,"lon":5.38019,"is_reserved":false,"is_disabled":false,"rental_uris":{"android":"levelo://app?vid=c817b1d7-5c83-4d81-97ef-78c783fd9d65","ios":"levelo://app?vid=c817b1d7-5c83-4d81-97ef-78c783fd9d65"},"vehicle_type_id":"4","last_reported":1738750212,"current_range_meters":34000,"station_id":"ce4bhf92rcd13ifvqf50","pricing_plan_id":"cebpf4jnsgd1na2vs0mg"},{"bike_id":"68a2483f-02fc-4c94-9576-83941fe795c8","system_id":"levelo_inurba_marseille","lat":43.240573,"lon":5.377763,"is_reserved":false,"is_disabled":false,"rental_uris":{"android":"levelo://app?vid=68a2483f-02fc-4c94-9576-83941fe795c8","ios":"levelo://app?vid=68a2483f-02fc-4c94-9576-83941fe795c8"},"vehicle_type_id":"4","last_reported":1738750212,"current_range_meters":38400,"station_id":"ce4bhnp2rcd13ifvqgvg","pricing_plan_id":"cebpf4jnsgd1na2vs0mg"},{"bike_id":"9fa6de76-e609-4c72-8e60-948046040770","system_id":"levelo_inurba_marseille","lat":43.26667,"lon":5.3828,"is_reserved":false,"is_disabled":false,"rental_uris":{"android":"levelo://app?vid=9fa6de76-e609-4c72-8e60-948046040770","ios":"levelo://app?vid=9fa6de76-e609-4c72-8e60-948046040770"},"vehicle_type_id":"4","last_reported":1738750212,"current_range_meters":39200,"station_id":"ce4bhg92rcd13ifvqf90","pricing_plan_id":"cebpf4jnsgd1na2vs0mg"},{"bike_id":"96db26f3-6182-45b1-98ca-6576a1e2e797","system_id":"levelo_inurba_marseille","lat":43.25443,"lon":5.37692,"is_reserved":false,"is_disabled":false,"rental_uris":{"android":"levelo://app?vid=96db26f3-6182-45b1-98ca-6576a1e2e797","ios":"levelo://app?vid=96db26f3-6182-45b1-98ca-6576a1e2e797"},"vehicle_type_id":"4","last_reported":1738750212,"current_range_meters":18800,"station_id":"ce4bhh12rcd13ifvqff0","pricing_plan_id":"cebpf4jnsgd1na2vs0mg"},{"bike_id":"646ad4ef-5a52-4531-9e83-72cac0dbfd0f","system_id":"levelo_inurba_marseille","lat":43.27299,"lon":5.391,"is_reserved":false,"is_disabled":false,"rental_uris":{"android":"levelo://app?vid=646ad4ef-5a52-4531-9e83-72cac0dbfd0f","ios":"levelo://app?vid=646ad4ef-5a52-4531-9e83-72cac0dbfd0f"},"vehicle_type_id":"4","last_reported":1738750212,"current_range_meters":38800,"station_id":"ce4bhgp2rcd13ifvqfe0","pricing_plan_id":"cebpf4jnsgd1na2vs0mg"},{"bike_id":"3ab0ceb6-cd89-477f-8038-1be761eb4bda","system_id":"levelo_inurba_marseille","lat":43.29531,"lon":5.375,"is_reserved":false,"is_disabled":true,"rental_uris":{"android":"levelo://app?vid=3ab0ceb6-cd89-477f-8038-1be761eb4bda","ios":"levelo://app?vid=3ab0ceb6-cd89-477f-8038-1be761eb4bda"},"vehicle_type_id":"4","last_reported":1738750212,"current_range_meters":38800,"station_id":"ce4bgkp2rcd13ifvqbmg","pricing_plan_id":"cebpf4jnsgd1na2vs0mg"},{"bike_id":"496310f9-20d4-472f-8dcd-1fcbf1a417a3","system_id":"levelo_inurba_marseille","lat":43.24389,"lon":5.37073,"is_reserved":false,"is_disabled":false,"rental_uris":{"android":"levelo://app?vid=496310f9-20d4-472f-8dcd-1fcbf1a417a3","ios":"levelo://app?vid=496310f9-20d4-472f-8dcd-1fcbf1a417a3"},"vehicle_type_id":"4","last_reported":1738750212,"current_range_meters":30400,"station_id":"ce4bhhh2rcd13ifvqfk0","pricing_plan_id":"cebpf4jnsgd1na2vs0mg"},{"bike_id":"b2d6864b-5060-48af-bc3e-cc82b3d1573e","system_id":"levelo_inurba_marseille","lat":43.2572,"lon":5.41115,"is_reserved":false,"is_disabled":false,"rental_uris":{"android":"levelo://app?vid=b2d6864b-5060-48af-bc3e-cc82b3d1573e","ios":"levelo://app?vid=b2d6864b-5060-48af-bc3e-cc82b3d1573e"},"vehicle_type_id":"4","last_reported":1738750212,"current_range_meters":27600,"station_id":"ce4bhkp2rcd13ifvqgd0","pricing_plan_id":"cebpf4jnsgd1na2vs0mg"},{"bike_id":"c85a26e1-f53e-4ec1-b1ea-8b32d23f1f4d","system_id":"levelo_inurba_marseille","lat":43.23051,"lon":5.35502,"is_reserved":false,"is_disabled":false,"rental_uris":{"android":"levelo://app?vid=c85a26e1-f53e-4ec1-b1ea-8b32d23f1f4d","ios":"levelo://app?vid=c85a26e1-f53e-4ec1-b1ea-8b32d23f1f4d"},"vehicle_type_id":"4","last_reported":1738750212,"current_range_meters":22800,"station_id":"cpo3342slgdg3j2ifvpg","pricing_plan_id":"cebpf4jnsgd1na2vs0mg"},{"bike_id":"512a3a23-b079-4568-bc04-d9235c65b5d3","system_id":"levelo_inurba_marseille","lat":43.23967,"lon":5.36615,"is_reserved":false,"is_disabled":false,"rental_uris":{"android":"levelo://app?vid=512a3a23-b079-4568-bc04-d9235c65b5d3","ios":"levelo://app?vid=512a3a23-b079-4568-bc04-d9235c65b5d3"},"vehicle_type_id":"4","last_reported":1738750212,"current_range_meters":13600,"station_id":"ce4bhi12rcd13ifvqfp0","pricing_plan_id":"cebpf4jnsgd1na2vs0mg"},{"bike_id":"d0cad1ff-f44e-4b70-83cf-c43416973ca9","system_id":"levelo_inurba_marseille","lat":43.2942,"lon":5.38622,"is_reserved":false,"is_disabled":false,"rental_uris":{"android":"levelo://app?vid=d0cad1ff-f44e-4b70-83cf-c43416973ca9","ios":"levelo://app?vid=d0cad1ff-f44e-4b70-83cf-c43416973ca9"},"vehicle_type_id":"4","last_reported":1738750212,"current_range_meters":37600,"station_id":"ce4bh2h2rcd13ifvqdh0","pricing_plan_id":"cebpf4jnsgd1na2vs0mg"},{"bike_id":"bd2c8631-5885-47e9-a4c3-f8cf7762eef5","system_id":"levelo_inurba_marseille","lat":43.2417,"lon":5.39735,"is_reserved":false,"is_disabled":false,"rental_uris":{"android":"levelo://app?vid=bd2c8631-5885-47e9-a4c3-f8cf7762eef5","ios":"levelo://app?vid=bd2c8631-5885-47e9-a4c3-f8cf7762eef5"},"vehicle_type_id":"4","last_reported":1738750212,"current_range_meters":38800,"station_id":"ce4bhn12rcd13ifvqgpg","pricing_plan_id":"cebpf4jnsgd1na2vs0mg"},{"bike_id":"3a8e027c-0654-4850-bb93-ff1d8db3dc3e","system_id":"levelo_inurba_marseille","lat":43.31225,"lon":5.36869,"is_reserved":false,"is_disabled":false,"rental_uris":{"android":"levelo://app?vid=3a8e027c-0654-4850-bb93-ff1d8db3dc3e","ios":"levelo://app?vid=3a8e027c-0654-4850-bb93-ff1d8db3dc3e"},"vehicle_type_id":"4","last_reported":1738750212,"current_range_meters":38800,"station_id":"ce4bgl92rcd13ifvqbq0","pricing_plan_id":"cebpf4jnsgd1na2vs0mg"},{"bike_id":"cfb26055-99df-4b5f-aee1-bbc33a773ab0","system_id":"levelo_inurba_marseille","lat":43.28842,"lon":5.39301,"is_reserved":false,"is_disabled":false,"rental_uris":{"android":"levelo://app?vid=cfb26055-99df-4b5f-aee1-bbc33a773ab0","ios":"levelo://app?vid=cfb26055-99df-4b5f-aee1-bbc33a773ab0"},"vehicle_type_id":"4","last_reported":1738750212,"current_range_meters":31200,"station_id":"ce4bh2p2rcd13ifvqdi0","pricing_plan_id":"cebpf4jnsgd1na2vs0mg"},{"bike_id":"10f65f88-bf3b-4c22-b65b-bc92d9c2c8d3","system_id":"levelo_inurba_marseille","lat":43.29365,"lon":5.37856,"is_reserved":false,"is_disabled":false,"rental_uris":{"android":"levelo://app?vid=10f65f88-bf3b-4c22-b65b-bc92d9c2c8d3","ios":"levelo://app?vid=10f65f88-bf3b-4c22-b65b-bc92d9c2c8d3"},"vehicle_type_id":"4","last_reported":1738750212,"current_range_meters":38800,"station_id":"ce4bgjh2rcd13ifvqbf0","pricing_plan_id":"cebpf4jnsgd1na2vs0mg"},{"bike_id":"edd323ff-b551-47ed-968c-95e319359a19","system_id":"levelo_inurba_marseille","lat":43.30974,"lon":5.39081,"is_reserved":false,"is_disabled":false,"rental_uris":{"android":"levelo://app?vid=edd323ff-b551-47ed-968c-95e319359a19","ios":"levelo://app?vid=edd323ff-b551-47ed-968c-95e319359a19"},"vehicle_type_id":"4","last_reported":1738750212,"current_range_meters":9200,"station_id":"ce4bgup2rcd13ifvqco0","pricing_plan_id":"cebpf4jnsgd1na2vs0mg"},{"bike_id":"a601793f-2b5e-4f15-b76e-8c54ae0448f5","system_id":"levelo_inurba_marseille","lat":43.28979,"lon":5.37841,"is_reserved":false,"is_disabled":false,"rental_uris":{"android":"levelo://app?vid=a601793f-2b5e-4f15-b76e-8c54ae0448f5","ios":"levelo://app?vid=a601793f-2b5e-4f15-b76e-8c54ae0448f5"},"vehicle_type_id":"4","last_reported":1738750212,"current_range_meters":39200,"station_id":"ce4bh9p2rcd13ifvqed0","pricing_plan_id":"cebpf4jnsgd1na2vs0mg"},{"bike_id":"63c732f1-6e14-42c0-89fa-de14ad6b19d9","system_id":"levelo_inurba_marseille","lat":43.27031,"lon":5.40305,"is_reserved":false,"is_disabled":false,"rental_uris":{"android":"levelo://app?vid=63c732f1-6e14-42c0-89fa-de14ad6b19d9","ios":"levelo://app?vid=63c732f1-6e14-42c0-89fa-de14ad6b19d9"},"vehicle_type_id":"4","last_reported":1738750212,"current_range_meters":28400,"station_id":"","pricing_plan_id":"cebpf4jnsgd1na2vs0mg"},{"bike_id":"c644fe7c-e90b-45f3-8ac2-8bc5eae3a4cf","system_id":"levelo_inurba_marseille","lat":43.304718,"lon":5.379064,"is_reserved":false,"is_disabled":false,"rental_uris":{"android":"levelo://app?vid=c644fe7c-e90b-45f3-8ac2-8bc5eae3a4cf","ios":"levelo://app?vid=c644fe7c-e90b-45f3-8ac2-8bc5eae3a4cf"},"vehicle_type_id":"4","last_reported":1738750212,"current_range_meters":36800,"station_id":"ce4bgup2rcd13ifvqcn0","pricing_plan_id":"cebpf4jnsgd1na2vs0mg"},{"bike_id":"7bf1dd2a-42c4-4b8e-ad09-ace0d60f7028","system_id":"levelo_inurba_marseille","lat":43.30516,"lon":5.36525,"is_reserved":false,"is_disabled":false,"rental_uris":{"android":"levelo://app?vid=7bf1dd2a-42c4-4b8e-ad09-ace0d60f7028","ios":"levelo://app?vid=7bf1dd2a-42c4-4b8e-ad09-ace0d60f7028"},"vehicle_type_id":"4","last_reported":1738750212,"current_range_meters":8800,"station_id":"","pricing_plan_id":"cebpf4jnsgd1na2vs0mg"},{"bike_id":"670607e9-4eb5-4e91-872c-faf711f77402","system_id":"levelo_inurba_marseille","lat":43.28951,"lon":5.37845,"is_reserved":false,"is_disabled":false,"rental_uris":{"android":"levelo://app?vid=670607e9-4eb5-4e91-872c-faf711f77402","ios":"levelo://app?vid=670607e9-4eb5-4e91-872c-faf711f77402"},"vehicle_type_id":"4","last_reported":1738750212,"current_range_meters":38800,"station_id":"ce4bh9p2rcd13ifvqed0","pricing_plan_id":"cebpf4jnsgd1na2vs0mg"},{"bike_id":"28d56fc1-26a3-4b1a-9e30-4ebde42ead0c","system_id":"levelo_inurba_marseille","lat":43.30946,"lon":5.39053,"is_reserved":false,"is_disabled":false,"rental_uris":{"android":"levelo://app?vid=28d56fc1-26a3-4b1a-9e30-4ebde42ead0c","ios":"levelo://app?vid=28d56fc1-26a3-4b1a-9e30-4ebde42ead0c"},"vehicle_type_id":"4","last_reported":1738750212,"current_range_meters":38000,"station_id":"ce4bgup2rcd13ifvqco0","pricing_plan_id":"cebpf4jnsgd1na2vs0mg"},{"bike_id":"2e1fd84a-93c0-4e60-908d-3675bdd34c0e","system_id":"levelo_inurba_marseille","lat":43.229289,"lon":5.353818,"is_reserved":false,"is_disabled":false,"rental_uris":{"android":"levelo://app?vid=2e1fd84a-93c0-4e60-908d-3675bdd34c0e","ios":"levelo://app?vid=2e1fd84a-93c0-4e60-908d-3675bdd34c0e"},"vehicle_type_id":"4","last_reported":1738750212,"current_range_meters":5600,"station_id":"cpo3532slgdg3j2ikp40","pricing_plan_id":"cebpf4jnsgd1na2vs0mg"},{"bike_id":"589a0d6a-3f59-4c10-b4aa-574eabb1c9aa","system_id":"levelo_inurba_marseille","lat":43.3047,"lon":5.37901,"is_reserved":false,"is_disabled":false,"rental_uris":{"android":"levelo://app?vid=589a0d6a-3f59-4c10-b4aa-574eabb1c9aa","ios":"levelo://app?vid=589a0d6a-3f59-4c10-b4aa-574eabb1c9aa"},"vehicle_type_id":"4","last_reported":1738750212,"current_range_meters":10000,"station_id":"ce4bgup2rcd13ifvqcn0","pricing_plan_id":"cebpf4jnsgd1na2vs0mg"},{"bike_id":"962646f7-90d3-45dd-b3f9-254502912c1d","system_id":"levelo_inurba_marseille","lat":43.29285,"lon":5.37452,"is_reserved":false,"is_disabled":false,"rental_uris":{"android":"levelo://app?vid=962646f7-90d3-45dd-b3f9-254502912c1d","ios":"levelo://app?vid=962646f7-90d3-45dd-b3f9-254502912c1d"},"vehicle_type_id":"4","last_reported":1738750212,"current_range_meters":38800,"station_id":"ce4bgi12rcd13ifvqb70","pricing_plan_id":"cebpf4jnsgd1na2vs0mg"},{"bike_id":"19dd9c2e-cef0-4d2b-a66c-51d7760c52c3","system_id":"levelo_inurba_marseille","lat":43.30517,"lon":5.3654,"is_reserved":false,"is_disabled":false,"rental_uris":{"android":"levelo://app?vid=19dd9c2e-cef0-4d2b-a66c-51d7760c52c3","ios":"levelo://app?vid=19dd9c2e-cef0-4d2b-a66c-51d7760c52c3"},"vehicle_type_id":"4","last_reported":1738750212,"current_range_meters":35200,"station_id":"ce4bgs12rcd13ifvqcag","pricing_plan_id":"cebpf4jnsgd1na2vs0mg"},{"bike_id":"30ed9aa5-4003-4fb1-b246-41d381f3435a","system_id":"levelo_inurba_marseille","lat":43.27054,"lon":5.40262,"is_reserved":false,"is_disabled":false,"rental_uris":{"android":"levelo://app?vid=30ed9aa5-4003-4fb1-b246-41d381f3435a","ios":"levelo://app?vid=30ed9aa5-4003-4fb1-b246-41d381f3435a"},"vehicle_type_id":"4","last_reported":1738750212,"current_range_meters":32800,"station_id":"ce4bhk92rcd13ifvqgc0","pricing_plan_id":"cebpf4jnsgd1na2vs0mg"},{"bike_id":"cf718dce-8fff-47f3-8799-102f3bdda250","system_id":"levelo_inurba_marseille","lat":43.30138,"lon":5.38119,"is_reserved":false,"is_disabled":true,"rental_uris":{"android":"levelo://app?vid=cf718dce-8fff-47f3-8799-102f3bdda250","ios":"levelo://app?vid=cf718dce-8fff-47f3-8799-102f3bdda250"},"vehicle_type_id":"4","last_reported":1738750212,"current_range_meters":36800,"station_id":"ce4bgjp2rcd13ifvqbh0","pricing_plan_id":"cebpf4jnsgd1na2vs0mg"},{"bike_id":"857707e2-f97f-4393-895f-aef91c3932b1","system_id":"levelo_inurba_marseille","lat":43.29969,"lon":5.37183,"is_reserved":false,"is_disabled":false,"rental_uris":{"android":"levelo://app?vid=857707e2-f97f-4393-895f-aef91c3932b1","ios":"levelo://app?vid=857707e2-f97f-4393-895f-aef91c3932b1"},"vehicle_type_id":"4","last_reported":1738750212,"current_range_meters":38800,"station_id":"ce4bgr92rcd13ifvqc7g","pricing_plan_id":"cebpf4jnsgd1na2vs0mg"},{"bike_id":"478f9082-8505-4851-9544-1ad60b911838","system_id":"levelo_inurba_marseille","lat":43.30233,"lon":5.40043,"is_reserved":false,"is_disabled":false,"rental_uris":{"android":"levelo://app?vid=478f9082-8505-4851-9544-1ad60b911838","ios":"levelo://app?vid=478f9082-8505-4851-9544-1ad60b911838"},"vehicle_type_id":"4","last_reported":1738750212,"current_range_meters":20000,"station_id":"ce4bgvh2rcd13ifvqcs0","pricing_plan_id":"cebpf4jnsgd1na2vs0mg"},{"bike_id":"135dc868-d608-438d-a79e-3d314cdd4e0c","system_id":"levelo_inurba_marseille","lat":43.30948,"lon":5.39046,"is_reserved":false,"is_disabled":false,"rental_uris":{"android":"levelo://app?vid=135dc868-d608-438d-a79e-3d314cdd4e0c","ios":"levelo://app?vid=135dc868-d608-438d-a79e-3d314cdd4e0c"},"vehicle_type_id":"4","last_reported":1738750212,"current_range_meters":28000,"station_id":"ce4bgup2rcd13ifvqco0","pricing_plan_id":"cebpf4jnsgd1na2vs0mg"},{"bike_id":"7390c2ab-c7eb-4529-8bf2-4ceb900ed2ac","system_id":"levelo_inurba_marseille","lat":43.27948,"lon":5.38712,"is_reserved":false,"is_disabled":false,"rental_uris":{"android":"levelo://app?vid=7390c2ab-c7eb-4529-8bf2-4ceb900ed2ac","ios":"levelo://app?vid=7390c2ab-c7eb-4529-8bf2-4ceb900ed2ac"},"vehicle_type_id":"4","last_reported":1738750212,"current_range_meters":38800,"station_id":"ce4bhg12rcd13ifvqf80","pricing_plan_id":"cebpf4jnsgd1na2vs0mg"},{"bike_id":"ea6909c8-24f9-4bcf-8882-99e672644073","system_id":"levelo_inurba_marseille","lat":43.24664,"lon":5.38159,"is_reserved":false,"is_disabled":false,"rental_uris":{"android":"levelo://app?vid=ea6909c8-24f9-4bcf-8882-99e672644073","ios":"levelo://app?vid=ea6909c8-24f9-4bcf-8882-99e672644073"},"vehicle_type_id":"4","last_reported":1738750212,"current_range_meters":21600,"station_id":"ce4bhih2rcd13ifvqfr0","pricing_plan_id":"cebpf4jnsgd1na2vs0mg"},{"bike_id":"500afed6-5d5b-4f21-bb8e-fb654b4db188","system_id":"levelo_inurba_marseille","lat":43.28153,"lon":5.42645,"is_reserved":false,"is_disabled":false,"rental_uris":{"android":"levelo://app?vid=500afed6-5d5b-4f21-bb8e-fb654b4db188","ios":"levelo://app?vid=500afed6-5d5b-4f21-bb8e-fb654b4db188"},"vehicle_type_id":"4","last_reported":1738750212,"current_range_meters":33200,"station_id":"ce4bhnh2rcd13ifvqgug","pricing_plan_id":"cebpf4jnsgd1na2vs0mg"},{"bike_id":"88f6ec14-1047-428a-bfc8-ed7564b679d3","system_id":"levelo_inurba_marseille","lat":43.24389,"lon":5.37062,"is_reserved":false,"is_disabled":false,"rental_uris":{"android":"levelo://app?vid=88f6ec14-1047-428a-bfc8-ed7564b679d3","ios":"levelo://app?vid=88f6ec14-1047-428a-bfc8-ed7564b679d3"},"vehicle_type_id":"4","last_reported":1738750212,"current_range_meters":37600,"station_id":"ce4bhhh2rcd13ifvqfk0","pricing_plan_id":"cebpf4jnsgd1na2vs0mg"},{"bike_id":"147f437d-7b8c-425d-a0f3-70832c2cd538","system_id":"levelo_inurba_marseille","lat":43.289323,"lon":5.364144,"is_reserved":false,"is_disabled":false,"rental_uris":{"android":"levelo://app?vid=147f437d-7b8c-425d-a0f3-70832c2cd538","ios":"levelo://app?vid=147f437d-7b8c-425d-a0f3-70832c2cd538"},"vehicle_type_id":"4","last_reported":1738750212,"current_range_meters":36800,"station_id":"ce4bhc92rcd13ifvqetg","pricing_plan_id":"cebpf4jnsgd1na2vs0mg"},{"bike_id":"ff52f4b1-a06d-475c-b0fc-ce6749154097","system_id":"levelo_inurba_marseille","lat":43.27061,"lon":5.4026,"is_reserved":false,"is_disabled":false,"rental_uris":{"android":"levelo://app?vid=ff52f4b1-a06d-475c-b0fc-ce6749154097","ios":"levelo://app?vid=ff52f4b1-a06d-475c-b0fc-ce6749154097"},"vehicle_type_id":"4","last_reported":1738750212,"current_range_meters":8400,"station_id":"ce4bhk92rcd13ifvqgc0","pricing_plan_id":"cebpf4jnsgd1na2vs0mg"},{"bike_id":"f37433ee-3559-4b29-af48-9a91865dfc9e","system_id":"levelo_inurba_marseille","lat":43.30962,"lon":5.39054,"is_reserved":false,"is_disabled":false,"rental_uris":{"android":"levelo://app?vid=f37433ee-3559-4b29-af48-9a91865dfc9e","ios":"levelo://app?vid=f37433ee-3559-4b29-af48-9a91865dfc9e"},"vehicle_type_id":"4","last_reported":1738750212,"current_range_meters":20000,"station_id":"ce4bgup2rcd13ifvqco0","pricing_plan_id":"cebpf4jnsgd1na2vs0mg"},{"bike_id":"6ad6f171-0eab-485a-8f96-6d34af53047b","system_id":"levelo_inurba_marseille","lat":43.29828,"lon":5.36288,"is_reserved":false,"is_disabled":false,"rental_uris":{"android":"levelo://app?vid=6ad6f171-0eab-485a-8f96-6d34af53047b","ios":"levelo://app?vid=6ad6f171-0eab-485a-8f96-6d34af53047b"},"vehicle_type_id":"4","last_reported":1738750212,"current_range_meters":38000,"station_id":"ce4bgpp2rcd13ifvqc3g","pricing_plan_id":"cebpf4jnsgd1na2vs0mg"},{"bike_id":"2b05073d-60e5-43e5-b13c-86d3deb4df57","system_id":"levelo_inurba_marseille","lat":43.325419,"lon":5.4146,"is_reserved":false,"is_disabled":false,"rental_uris":{"android":"levelo://app?vid=2b05073d-60e5-43e5-b13c-86d3deb4df57","ios":"levelo://app?vid=2b05073d-60e5-43e5-b13c-86d3deb4df57"},"vehicle_type_id":"4","last_reported":1738750212,"current_range_meters":39200,"station_id":"ce4bhq12rcd13ifvqhhg","pricing_plan_id":"cebpf4jnsgd1na2vs0mg"},{"bike_id":"7d5a071b-33d0-4a99-a7a2-905e423e155c","system_id":"levelo_inurba_marseille","lat":43.23962,"lon":5.36641,"is_reserved":false,"is_disabled":false,"rental_uris":{"android":"levelo://app?vid=7d5a071b-33d0-4a99-a7a2-905e423e155c","ios":"levelo://app?vid=7d5a071b-33d0-4a99-a7a2-905e423e155c"},"vehicle_type_id":"4","last_reported":1738750212,"current_range_meters":36800,"station_id":"ce4bhi12rcd13ifvqfp0","pricing_plan_id":"cebpf4jnsgd1na2vs0mg"},{"bike_id":"1a4300f8-9da8-4821-bac8-6eeb73797160","system_id":"levelo_inurba_marseille","lat":43.30943,"lon":5.3904,"is_reserved":false,"is_disabled":false,"rental_uris":{"android":"levelo://app?vid=1a4300f8-9da8-4821-bac8-6eeb73797160","ios":"levelo://app?vid=1a4300f8-9da8-4821-bac8-6eeb73797160"},"vehicle_type_id":"4","last_reported":1738750212,"current_range_meters":10000,"station_id":"ce4bgup2rcd13ifvqco0","pricing_plan_id":"cebpf4jnsgd1na2vs0mg"},{"bike_id":"b8a5590f-b8dd-4723-9d52-7fe8076593b7","system_id":"levelo_inurba_marseille","lat":43.30216,"lon":5.38079,"is_reserved":false,"is_disabled":false,"rental_uris":{"android":"levelo://app?vid=b8a5590f-b8dd-4723-9d52-7fe8076593b7","ios":"levelo://app?vid=b8a5590f-b8dd-4723-9d52-7fe8076593b7"},"vehicle_type_id":"4","last_reported":1738750212,"current_range_meters":32400,"station_id":"","pricing_plan_id":"cebpf4jnsgd1na2vs0mg"},{"bike_id":"931c3b97-cce1-4ebe-a291-6c50a6f2810e","system_id":"levelo_inurba_marseille","lat":43.31786,"lon":5.374464,"is_reserved":false,"is_disabled":false,"rental_uris":{"android":"levelo://app?vid=931c3b97-cce1-4ebe-a291-6c50a6f2810e","ios":"levelo://app?vid=931c3b97-cce1-4ebe-a291-6c50a6f2810e"},"vehicle_type_id":"4","last_reported":1738750212,"current_range_meters":6800,"station_id":"","pricing_plan_id":"cebpf4jnsgd1na2vs0mg"},{"bike_id":"a2f2e29a-e671-4b78-a088-9ea6e0c062ed","system_id":"levelo_inurba_marseille","lat":43.33566,"lon":5.40987,"is_reserved":false,"is_disabled":false,"rental_uris":{"android":"levelo://app?vid=a2f2e29a-e671-4b78-a088-9ea6e0c062ed","ios":"levelo://app?vid=a2f2e29a-e671-4b78-a088-9ea6e0c062ed"},"vehicle_type_id":"4","last_reported":1738750212,"current_range_meters":30000,"station_id":"ce4bhqh2rcd13ifvqhmg","pricing_plan_id":"cebpf4jnsgd1na2vs0mg"},{"bike_id":"d1d51ec2-e1ab-4b92-9a4b-f935b04ef436","system_id":"levelo_inurba_marseille","lat":43.25003,"lon":5.38923,"is_reserved":false,"is_disabled":false,"rental_uris":{"android":"levelo://app?vid=d1d51ec2-e1ab-4b92-9a4b-f935b04ef436","ios":"levelo://app?vid=d1d51ec2-e1ab-4b92-9a4b-f935b04ef436"},"vehicle_type_id":"4","last_reported":1738750212,"current_range_meters":19600,"station_id":"ce4bhgp2rcd13ifvqfd0","pricing_plan_id":"cebpf4jnsgd1na2vs0mg"},{"bike_id":"7d44cb31-d01e-4547-9973-dcd3966d8338","system_id":"levelo_inurba_marseille","lat":43.29358,"lon":5.37868,"is_reserved":false,"is_disabled":false,"rental_uris":{"android":"levelo://app?vid=7d44cb31-d01e-4547-9973-dcd3966d8338","ios":"levelo://app?vid=7d44cb31-d01e-4547-9973-dcd3966d8338"},"vehicle_type_id":"4","last_reported":1738750212,"current_range_meters":18800,"station_id":"ce4bgjh2rcd13ifvqbf0","pricing_plan_id":"cebpf4jnsgd1na2vs0mg"},{"bike_id":"7a2080c9-d44a-471c-9acd-526428e8e5dc","system_id":"levelo_inurba_marseille","lat":43.2294,"lon":5.35378,"is_reserved":false,"is_disabled":false,"rental_uris":{"android":"levelo://app?vid=7a2080c9-d44a-471c-9acd-526428e8e5dc","ios":"levelo://app?vid=7a2080c9-d44a-471c-9acd-526428e8e5dc"},"vehicle_type_id":"4","last_reported":1738750212,"current_range_meters":38800,"station_id":"cpo3532slgdg3j2ikp40","pricing_plan_id":"cebpf4jnsgd1na2vs0mg"},{"bike_id":"3cffe561-5575-4d5f-9a3c-4ee740a5b122","system_id":"levelo_inurba_marseille","lat":43.27948,"lon":5.41056,"is_reserved":false,"is_disabled":false,"rental_uris":{"android":"levelo://app?vid=3cffe561-5575-4d5f-9a3c-4ee740a5b122","ios":"levelo://app?vid=3cffe561-5575-4d5f-9a3c-4ee740a5b122"},"vehicle_type_id":"4","last_reported":1738750212,"current_range_meters":24800,"station_id":"ce4bhnp2rcd13ifvqh0g","pricing_plan_id":"cebpf4jnsgd1na2vs0mg"},{"bike_id":"d500b762-3915-4dff-a06c-7c96151cfc0d","system_id":"levelo_inurba_marseille","lat":43.32548,"lon":5.41461,"is_reserved":false,"is_disabled":false,"rental_uris":{"android":"levelo://app?vid=d500b762-3915-4dff-a06c-7c96151cfc0d","ios":"levelo://app?vid=d500b762-3915-4dff-a06c-7c96151cfc0d"},"vehicle_type_id":"4","last_reported":1738750212,"current_range_meters":38800,"station_id":"ce4bhq12rcd13ifvqhhg","pricing_plan_id":"cebpf4jnsgd1na2vs0mg"},{"bike_id":"f307dfc9-492f-427c-886b-0aebd0c4a217","system_id":"levelo_inurba_marseille","lat":43.24167,"lon":5.36396,"is_reserved":false,"is_disabled":false,"rental_uris":{"android":"levelo://app?vid=f307dfc9-492f-427c-886b-0aebd0c4a217","ios":"levelo://app?vid=f307dfc9-492f-427c-886b-0aebd0c4a217"},"vehicle_type_id":"4","last_reported":1738750212,"current_range_meters":38800,"station_id":"cpo36qri1sfpv3e86is0","pricing_plan_id":"cebpf4jnsgd1na2vs0mg"},{"bike_id":"cf8daebe-9126-43c3-afaf-1bddbaac82f3","system_id":"levelo_inurba_marseille","lat":43.28936,"lon":5.39636,"is_reserved":false,"is_disabled":false,"rental_uris":{"android":"levelo://app?vid=cf8daebe-9126-43c3-afaf-1bddbaac82f3","ios":"levelo://app?vid=cf8daebe-9126-43c3-afaf-1bddbaac82f3"},"vehicle_type_id":"4","last_reported":1738750212,"current_range_meters":38800,"station_id":"ce4bh3h2rcd13ifvqdn0","pricing_plan_id":"cebpf4jnsgd1na2vs0mg"},{"bike_id":"246926c2-4963-42b8-9129-7edcdb3dd594","system_id":"levelo_inurba_marseille","lat":43.24661,"lon":5.38169,"is_reserved":false,"is_disabled":false,"rental_uris":{"android":"levelo://app?vid=246926c2-4963-42b8-9129-7edcdb3dd594","ios":"levelo://app?vid=246926c2-4963-42b8-9129-7edcdb3dd594"},"vehicle_type_id":"4","last_reported":1738750212,"current_range_meters":14400,"station_id":"ce4bhih2rcd13ifvqfr0","pricing_plan_id":"cebpf4jnsgd1na2vs0mg"},{"bike_id":"6ecb5e46-8ac4-4787-aa55-1eabbc489c43","system_id":"levelo_inurba_marseille","lat":43.29042,"lon":5.35907,"is_reserved":false,"is_disabled":false,"rental_uris":{"android":"levelo://app?vid=6ecb5e46-8ac4-4787-aa55-1eabbc489c43","ios":"levelo://app?vid=6ecb5e46-8ac4-4787-aa55-1eabbc489c43"},"vehicle_type_id":"4","last_reported":1738750212,"current_range_meters":38400,"station_id":"ce4bha92rcd13ifvqeg0","pricing_plan_id":"cebpf4jnsgd1na2vs0mg"},{"bike_id":"fc34d4a5-d155-4e65-9b57-5b5b88ec9869","system_id":"levelo_inurba_marseille","lat":43.27293,"lon":5.39359,"is_reserved":false,"is_disabled":false,"rental_uris":{"android":"levelo://app?vid=fc34d4a5-d155-4e65-9b57-5b5b88ec9869","ios":"levelo://app?vid=fc34d4a5-d155-4e65-9b57-5b5b88ec9869"},"vehicle_type_id":"4","last_reported":1738750212,"current_range_meters":8800,"station_id":"","pricing_plan_id":"cebpf4jnsgd1na2vs0mg"},{"bike_id":"448a689e-af6c-4f92-9f89-b02f7ed2ec01","system_id":"levelo_inurba_marseille","lat":43.28096,"lon":5.37845,"is_reserved":false,"is_disabled":true,"rental_uris":{"android":"levelo://app?vid=448a689e-af6c-4f92-9f89-b02f7ed2ec01","ios":"levelo://app?vid=448a689e-af6c-4f92-9f89-b02f7ed2ec01"},"vehicle_type_id":"4","last_reported":1738750212,"current_range_meters":12400,"station_id":"ce4bha12rcd13ifvqee0","pricing_plan_id":"cebpf4jnsgd1na2vs0mg"},{"bike_id":"8e0a0553-d4ce-4a58-bdf9-cddf2b79af95","system_id":"levelo_inurba_marseille","lat":43.27991,"lon":5.40039,"is_reserved":false,"is_disabled":false,"rental_uris":{"android":"levelo://app?vid=8e0a0553-d4ce-4a58-bdf9-cddf2b79af95","ios":"levelo://app?vid=8e0a0553-d4ce-4a58-bdf9-cddf2b79af95"},"vehicle_type_id":"4","last_reported":1738750212,"current_range_meters":38400,"station_id":"ce4bho92rcd13ifvqh4g","pricing_plan_id":"cebpf4jnsgd1na2vs0mg"},{"bike_id":"abd07a97-530b-4fc0-93db-ff4b041bb8b9","system_id":"levelo_inurba_marseille","lat":43.30173,"lon":5.36642,"is_reserved":false,"is_disabled":false,"rental_uris":{"android":"levelo://app?vid=abd07a97-530b-4fc0-93db-ff4b041bb8b9","ios":"levelo://app?vid=abd07a97-530b-4fc0-93db-ff4b041bb8b9"},"vehicle_type_id":"4","last_reported":1738750212,"current_range_meters":30800,"station_id":"ce4bgrh2rcd13ifvqc8g","pricing_plan_id":"cebpf4jnsgd1na2vs0mg"},{"bike_id":"f97c7be9-5bc5-472d-87bf-c0dcf4e97196","system_id":"levelo_inurba_marseille","lat":43.29219,"lon":5.39316,"is_reserved":false,"is_disabled":false,"rental_uris":{"android":"levelo://app?vid=f97c7be9-5bc5-472d-87bf-c0dcf4e97196","ios":"levelo://app?vid=f97c7be9-5bc5-472d-87bf-c0dcf4e97196"},"vehicle_type_id":"4","last_reported":1738750212,"current_range_meters":36800,"station_id":"ce4bh192rcd13ifvqdd0","pricing_plan_id":"cebpf4jnsgd1na2vs0mg"},{"bike_id":"6d60913d-cc26-4ecc-b494-5bb2f9b2ea83","system_id":"levelo_inurba_marseille","lat":43.29881,"lon":5.43667,"is_reserved":false,"is_disabled":false,"rental_uris":{"android":"levelo://app?vid=6d60913d-cc26-4ecc-b494-5bb2f9b2ea83","ios":"levelo://app?vid=6d60913d-cc26-4ecc-b494-5bb2f9b2ea83"},"vehicle_type_id":"4","last_reported":1738750212,"current_range_meters":38000,"station_id":"ce4bhpp2rcd13ifvqhfg","pricing_plan_id":"cebpf4jnsgd1na2vs0mg"},{"bike_id":"2fed9ba3-3909-423b-8e60-69abd9978d73","system_id":"levelo_inurba_marseille","lat":43.26854,"lon":5.40287,"is_reserved":false,"is_disabled":false,"rental_uris":{"android":"levelo://app?vid=2fed9ba3-3909-423b-8e60-69abd9978d73","ios":"levelo://app?vid=2fed9ba3-3909-423b-8e60-69abd9978d73"},"vehicle_type_id":"4","last_reported":1738750212,"current_range_meters":37600,"station_id":"ce501612rcd8frsf0b60","pricing_plan_id":"cebpf4jnsgd1na2vs0mg"},{"bike_id":"bc4186b3-1073-492b-ab95-0326a7b12d0e","system_id":"levelo_inurba_marseille","lat":43.28412,"lon":5.35002,"is_reserved":false,"is_disabled":false,"rental_uris":{"android":"levelo://app?vid=bc4186b3-1073-492b-ab95-0326a7b12d0e","ios":"levelo://app?vid=bc4186b3-1073-492b-ab95-0326a7b12d0e"},"vehicle_type_id":"4","last_reported":1738750212,"current_range_meters":36800,"station_id":"ce4bhbh2rcd13ifvqepg","pricing_plan_id":"cebpf4jnsgd1na2vs0mg"},{"bike_id":"4579e741-4603-4477-a7ad-f3da94979a43","system_id":"levelo_inurba_marseille","lat":43.2749,"lon":5.42471,"is_reserved":false,"is_disabled":false,"rental_uris":{"android":"levelo://app?vid=4579e741-4603-4477-a7ad-f3da94979a43","ios":"levelo://app?vid=4579e741-4603-4477-a7ad-f3da94979a43"},"vehicle_type_id":"4","last_reported":1738750212,"current_range_meters":7200,"station_id":"ce4bhn92rcd13ifvqgrg","pricing_plan_id":"cebpf4jnsgd1na2vs0mg"},{"bike_id":"fb1830e2-f6fc-4fde-afda-8615e8ed9c4a","system_id":"levelo_inurba_marseille","lat":43.2619,"lon":5.37464,"is_reserved":false,"is_disabled":false,"rental_uris":{"android":"levelo://app?vid=fb1830e2-f6fc-4fde-afda-8615e8ed9c4a","ios":"levelo://app?vid=fb1830e2-f6fc-4fde-afda-8615e8ed9c4a"},"vehicle_type_id":"4","last_reported":1738750212,"current_range_meters":38800,"station_id":"ce4bhgp2rcd13ifvqfc0","pricing_plan_id":"cebpf4jnsgd1na2vs0mg"},{"bike_id":"0389b0e3-bb7d-4743-89c2-0175efe92f67","system_id":"levelo_inurba_marseille","lat":43.32464,"lon":5.36576,"is_reserved":false,"is_disabled":false,"rental_uris":{"android":"levelo://app?vid=0389b0e3-bb7d-4743-89c2-0175efe92f67","ios":"levelo://app?vid=0389b0e3-bb7d-4743-89c2-0175efe92f67"},"vehicle_type_id":"4","last_reported":1738750212,"current_range_meters":27200,"station_id":"ce4bhs12rcd13ifvqhvg","pricing_plan_id":"cebpf4jnsgd1na2vs0mg"},{"bike_id":"0ba40ab8-9849-4ead-ad0d-88b309d7b65e","system_id":"levelo_inurba_marseille","lat":43.298404,"lon":5.362779,"is_reserved":false,"is_disabled":false,"rental_uris":{"android":"levelo://app?vid=0ba40ab8-9849-4ead-ad0d-88b309d7b65e","ios":"levelo://app?vid=0ba40ab8-9849-4ead-ad0d-88b309d7b65e"},"vehicle_type_id":"4","last_reported":1738750212,"current_range_meters":22400,"station_id":"ce4bgpp2rcd13ifvqc3g","pricing_plan_id":"cebpf4jnsgd1na2vs0mg"},{"bike_id":"30dfb66e-9295-4fb5-8194-4084d434e290","system_id":"levelo_inurba_marseille","lat":43.27667,"lon":5.38869,"is_reserved":false,"is_disabled":false,"rental_uris":{"android":"levelo://app?vid=30dfb66e-9295-4fb5-8194-4084d434e290","ios":"levelo://app?vid=30dfb66e-9295-4fb5-8194-4084d434e290"},"vehicle_type_id":"4","last_reported":1738750212,"current_range_meters":6400,"station_id":"ce4bhi12rcd13ifvqfo0","pricing_plan_id":"cebpf4jnsgd1na2vs0mg"},{"bike_id":"2b52254f-933d-4903-ac07-21eb27a1e798","system_id":"levelo_inurba_marseille","lat":43.2718,"lon":5.41011,"is_reserved":false,"is_disabled":false,"rental_uris":{"android":"levelo://app?vid=2b52254f-933d-4903-ac07-21eb27a1e798","ios":"levelo://app?vid=2b52254f-933d-4903-ac07-21eb27a1e798"},"vehicle_type_id":"4","last_reported":1738750212,"current_range_meters":6400,"station_id":"ce4bhl12rcd13ifvqgf0","pricing_plan_id":"cebpf4jnsgd1na2vs0mg"},{"bike_id":"5446a734-e212-4c3d-97c0-7e16b7a456b9","system_id":"levelo_inurba_marseille","lat":43.23139,"lon":5.43713,"is_reserved":false,"is_disabled":false,"rental_uris":{"android":"levelo://app?vid=5446a734-e212-4c3d-97c0-7e16b7a456b9","ios":"levelo://app?vid=5446a734-e212-4c3d-97c0-7e16b7a456b9"},"vehicle_type_id":"4","last_reported":1738750212,"current_range_meters":23200,"station_id":"ce4bhmp2rcd13ifvqgog","pricing_plan_id":"cebpf4jnsgd1na2vs0mg"},{"bike_id":"1ed7de5d-dac1-46be-94a3-d6d5f8043023","system_id":"levelo_inurba_marseille","lat":43.31374,"lon":5.36767,"is_reserved":false,"is_disabled":false,"rental_uris":{"android":"levelo://app?vid=1ed7de5d-dac1-46be-94a3-d6d5f8043023","ios":"levelo://app?vid=1ed7de5d-dac1-46be-94a3-d6d5f8043023"},"vehicle_type_id":"4","last_reported":1738750212,"current_range_meters":28000,"station_id":"ce4bgl92rcd13ifvqbq0","pricing_plan_id":"cebpf4jnsgd1na2vs0mg"},{"bike_id":"fef859c5-282a-46db-90e8-8b5f1c89ff40","system_id":"levelo_inurba_marseille","lat":43.29841,"lon":5.36299,"is_reserved":false,"is_disabled":false,"rental_uris":{"android":"levelo://app?vid=fef859c5-282a-46db-90e8-8b5f1c89ff40","ios":"levelo://app?vid=fef859c5-282a-46db-90e8-8b5f1c89ff40"},"vehicle_type_id":"4","last_reported":1738750212,"current_range_meters":35200,"station_id":"ce4bgpp2rcd13ifvqc3g","pricing_plan_id":"cebpf4jnsgd1na2vs0mg"},{"bike_id":"9048dc2a-aee5-49bf-8e2a-61067f4b00ff","system_id":"levelo_inurba_marseille","lat":43.28927,"lon":5.38381,"is_reserved":false,"is_disabled":false,"rental_uris":{"android":"levelo://app?vid=9048dc2a-aee5-49bf-8e2a-61067f4b00ff","ios":"levelo://app?vid=9048dc2a-aee5-49bf-8e2a-61067f4b00ff"},"vehicle_type_id":"4","last_reported":1738750212,"current_range_meters":36400,"station_id":"ce4bh612rcd13ifvqe6g","pricing_plan_id":"cebpf4jnsgd1na2vs0mg"},{"bike_id":"680260d6-e5ed-4620-9eaa-803ea763d58c","system_id":"levelo_inurba_marseille","lat":43.33615,"lon":5.41023,"is_reserved":false,"is_disabled":false,"rental_uris":{"android":"levelo://app?vid=680260d6-e5ed-4620-9eaa-803ea763d58c","ios":"levelo://app?vid=680260d6-e5ed-4620-9eaa-803ea763d58c"},"vehicle_type_id":"4","last_reported":1738750212,"current_range_meters":25200,"station_id":"ce4bhqh2rcd13ifvqhmg","pricing_plan_id":"cebpf4jnsgd1na2vs0mg"},{"bike_id":"6027e800-d7d6-4446-bec0-db1b2f05173e","system_id":"levelo_inurba_marseille","lat":43.28918,"lon":5.38398,"is_reserved":false,"is_disabled":false,"rental_uris":{"android":"levelo://app?vid=6027e800-d7d6-4446-bec0-db1b2f05173e","ios":"levelo://app?vid=6027e800-d7d6-4446-bec0-db1b2f05173e"},"vehicle_type_id":"4","last_reported":1738750212,"current_range_meters":38400,"station_id":"ce4bh612rcd13ifvqe6g","pricing_plan_id":"cebpf4jnsgd1na2vs0mg"},{"bike_id":"cbc65456-707b-4ddd-b341-f003b676778a","system_id":"levelo_inurba_marseille","lat":43.27798,"lon":5.40721,"is_reserved":false,"is_disabled":false,"rental_uris":{"android":"levelo://app?vid=cbc65456-707b-4ddd-b341-f003b676778a","ios":"levelo://app?vid=cbc65456-707b-4ddd-b341-f003b676778a"},"vehicle_type_id":"4","last_reported":1738750212,"current_range_meters":30400,"station_id":"ce4bhnh2rcd13ifvqgtg","pricing_plan_id":"cebpf4jnsgd1na2vs0mg"},{"bike_id":"a5462f1d-afb7-48b7-807f-622cb8e49d72","system_id":"levelo_inurba_marseille","lat":43.30468,"lon":5.37912,"is_reserved":false,"is_disabled":false,"rental_uris":{"android":"levelo://app?vid=a5462f1d-afb7-48b7-807f-622cb8e49d72","ios":"levelo://app?vid=a5462f1d-afb7-48b7-807f-622cb8e49d72"},"vehicle_type_id":"4","last_reported":1738750212,"current_range_meters":31200,"station_id":"ce4bgup2rcd13ifvqcn0","pricing_plan_id":"cebpf4jnsgd1na2vs0mg"},{"bike_id":"1d064a18-7207-47fc-9ee0-7e9629887021","system_id":"levelo_inurba_marseille","lat":43.337444,"lon":5.374475,"is_reserved":false,"is_disabled":false,"rental_uris":{"android":"levelo://app?vid=1d064a18-7207-47fc-9ee0-7e9629887021","ios":"levelo://app?vid=1d064a18-7207-47fc-9ee0-7e9629887021"},"vehicle_type_id":"4","last_reported":1738750212,"current_range_meters":38000,"station_id":"","pricing_plan_id":"cebpf4jnsgd1na2vs0mg"},{"bike_id":"d00b5e0e-374e-4986-8d4a-0c34338cad8a","system_id":"levelo_inurba_marseille","lat":43.28355,"lon":5.38621,"is_reserved":false,"is_disabled":false,"rental_uris":{"android":"levelo://app?vid=d00b5e0e-374e-4986-8d4a-0c34338cad8a","ios":"levelo://app?vid=d00b5e0e-374e-4986-8d4a-0c34338cad8a"},"vehicle_type_id":"4","last_reported":1738750212,"current_range_meters":35600,"station_id":"ce4bh492rcd13ifvqdvg","pricing_plan_id":"cebpf4jnsgd1na2vs0mg"},{"bike_id":"26d397a9-61ee-400d-a6b0-dc8b026ea3e4","system_id":"levelo_inurba_marseille","lat":43.2964,"lon":5.37151,"is_reserved":false,"is_disabled":false,"rental_uris":{"android":"levelo://app?vid=26d397a9-61ee-400d-a6b0-dc8b026ea3e4","ios":"levelo://app?vid=26d397a9-61ee-400d-a6b0-dc8b026ea3e4"},"vehicle_type_id":"4","last_reported":1738750212,"current_range_meters":31200,"station_id":"ce4bgnh2rcd13ifvqc0g","pricing_plan_id":"cebpf4jnsgd1na2vs0mg"},{"bike_id":"4a9bbea8-5d99-46d2-ae97-761cd680cf65","system_id":"levelo_inurba_marseille","lat":43.31718,"lon":5.42393,"is_reserved":false,"is_disabled":false,"rental_uris":{"android":"levelo://app?vid=4a9bbea8-5d99-46d2-ae97-761cd680cf65","ios":"levelo://app?vid=4a9bbea8-5d99-46d2-ae97-761cd680cf65"},"vehicle_type_id":"4","last_reported":1738750212,"current_range_meters":33600,"station_id":"ce4bhp92rcd13ifvqhbg","pricing_plan_id":"cebpf4jnsgd1na2vs0mg"},{"bike_id":"ce23c40b-e210-4f8b-9101-d0613bd25090","system_id":"levelo_inurba_marseille","lat":43.31203,"lon":5.36935,"is_reserved":false,"is_disabled":false,"rental_uris":{"android":"levelo://app?vid=ce23c40b-e210-4f8b-9101-d0613bd25090","ios":"levelo://app?vid=ce23c40b-e210-4f8b-9101-d0613bd25090"},"vehicle_type_id":"4","last_reported":1738750212,"current_range_meters":22000,"station_id":"ce4bgl92rcd13ifvqbq0","pricing_plan_id":"cebpf4jnsgd1na2vs0mg"},{"bike_id":"cc332521-0e7d-4b33-9709-6b098d135cfc","system_id":"levelo_inurba_marseille","lat":43.30526,"lon":5.38425,"is_reserved":false,"is_disabled":false,"rental_uris":{"android":"levelo://app?vid=cc332521-0e7d-4b33-9709-6b098d135cfc","ios":"levelo://app?vid=cc332521-0e7d-4b33-9709-6b098d135cfc"},"vehicle_type_id":"4","last_reported":1738750212,"current_range_meters":32800,"station_id":"ce4bgg92rcd13ifvqb30","pricing_plan_id":"cebpf4jnsgd1na2vs0mg"},{"bike_id":"a9ee38d0-21e8-4d99-8e3f-cc643e32473e","system_id":"levelo_inurba_marseille","lat":43.278189,"lon":5.407199,"is_reserved":false,"is_disabled":false,"rental_uris":{"android":"levelo://app?vid=a9ee38d0-21e8-4d99-8e3f-cc643e32473e","ios":"levelo://app?vid=a9ee38d0-21e8-4d99-8e3f-cc643e32473e"},"vehicle_type_id":"4","last_reported":1738750212,"current_range_meters":38000,"station_id":"ce4bhnh2rcd13ifvqgtg","pricing_plan_id":"cebpf4jnsgd1na2vs0mg"},{"bike_id":"275abebb-de98-4d50-b780-e7bfae1098db","system_id":"levelo_inurba_marseille","lat":43.28655,"lon":5.38617,"is_reserved":false,"is_disabled":false,"rental_uris":{"android":"levelo://app?vid=275abebb-de98-4d50-b780-e7bfae1098db","ios":"levelo://app?vid=275abebb-de98-4d50-b780-e7bfae1098db"},"vehicle_type_id":"4","last_reported":1738750212,"current_range_meters":35600,"station_id":"ce4bh8p2rcd13ifvqeb0","pricing_plan_id":"cebpf4jnsgd1na2vs0mg"},{"bike_id":"630dd466-e4dd-4ada-8a39-01e92abf0818","system_id":"levelo_inurba_marseille","lat":43.26195,"lon":5.37512,"is_reserved":false,"is_disabled":false,"rental_uris":{"android":"levelo://app?vid=630dd466-e4dd-4ada-8a39-01e92abf0818","ios":"levelo://app?vid=630dd466-e4dd-4ada-8a39-01e92abf0818"},"vehicle_type_id":"4","last_reported":1738750212,"current_range_meters":29600,"station_id":"","pricing_plan_id":"cebpf4jnsgd1na2vs0mg"},{"bike_id":"148ebf1c-0c4a-4bca-80d0-096264c9b011","system_id":"levelo_inurba_marseille","lat":43.31238,"lon":5.36857,"is_reserved":false,"is_disabled":false,"rental_uris":{"android":"levelo://app?vid=148ebf1c-0c4a-4bca-80d0-096264c9b011","ios":"levelo://app?vid=148ebf1c-0c4a-4bca-80d0-096264c9b011"},"vehicle_type_id":"4","last_reported":1738750212,"current_range_meters":38800,"station_id":"ce4bgl92rcd13ifvqbq0","pricing_plan_id":"cebpf4jnsgd1na2vs0mg"},{"bike_id":"cca1d3ff-e107-4491-9471-53a78941f512","system_id":"levelo_inurba_marseille","lat":43.30252,"lon":5.40047,"is_reserved":false,"is_disabled":false,"rental_uris":{"android":"levelo://app?vid=cca1d3ff-e107-4491-9471-53a78941f512","ios":"levelo://app?vid=cca1d3ff-e107-4491-9471-53a78941f512"},"vehicle_type_id":"4","last_reported":1738750212,"current_range_meters":32000,"station_id":"ce4bgvh2rcd13ifvqcs0","pricing_plan_id":"cebpf4jnsgd1na2vs0mg"},{"bike_id":"164d0caf-4978-4f80-b0b9-9a8f2b0ab9d7","system_id":"levelo_inurba_marseille","lat":43.29634,"lon":5.40602,"is_reserved":false,"is_disabled":true,"rental_uris":{"android":"levelo://app?vid=164d0caf-4978-4f80-b0b9-9a8f2b0ab9d7","ios":"levelo://app?vid=164d0caf-4978-4f80-b0b9-9a8f2b0ab9d7"},"vehicle_type_id":"4","last_reported":1738750212,"current_range_meters":30800,"station_id":"ce4bh0h2rcd13ifvqd60","pricing_plan_id":"cebpf4jnsgd1na2vs0mg"},{"bike_id":"41ad3d36-51d8-4204-ae3d-d7c8884b6fab","system_id":"levelo_inurba_marseille","lat":43.25554,"lon":5.38239,"is_reserved":false,"is_disabled":false,"rental_uris":{"android":"levelo://app?vid=41ad3d36-51d8-4204-ae3d-d7c8884b6fab","ios":"levelo://app?vid=41ad3d36-51d8-4204-ae3d-d7c8884b6fab"},"vehicle_type_id":"4","last_reported":1738750212,"current_range_meters":36800,"station_id":"ce4bhih2rcd13ifvqfs0","pricing_plan_id":"cebpf4jnsgd1na2vs0mg"},{"bike_id":"1b9214f8-12f2-4278-99cc-87bfa0cd0c04","system_id":"levelo_inurba_marseille","lat":43.29751,"lon":5.37716,"is_reserved":false,"is_disabled":false,"rental_uris":{"android":"levelo://app?vid=1b9214f8-12f2-4278-99cc-87bfa0cd0c04","ios":"levelo://app?vid=1b9214f8-12f2-4278-99cc-87bfa0cd0c04"},"vehicle_type_id":"4","last_reported":1738750212,"current_range_meters":36800,"station_id":"","pricing_plan_id":"cebpf4jnsgd1na2vs0mg"},{"bike_id":"a2ba7768-e6f8-4ccb-9b3a-ceb62a2b692a","system_id":"levelo_inurba_marseille","lat":43.2861,"lon":5.35099,"is_reserved":false,"is_disabled":true,"rental_uris":{"android":"levelo://app?vid=a2ba7768-e6f8-4ccb-9b3a-ceb62a2b692a","ios":"levelo://app?vid=a2ba7768-e6f8-4ccb-9b3a-ceb62a2b692a"},"vehicle_type_id":"4","last_reported":1738750212,"current_range_meters":0,"station_id":"ce4bhch2rcd13ifvqeug","pricing_plan_id":"cebpf4jnsgd1na2vs0mg"},{"bike_id":"e1fd63af-2ded-46aa-b95c-acb582af5c06","system_id":"levelo_inurba_marseille","lat":43.28711,"lon":5.3998,"is_reserved":false,"is_disabled":true,"rental_uris":{"android":"levelo://app?vid=e1fd63af-2ded-46aa-b95c-acb582af5c06","ios":"levelo://app?vid=e1fd63af-2ded-46aa-b95c-acb582af5c06"},"vehicle_type_id":"4","last_reported":1738750212,"current_range_meters":0,"station_id":"ce4bho92rcd13ifvqh3g","pricing_plan_id":"cebpf4jnsgd1na2vs0mg"},{"bike_id":"0b557b94-8edf-49bc-8c24-edbb5993edd9","system_id":"levelo_inurba_marseille","lat":43.33599,"lon":5.40988,"is_reserved":false,"is_disabled":false,"rental_uris":{"android":"levelo://app?vid=0b557b94-8edf-49bc-8c24-edbb5993edd9","ios":"levelo://app?vid=0b557b94-8edf-49bc-8c24-edbb5993edd9"},"vehicle_type_id":"4","last_reported":1738750212,"current_range_meters":29600,"station_id":"ce4bhqh2rcd13ifvqhmg","pricing_plan_id":"cebpf4jnsgd1na2vs0mg"},{"bike_id":"b09ebd01-c975-4878-ac0b-8fd11b1739f7","system_id":"levelo_inurba_marseille","lat":43.2815,"lon":5.42649,"is_reserved":false,"is_disabled":false,"rental_uris":{"android":"levelo://app?vid=b09ebd01-c975-4878-ac0b-8fd11b1739f7","ios":"levelo://app?vid=b09ebd01-c975-4878-ac0b-8fd11b1739f7"},"vehicle_type_id":"4","last_reported":1738750212,"current_range_meters":38000,"station_id":"ce4bhnh2rcd13ifvqgug","pricing_plan_id":"cebpf4jnsgd1na2vs0mg"},{"bike_id":"34ac5b8c-0028-4037-a312-c5404d6c67ca","system_id":"levelo_inurba_marseille","lat":43.27369,"lon":5.36253,"is_reserved":false,"is_disabled":false,"rental_uris":{"android":"levelo://app?vid=34ac5b8c-0028-4037-a312-c5404d6c67ca","ios":"levelo://app?vid=34ac5b8c-0028-4037-a312-c5404d6c67ca"},"vehicle_type_id":"4","last_reported":1738750212,"current_range_meters":27600,"station_id":"ce4bhbh2rcd13ifvqeo0","pricing_plan_id":"cebpf4jnsgd1na2vs0mg"},{"bike_id":"d9a60c91-dff2-440d-8b10-c7b78047f228","system_id":"levelo_inurba_marseille","lat":43.27309,"lon":5.39131,"is_reserved":false,"is_disabled":false,"rental_uris":{"android":"levelo://app?vid=d9a60c91-dff2-440d-8b10-c7b78047f228","ios":"levelo://app?vid=d9a60c91-dff2-440d-8b10-c7b78047f228"},"vehicle_type_id":"4","last_reported":1738750212,"current_range_meters":38800,"station_id":"ce4bhgp2rcd13ifvqfe0","pricing_plan_id":"cebpf4jnsgd1na2vs0mg"},{"bike_id":"794e5368-3bd6-46a8-906a-17108018f2c9","system_id":"levelo_inurba_marseille","lat":43.27189,"lon":5.40571,"is_reserved":false,"is_disabled":false,"rental_uris":{"android":"levelo://app?vid=794e5368-3bd6-46a8-906a-17108018f2c9","ios":"levelo://app?vid=794e5368-3bd6-46a8-906a-17108018f2c9"},"vehicle_type_id":"4","last_reported":1738750212,"current_range_meters":28400,"station_id":"","pricing_plan_id":"cebpf4jnsgd1na2vs0mg"},{"bike_id":"11d51d87-736a-4aed-a7ca-021752db1454","system_id":"levelo_inurba_marseille","lat":43.30649,"lon":5.401,"is_reserved":false,"is_disabled":false,"rental_uris":{"android":"levelo://app?vid=11d51d87-736a-4aed-a7ca-021752db1454","ios":"levelo://app?vid=11d51d87-736a-4aed-a7ca-021752db1454"},"vehicle_type_id":"4","last_reported":1738750212,"current_range_meters":16800,"station_id":"ce4bh112rcd13ifvqda0","pricing_plan_id":"cebpf4jnsgd1na2vs0mg"},{"bike_id":"a351a0f9-fe6f-4487-8b88-f13264e71e03","system_id":"levelo_inurba_marseille","lat":43.26947,"lon":5.38642,"is_reserved":false,"is_disabled":false,"rental_uris":{"android":"levelo://app?vid=a351a0f9-fe6f-4487-8b88-f13264e71e03","ios":"levelo://app?vid=a351a0f9-fe6f-4487-8b88-f13264e71e03"},"vehicle_type_id":"4","last_reported":1738750212,"current_range_meters":20400,"station_id":"ce4bhh92rcd13ifvqfh0","pricing_plan_id":"cebpf4jnsgd1na2vs0mg"},{"bike_id":"3b0389c9-df3c-4d3a-88cc-4d3500b97409","system_id":"levelo_inurba_marseille","lat":43.2795,"lon":5.38709,"is_reserved":false,"is_disabled":false,"rental_uris":{"android":"levelo://app?vid=3b0389c9-df3c-4d3a-88cc-4d3500b97409","ios":"levelo://app?vid=3b0389c9-df3c-4d3a-88cc-4d3500b97409"},"vehicle_type_id":"4","last_reported":1738750212,"current_range_meters":38800,"station_id":"ce4bhg12rcd13ifvqf80","pricing_plan_id":"cebpf4jnsgd1na2vs0mg"},{"bike_id":"2055a81d-8e5e-4bf5-b5e1-2fc40f396b7c","system_id":"levelo_inurba_marseille","lat":43.30549,"lon":5.38452,"is_reserved":false,"is_disabled":true,"rental_uris":{"android":"levelo://app?vid=2055a81d-8e5e-4bf5-b5e1-2fc40f396b7c","ios":"levelo://app?vid=2055a81d-8e5e-4bf5-b5e1-2fc40f396b7c"},"vehicle_type_id":"4","last_reported":1738750212,"current_range_meters":28800,"station_id":"ce4bgg92rcd13ifvqb30","pricing_plan_id":"cebpf4jnsgd1na2vs0mg"},{"bike_id":"c56f82d6-0674-41bc-a875-a11a3aaa6467","system_id":"levelo_inurba_marseille","lat":43.28147,"lon":5.4265,"is_reserved":false,"is_disabled":false,"rental_uris":{"android":"levelo://app?vid=c56f82d6-0674-41bc-a875-a11a3aaa6467","ios":"levelo://app?vid=c56f82d6-0674-41bc-a875-a11a3aaa6467"},"vehicle_type_id":"4","last_reported":1738750212,"current_range_meters":6800,"station_id":"ce4bhnh2rcd13ifvqgug","pricing_plan_id":"cebpf4jnsgd1na2vs0mg"},{"bike_id":"48e32a62-cf9a-4a25-9f3f-535c2a2a76b1","system_id":"levelo_inurba_marseille","lat":43.31145,"lon":5.38696,"is_reserved":false,"is_disabled":false,"rental_uris":{"android":"levelo://app?vid=48e32a62-cf9a-4a25-9f3f-535c2a2a76b1","ios":"levelo://app?vid=48e32a62-cf9a-4a25-9f3f-535c2a2a76b1"},"vehicle_type_id":"4","last_reported":1738750212,"current_range_meters":36800,"station_id":"ce4bgv12rcd13ifvqcp0","pricing_plan_id":"cebpf4jnsgd1na2vs0mg"},{"bike_id":"bb846df9-2969-480a-aed6-edbcf9c326fb","system_id":"levelo_inurba_marseille","lat":43.248,"lon":5.37472,"is_reserved":false,"is_disabled":false,"rental_uris":{"android":"levelo://app?vid=bb846df9-2969-480a-aed6-edbcf9c326fb","ios":"levelo://app?vid=bb846df9-2969-480a-aed6-edbcf9c326fb"},"vehicle_type_id":"4","last_reported":1738750212,"current_range_meters":20800,"station_id":"ce4bhgh2rcd13ifvqfb0","pricing_plan_id":"cebpf4jnsgd1na2vs0mg"},{"bike_id":"a33a1f02-de42-4d05-887b-933203e68017","system_id":"levelo_inurba_marseille","lat":43.2903,"lon":5.38641,"is_reserved":false,"is_disabled":true,"rental_uris":{"android":"levelo://app?vid=a33a1f02-de42-4d05-887b-933203e68017","ios":"levelo://app?vid=a33a1f02-de42-4d05-887b-933203e68017"},"vehicle_type_id":"4","last_reported":1738750212,"current_range_meters":36800,"station_id":"ce4bh4p2rcd13ifvqe0g","pricing_plan_id":"cebpf4jnsgd1na2vs0mg"},{"bike_id":"cd07e062-2af1-406e-bcb9-5f1ec4730937","system_id":"levelo_inurba_marseille","lat":43.23065,"lon":5.35494,"is_reserved":false,"is_disabled":false,"rental_uris":{"android":"levelo://app?vid=cd07e062-2af1-406e-bcb9-5f1ec4730937","ios":"levelo://app?vid=cd07e062-2af1-406e-bcb9-5f1ec4730937"},"vehicle_type_id":"4","last_reported":1738750212,"current_range_meters":38800,"station_id":"cpo3342slgdg3j2ifvpg","pricing_plan_id":"cebpf4jnsgd1na2vs0mg"},{"bike_id":"c3644d12-8427-4602-9945-9ef42c46feca","system_id":"levelo_inurba_marseille","lat":43.24158,"lon":5.36406,"is_reserved":false,"is_disabled":false,"rental_uris":{"android":"levelo://app?vid=c3644d12-8427-4602-9945-9ef42c46feca","ios":"levelo://app?vid=c3644d12-8427-4602-9945-9ef42c46feca"},"vehicle_type_id":"4","last_reported":1738750212,"current_range_meters":38800,"station_id":"cpo36qri1sfpv3e86is0","pricing_plan_id":"cebpf4jnsgd1na2vs0mg"},{"bike_id":"c8241007-e391-4448-92ee-11f1aa2489dc","system_id":"levelo_inurba_marseille","lat":43.2695,"lon":5.3867,"is_reserved":false,"is_disabled":false,"rental_uris":{"android":"levelo://app?vid=c8241007-e391-4448-92ee-11f1aa2489dc","ios":"levelo://app?vid=c8241007-e391-4448-92ee-11f1aa2489dc"},"vehicle_type_id":"4","last_reported":1738750212,"current_range_meters":21600,"station_id":"ce4bhh92rcd13ifvqfh0","pricing_plan_id":"cebpf4jnsgd1na2vs0mg"},{"bike_id":"1e7bde43-ab8f-4755-b59a-acd0a53ae759","system_id":"levelo_inurba_marseille","lat":43.31717,"lon":5.4241,"is_reserved":false,"is_disabled":true,"rental_uris":{"android":"levelo://app?vid=1e7bde43-ab8f-4755-b59a-acd0a53ae759","ios":"levelo://app?vid=1e7bde43-ab8f-4755-b59a-acd0a53ae759"},"vehicle_type_id":"4","last_reported":1738750212,"current_range_meters":0,"station_id":"ce4bhp92rcd13ifvqhbg","pricing_plan_id":"cebpf4jnsgd1na2vs0mg"},{"bike_id":"144d5ef4-9c7a-41fb-b06b-1f4330eee933","system_id":"levelo_inurba_marseille","lat":43.29643,"lon":5.37717,"is_reserved":false,"is_disabled":false,"rental_uris":{"android":"levelo://app?vid=144d5ef4-9c7a-41fb-b06b-1f4330eee933","ios":"levelo://app?vid=144d5ef4-9c7a-41fb-b06b-1f4330eee933"},"vehicle_type_id":"4","last_reported":1738750212,"current_range_meters":38800,"station_id":"ce4bgi92rcd13ifvqb90","pricing_plan_id":"cebpf4jnsgd1na2vs0mg"},{"bike_id":"01e2f24c-572d-4729-bb25-c0cee3de21b4","system_id":"levelo_inurba_marseille","lat":43.30916,"lon":5.36845,"is_reserved":false,"is_disabled":false,"rental_uris":{"android":"levelo://app?vid=01e2f24c-572d-4729-bb25-c0cee3de21b4","ios":"levelo://app?vid=01e2f24c-572d-4729-bb25-c0cee3de21b4"},"vehicle_type_id":"4","last_reported":1738750212,"current_range_meters":38800,"station_id":"ce4bgn92rcd13ifvqbvg","pricing_plan_id":"cebpf4jnsgd1na2vs0mg"},{"bike_id":"dbc80b42-d145-49b1-8639-8d981adcc42c","system_id":"levelo_inurba_marseille","lat":43.31362,"lon":5.367205,"is_reserved":false,"is_disabled":false,"rental_uris":{"android":"levelo://app?vid=dbc80b42-d145-49b1-8639-8d981adcc42c","ios":"levelo://app?vid=dbc80b42-d145-49b1-8639-8d981adcc42c"},"vehicle_type_id":"4","last_reported":1738750212,"current_range_meters":25600,"station_id":"ce4bgr92rcd13ifvqc6g","pricing_plan_id":"cebpf4jnsgd1na2vs0mg"},{"bike_id":"9cdb87ac-4fa4-465d-a7c1-6b5c0d6eccf9","system_id":"levelo_inurba_marseille","lat":43.269542,"lon":5.386306,"is_reserved":false,"is_disabled":false,"rental_uris":{"android":"levelo://app?vid=9cdb87ac-4fa4-465d-a7c1-6b5c0d6eccf9","ios":"levelo://app?vid=9cdb87ac-4fa4-465d-a7c1-6b5c0d6eccf9"},"vehicle_type_id":"4","last_reported":1738750212,"current_range_meters":38000,"station_id":"ce4bhh92rcd13ifvqfh0","pricing_plan_id":"cebpf4jnsgd1na2vs0mg"},{"bike_id":"41d37659-e19c-4f4b-865e-3d23f67765d8","system_id":"levelo_inurba_marseille","lat":43.30267,"lon":5.37696,"is_reserved":false,"is_disabled":false,"rental_uris":{"android":"levelo://app?vid=41d37659-e19c-4f4b-865e-3d23f67765d8","ios":"levelo://app?vid=41d37659-e19c-4f4b-865e-3d23f67765d8"},"vehicle_type_id":"4","last_reported":1738750212,"current_range_meters":36800,"station_id":"ce4bguh2rcd13ifvqcj0","pricing_plan_id":"cebpf4jnsgd1na2vs0mg"},{"bike_id":"45a7daa2-2a2e-4454-90c3-1009aaecc5bd","system_id":"levelo_inurba_marseille","lat":43.23185,"lon":5.35564,"is_reserved":false,"is_disabled":false,"rental_uris":{"android":"levelo://app?vid=45a7daa2-2a2e-4454-90c3-1009aaecc5bd","ios":"levelo://app?vid=45a7daa2-2a2e-4454-90c3-1009aaecc5bd"},"vehicle_type_id":"4","last_reported":1738750212,"current_range_meters":3600,"station_id":"ce4bhu92rcd13ifvqi70","pricing_plan_id":"cebpf4jnsgd1na2vs0mg"},{"bike_id":"5ac66df0-ca02-4153-adc8-132fcbed25fb","system_id":"levelo_inurba_marseille","lat":43.29845,"lon":5.3628,"is_reserved":false,"is_disabled":false,"rental_uris":{"android":"levelo://app?vid=5ac66df0-ca02-4153-adc8-132fcbed25fb","ios":"levelo://app?vid=5ac66df0-ca02-4153-adc8-132fcbed25fb"},"vehicle_type_id":"4","last_reported":1738750212,"current_range_meters":10800,"station_id":"ce4bgpp2rcd13ifvqc3g","pricing_plan_id":"cebpf4jnsgd1na2vs0mg"},{"bike_id":"aece1634-918f-4f68-8bc7-9a7b7abafc1f","system_id":"levelo_inurba_marseille","lat":43.28153,"lon":5.42645,"is_reserved":false,"is_disabled":true,"rental_uris":{"android":"levelo://app?vid=aece1634-918f-4f68-8bc7-9a7b7abafc1f","ios":"levelo://app?vid=aece1634-918f-4f68-8bc7-9a7b7abafc1f"},"vehicle_type_id":"4","last_reported":1738750212,"current_range_meters":30400,"station_id":"ce4bhnh2rcd13ifvqgug","pricing_plan_id":"cebpf4jnsgd1na2vs0mg"},{"bike_id":"f8a541f0-e4a8-4639-8d63-84a9a76b70b4","system_id":"levelo_inurba_marseille","lat":43.30276,"lon":5.3772,"is_reserved":false,"is_disabled":false,"rental_uris":{"android":"levelo://app?vid=f8a541f0-e4a8-4639-8d63-84a9a76b70b4","ios":"levelo://app?vid=f8a541f0-e4a8-4639-8d63-84a9a76b70b4"},"vehicle_type_id":"4","last_reported":1738750212,"current_range_meters":38000,"station_id":"ce4bguh2rcd13ifvqcj0","pricing_plan_id":"cebpf4jnsgd1na2vs0mg"},{"bike_id":"3b1d5f28-8e2f-4cd2-84ee-32e60c8bc1d4","system_id":"levelo_inurba_marseille","lat":43.27934,"lon":5.38672,"is_reserved":false,"is_disabled":true,"rental_uris":{"android":"levelo://app?vid=3b1d5f28-8e2f-4cd2-84ee-32e60c8bc1d4","ios":"levelo://app?vid=3b1d5f28-8e2f-4cd2-84ee-32e60c8bc1d4"},"vehicle_type_id":"4","last_reported":1738750212,"current_range_meters":0,"station_id":"","pricing_plan_id":"cebpf4jnsgd1na2vs0mg"},{"bike_id":"a21453e1-7dd1-439a-9411-5be2637f52a4","system_id":"levelo_inurba_marseille","lat":43.29776,"lon":5.38136,"is_reserved":false,"is_disabled":true,"rental_uris":{"android":"levelo://app?vid=a21453e1-7dd1-439a-9411-5be2637f52a4","ios":"levelo://app?vid=a21453e1-7dd1-439a-9411-5be2637f52a4"},"vehicle_type_id":"4","last_reported":1738750212,"current_range_meters":0,"station_id":"ce4bgip2rcd13ifvqbb0","pricing_plan_id":"cebpf4jnsgd1na2vs0mg"},{"bike_id":"8f2753cf-7ef2-4ad5-8ba2-3236e65e68eb","system_id":"levelo_inurba_marseille","lat":43.28471,"lon":5.38407,"is_reserved":false,"is_disabled":false,"rental_uris":{"android":"levelo://app?vid=8f2753cf-7ef2-4ad5-8ba2-3236e65e68eb","ios":"levelo://app?vid=8f2753cf-7ef2-4ad5-8ba2-3236e65e68eb"},"vehicle_type_id":"4","last_reported":1738750212,"current_range_meters":39200,"station_id":"ce4bh512rcd13ifvqe3g","pricing_plan_id":"cebpf4jnsgd1na2vs0mg"},{"bike_id":"efc4102b-4111-43da-a35a-b18c6b25e17c","system_id":"levelo_inurba_marseille","lat":43.2942,"lon":5.38616,"is_reserved":false,"is_disabled":false,"rental_uris":{"android":"levelo://app?vid=efc4102b-4111-43da-a35a-b18c6b25e17c","ios":"levelo://app?vid=efc4102b-4111-43da-a35a-b18c6b25e17c"},"vehicle_type_id":"4","last_reported":1738750212,"current_range_meters":20800,"station_id":"ce4bh2h2rcd13ifvqdh0","pricing_plan_id":"cebpf4jnsgd1na2vs0mg"},{"bike_id":"8cab2123-bbb6-4b53-9911-ffbdf65c34b8","system_id":"levelo_inurba_marseille","lat":43.26942,"lon":5.3866,"is_reserved":false,"is_disabled":false,"rental_uris":{"android":"levelo://app?vid=8cab2123-bbb6-4b53-9911-ffbdf65c34b8","ios":"levelo://app?vid=8cab2123-bbb6-4b53-9911-ffbdf65c34b8"},"vehicle_type_id":"4","last_reported":1738750212,"current_range_meters":4800,"station_id":"ce4bhh92rcd13ifvqfh0","pricing_plan_id":"cebpf4jnsgd1na2vs0mg"},{"bike_id":"f3b6bed8-58c8-47c3-9b33-96a84a13685d","system_id":"levelo_inurba_marseille","lat":43.25567,"lon":5.38273,"is_reserved":false,"is_disabled":false,"rental_uris":{"android":"levelo://app?vid=f3b6bed8-58c8-47c3-9b33-96a84a13685d","ios":"levelo://app?vid=f3b6bed8-58c8-47c3-9b33-96a84a13685d"},"vehicle_type_id":"4","last_reported":1738750212,"current_range_meters":36400,"station_id":"ce4bhih2rcd13ifvqfs0","pricing_plan_id":"cebpf4jnsgd1na2vs0mg"},{"bike_id":"a4649320-4a50-44c2-8a45-211c4a094821","system_id":"levelo_inurba_marseille","lat":43.30096,"lon":5.39079,"is_reserved":false,"is_disabled":false,"rental_uris":{"android":"levelo://app?vid=a4649320-4a50-44c2-8a45-211c4a094821","ios":"levelo://app?vid=a4649320-4a50-44c2-8a45-211c4a094821"},"vehicle_type_id":"4","last_reported":1738750212,"current_range_meters":25600,"station_id":"ce4bh192rcd13ifvqdb0","pricing_plan_id":"cebpf4jnsgd1na2vs0mg"},{"bike_id":"8dbe8a6e-72e2-42be-91e2-483b6f8206f0","system_id":"levelo_inurba_marseille","lat":43.25913,"lon":5.40875,"is_reserved":false,"is_disabled":false,"rental_uris":{"android":"levelo://app?vid=8dbe8a6e-72e2-42be-91e2-483b6f8206f0","ios":"levelo://app?vid=8dbe8a6e-72e2-42be-91e2-483b6f8206f0"},"vehicle_type_id":"4","last_reported":1738750212,"current_range_meters":26000,"station_id":"ce4bhm92rcd13ifvqglg","pricing_plan_id":"cebpf4jnsgd1na2vs0mg"},{"bike_id":"826cb308-f2ff-426c-be8b-aedf84019dca","system_id":"levelo_inurba_marseille","lat":43.30948,"lon":5.39045,"is_reserved":false,"is_disabled":false,"rental_uris":{"android":"levelo://app?vid=826cb308-f2ff-426c-be8b-aedf84019dca","ios":"levelo://app?vid=826cb308-f2ff-426c-be8b-aedf84019dca"},"vehicle_type_id":"4","last_reported":1738750212,"current_range_meters":22400,"station_id":"ce4bgup2rcd13ifvqco0","pricing_plan_id":"cebpf4jnsgd1na2vs0mg"},{"bike_id":"d0c2a87f-6020-4a71-b9c4-402138655b6f","system_id":"levelo_inurba_marseille","lat":43.26808,"lon":5.39512,"is_reserved":false,"is_disabled":false,"rental_uris":{"android":"levelo://app?vid=d0c2a87f-6020-4a71-b9c4-402138655b6f","ios":"levelo://app?vid=d0c2a87f-6020-4a71-b9c4-402138655b6f"},"vehicle_type_id":"4","last_reported":1738750212,"current_range_meters":38800,"station_id":"ce4bhh12rcd13ifvqfg0","pricing_plan_id":"cebpf4jnsgd1na2vs0mg"},{"bike_id":"ecbc96f4-63dd-428e-a2ee-a6dfa2d8d6f1","system_id":"levelo_inurba_marseille","lat":43.29353,"lon":5.37851,"is_reserved":false,"is_disabled":false,"rental_uris":{"android":"levelo://app?vid=ecbc96f4-63dd-428e-a2ee-a6dfa2d8d6f1","ios":"levelo://app?vid=ecbc96f4-63dd-428e-a2ee-a6dfa2d8d6f1"},"vehicle_type_id":"4","last_reported":1738750212,"current_range_meters":37600,"station_id":"ce4bgjh2rcd13ifvqbf0","pricing_plan_id":"cebpf4jnsgd1na2vs0mg"},{"bike_id":"b8f6b9da-d934-4d32-92a6-5dd8743f1433","system_id":"levelo_inurba_marseille","lat":43.28451,"lon":5.35892,"is_reserved":false,"is_disabled":false,"rental_uris":{"android":"levelo://app?vid=b8f6b9da-d934-4d32-92a6-5dd8743f1433","ios":"levelo://app?vid=b8f6b9da-d934-4d32-92a6-5dd8743f1433"},"vehicle_type_id":"4","last_reported":1738750212,"current_range_meters":38800,"station_id":"ce4bhah2rcd13ifvqei0","pricing_plan_id":"cebpf4jnsgd1na2vs0mg"},{"bike_id":"7b2bab09-6da9-41c3-a8ef-a335724ee538","system_id":"levelo_inurba_marseille","lat":43.30158,"lon":5.38119,"is_reserved":false,"is_disabled":false,"rental_uris":{"android":"levelo://app?vid=7b2bab09-6da9-41c3-a8ef-a335724ee538","ios":"levelo://app?vid=7b2bab09-6da9-41c3-a8ef-a335724ee538"},"vehicle_type_id":"4","last_reported":1738750212,"current_range_meters":28000,"station_id":"ce4bgjp2rcd13ifvqbh0","pricing_plan_id":"cebpf4jnsgd1na2vs0mg"},{"bike_id":"6bb18b6b-35db-4080-8375-2a2e83c6fc4b","system_id":"levelo_inurba_marseille","lat":43.2315,"lon":5.43713,"is_reserved":false,"is_disabled":false,"rental_uris":{"android":"levelo://app?vid=6bb18b6b-35db-4080-8375-2a2e83c6fc4b","ios":"levelo://app?vid=6bb18b6b-35db-4080-8375-2a2e83c6fc4b"},"vehicle_type_id":"4","last_reported":1738750212,"current_range_meters":38800,"station_id":"ce4bhmp2rcd13ifvqgog","pricing_plan_id":"cebpf4jnsgd1na2vs0mg"},{"bike_id":"e23c0190-493e-47db-aa9f-8aeb6d663f47","system_id":"levelo_inurba_marseille","lat":43.31994,"lon":5.38166,"is_reserved":false,"is_disabled":false,"rental_uris":{"android":"levelo://app?vid=e23c0190-493e-47db-aa9f-8aeb6d663f47","ios":"levelo://app?vid=e23c0190-493e-47db-aa9f-8aeb6d663f47"},"vehicle_type_id":"4","last_reported":1738750212,"current_range_meters":22400,"station_id":"ce4bhr12rcd13ifvqhpg","pricing_plan_id":"cebpf4jnsgd1na2vs0mg"},{"bike_id":"787b7837-f258-4886-bbf5-841ee39c0166","system_id":"levelo_inurba_marseille","lat":43.28303,"lon":5.35096,"is_reserved":false,"is_disabled":false,"rental_uris":{"android":"levelo://app?vid=787b7837-f258-4886-bbf5-841ee39c0166","ios":"levelo://app?vid=787b7837-f258-4886-bbf5-841ee39c0166"},"vehicle_type_id":"4","last_reported":1738750212,"current_range_meters":34000,"station_id":"ce4bhbp2rcd13ifvqerg","pricing_plan_id":"cebpf4jnsgd1na2vs0mg"},{"bike_id":"7262ed2b-4d93-4649-8c09-3bfd5132c8f1","system_id":"levelo_inurba_marseille","lat":43.2695,"lon":5.38642,"is_reserved":false,"is_disabled":false,"rental_uris":{"android":"levelo://app?vid=7262ed2b-4d93-4649-8c09-3bfd5132c8f1","ios":"levelo://app?vid=7262ed2b-4d93-4649-8c09-3bfd5132c8f1"},"vehicle_type_id":"4","last_reported":1738750212,"current_range_meters":20400,"station_id":"ce4bhh92rcd13ifvqfh0","pricing_plan_id":"cebpf4jnsgd1na2vs0mg"},{"bike_id":"7e827b7a-e731-4daf-83c0-fa33ba87bdaf","system_id":"levelo_inurba_marseille","lat":43.30455,"lon":5.37914,"is_reserved":false,"is_disabled":false,"rental_uris":{"android":"levelo://app?vid=7e827b7a-e731-4daf-83c0-fa33ba87bdaf","ios":"levelo://app?vid=7e827b7a-e731-4daf-83c0-fa33ba87bdaf"},"vehicle_type_id":"4","last_reported":1738750212,"current_range_meters":39200,"station_id":"ce4bgup2rcd13ifvqcn0","pricing_plan_id":"cebpf4jnsgd1na2vs0mg"},{"bike_id":"66cce1da-ff56-47a9-96fe-63882e6c7400","system_id":"levelo_inurba_marseille","lat":43.24046,"lon":5.37734,"is_reserved":false,"is_disabled":false,"rental_uris":{"android":"levelo://app?vid=66cce1da-ff56-47a9-96fe-63882e6c7400","ios":"levelo://app?vid=66cce1da-ff56-47a9-96fe-63882e6c7400"},"vehicle_type_id":"4","last_reported":1738750212,"current_range_meters":38800,"station_id":"ce4bhnp2rcd13ifvqgvg","pricing_plan_id":"cebpf4jnsgd1na2vs0mg"},{"bike_id":"a2f6c3ee-cde6-4fde-b78f-92cfd29c1bfd","system_id":"levelo_inurba_marseille","lat":43.25494,"lon":5.37651,"is_reserved":false,"is_disabled":false,"rental_uris":{"android":"levelo://app?vid=a2f6c3ee-cde6-4fde-b78f-92cfd29c1bfd","ios":"levelo://app?vid=a2f6c3ee-cde6-4fde-b78f-92cfd29c1bfd"},"vehicle_type_id":"4","last_reported":1738750212,"current_range_meters":39200,"station_id":"ce4bhh12rcd13ifvqff0","pricing_plan_id":"cebpf4jnsgd1na2vs0mg"},{"bike_id":"425b7850-73ab-4535-813e-52510abef7eb","system_id":"levelo_inurba_marseille","lat":43.25914,"lon":5.40925,"is_reserved":false,"is_disabled":false,"rental_uris":{"android":"levelo://app?vid=425b7850-73ab-4535-813e-52510abef7eb","ios":"levelo://app?vid=425b7850-73ab-4535-813e-52510abef7eb"},"vehicle_type_id":"4","last_reported":1738750212,"current_range_meters":38800,"station_id":"ce4bhm92rcd13ifvqglg","pricing_plan_id":"cebpf4jnsgd1na2vs0mg"},{"bike_id":"44a30f83-4304-4f9f-be85-a99271585cc5","system_id":"levelo_inurba_marseille","lat":43.241524,"lon":5.364059,"is_reserved":false,"is_disabled":false,"rental_uris":{"android":"levelo://app?vid=44a30f83-4304-4f9f-be85-a99271585cc5","ios":"levelo://app?vid=44a30f83-4304-4f9f-be85-a99271585cc5"},"vehicle_type_id":"4","last_reported":1738750212,"current_range_meters":17200,"station_id":"cpo36qri1sfpv3e86is0","pricing_plan_id":"cebpf4jnsgd1na2vs0mg"},{"bike_id":"eac8e106-76e0-4f1b-81af-4eaefecd2501","system_id":"levelo_inurba_marseille","lat":43.2501,"lon":5.38914,"is_reserved":false,"is_disabled":false,"rental_uris":{"android":"levelo://app?vid=eac8e106-76e0-4f1b-81af-4eaefecd2501","ios":"levelo://app?vid=eac8e106-76e0-4f1b-81af-4eaefecd2501"},"vehicle_type_id":"4","last_reported":1738750212,"current_range_meters":11600,"station_id":"ce4bhgp2rcd13ifvqfd0","pricing_plan_id":"cebpf4jnsgd1na2vs0mg"},