{"last_updated":1748207303,"ttl":60,"version":"2.2","data":{"bikes":[{"bike_id":"757c0c5f-e628-4578-ae97-938654a8725a","system_id":"levelo_inurba_marseille","lat":43.30926,"lon":5.40152,"is_reserved":false,"is_disabled":true,"rental_uris":{"android":"levelo://app?vid=757c0c5f-e628-4578-ae97-938654a8725a","ios":"levelo://app?vid=757c0c5f-e628-4578-ae97-938654a8725a"},"vehicle_type_id":"4","last_reported":1748207303,"current_range_meters":2800,"station_id":"ce4bgvp2rcd13ifvqct0","pricing_plan_id":"cebpf4jnsgd1na2vs0mg"},{"bike_id":"695d5efa-57bb-40d2-83e2-8e9ed7eeafdb","system_id":"levelo_inurba_marseille","lat":43.29734,"lon":5.37688,"is_reserved":false,"is_disabled":true,"rental_uris":{"android":"levelo://app?vid=695d5efa-57bb-40d2-83e2-8e9ed7eeafdb","ios":"levelo://app?vid=695d5efa-57bb-40d2-83e2-8e9ed7eeafdb"},"vehicle_type_id":"4","last_reported":1748207303,"current_range_meters":2800,"station_id":"ce4bgkh2rcd13ifvqbl0","pricing_plan_id":"cebpf4jnsgd1na2vs0mg"},{"bike_id":"6864998b-bf2f-4925-bdda-c71dea6c9d49","system_id":"levelo_inurba_marseille","lat":43.26929,"lon":5.38915,"is_reserved":false,"is_disabled":false,"rental_uris":{"android":"levelo://app?vid=6864998b-bf2f-4925-bdda-c71dea6c9d49","ios":"levelo://app?vid=6864998b-bf2f-4925-bdda-c71dea6c9d49"},"vehicle_type_id":"4","last_reported":1748207303,"current_range_meters":2800,"station_id":"ce4bhhh2rcd13ifvqfl0","pricing_plan_id":"cebpf4jnsgd1na2vs0mg"},{"bike_id":"c16413fd-5d65-4ca2-8681-abb95bdf2d2a","system_id":"levelo_inurba_marseille","lat":43.3095,"lon":5.37133,"is_reserved":false,"is_disabled":false,"rental_uris":{"android":"levelo://app?vid=c16413fd-5d65-4ca2-8681-abb95bdf2d2a","ios":"levelo://app?vid=c16413fd-5d65-4ca2-8681-abb95bdf2d2a"},"vehicle_type_id":"4","last_reported":1748207303,"current_range_meters":2800,"station_id":"","pricing_plan_id":"cebpf4jnsgd1na2vs0mg"},{"bike_id":"0a2a4041-7346-4b5c-992f-5cc1a096e24b","system_id":"levelo_inurba_marseille","lat":43.232001,"lon":5.355441,"is_reserved":false,"is_disabled":false,"rental_uris":{"android":"levelo://app?vid=0a2a4041-7346-4b5c-992f-5cc1a096e24b","ios":"levelo://app?vid=0a2a4041-7346-4b5c-992f-5cc1a096e24b"},"vehicle_type_id":"4","last_reported":1748207303,"current_range_meters":3200,"station_id":"ce4bhu92rcd13ifvqi70","pricing_plan_id":"cebpf4jnsgd1na2vs0mg"},{"bike_id":"802a645f-ae98-4f4f-bb11-da77c472e2c9","system_id":"levelo_inurba_marseille","lat":43.3088,"lon":5.39642,"is_reserved":false,"is_disabled":true,"rental_uris":{"android":"levelo://app?vid=802a645f-ae98-4f4f-bb11-da77c472e2c9","ios":"levelo://app?vid=802a645f-ae98-4f4f-bb11-da77c472e2c9"},"vehicle_type_id":"4","last_reported":1748207303,"current_range_meters":3600,"station_id":"ce4bh012rcd13ifvqcv0","pricing_plan_id":"cebpf4jnsgd1na2vs0mg"},{"bike_id":"f5bd5601-3168-4d98-8b26-7129d5fdebdf","system_id":"levelo_inurba_marseille","lat":43.28465,"lon":5.35895,"is_reserved":false,"is_disabled":false,"rental_uris":{"android":"levelo://app?vid=f5bd5601-3168-4d98-8b26-7129d5fdebdf","ios":"levelo://app?vid=f5bd5601-3168-4d98-8b26-7129d5fdebdf"},"vehicle_type_id":"4","last_reported":1748207303,"current_range_meters":3200,"station_id":"ce4bhah2rcd13ifvqei0","pricing_plan_id":"cebpf4jnsgd1na2vs0mg"},{"bike_id":"145749ae-64d8-4445-9dd6-c58ee2e815a6","system_id":"levelo_inurba_marseille","lat":43.29748,"lon":5.38091,"is_reserved":false,"is_disabled":false,"rental_uris":{"android":"levelo://app?vid=145749ae-64d8-4445-9dd6-c58ee2e815a6","ios":"levelo://app?vid=145749ae-64d8-4445-9dd6-c58ee2e815a6"},"vehicle_type_id":"4","last_reported":1748207303,"current_range_meters":3600,"station_id":"","pricing_plan_id":"cebpf4jnsgd1na2vs0mg"},{"bike_id":"b3836e6a-b05b-4ba7-ae61-833bde9258fe","system_id":"levelo_inurba_marseille","lat":43.32927,"lon":5.4517,"is_reserved":false,"is_disabled":false,"rental_uris":{"android":"levelo://app?vid=b3836e6a-b05b-4ba7-ae61-833bde9258fe","ios":"levelo://app?vid=b3836e6a-b05b-4ba7-ae61-833bde9258fe"},"vehicle_type_id":"4","last_reported":1748207303,"current_range_meters":3600,"station_id":"","pricing_plan_id":"cebpf4jnsgd1na2vs0mg"},{"bike_id":"40d5f5df-f4a7-41a4-b16d-63484ff0379d","system_id":"levelo_inurba_marseille","lat":43.30915,"lon":5.4014,"is_reserved":false,"is_disabled":true,"rental_uris":{"android":"levelo://app?vid=40d5f5df-f4a7-41a4-b16d-63484ff0379d","ios":"levelo://app?vid=40d5f5df-f4a7-41a4-b16d-63484ff0379d"},"vehicle_type_id":"4","last_reported":1748207303,"current_range_meters":3600,"station_id":"ce4bgvp2rcd13ifvqct0","pricing_plan_id":"cebpf4jnsgd1na2vs0mg"},{"bike_id":"f7721842-0583-4424-b049-c170fce584f1","system_id":"levelo_inurba_marseille","lat":43.24073,"lon":5.37759,"is_reserved":false,"is_disabled":false,"rental_uris":{"android":"levelo://app?vid=f7721842-0583-4424-b049-c170fce584f1","ios":"levelo://app?vid=f7721842-0583-4424-b049-c170fce584f1"},"vehicle_type_id":"4","last_reported":1748207303,"current_range_meters":4000,"station_id":"ce4bhnp2rcd13ifvqgvg","pricing_plan_id":"cebpf4jnsgd1na2vs0mg"},{"bike_id":"c7c889b7-98f9-4235-9a10-fed498bd5262","system_id":"levelo_inurba_marseille","lat":43.24995,"lon":5.38926,"is_reserved":false,"is_disabled":false,"rental_uris":{"android":"levelo://app?vid=c7c889b7-98f9-4235-9a10-fed498bd5262","ios":"levelo://app?vid=c7c889b7-98f9-4235-9a10-fed498bd5262"},"vehicle_type_id":"4","last_reported":1748207303,"current_range_meters":4000,"station_id":"ce4bhgp2rcd13ifvqfd0","pricing_plan_id":"cebpf4jnsgd1na2vs0mg"},{"bike_id":"8a947853-a27d-4b0a-9eec-cae6ccb0a13a","system_id":"levelo_inurba_marseille","lat":43.26215,"lon":5.40436,"is_reserved":false,"is_disabled":false,"rental_uris":{"android":"levelo://app?vid=8a947853-a27d-4b0a-9eec-cae6ccb0a13a","ios":"levelo://app?vid=8a947853-a27d-4b0a-9eec-cae6ccb0a13a"},"vehicle_type_id":"4","last_reported":1748207303,"current_range_meters":4000,"station_id":"ce4bhmh2rcd13ifvqgmg","pricing_plan_id":"cebpf4jnsgd1na2vs0mg"},{"bike_id":"ba7404c0-8732-4dfa-9f17-6c59e0a869da","system_id":"levelo_inurba_marseille","lat":43.278332,"lon":5.392086,"is_reserved":false,"is_disabled":true,"rental_uris":{"android":"levelo://app?vid=ba7404c0-8732-4dfa-9f17-6c59e0a869da","ios":"levelo://app?vid=ba7404c0-8732-4dfa-9f17-6c59e0a869da"},"vehicle_type_id":"4","last_reported":1748207303,"current_range_meters":4000,"station_id":"ce4bhjp2rcd13ifvqga0","pricing_plan_id":"cebpf4jnsgd1na2vs0mg"},{"bike_id":"7a64ee88-a427-4341-aef9-ad40b9faadd0","system_id":"levelo_inurba_marseille","lat":43.28214,"lon":5.39061,"is_reserved":false,"is_disabled":false,"rental_uris":{"android":"levelo://app?vid=7a64ee88-a427-4341-aef9-ad40b9faadd0","ios":"levelo://app?vid=7a64ee88-a427-4341-aef9-ad40b9faadd0"},"vehicle_type_id":"4","last_reported":1748207303,"current_range_meters":4800,"station_id":"","pricing_plan_id":"cebpf4jnsgd1na2vs0mg"},{"bike_id":"b936cc60-5324-4ebe-a469-405ce11beab7","system_id":"levelo_inurba_marseille","lat":43.25826,"lon":5.39434,"is_reserved":false,"is_disabled":false,"rental_uris":{"android":"levelo://app?vid=b936cc60-5324-4ebe-a469-405ce11beab7","ios":"levelo://app?vid=b936cc60-5324-4ebe-a469-405ce11beab7"},"vehicle_type_id":"4","last_reported":1748207303,"current_range_meters":4800,"station_id":"ce4bhip2rcd13ifvqft0","pricing_plan_id":"cebpf4jnsgd1na2vs0mg"},{"bike_id":"1b36ebd6-1179-4f9e-8999-61f1463d8e5c","system_id":"levelo_inurba_marseille","lat":43.25363,"lon":5.3935,"is_reserved":false,"is_disabled":false,"rental_uris":{"android":"levelo://app?vid=1b36ebd6-1179-4f9e-8999-61f1463d8e5c","ios":"levelo://app?vid=1b36ebd6-1179-4f9e-8999-61f1463d8e5c"},"vehicle_type_id":"4","last_reported":1748207303,"current_range_meters":4800,"station_id":"","pricing_plan_id":"cebpf4jnsgd1na2vs0mg"},{"bike_id":"70f4e8fe-0698-4e37-b541-2fe5f20d843d","system_id":"levelo_inurba_marseille","lat":43.28474,"lon":5.38414,"is_reserved":false,"is_disabled":false,"rental_uris":{"android":"levelo://app?vid=70f4e8fe-0698-4e37-b541-2fe5f20d843d","ios":"levelo://app?vid=70f4e8fe-0698-4e37-b541-2fe5f20d843d"},"vehicle_type_id":"4","last_reported":1748207303,"current_range_meters":4800,"station_id":"ce4bh512rcd13ifvqe3g","pricing_plan_id":"cebpf4jnsgd1na2vs0mg"},{"bike_id":"2a593e24-31c9-4dd5-9fe9-cad9ae83cefe","system_id":"levelo_inurba_marseille","lat":43.31492,"lon":5.37309,"is_reserved":false,"is_disabled":false,"rental_uris":{"android":"levelo://app?vid=2a593e24-31c9-4dd5-9fe9-cad9ae83cefe","ios":"levelo://app?vid=2a593e24-31c9-4dd5-9fe9-cad9ae83cefe"},"vehicle_type_id":"4","last_reported":1748207303,"current_range_meters":5600,"station_id":"ce4bgt12rcd13ifvqcd0","pricing_plan_id":"cebpf4jnsgd1na2vs0mg"},{"bike_id":"0b5f9269-9a7b-46d1-817c-3520268a57ca","system_id":"levelo_inurba_marseille","lat":43.30131,"lon":5.39858,"is_reserved":false,"is_disabled":false,"rental_uris":{"android":"levelo://app?vid=0b5f9269-9a7b-46d1-817c-3520268a57ca","ios":"levelo://app?vid=0b5f9269-9a7b-46d1-817c-3520268a57ca"},"vehicle_type_id":"4","last_reported":1748207303,"current_range_meters":5600,"station_id":"ce4bh0h2rcd13ifvqd40","pricing_plan_id":"cebpf4jnsgd1na2vs0mg"},{"bike_id":"3b49418a-4eb4-4204-a554-606f881690aa","system_id":"levelo_inurba_marseille","lat":43.261924,"lon":5.374476,"is_reserved":false,"is_disabled":true,"rental_uris":{"android":"levelo://app?vid=3b49418a-4eb4-4204-a554-606f881690aa","ios":"levelo://app?vid=3b49418a-4eb4-4204-a554-606f881690aa"},"vehicle_type_id":"4","last_reported":1748207303,"current_range_meters":5600,"station_id":"ce4bhgp2rcd13ifvqfc0","pricing_plan_id":"cebpf4jnsgd1na2vs0mg"},{"bike_id":"43948e8e-fb2f-4861-887a-9f2942244d51","system_id":"levelo_inurba_marseille","lat":43.29394,"lon":5.40233,"is_reserved":false,"is_disabled":false,"rental_uris":{"android":"levelo://app?vid=43948e8e-fb2f-4861-887a-9f2942244d51","ios":"levelo://app?vid=43948e8e-fb2f-4861-887a-9f2942244d51"},"vehicle_type_id":"4","last_reported":1748207303,"current_range_meters":6000,"station_id":"","pricing_plan_id":"cebpf4jnsgd1na2vs0mg"},{"bike_id":"3581c28c-41f2-4cb7-b494-0448776c0438","system_id":"levelo_inurba_marseille","lat":43.29634,"lon":5.36025,"is_reserved":false,"is_disabled":false,"rental_uris":{"android":"levelo://app?vid=3581c28c-41f2-4cb7-b494-0448776c0438","ios":"levelo://app?vid=3581c28c-41f2-4cb7-b494-0448776c0438"},"vehicle_type_id":"4","last_reported":1748207303,"current_range_meters":6000,"station_id":"","pricing_plan_id":"cebpf4jnsgd1na2vs0mg"},{"bike_id":"a7bb4e90-e719-4012-bd06-2564b0d55b57","system_id":"levelo_inurba_marseille","lat":43.31146,"lon":5.37751,"is_reserved":false,"is_disabled":false,"rental_uris":{"android":"levelo://app?vid=a7bb4e90-e719-4012-bd06-2564b0d55b57","ios":"levelo://app?vid=a7bb4e90-e719-4012-bd06-2564b0d55b57"},"vehicle_type_id":"4","last_reported":1748207303,"current_range_meters":6000,"station_id":"ce4bgt92rcd13ifvqcg0","pricing_plan_id":"cebpf4jnsgd1na2vs0mg"},{"bike_id":"87dc1d45-464b-416b-81d6-10b093bfc1ae","system_id":"levelo_inurba_marseille","lat":43.27106,"lon":5.42274,"is_reserved":false,"is_disabled":false,"rental_uris":{"android":"levelo://app?vid=87dc1d45-464b-416b-81d6-10b093bfc1ae","ios":"levelo://app?vid=87dc1d45-464b-416b-81d6-10b093bfc1ae"},"vehicle_type_id":"4","last_reported":1748207303,"current_range_meters":6000,"station_id":"ce4bhk92rcd13ifvqgb0","pricing_plan_id":"cebpf4jnsgd1na2vs0mg"},{"bike_id":"a7e77247-dc12-446e-92b3-66d4392cf52c","system_id":"levelo_inurba_marseille","lat":43.29509,"lon":5.39389,"is_reserved":false,"is_disabled":false,"rental_uris":{"android":"levelo://app?vid=a7e77247-dc12-446e-92b3-66d4392cf52c","ios":"levelo://app?vid=a7e77247-dc12-446e-92b3-66d4392cf52c"},"vehicle_type_id":"4","last_reported":1748207303,"current_range_meters":6000,"station_id":"ce4bh292rcd13ifvqdf0","pricing_plan_id":"cebpf4jnsgd1na2vs0mg"},{"bike_id":"8885f5fd-8d31-4a5d-9821-cedb1c851fe6","system_id":"levelo_inurba_marseille","lat":43.29036,"lon":5.38624,"is_reserved":false,"is_disabled":false,"rental_uris":{"android":"levelo://app?vid=8885f5fd-8d31-4a5d-9821-cedb1c851fe6","ios":"levelo://app?vid=8885f5fd-8d31-4a5d-9821-cedb1c851fe6"},"vehicle_type_id":"4","last_reported":1748207303,"current_range_meters":6000,"station_id":"ce4bh4p2rcd13ifvqe0g","pricing_plan_id":"cebpf4jnsgd1na2vs0mg"},{"bike_id":"0ddf2b5a-1565-4aab-be09-ecef369e20f0","system_id":"levelo_inurba_marseille","lat":43.29884,"lon":5.38116,"is_reserved":false,"is_disabled":true,"rental_uris":{"android":"levelo://app?vid=0ddf2b5a-1565-4aab-be09-ecef369e20f0","ios":"levelo://app?vid=0ddf2b5a-1565-4aab-be09-ecef369e20f0"},"vehicle_type_id":"4","last_reported":1748207303,"current_range_meters":6400,"station_id":"ce4bgj12rcd13ifvqbc0","pricing_plan_id":"cebpf4jnsgd1na2vs0mg"},{"bike_id":"63d7436a-c210-4684-91b0-7f24b90e4a3e","system_id":"levelo_inurba_marseille","lat":43.28415,"lon":5.3751,"is_reserved":false,"is_disabled":false,"rental_uris":{"android":"levelo://app?vid=63d7436a-c210-4684-91b0-7f24b90e4a3e","ios":"levelo://app?vid=63d7436a-c210-4684-91b0-7f24b90e4a3e"},"vehicle_type_id":"4","last_reported":1748207303,"current_range_meters":6400,"station_id":"ce4bh412rcd13ifvqds0","pricing_plan_id":"cebpf4jnsgd1na2vs0mg"},{"bike_id":"96de44a5-2352-4ae0-9071-a77b0638275a","system_id":"levelo_inurba_marseille","lat":43.24659,"lon":5.38886,"is_reserved":false,"is_disabled":false,"rental_uris":{"android":"levelo://app?vid=96de44a5-2352-4ae0-9071-a77b0638275a","ios":"levelo://app?vid=96de44a5-2352-4ae0-9071-a77b0638275a"},"vehicle_type_id":"4","last_reported":1748207303,"current_range_meters":6400,"station_id":"ce4bhg12rcd13ifvqf60","pricing_plan_id":"cebpf4jnsgd1na2vs0mg"},{"bike_id":"84b1d1a2-2301-4f7e-8fde-ecd5a1274476","system_id":"levelo_inurba_marseille","lat":43.27057,"lon":5.42261,"is_reserved":false,"is_disabled":false,"rental_uris":{"android":"levelo://app?vid=84b1d1a2-2301-4f7e-8fde-ecd5a1274476","ios":"levelo://app?vid=84b1d1a2-2301-4f7e-8fde-ecd5a1274476"},"vehicle_type_id":"4","last_reported":1748207303,"current_range_meters":6400,"station_id":"ce4bhk92rcd13ifvqgb0","pricing_plan_id":"cebpf4jnsgd1na2vs0mg"},{"bike_id":"88ac5a91-56d3-4573-b0f2-5c6bbb7d986b","system_id":"levelo_inurba_marseille","lat":43.26072,"lon":5.39674,"is_reserved":false,"is_disabled":false,"rental_uris":{"android":"levelo://app?vid=88ac5a91-56d3-4573-b0f2-5c6bbb7d986b","ios":"levelo://app?vid=88ac5a91-56d3-4573-b0f2-5c6bbb7d986b"},"vehicle_type_id":"4","last_reported":1748207303,"current_range_meters":6400,"station_id":"","pricing_plan_id":"cebpf4jnsgd1na2vs0mg"},{"bike_id":"b125e4fe-9444-45f5-9cde-b589581edd7d","system_id":"levelo_inurba_marseille","lat":43.29096,"lon":5.38139,"is_reserved":false,"is_disabled":false,"rental_uris":{"android":"levelo://app?vid=b125e4fe-9444-45f5-9cde-b589581edd7d","ios":"levelo://app?vid=b125e4fe-9444-45f5-9cde-b589581edd7d"},"vehicle_type_id":"4","last_reported":1748207303,"current_range_meters":6800,"station_id":"ce4bh512rcd13ifvqe2g","pricing_plan_id":"cebpf4jnsgd1na2vs0mg"},{"bike_id":"4d18815d-035b-4827-a51e-58638fcfdfa3","system_id":"levelo_inurba_marseille","lat":43.23184,"lon":5.39986,"is_reserved":false,"is_disabled":true,"rental_uris":{"android":"levelo://app?vid=4d18815d-035b-4827-a51e-58638fcfdfa3","ios":"levelo://app?vid=4d18815d-035b-4827-a51e-58638fcfdfa3"},"vehicle_type_id":"4","last_reported":1748207303,"current_range_meters":6800,"station_id":"ce4bhn12rcd13ifvqgqg","pricing_plan_id":"cebpf4jnsgd1na2vs0mg"},{"bike_id":"fc8c72ad-ca61-42c6-ae90-f61b57e45328","system_id":"levelo_inurba_marseille","lat":43.2792,"lon":5.41875,"is_reserved":false,"is_disabled":false,"rental_uris":{"android":"levelo://app?vid=fc8c72ad-ca61-42c6-ae90-f61b57e45328","ios":"levelo://app?vid=fc8c72ad-ca61-42c6-ae90-f61b57e45328"},"vehicle_type_id":"4","last_reported":1748207303,"current_range_meters":6800,"station_id":"","pricing_plan_id":"cebpf4jnsgd1na2vs0mg"},{"bike_id":"b3d9a6a4-006f-428f-b86e-f5b7e0ddb43c","system_id":"levelo_inurba_marseille","lat":43.28856,"lon":5.39311,"is_reserved":false,"is_disabled":false,"rental_uris":{"android":"levelo://app?vid=b3d9a6a4-006f-428f-b86e-f5b7e0ddb43c","ios":"levelo://app?vid=b3d9a6a4-006f-428f-b86e-f5b7e0ddb43c"},"vehicle_type_id":"4","last_reported":1748207303,"current_range_meters":6800,"station_id":"ce4bh2p2rcd13ifvqdi0","pricing_plan_id":"cebpf4jnsgd1na2vs0mg"},{"bike_id":"ceb5dae6-874b-4d60-9609-82bcf4c8d4ed","system_id":"levelo_inurba_marseille","lat":43.304481,"lon":5.38841,"is_reserved":false,"is_disabled":true,"rental_uris":{"android":"levelo://app?vid=ceb5dae6-874b-4d60-9609-82bcf4c8d4ed","ios":"levelo://app?vid=ceb5dae6-874b-4d60-9609-82bcf4c8d4ed"},"vehicle_type_id":"4","last_reported":1748207303,"current_range_meters":6800,"station_id":"ce4bgk12rcd13ifvqbi0","pricing_plan_id":"cebpf4jnsgd1na2vs0mg"},{"bike_id":"aeb9ef90-389d-4ef3-899b-0a0feff09a32","system_id":"levelo_inurba_marseille","lat":43.31369,"lon":5.38049,"is_reserved":false,"is_disabled":false,"rental_uris":{"android":"levelo://app?vid=aeb9ef90-389d-4ef3-899b-0a0feff09a32","ios":"levelo://app?vid=aeb9ef90-389d-4ef3-899b-0a0feff09a32"},"vehicle_type_id":"4","last_reported":1748207303,"current_range_meters":6800,"station_id":"","pricing_plan_id":"cebpf4jnsgd1na2vs0mg"},{"bike_id":"c3693970-0173-4f48-86b7-b4226fbb898a","system_id":"levelo_inurba_marseille","lat":43.231964,"lon":5.355549,"is_reserved":false,"is_disabled":false,"rental_uris":{"android":"levelo://app?vid=c3693970-0173-4f48-86b7-b4226fbb898a","ios":"levelo://app?vid=c3693970-0173-4f48-86b7-b4226fbb898a"},"vehicle_type_id":"4","last_reported":1748207303,"current_range_meters":6800,"station_id":"ce4bhu92rcd13ifvqi70","pricing_plan_id":"cebpf4jnsgd1na2vs0mg"},{"bike_id":"a00c3d9e-5eeb-4a32-8166-d93db0906f96","system_id":"levelo_inurba_marseille","lat":43.29518,"lon":5.37501,"is_reserved":false,"is_disabled":true,"rental_uris":{"android":"levelo://app?vid=a00c3d9e-5eeb-4a32-8166-d93db0906f96","ios":"levelo://app?vid=a00c3d9e-5eeb-4a32-8166-d93db0906f96"},"vehicle_type_id":"4","last_reported":1748207303,"current_range_meters":6800,"station_id":"ce4bgkp2rcd13ifvqbmg","pricing_plan_id":"cebpf4jnsgd1na2vs0mg"},{"bike_id":"bac4d4f2-cbac-4aef-88fb-c759c7b96d6f","system_id":"levelo_inurba_marseille","lat":43.26949,"lon":5.38619,"is_reserved":false,"is_disabled":true,"rental_uris":{"android":"levelo://app?vid=bac4d4f2-cbac-4aef-88fb-c759c7b96d6f","ios":"levelo://app?vid=bac4d4f2-cbac-4aef-88fb-c759c7b96d6f"},"vehicle_type_id":"4","last_reported":1748207303,"current_range_meters":6800,"station_id":"ce4bhh92rcd13ifvqfh0","pricing_plan_id":"cebpf4jnsgd1na2vs0mg"},{"bike_id":"4b21239c-4264-43d2-9677-18eac578f916","system_id":"levelo_inurba_marseille","lat":43.27836,"lon":5.40705,"is_reserved":false,"is_disabled":true,"rental_uris":{"android":"levelo://app?vid=4b21239c-4264-43d2-9677-18eac578f916","ios":"levelo://app?vid=4b21239c-4264-43d2-9677-18eac578f916"},"vehicle_type_id":"4","last_reported":1748207303,"current_range_meters":6800,"station_id":"ce4bhnh2rcd13ifvqgtg","pricing_plan_id":"cebpf4jnsgd1na2vs0mg"},{"bike_id":"09abde5f-a4c8-44ce-be33-fe18213b3817","system_id":"levelo_inurba_marseille","lat":43.3009,"lon":5.3908,"is_reserved":false,"is_disabled":false,"rental_uris":{"android":"levelo://app?vid=09abde5f-a4c8-44ce-be33-fe18213b3817","ios":"levelo://app?vid=09abde5f-a4c8-44ce-be33-fe18213b3817"},"vehicle_type_id":"4","last_reported":1748207303,"current_range_meters":6800,"station_id":"ce4bh192rcd13ifvqdb0","pricing_plan_id":"cebpf4jnsgd1na2vs0mg"},{"bike_id":"8c489452-33ec-40fb-804e-08b0bc9dcc81","system_id":"levelo_inurba_marseille","lat":43.314342,"lon":5.373517,"is_reserved":false,"is_disabled":true,"rental_uris":{"android":"levelo://app?vid=8c489452-33ec-40fb-804e-08b0bc9dcc81","ios":"levelo://app?vid=8c489452-33ec-40fb-804e-08b0bc9dcc81"},"vehicle_type_id":"4","last_reported":1748207303,"current_range_meters":6800,"station_id":"","pricing_plan_id":"cebpf4jnsgd1na2vs0mg"},{"bike_id":"70560b1c-7100-46da-ad95-4a6e70fb9ccb","system_id":"levelo_inurba_marseille","lat":43.27073,"lon":5.422817,"is_reserved":false,"is_disabled":false,"rental_uris":{"android":"levelo://app?vid=70560b1c-7100-46da-ad95-4a6e70fb9ccb","ios":"levelo://app?vid=70560b1c-7100-46da-ad95-4a6e70fb9ccb"},"vehicle_type_id":"4","last_reported":1748207303,"current_range_meters":6800,"station_id":"ce4bhk92rcd13ifvqgb0","pricing_plan_id":"cebpf4jnsgd1na2vs0mg"},{"bike_id":"d5ddd455-df57-470b-90b1-29664b7edf5f","system_id":"levelo_inurba_marseille","lat":43.334188,"lon":5.400672,"is_reserved":false,"is_disabled":false,"rental_uris":{"android":"levelo://app?vid=d5ddd455-df57-470b-90b1-29664b7edf5f","ios":"levelo://app?vid=d5ddd455-df57-470b-90b1-29664b7edf5f"},"vehicle_type_id":"4","last_reported":1748207303,"current_range_meters":6800,"station_id":"","pricing_plan_id":"cebpf4jnsgd1na2vs0mg"},{"bike_id":"4790329a-165e-4912-9454-fe770a4f0e6e","system_id":"levelo_inurba_marseille","lat":43.28418,"lon":5.375067,"is_reserved":false,"is_disabled":false,"rental_uris":{"android":"levelo://app?vid=4790329a-165e-4912-9454-fe770a4f0e6e","ios":"levelo://app?vid=4790329a-165e-4912-9454-fe770a4f0e6e"},"vehicle_type_id":"4","last_reported":1748207303,"current_range_meters":7200,"station_id":"ce4bh412rcd13ifvqds0","pricing_plan_id":"cebpf4jnsgd1na2vs0mg"},{"bike_id":"c21718cf-5f3b-447e-b155-e1e4e55b3e6b","system_id":"levelo_inurba_marseille","lat":43.2857,"lon":5.3949,"is_reserved":false,"is_disabled":false,"rental_uris":{"android":"levelo://app?vid=c21718cf-5f3b-447e-b155-e1e4e55b3e6b","ios":"levelo://app?vid=c21718cf-5f3b-447e-b155-e1e4e55b3e6b"},"vehicle_type_id":"4","last_reported":1748207303,"current_range_meters":6000,"station_id":"ce4bh292rcd13ifvqdg0","pricing_plan_id":"cebpf4jnsgd1na2vs0mg"},{"bike_id":"be056168-c1af-471e-b724-1992cbce9c45","system_id":"levelo_inurba_marseille","lat":43.29235,"lon":5.40152,"is_reserved":false,"is_disabled":false,"rental_uris":{"android":"levelo://app?vid=be056168-c1af-471e-b724-1992cbce9c45","ios":"levelo://app?vid=be056168-c1af-471e-b724-1992cbce9c45"},"vehicle_type_id":"4","last_reported":1748207303,"current_range_meters":7200,"station_id":"ce4bh312rcd13ifvqdk0","pricing_plan_id":"cebpf4jnsgd1na2vs0mg"},{"bike_id":"e4c1139a-b984-4f95-b7a8-2d1c167b9455","system_id":"levelo_inurba_marseille","lat":43.28415,"lon":5.37508,"is_reserved":false,"is_disabled":false,"rental_uris":{"android":"levelo://app?vid=e4c1139a-b984-4f95-b7a8-2d1c167b9455","ios":"levelo://app?vid=e4c1139a-b984-4f95-b7a8-2d1c167b9455"},"vehicle_type_id":"4","last_reported":1748207303,"current_range_meters":7200,"station_id":"ce4bh412rcd13ifvqds0","pricing_plan_id":"cebpf4jnsgd1na2vs0mg"},{"bike_id":"b72ccfd1-35cf-4b02-9c1a-90aef7c74e5f","system_id":"levelo_inurba_marseille","lat":43.2487,"lon":5.44166,"is_reserved":false,"is_disabled":false,"rental_uris":{"android":"levelo://app?vid=b72ccfd1-35cf-4b02-9c1a-90aef7c74e5f","ios":"levelo://app?vid=b72ccfd1-35cf-4b02-9c1a-90aef7c74e5f"},"vehicle_type_id":"4","last_reported":1748207303,"current_range_meters":7200,"station_id":"","pricing_plan_id":"cebpf4jnsgd1na2vs0mg"},{"bike_id":"e8fa7405-1174-4ec6-ac79-104273598283","system_id":"levelo_inurba_marseille","lat":43.30679,"lon":5.4009,"is_reserved":false,"is_disabled":true,"rental_uris":{"android":"levelo://app?vid=e8fa7405-1174-4ec6-ac79-104273598283","ios":"levelo://app?vid=e8fa7405-1174-4ec6-ac79-104273598283"},"vehicle_type_id":"4","last_reported":1748207303,"current_range_meters":8000,"station_id":"ce4bh112rcd13ifvqda0","pricing_plan_id":"cebpf4jnsgd1na2vs0mg"},{"bike_id":"da453a88-f81b-4e0f-9781-5a7f6c1d364c","system_id":"levelo_inurba_marseille","lat":43.337499,"lon":5.374469,"is_reserved":false,"is_disabled":false,"rental_uris":{"android":"levelo://app?vid=da453a88-f81b-4e0f-9781-5a7f6c1d364c","ios":"levelo://app?vid=da453a88-f81b-4e0f-9781-5a7f6c1d364c"},"vehicle_type_id":"4","last_reported":1748207303,"current_range_meters":8000,"station_id":"","pricing_plan_id":"cebpf4jnsgd1na2vs0mg"},{"bike_id":"d9fa0449-e47c-4bbe-a91c-4939cab5d888","system_id":"levelo_inurba_marseille","lat":43.28543,"lon":5.42632,"is_reserved":false,"is_disabled":false,"rental_uris":{"android":"levelo://app?vid=d9fa0449-e47c-4bbe-a91c-4939cab5d888","ios":"levelo://app?vid=d9fa0449-e47c-4bbe-a91c-4939cab5d888"},"vehicle_type_id":"4","last_reported":1748207303,"current_range_meters":8000,"station_id":"","pricing_plan_id":"cebpf4jnsgd1na2vs0mg"},{"bike_id":"d7ab41ec-159d-4e91-ad66-69e96c91aacd","system_id":"levelo_inurba_marseille","lat":43.23062,"lon":5.35485,"is_reserved":false,"is_disabled":true,"rental_uris":{"android":"levelo://app?vid=d7ab41ec-159d-4e91-ad66-69e96c91aacd","ios":"levelo://app?vid=d7ab41ec-159d-4e91-ad66-69e96c91aacd"},"vehicle_type_id":"4","last_reported":1748207303,"current_range_meters":8000,"station_id":"cpo3342slgdg3j2ifvpg","pricing_plan_id":"cebpf4jnsgd1na2vs0mg"},{"bike_id":"4c572631-4468-404e-b6c2-dd4a4b3174f2","system_id":"levelo_inurba_marseille","lat":43.2879,"lon":5.36301,"is_reserved":false,"is_disabled":false,"rental_uris":{"android":"levelo://app?vid=4c572631-4468-404e-b6c2-dd4a4b3174f2","ios":"levelo://app?vid=4c572631-4468-404e-b6c2-dd4a4b3174f2"},"vehicle_type_id":"4","last_reported":1748207303,"current_range_meters":8000,"station_id":"","pricing_plan_id":"cebpf4jnsgd1na2vs0mg"},{"bike_id":"105d56f3-e8cf-41b8-b0d9-5038295cb631","system_id":"levelo_inurba_marseille","lat":43.21193,"lon":5.35074,"is_reserved":false,"is_disabled":false,"rental_uris":{"android":"levelo://app?vid=105d56f3-e8cf-41b8-b0d9-5038295cb631","ios":"levelo://app?vid=105d56f3-e8cf-41b8-b0d9-5038295cb631"},"vehicle_type_id":"4","last_reported":1748207303,"current_range_meters":8000,"station_id":"","pricing_plan_id":"cebpf4jnsgd1na2vs0mg"},{"bike_id":"cfbe3900-2584-4c36-b3dd-fd4a031a3172","system_id":"levelo_inurba_marseille","lat":43.23966,"lon":5.36632,"is_reserved":false,"is_disabled":false,"rental_uris":{"android":"levelo://app?vid=cfbe3900-2584-4c36-b3dd-fd4a031a3172","ios":"levelo://app?vid=cfbe3900-2584-4c36-b3dd-fd4a031a3172"},"vehicle_type_id":"4","last_reported":1748207303,"current_range_meters":7200,"station_id":"ce4bhi12rcd13ifvqfp0","pricing_plan_id":"cebpf4jnsgd1na2vs0mg"},{"bike_id":"4855017c-c5a2-4164-ae8a-e31b54c290c1","system_id":"levelo_inurba_marseille","lat":43.25116,"lon":5.40313,"is_reserved":false,"is_disabled":false,"rental_uris":{"android":"levelo://app?vid=4855017c-c5a2-4164-ae8a-e31b54c290c1","ios":"levelo://app?vid=4855017c-c5a2-4164-ae8a-e31b54c290c1"},"vehicle_type_id":"4","last_reported":1748207303,"current_range_meters":8400,"station_id":"ce4bhlh2rcd13ifvqgig","pricing_plan_id":"cebpf4jnsgd1na2vs0mg"},{"bike_id":"a55a9782-404f-462c-8cd4-727e37ec6e33","system_id":"levelo_inurba_marseille","lat":43.30029,"lon":5.38622,"is_reserved":false,"is_disabled":false,"rental_uris":{"android":"levelo://app?vid=a55a9782-404f-462c-8cd4-727e37ec6e33","ios":"levelo://app?vid=a55a9782-404f-462c-8cd4-727e37ec6e33"},"vehicle_type_id":"4","last_reported":1748207303,"current_range_meters":8400,"station_id":"","pricing_plan_id":"cebpf4jnsgd1na2vs0mg"},{"bike_id":"71c6f6c5-aa0d-40e2-801d-9f6d35dc2ebc","system_id":"levelo_inurba_marseille","lat":43.27993,"lon":5.41667,"is_reserved":false,"is_disabled":false,"rental_uris":{"android":"levelo://app?vid=71c6f6c5-aa0d-40e2-801d-9f6d35dc2ebc","ios":"levelo://app?vid=71c6f6c5-aa0d-40e2-801d-9f6d35dc2ebc"},"vehicle_type_id":"4","last_reported":1748207303,"current_range_meters":8400,"station_id":"ce4bho12rcd13ifvqh1g","pricing_plan_id":"cebpf4jnsgd1na2vs0mg"},{"bike_id":"a443da8e-104d-4dbd-9921-d43d0f7d77eb","system_id":"levelo_inurba_marseille","lat":43.29584,"lon":5.36734,"is_reserved":false,"is_disabled":false,"rental_uris":{"android":"levelo://app?vid=a443da8e-104d-4dbd-9921-d43d0f7d77eb","ios":"levelo://app?vid=a443da8e-104d-4dbd-9921-d43d0f7d77eb"},"vehicle_type_id":"4","last_reported":1748207303,"current_range_meters":8400,"station_id":"ce4bgph2rcd13ifvqc2g","pricing_plan_id":"cebpf4jnsgd1na2vs0mg"},{"bike_id":"764aa4a5-fdf1-45d2-8d85-f92b7302018b","system_id":"levelo_inurba_marseille","lat":43.32195,"lon":5.44015,"is_reserved":false,"is_disabled":false,"rental_uris":{"android":"levelo://app?vid=764aa4a5-fdf1-45d2-8d85-f92b7302018b","ios":"levelo://app?vid=764aa4a5-fdf1-45d2-8d85-f92b7302018b"},"vehicle_type_id":"4","last_reported":1748207303,"current_range_meters":8400,"station_id":"","pricing_plan_id":"cebpf4jnsgd1na2vs0mg"},{"bike_id":"2ac48667-cdfb-4989-a605-1cb20ca5ab52","system_id":"levelo_inurba_marseille","lat":43.2797,"lon":5.4165,"is_reserved":false,"is_disabled":false,"rental_uris":{"android":"levelo://app?vid=2ac48667-cdfb-4989-a605-1cb20ca5ab52","ios":"levelo://app?vid=2ac48667-cdfb-4989-a605-1cb20ca5ab52"},"vehicle_type_id":"4","last_reported":1748207303,"current_range_meters":8400,"station_id":"ce4bho12rcd13ifvqh1g","pricing_plan_id":"cebpf4jnsgd1na2vs0mg"},{"bike_id":"c3289047-8b25-4e99-8a60-2e24493769f4","system_id":"levelo_inurba_marseille","lat":43.284768,"lon":5.384156,"is_reserved":false,"is_disabled":true,"rental_uris":{"android":"levelo://app?vid=c3289047-8b25-4e99-8a60-2e24493769f4","ios":"levelo://app?vid=c3289047-8b25-4e99-8a60-2e24493769f4"},"vehicle_type_id":"4","last_reported":1748207303,"current_range_meters":8400,"station_id":"ce4bh512rcd13ifvqe3g","pricing_plan_id":"cebpf4jnsgd1na2vs0mg"},{"bike_id":"0034e007-f5f1-44d1-9969-6b5e7e2a0461","system_id":"levelo_inurba_marseille","lat":43.23193,"lon":5.39974,"is_reserved":false,"is_disabled":false,"rental_uris":{"android":"levelo://app?vid=0034e007-f5f1-44d1-9969-6b5e7e2a0461","ios":"levelo://app?vid=0034e007-f5f1-44d1-9969-6b5e7e2a0461"},"vehicle_type_id":"4","last_reported":1748207303,"current_range_meters":8400,"station_id":"ce4bhn12rcd13ifvqgqg","pricing_plan_id":"cebpf4jnsgd1na2vs0mg"},{"bike_id":"c1450594-a07e-481e-8ce6-065c5ef09f24","system_id":"levelo_inurba_marseille","lat":43.24685,"lon":5.38153,"is_reserved":false,"is_disabled":true,"rental_uris":{"android":"levelo://app?vid=c1450594-a07e-481e-8ce6-065c5ef09f24","ios":"levelo://app?vid=c1450594-a07e-481e-8ce6-065c5ef09f24"},"vehicle_type_id":"4","last_reported":1748207303,"current_range_meters":8400,"station_id":"ce4bhih2rcd13ifvqfr0","pricing_plan_id":"cebpf4jnsgd1na2vs0mg"},{"bike_id":"5c5bed98-b57a-44ff-9692-48c79f2f1162","system_id":"levelo_inurba_marseille","lat":43.28723,"lon":5.37932,"is_reserved":false,"is_disabled":false,"rental_uris":{"android":"levelo://app?vid=5c5bed98-b57a-44ff-9692-48c79f2f1162","ios":"levelo://app?vid=5c5bed98-b57a-44ff-9692-48c79f2f1162"},"vehicle_type_id":"4","last_reported":1748207303,"current_range_meters":8800,"station_id":"ce4bh9p2rcd13ifvqec0","pricing_plan_id":"cebpf4jnsgd1na2vs0mg"},{"bike_id":"4ccaff61-1e4b-4f25-996a-763b2c1dc0ef","system_id":"levelo_inurba_marseille","lat":43.27816,"lon":5.40709,"is_reserved":false,"is_disabled":false,"rental_uris":{"android":"levelo://app?vid=4ccaff61-1e4b-4f25-996a-763b2c1dc0ef","ios":"levelo://app?vid=4ccaff61-1e4b-4f25-996a-763b2c1dc0ef"},"vehicle_type_id":"4","last_reported":1748207303,"current_range_meters":8800,"station_id":"ce4bhnh2rcd13ifvqgtg","pricing_plan_id":"cebpf4jnsgd1na2vs0mg"},{"bike_id":"0a263450-e142-4451-8361-08e83e2883e8","system_id":"levelo_inurba_marseille","lat":43.27991,"lon":5.41671,"is_reserved":false,"is_disabled":false,"rental_uris":{"android":"levelo://app?vid=0a263450-e142-4451-8361-08e83e2883e8","ios":"levelo://app?vid=0a263450-e142-4451-8361-08e83e2883e8"},"vehicle_type_id":"4","last_reported":1748207303,"current_range_meters":8800,"station_id":"ce4bho12rcd13ifvqh1g","pricing_plan_id":"cebpf4jnsgd1na2vs0mg"},{"bike_id":"6abb9ab4-3976-4e3e-b994-f2f72ee02055","system_id":"levelo_inurba_marseille","lat":43.318098,"lon":5.368289,"is_reserved":false,"is_disabled":false,"rental_uris":{"android":"levelo://app?vid=6abb9ab4-3976-4e3e-b994-f2f72ee02055","ios":"levelo://app?vid=6abb9ab4-3976-4e3e-b994-f2f72ee02055"},"vehicle_type_id":"4","last_reported":1748207303,"current_range_meters":8800,"station_id":"","pricing_plan_id":"cebpf4jnsgd1na2vs0mg"},{"bike_id":"1d754a47-0dab-4a89-a2f4-2f2b6d7df2c6","system_id":"levelo_inurba_marseille","lat":43.31491,"lon":5.373,"is_reserved":false,"is_disabled":false,"rental_uris":{"android":"levelo://app?vid=1d754a47-0dab-4a89-a2f4-2f2b6d7df2c6","ios":"levelo://app?vid=1d754a47-0dab-4a89-a2f4-2f2b6d7df2c6"},"vehicle_type_id":"4","last_reported":1748207303,"current_range_meters":8800,"station_id":"ce4bgt12rcd13ifvqcd0","pricing_plan_id":"cebpf4jnsgd1na2vs0mg"},{"bike_id":"309cbda0-7a72-44ee-bcf1-ffd8302d8835","system_id":"levelo_inurba_marseille","lat":43.28349,"lon":5.3811,"is_reserved":false,"is_disabled":false,"rental_uris":{"android":"levelo://app?vid=309cbda0-7a72-44ee-bcf1-ffd8302d8835","ios":"levelo://app?vid=309cbda0-7a72-44ee-bcf1-ffd8302d8835"},"vehicle_type_id":"4","last_reported":1748207303,"current_range_meters":8800,"station_id":"ce4bh412rcd13ifvqdr0","pricing_plan_id":"cebpf4jnsgd1na2vs0mg"},{"bike_id":"cec9963f-bbf5-4762-a23c-43f49519ae7e","system_id":"levelo_inurba_marseille","lat":43.290877,"lon":5.371502,"is_reserved":false,"is_disabled":false,"rental_uris":{"android":"levelo://app?vid=cec9963f-bbf5-4762-a23c-43f49519ae7e","ios":"levelo://app?vid=cec9963f-bbf5-4762-a23c-43f49519ae7e"},"vehicle_type_id":"4","last_reported":1748207303,"current_range_meters":9200,"station_id":"ce4bh5p2rcd13ifvqe4g","pricing_plan_id":"cebpf4jnsgd1na2vs0mg"},{"bike_id":"985dfe2e-48ab-4438-8b44-7034bccf028e","system_id":"levelo_inurba_marseille","lat":43.27058,"lon":5.39942,"is_reserved":false,"is_disabled":false,"rental_uris":{"android":"levelo://app?vid=985dfe2e-48ab-4438-8b44-7034bccf028e","ios":"levelo://app?vid=985dfe2e-48ab-4438-8b44-7034bccf028e"},"vehicle_type_id":"4","last_reported":1748207303,"current_range_meters":9200,"station_id":"","pricing_plan_id":"cebpf4jnsgd1na2vs0mg"},{"bike_id":"3850fd70-bc18-4c11-8473-90e02d666583","system_id":"levelo_inurba_marseille","lat":43.29775,"lon":5.45991,"is_reserved":false,"is_disabled":false,"rental_uris":{"android":"levelo://app?vid=3850fd70-bc18-4c11-8473-90e02d666583","ios":"levelo://app?vid=3850fd70-bc18-4c11-8473-90e02d666583"},"vehicle_type_id":"4","last_reported":1748207303,"current_range_meters":9200,"station_id":"","pricing_plan_id":"cebpf4jnsgd1na2vs0mg"},{"bike_id":"df9ff704-4d4f-4ec4-bf55-cae6eb311cd2","system_id":"levelo_inurba_marseille","lat":43.33608,"lon":5.41031,"is_reserved":false,"is_disabled":false,"rental_uris":{"android":"levelo://app?vid=df9ff704-4d4f-4ec4-bf55-cae6eb311cd2","ios":"levelo://app?vid=df9ff704-4d4f-4ec4-bf55-cae6eb311cd2"},"vehicle_type_id":"4","last_reported":1748207303,"current_range_meters":9200,"station_id":"ce4bhqh2rcd13ifvqhmg","pricing_plan_id":"cebpf4jnsgd1na2vs0mg"},{"bike_id":"750f6585-193a-4477-948c-580515d42c9e","system_id":"levelo_inurba_marseille","lat":43.32234,"lon":5.43964,"is_reserved":false,"is_disabled":false,"rental_uris":{"android":"levelo://app?vid=750f6585-193a-4477-948c-580515d42c9e","ios":"levelo://app?vid=750f6585-193a-4477-948c-580515d42c9e"},"vehicle_type_id":"4","last_reported":1748207303,"current_range_meters":9200,"station_id":"","pricing_plan_id":"cebpf4jnsgd1na2vs0mg"},{"bike_id":"79319067-4056-40c3-b6fc-25343a47010c","system_id":"levelo_inurba_marseille","lat":43.28001,"lon":5.4166,"is_reserved":false,"is_disabled":false,"rental_uris":{"android":"levelo://app?vid=79319067-4056-40c3-b6fc-25343a47010c","ios":"levelo://app?vid=79319067-4056-40c3-b6fc-25343a47010c"},"vehicle_type_id":"4","last_reported":1748207303,"current_range_meters":9200,"station_id":"ce4bho12rcd13ifvqh1g","pricing_plan_id":"cebpf4jnsgd1na2vs0mg"},{"bike_id":"495e7bc5-e981-407c-a4ab-07c1e6647790","system_id":"levelo_inurba_marseille","lat":43.30935,"lon":5.40139,"is_reserved":false,"is_disabled":false,"rental_uris":{"android":"levelo://app?vid=495e7bc5-e981-407c-a4ab-07c1e6647790","ios":"levelo://app?vid=495e7bc5-e981-407c-a4ab-07c1e6647790"},"vehicle_type_id":"4","last_reported":1748207303,"current_range_meters":9200,"station_id":"ce4bgvp2rcd13ifvqct0","pricing_plan_id":"cebpf4jnsgd1na2vs0mg"},{"bike_id":"ed3c3cf7-4b39-48ed-a53f-6ae98f5f6d5b","system_id":"levelo_inurba_marseille","lat":43.30431,"lon":5.38891,"is_reserved":false,"is_disabled":false,"rental_uris":{"android":"levelo://app?vid=ed3c3cf7-4b39-48ed-a53f-6ae98f5f6d5b","ios":"levelo://app?vid=ed3c3cf7-4b39-48ed-a53f-6ae98f5f6d5b"},"vehicle_type_id":"4","last_reported":1748207303,"current_range_meters":9600,"station_id":"ce4bgk12rcd13ifvqbi0","pricing_plan_id":"cebpf4jnsgd1na2vs0mg"},{"bike_id":"6ea542cd-bd1f-400f-9487-7a1aeb2c6cf5","system_id":"levelo_inurba_marseille","lat":43.30807,"lon":5.38151,"is_reserved":false,"is_disabled":true,"rental_uris":{"android":"levelo://app?vid=6ea542cd-bd1f-400f-9487-7a1aeb2c6cf5","ios":"levelo://app?vid=6ea542cd-bd1f-400f-9487-7a1aeb2c6cf5"},"vehicle_type_id":"4","last_reported":1748207303,"current_range_meters":9600,"station_id":"ce4bgt12rcd13ifvqce0","pricing_plan_id":"cebpf4jnsgd1na2vs0mg"},{"bike_id":"c7bf137b-672e-46b1-9f91-b1e388281f69","system_id":"levelo_inurba_marseille","lat":43.29792,"lon":5.39336,"is_reserved":false,"is_disabled":false,"rental_uris":{"android":"levelo://app?vid=c7bf137b-672e-46b1-9f91-b1e388281f69","ios":"levelo://app?vid=c7bf137b-672e-46b1-9f91-b1e388281f69"},"vehicle_type_id":"4","last_reported":1748207303,"current_range_meters":9600,"station_id":"chh1huq6cuj3fo74tm60","pricing_plan_id":"cebpf4jnsgd1na2vs0mg"},{"bike_id":"b757516d-1049-4569-8c0f-9e91eddee2d0","system_id":"levelo_inurba_marseille","lat":43.31366,"lon":5.38488,"is_reserved":false,"is_disabled":false,"rental_uris":{"android":"levelo://app?vid=b757516d-1049-4569-8c0f-9e91eddee2d0","ios":"levelo://app?vid=b757516d-1049-4569-8c0f-9e91eddee2d0"},"vehicle_type_id":"4","last_reported":1748207303,"current_range_meters":9600,"station_id":"ce4bgt92rcd13ifvqcf0","pricing_plan_id":"cebpf4jnsgd1na2vs0mg"},{"bike_id":"b2481e92-81b3-44e8-b36f-4f554a3e5626","system_id":"levelo_inurba_marseille","lat":43.29524,"lon":5.38559,"is_reserved":false,"is_disabled":true,"rental_uris":{"android":"levelo://app?vid=b2481e92-81b3-44e8-b36f-4f554a3e5626","ios":"levelo://app?vid=b2481e92-81b3-44e8-b36f-4f554a3e5626"},"vehicle_type_id":"4","last_reported":1748207303,"current_range_meters":9600,"station_id":"ce4bgih2rcd13ifvqba0","pricing_plan_id":"cebpf4jnsgd1na2vs0mg"},{"bike_id":"88618280-9787-4087-868e-eef2ad3fd538","system_id":"levelo_inurba_marseille","lat":43.29029,"lon":5.35918,"is_reserved":false,"is_disabled":true,"rental_uris":{"android":"levelo://app?vid=88618280-9787-4087-868e-eef2ad3fd538","ios":"levelo://app?vid=88618280-9787-4087-868e-eef2ad3fd538"},"vehicle_type_id":"4","last_reported":1748207303,"current_range_meters":9600,"station_id":"ce4bha92rcd13ifvqeg0","pricing_plan_id":"cebpf4jnsgd1na2vs0mg"},{"bike_id":"da62fa94-a3bc-4a11-90f8-9c90b340d2d7","system_id":"levelo_inurba_marseille","lat":43.28935,"lon":5.39631,"is_reserved":false,"is_disabled":false,"rental_uris":{"android":"levelo://app?vid=da62fa94-a3bc-4a11-90f8-9c90b340d2d7","ios":"levelo://app?vid=da62fa94-a3bc-4a11-90f8-9c90b340d2d7"},"vehicle_type_id":"4","last_reported":1748207303,"current_range_meters":9600,"station_id":"ce4bh3h2rcd13ifvqdn0","pricing_plan_id":"cebpf4jnsgd1na2vs0mg"},{"bike_id":"5abb8a77-fbf0-4d21-805b-29790cff0e49","system_id":"levelo_inurba_marseille","lat":43.31087,"lon":5.42446,"is_reserved":false,"is_disabled":false,"rental_uris":{"android":"levelo://app?vid=5abb8a77-fbf0-4d21-805b-29790cff0e49","ios":"levelo://app?vid=5abb8a77-fbf0-4d21-805b-29790cff0e49"},"vehicle_type_id":"4","last_reported":1748207303,"current_range_meters":9600,"station_id":"ce4bhp92rcd13ifvqhag","pricing_plan_id":"cebpf4jnsgd1na2vs0mg"},{"bike_id":"7f0b3323-77a1-43c6-a91f-7eae2ece8cc3","system_id":"levelo_inurba_marseille","lat":43.31663,"lon":5.38963,"is_reserved":false,"is_disabled":false,"rental_uris":{"android":"levelo://app?vid=7f0b3323-77a1-43c6-a91f-7eae2ece8cc3","ios":"levelo://app?vid=7f0b3323-77a1-43c6-a91f-7eae2ece8cc3"},"vehicle_type_id":"4","last_reported":1748207303,"current_range_meters":10000,"station_id":"","pricing_plan_id":"cebpf4jnsgd1na2vs0mg"},{"bike_id":"54a3bbf5-ebe4-4594-9532-519c0897eb70","system_id":"levelo_inurba_marseille","lat":43.29955,"lon":5.41321,"is_reserved":false,"is_disabled":true,"rental_uris":{"android":"levelo://app?vid=54a3bbf5-ebe4-4594-9532-519c0897eb70","ios":"levelo://app?vid=54a3bbf5-ebe4-4594-9532-519c0897eb70"},"vehicle_type_id":"4","last_reported":1748207303,"current_range_meters":10000,"station_id":"ce4bhp12rcd13ifvqh9g","pricing_plan_id":"cebpf4jnsgd1na2vs0mg"},{"bike_id":"265a619d-70e2-490e-b770-35c70e4b1754","system_id":"levelo_inurba_marseille","lat":43.297363,"lon":5.376937,"is_reserved":false,"is_disabled":false,"rental_uris":{"android":"levelo://app?vid=265a619d-70e2-490e-b770-35c70e4b1754","ios":"levelo://app?vid=265a619d-70e2-490e-b770-35c70e4b1754"},"vehicle_type_id":"4","last_reported":1748207303,"current_range_meters":9600,"station_id":"ce4bgkh2rcd13ifvqbl0","pricing_plan_id":"cebpf4jnsgd1na2vs0mg"},{"bike_id":"77f400c2-e328-4b6a-8d46-f0438a35aacb","system_id":"levelo_inurba_marseille","lat":43.28344,"lon":5.38095,"is_reserved":false,"is_disabled":false,"rental_uris":{"android":"levelo://app?vid=77f400c2-e328-4b6a-8d46-f0438a35aacb","ios":"levelo://app?vid=77f400c2-e328-4b6a-8d46-f0438a35aacb"},"vehicle_type_id":"4","last_reported":1748207303,"current_range_meters":10000,"station_id":"ce4bh412rcd13ifvqdr0","pricing_plan_id":"cebpf4jnsgd1na2vs0mg"},{"bike_id":"ad35d7fa-a2c3-4e55-aac0-809f81c12d57","system_id":"levelo_inurba_marseille","lat":43.23043,"lon":5.35491,"is_reserved":false,"is_disabled":false,"rental_uris":{"android":"levelo://app?vid=ad35d7fa-a2c3-4e55-aac0-809f81c12d57","ios":"levelo://app?vid=ad35d7fa-a2c3-4e55-aac0-809f81c12d57"},"vehicle_type_id":"4","last_reported":1748207303,"current_range_meters":10000,"station_id":"cpo3342slgdg3j2ifvpg","pricing_plan_id":"cebpf4jnsgd1na2vs0mg"},{"bike_id":"dabc077c-bf8d-431d-a5ea-dcd441e9b7b1","system_id":"levelo_inurba_marseille","lat":43.24881,"lon":5.39723,"is_reserved":false,"is_disabled":false,"rental_uris":{"android":"levelo://app?vid=dabc077c-bf8d-431d-a5ea-dcd441e9b7b1","ios":"levelo://app?vid=dabc077c-bf8d-431d-a5ea-dcd441e9b7b1"},"vehicle_type_id":"4","last_reported":1748207303,"current_range_meters":10000,"station_id":"","pricing_plan_id":"cebpf4jnsgd1na2vs0mg"},{"bike_id":"b6c82712-4761-4fda-8249-24477ebcbcb4","system_id":"levelo_inurba_marseille","lat":43.27949,"lon":5.41061,"is_reserved":false,"is_disabled":false,"rental_uris":{"android":"levelo://app?vid=b6c82712-4761-4fda-8249-24477ebcbcb4","ios":"levelo://app?vid=b6c82712-4761-4fda-8249-24477ebcbcb4"},"vehicle_type_id":"4","last_reported":1748207303,"current_range_meters":10000,"station_id":"ce4bhnp2rcd13ifvqh0g","pricing_plan_id":"cebpf4jnsgd1na2vs0mg"},{"bike_id":"f4f4209b-a89a-4e17-b959-cd5c8f92332a","system_id":"levelo_inurba_marseille","lat":43.269328,"lon":5.402751,"is_reserved":false,"is_disabled":false,"rental_uris":{"android":"levelo://app?vid=f4f4209b-a89a-4e17-b959-cd5c8f92332a","ios":"levelo://app?vid=f4f4209b-a89a-4e17-b959-cd5c8f92332a"},"vehicle_type_id":"4","last_reported":1748207303,"current_range_meters":10000,"station_id":"cjm6bp8fraef2m0cb0m0","pricing_plan_id":"cebpf4jnsgd1na2vs0mg"},{"bike_id":"e9496718-b841-4999-823d-28c5bee5d6f1","system_id":"levelo_inurba_marseille","lat":43.26523,"lon":5.39008,"is_reserved":false,"is_disabled":false,"rental_uris":{"android":"levelo://app?vid=e9496718-b841-4999-823d-28c5bee5d6f1","ios":"levelo://app?vid=e9496718-b841-4999-823d-28c5bee5d6f1"},"vehicle_type_id":"4","last_reported":1748207303,"current_range_meters":10800,"station_id":"ce4bhe12rcd13ifvqf30","pricing_plan_id":"cebpf4jnsgd1na2vs0mg"},{"bike_id":"f93b74c5-5226-4250-aaa8-c7e610f5fc0b","system_id":"levelo_inurba_marseille","lat":43.27064,"lon":5.42278,"is_reserved":false,"is_disabled":false,"rental_uris":{"android":"levelo://app?vid=f93b74c5-5226-4250-aaa8-c7e610f5fc0b","ios":"levelo://app?vid=f93b74c5-5226-4250-aaa8-c7e610f5fc0b"},"vehicle_type_id":"4","last_reported":1748207303,"current_range_meters":10800,"station_id":"ce4bhk92rcd13ifvqgb0","pricing_plan_id":"cebpf4jnsgd1na2vs0mg"},{"bike_id":"5e5dac88-2958-4a06-9510-bdfbf9cef837","system_id":"levelo_inurba_marseille","lat":43.2718,"lon":5.40987,"is_reserved":false,"is_disabled":false,"rental_uris":{"android":"levelo://app?vid=5e5dac88-2958-4a06-9510-bdfbf9cef837","ios":"levelo://app?vid=5e5dac88-2958-4a06-9510-bdfbf9cef837"},"vehicle_type_id":"4","last_reported":1748207303,"current_range_meters":10800,"station_id":"ce4bhl12rcd13ifvqgf0","pricing_plan_id":"cebpf4jnsgd1na2vs0mg"},{"bike_id":"91379728-999b-4ed9-94e3-432af892db68","system_id":"levelo_inurba_marseille","lat":43.31991,"lon":5.38146,"is_reserved":false,"is_disabled":false,"rental_uris":{"android":"levelo://app?vid=91379728-999b-4ed9-94e3-432af892db68","ios":"levelo://app?vid=91379728-999b-4ed9-94e3-432af892db68"},"vehicle_type_id":"4","last_reported":1748207303,"current_range_meters":10800,"station_id":"ce4bhr12rcd13ifvqhpg","pricing_plan_id":"cebpf4jnsgd1na2vs0mg"},{"bike_id":"ebcfcb73-45fd-4538-a1a0-b74a531cfee6","system_id":"levelo_inurba_marseille","lat":43.30149,"lon":5.37402,"is_reserved":false,"is_disabled":false,"rental_uris":{"android":"levelo://app?vid=ebcfcb73-45fd-4538-a1a0-b74a531cfee6","ios":"levelo://app?vid=ebcfcb73-45fd-4538-a1a0-b74a531cfee6"},"vehicle_type_id":"4","last_reported":1748207303,"current_range_meters":10800,"station_id":"ce4bgs92rcd13ifvqcc0","pricing_plan_id":"cebpf4jnsgd1na2vs0mg"},{"bike_id":"473cdad8-e86f-436c-900c-612ff8b20c12","system_id":"levelo_inurba_marseille","lat":43.31703,"lon":5.43687,"is_reserved":false,"is_disabled":true,"rental_uris":{"android":"levelo://app?vid=473cdad8-e86f-436c-900c-612ff8b20c12","ios":"levelo://app?vid=473cdad8-e86f-436c-900c-612ff8b20c12"},"vehicle_type_id":"4","last_reported":1748207303,"current_range_meters":10800,"station_id":"ce4bhp92rcd13ifvqhcg","pricing_plan_id":"cebpf4jnsgd1na2vs0mg"},{"bike_id":"c21b5d98-b9d1-4130-aff5-50fd5aabf508","system_id":"levelo_inurba_marseille","lat":43.29101,"lon":5.3813,"is_reserved":false,"is_disabled":false,"rental_uris":{"android":"levelo://app?vid=c21b5d98-b9d1-4130-aff5-50fd5aabf508","ios":"levelo://app?vid=c21b5d98-b9d1-4130-aff5-50fd5aabf508"},"vehicle_type_id":"4","last_reported":1748207303,"current_range_meters":10000,"station_id":"ce4bh512rcd13ifvqe2g","pricing_plan_id":"cebpf4jnsgd1na2vs0mg"},{"bike_id":"81a25691-2e0e-483b-bd13-7db2d409a689","system_id":"levelo_inurba_marseille","lat":43.31495,"lon":5.3728,"is_reserved":false,"is_disabled":false,"rental_uris":{"android":"levelo://app?vid=81a25691-2e0e-483b-bd13-7db2d409a689","ios":"levelo://app?vid=81a25691-2e0e-483b-bd13-7db2d409a689"},"vehicle_type_id":"4","last_reported":1748207303,"current_range_meters":10800,"station_id":"ce4bgt12rcd13ifvqcd0","pricing_plan_id":"cebpf4jnsgd1na2vs0mg"},{"bike_id":"7d3bd24a-e5f9-4754-8ec6-3ba44c9c4f5b","system_id":"levelo_inurba_marseille","lat":43.24815,"lon":5.37457,"is_reserved":false,"is_disabled":true,"rental_uris":{"android":"levelo://app?vid=7d3bd24a-e5f9-4754-8ec6-3ba44c9c4f5b","ios":"levelo://app?vid=7d3bd24a-e5f9-4754-8ec6-3ba44c9c4f5b"},"vehicle_type_id":"4","last_reported":1748207303,"current_range_meters":10800,"station_id":"ce4bhgh2rcd13ifvqfb0","pricing_plan_id":"cebpf4jnsgd1na2vs0mg"},{"bike_id":"78084e65-0f8a-4a63-bf1c-3fbde80b370d","system_id":"levelo_inurba_marseille","lat":43.29449,"lon":5.43375,"is_reserved":false,"is_disabled":true,"rental_uris":{"android":"levelo://app?vid=78084e65-0f8a-4a63-bf1c-3fbde80b370d","ios":"levelo://app?vid=78084e65-0f8a-4a63-bf1c-3fbde80b370d"},"vehicle_type_id":"4","last_reported":1748207303,"current_range_meters":10800,"station_id":"","pricing_plan_id":"cebpf4jnsgd1na2vs0mg"},{"bike_id":"8c24a1cc-9755-4ef3-aee7-aeff472999dc","system_id":"levelo_inurba_marseille","lat":43.28256,"lon":5.35051,"is_reserved":false,"is_disabled":true,"rental_uris":{"android":"levelo://app?vid=8c24a1cc-9755-4ef3-aee7-aeff472999dc","ios":"levelo://app?vid=8c24a1cc-9755-4ef3-aee7-aeff472999dc"},"vehicle_type_id":"4","last_reported":1748207303,"current_range_meters":10800,"station_id":"ce4bhbp2rcd13ifvqerg","pricing_plan_id":"cebpf4jnsgd1na2vs0mg"},{"bike_id":"f6d9f9c7-48a6-477b-be9d-e0c2a4dc6895","system_id":"levelo_inurba_marseille","lat":43.28567,"lon":5.39471,"is_reserved":false,"is_disabled":false,"rental_uris":{"android":"levelo://app?vid=f6d9f9c7-48a6-477b-be9d-e0c2a4dc6895","ios":"levelo://app?vid=f6d9f9c7-48a6-477b-be9d-e0c2a4dc6895"},"vehicle_type_id":"4","last_reported":1748207303,"current_range_meters":10800,"station_id":"ce4bh292rcd13ifvqdg0","pricing_plan_id":"cebpf4jnsgd1na2vs0mg"},{"bike_id":"d92d366f-d5c5-4b61-83d7-55780dcf73d4","system_id":"levelo_inurba_marseille","lat":43.29716,"lon":5.36585,"is_reserved":false,"is_disabled":false,"rental_uris":{"android":"levelo://app?vid=d92d366f-d5c5-4b61-83d7-55780dcf73d4","ios":"levelo://app?vid=d92d366f-d5c5-4b61-83d7-55780dcf73d4"},"vehicle_type_id":"4","last_reported":1748207303,"current_range_meters":10800,"station_id":"ce4bgn12rcd13ifvqbt0","pricing_plan_id":"cebpf4jnsgd1na2vs0mg"},{"bike_id":"e26aa2b0-7df1-45dc-93f0-8478476038dc","system_id":"levelo_inurba_marseille","lat":43.27073,"lon":5.422713,"is_reserved":false,"is_disabled":false,"rental_uris":{"android":"levelo://app?vid=e26aa2b0-7df1-45dc-93f0-8478476038dc","ios":"levelo://app?vid=e26aa2b0-7df1-45dc-93f0-8478476038dc"},"vehicle_type_id":"4","last_reported":1748207303,"current_range_meters":11200,"station_id":"ce4bhk92rcd13ifvqgb0","pricing_plan_id":"cebpf4jnsgd1na2vs0mg"},{"bike_id":"83ad7a20-5e0f-4da6-b016-33ad483df1ae","system_id":"levelo_inurba_marseille","lat":43.30785,"lon":5.37712,"is_reserved":false,"is_disabled":false,"rental_uris":{"android":"levelo://app?vid=83ad7a20-5e0f-4da6-b016-33ad483df1ae","ios":"levelo://app?vid=83ad7a20-5e0f-4da6-b016-33ad483df1ae"},"vehicle_type_id":"4","last_reported":1748207303,"current_range_meters":11200,"station_id":"","pricing_plan_id":"cebpf4jnsgd1na2vs0mg"},{"bike_id":"3bf43e97-8f8f-4e30-b0d0-31bd8a7ef83d","system_id":"levelo_inurba_marseille","lat":43.29275,"lon":5.37607,"is_reserved":false,"is_disabled":false,"rental_uris":{"android":"levelo://app?vid=3bf43e97-8f8f-4e30-b0d0-31bd8a7ef83d","ios":"levelo://app?vid=3bf43e97-8f8f-4e30-b0d0-31bd8a7ef83d"},"vehicle_type_id":"4","last_reported":1748207303,"current_range_meters":11200,"station_id":"ce4bgi12rcd13ifvqb80","pricing_plan_id":"cebpf4jnsgd1na2vs0mg"},{"bike_id":"a46a1e93-b38a-420e-a6e8-156a20f5273e","system_id":"levelo_inurba_marseille","lat":43.25117,"lon":5.40318,"is_reserved":false,"is_disabled":false,"rental_uris":{"android":"levelo://app?vid=a46a1e93-b38a-420e-a6e8-156a20f5273e","ios":"levelo://app?vid=a46a1e93-b38a-420e-a6e8-156a20f5273e"},"vehicle_type_id":"4","last_reported":1748207303,"current_range_meters":11600,"station_id":"ce4bhlh2rcd13ifvqgig","pricing_plan_id":"cebpf4jnsgd1na2vs0mg"},{"bike_id":"4ecde69a-3a34-421d-8f3c-6a8fe1837c97","system_id":"levelo_inurba_marseille","lat":43.25717,"lon":5.41103,"is_reserved":false,"is_disabled":false,"rental_uris":{"android":"levelo://app?vid=4ecde69a-3a34-421d-8f3c-6a8fe1837c97","ios":"levelo://app?vid=4ecde69a-3a34-421d-8f3c-6a8fe1837c97"},"vehicle_type_id":"4","last_reported":1748207303,"current_range_meters":11600,"station_id":"ce4bhkp2rcd13ifvqgd0","pricing_plan_id":"cebpf4jnsgd1na2vs0mg"},{"bike_id":"203aa19c-5810-43bb-8440-63b0d6edbf94","system_id":"levelo_inurba_marseille","lat":43.24083,"lon":5.37775,"is_reserved":false,"is_disabled":false,"rental_uris":{"android":"levelo://app?vid=203aa19c-5810-43bb-8440-63b0d6edbf94","ios":"levelo://app?vid=203aa19c-5810-43bb-8440-63b0d6edbf94"},"vehicle_type_id":"4","last_reported":1748207303,"current_range_meters":11600,"station_id":"ce4bhnp2rcd13ifvqgvg","pricing_plan_id":"cebpf4jnsgd1na2vs0mg"},{"bike_id":"f4635071-065e-413f-aebe-b3a3ab00d510","system_id":"levelo_inurba_marseille","lat":43.24182,"lon":5.39732,"is_reserved":false,"is_disabled":false,"rental_uris":{"android":"levelo://app?vid=f4635071-065e-413f-aebe-b3a3ab00d510","ios":"levelo://app?vid=f4635071-065e-413f-aebe-b3a3ab00d510"},"vehicle_type_id":"4","last_reported":1748207303,"current_range_meters":11600,"station_id":"ce4bhn12rcd13ifvqgpg","pricing_plan_id":"cebpf4jnsgd1na2vs0mg"},{"bike_id":"fb8a5899-9381-4f53-ae55-95564e4af8b9","system_id":"levelo_inurba_marseille","lat":43.29282,"lon":5.40114,"is_reserved":false,"is_disabled":false,"rental_uris":{"android":"levelo://app?vid=fb8a5899-9381-4f53-ae55-95564e4af8b9","ios":"levelo://app?vid=fb8a5899-9381-4f53-ae55-95564e4af8b9"},"vehicle_type_id":"4","last_reported":1748207303,"current_range_meters":11600,"station_id":"ce4bh312rcd13ifvqdk0","pricing_plan_id":"cebpf4jnsgd1na2vs0mg"},{"bike_id":"1c5518e4-30cb-4b4c-9212-643350b1f9ec","system_id":"levelo_inurba_marseille","lat":43.29534,"lon":5.39028,"is_reserved":false,"is_disabled":false,"rental_uris":{"android":"levelo://app?vid=1c5518e4-30cb-4b4c-9212-643350b1f9ec","ios":"levelo://app?vid=1c5518e4-30cb-4b4c-9212-643350b1f9ec"},"vehicle_type_id":"4","last_reported":1748207303,"current_range_meters":11600,"station_id":"ce4bh3p2rcd13ifvqdp0","pricing_plan_id":"cebpf4jnsgd1na2vs0mg"},{"bike_id":"fc56555b-396d-4667-b896-0ad86036e39e","system_id":"levelo_inurba_marseille","lat":43.25916,"lon":5.38032,"is_reserved":false,"is_disabled":false,"rental_uris":{"android":"levelo://app?vid=fc56555b-396d-4667-b896-0ad86036e39e","ios":"levelo://app?vid=fc56555b-396d-4667-b896-0ad86036e39e"},"vehicle_type_id":"4","last_reported":1748207303,"current_range_meters":12000,"station_id":"","pricing_plan_id":"cebpf4jnsgd1na2vs0mg"},{"bike_id":"ba8c852d-d218-4446-b96c-d0fe3f7662b6","system_id":"levelo_inurba_marseille","lat":43.28937,"lon":5.36645,"is_reserved":false,"is_disabled":false,"rental_uris":{"android":"levelo://app?vid=ba8c852d-d218-4446-b96c-d0fe3f7662b6","ios":"levelo://app?vid=ba8c852d-d218-4446-b96c-d0fe3f7662b6"},"vehicle_type_id":"4","last_reported":1748207303,"current_range_meters":12000,"station_id":"ce4bhap2rcd13ifvqek0","pricing_plan_id":"cebpf4jnsgd1na2vs0mg"},{"bike_id":"fb14966c-dc81-4839-a094-ab8c755c3e53","system_id":"levelo_inurba_marseille","lat":43.28692,"lon":5.38734,"is_reserved":false,"is_disabled":false,"rental_uris":{"android":"levelo://app?vid=fb14966c-dc81-4839-a094-ab8c755c3e53","ios":"levelo://app?vid=fb14966c-dc81-4839-a094-ab8c755c3e53"},"vehicle_type_id":"4","last_reported":1748207303,"current_range_meters":12000,"station_id":"","pricing_plan_id":"cebpf4jnsgd1na2vs0mg"},{"bike_id":"75f4410e-35a5-433b-9917-b9f478a71d8a","system_id":"levelo_inurba_marseille","lat":43.28398,"lon":5.37517,"is_reserved":false,"is_disabled":false,"rental_uris":{"android":"levelo://app?vid=75f4410e-35a5-433b-9917-b9f478a71d8a","ios":"levelo://app?vid=75f4410e-35a5-433b-9917-b9f478a71d8a"},"vehicle_type_id":"4","last_reported":1748207303,"current_range_meters":12000,"station_id":"ce4bh412rcd13ifvqds0","pricing_plan_id":"cebpf4jnsgd1na2vs0mg"},{"bike_id":"d7d43624-a641-4381-92fc-49cd4e58cb5d","system_id":"levelo_inurba_marseille","lat":43.284199,"lon":5.349981,"is_reserved":false,"is_disabled":true,"rental_uris":{"android":"levelo://app?vid=d7d43624-a641-4381-92fc-49cd4e58cb5d","ios":"levelo://app?vid=d7d43624-a641-4381-92fc-49cd4e58cb5d"},"vehicle_type_id":"4","last_reported":1748207303,"current_range_meters":12400,"station_id":"ce4bhbh2rcd13ifvqepg","pricing_plan_id":"cebpf4jnsgd1na2vs0mg"},{"bike_id":"10b99a23-aa16-4965-928c-9cb3884ababe","system_id":"levelo_inurba_marseille","lat":43.29634,"lon":5.406,"is_reserved":false,"is_disabled":false,"rental_uris":{"android":"levelo://app?vid=10b99a23-aa16-4965-928c-9cb3884ababe","ios":"levelo://app?vid=10b99a23-aa16-4965-928c-9cb3884ababe"},"vehicle_type_id":"4","last_reported":1748207303,"current_range_meters":12400,"station_id":"ce4bh0h2rcd13ifvqd60","pricing_plan_id":"cebpf4jnsgd1na2vs0mg"},{"bike_id":"9fb2bef8-d825-4da2-b6b1-79a9a625a74a","system_id":"levelo_inurba_marseille","lat":43.24782,"lon":5.37435,"is_reserved":false,"is_disabled":false,"rental_uris":{"android":"levelo://app?vid=9fb2bef8-d825-4da2-b6b1-79a9a625a74a","ios":"levelo://app?vid=9fb2bef8-d825-4da2-b6b1-79a9a625a74a"},"vehicle_type_id":"4","last_reported":1748207303,"current_range_meters":12400,"station_id":"ce4bhgh2rcd13ifvqfb0","pricing_plan_id":"cebpf4jnsgd1na2vs0mg"},{"bike_id":"82ada0fe-9ac1-49de-85b0-53cbb4669473","system_id":"levelo_inurba_marseille","lat":43.28706,"lon":5.39991,"is_reserved":false,"is_disabled":false,"rental_uris":{"android":"levelo://app?vid=82ada0fe-9ac1-49de-85b0-53cbb4669473","ios":"levelo://app?vid=82ada0fe-9ac1-49de-85b0-53cbb4669473"},"vehicle_type_id":"4","last_reported":1748207303,"current_range_meters":12400,"station_id":"ce4bho92rcd13ifvqh3g","pricing_plan_id":"cebpf4jnsgd1na2vs0mg"},{"bike_id":"82b7dbca-76e2-48fb-9279-419bd8847b66","system_id":"levelo_inurba_marseille","lat":43.262224,"lon":5.404595,"is_reserved":false,"is_disabled":false,"rental_uris":{"android":"levelo://app?vid=82b7dbca-76e2-48fb-9279-419bd8847b66","ios":"levelo://app?vid=82b7dbca-76e2-48fb-9279-419bd8847b66"},"vehicle_type_id":"4","last_reported":1748207303,"current_range_meters":12400,"station_id":"ce4bhmh2rcd13ifvqgmg","pricing_plan_id":"cebpf4jnsgd1na2vs0mg"},{"bike_id":"079c7469-6271-4a87-bc0c-d5d3c60c4291","system_id":"levelo_inurba_marseille","lat":43.27948,"lon":5.41033,"is_reserved":false,"is_disabled":false,"rental_uris":{"android":"levelo://app?vid=079c7469-6271-4a87-bc0c-d5d3c60c4291","ios":"levelo://app?vid=079c7469-6271-4a87-bc0c-d5d3c60c4291"},"vehicle_type_id":"4","last_reported":1748207303,"current_range_meters":12400,"station_id":"ce4bhnp2rcd13ifvqh0g","pricing_plan_id":"cebpf4jnsgd1na2vs0mg"},{"bike_id":"6a4612f8-d511-472f-9784-e69bac545256","system_id":"levelo_inurba_marseille","lat":43.29036,"lon":5.36637,"is_reserved":false,"is_disabled":false,"rental_uris":{"android":"levelo://app?vid=6a4612f8-d511-472f-9784-e69bac545256","ios":"levelo://app?vid=6a4612f8-d511-472f-9784-e69bac545256"},"vehicle_type_id":"4","last_reported":1748207303,"current_range_meters":12400,"station_id":"","pricing_plan_id":"cebpf4jnsgd1na2vs0mg"},{"bike_id":"06e17948-9eb2-43bd-bbcd-322933b741bc","system_id":"levelo_inurba_marseille","lat":43.27812,"lon":5.40722,"is_reserved":false,"is_disabled":false,"rental_uris":{"android":"levelo://app?vid=06e17948-9eb2-43bd-bbcd-322933b741bc","ios":"levelo://app?vid=06e17948-9eb2-43bd-bbcd-322933b741bc"},"vehicle_type_id":"4","last_reported":1748207303,"current_range_meters":12400,"station_id":"ce4bhnh2rcd13ifvqgtg","pricing_plan_id":"cebpf4jnsgd1na2vs0mg"},{"bike_id":"44e0a32c-3e75-4ca3-b6f4-71e4a5eec80c","system_id":"levelo_inurba_marseille","lat":43.29031,"lon":5.38135,"is_reserved":false,"is_disabled":false,"rental_uris":{"android":"levelo://app?vid=44e0a32c-3e75-4ca3-b6f4-71e4a5eec80c","ios":"levelo://app?vid=44e0a32c-3e75-4ca3-b6f4-71e4a5eec80c"},"vehicle_type_id":"4","last_reported":1748207303,"current_range_meters":12400,"station_id":"ce4bh4p2rcd13ifvqe1g","pricing_plan_id":"cebpf4jnsgd1na2vs0mg"},{"bike_id":"313c99a8-0133-4491-94d1-cc2328055d81","system_id":"levelo_inurba_marseille","lat":43.29787,"lon":5.37091,"is_reserved":false,"is_disabled":false,"rental_uris":{"android":"levelo://app?vid=313c99a8-0133-4491-94d1-cc2328055d81","ios":"levelo://app?vid=313c99a8-0133-4491-94d1-cc2328055d81"},"vehicle_type_id":"4","last_reported":1748207303,"current_range_meters":12400,"station_id":"ce4bgop2rcd13ifvqc1g","pricing_plan_id":"cebpf4jnsgd1na2vs0mg"},{"bike_id":"874fba91-fbda-4288-b17f-8759eec81e80","system_id":"levelo_inurba_marseille","lat":43.27077,"lon":5.42282,"is_reserved":false,"is_disabled":false,"rental_uris":{"android":"levelo://app?vid=874fba91-fbda-4288-b17f-8759eec81e80","ios":"levelo://app?vid=874fba91-fbda-4288-b17f-8759eec81e80"},"vehicle_type_id":"4","last_reported":1748207303,"current_range_meters":12400,"station_id":"ce4bhk92rcd13ifvqgb0","pricing_plan_id":"cebpf4jnsgd1na2vs0mg"},{"bike_id":"14a2c449-41af-4cd1-80ba-5ea0b6210ec5","system_id":"levelo_inurba_marseille","lat":43.29237,"lon":5.36579,"is_reserved":false,"is_disabled":false,"rental_uris":{"android":"levelo://app?vid=14a2c449-41af-4cd1-80ba-5ea0b6210ec5","ios":"levelo://app?vid=14a2c449-41af-4cd1-80ba-5ea0b6210ec5"},"vehicle_type_id":"4","last_reported":1748207303,"current_range_meters":12400,"station_id":"","pricing_plan_id":"cebpf4jnsgd1na2vs0mg"},{"bike_id":"c09f3b14-08e4-4d3e-8e7c-25d11426c4bf","system_id":"levelo_inurba_marseille","lat":43.28814,"lon":5.48233,"is_reserved":false,"is_disabled":true,"rental_uris":{"android":"levelo://app?vid=c09f3b14-08e4-4d3e-8e7c-25d11426c4bf","ios":"levelo://app?vid=c09f3b14-08e4-4d3e-8e7c-25d11426c4bf"},"vehicle_type_id":"4","last_reported":1748207303,"current_range_meters":12400,"station_id":"","pricing_plan_id":"cebpf4jnsgd1na2vs0mg"},{"bike_id":"253b3b17-68d6-420d-8d9a-7767e509688e","system_id":"levelo_inurba_marseille","lat":43.21769,"lon":5.34611,"is_reserved":false,"is_disabled":true,"rental_uris":{"android":"levelo://app?vid=253b3b17-68d6-420d-8d9a-7767e509688e","ios":"levelo://app?vid=253b3b17-68d6-420d-8d9a-7767e509688e"},"vehicle_type_id":"4","last_reported":1748207303,"current_range_meters":12800,"station_id":"st_cvj6r9ubvosntc0bgbag","pricing_plan_id":"cebpf4jnsgd1na2vs0mg"},{"bike_id":"a4aef2b9-b7e8-4e2d-8340-592d28bc6c85","system_id":"levelo_inurba_marseille","lat":43.337582,"lon":5.374479,"is_reserved":false,"is_disabled":false,"rental_uris":{"android":"levelo://app?vid=a4aef2b9-b7e8-4e2d-8340-592d28bc6c85","ios":"levelo://app?vid=a4aef2b9-b7e8-4e2d-8340-592d28bc6c85"},"vehicle_type_id":"4","last_reported":1748207303,"current_range_meters":12800,"station_id":"","pricing_plan_id":"cebpf4jnsgd1na2vs0mg"},{"bike_id":"1dfee792-c42c-4907-b3eb-1eeef94c4523","system_id":"levelo_inurba_marseille","lat":43.29142,"lon":5.42638,"is_reserved":false,"is_disabled":true,"rental_uris":{"android":"levelo://app?vid=1dfee792-c42c-4907-b3eb-1eeef94c4523","ios":"levelo://app?vid=1dfee792-c42c-4907-b3eb-1eeef94c4523"},"vehicle_type_id":"4","last_reported":1748207303,"current_range_meters":12800,"station_id":"","pricing_plan_id":"cebpf4jnsgd1na2vs0mg"},{"bike_id":"3f59e938-32cd-4e08-9741-9a07276877af","system_id":"levelo_inurba_marseille","lat":43.28215,"lon":5.39049,"is_reserved":false,"is_disabled":false,"rental_uris":{"android":"levelo://app?vid=3f59e938-32cd-4e08-9741-9a07276877af","ios":"levelo://app?vid=3f59e938-32cd-4e08-9741-9a07276877af"},"vehicle_type_id":"4","last_reported":1748207303,"current_range_meters":12800,"station_id":"ce4bh492rcd13ifvqdug","pricing_plan_id":"cebpf4jnsgd1na2vs0mg"},{"bike_id":"e5040cc6-5912-44c1-a358-57f34154615c","system_id":"levelo_inurba_marseille","lat":43.28099,"lon":5.38659,"is_reserved":false,"is_disabled":true,"rental_uris":{"android":"levelo://app?vid=e5040cc6-5912-44c1-a358-57f34154615c","ios":"levelo://app?vid=e5040cc6-5912-44c1-a358-57f34154615c"},"vehicle_type_id":"4","last_reported":1748207303,"current_range_meters":12800,"station_id":"","pricing_plan_id":"cebpf4jnsgd1na2vs0mg"},{"bike_id":"54a6569c-fd4e-49da-ad1f-897e60ac161a","system_id":"levelo_inurba_marseille","lat":43.31704,"lon":5.37734,"is_reserved":false,"is_disabled":false,"rental_uris":{"android":"levelo://app?vid=54a6569c-fd4e-49da-ad1f-897e60ac161a","ios":"levelo://app?vid=54a6569c-fd4e-49da-ad1f-897e60ac161a"},"vehicle_type_id":"4","last_reported":1748207303,"current_range_meters":12400,"station_id":"ce4bgth2rcd13ifvqch0","pricing_plan_id":"cebpf4jnsgd1na2vs0mg"},{"bike_id":"6cbaf781-b9b1-4c6f-9079-c3f68f511316","system_id":"levelo_inurba_marseille","lat":43.28701,"lon":5.37405,"is_reserved":false,"is_disabled":false,"rental_uris":{"android":"levelo://app?vid=6cbaf781-b9b1-4c6f-9079-c3f68f511316","ios":"levelo://app?vid=6cbaf781-b9b1-4c6f-9079-c3f68f511316"},"vehicle_type_id":"4","last_reported":1748207303,"current_range_meters":12800,"station_id":"ce4bh3p2rcd13ifvqdq0","pricing_plan_id":"cebpf4jnsgd1na2vs0mg"},{"bike_id":"c6586961-6c76-498d-aa17-e64b6b3660d2","system_id":"levelo_inurba_marseille","lat":43.271,"lon":5.42278,"is_reserved":false,"is_disabled":false,"rental_uris":{"android":"levelo://app?vid=c6586961-6c76-498d-aa17-e64b6b3660d2","ios":"levelo://app?vid=c6586961-6c76-498d-aa17-e64b6b3660d2"},"vehicle_type_id":"4","last_reported":1748207303,"current_range_meters":12800,"station_id":"ce4bhk92rcd13ifvqgb0","pricing_plan_id":"cebpf4jnsgd1na2vs0mg"},{"bike_id":"24a7b961-6b61-496b-a6ba-b8e8b52a21fa","system_id":"levelo_inurba_marseille","lat":43.29737,"lon":5.37675,"is_reserved":false,"is_disabled":false,"rental_uris":{"android":"levelo://app?vid=24a7b961-6b61-496b-a6ba-b8e8b52a21fa","ios":"levelo://app?vid=24a7b961-6b61-496b-a6ba-b8e8b52a21fa"},"vehicle_type_id":"4","last_reported":1748207303,"current_range_meters":12800,"station_id":"ce4bgkh2rcd13ifvqbl0","pricing_plan_id":"cebpf4jnsgd1na2vs0mg"},{"bike_id":"eea78b61-2063-42e5-876f-57b72ee0916e","system_id":"levelo_inurba_marseille","lat":43.30377,"lon":5.42487,"is_reserved":false,"is_disabled":false,"rental_uris":{"android":"levelo://app?vid=eea78b61-2063-42e5-876f-57b72ee0916e","ios":"levelo://app?vid=eea78b61-2063-42e5-876f-57b72ee0916e"},"vehicle_type_id":"4","last_reported":1748207303,"current_range_meters":12800,"station_id":"ce4bhoh2rcd13ifvqh6g","pricing_plan_id":"cebpf4jnsgd1na2vs0mg"},{"bike_id":"530bbe3c-9943-40a0-b2ab-5031f93ebaf7","system_id":"levelo_inurba_marseille","lat":43.28708,"lon":5.37941,"is_reserved":false,"is_disabled":false,"rental_uris":{"android":"levelo://app?vid=530bbe3c-9943-40a0-b2ab-5031f93ebaf7","ios":"levelo://app?vid=530bbe3c-9943-40a0-b2ab-5031f93ebaf7"},"vehicle_type_id":"4","last_reported":1748207303,"current_range_meters":13600,"station_id":"ce4bh9p2rcd13ifvqec0","pricing_plan_id":"cebpf4jnsgd1na2vs0mg"},{"bike_id":"b71e9d86-16c9-4b25-9ec6-30ee88bc8528","system_id":"levelo_inurba_marseille","lat":43.28712,"lon":5.37368,"is_reserved":false,"is_disabled":false,"rental_uris":{"android":"levelo://app?vid=b71e9d86-16c9-4b25-9ec6-30ee88bc8528","ios":"levelo://app?vid=b71e9d86-16c9-4b25-9ec6-30ee88bc8528"},"vehicle_type_id":"4","last_reported":1748207303,"current_range_meters":13600,"station_id":"ce4bh3p2rcd13ifvqdq0","pricing_plan_id":"cebpf4jnsgd1na2vs0mg"},{"bike_id":"b64f9d22-f1ef-44f5-a710-01fe035f75f9","system_id":"levelo_inurba_marseille","lat":43.28027,"lon":5.36944,"is_reserved":false,"is_disabled":false,"rental_uris":{"android":"levelo://app?vid=b64f9d22-f1ef-44f5-a710-01fe035f75f9","ios":"levelo://app?vid=b64f9d22-f1ef-44f5-a710-01fe035f75f9"},"vehicle_type_id":"4","last_reported":1748207303,"current_range_meters":13600,"station_id":"ce4bha12rcd13ifvqef0","pricing_plan_id":"cebpf4jnsgd1na2vs0mg"},{"bike_id":"41d795fd-6b15-4eca-98cc-80356500dbfe","system_id":"levelo_inurba_marseille","lat":43.24175,"lon":5.36392,"is_reserved":false,"is_disabled":true,"rental_uris":{"android":"levelo://app?vid=41d795fd-6b15-4eca-98cc-80356500dbfe","ios":"levelo://app?vid=41d795fd-6b15-4eca-98cc-80356500dbfe"},"vehicle_type_id":"4","last_reported":1748207303,"current_range_meters":13600,"station_id":"cpo36qri1sfpv3e86is0","pricing_plan_id":"cebpf4jnsgd1na2vs0mg"},{"bike_id":"f6c6d614-57aa-42d2-bd57-8b2141b94c79","system_id":"levelo_inurba_marseille","lat":43.25706,"lon":5.41075,"is_reserved":false,"is_disabled":false,"rental_uris":{"android":"levelo://app?vid=f6c6d614-57aa-42d2-bd57-8b2141b94c79","ios":"levelo://app?vid=f6c6d614-57aa-42d2-bd57-8b2141b94c79"},"vehicle_type_id":"4","last_reported":1748207303,"current_range_meters":13600,"station_id":"ce4bhkp2rcd13ifvqgd0","pricing_plan_id":"cebpf4jnsgd1na2vs0mg"},{"bike_id":"56288c2c-f573-4315-86e1-c74a673bbe24","system_id":"levelo_inurba_marseille","lat":43.29714,"lon":5.36608,"is_reserved":false,"is_disabled":false,"rental_uris":{"android":"levelo://app?vid=56288c2c-f573-4315-86e1-c74a673bbe24","ios":"levelo://app?vid=56288c2c-f573-4315-86e1-c74a673bbe24"},"vehicle_type_id":"4","last_reported":1748207303,"current_range_meters":14000,"station_id":"ce4bgn12rcd13ifvqbt0","pricing_plan_id":"cebpf4jnsgd1na2vs0mg"},{"bike_id":"2c2854c1-2316-4744-9622-02cc51a7fc45","system_id":"levelo_inurba_marseille","lat":43.24168,"lon":5.39729,"is_reserved":false,"is_disabled":false,"rental_uris":{"android":"levelo://app?vid=2c2854c1-2316-4744-9622-02cc51a7fc45","ios":"levelo://app?vid=2c2854c1-2316-4744-9622-02cc51a7fc45"},"vehicle_type_id":"4","last_reported":1748207303,"current_range_meters":14000,"station_id":"ce4bhn12rcd13ifvqgpg","pricing_plan_id":"cebpf4jnsgd1na2vs0mg"},{"bike_id":"478fad4c-a8f9-4420-996a-109f538205e9","system_id":"levelo_inurba_marseille","lat":43.28559,"lon":5.394838,"is_reserved":false,"is_disabled":false,"rental_uris":{"android":"levelo://app?vid=478fad4c-a8f9-4420-996a-109f538205e9","ios":"levelo://app?vid=478fad4c-a8f9-4420-996a-109f538205e9"},"vehicle_type_id":"4","last_reported":1748207303,"current_range_meters":14000,"station_id":"ce4bh292rcd13ifvqdg0","pricing_plan_id":"cebpf4jnsgd1na2vs0mg"},{"bike_id":"dc0be607-b270-434d-aea6-794f8af49a0a","system_id":"levelo_inurba_marseille","lat":43.32366,"lon":5.38884,"is_reserved":false,"is_disabled":false,"rental_uris":{"android":"levelo://app?vid=dc0be607-b270-434d-aea6-794f8af49a0a","ios":"levelo://app?vid=dc0be607-b270-434d-aea6-794f8af49a0a"},"vehicle_type_id":"4","last_reported":1748207303,"current_range_meters":14000,"station_id":"ce4bhqp2rcd13ifvqhog","pricing_plan_id":"cebpf4jnsgd1na2vs0mg"},{"bike_id":"770d7625-e164-4732-b38c-e0e240ffa8af","system_id":"levelo_inurba_marseille","lat":43.32341,"lon":5.38886,"is_reserved":false,"is_disabled":false,"rental_uris":{"android":"levelo://app?vid=770d7625-e164-4732-b38c-e0e240ffa8af","ios":"levelo://app?vid=770d7625-e164-4732-b38c-e0e240ffa8af"},"vehicle_type_id":"4","last_reported":1748207303,"current_range_meters":14000,"station_id":"ce4bhqp2rcd13ifvqhog","pricing_plan_id":"cebpf4jnsgd1na2vs0mg"},{"bike_id":"b87df61e-c5e0-4ded-a2aa-600a45f884b8","system_id":"levelo_inurba_marseille","lat":43.28935,"lon":5.36635,"is_reserved":false,"is_disabled":false,"rental_uris":{"android":"levelo://app?vid=b87df61e-c5e0-4ded-a2aa-600a45f884b8","ios":"levelo://app?vid=b87df61e-c5e0-4ded-a2aa-600a45f884b8"},"vehicle_type_id":"4","last_reported":1748207303,"current_range_meters":13600,"station_id":"ce4bhap2rcd13ifvqek0","pricing_plan_id":"cebpf4jnsgd1na2vs0mg"},{"bike_id":"0ac1567d-f449-45bf-bef1-f3a6ddda127c","system_id":"levelo_inurba_marseille","lat":43.28004,"lon":5.40016,"is_reserved":false,"is_disabled":false,"rental_uris":{"android":"levelo://app?vid=0ac1567d-f449-45bf-bef1-f3a6ddda127c","ios":"levelo://app?vid=0ac1567d-f449-45bf-bef1-f3a6ddda127c"},"vehicle_type_id":"4","last_reported":1748207303,"current_range_meters":14000,"station_id":"ce4bho92rcd13ifvqh4g","pricing_plan_id":"cebpf4jnsgd1na2vs0mg"},{"bike_id":"80339a0f-8894-4df8-9875-3aab731875be","system_id":"levelo_inurba_marseille","lat":43.27007,"lon":5.40667,"is_reserved":false,"is_disabled":false,"rental_uris":{"android":"levelo://app?vid=80339a0f-8894-4df8-9875-3aab731875be","ios":"levelo://app?vid=80339a0f-8894-4df8-9875-3aab731875be"},"vehicle_type_id":"4","last_reported":1748207303,"current_range_meters":14400,"station_id":"","pricing_plan_id":"cebpf4jnsgd1na2vs0mg"},{"bike_id":"e89d3ec5-7ce0-47ab-9373-b4034d476e7c","system_id":"levelo_inurba_marseille","lat":43.27835,"lon":5.40727,"is_reserved":false,"is_disabled":false,"rental_uris":{"android":"levelo://app?vid=e89d3ec5-7ce0-47ab-9373-b4034d476e7c","ios":"levelo://app?vid=e89d3ec5-7ce0-47ab-9373-b4034d476e7c"},"vehicle_type_id":"4","last_reported":1748207303,"current_range_meters":14400,"station_id":"ce4bhnh2rcd13ifvqgtg","pricing_plan_id":"cebpf4jnsgd1na2vs0mg"},{"bike_id":"b744080c-dd77-486d-9609-00c9cf60c1ad","system_id":"levelo_inurba_marseille","lat":43.23692,"lon":5.39072,"is_reserved":false,"is_disabled":false,"rental_uris":{"android":"levelo://app?vid=b744080c-dd77-486d-9609-00c9cf60c1ad","ios":"levelo://app?vid=b744080c-dd77-486d-9609-00c9cf60c1ad"},"vehicle_type_id":"4","last_reported":1748207303,"current_range_meters":14400,"station_id":"","pricing_plan_id":"cebpf4jnsgd1na2vs0mg"},{"bike_id":"44c19ffa-ae57-4f0d-9c51-0ada9d8cecd2","system_id":"levelo_inurba_marseille","lat":43.28401,"lon":5.37508,"is_reserved":false,"is_disabled":false,"rental_uris":{"android":"levelo://app?vid=44c19ffa-ae57-4f0d-9c51-0ada9d8cecd2","ios":"levelo://app?vid=44c19ffa-ae57-4f0d-9c51-0ada9d8cecd2"},"vehicle_type_id":"4","last_reported":1748207303,"current_range_meters":14400,"station_id":"ce4bh412rcd13ifvqds0","pricing_plan_id":"cebpf4jnsgd1na2vs0mg"},{"bike_id":"46ce4279-e482-4f1b-b8b3-fcaaac133d04","system_id":"levelo_inurba_marseille","lat":43.32639,"lon":5.41035,"is_reserved":false,"is_disabled":false,"rental_uris":{"android":"levelo://app?vid=46ce4279-e482-4f1b-b8b3-fcaaac133d04","ios":"levelo://app?vid=46ce4279-e482-4f1b-b8b3-fcaaac133d04"},"vehicle_type_id":"4","last_reported":1748207303,"current_range_meters":14800,"station_id":"ce4bhpp2rcd13ifvqhgg","pricing_plan_id":"cebpf4jnsgd1na2vs0mg"},{"bike_id":"04adad7e-15a7-4893-8ef9-1193cc91c9df","system_id":"levelo_inurba_marseille","lat":43.27933,"lon":5.41039,"is_reserved":false,"is_disabled":false,"rental_uris":{"android":"levelo://app?vid=04adad7e-15a7-4893-8ef9-1193cc91c9df","ios":"levelo://app?vid=04adad7e-15a7-4893-8ef9-1193cc91c9df"},"vehicle_type_id":"4","last_reported":1748207303,"current_range_meters":14800,"station_id":"ce4bhnp2rcd13ifvqh0g","pricing_plan_id":"cebpf4jnsgd1na2vs0mg"},{"bike_id":"e00e2700-bc57-4c18-9058-1eaa60412882","system_id":"levelo_inurba_marseille","lat":43.26193,"lon":5.374396,"is_reserved":false,"is_disabled":true,"rental_uris":{"android":"levelo://app?vid=e00e2700-bc57-4c18-9058-1eaa60412882","ios":"levelo://app?vid=e00e2700-bc57-4c18-9058-1eaa60412882"},"vehicle_type_id":"4","last_reported":1748207303,"current_range_meters":14800,"station_id":"ce4bhgp2rcd13ifvqfc0","pricing_plan_id":"cebpf4jnsgd1na2vs0mg"},{"bike_id":"a1cad742-c462-4135-a3f0-0311fa3b7596","system_id":"levelo_inurba_marseille","lat":43.29301,"lon":5.3744,"is_reserved":false,"is_disabled":true,"rental_uris":{"android":"levelo://app?vid=a1cad742-c462-4135-a3f0-0311fa3b7596","ios":"levelo://app?vid=a1cad742-c462-4135-a3f0-0311fa3b7596"},"vehicle_type_id":"4","last_reported":1748207303,"current_range_meters":14800,"station_id":"ce4bgi12rcd13ifvqb70","pricing_plan_id":"cebpf4jnsgd1na2vs0mg"},{"bike_id":"5148f8b2-1ecb-4c76-b37d-928f8d5cde64","system_id":"levelo_inurba_marseille","lat":43.32358,"lon":5.36755,"is_reserved":false,"is_disabled":false,"rental_uris":{"android":"levelo://app?vid=5148f8b2-1ecb-4c76-b37d-928f8d5cde64","ios":"levelo://app?vid=5148f8b2-1ecb-4c76-b37d-928f8d5cde64"},"vehicle_type_id":"4","last_reported":1748207303,"current_range_meters":15200,"station_id":"ce4bhsh2rcd13ifvqi2g","pricing_plan_id":"cebpf4jnsgd1na2vs0mg"},{"bike_id":"5fc9e37e-7ebc-4d1a-abfc-0d0f6cdf88a7","system_id":"levelo_inurba_marseille","lat":43.29451,"lon":5.39748,"is_reserved":false,"is_disabled":false,"rental_uris":{"android":"levelo://app?vid=5fc9e37e-7ebc-4d1a-abfc-0d0f6cdf88a7","ios":"levelo://app?vid=5fc9e37e-7ebc-4d1a-abfc-0d0f6cdf88a7"},"vehicle_type_id":"4","last_reported":1748207303,"current_range_meters":15200,"station_id":"ce4bh3h2rcd13ifvqdo0","pricing_plan_id":"cebpf4jnsgd1na2vs0mg"},{"bike_id":"149da10d-6eaa-4811-88f1-d1dead375b83","system_id":"levelo_inurba_marseille","lat":43.2953,"lon":5.39377,"is_reserved":false,"is_disabled":true,"rental_uris":{"android":"levelo://app?vid=149da10d-6eaa-4811-88f1-d1dead375b83","ios":"levelo://app?vid=149da10d-6eaa-4811-88f1-d1dead375b83"},"vehicle_type_id":"4","last_reported":1748207303,"current_range_meters":16000,"station_id":"ce4bh292rcd13ifvqdf0","pricing_plan_id":"cebpf4jnsgd1na2vs0mg"},{"bike_id":"18ffc3f0-f700-44a6-930b-8675a62b7c62","system_id":"levelo_inurba_marseille","lat":43.30774,"lon":5.3766,"is_reserved":false,"is_disabled":true,"rental_uris":{"android":"levelo://app?vid=18ffc3f0-f700-44a6-930b-8675a62b7c62","ios":"levelo://app?vid=18ffc3f0-f700-44a6-930b-8675a62b7c62"},"vehicle_type_id":"4","last_reported":1748207303,"current_range_meters":16000,"station_id":"ce4bgv92rcd13ifvqcq0","pricing_plan_id":"cebpf4jnsgd1na2vs0mg"},{"bike_id":"f0db987f-7a9b-45df-8e26-1d773e43b6e4","system_id":"levelo_inurba_marseille","lat":43.31714,"lon":5.43692,"is_reserved":false,"is_disabled":false,"rental_uris":{"android":"levelo://app?vid=f0db987f-7a9b-45df-8e26-1d773e43b6e4","ios":"levelo://app?vid=f0db987f-7a9b-45df-8e26-1d773e43b6e4"},"vehicle_type_id":"4","last_reported":1748207303,"current_range_meters":16000,"station_id":"ce4bhp92rcd13ifvqhcg","pricing_plan_id":"cebpf4jnsgd1na2vs0mg"},{"bike_id":"36fa0e2c-281e-441e-847d-b93503ba6146","system_id":"levelo_inurba_marseille","lat":43.28459,"lon":5.35884,"is_reserved":false,"is_disabled":true,"rental_uris":{"android":"levelo://app?vid=36fa0e2c-281e-441e-847d-b93503ba6146","ios":"levelo://app?vid=36fa0e2c-281e-441e-847d-b93503ba6146"},"vehicle_type_id":"4","last_reported":1748207303,"current_range_meters":16000,"station_id":"ce4bhah2rcd13ifvqei0","pricing_plan_id":"cebpf4jnsgd1na2vs0mg"},{"bike_id":"4ef899f0-3200-4631-95b1-dadbaa04c417","system_id":"levelo_inurba_marseille","lat":43.29211,"lon":5.3577,"is_reserved":false,"is_disabled":true,"rental_uris":{"android":"levelo://app?vid=4ef899f0-3200-4631-95b1-dadbaa04c417","ios":"levelo://app?vid=4ef899f0-3200-4631-95b1-dadbaa04c417"},"vehicle_type_id":"4","last_reported":1748207303,"current_range_meters":16000,"station_id":"ce4bhb12rcd13ifvqel0","pricing_plan_id":"cebpf4jnsgd1na2vs0mg"},{"bike_id":"e93e9707-a463-4556-90a9-4a2d7ed89f61","system_id":"levelo_inurba_marseille","lat":43.28552,"lon":5.39482,"is_reserved":false,"is_disabled":false,"rental_uris":{"android":"levelo://app?vid=e93e9707-a463-4556-90a9-4a2d7ed89f61","ios":"levelo://app?vid=e93e9707-a463-4556-90a9-4a2d7ed89f61"},"vehicle_type_id":"4","last_reported":1748207303,"current_range_meters":16000,"station_id":"ce4bh292rcd13ifvqdg0","pricing_plan_id":"cebpf4jnsgd1na2vs0mg"},{"bike_id":"29bff24e-c898-49da-9ffa-90cdf1d535e8","system_id":"levelo_inurba_marseille","lat":43.29564,"lon":5.39408,"is_reserved":false,"is_disabled":true,"rental_uris":{"android":"levelo://app?vid=29bff24e-c898-49da-9ffa-90cdf1d535e8","ios":"levelo://app?vid=29bff24e-c898-49da-9ffa-90cdf1d535e8"},"vehicle_type_id":"4","last_reported":1748207303,"current_range_meters":16000,"station_id":"ce4bh292rcd13ifvqdf0","pricing_plan_id":"cebpf4jnsgd1na2vs0mg"},{"bike_id":"b4f55865-d2c7-4348-8cd8-a5f681fde877","system_id":"levelo_inurba_marseille","lat":43.29584,"lon":5.37499,"is_reserved":false,"is_disabled":true,"rental_uris":{"android":"levelo://app?vid=b4f55865-d2c7-4348-8cd8-a5f681fde877","ios":"levelo://app?vid=b4f55865-d2c7-4348-8cd8-a5f681fde877"},"vehicle_type_id":"4","last_reported":1748207303,"current_range_meters":16000,"station_id":"ce4bgh92rcd13ifvqb50","pricing_plan_id":"cebpf4jnsgd1na2vs0mg"},{"bike_id":"e38b04f7-29c0-43e3-a304-e78ae32b0a4d","system_id":"levelo_inurba_marseille","lat":43.22497,"lon":5.34771,"is_reserved":false,"is_disabled":false,"rental_uris":{"android":"levelo://app?vid=e38b04f7-29c0-43e3-a304-e78ae32b0a4d","ios":"levelo://app?vid=e38b04f7-29c0-43e3-a304-e78ae32b0a4d"},"vehicle_type_id":"4","last_reported":1748207303,"current_range_meters":16000,"station_id":"","pricing_plan_id":"cebpf4jnsgd1na2vs0mg"},{"bike_id":"e6edbb3c-3cca-4f02-b483-734348479651","system_id":"levelo_inurba_marseille","lat":43.28991,"lon":5.36593,"is_reserved":false,"is_disabled":false,"rental_uris":{"android":"levelo://app?vid=e6edbb3c-3cca-4f02-b483-734348479651","ios":"levelo://app?vid=e6edbb3c-3cca-4f02-b483-734348479651"},"vehicle_type_id":"4","last_reported":1748207303,"current_range_meters":16000,"station_id":"","pricing_plan_id":"cebpf4jnsgd1na2vs0mg"},{"bike_id":"0933c912-71a7-4c4c-99b5-ce1daad2643a","system_id":"levelo_inurba_marseille","lat":43.290779,"lon":5.38102,"is_reserved":false,"is_disabled":false,"rental_uris":{"android":"levelo://app?vid=0933c912-71a7-4c4c-99b5-ce1daad2643a","ios":"levelo://app?vid=0933c912-71a7-4c4c-99b5-ce1daad2643a"},"vehicle_type_id":"4","last_reported":1748207303,"current_range_meters":16000,"station_id":"ce4bh512rcd13ifvqe2g","pricing_plan_id":"cebpf4jnsgd1na2vs0mg"},{"bike_id":"35070d47-8864-49c7-a023-dc0cc96b9ab6","system_id":"levelo_inurba_marseille","lat":43.23057,"lon":5.35478,"is_reserved":false,"is_disabled":false,"rental_uris":{"android":"levelo://app?vid=35070d47-8864-49c7-a023-dc0cc96b9ab6","ios":"levelo://app?vid=35070d47-8864-49c7-a023-dc0cc96b9ab6"},"vehicle_type_id":"4","last_reported":1748207303,"current_range_meters":16000,"station_id":"cpo3342slgdg3j2ifvpg","pricing_plan_id":"cebpf4jnsgd1na2vs0mg"},{"bike_id":"1a0998e5-8bb9-474f-a827-53cad24c9e8f","system_id":"levelo_inurba_marseille","lat":43.320459,"lon":5.449444,"is_reserved":false,"is_disabled":false,"rental_uris":{"android":"levelo://app?vid=1a0998e5-8bb9-474f-a827-53cad24c9e8f","ios":"levelo://app?vid=1a0998e5-8bb9-474f-a827-53cad24c9e8f"},"vehicle_type_id":"4","last_reported":1748207303,"current_range_meters":16400,"station_id":"","pricing_plan_id":"cebpf4jnsgd1na2vs0mg"},{"bike_id":"e8178db1-0d62-41c0-863f-2d6170fce649","system_id":"levelo_inurba_marseille","lat":43.30408,"lon":5.39778,"is_reserved":false,"is_disabled":false,"rental_uris":{"android":"levelo://app?vid=e8178db1-0d62-41c0-863f-2d6170fce649","ios":"levelo://app?vid=e8178db1-0d62-41c0-863f-2d6170fce649"},"vehicle_type_id":"4","last_reported":1748207303,"current_range_meters":16400,"station_id":"ce4bh092rcd13ifvqd20","pricing_plan_id":"cebpf4jnsgd1na2vs0mg"},{"bike_id":"ae6e6868-2635-4f49-b7c1-b03759c58ec7","system_id":"levelo_inurba_marseille","lat":43.2729,"lon":5.41603,"is_reserved":false,"is_disabled":false,"rental_uris":{"android":"levelo://app?vid=ae6e6868-2635-4f49-b7c1-b03759c58ec7","ios":"levelo://app?vid=ae6e6868-2635-4f49-b7c1-b03759c58ec7"},"vehicle_type_id":"4","last_reported":1748207303,"current_range_meters":16400,"station_id":"","pricing_plan_id":"cebpf4jnsgd1na2vs0mg"},{"bike_id":"2531383d-4610-4902-9039-3fae65609991","system_id":"levelo_inurba_marseille","lat":43.25087,"lon":5.39529,"is_reserved":false,"is_disabled":false,"rental_uris":{"android":"levelo://app?vid=2531383d-4610-4902-9039-3fae65609991","ios":"levelo://app?vid=2531383d-4610-4902-9039-3fae65609991"},"vehicle_type_id":"4","last_reported":1748207303,"current_range_meters":16400,"station_id":"ce4bhm12rcd13ifvqgkg","pricing_plan_id":"cebpf4jnsgd1na2vs0mg"},{"bike_id":"0518511e-c603-4e70-b2c0-0200eb78e687","system_id":"levelo_inurba_marseille","lat":43.22515,"lon":5.34767,"is_reserved":false,"is_disabled":false,"rental_uris":{"android":"levelo://app?vid=0518511e-c603-4e70-b2c0-0200eb78e687","ios":"levelo://app?vid=0518511e-c603-4e70-b2c0-0200eb78e687"},"vehicle_type_id":"4","last_reported":1748207303,"current_range_meters":16400,"station_id":"st_cvj5dfep6f1abm77gieg","pricing_plan_id":"cebpf4jnsgd1na2vs0mg"},{"bike_id":"91d32573-60eb-4871-92d5-3537fae28e5d","system_id":"levelo_inurba_marseille","lat":43.295275,"lon":5.393965,"is_reserved":false,"is_disabled":false,"rental_uris":{"android":"levelo://app?vid=91d32573-60eb-4871-92d5-3537fae28e5d","ios":"levelo://app?vid=91d32573-60eb-4871-92d5-3537fae28e5d"},"vehicle_type_id":"4","last_reported":1748207303,"current_range_meters":16400,"station_id":"ce4bh292rcd13ifvqdf0","pricing_plan_id":"cebpf4jnsgd1na2vs0mg"},{"bike_id":"1d29480f-5ed7-4039-aa57-2954627b3a43","system_id":"levelo_inurba_marseille","lat":43.31687,"lon":5.40463,"is_reserved":false,"is_disabled":false,"rental_uris":{"android":"levelo://app?vid=1d29480f-5ed7-4039-aa57-2954627b3a43","ios":"levelo://app?vid=1d29480f-5ed7-4039-aa57-2954627b3a43"},"vehicle_type_id":"4","last_reported":1748207303,"current_range_meters":16400,"station_id":"ce4bh012rcd13ifvqd00","pricing_plan_id":"cebpf4jnsgd1na2vs0mg"},{"bike_id":"393bb026-2978-44df-b6d2-3150874b2dc1","system_id":"levelo_inurba_marseille","lat":43.31714,"lon":5.37747,"is_reserved":false,"is_disabled":false,"rental_uris":{"android":"levelo://app?vid=393bb026-2978-44df-b6d2-3150874b2dc1","ios":"levelo://app?vid=393bb026-2978-44df-b6d2-3150874b2dc1"},"vehicle_type_id":"4","last_reported":1748207303,"current_range_meters":16400,"station_id":"ce4bgth2rcd13ifvqch0","pricing_plan_id":"cebpf4jnsgd1na2vs0mg"},{"bike_id":"76dadaf6-6c92-4248-9dcd-254c348349b1","system_id":"levelo_inurba_marseille","lat":43.299885,"lon":5.38495,"is_reserved":false,"is_disabled":false,"rental_uris":{"android":"levelo://app?vid=76dadaf6-6c92-4248-9dcd-254c348349b1","ios":"levelo://app?vid=76dadaf6-6c92-4248-9dcd-254c348349b1"},"vehicle_type_id":"4","last_reported":1748207303,"current_range_meters":16400,"station_id":"ce4bgj92rcd13ifvqbd0","pricing_plan_id":"cebpf4jnsgd1na2vs0mg"},{"bike_id":"6f1c556a-957e-483e-b58e-5e6baa2722a6","system_id":"levelo_inurba_marseille","lat":43.24816,"lon":5.37457,"is_reserved":false,"is_disabled":true,"rental_uris":{"android":"levelo://app?vid=6f1c556a-957e-483e-b58e-5e6baa2722a6","ios":"levelo://app?vid=6f1c556a-957e-483e-b58e-5e6baa2722a6"},"vehicle_type_id":"4","last_reported":1748207303,"current_range_meters":16400,"station_id":"ce4bhgh2rcd13ifvqfb0","pricing_plan_id":"cebpf4jnsgd1na2vs0mg"},{"bike_id":"f8221895-ab5f-46e7-b177-153a00098359","system_id":"levelo_inurba_marseille","lat":43.21756,"lon":5.34597,"is_reserved":false,"is_disabled":true,"rental_uris":{"android":"levelo://app?vid=f8221895-ab5f-46e7-b177-153a00098359","ios":"levelo://app?vid=f8221895-ab5f-46e7-b177-153a00098359"},"vehicle_type_id":"4","last_reported":1748207303,"current_range_meters":16800,"station_id":"st_cvj6r9ubvosntc0bgbag","pricing_plan_id":"cebpf4jnsgd1na2vs0mg"},{"bike_id":"14347fcb-41ca-442d-8f8c-222de35ebc79","system_id":"levelo_inurba_marseille","lat":43.28575,"lon":5.39496,"is_reserved":false,"is_disabled":false,"rental_uris":{"android":"levelo://app?vid=14347fcb-41ca-442d-8f8c-222de35ebc79","ios":"levelo://app?vid=14347fcb-41ca-442d-8f8c-222de35ebc79"},"vehicle_type_id":"4","last_reported":1748207303,"current_range_meters":16800,"station_id":"ce4bh292rcd13ifvqdg0","pricing_plan_id":"cebpf4jnsgd1na2vs0mg"},{"bike_id":"6e939dd4-4064-4467-8fda-44ccbe1c328b","system_id":"levelo_inurba_marseille","lat":43.28397,"lon":5.37527,"is_reserved":false,"is_disabled":false,"rental_uris":{"android":"levelo://app?vid=6e939dd4-4064-4467-8fda-44ccbe1c328b","ios":"levelo://app?vid=6e939dd4-4064-4467-8fda-44ccbe1c328b"},"vehicle_type_id":"4","last_reported":1748207303,"current_range_meters":16800,"station_id":"ce4bh412rcd13ifvqds0","pricing_plan_id":"cebpf4jnsgd1na2vs0mg"},{"bike_id":"bd841f4f-bdf2-42ac-9daa-7aba615eaa19","system_id":"levelo_inurba_marseille","lat":43.280798,"lon":5.396564,"is_reserved":false,"is_disabled":false,"rental_uris":{"android":"levelo://app?vid=bd841f4f-bdf2-42ac-9daa-7aba615eaa19","ios":"levelo://app?vid=bd841f4f-bdf2-42ac-9daa-7aba615eaa19"},"vehicle_type_id":"4","last_reported":1748207303,"current_range_meters":16800,"station_id":"ce4bho12rcd13ifvqh2g","pricing_plan_id":"cebpf4jnsgd1na2vs0mg"},{"bike_id":"1238d8e6-f0c7-43e3-9cd6-fc0ab14bca79","system_id":"levelo_inurba_marseille","lat":43.29977,"lon":5.38485,"is_reserved":false,"is_disabled":true,"rental_uris":{"android":"levelo://app?vid=1238d8e6-f0c7-43e3-9cd6-fc0ab14bca79","ios":"levelo://app?vid=1238d8e6-f0c7-43e3-9cd6-fc0ab14bca79"},"vehicle_type_id":"4","last_reported":1748207303,"current_range_meters":16800,"station_id":"ce4bgj92rcd13ifvqbd0","pricing_plan_id":"cebpf4jnsgd1na2vs0mg"},{"bike_id":"4ae074c0-09dd-434e-b0ee-bbb070da73b1","system_id":"levelo_inurba_marseille","lat":43.3361,"lon":5.41036,"is_reserved":false,"is_disabled":false,"rental_uris":{"android":"levelo://app?vid=4ae074c0-09dd-434e-b0ee-bbb070da73b1","ios":"levelo://app?vid=4ae074c0-09dd-434e-b0ee-bbb070da73b1"},"vehicle_type_id":"4","last_reported":1748207303,"current_range_meters":16800,"station_id":"ce4bhqh2rcd13ifvqhmg","pricing_plan_id":"cebpf4jnsgd1na2vs0mg"},{"bike_id":"39d43419-a25d-4c00-870f-557567326e79","system_id":"levelo_inurba_marseille","lat":43.23195,"lon":5.35547,"is_reserved":false,"is_disabled":false,"rental_uris":{"android":"levelo://app?vid=39d43419-a25d-4c00-870f-557567326e79","ios":"levelo://app?vid=39d43419-a25d-4c00-870f-557567326e79"},"vehicle_type_id":"4","last_reported":1748207303,"current_range_meters":16800,"station_id":"ce4bhu92rcd13ifvqi70","pricing_plan_id":"cebpf4jnsgd1na2vs0mg"},{"bike_id":"e04296ee-4718-4587-b28e-c8de13c956da","system_id":"levelo_inurba_marseille","lat":43.27916,"lon":5.39577,"is_reserved":false,"is_disabled":false,"rental_uris":{"android":"levelo://app?vid=e04296ee-4718-4587-b28e-c8de13c956da","ios":"levelo://app?vid=e04296ee-4718-4587-b28e-c8de13c956da"},"vehicle_type_id":"4","last_reported":1748207303,"current_range_meters":16800,"station_id":"ce4bhf92rcd13ifvqf40","pricing_plan_id":"cebpf4jnsgd1na2vs0mg"},{"bike_id":"81f94c6d-edf9-42cc-b4fa-a0c2cd27e68d","system_id":"levelo_inurba_marseille","lat":43.28077,"lon":5.39648,"is_reserved":false,"is_disabled":false,"rental_uris":{"android":"levelo://app?vid=81f94c6d-edf9-42cc-b4fa-a0c2cd27e68d","ios":"levelo://app?vid=81f94c6d-edf9-42cc-b4fa-a0c2cd27e68d"},"vehicle_type_id":"4","last_reported":1748207303,"current_range_meters":16800,"station_id":"ce4bho12rcd13ifvqh2g","pricing_plan_id":"cebpf4jnsgd1na2vs0mg"},{"bike_id":"eeca29ae-d568-4f21-a94a-5a0e253d7acb","system_id":"levelo_inurba_marseille","lat":43.24805,"lon":5.37454,"is_reserved":false,"is_disabled":false,"rental_uris":{"android":"levelo://app?vid=eeca29ae-d568-4f21-a94a-5a0e253d7acb","ios":"levelo://app?vid=eeca29ae-d568-4f21-a94a-5a0e253d7acb"},"vehicle_type_id":"4","last_reported":1748207303,"current_range_meters":17200,"station_id":"ce4bhgh2rcd13ifvqfb0","pricing_plan_id":"cebpf4jnsgd1na2vs0mg"},{"bike_id":"73c79920-ab44-4f77-acb0-63f79f2414d9","system_id":"levelo_inurba_marseille","lat":43.25598,"lon":5.38256,"is_reserved":false,"is_disabled":false,"rental_uris":{"android":"levelo://app?vid=73c79920-ab44-4f77-acb0-63f79f2414d9","ios":"levelo://app?vid=73c79920-ab44-4f77-acb0-63f79f2414d9"},"vehicle_type_id":"4","last_reported":1748207303,"current_range_meters":17200,"station_id":"ce4bhih2rcd13ifvqfs0","pricing_plan_id":"cebpf4jnsgd1na2vs0mg"},{"bike_id":"49c1dc73-1887-4f54-9192-10595c8ff05c","system_id":"levelo_inurba_marseille","lat":43.25493,"lon":5.37657,"is_reserved":false,"is_disabled":true,"rental_uris":{"android":"levelo://app?vid=49c1dc73-1887-4f54-9192-10595c8ff05c","ios":"levelo://app?vid=49c1dc73-1887-4f54-9192-10595c8ff05c"},"vehicle_type_id":"4","last_reported":1748207303,"current_range_meters":17200,"station_id":"ce4bhh12rcd13ifvqff0","pricing_plan_id":"cebpf4jnsgd1na2vs0mg"},{"bike_id":"01e0f836-7299-4ff5-be26-1a418dd2428c","system_id":"levelo_inurba_marseille","lat":43.30129,"lon":5.39867,"is_reserved":false,"is_disabled":false,"rental_uris":{"android":"levelo://app?vid=01e0f836-7299-4ff5-be26-1a418dd2428c","ios":"levelo://app?vid=01e0f836-7299-4ff5-be26-1a418dd2428c"},"vehicle_type_id":"4","last_reported":1748207303,"current_range_meters":17200,"station_id":"ce4bh0h2rcd13ifvqd40","pricing_plan_id":"cebpf4jnsgd1na2vs0mg"},{"bike_id":"a941fc95-eb72-4af7-9cd4-a0c903970540","system_id":"levelo_inurba_marseille","lat":43.278293,"lon":5.392066,"is_reserved":false,"is_disabled":false,"rental_uris":{"android":"levelo://app?vid=a941fc95-eb72-4af7-9cd4-a0c903970540","ios":"levelo://app?vid=a941fc95-eb72-4af7-9cd4-a0c903970540"},"vehicle_type_id":"4","last_reported":1748207303,"current_range_meters":17200,"station_id":"ce4bhjp2rcd13ifvqga0","pricing_plan_id":"cebpf4jnsgd1na2vs0mg"},{"bike_id":"8c77dbc2-b64e-4a66-81b6-6336c09b5b6e","system_id":"levelo_inurba_marseille","lat":43.31329,"lon":5.39692,"is_reserved":false,"is_disabled":false,"rental_uris":{"android":"levelo://app?vid=8c77dbc2-b64e-4a66-81b6-6336c09b5b6e","ios":"levelo://app?vid=8c77dbc2-b64e-4a66-81b6-6336c09b5b6e"},"vehicle_type_id":"4","last_reported":1748207303,"current_range_meters":17200,"station_id":"ce4bgvp2rcd13ifvqcu0","pricing_plan_id":"cebpf4jnsgd1na2vs0mg"},{"bike_id":"2682c49f-d549-4937-8de8-257d10bbf3ce","system_id":"levelo_inurba_marseille","lat":43.2905,"lon":5.39966,"is_reserved":false,"is_disabled":false,"rental_uris":{"android":"levelo://app?vid=2682c49f-d549-4937-8de8-257d10bbf3ce","ios":"levelo://app?vid=2682c49f-d549-4937-8de8-257d10bbf3ce"},"vehicle_type_id":"4","last_reported":1748207303,"current_range_meters":17200,"station_id":"ce4bh392rcd13ifvqdm0","pricing_plan_id":"cebpf4jnsgd1na2vs0mg"},{"bike_id":"34ffc6fe-38af-4bc3-86c8-742ab3b6ded8","system_id":"levelo_inurba_marseille","lat":43.303236,"lon":5.404447,"is_reserved":false,"is_disabled":true,"rental_uris":{"android":"levelo://app?vid=34ffc6fe-38af-4bc3-86c8-742ab3b6ded8","ios":"levelo://app?vid=34ffc6fe-38af-4bc3-86c8-742ab3b6ded8"},"vehicle_type_id":"4","last_reported":1748207303,"current_range_meters":17200,"station_id":"ce4bh012rcd13ifvqd10","pricing_plan_id":"cebpf4jnsgd1na2vs0mg"},{"bike_id":"c8b9d29a-70ca-400a-8dba-d0d7862b9610","system_id":"levelo_inurba_marseille","lat":43.28003,"lon":5.40009,"is_reserved":false,"is_disabled":false,"rental_uris":{"android":"levelo://app?vid=c8b9d29a-70ca-400a-8dba-d0d7862b9610","ios":"levelo://app?vid=c8b9d29a-70ca-400a-8dba-d0d7862b9610"},"vehicle_type_id":"4","last_reported":1748207303,"current_range_meters":17200,"station_id":"ce4bho92rcd13ifvqh4g","pricing_plan_id":"cebpf4jnsgd1na2vs0mg"},{"bike_id":"02d93c50-d0c3-4eef-97b2-f7b19eca064f","system_id":"levelo_inurba_marseille","lat":43.29011,"lon":5.37236,"is_reserved":false,"is_disabled":true,"rental_uris":{"android":"levelo://app?vid=02d93c50-d0c3-4eef-97b2-f7b19eca064f","ios":"levelo://app?vid=02d93c50-d0c3-4eef-97b2-f7b19eca064f"},"vehicle_type_id":"4","last_reported":1748207303,"current_range_meters":17200,"station_id":"","pricing_plan_id":"cebpf4jnsgd1na2vs0mg"},{"bike_id":"e75ef928-a9ba-4ce4-8bea-2dd6d49b325c","system_id":"levelo_inurba_marseille","lat":43.28417,"lon":5.37519,"is_reserved":false,"is_disabled":false,"rental_uris":{"android":"levelo://app?vid=e75ef928-a9ba-4ce4-8bea-2dd6d49b325c","ios":"levelo://app?vid=e75ef928-a9ba-4ce4-8bea-2dd6d49b325c"},"vehicle_type_id":"4","last_reported":1748207303,"current_range_meters":17200,"station_id":"ce4bh412rcd13ifvqds0","pricing_plan_id":"cebpf4jnsgd1na2vs0mg"},{"bike_id":"6517fd6c-009d-4670-bc07-2d342fb70c0e","system_id":"levelo_inurba_marseille","lat":43.28691,"lon":5.37395,"is_reserved":false,"is_disabled":false,"rental_uris":{"android":"levelo://app?vid=6517fd6c-009d-4670-bc07-2d342fb70c0e","ios":"levelo://app?vid=6517fd6c-009d-4670-bc07-2d342fb70c0e"},"vehicle_type_id":"4","last_reported":1748207303,"current_range_meters":17200,"station_id":"ce4bh3p2rcd13ifvqdq0","pricing_plan_id":"cebpf4jnsgd1na2vs0mg"},{"bike_id":"c406395b-713e-417d-a8de-07db44d202d9","system_id":"levelo_inurba_marseille","lat":43.30642,"lon":5.40101,"is_reserved":false,"is_disabled":false,"rental_uris":{"android":"levelo://app?vid=c406395b-713e-417d-a8de-07db44d202d9","ios":"levelo://app?vid=c406395b-713e-417d-a8de-07db44d202d9"},"vehicle_type_id":"4","last_reported":1748207303,"current_range_meters":17200,"station_id":"ce4bh112rcd13ifvqda0","pricing_plan_id":"cebpf4jnsgd1na2vs0mg"},{"bike_id":"36d76392-6b56-442a-a88c-cd871eaf090c","system_id":"levelo_inurba_marseille","lat":43.30542,"lon":5.39347,"is_reserved":false,"is_disabled":true,"rental_uris":{"android":"levelo://app?vid=36d76392-6b56-442a-a88c-cd871eaf090c","ios":"levelo://app?vid=36d76392-6b56-442a-a88c-cd871eaf090c"},"vehicle_type_id":"4","last_reported":1748207303,"current_range_meters":17600,"station_id":"ce4bh0p2rcd13ifvqd80","pricing_plan_id":"cebpf4jnsgd1na2vs0mg"},{"bike_id":"661ac34d-1c6f-4a26-967e-0883201cb597","system_id":"levelo_inurba_marseille","lat":43.29069,"lon":5.37171,"is_reserved":false,"is_disabled":false,"rental_uris":{"android":"levelo://app?vid=661ac34d-1c6f-4a26-967e-0883201cb597","ios":"levelo://app?vid=661ac34d-1c6f-4a26-967e-0883201cb597"},"vehicle_type_id":"4","last_reported":1748207303,"current_range_meters":17600,"station_id":"ce4bh5p2rcd13ifvqe4g","pricing_plan_id":"cebpf4jnsgd1na2vs0mg"},{"bike_id":"5835b5b0-33f0-4a92-aba8-2d23d2c21e8d","system_id":"levelo_inurba_marseille","lat":43.273748,"lon":5.36245,"is_reserved":false,"is_disabled":true,"rental_uris":{"android":"levelo://app?vid=5835b5b0-33f0-4a92-aba8-2d23d2c21e8d","ios":"levelo://app?vid=5835b5b0-33f0-4a92-aba8-2d23d2c21e8d"},"vehicle_type_id":"4","last_reported":1748207303,"current_range_meters":17600,"station_id":"ce4bhbh2rcd13ifvqeo0","pricing_plan_id":"cebpf4jnsgd1na2vs0mg"},{"bike_id":"9c313a4e-d9db-4ebf-b661-afe8383612ea","system_id":"levelo_inurba_marseille","lat":43.31118,"lon":5.37775,"is_reserved":false,"is_disabled":false,"rental_uris":{"android":"levelo://app?vid=9c313a4e-d9db-4ebf-b661-afe8383612ea","ios":"levelo://app?vid=9c313a4e-d9db-4ebf-b661-afe8383612ea"},"vehicle_type_id":"4","last_reported":1748207303,"current_range_meters":17600,"station_id":"ce4bgt92rcd13ifvqcg0","pricing_plan_id":"cebpf4jnsgd1na2vs0mg"},{"bike_id":"c00abe40-2113-4d29-8e72-a841dce58b38","system_id":"levelo_inurba_marseille","lat":43.285533,"lon":5.385019,"is_reserved":false,"is_disabled":false,"rental_uris":{"android":"levelo://app?vid=c00abe40-2113-4d29-8e72-a841dce58b38","ios":"levelo://app?vid=c00abe40-2113-4d29-8e72-a841dce58b38"},"vehicle_type_id":"4","last_reported":1748207303,"current_range_meters":17600,"station_id":"","pricing_plan_id":"cebpf4jnsgd1na2vs0mg"},{"bike_id":"21e01477-1427-4d05-a65a-71deaa0beff9","system_id":"levelo_inurba_marseille","lat":43.28633,"lon":5.35091,"is_reserved":false,"is_disabled":true,"rental_uris":{"android":"levelo://app?vid=21e01477-1427-4d05-a65a-71deaa0beff9","ios":"levelo://app?vid=21e01477-1427-4d05-a65a-71deaa0beff9"},"vehicle_type_id":"4","last_reported":1748207303,"current_range_meters":17600,"station_id":"ce4bhch2rcd13ifvqeug","pricing_plan_id":"cebpf4jnsgd1na2vs0mg"},{"bike_id":"f5b1aa50-af32-4b67-af03-fc8d46feddb5","system_id":"levelo_inurba_marseille","lat":43.292694,"lon":5.401271,"is_reserved":false,"is_disabled":false,"rental_uris":{"android":"levelo://app?vid=f5b1aa50-af32-4b67-af03-fc8d46feddb5","ios":"levelo://app?vid=f5b1aa50-af32-4b67-af03-fc8d46feddb5"},"vehicle_type_id":"4","last_reported":1748207303,"current_range_meters":17600,"station_id":"","pricing_plan_id":"cebpf4jnsgd1na2vs0mg"},{"bike_id":"a8c5b0ff-6163-4710-85bf-822d6f2322f5","system_id":"levelo_inurba_marseille","lat":43.29848,"lon":5.36283,"is_reserved":false,"is_disabled":true,"rental_uris":{"android":"levelo://app?vid=a8c5b0ff-6163-4710-85bf-822d6f2322f5","ios":"levelo://app?vid=a8c5b0ff-6163-4710-85bf-822d6f2322f5"},"vehicle_type_id":"4","last_reported":1748207303,"current_range_meters":17600,"station_id":"ce4bgpp2rcd13ifvqc3g","pricing_plan_id":"cebpf4jnsgd1na2vs0mg"},{"bike_id":"949664e4-ff0a-4d5d-be33-4d871ee08edc","system_id":"levelo_inurba_marseille","lat":43.23181,"lon":5.39987,"is_reserved":false,"is_disabled":true,"rental_uris":{"android":"levelo://app?vid=949664e4-ff0a-4d5d-be33-4d871ee08edc","ios":"levelo://app?vid=949664e4-ff0a-4d5d-be33-4d871ee08edc"},"vehicle_type_id":"4","last_reported":1748207303,"current_range_meters":17600,"station_id":"ce4bhn12rcd13ifvqgqg","pricing_plan_id":"cebpf4jnsgd1na2vs0mg"},{"bike_id":"a3d7609d-023d-4547-b682-9dd639c4422d","system_id":"levelo_inurba_marseille","lat":43.313828,"lon":5.384882,"is_reserved":false,"is_disabled":true,"rental_uris":{"android":"levelo://app?vid=a3d7609d-023d-4547-b682-9dd639c4422d","ios":"levelo://app?vid=a3d7609d-023d-4547-b682-9dd639c4422d"},