{"last_updated":1717276071,"ttl":30,"version":"2.2","data":{"bikes":[{"bike_id":"15d2391e-c519-42fa-a782-2a5241a81795","system_id":"levelo_inurba_marseille","lat":43.309076,"lon":5.368465,"is_reserved":false,"is_disabled":false,"rental_uris":{"android":"levelo://app?vid=15d2391e-c519-42fa-a782-2a5241a81795","ios":"levelo://app?vid=15d2391e-c519-42fa-a782-2a5241a81795"},"vehicle_type_id":"4","last_reported":1717276071,"current_range_meters":22400,"station_id":"ce4bgn92rcd13ifvqbvg","pricing_plan_id":"cebpf4jnsgd1na2vs0mg"},{"bike_id":"00a400cd-6ad9-444b-91b2-f6562d82bd62","system_id":"levelo_inurba_marseille","lat":43.309076,"lon":5.368465,"is_reserved":false,"is_disabled":false,"rental_uris":{"android":"levelo://app?vid=00a400cd-6ad9-444b-91b2-f6562d82bd62","ios":"levelo://app?vid=00a400cd-6ad9-444b-91b2-f6562d82bd62"},"vehicle_type_id":"4","last_reported":1717276071,"current_range_meters":7200,"station_id":"ce4bgn92rcd13ifvqbvg","pricing_plan_id":"cebpf4jnsgd1na2vs0mg"},{"bike_id":"d48d8a25-9d97-4581-86e7-1ad663459e13","system_id":"levelo_inurba_marseille","lat":43.314811,"lon":5.373103,"is_reserved":false,"is_disabled":false,"rental_uris":{"android":"levelo://app?vid=d48d8a25-9d97-4581-86e7-1ad663459e13","ios":"levelo://app?vid=d48d8a25-9d97-4581-86e7-1ad663459e13"},"vehicle_type_id":"4","last_reported":1717276071,"current_range_meters":10400,"station_id":"ce4bgt12rcd13ifvqcd0","pricing_plan_id":"cebpf4jnsgd1na2vs0mg"},{"bike_id":"f90596e8-4f5d-4016-af37-e6d700bd38a4","system_id":"levelo_inurba_marseille","lat":43.314811,"lon":5.373104,"is_reserved":false,"is_disabled":false,"rental_uris":{"android":"levelo://app?vid=f90596e8-4f5d-4016-af37-e6d700bd38a4","ios":"levelo://app?vid=f90596e8-4f5d-4016-af37-e6d700bd38a4"},"vehicle_type_id":"4","last_reported":1717276071,"current_range_meters":6000,"station_id":"ce4bgt12rcd13ifvqcd0","pricing_plan_id":"cebpf4jnsgd1na2vs0mg"},{"bike_id":"947f3924-bfda-4b6f-ac10-234200de1a28","system_id":"levelo_inurba_marseille","lat":43.309034,"lon":5.371783,"is_reserved":false,"is_disabled":false,"rental_uris":{"android":"levelo://app?vid=947f3924-bfda-4b6f-ac10-234200de1a28","ios":"levelo://app?vid=947f3924-bfda-4b6f-ac10-234200de1a28"},"vehicle_type_id":"4","last_reported":1717276071,"current_range_meters":10000,"station_id":"ce4bguh2rcd13ifvqckg","pricing_plan_id":"cebpf4jnsgd1na2vs0mg"},{"bike_id":"c9514eaf-55f8-41f8-8b23-47b253829b3d","system_id":"levelo_inurba_marseille","lat":43.309034,"lon":5.371783,"is_reserved":false,"is_disabled":false,"rental_uris":{"android":"levelo://app?vid=c9514eaf-55f8-41f8-8b23-47b253829b3d","ios":"levelo://app?vid=c9514eaf-55f8-41f8-8b23-47b253829b3d"},"vehicle_type_id":"4","last_reported":1717276071,"current_range_meters":0,"station_id":"ce4bguh2rcd13ifvqckg","pricing_plan_id":"cebpf4jnsgd1na2vs0mg"},{"bike_id":"3d119167-e222-42a3-a256-fa5e8aba7afc","system_id":"levelo_inurba_marseille","lat":43.309034,"lon":5.371783,"is_reserved":false,"is_disabled":false,"rental_uris":{"android":"levelo://app?vid=3d119167-e222-42a3-a256-fa5e8aba7afc","ios":"levelo://app?vid=3d119167-e222-42a3-a256-fa5e8aba7afc"},"vehicle_type_id":"4","last_reported":1717276071,"current_range_meters":0,"station_id":"ce4bguh2rcd13ifvqckg","pricing_plan_id":"cebpf4jnsgd1na2vs0mg"},{"bike_id":"4d6b9996-ea42-4c9b-bc52-667aaba5be59","system_id":"levelo_inurba_marseille","lat":43.308912,"lon":5.371909,"is_reserved":false,"is_disabled":false,"rental_uris":{"android":"levelo://app?vid=4d6b9996-ea42-4c9b-bc52-667aaba5be59","ios":"levelo://app?vid=4d6b9996-ea42-4c9b-bc52-667aaba5be59"},"vehicle_type_id":"4","last_reported":1717276071,"current_range_meters":4000,"station_id":"ce4bguh2rcd13ifvqckg","pricing_plan_id":"cebpf4jnsgd1na2vs0mg"},{"bike_id":"5c4febbf-e73a-49b2-bcc6-2f56fd4a4bae","system_id":"levelo_inurba_marseille","lat":43.30543,"lon":5.36699,"is_reserved":false,"is_disabled":false,"rental_uris":{"android":"levelo://app?vid=5c4febbf-e73a-49b2-bcc6-2f56fd4a4bae","ios":"levelo://app?vid=5c4febbf-e73a-49b2-bcc6-2f56fd4a4bae"},"vehicle_type_id":"4","last_reported":1717276071,"current_range_meters":16800,"station_id":"ce4bgrp2rcd13ifvqc9g","pricing_plan_id":"cebpf4jnsgd1na2vs0mg"},{"bike_id":"fd0d5ceb-8206-4c54-bcc5-e47c7c4ee0ac","system_id":"levelo_inurba_marseille","lat":43.30541,"lon":5.36708,"is_reserved":false,"is_disabled":false,"rental_uris":{"android":"levelo://app?vid=fd0d5ceb-8206-4c54-bcc5-e47c7c4ee0ac","ios":"levelo://app?vid=fd0d5ceb-8206-4c54-bcc5-e47c7c4ee0ac"},"vehicle_type_id":"4","last_reported":1717276071,"current_range_meters":9600,"station_id":"ce4bgrp2rcd13ifvqc9g","pricing_plan_id":"cebpf4jnsgd1na2vs0mg"},{"bike_id":"ad66bacf-33f5-4943-a7c4-5d26297f0a13","system_id":"levelo_inurba_marseille","lat":43.305368,"lon":5.367343,"is_reserved":false,"is_disabled":false,"rental_uris":{"android":"levelo://app?vid=ad66bacf-33f5-4943-a7c4-5d26297f0a13","ios":"levelo://app?vid=ad66bacf-33f5-4943-a7c4-5d26297f0a13"},"vehicle_type_id":"4","last_reported":1717276071,"current_range_meters":30000,"station_id":"ce4bgrp2rcd13ifvqc9g","pricing_plan_id":"cebpf4jnsgd1na2vs0mg"},{"bike_id":"84a9a96d-45d2-4ce1-b3d5-a8939346f16a","system_id":"levelo_inurba_marseille","lat":43.305368,"lon":5.367343,"is_reserved":false,"is_disabled":false,"rental_uris":{"android":"levelo://app?vid=84a9a96d-45d2-4ce1-b3d5-a8939346f16a","ios":"levelo://app?vid=84a9a96d-45d2-4ce1-b3d5-a8939346f16a"},"vehicle_type_id":"4","last_reported":1717276071,"current_range_meters":31200,"station_id":"ce4bgrp2rcd13ifvqc9g","pricing_plan_id":"cebpf4jnsgd1na2vs0mg"},{"bike_id":"78dfb24f-0a41-40f6-8154-9921a3f46627","system_id":"levelo_inurba_marseille","lat":43.305706,"lon":5.365654,"is_reserved":false,"is_disabled":false,"rental_uris":{"android":"levelo://app?vid=78dfb24f-0a41-40f6-8154-9921a3f46627","ios":"levelo://app?vid=78dfb24f-0a41-40f6-8154-9921a3f46627"},"vehicle_type_id":"4","last_reported":1717276071,"current_range_meters":28400,"station_id":"ce4bgs12rcd13ifvqcag","pricing_plan_id":"cebpf4jnsgd1na2vs0mg"},{"bike_id":"f704c53d-3652-4ebf-838c-c2646a7a5836","system_id":"levelo_inurba_marseille","lat":43.30538,"lon":5.36526,"is_reserved":false,"is_disabled":false,"rental_uris":{"android":"levelo://app?vid=f704c53d-3652-4ebf-838c-c2646a7a5836","ios":"levelo://app?vid=f704c53d-3652-4ebf-838c-c2646a7a5836"},"vehicle_type_id":"4","last_reported":1717276071,"current_range_meters":22000,"station_id":"","pricing_plan_id":"cebpf4jnsgd1na2vs0mg"},{"bike_id":"2dc9c0e3-c47c-4415-b139-00a26681d8b2","system_id":"levelo_inurba_marseille","lat":43.305706,"lon":5.365654,"is_reserved":false,"is_disabled":false,"rental_uris":{"android":"levelo://app?vid=2dc9c0e3-c47c-4415-b139-00a26681d8b2","ios":"levelo://app?vid=2dc9c0e3-c47c-4415-b139-00a26681d8b2"},"vehicle_type_id":"4","last_reported":1717276071,"current_range_meters":29600,"station_id":"ce4bgs12rcd13ifvqcag","pricing_plan_id":"cebpf4jnsgd1na2vs0mg"},{"bike_id":"fa005fb2-4453-42d8-950d-d204c2e0dcbc","system_id":"levelo_inurba_marseille","lat":43.305989,"lon":5.37225,"is_reserved":false,"is_disabled":false,"rental_uris":{"android":"levelo://app?vid=fa005fb2-4453-42d8-950d-d204c2e0dcbc","ios":"levelo://app?vid=fa005fb2-4453-42d8-950d-d204c2e0dcbc"},"vehicle_type_id":"4","last_reported":1717276071,"current_range_meters":17600,"station_id":"ce4bgqh2rcd13ifvqc4g","pricing_plan_id":"cebpf4jnsgd1na2vs0mg"},{"bike_id":"107a5024-5054-4173-9ce0-3e7c0ac5e8ca","system_id":"levelo_inurba_marseille","lat":43.305714,"lon":5.365633,"is_reserved":false,"is_disabled":false,"rental_uris":{"android":"levelo://app?vid=107a5024-5054-4173-9ce0-3e7c0ac5e8ca","ios":"levelo://app?vid=107a5024-5054-4173-9ce0-3e7c0ac5e8ca"},"vehicle_type_id":"4","last_reported":1717276071,"current_range_meters":0,"station_id":"ce4bgs12rcd13ifvqcag","pricing_plan_id":"cebpf4jnsgd1na2vs0mg"},{"bike_id":"c8f08076-492e-4643-8a5e-b549a99cf9e4","system_id":"levelo_inurba_marseille","lat":43.305368,"lon":5.367343,"is_reserved":false,"is_disabled":false,"rental_uris":{"android":"levelo://app?vid=c8f08076-492e-4643-8a5e-b549a99cf9e4","ios":"levelo://app?vid=c8f08076-492e-4643-8a5e-b549a99cf9e4"},"vehicle_type_id":"4","last_reported":1717276071,"current_range_meters":0,"station_id":"ce4bgrp2rcd13ifvqc9g","pricing_plan_id":"cebpf4jnsgd1na2vs0mg"},{"bike_id":"5be0055a-663e-488a-bba5-a53c6c3d6c38","system_id":"levelo_inurba_marseille","lat":43.305368,"lon":5.367343,"is_reserved":false,"is_disabled":false,"rental_uris":{"android":"levelo://app?vid=5be0055a-663e-488a-bba5-a53c6c3d6c38","ios":"levelo://app?vid=5be0055a-663e-488a-bba5-a53c6c3d6c38"},"vehicle_type_id":"4","last_reported":1717276071,"current_range_meters":8000,"station_id":"ce4bgrp2rcd13ifvqc9g","pricing_plan_id":"cebpf4jnsgd1na2vs0mg"},{"bike_id":"38d82875-d3f6-4cc7-8b45-a95d8760d97e","system_id":"levelo_inurba_marseille","lat":43.311125,"lon":5.377624,"is_reserved":false,"is_disabled":false,"rental_uris":{"android":"levelo://app?vid=38d82875-d3f6-4cc7-8b45-a95d8760d97e","ios":"levelo://app?vid=38d82875-d3f6-4cc7-8b45-a95d8760d97e"},"vehicle_type_id":"4","last_reported":1717276071,"current_range_meters":24400,"station_id":"ce4bgt92rcd13ifvqcg0","pricing_plan_id":"cebpf4jnsgd1na2vs0mg"},{"bike_id":"f1c190d8-955e-4bad-882c-39f5d34408ae","system_id":"levelo_inurba_marseille","lat":43.307945,"lon":5.376487,"is_reserved":false,"is_disabled":false,"rental_uris":{"android":"levelo://app?vid=f1c190d8-955e-4bad-882c-39f5d34408ae","ios":"levelo://app?vid=f1c190d8-955e-4bad-882c-39f5d34408ae"},"vehicle_type_id":"4","last_reported":1717276071,"current_range_meters":26000,"station_id":"ce4bgv92rcd13ifvqcq0","pricing_plan_id":"cebpf4jnsgd1na2vs0mg"},{"bike_id":"c580ddb7-0da4-4b76-8bcb-237b53afce2e","system_id":"levelo_inurba_marseille","lat":43.317075,"lon":5.377367,"is_reserved":false,"is_disabled":false,"rental_uris":{"android":"levelo://app?vid=c580ddb7-0da4-4b76-8bcb-237b53afce2e","ios":"levelo://app?vid=c580ddb7-0da4-4b76-8bcb-237b53afce2e"},"vehicle_type_id":"4","last_reported":1717276071,"current_range_meters":19200,"station_id":"ce4bgth2rcd13ifvqch0","pricing_plan_id":"cebpf4jnsgd1na2vs0mg"},{"bike_id":"5712e02d-bbb3-40d2-a7e3-33396b0b2f95","system_id":"levelo_inurba_marseille","lat":43.317075,"lon":5.377367,"is_reserved":false,"is_disabled":false,"rental_uris":{"android":"levelo://app?vid=5712e02d-bbb3-40d2-a7e3-33396b0b2f95","ios":"levelo://app?vid=5712e02d-bbb3-40d2-a7e3-33396b0b2f95"},"vehicle_type_id":"4","last_reported":1717276071,"current_range_meters":28000,"station_id":"ce4bgth2rcd13ifvqch0","pricing_plan_id":"cebpf4jnsgd1na2vs0mg"},{"bike_id":"f2b7fd1f-26f7-48ec-aa59-3657b4611d87","system_id":"levelo_inurba_marseille","lat":43.303246,"lon":5.36895,"is_reserved":false,"is_disabled":false,"rental_uris":{"android":"levelo://app?vid=f2b7fd1f-26f7-48ec-aa59-3657b4611d87","ios":"levelo://app?vid=f2b7fd1f-26f7-48ec-aa59-3657b4611d87"},"vehicle_type_id":"4","last_reported":1717276071,"current_range_meters":30400,"station_id":"ce4bgqh2rcd13ifvqc5g","pricing_plan_id":"cebpf4jnsgd1na2vs0mg"},{"bike_id":"296b2ab3-e48d-43f0-8ab1-740919a0c34a","system_id":"levelo_inurba_marseille","lat":43.303046,"lon":5.368981,"is_reserved":false,"is_disabled":false,"rental_uris":{"android":"levelo://app?vid=296b2ab3-e48d-43f0-8ab1-740919a0c34a","ios":"levelo://app?vid=296b2ab3-e48d-43f0-8ab1-740919a0c34a"},"vehicle_type_id":"4","last_reported":1717276071,"current_range_meters":5200,"station_id":"ce4bgqh2rcd13ifvqc5g","pricing_plan_id":"cebpf4jnsgd1na2vs0mg"},{"bike_id":"fc51ff4e-4e25-4a65-a03a-30430e9ab9a3","system_id":"levelo_inurba_marseille","lat":43.303046,"lon":5.368981,"is_reserved":false,"is_disabled":false,"rental_uris":{"android":"levelo://app?vid=fc51ff4e-4e25-4a65-a03a-30430e9ab9a3","ios":"levelo://app?vid=fc51ff4e-4e25-4a65-a03a-30430e9ab9a3"},"vehicle_type_id":"4","last_reported":1717276071,"current_range_meters":30400,"station_id":"ce4bgqh2rcd13ifvqc5g","pricing_plan_id":"cebpf4jnsgd1na2vs0mg"},{"bike_id":"88a45d72-bad1-439c-9c22-22e5cc2cb649","system_id":"levelo_inurba_marseille","lat":43.303046,"lon":5.368981,"is_reserved":false,"is_disabled":false,"rental_uris":{"android":"levelo://app?vid=88a45d72-bad1-439c-9c22-22e5cc2cb649","ios":"levelo://app?vid=88a45d72-bad1-439c-9c22-22e5cc2cb649"},"vehicle_type_id":"4","last_reported":1717276071,"current_range_meters":24000,"station_id":"ce4bgqh2rcd13ifvqc5g","pricing_plan_id":"cebpf4jnsgd1na2vs0mg"},{"bike_id":"3ea6f319-3598-4663-a128-0d090ead6b3e","system_id":"levelo_inurba_marseille","lat":43.303046,"lon":5.368981,"is_reserved":false,"is_disabled":false,"rental_uris":{"android":"levelo://app?vid=3ea6f319-3598-4663-a128-0d090ead6b3e","ios":"levelo://app?vid=3ea6f319-3598-4663-a128-0d090ead6b3e"},"vehicle_type_id":"4","last_reported":1717276071,"current_range_meters":8000,"station_id":"ce4bgqh2rcd13ifvqc5g","pricing_plan_id":"cebpf4jnsgd1na2vs0mg"},{"bike_id":"12028110-d831-4941-a726-f7ed94749a4c","system_id":"levelo_inurba_marseille","lat":43.303046,"lon":5.368981,"is_reserved":false,"is_disabled":false,"rental_uris":{"android":"levelo://app?vid=12028110-d831-4941-a726-f7ed94749a4c","ios":"levelo://app?vid=12028110-d831-4941-a726-f7ed94749a4c"},"vehicle_type_id":"4","last_reported":1717276071,"current_range_meters":8000,"station_id":"ce4bgqh2rcd13ifvqc5g","pricing_plan_id":"cebpf4jnsgd1na2vs0mg"},{"bike_id":"86e85013-e854-4a6d-90f8-3a5ca47ef07d","system_id":"levelo_inurba_marseille","lat":43.303046,"lon":5.368981,"is_reserved":false,"is_disabled":false,"rental_uris":{"android":"levelo://app?vid=86e85013-e854-4a6d-90f8-3a5ca47ef07d","ios":"levelo://app?vid=86e85013-e854-4a6d-90f8-3a5ca47ef07d"},"vehicle_type_id":"4","last_reported":1717276071,"current_range_meters":26800,"station_id":"ce4bgqh2rcd13ifvqc5g","pricing_plan_id":"cebpf4jnsgd1na2vs0mg"},{"bike_id":"1617c91b-7def-4b51-a6f9-4d5ab34f3ea5","system_id":"levelo_inurba_marseille","lat":43.303046,"lon":5.368981,"is_reserved":false,"is_disabled":false,"rental_uris":{"android":"levelo://app?vid=1617c91b-7def-4b51-a6f9-4d5ab34f3ea5","ios":"levelo://app?vid=1617c91b-7def-4b51-a6f9-4d5ab34f3ea5"},"vehicle_type_id":"4","last_reported":1717276071,"current_range_meters":24000,"station_id":"ce4bgqh2rcd13ifvqc5g","pricing_plan_id":"cebpf4jnsgd1na2vs0mg"},{"bike_id":"edf08383-54fc-4ecc-ae9f-3f29f0731c69","system_id":"levelo_inurba_marseille","lat":43.301939,"lon":5.366286,"is_reserved":false,"is_disabled":false,"rental_uris":{"android":"levelo://app?vid=edf08383-54fc-4ecc-ae9f-3f29f0731c69","ios":"levelo://app?vid=edf08383-54fc-4ecc-ae9f-3f29f0731c69"},"vehicle_type_id":"4","last_reported":1717276071,"current_range_meters":6800,"station_id":"ce4bgrh2rcd13ifvqc8g","pricing_plan_id":"cebpf4jnsgd1na2vs0mg"},{"bike_id":"246d3919-2745-418e-ae5b-1b63ddec2f26","system_id":"levelo_inurba_marseille","lat":43.303046,"lon":5.368981,"is_reserved":false,"is_disabled":false,"rental_uris":{"android":"levelo://app?vid=246d3919-2745-418e-ae5b-1b63ddec2f26","ios":"levelo://app?vid=246d3919-2745-418e-ae5b-1b63ddec2f26"},"vehicle_type_id":"4","last_reported":1717276071,"current_range_meters":22800,"station_id":"ce4bgqh2rcd13ifvqc5g","pricing_plan_id":"cebpf4jnsgd1na2vs0mg"},{"bike_id":"8e8ef016-9778-480b-9a19-aec94a4bdcc4","system_id":"levelo_inurba_marseille","lat":43.315289,"lon":5.380349,"is_reserved":false,"is_disabled":false,"rental_uris":{"android":"levelo://app?vid=8e8ef016-9778-480b-9a19-aec94a4bdcc4","ios":"levelo://app?vid=8e8ef016-9778-480b-9a19-aec94a4bdcc4"},"vehicle_type_id":"4","last_reported":1717276071,"current_range_meters":28400,"station_id":"ce4bhsp2rcd13ifvqi50","pricing_plan_id":"cebpf4jnsgd1na2vs0mg"},{"bike_id":"adc29550-4728-43ed-8386-b2445158cb95","system_id":"levelo_inurba_marseille","lat":43.315293,"lon":5.380349,"is_reserved":false,"is_disabled":false,"rental_uris":{"android":"levelo://app?vid=adc29550-4728-43ed-8386-b2445158cb95","ios":"levelo://app?vid=adc29550-4728-43ed-8386-b2445158cb95"},"vehicle_type_id":"4","last_reported":1717276071,"current_range_meters":0,"station_id":"ce4bhsp2rcd13ifvqi50","pricing_plan_id":"cebpf4jnsgd1na2vs0mg"},{"bike_id":"34fab2a2-a379-4135-9b4f-a183f4eee736","system_id":"levelo_inurba_marseille","lat":43.315289,"lon":5.380349,"is_reserved":false,"is_disabled":false,"rental_uris":{"android":"levelo://app?vid=34fab2a2-a379-4135-9b4f-a183f4eee736","ios":"levelo://app?vid=34fab2a2-a379-4135-9b4f-a183f4eee736"},"vehicle_type_id":"4","last_reported":1717276071,"current_range_meters":16000,"station_id":"ce4bhsp2rcd13ifvqi50","pricing_plan_id":"cebpf4jnsgd1na2vs0mg"},{"bike_id":"b8345ab8-1dc5-4e1a-84a7-66ad8549e8d1","system_id":"levelo_inurba_marseille","lat":43.315293,"lon":5.380349,"is_reserved":false,"is_disabled":false,"rental_uris":{"android":"levelo://app?vid=b8345ab8-1dc5-4e1a-84a7-66ad8549e8d1","ios":"levelo://app?vid=b8345ab8-1dc5-4e1a-84a7-66ad8549e8d1"},"vehicle_type_id":"4","last_reported":1717276071,"current_range_meters":12400,"station_id":"ce4bhsp2rcd13ifvqi50","pricing_plan_id":"cebpf4jnsgd1na2vs0mg"},{"bike_id":"0d3c12b6-a3a1-4083-8d8a-e690b41517a0","system_id":"levelo_inurba_marseille","lat":43.308012,"lon":5.381511,"is_reserved":false,"is_disabled":false,"rental_uris":{"android":"levelo://app?vid=0d3c12b6-a3a1-4083-8d8a-e690b41517a0","ios":"levelo://app?vid=0d3c12b6-a3a1-4083-8d8a-e690b41517a0"},"vehicle_type_id":"4","last_reported":1717276071,"current_range_meters":23200,"station_id":"ce4bgt12rcd13ifvqce0","pricing_plan_id":"cebpf4jnsgd1na2vs0mg"},{"bike_id":"338f1975-cddd-4848-ace3-828aa6f8747a","system_id":"levelo_inurba_marseille","lat":43.324771,"lon":5.36557,"is_reserved":false,"is_disabled":false,"rental_uris":{"android":"levelo://app?vid=338f1975-cddd-4848-ace3-828aa6f8747a","ios":"levelo://app?vid=338f1975-cddd-4848-ace3-828aa6f8747a"},"vehicle_type_id":"4","last_reported":1717276071,"current_range_meters":16800,"station_id":"ce4bhs12rcd13ifvqhvg","pricing_plan_id":"cebpf4jnsgd1na2vs0mg"},{"bike_id":"19c1329d-6784-433a-a555-7a163cf4e8a5","system_id":"levelo_inurba_marseille","lat":43.324857,"lon":5.36564,"is_reserved":false,"is_disabled":false,"rental_uris":{"android":"levelo://app?vid=19c1329d-6784-433a-a555-7a163cf4e8a5","ios":"levelo://app?vid=19c1329d-6784-433a-a555-7a163cf4e8a5"},"vehicle_type_id":"4","last_reported":1717276071,"current_range_meters":1600,"station_id":"ce4bhs12rcd13ifvqhvg","pricing_plan_id":"cebpf4jnsgd1na2vs0mg"},{"bike_id":"2e13320d-05d1-42de-b4c7-3f4e68dae6ea","system_id":"levelo_inurba_marseille","lat":43.324771,"lon":5.36557,"is_reserved":false,"is_disabled":false,"rental_uris":{"android":"levelo://app?vid=2e13320d-05d1-42de-b4c7-3f4e68dae6ea","ios":"levelo://app?vid=2e13320d-05d1-42de-b4c7-3f4e68dae6ea"},"vehicle_type_id":"4","last_reported":1717276071,"current_range_meters":17200,"station_id":"ce4bhs12rcd13ifvqhvg","pricing_plan_id":"cebpf4jnsgd1na2vs0mg"},{"bike_id":"dbe762c3-0e34-45a0-8ae5-ba61547cf20a","system_id":"levelo_inurba_marseille","lat":43.324771,"lon":5.36557,"is_reserved":false,"is_disabled":false,"rental_uris":{"android":"levelo://app?vid=dbe762c3-0e34-45a0-8ae5-ba61547cf20a","ios":"levelo://app?vid=dbe762c3-0e34-45a0-8ae5-ba61547cf20a"},"vehicle_type_id":"4","last_reported":1717276071,"current_range_meters":13200,"station_id":"ce4bhs12rcd13ifvqhvg","pricing_plan_id":"cebpf4jnsgd1na2vs0mg"},{"bike_id":"cabcd04c-ced9-41cd-9e1d-fa9fcf753dc2","system_id":"levelo_inurba_marseille","lat":43.31076,"lon":5.38348,"is_reserved":false,"is_disabled":false,"rental_uris":{"android":"levelo://app?vid=cabcd04c-ced9-41cd-9e1d-fa9fcf753dc2","ios":"levelo://app?vid=cabcd04c-ced9-41cd-9e1d-fa9fcf753dc2"},"vehicle_type_id":"4","last_reported":1717276071,"current_range_meters":0,"station_id":"ce4bgv92rcd13ifvqcr0","pricing_plan_id":"cebpf4jnsgd1na2vs0mg"},{"bike_id":"8e576441-1d10-49f4-8d91-c32802f68221","system_id":"levelo_inurba_marseille","lat":43.310804,"lon":5.38359,"is_reserved":false,"is_disabled":false,"rental_uris":{"android":"levelo://app?vid=8e576441-1d10-49f4-8d91-c32802f68221","ios":"levelo://app?vid=8e576441-1d10-49f4-8d91-c32802f68221"},"vehicle_type_id":"4","last_reported":1717276071,"current_range_meters":30000,"station_id":"ce4bgv92rcd13ifvqcr0","pricing_plan_id":"cebpf4jnsgd1na2vs0mg"},{"bike_id":"e29d6ae2-679b-4a9c-95c1-91b20ecf40f9","system_id":"levelo_inurba_marseille","lat":43.31075,"lon":5.38359,"is_reserved":false,"is_disabled":false,"rental_uris":{"android":"levelo://app?vid=e29d6ae2-679b-4a9c-95c1-91b20ecf40f9","ios":"levelo://app?vid=e29d6ae2-679b-4a9c-95c1-91b20ecf40f9"},"vehicle_type_id":"4","last_reported":1717276071,"current_range_meters":3200,"station_id":"ce4bgv92rcd13ifvqcr0","pricing_plan_id":"cebpf4jnsgd1na2vs0mg"},{"bike_id":"7c865707-a5e5-4d1e-bb0f-9e949bfc20d4","system_id":"levelo_inurba_marseille","lat":43.310804,"lon":5.38359,"is_reserved":false,"is_disabled":false,"rental_uris":{"android":"levelo://app?vid=7c865707-a5e5-4d1e-bb0f-9e949bfc20d4","ios":"levelo://app?vid=7c865707-a5e5-4d1e-bb0f-9e949bfc20d4"},"vehicle_type_id":"4","last_reported":1717276071,"current_range_meters":1600,"station_id":"ce4bgv92rcd13ifvqcr0","pricing_plan_id":"cebpf4jnsgd1na2vs0mg"},{"bike_id":"d04fd5fb-b406-4e2e-8104-985e27b5e327","system_id":"levelo_inurba_marseille","lat":43.300456,"lon":5.372283,"is_reserved":false,"is_disabled":false,"rental_uris":{"android":"levelo://app?vid=d04fd5fb-b406-4e2e-8104-985e27b5e327","ios":"levelo://app?vid=d04fd5fb-b406-4e2e-8104-985e27b5e327"},"vehicle_type_id":"4","last_reported":1717276071,"current_range_meters":4400,"station_id":"","pricing_plan_id":"cebpf4jnsgd1na2vs0mg"},{"bike_id":"011e4689-82b6-4da6-8f29-cf62adeb2124","system_id":"levelo_inurba_marseille","lat":43.319935,"lon":5.381699,"is_reserved":false,"is_disabled":false,"rental_uris":{"android":"levelo://app?vid=011e4689-82b6-4da6-8f29-cf62adeb2124","ios":"levelo://app?vid=011e4689-82b6-4da6-8f29-cf62adeb2124"},"vehicle_type_id":"4","last_reported":1717276071,"current_range_meters":24400,"station_id":"ce4bhr12rcd13ifvqhpg","pricing_plan_id":"cebpf4jnsgd1na2vs0mg"},{"bike_id":"a1b324c3-4672-4178-8f46-8f15d360dea8","system_id":"levelo_inurba_marseille","lat":43.30324,"lon":5.37922,"is_reserved":false,"is_disabled":false,"rental_uris":{"android":"levelo://app?vid=a1b324c3-4672-4178-8f46-8f15d360dea8","ios":"levelo://app?vid=a1b324c3-4672-4178-8f46-8f15d360dea8"},"vehicle_type_id":"4","last_reported":1717276071,"current_range_meters":22400,"station_id":"","pricing_plan_id":"cebpf4jnsgd1na2vs0mg"},{"bike_id":"a06248a7-1b4e-43ed-b33c-7322e4f6868a","system_id":"levelo_inurba_marseille","lat":43.313571,"lon":5.384829,"is_reserved":false,"is_disabled":false,"rental_uris":{"android":"levelo://app?vid=a06248a7-1b4e-43ed-b33c-7322e4f6868a","ios":"levelo://app?vid=a06248a7-1b4e-43ed-b33c-7322e4f6868a"},"vehicle_type_id":"4","last_reported":1717276071,"current_range_meters":12000,"station_id":"ce4bgt92rcd13ifvqcf0","pricing_plan_id":"cebpf4jnsgd1na2vs0mg"},{"bike_id":"9315a2b4-5371-403d-b868-71a872b35485","system_id":"levelo_inurba_marseille","lat":43.31363,"lon":5.38487,"is_reserved":false,"is_disabled":false,"rental_uris":{"android":"levelo://app?vid=9315a2b4-5371-403d-b868-71a872b35485","ios":"levelo://app?vid=9315a2b4-5371-403d-b868-71a872b35485"},"vehicle_type_id":"4","last_reported":1717276071,"current_range_meters":18800,"station_id":"","pricing_plan_id":"cebpf4jnsgd1na2vs0mg"},{"bike_id":"9bf5cb3d-0d3d-4e8d-9c97-9bcd61ddd11d","system_id":"levelo_inurba_marseille","lat":43.313571,"lon":5.384829,"is_reserved":false,"is_disabled":false,"rental_uris":{"android":"levelo://app?vid=9bf5cb3d-0d3d-4e8d-9c97-9bcd61ddd11d","ios":"levelo://app?vid=9bf5cb3d-0d3d-4e8d-9c97-9bcd61ddd11d"},"vehicle_type_id":"4","last_reported":1717276071,"current_range_meters":11200,"station_id":"ce4bgt92rcd13ifvqcf0","pricing_plan_id":"cebpf4jnsgd1na2vs0mg"},{"bike_id":"a42ad5e7-49cd-4d36-8e23-cc7a9216f848","system_id":"levelo_inurba_marseille","lat":43.313571,"lon":5.384829,"is_reserved":false,"is_disabled":false,"rental_uris":{"android":"levelo://app?vid=a42ad5e7-49cd-4d36-8e23-cc7a9216f848","ios":"levelo://app?vid=a42ad5e7-49cd-4d36-8e23-cc7a9216f848"},"vehicle_type_id":"4","last_reported":1717276071,"current_range_meters":5200,"station_id":"ce4bgt92rcd13ifvqcf0","pricing_plan_id":"cebpf4jnsgd1na2vs0mg"},{"bike_id":"7c49d9b1-bad5-4be2-84bf-ef0f74f64ab5","system_id":"levelo_inurba_marseille","lat":43.313571,"lon":5.384829,"is_reserved":false,"is_disabled":false,"rental_uris":{"android":"levelo://app?vid=7c49d9b1-bad5-4be2-84bf-ef0f74f64ab5","ios":"levelo://app?vid=7c49d9b1-bad5-4be2-84bf-ef0f74f64ab5"},"vehicle_type_id":"4","last_reported":1717276071,"current_range_meters":21200,"station_id":"ce4bgt92rcd13ifvqcf0","pricing_plan_id":"cebpf4jnsgd1na2vs0mg"},{"bike_id":"167bad1e-765d-4493-8746-ff0ac85c2f5f","system_id":"levelo_inurba_marseille","lat":43.313571,"lon":5.384829,"is_reserved":false,"is_disabled":false,"rental_uris":{"android":"levelo://app?vid=167bad1e-765d-4493-8746-ff0ac85c2f5f","ios":"levelo://app?vid=167bad1e-765d-4493-8746-ff0ac85c2f5f"},"vehicle_type_id":"4","last_reported":1717276071,"current_range_meters":4400,"station_id":"ce4bgt92rcd13ifvqcf0","pricing_plan_id":"cebpf4jnsgd1na2vs0mg"},{"bike_id":"07929b08-d7f5-4a91-be88-9d58f96da63b","system_id":"levelo_inurba_marseille","lat":43.299222,"lon":5.365554,"is_reserved":false,"is_disabled":false,"rental_uris":{"android":"levelo://app?vid=07929b08-d7f5-4a91-be88-9d58f96da63b","ios":"levelo://app?vid=07929b08-d7f5-4a91-be88-9d58f96da63b"},"vehicle_type_id":"4","last_reported":1717276071,"current_range_meters":25200,"station_id":"ce4bgm92rcd13ifvqbr0","pricing_plan_id":"cebpf4jnsgd1na2vs0mg"},{"bike_id":"79ac430e-d213-47f8-84dd-50b61c299625","system_id":"levelo_inurba_marseille","lat":43.299222,"lon":5.365554,"is_reserved":false,"is_disabled":false,"rental_uris":{"android":"levelo://app?vid=79ac430e-d213-47f8-84dd-50b61c299625","ios":"levelo://app?vid=79ac430e-d213-47f8-84dd-50b61c299625"},"vehicle_type_id":"4","last_reported":1717276071,"current_range_meters":23600,"station_id":"ce4bgm92rcd13ifvqbr0","pricing_plan_id":"cebpf4jnsgd1na2vs0mg"},{"bike_id":"767a3109-5a09-44f3-932e-9ef927b0b9c8","system_id":"levelo_inurba_marseille","lat":43.29982,"lon":5.3718,"is_reserved":false,"is_disabled":false,"rental_uris":{"android":"levelo://app?vid=767a3109-5a09-44f3-932e-9ef927b0b9c8","ios":"levelo://app?vid=767a3109-5a09-44f3-932e-9ef927b0b9c8"},"vehicle_type_id":"4","last_reported":1717276071,"current_range_meters":6800,"station_id":"ce4bgr92rcd13ifvqc7g","pricing_plan_id":"cebpf4jnsgd1na2vs0mg"},{"bike_id":"bd52ecd4-2262-47e9-a7c2-6830ae9fd6bd","system_id":"levelo_inurba_marseille","lat":43.299222,"lon":5.365554,"is_reserved":false,"is_disabled":false,"rental_uris":{"android":"levelo://app?vid=bd52ecd4-2262-47e9-a7c2-6830ae9fd6bd","ios":"levelo://app?vid=bd52ecd4-2262-47e9-a7c2-6830ae9fd6bd"},"vehicle_type_id":"4","last_reported":1717276071,"current_range_meters":4800,"station_id":"ce4bgm92rcd13ifvqbr0","pricing_plan_id":"cebpf4jnsgd1na2vs0mg"},{"bike_id":"61e44e42-f746-49ef-af11-29c4b605198d","system_id":"levelo_inurba_marseille","lat":43.299222,"lon":5.365554,"is_reserved":false,"is_disabled":false,"rental_uris":{"android":"levelo://app?vid=61e44e42-f746-49ef-af11-29c4b605198d","ios":"levelo://app?vid=61e44e42-f746-49ef-af11-29c4b605198d"},"vehicle_type_id":"4","last_reported":1717276071,"current_range_meters":6000,"station_id":"ce4bgm92rcd13ifvqbr0","pricing_plan_id":"cebpf4jnsgd1na2vs0mg"},{"bike_id":"880f0668-8dac-4f67-b71b-9064ee51d24c","system_id":"levelo_inurba_marseille","lat":43.29976,"lon":5.37181,"is_reserved":false,"is_disabled":false,"rental_uris":{"android":"levelo://app?vid=880f0668-8dac-4f67-b71b-9064ee51d24c","ios":"levelo://app?vid=880f0668-8dac-4f67-b71b-9064ee51d24c"},"vehicle_type_id":"4","last_reported":1717276071,"current_range_meters":0,"station_id":"ce4bgr92rcd13ifvqc7g","pricing_plan_id":"cebpf4jnsgd1na2vs0mg"},{"bike_id":"1accfd70-7203-454e-8710-c20404b970f6","system_id":"levelo_inurba_marseille","lat":43.299222,"lon":5.365554,"is_reserved":false,"is_disabled":false,"rental_uris":{"android":"levelo://app?vid=1accfd70-7203-454e-8710-c20404b970f6","ios":"levelo://app?vid=1accfd70-7203-454e-8710-c20404b970f6"},"vehicle_type_id":"4","last_reported":1717276071,"current_range_meters":18800,"station_id":"ce4bgm92rcd13ifvqbr0","pricing_plan_id":"cebpf4jnsgd1na2vs0mg"},{"bike_id":"0ad5f6d8-c45c-4ef8-8c48-26a72a3b7faa","system_id":"levelo_inurba_marseille","lat":43.298433,"lon":5.362774,"is_reserved":false,"is_disabled":false,"rental_uris":{"android":"levelo://app?vid=0ad5f6d8-c45c-4ef8-8c48-26a72a3b7faa","ios":"levelo://app?vid=0ad5f6d8-c45c-4ef8-8c48-26a72a3b7faa"},"vehicle_type_id":"4","last_reported":1717276071,"current_range_meters":3600,"station_id":"ce4bgpp2rcd13ifvqc3g","pricing_plan_id":"cebpf4jnsgd1na2vs0mg"},{"bike_id":"f1b79d80-aaaf-489a-a88d-19cc68c6ffaf","system_id":"levelo_inurba_marseille","lat":43.305364,"lon":5.384119,"is_reserved":false,"is_disabled":false,"rental_uris":{"android":"levelo://app?vid=f1b79d80-aaaf-489a-a88d-19cc68c6ffaf","ios":"levelo://app?vid=f1b79d80-aaaf-489a-a88d-19cc68c6ffaf"},"vehicle_type_id":"4","last_reported":1717276071,"current_range_meters":12800,"station_id":"ce4bgg92rcd13ifvqb30","pricing_plan_id":"cebpf4jnsgd1na2vs0mg"},{"bike_id":"15189d6c-abd0-428a-9a6d-697e956e0d09","system_id":"levelo_inurba_marseille","lat":43.30536,"lon":5.38424,"is_reserved":false,"is_disabled":false,"rental_uris":{"android":"levelo://app?vid=15189d6c-abd0-428a-9a6d-697e956e0d09","ios":"levelo://app?vid=15189d6c-abd0-428a-9a6d-697e956e0d09"},"vehicle_type_id":"4","last_reported":1717276071,"current_range_meters":30400,"station_id":"ce4bgg92rcd13ifvqb30","pricing_plan_id":"cebpf4jnsgd1na2vs0mg"},{"bike_id":"7c0279c4-785e-41cc-9875-11b1aa5697b0","system_id":"levelo_inurba_marseille","lat":43.298433,"lon":5.362774,"is_reserved":false,"is_disabled":false,"rental_uris":{"android":"levelo://app?vid=7c0279c4-785e-41cc-9875-11b1aa5697b0","ios":"levelo://app?vid=7c0279c4-785e-41cc-9875-11b1aa5697b0"},"vehicle_type_id":"4","last_reported":1717276071,"current_range_meters":29600,"station_id":"ce4bgpp2rcd13ifvqc3g","pricing_plan_id":"cebpf4jnsgd1na2vs0mg"},{"bike_id":"26a57294-5c98-452c-801d-b90cdf73cf33","system_id":"levelo_inurba_marseille","lat":43.298433,"lon":5.362774,"is_reserved":false,"is_disabled":false,"rental_uris":{"android":"levelo://app?vid=26a57294-5c98-452c-801d-b90cdf73cf33","ios":"levelo://app?vid=26a57294-5c98-452c-801d-b90cdf73cf33"},"vehicle_type_id":"4","last_reported":1717276071,"current_range_meters":21200,"station_id":"ce4bgpp2rcd13ifvqc3g","pricing_plan_id":"cebpf4jnsgd1na2vs0mg"},{"bike_id":"e38181f5-5de7-41ed-8636-04f5f905ae48","system_id":"levelo_inurba_marseille","lat":43.305364,"lon":5.384119,"is_reserved":false,"is_disabled":false,"rental_uris":{"android":"levelo://app?vid=e38181f5-5de7-41ed-8636-04f5f905ae48","ios":"levelo://app?vid=e38181f5-5de7-41ed-8636-04f5f905ae48"},"vehicle_type_id":"4","last_reported":1717276071,"current_range_meters":31200,"station_id":"ce4bgg92rcd13ifvqb30","pricing_plan_id":"cebpf4jnsgd1na2vs0mg"},{"bike_id":"147cc7f6-4970-4429-afba-083869bb2918","system_id":"levelo_inurba_marseille","lat":43.298433,"lon":5.362774,"is_reserved":false,"is_disabled":false,"rental_uris":{"android":"levelo://app?vid=147cc7f6-4970-4429-afba-083869bb2918","ios":"levelo://app?vid=147cc7f6-4970-4429-afba-083869bb2918"},"vehicle_type_id":"4","last_reported":1717276071,"current_range_meters":400,"station_id":"ce4bgpp2rcd13ifvqc3g","pricing_plan_id":"cebpf4jnsgd1na2vs0mg"},{"bike_id":"1722b58d-b1f5-4c33-aa8e-f3eb68fd3fe5","system_id":"levelo_inurba_marseille","lat":43.311722,"lon":5.387247,"is_reserved":false,"is_disabled":false,"rental_uris":{"android":"levelo://app?vid=1722b58d-b1f5-4c33-aa8e-f3eb68fd3fe5","ios":"levelo://app?vid=1722b58d-b1f5-4c33-aa8e-f3eb68fd3fe5"},"vehicle_type_id":"4","last_reported":1717276071,"current_range_meters":4400,"station_id":"ce4bgv12rcd13ifvqcp0","pricing_plan_id":"cebpf4jnsgd1na2vs0mg"},{"bike_id":"af368f0e-aedb-4c95-863c-dd94977f6158","system_id":"levelo_inurba_marseille","lat":43.311722,"lon":5.387247,"is_reserved":false,"is_disabled":false,"rental_uris":{"android":"levelo://app?vid=af368f0e-aedb-4c95-863c-dd94977f6158","ios":"levelo://app?vid=af368f0e-aedb-4c95-863c-dd94977f6158"},"vehicle_type_id":"4","last_reported":1717276071,"current_range_meters":3200,"station_id":"ce4bgv12rcd13ifvqcp0","pricing_plan_id":"cebpf4jnsgd1na2vs0mg"},{"bike_id":"771ba5ee-3f22-44df-bcea-f171dd0e9f38","system_id":"levelo_inurba_marseille","lat":43.311722,"lon":5.387247,"is_reserved":false,"is_disabled":false,"rental_uris":{"android":"levelo://app?vid=771ba5ee-3f22-44df-bcea-f171dd0e9f38","ios":"levelo://app?vid=771ba5ee-3f22-44df-bcea-f171dd0e9f38"},"vehicle_type_id":"4","last_reported":1717276071,"current_range_meters":8000,"station_id":"ce4bgv12rcd13ifvqcp0","pricing_plan_id":"cebpf4jnsgd1na2vs0mg"},{"bike_id":"10fb4334-c940-4455-979b-d3f1ca32e262","system_id":"levelo_inurba_marseille","lat":43.297794,"lon":5.370888,"is_reserved":false,"is_disabled":false,"rental_uris":{"android":"levelo://app?vid=10fb4334-c940-4455-979b-d3f1ca32e262","ios":"levelo://app?vid=10fb4334-c940-4455-979b-d3f1ca32e262"},"vehicle_type_id":"4","last_reported":1717276071,"current_range_meters":29200,"station_id":"ce4bgop2rcd13ifvqc1g","pricing_plan_id":"cebpf4jnsgd1na2vs0mg"},{"bike_id":"5d621dcb-ca59-454e-919e-72a868a31a94","system_id":"levelo_inurba_marseille","lat":43.32292,"lon":5.38246,"is_reserved":false,"is_disabled":false,"rental_uris":{"android":"levelo://app?vid=5d621dcb-ca59-454e-919e-72a868a31a94","ios":"levelo://app?vid=5d621dcb-ca59-454e-919e-72a868a31a94"},"vehicle_type_id":"4","last_reported":1717276071,"current_range_meters":4400,"station_id":"ce4bhr12rcd13ifvqhqg","pricing_plan_id":"cebpf4jnsgd1na2vs0mg"},{"bike_id":"76e6eb83-1b25-4814-8ab5-24fbf614c711","system_id":"levelo_inurba_marseille","lat":43.322872,"lon":5.382756,"is_reserved":false,"is_disabled":false,"rental_uris":{"android":"levelo://app?vid=76e6eb83-1b25-4814-8ab5-24fbf614c711","ios":"levelo://app?vid=76e6eb83-1b25-4814-8ab5-24fbf614c711"},"vehicle_type_id":"4","last_reported":1717276071,"current_range_meters":4800,"station_id":"ce4bhr12rcd13ifvqhqg","pricing_plan_id":"cebpf4jnsgd1na2vs0mg"},{"bike_id":"4edec551-a8f6-4933-a26e-96400b6a7313","system_id":"levelo_inurba_marseille","lat":43.322872,"lon":5.382756,"is_reserved":false,"is_disabled":false,"rental_uris":{"android":"levelo://app?vid=4edec551-a8f6-4933-a26e-96400b6a7313","ios":"levelo://app?vid=4edec551-a8f6-4933-a26e-96400b6a7313"},"vehicle_type_id":"4","last_reported":1717276071,"current_range_meters":23600,"station_id":"ce4bhr12rcd13ifvqhqg","pricing_plan_id":"cebpf4jnsgd1na2vs0mg"},{"bike_id":"c8674664-0329-42f4-a28d-5fe68827d1fa","system_id":"levelo_inurba_marseille","lat":43.32297,"lon":5.38256,"is_reserved":false,"is_disabled":false,"rental_uris":{"android":"levelo://app?vid=c8674664-0329-42f4-a28d-5fe68827d1fa","ios":"levelo://app?vid=c8674664-0329-42f4-a28d-5fe68827d1fa"},"vehicle_type_id":"4","last_reported":1717276071,"current_range_meters":30000,"station_id":"ce4bhr12rcd13ifvqhqg","pricing_plan_id":"cebpf4jnsgd1na2vs0mg"},{"bike_id":"eacc8192-00c5-41ae-9b32-3eae6369f503","system_id":"levelo_inurba_marseille","lat":43.32301,"lon":5.38257,"is_reserved":false,"is_disabled":false,"rental_uris":{"android":"levelo://app?vid=eacc8192-00c5-41ae-9b32-3eae6369f503","ios":"levelo://app?vid=eacc8192-00c5-41ae-9b32-3eae6369f503"},"vehicle_type_id":"4","last_reported":1717276071,"current_range_meters":2800,"station_id":"ce4bhr12rcd13ifvqhqg","pricing_plan_id":"cebpf4jnsgd1na2vs0mg"},{"bike_id":"f27e3382-c395-4c0a-a760-e9e307454899","system_id":"levelo_inurba_marseille","lat":43.322872,"lon":5.382756,"is_reserved":false,"is_disabled":false,"rental_uris":{"android":"levelo://app?vid=f27e3382-c395-4c0a-a760-e9e307454899","ios":"levelo://app?vid=f27e3382-c395-4c0a-a760-e9e307454899"},"vehicle_type_id":"4","last_reported":1717276071,"current_range_meters":19200,"station_id":"ce4bhr12rcd13ifvqhqg","pricing_plan_id":"cebpf4jnsgd1na2vs0mg"},{"bike_id":"a2157597-72e0-465a-9086-faec4f83cfa7","system_id":"levelo_inurba_marseille","lat":43.32289,"lon":5.38279,"is_reserved":false,"is_disabled":false,"rental_uris":{"android":"levelo://app?vid=a2157597-72e0-465a-9086-faec4f83cfa7","ios":"levelo://app?vid=a2157597-72e0-465a-9086-faec4f83cfa7"},"vehicle_type_id":"4","last_reported":1717276071,"current_range_meters":0,"station_id":"ce4bhr12rcd13ifvqhqg","pricing_plan_id":"cebpf4jnsgd1na2vs0mg"},{"bike_id":"a6850727-00b1-4dd8-bb80-3e158c4e1090","system_id":"levelo_inurba_marseille","lat":43.322872,"lon":5.382756,"is_reserved":false,"is_disabled":false,"rental_uris":{"android":"levelo://app?vid=a6850727-00b1-4dd8-bb80-3e158c4e1090","ios":"levelo://app?vid=a6850727-00b1-4dd8-bb80-3e158c4e1090"},"vehicle_type_id":"4","last_reported":1717276071,"current_range_meters":30800,"station_id":"ce4bhr12rcd13ifvqhqg","pricing_plan_id":"cebpf4jnsgd1na2vs0mg"},{"bike_id":"5746eb99-5f2f-4f43-9333-e59787e33f20","system_id":"levelo_inurba_marseille","lat":43.29581,"lon":5.36735,"is_reserved":false,"is_disabled":false,"rental_uris":{"android":"levelo://app?vid=5746eb99-5f2f-4f43-9333-e59787e33f20","ios":"levelo://app?vid=5746eb99-5f2f-4f43-9333-e59787e33f20"},"vehicle_type_id":"4","last_reported":1717276071,"current_range_meters":0,"station_id":"ce4bgph2rcd13ifvqc2g","pricing_plan_id":"cebpf4jnsgd1na2vs0mg"},{"bike_id":"75fe0970-da33-437b-a6ba-0230bb82d396","system_id":"levelo_inurba_marseille","lat":43.296935,"lon":5.376544,"is_reserved":false,"is_disabled":false,"rental_uris":{"android":"levelo://app?vid=75fe0970-da33-437b-a6ba-0230bb82d396","ios":"levelo://app?vid=75fe0970-da33-437b-a6ba-0230bb82d396"},"vehicle_type_id":"4","last_reported":1717276071,"current_range_meters":17600,"station_id":"ce4bgkh2rcd13ifvqbl0","pricing_plan_id":"cebpf4jnsgd1na2vs0mg"},{"bike_id":"32383d83-ad15-4e11-84de-ebfe76b11cb3","system_id":"levelo_inurba_marseille","lat":43.309706,"lon":5.390306,"is_reserved":false,"is_disabled":false,"rental_uris":{"android":"levelo://app?vid=32383d83-ad15-4e11-84de-ebfe76b11cb3","ios":"levelo://app?vid=32383d83-ad15-4e11-84de-ebfe76b11cb3"},"vehicle_type_id":"4","last_reported":1717276071,"current_range_meters":21200,"station_id":"ce4bgup2rcd13ifvqco0","pricing_plan_id":"cebpf4jnsgd1na2vs0mg"},{"bike_id":"c0b104db-c671-4f62-ae4d-6de0bb390db5","system_id":"levelo_inurba_marseille","lat":43.309575,"lon":5.390295,"is_reserved":false,"is_disabled":false,"rental_uris":{"android":"levelo://app?vid=c0b104db-c671-4f62-ae4d-6de0bb390db5","ios":"levelo://app?vid=c0b104db-c671-4f62-ae4d-6de0bb390db5"},"vehicle_type_id":"4","last_reported":1717276071,"current_range_meters":8800,"station_id":"ce4bgup2rcd13ifvqco0","pricing_plan_id":"cebpf4jnsgd1na2vs0mg"},{"bike_id":"d30f856c-3883-4252-afc0-1b0f6a430dbf","system_id":"levelo_inurba_marseille","lat":43.309487,"lon":5.390273,"is_reserved":false,"is_disabled":false,"rental_uris":{"android":"levelo://app?vid=d30f856c-3883-4252-afc0-1b0f6a430dbf","ios":"levelo://app?vid=d30f856c-3883-4252-afc0-1b0f6a430dbf"},"vehicle_type_id":"4","last_reported":1717276071,"current_range_meters":8800,"station_id":"ce4bgup2rcd13ifvqco0","pricing_plan_id":"cebpf4jnsgd1na2vs0mg"},{"bike_id":"3c855c42-8e80-44c0-b255-455d918e6478","system_id":"levelo_inurba_marseille","lat":43.305714,"lon":5.365633,"is_reserved":false,"is_disabled":false,"rental_uris":{"android":"levelo://app?vid=3c855c42-8e80-44c0-b255-455d918e6478","ios":"levelo://app?vid=3c855c42-8e80-44c0-b255-455d918e6478"},"vehicle_type_id":"4","last_reported":1717276071,"current_range_meters":6800,"station_id":"ce4bgs12rcd13ifvqcag","pricing_plan_id":"cebpf4jnsgd1na2vs0mg"},{"bike_id":"c7eaa148-75f3-439a-b22d-07826527a716","system_id":"levelo_inurba_marseille","lat":43.30963,"lon":5.39032,"is_reserved":false,"is_disabled":false,"rental_uris":{"android":"levelo://app?vid=c7eaa148-75f3-439a-b22d-07826527a716","ios":"levelo://app?vid=c7eaa148-75f3-439a-b22d-07826527a716"},"vehicle_type_id":"4","last_reported":1717276071,"current_range_meters":31600,"station_id":"ce4bgup2rcd13ifvqco0","pricing_plan_id":"cebpf4jnsgd1na2vs0mg"},{"bike_id":"6f2f293a-abe9-44f0-a2d5-87137f0258a5","system_id":"levelo_inurba_marseille","lat":43.30954,"lon":5.3903,"is_reserved":false,"is_disabled":false,"rental_uris":{"android":"levelo://app?vid=6f2f293a-abe9-44f0-a2d5-87137f0258a5","ios":"levelo://app?vid=6f2f293a-abe9-44f0-a2d5-87137f0258a5"},"vehicle_type_id":"4","last_reported":1717276071,"current_range_meters":31200,"station_id":"ce4bgup2rcd13ifvqco0","pricing_plan_id":"cebpf4jnsgd1na2vs0mg"},{"bike_id":"594f337d-496e-4e66-a1ba-573fc0a4ee12","system_id":"levelo_inurba_marseille","lat":43.30958,"lon":5.39032,"is_reserved":false,"is_disabled":false,"rental_uris":{"android":"levelo://app?vid=594f337d-496e-4e66-a1ba-573fc0a4ee12","ios":"levelo://app?vid=594f337d-496e-4e66-a1ba-573fc0a4ee12"},"vehicle_type_id":"4","last_reported":1717276071,"current_range_meters":28800,"station_id":"","pricing_plan_id":"cebpf4jnsgd1na2vs0mg"},{"bike_id":"dca13348-89e4-4ecf-90ae-a45d56ce2e2e","system_id":"levelo_inurba_marseille","lat":43.309498,"lon":5.390309,"is_reserved":false,"is_disabled":false,"rental_uris":{"android":"levelo://app?vid=dca13348-89e4-4ecf-90ae-a45d56ce2e2e","ios":"levelo://app?vid=dca13348-89e4-4ecf-90ae-a45d56ce2e2e"},"vehicle_type_id":"4","last_reported":1717276071,"current_range_meters":0,"station_id":"ce4bgup2rcd13ifvqco0","pricing_plan_id":"cebpf4jnsgd1na2vs0mg"},{"bike_id":"b6527a7e-fddc-4632-8617-04ca95718000","system_id":"levelo_inurba_marseille","lat":43.309581,"lon":5.390336,"is_reserved":false,"is_disabled":false,"rental_uris":{"android":"levelo://app?vid=b6527a7e-fddc-4632-8617-04ca95718000","ios":"levelo://app?vid=b6527a7e-fddc-4632-8617-04ca95718000"},"vehicle_type_id":"4","last_reported":1717276071,"current_range_meters":30800,"station_id":"ce4bgup2rcd13ifvqco0","pricing_plan_id":"cebpf4jnsgd1na2vs0mg"},{"bike_id":"89eac2b3-0967-4003-8443-9c25e98bcf74","system_id":"levelo_inurba_marseille","lat":43.30954,"lon":5.39033,"is_reserved":false,"is_disabled":false,"rental_uris":{"android":"levelo://app?vid=89eac2b3-0967-4003-8443-9c25e98bcf74","ios":"levelo://app?vid=89eac2b3-0967-4003-8443-9c25e98bcf74"},"vehicle_type_id":"4","last_reported":1717276071,"current_range_meters":0,"station_id":"ce4bgup2rcd13ifvqco0","pricing_plan_id":"cebpf4jnsgd1na2vs0mg"},{"bike_id":"469758f4-fe04-4100-8e8a-20f5c212c0de","system_id":"levelo_inurba_marseille","lat":43.30964,"lon":5.39036,"is_reserved":false,"is_disabled":false,"rental_uris":{"android":"levelo://app?vid=469758f4-fe04-4100-8e8a-20f5c212c0de","ios":"levelo://app?vid=469758f4-fe04-4100-8e8a-20f5c212c0de"},"vehicle_type_id":"4","last_reported":1717276071,"current_range_meters":23200,"station_id":"ce4bgup2rcd13ifvqco0","pricing_plan_id":"cebpf4jnsgd1na2vs0mg"},{"bike_id":"f9a9d808-5a5c-48c3-95c8-8495cdc8680b","system_id":"levelo_inurba_marseille","lat":43.309589,"lon":5.390258,"is_reserved":false,"is_disabled":false,"rental_uris":{"android":"levelo://app?vid=f9a9d808-5a5c-48c3-95c8-8495cdc8680b","ios":"levelo://app?vid=f9a9d808-5a5c-48c3-95c8-8495cdc8680b"},"vehicle_type_id":"4","last_reported":1717276071,"current_range_meters":24800,"station_id":"ce4bgup2rcd13ifvqco0","pricing_plan_id":"cebpf4jnsgd1na2vs0mg"},{"bike_id":"df9a393a-4157-4bb4-ae5e-078fb9f0ca74","system_id":"levelo_inurba_marseille","lat":43.30964,"lon":5.390435,"is_reserved":false,"is_disabled":false,"rental_uris":{"android":"levelo://app?vid=df9a393a-4157-4bb4-ae5e-078fb9f0ca74","ios":"levelo://app?vid=df9a393a-4157-4bb4-ae5e-078fb9f0ca74"},"vehicle_type_id":"4","last_reported":1717276071,"current_range_meters":26800,"station_id":"ce4bgup2rcd13ifvqco0","pricing_plan_id":"cebpf4jnsgd1na2vs0mg"},{"bike_id":"09955b94-9e06-4cbf-9924-42cb428216e3","system_id":"levelo_inurba_marseille","lat":43.317557,"lon":5.390173,"is_reserved":false,"is_disabled":false,"rental_uris":{"android":"levelo://app?vid=09955b94-9e06-4cbf-9924-42cb428216e3","ios":"levelo://app?vid=09955b94-9e06-4cbf-9924-42cb428216e3"},"vehicle_type_id":"4","last_reported":1717276071,"current_range_meters":8800,"station_id":"ce4bhqp2rcd13ifvqhng","pricing_plan_id":"cebpf4jnsgd1na2vs0mg"},{"bike_id":"9bd953af-0bf9-4abc-803b-31fa429c362e","system_id":"levelo_inurba_marseille","lat":43.317557,"lon":5.390173,"is_reserved":false,"is_disabled":false,"rental_uris":{"android":"levelo://app?vid=9bd953af-0bf9-4abc-803b-31fa429c362e","ios":"levelo://app?vid=9bd953af-0bf9-4abc-803b-31fa429c362e"},"vehicle_type_id":"4","last_reported":1717276071,"current_range_meters":9200,"station_id":"ce4bhqp2rcd13ifvqhng","pricing_plan_id":"cebpf4jnsgd1na2vs0mg"},{"bike_id":"253b5cce-7b20-442e-934c-45e84c2a900c","system_id":"levelo_inurba_marseille","lat":43.317557,"lon":5.390173,"is_reserved":false,"is_disabled":false,"rental_uris":{"android":"levelo://app?vid=253b5cce-7b20-442e-934c-45e84c2a900c","ios":"levelo://app?vid=253b5cce-7b20-442e-934c-45e84c2a900c"},"vehicle_type_id":"4","last_reported":1717276071,"current_range_meters":10400,"station_id":"ce4bhqp2rcd13ifvqhng","pricing_plan_id":"cebpf4jnsgd1na2vs0mg"},{"bike_id":"dfdcc035-a8ff-48a9-bd46-250235e88b30","system_id":"levelo_inurba_marseille","lat":43.304274,"lon":5.388873,"is_reserved":false,"is_disabled":false,"rental_uris":{"android":"levelo://app?vid=dfdcc035-a8ff-48a9-bd46-250235e88b30","ios":"levelo://app?vid=dfdcc035-a8ff-48a9-bd46-250235e88b30"},"vehicle_type_id":"4","last_reported":1717276071,"current_range_meters":14000,"station_id":"ce4bgk12rcd13ifvqbi0","pricing_plan_id":"cebpf4jnsgd1na2vs0mg"},{"bike_id":"3faaae2c-2561-46a9-ae2b-664f63ccac9e","system_id":"levelo_inurba_marseille","lat":43.317557,"lon":5.390173,"is_reserved":false,"is_disabled":false,"rental_uris":{"android":"levelo://app?vid=3faaae2c-2561-46a9-ae2b-664f63ccac9e","ios":"levelo://app?vid=3faaae2c-2561-46a9-ae2b-664f63ccac9e"},"vehicle_type_id":"4","last_reported":1717276071,"current_range_meters":0,"station_id":"ce4bhqp2rcd13ifvqhng","pricing_plan_id":"cebpf4jnsgd1na2vs0mg"},{"bike_id":"4e05d820-a45a-4467-aadf-43f1bb7a40dd","system_id":"levelo_inurba_marseille","lat":43.317557,"lon":5.390173,"is_reserved":false,"is_disabled":false,"rental_uris":{"android":"levelo://app?vid=4e05d820-a45a-4467-aadf-43f1bb7a40dd","ios":"levelo://app?vid=4e05d820-a45a-4467-aadf-43f1bb7a40dd"},"vehicle_type_id":"4","last_reported":1717276071,"current_range_meters":9200,"station_id":"ce4bhqp2rcd13ifvqhng","pricing_plan_id":"cebpf4jnsgd1na2vs0mg"},{"bike_id":"7a588cf9-10c7-43d9-a612-bf2b2f80cd66","system_id":"levelo_inurba_marseille","lat":43.317557,"lon":5.390173,"is_reserved":false,"is_disabled":false,"rental_uris":{"android":"levelo://app?vid=7a588cf9-10c7-43d9-a612-bf2b2f80cd66","ios":"levelo://app?vid=7a588cf9-10c7-43d9-a612-bf2b2f80cd66"},"vehicle_type_id":"4","last_reported":1717276071,"current_range_meters":15200,"station_id":"ce4bhqp2rcd13ifvqhng","pricing_plan_id":"cebpf4jnsgd1na2vs0mg"},{"bike_id":"489c4af5-a4f4-4b46-a10d-1d47fa2277a3","system_id":"levelo_inurba_marseille","lat":43.298037,"lon":5.381066,"is_reserved":false,"is_disabled":false,"rental_uris":{"android":"levelo://app?vid=489c4af5-a4f4-4b46-a10d-1d47fa2277a3","ios":"levelo://app?vid=489c4af5-a4f4-4b46-a10d-1d47fa2277a3"},"vehicle_type_id":"4","last_reported":1717276071,"current_range_meters":0,"station_id":"ce4bgip2rcd13ifvqbb0","pricing_plan_id":"cebpf4jnsgd1na2vs0mg"},{"bike_id":"95f37d94-c396-461e-bd4a-de310c897807","system_id":"levelo_inurba_marseille","lat":43.298037,"lon":5.381066,"is_reserved":false,"is_disabled":false,"rental_uris":{"android":"levelo://app?vid=95f37d94-c396-461e-bd4a-de310c897807","ios":"levelo://app?vid=95f37d94-c396-461e-bd4a-de310c897807"},"vehicle_type_id":"4","last_reported":1717276071,"current_range_meters":23200,"station_id":"ce4bgip2rcd13ifvqbb0","pricing_plan_id":"cebpf4jnsgd1na2vs0mg"},{"bike_id":"c6353043-a5ca-4861-b8db-3cc0a31a5ada","system_id":"levelo_inurba_marseille","lat":43.298037,"lon":5.381066,"is_reserved":false,"is_disabled":false,"rental_uris":{"android":"levelo://app?vid=c6353043-a5ca-4861-b8db-3cc0a31a5ada","ios":"levelo://app?vid=c6353043-a5ca-4861-b8db-3cc0a31a5ada"},"vehicle_type_id":"4","last_reported":1717276071,"current_range_meters":25200,"station_id":"ce4bgip2rcd13ifvqbb0","pricing_plan_id":"cebpf4jnsgd1na2vs0mg"},{"bike_id":"4335573a-b4b6-4dc0-8699-bf1f8eeeaff5","system_id":"levelo_inurba_marseille","lat":43.295748,"lon":5.37522,"is_reserved":false,"is_disabled":false,"rental_uris":{"android":"levelo://app?vid=4335573a-b4b6-4dc0-8699-bf1f8eeeaff5","ios":"levelo://app?vid=4335573a-b4b6-4dc0-8699-bf1f8eeeaff5"},"vehicle_type_id":"4","last_reported":1717276071,"current_range_meters":1600,"station_id":"ce4bgh92rcd13ifvqb50","pricing_plan_id":"cebpf4jnsgd1na2vs0mg"},{"bike_id":"88dd6ccf-aede-4e1d-b29f-e570c5e0c7fe","system_id":"levelo_inurba_marseille","lat":43.295748,"lon":5.37522,"is_reserved":false,"is_disabled":false,"rental_uris":{"android":"levelo://app?vid=88dd6ccf-aede-4e1d-b29f-e570c5e0c7fe","ios":"levelo://app?vid=88dd6ccf-aede-4e1d-b29f-e570c5e0c7fe"},"vehicle_type_id":"4","last_reported":1717276071,"current_range_meters":0,"station_id":"ce4bgh92rcd13ifvqb50","pricing_plan_id":"cebpf4jnsgd1na2vs0mg"},{"bike_id":"35299b8c-38fc-4578-875f-42fe48662237","system_id":"levelo_inurba_marseille","lat":43.304278,"lon":5.388868,"is_reserved":false,"is_disabled":false,"rental_uris":{"android":"levelo://app?vid=35299b8c-38fc-4578-875f-42fe48662237","ios":"levelo://app?vid=35299b8c-38fc-4578-875f-42fe48662237"},"vehicle_type_id":"4","last_reported":1717276071,"current_range_meters":22400,"station_id":"ce4bgk12rcd13ifvqbi0","pricing_plan_id":"cebpf4jnsgd1na2vs0mg"},{"bike_id":"c768b714-2a30-4691-914a-aaaac4d70137","system_id":"levelo_inurba_marseille","lat":43.296263,"lon":5.377094,"is_reserved":false,"is_disabled":false,"rental_uris":{"android":"levelo://app?vid=c768b714-2a30-4691-914a-aaaac4d70137","ios":"levelo://app?vid=c768b714-2a30-4691-914a-aaaac4d70137"},"vehicle_type_id":"4","last_reported":1717276071,"current_range_meters":1200,"station_id":"ce4bgi92rcd13ifvqb90","pricing_plan_id":"cebpf4jnsgd1na2vs0mg"},{"bike_id":"1dec0b9e-8110-45ea-a769-c43083c9ae97","system_id":"levelo_inurba_marseille","lat":43.30008,"lon":5.38518,"is_reserved":false,"is_disabled":false,"rental_uris":{"android":"levelo://app?vid=1dec0b9e-8110-45ea-a769-c43083c9ae97","ios":"levelo://app?vid=1dec0b9e-8110-45ea-a769-c43083c9ae97"},"vehicle_type_id":"4","last_reported":1717276071,"current_range_meters":20400,"station_id":"ce4bgj92rcd13ifvqbd0","pricing_plan_id":"cebpf4jnsgd1na2vs0mg"},{"bike_id":"9deb78d0-9329-4615-bfbe-7809b7deacd4","system_id":"levelo_inurba_marseille","lat":43.299778,"lon":5.384898,"is_reserved":false,"is_disabled":false,"rental_uris":{"android":"levelo://app?vid=9deb78d0-9329-4615-bfbe-7809b7deacd4","ios":"levelo://app?vid=9deb78d0-9329-4615-bfbe-7809b7deacd4"},"vehicle_type_id":"4","last_reported":1717276071,"current_range_meters":8400,"station_id":"ce4bgj92rcd13ifvqbd0","pricing_plan_id":"cebpf4jnsgd1na2vs0mg"},{"bike_id":"87559986-d0dc-4bc9-81ef-c908191494eb","system_id":"levelo_inurba_marseille","lat":43.299707,"lon":5.384859,"is_reserved":false,"is_disabled":false,"rental_uris":{"android":"levelo://app?vid=87559986-d0dc-4bc9-81ef-c908191494eb","ios":"levelo://app?vid=87559986-d0dc-4bc9-81ef-c908191494eb"},"vehicle_type_id":"4","last_reported":1717276071,"current_range_meters":20000,"station_id":"ce4bgj92rcd13ifvqbd0","pricing_plan_id":"cebpf4jnsgd1na2vs0mg"},{"bike_id":"b40c205f-5344-4706-bca5-af3b5e8fab94","system_id":"levelo_inurba_marseille","lat":43.299707,"lon":5.384859,"is_reserved":false,"is_disabled":false,"rental_uris":{"android":"levelo://app?vid=b40c205f-5344-4706-bca5-af3b5e8fab94","ios":"levelo://app?vid=b40c205f-5344-4706-bca5-af3b5e8fab94"},"vehicle_type_id":"4","last_reported":1717276071,"current_range_meters":30800,"station_id":"ce4bgj92rcd13ifvqbd0","pricing_plan_id":"cebpf4jnsgd1na2vs0mg"},{"bike_id":"dbd405b2-ac53-44b9-85af-d0c90fc88da0","system_id":"levelo_inurba_marseille","lat":43.29655,"lon":5.37939,"is_reserved":false,"is_disabled":false,"rental_uris":{"android":"levelo://app?vid=dbd405b2-ac53-44b9-85af-d0c90fc88da0","ios":"levelo://app?vid=dbd405b2-ac53-44b9-85af-d0c90fc88da0"},"vehicle_type_id":"4","last_reported":1717276071,"current_range_meters":2000,"station_id":"","pricing_plan_id":"cebpf4jnsgd1na2vs0mg"},{"bike_id":"5d368566-1c7e-4413-8f29-3dfd64b9674d","system_id":"levelo_inurba_marseille","lat":43.299707,"lon":5.384859,"is_reserved":false,"is_disabled":false,"rental_uris":{"android":"levelo://app?vid=5d368566-1c7e-4413-8f29-3dfd64b9674d","ios":"levelo://app?vid=5d368566-1c7e-4413-8f29-3dfd64b9674d"},"vehicle_type_id":"4","last_reported":1717276071,"current_range_meters":5200,"station_id":"ce4bgj92rcd13ifvqbd0","pricing_plan_id":"cebpf4jnsgd1na2vs0mg"},{"bike_id":"233b1c96-c69c-4320-b3a7-4307cc133246","system_id":"levelo_inurba_marseille","lat":43.32367,"lon":5.38881,"is_reserved":false,"is_disabled":false,"rental_uris":{"android":"levelo://app?vid=233b1c96-c69c-4320-b3a7-4307cc133246","ios":"levelo://app?vid=233b1c96-c69c-4320-b3a7-4307cc133246"},"vehicle_type_id":"4","last_reported":1717276071,"current_range_meters":0,"station_id":"ce4bhqp2rcd13ifvqhog","pricing_plan_id":"cebpf4jnsgd1na2vs0mg"},{"bike_id":"77e228c5-1cda-45e8-a93f-4dd6d127a4f2","system_id":"levelo_inurba_marseille","lat":43.32367,"lon":5.388836,"is_reserved":false,"is_disabled":false,"rental_uris":{"android":"levelo://app?vid=77e228c5-1cda-45e8-a93f-4dd6d127a4f2","ios":"levelo://app?vid=77e228c5-1cda-45e8-a93f-4dd6d127a4f2"},"vehicle_type_id":"4","last_reported":1717276071,"current_range_meters":21200,"station_id":"ce4bhqp2rcd13ifvqhog","pricing_plan_id":"cebpf4jnsgd1na2vs0mg"},{"bike_id":"e1e1d00a-eb79-488a-b43c-715c1ca8b7f2","system_id":"levelo_inurba_marseille","lat":43.32366,"lon":5.38885,"is_reserved":false,"is_disabled":false,"rental_uris":{"android":"levelo://app?vid=e1e1d00a-eb79-488a-b43c-715c1ca8b7f2","ios":"levelo://app?vid=e1e1d00a-eb79-488a-b43c-715c1ca8b7f2"},"vehicle_type_id":"4","last_reported":1717276071,"current_range_meters":0,"station_id":"ce4bhqp2rcd13ifvqhog","pricing_plan_id":"cebpf4jnsgd1na2vs0mg"},{"bike_id":"913fbb48-f939-4de2-8292-e4dbc68920c4","system_id":"levelo_inurba_marseille","lat":43.32367,"lon":5.388836,"is_reserved":false,"is_disabled":false,"rental_uris":{"android":"levelo://app?vid=913fbb48-f939-4de2-8292-e4dbc68920c4","ios":"levelo://app?vid=913fbb48-f939-4de2-8292-e4dbc68920c4"},"vehicle_type_id":"4","last_reported":1717276071,"current_range_meters":2000,"station_id":"ce4bhqp2rcd13ifvqhog","pricing_plan_id":"cebpf4jnsgd1na2vs0mg"},{"bike_id":"59657f60-4628-4924-ba38-6a982903d05d","system_id":"levelo_inurba_marseille","lat":43.29602,"lon":5.381084,"is_reserved":false,"is_disabled":false,"rental_uris":{"android":"levelo://app?vid=59657f60-4628-4924-ba38-6a982903d05d","ios":"levelo://app?vid=59657f60-4628-4924-ba38-6a982903d05d"},"vehicle_type_id":"4","last_reported":1717276071,"current_range_meters":6400,"station_id":"ce4bgl12rcd13ifvqbo0","pricing_plan_id":"cebpf4jnsgd1na2vs0mg"},{"bike_id":"aa6930b0-a28d-4b7c-9d01-b5aea5c2d465","system_id":"levelo_inurba_marseille","lat":43.296285,"lon":5.38118,"is_reserved":false,"is_disabled":false,"rental_uris":{"android":"levelo://app?vid=aa6930b0-a28d-4b7c-9d01-b5aea5c2d465","ios":"levelo://app?vid=aa6930b0-a28d-4b7c-9d01-b5aea5c2d465"},"vehicle_type_id":"4","last_reported":1717276071,"current_range_meters":0,"station_id":"ce4bgl12rcd13ifvqbo0","pricing_plan_id":"cebpf4jnsgd1na2vs0mg"},{"bike_id":"37c6d2b1-26cc-45c7-9114-5b5992baa3e2","system_id":"levelo_inurba_marseille","lat":43.29602,"lon":5.381084,"is_reserved":false,"is_disabled":false,"rental_uris":{"android":"levelo://app?vid=37c6d2b1-26cc-45c7-9114-5b5992baa3e2","ios":"levelo://app?vid=37c6d2b1-26cc-45c7-9114-5b5992baa3e2"},"vehicle_type_id":"4","last_reported":1717276071,"current_range_meters":6400,"station_id":"ce4bgl12rcd13ifvqbo0","pricing_plan_id":"cebpf4jnsgd1na2vs0mg"},{"bike_id":"817051dc-3961-4a00-be59-d3086fa5878e","system_id":"levelo_inurba_marseille","lat":43.29602,"lon":5.381084,"is_reserved":false,"is_disabled":false,"rental_uris":{"android":"levelo://app?vid=817051dc-3961-4a00-be59-d3086fa5878e","ios":"levelo://app?vid=817051dc-3961-4a00-be59-d3086fa5878e"},"vehicle_type_id":"4","last_reported":1717276071,"current_range_meters":21600,"station_id":"ce4bgl12rcd13ifvqbo0","pricing_plan_id":"cebpf4jnsgd1na2vs0mg"},{"bike_id":"5f214671-3e3e-410b-8555-a4f65271691c","system_id":"levelo_inurba_marseille","lat":43.29602,"lon":5.381084,"is_reserved":false,"is_disabled":false,"rental_uris":{"android":"levelo://app?vid=5f214671-3e3e-410b-8555-a4f65271691c","ios":"levelo://app?vid=5f214671-3e3e-410b-8555-a4f65271691c"},"vehicle_type_id":"4","last_reported":1717276071,"current_range_meters":18800,"station_id":"ce4bgl12rcd13ifvqbo0","pricing_plan_id":"cebpf4jnsgd1na2vs0mg"},{"bike_id":"44d0c69d-4f75-4d8d-a97b-07249220834b","system_id":"levelo_inurba_marseille","lat":43.29602,"lon":5.381084,"is_reserved":false,"is_disabled":false,"rental_uris":{"android":"levelo://app?vid=44d0c69d-4f75-4d8d-a97b-07249220834b","ios":"levelo://app?vid=44d0c69d-4f75-4d8d-a97b-07249220834b"},"vehicle_type_id":"4","last_reported":1717276071,"current_range_meters":25200,"station_id":"ce4bgl12rcd13ifvqbo0","pricing_plan_id":"cebpf4jnsgd1na2vs0mg"},{"bike_id":"2250fa60-1533-4e09-80af-b83b896290d9","system_id":"levelo_inurba_marseille","lat":43.29601,"lon":5.381084,"is_reserved":false,"is_disabled":false,"rental_uris":{"android":"levelo://app?vid=2250fa60-1533-4e09-80af-b83b896290d9","ios":"levelo://app?vid=2250fa60-1533-4e09-80af-b83b896290d9"},"vehicle_type_id":"4","last_reported":1717276071,"current_range_meters":22000,"station_id":"ce4bgl12rcd13ifvqbo0","pricing_plan_id":"cebpf4jnsgd1na2vs0mg"},{"bike_id":"1db973ac-909b-4cda-8d9e-edeafb489569","system_id":"levelo_inurba_marseille","lat":43.29601,"lon":5.381084,"is_reserved":false,"is_disabled":false,"rental_uris":{"android":"levelo://app?vid=1db973ac-909b-4cda-8d9e-edeafb489569","ios":"levelo://app?vid=1db973ac-909b-4cda-8d9e-edeafb489569"},"vehicle_type_id":"4","last_reported":1717276071,"current_range_meters":30400,"station_id":"ce4bgl12rcd13ifvqbo0","pricing_plan_id":"cebpf4jnsgd1na2vs0mg"},{"bike_id":"4c24976b-4637-405a-8149-0a4530dc31fe","system_id":"levelo_inurba_marseille","lat":43.29601,"lon":5.381084,"is_reserved":false,"is_disabled":false,"rental_uris":{"android":"levelo://app?vid=4c24976b-4637-405a-8149-0a4530dc31fe","ios":"levelo://app?vid=4c24976b-4637-405a-8149-0a4530dc31fe"},"vehicle_type_id":"4","last_reported":1717276071,"current_range_meters":22400,"station_id":"ce4bgl12rcd13ifvqbo0","pricing_plan_id":"cebpf4jnsgd1na2vs0mg"},{"bike_id":"8d8fb1a5-86e1-46bd-8ac6-155de23271a6","system_id":"levelo_inurba_marseille","lat":43.29602,"lon":5.381084,"is_reserved":false,"is_disabled":false,"rental_uris":{"android":"levelo://app?vid=8d8fb1a5-86e1-46bd-8ac6-155de23271a6","ios":"levelo://app?vid=8d8fb1a5-86e1-46bd-8ac6-155de23271a6"},"vehicle_type_id":"4","last_reported":1717276071,"current_range_meters":13600,"station_id":"ce4bgl12rcd13ifvqbo0","pricing_plan_id":"cebpf4jnsgd1na2vs0mg"},{"bike_id":"328f9eaf-8289-47e4-837b-12b97b8933ec","system_id":"levelo_inurba_marseille","lat":43.29601,"lon":5.381084,"is_reserved":false,"is_disabled":false,"rental_uris":{"android":"levelo://app?vid=328f9eaf-8289-47e4-837b-12b97b8933ec","ios":"levelo://app?vid=328f9eaf-8289-47e4-837b-12b97b8933ec"},"vehicle_type_id":"4","last_reported":1717276071,"current_range_meters":23200,"station_id":"ce4bgl12rcd13ifvqbo0","pricing_plan_id":"cebpf4jnsgd1na2vs0mg"},{"bike_id":"4578326f-601f-43f0-800d-2713557ee785","system_id":"levelo_inurba_marseille","lat":43.29602,"lon":5.381084,"is_reserved":false,"is_disabled":false,"rental_uris":{"android":"levelo://app?vid=4578326f-601f-43f0-800d-2713557ee785","ios":"levelo://app?vid=4578326f-601f-43f0-800d-2713557ee785"},"vehicle_type_id":"4","last_reported":1717276071,"current_range_meters":14400,"station_id":"ce4bgl12rcd13ifvqbo0","pricing_plan_id":"cebpf4jnsgd1na2vs0mg"},{"bike_id":"10fabf2c-4443-4488-84b4-4faec8e4265f","system_id":"levelo_inurba_marseille","lat":43.29602,"lon":5.381084,"is_reserved":false,"is_disabled":false,"rental_uris":{"android":"levelo://app?vid=10fabf2c-4443-4488-84b4-4faec8e4265f","ios":"levelo://app?vid=10fabf2c-4443-4488-84b4-4faec8e4265f"},"vehicle_type_id":"4","last_reported":1717276071,"current_range_meters":31200,"station_id":"ce4bgl12rcd13ifvqbo0","pricing_plan_id":"cebpf4jnsgd1na2vs0mg"},{"bike_id":"3819500b-f39f-46b9-ae88-150caf467334","system_id":"levelo_inurba_marseille","lat":43.29529,"lon":5.385581,"is_reserved":false,"is_disabled":false,"rental_uris":{"android":"levelo://app?vid=3819500b-f39f-46b9-ae88-150caf467334","ios":"levelo://app?vid=3819500b-f39f-46b9-ae88-150caf467334"},"vehicle_type_id":"4","last_reported":1717276071,"current_range_meters":6000,"station_id":"ce4bgih2rcd13ifvqba0","pricing_plan_id":"cebpf4jnsgd1na2vs0mg"},{"bike_id":"24c118b8-6a05-4892-b8b5-9ce277f83dab","system_id":"levelo_inurba_marseille","lat":43.305896,"lon":5.392497,"is_reserved":false,"is_disabled":false,"rental_uris":{"android":"levelo://app?vid=24c118b8-6a05-4892-b8b5-9ce277f83dab","ios":"levelo://app?vid=24c118b8-6a05-4892-b8b5-9ce277f83dab"},"vehicle_type_id":"4","last_reported":1717276071,"current_range_meters":0,"station_id":"ce4bgup2rcd13ifvqco0","pricing_plan_id":"cebpf4jnsgd1na2vs0mg"},{"bike_id":"53d35d5c-3f96-4778-a274-52de1fbf36bf","system_id":"levelo_inurba_marseille","lat":43.293249,"lon":5.371578,"is_reserved":false,"is_disabled":false,"rental_uris":{"android":"levelo://app?vid=53d35d5c-3f96-4778-a274-52de1fbf36bf","ios":"levelo://app?vid=53d35d5c-3f96-4778-a274-52de1fbf36bf"},"vehicle_type_id":"4","last_reported":1717276071,"current_range_meters":8400,"station_id":"ce4bgh92rcd13ifvqb40","pricing_plan_id":"cebpf4jnsgd1na2vs0mg"},{"bike_id":"1307de28-cf0b-45a7-9a0a-e20d3a744d38","system_id":"levelo_inurba_marseille","lat":43.293249,"lon":5.371578,"is_reserved":false,"is_disabled":false,"rental_uris":{"android":"levelo://app?vid=1307de28-cf0b-45a7-9a0a-e20d3a744d38","ios":"levelo://app?vid=1307de28-cf0b-45a7-9a0a-e20d3a744d38"},"vehicle_type_id":"4","last_reported":1717276071,"current_range_meters":18400,"station_id":"ce4bgh92rcd13ifvqb40","pricing_plan_id":"cebpf4jnsgd1na2vs0mg"},{"bike_id":"2ed8528c-e646-4064-aef4-cb735c40e357","system_id":"levelo_inurba_marseille","lat":43.29274,"lon":5.36839,"is_reserved":false,"is_disabled":false,"rental_uris":{"android":"levelo://app?vid=2ed8528c-e646-4064-aef4-cb735c40e357","ios":"levelo://app?vid=2ed8528c-e646-4064-aef4-cb735c40e357"},"vehicle_type_id":"4","last_reported":1717276071,"current_range_meters":0,"station_id":"ce4bhbp2rcd13ifvqesg","pricing_plan_id":"cebpf4jnsgd1na2vs0mg"},{"bike_id":"019d0ae5-1b29-4de6-95cb-5085b04b8474","system_id":"levelo_inurba_marseille","lat":43.292749,"lon":5.368402,"is_reserved":false,"is_disabled":false,"rental_uris":{"android":"levelo://app?vid=019d0ae5-1b29-4de6-95cb-5085b04b8474","ios":"levelo://app?vid=019d0ae5-1b29-4de6-95cb-5085b04b8474"},"vehicle_type_id":"4","last_reported":1717276071,"current_range_meters":400,"station_id":"ce4bhbp2rcd13ifvqesg","pricing_plan_id":"cebpf4jnsgd1na2vs0mg"},{"bike_id":"c3da39f4-c213-4346-aa75-b67fe1a2077e","system_id":"levelo_inurba_marseille","lat":43.29269,"lon":5.3684,"is_reserved":false,"is_disabled":false,"rental_uris":{"android":"levelo://app?vid=c3da39f4-c213-4346-aa75-b67fe1a2077e","ios":"levelo://app?vid=c3da39f4-c213-4346-aa75-b67fe1a2077e"},"vehicle_type_id":"4","last_reported":1717276071,"current_range_meters":29200,"station_id":"ce4bhbp2rcd13ifvqesg","pricing_plan_id":"cebpf4jnsgd1na2vs0mg"},{"bike_id":"63206fff-b55e-4906-9079-f9fb0b1fd514","system_id":"levelo_inurba_marseille","lat":43.29301,"lon":5.37454,"is_reserved":false,"is_disabled":false,"rental_uris":{"android":"levelo://app?vid=63206fff-b55e-4906-9079-f9fb0b1fd514","ios":"levelo://app?vid=63206fff-b55e-4906-9079-f9fb0b1fd514"},"vehicle_type_id":"4","last_reported":1717276071,"current_range_meters":0,"station_id":"ce4bgi12rcd13ifvqb70","pricing_plan_id":"cebpf4jnsgd1na2vs0mg"},{"bike_id":"433bcf3e-716f-486e-b2c5-dae324aac4f1","system_id":"levelo_inurba_marseille","lat":43.293009,"lon":5.374584,"is_reserved":false,"is_disabled":false,"rental_uris":{"android":"levelo://app?vid=433bcf3e-716f-486e-b2c5-dae324aac4f1","ios":"levelo://app?vid=433bcf3e-716f-486e-b2c5-dae324aac4f1"},"vehicle_type_id":"4","last_reported":1717276071,"current_range_meters":0,"station_id":"ce4bgi12rcd13ifvqb70","pricing_plan_id":"cebpf4jnsgd1na2vs0mg"},{"bike_id":"7397f938-c317-47fc-b943-b5b249e49454","system_id":"levelo_inurba_marseille","lat":43.30301,"lon":5.39206,"is_reserved":false,"is_disabled":false,"rental_uris":{"android":"levelo://app?vid=7397f938-c317-47fc-b943-b5b249e49454","ios":"levelo://app?vid=7397f938-c317-47fc-b943-b5b249e49454"},"vehicle_type_id":"4","last_reported":1717276071,"current_range_meters":0,"station_id":"ce4bgkh2rcd13ifvqbk0","pricing_plan_id":"cebpf4jnsgd1na2vs0mg"},{"bike_id":"4d354321-8c9f-4af4-aec3-ecdabc3cda4c","system_id":"levelo_inurba_marseille","lat":43.30309,"lon":5.392137,"is_reserved":false,"is_disabled":false,"rental_uris":{"android":"levelo://app?vid=4d354321-8c9f-4af4-aec3-ecdabc3cda4c","ios":"levelo://app?vid=4d354321-8c9f-4af4-aec3-ecdabc3cda4c"},"vehicle_type_id":"4","last_reported":1717276071,"current_range_meters":0,"station_id":"ce4bgkh2rcd13ifvqbk0","pricing_plan_id":"cebpf4jnsgd1na2vs0mg"},{"bike_id":"4cc409d2-3e35-4c3d-8a7e-6c66fda19d6d","system_id":"levelo_inurba_marseille","lat":43.298764,"lon":5.388973,"is_reserved":false,"is_disabled":false,"rental_uris":{"android":"levelo://app?vid=4cc409d2-3e35-4c3d-8a7e-6c66fda19d6d","ios":"levelo://app?vid=4cc409d2-3e35-4c3d-8a7e-6c66fda19d6d"},"vehicle_type_id":"4","last_reported":1717276071,"current_range_meters":1600,"station_id":"ce4bh392rcd13ifvqdl0","pricing_plan_id":"cebpf4jnsgd1na2vs0mg"},{"bike_id":"9810fd33-d1b6-4818-941c-1ad49c49c554","system_id":"levelo_inurba_marseille","lat":43.2936,"lon":5.37835,"is_reserved":false,"is_disabled":false,"rental_uris":{"android":"levelo://app?vid=9810fd33-d1b6-4818-941c-1ad49c49c554","ios":"levelo://app?vid=9810fd33-d1b6-4818-941c-1ad49c49c554"},"vehicle_type_id":"4","last_reported":1717276071,"current_range_meters":8400,"station_id":"ce4bgjh2rcd13ifvqbf0","pricing_plan_id":"cebpf4jnsgd1na2vs0mg"},{"bike_id":"3f09883b-1a29-4842-9d67-cdc56baaad5c","system_id":"levelo_inurba_marseille","lat":43.303033,"lon":5.392215,"is_reserved":false,"is_disabled":false,"rental_uris":{"android":"levelo://app?vid=3f09883b-1a29-4842-9d67-cdc56baaad5c","ios":"levelo://app?vid=3f09883b-1a29-4842-9d67-cdc56baaad5c"},"vehicle_type_id":"4","last_reported":1717276071,"current_range_meters":0,"station_id":"ce4bgkh2rcd13ifvqbk0","pricing_plan_id":"cebpf4jnsgd1na2vs0mg"},{"bike_id":"4fe07e3d-ddc9-4449-b267-649c54b512cf","system_id":"levelo_inurba_marseille","lat":43.292689,"lon":5.374754,"is_reserved":false,"is_disabled":false,"rental_uris":{"android":"levelo://app?vid=4fe07e3d-ddc9-4449-b267-649c54b512cf","ios":"levelo://app?vid=4fe07e3d-ddc9-4449-b267-649c54b512cf"},"vehicle_type_id":"4","last_reported":1717276071,"current_range_meters":18800,"station_id":"ce4bgi12rcd13ifvqb70","pricing_plan_id":"cebpf4jnsgd1na2vs0mg"},{"bike_id":"6591d3db-347f-4167-8a56-2fec0df08ea0","system_id":"levelo_inurba_marseille","lat":43.304494,"lon":5.393319,"is_reserved":false,"is_disabled":false,"rental_uris":{"android":"levelo://app?vid=6591d3db-347f-4167-8a56-2fec0df08ea0","ios":"levelo://app?vid=6591d3db-347f-4167-8a56-2fec0df08ea0"},"vehicle_type_id":"4","last_reported":1717276071,"current_range_meters":14000,"station_id":"","pricing_plan_id":"cebpf4jnsgd1na2vs0mg"},{"bike_id":"4ab512b1-d0d7-4b97-82f4-591d666218ae","system_id":"levelo_inurba_marseille","lat":43.292311,"lon":5.360731,"is_reserved":false,"is_disabled":false,"rental_uris":{"android":"levelo://app?vid=4ab512b1-d0d7-4b97-82f4-591d666218ae","ios":"levelo://app?vid=4ab512b1-d0d7-4b97-82f4-591d666218ae"},"vehicle_type_id":"4","last_reported":1717276071,"current_range_meters":12000,"station_id":"ce4bhbh2rcd13ifvqeqg","pricing_plan_id":"cebpf4jnsgd1na2vs0mg"},{"bike_id":"ef78e32c-dd32-4789-86b1-8a0e0d059a5d","system_id":"levelo_inurba_marseille","lat":43.292311,"lon":5.360731,"is_reserved":false,"is_disabled":false,"rental_uris":{"android":"levelo://app?vid=ef78e32c-dd32-4789-86b1-8a0e0d059a5d","ios":"levelo://app?vid=ef78e32c-dd32-4789-86b1-8a0e0d059a5d"},"vehicle_type_id":"4","last_reported":1717276071,"current_range_meters":13600,"station_id":"ce4bhbh2rcd13ifvqeqg","pricing_plan_id":"cebpf4jnsgd1na2vs0mg"},{"bike_id":"2ffde0b8-7b7c-446d-aa87-ceedd0fb63de","system_id":"levelo_inurba_marseille","lat":43.292311,"lon":5.360731,"is_reserved":false,"is_disabled":false,"rental_uris":{"android":"levelo://app?vid=2ffde0b8-7b7c-446d-aa87-ceedd0fb63de","ios":"levelo://app?vid=2ffde0b8-7b7c-446d-aa87-ceedd0fb63de"},"vehicle_type_id":"4","last_reported":1717276071,"current_range_meters":19200,"station_id":"ce4bhbh2rcd13ifvqeqg","pricing_plan_id":"cebpf4jnsgd1na2vs0mg"},{"bike_id":"05e821a8-d776-42b0-9efb-900489b2967d","system_id":"levelo_inurba_marseille","lat":43.30085,"lon":5.390856,"is_reserved":false,"is_disabled":false,"rental_uris":{"android":"levelo://app?vid=05e821a8-d776-42b0-9efb-900489b2967d","ios":"levelo://app?vid=05e821a8-d776-42b0-9efb-900489b2967d"},"vehicle_type_id":"4","last_reported":1717276071,"current_range_meters":8800,"station_id":"ce4bh192rcd13ifvqdb0","pricing_plan_id":"cebpf4jnsgd1na2vs0mg"},{"bike_id":"90eb87cf-c1a8-48f8-8199-f9660b1697b6","system_id":"levelo_inurba_marseille","lat":43.298764,"lon":5.388973,"is_reserved":false,"is_disabled":false,"rental_uris":{"android":"levelo://app?vid=90eb87cf-c1a8-48f8-8199-f9660b1697b6","ios":"levelo://app?vid=90eb87cf-c1a8-48f8-8199-f9660b1697b6"},"vehicle_type_id":"4","last_reported":1717276071,"current_range_meters":7200,"station_id":"ce4bh392rcd13ifvqdl0","pricing_plan_id":"cebpf4jnsgd1na2vs0mg"},{"bike_id":"90c5eb96-3100-4623-83b3-789a4ce558e5","system_id":"levelo_inurba_marseille","lat":43.291675,"lon":5.371583,"is_reserved":false,"is_disabled":false,"rental_uris":{"android":"levelo://app?vid=90c5eb96-3100-4623-83b3-789a4ce558e5","ios":"levelo://app?vid=90c5eb96-3100-4623-83b3-789a4ce558e5"},"vehicle_type_id":"4","last_reported":1717276071,"current_range_meters":24800,"station_id":"ce4bha92rcd13ifvqeh0","pricing_plan_id":"cebpf4jnsgd1na2vs0mg"},{"bike_id":"1c2355f4-fb48-40e0-9a49-8e6f9bcc6635","system_id":"levelo_inurba_marseille","lat":43.298764,"lon":5.388973,"is_reserved":false,"is_disabled":false,"rental_uris":{"android":"levelo://app?vid=1c2355f4-fb48-40e0-9a49-8e6f9bcc6635","ios":"levelo://app?vid=1c2355f4-fb48-40e0-9a49-8e6f9bcc6635"},"vehicle_type_id":"4","last_reported":1717276071,"current_range_meters":14400,"station_id":"ce4bh392rcd13ifvqdl0","pricing_plan_id":"cebpf4jnsgd1na2vs0mg"},{"bike_id":"2525ca45-1325-4c30-8ba6-ecb74b20558b","system_id":"levelo_inurba_marseille","lat":43.291671,"lon":5.371575,"is_reserved":false,"is_disabled":false,"rental_uris":{"android":"levelo://app?vid=2525ca45-1325-4c30-8ba6-ecb74b20558b","ios":"levelo://app?vid=2525ca45-1325-4c30-8ba6-ecb74b20558b"},"vehicle_type_id":"4","last_reported":1717276071,"current_range_meters":0,"station_id":"ce4bha92rcd13ifvqeh0","pricing_plan_id":"cebpf4jnsgd1na2vs0mg"},{"bike_id":"6d8ffbff-b0d0-45f2-a32b-508c198ac499","system_id":"levelo_inurba_marseille","lat":43.29529,"lon":5.385581,"is_reserved":false,"is_disabled":false,"rental_uris":{"android":"levelo://app?vid=6d8ffbff-b0d0-45f2-a32b-508c198ac499","ios":"levelo://app?vid=6d8ffbff-b0d0-45f2-a32b-508c198ac499"},"vehicle_type_id":"4","last_reported":1717276071,"current_range_meters":4800,"station_id":"ce4bgih2rcd13ifvqba0","pricing_plan_id":"cebpf4jnsgd1na2vs0mg"},{"bike_id":"4115386d-bffd-4b61-9dbc-ad02cd5e4028","system_id":"levelo_inurba_marseille","lat":43.30884,"lon":5.3963,"is_reserved":false,"is_disabled":false,"rental_uris":{"android":"levelo://app?vid=4115386d-bffd-4b61-9dbc-ad02cd5e4028","ios":"levelo://app?vid=4115386d-bffd-4b61-9dbc-ad02cd5e4028"},"vehicle_type_id":"4","last_reported":1717276071,"current_range_meters":0,"station_id":"ce4bh012rcd13ifvqcv0","pricing_plan_id":"cebpf4jnsgd1na2vs0mg"},{"bike_id":"14878cd3-74cb-4557-8264-458668870edf","system_id":"levelo_inurba_marseille","lat":43.29196,"lon":5.358033,"is_reserved":false,"is_disabled":false,"rental_uris":{"android":"levelo://app?vid=14878cd3-74cb-4557-8264-458668870edf","ios":"levelo://app?vid=14878cd3-74cb-4557-8264-458668870edf"},"vehicle_type_id":"4","last_reported":1717276071,"current_range_meters":30400,"station_id":"ce4bhb12rcd13ifvqel0","pricing_plan_id":"cebpf4jnsgd1na2vs0mg"},{"bike_id":"b610d986-c0e2-4cb4-9bdc-2f2deb299187","system_id":"levelo_inurba_marseille","lat":43.291969,"lon":5.357987,"is_reserved":false,"is_disabled":false,"rental_uris":{"android":"levelo://app?vid=b610d986-c0e2-4cb4-9bdc-2f2deb299187","ios":"levelo://app?vid=b610d986-c0e2-4cb4-9bdc-2f2deb299187"},"vehicle_type_id":"4","last_reported":1717276071,"current_range_meters":0,"station_id":"ce4bhb12rcd13ifvqel0","pricing_plan_id":"cebpf4jnsgd1na2vs0mg"},{"bike_id":"e99b366f-3f25-4604-8a3a-7e3ffac4f772","system_id":"levelo_inurba_marseille","lat":43.29197,"lon":5.357955,"is_reserved":false,"is_disabled":false,"rental_uris":{"android":"levelo://app?vid=e99b366f-3f25-4604-8a3a-7e3ffac4f772","ios":"levelo://app?vid=e99b366f-3f25-4604-8a3a-7e3ffac4f772"},"vehicle_type_id":"4","last_reported":1717276071,"current_range_meters":0,"station_id":"ce4bhb12rcd13ifvqel0","pricing_plan_id":"cebpf4jnsgd1na2vs0mg"},{"bike_id":"e53832f6-7a70-4fc1-a901-731fd6478b9c","system_id":"levelo_inurba_marseille","lat":43.30889,"lon":5.39639,"is_reserved":false,"is_disabled":false,"rental_uris":{"android":"levelo://app?vid=e53832f6-7a70-4fc1-a901-731fd6478b9c","ios":"levelo://app?vid=e53832f6-7a70-4fc1-a901-731fd6478b9c"},"vehicle_type_id":"4","last_reported":1717276071,"current_range_meters":0,"station_id":"ce4bh012rcd13ifvqcv0","pricing_plan_id":"cebpf4jnsgd1na2vs0mg"},{"bike_id":"ba052bc7-9797-456c-93b2-612c767f7710","system_id":"levelo_inurba_marseille","lat":43.291994,"lon":5.357886,"is_reserved":false,"is_disabled":false,"rental_uris":{"android":"levelo://app?vid=ba052bc7-9797-456c-93b2-612c767f7710","ios":"levelo://app?vid=ba052bc7-9797-456c-93b2-612c767f7710"},"vehicle_type_id":"4","last_reported":1717276071,"current_range_meters":25200,"station_id":"ce4bhb12rcd13ifvqel0","pricing_plan_id":"cebpf4jnsgd1na2vs0mg"},{"bike_id":"6288754b-d114-4988-a0fe-22eb4a31f8d9","system_id":"levelo_inurba_marseille","lat":43.291994,"lon":5.357886,"is_reserved":false,"is_disabled":false,"rental_uris":{"android":"levelo://app?vid=6288754b-d114-4988-a0fe-22eb4a31f8d9","ios":"levelo://app?vid=6288754b-d114-4988-a0fe-22eb4a31f8d9"},"vehicle_type_id":"4","last_reported":1717276071,"current_range_meters":2400,"station_id":"ce4bhb12rcd13ifvqel0","pricing_plan_id":"cebpf4jnsgd1na2vs0mg"},{"bike_id":"1c7de814-e241-49cf-87c3-ea9112390d41","system_id":"levelo_inurba_marseille","lat":43.29529,"lon":5.385581,"is_reserved":false,"is_disabled":false,"rental_uris":{"android":"levelo://app?vid=1c7de814-e241-49cf-87c3-ea9112390d41","ios":"levelo://app?vid=1c7de814-e241-49cf-87c3-ea9112390d41"},"vehicle_type_id":"4","last_reported":1717276071,"current_range_meters":22800,"station_id":"ce4bgih2rcd13ifvqba0","pricing_plan_id":"cebpf4jnsgd1na2vs0mg"},{"bike_id":"f0f94a52-6b8c-4e22-8952-a4f26a70238e","system_id":"levelo_inurba_marseille","lat":43.313291,"lon":5.396838,"is_reserved":false,"is_disabled":false,"rental_uris":{"android":"levelo://app?vid=f0f94a52-6b8c-4e22-8952-a4f26a70238e","ios":"levelo://app?vid=f0f94a52-6b8c-4e22-8952-a4f26a70238e"},"vehicle_type_id":"4","last_reported":1717276071,"current_range_meters":6000,"station_id":"ce4bgvp2rcd13ifvqcu0","pricing_plan_id":"cebpf4jnsgd1na2vs0mg"},{"bike_id":"21ec129b-376c-43e1-8f9b-e757505c8e97","system_id":"levelo_inurba_marseille","lat":43.2919,"lon":5.35806,"is_reserved":false,"is_disabled":false,"rental_uris":{"android":"levelo://app?vid=21ec129b-376c-43e1-8f9b-e757505c8e97","ios":"levelo://app?vid=21ec129b-376c-43e1-8f9b-e757505c8e97"},"vehicle_type_id":"4","last_reported":1717276071,"current_range_meters":400,"station_id":"ce4bhb12rcd13ifvqel0","pricing_plan_id":"cebpf4jnsgd1na2vs0mg"},{"bike_id":"2fc633bd-f39d-48d6-809c-16076472ed27","system_id":"levelo_inurba_marseille","lat":43.31329,"lon":5.39691,"is_reserved":false,"is_disabled":false,"rental_uris":{"android":"levelo://app?vid=2fc633bd-f39d-48d6-809c-16076472ed27","ios":"levelo://app?vid=2fc633bd-f39d-48d6-809c-16076472ed27"},"vehicle_type_id":"4","last_reported":1717276071,"current_range_meters":0,"station_id":"ce4bgvp2rcd13ifvqcu0","pricing_plan_id":"cebpf4jnsgd1na2vs0mg"},{"bike_id":"58746bdb-5801-48ae-b492-cdedd8064fca","system_id":"levelo_inurba_marseille","lat":43.313291,"lon":5.396838,"is_reserved":false,"is_disabled":false,"rental_uris":{"android":"levelo://app?vid=58746bdb-5801-48ae-b492-cdedd8064fca","ios":"levelo://app?vid=58746bdb-5801-48ae-b492-cdedd8064fca"},"vehicle_type_id":"4","last_reported":1717276071,"current_range_meters":2000,"station_id":"ce4bgvp2rcd13ifvqcu0","pricing_plan_id":"cebpf4jnsgd1na2vs0mg"},{"bike_id":"6a9b18df-6107-4ba5-88fe-e3d4938e950e","system_id":"levelo_inurba_marseille","lat":43.31331,"lon":5.39692,"is_reserved":false,"is_disabled":false,"rental_uris":{"android":"levelo://app?vid=6a9b18df-6107-4ba5-88fe-e3d4938e950e","ios":"levelo://app?vid=6a9b18df-6107-4ba5-88fe-e3d4938e950e"},"vehicle_type_id":"4","last_reported":1717276071,"current_range_meters":13600,"station_id":"ce4bgvp2rcd13ifvqcu0","pricing_plan_id":"cebpf4jnsgd1na2vs0mg"},{"bike_id":"be40973d-7b27-4925-817e-01b8e24ad4da","system_id":"levelo_inurba_marseille","lat":43.313324,"lon":5.396925,"is_reserved":false,"is_disabled":false,"rental_uris":{"android":"levelo://app?vid=be40973d-7b27-4925-817e-01b8e24ad4da","ios":"levelo://app?vid=be40973d-7b27-4925-817e-01b8e24ad4da"},"vehicle_type_id":"4","last_reported":1717276071,"current_range_meters":14000,"station_id":"ce4bgvp2rcd13ifvqcu0","pricing_plan_id":"cebpf4jnsgd1na2vs0mg"},{"bike_id":"63198de2-1195-46a5-b50b-d04727637951","system_id":"levelo_inurba_marseille","lat":43.31333,"lon":5.39694,"is_reserved":false,"is_disabled":false,"rental_uris":{"android":"levelo://app?vid=63198de2-1195-46a5-b50b-d04727637951","ios":"levelo://app?vid=63198de2-1195-46a5-b50b-d04727637951"},"vehicle_type_id":"4","last_reported":1717276071,"current_range_meters":24000,"station_id":"ce4bgvp2rcd13ifvqcu0","pricing_plan_id":"cebpf4jnsgd1na2vs0mg"},{"bike_id":"edcfacaa-22cc-46c5-9a05-688f48216f57","system_id":"levelo_inurba_marseille","lat":43.29529,"lon":5.385581,"is_reserved":false,"is_disabled":false,"rental_uris":{"android":"levelo://app?vid=edcfacaa-22cc-46c5-9a05-688f48216f57","ios":"levelo://app?vid=edcfacaa-22cc-46c5-9a05-688f48216f57"},"vehicle_type_id":"4","last_reported":1717276071,"current_range_meters":12800,"station_id":"ce4bgih2rcd13ifvqba0","pricing_plan_id":"cebpf4jnsgd1na2vs0mg"},{"bike_id":"4d3c82a3-c6c6-4d5c-a61a-301f82f9bcdc","system_id":"levelo_inurba_marseille","lat":43.313291,"lon":5.396838,"is_reserved":false,"is_disabled":false,"rental_uris":{"android":"levelo://app?vid=4d3c82a3-c6c6-4d5c-a61a-301f82f9bcdc","ios":"levelo://app?vid=4d3c82a3-c6c6-4d5c-a61a-301f82f9bcdc"},"vehicle_type_id":"4","last_reported":1717276071,"current_range_meters":28400,"station_id":"ce4bgvp2rcd13ifvqcu0","pricing_plan_id":"cebpf4jnsgd1na2vs0mg"},{"bike_id":"084369a3-bfea-4207-9af7-374da0fda7de","system_id":"levelo_inurba_marseille","lat":43.291994,"lon":5.357886,"is_reserved":false,"is_disabled":false,"rental_uris":{"android":"levelo://app?vid=084369a3-bfea-4207-9af7-374da0fda7de","ios":"levelo://app?vid=084369a3-bfea-4207-9af7-374da0fda7de"},"vehicle_type_id":"4","last_reported":1717276071,"current_range_meters":20000,"station_id":"ce4bhb12rcd13ifvqel0","pricing_plan_id":"cebpf4jnsgd1na2vs0mg"},{"bike_id":"441edb0f-54c8-498e-b553-f84ccd2db12f","system_id":"levelo_inurba_marseille","lat":43.29529,"lon":5.385581,"is_reserved":false,"is_disabled":false,"rental_uris":{"android":"levelo://app?vid=441edb0f-54c8-498e-b553-f84ccd2db12f","ios":"levelo://app?vid=441edb0f-54c8-498e-b553-f84ccd2db12f"},"vehicle_type_id":"4","last_reported":1717276071,"current_range_meters":28000,"station_id":"ce4bgih2rcd13ifvqba0","pricing_plan_id":"cebpf4jnsgd1na2vs0mg"},{"bike_id":"e1067fe7-982c-4c1d-8c96-b57878b1deab","system_id":"levelo_inurba_marseille","lat":43.309047,"lon":5.396551,"is_reserved":false,"is_disabled":false,"rental_uris":{"android":"levelo://app?vid=e1067fe7-982c-4c1d-8c96-b57878b1deab","ios":"levelo://app?vid=e1067fe7-982c-4c1d-8c96-b57878b1deab"},"vehicle_type_id":"4","last_reported":1717276071,"current_range_meters":3200,"station_id":"ce4bh012rcd13ifvqcv0","pricing_plan_id":"cebpf4jnsgd1na2vs0mg"},{"bike_id":"271d75e3-649e-4d9b-b9dc-acb8b6c731ca","system_id":"levelo_inurba_marseille","lat":43.29529,"lon":5.385581,"is_reserved":false,"is_disabled":false,"rental_uris":{"android":"levelo://app?vid=271d75e3-649e-4d9b-b9dc-acb8b6c731ca","ios":"levelo://app?vid=271d75e3-649e-4d9b-b9dc-acb8b6c731ca"},"vehicle_type_id":"4","last_reported":1717276071,"current_range_meters":11600,"station_id":"ce4bgih2rcd13ifvqba0","pricing_plan_id":"cebpf4jnsgd1na2vs0mg"},{"bike_id":"c929bd00-535c-49b4-9c3b-b53a629ca44b","system_id":"levelo_inurba_marseille","lat":43.29529,"lon":5.385581,"is_reserved":false,"is_disabled":false,"rental_uris":{"android":"levelo://app?vid=c929bd00-535c-49b4-9c3b-b53a629ca44b","ios":"levelo://app?vid=c929bd00-535c-49b4-9c3b-b53a629ca44b"},"vehicle_type_id":"4","last_reported":1717276071,"current_range_meters":28000,"station_id":"ce4bgih2rcd13ifvqba0","pricing_plan_id":"cebpf4jnsgd1na2vs0mg"},{"bike_id":"9369ece8-ca6f-48f5-8c92-2b1d381f542b","system_id":"levelo_inurba_marseille","lat":43.29529,"lon":5.385581,"is_reserved":false,"is_disabled":false,"rental_uris":{"android":"levelo://app?vid=9369ece8-ca6f-48f5-8c92-2b1d381f542b","ios":"levelo://app?vid=9369ece8-ca6f-48f5-8c92-2b1d381f542b"},"vehicle_type_id":"4","last_reported":1717276071,"current_range_meters":16400,"station_id":"ce4bgih2rcd13ifvqba0","pricing_plan_id":"cebpf4jnsgd1na2vs0mg"},{"bike_id":"344f6e45-baca-4846-9ba3-bf3189f602d8","system_id":"levelo_inurba_marseille","lat":43.29529,"lon":5.385581,"is_reserved":false,"is_disabled":false,"rental_uris":{"android":"levelo://app?vid=344f6e45-baca-4846-9ba3-bf3189f602d8","ios":"levelo://app?vid=344f6e45-baca-4846-9ba3-bf3189f602d8"},"vehicle_type_id":"4","last_reported":1717276071,"current_range_meters":28400,"station_id":"ce4bgih2rcd13ifvqba0","pricing_plan_id":"cebpf4jnsgd1na2vs0mg"},{"bike_id":"3157c4c7-1c17-466a-a231-a2f2a3e80bed","system_id":"levelo_inurba_marseille","lat":43.29529,"lon":5.385581,"is_reserved":false,"is_disabled":false,"rental_uris":{"android":"levelo://app?vid=3157c4c7-1c17-466a-a231-a2f2a3e80bed","ios":"levelo://app?vid=3157c4c7-1c17-466a-a231-a2f2a3e80bed"},"vehicle_type_id":"4","last_reported":1717276071,"current_range_meters":0,"station_id":"ce4bgih2rcd13ifvqba0","pricing_plan_id":"cebpf4jnsgd1na2vs0mg"},{"bike_id":"cb1c9350-9949-4c63-9f9d-1bf828b4aa87","system_id":"levelo_inurba_marseille","lat":43.29529,"lon":5.385581,"is_reserved":false,"is_disabled":false,"rental_uris":{"android":"levelo://app?vid=cb1c9350-9949-4c63-9f9d-1bf828b4aa87","ios":"levelo://app?vid=cb1c9350-9949-4c63-9f9d-1bf828b4aa87"},"vehicle_type_id":"4","last_reported":1717276071,"current_range_meters":16400,"station_id":"ce4bgih2rcd13ifvqba0","pricing_plan_id":"cebpf4jnsgd1na2vs0mg"},{"bike_id":"3f9d624c-a6a7-4b61-81d3-163fa30ac9d0","system_id":"levelo_inurba_marseille","lat":43.29529,"lon":5.385581,"is_reserved":false,"is_disabled":false,"rental_uris":{"android":"levelo://app?vid=3f9d624c-a6a7-4b61-81d3-163fa30ac9d0","ios":"levelo://app?vid=3f9d624c-a6a7-4b61-81d3-163fa30ac9d0"},"vehicle_type_id":"4","last_reported":1717276071,"current_range_meters":20400,"station_id":"ce4bgih2rcd13ifvqba0","pricing_plan_id":"cebpf4jnsgd1na2vs0mg"},{"bike_id":"78052231-94bf-4c69-bff7-99c1d8ff0015","system_id":"levelo_inurba_marseille","lat":43.29529,"lon":5.385581,"is_reserved":false,"is_disabled":false,"rental_uris":{"android":"levelo://app?vid=78052231-94bf-4c69-bff7-99c1d8ff0015","ios":"levelo://app?vid=78052231-94bf-4c69-bff7-99c1d8ff0015"},"vehicle_type_id":"4","last_reported":1717276071,"current_range_meters":10800,"station_id":"ce4bgih2rcd13ifvqba0","pricing_plan_id":"cebpf4jnsgd1na2vs0mg"},{"bike_id":"9967125d-ebe6-426a-86eb-f501d54971df","system_id":"levelo_inurba_marseille","lat":43.29529,"lon":5.385581,"is_reserved":false,"is_disabled":false,"rental_uris":{"android":"levelo://app?vid=9967125d-ebe6-426a-86eb-f501d54971df","ios":"levelo://app?vid=9967125d-ebe6-426a-86eb-f501d54971df"},"vehicle_type_id":"4","last_reported":1717276071,"current_range_meters":22000,"station_id":"ce4bgih2rcd13ifvqba0","pricing_plan_id":"cebpf4jnsgd1na2vs0mg"},{"bike_id":"edc0a653-e1a7-417c-8198-8709cfec505a","system_id":"levelo_inurba_marseille","lat":43.29529,"lon":5.385581,"is_reserved":false,"is_disabled":false,"rental_uris":{"android":"levelo://app?vid=edc0a653-e1a7-417c-8198-8709cfec505a","ios":"levelo://app?vid=edc0a653-e1a7-417c-8198-8709cfec505a"},"vehicle_type_id":"4","last_reported":1717276071,"current_range_meters":28000,"station_id":"ce4bgih2rcd13ifvqba0","pricing_plan_id":"cebpf4jnsgd1na2vs0mg"},{"bike_id":"692dd810-f203-485d-ad95-725037706f47","system_id":"levelo_inurba_marseille","lat":43.29529,"lon":5.385581,"is_reserved":false,"is_disabled":false,"rental_uris":{"android":"levelo://app?vid=692dd810-f203-485d-ad95-725037706f47","ios":"levelo://app?vid=692dd810-f203-485d-ad95-725037706f47"},"vehicle_type_id":"4","last_reported":1717276071,"current_range_meters":19600,"station_id":"ce4bgih2rcd13ifvqba0","pricing_plan_id":"cebpf4jnsgd1na2vs0mg"},{"bike_id":"bbfa12d0-5f44-4772-9797-ea06781c0ca7","system_id":"levelo_inurba_marseille","lat":43.29529,"lon":5.385581,"is_reserved":false,"is_disabled":false,"rental_uris":{"android":"levelo://app?vid=bbfa12d0-5f44-4772-9797-ea06781c0ca7","ios":"levelo://app?vid=bbfa12d0-5f44-4772-9797-ea06781c0ca7"},"vehicle_type_id":"4","last_reported":1717276071,"current_range_meters":13600,"station_id":"ce4bgih2rcd13ifvqba0","pricing_plan_id":"cebpf4jnsgd1na2vs0mg"},{"bike_id":"1a0ad6f6-1372-4745-8abe-93ee80cc347b","system_id":"levelo_inurba_marseille","lat":43.295236,"lon":5.385435,"is_reserved":false,"is_disabled":false,"rental_uris":{"android":"levelo://app?vid=1a0ad6f6-1372-4745-8abe-93ee80cc347b","ios":"levelo://app?vid=1a0ad6f6-1372-4745-8abe-93ee80cc347b"},"vehicle_type_id":"4","last_reported":1717276071,"current_range_meters":1200,"station_id":"ce4bgih2rcd13ifvqba0","pricing_plan_id":"cebpf4jnsgd1na2vs0mg"},{"bike_id":"9d0d3d12-5bf4-425f-a009-abcf6ca4e0b6","system_id":"levelo_inurba_marseille","lat":43.29529,"lon":5.385581,"is_reserved":false,"is_disabled":false,"rental_uris":{"android":"levelo://app?vid=9d0d3d12-5bf4-425f-a009-abcf6ca4e0b6","ios":"levelo://app?vid=9d0d3d12-5bf4-425f-a009-abcf6ca4e0b6"},"vehicle_type_id":"4","last_reported":1717276071,"current_range_meters":31200,"station_id":"ce4bgih2rcd13ifvqba0","pricing_plan_id":"cebpf4jnsgd1na2vs0mg"},{"bike_id":"64780621-8b14-4684-8427-2c1f3449ab71","system_id":"levelo_inurba_marseille","lat":43.290779,"lon":5.371482,"is_reserved":false,"is_disabled":false,"rental_uris":{"android":"levelo://app?vid=64780621-8b14-4684-8427-2c1f3449ab71","ios":"levelo://app?vid=64780621-8b14-4684-8427-2c1f3449ab71"},"vehicle_type_id":"4","last_reported":1717276071,"current_range_meters":23600,"station_id":"ce4bh5p2rcd13ifvqe4g","pricing_plan_id":"cebpf4jnsgd1na2vs0mg"},{"bike_id":"3ed532fe-ec78-495c-8e74-2ca2dfdf93e3","system_id":"levelo_inurba_marseille","lat":43.290779,"lon":5.371482,"is_reserved":false,"is_disabled":false,"rental_uris":{"android":"levelo://app?vid=3ed532fe-ec78-495c-8e74-2ca2dfdf93e3","ios":"levelo://app?vid=3ed532fe-ec78-495c-8e74-2ca2dfdf93e3"},"vehicle_type_id":"4","last_reported":1717276071,"current_range_meters":8800,"station_id":"ce4bh5p2rcd13ifvqe4g","pricing_plan_id":"cebpf4jnsgd1na2vs0mg"},{"bike_id":"7b55b9f7-4dfd-45ce-b46c-5ce9a912e952","system_id":"levelo_inurba_marseille","lat":43.295169,"lon":5.390426,"is_reserved":false,"is_disabled":false,"rental_uris":{"android":"levelo://app?vid=7b55b9f7-4dfd-45ce-b46c-5ce9a912e952","ios":"levelo://app?vid=7b55b9f7-4dfd-45ce-b46c-5ce9a912e952"},"vehicle_type_id":"4","last_reported":1717276071,"current_range_meters":7600,"station_id":"ce4bh3p2rcd13ifvqdp0","pricing_plan_id":"cebpf4jnsgd1na2vs0mg"},{"bike_id":"07dcd8dd-e380-4714-b590-68aa43650b9f","system_id":"levelo_inurba_marseille","lat":43.290499,"lon":5.371613,"is_reserved":false,"is_disabled":false,"rental_uris":{"android":"levelo://app?vid=07dcd8dd-e380-4714-b590-68aa43650b9f","ios":"levelo://app?vid=07dcd8dd-e380-4714-b590-68aa43650b9f"},"vehicle_type_id":"4","last_reported":1717276071,"current_range_meters":0,"station_id":"ce4bh5p2rcd13ifvqe4g","pricing_plan_id":"cebpf4jnsgd1na2vs0mg"},{"bike_id":"414ddcff-dc55-430b-afd1-784600c8b8fa","system_id":"levelo_inurba_marseille","lat":43.289468,"lon":5.363719,"is_reserved":false,"is_disabled":false,"rental_uris":{"android":"levelo://app?vid=414ddcff-dc55-430b-afd1-784600c8b8fa","ios":"levelo://app?vid=414ddcff-dc55-430b-afd1-784600c8b8fa"},"vehicle_type_id":"4","last_reported":1717276071,"current_range_meters":8400,"station_id":"ce4bhc92rcd13ifvqetg","pricing_plan_id":"cebpf4jnsgd1na2vs0mg"},{"bike_id":"fc710e44-2c92-447b-9565-0d33ca7dfe47","system_id":"levelo_inurba_marseille","lat":43.29426,"lon":5.3862,"is_reserved":false,"is_disabled":false,"rental_uris":{"android":"levelo://app?vid=fc710e44-2c92-447b-9565-0d33ca7dfe47","ios":"levelo://app?vid=fc710e44-2c92-447b-9565-0d33ca7dfe47"},"vehicle_type_id":"4","last_reported":1717276071,"current_range_meters":0,"station_id":"ce4bh2h2rcd13ifvqdh0","pricing_plan_id":"cebpf4jnsgd1na2vs0mg"},{"bike_id":"8ef0e01e-4e8a-47d9-8e19-ddff68ebaf9e","system_id":"levelo_inurba_marseille","lat":43.29424,"lon":5.38623,"is_reserved":false,"is_disabled":false,"rental_uris":{"android":"levelo://app?vid=8ef0e01e-4e8a-47d9-8e19-ddff68ebaf9e","ios":"levelo://app?vid=8ef0e01e-4e8a-47d9-8e19-ddff68ebaf9e"},"vehicle_type_id":"4","last_reported":1717276071,"current_range_meters":6800,"station_id":"ce4bh2h2rcd13ifvqdh0","pricing_plan_id":"cebpf4jnsgd1na2vs0mg"},{"bike_id":"a081d9dd-21b0-4fa0-b639-e442bb658432","system_id":"levelo_inurba_marseille","lat":43.294233,"lon":5.386219,"is_reserved":false,"is_disabled":false,"rental_uris":{"android":"levelo://app?vid=a081d9dd-21b0-4fa0-b639-e442bb658432","ios":"levelo://app?vid=a081d9dd-21b0-4fa0-b639-e442bb658432"},"vehicle_type_id":"4","last_reported":1717276071,"current_range_meters":0,"station_id":"ce4bh2h2rcd13ifvqdh0","pricing_plan_id":"cebpf4jnsgd1na2vs0mg"},{"bike_id":"313f4449-3f13-46df-8f65-832dc4545132","system_id":"levelo_inurba_marseille","lat":43.29422,"lon":5.3862,"is_reserved":false,"is_disabled":false,"rental_uris":{"android":"levelo://app?vid=313f4449-3f13-46df-8f65-832dc4545132","ios":"levelo://app?vid=313f4449-3f13-46df-8f65-832dc4545132"},"vehicle_type_id":"4","last_reported":1717276071,"current_range_meters":7200,"station_id":"ce4bh2h2rcd13ifvqdh0","pricing_plan_id":"cebpf4jnsgd1na2vs0mg"},{"bike_id":"35a53d63-bd7e-4cbd-af4f-6a16b014918a","system_id":"levelo_inurba_marseille","lat":43.29421,"lon":5.3862,"is_reserved":false,"is_disabled":false,"rental_uris":{"android":"levelo://app?vid=35a53d63-bd7e-4cbd-af4f-6a16b014918a","ios":"levelo://app?vid=35a53d63-bd7e-4cbd-af4f-6a16b014918a"},"vehicle_type_id":"4","last_reported":1717276071,"current_range_meters":0,"station_id":"ce4bh2h2rcd13ifvqdh0","pricing_plan_id":"cebpf4jnsgd1na2vs0mg"},{"bike_id":"e0c2e27e-20e3-46bc-b103-1e8a0901b137","system_id":"levelo_inurba_marseille","lat":43.294181,"lon":5.386164,"is_reserved":false,"is_disabled":false,"rental_uris":{"android":"levelo://app?vid=e0c2e27e-20e3-46bc-b103-1e8a0901b137","ios":"levelo://app?vid=e0c2e27e-20e3-46bc-b103-1e8a0901b137"},"vehicle_type_id":"4","last_reported":1717276071,"current_range_meters":20800,"station_id":"ce4bh2h2rcd13ifvqdh0","pricing_plan_id":"cebpf4jnsgd1na2vs0mg"},{"bike_id":"d0c9a69f-21ef-4311-b8b7-17578faf3f67","system_id":"levelo_inurba_marseille","lat":43.29422,"lon":5.38624,"is_reserved":false,"is_disabled":false,"rental_uris":{"android":"levelo://app?vid=d0c9a69f-21ef-4311-b8b7-17578faf3f67","ios":"levelo://app?vid=d0c9a69f-21ef-4311-b8b7-17578faf3f67"},"vehicle_type_id":"4","last_reported":1717276071,"current_range_meters":0,"station_id":"ce4bh2h2rcd13ifvqdh0","pricing_plan_id":"cebpf4jnsgd1na2vs0mg"},{"bike_id":"338f0888-0151-48f9-92a1-d69bb4016ad7","system_id":"levelo_inurba_marseille","lat":43.290779,"lon":5.371482,"is_reserved":false,"is_disabled":false,"rental_uris":{"android":"levelo://app?vid=338f0888-0151-48f9-92a1-d69bb4016ad7","ios":"levelo://app?vid=338f0888-0151-48f9-92a1-d69bb4016ad7"},"vehicle_type_id":"4","last_reported":1717276071,"current_range_meters":15600,"station_id":"ce4bh5p2rcd13ifvqe4g","pricing_plan_id":"cebpf4jnsgd1na2vs0mg"},{"bike_id":"084eed7e-e389-4832-88ee-d5b4202e4c25","system_id":"levelo_inurba_marseille","lat":43.294201,"lon":5.386219,"is_reserved":false,"is_disabled":false,"rental_uris":{"android":"levelo://app?vid=084eed7e-e389-4832-88ee-d5b4202e4c25","ios":"levelo://app?vid=084eed7e-e389-4832-88ee-d5b4202e4c25"},"vehicle_type_id":"4","last_reported":1717276071,"current_range_meters":11200,"station_id":"ce4bh2h2rcd13ifvqdh0","pricing_plan_id":"cebpf4jnsgd1na2vs0mg"},{"bike_id":"f105bad6-2e84-4f8b-aa1e-03bf63891831","system_id":"levelo_inurba_marseille","lat":43.294192,"lon":5.386215,"is_reserved":false,"is_disabled":false,"rental_uris":{"android":"levelo://app?vid=f105bad6-2e84-4f8b-aa1e-03bf63891831","ios":"levelo://app?vid=f105bad6-2e84-4f8b-aa1e-03bf63891831"},"vehicle_type_id":"4","last_reported":1717276071,"current_range_meters":8800,"station_id":"ce4bh2h2rcd13ifvqdh0","pricing_plan_id":"cebpf4jnsgd1na2vs0mg"},{"bike_id":"052ae00b-4d4f-4c37-b417-324db7d21021","system_id":"levelo_inurba_marseille","lat":43.29419,"lon":5.38622,"is_reserved":false,"is_disabled":false,"rental_uris":{"android":"levelo://app?vid=052ae00b-4d4f-4c37-b417-324db7d21021","ios":"levelo://app?vid=052ae00b-4d4f-4c37-b417-324db7d21021"},"vehicle_type_id":"4","last_reported":1717276071,"current_range_meters":0,"station_id":"ce4bh2h2rcd13ifvqdh0","pricing_plan_id":"cebpf4jnsgd1na2vs0mg"},{"bike_id":"b02e9b75-9d1d-44dc-9734-ba041474d68c","system_id":"levelo_inurba_marseille","lat":43.29418,"lon":5.38622,"is_reserved":false,"is_disabled":false,"rental_uris":{"android":"levelo://app?vid=b02e9b75-9d1d-44dc-9734-ba041474d68c","ios":"levelo://app?vid=b02e9b75-9d1d-44dc-9734-ba041474d68c"},"vehicle_type_id":"4","last_reported":1717276071,"current_range_meters":16000,"station_id":"ce4bh2h2rcd13ifvqdh0","pricing_plan_id":"cebpf4jnsgd1na2vs0mg"},{"bike_id":"0f168307-bd5e-4d7e-a0ce-fa6ac785c49b","system_id":"levelo_inurba_marseille","lat":43.29421,"lon":5.38628,"is_reserved":false,"is_disabled":false,"rental_uris":{"android":"levelo://app?vid=0f168307-bd5e-4d7e-a0ce-fa6ac785c49b","ios":"levelo://app?vid=0f168307-bd5e-4d7e-a0ce-fa6ac785c49b"},"vehicle_type_id":"4","last_reported":1717276071,"current_range_meters":0,"station_id":"ce4bh2h2rcd13ifvqdh0","pricing_plan_id":"cebpf4jnsgd1na2vs0mg"},{"bike_id":"31432b61-bb2c-44d4-b762-03cb5f1cb9a9","system_id":"levelo_inurba_marseille","lat":43.294189,"lon":5.386243,"is_reserved":false,"is_disabled":false,"rental_uris":{"android":"levelo://app?vid=31432b61-bb2c-44d4-b762-03cb5f1cb9a9","ios":"levelo://app?vid=31432b61-bb2c-44d4-b762-03cb5f1cb9a9"},"vehicle_type_id":"4","last_reported":1717276071,"current_range_meters":23200,"station_id":"ce4bh2h2rcd13ifvqdh0","pricing_plan_id":"cebpf4jnsgd1na2vs0mg"},{"bike_id":"c6588ec2-b3df-490d-ba02-e703d5762c8e","system_id":"levelo_inurba_marseille","lat":43.290336,"lon":5.375628,"is_reserved":false,"is_disabled":false,"rental_uris":{"android":"levelo://app?vid=c6588ec2-b3df-490d-ba02-e703d5762c8e","ios":"levelo://app?vid=c6588ec2-b3df-490d-ba02-e703d5762c8e"},"vehicle_type_id":"4","last_reported":1717276071,"current_range_meters":0,"station_id":"ce4bh692rcd13ifvqe90","pricing_plan_id":"cebpf4jnsgd1na2vs0mg"},{"bike_id":"277c1efb-8dc1-4293-8a19-3e4a982995a2","system_id":"levelo_inurba_marseille","lat":43.29419,"lon":5.38627,"is_reserved":false,"is_disabled":false,"rental_uris":{"android":"levelo://app?vid=277c1efb-8dc1-4293-8a19-3e4a982995a2","ios":"levelo://app?vid=277c1efb-8dc1-4293-8a19-3e4a982995a2"},"vehicle_type_id":"4","last_reported":1717276071,"current_range_meters":5200,"station_id":"ce4bh2h2rcd13ifvqdh0","pricing_plan_id":"cebpf4jnsgd1na2vs0mg"},{"bike_id":"9e66cae7-f622-416f-b2d6-dd8d4d83a52a","system_id":"levelo_inurba_marseille","lat":43.29418,"lon":5.38626,"is_reserved":false,"is_disabled":false,"rental_uris":{"android":"levelo://app?vid=9e66cae7-f622-416f-b2d6-dd8d4d83a52a","ios":"levelo://app?vid=9e66cae7-f622-416f-b2d6-dd8d4d83a52a"},"vehicle_type_id":"4","last_reported":1717276071,"current_range_meters":0,"station_id":"ce4bh2h2rcd13ifvqdh0","pricing_plan_id":"cebpf4jnsgd1na2vs0mg"},{"bike_id":"33bf3af0-bd0e-4210-bb5a-2b323b183314","system_id":"levelo_inurba_marseille","lat":43.294144,"lon":5.386196,"is_reserved":false,"is_disabled":false,"rental_uris":{"android":"levelo://app?vid=33bf3af0-bd0e-4210-bb5a-2b323b183314","ios":"levelo://app?vid=33bf3af0-bd0e-4210-bb5a-2b323b183314"},"vehicle_type_id":"4","last_reported":1717276071,"current_range_meters":0,"station_id":"ce4bh2h2rcd13ifvqdh0","pricing_plan_id":"cebpf4jnsgd1na2vs0mg"},{"bike_id":"a580bda8-3ea3-4c8f-824f-7d8da63d6c11","system_id":"levelo_inurba_marseille","lat":43.29417,"lon":5.38626,"is_reserved":false,"is_disabled":false,"rental_uris":{"android":"levelo://app?vid=a580bda8-3ea3-4c8f-824f-7d8da63d6c11","ios":"levelo://app?vid=a580bda8-3ea3-4c8f-824f-7d8da63d6c11"},"vehicle_type_id":"4","last_reported":1717276071,"current_range_meters":18000,"station_id":"ce4bh2h2rcd13ifvqdh0","pricing_plan_id":"cebpf4jnsgd1na2vs0mg"},{"bike_id":"cd2cb346-9e09-47db-b8e4-a7d0aa7008a3","system_id":"levelo_inurba_marseille","lat":43.29416,"lon":5.38628,"is_reserved":false,"is_disabled":false,"rental_uris":{"android":"levelo://app?vid=cd2cb346-9e09-47db-b8e4-a7d0aa7008a3","ios":"levelo://app?vid=cd2cb346-9e09-47db-b8e4-a7d0aa7008a3"},"vehicle_type_id":"4","last_reported":1717276071,"current_range_meters":1600,"station_id":"ce4bh2h2rcd13ifvqdh0","pricing_plan_id":"cebpf4jnsgd1na2vs0mg"},{"bike_id":"a4b8ae0b-d534-4ed0-aa6a-ede45a8b1f3c","system_id":"levelo_inurba_marseille","lat":43.294162,"lon":5.386292,"is_reserved":false,"is_disabled":false,"rental_uris":{"android":"levelo://app?vid=a4b8ae0b-d534-4ed0-aa6a-ede45a8b1f3c","ios":"levelo://app?vid=a4b8ae0b-d534-4ed0-aa6a-ede45a8b1f3c"},"vehicle_type_id":"4","last_reported":1717276071,"current_range_meters":18800,"station_id":"ce4bh2h2rcd13ifvqdh0","pricing_plan_id":"cebpf4jnsgd1na2vs0mg"},{"bike_id":"98dee921-28d8-427c-89ae-79d75c1367a5","system_id":"levelo_inurba_marseille","lat":43.29417,"lon":5.38633,"is_reserved":false,"is_disabled":false,"rental_uris":{"android":"levelo://app?vid=98dee921-28d8-427c-89ae-79d75c1367a5","ios":"levelo://app?vid=98dee921-28d8-427c-89ae-79d75c1367a5"},