{"last_updated":1742127355,"ttl":60,"version":"2.2","data":{"bikes":[{"bike_id":"f5d879b5-4e8a-4e91-bc2b-907eff703e2f","system_id":"levelo_inurba_marseille","lat":43.24659,"lon":5.38162,"is_reserved":false,"is_disabled":false,"rental_uris":{"android":"levelo://app?vid=f5d879b5-4e8a-4e91-bc2b-907eff703e2f","ios":"levelo://app?vid=f5d879b5-4e8a-4e91-bc2b-907eff703e2f"},"vehicle_type_id":"4","last_reported":1742127355,"current_range_meters":2800,"station_id":"ce4bhih2rcd13ifvqfr0","pricing_plan_id":"cebpf4jnsgd1na2vs0mg"},{"bike_id":"6a73dd39-cdec-4ba8-b6eb-fe4bb793d20d","system_id":"levelo_inurba_marseille","lat":43.23191,"lon":5.35555,"is_reserved":false,"is_disabled":false,"rental_uris":{"android":"levelo://app?vid=6a73dd39-cdec-4ba8-b6eb-fe4bb793d20d","ios":"levelo://app?vid=6a73dd39-cdec-4ba8-b6eb-fe4bb793d20d"},"vehicle_type_id":"4","last_reported":1742127355,"current_range_meters":3200,"station_id":"ce4bhu92rcd13ifvqi70","pricing_plan_id":"cebpf4jnsgd1na2vs0mg"},{"bike_id":"c2e5486b-f5f5-45af-973c-42198c00164d","system_id":"levelo_inurba_marseille","lat":43.32474,"lon":5.36552,"is_reserved":false,"is_disabled":false,"rental_uris":{"android":"levelo://app?vid=c2e5486b-f5f5-45af-973c-42198c00164d","ios":"levelo://app?vid=c2e5486b-f5f5-45af-973c-42198c00164d"},"vehicle_type_id":"4","last_reported":1742127355,"current_range_meters":3200,"station_id":"ce4bhs12rcd13ifvqhvg","pricing_plan_id":"cebpf4jnsgd1na2vs0mg"},{"bike_id":"db7527fd-5be3-40df-9be2-8ba99a328579","system_id":"levelo_inurba_marseille","lat":43.24806,"lon":5.37455,"is_reserved":false,"is_disabled":false,"rental_uris":{"android":"levelo://app?vid=db7527fd-5be3-40df-9be2-8ba99a328579","ios":"levelo://app?vid=db7527fd-5be3-40df-9be2-8ba99a328579"},"vehicle_type_id":"4","last_reported":1742127355,"current_range_meters":3200,"station_id":"ce4bhgh2rcd13ifvqfb0","pricing_plan_id":"cebpf4jnsgd1na2vs0mg"},{"bike_id":"9d32fea8-8104-41c0-9b0a-a23ea4c0455d","system_id":"levelo_inurba_marseille","lat":43.24998,"lon":5.38923,"is_reserved":false,"is_disabled":false,"rental_uris":{"android":"levelo://app?vid=9d32fea8-8104-41c0-9b0a-a23ea4c0455d","ios":"levelo://app?vid=9d32fea8-8104-41c0-9b0a-a23ea4c0455d"},"vehicle_type_id":"4","last_reported":1742127355,"current_range_meters":3200,"station_id":"ce4bhgp2rcd13ifvqfd0","pricing_plan_id":"cebpf4jnsgd1na2vs0mg"},{"bike_id":"8ac44318-75ee-48c4-b327-5b75b8b9df72","system_id":"levelo_inurba_marseille","lat":43.27896,"lon":5.38011,"is_reserved":false,"is_disabled":false,"rental_uris":{"android":"levelo://app?vid=8ac44318-75ee-48c4-b327-5b75b8b9df72","ios":"levelo://app?vid=8ac44318-75ee-48c4-b327-5b75b8b9df72"},"vehicle_type_id":"4","last_reported":1742127355,"current_range_meters":3200,"station_id":"ce4bhf92rcd13ifvqf50","pricing_plan_id":"cebpf4jnsgd1na2vs0mg"},{"bike_id":"9bdc3edc-1fa4-4885-8957-8d7706c8fad3","system_id":"levelo_inurba_marseille","lat":43.30874,"lon":5.39629,"is_reserved":false,"is_disabled":false,"rental_uris":{"android":"levelo://app?vid=9bdc3edc-1fa4-4885-8957-8d7706c8fad3","ios":"levelo://app?vid=9bdc3edc-1fa4-4885-8957-8d7706c8fad3"},"vehicle_type_id":"4","last_reported":1742127355,"current_range_meters":3200,"station_id":"ce4bh012rcd13ifvqcv0","pricing_plan_id":"cebpf4jnsgd1na2vs0mg"},{"bike_id":"89a0e4a7-7f22-4e60-8c86-22353a9ecdb8","system_id":"levelo_inurba_marseille","lat":43.24173,"lon":5.36396,"is_reserved":false,"is_disabled":false,"rental_uris":{"android":"levelo://app?vid=89a0e4a7-7f22-4e60-8c86-22353a9ecdb8","ios":"levelo://app?vid=89a0e4a7-7f22-4e60-8c86-22353a9ecdb8"},"vehicle_type_id":"4","last_reported":1742127355,"current_range_meters":3200,"station_id":"cpo36qri1sfpv3e86is0","pricing_plan_id":"cebpf4jnsgd1na2vs0mg"},{"bike_id":"7931fd06-9e0b-4937-959b-01e56f842227","system_id":"levelo_inurba_marseille","lat":43.244,"lon":5.37051,"is_reserved":false,"is_disabled":false,"rental_uris":{"android":"levelo://app?vid=7931fd06-9e0b-4937-959b-01e56f842227","ios":"levelo://app?vid=7931fd06-9e0b-4937-959b-01e56f842227"},"vehicle_type_id":"4","last_reported":1742127355,"current_range_meters":3600,"station_id":"ce4bhhh2rcd13ifvqfk0","pricing_plan_id":"cebpf4jnsgd1na2vs0mg"},{"bike_id":"f136de30-0a06-43ef-b3b4-ac3a47aca260","system_id":"levelo_inurba_marseille","lat":43.24386,"lon":5.3708,"is_reserved":false,"is_disabled":false,"rental_uris":{"android":"levelo://app?vid=f136de30-0a06-43ef-b3b4-ac3a47aca260","ios":"levelo://app?vid=f136de30-0a06-43ef-b3b4-ac3a47aca260"},"vehicle_type_id":"4","last_reported":1742127355,"current_range_meters":3600,"station_id":"ce4bhhh2rcd13ifvqfk0","pricing_plan_id":"cebpf4jnsgd1na2vs0mg"},{"bike_id":"ef9ab68e-c978-4d2e-a093-a00102e9fc3e","system_id":"levelo_inurba_marseille","lat":43.29099,"lon":5.38117,"is_reserved":false,"is_disabled":false,"rental_uris":{"android":"levelo://app?vid=ef9ab68e-c978-4d2e-a093-a00102e9fc3e","ios":"levelo://app?vid=ef9ab68e-c978-4d2e-a093-a00102e9fc3e"},"vehicle_type_id":"4","last_reported":1742127355,"current_range_meters":3600,"station_id":"ce4bh512rcd13ifvqe2g","pricing_plan_id":"cebpf4jnsgd1na2vs0mg"},{"bike_id":"465937d7-05dc-4627-ba66-97e92b774b8c","system_id":"levelo_inurba_marseille","lat":43.26805,"lon":5.40268,"is_reserved":false,"is_disabled":false,"rental_uris":{"android":"levelo://app?vid=465937d7-05dc-4627-ba66-97e92b774b8c","ios":"levelo://app?vid=465937d7-05dc-4627-ba66-97e92b774b8c"},"vehicle_type_id":"4","last_reported":1742127355,"current_range_meters":3600,"station_id":"ce501612rcd8frsf0b60","pricing_plan_id":"cebpf4jnsgd1na2vs0mg"},{"bike_id":"ba8c3b95-0372-4e22-9f2e-0ee86110451c","system_id":"levelo_inurba_marseille","lat":43.31333,"lon":5.39694,"is_reserved":false,"is_disabled":false,"rental_uris":{"android":"levelo://app?vid=ba8c3b95-0372-4e22-9f2e-0ee86110451c","ios":"levelo://app?vid=ba8c3b95-0372-4e22-9f2e-0ee86110451c"},"vehicle_type_id":"4","last_reported":1742127355,"current_range_meters":4000,"station_id":"ce4bgvp2rcd13ifvqcu0","pricing_plan_id":"cebpf4jnsgd1na2vs0mg"},{"bike_id":"ef0420cd-62d9-46e6-bc23-a8b7c01978bb","system_id":"levelo_inurba_marseille","lat":43.29773,"lon":5.38119,"is_reserved":false,"is_disabled":true,"rental_uris":{"android":"levelo://app?vid=ef0420cd-62d9-46e6-bc23-a8b7c01978bb","ios":"levelo://app?vid=ef0420cd-62d9-46e6-bc23-a8b7c01978bb"},"vehicle_type_id":"4","last_reported":1742127355,"current_range_meters":4000,"station_id":"ce4bgip2rcd13ifvqbb0","pricing_plan_id":"cebpf4jnsgd1na2vs0mg"},{"bike_id":"596328fd-f453-47e1-b8a8-8a0c546a9d29","system_id":"levelo_inurba_marseille","lat":43.29596,"lon":5.38099,"is_reserved":false,"is_disabled":false,"rental_uris":{"android":"levelo://app?vid=596328fd-f453-47e1-b8a8-8a0c546a9d29","ios":"levelo://app?vid=596328fd-f453-47e1-b8a8-8a0c546a9d29"},"vehicle_type_id":"4","last_reported":1742127355,"current_range_meters":4400,"station_id":"ce4bgl12rcd13ifvqbo0","pricing_plan_id":"cebpf4jnsgd1na2vs0mg"},{"bike_id":"99e03a55-80c9-4479-acee-6a7a0c622902","system_id":"levelo_inurba_marseille","lat":43.2836,"lon":5.38626,"is_reserved":false,"is_disabled":false,"rental_uris":{"android":"levelo://app?vid=99e03a55-80c9-4479-acee-6a7a0c622902","ios":"levelo://app?vid=99e03a55-80c9-4479-acee-6a7a0c622902"},"vehicle_type_id":"4","last_reported":1742127355,"current_range_meters":4400,"station_id":"ce4bh492rcd13ifvqdvg","pricing_plan_id":"cebpf4jnsgd1na2vs0mg"},{"bike_id":"88c2ec9c-c2ee-474d-a6aa-dbb7a53fc0ca","system_id":"levelo_inurba_marseille","lat":43.241736,"lon":5.397424,"is_reserved":false,"is_disabled":true,"rental_uris":{"android":"levelo://app?vid=88c2ec9c-c2ee-474d-a6aa-dbb7a53fc0ca","ios":"levelo://app?vid=88c2ec9c-c2ee-474d-a6aa-dbb7a53fc0ca"},"vehicle_type_id":"4","last_reported":1742127355,"current_range_meters":4400,"station_id":"ce4bhn12rcd13ifvqgpg","pricing_plan_id":"cebpf4jnsgd1na2vs0mg"},{"bike_id":"bed563ae-dc43-466e-9f38-95f0cc4dd333","system_id":"levelo_inurba_marseille","lat":43.22935,"lon":5.35387,"is_reserved":false,"is_disabled":false,"rental_uris":{"android":"levelo://app?vid=bed563ae-dc43-466e-9f38-95f0cc4dd333","ios":"levelo://app?vid=bed563ae-dc43-466e-9f38-95f0cc4dd333"},"vehicle_type_id":"4","last_reported":1742127355,"current_range_meters":4400,"station_id":"cpo3532slgdg3j2ikp40","pricing_plan_id":"cebpf4jnsgd1na2vs0mg"},{"bike_id":"47d4a37a-03f5-4a8f-b364-54787b5f5319","system_id":"levelo_inurba_marseille","lat":43.24669,"lon":5.3817,"is_reserved":false,"is_disabled":false,"rental_uris":{"android":"levelo://app?vid=47d4a37a-03f5-4a8f-b364-54787b5f5319","ios":"levelo://app?vid=47d4a37a-03f5-4a8f-b364-54787b5f5319"},"vehicle_type_id":"4","last_reported":1742127355,"current_range_meters":4400,"station_id":"ce4bhih2rcd13ifvqfr0","pricing_plan_id":"cebpf4jnsgd1na2vs0mg"},{"bike_id":"c6e0537f-0a20-404c-8c5d-eff0373de23b","system_id":"levelo_inurba_marseille","lat":43.28482,"lon":5.3843,"is_reserved":false,"is_disabled":false,"rental_uris":{"android":"levelo://app?vid=c6e0537f-0a20-404c-8c5d-eff0373de23b","ios":"levelo://app?vid=c6e0537f-0a20-404c-8c5d-eff0373de23b"},"vehicle_type_id":"4","last_reported":1742127355,"current_range_meters":4400,"station_id":"ce4bh512rcd13ifvqe3g","pricing_plan_id":"cebpf4jnsgd1na2vs0mg"},{"bike_id":"0effbbb8-a931-404a-a47c-69bda0c677cc","system_id":"levelo_inurba_marseille","lat":43.2293,"lon":5.35382,"is_reserved":false,"is_disabled":false,"rental_uris":{"android":"levelo://app?vid=0effbbb8-a931-404a-a47c-69bda0c677cc","ios":"levelo://app?vid=0effbbb8-a931-404a-a47c-69bda0c677cc"},"vehicle_type_id":"4","last_reported":1742127355,"current_range_meters":4400,"station_id":"cpo3532slgdg3j2ikp40","pricing_plan_id":"cebpf4jnsgd1na2vs0mg"},{"bike_id":"c6847223-eade-403f-b235-de80df493de7","system_id":"levelo_inurba_marseille","lat":43.31327,"lon":5.39698,"is_reserved":false,"is_disabled":false,"rental_uris":{"android":"levelo://app?vid=c6847223-eade-403f-b235-de80df493de7","ios":"levelo://app?vid=c6847223-eade-403f-b235-de80df493de7"},"vehicle_type_id":"4","last_reported":1742127355,"current_range_meters":4800,"station_id":"ce4bgvp2rcd13ifvqcu0","pricing_plan_id":"cebpf4jnsgd1na2vs0mg"},{"bike_id":"ef5aaa02-7ba2-40c7-9eeb-20990d40a4ab","system_id":"levelo_inurba_marseille","lat":43.24424,"lon":5.37026,"is_reserved":false,"is_disabled":false,"rental_uris":{"android":"levelo://app?vid=ef5aaa02-7ba2-40c7-9eeb-20990d40a4ab","ios":"levelo://app?vid=ef5aaa02-7ba2-40c7-9eeb-20990d40a4ab"},"vehicle_type_id":"4","last_reported":1742127355,"current_range_meters":4800,"station_id":"ce4bhhh2rcd13ifvqfk0","pricing_plan_id":"cebpf4jnsgd1na2vs0mg"},{"bike_id":"44b961f5-0abd-42a2-8a84-c383b60b2449","system_id":"levelo_inurba_marseille","lat":43.25111,"lon":5.40311,"is_reserved":false,"is_disabled":false,"rental_uris":{"android":"levelo://app?vid=44b961f5-0abd-42a2-8a84-c383b60b2449","ios":"levelo://app?vid=44b961f5-0abd-42a2-8a84-c383b60b2449"},"vehicle_type_id":"4","last_reported":1742127355,"current_range_meters":4800,"station_id":"ce4bhlh2rcd13ifvqgig","pricing_plan_id":"cebpf4jnsgd1na2vs0mg"},{"bike_id":"01801f54-9147-429d-aab5-3ba7aa79cf71","system_id":"levelo_inurba_marseille","lat":43.2952,"lon":5.39396,"is_reserved":false,"is_disabled":false,"rental_uris":{"android":"levelo://app?vid=01801f54-9147-429d-aab5-3ba7aa79cf71","ios":"levelo://app?vid=01801f54-9147-429d-aab5-3ba7aa79cf71"},"vehicle_type_id":"4","last_reported":1742127355,"current_range_meters":5600,"station_id":"ce4bh292rcd13ifvqdf0","pricing_plan_id":"cebpf4jnsgd1na2vs0mg"},{"bike_id":"76b415aa-d90d-4b4c-9954-2e46fdae4260","system_id":"levelo_inurba_marseille","lat":43.29007,"lon":5.35601,"is_reserved":false,"is_disabled":true,"rental_uris":{"android":"levelo://app?vid=76b415aa-d90d-4b4c-9954-2e46fdae4260","ios":"levelo://app?vid=76b415aa-d90d-4b4c-9954-2e46fdae4260"},"vehicle_type_id":"4","last_reported":1742127355,"current_range_meters":5600,"station_id":"ce4bhb92rcd13ifvqen0","pricing_plan_id":"cebpf4jnsgd1na2vs0mg"},{"bike_id":"6aab1a1c-5f85-4de1-9a91-2db8ccc46369","system_id":"levelo_inurba_marseille","lat":43.24075,"lon":5.37758,"is_reserved":false,"is_disabled":false,"rental_uris":{"android":"levelo://app?vid=6aab1a1c-5f85-4de1-9a91-2db8ccc46369","ios":"levelo://app?vid=6aab1a1c-5f85-4de1-9a91-2db8ccc46369"},"vehicle_type_id":"4","last_reported":1742127355,"current_range_meters":5600,"station_id":"ce4bhnp2rcd13ifvqgvg","pricing_plan_id":"cebpf4jnsgd1na2vs0mg"},{"bike_id":"81e08eee-9562-4095-94b3-d6c4aba4e0b9","system_id":"levelo_inurba_marseille","lat":43.25863,"lon":5.39898,"is_reserved":false,"is_disabled":false,"rental_uris":{"android":"levelo://app?vid=81e08eee-9562-4095-94b3-d6c4aba4e0b9","ios":"levelo://app?vid=81e08eee-9562-4095-94b3-d6c4aba4e0b9"},"vehicle_type_id":"4","last_reported":1742127355,"current_range_meters":5600,"station_id":"ce4bhl92rcd13ifvqghg","pricing_plan_id":"cebpf4jnsgd1na2vs0mg"},{"bike_id":"9081de2a-2fee-4f17-8299-898460dc0c35","system_id":"levelo_inurba_marseille","lat":43.301825,"lon":5.366195,"is_reserved":false,"is_disabled":false,"rental_uris":{"android":"levelo://app?vid=9081de2a-2fee-4f17-8299-898460dc0c35","ios":"levelo://app?vid=9081de2a-2fee-4f17-8299-898460dc0c35"},"vehicle_type_id":"4","last_reported":1742127355,"current_range_meters":8400,"station_id":"ce4bgrh2rcd13ifvqc8g","pricing_plan_id":"cebpf4jnsgd1na2vs0mg"},{"bike_id":"6f143c5b-933e-4a51-97d8-72a3705988b8","system_id":"levelo_inurba_marseille","lat":43.32234,"lon":5.37956,"is_reserved":false,"is_disabled":false,"rental_uris":{"android":"levelo://app?vid=6f143c5b-933e-4a51-97d8-72a3705988b8","ios":"levelo://app?vid=6f143c5b-933e-4a51-97d8-72a3705988b8"},"vehicle_type_id":"4","last_reported":1742127355,"current_range_meters":5600,"station_id":"","pricing_plan_id":"cebpf4jnsgd1na2vs0mg"},{"bike_id":"2536bf7b-0bc4-4ce1-a54d-4981991d865f","system_id":"levelo_inurba_marseille","lat":43.25579,"lon":5.38229,"is_reserved":false,"is_disabled":false,"rental_uris":{"android":"levelo://app?vid=2536bf7b-0bc4-4ce1-a54d-4981991d865f","ios":"levelo://app?vid=2536bf7b-0bc4-4ce1-a54d-4981991d865f"},"vehicle_type_id":"4","last_reported":1742127355,"current_range_meters":6000,"station_id":"ce4bhih2rcd13ifvqfs0","pricing_plan_id":"cebpf4jnsgd1na2vs0mg"},{"bike_id":"ae101444-9461-4e76-a90e-2e5eacdcafbc","system_id":"levelo_inurba_marseille","lat":43.27973,"lon":5.38705,"is_reserved":false,"is_disabled":true,"rental_uris":{"android":"levelo://app?vid=ae101444-9461-4e76-a90e-2e5eacdcafbc","ios":"levelo://app?vid=ae101444-9461-4e76-a90e-2e5eacdcafbc"},"vehicle_type_id":"4","last_reported":1742127355,"current_range_meters":6000,"station_id":"ce4bhg12rcd13ifvqf80","pricing_plan_id":"cebpf4jnsgd1na2vs0mg"},{"bike_id":"b94d759f-1d6b-4124-98e7-6d40ad3123b0","system_id":"levelo_inurba_marseille","lat":43.26567,"lon":5.39005,"is_reserved":false,"is_disabled":false,"rental_uris":{"android":"levelo://app?vid=b94d759f-1d6b-4124-98e7-6d40ad3123b0","ios":"levelo://app?vid=b94d759f-1d6b-4124-98e7-6d40ad3123b0"},"vehicle_type_id":"4","last_reported":1742127355,"current_range_meters":6000,"station_id":"ce4bhe12rcd13ifvqf30","pricing_plan_id":"cebpf4jnsgd1na2vs0mg"},{"bike_id":"c09eef82-a876-4206-8f48-f916c292515b","system_id":"levelo_inurba_marseille","lat":43.30537,"lon":5.38424,"is_reserved":false,"is_disabled":false,"rental_uris":{"android":"levelo://app?vid=c09eef82-a876-4206-8f48-f916c292515b","ios":"levelo://app?vid=c09eef82-a876-4206-8f48-f916c292515b"},"vehicle_type_id":"4","last_reported":1742127355,"current_range_meters":4800,"station_id":"ce4bgg92rcd13ifvqb30","pricing_plan_id":"cebpf4jnsgd1na2vs0mg"},{"bike_id":"9130c1e0-b61f-4347-bc58-fc495208eff8","system_id":"levelo_inurba_marseille","lat":43.27058,"lon":5.40264,"is_reserved":false,"is_disabled":false,"rental_uris":{"android":"levelo://app?vid=9130c1e0-b61f-4347-bc58-fc495208eff8","ios":"levelo://app?vid=9130c1e0-b61f-4347-bc58-fc495208eff8"},"vehicle_type_id":"4","last_reported":1742127355,"current_range_meters":6000,"station_id":"ce4bhk92rcd13ifvqgc0","pricing_plan_id":"cebpf4jnsgd1na2vs0mg"},{"bike_id":"ff146ae4-5d0f-428e-9996-d9a1c910bbe1","system_id":"levelo_inurba_marseille","lat":43.28424,"lon":5.34987,"is_reserved":false,"is_disabled":false,"rental_uris":{"android":"levelo://app?vid=ff146ae4-5d0f-428e-9996-d9a1c910bbe1","ios":"levelo://app?vid=ff146ae4-5d0f-428e-9996-d9a1c910bbe1"},"vehicle_type_id":"4","last_reported":1742127355,"current_range_meters":6000,"station_id":"ce4bhbh2rcd13ifvqepg","pricing_plan_id":"cebpf4jnsgd1na2vs0mg"},{"bike_id":"e3952f96-c86a-46c0-9ca2-c8ec87425fc2","system_id":"levelo_inurba_marseille","lat":43.29368,"lon":5.37857,"is_reserved":false,"is_disabled":false,"rental_uris":{"android":"levelo://app?vid=e3952f96-c86a-46c0-9ca2-c8ec87425fc2","ios":"levelo://app?vid=e3952f96-c86a-46c0-9ca2-c8ec87425fc2"},"vehicle_type_id":"4","last_reported":1742127355,"current_range_meters":6000,"station_id":"ce4bgjh2rcd13ifvqbf0","pricing_plan_id":"cebpf4jnsgd1na2vs0mg"},{"bike_id":"832d4ee6-23fb-4c75-9bc5-6a2d919c8c55","system_id":"levelo_inurba_marseille","lat":43.25951,"lon":5.40884,"is_reserved":false,"is_disabled":false,"rental_uris":{"android":"levelo://app?vid=832d4ee6-23fb-4c75-9bc5-6a2d919c8c55","ios":"levelo://app?vid=832d4ee6-23fb-4c75-9bc5-6a2d919c8c55"},"vehicle_type_id":"4","last_reported":1742127355,"current_range_meters":6000,"station_id":"ce4bhm92rcd13ifvqglg","pricing_plan_id":"cebpf4jnsgd1na2vs0mg"},{"bike_id":"aa795381-5174-4265-abe3-ddbff84516c8","system_id":"levelo_inurba_marseille","lat":43.30157,"lon":5.37398,"is_reserved":false,"is_disabled":true,"rental_uris":{"android":"levelo://app?vid=aa795381-5174-4265-abe3-ddbff84516c8","ios":"levelo://app?vid=aa795381-5174-4265-abe3-ddbff84516c8"},"vehicle_type_id":"4","last_reported":1742127355,"current_range_meters":6400,"station_id":"ce4bgs92rcd13ifvqcc0","pricing_plan_id":"cebpf4jnsgd1na2vs0mg"},{"bike_id":"56a5bcb8-cae4-4fea-9338-bc9c078b9321","system_id":"levelo_inurba_marseille","lat":43.29013,"lon":5.38624,"is_reserved":false,"is_disabled":false,"rental_uris":{"android":"levelo://app?vid=56a5bcb8-cae4-4fea-9338-bc9c078b9321","ios":"levelo://app?vid=56a5bcb8-cae4-4fea-9338-bc9c078b9321"},"vehicle_type_id":"4","last_reported":1742127355,"current_range_meters":6000,"station_id":"ce4bh4p2rcd13ifvqe0g","pricing_plan_id":"cebpf4jnsgd1na2vs0mg"},{"bike_id":"89888283-3380-43fc-a781-177ff24fbff2","system_id":"levelo_inurba_marseille","lat":43.28425,"lon":5.34982,"is_reserved":false,"is_disabled":false,"rental_uris":{"android":"levelo://app?vid=89888283-3380-43fc-a781-177ff24fbff2","ios":"levelo://app?vid=89888283-3380-43fc-a781-177ff24fbff2"},"vehicle_type_id":"4","last_reported":1742127355,"current_range_meters":6400,"station_id":"ce4bhbh2rcd13ifvqepg","pricing_plan_id":"cebpf4jnsgd1na2vs0mg"},{"bike_id":"11877a08-1209-410f-8a57-ef814c57a390","system_id":"levelo_inurba_marseille","lat":43.24177,"lon":5.36389,"is_reserved":false,"is_disabled":false,"rental_uris":{"android":"levelo://app?vid=11877a08-1209-410f-8a57-ef814c57a390","ios":"levelo://app?vid=11877a08-1209-410f-8a57-ef814c57a390"},"vehicle_type_id":"4","last_reported":1742127355,"current_range_meters":6400,"station_id":"cpo36qri1sfpv3e86is0","pricing_plan_id":"cebpf4jnsgd1na2vs0mg"},{"bike_id":"bdb4bfb1-14a4-46ff-b216-5b3cb0ddf95f","system_id":"levelo_inurba_marseille","lat":43.29557,"lon":5.39956,"is_reserved":false,"is_disabled":true,"rental_uris":{"android":"levelo://app?vid=bdb4bfb1-14a4-46ff-b216-5b3cb0ddf95f","ios":"levelo://app?vid=bdb4bfb1-14a4-46ff-b216-5b3cb0ddf95f"},"vehicle_type_id":"4","last_reported":1742127355,"current_range_meters":6400,"station_id":"ce4bh312rcd13ifvqdj0","pricing_plan_id":"cebpf4jnsgd1na2vs0mg"},{"bike_id":"1999cecf-f38c-4961-9580-ef6a50d3e0be","system_id":"levelo_inurba_marseille","lat":43.24165,"lon":5.36399,"is_reserved":false,"is_disabled":false,"rental_uris":{"android":"levelo://app?vid=1999cecf-f38c-4961-9580-ef6a50d3e0be","ios":"levelo://app?vid=1999cecf-f38c-4961-9580-ef6a50d3e0be"},"vehicle_type_id":"4","last_reported":1742127355,"current_range_meters":6400,"station_id":"cpo36qri1sfpv3e86is0","pricing_plan_id":"cebpf4jnsgd1na2vs0mg"},{"bike_id":"385ae15c-2c3c-4490-a507-5eb20fb883a5","system_id":"levelo_inurba_marseille","lat":43.25952,"lon":5.40884,"is_reserved":false,"is_disabled":false,"rental_uris":{"android":"levelo://app?vid=385ae15c-2c3c-4490-a507-5eb20fb883a5","ios":"levelo://app?vid=385ae15c-2c3c-4490-a507-5eb20fb883a5"},"vehicle_type_id":"4","last_reported":1742127355,"current_range_meters":6400,"station_id":"ce4bhm92rcd13ifvqglg","pricing_plan_id":"cebpf4jnsgd1na2vs0mg"},{"bike_id":"bd5dfb17-ef30-45f3-9aee-d65f87d3755a","system_id":"levelo_inurba_marseille","lat":43.32484,"lon":5.36563,"is_reserved":false,"is_disabled":false,"rental_uris":{"android":"levelo://app?vid=bd5dfb17-ef30-45f3-9aee-d65f87d3755a","ios":"levelo://app?vid=bd5dfb17-ef30-45f3-9aee-d65f87d3755a"},"vehicle_type_id":"4","last_reported":1742127355,"current_range_meters":6800,"station_id":"ce4bhs12rcd13ifvqhvg","pricing_plan_id":"cebpf4jnsgd1na2vs0mg"},{"bike_id":"cd6ac142-9b1e-41e7-81b1-48da1d4f82fc","system_id":"levelo_inurba_marseille","lat":43.28676,"lon":5.3865,"is_reserved":false,"is_disabled":false,"rental_uris":{"android":"levelo://app?vid=cd6ac142-9b1e-41e7-81b1-48da1d4f82fc","ios":"levelo://app?vid=cd6ac142-9b1e-41e7-81b1-48da1d4f82fc"},"vehicle_type_id":"4","last_reported":1742127355,"current_range_meters":6800,"station_id":"ce4bh492rcd13ifvqdug","pricing_plan_id":"cebpf4jnsgd1na2vs0mg"},{"bike_id":"0ab69b64-2bc6-40ff-a351-b107bc084411","system_id":"levelo_inurba_marseille","lat":43.32481,"lon":5.36536,"is_reserved":false,"is_disabled":false,"rental_uris":{"android":"levelo://app?vid=0ab69b64-2bc6-40ff-a351-b107bc084411","ios":"levelo://app?vid=0ab69b64-2bc6-40ff-a351-b107bc084411"},"vehicle_type_id":"4","last_reported":1742127355,"current_range_meters":6800,"station_id":"ce4bhs12rcd13ifvqhvg","pricing_plan_id":"cebpf4jnsgd1na2vs0mg"},{"bike_id":"a51e83ee-53b4-4965-b5bb-694ae883e860","system_id":"levelo_inurba_marseille","lat":43.26226,"lon":5.37435,"is_reserved":false,"is_disabled":true,"rental_uris":{"android":"levelo://app?vid=a51e83ee-53b4-4965-b5bb-694ae883e860","ios":"levelo://app?vid=a51e83ee-53b4-4965-b5bb-694ae883e860"},"vehicle_type_id":"4","last_reported":1742127355,"current_range_meters":6800,"station_id":"","pricing_plan_id":"cebpf4jnsgd1na2vs0mg"},{"bike_id":"18c7ddbb-8768-4cdb-96ec-fc38c8562067","system_id":"levelo_inurba_marseille","lat":43.28278,"lon":5.3507,"is_reserved":false,"is_disabled":false,"rental_uris":{"android":"levelo://app?vid=18c7ddbb-8768-4cdb-96ec-fc38c8562067","ios":"levelo://app?vid=18c7ddbb-8768-4cdb-96ec-fc38c8562067"},"vehicle_type_id":"4","last_reported":1742127355,"current_range_meters":6800,"station_id":"ce4bhbp2rcd13ifvqerg","pricing_plan_id":"cebpf4jnsgd1na2vs0mg"},{"bike_id":"32fdd259-8f26-436e-8f6f-5cc9a33fa02d","system_id":"levelo_inurba_marseille","lat":43.29018,"lon":5.35599,"is_reserved":false,"is_disabled":false,"rental_uris":{"android":"levelo://app?vid=32fdd259-8f26-436e-8f6f-5cc9a33fa02d","ios":"levelo://app?vid=32fdd259-8f26-436e-8f6f-5cc9a33fa02d"},"vehicle_type_id":"4","last_reported":1742127355,"current_range_meters":6800,"station_id":"ce4bhb92rcd13ifvqen0","pricing_plan_id":"cebpf4jnsgd1na2vs0mg"},{"bike_id":"6c001d2e-b208-4ff5-a256-643169f0701b","system_id":"levelo_inurba_marseille","lat":43.23069,"lon":5.35489,"is_reserved":false,"is_disabled":false,"rental_uris":{"android":"levelo://app?vid=6c001d2e-b208-4ff5-a256-643169f0701b","ios":"levelo://app?vid=6c001d2e-b208-4ff5-a256-643169f0701b"},"vehicle_type_id":"4","last_reported":1742127355,"current_range_meters":6800,"station_id":"cpo3342slgdg3j2ifvpg","pricing_plan_id":"cebpf4jnsgd1na2vs0mg"},{"bike_id":"e464da9b-4265-41fe-9ae3-61ef3ee812a3","system_id":"levelo_inurba_marseille","lat":43.305329,"lon":5.365534,"is_reserved":false,"is_disabled":false,"rental_uris":{"android":"levelo://app?vid=e464da9b-4265-41fe-9ae3-61ef3ee812a3","ios":"levelo://app?vid=e464da9b-4265-41fe-9ae3-61ef3ee812a3"},"vehicle_type_id":"4","last_reported":1742127355,"current_range_meters":7200,"station_id":"ce4bgop2rcd13ifvqc1g","pricing_plan_id":"cebpf4jnsgd1na2vs0mg"},{"bike_id":"e0834956-e6d7-4bc3-862d-e76e3f887cbb","system_id":"levelo_inurba_marseille","lat":43.2306,"lon":5.35476,"is_reserved":false,"is_disabled":false,"rental_uris":{"android":"levelo://app?vid=e0834956-e6d7-4bc3-862d-e76e3f887cbb","ios":"levelo://app?vid=e0834956-e6d7-4bc3-862d-e76e3f887cbb"},"vehicle_type_id":"4","last_reported":1742127355,"current_range_meters":6800,"station_id":"cpo3342slgdg3j2ifvpg","pricing_plan_id":"cebpf4jnsgd1na2vs0mg"},{"bike_id":"d5a86333-12d1-4b5b-b47f-3b8ab3fbd6bc","system_id":"levelo_inurba_marseille","lat":43.25585,"lon":5.38239,"is_reserved":false,"is_disabled":false,"rental_uris":{"android":"levelo://app?vid=d5a86333-12d1-4b5b-b47f-3b8ab3fbd6bc","ios":"levelo://app?vid=d5a86333-12d1-4b5b-b47f-3b8ab3fbd6bc"},"vehicle_type_id":"4","last_reported":1742127355,"current_range_meters":6400,"station_id":"ce4bhih2rcd13ifvqfs0","pricing_plan_id":"cebpf4jnsgd1na2vs0mg"},{"bike_id":"f69e9c28-2b8b-4dcd-b228-c38018e34a87","system_id":"levelo_inurba_marseille","lat":43.22929,"lon":5.35373,"is_reserved":false,"is_disabled":false,"rental_uris":{"android":"levelo://app?vid=f69e9c28-2b8b-4dcd-b228-c38018e34a87","ios":"levelo://app?vid=f69e9c28-2b8b-4dcd-b228-c38018e34a87"},"vehicle_type_id":"4","last_reported":1742127355,"current_range_meters":6800,"station_id":"cpo3532slgdg3j2ikp40","pricing_plan_id":"cebpf4jnsgd1na2vs0mg"},{"bike_id":"9fdfc49a-56cd-4c13-bd0e-fa5e770f32e4","system_id":"levelo_inurba_marseille","lat":43.28427,"lon":5.34988,"is_reserved":false,"is_disabled":false,"rental_uris":{"android":"levelo://app?vid=9fdfc49a-56cd-4c13-bd0e-fa5e770f32e4","ios":"levelo://app?vid=9fdfc49a-56cd-4c13-bd0e-fa5e770f32e4"},"vehicle_type_id":"4","last_reported":1742127355,"current_range_meters":6800,"station_id":"ce4bhbh2rcd13ifvqepg","pricing_plan_id":"cebpf4jnsgd1na2vs0mg"},{"bike_id":"2d7448ad-d15a-4c5e-8dbc-5383e88d7973","system_id":"levelo_inurba_marseille","lat":43.28751,"lon":5.39951,"is_reserved":false,"is_disabled":false,"rental_uris":{"android":"levelo://app?vid=2d7448ad-d15a-4c5e-8dbc-5383e88d7973","ios":"levelo://app?vid=2d7448ad-d15a-4c5e-8dbc-5383e88d7973"},"vehicle_type_id":"4","last_reported":1742127355,"current_range_meters":7200,"station_id":"ce4bho92rcd13ifvqh3g","pricing_plan_id":"cebpf4jnsgd1na2vs0mg"},{"bike_id":"ffd839f6-b4a1-450e-9f71-3c23d86ff55f","system_id":"levelo_inurba_marseille","lat":43.26926,"lon":5.38915,"is_reserved":false,"is_disabled":false,"rental_uris":{"android":"levelo://app?vid=ffd839f6-b4a1-450e-9f71-3c23d86ff55f","ios":"levelo://app?vid=ffd839f6-b4a1-450e-9f71-3c23d86ff55f"},"vehicle_type_id":"4","last_reported":1742127355,"current_range_meters":7200,"station_id":"ce4bhhh2rcd13ifvqfl0","pricing_plan_id":"cebpf4jnsgd1na2vs0mg"},{"bike_id":"1ac0ebad-6828-4242-99b2-14a9f8209f79","system_id":"levelo_inurba_marseille","lat":43.232,"lon":5.35555,"is_reserved":false,"is_disabled":false,"rental_uris":{"android":"levelo://app?vid=1ac0ebad-6828-4242-99b2-14a9f8209f79","ios":"levelo://app?vid=1ac0ebad-6828-4242-99b2-14a9f8209f79"},"vehicle_type_id":"4","last_reported":1742127355,"current_range_meters":7200,"station_id":"ce4bhu92rcd13ifvqi70","pricing_plan_id":"cebpf4jnsgd1na2vs0mg"},{"bike_id":"676e66c6-8e50-404c-b512-5f94c7d6a8fc","system_id":"levelo_inurba_marseille","lat":43.24168,"lon":5.36409,"is_reserved":false,"is_disabled":false,"rental_uris":{"android":"levelo://app?vid=676e66c6-8e50-404c-b512-5f94c7d6a8fc","ios":"levelo://app?vid=676e66c6-8e50-404c-b512-5f94c7d6a8fc"},"vehicle_type_id":"4","last_reported":1742127355,"current_range_meters":7200,"station_id":"cpo36qri1sfpv3e86is0","pricing_plan_id":"cebpf4jnsgd1na2vs0mg"},{"bike_id":"a368ec29-4619-427b-b3cd-dd9e3edf5231","system_id":"levelo_inurba_marseille","lat":43.34159,"lon":5.40907,"is_reserved":false,"is_disabled":false,"rental_uris":{"android":"levelo://app?vid=a368ec29-4619-427b-b3cd-dd9e3edf5231","ios":"levelo://app?vid=a368ec29-4619-427b-b3cd-dd9e3edf5231"},"vehicle_type_id":"4","last_reported":1742127355,"current_range_meters":7200,"station_id":"ce4bhqh2rcd13ifvqhlg","pricing_plan_id":"cebpf4jnsgd1na2vs0mg"},{"bike_id":"12d698f7-f420-413d-9f6a-b251fbe646b0","system_id":"levelo_inurba_marseille","lat":43.31348,"lon":5.39664,"is_reserved":false,"is_disabled":false,"rental_uris":{"android":"levelo://app?vid=12d698f7-f420-413d-9f6a-b251fbe646b0","ios":"levelo://app?vid=12d698f7-f420-413d-9f6a-b251fbe646b0"},"vehicle_type_id":"4","last_reported":1742127355,"current_range_meters":7200,"station_id":"ce4bgvp2rcd13ifvqcu0","pricing_plan_id":"cebpf4jnsgd1na2vs0mg"},{"bike_id":"b614f100-11d7-4ef9-8f84-7c5dea0b786b","system_id":"levelo_inurba_marseille","lat":43.26949,"lon":5.4026,"is_reserved":false,"is_disabled":false,"rental_uris":{"android":"levelo://app?vid=b614f100-11d7-4ef9-8f84-7c5dea0b786b","ios":"levelo://app?vid=b614f100-11d7-4ef9-8f84-7c5dea0b786b"},"vehicle_type_id":"4","last_reported":1742127355,"current_range_meters":7200,"station_id":"cjm6bp8fraef2m0cb0m0","pricing_plan_id":"cebpf4jnsgd1na2vs0mg"},{"bike_id":"0f74dd4e-cb5b-4b46-a372-a74e84029f94","system_id":"levelo_inurba_marseille","lat":43.28356,"lon":5.38104,"is_reserved":false,"is_disabled":false,"rental_uris":{"android":"levelo://app?vid=0f74dd4e-cb5b-4b46-a372-a74e84029f94","ios":"levelo://app?vid=0f74dd4e-cb5b-4b46-a372-a74e84029f94"},"vehicle_type_id":"4","last_reported":1742127355,"current_range_meters":6400,"station_id":"ce4bh412rcd13ifvqdr0","pricing_plan_id":"cebpf4jnsgd1na2vs0mg"},{"bike_id":"efb53dda-871b-483c-8dec-e716116f9234","system_id":"levelo_inurba_marseille","lat":43.31077,"lon":5.3677,"is_reserved":false,"is_disabled":false,"rental_uris":{"android":"levelo://app?vid=efb53dda-871b-483c-8dec-e716116f9234","ios":"levelo://app?vid=efb53dda-871b-483c-8dec-e716116f9234"},"vehicle_type_id":"4","last_reported":1742127355,"current_range_meters":7200,"station_id":"","pricing_plan_id":"cebpf4jnsgd1na2vs0mg"},{"bike_id":"d2c8b6e5-6589-4855-b980-370b19ff1cd4","system_id":"levelo_inurba_marseille","lat":43.24168,"lon":5.36401,"is_reserved":false,"is_disabled":false,"rental_uris":{"android":"levelo://app?vid=d2c8b6e5-6589-4855-b980-370b19ff1cd4","ios":"levelo://app?vid=d2c8b6e5-6589-4855-b980-370b19ff1cd4"},"vehicle_type_id":"4","last_reported":1742127355,"current_range_meters":7200,"station_id":"cpo36qri1sfpv3e86is0","pricing_plan_id":"cebpf4jnsgd1na2vs0mg"},{"bike_id":"1be88fbe-069b-402f-854b-66c79b3cb265","system_id":"levelo_inurba_marseille","lat":43.29049,"lon":5.35914,"is_reserved":false,"is_disabled":false,"rental_uris":{"android":"levelo://app?vid=1be88fbe-069b-402f-854b-66c79b3cb265","ios":"levelo://app?vid=1be88fbe-069b-402f-854b-66c79b3cb265"},"vehicle_type_id":"4","last_reported":1742127355,"current_range_meters":7200,"station_id":"ce4bha92rcd13ifvqeg0","pricing_plan_id":"cebpf4jnsgd1na2vs0mg"},{"bike_id":"eefe4114-201f-4897-b136-02e7b1e76e54","system_id":"levelo_inurba_marseille","lat":43.27833,"lon":5.39215,"is_reserved":false,"is_disabled":false,"rental_uris":{"android":"levelo://app?vid=eefe4114-201f-4897-b136-02e7b1e76e54","ios":"levelo://app?vid=eefe4114-201f-4897-b136-02e7b1e76e54"},"vehicle_type_id":"4","last_reported":1742127355,"current_range_meters":8000,"station_id":"ce4bhjp2rcd13ifvqga0","pricing_plan_id":"cebpf4jnsgd1na2vs0mg"},{"bike_id":"df267d0d-9139-4adf-a7ce-832ba2d2f504","system_id":"levelo_inurba_marseille","lat":43.27813,"lon":5.40704,"is_reserved":false,"is_disabled":false,"rental_uris":{"android":"levelo://app?vid=df267d0d-9139-4adf-a7ce-832ba2d2f504","ios":"levelo://app?vid=df267d0d-9139-4adf-a7ce-832ba2d2f504"},"vehicle_type_id":"4","last_reported":1742127355,"current_range_meters":8000,"station_id":"ce4bhnh2rcd13ifvqgtg","pricing_plan_id":"cebpf4jnsgd1na2vs0mg"},{"bike_id":"0f4c0ac8-369e-43c0-87e3-130a44e0a547","system_id":"levelo_inurba_marseille","lat":43.33031,"lon":5.39037,"is_reserved":false,"is_disabled":false,"rental_uris":{"android":"levelo://app?vid=0f4c0ac8-369e-43c0-87e3-130a44e0a547","ios":"levelo://app?vid=0f4c0ac8-369e-43c0-87e3-130a44e0a547"},"vehicle_type_id":"4","last_reported":1742127355,"current_range_meters":8000,"station_id":"ce4bhr92rcd13ifvqhrg","pricing_plan_id":"cebpf4jnsgd1na2vs0mg"},{"bike_id":"0b7bfdb8-fd03-4687-9225-8085184f929c","system_id":"levelo_inurba_marseille","lat":43.32354,"lon":5.36736,"is_reserved":false,"is_disabled":false,"rental_uris":{"android":"levelo://app?vid=0b7bfdb8-fd03-4687-9225-8085184f929c","ios":"levelo://app?vid=0b7bfdb8-fd03-4687-9225-8085184f929c"},"vehicle_type_id":"4","last_reported":1742127355,"current_range_meters":8000,"station_id":"ce4bhsh2rcd13ifvqi2g","pricing_plan_id":"cebpf4jnsgd1na2vs0mg"},{"bike_id":"63cfaea5-f172-409c-93d3-875ff9136d61","system_id":"levelo_inurba_marseille","lat":43.24657,"lon":5.38157,"is_reserved":false,"is_disabled":false,"rental_uris":{"android":"levelo://app?vid=63cfaea5-f172-409c-93d3-875ff9136d61","ios":"levelo://app?vid=63cfaea5-f172-409c-93d3-875ff9136d61"},"vehicle_type_id":"4","last_reported":1742127355,"current_range_meters":8000,"station_id":"ce4bhih2rcd13ifvqfr0","pricing_plan_id":"cebpf4jnsgd1na2vs0mg"},{"bike_id":"5dc9a229-1c73-4169-96ad-33924c10dca6","system_id":"levelo_inurba_marseille","lat":43.27812,"lon":5.40701,"is_reserved":false,"is_disabled":false,"rental_uris":{"android":"levelo://app?vid=5dc9a229-1c73-4169-96ad-33924c10dca6","ios":"levelo://app?vid=5dc9a229-1c73-4169-96ad-33924c10dca6"},"vehicle_type_id":"4","last_reported":1742127355,"current_range_meters":8000,"station_id":"ce4bhnh2rcd13ifvqgtg","pricing_plan_id":"cebpf4jnsgd1na2vs0mg"},{"bike_id":"74c004a6-8c1c-43a2-8c59-5fe697516eaa","system_id":"levelo_inurba_marseille","lat":43.24812,"lon":5.37446,"is_reserved":false,"is_disabled":false,"rental_uris":{"android":"levelo://app?vid=74c004a6-8c1c-43a2-8c59-5fe697516eaa","ios":"levelo://app?vid=74c004a6-8c1c-43a2-8c59-5fe697516eaa"},"vehicle_type_id":"4","last_reported":1742127355,"current_range_meters":8000,"station_id":"ce4bhgh2rcd13ifvqfb0","pricing_plan_id":"cebpf4jnsgd1na2vs0mg"},{"bike_id":"e52b41b5-52df-4c67-a85c-3cebb3bf7504","system_id":"levelo_inurba_marseille","lat":43.3236,"lon":5.36761,"is_reserved":false,"is_disabled":false,"rental_uris":{"android":"levelo://app?vid=e52b41b5-52df-4c67-a85c-3cebb3bf7504","ios":"levelo://app?vid=e52b41b5-52df-4c67-a85c-3cebb3bf7504"},"vehicle_type_id":"4","last_reported":1742127355,"current_range_meters":8000,"station_id":"ce4bhsh2rcd13ifvqi2g","pricing_plan_id":"cebpf4jnsgd1na2vs0mg"},{"bike_id":"09b66478-04cf-48d8-b314-6c9366086808","system_id":"levelo_inurba_marseille","lat":43.27984,"lon":5.4001,"is_reserved":false,"is_disabled":false,"rental_uris":{"android":"levelo://app?vid=09b66478-04cf-48d8-b314-6c9366086808","ios":"levelo://app?vid=09b66478-04cf-48d8-b314-6c9366086808"},"vehicle_type_id":"4","last_reported":1742127355,"current_range_meters":8000,"station_id":"ce4bho92rcd13ifvqh4g","pricing_plan_id":"cebpf4jnsgd1na2vs0mg"},{"bike_id":"c06b6f4c-bcac-4450-bc38-6840c98c54fc","system_id":"levelo_inurba_marseille","lat":43.23152,"lon":5.43711,"is_reserved":false,"is_disabled":false,"rental_uris":{"android":"levelo://app?vid=c06b6f4c-bcac-4450-bc38-6840c98c54fc","ios":"levelo://app?vid=c06b6f4c-bcac-4450-bc38-6840c98c54fc"},"vehicle_type_id":"4","last_reported":1742127355,"current_range_meters":8000,"station_id":"ce4bhmp2rcd13ifvqgog","pricing_plan_id":"cebpf4jnsgd1na2vs0mg"},{"bike_id":"cd599479-cb87-429c-83a1-742e20b1c9d7","system_id":"levelo_inurba_marseille","lat":43.23177,"lon":5.39989,"is_reserved":false,"is_disabled":false,"rental_uris":{"android":"levelo://app?vid=cd599479-cb87-429c-83a1-742e20b1c9d7","ios":"levelo://app?vid=cd599479-cb87-429c-83a1-742e20b1c9d7"},"vehicle_type_id":"4","last_reported":1742127355,"current_range_meters":8000,"station_id":"ce4bhn12rcd13ifvqgqg","pricing_plan_id":"cebpf4jnsgd1na2vs0mg"},{"bike_id":"9625f194-a853-4767-bda8-0eedb08b2cb3","system_id":"levelo_inurba_marseille","lat":43.28712,"lon":5.39973,"is_reserved":false,"is_disabled":true,"rental_uris":{"android":"levelo://app?vid=9625f194-a853-4767-bda8-0eedb08b2cb3","ios":"levelo://app?vid=9625f194-a853-4767-bda8-0eedb08b2cb3"},"vehicle_type_id":"4","last_reported":1742127355,"current_range_meters":8000,"station_id":"ce4bho92rcd13ifvqh3g","pricing_plan_id":"cebpf4jnsgd1na2vs0mg"},{"bike_id":"71d6b220-48b3-44b0-9feb-d7bbfca6b232","system_id":"levelo_inurba_marseille","lat":43.25489,"lon":5.37663,"is_reserved":false,"is_disabled":true,"rental_uris":{"android":"levelo://app?vid=71d6b220-48b3-44b0-9feb-d7bbfca6b232","ios":"levelo://app?vid=71d6b220-48b3-44b0-9feb-d7bbfca6b232"},"vehicle_type_id":"4","last_reported":1742127355,"current_range_meters":8000,"station_id":"ce4bhh12rcd13ifvqff0","pricing_plan_id":"cebpf4jnsgd1na2vs0mg"},{"bike_id":"36f1ed95-2ac4-4693-b767-857da15b5aab","system_id":"levelo_inurba_marseille","lat":43.2439,"lon":5.37067,"is_reserved":false,"is_disabled":false,"rental_uris":{"android":"levelo://app?vid=36f1ed95-2ac4-4693-b767-857da15b5aab","ios":"levelo://app?vid=36f1ed95-2ac4-4693-b767-857da15b5aab"},"vehicle_type_id":"4","last_reported":1742127355,"current_range_meters":8000,"station_id":"ce4bhhh2rcd13ifvqfk0","pricing_plan_id":"cebpf4jnsgd1na2vs0mg"},{"bike_id":"f2b7b04e-8089-4d6c-9db8-5e21bca75c26","system_id":"levelo_inurba_marseille","lat":43.278319,"lon":5.392,"is_reserved":false,"is_disabled":true,"rental_uris":{"android":"levelo://app?vid=f2b7b04e-8089-4d6c-9db8-5e21bca75c26","ios":"levelo://app?vid=f2b7b04e-8089-4d6c-9db8-5e21bca75c26"},"vehicle_type_id":"4","last_reported":1742127355,"current_range_meters":8000,"station_id":"ce4bhjp2rcd13ifvqga0","pricing_plan_id":"cebpf4jnsgd1na2vs0mg"},{"bike_id":"1936d726-8a3a-4e6b-8b5d-4882ff2557a2","system_id":"levelo_inurba_marseille","lat":43.29579,"lon":5.36737,"is_reserved":false,"is_disabled":false,"rental_uris":{"android":"levelo://app?vid=1936d726-8a3a-4e6b-8b5d-4882ff2557a2","ios":"levelo://app?vid=1936d726-8a3a-4e6b-8b5d-4882ff2557a2"},"vehicle_type_id":"4","last_reported":1742127355,"current_range_meters":8000,"station_id":"ce4bgph2rcd13ifvqc2g","pricing_plan_id":"cebpf4jnsgd1na2vs0mg"},{"bike_id":"7505a698-f13c-4e06-b927-ca9a24572e95","system_id":"levelo_inurba_marseille","lat":43.27566,"lon":5.38426,"is_reserved":false,"is_disabled":false,"rental_uris":{"android":"levelo://app?vid=7505a698-f13c-4e06-b927-ca9a24572e95","ios":"levelo://app?vid=7505a698-f13c-4e06-b927-ca9a24572e95"},"vehicle_type_id":"4","last_reported":1742127355,"current_range_meters":8400,"station_id":"ce4bhh92rcd13ifvqfi0","pricing_plan_id":"cebpf4jnsgd1na2vs0mg"},{"bike_id":"5f7f03a2-add7-44f0-9ebb-8428c5f0e58a","system_id":"levelo_inurba_marseille","lat":43.25947,"lon":5.40887,"is_reserved":false,"is_disabled":false,"rental_uris":{"android":"levelo://app?vid=5f7f03a2-add7-44f0-9ebb-8428c5f0e58a","ios":"levelo://app?vid=5f7f03a2-add7-44f0-9ebb-8428c5f0e58a"},"vehicle_type_id":"4","last_reported":1742127355,"current_range_meters":8400,"station_id":"ce4bhm92rcd13ifvqglg","pricing_plan_id":"cebpf4jnsgd1na2vs0mg"},{"bike_id":"21f7769f-3a72-4075-a27e-1f6de52af1aa","system_id":"levelo_inurba_marseille","lat":43.290989,"lon":5.381238,"is_reserved":false,"is_disabled":false,"rental_uris":{"android":"levelo://app?vid=21f7769f-3a72-4075-a27e-1f6de52af1aa","ios":"levelo://app?vid=21f7769f-3a72-4075-a27e-1f6de52af1aa"},"vehicle_type_id":"4","last_reported":1742127355,"current_range_meters":6400,"station_id":"ce4bhap2rcd13ifvqek0","pricing_plan_id":"cebpf4jnsgd1na2vs0mg"},{"bike_id":"370c38c0-5ad3-4c2c-99d5-6cfd3cdf9e23","system_id":"levelo_inurba_marseille","lat":43.2315,"lon":5.4371,"is_reserved":false,"is_disabled":false,"rental_uris":{"android":"levelo://app?vid=370c38c0-5ad3-4c2c-99d5-6cfd3cdf9e23","ios":"levelo://app?vid=370c38c0-5ad3-4c2c-99d5-6cfd3cdf9e23"},"vehicle_type_id":"4","last_reported":1742127355,"current_range_meters":8400,"station_id":"ce4bhmp2rcd13ifvqgog","pricing_plan_id":"cebpf4jnsgd1na2vs0mg"},{"bike_id":"c27dba79-96e1-41c9-ad98-8ff76a1c1b98","system_id":"levelo_inurba_marseille","lat":43.23166,"lon":5.43695,"is_reserved":false,"is_disabled":false,"rental_uris":{"android":"levelo://app?vid=c27dba79-96e1-41c9-ad98-8ff76a1c1b98","ios":"levelo://app?vid=c27dba79-96e1-41c9-ad98-8ff76a1c1b98"},"vehicle_type_id":"4","last_reported":1742127355,"current_range_meters":8400,"station_id":"ce4bhmp2rcd13ifvqgog","pricing_plan_id":"cebpf4jnsgd1na2vs0mg"},{"bike_id":"9bcc57e1-0d2a-4dda-af9f-6f63e31de670","system_id":"levelo_inurba_marseille","lat":43.27427,"lon":5.39417,"is_reserved":false,"is_disabled":false,"rental_uris":{"android":"levelo://app?vid=9bcc57e1-0d2a-4dda-af9f-6f63e31de670","ios":"levelo://app?vid=9bcc57e1-0d2a-4dda-af9f-6f63e31de670"},"vehicle_type_id":"4","last_reported":1742127355,"current_range_meters":8000,"station_id":"ce4bhdp2rcd13ifvqf20","pricing_plan_id":"cebpf4jnsgd1na2vs0mg"},{"bike_id":"743c9fbf-42df-4986-bc8c-9b4a2bc386be","system_id":"levelo_inurba_marseille","lat":43.24079,"lon":5.37745,"is_reserved":false,"is_disabled":false,"rental_uris":{"android":"levelo://app?vid=743c9fbf-42df-4986-bc8c-9b4a2bc386be","ios":"levelo://app?vid=743c9fbf-42df-4986-bc8c-9b4a2bc386be"},"vehicle_type_id":"4","last_reported":1742127355,"current_range_meters":8400,"station_id":"ce4bhnp2rcd13ifvqgvg","pricing_plan_id":"cebpf4jnsgd1na2vs0mg"},{"bike_id":"31710fca-ccfa-43a5-ac6f-5ec923018ebf","system_id":"levelo_inurba_marseille","lat":43.27412,"lon":5.42062,"is_reserved":false,"is_disabled":false,"rental_uris":{"android":"levelo://app?vid=31710fca-ccfa-43a5-ac6f-5ec923018ebf","ios":"levelo://app?vid=31710fca-ccfa-43a5-ac6f-5ec923018ebf"},"vehicle_type_id":"4","last_reported":1742127355,"current_range_meters":8400,"station_id":"","pricing_plan_id":"cebpf4jnsgd1na2vs0mg"},{"bike_id":"c5f3baa5-071e-49c9-a279-6962d03083ac","system_id":"levelo_inurba_marseille","lat":43.30397,"lon":5.36777,"is_reserved":false,"is_disabled":false,"rental_uris":{"android":"levelo://app?vid=c5f3baa5-071e-49c9-a279-6962d03083ac","ios":"levelo://app?vid=c5f3baa5-071e-49c9-a279-6962d03083ac"},"vehicle_type_id":"4","last_reported":1742127355,"current_range_meters":8800,"station_id":"","pricing_plan_id":"cebpf4jnsgd1na2vs0mg"},{"bike_id":"1a40485b-af0c-47b0-ac22-ddf11fa26fbc","system_id":"levelo_inurba_marseille","lat":43.23965,"lon":5.36615,"is_reserved":false,"is_disabled":false,"rental_uris":{"android":"levelo://app?vid=1a40485b-af0c-47b0-ac22-ddf11fa26fbc","ios":"levelo://app?vid=1a40485b-af0c-47b0-ac22-ddf11fa26fbc"},"vehicle_type_id":"4","last_reported":1742127355,"current_range_meters":8800,"station_id":"ce4bhi12rcd13ifvqfp0","pricing_plan_id":"cebpf4jnsgd1na2vs0mg"},{"bike_id":"10044722-9baa-416e-a6f1-7ac67f5372b1","system_id":"levelo_inurba_marseille","lat":43.29606,"lon":5.37714,"is_reserved":false,"is_disabled":true,"rental_uris":{"android":"levelo://app?vid=10044722-9baa-416e-a6f1-7ac67f5372b1","ios":"levelo://app?vid=10044722-9baa-416e-a6f1-7ac67f5372b1"},"vehicle_type_id":"4","last_reported":1742127355,"current_range_meters":8800,"station_id":"ce4bgi92rcd13ifvqb90","pricing_plan_id":"cebpf4jnsgd1na2vs0mg"},{"bike_id":"f54b304c-233e-41fe-97aa-8c1994c6b28d","system_id":"levelo_inurba_marseille","lat":43.29519,"lon":5.39046,"is_reserved":false,"is_disabled":false,"rental_uris":{"android":"levelo://app?vid=f54b304c-233e-41fe-97aa-8c1994c6b28d","ios":"levelo://app?vid=f54b304c-233e-41fe-97aa-8c1994c6b28d"},"vehicle_type_id":"4","last_reported":1742127355,"current_range_meters":8800,"station_id":"ce4bh3p2rcd13ifvqdp0","pricing_plan_id":"cebpf4jnsgd1na2vs0mg"},{"bike_id":"4e30c1db-b22e-4b46-95f0-b29018697a18","system_id":"levelo_inurba_marseille","lat":43.27809,"lon":5.40698,"is_reserved":false,"is_disabled":false,"rental_uris":{"android":"levelo://app?vid=4e30c1db-b22e-4b46-95f0-b29018697a18","ios":"levelo://app?vid=4e30c1db-b22e-4b46-95f0-b29018697a18"},"vehicle_type_id":"4","last_reported":1742127355,"current_range_meters":8400,"station_id":"ce4bhnh2rcd13ifvqgtg","pricing_plan_id":"cebpf4jnsgd1na2vs0mg"},{"bike_id":"f6fa0bf5-1ef1-4b78-8667-47af493e6b17","system_id":"levelo_inurba_marseille","lat":43.27372,"lon":5.36269,"is_reserved":false,"is_disabled":false,"rental_uris":{"android":"levelo://app?vid=f6fa0bf5-1ef1-4b78-8667-47af493e6b17","ios":"levelo://app?vid=f6fa0bf5-1ef1-4b78-8667-47af493e6b17"},"vehicle_type_id":"4","last_reported":1742127355,"current_range_meters":9200,"station_id":"ce4bhbh2rcd13ifvqeo0","pricing_plan_id":"cebpf4jnsgd1na2vs0mg"},{"bike_id":"2127c283-3bf3-4081-9791-ba201cf5a542","system_id":"levelo_inurba_marseille","lat":43.30491,"lon":5.3733,"is_reserved":false,"is_disabled":true,"rental_uris":{"android":"levelo://app?vid=2127c283-3bf3-4081-9791-ba201cf5a542","ios":"levelo://app?vid=2127c283-3bf3-4081-9791-ba201cf5a542"},"vehicle_type_id":"4","last_reported":1742127355,"current_range_meters":8800,"station_id":"","pricing_plan_id":"cebpf4jnsgd1na2vs0mg"},{"bike_id":"9c153339-ffc3-4e73-9dd4-5e83c5bb119e","system_id":"levelo_inurba_marseille","lat":43.23195,"lon":5.39986,"is_reserved":false,"is_disabled":false,"rental_uris":{"android":"levelo://app?vid=9c153339-ffc3-4e73-9dd4-5e83c5bb119e","ios":"levelo://app?vid=9c153339-ffc3-4e73-9dd4-5e83c5bb119e"},"vehicle_type_id":"4","last_reported":1742127355,"current_range_meters":8800,"station_id":"ce4bhn12rcd13ifvqgqg","pricing_plan_id":"cebpf4jnsgd1na2vs0mg"},{"bike_id":"2888920d-5337-4dad-b80c-b748fa94c0d3","system_id":"levelo_inurba_marseille","lat":43.24637,"lon":5.38919,"is_reserved":false,"is_disabled":false,"rental_uris":{"android":"levelo://app?vid=2888920d-5337-4dad-b80c-b748fa94c0d3","ios":"levelo://app?vid=2888920d-5337-4dad-b80c-b748fa94c0d3"},"vehicle_type_id":"4","last_reported":1742127355,"current_range_meters":8800,"station_id":"ce4bhg12rcd13ifvqf60","pricing_plan_id":"cebpf4jnsgd1na2vs0mg"},{"bike_id":"1333c740-f33c-46ca-97eb-8a4943e3534d","system_id":"levelo_inurba_marseille","lat":43.29152,"lon":5.38444,"is_reserved":false,"is_disabled":false,"rental_uris":{"android":"levelo://app?vid=1333c740-f33c-46ca-97eb-8a4943e3534d","ios":"levelo://app?vid=1333c740-f33c-46ca-97eb-8a4943e3534d"},"vehicle_type_id":"4","last_reported":1742127355,"current_range_meters":8800,"station_id":"","pricing_plan_id":"cebpf4jnsgd1na2vs0mg"},{"bike_id":"3a766561-d5df-4bb1-accb-85c347f27a70","system_id":"levelo_inurba_marseille","lat":43.33733,"lon":5.39177,"is_reserved":false,"is_disabled":false,"rental_uris":{"android":"levelo://app?vid=3a766561-d5df-4bb1-accb-85c347f27a70","ios":"levelo://app?vid=3a766561-d5df-4bb1-accb-85c347f27a70"},"vehicle_type_id":"4","last_reported":1742127355,"current_range_meters":8800,"station_id":"ce4bhr92rcd13ifvqhsg","pricing_plan_id":"cebpf4jnsgd1na2vs0mg"},{"bike_id":"c1ccf9ca-98f0-4eaf-9c83-bb7b5133d125","system_id":"levelo_inurba_marseille","lat":43.32107,"lon":5.36754,"is_reserved":false,"is_disabled":false,"rental_uris":{"android":"levelo://app?vid=c1ccf9ca-98f0-4eaf-9c83-bb7b5133d125","ios":"levelo://app?vid=c1ccf9ca-98f0-4eaf-9c83-bb7b5133d125"},"vehicle_type_id":"4","last_reported":1742127355,"current_range_meters":8800,"station_id":"ce4bhrh2rcd13ifvqhug","pricing_plan_id":"cebpf4jnsgd1na2vs0mg"},{"bike_id":"d3bd0ca2-58e0-4f19-bd33-980724ab7a39","system_id":"levelo_inurba_marseille","lat":43.30891,"lon":5.39646,"is_reserved":false,"is_disabled":true,"rental_uris":{"android":"levelo://app?vid=d3bd0ca2-58e0-4f19-bd33-980724ab7a39","ios":"levelo://app?vid=d3bd0ca2-58e0-4f19-bd33-980724ab7a39"},"vehicle_type_id":"4","last_reported":1742127355,"current_range_meters":8800,"station_id":"ce4bh012rcd13ifvqcv0","pricing_plan_id":"cebpf4jnsgd1na2vs0mg"},{"bike_id":"0102a975-ca16-4d1e-8694-d919e87a2584","system_id":"levelo_inurba_marseille","lat":43.29547,"lon":5.42269,"is_reserved":false,"is_disabled":false,"rental_uris":{"android":"levelo://app?vid=0102a975-ca16-4d1e-8694-d919e87a2584","ios":"levelo://app?vid=0102a975-ca16-4d1e-8694-d919e87a2584"},"vehicle_type_id":"4","last_reported":1742127355,"current_range_meters":9200,"station_id":"ce4bhph2rcd13ifvqhdg","pricing_plan_id":"cebpf4jnsgd1na2vs0mg"},{"bike_id":"50c6bcb2-9c02-43d1-8bf3-1a13ed878c68","system_id":"levelo_inurba_marseille","lat":43.29194,"lon":5.35802,"is_reserved":false,"is_disabled":true,"rental_uris":{"android":"levelo://app?vid=50c6bcb2-9c02-43d1-8bf3-1a13ed878c68","ios":"levelo://app?vid=50c6bcb2-9c02-43d1-8bf3-1a13ed878c68"},"vehicle_type_id":"4","last_reported":1742127355,"current_range_meters":9200,"station_id":"ce4bhb12rcd13ifvqel0","pricing_plan_id":"cebpf4jnsgd1na2vs0mg"},{"bike_id":"6582e7c2-5aa5-4e6a-abc5-fa241e74aeb6","system_id":"levelo_inurba_marseille","lat":43.29915,"lon":5.43652,"is_reserved":false,"is_disabled":false,"rental_uris":{"android":"levelo://app?vid=6582e7c2-5aa5-4e6a-abc5-fa241e74aeb6","ios":"levelo://app?vid=6582e7c2-5aa5-4e6a-abc5-fa241e74aeb6"},"vehicle_type_id":"4","last_reported":1742127355,"current_range_meters":9200,"station_id":"ce4bhpp2rcd13ifvqhfg","pricing_plan_id":"cebpf4jnsgd1na2vs0mg"},{"bike_id":"8cc5ad71-fd81-4f52-ae0c-17e8c3354a91","system_id":"levelo_inurba_marseille","lat":43.24165,"lon":5.36393,"is_reserved":false,"is_disabled":false,"rental_uris":{"android":"levelo://app?vid=8cc5ad71-fd81-4f52-ae0c-17e8c3354a91","ios":"levelo://app?vid=8cc5ad71-fd81-4f52-ae0c-17e8c3354a91"},"vehicle_type_id":"4","last_reported":1742127355,"current_range_meters":9200,"station_id":"cpo36qri1sfpv3e86is0","pricing_plan_id":"cebpf4jnsgd1na2vs0mg"},{"bike_id":"a17866dc-3074-49fc-9a89-48869866e9d8","system_id":"levelo_inurba_marseille","lat":43.27209,"lon":5.39193,"is_reserved":false,"is_disabled":true,"rental_uris":{"android":"levelo://app?vid=a17866dc-3074-49fc-9a89-48869866e9d8","ios":"levelo://app?vid=a17866dc-3074-49fc-9a89-48869866e9d8"},"vehicle_type_id":"4","last_reported":1742127355,"current_range_meters":9200,"station_id":"ce4bhhp2rcd13ifvqfm0","pricing_plan_id":"cebpf4jnsgd1na2vs0mg"},{"bike_id":"f10b3bc7-ca29-4756-a3db-36c2d99776f1","system_id":"levelo_inurba_marseille","lat":43.29019,"lon":5.38128,"is_reserved":false,"is_disabled":false,"rental_uris":{"android":"levelo://app?vid=f10b3bc7-ca29-4756-a3db-36c2d99776f1","ios":"levelo://app?vid=f10b3bc7-ca29-4756-a3db-36c2d99776f1"},"vehicle_type_id":"4","last_reported":1742127355,"current_range_meters":9200,"station_id":"ce4bh4p2rcd13ifvqe1g","pricing_plan_id":"cebpf4jnsgd1na2vs0mg"},{"bike_id":"51ee61ab-75a0-47a8-819a-11693b639593","system_id":"levelo_inurba_marseille","lat":43.29091,"lon":5.38142,"is_reserved":false,"is_disabled":false,"rental_uris":{"android":"levelo://app?vid=51ee61ab-75a0-47a8-819a-11693b639593","ios":"levelo://app?vid=51ee61ab-75a0-47a8-819a-11693b639593"},"vehicle_type_id":"4","last_reported":1742127355,"current_range_meters":10800,"station_id":"ce4bh512rcd13ifvqe2g","pricing_plan_id":"cebpf4jnsgd1na2vs0mg"},{"bike_id":"8679c83d-a5af-43b7-a9ef-774545e0741b","system_id":"levelo_inurba_marseille","lat":43.29097,"lon":5.3815,"is_reserved":false,"is_disabled":false,"rental_uris":{"android":"levelo://app?vid=8679c83d-a5af-43b7-a9ef-774545e0741b","ios":"levelo://app?vid=8679c83d-a5af-43b7-a9ef-774545e0741b"},"vehicle_type_id":"4","last_reported":1742127355,"current_range_meters":9600,"station_id":"ce4bh512rcd13ifvqe2g","pricing_plan_id":"cebpf4jnsgd1na2vs0mg"},{"bike_id":"dd3cd798-787d-4c31-b0e6-37631fe69a4a","system_id":"levelo_inurba_marseille","lat":43.27772,"lon":5.40685,"is_reserved":false,"is_disabled":false,"rental_uris":{"android":"levelo://app?vid=dd3cd798-787d-4c31-b0e6-37631fe69a4a","ios":"levelo://app?vid=dd3cd798-787d-4c31-b0e6-37631fe69a4a"},"vehicle_type_id":"4","last_reported":1742127355,"current_range_meters":9600,"station_id":"","pricing_plan_id":"cebpf4jnsgd1na2vs0mg"},{"bike_id":"71b342b8-694b-40d5-99e8-310baf77a970","system_id":"levelo_inurba_marseille","lat":43.23058,"lon":5.35477,"is_reserved":false,"is_disabled":false,"rental_uris":{"android":"levelo://app?vid=71b342b8-694b-40d5-99e8-310baf77a970","ios":"levelo://app?vid=71b342b8-694b-40d5-99e8-310baf77a970"},"vehicle_type_id":"4","last_reported":1742127355,"current_range_meters":9600,"station_id":"cpo3342slgdg3j2ifvpg","pricing_plan_id":"cebpf4jnsgd1na2vs0mg"},{"bike_id":"07e27037-7a70-4782-999a-a80bb40e310d","system_id":"levelo_inurba_marseille","lat":43.28926,"lon":5.38411,"is_reserved":false,"is_disabled":false,"rental_uris":{"android":"levelo://app?vid=07e27037-7a70-4782-999a-a80bb40e310d","ios":"levelo://app?vid=07e27037-7a70-4782-999a-a80bb40e310d"},"vehicle_type_id":"4","last_reported":1742127355,"current_range_meters":9600,"station_id":"ce4bh612rcd13ifvqe6g","pricing_plan_id":"cebpf4jnsgd1na2vs0mg"},{"bike_id":"fc071de1-2cc0-488a-a43e-f8037a5a9a49","system_id":"levelo_inurba_marseille","lat":43.23066,"lon":5.35494,"is_reserved":false,"is_disabled":false,"rental_uris":{"android":"levelo://app?vid=fc071de1-2cc0-488a-a43e-f8037a5a9a49","ios":"levelo://app?vid=fc071de1-2cc0-488a-a43e-f8037a5a9a49"},"vehicle_type_id":"4","last_reported":1742127355,"current_range_meters":9600,"station_id":"cpo3342slgdg3j2ifvpg","pricing_plan_id":"cebpf4jnsgd1na2vs0mg"},{"bike_id":"08f552f7-86cc-496f-8ff2-a69c6cab3b96","system_id":"levelo_inurba_marseille","lat":43.28342,"lon":5.38105,"is_reserved":false,"is_disabled":false,"rental_uris":{"android":"levelo://app?vid=08f552f7-86cc-496f-8ff2-a69c6cab3b96","ios":"levelo://app?vid=08f552f7-86cc-496f-8ff2-a69c6cab3b96"},"vehicle_type_id":"4","last_reported":1742127355,"current_range_meters":8800,"station_id":"ce4bh412rcd13ifvqdr0","pricing_plan_id":"cebpf4jnsgd1na2vs0mg"},{"bike_id":"d29954b9-94a9-4d4b-8f2a-4f834cdcd24e","system_id":"levelo_inurba_marseille","lat":43.30577,"lon":5.40068,"is_reserved":false,"is_disabled":false,"rental_uris":{"android":"levelo://app?vid=d29954b9-94a9-4d4b-8f2a-4f834cdcd24e","ios":"levelo://app?vid=d29954b9-94a9-4d4b-8f2a-4f834cdcd24e"},"vehicle_type_id":"4","last_reported":1742127355,"current_range_meters":9600,"station_id":"","pricing_plan_id":"cebpf4jnsgd1na2vs0mg"},{"bike_id":"174c9c66-b172-484e-b7f9-5752aa18aabf","system_id":"levelo_inurba_marseille","lat":43.23111,"lon":5.3546,"is_reserved":false,"is_disabled":false,"rental_uris":{"android":"levelo://app?vid=174c9c66-b172-484e-b7f9-5752aa18aabf","ios":"levelo://app?vid=174c9c66-b172-484e-b7f9-5752aa18aabf"},"vehicle_type_id":"4","last_reported":1742127355,"current_range_meters":9600,"station_id":"cpo3342slgdg3j2ifvpg","pricing_plan_id":"cebpf4jnsgd1na2vs0mg"},{"bike_id":"1df62662-e7eb-4903-bd82-3318d52e7f1e","system_id":"levelo_inurba_marseille","lat":43.28607,"lon":5.35108,"is_reserved":false,"is_disabled":false,"rental_uris":{"android":"levelo://app?vid=1df62662-e7eb-4903-bd82-3318d52e7f1e","ios":"levelo://app?vid=1df62662-e7eb-4903-bd82-3318d52e7f1e"},"vehicle_type_id":"4","last_reported":1742127355,"current_range_meters":9600,"station_id":"ce4bhch2rcd13ifvqeug","pricing_plan_id":"cebpf4jnsgd1na2vs0mg"},{"bike_id":"05db2b39-0687-4a3e-8ceb-9dd762e7a115","system_id":"levelo_inurba_marseille","lat":43.25499,"lon":5.37646,"is_reserved":false,"is_disabled":false,"rental_uris":{"android":"levelo://app?vid=05db2b39-0687-4a3e-8ceb-9dd762e7a115","ios":"levelo://app?vid=05db2b39-0687-4a3e-8ceb-9dd762e7a115"},"vehicle_type_id":"4","last_reported":1742127355,"current_range_meters":9600,"station_id":"ce4bhh12rcd13ifvqff0","pricing_plan_id":"cebpf4jnsgd1na2vs0mg"},{"bike_id":"02903d83-44bb-40cf-a804-6798606e7bc6","system_id":"levelo_inurba_marseille","lat":43.24812,"lon":5.37458,"is_reserved":false,"is_disabled":false,"rental_uris":{"android":"levelo://app?vid=02903d83-44bb-40cf-a804-6798606e7bc6","ios":"levelo://app?vid=02903d83-44bb-40cf-a804-6798606e7bc6"},"vehicle_type_id":"4","last_reported":1742127355,"current_range_meters":9600,"station_id":"ce4bhgh2rcd13ifvqfb0","pricing_plan_id":"cebpf4jnsgd1na2vs0mg"},{"bike_id":"e8e1131d-a2a0-46d6-b372-ab52c07492c6","system_id":"levelo_inurba_marseille","lat":43.27618,"lon":5.42425,"is_reserved":false,"is_disabled":false,"rental_uris":{"android":"levelo://app?vid=e8e1131d-a2a0-46d6-b372-ab52c07492c6","ios":"levelo://app?vid=e8e1131d-a2a0-46d6-b372-ab52c07492c6"},"vehicle_type_id":"4","last_reported":1742127355,"current_range_meters":9600,"station_id":"","pricing_plan_id":"cebpf4jnsgd1na2vs0mg"},{"bike_id":"1d67028e-7f0c-4e86-8e3b-6143125fa3b7","system_id":"levelo_inurba_marseille","lat":43.30931,"lon":5.40143,"is_reserved":false,"is_disabled":false,"rental_uris":{"android":"levelo://app?vid=1d67028e-7f0c-4e86-8e3b-6143125fa3b7","ios":"levelo://app?vid=1d67028e-7f0c-4e86-8e3b-6143125fa3b7"},"vehicle_type_id":"4","last_reported":1742127355,"current_range_meters":9600,"station_id":"ce4bgvp2rcd13ifvqct0","pricing_plan_id":"cebpf4jnsgd1na2vs0mg"},{"bike_id":"26e068d1-d128-4e34-9ee1-4531f5332a42","system_id":"levelo_inurba_marseille","lat":43.30954,"lon":5.39027,"is_reserved":false,"is_disabled":false,"rental_uris":{"android":"levelo://app?vid=26e068d1-d128-4e34-9ee1-4531f5332a42","ios":"levelo://app?vid=26e068d1-d128-4e34-9ee1-4531f5332a42"},"vehicle_type_id":"4","last_reported":1742127355,"current_range_meters":6400,"station_id":"ce4bgup2rcd13ifvqco0","pricing_plan_id":"cebpf4jnsgd1na2vs0mg"},{"bike_id":"e45b0fd7-4e87-4303-b524-8302e30de230","system_id":"levelo_inurba_marseille","lat":43.24656,"lon":5.38162,"is_reserved":false,"is_disabled":false,"rental_uris":{"android":"levelo://app?vid=e45b0fd7-4e87-4303-b524-8302e30de230","ios":"levelo://app?vid=e45b0fd7-4e87-4303-b524-8302e30de230"},"vehicle_type_id":"4","last_reported":1742127355,"current_range_meters":10000,"station_id":"ce4bhih2rcd13ifvqfr0","pricing_plan_id":"cebpf4jnsgd1na2vs0mg"},{"bike_id":"d833f426-b66d-48bf-ae51-72b9b0c84c90","system_id":"levelo_inurba_marseille","lat":43.32375,"lon":5.38864,"is_reserved":false,"is_disabled":false,"rental_uris":{"android":"levelo://app?vid=d833f426-b66d-48bf-ae51-72b9b0c84c90","ios":"levelo://app?vid=d833f426-b66d-48bf-ae51-72b9b0c84c90"},"vehicle_type_id":"4","last_reported":1742127355,"current_range_meters":10000,"station_id":"ce4bhqp2rcd13ifvqhog","pricing_plan_id":"cebpf4jnsgd1na2vs0mg"},{"bike_id":"0d938db2-ba4b-431d-b271-d7f2cd4075f2","system_id":"levelo_inurba_marseille","lat":43.23972,"lon":5.36627,"is_reserved":false,"is_disabled":false,"rental_uris":{"android":"levelo://app?vid=0d938db2-ba4b-431d-b271-d7f2cd4075f2","ios":"levelo://app?vid=0d938db2-ba4b-431d-b271-d7f2cd4075f2"},"vehicle_type_id":"4","last_reported":1742127355,"current_range_meters":10000,"station_id":"ce4bhi12rcd13ifvqfp0","pricing_plan_id":"cebpf4jnsgd1na2vs0mg"},{"bike_id":"ec4c8fc9-399f-4f5a-b345-e19e03d811c3","system_id":"levelo_inurba_marseille","lat":43.27203,"lon":5.40988,"is_reserved":false,"is_disabled":true,"rental_uris":{"android":"levelo://app?vid=ec4c8fc9-399f-4f5a-b345-e19e03d811c3","ios":"levelo://app?vid=ec4c8fc9-399f-4f5a-b345-e19e03d811c3"},"vehicle_type_id":"4","last_reported":1742127355,"current_range_meters":10000,"station_id":"ce4bhl12rcd13ifvqgf0","pricing_plan_id":"cebpf4jnsgd1na2vs0mg"},{"bike_id":"63ccaa1b-7302-45e3-82a8-d904a69351b6","system_id":"levelo_inurba_marseille","lat":43.2397,"lon":5.36617,"is_reserved":false,"is_disabled":true,"rental_uris":{"android":"levelo://app?vid=63ccaa1b-7302-45e3-82a8-d904a69351b6","ios":"levelo://app?vid=63ccaa1b-7302-45e3-82a8-d904a69351b6"},"vehicle_type_id":"4","last_reported":1742127355,"current_range_meters":10000,"station_id":"ce4bhi12rcd13ifvqfp0","pricing_plan_id":"cebpf4jnsgd1na2vs0mg"},{"bike_id":"fcdfecc0-d519-4864-984c-ddffbbfe2bd7","system_id":"levelo_inurba_marseille","lat":43.27229,"lon":5.40923,"is_reserved":false,"is_disabled":false,"rental_uris":{"android":"levelo://app?vid=fcdfecc0-d519-4864-984c-ddffbbfe2bd7","ios":"levelo://app?vid=fcdfecc0-d519-4864-984c-ddffbbfe2bd7"},"vehicle_type_id":"4","last_reported":1742127355,"current_range_meters":10000,"station_id":"","pricing_plan_id":"cebpf4jnsgd1na2vs0mg"},{"bike_id":"66d6e7ef-3ad0-49a5-bdf1-094ad3c64950","system_id":"levelo_inurba_marseille","lat":43.24685,"lon":5.3814,"is_reserved":false,"is_disabled":false,"rental_uris":{"android":"levelo://app?vid=66d6e7ef-3ad0-49a5-bdf1-094ad3c64950","ios":"levelo://app?vid=66d6e7ef-3ad0-49a5-bdf1-094ad3c64950"},"vehicle_type_id":"4","last_reported":1742127355,"current_range_meters":10000,"station_id":"ce4bhih2rcd13ifvqfr0","pricing_plan_id":"cebpf4jnsgd1na2vs0mg"},{"bike_id":"3f3e844d-8056-4826-a519-e24eec72528f","system_id":"levelo_inurba_marseille","lat":43.30675,"lon":5.36527,"is_reserved":false,"is_disabled":false,"rental_uris":{"android":"levelo://app?vid=3f3e844d-8056-4826-a519-e24eec72528f","ios":"levelo://app?vid=3f3e844d-8056-4826-a519-e24eec72528f"},"vehicle_type_id":"4","last_reported":1742127355,"current_range_meters":10000,"station_id":"","pricing_plan_id":"cebpf4jnsgd1na2vs0mg"},{"bike_id":"084e9cd0-ba7b-4410-911b-bd29122b16f6","system_id":"levelo_inurba_marseille","lat":43.24159,"lon":5.36414,"is_reserved":false,"is_disabled":false,"rental_uris":{"android":"levelo://app?vid=084e9cd0-ba7b-4410-911b-bd29122b16f6","ios":"levelo://app?vid=084e9cd0-ba7b-4410-911b-bd29122b16f6"},"vehicle_type_id":"4","last_reported":1742127355,"current_range_meters":10000,"station_id":"cpo36qri1sfpv3e86is0","pricing_plan_id":"cebpf4jnsgd1na2vs0mg"},{"bike_id":"e6c1440e-6c0f-4074-8e54-055a85df6d64","system_id":"levelo_inurba_marseille","lat":43.30007,"lon":5.38503,"is_reserved":false,"is_disabled":false,"rental_uris":{"android":"levelo://app?vid=e6c1440e-6c0f-4074-8e54-055a85df6d64","ios":"levelo://app?vid=e6c1440e-6c0f-4074-8e54-055a85df6d64"},"vehicle_type_id":"4","last_reported":1742127355,"current_range_meters":10000,"station_id":"ce4bgj92rcd13ifvqbd0","pricing_plan_id":"cebpf4jnsgd1na2vs0mg"},{"bike_id":"154cf3c7-af45-4b20-b0de-03c546212d0c","system_id":"levelo_inurba_marseille","lat":43.27693,"lon":5.38892,"is_reserved":false,"is_disabled":true,"rental_uris":{"android":"levelo://app?vid=154cf3c7-af45-4b20-b0de-03c546212d0c","ios":"levelo://app?vid=154cf3c7-af45-4b20-b0de-03c546212d0c"},"vehicle_type_id":"4","last_reported":1742127355,"current_range_meters":10000,"station_id":"ce4bhi12rcd13ifvqfo0","pricing_plan_id":"cebpf4jnsgd1na2vs0mg"},{"bike_id":"1e9f3f53-e48b-47c9-8a7a-3842fe9d86ab","system_id":"levelo_inurba_marseille","lat":43.28732,"lon":5.39987,"is_reserved":false,"is_disabled":true,"rental_uris":{"android":"levelo://app?vid=1e9f3f53-e48b-47c9-8a7a-3842fe9d86ab","ios":"levelo://app?vid=1e9f3f53-e48b-47c9-8a7a-3842fe9d86ab"},"vehicle_type_id":"4","last_reported":1742127355,"current_range_meters":10000,"station_id":"ce4bho92rcd13ifvqh3g","pricing_plan_id":"cebpf4jnsgd1na2vs0mg"},{"bike_id":"99d43d10-8f52-43f6-847c-54ffd82ec0b1","system_id":"levelo_inurba_marseille","lat":43.29262,"lon":5.36862,"is_reserved":false,"is_disabled":true,"rental_uris":{"android":"levelo://app?vid=99d43d10-8f52-43f6-847c-54ffd82ec0b1","ios":"levelo://app?vid=99d43d10-8f52-43f6-847c-54ffd82ec0b1"},"vehicle_type_id":"4","last_reported":1742127355,"current_range_meters":10800,"station_id":"ce4bhbp2rcd13ifvqesg","pricing_plan_id":"cebpf4jnsgd1na2vs0mg"},{"bike_id":"020b51b2-1f38-4f16-a995-b7198a99c367","system_id":"levelo_inurba_marseille","lat":43.24549,"lon":5.39517,"is_reserved":false,"is_disabled":false,"rental_uris":{"android":"levelo://app?vid=020b51b2-1f38-4f16-a995-b7198a99c367","ios":"levelo://app?vid=020b51b2-1f38-4f16-a995-b7198a99c367"},"vehicle_type_id":"4","last_reported":1742127355,"current_range_meters":9200,"station_id":"ce4bhlp2rcd13ifvqgjg","pricing_plan_id":"cebpf4jnsgd1na2vs0mg"},{"bike_id":"f876773a-fec2-4503-8f9a-c65b00603ae5","system_id":"levelo_inurba_marseille","lat":43.24071,"lon":5.37743,"is_reserved":false,"is_disabled":false,"rental_uris":{"android":"levelo://app?vid=f876773a-fec2-4503-8f9a-c65b00603ae5","ios":"levelo://app?vid=f876773a-fec2-4503-8f9a-c65b00603ae5"},"vehicle_type_id":"4","last_reported":1742127355,"current_range_meters":10800,"station_id":"ce4bhnp2rcd13ifvqgvg","pricing_plan_id":"cebpf4jnsgd1na2vs0mg"},{"bike_id":"30a3f5aa-8adb-417a-a2c9-dedb0fb285b3","system_id":"levelo_inurba_marseille","lat":43.28974,"lon":5.37835,"is_reserved":false,"is_disabled":true,"rental_uris":{"android":"levelo://app?vid=30a3f5aa-8adb-417a-a2c9-dedb0fb285b3","ios":"levelo://app?vid=30a3f5aa-8adb-417a-a2c9-dedb0fb285b3"},"vehicle_type_id":"4","last_reported":1742127355,"current_range_meters":10800,"station_id":"ce4bh9p2rcd13ifvqed0","pricing_plan_id":"cebpf4jnsgd1na2vs0mg"},{"bike_id":"92f96d45-71b2-4c9b-885d-528965cdb26b","system_id":"levelo_inurba_marseille","lat":43.28857,"lon":5.35843,"is_reserved":false,"is_disabled":false,"rental_uris":{"android":"levelo://app?vid=92f96d45-71b2-4c9b-885d-528965cdb26b","ios":"levelo://app?vid=92f96d45-71b2-4c9b-885d-528965cdb26b"},"vehicle_type_id":"4","last_reported":1742127355,"current_range_meters":10800,"station_id":"ce4bhb12rcd13ifvqem0","pricing_plan_id":"cebpf4jnsgd1na2vs0mg"},{"bike_id":"30e9b25b-aec7-4e6e-b1ac-ba1edff362f1","system_id":"levelo_inurba_marseille","lat":43.23061,"lon":5.35492,"is_reserved":false,"is_disabled":false,"rental_uris":{"android":"levelo://app?vid=30e9b25b-aec7-4e6e-b1ac-ba1edff362f1","ios":"levelo://app?vid=30e9b25b-aec7-4e6e-b1ac-ba1edff362f1"},"vehicle_type_id":"4","last_reported":1742127355,"current_range_meters":10800,"station_id":"cpo3342slgdg3j2ifvpg","pricing_plan_id":"cebpf4jnsgd1na2vs0mg"},{"bike_id":"9d8efe52-4253-46af-b40f-bf8652412f63","system_id":"levelo_inurba_marseille","lat":43.2952,"lon":5.39396,"is_reserved":false,"is_disabled":true,"rental_uris":{"android":"levelo://app?vid=9d8efe52-4253-46af-b40f-bf8652412f63","ios":"levelo://app?vid=9d8efe52-4253-46af-b40f-bf8652412f63"},"vehicle_type_id":"4","last_reported":1742127355,"current_range_meters":10800,"station_id":"ce4bh292rcd13ifvqdf0","pricing_plan_id":"cebpf4jnsgd1na2vs0mg"},{"bike_id":"e047eb05-c84e-4eb9-a430-24d024850b6f","system_id":"levelo_inurba_marseille","lat":43.22937,"lon":5.35372,"is_reserved":false,"is_disabled":false,"rental_uris":{"android":"levelo://app?vid=e047eb05-c84e-4eb9-a430-24d024850b6f","ios":"levelo://app?vid=e047eb05-c84e-4eb9-a430-24d024850b6f"},"vehicle_type_id":"4","last_reported":1742127355,"current_range_meters":10800,"station_id":"cpo3532slgdg3j2ikp40","pricing_plan_id":"cebpf4jnsgd1na2vs0mg"},{"bike_id":"274c3618-3f8f-4d04-8737-916b70aeba4c","system_id":"levelo_inurba_marseille","lat":43.29094,"lon":5.38115,"is_reserved":false,"is_disabled":false,"rental_uris":{"android":"levelo://app?vid=274c3618-3f8f-4d04-8737-916b70aeba4c","ios":"levelo://app?vid=274c3618-3f8f-4d04-8737-916b70aeba4c"},"vehicle_type_id":"4","last_reported":1742127355,"current_range_meters":10800,"station_id":"ce4bh512rcd13ifvqe2g","pricing_plan_id":"cebpf4jnsgd1na2vs0mg"},{"bike_id":"18863848-c5eb-4976-868b-f67ecedcbd8b","system_id":"levelo_inurba_marseille","lat":43.28423,"lon":5.34992,"is_reserved":false,"is_disabled":false,"rental_uris":{"android":"levelo://app?vid=18863848-c5eb-4976-868b-f67ecedcbd8b","ios":"levelo://app?vid=18863848-c5eb-4976-868b-f67ecedcbd8b"},"vehicle_type_id":"4","last_reported":1742127355,"current_range_meters":10800,"station_id":"ce4bhbh2rcd13ifvqepg","pricing_plan_id":"cebpf4jnsgd1na2vs0mg"},{"bike_id":"38de9398-607b-4e38-b181-28a0e85a0172","system_id":"levelo_inurba_marseille","lat":43.29018,"lon":5.38607,"is_reserved":false,"is_disabled":true,"rental_uris":{"android":"levelo://app?vid=38de9398-607b-4e38-b181-28a0e85a0172","ios":"levelo://app?vid=38de9398-607b-4e38-b181-28a0e85a0172"},"vehicle_type_id":"4","last_reported":1742127355,"current_range_meters":10800,"station_id":"ce4bh4p2rcd13ifvqe0g","pricing_plan_id":"cebpf4jnsgd1na2vs0mg"},{"bike_id":"7099c38a-2986-4dc9-9398-307b562f7d30","system_id":"levelo_inurba_marseille","lat":43.259364,"lon":5.408997,"is_reserved":false,"is_disabled":false,"rental_uris":{"android":"levelo://app?vid=7099c38a-2986-4dc9-9398-307b562f7d30","ios":"levelo://app?vid=7099c38a-2986-4dc9-9398-307b562f7d30"},"vehicle_type_id":"4","last_reported":1742127355,"current_range_meters":10800,"station_id":"ce4bhm92rcd13ifvqglg","pricing_plan_id":"cebpf4jnsgd1na2vs0mg"},{"bike_id":"26787439-b5c5-4760-a554-d20af518d74c","system_id":"levelo_inurba_marseille","lat":43.26594,"lon":5.39051,"is_reserved":false,"is_disabled":false,"rental_uris":{"android":"levelo://app?vid=26787439-b5c5-4760-a554-d20af518d74c","ios":"levelo://app?vid=26787439-b5c5-4760-a554-d20af518d74c"},"vehicle_type_id":"4","last_reported":1742127355,"current_range_meters":10800,"station_id":"ce4bhe12rcd13ifvqf30","pricing_plan_id":"cebpf4jnsgd1na2vs0mg"},{"bike_id":"3c528f7f-712c-435c-b5d4-a5694a485d73","system_id":"levelo_inurba_marseille","lat":43.29904,"lon":5.43661,"is_reserved":false,"is_disabled":false,"rental_uris":{"android":"levelo://app?vid=3c528f7f-712c-435c-b5d4-a5694a485d73","ios":"levelo://app?vid=3c528f7f-712c-435c-b5d4-a5694a485d73"},"vehicle_type_id":"4","last_reported":1742127355,"current_range_meters":10800,"station_id":"ce4bhpp2rcd13ifvqhfg","pricing_plan_id":"cebpf4jnsgd1na2vs0mg"},{"bike_id":"3268e7a9-85dc-4e76-b2d6-ce004b62be95","system_id":"levelo_inurba_marseille","lat":43.26051,"lon":5.39393,"is_reserved":false,"is_disabled":false,"rental_uris":{"android":"levelo://app?vid=3268e7a9-85dc-4e76-b2d6-ce004b62be95","ios":"levelo://app?vid=3268e7a9-85dc-4e76-b2d6-ce004b62be95"},"vehicle_type_id":"4","last_reported":1742127355,"current_range_meters":11200,"station_id":"ce4bhh92rcd13ifvqfj0","pricing_plan_id":"cebpf4jnsgd1na2vs0mg"},{"bike_id":"798e4424-938e-4a81-9e7c-4246567321c5","system_id":"levelo_inurba_marseille","lat":43.24759,"lon":5.41199,"is_reserved":false,"is_disabled":false,"rental_uris":{"android":"levelo://app?vid=798e4424-938e-4a81-9e7c-4246567321c5","ios":"levelo://app?vid=798e4424-938e-4a81-9e7c-4246567321c5"},"vehicle_type_id":"4","last_reported":1742127355,"current_range_meters":10800,"station_id":"","pricing_plan_id":"cebpf4jnsgd1na2vs0mg"},{"bike_id":"92282932-98cf-4e35-af1f-02b09848ea83","system_id":"levelo_inurba_marseille","lat":43.30527,"lon":5.36525,"is_reserved":false,"is_disabled":false,"rental_uris":{"android":"levelo://app?vid=92282932-98cf-4e35-af1f-02b09848ea83","ios":"levelo://app?vid=92282932-98cf-4e35-af1f-02b09848ea83"},"vehicle_type_id":"4","last_reported":1742127355,"current_range_meters":10800,"station_id":"ce4bgs12rcd13ifvqcag","pricing_plan_id":"cebpf4jnsgd1na2vs0mg"},{"bike_id":"8cbc2ff0-12b0-4fea-a13c-586feb6c25b7","system_id":"levelo_inurba_marseille","lat":43.29601,"lon":5.381,"is_reserved":false,"is_disabled":false,"rental_uris":{"android":"levelo://app?vid=8cbc2ff0-12b0-4fea-a13c-586feb6c25b7","ios":"levelo://app?vid=8cbc2ff0-12b0-4fea-a13c-586feb6c25b7"},"vehicle_type_id":"4","last_reported":1742127355,"current_range_meters":10800,"station_id":"ce4bgl12rcd13ifvqbo0","pricing_plan_id":"cebpf4jnsgd1na2vs0mg"},{"bike_id":"1559ed1f-4039-425c-b3d7-1da981a02f75","system_id":"levelo_inurba_marseille","lat":43.23096,"lon":5.35493,"is_reserved":false,"is_disabled":false,"rental_uris":{"android":"levelo://app?vid=1559ed1f-4039-425c-b3d7-1da981a02f75","ios":"levelo://app?vid=1559ed1f-4039-425c-b3d7-1da981a02f75"},"vehicle_type_id":"4","last_reported":1742127355,"current_range_meters":10800,"station_id":"cpo3342slgdg3j2ifvpg","pricing_plan_id":"cebpf4jnsgd1na2vs0mg"},{"bike_id":"952baf5f-2596-47ad-b18d-8c40d54e272d","system_id":"levelo_inurba_marseille","lat":43.31085,"lon":5.42434,"is_reserved":false,"is_disabled":false,"rental_uris":{"android":"levelo://app?vid=952baf5f-2596-47ad-b18d-8c40d54e272d","ios":"levelo://app?vid=952baf5f-2596-47ad-b18d-8c40d54e272d"},"vehicle_type_id":"4","last_reported":1742127355,"current_range_meters":10800,"station_id":"ce4bhp92rcd13ifvqhag","pricing_plan_id":"cebpf4jnsgd1na2vs0mg"},{"bike_id":"e020ed0c-3cf1-4b5a-831b-90e4c437697d","system_id":"levelo_inurba_marseille","lat":43.24824,"lon":5.37443,"is_reserved":false,"is_disabled":false,"rental_uris":{"android":"levelo://app?vid=e020ed0c-3cf1-4b5a-831b-90e4c437697d","ios":"levelo://app?vid=e020ed0c-3cf1-4b5a-831b-90e4c437697d"},"vehicle_type_id":"4","last_reported":1742127355,"current_range_meters":10800,"station_id":"ce4bhgh2rcd13ifvqfb0","pricing_plan_id":"cebpf4jnsgd1na2vs0mg"},{"bike_id":"532fba6b-aedc-48c9-9099-4d80596d4b59","system_id":"levelo_inurba_marseille","lat":43.29004,"lon":5.3562,"is_reserved":false,"is_disabled":false,"rental_uris":{"android":"levelo://app?vid=532fba6b-aedc-48c9-9099-4d80596d4b59","ios":"levelo://app?vid=532fba6b-aedc-48c9-9099-4d80596d4b59"},"vehicle_type_id":"4","last_reported":1742127355,"current_range_meters":10800,"station_id":"ce4bhb92rcd13ifvqen0","pricing_plan_id":"cebpf4jnsgd1na2vs0mg"},{"bike_id":"7ce91338-9f41-428e-ba9d-3166c279dfc0","system_id":"levelo_inurba_marseille","lat":43.27404,"lon":5.39376,"is_reserved":false,"is_disabled":false,"rental_uris":{"android":"levelo://app?vid=7ce91338-9f41-428e-ba9d-3166c279dfc0","ios":"levelo://app?vid=7ce91338-9f41-428e-ba9d-3166c279dfc0"},"vehicle_type_id":"4","last_reported":1742127355,"current_range_meters":11200,"station_id":"ce4bhdp2rcd13ifvqf20","pricing_plan_id":"cebpf4jnsgd1na2vs0mg"},{"bike_id":"91f6fd4e-85ff-4e4a-a643-24c8d6f69d93","system_id":"levelo_inurba_marseille","lat":43.25078,"lon":5.403,"is_reserved":false,"is_disabled":false,"rental_uris":{"android":"levelo://app?vid=91f6fd4e-85ff-4e4a-a643-24c8d6f69d93","ios":"levelo://app?vid=91f6fd4e-85ff-4e4a-a643-24c8d6f69d93"},"vehicle_type_id":"4","last_reported":1742127355,"current_range_meters":11200,"station_id":"ce4bhlh2rcd13ifvqgig","pricing_plan_id":"cebpf4jnsgd1na2vs0mg"},{"bike_id":"10a5dfbf-3aa3-4cf3-ac17-cd4d12fd6782","system_id":"levelo_inurba_marseille","lat":43.3236,"lon":5.36772,"is_reserved":false,"is_disabled":false,"rental_uris":{"android":"levelo://app?vid=10a5dfbf-3aa3-4cf3-ac17-cd4d12fd6782","ios":"levelo://app?vid=10a5dfbf-3aa3-4cf3-ac17-cd4d12fd6782"},"vehicle_type_id":"4","last_reported":1742127355,"current_range_meters":11200,"station_id":"ce4bhsh2rcd13ifvqi2g","pricing_plan_id":"cebpf4jnsgd1na2vs0mg"},{"bike_id":"f07d3688-725c-41a9-996a-4490c49d77e9","system_id":"levelo_inurba_marseille","lat":43.29547,"lon":5.42292,"is_reserved":false,"is_disabled":false,"rental_uris":{"android":"levelo://app?vid=f07d3688-725c-41a9-996a-4490c49d77e9","ios":"levelo://app?vid=f07d3688-725c-41a9-996a-4490c49d77e9"},"vehicle_type_id":"4","last_reported":1742127355,"current_range_meters":11200,"station_id":"ce4bhph2rcd13ifvqhdg","pricing_plan_id":"cebpf4jnsgd1na2vs0mg"},{"bike_id":"99fbd5a8-c420-4b8c-af8f-5bbc7032fa5c","system_id":"levelo_inurba_marseille","lat":43.2294,"lon":5.35342,"is_reserved":false,"is_disabled":false,"rental_uris":{"android":"levelo://app?vid=99fbd5a8-c420-4b8c-af8f-5bbc7032fa5c","ios":"levelo://app?vid=99fbd5a8-c420-4b8c-af8f-5bbc7032fa5c"},"vehicle_type_id":"4","last_reported":1742127355,"current_range_meters":11200,"station_id":"cpo3532slgdg3j2ikp40","pricing_plan_id":"cebpf4jnsgd1na2vs0mg"},{"bike_id":"73ef63a0-aac1-4c34-8ce0-ee174b6738ee","system_id":"levelo_inurba_marseille","lat":43.3042,"lon":5.4129,"is_reserved":false,"is_disabled":false,"rental_uris":{"android":"levelo://app?vid=73ef63a0-aac1-4c34-8ce0-ee174b6738ee","ios":"levelo://app?vid=73ef63a0-aac1-4c34-8ce0-ee174b6738ee"},"vehicle_type_id":"4","last_reported":1742127355,"current_range_meters":11200,"station_id":"ce4bhop2rcd13ifvqh8g","pricing_plan_id":"cebpf4jnsgd1na2vs0mg"},{"bike_id":"a2df54e8-18e4-4021-8fec-e9c5b477e7ad","system_id":"levelo_inurba_marseille","lat":43.24654,"lon":5.38893,"is_reserved":false,"is_disabled":false,"rental_uris":{"android":"levelo://app?vid=a2df54e8-18e4-4021-8fec-e9c5b477e7ad","ios":"levelo://app?vid=a2df54e8-18e4-4021-8fec-e9c5b477e7ad"},"vehicle_type_id":"4","last_reported":1742127355,"current_range_meters":11200,"station_id":"ce4bhg12rcd13ifvqf60","pricing_plan_id":"cebpf4jnsgd1na2vs0mg"},{"bike_id":"b881a216-a8e0-47ad-9c6d-ce879391627c","system_id":"levelo_inurba_marseille","lat":43.29937,"lon":5.36529,"is_reserved":false,"is_disabled":true,"rental_uris":{"android":"levelo://app?vid=b881a216-a8e0-47ad-9c6d-ce879391627c","ios":"levelo://app?vid=b881a216-a8e0-47ad-9c6d-ce879391627c"},"vehicle_type_id":"4","last_reported":1742127355,"current_range_meters":11600,"station_id":"ce4bgm92rcd13ifvqbr0","pricing_plan_id":"cebpf4jnsgd1na2vs0mg"},{"bike_id":"9fb29984-4002-448d-833e-af2a3ce13467","system_id":"levelo_inurba_marseille","lat":43.29749,"lon":5.37669,"is_reserved":false,"is_disabled":true,"rental_uris":{"android":"levelo://app?vid=9fb29984-4002-448d-833e-af2a3ce13467","ios":"levelo://app?vid=9fb29984-4002-448d-833e-af2a3ce13467"},"vehicle_type_id":"4","last_reported":1742127355,"current_range_meters":11600,"station_id":"ce4bgkh2rcd13ifvqbl0","pricing_plan_id":"cebpf4jnsgd1na2vs0mg"},{"bike_id":"b087fba8-269e-4109-9c0a-77de2f9cf2f2","system_id":"levelo_inurba_marseille","lat":43.32354,"lon":5.36765,"is_reserved":false,"is_disabled":false,"rental_uris":{"android":"levelo://app?vid=b087fba8-269e-4109-9c0a-77de2f9cf2f2","ios":"levelo://app?vid=b087fba8-269e-4109-9c0a-77de2f9cf2f2"},"vehicle_type_id":"4","last_reported":1742127355,"current_range_meters":12000,"station_id":"ce4bhsh2rcd13ifvqi2g","pricing_plan_id":"cebpf4jnsgd1na2vs0mg"},{"bike_id":"fb578131-d61b-4e46-b407-14f4322fadf4","system_id":"levelo_inurba_marseille","lat":43.2397,"lon":5.36627,"is_reserved":false,"is_disabled":false,"rental_uris":{"android":"levelo://app?vid=fb578131-d61b-4e46-b407-14f4322fadf4","ios":"levelo://app?vid=fb578131-d61b-4e46-b407-14f4322fadf4"},"vehicle_type_id":"4","last_reported":1742127355,"current_range_meters":12000,"station_id":"ce4bhi12rcd13ifvqfp0","pricing_plan_id":"cebpf4jnsgd1na2vs0mg"},{"bike_id":"d6cd0df4-ca0d-407c-ac60-8420479f0dd1","system_id":"levelo_inurba_marseille","lat":43.23066,"lon":5.35472,"is_reserved":false,"is_disabled":false,"rental_uris":{"android":"levelo://app?vid=d6cd0df4-ca0d-407c-ac60-8420479f0dd1","ios":"levelo://app?vid=d6cd0df4-ca0d-407c-ac60-8420479f0dd1"},"vehicle_type_id":"4","last_reported":1742127355,"current_range_meters":12000,"station_id":"cpo3342slgdg3j2ifvpg","pricing_plan_id":"cebpf4jnsgd1na2vs0mg"},{"bike_id":"659cfc6c-f2ba-4758-b6de-6943e7c2dc48","system_id":"levelo_inurba_marseille","lat":43.28727,"lon":5.37388,"is_reserved":false,"is_disabled":true,"rental_uris":{"android":"levelo://app?vid=659cfc6c-f2ba-4758-b6de-6943e7c2dc48","ios":"levelo://app?vid=659cfc6c-f2ba-4758-b6de-6943e7c2dc48"},"vehicle_type_id":"4","last_reported":1742127355,"current_range_meters":12000,"station_id":"ce4bh3p2rcd13ifvqdq0","pricing_plan_id":"cebpf4jnsgd1na2vs0mg"},{"bike_id":"1f9a9668-f20a-4b32-9dce-dfb024996834","system_id":"levelo_inurba_marseille","lat":43.28997,"lon":5.38624,"is_reserved":false,"is_disabled":true,"rental_uris":{"android":"levelo://app?vid=1f9a9668-f20a-4b32-9dce-dfb024996834","ios":"levelo://app?vid=1f9a9668-f20a-4b32-9dce-dfb024996834"},"vehicle_type_id":"4","last_reported":1742127355,"current_range_meters":12000,"station_id":"ce4bh4p2rcd13ifvqe0g","pricing_plan_id":"cebpf4jnsgd1na2vs0mg"},{"bike_id":"49fea2c2-9361-4fb5-954f-b44bbf354e43","system_id":"levelo_inurba_marseille","lat":43.32369,"lon":5.36768,"is_reserved":false,"is_disabled":false,"rental_uris":{"android":"levelo://app?vid=49fea2c2-9361-4fb5-954f-b44bbf354e43","ios":"levelo://app?vid=49fea2c2-9361-4fb5-954f-b44bbf354e43"},"vehicle_type_id":"4","last_reported":1742127355,"current_range_meters":12000,"station_id":"ce4bhsh2rcd13ifvqi2g","pricing_plan_id":"cebpf4jnsgd1na2vs0mg"},{"bike_id":"dc4d9307-39d3-4a75-ae81-e063eaafc3db","system_id":"levelo_inurba_marseille","lat":43.26498,"lon":5.39536,"is_reserved":false,"is_disabled":false,"rental_uris":{"android":"levelo://app?vid=dc4d9307-39d3-4a75-ae81-e063eaafc3db","ios":"levelo://app?vid=dc4d9307-39d3-4a75-ae81-e063eaafc3db"},"vehicle_type_id":"4","last_reported":1742127355,"current_range_meters":12400,"station_id":"ce4bhi12rcd13ifvqfq0","pricing_plan_id":"cebpf4jnsgd1na2vs0mg"},{"bike_id":"ec5e31e2-9c84-4091-b656-01fe473797ba","system_id":"levelo_inurba_marseille","lat":43.28003,"lon":5.40002,"is_reserved":false,"is_disabled":false,"rental_uris":{"android":"levelo://app?vid=ec5e31e2-9c84-4091-b656-01fe473797ba","ios":"levelo://app?vid=ec5e31e2-9c84-4091-b656-01fe473797ba"},"vehicle_type_id":"4","last_reported":1742127355,"current_range_meters":12400,"station_id":"ce4bho92rcd13ifvqh4g","pricing_plan_id":"cebpf4jnsgd1na2vs0mg"},{"bike_id":"5a61a616-683f-484d-83ae-d7f61143d634","system_id":"levelo_inurba_marseille","lat":43.29545,"lon":5.42518,"is_reserved":false,"is_disabled":false,"rental_uris":{"android":"levelo://app?vid=5a61a616-683f-484d-83ae-d7f61143d634","ios":"levelo://app?vid=5a61a616-683f-484d-83ae-d7f61143d634"},"vehicle_type_id":"4","last_reported":1742127355,"current_range_meters":12400,"station_id":"","pricing_plan_id":"cebpf4jnsgd1na2vs0mg"},{"bike_id":"ce157c99-2b38-44c1-b6a5-db708ae225d5","system_id":"levelo_inurba_marseille","lat":43.24071,"lon":5.37744,"is_reserved":false,"is_disabled":false,"rental_uris":{"android":"levelo://app?vid=ce157c99-2b38-44c1-b6a5-db708ae225d5","ios":"levelo://app?vid=ce157c99-2b38-44c1-b6a5-db708ae225d5"},"vehicle_type_id":"4","last_reported":1742127355,"current_range_meters":12400,"station_id":"ce4bhnp2rcd13ifvqgvg","pricing_plan_id":"cebpf4jnsgd1na2vs0mg"},{"bike_id":"c17064e5-0fd2-48f3-99fc-96d665b3abe7","system_id":"levelo_inurba_marseille","lat":43.229282,"lon":5.353697,"is_reserved":false,"is_disabled":false,"rental_uris":{"android":"levelo://app?vid=c17064e5-0fd2-48f3-99fc-96d665b3abe7","ios":"levelo://app?vid=c17064e5-0fd2-48f3-99fc-96d665b3abe7"},"vehicle_type_id":"4","last_reported":1742127355,"current_range_meters":12400,"station_id":"cpo3532slgdg3j2ikp40","pricing_plan_id":"cebpf4jnsgd1na2vs0mg"},{"bike_id":"8a7afd3a-f457-4f41-aec7-7267469e5c57","system_id":"levelo_inurba_marseille","lat":43.24978,"lon":5.38913,"is_reserved":false,"is_disabled":false,"rental_uris":{"android":"levelo://app?vid=8a7afd3a-f457-4f41-aec7-7267469e5c57","ios":"levelo://app?vid=8a7afd3a-f457-4f41-aec7-7267469e5c57"},"vehicle_type_id":"4","last_reported":1742127355,"current_range_meters":12400,"station_id":"ce4bhgp2rcd13ifvqfd0","pricing_plan_id":"cebpf4jnsgd1na2vs0mg"},{"bike_id":"f1b9f2df-eb4e-48e2-9f4f-f16c5ac089c3","system_id":"levelo_inurba_marseille","lat":43.24167,"lon":5.36397,"is_reserved":false,"is_disabled":false,"rental_uris":{"android":"levelo://app?vid=f1b9f2df-eb4e-48e2-9f4f-f16c5ac089c3","ios":"levelo://app?vid=f1b9f2df-eb4e-48e2-9f4f-f16c5ac089c3"},"vehicle_type_id":"4","last_reported":1742127355,"current_range_meters":12400,"station_id":"cpo36qri1sfpv3e86is0","pricing_plan_id":"cebpf4jnsgd1na2vs0mg"},{"bike_id":"b2a9b540-5556-439b-ae8d-6d46b27b801c","system_id":"levelo_inurba_marseille","lat":43.2835,"lon":5.38103,"is_reserved":false,"is_disabled":true,"rental_uris":{"android":"levelo://app?vid=b2a9b540-5556-439b-ae8d-6d46b27b801c","ios":"levelo://app?vid=b2a9b540-5556-439b-ae8d-6d46b27b801c"},"vehicle_type_id":"4","last_reported":1742127355,"current_range_meters":12800,"station_id":"ce4bh412rcd13ifvqdr0","pricing_plan_id":"cebpf4jnsgd1na2vs0mg"},{"bike_id":"2772672b-5a94-4506-9f0e-b73df21a3464","system_id":"levelo_inurba_marseille","lat":43.25127,"lon":5.40317,"is_reserved":false,"is_disabled":false,"rental_uris":{"android":"levelo://app?vid=2772672b-5a94-4506-9f0e-b73df21a3464","ios":"levelo://app?vid=2772672b-5a94-4506-9f0e-b73df21a3464"},"vehicle_type_id":"4","last_reported":1742127355,"current_range_meters":12800,"station_id":"ce4bhlh2rcd13ifvqgig","pricing_plan_id":"cebpf4jnsgd1na2vs0mg"},{"bike_id":"760b38d2-79b4-4c3c-b4bb-02586e46e837","system_id":"levelo_inurba_marseille","lat":43.30804,"lon":5.38164,"is_reserved":false,"is_disabled":true,"rental_uris":{"android":"levelo://app?vid=760b38d2-79b4-4c3c-b4bb-02586e46e837","ios":"levelo://app?vid=760b38d2-79b4-4c3c-b4bb-02586e46e837"},"vehicle_type_id":"4","last_reported":1742127355,"current_range_meters":12800,"station_id":"ce4bgt12rcd13ifvqce0","pricing_plan_id":"cebpf4jnsgd1na2vs0mg"},{"bike_id":"bce6b851-42db-41d0-ae7b-99779b338712","system_id":"levelo_inurba_marseille","lat":43.28419,"lon":5.3751,"is_reserved":false,"is_disabled":false,"rental_uris":{"android":"levelo://app?vid=bce6b851-42db-41d0-ae7b-99779b338712","ios":"levelo://app?vid=bce6b851-42db-41d0-ae7b-99779b338712"},"vehicle_type_id":"4","last_reported":1742127355,"current_range_meters":12800,"station_id":"ce4bh412rcd13ifvqds0","pricing_plan_id":"cebpf4jnsgd1na2vs0mg"},{"bike_id":"59327a6d-8a2d-440e-8c46-aeb42f7e30ee","system_id":"levelo_inurba_marseille","lat":43.28613,"lon":5.3511,"is_reserved":false,"is_disabled":false,"rental_uris":{"android":"levelo://app?vid=59327a6d-8a2d-440e-8c46-aeb42f7e30ee","ios":"levelo://app?vid=59327a6d-8a2d-440e-8c46-aeb42f7e30ee"},"vehicle_type_id":"4","last_reported":1742127355,"current_range_meters":13600,"station_id":"ce4bhch2rcd13ifvqeug","pricing_plan_id":"cebpf4jnsgd1na2vs0mg"},{"bike_id":"83541a31-14b5-4eb6-9127-fa990d64b52a","system_id":"levelo_inurba_marseille","lat":43.27376,"lon":5.36241,"is_reserved":false,"is_disabled":true,"rental_uris":{"android":"levelo://app?vid=83541a31-14b5-4eb6-9127-fa990d64b52a","ios":"levelo://app?vid=83541a31-14b5-4eb6-9127-fa990d64b52a"},"vehicle_type_id":"4","last_reported":1742127355,"current_range_meters":13600,"station_id":"ce4bhbh2rcd13ifvqeo0","pricing_plan_id":"cebpf4jnsgd1na2vs0mg"},{"bike_id":"502a3b3e-8957-45c1-a4dd-1cb7cf5ee2e2","system_id":"levelo_inurba_marseille","lat":43.32131,"lon":5.3682,"is_reserved":false,"is_disabled":false,"rental_uris":{"android":"levelo://app?vid=502a3b3e-8957-45c1-a4dd-1cb7cf5ee2e2","ios":"levelo://app?vid=502a3b3e-8957-45c1-a4dd-1cb7cf5ee2e2"},"vehicle_type_id":"4","last_reported":1742127355,"current_range_meters":13600,"station_id":"","pricing_plan_id":"cebpf4jnsgd1na2vs0mg"},{"bike_id":"6b79f7bf-d213-46f5-a111-4638f83cc6af","system_id":"levelo_inurba_marseille","lat":43.24806,"lon":5.37453,"is_reserved":false,"is_disabled":false,"rental_uris":{"android":"levelo://app?vid=6b79f7bf-d213-46f5-a111-4638f83cc6af","ios":"levelo://app?vid=6b79f7bf-d213-46f5-a111-4638f83cc6af"},"vehicle_type_id":"4","last_reported":1742127355,"current_range_meters":14000,"station_id":"ce4bhgh2rcd13ifvqfb0","pricing_plan_id":"cebpf4jnsgd1na2vs0mg"},{"bike_id":"557bac85-8d64-458b-9a44-6fde55b3f074","system_id":"levelo_inurba_marseille","lat":43.25737,"lon":5.4111,"is_reserved":false,"is_disabled":false,"rental_uris":{"android":"levelo://app?vid=557bac85-8d64-458b-9a44-6fde55b3f074","ios":"levelo://app?vid=557bac85-8d64-458b-9a44-6fde55b3f074"},"vehicle_type_id":"4","last_reported":1742127355,"current_range_meters":13600,"station_id":"ce4bhkp2rcd13ifvqgd0","pricing_plan_id":"cebpf4jnsgd1na2vs0mg"},{"bike_id":"0d048418-98ce-4d03-ba6f-cee94070a3cc","system_id":"levelo_inurba_marseille","lat":43.23124,"lon":5.43932,"is_reserved":false,"is_disabled":false,"rental_uris":{"android":"levelo://app?vid=0d048418-98ce-4d03-ba6f-cee94070a3cc","ios":"levelo://app?vid=0d048418-98ce-4d03-ba6f-cee94070a3cc"},"vehicle_type_id":"4","last_reported":1742127355,"current_range_meters":13600,"station_id":"ce4bhmp2rcd13ifvqgog","pricing_plan_id":"cebpf4jnsgd1na2vs0mg"},{"bike_id":"c546d2da-c529-4797-8136-a8ccd6c9c5a4","system_id":"levelo_inurba_marseille","lat":43.30935,"lon":5.40136,"is_reserved":false,"is_disabled":false,"rental_uris":{"android":"levelo://app?vid=c546d2da-c529-4797-8136-a8ccd6c9c5a4","ios":"levelo://app?vid=c546d2da-c529-4797-8136-a8ccd6c9c5a4"},"vehicle_type_id":"4","last_reported":1742127355,"current_range_meters":14800,"station_id":"ce4bgvp2rcd13ifvqct0","pricing_plan_id":"cebpf4jnsgd1na2vs0mg"},{"bike_id":"3520f3bb-4528-4ad1-809d-2a8fd5bfa089","system_id":"levelo_inurba_marseille","lat":43.26682,"lon":5.38288,"is_reserved":false,"is_disabled":false,"rental_uris":{"android":"levelo://app?vid=3520f3bb-4528-4ad1-809d-2a8fd5bfa089","ios":"levelo://app?vid=3520f3bb-4528-4ad1-809d-2a8fd5bfa089"},"vehicle_type_id":"4","last_reported":1742127355,"current_range_meters":13600,"station_id":"ce4bhg92rcd13ifvqf90","pricing_plan_id":"cebpf4jnsgd1na2vs0mg"},{"bike_id":"ea3faa2e-2727-4cd3-a354-57574da4893b","system_id":"levelo_inurba_marseille","lat":43.24152,"lon":5.36418,"is_reserved":false,"is_disabled":false,"rental_uris":{"android":"levelo://app?vid=ea3faa2e-2727-4cd3-a354-57574da4893b","ios":"levelo://app?vid=ea3faa2e-2727-4cd3-a354-57574da4893b"},"vehicle_type_id":"4","last_reported":1742127355,"current_range_meters":13600,"station_id":"cpo36qri1sfpv3e86is0","pricing_plan_id":"cebpf4jnsgd1na2vs0mg"},{"bike_id":"e39aff96-0142-46d0-807b-703830dfcf78","system_id":"levelo_inurba_marseille","lat":43.286136,"lon":5.35108,"is_reserved":false,"is_disabled":true,"rental_uris":{"android":"levelo://app?vid=e39aff96-0142-46d0-807b-703830dfcf78","ios":"levelo://app?vid=e39aff96-0142-46d0-807b-703830dfcf78"},"vehicle_type_id":"4","last_reported":1742127355,"current_range_meters":13600,"station_id":"","pricing_plan_id":"cebpf4jnsgd1na2vs0mg"},{"bike_id":"41d856e8-014d-42b4-85e9-2a0a980f469f","system_id":"levelo_inurba_marseille","lat":43.23192,"lon":5.35555,"is_reserved":false,"is_disabled":false,"rental_uris":{"android":"levelo://app?vid=41d856e8-014d-42b4-85e9-2a0a980f469f","ios":"levelo://app?vid=41d856e8-014d-42b4-85e9-2a0a980f469f"},"vehicle_type_id":"4","last_reported":1742127355,"current_range_meters":14000,"station_id":"ce4bhu92rcd13ifvqi70","pricing_plan_id":"cebpf4jnsgd1na2vs0mg"},{"bike_id":"a65f889b-4be7-480c-8e19-e0554878545d","system_id":"levelo_inurba_marseille","lat":43.29547,"lon":5.42277,"is_reserved":false,"is_disabled":false,"rental_uris":{"android":"levelo://app?vid=a65f889b-4be7-480c-8e19-e0554878545d","ios":"levelo://app?vid=a65f889b-4be7-480c-8e19-e0554878545d"},"vehicle_type_id":"4","last_reported":1742127355,"current_range_meters":14000,"station_id":"ce4bhph2rcd13ifvqhdg","pricing_plan_id":"cebpf4jnsgd1na2vs0mg"},{"bike_id":"7fdaba83-9e71-4d79-962d-8e9bcb4ba61b","system_id":"levelo_inurba_marseille","lat":43.23191,"lon":5.35557,"is_reserved":false,"is_disabled":false,"rental_uris":{"android":"levelo://app?vid=7fdaba83-9e71-4d79-962d-8e9bcb4ba61b","ios":"levelo://app?vid=7fdaba83-9e71-4d79-962d-8e9bcb4ba61b"},"vehicle_type_id":"4","last_reported":1742127355,"current_range_meters":14000,"station_id":"ce4bhu92rcd13ifvqi70","pricing_plan_id":"cebpf4jnsgd1na2vs0mg"},{"bike_id":"c5c8ebd8-35de-43b8-aadf-5e7822692f81","system_id":"levelo_inurba_marseille","lat":43.2842,"lon":5.34992,"is_reserved":false,"is_disabled":false,"rental_uris":{"android":"levelo://app?vid=c5c8ebd8-35de-43b8-aadf-5e7822692f81","ios":"levelo://app?vid=c5c8ebd8-35de-43b8-aadf-5e7822692f81"},"vehicle_type_id":"4","last_reported":1742127355,"current_range_meters":14000,"station_id":"ce4bhbh2rcd13ifvqepg","pricing_plan_id":"cebpf4jnsgd1na2vs0mg"},{"bike_id":"4b396960-0c7c-4973-8ecb-3520a7356a60","system_id":"levelo_inurba_marseille","lat":43.26801,"lon":5.40264,"is_reserved":false,"is_disabled":false,"rental_uris":{"android":"levelo://app?vid=4b396960-0c7c-4973-8ecb-3520a7356a60","ios":"levelo://app?vid=4b396960-0c7c-4973-8ecb-3520a7356a60"},"vehicle_type_id":"4","last_reported":1742127355,"current_range_meters":14000,"station_id":"ce501612rcd8frsf0b60","pricing_plan_id":"cebpf4jnsgd1na2vs0mg"},{"bike_id":"c0d14a55-0953-4c59-b0cd-c76953277ffe","system_id":"levelo_inurba_marseille","lat":43.29714,"lon":5.44757,"is_reserved":false,"is_disabled":false,"rental_uris":{"android":"levelo://app?vid=c0d14a55-0953-4c59-b0cd-c76953277ffe","ios":"levelo://app?vid=c0d14a55-0953-4c59-b0cd-c76953277ffe"},"vehicle_type_id":"4","last_reported":1742127355,"current_range_meters":14000,"station_id":"","pricing_plan_id":"cebpf4jnsgd1na2vs0mg"},{"bike_id":"db819791-27c1-48de-91ad-79208088cf91","system_id":"levelo_inurba_marseille","lat":43.23193,"lon":5.39965,"is_reserved":false,"is_disabled":false,"rental_uris":{"android":"levelo://app?vid=db819791-27c1-48de-91ad-79208088cf91","ios":"levelo://app?vid=db819791-27c1-48de-91ad-79208088cf91"},"vehicle_type_id":"4","last_reported":1742127355,"current_range_meters":14000,"station_id":"ce4bhn12rcd13ifvqgqg","pricing_plan_id":"cebpf4jnsgd1na2vs0mg"},{"bike_id":"15114da5-30fb-4fb1-9632-866a9f4be863","system_id":"levelo_inurba_marseille","lat":43.29652,"lon":5.36535,"is_reserved":false,"is_disabled":false,"rental_uris":{"android":"levelo://app?vid=15114da5-30fb-4fb1-9632-866a9f4be863","ios":"levelo://app?vid=15114da5-30fb-4fb1-9632-866a9f4be863"},"vehicle_type_id":"4","last_reported":1742127355,"current_range_meters":14000,"station_id":"","pricing_plan_id":"cebpf4jnsgd1na2vs0mg"},{"bike_id":"6d7c8e24-3a81-4b42-b44a-b110aa3a0970","system_id":"levelo_inurba_marseille","lat":43.29286,"lon":5.3701,"is_reserved":false,"is_disabled":false,"rental_uris":{"android":"levelo://app?vid=6d7c8e24-3a81-4b42-b44a-b110aa3a0970","ios":"levelo://app?vid=6d7c8e24-3a81-4b42-b44a-b110aa3a0970"},"vehicle_type_id":"4","last_reported":1742127355,"current_range_meters":14000,"station_id":"","pricing_plan_id":"cebpf4jnsgd1na2vs0mg"},{"bike_id":"13e278b3-c9cb-4550-ad8b-8b4c511558ae","system_id":"levelo_inurba_marseille","lat":43.27452,"lon":5.40892,"is_reserved":false,"is_disabled":false,"rental_uris":{"android":"levelo://app?vid=13e278b3-c9cb-4550-ad8b-8b4c511558ae","ios":"levelo://app?vid=13e278b3-c9cb-4550-ad8b-8b4c511558ae"},"vehicle_type_id":"4","last_reported":1742127355,"current_range_meters":14400,"station_id":"","pricing_plan_id":"cebpf4jnsgd1na2vs0mg"},{"bike_id":"a03e208e-94c1-4a5f-9d61-9150c74ebe8c","system_id":"levelo_inurba_marseille","lat":43.32254,"lon":5.36566,"is_reserved":false,"is_disabled":false,"rental_uris":{"android":"levelo://app?vid=a03e208e-94c1-4a5f-9d61-9150c74ebe8c","ios":"levelo://app?vid=a03e208e-94c1-4a5f-9d61-9150c74ebe8c"},"vehicle_type_id":"4","last_reported":1742127355,"current_range_meters":14400,"station_id":"","pricing_plan_id":"cebpf4jnsgd1na2vs0mg"},{"bike_id":"5189287a-880a-46a1-bc5e-d4c1d9f06a31","system_id":"levelo_inurba_marseille","lat":43.24099,"lon":5.37709,"is_reserved":false,"is_disabled":false,"rental_uris":{"android":"levelo://app?vid=5189287a-880a-46a1-bc5e-d4c1d9f06a31","ios":"levelo://app?vid=5189287a-880a-46a1-bc5e-d4c1d9f06a31"},"vehicle_type_id":"4","last_reported":1742127355,"current_range_meters":14400,"station_id":"","pricing_plan_id":"cebpf4jnsgd1na2vs0mg"},{"bike_id":"148966dd-bd16-49b1-89ad-ee45859972d4","system_id":"levelo_inurba_marseille","lat":43.27822,"lon":5.40712,"is_reserved":false,"is_disabled":false,"rental_uris":{"android":"levelo://app?vid=148966dd-bd16-49b1-89ad-ee45859972d4","ios":"levelo://app?vid=148966dd-bd16-49b1-89ad-ee45859972d4"},"vehicle_type_id":"4","last_reported":1742127355,"current_range_meters":14800,"station_id":"ce4bhnh2rcd13ifvqgtg","pricing_plan_id":"cebpf4jnsgd1na2vs0mg"},{"bike_id":"82817631-790d-487a-8627-112ced24924c","system_id":"levelo_inurba_marseille","lat":43.286131,"lon":5.351124,"is_reserved":false,"is_disabled":false,"rental_uris":{"android":"levelo://app?vid=82817631-790d-487a-8627-112ced24924c","ios":"levelo://app?vid=82817631-790d-487a-8627-112ced24924c"},"vehicle_type_id":"4","last_reported":1742127355,"current_range_meters":14800,"station_id":"ce4bhch2rcd13ifvqeug","pricing_plan_id":"cebpf4jnsgd1na2vs0mg"},{"bike_id":"930f5cd1-c001-48e7-84ab-6c2394f38994","system_id":"levelo_inurba_marseille","lat":43.28272,"lon":5.3506,"is_reserved":false,"is_disabled":false,"rental_uris":{"android":"levelo://app?vid=930f5cd1-c001-48e7-84ab-6c2394f38994","ios":"levelo://app?vid=930f5cd1-c001-48e7-84ab-6c2394f38994"},"vehicle_type_id":"4","last_reported":1742127355,"current_range_meters":14800,"station_id":"ce4bhbp2rcd13ifvqerg","pricing_plan_id":"cebpf4jnsgd1na2vs0mg"},{"bike_id":"77cf483d-f56a-4f53-a0cc-ccd013179afd","system_id":"levelo_inurba_marseille","lat":43.32088,"lon":5.36795,"is_reserved":false,"is_disabled":false,"rental_uris":{"android":"levelo://app?vid=77cf483d-f56a-4f53-a0cc-ccd013179afd","ios":"levelo://app?vid=77cf483d-f56a-4f53-a0cc-ccd013179afd"},"vehicle_type_id":"4","last_reported":1742127355,"current_range_meters":14800,"station_id":"ce4bhrh2rcd13ifvqhug","pricing_plan_id":"cebpf4jnsgd1na2vs0mg"},{"bike_id":"ef73c0a8-9f79-486c-afc3-8c0a9b5935ab","system_id":"levelo_inurba_marseille","lat":43.29556,"lon":5.42285,"is_reserved":false,"is_disabled":false,"rental_uris":{"android":"levelo://app?vid=ef73c0a8-9f79-486c-afc3-8c0a9b5935ab","ios":"levelo://app?vid=ef73c0a8-9f79-486c-afc3-8c0a9b5935ab"},"vehicle_type_id":"4","last_reported":1742127355,"current_range_meters":14800,"station_id":"ce4bhph2rcd13ifvqhdg","pricing_plan_id":"cebpf4jnsgd1na2vs0mg"},{"bike_id":"7da22124-151f-4a95-a879-d7411631f689","system_id":"levelo_inurba_marseille","lat":43.30552,"lon":5.36514,"is_reserved":false,"is_disabled":false,"rental_uris":{"android":"levelo://app?vid=7da22124-151f-4a95-a879-d7411631f689","ios":"levelo://app?vid=7da22124-151f-4a95-a879-d7411631f689"},"vehicle_type_id":"4","last_reported":1742127355,"current_range_meters":11600,"station_id":"ce4bgs12rcd13ifvqcag","pricing_plan_id":"cebpf4jnsgd1na2vs0mg"},{"bike_id":"a6d35157-f80d-4e51-8ec1-72ea36c1e6c4","system_id":"levelo_inurba_marseille","lat":43.23068,"lon":5.3548,"is_reserved":false,"is_disabled":false,"rental_uris":{"android":"levelo://app?vid=a6d35157-f80d-4e51-8ec1-72ea36c1e6c4","ios":"levelo://app?vid=a6d35157-f80d-4e51-8ec1-72ea36c1e6c4"},"vehicle_type_id":"4","last_reported":1742127355,"current_range_meters":15200,"station_id":"cpo3342slgdg3j2ifvpg","pricing_plan_id":"cebpf4jnsgd1na2vs0mg"},{"bike_id":"a6b0a040-07e7-4faa-a4d4-f0ae30938573","system_id":"levelo_inurba_marseille","lat":43.24399,"lon":5.37044,"is_reserved":false,"is_disabled":false,"rental_uris":{"android":"levelo://app?vid=a6b0a040-07e7-4faa-a4d4-f0ae30938573","ios":"levelo://app?vid=a6b0a040-07e7-4faa-a4d4-f0ae30938573"},"vehicle_type_id":"4","last_reported":1742127355,"current_range_meters":16000,"station_id":"ce4bhhh2rcd13ifvqfk0","pricing_plan_id":"cebpf4jnsgd1na2vs0mg"},{"bike_id":"5a4a7d35-0ef8-41e9-9195-6b8c171d9e40","system_id":"levelo_inurba_marseille","lat":43.25935,"lon":5.40908,"is_reserved":false,"is_disabled":false,"rental_uris":{"android":"levelo://app?vid=5a4a7d35-0ef8-41e9-9195-6b8c171d9e40","ios":"levelo://app?vid=5a4a7d35-0ef8-41e9-9195-6b8c171d9e40"},"vehicle_type_id":"4","last_reported":1742127355,"current_range_meters":15200,"station_id":"ce4bhm92rcd13ifvqglg","pricing_plan_id":"cebpf4jnsgd1na2vs0mg"},{"bike_id":"acae015a-47e9-488b-96c7-da5370995513","system_id":"levelo_inurba_marseille","lat":43.23197,"lon":5.35547,"is_reserved":false,"is_disabled":false,"rental_uris":{"android":"levelo://app?vid=acae015a-47e9-488b-96c7-da5370995513","ios":"levelo://app?vid=acae015a-47e9-488b-96c7-da5370995513"},"vehicle_type_id":"4","last_reported":1742127355,"current_range_meters":15200,"station_id":"ce4bhu92rcd13ifvqi70","pricing_plan_id":"cebpf4jnsgd1na2vs0mg"},{"bike_id":"f7390567-485c-4fba-9e9d-d4846905af59","system_id":"levelo_inurba_marseille","lat":43.250874,"lon":5.394982,"is_reserved":false,"is_disabled":false,"rental_uris":{"android":"levelo://app?vid=f7390567-485c-4fba-9e9d-d4846905af59","ios":"levelo://app?vid=f7390567-485c-4fba-9e9d-d4846905af59"},"vehicle_type_id":"4","last_reported":1742127355,"current_range_meters":15200,"station_id":"ce4bhm12rcd13ifvqgkg","pricing_plan_id":"cebpf4jnsgd1na2vs0mg"},{"bike_id":"ce461d73-d5ef-47e5-bd96-066feda10ed7","system_id":"levelo_inurba_marseille","lat":43.23204,"lon":5.35546,"is_reserved":false,"is_disabled":false,"rental_uris":{"android":"levelo://app?vid=ce461d73-d5ef-47e5-bd96-066feda10ed7","ios":"levelo://app?vid=ce461d73-d5ef-47e5-bd96-066feda10ed7"},"vehicle_type_id":"4","last_reported":1742127355,"current_range_meters":14800,"station_id":"ce4bhu92rcd13ifvqi70","pricing_plan_id":"cebpf4jnsgd1na2vs0mg"},