{"last_updated":1690664676,"ttl":30,"version":"2.2","data":{"bikes":[{"bike_id":"e526d4e2-849c-44ae-a0d7-5572a62df909","system_id":"levelo_inurba_marseille","lat":43.31228,"lon":5.36853,"is_reserved":false,"is_disabled":false,"rental_uris":{"android":"levelo://app?vid=e526d4e2-849c-44ae-a0d7-5572a62df909","ios":"levelo://app?vid=e526d4e2-849c-44ae-a0d7-5572a62df909"},"vehicle_type_id":"4","last_reported":1690664677,"current_range_meters":26800,"station_id":"ce4bgl92rcd13ifvqbq0","pricing_plan_id":"free"},{"bike_id":"bc80cd51-9afc-40ed-9c7e-05819ddb7296","system_id":"levelo_inurba_marseille","lat":43.31228,"lon":5.36857,"is_reserved":false,"is_disabled":false,"rental_uris":{"android":"levelo://app?vid=bc80cd51-9afc-40ed-9c7e-05819ddb7296","ios":"levelo://app?vid=bc80cd51-9afc-40ed-9c7e-05819ddb7296"},"vehicle_type_id":"4","last_reported":1690664677,"current_range_meters":25600,"station_id":"ce4bgl92rcd13ifvqbq0","pricing_plan_id":"free"},{"bike_id":"4f72ccdf-7bd6-4b83-9594-7980219955c5","system_id":"levelo_inurba_marseille","lat":43.309076,"lon":5.368465,"is_reserved":false,"is_disabled":false,"rental_uris":{"android":"levelo://app?vid=4f72ccdf-7bd6-4b83-9594-7980219955c5","ios":"levelo://app?vid=4f72ccdf-7bd6-4b83-9594-7980219955c5"},"vehicle_type_id":"4","last_reported":1690664677,"current_range_meters":22400,"station_id":"ce4bgn92rcd13ifvqbvg","pricing_plan_id":"free"},{"bike_id":"b5498c55-b30e-4b25-ab7a-65882120319f","system_id":"levelo_inurba_marseille","lat":43.314811,"lon":5.373103,"is_reserved":false,"is_disabled":false,"rental_uris":{"android":"levelo://app?vid=b5498c55-b30e-4b25-ab7a-65882120319f","ios":"levelo://app?vid=b5498c55-b30e-4b25-ab7a-65882120319f"},"vehicle_type_id":"4","last_reported":1690664677,"current_range_meters":23600,"station_id":"ce4bgt12rcd13ifvqcd0","pricing_plan_id":"free"},{"bike_id":"7361baf7-46f9-42ed-84ef-5eb6cf768be0","system_id":"levelo_inurba_marseille","lat":43.31491,"lon":5.37311,"is_reserved":false,"is_disabled":false,"rental_uris":{"android":"levelo://app?vid=7361baf7-46f9-42ed-84ef-5eb6cf768be0","ios":"levelo://app?vid=7361baf7-46f9-42ed-84ef-5eb6cf768be0"},"vehicle_type_id":"4","last_reported":1690664677,"current_range_meters":10400,"station_id":"ce4bgt12rcd13ifvqcd0","pricing_plan_id":"free"},{"bike_id":"6fb79298-f122-4a19-a0ea-972c5edaeb9b","system_id":"levelo_inurba_marseille","lat":43.309039,"lon":5.371797,"is_reserved":false,"is_disabled":false,"rental_uris":{"android":"levelo://app?vid=6fb79298-f122-4a19-a0ea-972c5edaeb9b","ios":"levelo://app?vid=6fb79298-f122-4a19-a0ea-972c5edaeb9b"},"vehicle_type_id":"4","last_reported":1690664677,"current_range_meters":31600,"station_id":"ce4bguh2rcd13ifvqckg","pricing_plan_id":"free"},{"bike_id":"5cf8e82b-5121-4436-b59c-fbea86df3a57","system_id":"levelo_inurba_marseille","lat":43.31562,"lon":5.37295,"is_reserved":false,"is_disabled":false,"rental_uris":{"android":"levelo://app?vid=5cf8e82b-5121-4436-b59c-fbea86df3a57","ios":"levelo://app?vid=5cf8e82b-5121-4436-b59c-fbea86df3a57"},"vehicle_type_id":"4","last_reported":1690664677,"current_range_meters":19600,"station_id":"","pricing_plan_id":"free"},{"bike_id":"44001615-3afb-4788-9e39-de2ba61c8d20","system_id":"levelo_inurba_marseille","lat":43.309039,"lon":5.371797,"is_reserved":false,"is_disabled":false,"rental_uris":{"android":"levelo://app?vid=44001615-3afb-4788-9e39-de2ba61c8d20","ios":"levelo://app?vid=44001615-3afb-4788-9e39-de2ba61c8d20"},"vehicle_type_id":"4","last_reported":1690664677,"current_range_meters":9200,"station_id":"ce4bguh2rcd13ifvqckg","pricing_plan_id":"free"},{"bike_id":"d2b8d6c4-b0e6-4063-b8ed-5b8bc950f07c","system_id":"levelo_inurba_marseille","lat":43.309039,"lon":5.371797,"is_reserved":false,"is_disabled":false,"rental_uris":{"android":"levelo://app?vid=d2b8d6c4-b0e6-4063-b8ed-5b8bc950f07c","ios":"levelo://app?vid=d2b8d6c4-b0e6-4063-b8ed-5b8bc950f07c"},"vehicle_type_id":"4","last_reported":1690664677,"current_range_meters":0,"station_id":"ce4bguh2rcd13ifvqckg","pricing_plan_id":"free"},{"bike_id":"2d050ccf-ef54-4ba3-b1ad-68862ae8f2c9","system_id":"levelo_inurba_marseille","lat":43.30537,"lon":5.36716,"is_reserved":false,"is_disabled":false,"rental_uris":{"android":"levelo://app?vid=2d050ccf-ef54-4ba3-b1ad-68862ae8f2c9","ios":"levelo://app?vid=2d050ccf-ef54-4ba3-b1ad-68862ae8f2c9"},"vehicle_type_id":"4","last_reported":1690664677,"current_range_meters":14000,"station_id":"ce4bgrp2rcd13ifvqc9g","pricing_plan_id":"free"},{"bike_id":"daf1b2d8-9695-473f-9616-47272855e1ab","system_id":"levelo_inurba_marseille","lat":43.305714,"lon":5.365633,"is_reserved":false,"is_disabled":false,"rental_uris":{"android":"levelo://app?vid=daf1b2d8-9695-473f-9616-47272855e1ab","ios":"levelo://app?vid=daf1b2d8-9695-473f-9616-47272855e1ab"},"vehicle_type_id":"4","last_reported":1690664677,"current_range_meters":16400,"station_id":"ce4bgs12rcd13ifvqcag","pricing_plan_id":"free"},{"bike_id":"38465864-a2b9-4801-a586-ba222a228369","system_id":"levelo_inurba_marseille","lat":43.305714,"lon":5.365633,"is_reserved":false,"is_disabled":false,"rental_uris":{"android":"levelo://app?vid=38465864-a2b9-4801-a586-ba222a228369","ios":"levelo://app?vid=38465864-a2b9-4801-a586-ba222a228369"},"vehicle_type_id":"4","last_reported":1690664677,"current_range_meters":20000,"station_id":"ce4bgs12rcd13ifvqcag","pricing_plan_id":"free"},{"bike_id":"df3bcd9b-c5d6-4ee5-8dda-ba8863d4aae3","system_id":"levelo_inurba_marseille","lat":43.305714,"lon":5.365633,"is_reserved":false,"is_disabled":false,"rental_uris":{"android":"levelo://app?vid=df3bcd9b-c5d6-4ee5-8dda-ba8863d4aae3","ios":"levelo://app?vid=df3bcd9b-c5d6-4ee5-8dda-ba8863d4aae3"},"vehicle_type_id":"4","last_reported":1690664677,"current_range_meters":12000,"station_id":"ce4bgs12rcd13ifvqcag","pricing_plan_id":"free"},{"bike_id":"5d493e3e-1883-4734-8d5d-fb0f138c0017","system_id":"levelo_inurba_marseille","lat":43.305989,"lon":5.37225,"is_reserved":false,"is_disabled":false,"rental_uris":{"android":"levelo://app?vid=5d493e3e-1883-4734-8d5d-fb0f138c0017","ios":"levelo://app?vid=5d493e3e-1883-4734-8d5d-fb0f138c0017"},"vehicle_type_id":"4","last_reported":1690664677,"current_range_meters":2400,"station_id":"ce4bgqh2rcd13ifvqc4g","pricing_plan_id":"free"},{"bike_id":"f20ea888-8740-440b-bfeb-8eb2a7c1f652","system_id":"levelo_inurba_marseille","lat":43.30607,"lon":5.37237,"is_reserved":false,"is_disabled":false,"rental_uris":{"android":"levelo://app?vid=f20ea888-8740-440b-bfeb-8eb2a7c1f652","ios":"levelo://app?vid=f20ea888-8740-440b-bfeb-8eb2a7c1f652"},"vehicle_type_id":"4","last_reported":1690664677,"current_range_meters":28400,"station_id":"ce4bgqh2rcd13ifvqc4g","pricing_plan_id":"free"},{"bike_id":"adb06295-0354-49ba-a2ce-4f3152a9c8a9","system_id":"levelo_inurba_marseille","lat":43.305989,"lon":5.37225,"is_reserved":false,"is_disabled":false,"rental_uris":{"android":"levelo://app?vid=adb06295-0354-49ba-a2ce-4f3152a9c8a9","ios":"levelo://app?vid=adb06295-0354-49ba-a2ce-4f3152a9c8a9"},"vehicle_type_id":"4","last_reported":1690664677,"current_range_meters":5600,"station_id":"ce4bgqh2rcd13ifvqc4g","pricing_plan_id":"free"},{"bike_id":"c8dbbeac-5bad-4867-b5c7-4c5c8dee8e3c","system_id":"levelo_inurba_marseille","lat":43.311131,"lon":5.377651,"is_reserved":false,"is_disabled":false,"rental_uris":{"android":"levelo://app?vid=c8dbbeac-5bad-4867-b5c7-4c5c8dee8e3c","ios":"levelo://app?vid=c8dbbeac-5bad-4867-b5c7-4c5c8dee8e3c"},"vehicle_type_id":"4","last_reported":1690664677,"current_range_meters":24400,"station_id":"ce4bgt92rcd13ifvqcg0","pricing_plan_id":"free"},{"bike_id":"b760469e-ad95-43b5-a1ba-d090a3cf9b97","system_id":"levelo_inurba_marseille","lat":43.311125,"lon":5.377624,"is_reserved":false,"is_disabled":false,"rental_uris":{"android":"levelo://app?vid=b760469e-ad95-43b5-a1ba-d090a3cf9b97","ios":"levelo://app?vid=b760469e-ad95-43b5-a1ba-d090a3cf9b97"},"vehicle_type_id":"4","last_reported":1690664677,"current_range_meters":20800,"station_id":"ce4bgt92rcd13ifvqcg0","pricing_plan_id":"free"},{"bike_id":"10e2636a-78bc-412c-a665-b024cc1ea03f","system_id":"levelo_inurba_marseille","lat":43.311125,"lon":5.377624,"is_reserved":false,"is_disabled":false,"rental_uris":{"android":"levelo://app?vid=10e2636a-78bc-412c-a665-b024cc1ea03f","ios":"levelo://app?vid=10e2636a-78bc-412c-a665-b024cc1ea03f"},"vehicle_type_id":"4","last_reported":1690664677,"current_range_meters":5200,"station_id":"ce4bgt92rcd13ifvqcg0","pricing_plan_id":"free"},{"bike_id":"b575e289-d12d-4b35-a6df-828b985b1026","system_id":"levelo_inurba_marseille","lat":43.311125,"lon":5.377624,"is_reserved":false,"is_disabled":false,"rental_uris":{"android":"levelo://app?vid=b575e289-d12d-4b35-a6df-828b985b1026","ios":"levelo://app?vid=b575e289-d12d-4b35-a6df-828b985b1026"},"vehicle_type_id":"4","last_reported":1690664677,"current_range_meters":3600,"station_id":"ce4bgt92rcd13ifvqcg0","pricing_plan_id":"free"},{"bike_id":"7276f5fd-8d35-4d4c-9efc-8d2ffe25c9bd","system_id":"levelo_inurba_marseille","lat":43.31082,"lon":5.37851,"is_reserved":false,"is_disabled":false,"rental_uris":{"android":"levelo://app?vid=7276f5fd-8d35-4d4c-9efc-8d2ffe25c9bd","ios":"levelo://app?vid=7276f5fd-8d35-4d4c-9efc-8d2ffe25c9bd"},"vehicle_type_id":"4","last_reported":1690664677,"current_range_meters":2400,"station_id":"","pricing_plan_id":"free"},{"bike_id":"54e8bbd0-88aa-4ddb-a483-d897b5ef40d7","system_id":"levelo_inurba_marseille","lat":43.317075,"lon":5.377367,"is_reserved":false,"is_disabled":false,"rental_uris":{"android":"levelo://app?vid=54e8bbd0-88aa-4ddb-a483-d897b5ef40d7","ios":"levelo://app?vid=54e8bbd0-88aa-4ddb-a483-d897b5ef40d7"},"vehicle_type_id":"4","last_reported":1690664677,"current_range_meters":25200,"station_id":"ce4bgth2rcd13ifvqch0","pricing_plan_id":"free"},{"bike_id":"f2f804a2-cd8f-4ead-82dc-29a77c1e036f","system_id":"levelo_inurba_marseille","lat":43.317075,"lon":5.377367,"is_reserved":false,"is_disabled":false,"rental_uris":{"android":"levelo://app?vid=f2f804a2-cd8f-4ead-82dc-29a77c1e036f","ios":"levelo://app?vid=f2f804a2-cd8f-4ead-82dc-29a77c1e036f"},"vehicle_type_id":"4","last_reported":1690664677,"current_range_meters":12400,"station_id":"ce4bgth2rcd13ifvqch0","pricing_plan_id":"free"},{"bike_id":"2aa6be64-bf3e-4b13-b0cb-6a0c4ef23979","system_id":"levelo_inurba_marseille","lat":43.317075,"lon":5.377367,"is_reserved":false,"is_disabled":false,"rental_uris":{"android":"levelo://app?vid=2aa6be64-bf3e-4b13-b0cb-6a0c4ef23979","ios":"levelo://app?vid=2aa6be64-bf3e-4b13-b0cb-6a0c4ef23979"},"vehicle_type_id":"4","last_reported":1690664677,"current_range_meters":31200,"station_id":"ce4bgth2rcd13ifvqch0","pricing_plan_id":"free"},{"bike_id":"4e9ce199-97b7-4738-8ca8-7d142b671092","system_id":"levelo_inurba_marseille","lat":43.317075,"lon":5.377367,"is_reserved":false,"is_disabled":false,"rental_uris":{"android":"levelo://app?vid=4e9ce199-97b7-4738-8ca8-7d142b671092","ios":"levelo://app?vid=4e9ce199-97b7-4738-8ca8-7d142b671092"},"vehicle_type_id":"4","last_reported":1690664677,"current_range_meters":23200,"station_id":"ce4bgth2rcd13ifvqch0","pricing_plan_id":"free"},{"bike_id":"3b69d8cb-a3e6-4b29-b50f-b8548dcc2195","system_id":"levelo_inurba_marseille","lat":43.317075,"lon":5.377367,"is_reserved":false,"is_disabled":false,"rental_uris":{"android":"levelo://app?vid=3b69d8cb-a3e6-4b29-b50f-b8548dcc2195","ios":"levelo://app?vid=3b69d8cb-a3e6-4b29-b50f-b8548dcc2195"},"vehicle_type_id":"4","last_reported":1690664677,"current_range_meters":28800,"station_id":"ce4bgth2rcd13ifvqch0","pricing_plan_id":"free"},{"bike_id":"d8ac299b-7b85-4e93-8aa7-2e6be63e5689","system_id":"levelo_inurba_marseille","lat":43.317075,"lon":5.377367,"is_reserved":false,"is_disabled":false,"rental_uris":{"android":"levelo://app?vid=d8ac299b-7b85-4e93-8aa7-2e6be63e5689","ios":"levelo://app?vid=d8ac299b-7b85-4e93-8aa7-2e6be63e5689"},"vehicle_type_id":"4","last_reported":1690664677,"current_range_meters":31600,"station_id":"ce4bgth2rcd13ifvqch0","pricing_plan_id":"free"},{"bike_id":"b2e73e1b-5989-48c7-812e-1fe047757616","system_id":"levelo_inurba_marseille","lat":43.311125,"lon":5.377624,"is_reserved":false,"is_disabled":false,"rental_uris":{"android":"levelo://app?vid=b2e73e1b-5989-48c7-812e-1fe047757616","ios":"levelo://app?vid=b2e73e1b-5989-48c7-812e-1fe047757616"},"vehicle_type_id":"4","last_reported":1690664677,"current_range_meters":20000,"station_id":"ce4bgt92rcd13ifvqcg0","pricing_plan_id":"free"},{"bike_id":"016ba993-6d4c-4c46-a960-2dcbd4ea472c","system_id":"levelo_inurba_marseille","lat":43.315289,"lon":5.380349,"is_reserved":false,"is_disabled":false,"rental_uris":{"android":"levelo://app?vid=016ba993-6d4c-4c46-a960-2dcbd4ea472c","ios":"levelo://app?vid=016ba993-6d4c-4c46-a960-2dcbd4ea472c"},"vehicle_type_id":"4","last_reported":1690664677,"current_range_meters":6000,"station_id":"ce4bhsp2rcd13ifvqi50","pricing_plan_id":"free"},{"bike_id":"c53df0bc-8e9c-4042-8274-c10725e7ca1f","system_id":"levelo_inurba_marseille","lat":43.31538,"lon":5.38027,"is_reserved":false,"is_disabled":false,"rental_uris":{"android":"levelo://app?vid=c53df0bc-8e9c-4042-8274-c10725e7ca1f","ios":"levelo://app?vid=c53df0bc-8e9c-4042-8274-c10725e7ca1f"},"vehicle_type_id":"4","last_reported":1690664677,"current_range_meters":15600,"station_id":"ce4bhsp2rcd13ifvqi50","pricing_plan_id":"free"},{"bike_id":"069adb06-70e2-47b5-8450-41e40ae498a9","system_id":"levelo_inurba_marseille","lat":43.315289,"lon":5.380349,"is_reserved":false,"is_disabled":false,"rental_uris":{"android":"levelo://app?vid=069adb06-70e2-47b5-8450-41e40ae498a9","ios":"levelo://app?vid=069adb06-70e2-47b5-8450-41e40ae498a9"},"vehicle_type_id":"4","last_reported":1690664677,"current_range_meters":10800,"station_id":"ce4bhsp2rcd13ifvqi50","pricing_plan_id":"free"},{"bike_id":"461a8760-e499-4804-a355-9554d4fb39a6","system_id":"levelo_inurba_marseille","lat":43.301939,"lon":5.366286,"is_reserved":false,"is_disabled":false,"rental_uris":{"android":"levelo://app?vid=461a8760-e499-4804-a355-9554d4fb39a6","ios":"levelo://app?vid=461a8760-e499-4804-a355-9554d4fb39a6"},"vehicle_type_id":"4","last_reported":1690664677,"current_range_meters":28000,"station_id":"ce4bgrh2rcd13ifvqc8g","pricing_plan_id":"free"},{"bike_id":"0b428b4f-1e16-41de-b0f2-39ccb1dc5776","system_id":"levelo_inurba_marseille","lat":43.30185,"lon":5.36616,"is_reserved":false,"is_disabled":false,"rental_uris":{"android":"levelo://app?vid=0b428b4f-1e16-41de-b0f2-39ccb1dc5776","ios":"levelo://app?vid=0b428b4f-1e16-41de-b0f2-39ccb1dc5776"},"vehicle_type_id":"4","last_reported":1690664677,"current_range_meters":5200,"station_id":"ce4bgrh2rcd13ifvqc8g","pricing_plan_id":"free"},{"bike_id":"cf8b442d-5f0e-4ba7-9298-d001ae271373","system_id":"levelo_inurba_marseille","lat":43.304606,"lon":5.379026,"is_reserved":false,"is_disabled":false,"rental_uris":{"android":"levelo://app?vid=cf8b442d-5f0e-4ba7-9298-d001ae271373","ios":"levelo://app?vid=cf8b442d-5f0e-4ba7-9298-d001ae271373"},"vehicle_type_id":"4","last_reported":1690664677,"current_range_meters":30000,"station_id":"ce4bgup2rcd13ifvqcn0","pricing_plan_id":"free"},{"bike_id":"de57fa76-751b-4e6d-bf50-9ee4b68df05f","system_id":"levelo_inurba_marseille","lat":43.304606,"lon":5.379026,"is_reserved":false,"is_disabled":false,"rental_uris":{"android":"levelo://app?vid=de57fa76-751b-4e6d-bf50-9ee4b68df05f","ios":"levelo://app?vid=de57fa76-751b-4e6d-bf50-9ee4b68df05f"},"vehicle_type_id":"4","last_reported":1690664677,"current_range_meters":31200,"station_id":"ce4bgup2rcd13ifvqcn0","pricing_plan_id":"free"},{"bike_id":"44450f25-105c-42dc-b5a8-bb93672c2f61","system_id":"levelo_inurba_marseille","lat":43.304606,"lon":5.379026,"is_reserved":false,"is_disabled":false,"rental_uris":{"android":"levelo://app?vid=44450f25-105c-42dc-b5a8-bb93672c2f61","ios":"levelo://app?vid=44450f25-105c-42dc-b5a8-bb93672c2f61"},"vehicle_type_id":"4","last_reported":1690664677,"current_range_meters":27600,"station_id":"ce4bgup2rcd13ifvqcn0","pricing_plan_id":"free"},{"bike_id":"bd7a9b34-8318-4857-a4c1-ebd019a4ed06","system_id":"levelo_inurba_marseille","lat":43.30291,"lon":5.3769,"is_reserved":false,"is_disabled":false,"rental_uris":{"android":"levelo://app?vid=bd7a9b34-8318-4857-a4c1-ebd019a4ed06","ios":"levelo://app?vid=bd7a9b34-8318-4857-a4c1-ebd019a4ed06"},"vehicle_type_id":"4","last_reported":1690664677,"current_range_meters":20400,"station_id":"ce4bguh2rcd13ifvqcj0","pricing_plan_id":"free"},{"bike_id":"226b5ee1-42b6-4dae-9092-7bc50e4e735b","system_id":"levelo_inurba_marseille","lat":43.30292,"lon":5.37692,"is_reserved":false,"is_disabled":false,"rental_uris":{"android":"levelo://app?vid=226b5ee1-42b6-4dae-9092-7bc50e4e735b","ios":"levelo://app?vid=226b5ee1-42b6-4dae-9092-7bc50e4e735b"},"vehicle_type_id":"4","last_reported":1690664677,"current_range_meters":18800,"station_id":"ce4bguh2rcd13ifvqcj0","pricing_plan_id":"free"},{"bike_id":"b8a9e4b7-5265-4d5e-bf97-a9db69f26e48","system_id":"levelo_inurba_marseille","lat":43.302784,"lon":5.377158,"is_reserved":false,"is_disabled":false,"rental_uris":{"android":"levelo://app?vid=b8a9e4b7-5265-4d5e-bf97-a9db69f26e48","ios":"levelo://app?vid=b8a9e4b7-5265-4d5e-bf97-a9db69f26e48"},"vehicle_type_id":"4","last_reported":1690664677,"current_range_meters":1600,"station_id":"ce4bguh2rcd13ifvqcj0","pricing_plan_id":"free"},{"bike_id":"774b550d-08c1-4c75-836f-a097fec41428","system_id":"levelo_inurba_marseille","lat":43.302784,"lon":5.377158,"is_reserved":false,"is_disabled":false,"rental_uris":{"android":"levelo://app?vid=774b550d-08c1-4c75-836f-a097fec41428","ios":"levelo://app?vid=774b550d-08c1-4c75-836f-a097fec41428"},"vehicle_type_id":"4","last_reported":1690664677,"current_range_meters":30400,"station_id":"ce4bguh2rcd13ifvqcj0","pricing_plan_id":"free"},{"bike_id":"64afe780-9783-47a9-9c42-04a8119cff3e","system_id":"levelo_inurba_marseille","lat":43.302784,"lon":5.377158,"is_reserved":false,"is_disabled":false,"rental_uris":{"android":"levelo://app?vid=64afe780-9783-47a9-9c42-04a8119cff3e","ios":"levelo://app?vid=64afe780-9783-47a9-9c42-04a8119cff3e"},"vehicle_type_id":"4","last_reported":1690664677,"current_range_meters":21600,"station_id":"ce4bguh2rcd13ifvqcj0","pricing_plan_id":"free"},{"bike_id":"a9eb63bf-74a5-4536-981a-88e04770cd89","system_id":"levelo_inurba_marseille","lat":43.302784,"lon":5.377158,"is_reserved":false,"is_disabled":false,"rental_uris":{"android":"levelo://app?vid=a9eb63bf-74a5-4536-981a-88e04770cd89","ios":"levelo://app?vid=a9eb63bf-74a5-4536-981a-88e04770cd89"},"vehicle_type_id":"4","last_reported":1690664677,"current_range_meters":15200,"station_id":"ce4bguh2rcd13ifvqcj0","pricing_plan_id":"free"},{"bike_id":"0ce44cd5-ddf3-4c04-b459-4879e74e42de","system_id":"levelo_inurba_marseille","lat":43.302784,"lon":5.377158,"is_reserved":false,"is_disabled":false,"rental_uris":{"android":"levelo://app?vid=0ce44cd5-ddf3-4c04-b459-4879e74e42de","ios":"levelo://app?vid=0ce44cd5-ddf3-4c04-b459-4879e74e42de"},"vehicle_type_id":"4","last_reported":1690664677,"current_range_meters":15600,"station_id":"ce4bguh2rcd13ifvqcj0","pricing_plan_id":"free"},{"bike_id":"5c28f0be-2b54-4fd7-8b3a-a93995532a4a","system_id":"levelo_inurba_marseille","lat":43.302784,"lon":5.377158,"is_reserved":false,"is_disabled":false,"rental_uris":{"android":"levelo://app?vid=5c28f0be-2b54-4fd7-8b3a-a93995532a4a","ios":"levelo://app?vid=5c28f0be-2b54-4fd7-8b3a-a93995532a4a"},"vehicle_type_id":"4","last_reported":1690664677,"current_range_meters":12800,"station_id":"ce4bguh2rcd13ifvqcj0","pricing_plan_id":"free"},{"bike_id":"2b23487c-bfb4-4af0-b458-69f97b62b778","system_id":"levelo_inurba_marseille","lat":43.30143,"lon":5.37416,"is_reserved":false,"is_disabled":false,"rental_uris":{"android":"levelo://app?vid=2b23487c-bfb4-4af0-b458-69f97b62b778","ios":"levelo://app?vid=2b23487c-bfb4-4af0-b458-69f97b62b778"},"vehicle_type_id":"4","last_reported":1690664677,"current_range_meters":30000,"station_id":"ce4bgs92rcd13ifvqcc0","pricing_plan_id":"free"},{"bike_id":"ef1594fa-61f6-457d-976a-fc9204580145","system_id":"levelo_inurba_marseille","lat":43.302784,"lon":5.377158,"is_reserved":false,"is_disabled":false,"rental_uris":{"android":"levelo://app?vid=ef1594fa-61f6-457d-976a-fc9204580145","ios":"levelo://app?vid=ef1594fa-61f6-457d-976a-fc9204580145"},"vehicle_type_id":"4","last_reported":1690664677,"current_range_meters":19600,"station_id":"ce4bguh2rcd13ifvqcj0","pricing_plan_id":"free"},{"bike_id":"67a801c1-0028-44a3-88f3-1836dae79832","system_id":"levelo_inurba_marseille","lat":43.3014,"lon":5.37413,"is_reserved":false,"is_disabled":false,"rental_uris":{"android":"levelo://app?vid=67a801c1-0028-44a3-88f3-1836dae79832","ios":"levelo://app?vid=67a801c1-0028-44a3-88f3-1836dae79832"},"vehicle_type_id":"4","last_reported":1690664677,"current_range_meters":6400,"station_id":"ce4bgs92rcd13ifvqcc0","pricing_plan_id":"free"},{"bike_id":"93c022b9-2133-4d82-b7e2-4b6c11a8e8e9","system_id":"levelo_inurba_marseille","lat":43.3014,"lon":5.37416,"is_reserved":false,"is_disabled":false,"rental_uris":{"android":"levelo://app?vid=93c022b9-2133-4d82-b7e2-4b6c11a8e8e9","ios":"levelo://app?vid=93c022b9-2133-4d82-b7e2-4b6c11a8e8e9"},"vehicle_type_id":"4","last_reported":1690664677,"current_range_meters":21600,"station_id":"ce4bgs92rcd13ifvqcc0","pricing_plan_id":"free"},{"bike_id":"cbba65f0-ec5c-40f5-b803-0c6c8448fe83","system_id":"levelo_inurba_marseille","lat":43.30134,"lon":5.37417,"is_reserved":false,"is_disabled":false,"rental_uris":{"android":"levelo://app?vid=cbba65f0-ec5c-40f5-b803-0c6c8448fe83","ios":"levelo://app?vid=cbba65f0-ec5c-40f5-b803-0c6c8448fe83"},"vehicle_type_id":"4","last_reported":1690664677,"current_range_meters":8800,"station_id":"ce4bgs92rcd13ifvqcc0","pricing_plan_id":"free"},{"bike_id":"81139c5a-e970-4460-acac-403378bd7072","system_id":"levelo_inurba_marseille","lat":43.31989,"lon":5.38133,"is_reserved":false,"is_disabled":false,"rental_uris":{"android":"levelo://app?vid=81139c5a-e970-4460-acac-403378bd7072","ios":"levelo://app?vid=81139c5a-e970-4460-acac-403378bd7072"},"vehicle_type_id":"4","last_reported":1690664677,"current_range_meters":6400,"station_id":"ce4bhr12rcd13ifvqhpg","pricing_plan_id":"free"},{"bike_id":"290ba626-e532-4e76-b419-6fbb782cdd40","system_id":"levelo_inurba_marseille","lat":43.319935,"lon":5.381699,"is_reserved":false,"is_disabled":false,"rental_uris":{"android":"levelo://app?vid=290ba626-e532-4e76-b419-6fbb782cdd40","ios":"levelo://app?vid=290ba626-e532-4e76-b419-6fbb782cdd40"},"vehicle_type_id":"4","last_reported":1690664677,"current_range_meters":21200,"station_id":"ce4bhr12rcd13ifvqhpg","pricing_plan_id":"free"},{"bike_id":"58dd194a-081a-4140-9c91-deb45fb837ac","system_id":"levelo_inurba_marseille","lat":43.313571,"lon":5.384829,"is_reserved":false,"is_disabled":false,"rental_uris":{"android":"levelo://app?vid=58dd194a-081a-4140-9c91-deb45fb837ac","ios":"levelo://app?vid=58dd194a-081a-4140-9c91-deb45fb837ac"},"vehicle_type_id":"4","last_reported":1690664677,"current_range_meters":22800,"station_id":"ce4bgt92rcd13ifvqcf0","pricing_plan_id":"free"},{"bike_id":"0dbea698-cae3-4a8b-9e4e-c20f87b373a8","system_id":"levelo_inurba_marseille","lat":43.313571,"lon":5.384829,"is_reserved":false,"is_disabled":false,"rental_uris":{"android":"levelo://app?vid=0dbea698-cae3-4a8b-9e4e-c20f87b373a8","ios":"levelo://app?vid=0dbea698-cae3-4a8b-9e4e-c20f87b373a8"},"vehicle_type_id":"4","last_reported":1690664677,"current_range_meters":29600,"station_id":"ce4bgt92rcd13ifvqcf0","pricing_plan_id":"free"},{"bike_id":"c349f9f2-0998-40b5-a7e6-92fde02cdb74","system_id":"levelo_inurba_marseille","lat":43.313571,"lon":5.384829,"is_reserved":false,"is_disabled":false,"rental_uris":{"android":"levelo://app?vid=c349f9f2-0998-40b5-a7e6-92fde02cdb74","ios":"levelo://app?vid=c349f9f2-0998-40b5-a7e6-92fde02cdb74"},"vehicle_type_id":"4","last_reported":1690664677,"current_range_meters":27200,"station_id":"ce4bgt92rcd13ifvqcf0","pricing_plan_id":"free"},{"bike_id":"c43e2b2d-251a-42cd-9de8-d3e6cca1744d","system_id":"levelo_inurba_marseille","lat":43.313571,"lon":5.384829,"is_reserved":false,"is_disabled":false,"rental_uris":{"android":"levelo://app?vid=c43e2b2d-251a-42cd-9de8-d3e6cca1744d","ios":"levelo://app?vid=c43e2b2d-251a-42cd-9de8-d3e6cca1744d"},"vehicle_type_id":"4","last_reported":1690664677,"current_range_meters":29200,"station_id":"ce4bgt92rcd13ifvqcf0","pricing_plan_id":"free"},{"bike_id":"b44826ed-0ebb-445c-a8ec-49608e5d271c","system_id":"levelo_inurba_marseille","lat":43.313571,"lon":5.384829,"is_reserved":false,"is_disabled":false,"rental_uris":{"android":"levelo://app?vid=b44826ed-0ebb-445c-a8ec-49608e5d271c","ios":"levelo://app?vid=b44826ed-0ebb-445c-a8ec-49608e5d271c"},"vehicle_type_id":"4","last_reported":1690664677,"current_range_meters":10400,"station_id":"ce4bgt92rcd13ifvqcf0","pricing_plan_id":"free"},{"bike_id":"9ce47695-dbc2-433e-ab10-d08d083af9d7","system_id":"levelo_inurba_marseille","lat":43.313571,"lon":5.384829,"is_reserved":false,"is_disabled":false,"rental_uris":{"android":"levelo://app?vid=9ce47695-dbc2-433e-ab10-d08d083af9d7","ios":"levelo://app?vid=9ce47695-dbc2-433e-ab10-d08d083af9d7"},"vehicle_type_id":"4","last_reported":1690664677,"current_range_meters":3600,"station_id":"ce4bgt92rcd13ifvqcf0","pricing_plan_id":"free"},{"bike_id":"7c916267-5a52-4c4e-a7a9-df0b1388f0c0","system_id":"levelo_inurba_marseille","lat":43.29943,"lon":5.36565,"is_reserved":false,"is_disabled":false,"rental_uris":{"android":"levelo://app?vid=7c916267-5a52-4c4e-a7a9-df0b1388f0c0","ios":"levelo://app?vid=7c916267-5a52-4c4e-a7a9-df0b1388f0c0"},"vehicle_type_id":"4","last_reported":1690664677,"current_range_meters":24000,"station_id":"ce4bgm92rcd13ifvqbr0","pricing_plan_id":"free"},{"bike_id":"8f8f6f2d-436d-44bf-98dc-7430ffba6ed1","system_id":"levelo_inurba_marseille","lat":43.29938,"lon":5.36558,"is_reserved":false,"is_disabled":false,"rental_uris":{"android":"levelo://app?vid=8f8f6f2d-436d-44bf-98dc-7430ffba6ed1","ios":"levelo://app?vid=8f8f6f2d-436d-44bf-98dc-7430ffba6ed1"},"vehicle_type_id":"4","last_reported":1690664677,"current_range_meters":25200,"station_id":"ce4bgm92rcd13ifvqbr0","pricing_plan_id":"free"},{"bike_id":"a1f4a77a-09e6-4ab8-afe4-1d074a8c0357","system_id":"levelo_inurba_marseille","lat":43.29964,"lon":5.37183,"is_reserved":false,"is_disabled":false,"rental_uris":{"android":"levelo://app?vid=a1f4a77a-09e6-4ab8-afe4-1d074a8c0357","ios":"levelo://app?vid=a1f4a77a-09e6-4ab8-afe4-1d074a8c0357"},"vehicle_type_id":"4","last_reported":1690664677,"current_range_meters":19200,"station_id":"ce4bgr92rcd13ifvqc7g","pricing_plan_id":"free"},{"bike_id":"2e86939a-98bc-4113-9745-1680aa93c620","system_id":"levelo_inurba_marseille","lat":43.31183,"lon":5.38672,"is_reserved":false,"is_disabled":false,"rental_uris":{"android":"levelo://app?vid=2e86939a-98bc-4113-9745-1680aa93c620","ios":"levelo://app?vid=2e86939a-98bc-4113-9745-1680aa93c620"},"vehicle_type_id":"4","last_reported":1690664677,"current_range_meters":7600,"station_id":"ce4bgv12rcd13ifvqcp0","pricing_plan_id":"free"},{"bike_id":"bc40687e-8274-4eac-86e3-6b5099007b8d","system_id":"levelo_inurba_marseille","lat":43.298433,"lon":5.362774,"is_reserved":false,"is_disabled":false,"rental_uris":{"android":"levelo://app?vid=bc40687e-8274-4eac-86e3-6b5099007b8d","ios":"levelo://app?vid=bc40687e-8274-4eac-86e3-6b5099007b8d"},"vehicle_type_id":"4","last_reported":1690664677,"current_range_meters":31200,"station_id":"ce4bgpp2rcd13ifvqc3g","pricing_plan_id":"free"},{"bike_id":"825b6e2e-93aa-4973-bd22-63a1dd24845d","system_id":"levelo_inurba_marseille","lat":43.30537,"lon":5.38415,"is_reserved":false,"is_disabled":false,"rental_uris":{"android":"levelo://app?vid=825b6e2e-93aa-4973-bd22-63a1dd24845d","ios":"levelo://app?vid=825b6e2e-93aa-4973-bd22-63a1dd24845d"},"vehicle_type_id":"4","last_reported":1690664677,"current_range_meters":13200,"station_id":"ce4bgg92rcd13ifvqb30","pricing_plan_id":"free"},{"bike_id":"f207de09-4102-4d73-98cf-30b509a648b2","system_id":"levelo_inurba_marseille","lat":43.298433,"lon":5.362774,"is_reserved":false,"is_disabled":false,"rental_uris":{"android":"levelo://app?vid=f207de09-4102-4d73-98cf-30b509a648b2","ios":"levelo://app?vid=f207de09-4102-4d73-98cf-30b509a648b2"},"vehicle_type_id":"4","last_reported":1690664677,"current_range_meters":31200,"station_id":"ce4bgpp2rcd13ifvqc3g","pricing_plan_id":"free"},{"bike_id":"1697b6c3-5d55-4500-9af2-8c9263c0c644","system_id":"levelo_inurba_marseille","lat":43.298433,"lon":5.362774,"is_reserved":false,"is_disabled":false,"rental_uris":{"android":"levelo://app?vid=1697b6c3-5d55-4500-9af2-8c9263c0c644","ios":"levelo://app?vid=1697b6c3-5d55-4500-9af2-8c9263c0c644"},"vehicle_type_id":"4","last_reported":1690664677,"current_range_meters":18000,"station_id":"ce4bgpp2rcd13ifvqc3g","pricing_plan_id":"free"},{"bike_id":"36ed344a-894b-4e21-8964-61eee83b8c52","system_id":"levelo_inurba_marseille","lat":43.298433,"lon":5.362774,"is_reserved":false,"is_disabled":false,"rental_uris":{"android":"levelo://app?vid=36ed344a-894b-4e21-8964-61eee83b8c52","ios":"levelo://app?vid=36ed344a-894b-4e21-8964-61eee83b8c52"},"vehicle_type_id":"4","last_reported":1690664677,"current_range_meters":14400,"station_id":"ce4bgpp2rcd13ifvqc3g","pricing_plan_id":"free"},{"bike_id":"03c0c46b-9878-467a-961a-24d092cfb083","system_id":"levelo_inurba_marseille","lat":43.298433,"lon":5.362774,"is_reserved":false,"is_disabled":false,"rental_uris":{"android":"levelo://app?vid=03c0c46b-9878-467a-961a-24d092cfb083","ios":"levelo://app?vid=03c0c46b-9878-467a-961a-24d092cfb083"},"vehicle_type_id":"4","last_reported":1690664677,"current_range_meters":18400,"station_id":"ce4bgpp2rcd13ifvqc3g","pricing_plan_id":"free"},{"bike_id":"11039aca-2bd3-4fe4-8141-9eab967d10c2","system_id":"levelo_inurba_marseille","lat":43.29849,"lon":5.36278,"is_reserved":false,"is_disabled":false,"rental_uris":{"android":"levelo://app?vid=11039aca-2bd3-4fe4-8141-9eab967d10c2","ios":"levelo://app?vid=11039aca-2bd3-4fe4-8141-9eab967d10c2"},"vehicle_type_id":"4","last_reported":1690664677,"current_range_meters":12800,"station_id":"ce4bgpp2rcd13ifvqc3g","pricing_plan_id":"free"},{"bike_id":"9f840982-f9f1-4069-9053-7595cc724502","system_id":"levelo_inurba_marseille","lat":43.298433,"lon":5.362774,"is_reserved":false,"is_disabled":false,"rental_uris":{"android":"levelo://app?vid=9f840982-f9f1-4069-9053-7595cc724502","ios":"levelo://app?vid=9f840982-f9f1-4069-9053-7595cc724502"},"vehicle_type_id":"4","last_reported":1690664677,"current_range_meters":16400,"station_id":"ce4bgpp2rcd13ifvqc3g","pricing_plan_id":"free"},{"bike_id":"939269e7-604c-429b-9956-973e91872684","system_id":"levelo_inurba_marseille","lat":43.29848,"lon":5.36276,"is_reserved":false,"is_disabled":false,"rental_uris":{"android":"levelo://app?vid=939269e7-604c-429b-9956-973e91872684","ios":"levelo://app?vid=939269e7-604c-429b-9956-973e91872684"},"vehicle_type_id":"4","last_reported":1690664677,"current_range_meters":15200,"station_id":"ce4bgpp2rcd13ifvqc3g","pricing_plan_id":"free"},{"bike_id":"a00459ee-cca4-4255-be66-dbfcdccec839","system_id":"levelo_inurba_marseille","lat":43.305364,"lon":5.384119,"is_reserved":false,"is_disabled":false,"rental_uris":{"android":"levelo://app?vid=a00459ee-cca4-4255-be66-dbfcdccec839","ios":"levelo://app?vid=a00459ee-cca4-4255-be66-dbfcdccec839"},"vehicle_type_id":"4","last_reported":1690664677,"current_range_meters":12000,"station_id":"ce4bgg92rcd13ifvqb30","pricing_plan_id":"free"},{"bike_id":"fb2c6dfa-1239-4ca6-9772-fac5a61fd4eb","system_id":"levelo_inurba_marseille","lat":43.298433,"lon":5.362774,"is_reserved":false,"is_disabled":false,"rental_uris":{"android":"levelo://app?vid=fb2c6dfa-1239-4ca6-9772-fac5a61fd4eb","ios":"levelo://app?vid=fb2c6dfa-1239-4ca6-9772-fac5a61fd4eb"},"vehicle_type_id":"4","last_reported":1690664677,"current_range_meters":31600,"station_id":"ce4bgpp2rcd13ifvqc3g","pricing_plan_id":"free"},{"bike_id":"798c62e4-5cf4-49fc-a257-d8a40bff3b6a","system_id":"levelo_inurba_marseille","lat":43.29845,"lon":5.36273,"is_reserved":false,"is_disabled":false,"rental_uris":{"android":"levelo://app?vid=798c62e4-5cf4-49fc-a257-d8a40bff3b6a","ios":"levelo://app?vid=798c62e4-5cf4-49fc-a257-d8a40bff3b6a"},"vehicle_type_id":"4","last_reported":1690664677,"current_range_meters":12800,"station_id":"ce4bgpp2rcd13ifvqc3g","pricing_plan_id":"free"},{"bike_id":"79d23c5b-e4fa-40b1-9056-d903efe6d903","system_id":"levelo_inurba_marseille","lat":43.29845,"lon":5.36272,"is_reserved":false,"is_disabled":false,"rental_uris":{"android":"levelo://app?vid=79d23c5b-e4fa-40b1-9056-d903efe6d903","ios":"levelo://app?vid=79d23c5b-e4fa-40b1-9056-d903efe6d903"},"vehicle_type_id":"4","last_reported":1690664677,"current_range_meters":5200,"station_id":"ce4bgpp2rcd13ifvqc3g","pricing_plan_id":"free"},{"bike_id":"092b9d73-7cc4-44ca-8c1b-3b1532369203","system_id":"levelo_inurba_marseille","lat":43.29843,"lon":5.36279,"is_reserved":false,"is_disabled":false,"rental_uris":{"android":"levelo://app?vid=092b9d73-7cc4-44ca-8c1b-3b1532369203","ios":"levelo://app?vid=092b9d73-7cc4-44ca-8c1b-3b1532369203"},"vehicle_type_id":"4","last_reported":1690664677,"current_range_meters":11600,"station_id":"ce4bgpp2rcd13ifvqc3g","pricing_plan_id":"free"},{"bike_id":"2834764d-8dfd-4e62-8582-32cde8efa3b6","system_id":"levelo_inurba_marseille","lat":43.29843,"lon":5.36272,"is_reserved":false,"is_disabled":false,"rental_uris":{"android":"levelo://app?vid=2834764d-8dfd-4e62-8582-32cde8efa3b6","ios":"levelo://app?vid=2834764d-8dfd-4e62-8582-32cde8efa3b6"},"vehicle_type_id":"4","last_reported":1690664677,"current_range_meters":22400,"station_id":"ce4bgpp2rcd13ifvqc3g","pricing_plan_id":"free"},{"bike_id":"30537d43-af02-4a10-b928-7b9b8cf633d2","system_id":"levelo_inurba_marseille","lat":43.305364,"lon":5.384119,"is_reserved":false,"is_disabled":false,"rental_uris":{"android":"levelo://app?vid=30537d43-af02-4a10-b928-7b9b8cf633d2","ios":"levelo://app?vid=30537d43-af02-4a10-b928-7b9b8cf633d2"},"vehicle_type_id":"4","last_reported":1690664677,"current_range_meters":30400,"station_id":"ce4bgg92rcd13ifvqb30","pricing_plan_id":"free"},{"bike_id":"9e7432c5-b981-48ed-a647-a8f51dec6cf0","system_id":"levelo_inurba_marseille","lat":43.305364,"lon":5.384119,"is_reserved":false,"is_disabled":false,"rental_uris":{"android":"levelo://app?vid=9e7432c5-b981-48ed-a647-a8f51dec6cf0","ios":"levelo://app?vid=9e7432c5-b981-48ed-a647-a8f51dec6cf0"},"vehicle_type_id":"4","last_reported":1690664677,"current_range_meters":13600,"station_id":"ce4bgg92rcd13ifvqb30","pricing_plan_id":"free"},{"bike_id":"c719b6ad-16b5-487e-9413-c72d2d71d2f6","system_id":"levelo_inurba_marseille","lat":43.298433,"lon":5.362774,"is_reserved":false,"is_disabled":false,"rental_uris":{"android":"levelo://app?vid=c719b6ad-16b5-487e-9413-c72d2d71d2f6","ios":"levelo://app?vid=c719b6ad-16b5-487e-9413-c72d2d71d2f6"},"vehicle_type_id":"4","last_reported":1690664677,"current_range_meters":0,"station_id":"ce4bgpp2rcd13ifvqc3g","pricing_plan_id":"free"},{"bike_id":"09e1de14-fdb1-4a03-9e07-bf02337b42d7","system_id":"levelo_inurba_marseille","lat":43.298433,"lon":5.362774,"is_reserved":false,"is_disabled":false,"rental_uris":{"android":"levelo://app?vid=09e1de14-fdb1-4a03-9e07-bf02337b42d7","ios":"levelo://app?vid=09e1de14-fdb1-4a03-9e07-bf02337b42d7"},"vehicle_type_id":"4","last_reported":1690664677,"current_range_meters":4400,"station_id":"ce4bgpp2rcd13ifvqc3g","pricing_plan_id":"free"},{"bike_id":"f3647de1-8a36-4d9b-8b9d-1de679f7ec27","system_id":"levelo_inurba_marseille","lat":43.298433,"lon":5.362774,"is_reserved":false,"is_disabled":false,"rental_uris":{"android":"levelo://app?vid=f3647de1-8a36-4d9b-8b9d-1de679f7ec27","ios":"levelo://app?vid=f3647de1-8a36-4d9b-8b9d-1de679f7ec27"},"vehicle_type_id":"4","last_reported":1690664677,"current_range_meters":20400,"station_id":"ce4bgpp2rcd13ifvqc3g","pricing_plan_id":"free"},{"bike_id":"f64a7e68-cabc-4634-bb15-e1b3340fe08f","system_id":"levelo_inurba_marseille","lat":43.298433,"lon":5.362774,"is_reserved":false,"is_disabled":false,"rental_uris":{"android":"levelo://app?vid=f64a7e68-cabc-4634-bb15-e1b3340fe08f","ios":"levelo://app?vid=f64a7e68-cabc-4634-bb15-e1b3340fe08f"},"vehicle_type_id":"4","last_reported":1690664677,"current_range_meters":1200,"station_id":"ce4bgpp2rcd13ifvqc3g","pricing_plan_id":"free"},{"bike_id":"13a628ff-095b-48b1-8829-a1fa7b88bef0","system_id":"levelo_inurba_marseille","lat":43.311722,"lon":5.387247,"is_reserved":false,"is_disabled":false,"rental_uris":{"android":"levelo://app?vid=13a628ff-095b-48b1-8829-a1fa7b88bef0","ios":"levelo://app?vid=13a628ff-095b-48b1-8829-a1fa7b88bef0"},"vehicle_type_id":"4","last_reported":1690664677,"current_range_meters":27200,"station_id":"ce4bgv12rcd13ifvqcp0","pricing_plan_id":"free"},{"bike_id":"718414c8-1054-42ff-93ce-3ca96f82d80d","system_id":"levelo_inurba_marseille","lat":43.31172,"lon":5.38707,"is_reserved":false,"is_disabled":false,"rental_uris":{"android":"levelo://app?vid=718414c8-1054-42ff-93ce-3ca96f82d80d","ios":"levelo://app?vid=718414c8-1054-42ff-93ce-3ca96f82d80d"},"vehicle_type_id":"4","last_reported":1690664677,"current_range_meters":0,"station_id":"ce4bgv12rcd13ifvqcp0","pricing_plan_id":"free"},{"bike_id":"c20cefbc-6da2-4b3d-b52f-aa797c040161","system_id":"levelo_inurba_marseille","lat":43.311722,"lon":5.387247,"is_reserved":false,"is_disabled":false,"rental_uris":{"android":"levelo://app?vid=c20cefbc-6da2-4b3d-b52f-aa797c040161","ios":"levelo://app?vid=c20cefbc-6da2-4b3d-b52f-aa797c040161"},"vehicle_type_id":"4","last_reported":1690664677,"current_range_meters":10800,"station_id":"ce4bgv12rcd13ifvqcp0","pricing_plan_id":"free"},{"bike_id":"888bea01-eb3e-4141-8a31-d42176cbf252","system_id":"levelo_inurba_marseille","lat":43.299243,"lon":5.37481,"is_reserved":false,"is_disabled":false,"rental_uris":{"android":"levelo://app?vid=888bea01-eb3e-4141-8a31-d42176cbf252","ios":"levelo://app?vid=888bea01-eb3e-4141-8a31-d42176cbf252"},"vehicle_type_id":"4","last_reported":1690664677,"current_range_meters":12000,"station_id":"ce4bgjh2rcd13ifvqbg0","pricing_plan_id":"free"},{"bike_id":"d8ae6241-3efd-4e99-879a-ad132d43fe43","system_id":"levelo_inurba_marseille","lat":43.3117,"lon":5.38708,"is_reserved":false,"is_disabled":false,"rental_uris":{"android":"levelo://app?vid=d8ae6241-3efd-4e99-879a-ad132d43fe43","ios":"levelo://app?vid=d8ae6241-3efd-4e99-879a-ad132d43fe43"},"vehicle_type_id":"4","last_reported":1690664677,"current_range_meters":21200,"station_id":"ce4bgv12rcd13ifvqcp0","pricing_plan_id":"free"},{"bike_id":"5a4e4504-4e03-4651-981b-b4fda27fe2b7","system_id":"levelo_inurba_marseille","lat":43.311722,"lon":5.387247,"is_reserved":false,"is_disabled":false,"rental_uris":{"android":"levelo://app?vid=5a4e4504-4e03-4651-981b-b4fda27fe2b7","ios":"levelo://app?vid=5a4e4504-4e03-4651-981b-b4fda27fe2b7"},"vehicle_type_id":"4","last_reported":1690664677,"current_range_meters":3200,"station_id":"ce4bgv12rcd13ifvqcp0","pricing_plan_id":"free"},{"bike_id":"ef938cda-6cd2-4bea-b6f1-70f6e04908e3","system_id":"levelo_inurba_marseille","lat":43.311722,"lon":5.387247,"is_reserved":false,"is_disabled":false,"rental_uris":{"android":"levelo://app?vid=ef938cda-6cd2-4bea-b6f1-70f6e04908e3","ios":"levelo://app?vid=ef938cda-6cd2-4bea-b6f1-70f6e04908e3"},"vehicle_type_id":"4","last_reported":1690664677,"current_range_meters":23600,"station_id":"ce4bgv12rcd13ifvqcp0","pricing_plan_id":"free"},{"bike_id":"75fbe049-ed60-420b-ad5c-597f3ef1398b","system_id":"levelo_inurba_marseille","lat":43.29835,"lon":5.3627,"is_reserved":false,"is_disabled":false,"rental_uris":{"android":"levelo://app?vid=75fbe049-ed60-420b-ad5c-597f3ef1398b","ios":"levelo://app?vid=75fbe049-ed60-420b-ad5c-597f3ef1398b"},"vehicle_type_id":"4","last_reported":1690664677,"current_range_meters":23600,"station_id":"ce4bgpp2rcd13ifvqc3g","pricing_plan_id":"free"},{"bike_id":"35451bd8-5b5d-4469-9b9b-85226abebe79","system_id":"levelo_inurba_marseille","lat":43.298433,"lon":5.362774,"is_reserved":false,"is_disabled":false,"rental_uris":{"android":"levelo://app?vid=35451bd8-5b5d-4469-9b9b-85226abebe79","ios":"levelo://app?vid=35451bd8-5b5d-4469-9b9b-85226abebe79"},"vehicle_type_id":"4","last_reported":1690664677,"current_range_meters":5200,"station_id":"ce4bgpp2rcd13ifvqc3g","pricing_plan_id":"free"},{"bike_id":"bf5a2d86-9e57-48c7-afe4-625a6f10a4e3","system_id":"levelo_inurba_marseille","lat":43.31173,"lon":5.38714,"is_reserved":false,"is_disabled":false,"rental_uris":{"android":"levelo://app?vid=bf5a2d86-9e57-48c7-afe4-625a6f10a4e3","ios":"levelo://app?vid=bf5a2d86-9e57-48c7-afe4-625a6f10a4e3"},"vehicle_type_id":"4","last_reported":1690664677,"current_range_meters":26400,"station_id":"ce4bgv12rcd13ifvqcp0","pricing_plan_id":"free"},{"bike_id":"21033f99-e00f-4eab-a683-24b19642c407","system_id":"levelo_inurba_marseille","lat":43.31172,"lon":5.38714,"is_reserved":false,"is_disabled":false,"rental_uris":{"android":"levelo://app?vid=21033f99-e00f-4eab-a683-24b19642c407","ios":"levelo://app?vid=21033f99-e00f-4eab-a683-24b19642c407"},"vehicle_type_id":"4","last_reported":1690664677,"current_range_meters":1600,"station_id":"ce4bgv12rcd13ifvqcp0","pricing_plan_id":"free"},{"bike_id":"d47b7198-5dfa-4249-a92d-3a9341539024","system_id":"levelo_inurba_marseille","lat":43.299243,"lon":5.374807,"is_reserved":false,"is_disabled":false,"rental_uris":{"android":"levelo://app?vid=d47b7198-5dfa-4249-a92d-3a9341539024","ios":"levelo://app?vid=d47b7198-5dfa-4249-a92d-3a9341539024"},"vehicle_type_id":"4","last_reported":1690664677,"current_range_meters":4400,"station_id":"ce4bgjh2rcd13ifvqbg0","pricing_plan_id":"free"},{"bike_id":"7a0ad9a4-e674-40b5-9c9d-58d4059c5938","system_id":"levelo_inurba_marseille","lat":43.31168,"lon":5.38717,"is_reserved":false,"is_disabled":false,"rental_uris":{"android":"levelo://app?vid=7a0ad9a4-e674-40b5-9c9d-58d4059c5938","ios":"levelo://app?vid=7a0ad9a4-e674-40b5-9c9d-58d4059c5938"},"vehicle_type_id":"4","last_reported":1690664677,"current_range_meters":0,"station_id":"ce4bgv12rcd13ifvqcp0","pricing_plan_id":"free"},{"bike_id":"d21125f6-541a-401f-9417-0d0771c8eb7f","system_id":"levelo_inurba_marseille","lat":43.31166,"lon":5.38717,"is_reserved":false,"is_disabled":false,"rental_uris":{"android":"levelo://app?vid=d21125f6-541a-401f-9417-0d0771c8eb7f","ios":"levelo://app?vid=d21125f6-541a-401f-9417-0d0771c8eb7f"},"vehicle_type_id":"4","last_reported":1690664677,"current_range_meters":12000,"station_id":"ce4bgv12rcd13ifvqcp0","pricing_plan_id":"free"},{"bike_id":"03914399-c797-4d08-a8da-2f770e55dbc2","system_id":"levelo_inurba_marseille","lat":43.311722,"lon":5.387247,"is_reserved":false,"is_disabled":false,"rental_uris":{"android":"levelo://app?vid=03914399-c797-4d08-a8da-2f770e55dbc2","ios":"levelo://app?vid=03914399-c797-4d08-a8da-2f770e55dbc2"},"vehicle_type_id":"4","last_reported":1690664677,"current_range_meters":3600,"station_id":"ce4bgv12rcd13ifvqcp0","pricing_plan_id":"free"},{"bike_id":"74ee93de-bda0-4527-876e-bba97fee7758","system_id":"levelo_inurba_marseille","lat":43.31162,"lon":5.38727,"is_reserved":false,"is_disabled":false,"rental_uris":{"android":"levelo://app?vid=74ee93de-bda0-4527-876e-bba97fee7758","ios":"levelo://app?vid=74ee93de-bda0-4527-876e-bba97fee7758"},"vehicle_type_id":"4","last_reported":1690664677,"current_range_meters":26400,"station_id":"ce4bgv12rcd13ifvqcp0","pricing_plan_id":"free"},{"bike_id":"01768fa1-df85-472a-bce4-e98c4f1a7eed","system_id":"levelo_inurba_marseille","lat":43.32288,"lon":5.38257,"is_reserved":false,"is_disabled":false,"rental_uris":{"android":"levelo://app?vid=01768fa1-df85-472a-bce4-e98c4f1a7eed","ios":"levelo://app?vid=01768fa1-df85-472a-bce4-e98c4f1a7eed"},"vehicle_type_id":"4","last_reported":1690664677,"current_range_meters":15200,"station_id":"ce4bhr12rcd13ifvqhqg","pricing_plan_id":"free"},{"bike_id":"87ae9f90-94a6-4da3-816d-05c9f494a960","system_id":"levelo_inurba_marseille","lat":43.32286,"lon":5.38264,"is_reserved":false,"is_disabled":false,"rental_uris":{"android":"levelo://app?vid=87ae9f90-94a6-4da3-816d-05c9f494a960","ios":"levelo://app?vid=87ae9f90-94a6-4da3-816d-05c9f494a960"},"vehicle_type_id":"4","last_reported":1690664677,"current_range_meters":3600,"station_id":"ce4bhr12rcd13ifvqhqg","pricing_plan_id":"free"},{"bike_id":"fead3f1e-e9e6-4830-9da4-e98cba309113","system_id":"levelo_inurba_marseille","lat":43.322872,"lon":5.382756,"is_reserved":false,"is_disabled":false,"rental_uris":{"android":"levelo://app?vid=fead3f1e-e9e6-4830-9da4-e98cba309113","ios":"levelo://app?vid=fead3f1e-e9e6-4830-9da4-e98cba309113"},"vehicle_type_id":"4","last_reported":1690664677,"current_range_meters":15200,"station_id":"ce4bhr12rcd13ifvqhqg","pricing_plan_id":"free"},{"bike_id":"a196dbb0-0ca2-44b0-8b03-b7d3a734d20c","system_id":"levelo_inurba_marseille","lat":43.322872,"lon":5.382756,"is_reserved":false,"is_disabled":false,"rental_uris":{"android":"levelo://app?vid=a196dbb0-0ca2-44b0-8b03-b7d3a734d20c","ios":"levelo://app?vid=a196dbb0-0ca2-44b0-8b03-b7d3a734d20c"},"vehicle_type_id":"4","last_reported":1690664677,"current_range_meters":28000,"station_id":"ce4bhr12rcd13ifvqhqg","pricing_plan_id":"free"},{"bike_id":"cbb9dbb7-5880-4b91-a321-9c39269876e8","system_id":"levelo_inurba_marseille","lat":43.297774,"lon":5.370875,"is_reserved":false,"is_disabled":false,"rental_uris":{"android":"levelo://app?vid=cbb9dbb7-5880-4b91-a321-9c39269876e8","ios":"levelo://app?vid=cbb9dbb7-5880-4b91-a321-9c39269876e8"},"vehicle_type_id":"4","last_reported":1690664677,"current_range_meters":26400,"station_id":"ce4bgop2rcd13ifvqc1g","pricing_plan_id":"free"},{"bike_id":"82f1e03d-e4c3-4aac-b6f0-c9fc3950fe62","system_id":"levelo_inurba_marseille","lat":43.322948,"lon":5.3827,"is_reserved":false,"is_disabled":false,"rental_uris":{"android":"levelo://app?vid=82f1e03d-e4c3-4aac-b6f0-c9fc3950fe62","ios":"levelo://app?vid=82f1e03d-e4c3-4aac-b6f0-c9fc3950fe62"},"vehicle_type_id":"4","last_reported":1690664677,"current_range_meters":23600,"station_id":"","pricing_plan_id":"free"},{"bike_id":"79bf6da4-5f08-488b-96b1-6e23f74ec5ec","system_id":"levelo_inurba_marseille","lat":43.322872,"lon":5.382756,"is_reserved":false,"is_disabled":false,"rental_uris":{"android":"levelo://app?vid=79bf6da4-5f08-488b-96b1-6e23f74ec5ec","ios":"levelo://app?vid=79bf6da4-5f08-488b-96b1-6e23f74ec5ec"},"vehicle_type_id":"4","last_reported":1690664677,"current_range_meters":14400,"station_id":"ce4bhr12rcd13ifvqhqg","pricing_plan_id":"free"},{"bike_id":"c72ce1d8-c1fd-419a-9fc0-9ddeb92b3914","system_id":"levelo_inurba_marseille","lat":43.32826,"lon":5.36675,"is_reserved":false,"is_disabled":false,"rental_uris":{"android":"levelo://app?vid=c72ce1d8-c1fd-419a-9fc0-9ddeb92b3914","ios":"levelo://app?vid=c72ce1d8-c1fd-419a-9fc0-9ddeb92b3914"},"vehicle_type_id":"4","last_reported":1690664677,"current_range_meters":18000,"station_id":"ce4bhs92rcd13ifvqi0g","pricing_plan_id":"free"},{"bike_id":"5b4ea449-8884-4c80-80f7-38ae4af1bc0a","system_id":"levelo_inurba_marseille","lat":43.32828,"lon":5.36675,"is_reserved":false,"is_disabled":false,"rental_uris":{"android":"levelo://app?vid=5b4ea449-8884-4c80-80f7-38ae4af1bc0a","ios":"levelo://app?vid=5b4ea449-8884-4c80-80f7-38ae4af1bc0a"},"vehicle_type_id":"4","last_reported":1690664677,"current_range_meters":29600,"station_id":"ce4bhs92rcd13ifvqi0g","pricing_plan_id":"free"},{"bike_id":"3f56ab11-c8db-4856-8929-e236d19fea1e","system_id":"levelo_inurba_marseille","lat":43.328371,"lon":5.366909,"is_reserved":false,"is_disabled":false,"rental_uris":{"android":"levelo://app?vid=3f56ab11-c8db-4856-8929-e236d19fea1e","ios":"levelo://app?vid=3f56ab11-c8db-4856-8929-e236d19fea1e"},"vehicle_type_id":"4","last_reported":1690664677,"current_range_meters":4000,"station_id":"ce4bhs92rcd13ifvqi0g","pricing_plan_id":"free"},{"bike_id":"dd789220-e7b5-42c1-b9dc-dc4243148021","system_id":"levelo_inurba_marseille","lat":43.297163,"lon":5.365866,"is_reserved":false,"is_disabled":false,"rental_uris":{"android":"levelo://app?vid=dd789220-e7b5-42c1-b9dc-dc4243148021","ios":"levelo://app?vid=dd789220-e7b5-42c1-b9dc-dc4243148021"},"vehicle_type_id":"4","last_reported":1690664677,"current_range_meters":31200,"station_id":"ce4bgn12rcd13ifvqbt0","pricing_plan_id":"free"},{"bike_id":"4a0380af-0f44-452d-b560-e58a78ebc666","system_id":"levelo_inurba_marseille","lat":43.29709,"lon":5.36604,"is_reserved":false,"is_disabled":false,"rental_uris":{"android":"levelo://app?vid=4a0380af-0f44-452d-b560-e58a78ebc666","ios":"levelo://app?vid=4a0380af-0f44-452d-b560-e58a78ebc666"},"vehicle_type_id":"4","last_reported":1690664677,"current_range_meters":8800,"station_id":"ce4bgn12rcd13ifvqbt0","pricing_plan_id":"free"},{"bike_id":"28787add-3d07-4f5a-b0e7-9a581d784316","system_id":"levelo_inurba_marseille","lat":43.29708,"lon":5.36609,"is_reserved":false,"is_disabled":false,"rental_uris":{"android":"levelo://app?vid=28787add-3d07-4f5a-b0e7-9a581d784316","ios":"levelo://app?vid=28787add-3d07-4f5a-b0e7-9a581d784316"},"vehicle_type_id":"4","last_reported":1690664677,"current_range_meters":2800,"station_id":"ce4bgn12rcd13ifvqbt0","pricing_plan_id":"free"},{"bike_id":"fb8c8321-bd69-4a43-989c-6e6874af39c8","system_id":"levelo_inurba_marseille","lat":43.29707,"lon":5.36598,"is_reserved":false,"is_disabled":false,"rental_uris":{"android":"levelo://app?vid=fb8c8321-bd69-4a43-989c-6e6874af39c8","ios":"levelo://app?vid=fb8c8321-bd69-4a43-989c-6e6874af39c8"},"vehicle_type_id":"4","last_reported":1690664677,"current_range_meters":400,"station_id":"ce4bgn12rcd13ifvqbt0","pricing_plan_id":"free"},{"bike_id":"c4c75bda-0cfe-4c78-802a-2a0a34d451c9","system_id":"levelo_inurba_marseille","lat":43.29741,"lon":5.36047,"is_reserved":false,"is_disabled":false,"rental_uris":{"android":"levelo://app?vid=c4c75bda-0cfe-4c78-802a-2a0a34d451c9","ios":"levelo://app?vid=c4c75bda-0cfe-4c78-802a-2a0a34d451c9"},"vehicle_type_id":"4","last_reported":1690664677,"current_range_meters":24400,"station_id":"","pricing_plan_id":"free"},{"bike_id":"c01ad3f3-a8ff-4b47-80e1-e00393c37b03","system_id":"levelo_inurba_marseille","lat":43.2968,"lon":5.37291,"is_reserved":false,"is_disabled":false,"rental_uris":{"android":"levelo://app?vid=c01ad3f3-a8ff-4b47-80e1-e00393c37b03","ios":"levelo://app?vid=c01ad3f3-a8ff-4b47-80e1-e00393c37b03"},"vehicle_type_id":"4","last_reported":1690664677,"current_range_meters":14400,"station_id":"ce4bgk12rcd13ifvqbj0","pricing_plan_id":"free"},{"bike_id":"e6312992-bc94-4865-9f22-88fac590ec45","system_id":"levelo_inurba_marseille","lat":43.296131,"lon":5.370791,"is_reserved":false,"is_disabled":false,"rental_uris":{"android":"levelo://app?vid=e6312992-bc94-4865-9f22-88fac590ec45","ios":"levelo://app?vid=e6312992-bc94-4865-9f22-88fac590ec45"},"vehicle_type_id":"4","last_reported":1690664677,"current_range_meters":800,"station_id":"ce4bgnh2rcd13ifvqc0g","pricing_plan_id":"free"},{"bike_id":"763bc748-f5b0-46fc-b66d-4927ba4a1722","system_id":"levelo_inurba_marseille","lat":43.296131,"lon":5.370791,"is_reserved":false,"is_disabled":false,"rental_uris":{"android":"levelo://app?vid=763bc748-f5b0-46fc-b66d-4927ba4a1722","ios":"levelo://app?vid=763bc748-f5b0-46fc-b66d-4927ba4a1722"},"vehicle_type_id":"4","last_reported":1690664677,"current_range_meters":14800,"station_id":"ce4bgnh2rcd13ifvqc0g","pricing_plan_id":"free"},{"bike_id":"ee55c8e3-b684-4771-8f49-d6fd17fad1c1","system_id":"levelo_inurba_marseille","lat":43.29573,"lon":5.367355,"is_reserved":false,"is_disabled":false,"rental_uris":{"android":"levelo://app?vid=ee55c8e3-b684-4771-8f49-d6fd17fad1c1","ios":"levelo://app?vid=ee55c8e3-b684-4771-8f49-d6fd17fad1c1"},"vehicle_type_id":"4","last_reported":1690664677,"current_range_meters":24800,"station_id":"ce4bgph2rcd13ifvqc2g","pricing_plan_id":"free"},{"bike_id":"7c0df519-46cd-49fb-ae06-e03bacd4de28","system_id":"levelo_inurba_marseille","lat":43.30127,"lon":5.38421,"is_reserved":false,"is_disabled":false,"rental_uris":{"android":"levelo://app?vid=7c0df519-46cd-49fb-ae06-e03bacd4de28","ios":"levelo://app?vid=7c0df519-46cd-49fb-ae06-e03bacd4de28"},"vehicle_type_id":"4","last_reported":1690664677,"current_range_meters":1200,"station_id":"","pricing_plan_id":"free"},{"bike_id":"f80dafcd-4005-4650-b94a-711348718895","system_id":"levelo_inurba_marseille","lat":43.30954,"lon":5.39013,"is_reserved":false,"is_disabled":false,"rental_uris":{"android":"levelo://app?vid=f80dafcd-4005-4650-b94a-711348718895","ios":"levelo://app?vid=f80dafcd-4005-4650-b94a-711348718895"},"vehicle_type_id":"4","last_reported":1690664677,"current_range_meters":19200,"station_id":"ce4bgup2rcd13ifvqco0","pricing_plan_id":"free"},{"bike_id":"0d99692a-6da6-4ecf-8097-a2cf62bf74bf","system_id":"levelo_inurba_marseille","lat":43.30948,"lon":5.39014,"is_reserved":false,"is_disabled":false,"rental_uris":{"android":"levelo://app?vid=0d99692a-6da6-4ecf-8097-a2cf62bf74bf","ios":"levelo://app?vid=0d99692a-6da6-4ecf-8097-a2cf62bf74bf"},"vehicle_type_id":"4","last_reported":1690664677,"current_range_meters":24400,"station_id":"ce4bgup2rcd13ifvqco0","pricing_plan_id":"free"},{"bike_id":"b8c9d7bf-3bcb-4c7c-bf7e-7f80774af428","system_id":"levelo_inurba_marseille","lat":43.30958,"lon":5.39019,"is_reserved":false,"is_disabled":false,"rental_uris":{"android":"levelo://app?vid=b8c9d7bf-3bcb-4c7c-bf7e-7f80774af428","ios":"levelo://app?vid=b8c9d7bf-3bcb-4c7c-bf7e-7f80774af428"},"vehicle_type_id":"4","last_reported":1690664677,"current_range_meters":19200,"station_id":"ce4bgup2rcd13ifvqco0","pricing_plan_id":"free"},{"bike_id":"fa8a27d6-2f5d-4173-903e-42f0a4449c9b","system_id":"levelo_inurba_marseille","lat":43.30961,"lon":5.39023,"is_reserved":false,"is_disabled":false,"rental_uris":{"android":"levelo://app?vid=fa8a27d6-2f5d-4173-903e-42f0a4449c9b","ios":"levelo://app?vid=fa8a27d6-2f5d-4173-903e-42f0a4449c9b"},"vehicle_type_id":"4","last_reported":1690664677,"current_range_meters":15200,"station_id":"ce4bgup2rcd13ifvqco0","pricing_plan_id":"free"},{"bike_id":"04305636-14c9-4014-b480-75ba101ddd66","system_id":"levelo_inurba_marseille","lat":43.3096,"lon":5.39023,"is_reserved":false,"is_disabled":false,"rental_uris":{"android":"levelo://app?vid=04305636-14c9-4014-b480-75ba101ddd66","ios":"levelo://app?vid=04305636-14c9-4014-b480-75ba101ddd66"},"vehicle_type_id":"4","last_reported":1690664677,"current_range_meters":16000,"station_id":"ce4bgup2rcd13ifvqco0","pricing_plan_id":"free"},{"bike_id":"bf11974a-e23e-4750-912a-1aaba81cd6fd","system_id":"levelo_inurba_marseille","lat":43.30961,"lon":5.39025,"is_reserved":false,"is_disabled":false,"rental_uris":{"android":"levelo://app?vid=bf11974a-e23e-4750-912a-1aaba81cd6fd","ios":"levelo://app?vid=bf11974a-e23e-4750-912a-1aaba81cd6fd"},"vehicle_type_id":"4","last_reported":1690664677,"current_range_meters":11200,"station_id":"ce4bgup2rcd13ifvqco0","pricing_plan_id":"free"},{"bike_id":"4f961a08-02b9-4fec-81f8-55ea974478bf","system_id":"levelo_inurba_marseille","lat":43.30956,"lon":5.39024,"is_reserved":false,"is_disabled":false,"rental_uris":{"android":"levelo://app?vid=4f961a08-02b9-4fec-81f8-55ea974478bf","ios":"levelo://app?vid=4f961a08-02b9-4fec-81f8-55ea974478bf"},"vehicle_type_id":"4","last_reported":1690664677,"current_range_meters":5200,"station_id":"ce4bgup2rcd13ifvqco0","pricing_plan_id":"free"},{"bike_id":"a31dad46-700e-4b89-858c-1daa0496c715","system_id":"levelo_inurba_marseille","lat":43.30967,"lon":5.39027,"is_reserved":false,"is_disabled":false,"rental_uris":{"android":"levelo://app?vid=a31dad46-700e-4b89-858c-1daa0496c715","ios":"levelo://app?vid=a31dad46-700e-4b89-858c-1daa0496c715"},"vehicle_type_id":"4","last_reported":1690664677,"current_range_meters":14000,"station_id":"ce4bgup2rcd13ifvqco0","pricing_plan_id":"free"},{"bike_id":"4fd0bc8a-5800-43d6-8056-6e69ddeb6b69","system_id":"levelo_inurba_marseille","lat":43.30961,"lon":5.39032,"is_reserved":false,"is_disabled":false,"rental_uris":{"android":"levelo://app?vid=4fd0bc8a-5800-43d6-8056-6e69ddeb6b69","ios":"levelo://app?vid=4fd0bc8a-5800-43d6-8056-6e69ddeb6b69"},"vehicle_type_id":"4","last_reported":1690664677,"current_range_meters":15600,"station_id":"ce4bgup2rcd13ifvqco0","pricing_plan_id":"free"},{"bike_id":"76c6dc4a-eaec-408a-ae27-f1a1c6d354e9","system_id":"levelo_inurba_marseille","lat":43.30963,"lon":5.39033,"is_reserved":false,"is_disabled":false,"rental_uris":{"android":"levelo://app?vid=76c6dc4a-eaec-408a-ae27-f1a1c6d354e9","ios":"levelo://app?vid=76c6dc4a-eaec-408a-ae27-f1a1c6d354e9"},"vehicle_type_id":"4","last_reported":1690664677,"current_range_meters":20400,"station_id":"ce4bgup2rcd13ifvqco0","pricing_plan_id":"free"},{"bike_id":"7cd06668-7dfe-4aec-bfbe-8a9020f6e254","system_id":"levelo_inurba_marseille","lat":43.30958,"lon":5.39034,"is_reserved":false,"is_disabled":false,"rental_uris":{"android":"levelo://app?vid=7cd06668-7dfe-4aec-bfbe-8a9020f6e254","ios":"levelo://app?vid=7cd06668-7dfe-4aec-bfbe-8a9020f6e254"},"vehicle_type_id":"4","last_reported":1690664677,"current_range_meters":19200,"station_id":"ce4bgup2rcd13ifvqco0","pricing_plan_id":"free"},{"bike_id":"51a7526d-5ef0-4d39-b57f-348ee970ea55","system_id":"levelo_inurba_marseille","lat":43.30946,"lon":5.39033,"is_reserved":false,"is_disabled":false,"rental_uris":{"android":"levelo://app?vid=51a7526d-5ef0-4d39-b57f-348ee970ea55","ios":"levelo://app?vid=51a7526d-5ef0-4d39-b57f-348ee970ea55"},"vehicle_type_id":"4","last_reported":1690664677,"current_range_meters":7200,"station_id":"ce4bgup2rcd13ifvqco0","pricing_plan_id":"free"},{"bike_id":"9ff2ed42-01e2-4041-819e-3a287b0d9f80","system_id":"levelo_inurba_marseille","lat":43.3096,"lon":5.39038,"is_reserved":false,"is_disabled":false,"rental_uris":{"android":"levelo://app?vid=9ff2ed42-01e2-4041-819e-3a287b0d9f80","ios":"levelo://app?vid=9ff2ed42-01e2-4041-819e-3a287b0d9f80"},"vehicle_type_id":"4","last_reported":1690664677,"current_range_meters":23600,"station_id":"ce4bgup2rcd13ifvqco0","pricing_plan_id":"free"},{"bike_id":"617d60d3-0e12-4acd-acb0-8e7d8ac755b1","system_id":"levelo_inurba_marseille","lat":43.30943,"lon":5.39034,"is_reserved":false,"is_disabled":false,"rental_uris":{"android":"levelo://app?vid=617d60d3-0e12-4acd-acb0-8e7d8ac755b1","ios":"levelo://app?vid=617d60d3-0e12-4acd-acb0-8e7d8ac755b1"},"vehicle_type_id":"4","last_reported":1690664677,"current_range_meters":18000,"station_id":"ce4bgup2rcd13ifvqco0","pricing_plan_id":"free"},{"bike_id":"d77d69fd-9d86-4249-97f2-56cd152982c2","system_id":"levelo_inurba_marseille","lat":43.30954,"lon":5.39037,"is_reserved":false,"is_disabled":false,"rental_uris":{"android":"levelo://app?vid=d77d69fd-9d86-4249-97f2-56cd152982c2","ios":"levelo://app?vid=d77d69fd-9d86-4249-97f2-56cd152982c2"},"vehicle_type_id":"4","last_reported":1690664677,"current_range_meters":4800,"station_id":"ce4bgup2rcd13ifvqco0","pricing_plan_id":"free"},{"bike_id":"80996baf-8597-4552-b66a-a0139bedf903","system_id":"levelo_inurba_marseille","lat":43.309502,"lon":5.390365,"is_reserved":false,"is_disabled":false,"rental_uris":{"android":"levelo://app?vid=80996baf-8597-4552-b66a-a0139bedf903","ios":"levelo://app?vid=80996baf-8597-4552-b66a-a0139bedf903"},"vehicle_type_id":"4","last_reported":1690664677,"current_range_meters":1200,"station_id":"","pricing_plan_id":"free"},{"bike_id":"4b520fd2-1522-4644-826a-8f2318b54ef6","system_id":"levelo_inurba_marseille","lat":43.30959,"lon":5.39039,"is_reserved":false,"is_disabled":false,"rental_uris":{"android":"levelo://app?vid=4b520fd2-1522-4644-826a-8f2318b54ef6","ios":"levelo://app?vid=4b520fd2-1522-4644-826a-8f2318b54ef6"},"vehicle_type_id":"4","last_reported":1690664677,"current_range_meters":14000,"station_id":"ce4bgup2rcd13ifvqco0","pricing_plan_id":"free"},{"bike_id":"e007c265-04c6-4b7a-aa81-884fca1d5f17","system_id":"levelo_inurba_marseille","lat":43.309589,"lon":5.390258,"is_reserved":false,"is_disabled":false,"rental_uris":{"android":"levelo://app?vid=e007c265-04c6-4b7a-aa81-884fca1d5f17","ios":"levelo://app?vid=e007c265-04c6-4b7a-aa81-884fca1d5f17"},"vehicle_type_id":"4","last_reported":1690664677,"current_range_meters":7200,"station_id":"ce4bgup2rcd13ifvqco0","pricing_plan_id":"free"},{"bike_id":"a0d4f135-10f6-4c3a-94e3-24f595a97915","system_id":"levelo_inurba_marseille","lat":43.30955,"lon":5.3904,"is_reserved":false,"is_disabled":false,"rental_uris":{"android":"levelo://app?vid=a0d4f135-10f6-4c3a-94e3-24f595a97915","ios":"levelo://app?vid=a0d4f135-10f6-4c3a-94e3-24f595a97915"},"vehicle_type_id":"4","last_reported":1690664677,"current_range_meters":0,"station_id":"ce4bgup2rcd13ifvqco0","pricing_plan_id":"free"},{"bike_id":"67e6f86c-9680-4613-bbfc-3b70633c37c9","system_id":"levelo_inurba_marseille","lat":43.30951,"lon":5.3904,"is_reserved":false,"is_disabled":false,"rental_uris":{"android":"levelo://app?vid=67e6f86c-9680-4613-bbfc-3b70633c37c9","ios":"levelo://app?vid=67e6f86c-9680-4613-bbfc-3b70633c37c9"},"vehicle_type_id":"4","last_reported":1690664677,"current_range_meters":10000,"station_id":"ce4bgup2rcd13ifvqco0","pricing_plan_id":"free"},{"bike_id":"490bb365-f6db-43bd-925c-c6806127b84b","system_id":"levelo_inurba_marseille","lat":43.3096,"lon":5.39043,"is_reserved":false,"is_disabled":false,"rental_uris":{"android":"levelo://app?vid=490bb365-f6db-43bd-925c-c6806127b84b","ios":"levelo://app?vid=490bb365-f6db-43bd-925c-c6806127b84b"},"vehicle_type_id":"4","last_reported":1690664677,"current_range_meters":6400,"station_id":"ce4bgup2rcd13ifvqco0","pricing_plan_id":"free"},{"bike_id":"ce004035-2933-434a-b8b4-6d2e79a8371a","system_id":"levelo_inurba_marseille","lat":43.30955,"lon":5.39042,"is_reserved":false,"is_disabled":false,"rental_uris":{"android":"levelo://app?vid=ce004035-2933-434a-b8b4-6d2e79a8371a","ios":"levelo://app?vid=ce004035-2933-434a-b8b4-6d2e79a8371a"},"vehicle_type_id":"4","last_reported":1690664677,"current_range_meters":10400,"station_id":"ce4bgup2rcd13ifvqco0","pricing_plan_id":"free"},{"bike_id":"0fb50f29-0925-4774-a0fc-8f8a253f7cad","system_id":"levelo_inurba_marseille","lat":43.309589,"lon":5.390258,"is_reserved":false,"is_disabled":false,"rental_uris":{"android":"levelo://app?vid=0fb50f29-0925-4774-a0fc-8f8a253f7cad","ios":"levelo://app?vid=0fb50f29-0925-4774-a0fc-8f8a253f7cad"},"vehicle_type_id":"4","last_reported":1690664677,"current_range_meters":17200,"station_id":"ce4bgup2rcd13ifvqco0","pricing_plan_id":"free"},{"bike_id":"f0b1921d-8fc5-42f6-8214-26455e772ce5","system_id":"levelo_inurba_marseille","lat":43.309589,"lon":5.390258,"is_reserved":false,"is_disabled":false,"rental_uris":{"android":"levelo://app?vid=f0b1921d-8fc5-42f6-8214-26455e772ce5","ios":"levelo://app?vid=f0b1921d-8fc5-42f6-8214-26455e772ce5"},"vehicle_type_id":"4","last_reported":1690664677,"current_range_meters":28000,"station_id":"ce4bgup2rcd13ifvqco0","pricing_plan_id":"free"},{"bike_id":"ae96f226-2b6d-496b-a500-f2bda6937d94","system_id":"levelo_inurba_marseille","lat":43.30966,"lon":5.39048,"is_reserved":false,"is_disabled":false,"rental_uris":{"android":"levelo://app?vid=ae96f226-2b6d-496b-a500-f2bda6937d94","ios":"levelo://app?vid=ae96f226-2b6d-496b-a500-f2bda6937d94"},"vehicle_type_id":"4","last_reported":1690664677,"current_range_meters":12400,"station_id":"ce4bgup2rcd13ifvqco0","pricing_plan_id":"free"},{"bike_id":"069368e5-790a-4859-b2ed-d65abdf756e7","system_id":"levelo_inurba_marseille","lat":43.309589,"lon":5.390258,"is_reserved":false,"is_disabled":false,"rental_uris":{"android":"levelo://app?vid=069368e5-790a-4859-b2ed-d65abdf756e7","ios":"levelo://app?vid=069368e5-790a-4859-b2ed-d65abdf756e7"},"vehicle_type_id":"4","last_reported":1690664677,"current_range_meters":29200,"station_id":"ce4bgup2rcd13ifvqco0","pricing_plan_id":"free"},{"bike_id":"f813237f-e256-47d7-8403-44c402b34083","system_id":"levelo_inurba_marseille","lat":43.317557,"lon":5.390173,"is_reserved":false,"is_disabled":false,"rental_uris":{"android":"levelo://app?vid=f813237f-e256-47d7-8403-44c402b34083","ios":"levelo://app?vid=f813237f-e256-47d7-8403-44c402b34083"},"vehicle_type_id":"4","last_reported":1690664677,"current_range_meters":10800,"station_id":"ce4bhqp2rcd13ifvqhng","pricing_plan_id":"free"},{"bike_id":"0e33f63c-fa1b-4239-8747-b766d92d7ab0","system_id":"levelo_inurba_marseille","lat":43.298037,"lon":5.381066,"is_reserved":false,"is_disabled":false,"rental_uris":{"android":"levelo://app?vid=0e33f63c-fa1b-4239-8747-b766d92d7ab0","ios":"levelo://app?vid=0e33f63c-fa1b-4239-8747-b766d92d7ab0"},"vehicle_type_id":"4","last_reported":1690664677,"current_range_meters":0,"station_id":"ce4bgip2rcd13ifvqbb0","pricing_plan_id":"free"},{"bike_id":"5e0142ab-de3d-40f8-9822-e9eecc296536","system_id":"levelo_inurba_marseille","lat":43.304281,"lon":5.388961,"is_reserved":false,"is_disabled":false,"rental_uris":{"android":"levelo://app?vid=5e0142ab-de3d-40f8-9822-e9eecc296536","ios":"levelo://app?vid=5e0142ab-de3d-40f8-9822-e9eecc296536"},"vehicle_type_id":"4","last_reported":1690664677,"current_range_meters":24800,"station_id":"ce4bgk12rcd13ifvqbi0","pricing_plan_id":"free"},{"bike_id":"a8918c3b-f526-47c6-8f17-4bd10c31b742","system_id":"levelo_inurba_marseille","lat":43.286595,"lon":5.386795,"is_reserved":false,"is_disabled":false,"rental_uris":{"android":"levelo://app?vid=a8918c3b-f526-47c6-8f17-4bd10c31b742","ios":"levelo://app?vid=a8918c3b-f526-47c6-8f17-4bd10c31b742"},"vehicle_type_id":"4","last_reported":1690664677,"current_range_meters":8000,"station_id":"ce4bh492rcd13ifvqdug","pricing_plan_id":"free"},{"bike_id":"7340c4de-ae35-440a-a2fa-ea1062038579","system_id":"levelo_inurba_marseille","lat":43.299724,"lon":5.384848,"is_reserved":false,"is_disabled":false,"rental_uris":{"android":"levelo://app?vid=7340c4de-ae35-440a-a2fa-ea1062038579","ios":"levelo://app?vid=7340c4de-ae35-440a-a2fa-ea1062038579"},"vehicle_type_id":"4","last_reported":1690664677,"current_range_meters":9200,"station_id":"ce4bgj92rcd13ifvqbd0","pricing_plan_id":"free"},{"bike_id":"0dd58c5b-1bb3-4da8-99b8-9e48697859f5","system_id":"levelo_inurba_marseille","lat":43.299724,"lon":5.384848,"is_reserved":false,"is_disabled":false,"rental_uris":{"android":"levelo://app?vid=0dd58c5b-1bb3-4da8-99b8-9e48697859f5","ios":"levelo://app?vid=0dd58c5b-1bb3-4da8-99b8-9e48697859f5"},"vehicle_type_id":"4","last_reported":1690664677,"current_range_meters":16400,"station_id":"ce4bgj92rcd13ifvqbd0","pricing_plan_id":"free"},{"bike_id":"be7a61d8-96e0-4bb0-a2f1-5b81ae19db7f","system_id":"levelo_inurba_marseille","lat":43.29529,"lon":5.385581,"is_reserved":false,"is_disabled":false,"rental_uris":{"android":"levelo://app?vid=be7a61d8-96e0-4bb0-a2f1-5b81ae19db7f","ios":"levelo://app?vid=be7a61d8-96e0-4bb0-a2f1-5b81ae19db7f"},"vehicle_type_id":"4","last_reported":1690664677,"current_range_meters":15200,"station_id":"ce4bgih2rcd13ifvqba0","pricing_plan_id":"free"},{"bike_id":"704533aa-4d16-43e9-93d7-bc14cfd0a227","system_id":"levelo_inurba_marseille","lat":43.29458,"lon":5.37531,"is_reserved":false,"is_disabled":false,"rental_uris":{"android":"levelo://app?vid=704533aa-4d16-43e9-93d7-bc14cfd0a227","ios":"levelo://app?vid=704533aa-4d16-43e9-93d7-bc14cfd0a227"},"vehicle_type_id":"4","last_reported":1690664677,"current_range_meters":27600,"station_id":"","pricing_plan_id":"free"},{"bike_id":"2d0fd9cb-5c5b-47e0-8a06-d0b8b5a34d31","system_id":"levelo_inurba_marseille","lat":43.32362,"lon":5.38879,"is_reserved":false,"is_disabled":false,"rental_uris":{"android":"levelo://app?vid=2d0fd9cb-5c5b-47e0-8a06-d0b8b5a34d31","ios":"levelo://app?vid=2d0fd9cb-5c5b-47e0-8a06-d0b8b5a34d31"},"vehicle_type_id":"4","last_reported":1690664677,"current_range_meters":12800,"station_id":"ce4bhqp2rcd13ifvqhog","pricing_plan_id":"free"},{"bike_id":"9d5b768f-410e-4149-87d3-dd56fee6c261","system_id":"levelo_inurba_marseille","lat":43.32364,"lon":5.38882,"is_reserved":false,"is_disabled":false,"rental_uris":{"android":"levelo://app?vid=9d5b768f-410e-4149-87d3-dd56fee6c261","ios":"levelo://app?vid=9d5b768f-410e-4149-87d3-dd56fee6c261"},"vehicle_type_id":"4","last_reported":1690664677,"current_range_meters":19200,"station_id":"ce4bhqp2rcd13ifvqhog","pricing_plan_id":"free"},{"bike_id":"8264690c-7254-46d6-a48d-473290e90508","system_id":"levelo_inurba_marseille","lat":43.32366,"lon":5.38883,"is_reserved":false,"is_disabled":false,"rental_uris":{"android":"levelo://app?vid=8264690c-7254-46d6-a48d-473290e90508","ios":"levelo://app?vid=8264690c-7254-46d6-a48d-473290e90508"},"vehicle_type_id":"4","last_reported":1690664677,"current_range_meters":800,"station_id":"ce4bhqp2rcd13ifvqhog","pricing_plan_id":"free"},{"bike_id":"a94fedeb-d5fa-42b5-a74e-a5425a66813b","system_id":"levelo_inurba_marseille","lat":43.31425,"lon":5.39376,"is_reserved":false,"is_disabled":false,"rental_uris":{"android":"levelo://app?vid=a94fedeb-d5fa-42b5-a74e-a5425a66813b","ios":"levelo://app?vid=a94fedeb-d5fa-42b5-a74e-a5425a66813b"},"vehicle_type_id":"4","last_reported":1690664677,"current_range_meters":10400,"station_id":"","pricing_plan_id":"free"},{"bike_id":"69f038bb-f650-44e5-a649-a06cb9f00c17","system_id":"levelo_inurba_marseille","lat":43.29602,"lon":5.381084,"is_reserved":false,"is_disabled":false,"rental_uris":{"android":"levelo://app?vid=69f038bb-f650-44e5-a649-a06cb9f00c17","ios":"levelo://app?vid=69f038bb-f650-44e5-a649-a06cb9f00c17"},"vehicle_type_id":"4","last_reported":1690664677,"current_range_meters":6800,"station_id":"ce4bgl12rcd13ifvqbo0","pricing_plan_id":"free"},{"bike_id":"17f30bfc-aa11-44a1-b4fd-25e1b119473a","system_id":"levelo_inurba_marseille","lat":43.29602,"lon":5.381084,"is_reserved":false,"is_disabled":false,"rental_uris":{"android":"levelo://app?vid=17f30bfc-aa11-44a1-b4fd-25e1b119473a","ios":"levelo://app?vid=17f30bfc-aa11-44a1-b4fd-25e1b119473a"},"vehicle_type_id":"4","last_reported":1690664677,"current_range_meters":24400,"station_id":"ce4bgl12rcd13ifvqbo0","pricing_plan_id":"free"},{"bike_id":"9a80580b-88b3-4ad2-b946-5b932dcd7ade","system_id":"levelo_inurba_marseille","lat":43.296263,"lon":5.377094,"is_reserved":false,"is_disabled":false,"rental_uris":{"android":"levelo://app?vid=9a80580b-88b3-4ad2-b946-5b932dcd7ade","ios":"levelo://app?vid=9a80580b-88b3-4ad2-b946-5b932dcd7ade"},"vehicle_type_id":"4","last_reported":1690664677,"current_range_meters":9200,"station_id":"ce4bgi92rcd13ifvqb90","pricing_plan_id":"free"},{"bike_id":"0260057c-12b7-4af0-8a37-574da668ac60","system_id":"levelo_inurba_marseille","lat":43.292749,"lon":5.368398,"is_reserved":false,"is_disabled":false,"rental_uris":{"android":"levelo://app?vid=0260057c-12b7-4af0-8a37-574da668ac60","ios":"levelo://app?vid=0260057c-12b7-4af0-8a37-574da668ac60"},"vehicle_type_id":"4","last_reported":1690664677,"current_range_meters":8400,"station_id":"ce4bhbp2rcd13ifvqesg","pricing_plan_id":"free"},{"bike_id":"c7b610cd-0482-4f4a-a593-1b6204ea83ac","system_id":"levelo_inurba_marseille","lat":43.29304,"lon":5.3718,"is_reserved":false,"is_disabled":false,"rental_uris":{"android":"levelo://app?vid=c7b610cd-0482-4f4a-a593-1b6204ea83ac","ios":"levelo://app?vid=c7b610cd-0482-4f4a-a593-1b6204ea83ac"},"vehicle_type_id":"4","last_reported":1690664677,"current_range_meters":3200,"station_id":"ce4bgh92rcd13ifvqb40","pricing_plan_id":"free"},{"bike_id":"38b1c3a2-352c-4524-8823-66191644c650","system_id":"levelo_inurba_marseille","lat":43.305994,"lon":5.393687,"is_reserved":false,"is_disabled":false,"rental_uris":{"android":"levelo://app?vid=38b1c3a2-352c-4524-8823-66191644c650","ios":"levelo://app?vid=38b1c3a2-352c-4524-8823-66191644c650"},"vehicle_type_id":"4","last_reported":1690664677,"current_range_meters":12000,"station_id":"ce4bh0p2rcd13ifvqd80","pricing_plan_id":"free"},{"bike_id":"71cc9d2e-6579-4cab-9068-dce450ee0d75","system_id":"levelo_inurba_marseille","lat":43.305994,"lon":5.393687,"is_reserved":false,"is_disabled":false,"rental_uris":{"android":"levelo://app?vid=71cc9d2e-6579-4cab-9068-dce450ee0d75","ios":"levelo://app?vid=71cc9d2e-6579-4cab-9068-dce450ee0d75"},"vehicle_type_id":"4","last_reported":1690664677,"current_range_meters":31600,"station_id":"ce4bh0p2rcd13ifvqd80","pricing_plan_id":"free"},{"bike_id":"ed139d88-7395-4a47-9f7d-fe269152acec","system_id":"levelo_inurba_marseille","lat":43.29369,"lon":5.37848,"is_reserved":false,"is_disabled":false,"rental_uris":{"android":"levelo://app?vid=ed139d88-7395-4a47-9f7d-fe269152acec","ios":"levelo://app?vid=ed139d88-7395-4a47-9f7d-fe269152acec"},"vehicle_type_id":"4","last_reported":1690664677,"current_range_meters":25200,"station_id":"ce4bgjh2rcd13ifvqbf0","pricing_plan_id":"free"},{"bike_id":"85d531e8-52d1-4329-a0c5-a7a8da1b6f52","system_id":"levelo_inurba_marseille","lat":43.302992,"lon":5.392136,"is_reserved":false,"is_disabled":false,"rental_uris":{"android":"levelo://app?vid=85d531e8-52d1-4329-a0c5-a7a8da1b6f52","ios":"levelo://app?vid=85d531e8-52d1-4329-a0c5-a7a8da1b6f52"},"vehicle_type_id":"4","last_reported":1690664677,"current_range_meters":17200,"station_id":"ce4bgkh2rcd13ifvqbk0","pricing_plan_id":"free"},{"bike_id":"7281c24f-374d-4d73-a6f0-c9d10e88a627","system_id":"levelo_inurba_marseille","lat":43.2936,"lon":5.37835,"is_reserved":false,"is_disabled":false,"rental_uris":{"android":"levelo://app?vid=7281c24f-374d-4d73-a6f0-c9d10e88a627","ios":"levelo://app?vid=7281c24f-374d-4d73-a6f0-c9d10e88a627"},"vehicle_type_id":"4","last_reported":1690664677,"current_range_meters":28400,"station_id":"ce4bgjh2rcd13ifvqbf0","pricing_plan_id":"free"},{"bike_id":"ba3570eb-c4f7-435e-8332-97fa851b72c0","system_id":"levelo_inurba_marseille","lat":43.29882,"lon":5.38911,"is_reserved":false,"is_disabled":false,"rental_uris":{"android":"levelo://app?vid=ba3570eb-c4f7-435e-8332-97fa851b72c0","ios":"levelo://app?vid=ba3570eb-c4f7-435e-8332-97fa851b72c0"},"vehicle_type_id":"4","last_reported":1690664677,"current_range_meters":26800,"station_id":"ce4bh392rcd13ifvqdl0","pricing_plan_id":"free"},{"bike_id":"13e8bebb-1050-40e2-98d2-2ec591b9df11","system_id":"levelo_inurba_marseille","lat":43.29875,"lon":5.38915,"is_reserved":false,"is_disabled":false,"rental_uris":{"android":"levelo://app?vid=13e8bebb-1050-40e2-98d2-2ec591b9df11","ios":"levelo://app?vid=13e8bebb-1050-40e2-98d2-2ec591b9df11"},"vehicle_type_id":"4","last_reported":1690664677,"current_range_meters":6800,"station_id":"ce4bh392rcd13ifvqdl0","pricing_plan_id":"free"},{"bike_id":"6618072e-71e2-459b-b7c7-bda622339b06","system_id":"levelo_inurba_marseille","lat":43.31322,"lon":5.39689,"is_reserved":false,"is_disabled":false,"rental_uris":{"android":"levelo://app?vid=6618072e-71e2-459b-b7c7-bda622339b06","ios":"levelo://app?vid=6618072e-71e2-459b-b7c7-bda622339b06"},"vehicle_type_id":"4","last_reported":1690664677,"current_range_meters":12000,"station_id":"ce4bgvp2rcd13ifvqcu0","pricing_plan_id":"free"},{"bike_id":"d4b00351-7968-4125-84f1-930fb0442276","system_id":"levelo_inurba_marseille","lat":43.31331,"lon":5.3969,"is_reserved":false,"is_disabled":false,"rental_uris":{"android":"levelo://app?vid=d4b00351-7968-4125-84f1-930fb0442276","ios":"levelo://app?vid=d4b00351-7968-4125-84f1-930fb0442276"},"vehicle_type_id":"4","last_reported":1690664677,"current_range_meters":26800,"station_id":"ce4bgvp2rcd13ifvqcu0","pricing_plan_id":"free"},{"bike_id":"534f41b0-ed58-4d3c-8304-8888f992af6d","system_id":"levelo_inurba_marseille","lat":43.30884,"lon":5.39643,"is_reserved":false,"is_disabled":false,"rental_uris":{"android":"levelo://app?vid=534f41b0-ed58-4d3c-8304-8888f992af6d","ios":"levelo://app?vid=534f41b0-ed58-4d3c-8304-8888f992af6d"},"vehicle_type_id":"4","last_reported":1690664677,"current_range_meters":12000,"station_id":"ce4bh012rcd13ifvqcv0","pricing_plan_id":"free"},{"bike_id":"9213c0ee-4e64-4b88-bb4d-4ee5b90d01ce","system_id":"levelo_inurba_marseille","lat":43.31327,"lon":5.39691,"is_reserved":false,"is_disabled":false,"rental_uris":{"android":"levelo://app?vid=9213c0ee-4e64-4b88-bb4d-4ee5b90d01ce","ios":"levelo://app?vid=9213c0ee-4e64-4b88-bb4d-4ee5b90d01ce"},"vehicle_type_id":"4","last_reported":1690664677,"current_range_meters":24000,"station_id":"ce4bgvp2rcd13ifvqcu0","pricing_plan_id":"free"},{"bike_id":"39a676aa-a0dd-48ed-b22f-375bf91b01cf","system_id":"levelo_inurba_marseille","lat":43.31329,"lon":5.39696,"is_reserved":false,"is_disabled":false,"rental_uris":{"android":"levelo://app?vid=39a676aa-a0dd-48ed-b22f-375bf91b01cf","ios":"levelo://app?vid=39a676aa-a0dd-48ed-b22f-375bf91b01cf"},"vehicle_type_id":"4","last_reported":1690664677,"current_range_meters":13600,"station_id":"ce4bgvp2rcd13ifvqcu0","pricing_plan_id":"free"},{"bike_id":"8b36cf69-b40c-4542-902c-4f7672366259","system_id":"levelo_inurba_marseille","lat":43.29529,"lon":5.385581,"is_reserved":false,"is_disabled":false,"rental_uris":{"android":"levelo://app?vid=8b36cf69-b40c-4542-902c-4f7672366259","ios":"levelo://app?vid=8b36cf69-b40c-4542-902c-4f7672366259"},"vehicle_type_id":"4","last_reported":1690664677,"current_range_meters":31600,"station_id":"ce4bgih2rcd13ifvqba0","pricing_plan_id":"free"},{"bike_id":"5a650fa0-ab10-4fa1-a0a6-8c71589b0e77","system_id":"levelo_inurba_marseille","lat":43.30879,"lon":5.39661,"is_reserved":false,"is_disabled":false,"rental_uris":{"android":"levelo://app?vid=5a650fa0-ab10-4fa1-a0a6-8c71589b0e77","ios":"levelo://app?vid=5a650fa0-ab10-4fa1-a0a6-8c71589b0e77"},"vehicle_type_id":"4","last_reported":1690664677,"current_range_meters":0,"station_id":"ce4bh012rcd13ifvqcv0","pricing_plan_id":"free"},{"bike_id":"33b4b694-7499-463b-a838-fe38c320c15a","system_id":"levelo_inurba_marseille","lat":43.29535,"lon":5.38541,"is_reserved":false,"is_disabled":false,"rental_uris":{"android":"levelo://app?vid=33b4b694-7499-463b-a838-fe38c320c15a","ios":"levelo://app?vid=33b4b694-7499-463b-a838-fe38c320c15a"},"vehicle_type_id":"4","last_reported":1690664677,"current_range_meters":10400,"station_id":"ce4bgih2rcd13ifvqba0","pricing_plan_id":"free"},{"bike_id":"09781105-49bd-4b02-9ffa-bf5949ba7d5e","system_id":"levelo_inurba_marseille","lat":43.29529,"lon":5.385581,"is_reserved":false,"is_disabled":false,"rental_uris":{"android":"levelo://app?vid=09781105-49bd-4b02-9ffa-bf5949ba7d5e","ios":"levelo://app?vid=09781105-49bd-4b02-9ffa-bf5949ba7d5e"},"vehicle_type_id":"4","last_reported":1690664677,"current_range_meters":30400,"station_id":"ce4bgih2rcd13ifvqba0","pricing_plan_id":"free"},{"bike_id":"df565263-912f-4621-aaa0-806540b1c414","system_id":"levelo_inurba_marseille","lat":43.295332,"lon":5.385433,"is_reserved":false,"is_disabled":false,"rental_uris":{"android":"levelo://app?vid=df565263-912f-4621-aaa0-806540b1c414","ios":"levelo://app?vid=df565263-912f-4621-aaa0-806540b1c414"},"vehicle_type_id":"4","last_reported":1690664677,"current_range_meters":4800,"station_id":"ce4bgih2rcd13ifvqba0","pricing_plan_id":"free"},{"bike_id":"ad309a40-d7e9-402e-a3c1-e20a29a9cbb2","system_id":"levelo_inurba_marseille","lat":43.2953,"lon":5.3854,"is_reserved":false,"is_disabled":false,"rental_uris":{"android":"levelo://app?vid=ad309a40-d7e9-402e-a3c1-e20a29a9cbb2","ios":"levelo://app?vid=ad309a40-d7e9-402e-a3c1-e20a29a9cbb2"},"vehicle_type_id":"4","last_reported":1690664677,"current_range_meters":0,"station_id":"ce4bgih2rcd13ifvqba0","pricing_plan_id":"free"},{"bike_id":"fd89aa9d-0d2a-4644-8a29-80361077449c","system_id":"levelo_inurba_marseille","lat":43.29529,"lon":5.385581,"is_reserved":false,"is_disabled":false,"rental_uris":{"android":"levelo://app?vid=fd89aa9d-0d2a-4644-8a29-80361077449c","ios":"levelo://app?vid=fd89aa9d-0d2a-4644-8a29-80361077449c"},"vehicle_type_id":"4","last_reported":1690664677,"current_range_meters":15200,"station_id":"ce4bgih2rcd13ifvqba0","pricing_plan_id":"free"},{"bike_id":"4fc29b5e-1494-480a-9149-ae3f3e1fb936","system_id":"levelo_inurba_marseille","lat":43.29529,"lon":5.385581,"is_reserved":false,"is_disabled":false,"rental_uris":{"android":"levelo://app?vid=4fc29b5e-1494-480a-9149-ae3f3e1fb936","ios":"levelo://app?vid=4fc29b5e-1494-480a-9149-ae3f3e1fb936"},"vehicle_type_id":"4","last_reported":1690664677,"current_range_meters":22400,"station_id":"ce4bgih2rcd13ifvqba0","pricing_plan_id":"free"},{"bike_id":"c4126619-8cf6-4e30-afc8-fdd8d79e8c2c","system_id":"levelo_inurba_marseille","lat":43.29529,"lon":5.385581,"is_reserved":false,"is_disabled":false,"rental_uris":{"android":"levelo://app?vid=c4126619-8cf6-4e30-afc8-fdd8d79e8c2c","ios":"levelo://app?vid=c4126619-8cf6-4e30-afc8-fdd8d79e8c2c"},"vehicle_type_id":"4","last_reported":1690664677,"current_range_meters":6000,"station_id":"ce4bgih2rcd13ifvqba0","pricing_plan_id":"free"},{"bike_id":"c353a931-541a-4aaf-b250-204d71fa5560","system_id":"levelo_inurba_marseille","lat":43.29528,"lon":5.38545,"is_reserved":false,"is_disabled":false,"rental_uris":{"android":"levelo://app?vid=c353a931-541a-4aaf-b250-204d71fa5560","ios":"levelo://app?vid=c353a931-541a-4aaf-b250-204d71fa5560"},"vehicle_type_id":"4","last_reported":1690664677,"current_range_meters":5200,"station_id":"ce4bgih2rcd13ifvqba0","pricing_plan_id":"free"},{"bike_id":"149d5622-f49a-49c0-9688-925a3f77b2d4","system_id":"levelo_inurba_marseille","lat":43.29527,"lon":5.38544,"is_reserved":false,"is_disabled":false,"rental_uris":{"android":"levelo://app?vid=149d5622-f49a-49c0-9688-925a3f77b2d4","ios":"levelo://app?vid=149d5622-f49a-49c0-9688-925a3f77b2d4"},"vehicle_type_id":"4","last_reported":1690664677,"current_range_meters":4800,"station_id":"ce4bgih2rcd13ifvqba0","pricing_plan_id":"free"},{"bike_id":"9a0d8d51-71db-45e0-95f0-1176f5ea0540","system_id":"levelo_inurba_marseille","lat":43.295295,"lon":5.385555,"is_reserved":false,"is_disabled":false,"rental_uris":{"android":"levelo://app?vid=9a0d8d51-71db-45e0-95f0-1176f5ea0540","ios":"levelo://app?vid=9a0d8d51-71db-45e0-95f0-1176f5ea0540"},"vehicle_type_id":"4","last_reported":1690664677,"current_range_meters":20800,"station_id":"ce4bgih2rcd13ifvqba0","pricing_plan_id":"free"},{"bike_id":"9d0a2414-8965-4fcb-816c-42edc234eeb0","system_id":"levelo_inurba_marseille","lat":43.29521,"lon":5.38547,"is_reserved":false,"is_disabled":false,"rental_uris":{"android":"levelo://app?vid=9d0a2414-8965-4fcb-816c-42edc234eeb0","ios":"levelo://app?vid=9d0a2414-8965-4fcb-816c-42edc234eeb0"},"vehicle_type_id":"4","last_reported":1690664677,"current_range_meters":3600,"station_id":"ce4bgih2rcd13ifvqba0","pricing_plan_id":"free"},{"bike_id":"d848f240-a71c-4b00-b5aa-d9ae954195f8","system_id":"levelo_inurba_marseille","lat":43.290779,"lon":5.371482,"is_reserved":false,"is_disabled":false,"rental_uris":{"android":"levelo://app?vid=d848f240-a71c-4b00-b5aa-d9ae954195f8","ios":"levelo://app?vid=d848f240-a71c-4b00-b5aa-d9ae954195f8"},"vehicle_type_id":"4","last_reported":1690664677,"current_range_meters":17200,"station_id":"ce4bh5p2rcd13ifvqe4g","pricing_plan_id":"free"},{"bike_id":"645d9fbd-7ce9-464a-8475-ae95b5040659","system_id":"levelo_inurba_marseille","lat":43.290762,"lon":5.371622,"is_reserved":false,"is_disabled":false,"rental_uris":{"android":"levelo://app?vid=645d9fbd-7ce9-464a-8475-ae95b5040659","ios":"levelo://app?vid=645d9fbd-7ce9-464a-8475-ae95b5040659"},"vehicle_type_id":"4","last_reported":1690664677,"current_range_meters":15200,"station_id":"ce4bh5p2rcd13ifvqe4g","pricing_plan_id":"free"},{"bike_id":"c84a2c8b-4509-45d3-aa10-017e0ff1e62e","system_id":"levelo_inurba_marseille","lat":43.302008,"lon":5.394694,"is_reserved":false,"is_disabled":false,"rental_uris":{"android":"levelo://app?vid=c84a2c8b-4509-45d3-aa10-017e0ff1e62e","ios":"levelo://app?vid=c84a2c8b-4509-45d3-aa10-017e0ff1e62e"},"vehicle_type_id":"4","last_reported":1690664677,"current_range_meters":0,"station_id":"ce4bh0p2rcd13ifvqd70","pricing_plan_id":"free"},{"bike_id":"b4fa0149-6885-475f-8b17-8b334721f937","system_id":"levelo_inurba_marseille","lat":43.290631,"lon":5.359244,"is_reserved":false,"is_disabled":false,"rental_uris":{"android":"levelo://app?vid=b4fa0149-6885-475f-8b17-8b334721f937","ios":"levelo://app?vid=b4fa0149-6885-475f-8b17-8b334721f937"},"vehicle_type_id":"4","last_reported":1690664677,"current_range_meters":11200,"station_id":"ce4bha92rcd13ifvqeg0","pricing_plan_id":"free"},{"bike_id":"05ddd05c-064e-4b3b-9243-0778a54e986f","system_id":"levelo_inurba_marseille","lat":43.29045,"lon":5.37553,"is_reserved":false,"is_disabled":false,"rental_uris":{"android":"levelo://app?vid=05ddd05c-064e-4b3b-9243-0778a54e986f","ios":"levelo://app?vid=05ddd05c-064e-4b3b-9243-0778a54e986f"},"vehicle_type_id":"4","last_reported":1690664677,"current_range_meters":13600,"station_id":"ce4bh692rcd13ifvqe90","pricing_plan_id":"free"},{"bike_id":"cb6e26c3-35b6-4673-ae97-3bfda64ad6d1","system_id":"levelo_inurba_marseille","lat":43.294153,"lon":5.386305,"is_reserved":false,"is_disabled":false,"rental_uris":{"android":"levelo://app?vid=cb6e26c3-35b6-4673-ae97-3bfda64ad6d1","ios":"levelo://app?vid=cb6e26c3-35b6-4673-ae97-3bfda64ad6d1"},"vehicle_type_id":"4","last_reported":1690664677,"current_range_meters":6400,"station_id":"ce4bh2h2rcd13ifvqdh0","pricing_plan_id":"free"},{"bike_id":"ecc14896-d4bb-42e7-a8d6-edfc19f1b1dc","system_id":"levelo_inurba_marseille","lat":43.294153,"lon":5.386305,"is_reserved":false,"is_disabled":false,"rental_uris":{"android":"levelo://app?vid=ecc14896-d4bb-42e7-a8d6-edfc19f1b1dc","ios":"levelo://app?vid=ecc14896-d4bb-42e7-a8d6-edfc19f1b1dc"},"vehicle_type_id":"4","last_reported":1690664677,"current_range_meters":27200,"station_id":"ce4bh2h2rcd13ifvqdh0","pricing_plan_id":"free"},{"bike_id":"823596b4-e9b1-42b1-b63f-4f80335b4f79","system_id":"levelo_inurba_marseille","lat":43.294153,"lon":5.386305,"is_reserved":false,"is_disabled":false,"rental_uris":{"android":"levelo://app?vid=823596b4-e9b1-42b1-b63f-4f80335b4f79","ios":"levelo://app?vid=823596b4-e9b1-42b1-b63f-4f80335b4f79"},"vehicle_type_id":"4","last_reported":1690664677,"current_range_meters":4800,"station_id":"ce4bh2h2rcd13ifvqdh0","pricing_plan_id":"free"},{"bike_id":"f164587c-b42d-48b1-8643-c7edc0da96a4","system_id":"levelo_inurba_marseille","lat":43.29418,"lon":5.38617,"is_reserved":false,"is_disabled":false,"rental_uris":{"android":"levelo://app?vid=f164587c-b42d-48b1-8643-c7edc0da96a4","ios":"levelo://app?vid=f164587c-b42d-48b1-8643-c7edc0da96a4"},"vehicle_type_id":"4","last_reported":1690664677,"current_range_meters":13600,"station_id":"ce4bh2h2rcd13ifvqdh0","pricing_plan_id":"free"},{"bike_id":"fc23a543-fe60-48b3-87ca-719772280db3","system_id":"levelo_inurba_marseille","lat":43.294162,"lon":5.386292,"is_reserved":false,"is_disabled":false,"rental_uris":{"android":"levelo://app?vid=fc23a543-fe60-48b3-87ca-719772280db3","ios":"levelo://app?vid=fc23a543-fe60-48b3-87ca-719772280db3"},"vehicle_type_id":"4","last_reported":1690664677,"current_range_meters":30000,"station_id":"ce4bh2h2rcd13ifvqdh0","pricing_plan_id":"free"},{"bike_id":"506523b4-b511-425c-a843-cfeb927109f7","system_id":"levelo_inurba_marseille","lat":43.294153,"lon":5.386305,"is_reserved":false,"is_disabled":false,"rental_uris":{"android":"levelo://app?vid=506523b4-b511-425c-a843-cfeb927109f7","ios":"levelo://app?vid=506523b4-b511-425c-a843-cfeb927109f7"},"vehicle_type_id":"4","last_reported":1690664677,"current_range_meters":31200,"station_id":"ce4bh2h2rcd13ifvqdh0","pricing_plan_id":"free"},{"bike_id":"909040f6-561d-4645-aed5-711a62d1b2ea","system_id":"levelo_inurba_marseille","lat":43.294162,"lon":5.386292,"is_reserved":false,"is_disabled":false,"rental_uris":{"android":"levelo://app?vid=909040f6-561d-4645-aed5-711a62d1b2ea","ios":"levelo://app?vid=909040f6-561d-4645-aed5-711a62d1b2ea"},"vehicle_type_id":"4","last_reported":1690664677,"current_range_meters":3200,"station_id":"ce4bh2h2rcd13ifvqdh0","pricing_plan_id":"free"},{"bike_id":"91597e23-cb45-4dba-99cc-c368a3cc7e20","system_id":"levelo_inurba_marseille","lat":43.294162,"lon":5.386292,"is_reserved":false,"is_disabled":false,"rental_uris":{"android":"levelo://app?vid=91597e23-cb45-4dba-99cc-c368a3cc7e20","ios":"levelo://app?vid=91597e23-cb45-4dba-99cc-c368a3cc7e20"},"vehicle_type_id":"4","last_reported":1690664677,"current_range_meters":21200,"station_id":"ce4bh2h2rcd13ifvqdh0","pricing_plan_id":"free"},{"bike_id":"fae9a332-e931-4c80-a925-4791bcf0068f","system_id":"levelo_inurba_marseille","lat":43.294153,"lon":5.386305,"is_reserved":false,"is_disabled":false,"rental_uris":{"android":"levelo://app?vid=fae9a332-e931-4c80-a925-4791bcf0068f","ios":"levelo://app?vid=fae9a332-e931-4c80-a925-4791bcf0068f"},"vehicle_type_id":"4","last_reported":1690664677,"current_range_meters":6000,"station_id":"ce4bh2h2rcd13ifvqdh0","pricing_plan_id":"free"},{"bike_id":"0177427e-db1e-4925-9a18-edb7c402196c","system_id":"levelo_inurba_marseille","lat":43.289468,"lon":5.363719,"is_reserved":false,"is_disabled":false,"rental_uris":{"android":"levelo://app?vid=0177427e-db1e-4925-9a18-edb7c402196c","ios":"levelo://app?vid=0177427e-db1e-4925-9a18-edb7c402196c"},"vehicle_type_id":"4","last_reported":1690664677,"current_range_meters":8400,"station_id":"ce4bhc92rcd13ifvqetg","pricing_plan_id":"free"},{"bike_id":"06a7ae82-83c6-4966-9f99-2b176a1d81ad","system_id":"levelo_inurba_marseille","lat":43.304296,"lon":5.397513,"is_reserved":false,"is_disabled":false,"rental_uris":{"android":"levelo://app?vid=06a7ae82-83c6-4966-9f99-2b176a1d81ad","ios":"levelo://app?vid=06a7ae82-83c6-4966-9f99-2b176a1d81ad"},"vehicle_type_id":"4","last_reported":1690664677,"current_range_meters":0,"station_id":"ce4bh092rcd13ifvqd20","pricing_plan_id":"free"},{"bike_id":"dc5629ce-63ac-4514-8344-541bb954c839","system_id":"levelo_inurba_marseille","lat":43.29265,"lon":5.38449,"is_reserved":false,"is_disabled":false,"rental_uris":{"android":"levelo://app?vid=dc5629ce-63ac-4514-8344-541bb954c839","ios":"levelo://app?vid=dc5629ce-63ac-4514-8344-541bb954c839"},"vehicle_type_id":"4","last_reported":1690664677,"current_range_meters":18000,"station_id":"ce4bh692rcd13ifvqea0","pricing_plan_id":"free"},{"bike_id":"6e450259-0aaf-4a4a-9645-92fdaa0273f5","system_id":"levelo_inurba_marseille","lat":43.292644,"lon":5.384257,"is_reserved":false,"is_disabled":false,"rental_uris":{"android":"levelo://app?vid=6e450259-0aaf-4a4a-9645-92fdaa0273f5","ios":"levelo://app?vid=6e450259-0aaf-4a4a-9645-92fdaa0273f5"},"vehicle_type_id":"4","last_reported":1690664677,"current_range_meters":31200,"station_id":"ce4bh692rcd13ifvqea0","pricing_plan_id":"free"},{"bike_id":"976c5a4a-98dd-47e7-9145-faab23e50ada","system_id":"levelo_inurba_marseille","lat":43.29252,"lon":5.38445,"is_reserved":false,"is_disabled":false,"rental_uris":{"android":"levelo://app?vid=976c5a4a-98dd-47e7-9145-faab23e50ada","ios":"levelo://app?vid=976c5a4a-98dd-47e7-9145-faab23e50ada"},"vehicle_type_id":"4","last_reported":1690664677,"current_range_meters":31200,"station_id":"ce4bh692rcd13ifvqea0","pricing_plan_id":"free"},{"bike_id":"a636eec4-b719-4e6f-b179-4c8cadeba60e","system_id":"levelo_inurba_marseille","lat":43.33043,"lon":5.38909,"is_reserved":false,"is_disabled":false,"rental_uris":{"android":"levelo://app?vid=a636eec4-b719-4e6f-b179-4c8cadeba60e","ios":"levelo://app?vid=a636eec4-b719-4e6f-b179-4c8cadeba60e"},"vehicle_type_id":"4","last_reported":1690664677,"current_range_meters":21600,"station_id":"ce4bhr92rcd13ifvqhrg","pricing_plan_id":"free"},{"bike_id":"4031e07c-3812-4dd4-9840-651d80dc70e1","system_id":"levelo_inurba_marseille","lat":43.33044,"lon":5.38915,"is_reserved":false,"is_disabled":false,"rental_uris":{"android":"levelo://app?vid=4031e07c-3812-4dd4-9840-651d80dc70e1","ios":"levelo://app?vid=4031e07c-3812-4dd4-9840-651d80dc70e1"},"vehicle_type_id":"4","last_reported":1690664677,"current_range_meters":10800,"station_id":"ce4bhr92rcd13ifvqhrg","pricing_plan_id":"free"},{"bike_id":"b11f1067-6cd7-48d3-a1c6-0c9afe78097b","system_id":"levelo_inurba_marseille","lat":43.33042,"lon":5.38919,"is_reserved":false,"is_disabled":false,"rental_uris":{"android":"levelo://app?vid=b11f1067-6cd7-48d3-a1c6-0c9afe78097b","ios":"levelo://app?vid=b11f1067-6cd7-48d3-a1c6-0c9afe78097b"},"vehicle_type_id":"4","last_reported":1690664677,"current_range_meters":26800,"station_id":"ce4bhr92rcd13ifvqhrg","pricing_plan_id":"free"},{"bike_id":"d8132d11-7d1d-4eb1-907e-a79177a55510","system_id":"levelo_inurba_marseille","lat":43.330464,"lon":5.389125,"is_reserved":false,"is_disabled":false,"rental_uris":{"android":"levelo://app?vid=d8132d11-7d1d-4eb1-907e-a79177a55510","ios":"levelo://app?vid=d8132d11-7d1d-4eb1-907e-a79177a55510"},"vehicle_type_id":"4","last_reported":1690664677,"current_range_meters":14800,"station_id":"ce4bhr92rcd13ifvqhrg","pricing_plan_id":"free"},{"bike_id":"9e62e635-3ba1-4491-b5e4-9ed5f3656f44","system_id":"levelo_inurba_marseille","lat":43.33042,"lon":5.3892,"is_reserved":false,"is_disabled":false,"rental_uris":{"android":"levelo://app?vid=9e62e635-3ba1-4491-b5e4-9ed5f3656f44","ios":"levelo://app?vid=9e62e635-3ba1-4491-b5e4-9ed5f3656f44"},"vehicle_type_id":"4","last_reported":1690664677,"current_range_meters":20400,"station_id":"ce4bhr92rcd13ifvqhrg","pricing_plan_id":"free"},{"bike_id":"8db9e0e9-c54d-498b-85a9-be4b69950c9c","system_id":"levelo_inurba_marseille","lat":43.33046,"lon":5.38915,"is_reserved":false,"is_disabled":false,"rental_uris":{"android":"levelo://app?vid=8db9e0e9-c54d-498b-85a9-be4b69950c9c","ios":"levelo://app?vid=8db9e0e9-c54d-498b-85a9-be4b69950c9c"},"vehicle_type_id":"4","last_reported":1690664677,"current_range_meters":0,"station_id":"ce4bhr92rcd13ifvqhrg","pricing_plan_id":"free"},{"bike_id":"8bca0c20-8ca7-4bea-b050-dcc0818b5b7a","system_id":"levelo_inurba_marseille","lat":43.33044,"lon":5.38919,"is_reserved":false,"is_disabled":false,"rental_uris":{"android":"levelo://app?vid=8bca0c20-8ca7-4bea-b050-dcc0818b5b7a","ios":"levelo://app?vid=8bca0c20-8ca7-4bea-b050-dcc0818b5b7a"},"vehicle_type_id":"4","last_reported":1690664677,"current_range_meters":20000,"station_id":"ce4bhr92rcd13ifvqhrg","pricing_plan_id":"free"},{"bike_id":"0632e3dc-4ead-4dba-8dfb-3362f3ba9823","system_id":"levelo_inurba_marseille","lat":43.33044,"lon":5.3892,"is_reserved":false,"is_disabled":false,"rental_uris":{"android":"levelo://app?vid=0632e3dc-4ead-4dba-8dfb-3362f3ba9823","ios":"levelo://app?vid=0632e3dc-4ead-4dba-8dfb-3362f3ba9823"},"vehicle_type_id":"4","last_reported":1690664677,"current_range_meters":26800,"station_id":"ce4bhr92rcd13ifvqhrg","pricing_plan_id":"free"},{"bike_id":"95efe035-f1ee-4904-b5d5-88f29d014ea7","system_id":"levelo_inurba_marseille","lat":43.33048,"lon":5.38914,"is_reserved":false,"is_disabled":false,"rental_uris":{"android":"levelo://app?vid=95efe035-f1ee-4904-b5d5-88f29d014ea7","ios":"levelo://app?vid=95efe035-f1ee-4904-b5d5-88f29d014ea7"},"vehicle_type_id":"4","last_reported":1690664677,"current_range_meters":23200,"station_id":"ce4bhr92rcd13ifvqhrg","pricing_plan_id":"free"},{"bike_id":"c2800087-0a33-4156-b90a-bbe98d050b3d","system_id":"levelo_inurba_marseille","lat":43.33046,"lon":5.38918,"is_reserved":false,"is_disabled":false,"rental_uris":{"android":"levelo://app?vid=c2800087-0a33-4156-b90a-bbe98d050b3d","ios":"levelo://app?vid=c2800087-0a33-4156-b90a-bbe98d050b3d"},"vehicle_type_id":"4","last_reported":1690664677,"current_range_meters":20000,"station_id":"ce4bhr92rcd13ifvqhrg","pricing_plan_id":"free"},{"bike_id":"8ce2eb91-3190-42f2-9129-1ca28f4fad21","system_id":"levelo_inurba_marseille","lat":43.33042,"lon":5.38928,"is_reserved":false,"is_disabled":false,"rental_uris":{"android":"levelo://app?vid=8ce2eb91-3190-42f2-9129-1ca28f4fad21","ios":"levelo://app?vid=8ce2eb91-3190-42f2-9129-1ca28f4fad21"},"vehicle_type_id":"4","last_reported":1690664677,"current_range_meters":8000,"station_id":"ce4bhr92rcd13ifvqhrg","pricing_plan_id":"free"},{"bike_id":"134ef223-0af9-48f2-bbd1-4d84dd8cb35c","system_id":"levelo_inurba_marseille","lat":43.29005,"lon":5.35606,"is_reserved":false,"is_disabled":false,"rental_uris":{"android":"levelo://app?vid=134ef223-0af9-48f2-bbd1-4d84dd8cb35c","ios":"levelo://app?vid=134ef223-0af9-48f2-bbd1-4d84dd8cb35c"},"vehicle_type_id":"4","last_reported":1690664677,"current_range_meters":31200,"station_id":"ce4bhb92rcd13ifvqen0","pricing_plan_id":"free"},{"bike_id":"4d0ce47f-2ea3-4732-a0ee-cf863d3543e6","system_id":"levelo_inurba_marseille","lat":43.290995,"lon":5.381361,"is_reserved":false,"is_disabled":false,"rental_uris":{"android":"levelo://app?vid=4d0ce47f-2ea3-4732-a0ee-cf863d3543e6","ios":"levelo://app?vid=4d0ce47f-2ea3-4732-a0ee-cf863d3543e6"},"vehicle_type_id":"4","last_reported":1690664677,"current_range_meters":8400,"station_id":"ce4bh512rcd13ifvqe2g","pricing_plan_id":"free"},{"bike_id":"05bf2cc0-c80b-4d3b-9303-5cea93148e89","system_id":"levelo_inurba_marseille","lat":43.290995,"lon":5.381361,"is_reserved":false,"is_disabled":false,"rental_uris":{"android":"levelo://app?vid=05bf2cc0-c80b-4d3b-9303-5cea93148e89","ios":"levelo://app?vid=05bf2cc0-c80b-4d3b-9303-5cea93148e89"},"vehicle_type_id":"4","last_reported":1690664677,"current_range_meters":29600,"station_id":"ce4bh512rcd13ifvqe2g","pricing_plan_id":"free"},{"bike_id":"d7325a6e-66be-4c94-a9ce-9817ada5d415","system_id":"levelo_inurba_marseille","lat":43.29032,"lon":5.38134,"is_reserved":false,"is_disabled":false,"rental_uris":{"android":"levelo://app?vid=d7325a6e-66be-4c94-a9ce-9817ada5d415","ios":"levelo://app?vid=d7325a6e-66be-4c94-a9ce-9817ada5d415"},"vehicle_type_id":"4","last_reported":1690664677,"current_range_meters":400,"station_id":"ce4bh4p2rcd13ifvqe1g","pricing_plan_id":"free"},{"bike_id":"b4a7fe66-4286-4d7c-ae69-efda7464a515","system_id":"levelo_inurba_marseille","lat":43.33746,"lon":5.37444,"is_reserved":false,"is_disabled":false,"rental_uris":{"android":"levelo://app?vid=b4a7fe66-4286-4d7c-ae69-efda7464a515","ios":"levelo://app?vid=b4a7fe66-4286-4d7c-ae69-efda7464a515"},"vehicle_type_id":"4","last_reported":1690664677,"current_range_meters":22000,"station_id":"","pricing_plan_id":"free"},{"bike_id":"b91208cb-c3fd-4569-b041-dc66fee34e8a","system_id":"levelo_inurba_marseille","lat":43.30935,"lon":5.40142,"is_reserved":false,"is_disabled":false,"rental_uris":{"android":"levelo://app?vid=b91208cb-c3fd-4569-b041-dc66fee34e8a","ios":"levelo://app?vid=b91208cb-c3fd-4569-b041-dc66fee34e8a"},"vehicle_type_id":"4","last_reported":1690664677,"current_range_meters":10400,"station_id":"ce4bgvp2rcd13ifvqct0","pricing_plan_id":"free"},{"bike_id":"54e5f675-39c4-4598-a342-b2ee772a0387","system_id":"levelo_inurba_marseille","lat":43.3093,"lon":5.40147,"is_reserved":false,"is_disabled":false,"rental_uris":{"android":"levelo://app?vid=54e5f675-39c4-4598-a342-b2ee772a0387","ios":"levelo://app?vid=54e5f675-39c4-4598-a342-b2ee772a0387"},"vehicle_type_id":"4","last_reported":1690664677,"current_range_meters":17200,"station_id":"ce4bgvp2rcd13ifvqct0","pricing_plan_id":"free"},{"bike_id":"7c6665a5-fd8c-485b-815c-b62406b3514e","system_id":"levelo_inurba_marseille","lat":43.33753,"lon":5.3744,"is_reserved":false,"is_disabled":false,"rental_uris":{"android":"levelo://app?vid=7c6665a5-fd8c-485b-815c-b62406b3514e","ios":"levelo://app?vid=7c6665a5-fd8c-485b-815c-b62406b3514e"},"vehicle_type_id":"4","last_reported":1690664677,"current_range_meters":24800,"station_id":"","pricing_plan_id":"free"},{"bike_id":"3e64bf2b-6033-47e2-b446-66918df9f1b2","system_id":"levelo_inurba_marseille","lat":43.3375,"lon":5.37459,"is_reserved":false,"is_disabled":false,"rental_uris":{"android":"levelo://app?vid=3e64bf2b-6033-47e2-b446-66918df9f1b2","ios":"levelo://app?vid=3e64bf2b-6033-47e2-b446-66918df9f1b2"},"vehicle_type_id":"4","last_reported":1690664677,"current_range_meters":31200,"station_id":"","pricing_plan_id":"free"},{"bike_id":"5339795f-3a20-48f5-aa16-92a6c75a1831","system_id":"levelo_inurba_marseille","lat":43.33753,"lon":5.37445,"is_reserved":false,"is_disabled":false,"rental_uris":{"android":"levelo://app?vid=5339795f-3a20-48f5-aa16-92a6c75a1831","ios":"levelo://app?vid=5339795f-3a20-48f5-aa16-92a6c75a1831"},"vehicle_type_id":"4","last_reported":1690664677,"current_range_meters":22000,"station_id":"","pricing_plan_id":"free"},{"bike_id":"bf99eb18-2ac5-4783-a564-5cbd44cd88b3","system_id":"levelo_inurba_marseille","lat":43.3375,"lon":5.37485,"is_reserved":false,"is_disabled":false,"rental_uris":{"android":"levelo://app?vid=bf99eb18-2ac5-4783-a564-5cbd44cd88b3","ios":"levelo://app?vid=bf99eb18-2ac5-4783-a564-5cbd44cd88b3"},