{"last_updated":1784201177,"ttl":60,"version":"2.2","data":{"bikes":[{"bike_id":"ba0c28b1-8732-48e2-8079-f25b2b3fbc3c","system_id":"levelo_inurba_marseille","lat":43.337444,"lon":5.374475,"is_reserved":false,"is_disabled":false,"rental_uris":{"android":"levelo://app?vid=ba0c28b1-8732-48e2-8079-f25b2b3fbc3c","ios":"levelo://app?vid=ba0c28b1-8732-48e2-8079-f25b2b3fbc3c"},"vehicle_type_id":"4","last_reported":1784201178,"current_range_meters":0,"station_id":"","pricing_plan_id":"cebpf4jnsgd1na2vs0mg"},{"bike_id":"ac953eba-8b36-42a8-b2b0-1e3618a31ece","system_id":"levelo_inurba_marseille","lat":43.27197,"lon":5.3918,"is_reserved":false,"is_disabled":false,"rental_uris":{"android":"levelo://app?vid=ac953eba-8b36-42a8-b2b0-1e3618a31ece","ios":"levelo://app?vid=ac953eba-8b36-42a8-b2b0-1e3618a31ece"},"vehicle_type_id":"4","last_reported":1784201178,"current_range_meters":36400,"station_id":"ce4bhhp2rcd13ifvqfm0","pricing_plan_id":"cebpf4jnsgd1na2vs0mg"},{"bike_id":"76b63993-96f7-484a-8343-5ea3ca2d69bf","system_id":"levelo_inurba_marseille","lat":43.2746,"lon":5.36146,"is_reserved":false,"is_disabled":false,"rental_uris":{"android":"levelo://app?vid=76b63993-96f7-484a-8343-5ea3ca2d69bf","ios":"levelo://app?vid=76b63993-96f7-484a-8343-5ea3ca2d69bf"},"vehicle_type_id":"4","last_reported":1784201178,"current_range_meters":32000,"station_id":"","pricing_plan_id":"cebpf4jnsgd1na2vs0mg"},{"bike_id":"3631541a-4963-4914-b39d-5dd1dfe19e96","system_id":"levelo_inurba_marseille","lat":43.26674,"lon":5.38275,"is_reserved":false,"is_disabled":false,"rental_uris":{"android":"levelo://app?vid=3631541a-4963-4914-b39d-5dd1dfe19e96","ios":"levelo://app?vid=3631541a-4963-4914-b39d-5dd1dfe19e96"},"vehicle_type_id":"4","last_reported":1784201178,"current_range_meters":32800,"station_id":"ce4bhg92rcd13ifvqf90","pricing_plan_id":"cebpf4jnsgd1na2vs0mg"},{"bike_id":"0355467a-4bf1-47dd-84f8-f9fae99cadaa","system_id":"levelo_inurba_marseille","lat":43.24082,"lon":5.37716,"is_reserved":false,"is_disabled":false,"rental_uris":{"android":"levelo://app?vid=0355467a-4bf1-47dd-84f8-f9fae99cadaa","ios":"levelo://app?vid=0355467a-4bf1-47dd-84f8-f9fae99cadaa"},"vehicle_type_id":"4","last_reported":1784201178,"current_range_meters":38000,"station_id":"ce4bhnp2rcd13ifvqgvg","pricing_plan_id":"cebpf4jnsgd1na2vs0mg"},{"bike_id":"c7044586-88ca-4de4-b4ba-a3dbd0505a35","system_id":"levelo_inurba_marseille","lat":43.27948,"lon":5.38725,"is_reserved":false,"is_disabled":false,"rental_uris":{"android":"levelo://app?vid=c7044586-88ca-4de4-b4ba-a3dbd0505a35","ios":"levelo://app?vid=c7044586-88ca-4de4-b4ba-a3dbd0505a35"},"vehicle_type_id":"4","last_reported":1784201178,"current_range_meters":38000,"station_id":"ce4bhg12rcd13ifvqf80","pricing_plan_id":"cebpf4jnsgd1na2vs0mg"},{"bike_id":"b71cb193-3ff2-4137-bbb0-a3166d834714","system_id":"levelo_inurba_marseille","lat":43.30949,"lon":5.39039,"is_reserved":false,"is_disabled":false,"rental_uris":{"android":"levelo://app?vid=b71cb193-3ff2-4137-bbb0-a3166d834714","ios":"levelo://app?vid=b71cb193-3ff2-4137-bbb0-a3166d834714"},"vehicle_type_id":"4","last_reported":1784201178,"current_range_meters":39200,"station_id":"ce4bgup2rcd13ifvqco0","pricing_plan_id":"cebpf4jnsgd1na2vs0mg"},{"bike_id":"93f62aaf-97ab-422a-99e3-4c99e240ad11","system_id":"levelo_inurba_marseille","lat":43.26553,"lon":5.38976,"is_reserved":false,"is_disabled":true,"rental_uris":{"android":"levelo://app?vid=93f62aaf-97ab-422a-99e3-4c99e240ad11","ios":"levelo://app?vid=93f62aaf-97ab-422a-99e3-4c99e240ad11"},"vehicle_type_id":"4","last_reported":1784201178,"current_range_meters":38400,"station_id":"ce4bhe12rcd13ifvqf30","pricing_plan_id":"cebpf4jnsgd1na2vs0mg"},{"bike_id":"d015791c-25ea-4787-a915-6adea739f9a5","system_id":"levelo_inurba_marseille","lat":43.27204,"lon":5.39182,"is_reserved":false,"is_disabled":false,"rental_uris":{"android":"levelo://app?vid=d015791c-25ea-4787-a915-6adea739f9a5","ios":"levelo://app?vid=d015791c-25ea-4787-a915-6adea739f9a5"},"vehicle_type_id":"4","last_reported":1784201178,"current_range_meters":32000,"station_id":"ce4bhhp2rcd13ifvqfm0","pricing_plan_id":"cebpf4jnsgd1na2vs0mg"},{"bike_id":"d749523d-f93c-49d0-8009-b305dd6d3874","system_id":"levelo_inurba_marseille","lat":43.25091,"lon":5.39505,"is_reserved":false,"is_disabled":false,"rental_uris":{"android":"levelo://app?vid=d749523d-f93c-49d0-8009-b305dd6d3874","ios":"levelo://app?vid=d749523d-f93c-49d0-8009-b305dd6d3874"},"vehicle_type_id":"4","last_reported":1784201178,"current_range_meters":24800,"station_id":"ce4bhm12rcd13ifvqgkg","pricing_plan_id":"cebpf4jnsgd1na2vs0mg"},{"bike_id":"d25cc7c1-b35c-40e8-95e1-17ff370eade9","system_id":"levelo_inurba_marseille","lat":43.24645,"lon":5.37857,"is_reserved":false,"is_disabled":false,"rental_uris":{"android":"levelo://app?vid=d25cc7c1-b35c-40e8-95e1-17ff370eade9","ios":"levelo://app?vid=d25cc7c1-b35c-40e8-95e1-17ff370eade9"},"vehicle_type_id":"4","last_reported":1784201178,"current_range_meters":18800,"station_id":"","pricing_plan_id":"cebpf4jnsgd1na2vs0mg"},{"bike_id":"1ca92ab6-dc16-48d3-9edf-e28ae5bfe10b","system_id":"levelo_inurba_marseille","lat":43.29969,"lon":5.37182,"is_reserved":false,"is_disabled":false,"rental_uris":{"android":"levelo://app?vid=1ca92ab6-dc16-48d3-9edf-e28ae5bfe10b","ios":"levelo://app?vid=1ca92ab6-dc16-48d3-9edf-e28ae5bfe10b"},"vehicle_type_id":"4","last_reported":1784201178,"current_range_meters":39200,"station_id":"ce4bgr92rcd13ifvqc7g","pricing_plan_id":"cebpf4jnsgd1na2vs0mg"},{"bike_id":"e71494cd-d4a8-436a-a5c6-260a2924500e","system_id":"levelo_inurba_marseille","lat":43.26231,"lon":5.38784,"is_reserved":false,"is_disabled":true,"rental_uris":{"android":"levelo://app?vid=e71494cd-d4a8-436a-a5c6-260a2924500e","ios":"levelo://app?vid=e71494cd-d4a8-436a-a5c6-260a2924500e"},"vehicle_type_id":"4","last_reported":1784201178,"current_range_meters":35600,"station_id":"st_d8gjfg747rts73coq3b0","pricing_plan_id":"cebpf4jnsgd1na2vs0mg"},{"bike_id":"4dd83e35-73dd-44b8-9d3c-9c21e3418d4e","system_id":"levelo_inurba_marseille","lat":43.27482,"lon":5.42565,"is_reserved":false,"is_disabled":false,"rental_uris":{"android":"levelo://app?vid=4dd83e35-73dd-44b8-9d3c-9c21e3418d4e","ios":"levelo://app?vid=4dd83e35-73dd-44b8-9d3c-9c21e3418d4e"},"vehicle_type_id":"4","last_reported":1784201178,"current_range_meters":17600,"station_id":"st_d8t4bh7nbrqs73arha60","pricing_plan_id":"cebpf4jnsgd1na2vs0mg"},{"bike_id":"d671bf15-d315-4cd3-8f25-4adde7eb9a83","system_id":"levelo_inurba_marseille","lat":43.29339,"lon":5.40249,"is_reserved":false,"is_disabled":false,"rental_uris":{"android":"levelo://app?vid=d671bf15-d315-4cd3-8f25-4adde7eb9a83","ios":"levelo://app?vid=d671bf15-d315-4cd3-8f25-4adde7eb9a83"},"vehicle_type_id":"4","last_reported":1784201178,"current_range_meters":18800,"station_id":"","pricing_plan_id":"cebpf4jnsgd1na2vs0mg"},{"bike_id":"d6057eb2-9bb7-4bbb-9d1a-c165943bae0a","system_id":"levelo_inurba_marseille","lat":43.23948,"lon":5.36671,"is_reserved":false,"is_disabled":false,"rental_uris":{"android":"levelo://app?vid=d6057eb2-9bb7-4bbb-9d1a-c165943bae0a","ios":"levelo://app?vid=d6057eb2-9bb7-4bbb-9d1a-c165943bae0a"},"vehicle_type_id":"4","last_reported":1784201178,"current_range_meters":18800,"station_id":"ce4bhi12rcd13ifvqfp0","pricing_plan_id":"cebpf4jnsgd1na2vs0mg"},{"bike_id":"5369b032-dcc5-484a-9b18-671fceb20e9f","system_id":"levelo_inurba_marseille","lat":43.25003,"lon":5.38935,"is_reserved":false,"is_disabled":false,"rental_uris":{"android":"levelo://app?vid=5369b032-dcc5-484a-9b18-671fceb20e9f","ios":"levelo://app?vid=5369b032-dcc5-484a-9b18-671fceb20e9f"},"vehicle_type_id":"4","last_reported":1784201178,"current_range_meters":25600,"station_id":"ce4bhgp2rcd13ifvqfd0","pricing_plan_id":"cebpf4jnsgd1na2vs0mg"},{"bike_id":"8398bafc-26c1-4b7f-b9f3-538c26945961","system_id":"levelo_inurba_marseille","lat":43.27321,"lon":5.39081,"is_reserved":false,"is_disabled":false,"rental_uris":{"android":"levelo://app?vid=8398bafc-26c1-4b7f-b9f3-538c26945961","ios":"levelo://app?vid=8398bafc-26c1-4b7f-b9f3-538c26945961"},"vehicle_type_id":"4","last_reported":1784201178,"current_range_meters":9200,"station_id":"ce4bhgp2rcd13ifvqfe0","pricing_plan_id":"cebpf4jnsgd1na2vs0mg"},{"bike_id":"daf11da9-09e4-45d4-814b-e16971bc59a4","system_id":"levelo_inurba_marseille","lat":43.27966,"lon":5.38713,"is_reserved":false,"is_disabled":true,"rental_uris":{"android":"levelo://app?vid=daf11da9-09e4-45d4-814b-e16971bc59a4","ios":"levelo://app?vid=daf11da9-09e4-45d4-814b-e16971bc59a4"},"vehicle_type_id":"4","last_reported":1784201178,"current_range_meters":28800,"station_id":"ce4bhg12rcd13ifvqf80","pricing_plan_id":"cebpf4jnsgd1na2vs0mg"},{"bike_id":"a4d79a17-63b8-4c7f-b179-79ed9edf9240","system_id":"levelo_inurba_marseille","lat":43.33523,"lon":5.37431,"is_reserved":false,"is_disabled":false,"rental_uris":{"android":"levelo://app?vid=a4d79a17-63b8-4c7f-b179-79ed9edf9240","ios":"levelo://app?vid=a4d79a17-63b8-4c7f-b179-79ed9edf9240"},"vehicle_type_id":"4","last_reported":1784201178,"current_range_meters":36400,"station_id":"st_d46tts09ee8s73dlu43g","pricing_plan_id":"cebpf4jnsgd1na2vs0mg"},{"bike_id":"90f6d1b0-f982-4151-82d6-4e658e527ef7","system_id":"levelo_inurba_marseille","lat":43.25501,"lon":5.37661,"is_reserved":false,"is_disabled":false,"rental_uris":{"android":"levelo://app?vid=90f6d1b0-f982-4151-82d6-4e658e527ef7","ios":"levelo://app?vid=90f6d1b0-f982-4151-82d6-4e658e527ef7"},"vehicle_type_id":"4","last_reported":1784201178,"current_range_meters":39200,"station_id":"ce4bhh12rcd13ifvqff0","pricing_plan_id":"cebpf4jnsgd1na2vs0mg"},{"bike_id":"a67c06bc-a947-4bf2-a376-d76f28182aad","system_id":"levelo_inurba_marseille","lat":43.29984,"lon":5.37147,"is_reserved":false,"is_disabled":false,"rental_uris":{"android":"levelo://app?vid=a67c06bc-a947-4bf2-a376-d76f28182aad","ios":"levelo://app?vid=a67c06bc-a947-4bf2-a376-d76f28182aad"},"vehicle_type_id":"4","last_reported":1784201178,"current_range_meters":39200,"station_id":"ce4bgr92rcd13ifvqc7g","pricing_plan_id":"cebpf4jnsgd1na2vs0mg"},{"bike_id":"92451269-f8d4-4349-bee7-395bf79e1e9a","system_id":"levelo_inurba_marseille","lat":43.29632,"lon":5.37947,"is_reserved":false,"is_disabled":false,"rental_uris":{"android":"levelo://app?vid=92451269-f8d4-4349-bee7-395bf79e1e9a","ios":"levelo://app?vid=92451269-f8d4-4349-bee7-395bf79e1e9a"},"vehicle_type_id":"4","last_reported":1784201178,"current_range_meters":20400,"station_id":"","pricing_plan_id":"cebpf4jnsgd1na2vs0mg"},{"bike_id":"b7b159b6-ba7d-4cd5-9705-b4bb03362319","system_id":"levelo_inurba_marseille","lat":43.28587,"lon":5.38427,"is_reserved":false,"is_disabled":false,"rental_uris":{"android":"levelo://app?vid=b7b159b6-ba7d-4cd5-9705-b4bb03362319","ios":"levelo://app?vid=b7b159b6-ba7d-4cd5-9705-b4bb03362319"},"vehicle_type_id":"4","last_reported":1784201178,"current_range_meters":15200,"station_id":"","pricing_plan_id":"cebpf4jnsgd1na2vs0mg"},{"bike_id":"80fb56c3-c297-4924-b0aa-a22c1dad003d","system_id":"levelo_inurba_marseille","lat":43.28855,"lon":5.42531,"is_reserved":false,"is_disabled":false,"rental_uris":{"android":"levelo://app?vid=80fb56c3-c297-4924-b0aa-a22c1dad003d","ios":"levelo://app?vid=80fb56c3-c297-4924-b0aa-a22c1dad003d"},"vehicle_type_id":"4","last_reported":1784201178,"current_range_meters":25600,"station_id":"st_d3b462108ojc7389ooeg","pricing_plan_id":"cebpf4jnsgd1na2vs0mg"},{"bike_id":"ac66bf58-2e0d-46bc-aba5-4868ad32d068","system_id":"levelo_inurba_marseille","lat":43.28927,"lon":5.36629,"is_reserved":false,"is_disabled":false,"rental_uris":{"android":"levelo://app?vid=ac66bf58-2e0d-46bc-aba5-4868ad32d068","ios":"levelo://app?vid=ac66bf58-2e0d-46bc-aba5-4868ad32d068"},"vehicle_type_id":"4","last_reported":1784201178,"current_range_meters":23200,"station_id":"ce4bhap2rcd13ifvqek0","pricing_plan_id":"cebpf4jnsgd1na2vs0mg"},{"bike_id":"4d103531-dc76-4632-9ed6-3b8eae789ecc","system_id":"levelo_inurba_marseille","lat":43.32096,"lon":5.36753,"is_reserved":false,"is_disabled":false,"rental_uris":{"android":"levelo://app?vid=4d103531-dc76-4632-9ed6-3b8eae789ecc","ios":"levelo://app?vid=4d103531-dc76-4632-9ed6-3b8eae789ecc"},"vehicle_type_id":"4","last_reported":1784201178,"current_range_meters":19200,"station_id":"ce4bhrh2rcd13ifvqhug","pricing_plan_id":"cebpf4jnsgd1na2vs0mg"},{"bike_id":"16be90e9-43f9-4482-b73f-17dd0010f9f8","system_id":"levelo_inurba_marseille","lat":43.26782,"lon":5.39411,"is_reserved":false,"is_disabled":false,"rental_uris":{"android":"levelo://app?vid=16be90e9-43f9-4482-b73f-17dd0010f9f8","ios":"levelo://app?vid=16be90e9-43f9-4482-b73f-17dd0010f9f8"},"vehicle_type_id":"4","last_reported":1784201178,"current_range_meters":8000,"station_id":"ce4bhh12rcd13ifvqfg0","pricing_plan_id":"cebpf4jnsgd1na2vs0mg"},{"bike_id":"ef6880d0-6944-4f6a-8f40-6662368b8f75","system_id":"levelo_inurba_marseille","lat":43.31455,"lon":5.45419,"is_reserved":false,"is_disabled":false,"rental_uris":{"android":"levelo://app?vid=ef6880d0-6944-4f6a-8f40-6662368b8f75","ios":"levelo://app?vid=ef6880d0-6944-4f6a-8f40-6662368b8f75"},"vehicle_type_id":"4","last_reported":1784201178,"current_range_meters":18000,"station_id":"","pricing_plan_id":"cebpf4jnsgd1na2vs0mg"},{"bike_id":"520de34e-cad5-43e6-9d8d-25489f5f76d7","system_id":"levelo_inurba_marseille","lat":43.25554,"lon":5.38254,"is_reserved":false,"is_disabled":false,"rental_uris":{"android":"levelo://app?vid=520de34e-cad5-43e6-9d8d-25489f5f76d7","ios":"levelo://app?vid=520de34e-cad5-43e6-9d8d-25489f5f76d7"},"vehicle_type_id":"4","last_reported":1784201178,"current_range_meters":39200,"station_id":"ce4bhih2rcd13ifvqfs0","pricing_plan_id":"cebpf4jnsgd1na2vs0mg"},{"bike_id":"a2213ae8-2e6d-461a-8999-1b795907cda2","system_id":"levelo_inurba_marseille","lat":43.28613,"lon":5.3988,"is_reserved":false,"is_disabled":false,"rental_uris":{"android":"levelo://app?vid=a2213ae8-2e6d-461a-8999-1b795907cda2","ios":"levelo://app?vid=a2213ae8-2e6d-461a-8999-1b795907cda2"},"vehicle_type_id":"4","last_reported":1784201178,"current_range_meters":28800,"station_id":"st_d4a7ka997mjs738ck50g","pricing_plan_id":"cebpf4jnsgd1na2vs0mg"},{"bike_id":"bf7f46ab-16c0-45b1-9e14-09575cfc67ff","system_id":"levelo_inurba_marseille","lat":43.28633,"lon":5.38659,"is_reserved":false,"is_disabled":true,"rental_uris":{"android":"levelo://app?vid=bf7f46ab-16c0-45b1-9e14-09575cfc67ff","ios":"levelo://app?vid=bf7f46ab-16c0-45b1-9e14-09575cfc67ff"},"vehicle_type_id":"4","last_reported":1784201178,"current_range_meters":36400,"station_id":"ce4bh492rcd13ifvqdug","pricing_plan_id":"cebpf4jnsgd1na2vs0mg"},{"bike_id":"fc69d422-fc1d-45fe-8074-3c79aacfd0fb","system_id":"levelo_inurba_marseille","lat":43.24658,"lon":5.3816,"is_reserved":false,"is_disabled":false,"rental_uris":{"android":"levelo://app?vid=fc69d422-fc1d-45fe-8074-3c79aacfd0fb","ios":"levelo://app?vid=fc69d422-fc1d-45fe-8074-3c79aacfd0fb"},"vehicle_type_id":"4","last_reported":1784201178,"current_range_meters":38000,"station_id":"ce4bhih2rcd13ifvqfr0","pricing_plan_id":"cebpf4jnsgd1na2vs0mg"},{"bike_id":"2aa4704c-7137-4e25-a4ad-300fb81d4c1f","system_id":"levelo_inurba_marseille","lat":43.33535,"lon":5.37467,"is_reserved":false,"is_disabled":false,"rental_uris":{"android":"levelo://app?vid=2aa4704c-7137-4e25-a4ad-300fb81d4c1f","ios":"levelo://app?vid=2aa4704c-7137-4e25-a4ad-300fb81d4c1f"},"vehicle_type_id":"4","last_reported":1784201178,"current_range_meters":27600,"station_id":"st_d46tts09ee8s73dlu43g","pricing_plan_id":"cebpf4jnsgd1na2vs0mg"},{"bike_id":"d183c213-4177-4bf2-b9e0-24872be8a9c8","system_id":"levelo_inurba_marseille","lat":43.28488,"lon":5.48404,"is_reserved":false,"is_disabled":false,"rental_uris":{"android":"levelo://app?vid=d183c213-4177-4bf2-b9e0-24872be8a9c8","ios":"levelo://app?vid=d183c213-4177-4bf2-b9e0-24872be8a9c8"},"vehicle_type_id":"4","last_reported":1784201178,"current_range_meters":24000,"station_id":"st_d3svhcjqgbts73a3dn0g","pricing_plan_id":"cebpf4jnsgd1na2vs0mg"},{"bike_id":"2019d6d1-cb0d-4aa6-9cd9-0a5df7270fd1","system_id":"levelo_inurba_marseille","lat":43.26193,"lon":5.37457,"is_reserved":false,"is_disabled":false,"rental_uris":{"android":"levelo://app?vid=2019d6d1-cb0d-4aa6-9cd9-0a5df7270fd1","ios":"levelo://app?vid=2019d6d1-cb0d-4aa6-9cd9-0a5df7270fd1"},"vehicle_type_id":"4","last_reported":1784201178,"current_range_meters":39200,"station_id":"ce4bhgp2rcd13ifvqfc0","pricing_plan_id":"cebpf4jnsgd1na2vs0mg"},{"bike_id":"b0eee4fe-11fb-47a1-8f86-7ab257f96284","system_id":"levelo_inurba_marseille","lat":43.3316,"lon":5.37708,"is_reserved":false,"is_disabled":false,"rental_uris":{"android":"levelo://app?vid=b0eee4fe-11fb-47a1-8f86-7ab257f96284","ios":"levelo://app?vid=b0eee4fe-11fb-47a1-8f86-7ab257f96284"},"vehicle_type_id":"4","last_reported":1784201178,"current_range_meters":11200,"station_id":"st_d46cu089ee8s73dldbu0","pricing_plan_id":"cebpf4jnsgd1na2vs0mg"},{"bike_id":"77f0b611-8e54-40ee-804a-9a0ef852a88a","system_id":"levelo_inurba_marseille","lat":43.31213,"lon":5.36901,"is_reserved":false,"is_disabled":true,"rental_uris":{"android":"levelo://app?vid=77f0b611-8e54-40ee-804a-9a0ef852a88a","ios":"levelo://app?vid=77f0b611-8e54-40ee-804a-9a0ef852a88a"},"vehicle_type_id":"4","last_reported":1784201178,"current_range_meters":20800,"station_id":"ce4bgl92rcd13ifvqbq0","pricing_plan_id":"cebpf4jnsgd1na2vs0mg"},{"bike_id":"e4e2da61-31a3-435a-b1ec-9bb834559f2e","system_id":"levelo_inurba_marseille","lat":43.25048,"lon":5.38913,"is_reserved":false,"is_disabled":false,"rental_uris":{"android":"levelo://app?vid=e4e2da61-31a3-435a-b1ec-9bb834559f2e","ios":"levelo://app?vid=e4e2da61-31a3-435a-b1ec-9bb834559f2e"},"vehicle_type_id":"4","last_reported":1784201178,"current_range_meters":34000,"station_id":"ce4bhgp2rcd13ifvqfd0","pricing_plan_id":"cebpf4jnsgd1na2vs0mg"},{"bike_id":"e4b57b40-57f8-4ebb-9084-2876cf2f73ec","system_id":"levelo_inurba_marseille","lat":43.3121,"lon":5.36899,"is_reserved":false,"is_disabled":false,"rental_uris":{"android":"levelo://app?vid=e4b57b40-57f8-4ebb-9084-2876cf2f73ec","ios":"levelo://app?vid=e4b57b40-57f8-4ebb-9084-2876cf2f73ec"},"vehicle_type_id":"4","last_reported":1784201178,"current_range_meters":9600,"station_id":"ce4bgl92rcd13ifvqbq0","pricing_plan_id":"cebpf4jnsgd1na2vs0mg"},{"bike_id":"866aa9f7-ad6f-45bb-886c-f290137f6df3","system_id":"levelo_inurba_marseille","lat":43.262,"lon":5.37443,"is_reserved":false,"is_disabled":false,"rental_uris":{"android":"levelo://app?vid=866aa9f7-ad6f-45bb-886c-f290137f6df3","ios":"levelo://app?vid=866aa9f7-ad6f-45bb-886c-f290137f6df3"},"vehicle_type_id":"4","last_reported":1784201178,"current_range_meters":19200,"station_id":"ce4bhgp2rcd13ifvqfc0","pricing_plan_id":"cebpf4jnsgd1na2vs0mg"},{"bike_id":"b3a62ffc-6a5b-474b-a4c7-b0ca0221f865","system_id":"levelo_inurba_marseille","lat":43.28926,"lon":5.38407,"is_reserved":false,"is_disabled":false,"rental_uris":{"android":"levelo://app?vid=b3a62ffc-6a5b-474b-a4c7-b0ca0221f865","ios":"levelo://app?vid=b3a62ffc-6a5b-474b-a4c7-b0ca0221f865"},"vehicle_type_id":"4","last_reported":1784201178,"current_range_meters":27200,"station_id":"ce4bh612rcd13ifvqe6g","pricing_plan_id":"cebpf4jnsgd1na2vs0mg"},{"bike_id":"3d9d15ce-5804-4209-b92a-723f598d0341","system_id":"levelo_inurba_marseille","lat":43.21195,"lon":5.3507,"is_reserved":false,"is_disabled":false,"rental_uris":{"android":"levelo://app?vid=3d9d15ce-5804-4209-b92a-723f598d0341","ios":"levelo://app?vid=3d9d15ce-5804-4209-b92a-723f598d0341"},"vehicle_type_id":"4","last_reported":1784201178,"current_range_meters":18000,"station_id":"st_cvj6sg6p6f1abm77japg","pricing_plan_id":"cebpf4jnsgd1na2vs0mg"},{"bike_id":"c25bb13f-78ac-46ad-85e2-c5fdfafeb5d8","system_id":"levelo_inurba_marseille","lat":43.30169,"lon":5.38159,"is_reserved":false,"is_disabled":false,"rental_uris":{"android":"levelo://app?vid=c25bb13f-78ac-46ad-85e2-c5fdfafeb5d8","ios":"levelo://app?vid=c25bb13f-78ac-46ad-85e2-c5fdfafeb5d8"},"vehicle_type_id":"4","last_reported":1784201178,"current_range_meters":16800,"station_id":"","pricing_plan_id":"cebpf4jnsgd1na2vs0mg"},{"bike_id":"ab715b8e-078d-4ad2-9966-96f1395a3868","system_id":"levelo_inurba_marseille","lat":43.29891,"lon":5.43675,"is_reserved":false,"is_disabled":false,"rental_uris":{"android":"levelo://app?vid=ab715b8e-078d-4ad2-9966-96f1395a3868","ios":"levelo://app?vid=ab715b8e-078d-4ad2-9966-96f1395a3868"},"vehicle_type_id":"4","last_reported":1784201178,"current_range_meters":14800,"station_id":"ce4bhpp2rcd13ifvqhfg","pricing_plan_id":"cebpf4jnsgd1na2vs0mg"},{"bike_id":"6cd48a31-aaa8-4146-8aa2-c9360304ef60","system_id":"levelo_inurba_marseille","lat":43.27817,"lon":5.40711,"is_reserved":false,"is_disabled":false,"rental_uris":{"android":"levelo://app?vid=6cd48a31-aaa8-4146-8aa2-c9360304ef60","ios":"levelo://app?vid=6cd48a31-aaa8-4146-8aa2-c9360304ef60"},"vehicle_type_id":"4","last_reported":1784201178,"current_range_meters":14000,"station_id":"ce4bhnh2rcd13ifvqgtg","pricing_plan_id":"cebpf4jnsgd1na2vs0mg"},{"bike_id":"e1bb6861-ee59-438c-aa2a-2a553b2d6f43","system_id":"levelo_inurba_marseille","lat":43.27192,"lon":5.41,"is_reserved":false,"is_disabled":true,"rental_uris":{"android":"levelo://app?vid=e1bb6861-ee59-438c-aa2a-2a553b2d6f43","ios":"levelo://app?vid=e1bb6861-ee59-438c-aa2a-2a553b2d6f43"},"vehicle_type_id":"4","last_reported":1784201178,"current_range_meters":37600,"station_id":"ce4bhl12rcd13ifvqgf0","pricing_plan_id":"cebpf4jnsgd1na2vs0mg"},{"bike_id":"d61f5f42-3266-4ab9-bc4e-5a83331a7ece","system_id":"levelo_inurba_marseille","lat":43.2556,"lon":5.38217,"is_reserved":false,"is_disabled":true,"rental_uris":{"android":"levelo://app?vid=d61f5f42-3266-4ab9-bc4e-5a83331a7ece","ios":"levelo://app?vid=d61f5f42-3266-4ab9-bc4e-5a83331a7ece"},"vehicle_type_id":"4","last_reported":1784201178,"current_range_meters":36000,"station_id":"ce4bhih2rcd13ifvqfs0","pricing_plan_id":"cebpf4jnsgd1na2vs0mg"},{"bike_id":"06097b1f-6886-48c9-a8e6-84f03d133de4","system_id":"levelo_inurba_marseille","lat":43.31344,"lon":5.43232,"is_reserved":false,"is_disabled":false,"rental_uris":{"android":"levelo://app?vid=06097b1f-6886-48c9-a8e6-84f03d133de4","ios":"levelo://app?vid=06097b1f-6886-48c9-a8e6-84f03d133de4"},"vehicle_type_id":"4","last_reported":1784201178,"current_range_meters":6800,"station_id":"","pricing_plan_id":"cebpf4jnsgd1na2vs0mg"},{"bike_id":"34c5b572-acfb-4138-9633-fe327799f420","system_id":"levelo_inurba_marseille","lat":43.29542,"lon":5.36126,"is_reserved":false,"is_disabled":true,"rental_uris":{"android":"levelo://app?vid=34c5b572-acfb-4138-9633-fe327799f420","ios":"levelo://app?vid=34c5b572-acfb-4138-9633-fe327799f420"},"vehicle_type_id":"4","last_reported":1784201178,"current_range_meters":36000,"station_id":"","pricing_plan_id":"cebpf4jnsgd1na2vs0mg"},{"bike_id":"c70a5a1a-1138-428e-9352-e5f388c6b2fe","system_id":"levelo_inurba_marseille","lat":43.33752,"lon":5.37473,"is_reserved":false,"is_disabled":false,"rental_uris":{"android":"levelo://app?vid=c70a5a1a-1138-428e-9352-e5f388c6b2fe","ios":"levelo://app?vid=c70a5a1a-1138-428e-9352-e5f388c6b2fe"},"vehicle_type_id":"4","last_reported":1784201178,"current_range_meters":31200,"station_id":"","pricing_plan_id":"cebpf4jnsgd1na2vs0mg"},{"bike_id":"448ab149-1e23-45d2-8d41-536c144b6b21","system_id":"levelo_inurba_marseille","lat":43.31751,"lon":5.39018,"is_reserved":false,"is_disabled":false,"rental_uris":{"android":"levelo://app?vid=448ab149-1e23-45d2-8d41-536c144b6b21","ios":"levelo://app?vid=448ab149-1e23-45d2-8d41-536c144b6b21"},"vehicle_type_id":"4","last_reported":1784201178,"current_range_meters":17200,"station_id":"ce4bhqp2rcd13ifvqhng","pricing_plan_id":"cebpf4jnsgd1na2vs0mg"},{"bike_id":"e4069052-09f3-4aad-a4cf-82efe46eca69","system_id":"levelo_inurba_marseille","lat":43.2435,"lon":5.37059,"is_reserved":false,"is_disabled":false,"rental_uris":{"android":"levelo://app?vid=e4069052-09f3-4aad-a4cf-82efe46eca69","ios":"levelo://app?vid=e4069052-09f3-4aad-a4cf-82efe46eca69"},"vehicle_type_id":"4","last_reported":1784201178,"current_range_meters":39200,"station_id":"ce4bhhh2rcd13ifvqfk0","pricing_plan_id":"cebpf4jnsgd1na2vs0mg"},{"bike_id":"2623e023-e953-40ac-8068-15d2169ca99d","system_id":"levelo_inurba_marseille","lat":43.28689,"lon":5.46687,"is_reserved":false,"is_disabled":false,"rental_uris":{"android":"levelo://app?vid=2623e023-e953-40ac-8068-15d2169ca99d","ios":"levelo://app?vid=2623e023-e953-40ac-8068-15d2169ca99d"},"vehicle_type_id":"4","last_reported":1784201178,"current_range_meters":9600,"station_id":"st_d6tc3vkotcvc738tfjhg","pricing_plan_id":"cebpf4jnsgd1na2vs0mg"},{"bike_id":"91d816cf-f38d-4dae-9bb2-984028963317","system_id":"levelo_inurba_marseille","lat":43.30912,"lon":5.36868,"is_reserved":false,"is_disabled":false,"rental_uris":{"android":"levelo://app?vid=91d816cf-f38d-4dae-9bb2-984028963317","ios":"levelo://app?vid=91d816cf-f38d-4dae-9bb2-984028963317"},"vehicle_type_id":"4","last_reported":1784201178,"current_range_meters":29600,"station_id":"ce4bgn92rcd13ifvqbvg","pricing_plan_id":"cebpf4jnsgd1na2vs0mg"},{"bike_id":"7a5203cf-b3c3-4680-afa1-0e3d4d1fb7e2","system_id":"levelo_inurba_marseille","lat":43.23893,"lon":5.37452,"is_reserved":false,"is_disabled":false,"rental_uris":{"android":"levelo://app?vid=7a5203cf-b3c3-4680-afa1-0e3d4d1fb7e2","ios":"levelo://app?vid=7a5203cf-b3c3-4680-afa1-0e3d4d1fb7e2"},"vehicle_type_id":"4","last_reported":1784201178,"current_range_meters":38000,"station_id":"st_d6sm7csbq4hs73f8fpjg","pricing_plan_id":"cebpf4jnsgd1na2vs0mg"},{"bike_id":"69b6ed8c-1f17-46c2-8d4a-815055a3a3c4","system_id":"levelo_inurba_marseille","lat":43.28998,"lon":5.35629,"is_reserved":false,"is_disabled":true,"rental_uris":{"android":"levelo://app?vid=69b6ed8c-1f17-46c2-8d4a-815055a3a3c4","ios":"levelo://app?vid=69b6ed8c-1f17-46c2-8d4a-815055a3a3c4"},"vehicle_type_id":"4","last_reported":1784201178,"current_range_meters":39200,"station_id":"ce4bhb92rcd13ifvqen0","pricing_plan_id":"cebpf4jnsgd1na2vs0mg"},{"bike_id":"cc214f4a-b71e-44a8-91b4-5b520b9454cf","system_id":"levelo_inurba_marseille","lat":43.32534,"lon":5.41494,"is_reserved":false,"is_disabled":false,"rental_uris":{"android":"levelo://app?vid=cc214f4a-b71e-44a8-91b4-5b520b9454cf","ios":"levelo://app?vid=cc214f4a-b71e-44a8-91b4-5b520b9454cf"},"vehicle_type_id":"4","last_reported":1784201178,"current_range_meters":19200,"station_id":"ce4bhq12rcd13ifvqhhg","pricing_plan_id":"cebpf4jnsgd1na2vs0mg"},{"bike_id":"a31d2f72-bd22-475c-b112-1dbd4c70729b","system_id":"levelo_inurba_marseille","lat":43.28945,"lon":5.36393,"is_reserved":false,"is_disabled":true,"rental_uris":{"android":"levelo://app?vid=a31d2f72-bd22-475c-b112-1dbd4c70729b","ios":"levelo://app?vid=a31d2f72-bd22-475c-b112-1dbd4c70729b"},"vehicle_type_id":"4","last_reported":1784201178,"current_range_meters":0,"station_id":"","pricing_plan_id":"cebpf4jnsgd1na2vs0mg"},{"bike_id":"808d2ec1-3935-40a5-96bc-b4bf46a290f6","system_id":"levelo_inurba_marseille","lat":43.29272,"lon":5.40117,"is_reserved":false,"is_disabled":true,"rental_uris":{"android":"levelo://app?vid=808d2ec1-3935-40a5-96bc-b4bf46a290f6","ios":"levelo://app?vid=808d2ec1-3935-40a5-96bc-b4bf46a290f6"},"vehicle_type_id":"4","last_reported":1784201178,"current_range_meters":38000,"station_id":"ce4bh312rcd13ifvqdk0","pricing_plan_id":"cebpf4jnsgd1na2vs0mg"},{"bike_id":"f9b04cff-0426-44bb-9440-4e9193de90d6","system_id":"levelo_inurba_marseille","lat":43.31277,"lon":5.37013,"is_reserved":false,"is_disabled":false,"rental_uris":{"android":"levelo://app?vid=f9b04cff-0426-44bb-9440-4e9193de90d6","ios":"levelo://app?vid=f9b04cff-0426-44bb-9440-4e9193de90d6"},"vehicle_type_id":"4","last_reported":1784201178,"current_range_meters":38800,"station_id":"","pricing_plan_id":"cebpf4jnsgd1na2vs0mg"},{"bike_id":"8ebae504-b9c3-42d1-8b8b-f8c2ea4bcda3","system_id":"levelo_inurba_marseille","lat":43.27995,"lon":5.38268,"is_reserved":false,"is_disabled":false,"rental_uris":{"android":"levelo://app?vid=8ebae504-b9c3-42d1-8b8b-f8c2ea4bcda3","ios":"levelo://app?vid=8ebae504-b9c3-42d1-8b8b-f8c2ea4bcda3"},"vehicle_type_id":"4","last_reported":1784201178,"current_range_meters":29600,"station_id":"","pricing_plan_id":"cebpf4jnsgd1na2vs0mg"},{"bike_id":"d53aa255-e8ee-473c-bec9-d23ab834a76d","system_id":"levelo_inurba_marseille","lat":43.28149,"lon":5.42661,"is_reserved":false,"is_disabled":false,"rental_uris":{"android":"levelo://app?vid=d53aa255-e8ee-473c-bec9-d23ab834a76d","ios":"levelo://app?vid=d53aa255-e8ee-473c-bec9-d23ab834a76d"},"vehicle_type_id":"4","last_reported":1784201178,"current_range_meters":36000,"station_id":"ce4bhnh2rcd13ifvqgug","pricing_plan_id":"cebpf4jnsgd1na2vs0mg"},{"bike_id":"8a7e0b48-8513-4837-9a02-cc567024b920","system_id":"levelo_inurba_marseille","lat":43.29968,"lon":5.37175,"is_reserved":false,"is_disabled":false,"rental_uris":{"android":"levelo://app?vid=8a7e0b48-8513-4837-9a02-cc567024b920","ios":"levelo://app?vid=8a7e0b48-8513-4837-9a02-cc567024b920"},"vehicle_type_id":"4","last_reported":1784201178,"current_range_meters":34800,"station_id":"ce4bgr92rcd13ifvqc7g","pricing_plan_id":"cebpf4jnsgd1na2vs0mg"},{"bike_id":"10ef5bd0-f130-4452-b7f2-391aef329ae1","system_id":"levelo_inurba_marseille","lat":43.28151,"lon":5.42651,"is_reserved":false,"is_disabled":false,"rental_uris":{"android":"levelo://app?vid=10ef5bd0-f130-4452-b7f2-391aef329ae1","ios":"levelo://app?vid=10ef5bd0-f130-4452-b7f2-391aef329ae1"},"vehicle_type_id":"4","last_reported":1784201178,"current_range_meters":36800,"station_id":"ce4bhnh2rcd13ifvqgug","pricing_plan_id":"cebpf4jnsgd1na2vs0mg"},{"bike_id":"dc6c3e72-c6f7-41ad-a1e1-9713f0efd569","system_id":"levelo_inurba_marseille","lat":43.25936,"lon":5.40902,"is_reserved":false,"is_disabled":false,"rental_uris":{"android":"levelo://app?vid=dc6c3e72-c6f7-41ad-a1e1-9713f0efd569","ios":"levelo://app?vid=dc6c3e72-c6f7-41ad-a1e1-9713f0efd569"},"vehicle_type_id":"4","last_reported":1784201178,"current_range_meters":39200,"station_id":"ce4bhm92rcd13ifvqglg","pricing_plan_id":"cebpf4jnsgd1na2vs0mg"},{"bike_id":"8ba7f2d6-52d3-4c56-b19a-19a142e62779","system_id":"levelo_inurba_marseille","lat":43.24068,"lon":5.37756,"is_reserved":false,"is_disabled":false,"rental_uris":{"android":"levelo://app?vid=8ba7f2d6-52d3-4c56-b19a-19a142e62779","ios":"levelo://app?vid=8ba7f2d6-52d3-4c56-b19a-19a142e62779"},"vehicle_type_id":"4","last_reported":1784201178,"current_range_meters":20000,"station_id":"ce4bhnp2rcd13ifvqgvg","pricing_plan_id":"cebpf4jnsgd1na2vs0mg"},{"bike_id":"3df7b3ee-3083-4a49-a1f1-8ec2f9d7ba3b","system_id":"levelo_inurba_marseille","lat":43.26067,"lon":5.39385,"is_reserved":false,"is_disabled":false,"rental_uris":{"android":"levelo://app?vid=3df7b3ee-3083-4a49-a1f1-8ec2f9d7ba3b","ios":"levelo://app?vid=3df7b3ee-3083-4a49-a1f1-8ec2f9d7ba3b"},"vehicle_type_id":"4","last_reported":1784201178,"current_range_meters":31200,"station_id":"ce4bhh92rcd13ifvqfj0","pricing_plan_id":"cebpf4jnsgd1na2vs0mg"},{"bike_id":"8046da25-79fd-4646-8634-d6ee96ed332c","system_id":"levelo_inurba_marseille","lat":43.25483,"lon":5.37671,"is_reserved":false,"is_disabled":false,"rental_uris":{"android":"levelo://app?vid=8046da25-79fd-4646-8634-d6ee96ed332c","ios":"levelo://app?vid=8046da25-79fd-4646-8634-d6ee96ed332c"},"vehicle_type_id":"4","last_reported":1784201178,"current_range_meters":38400,"station_id":"ce4bhh12rcd13ifvqff0","pricing_plan_id":"cebpf4jnsgd1na2vs0mg"},{"bike_id":"06673c14-94ed-4eb5-ac49-41767b0b5282","system_id":"levelo_inurba_marseille","lat":43.265481,"lon":5.372848,"is_reserved":false,"is_disabled":false,"rental_uris":{"android":"levelo://app?vid=06673c14-94ed-4eb5-ac49-41767b0b5282","ios":"levelo://app?vid=06673c14-94ed-4eb5-ac49-41767b0b5282"},"vehicle_type_id":"4","last_reported":1784201178,"current_range_meters":36000,"station_id":"ce4bhgh2rcd13ifvqfa0","pricing_plan_id":"cebpf4jnsgd1na2vs0mg"},{"bike_id":"58875846-1130-490b-aa9f-75b680771617","system_id":"levelo_inurba_marseille","lat":43.27339,"lon":5.39097,"is_reserved":false,"is_disabled":false,"rental_uris":{"android":"levelo://app?vid=58875846-1130-490b-aa9f-75b680771617","ios":"levelo://app?vid=58875846-1130-490b-aa9f-75b680771617"},"vehicle_type_id":"4","last_reported":1784201178,"current_range_meters":17600,"station_id":"ce4bhgp2rcd13ifvqfe0","pricing_plan_id":"cebpf4jnsgd1na2vs0mg"},{"bike_id":"95ca0487-d239-4a69-ad73-d33a3a40fd9b","system_id":"levelo_inurba_marseille","lat":43.30528,"lon":5.36692,"is_reserved":false,"is_disabled":false,"rental_uris":{"android":"levelo://app?vid=95ca0487-d239-4a69-ad73-d33a3a40fd9b","ios":"levelo://app?vid=95ca0487-d239-4a69-ad73-d33a3a40fd9b"},"vehicle_type_id":"4","last_reported":1784201178,"current_range_meters":15200,"station_id":"ce4bgrp2rcd13ifvqc9g","pricing_plan_id":"cebpf4jnsgd1na2vs0mg"},{"bike_id":"57091f55-05a7-48f3-b9de-2a363c338c85","system_id":"levelo_inurba_marseille","lat":43.23888,"lon":5.37473,"is_reserved":false,"is_disabled":false,"rental_uris":{"android":"levelo://app?vid=57091f55-05a7-48f3-b9de-2a363c338c85","ios":"levelo://app?vid=57091f55-05a7-48f3-b9de-2a363c338c85"},"vehicle_type_id":"4","last_reported":1784201178,"current_range_meters":39200,"station_id":"st_d6sm7csbq4hs73f8fpjg","pricing_plan_id":"cebpf4jnsgd1na2vs0mg"},{"bike_id":"5ee03f4b-159d-426a-a2ca-0b6a084e3698","system_id":"levelo_inurba_marseille","lat":43.23772,"lon":5.36673,"is_reserved":false,"is_disabled":false,"rental_uris":{"android":"levelo://app?vid=5ee03f4b-159d-426a-a2ca-0b6a084e3698","ios":"levelo://app?vid=5ee03f4b-159d-426a-a2ca-0b6a084e3698"},"vehicle_type_id":"4","last_reported":1784201178,"current_range_meters":32400,"station_id":"st_d3nk18o9ro0c73en2l3g","pricing_plan_id":"cebpf4jnsgd1na2vs0mg"},{"bike_id":"3881a700-b2f5-47cf-af67-157f64684ce7","system_id":"levelo_inurba_marseille","lat":43.27261,"lon":5.38899,"is_reserved":false,"is_disabled":true,"rental_uris":{"android":"levelo://app?vid=3881a700-b2f5-47cf-af67-157f64684ce7","ios":"levelo://app?vid=3881a700-b2f5-47cf-af67-157f64684ce7"},"vehicle_type_id":"4","last_reported":1784201178,"current_range_meters":0,"station_id":"","pricing_plan_id":"cebpf4jnsgd1na2vs0mg"},{"bike_id":"e9700518-bfab-4e19-9c8e-e3cb6414cf72","system_id":"levelo_inurba_marseille","lat":43.29182,"lon":5.35806,"is_reserved":false,"is_disabled":true,"rental_uris":{"android":"levelo://app?vid=e9700518-bfab-4e19-9c8e-e3cb6414cf72","ios":"levelo://app?vid=e9700518-bfab-4e19-9c8e-e3cb6414cf72"},"vehicle_type_id":"4","last_reported":1784201178,"current_range_meters":16400,"station_id":"ce4bhb12rcd13ifvqel0","pricing_plan_id":"cebpf4jnsgd1na2vs0mg"},{"bike_id":"4474154d-4ccb-41d1-b816-cd3782e9caee","system_id":"levelo_inurba_marseille","lat":43.24171,"lon":5.3973,"is_reserved":false,"is_disabled":false,"rental_uris":{"android":"levelo://app?vid=4474154d-4ccb-41d1-b816-cd3782e9caee","ios":"levelo://app?vid=4474154d-4ccb-41d1-b816-cd3782e9caee"},"vehicle_type_id":"4","last_reported":1784201178,"current_range_meters":12400,"station_id":"ce4bhn12rcd13ifvqgpg","pricing_plan_id":"cebpf4jnsgd1na2vs0mg"},{"bike_id":"ac84ea2b-27b9-42b3-9dda-35721fc128f1","system_id":"levelo_inurba_marseille","lat":43.29703,"lon":5.40083,"is_reserved":false,"is_disabled":false,"rental_uris":{"android":"levelo://app?vid=ac84ea2b-27b9-42b3-9dda-35721fc128f1","ios":"levelo://app?vid=ac84ea2b-27b9-42b3-9dda-35721fc128f1"},"vehicle_type_id":"4","last_reported":1784201178,"current_range_meters":28000,"station_id":"","pricing_plan_id":"cebpf4jnsgd1na2vs0mg"},{"bike_id":"37f24aa5-1057-468b-97f5-57f784dbd975","system_id":"levelo_inurba_marseille","lat":43.28848,"lon":5.35853,"is_reserved":false,"is_disabled":false,"rental_uris":{"android":"levelo://app?vid=37f24aa5-1057-468b-97f5-57f784dbd975","ios":"levelo://app?vid=37f24aa5-1057-468b-97f5-57f784dbd975"},"vehicle_type_id":"4","last_reported":1784201178,"current_range_meters":35200,"station_id":"ce4bhb12rcd13ifvqem0","pricing_plan_id":"cebpf4jnsgd1na2vs0mg"},{"bike_id":"e0803759-cfd9-40f6-9087-4b2836a17e9a","system_id":"levelo_inurba_marseille","lat":43.24165,"lon":5.36402,"is_reserved":false,"is_disabled":false,"rental_uris":{"android":"levelo://app?vid=e0803759-cfd9-40f6-9087-4b2836a17e9a","ios":"levelo://app?vid=e0803759-cfd9-40f6-9087-4b2836a17e9a"},"vehicle_type_id":"4","last_reported":1784201178,"current_range_meters":22800,"station_id":"cpo36qri1sfpv3e86is0","pricing_plan_id":"cebpf4jnsgd1na2vs0mg"},{"bike_id":"4a7eaf6c-ea42-4513-9dcf-f7f08fab0fdb","system_id":"levelo_inurba_marseille","lat":43.31342,"lon":5.38177,"is_reserved":false,"is_disabled":false,"rental_uris":{"android":"levelo://app?vid=4a7eaf6c-ea42-4513-9dcf-f7f08fab0fdb","ios":"levelo://app?vid=4a7eaf6c-ea42-4513-9dcf-f7f08fab0fdb"},"vehicle_type_id":"4","last_reported":1784201178,"current_range_meters":23200,"station_id":"","pricing_plan_id":"cebpf4jnsgd1na2vs0mg"},{"bike_id":"219d519e-2e68-40c6-b96c-2d1a4dd240a2","system_id":"levelo_inurba_marseille","lat":43.24676,"lon":5.38133,"is_reserved":false,"is_disabled":false,"rental_uris":{"android":"levelo://app?vid=219d519e-2e68-40c6-b96c-2d1a4dd240a2","ios":"levelo://app?vid=219d519e-2e68-40c6-b96c-2d1a4dd240a2"},"vehicle_type_id":"4","last_reported":1784201178,"current_range_meters":24800,"station_id":"ce4bhih2rcd13ifvqfr0","pricing_plan_id":"cebpf4jnsgd1na2vs0mg"},{"bike_id":"6f30e003-134a-42e4-8645-26d14eff6577","system_id":"levelo_inurba_marseille","lat":43.31692,"lon":5.40464,"is_reserved":false,"is_disabled":false,"rental_uris":{"android":"levelo://app?vid=6f30e003-134a-42e4-8645-26d14eff6577","ios":"levelo://app?vid=6f30e003-134a-42e4-8645-26d14eff6577"},"vehicle_type_id":"4","last_reported":1784201178,"current_range_meters":26000,"station_id":"ce4bh012rcd13ifvqd00","pricing_plan_id":"cebpf4jnsgd1na2vs0mg"},{"bike_id":"30aa77a3-d3f3-4a13-8baa-78f619385def","system_id":"levelo_inurba_marseille","lat":43.30115,"lon":5.38104,"is_reserved":false,"is_disabled":false,"rental_uris":{"android":"levelo://app?vid=30aa77a3-d3f3-4a13-8baa-78f619385def","ios":"levelo://app?vid=30aa77a3-d3f3-4a13-8baa-78f619385def"},"vehicle_type_id":"4","last_reported":1784201178,"current_range_meters":31200,"station_id":"ce4bgjp2rcd13ifvqbh0","pricing_plan_id":"cebpf4jnsgd1na2vs0mg"},{"bike_id":"faf68864-cf80-40f3-9cc5-49e0641de807","system_id":"levelo_inurba_marseille","lat":43.25077,"lon":5.39513,"is_reserved":false,"is_disabled":false,"rental_uris":{"android":"levelo://app?vid=faf68864-cf80-40f3-9cc5-49e0641de807","ios":"levelo://app?vid=faf68864-cf80-40f3-9cc5-49e0641de807"},"vehicle_type_id":"4","last_reported":1784201178,"current_range_meters":32800,"station_id":"ce4bhm12rcd13ifvqgkg","pricing_plan_id":"cebpf4jnsgd1na2vs0mg"},{"bike_id":"2a2b993b-81f0-401e-a094-df30ccdca63f","system_id":"levelo_inurba_marseille","lat":43.28861,"lon":5.42517,"is_reserved":false,"is_disabled":false,"rental_uris":{"android":"levelo://app?vid=2a2b993b-81f0-401e-a094-df30ccdca63f","ios":"levelo://app?vid=2a2b993b-81f0-401e-a094-df30ccdca63f"},"vehicle_type_id":"4","last_reported":1784201178,"current_range_meters":36800,"station_id":"st_d3b462108ojc7389ooeg","pricing_plan_id":"cebpf4jnsgd1na2vs0mg"},{"bike_id":"d0dca651-580c-4704-be18-23cce9e78d40","system_id":"levelo_inurba_marseille","lat":43.23969,"lon":5.36645,"is_reserved":false,"is_disabled":false,"rental_uris":{"android":"levelo://app?vid=d0dca651-580c-4704-be18-23cce9e78d40","ios":"levelo://app?vid=d0dca651-580c-4704-be18-23cce9e78d40"},"vehicle_type_id":"4","last_reported":1784201178,"current_range_meters":14400,"station_id":"ce4bhi12rcd13ifvqfp0","pricing_plan_id":"cebpf4jnsgd1na2vs0mg"},{"bike_id":"81587832-75ed-49cd-91c3-f57f9b8cec45","system_id":"levelo_inurba_marseille","lat":43.29045,"lon":5.35945,"is_reserved":false,"is_disabled":true,"rental_uris":{"android":"levelo://app?vid=81587832-75ed-49cd-91c3-f57f9b8cec45","ios":"levelo://app?vid=81587832-75ed-49cd-91c3-f57f9b8cec45"},"vehicle_type_id":"4","last_reported":1784201178,"current_range_meters":16400,"station_id":"ce4bha92rcd13ifvqeg0","pricing_plan_id":"cebpf4jnsgd1na2vs0mg"},{"bike_id":"d4037206-0988-49a5-9589-9cf52ca0b5da","system_id":"levelo_inurba_marseille","lat":43.3034,"lon":5.40724,"is_reserved":false,"is_disabled":true,"rental_uris":{"android":"levelo://app?vid=d4037206-0988-49a5-9589-9cf52ca0b5da","ios":"levelo://app?vid=d4037206-0988-49a5-9589-9cf52ca0b5da"},"vehicle_type_id":"4","last_reported":1784201178,"current_range_meters":400,"station_id":"","pricing_plan_id":"cebpf4jnsgd1na2vs0mg"},{"bike_id":"75659163-8786-4ea3-87ad-a9a7fc7d1e13","system_id":"levelo_inurba_marseille","lat":43.29524,"lon":5.38542,"is_reserved":false,"is_disabled":false,"rental_uris":{"android":"levelo://app?vid=75659163-8786-4ea3-87ad-a9a7fc7d1e13","ios":"levelo://app?vid=75659163-8786-4ea3-87ad-a9a7fc7d1e13"},"vehicle_type_id":"4","last_reported":1784201178,"current_range_meters":39200,"station_id":"ce4bgih2rcd13ifvqba0","pricing_plan_id":"cebpf4jnsgd1na2vs0mg"},{"bike_id":"bf7c6627-6720-44ee-8638-b78aeed8ac14","system_id":"levelo_inurba_marseille","lat":43.30131,"lon":5.38792,"is_reserved":false,"is_disabled":false,"rental_uris":{"android":"levelo://app?vid=bf7c6627-6720-44ee-8638-b78aeed8ac14","ios":"levelo://app?vid=bf7c6627-6720-44ee-8638-b78aeed8ac14"},"vehicle_type_id":"4","last_reported":1784201178,"current_range_meters":39200,"station_id":"ce4bghh2rcd13ifvqb60","pricing_plan_id":"cebpf4jnsgd1na2vs0mg"},{"bike_id":"91e9874e-f69b-4033-bc2f-90b3c0abdfd7","system_id":"levelo_inurba_marseille","lat":43.30466,"lon":5.37903,"is_reserved":false,"is_disabled":false,"rental_uris":{"android":"levelo://app?vid=91e9874e-f69b-4033-bc2f-90b3c0abdfd7","ios":"levelo://app?vid=91e9874e-f69b-4033-bc2f-90b3c0abdfd7"},"vehicle_type_id":"4","last_reported":1784201178,"current_range_meters":25600,"station_id":"ce4bgup2rcd13ifvqcn0","pricing_plan_id":"cebpf4jnsgd1na2vs0mg"},{"bike_id":"c6ac626d-aef6-478f-8af0-d0de9fa8be85","system_id":"levelo_inurba_marseille","lat":43.22712,"lon":5.34834,"is_reserved":false,"is_disabled":false,"rental_uris":{"android":"levelo://app?vid=c6ac626d-aef6-478f-8af0-d0de9fa8be85","ios":"levelo://app?vid=c6ac626d-aef6-478f-8af0-d0de9fa8be85"},"vehicle_type_id":"4","last_reported":1784201178,"current_range_meters":9200,"station_id":"","pricing_plan_id":"cebpf4jnsgd1na2vs0mg"},{"bike_id":"c9da7c47-759b-4f0e-a2b7-3e4fe38d40ca","system_id":"levelo_inurba_marseille","lat":43.26775,"lon":5.39469,"is_reserved":false,"is_disabled":false,"rental_uris":{"android":"levelo://app?vid=c9da7c47-759b-4f0e-a2b7-3e4fe38d40ca","ios":"levelo://app?vid=c9da7c47-759b-4f0e-a2b7-3e4fe38d40ca"},"vehicle_type_id":"4","last_reported":1784201178,"current_range_meters":36400,"station_id":"","pricing_plan_id":"cebpf4jnsgd1na2vs0mg"},{"bike_id":"e8976180-d139-402b-b8a5-104a73f8a7c2","system_id":"levelo_inurba_marseille","lat":43.29923,"lon":5.43045,"is_reserved":false,"is_disabled":false,"rental_uris":{"android":"levelo://app?vid=e8976180-d139-402b-b8a5-104a73f8a7c2","ios":"levelo://app?vid=e8976180-d139-402b-b8a5-104a73f8a7c2"},"vehicle_type_id":"4","last_reported":1784201178,"current_range_meters":16800,"station_id":"","pricing_plan_id":"cebpf4jnsgd1na2vs0mg"},{"bike_id":"a10f3047-8a4f-4ff8-abec-fcc08107593c","system_id":"levelo_inurba_marseille","lat":43.29531,"lon":5.37481,"is_reserved":false,"is_disabled":false,"rental_uris":{"android":"levelo://app?vid=a10f3047-8a4f-4ff8-abec-fcc08107593c","ios":"levelo://app?vid=a10f3047-8a4f-4ff8-abec-fcc08107593c"},"vehicle_type_id":"4","last_reported":1784201178,"current_range_meters":24400,"station_id":"ce4bgkp2rcd13ifvqbmg","pricing_plan_id":"cebpf4jnsgd1na2vs0mg"},{"bike_id":"0c964dab-40ec-49b5-8e4d-a4ff83f48bf2","system_id":"levelo_inurba_marseille","lat":43.27953,"lon":5.39106,"is_reserved":false,"is_disabled":false,"rental_uris":{"android":"levelo://app?vid=0c964dab-40ec-49b5-8e4d-a4ff83f48bf2","ios":"levelo://app?vid=0c964dab-40ec-49b5-8e4d-a4ff83f48bf2"},"vehicle_type_id":"4","last_reported":1784201178,"current_range_meters":28800,"station_id":"","pricing_plan_id":"cebpf4jnsgd1na2vs0mg"},{"bike_id":"6224e227-7d0a-40cd-8ccc-b2e0d0d9f84f","system_id":"levelo_inurba_marseille","lat":43.31404,"lon":5.38819,"is_reserved":false,"is_disabled":false,"rental_uris":{"android":"levelo://app?vid=6224e227-7d0a-40cd-8ccc-b2e0d0d9f84f","ios":"levelo://app?vid=6224e227-7d0a-40cd-8ccc-b2e0d0d9f84f"},"vehicle_type_id":"4","last_reported":1784201178,"current_range_meters":14800,"station_id":"","pricing_plan_id":"cebpf4jnsgd1na2vs0mg"},{"bike_id":"7ff8118f-6c81-4cdf-8a1d-4753d954065d","system_id":"levelo_inurba_marseille","lat":43.29597,"lon":5.38003,"is_reserved":false,"is_disabled":false,"rental_uris":{"android":"levelo://app?vid=7ff8118f-6c81-4cdf-8a1d-4753d954065d","ios":"levelo://app?vid=7ff8118f-6c81-4cdf-8a1d-4753d954065d"},"vehicle_type_id":"4","last_reported":1784201178,"current_range_meters":14000,"station_id":"","pricing_plan_id":"cebpf4jnsgd1na2vs0mg"},{"bike_id":"7d9aee17-e1b8-4f5e-bcad-64c7c24e1aaf","system_id":"levelo_inurba_marseille","lat":43.29259,"lon":5.4089,"is_reserved":false,"is_disabled":false,"rental_uris":{"android":"levelo://app?vid=7d9aee17-e1b8-4f5e-bcad-64c7c24e1aaf","ios":"levelo://app?vid=7d9aee17-e1b8-4f5e-bcad-64c7c24e1aaf"},"vehicle_type_id":"4","last_reported":1784201178,"current_range_meters":33600,"station_id":"ce4bh192rcd13ifvqdc0","pricing_plan_id":"cebpf4jnsgd1na2vs0mg"},{"bike_id":"de163011-6b02-44c4-8d7f-1c724f9579ae","system_id":"levelo_inurba_marseille","lat":43.2852,"lon":5.44104,"is_reserved":false,"is_disabled":false,"rental_uris":{"android":"levelo://app?vid=de163011-6b02-44c4-8d7f-1c724f9579ae","ios":"levelo://app?vid=de163011-6b02-44c4-8d7f-1c724f9579ae"},"vehicle_type_id":"4","last_reported":1784201178,"current_range_meters":39200,"station_id":"st_d3j3df2ikq2c7380ej80","pricing_plan_id":"cebpf4jnsgd1na2vs0mg"},{"bike_id":"ac2d4b67-f9fa-4d1b-901a-bd7414d97e1d","system_id":"levelo_inurba_marseille","lat":43.29565,"lon":5.40012,"is_reserved":false,"is_disabled":false,"rental_uris":{"android":"levelo://app?vid=ac2d4b67-f9fa-4d1b-901a-bd7414d97e1d","ios":"levelo://app?vid=ac2d4b67-f9fa-4d1b-901a-bd7414d97e1d"},"vehicle_type_id":"4","last_reported":1784201178,"current_range_meters":28800,"station_id":"ce4bh312rcd13ifvqdj0","pricing_plan_id":"cebpf4jnsgd1na2vs0mg"},{"bike_id":"fc2a636f-f5ac-470d-96a8-c91135e5e893","system_id":"levelo_inurba_marseille","lat":43.32481,"lon":5.36562,"is_reserved":false,"is_disabled":false,"rental_uris":{"android":"levelo://app?vid=fc2a636f-f5ac-470d-96a8-c91135e5e893","ios":"levelo://app?vid=fc2a636f-f5ac-470d-96a8-c91135e5e893"},"vehicle_type_id":"4","last_reported":1784201178,"current_range_meters":38400,"station_id":"ce4bhs12rcd13ifvqhvg","pricing_plan_id":"cebpf4jnsgd1na2vs0mg"},{"bike_id":"e7659658-66d6-48ff-8338-aa3dd441e58a","system_id":"levelo_inurba_marseille","lat":43.28482,"lon":5.38534,"is_reserved":false,"is_disabled":false,"rental_uris":{"android":"levelo://app?vid=e7659658-66d6-48ff-8338-aa3dd441e58a","ios":"levelo://app?vid=e7659658-66d6-48ff-8338-aa3dd441e58a"},"vehicle_type_id":"4","last_reported":1784201178,"current_range_meters":9600,"station_id":"ce4bh8p2rcd13ifvqeb0","pricing_plan_id":"cebpf4jnsgd1na2vs0mg"},{"bike_id":"e4ec1182-9638-464e-8e60-c34432d8b038","system_id":"levelo_inurba_marseille","lat":43.26554,"lon":5.37293,"is_reserved":false,"is_disabled":false,"rental_uris":{"android":"levelo://app?vid=e4ec1182-9638-464e-8e60-c34432d8b038","ios":"levelo://app?vid=e4ec1182-9638-464e-8e60-c34432d8b038"},"vehicle_type_id":"4","last_reported":1784201178,"current_range_meters":27200,"station_id":"ce4bhg12rcd13ifvqf70","pricing_plan_id":"cebpf4jnsgd1na2vs0mg"},{"bike_id":"cd6f5861-6bc4-45a9-89b3-024a86c3892b","system_id":"levelo_inurba_marseille","lat":43.31475,"lon":5.37284,"is_reserved":false,"is_disabled":false,"rental_uris":{"android":"levelo://app?vid=cd6f5861-6bc4-45a9-89b3-024a86c3892b","ios":"levelo://app?vid=cd6f5861-6bc4-45a9-89b3-024a86c3892b"},"vehicle_type_id":"4","last_reported":1784201178,"current_range_meters":38000,"station_id":"ce4bgt12rcd13ifvqcd0","pricing_plan_id":"cebpf4jnsgd1na2vs0mg"},{"bike_id":"6b7bc794-a8b6-4b15-bdfb-b2fb240ae758","system_id":"levelo_inurba_marseille","lat":43.28416,"lon":5.34988,"is_reserved":false,"is_disabled":true,"rental_uris":{"android":"levelo://app?vid=6b7bc794-a8b6-4b15-bdfb-b2fb240ae758","ios":"levelo://app?vid=6b7bc794-a8b6-4b15-bdfb-b2fb240ae758"},"vehicle_type_id":"4","last_reported":1784201178,"current_range_meters":40000,"station_id":"ce4bhbh2rcd13ifvqepg","pricing_plan_id":"cebpf4jnsgd1na2vs0mg"},{"bike_id":"9a6436bd-a37a-4da9-9ee6-fc4ee1bfff26","system_id":"levelo_inurba_marseille","lat":43.3054,"lon":5.36555,"is_reserved":false,"is_disabled":false,"rental_uris":{"android":"levelo://app?vid=9a6436bd-a37a-4da9-9ee6-fc4ee1bfff26","ios":"levelo://app?vid=9a6436bd-a37a-4da9-9ee6-fc4ee1bfff26"},"vehicle_type_id":"4","last_reported":1784201178,"current_range_meters":32000,"station_id":"ce4bgs12rcd13ifvqcag","pricing_plan_id":"cebpf4jnsgd1na2vs0mg"},{"bike_id":"8d7266df-00a0-4dbc-8793-34cdde0c699a","system_id":"levelo_inurba_marseille","lat":43.29277,"lon":5.37166,"is_reserved":false,"is_disabled":false,"rental_uris":{"android":"levelo://app?vid=8d7266df-00a0-4dbc-8793-34cdde0c699a","ios":"levelo://app?vid=8d7266df-00a0-4dbc-8793-34cdde0c699a"},"vehicle_type_id":"4","last_reported":1784201178,"current_range_meters":38000,"station_id":"ce4bgh92rcd13ifvqb40","pricing_plan_id":"cebpf4jnsgd1na2vs0mg"},{"bike_id":"d6b0724d-3030-4e7b-8778-a4d582b3070a","system_id":"levelo_inurba_marseille","lat":43.28613,"lon":5.35103,"is_reserved":false,"is_disabled":true,"rental_uris":{"android":"levelo://app?vid=d6b0724d-3030-4e7b-8778-a4d582b3070a","ios":"levelo://app?vid=d6b0724d-3030-4e7b-8778-a4d582b3070a"},"vehicle_type_id":"4","last_reported":1784201178,"current_range_meters":28400,"station_id":"ce4bhch2rcd13ifvqeug","pricing_plan_id":"cebpf4jnsgd1na2vs0mg"},{"bike_id":"41342251-a693-4f22-8756-a27b01d7edb3","system_id":"levelo_inurba_marseille","lat":43.30473,"lon":5.37929,"is_reserved":false,"is_disabled":false,"rental_uris":{"android":"levelo://app?vid=41342251-a693-4f22-8756-a27b01d7edb3","ios":"levelo://app?vid=41342251-a693-4f22-8756-a27b01d7edb3"},"vehicle_type_id":"4","last_reported":1784201178,"current_range_meters":21600,"station_id":"ce4bgup2rcd13ifvqcn0","pricing_plan_id":"cebpf4jnsgd1na2vs0mg"},{"bike_id":"0e616c17-0fd1-41b3-b775-a6e5c193aa79","system_id":"levelo_inurba_marseille","lat":43.30166,"lon":5.38074,"is_reserved":false,"is_disabled":false,"rental_uris":{"android":"levelo://app?vid=0e616c17-0fd1-41b3-b775-a6e5c193aa79","ios":"levelo://app?vid=0e616c17-0fd1-41b3-b775-a6e5c193aa79"},"vehicle_type_id":"4","last_reported":1784201178,"current_range_meters":34000,"station_id":"ce4bgjp2rcd13ifvqbh0","pricing_plan_id":"cebpf4jnsgd1na2vs0mg"},{"bike_id":"819730ff-9834-4af9-9cb3-edb0287b03df","system_id":"levelo_inurba_marseille","lat":43.30878,"lon":5.39627,"is_reserved":false,"is_disabled":false,"rental_uris":{"android":"levelo://app?vid=819730ff-9834-4af9-9cb3-edb0287b03df","ios":"levelo://app?vid=819730ff-9834-4af9-9cb3-edb0287b03df"},"vehicle_type_id":"4","last_reported":1784201178,"current_range_meters":38400,"station_id":"ce4bh012rcd13ifvqcv0","pricing_plan_id":"cebpf4jnsgd1na2vs0mg"},{"bike_id":"30285575-aee2-4891-b4b9-41bc77e11021","system_id":"levelo_inurba_marseille","lat":43.33607,"lon":5.41022,"is_reserved":false,"is_disabled":false,"rental_uris":{"android":"levelo://app?vid=30285575-aee2-4891-b4b9-41bc77e11021","ios":"levelo://app?vid=30285575-aee2-4891-b4b9-41bc77e11021"},"vehicle_type_id":"4","last_reported":1784201178,"current_range_meters":35600,"station_id":"ce4bhqh2rcd13ifvqhmg","pricing_plan_id":"cebpf4jnsgd1na2vs0mg"},{"bike_id":"1e628dec-3141-48e0-b510-1c285ab03f4c","system_id":"levelo_inurba_marseille","lat":43.26388,"lon":5.41047,"is_reserved":false,"is_disabled":true,"rental_uris":{"android":"levelo://app?vid=1e628dec-3141-48e0-b510-1c285ab03f4c","ios":"levelo://app?vid=1e628dec-3141-48e0-b510-1c285ab03f4c"},"vehicle_type_id":"4","last_reported":1784201178,"current_range_meters":4000,"station_id":"st_d4e5ca6na9uc73bfl5fg","pricing_plan_id":"cebpf4jnsgd1na2vs0mg"},{"bike_id":"8337f5b4-2806-4bc0-9f71-af183adb5db8","system_id":"levelo_inurba_marseille","lat":43.231359,"lon":5.437577,"is_reserved":false,"is_disabled":false,"rental_uris":{"android":"levelo://app?vid=8337f5b4-2806-4bc0-9f71-af183adb5db8","ios":"levelo://app?vid=8337f5b4-2806-4bc0-9f71-af183adb5db8"},"vehicle_type_id":"4","last_reported":1784201178,"current_range_meters":4000,"station_id":"","pricing_plan_id":"cebpf4jnsgd1na2vs0mg"},{"bike_id":"0e80f4be-aa62-4d4f-a88f-c49843efcd83","system_id":"levelo_inurba_marseille","lat":43.25085,"lon":5.41354,"is_reserved":false,"is_disabled":true,"rental_uris":{"android":"levelo://app?vid=0e80f4be-aa62-4d4f-a88f-c49843efcd83","ios":"levelo://app?vid=0e80f4be-aa62-4d4f-a88f-c49843efcd83"},"vehicle_type_id":"4","last_reported":1784201178,"current_range_meters":11200,"station_id":"","pricing_plan_id":"cebpf4jnsgd1na2vs0mg"},{"bike_id":"a218384b-25a3-4a33-b23b-628bf79dcde7","system_id":"levelo_inurba_marseille","lat":43.2968,"lon":5.37293,"is_reserved":false,"is_disabled":false,"rental_uris":{"android":"levelo://app?vid=a218384b-25a3-4a33-b23b-628bf79dcde7","ios":"levelo://app?vid=a218384b-25a3-4a33-b23b-628bf79dcde7"},"vehicle_type_id":"4","last_reported":1784201178,"current_range_meters":34800,"station_id":"ce4bgk12rcd13ifvqbj0","pricing_plan_id":"cebpf4jnsgd1na2vs0mg"},{"bike_id":"9816fcfb-fed5-46a5-a828-dec154df7717","system_id":"levelo_inurba_marseille","lat":43.26767,"lon":5.40438,"is_reserved":false,"is_disabled":true,"rental_uris":{"android":"levelo://app?vid=9816fcfb-fed5-46a5-a828-dec154df7717","ios":"levelo://app?vid=9816fcfb-fed5-46a5-a828-dec154df7717"},"vehicle_type_id":"4","last_reported":1784201178,"current_range_meters":30400,"station_id":"ce501612rcd8frsf0b60","pricing_plan_id":"cebpf4jnsgd1na2vs0mg"},{"bike_id":"314807e5-c7e5-4040-98f7-f5b3f656b526","system_id":"levelo_inurba_marseille","lat":43.311114,"lon":5.377829,"is_reserved":false,"is_disabled":false,"rental_uris":{"android":"levelo://app?vid=314807e5-c7e5-4040-98f7-f5b3f656b526","ios":"levelo://app?vid=314807e5-c7e5-4040-98f7-f5b3f656b526"},"vehicle_type_id":"4","last_reported":1784201178,"current_range_meters":6800,"station_id":"ce4bgt92rcd13ifvqcg0","pricing_plan_id":"cebpf4jnsgd1na2vs0mg"},{"bike_id":"d54a2f0e-a437-49cc-9bfe-a3b97e9c8b46","system_id":"levelo_inurba_marseille","lat":43.30896,"lon":5.36863,"is_reserved":false,"is_disabled":false,"rental_uris":{"android":"levelo://app?vid=d54a2f0e-a437-49cc-9bfe-a3b97e9c8b46","ios":"levelo://app?vid=d54a2f0e-a437-49cc-9bfe-a3b97e9c8b46"},"vehicle_type_id":"4","last_reported":1784201178,"current_range_meters":39200,"station_id":"ce4bgn92rcd13ifvqbvg","pricing_plan_id":"cebpf4jnsgd1na2vs0mg"},{"bike_id":"3038bc08-15a5-4f2c-978b-17d6976b7abc","system_id":"levelo_inurba_marseille","lat":43.30549,"lon":5.36536,"is_reserved":false,"is_disabled":false,"rental_uris":{"android":"levelo://app?vid=3038bc08-15a5-4f2c-978b-17d6976b7abc","ios":"levelo://app?vid=3038bc08-15a5-4f2c-978b-17d6976b7abc"},"vehicle_type_id":"4","last_reported":1784201178,"current_range_meters":35200,"station_id":"ce4bgs12rcd13ifvqcag","pricing_plan_id":"cebpf4jnsgd1na2vs0mg"},{"bike_id":"cf0d7808-b9f4-450e-9ac9-de3db44df819","system_id":"levelo_inurba_marseille","lat":43.25825,"lon":5.39427,"is_reserved":false,"is_disabled":false,"rental_uris":{"android":"levelo://app?vid=cf0d7808-b9f4-450e-9ac9-de3db44df819","ios":"levelo://app?vid=cf0d7808-b9f4-450e-9ac9-de3db44df819"},"vehicle_type_id":"4","last_reported":1784201178,"current_range_meters":29600,"station_id":"ce4bhip2rcd13ifvqft0","pricing_plan_id":"cebpf4jnsgd1na2vs0mg"},{"bike_id":"bd529bea-55e2-462e-96f2-84ef02ccf732","system_id":"levelo_inurba_marseille","lat":43.31362,"lon":5.38503,"is_reserved":false,"is_disabled":false,"rental_uris":{"android":"levelo://app?vid=bd529bea-55e2-462e-96f2-84ef02ccf732","ios":"levelo://app?vid=bd529bea-55e2-462e-96f2-84ef02ccf732"},"vehicle_type_id":"4","last_reported":1784201178,"current_range_meters":26800,"station_id":"ce4bgt92rcd13ifvqcf0","pricing_plan_id":"cebpf4jnsgd1na2vs0mg"},{"bike_id":"d5c9c027-ce9b-46f0-b4eb-fc40b239d150","system_id":"levelo_inurba_marseille","lat":43.31313,"lon":5.40104,"is_reserved":false,"is_disabled":true,"rental_uris":{"android":"levelo://app?vid=d5c9c027-ce9b-46f0-b4eb-fc40b239d150","ios":"levelo://app?vid=d5c9c027-ce9b-46f0-b4eb-fc40b239d150"},"vehicle_type_id":"4","last_reported":1784201178,"current_range_meters":1200,"station_id":"","pricing_plan_id":"cebpf4jnsgd1na2vs0mg"},{"bike_id":"93704dec-746e-4db8-9abc-1e5fc281f374","system_id":"levelo_inurba_marseille","lat":43.32701,"lon":5.4126,"is_reserved":false,"is_disabled":false,"rental_uris":{"android":"levelo://app?vid=93704dec-746e-4db8-9abc-1e5fc281f374","ios":"levelo://app?vid=93704dec-746e-4db8-9abc-1e5fc281f374"},"vehicle_type_id":"4","last_reported":1784201178,"current_range_meters":3600,"station_id":"","pricing_plan_id":"cebpf4jnsgd1na2vs0mg"},{"bike_id":"fcfa093f-41ae-4183-8e01-083024d1b782","system_id":"levelo_inurba_marseille","lat":43.27541,"lon":5.3843,"is_reserved":false,"is_disabled":false,"rental_uris":{"android":"levelo://app?vid=fcfa093f-41ae-4183-8e01-083024d1b782","ios":"levelo://app?vid=fcfa093f-41ae-4183-8e01-083024d1b782"},"vehicle_type_id":"4","last_reported":1784201178,"current_range_meters":28400,"station_id":"ce4bhh92rcd13ifvqfi0","pricing_plan_id":"cebpf4jnsgd1na2vs0mg"},{"bike_id":"80cf752a-d38f-456f-8e45-3b8fbbaba193","system_id":"levelo_inurba_marseille","lat":43.29558,"lon":5.37536,"is_reserved":false,"is_disabled":false,"rental_uris":{"android":"levelo://app?vid=80cf752a-d38f-456f-8e45-3b8fbbaba193","ios":"levelo://app?vid=80cf752a-d38f-456f-8e45-3b8fbbaba193"},"vehicle_type_id":"4","last_reported":1784201178,"current_range_meters":38000,"station_id":"ce4bgh92rcd13ifvqb50","pricing_plan_id":"cebpf4jnsgd1na2vs0mg"},{"bike_id":"942148f9-90f2-4171-8f05-98ba0ca85bcb","system_id":"levelo_inurba_marseille","lat":43.28468,"lon":5.48411,"is_reserved":false,"is_disabled":false,"rental_uris":{"android":"levelo://app?vid=942148f9-90f2-4171-8f05-98ba0ca85bcb","ios":"levelo://app?vid=942148f9-90f2-4171-8f05-98ba0ca85bcb"},"vehicle_type_id":"4","last_reported":1784201178,"current_range_meters":14000,"station_id":"st_d3svhcjqgbts73a3dn0g","pricing_plan_id":"cebpf4jnsgd1na2vs0mg"},{"bike_id":"37d28244-f24f-4aa0-98d4-fe4afe063124","system_id":"levelo_inurba_marseille","lat":43.28282,"lon":5.42861,"is_reserved":false,"is_disabled":false,"rental_uris":{"android":"levelo://app?vid=37d28244-f24f-4aa0-98d4-fe4afe063124","ios":"levelo://app?vid=37d28244-f24f-4aa0-98d4-fe4afe063124"},"vehicle_type_id":"4","last_reported":1784201178,"current_range_meters":16800,"station_id":"","pricing_plan_id":"cebpf4jnsgd1na2vs0mg"},{"bike_id":"b2b194ed-86a5-4dc8-b828-5b80e1681197","system_id":"levelo_inurba_marseille","lat":43.2854,"lon":5.44117,"is_reserved":false,"is_disabled":false,"rental_uris":{"android":"levelo://app?vid=b2b194ed-86a5-4dc8-b828-5b80e1681197","ios":"levelo://app?vid=b2b194ed-86a5-4dc8-b828-5b80e1681197"},"vehicle_type_id":"4","last_reported":1784201178,"current_range_meters":25600,"station_id":"st_d3j3df2ikq2c7380ej80","pricing_plan_id":"cebpf4jnsgd1na2vs0mg"},{"bike_id":"0527a6e6-96d3-4e15-a173-f34c876e1251","system_id":"levelo_inurba_marseille","lat":43.30455,"lon":5.37913,"is_reserved":false,"is_disabled":false,"rental_uris":{"android":"levelo://app?vid=0527a6e6-96d3-4e15-a173-f34c876e1251","ios":"levelo://app?vid=0527a6e6-96d3-4e15-a173-f34c876e1251"},"vehicle_type_id":"4","last_reported":1784201178,"current_range_meters":29600,"station_id":"ce4bgup2rcd13ifvqcn0","pricing_plan_id":"cebpf4jnsgd1na2vs0mg"},{"bike_id":"2a93def1-9840-4751-b465-b53bb0ce6123","system_id":"levelo_inurba_marseille","lat":43.22557,"lon":5.41628,"is_reserved":false,"is_disabled":false,"rental_uris":{"android":"levelo://app?vid=2a93def1-9840-4751-b465-b53bb0ce6123","ios":"levelo://app?vid=2a93def1-9840-4751-b465-b53bb0ce6123"},"vehicle_type_id":"4","last_reported":1784201178,"current_range_meters":20800,"station_id":"st_d2o4gvlbi1j2169b742g","pricing_plan_id":"cebpf4jnsgd1na2vs0mg"},{"bike_id":"4a704f50-eef6-4a9a-b6b7-28e63e5355dc","system_id":"levelo_inurba_marseille","lat":43.25087,"lon":5.39524,"is_reserved":false,"is_disabled":false,"rental_uris":{"android":"levelo://app?vid=4a704f50-eef6-4a9a-b6b7-28e63e5355dc","ios":"levelo://app?vid=4a704f50-eef6-4a9a-b6b7-28e63e5355dc"},"vehicle_type_id":"4","last_reported":1784201178,"current_range_meters":28800,"station_id":"ce4bhm12rcd13ifvqgkg","pricing_plan_id":"cebpf4jnsgd1na2vs0mg"},{"bike_id":"2ab8aed6-e4b5-49f6-a596-3523f1008ac8","system_id":"levelo_inurba_marseille","lat":43.28926,"lon":5.38391,"is_reserved":false,"is_disabled":true,"rental_uris":{"android":"levelo://app?vid=2ab8aed6-e4b5-49f6-a596-3523f1008ac8","ios":"levelo://app?vid=2ab8aed6-e4b5-49f6-a596-3523f1008ac8"},"vehicle_type_id":"4","last_reported":1784201178,"current_range_meters":28800,"station_id":"ce4bh612rcd13ifvqe6g","pricing_plan_id":"cebpf4jnsgd1na2vs0mg"},{"bike_id":"10592882-7bed-4bde-a924-b4cdb04c175f","system_id":"levelo_inurba_marseille","lat":43.28149,"lon":5.4265,"is_reserved":false,"is_disabled":false,"rental_uris":{"android":"levelo://app?vid=10592882-7bed-4bde-a924-b4cdb04c175f","ios":"levelo://app?vid=10592882-7bed-4bde-a924-b4cdb04c175f"},"vehicle_type_id":"4","last_reported":1784201178,"current_range_meters":38400,"station_id":"ce4bhnh2rcd13ifvqgug","pricing_plan_id":"cebpf4jnsgd1na2vs0mg"},{"bike_id":"b617c35b-7c51-4687-9948-30e5ef21086e","system_id":"levelo_inurba_marseille","lat":43.28703,"lon":5.46689,"is_reserved":false,"is_disabled":false,"rental_uris":{"android":"levelo://app?vid=b617c35b-7c51-4687-9948-30e5ef21086e","ios":"levelo://app?vid=b617c35b-7c51-4687-9948-30e5ef21086e"},"vehicle_type_id":"4","last_reported":1784201178,"current_range_meters":19200,"station_id":"st_d6tc3vkotcvc738tfjhg","pricing_plan_id":"cebpf4jnsgd1na2vs0mg"},{"bike_id":"2833affa-0043-4e75-98a0-706cbbf38050","system_id":"levelo_inurba_marseille","lat":43.3032,"lon":5.36885,"is_reserved":false,"is_disabled":false,"rental_uris":{"android":"levelo://app?vid=2833affa-0043-4e75-98a0-706cbbf38050","ios":"levelo://app?vid=2833affa-0043-4e75-98a0-706cbbf38050"},"vehicle_type_id":"4","last_reported":1784201178,"current_range_meters":39200,"station_id":"ce4bgqh2rcd13ifvqc5g","pricing_plan_id":"cebpf4jnsgd1na2vs0mg"},{"bike_id":"5e03883a-1f9e-4c31-9c58-cc6feea4589d","system_id":"levelo_inurba_marseille","lat":43.29504,"lon":5.39422,"is_reserved":false,"is_disabled":true,"rental_uris":{"android":"levelo://app?vid=5e03883a-1f9e-4c31-9c58-cc6feea4589d","ios":"levelo://app?vid=5e03883a-1f9e-4c31-9c58-cc6feea4589d"},"vehicle_type_id":"4","last_reported":1784201178,"current_range_meters":22400,"station_id":"ce4bh292rcd13ifvqdf0","pricing_plan_id":"cebpf4jnsgd1na2vs0mg"},{"bike_id":"abd28b51-9db3-4251-8023-1ab1c1cc68c9","system_id":"levelo_inurba_marseille","lat":43.27989,"lon":5.41662,"is_reserved":false,"is_disabled":true,"rental_uris":{"android":"levelo://app?vid=abd28b51-9db3-4251-8023-1ab1c1cc68c9","ios":"levelo://app?vid=abd28b51-9db3-4251-8023-1ab1c1cc68c9"},"vehicle_type_id":"4","last_reported":1784201178,"current_range_meters":27600,"station_id":"ce4bho12rcd13ifvqh1g","pricing_plan_id":"cebpf4jnsgd1na2vs0mg"},{"bike_id":"42bc5409-50f8-41ca-8104-f489ecf81cad","system_id":"levelo_inurba_marseille","lat":43.30136,"lon":5.38107,"is_reserved":false,"is_disabled":false,"rental_uris":{"android":"levelo://app?vid=42bc5409-50f8-41ca-8104-f489ecf81cad","ios":"levelo://app?vid=42bc5409-50f8-41ca-8104-f489ecf81cad"},"vehicle_type_id":"4","last_reported":1784201178,"current_range_meters":32400,"station_id":"ce4bgjp2rcd13ifvqbh0","pricing_plan_id":"cebpf4jnsgd1na2vs0mg"},{"bike_id":"6d32b765-aa0d-46a8-942b-fd272d4b06e6","system_id":"levelo_inurba_marseille","lat":43.27622,"lon":5.36181,"is_reserved":false,"is_disabled":true,"rental_uris":{"android":"levelo://app?vid=6d32b765-aa0d-46a8-942b-fd272d4b06e6","ios":"levelo://app?vid=6d32b765-aa0d-46a8-942b-fd272d4b06e6"},"vehicle_type_id":"4","last_reported":1784201178,"current_range_meters":12000,"station_id":"","pricing_plan_id":"cebpf4jnsgd1na2vs0mg"},{"bike_id":"d2d50482-5abb-4f07-8372-ab40c21c2864","system_id":"levelo_inurba_marseille","lat":43.2892,"lon":5.36369,"is_reserved":false,"is_disabled":false,"rental_uris":{"android":"levelo://app?vid=d2d50482-5abb-4f07-8372-ab40c21c2864","ios":"levelo://app?vid=d2d50482-5abb-4f07-8372-ab40c21c2864"},"vehicle_type_id":"4","last_reported":1784201178,"current_range_meters":39200,"station_id":"ce4bhc92rcd13ifvqetg","pricing_plan_id":"cebpf4jnsgd1na2vs0mg"},{"bike_id":"6565c5ef-861d-4526-b508-a57d82ebeb48","system_id":"levelo_inurba_marseille","lat":43.25902,"lon":5.40874,"is_reserved":false,"is_disabled":false,"rental_uris":{"android":"levelo://app?vid=6565c5ef-861d-4526-b508-a57d82ebeb48","ios":"levelo://app?vid=6565c5ef-861d-4526-b508-a57d82ebeb48"},"vehicle_type_id":"4","last_reported":1784201178,"current_range_meters":39200,"station_id":"ce4bhm92rcd13ifvqglg","pricing_plan_id":"cebpf4jnsgd1na2vs0mg"},{"bike_id":"57889d2e-37dd-4f8f-b3ab-1bc0a62b2215","system_id":"levelo_inurba_marseille","lat":43.3046,"lon":5.37895,"is_reserved":false,"is_disabled":true,"rental_uris":{"android":"levelo://app?vid=57889d2e-37dd-4f8f-b3ab-1bc0a62b2215","ios":"levelo://app?vid=57889d2e-37dd-4f8f-b3ab-1bc0a62b2215"},"vehicle_type_id":"4","last_reported":1784201178,"current_range_meters":28800,"station_id":"ce4bgup2rcd13ifvqcn0","pricing_plan_id":"cebpf4jnsgd1na2vs0mg"},{"bike_id":"adc24b3c-2430-4379-99ca-2af451d0f536","system_id":"levelo_inurba_marseille","lat":43.27951,"lon":5.38735,"is_reserved":false,"is_disabled":false,"rental_uris":{"android":"levelo://app?vid=adc24b3c-2430-4379-99ca-2af451d0f536","ios":"levelo://app?vid=adc24b3c-2430-4379-99ca-2af451d0f536"},"vehicle_type_id":"4","last_reported":1784201178,"current_range_meters":38000,"station_id":"","pricing_plan_id":"cebpf4jnsgd1na2vs0mg"},{"bike_id":"b45f0205-96d2-4bd2-8ac9-1d2877b8b6cb","system_id":"levelo_inurba_marseille","lat":43.30888,"lon":5.39648,"is_reserved":false,"is_disabled":false,"rental_uris":{"android":"levelo://app?vid=b45f0205-96d2-4bd2-8ac9-1d2877b8b6cb","ios":"levelo://app?vid=b45f0205-96d2-4bd2-8ac9-1d2877b8b6cb"},"vehicle_type_id":"4","last_reported":1784201178,"current_range_meters":19600,"station_id":"ce4bh012rcd13ifvqcv0","pricing_plan_id":"cebpf4jnsgd1na2vs0mg"},{"bike_id":"8946fedd-2e32-49ed-b51d-8d2209da3742","system_id":"levelo_inurba_marseille","lat":43.29414,"lon":5.38105,"is_reserved":false,"is_disabled":false,"rental_uris":{"android":"levelo://app?vid=8946fedd-2e32-49ed-b51d-8d2209da3742","ios":"levelo://app?vid=8946fedd-2e32-49ed-b51d-8d2209da3742"},"vehicle_type_id":"4","last_reported":1784201178,"current_range_meters":10800,"station_id":"","pricing_plan_id":"cebpf4jnsgd1na2vs0mg"},{"bike_id":"d8718c52-f51e-4dca-a499-07fae3fae8d4","system_id":"levelo_inurba_marseille","lat":43.29892,"lon":5.43654,"is_reserved":false,"is_disabled":false,"rental_uris":{"android":"levelo://app?vid=d8718c52-f51e-4dca-a499-07fae3fae8d4","ios":"levelo://app?vid=d8718c52-f51e-4dca-a499-07fae3fae8d4"},"vehicle_type_id":"4","last_reported":1784201178,"current_range_meters":14000,"station_id":"ce4bhpp2rcd13ifvqhfg","pricing_plan_id":"cebpf4jnsgd1na2vs0mg"},{"bike_id":"51905566-557d-413c-97fd-b84daf11e827","system_id":"levelo_inurba_marseille","lat":43.27916,"lon":5.39575,"is_reserved":false,"is_disabled":true,"rental_uris":{"android":"levelo://app?vid=51905566-557d-413c-97fd-b84daf11e827","ios":"levelo://app?vid=51905566-557d-413c-97fd-b84daf11e827"},"vehicle_type_id":"4","last_reported":1784201178,"current_range_meters":33200,"station_id":"ce4bhf92rcd13ifvqf40","pricing_plan_id":"cebpf4jnsgd1na2vs0mg"},{"bike_id":"62fd6a9c-2404-45bf-a735-0f6e7264c9dd","system_id":"levelo_inurba_marseille","lat":43.23776,"lon":5.36642,"is_reserved":false,"is_disabled":false,"rental_uris":{"android":"levelo://app?vid=62fd6a9c-2404-45bf-a735-0f6e7264c9dd","ios":"levelo://app?vid=62fd6a9c-2404-45bf-a735-0f6e7264c9dd"},"vehicle_type_id":"4","last_reported":1784201178,"current_range_meters":20800,"station_id":"st_d3nk18o9ro0c73en2l3g","pricing_plan_id":"cebpf4jnsgd1na2vs0mg"},{"bike_id":"cbd89872-d1a8-46fc-a9d9-10e0fbde500c","system_id":"levelo_inurba_marseille","lat":43.24436,"lon":5.36973,"is_reserved":false,"is_disabled":false,"rental_uris":{"android":"levelo://app?vid=cbd89872-d1a8-46fc-a9d9-10e0fbde500c","ios":"levelo://app?vid=cbd89872-d1a8-46fc-a9d9-10e0fbde500c"},"vehicle_type_id":"4","last_reported":1784201178,"current_range_meters":3600,"station_id":"","pricing_plan_id":"cebpf4jnsgd1na2vs0mg"},{"bike_id":"b67a2936-e79d-4e51-8cc0-158e3eb870e3","system_id":"levelo_inurba_marseille","lat":43.28928,"lon":5.36636,"is_reserved":false,"is_disabled":false,"rental_uris":{"android":"levelo://app?vid=b67a2936-e79d-4e51-8cc0-158e3eb870e3","ios":"levelo://app?vid=b67a2936-e79d-4e51-8cc0-158e3eb870e3"},"vehicle_type_id":"4","last_reported":1784201178,"current_range_meters":39200,"station_id":"ce4bhap2rcd13ifvqek0","pricing_plan_id":"cebpf4jnsgd1na2vs0mg"},{"bike_id":"aea11bbc-2d6f-4be0-b121-dbc2d33dd165","system_id":"levelo_inurba_marseille","lat":43.32048,"lon":5.41546,"is_reserved":false,"is_disabled":false,"rental_uris":{"android":"levelo://app?vid=aea11bbc-2d6f-4be0-b121-dbc2d33dd165","ios":"levelo://app?vid=aea11bbc-2d6f-4be0-b121-dbc2d33dd165"},"vehicle_type_id":"4","last_reported":1784201178,"current_range_meters":39200,"station_id":"ce4bhq92rcd13ifvqhkg","pricing_plan_id":"cebpf4jnsgd1na2vs0mg"},{"bike_id":"20a98f79-2fac-4fe5-ac9d-8620e2faaa77","system_id":"levelo_inurba_marseille","lat":43.33023,"lon":5.3904,"is_reserved":false,"is_disabled":false,"rental_uris":{"android":"levelo://app?vid=20a98f79-2fac-4fe5-ac9d-8620e2faaa77","ios":"levelo://app?vid=20a98f79-2fac-4fe5-ac9d-8620e2faaa77"},"vehicle_type_id":"4","last_reported":1784201178,"current_range_meters":12800,"station_id":"ce4bhr92rcd13ifvqhrg","pricing_plan_id":"cebpf4jnsgd1na2vs0mg"},{"bike_id":"1ca98d4d-044e-429c-891b-6dae77125908","system_id":"levelo_inurba_marseille","lat":43.29974,"lon":5.38484,"is_reserved":false,"is_disabled":false,"rental_uris":{"android":"levelo://app?vid=1ca98d4d-044e-429c-891b-6dae77125908","ios":"levelo://app?vid=1ca98d4d-044e-429c-891b-6dae77125908"},"vehicle_type_id":"4","last_reported":1784201178,"current_range_meters":35600,"station_id":"ce4bgj92rcd13ifvqbd0","pricing_plan_id":"cebpf4jnsgd1na2vs0mg"},{"bike_id":"96825e0c-14e6-44a1-9638-22706c4a0540","system_id":"levelo_inurba_marseille","lat":43.27179,"lon":5.39194,"is_reserved":false,"is_disabled":true,"rental_uris":{"android":"levelo://app?vid=96825e0c-14e6-44a1-9638-22706c4a0540","ios":"levelo://app?vid=96825e0c-14e6-44a1-9638-22706c4a0540"},"vehicle_type_id":"4","last_reported":1784201178,"current_range_meters":12000,"station_id":"ce4bhhp2rcd13ifvqfm0","pricing_plan_id":"cebpf4jnsgd1na2vs0mg"},{"bike_id":"13c67d10-4be5-40a6-a763-47bbc79ea4b7","system_id":"levelo_inurba_marseille","lat":43.258259,"lon":5.394385,"is_reserved":false,"is_disabled":false,"rental_uris":{"android":"levelo://app?vid=13c67d10-4be5-40a6-a763-47bbc79ea4b7","ios":"levelo://app?vid=13c67d10-4be5-40a6-a763-47bbc79ea4b7"},"vehicle_type_id":"4","last_reported":1784201178,"current_range_meters":38400,"station_id":"cpo36qri1sfpv3e86is0","pricing_plan_id":"cebpf4jnsgd1na2vs0mg"},{"bike_id":"172bc998-698c-49b0-a877-c63dee205523","system_id":"levelo_inurba_marseille","lat":43.3123,"lon":5.36808,"is_reserved":false,"is_disabled":false,"rental_uris":{"android":"levelo://app?vid=172bc998-698c-49b0-a877-c63dee205523","ios":"levelo://app?vid=172bc998-698c-49b0-a877-c63dee205523"},"vehicle_type_id":"4","last_reported":1784201178,"current_range_meters":34000,"station_id":"ce4bgl92rcd13ifvqbq0","pricing_plan_id":"cebpf4jnsgd1na2vs0mg"},{"bike_id":"3897b37b-5ebf-4f3a-8458-0d1f0b06c771","system_id":"levelo_inurba_marseille","lat":43.3052,"lon":5.36692,"is_reserved":false,"is_disabled":false,"rental_uris":{"android":"levelo://app?vid=3897b37b-5ebf-4f3a-8458-0d1f0b06c771","ios":"levelo://app?vid=3897b37b-5ebf-4f3a-8458-0d1f0b06c771"},"vehicle_type_id":"4","last_reported":1784201178,"current_range_meters":38000,"station_id":"ce4bgrp2rcd13ifvqc9g","pricing_plan_id":"cebpf4jnsgd1na2vs0mg"},{"bike_id":"7501a6ba-1e83-4d1e-9471-fbdafd1731ca","system_id":"levelo_inurba_marseille","lat":43.30599,"lon":5.3725,"is_reserved":false,"is_disabled":false,"rental_uris":{"android":"levelo://app?vid=7501a6ba-1e83-4d1e-9471-fbdafd1731ca","ios":"levelo://app?vid=7501a6ba-1e83-4d1e-9471-fbdafd1731ca"},"vehicle_type_id":"4","last_reported":1784201178,"current_range_meters":33600,"station_id":"ce4bgqh2rcd13ifvqc4g","pricing_plan_id":"cebpf4jnsgd1na2vs0mg"},{"bike_id":"a7cdfa6a-d49e-491c-a572-dca3386e1678","system_id":"levelo_inurba_marseille","lat":43.21197,"lon":5.35062,"is_reserved":false,"is_disabled":false,"rental_uris":{"android":"levelo://app?vid=a7cdfa6a-d49e-491c-a572-dca3386e1678","ios":"levelo://app?vid=a7cdfa6a-d49e-491c-a572-dca3386e1678"},"vehicle_type_id":"4","last_reported":1784201178,"current_range_meters":39200,"station_id":"st_cvj6sg6p6f1abm77japg","pricing_plan_id":"cebpf4jnsgd1na2vs0mg"},{"bike_id":"569b3651-7a03-491f-ab1e-676c9f9f6a01","system_id":"levelo_inurba_marseille","lat":43.28159,"lon":5.39229,"is_reserved":false,"is_disabled":true,"rental_uris":{"android":"levelo://app?vid=569b3651-7a03-491f-ab1e-676c9f9f6a01","ios":"levelo://app?vid=569b3651-7a03-491f-ab1e-676c9f9f6a01"},"vehicle_type_id":"4","last_reported":1784201178,"current_range_meters":0,"station_id":"","pricing_plan_id":"cebpf4jnsgd1na2vs0mg"},{"bike_id":"9945d993-577c-4caa-9f25-c17b3085dd0d","system_id":"levelo_inurba_marseille","lat":43.31441,"lon":5.3739,"is_reserved":false,"is_disabled":false,"rental_uris":{"android":"levelo://app?vid=9945d993-577c-4caa-9f25-c17b3085dd0d","ios":"levelo://app?vid=9945d993-577c-4caa-9f25-c17b3085dd0d"},"vehicle_type_id":"4","last_reported":1784201178,"current_range_meters":11200,"station_id":"","pricing_plan_id":"cebpf4jnsgd1na2vs0mg"},{"bike_id":"fad4d476-b565-4b81-9166-a20796df0b18","system_id":"levelo_inurba_marseille","lat":43.24798,"lon":5.37448,"is_reserved":false,"is_disabled":false,"rental_uris":{"android":"levelo://app?vid=fad4d476-b565-4b81-9166-a20796df0b18","ios":"levelo://app?vid=fad4d476-b565-4b81-9166-a20796df0b18"},"vehicle_type_id":"4","last_reported":1784201178,"current_range_meters":24400,"station_id":"","pricing_plan_id":"cebpf4jnsgd1na2vs0mg"},{"bike_id":"c90442fa-c5f2-4930-b41a-f04c8812ae3f","system_id":"levelo_inurba_marseille","lat":43.30471,"lon":5.37916,"is_reserved":false,"is_disabled":false,"rental_uris":{"android":"levelo://app?vid=c90442fa-c5f2-4930-b41a-f04c8812ae3f","ios":"levelo://app?vid=c90442fa-c5f2-4930-b41a-f04c8812ae3f"},"vehicle_type_id":"4","last_reported":1784201178,"current_range_meters":31200,"station_id":"ce4bgup2rcd13ifvqcn0","pricing_plan_id":"cebpf4jnsgd1na2vs0mg"},{"bike_id":"4587bf5e-e27c-4ca6-8cde-d3225ce81be6","system_id":"levelo_inurba_marseille","lat":43.309,"lon":5.36863,"is_reserved":false,"is_disabled":false,"rental_uris":{"android":"levelo://app?vid=4587bf5e-e27c-4ca6-8cde-d3225ce81be6","ios":"levelo://app?vid=4587bf5e-e27c-4ca6-8cde-d3225ce81be6"},"vehicle_type_id":"4","last_reported":1784201178,"current_range_meters":32800,"station_id":"ce4bgn92rcd13ifvqbvg","pricing_plan_id":"cebpf4jnsgd1na2vs0mg"},{"bike_id":"93f173f0-b5e7-453c-b62d-5cea08429256","system_id":"levelo_inurba_marseille","lat":43.29208,"lon":5.35799,"is_reserved":false,"is_disabled":true,"rental_uris":{"android":"levelo://app?vid=93f173f0-b5e7-453c-b62d-5cea08429256","ios":"levelo://app?vid=93f173f0-b5e7-453c-b62d-5cea08429256"},"vehicle_type_id":"4","last_reported":1784201178,"current_range_meters":32400,"station_id":"ce4bhb12rcd13ifvqel0","pricing_plan_id":"cebpf4jnsgd1na2vs0mg"},{"bike_id":"b073b76c-6283-4d22-a431-91188a54b16d","system_id":"levelo_inurba_marseille","lat":43.25929,"lon":5.40913,"is_reserved":false,"is_disabled":false,"rental_uris":{"android":"levelo://app?vid=b073b76c-6283-4d22-a431-91188a54b16d","ios":"levelo://app?vid=b073b76c-6283-4d22-a431-91188a54b16d"},"vehicle_type_id":"4","last_reported":1784201178,"current_range_meters":4000,"station_id":"ce4bhm92rcd13ifvqglg","pricing_plan_id":"cebpf4jnsgd1na2vs0mg"},{"bike_id":"935dc5cd-1d54-4d1e-8181-36b46070ea9e","system_id":"levelo_inurba_marseille","lat":43.27907,"lon":5.41063,"is_reserved":false,"is_disabled":false,"rental_uris":{"android":"levelo://app?vid=935dc5cd-1d54-4d1e-8181-36b46070ea9e","ios":"levelo://app?vid=935dc5cd-1d54-4d1e-8181-36b46070ea9e"},"vehicle_type_id":"4","last_reported":1784201178,"current_range_meters":24400,"station_id":"ce4bhnp2rcd13ifvqh0g","pricing_plan_id":"cebpf4jnsgd1na2vs0mg"},{"bike_id":"c0c12634-da58-4425-89c7-83dd3f1069a6","system_id":"levelo_inurba_marseille","lat":43.32108,"lon":5.36764,"is_reserved":false,"is_disabled":false,"rental_uris":{"android":"levelo://app?vid=c0c12634-da58-4425-89c7-83dd3f1069a6","ios":"levelo://app?vid=c0c12634-da58-4425-89c7-83dd3f1069a6"},"vehicle_type_id":"4","last_reported":1784201178,"current_range_meters":5600,"station_id":"ce4bhrh2rcd13ifvqhug","pricing_plan_id":"cebpf4jnsgd1na2vs0mg"},{"bike_id":"a51e6acf-53be-4908-8a0f-4ba35ddc7fb8","system_id":"levelo_inurba_marseille","lat":43.28694,"lon":5.3742,"is_reserved":false,"is_disabled":false,"rental_uris":{"android":"levelo://app?vid=a51e6acf-53be-4908-8a0f-4ba35ddc7fb8","ios":"levelo://app?vid=a51e6acf-53be-4908-8a0f-4ba35ddc7fb8"},"vehicle_type_id":"4","last_reported":1784201178,"current_range_meters":39200,"station_id":"ce4bh3p2rcd13ifvqdq0","pricing_plan_id":"cebpf4jnsgd1na2vs0mg"},{"bike_id":"14a28d44-122f-45f3-940c-7e39b4fa58b2","system_id":"levelo_inurba_marseille","lat":43.26558,"lon":5.37291,"is_reserved":false,"is_disabled":false,"rental_uris":{"android":"levelo://app?vid=14a28d44-122f-45f3-940c-7e39b4fa58b2","ios":"levelo://app?vid=14a28d44-122f-45f3-940c-7e39b4fa58b2"},"vehicle_type_id":"4","last_reported":1784201178,"current_range_meters":34800,"station_id":"ce4bhg12rcd13ifvqf70","pricing_plan_id":"cebpf4jnsgd1na2vs0mg"},{"bike_id":"a204c4ac-d7de-49e8-97e8-343c5adf4d7c","system_id":"levelo_inurba_marseille","lat":43.25498,"lon":5.37651,"is_reserved":false,"is_disabled":false,"rental_uris":{"android":"levelo://app?vid=a204c4ac-d7de-49e8-97e8-343c5adf4d7c","ios":"levelo://app?vid=a204c4ac-d7de-49e8-97e8-343c5adf4d7c"},"vehicle_type_id":"4","last_reported":1784201178,"current_range_meters":38400,"station_id":"ce4bhh12rcd13ifvqff0","pricing_plan_id":"cebpf4jnsgd1na2vs0mg"},{"bike_id":"9485be1f-c90e-4919-888f-8ea173824e12","system_id":"levelo_inurba_marseille","lat":43.22545,"lon":5.34854,"is_reserved":false,"is_disabled":false,"rental_uris":{"android":"levelo://app?vid=9485be1f-c90e-4919-888f-8ea173824e12","ios":"levelo://app?vid=9485be1f-c90e-4919-888f-8ea173824e12"},"vehicle_type_id":"4","last_reported":1784201178,"current_range_meters":28000,"station_id":"st_cvj5dfep6f1abm77gieg","pricing_plan_id":"cebpf4jnsgd1na2vs0mg"},{"bike_id":"8a560e2d-3f1e-4565-836a-49c09f6a5faa","system_id":"levelo_inurba_marseille","lat":43.28228,"lon":5.39066,"is_reserved":false,"is_disabled":false,"rental_uris":{"android":"levelo://app?vid=8a560e2d-3f1e-4565-836a-49c09f6a5faa","ios":"levelo://app?vid=8a560e2d-3f1e-4565-836a-49c09f6a5faa"},"vehicle_type_id":"4","last_reported":1784201178,"current_range_meters":24800,"station_id":"ce4bhn92rcd13ifvqgsg","pricing_plan_id":"cebpf4jnsgd1na2vs0mg"},{"bike_id":"83c7bb51-cb11-41ff-9266-19b383d83db4","system_id":"levelo_inurba_marseille","lat":43.31369,"lon":5.36694,"is_reserved":false,"is_disabled":false,"rental_uris":{"android":"levelo://app?vid=83c7bb51-cb11-41ff-9266-19b383d83db4","ios":"levelo://app?vid=83c7bb51-cb11-41ff-9266-19b383d83db4"},"vehicle_type_id":"4","last_reported":1784201178,"current_range_meters":39200,"station_id":"ce4bgr92rcd13ifvqc6g","pricing_plan_id":"cebpf4jnsgd1na2vs0mg"},{"bike_id":"127041c9-3057-4763-bbb4-ce7f0d1a2d71","system_id":"levelo_inurba_marseille","lat":43.337662,"lon":5.374328,"is_reserved":false,"is_disabled":false,"rental_uris":{"android":"levelo://app?vid=127041c9-3057-4763-bbb4-ce7f0d1a2d71","ios":"levelo://app?vid=127041c9-3057-4763-bbb4-ce7f0d1a2d71"},"vehicle_type_id":"4","last_reported":1784201178,"current_range_meters":14400,"station_id":"","pricing_plan_id":"cebpf4jnsgd1na2vs0mg"},{"bike_id":"eaa2f425-0b8e-4abc-aff5-1e5643ff75c3","system_id":"levelo_inurba_marseille","lat":43.2694,"lon":5.3674,"is_reserved":false,"is_disabled":true,"rental_uris":{"android":"levelo://app?vid=eaa2f425-0b8e-4abc-aff5-1e5643ff75c3","ios":"levelo://app?vid=eaa2f425-0b8e-4abc-aff5-1e5643ff75c3"},"vehicle_type_id":"4","last_reported":1784201178,"current_range_meters":0,"station_id":"","pricing_plan_id":"cebpf4jnsgd1na2vs0mg"},{"bike_id":"6ab806e5-1482-44b8-97b4-a9e54df097e1","system_id":"levelo_inurba_marseille","lat":43.2977,"lon":5.37126,"is_reserved":false,"is_disabled":false,"rental_uris":{"android":"levelo://app?vid=6ab806e5-1482-44b8-97b4-a9e54df097e1","ios":"levelo://app?vid=6ab806e5-1482-44b8-97b4-a9e54df097e1"},"vehicle_type_id":"4","last_reported":1784201178,"current_range_meters":32000,"station_id":"","pricing_plan_id":"cebpf4jnsgd1na2vs0mg"},{"bike_id":"819f0339-4695-4add-8828-1b8714adb586","system_id":"levelo_inurba_marseille","lat":43.230648,"lon":5.354882,"is_reserved":false,"is_disabled":false,"rental_uris":{"android":"levelo://app?vid=819f0339-4695-4add-8828-1b8714adb586","ios":"levelo://app?vid=819f0339-4695-4add-8828-1b8714adb586"},"vehicle_type_id":"4","last_reported":1784201178,"current_range_meters":39200,"station_id":"cpo3342slgdg3j2ifvpg","pricing_plan_id":"cebpf4jnsgd1na2vs0mg"},{"bike_id":"e3d9742d-2490-49ba-8f64-8ebb7a700e99","system_id":"levelo_inurba_marseille","lat":43.29788,"lon":5.37089,"is_reserved":false,"is_disabled":false,"rental_uris":{"android":"levelo://app?vid=e3d9742d-2490-49ba-8f64-8ebb7a700e99","ios":"levelo://app?vid=e3d9742d-2490-49ba-8f64-8ebb7a700e99"},"vehicle_type_id":"4","last_reported":1784201178,"current_range_meters":37600,"station_id":"ce4bgop2rcd13ifvqc1g","pricing_plan_id":"cebpf4jnsgd1na2vs0mg"},{"bike_id":"aaf723eb-1bcb-4023-a772-7a3b0c0375d2","system_id":"levelo_inurba_marseille","lat":43.29164,"lon":5.37158,"is_reserved":false,"is_disabled":false,"rental_uris":{"android":"levelo://app?vid=aaf723eb-1bcb-4023-a772-7a3b0c0375d2","ios":"levelo://app?vid=aaf723eb-1bcb-4023-a772-7a3b0c0375d2"},"vehicle_type_id":"4","last_reported":1784201178,"current_range_meters":24800,"station_id":"ce4bha92rcd13ifvqeh0","pricing_plan_id":"cebpf4jnsgd1na2vs0mg"},{"bike_id":"15159f4d-6b2a-4430-955d-b063f2a287d0","system_id":"levelo_inurba_marseille","lat":43.26782,"lon":5.39438,"is_reserved":false,"is_disabled":false,"rental_uris":{"android":"levelo://app?vid=15159f4d-6b2a-4430-955d-b063f2a287d0","ios":"levelo://app?vid=15159f4d-6b2a-4430-955d-b063f2a287d0"},"vehicle_type_id":"4","last_reported":1784201178,"current_range_meters":38400,"station_id":"ce4bhh12rcd13ifvqfg0","pricing_plan_id":"cebpf4jnsgd1na2vs0mg"},{"bike_id":"429bd134-e626-4471-9eac-649735338ba4","system_id":"levelo_inurba_marseille","lat":43.28559,"lon":5.3951,"is_reserved":false,"is_disabled":false,"rental_uris":{"android":"levelo://app?vid=429bd134-e626-4471-9eac-649735338ba4","ios":"levelo://app?vid=429bd134-e626-4471-9eac-649735338ba4"},"vehicle_type_id":"4","last_reported":1784201178,"current_range_meters":33200,"station_id":"ce4bh292rcd13ifvqdg0","pricing_plan_id":"cebpf4jnsgd1na2vs0mg"},{"bike_id":"b0091300-9ddc-4952-95c0-b34e5e3957b3","system_id":"levelo_inurba_marseille","lat":43.29189,"lon":5.36812,"is_reserved":false,"is_disabled":false,"rental_uris":{"android":"levelo://app?vid=b0091300-9ddc-4952-95c0-b34e5e3957b3","ios":"levelo://app?vid=b0091300-9ddc-4952-95c0-b34e5e3957b3"},"vehicle_type_id":"4","last_reported":1784201178,"current_range_meters":29600,"station_id":"","pricing_plan_id":"cebpf4jnsgd1na2vs0mg"},{"bike_id":"797fb9c2-b17e-4392-a9af-96f719fe3873","system_id":"levelo_inurba_marseille","lat":43.24181,"lon":5.3972,"is_reserved":false,"is_disabled":true,"rental_uris":{"android":"levelo://app?vid=797fb9c2-b17e-4392-a9af-96f719fe3873","ios":"levelo://app?vid=797fb9c2-b17e-4392-a9af-96f719fe3873"},"vehicle_type_id":"4","last_reported":1784201178,"current_range_meters":30400,"station_id":"ce4bhn12rcd13ifvqgpg","pricing_plan_id":"cebpf4jnsgd1na2vs0mg"},{"bike_id":"8427e0af-d4af-4fb4-89c0-875197efc945","system_id":"levelo_inurba_marseille","lat":43.26478,"lon":5.39518,"is_reserved":false,"is_disabled":false,"rental_uris":{"android":"levelo://app?vid=8427e0af-d4af-4fb4-89c0-875197efc945","ios":"levelo://app?vid=8427e0af-d4af-4fb4-89c0-875197efc945"},"vehicle_type_id":"4","last_reported":1784201178,"current_range_meters":39200,"station_id":"ce4bhi12rcd13ifvqfq0","pricing_plan_id":"cebpf4jnsgd1na2vs0mg"},{"bike_id":"4c445abe-25ad-466b-a445-744bf62fbea8","system_id":"levelo_inurba_marseille","lat":43.24371,"lon":5.37058,"is_reserved":false,"is_disabled":false,"rental_uris":{"android":"levelo://app?vid=4c445abe-25ad-466b-a445-744bf62fbea8","ios":"levelo://app?vid=4c445abe-25ad-466b-a445-744bf62fbea8"},"vehicle_type_id":"4","last_reported":1784201178,"current_range_meters":39200,"station_id":"ce4bhhh2rcd13ifvqfk0","pricing_plan_id":"cebpf4jnsgd1na2vs0mg"},{"bike_id":"b4648b07-45d5-4679-b804-f44ce951072d","system_id":"levelo_inurba_marseille","lat":43.2298,"lon":5.44476,"is_reserved":false,"is_disabled":false,"rental_uris":{"android":"levelo://app?vid=b4648b07-45d5-4679-b804-f44ce951072d","ios":"levelo://app?vid=b4648b07-45d5-4679-b804-f44ce951072d"},"vehicle_type_id":"4","last_reported":1784201178,"current_range_meters":10800,"station_id":"","pricing_plan_id":"cebpf4jnsgd1na2vs0mg"},{"bike_id":"38724eb1-ce4d-4aa9-aef0-217c1040261c","system_id":"levelo_inurba_marseille","lat":43.30967,"lon":5.39045,"is_reserved":false,"is_disabled":false,"rental_uris":{"android":"levelo://app?vid=38724eb1-ce4d-4aa9-aef0-217c1040261c","ios":"levelo://app?vid=38724eb1-ce4d-4aa9-aef0-217c1040261c"},"vehicle_type_id":"4","last_reported":1784201178,"current_range_meters":24000,"station_id":"ce4bgup2rcd13ifvqco0","pricing_plan_id":"cebpf4jnsgd1na2vs0mg"},{"bike_id":"85aa1803-8127-4970-ad73-f8de39bdfbb8","system_id":"levelo_inurba_marseille","lat":43.32494,"lon":5.38273,"is_reserved":false,"is_disabled":false,"rental_uris":{"android":"levelo://app?vid=85aa1803-8127-4970-ad73-f8de39bdfbb8","ios":"levelo://app?vid=85aa1803-8127-4970-ad73-f8de39bdfbb8"},"vehicle_type_id":"4","last_reported":1784201178,"current_range_meters":15200,"station_id":"st_d4asgbiv49dc73anf9m0","pricing_plan_id":"cebpf4jnsgd1na2vs0mg"},{"bike_id":"e06b1a35-94c0-4166-bf44-df7815b4074b","system_id":"levelo_inurba_marseille","lat":43.3209,"lon":5.36788,"is_reserved":false,"is_disabled":false,"rental_uris":{"android":"levelo://app?vid=e06b1a35-94c0-4166-bf44-df7815b4074b","ios":"levelo://app?vid=e06b1a35-94c0-4166-bf44-df7815b4074b"},"vehicle_type_id":"4","last_reported":1784201178,"current_range_meters":35600,"station_id":"ce4bhrh2rcd13ifvqhug","pricing_plan_id":"cebpf4jnsgd1na2vs0mg"},{"bike_id":"0d3e100f-48fe-47e1-bef7-0a1dcfcc4955","system_id":"levelo_inurba_marseille","lat":43.33729,"lon":5.3918,"is_reserved":false,"is_disabled":false,"rental_uris":{"android":"levelo://app?vid=0d3e100f-48fe-47e1-bef7-0a1dcfcc4955","ios":"levelo://app?vid=0d3e100f-48fe-47e1-bef7-0a1dcfcc4955"},"vehicle_type_id":"4","last_reported":1784201178,"current_range_meters":33600,"station_id":"ce4bhr92rcd13ifvqhsg","pricing_plan_id":"cebpf4jnsgd1na2vs0mg"},{"bike_id":"0f34ff65-c41a-414e-929b-c51a425f3622","system_id":"levelo_inurba_marseille","lat":43.27485,"lon":5.4255,"is_reserved":false,"is_disabled":false,"rental_uris":{"android":"levelo://app?vid=0f34ff65-c41a-414e-929b-c51a425f3622","ios":"levelo://app?vid=0f34ff65-c41a-414e-929b-c51a425f3622"},"vehicle_type_id":"4","last_reported":1784201178,"current_range_meters":6800,"station_id":"st_d8t4bh7nbrqs73arha60","pricing_plan_id":"cebpf4jnsgd1na2vs0mg"},{"bike_id":"ddbfbc6e-9ea5-4164-b0a2-7cc31ec7c025","system_id":"levelo_inurba_marseille","lat":43.32109,"lon":5.36758,"is_reserved":false,"is_disabled":false,"rental_uris":{"android":"levelo://app?vid=ddbfbc6e-9ea5-4164-b0a2-7cc31ec7c025","ios":"levelo://app?vid=ddbfbc6e-9ea5-4164-b0a2-7cc31ec7c025"},"vehicle_type_id":"4","last_reported":1784201178,"current_range_meters":21600,"station_id":"ce4bhrh2rcd13ifvqhug","pricing_plan_id":"cebpf4jnsgd1na2vs0mg"},{"bike_id":"7c35e7b9-d6cd-4ca3-ac0d-8434252de34d","system_id":"levelo_inurba_marseille","lat":43.27205,"lon":5.39176,"is_reserved":false,"is_disabled":false,"rental_uris":{"android":"levelo://app?vid=7c35e7b9-d6cd-4ca3-ac0d-8434252de34d","ios":"levelo://app?vid=7c35e7b9-d6cd-4ca3-ac0d-8434252de34d"},"vehicle_type_id":"4","last_reported":1784201178,"current_range_meters":30800,"station_id":"ce4bhhp2rcd13ifvqfm0","pricing_plan_id":"cebpf4jnsgd1na2vs0mg"},{"bike_id":"e831a20e-a534-4158-a72a-9484a13db346","system_id":"levelo_inurba_marseille","lat":43.28345,"lon":5.38654,"is_reserved":false,"is_disabled":false,"rental_uris":{"android":"levelo://app?vid=e831a20e-a534-4158-a72a-9484a13db346","ios":"levelo://app?vid=e831a20e-a534-4158-a72a-9484a13db346"},"vehicle_type_id":"4","last_reported":1784201178,"current_range_meters":6800,"station_id":"ce4bh492rcd13ifvqdvg","pricing_plan_id":"cebpf4jnsgd1na2vs0mg"},{"bike_id":"e52fee04-dcb4-4eeb-8cdc-b5546bb4d424","system_id":"levelo_inurba_marseille","lat":43.30943,"lon":5.39029,"is_reserved":false,"is_disabled":false,"rental_uris":{"android":"levelo://app?vid=e52fee04-dcb4-4eeb-8cdc-b5546bb4d424","ios":"levelo://app?vid=e52fee04-dcb4-4eeb-8cdc-b5546bb4d424"},"vehicle_type_id":"4","last_reported":1784201178,"current_range_meters":36000,"station_id":"ce4bgup2rcd13ifvqco0","pricing_plan_id":"cebpf4jnsgd1na2vs0mg"},{"bike_id":"b4b7cf45-857d-499f-903c-2153de8727c5","system_id":"levelo_inurba_marseille","lat":43.32452,"lon":5.36607,"is_reserved":false,"is_disabled":false,"rental_uris":{"android":"levelo://app?vid=b4b7cf45-857d-499f-903c-2153de8727c5","ios":"levelo://app?vid=b4b7cf45-857d-499f-903c-2153de8727c5"},"vehicle_type_id":"4","last_reported":1784201178,"current_range_meters":5600,"station_id":"ce4bhs12rcd13ifvqhvg","pricing_plan_id":"cebpf4jnsgd1na2vs0mg"},{"bike_id":"cf221891-28f4-4c61-aedf-5c04ffd24ec6","system_id":"levelo_inurba_marseille","lat":43.24391,"lon":5.37052,"is_reserved":false,"is_disabled":false,"rental_uris":{"android":"levelo://app?vid=cf221891-28f4-4c61-aedf-5c04ffd24ec6","ios":"levelo://app?vid=cf221891-28f4-4c61-aedf-5c04ffd24ec6"},"vehicle_type_id":"4","last_reported":1784201178,"current_range_meters":16800,"station_id":"ce4bhhh2rcd13ifvqfk0","pricing_plan_id":"cebpf4jnsgd1na2vs0mg"},{"bike_id":"de33586d-1ad6-43fb-abac-eff95af90a64","system_id":"levelo_inurba_marseille","lat":43.26019,"lon":5.37563,"is_reserved":false,"is_disabled":true,"rental_uris":{"android":"levelo://app?vid=de33586d-1ad6-43fb-abac-eff95af90a64","ios":"levelo://app?vid=de33586d-1ad6-43fb-abac-eff95af90a64"},"vehicle_type_id":"4","last_reported":1784201178,"current_range_meters":26800,"station_id":"ce4bhgh2rcd13ifvqfa0","pricing_plan_id":"cebpf4jnsgd1na2vs0mg"},{"bike_id":"89847ec5-d323-4491-a78d-67c169cbd924","system_id":"levelo_inurba_marseille","lat":43.28831,"lon":5.35869,"is_reserved":false,"is_disabled":false,"rental_uris":{"android":"levelo://app?vid=89847ec5-d323-4491-a78d-67c169cbd924","ios":"levelo://app?vid=89847ec5-d323-4491-a78d-67c169cbd924"},"vehicle_type_id":"4","last_reported":1784201178,"current_range_meters":38800,"station_id":"ce4bhb12rcd13ifvqem0","pricing_plan_id":"cebpf4jnsgd1na2vs0mg"},{"bike_id":"05c29d56-6c44-4de6-93a8-ddd7db2f99c1","system_id":"levelo_inurba_marseille","lat":43.269268,"lon":5.389179,"is_reserved":false,"is_disabled":false,"rental_uris":{"android":"levelo://app?vid=05c29d56-6c44-4de6-93a8-ddd7db2f99c1","ios":"levelo://app?vid=05c29d56-6c44-4de6-93a8-ddd7db2f99c1"},"vehicle_type_id":"4","last_reported":1784201178,"current_range_meters":34000,"station_id":"ce4bhhh2rcd13ifvqfl0","pricing_plan_id":"cebpf4jnsgd1na2vs0mg"},{"bike_id":"13652050-b2e1-4225-9cf4-5b4af3b19551","system_id":"levelo_inurba_marseille","lat":43.3374,"lon":5.37486,"is_reserved":false,"is_disabled":false,"rental_uris":{"android":"levelo://app?vid=13652050-b2e1-4225-9cf4-5b4af3b19551","ios":"levelo://app?vid=13652050-b2e1-4225-9cf4-5b4af3b19551"},"vehicle_type_id":"4","last_reported":1784201178,"current_range_meters":12400,"station_id":"","pricing_plan_id":"cebpf4jnsgd1na2vs0mg"},{"bike_id":"51715928-b767-4063-bdf7-2027d9b3bc27","system_id":"levelo_inurba_marseille","lat":43.27489,"lon":5.4246,"is_reserved":false,"is_disabled":false,"rental_uris":{"android":"levelo://app?vid=51715928-b767-4063-bdf7-2027d9b3bc27","ios":"levelo://app?vid=51715928-b767-4063-bdf7-2027d9b3bc27"},"vehicle_type_id":"4","last_reported":1784201178,"current_range_meters":39200,"station_id":"ce4bhn92rcd13ifvqgrg","pricing_plan_id":"cebpf4jnsgd1na2vs0mg"},{"bike_id":"e3f2756d-2034-4d4b-b1ec-12d13b7ac32b","system_id":"levelo_inurba_marseille","lat":43.29522,"lon":5.38538,"is_reserved":false,"is_disabled":false,"rental_uris":{"android":"levelo://app?vid=e3f2756d-2034-4d4b-b1ec-12d13b7ac32b","ios":"levelo://app?vid=e3f2756d-2034-4d4b-b1ec-12d13b7ac32b"},"vehicle_type_id":"4","last_reported":1784201178,"current_range_meters":29600,"station_id":"ce4bgih2rcd13ifvqba0","pricing_plan_id":"cebpf4jnsgd1na2vs0mg"},{"bike_id":"eadbf5e7-6bfc-4e3a-b0e9-0f3c75f13d91","system_id":"levelo_inurba_marseille","lat":43.28101,"lon":5.37842,"is_reserved":false,"is_disabled":false,"rental_uris":{"android":"levelo://app?vid=eadbf5e7-6bfc-4e3a-b0e9-0f3c75f13d91","ios":"levelo://app?vid=eadbf5e7-6bfc-4e3a-b0e9-0f3c75f13d91"},"vehicle_type_id":"4","last_reported":1784201178,"current_range_meters":36800,"station_id":"ce4bha12rcd13ifvqee0","pricing_plan_id":"cebpf4jnsgd1na2vs0mg"},{"bike_id":"8c8fc0b1-1879-457d-bd05-f2582b5ec00e","system_id":"levelo_inurba_marseille","lat":43.28678,"lon":5.3865,"is_reserved":false,"is_disabled":false,"rental_uris":{"android":"levelo://app?vid=8c8fc0b1-1879-457d-bd05-f2582b5ec00e","ios":"levelo://app?vid=8c8fc0b1-1879-457d-bd05-f2582b5ec00e"},"vehicle_type_id":"4","last_reported":1784201178,"current_range_meters":20800,"station_id":"ce4bh492rcd13ifvqdug","pricing_plan_id":"cebpf4jnsgd1na2vs0mg"},{"bike_id":"5ff11a0a-2481-4117-b692-800c69436509","system_id":"levelo_inurba_marseille","lat":43.31364,"lon":5.36691,"is_reserved":false,"is_disabled":false,"rental_uris":{"android":"levelo://app?vid=5ff11a0a-2481-4117-b692-800c69436509","ios":"levelo://app?vid=5ff11a0a-2481-4117-b692-800c69436509"},"vehicle_type_id":"4","last_reported":1784201178,"current_range_meters":33200,"station_id":"ce4bgr92rcd13ifvqc6g","pricing_plan_id":"cebpf4jnsgd1na2vs0mg"},{"bike_id":"f92b7b60-3c92-4d94-afd8-81544d7ea807","system_id":"levelo_inurba_marseille","lat":43.29622,"lon":5.37753,"is_reserved":false,"is_disabled":false,"rental_uris":{"android":"levelo://app?vid=f92b7b60-3c92-4d94-afd8-81544d7ea807","ios":"levelo://app?vid=f92b7b60-3c92-4d94-afd8-81544d7ea807"},"vehicle_type_id":"4","last_reported":1784201178,"current_range_meters":39200,"station_id":"ce4bgi92rcd13ifvqb90","pricing_plan_id":"cebpf4jnsgd1na2vs0mg"},{"bike_id":"7604574c-06cb-407e-9e16-b7858411e1bc","system_id":"levelo_inurba_marseille","lat":43.27813,"lon":5.4072,"is_reserved":false,"is_disabled":true,"rental_uris":{"android":"levelo://app?vid=7604574c-06cb-407e-9e16-b7858411e1bc","ios":"levelo://app?vid=7604574c-06cb-407e-9e16-b7858411e1bc"},"vehicle_type_id":"4","last_reported":1784201178,"current_range_meters":24800,"station_id":"ce4bhnh2rcd13ifvqgtg","pricing_plan_id":"cebpf4jnsgd1na2vs0mg"},{"bike_id":"1ae0696c-1a8e-44c7-b609-30b4c7607f0d","system_id":"levelo_inurba_marseille","lat":43.27188,"lon":5.39185,"is_reserved":false,"is_disabled":false,"rental_uris":{"android":"levelo://app?vid=1ae0696c-1a8e-44c7-b609-30b4c7607f0d","ios":"levelo://app?vid=1ae0696c-1a8e-44c7-b609-30b4c7607f0d"},"vehicle_type_id":"4","last_reported":1784201178,"current_range_meters":38400,"station_id":"ce4bhhp2rcd13ifvqfm0","pricing_plan_id":"cebpf4jnsgd1na2vs0mg"},{"bike_id":"96df59d3-dc0f-40ec-aa57-9c523b0a9262","system_id":"levelo_inurba_marseille","lat":43.31344,"lon":5.38193,"is_reserved":false,"is_disabled":false,"rental_uris":{"android":"levelo://app?vid=96df59d3-dc0f-40ec-aa57-9c523b0a9262","ios":"levelo://app?vid=96df59d3-dc0f-40ec-aa57-9c523b0a9262"},"vehicle_type_id":"4","last_reported":1784201178,"current_range_meters":32400,"station_id":"","pricing_plan_id":"cebpf4jnsgd1na2vs0mg"},{"bike_id":"a5874282-4bf4-4bb8-957c-0c4b3e0b0d95","system_id":"levelo_inurba_marseille","lat":43.25092,"lon":5.39526,"is_reserved":false,"is_disabled":false,"rental_uris":{"android":"levelo://app?vid=a5874282-4bf4-4bb8-957c-0c4b3e0b0d95","ios":"levelo://app?vid=a5874282-4bf4-4bb8-957c-0c4b3e0b0d95"},"vehicle_type_id":"4","last_reported":1784201178,"current_range_meters":38400,"station_id":"ce4bhm12rcd13ifvqgkg","pricing_plan_id":"cebpf4jnsgd1na2vs0mg"},{"bike_id":"4114751a-3c44-46b0-979b-b9ba4f78ff44","system_id":"levelo_inurba_marseille","lat":43.25331,"lon":5.42167,"is_reserved":false,"is_disabled":false,"rental_uris":{"android":"levelo://app?vid=4114751a-3c44-46b0-979b-b9ba4f78ff44","ios":"levelo://app?vid=4114751a-3c44-46b0-979b-b9ba4f78ff44"},"vehicle_type_id":"4","last_reported":1784201178,"current_range_meters":20800,"station_id":"st_d2m65c5bi1j21697t3ng","pricing_plan_id":"cebpf4jnsgd1na2vs0mg"},{"bike_id":"ae8d07f8-d83f-4df5-8725-1125b8447f31","system_id":"levelo_inurba_marseille","lat":43.27566,"lon":5.38437,"is_reserved":false,"is_disabled":false,"rental_uris":{"android":"levelo://app?vid=ae8d07f8-d83f-4df5-8725-1125b8447f31","ios":"levelo://app?vid=ae8d07f8-d83f-4df5-8725-1125b8447f31"},"vehicle_type_id":"4","last_reported":1784201178,"current_range_meters":28800,"station_id":"ce4bhh92rcd13ifvqfi0","pricing_plan_id":"cebpf4jnsgd1na2vs0mg"},{"bike_id":"d1210815-3b6f-46d9-8562-5a9f90c2f696","system_id":"levelo_inurba_marseille","lat":43.2918,"lon":5.35807,"is_reserved":false,"is_disabled":true,"rental_uris":{"android":"levelo://app?vid=d1210815-3b6f-46d9-8562-5a9f90c2f696","ios":"levelo://app?vid=d1210815-3b6f-46d9-8562-5a9f90c2f696"},"vehicle_type_id":"4","last_reported":1784201178,"current_range_meters":14000,"station_id":"ce4bhb12rcd13ifvqel0","pricing_plan_id":"cebpf4jnsgd1na2vs0mg"},{"bike_id":"d93abc91-80ca-4c6f-ba7f-f1450dcee09f","system_id":"levelo_inurba_marseille","lat":43.3091,"lon":5.36871,"is_reserved":false,"is_disabled":false,"rental_uris":{"android":"levelo://app?vid=d93abc91-80ca-4c6f-ba7f-f1450dcee09f","ios":"levelo://app?vid=d93abc91-80ca-4c6f-ba7f-f1450dcee09f"},"vehicle_type_id":"4","last_reported":1784201178,"current_range_meters":23200,"station_id":"ce4bgn92rcd13ifvqbvg","pricing_plan_id":"cebpf4jnsgd1na2vs0mg"},{"bike_id":"bd3c0e56-a259-4b93-8100-5171a29360c5","system_id":"levelo_inurba_marseille","lat":43.2904,"lon":5.35916,"is_reserved":false,"is_disabled":true,"rental_uris":{"android":"levelo://app?vid=bd3c0e56-a259-4b93-8100-5171a29360c5","ios":"levelo://app?vid=bd3c0e56-a259-4b93-8100-5171a29360c5"},"vehicle_type_id":"4","last_reported":1784201178,"current_range_meters":24000,"station_id":"ce4bha92rcd13ifvqeg0","pricing_plan_id":"cebpf4jnsgd1na2vs0mg"},