{"last_updated":1779345696,"ttl":60,"version":"2.2","data":{"bikes":[{"bike_id":"7d641315-6110-49cb-a9dd-d637ff032de1","system_id":"levelo_inurba_marseille","lat":43.337444,"lon":5.374475,"is_reserved":false,"is_disabled":false,"rental_uris":{"android":"levelo://app?vid=7d641315-6110-49cb-a9dd-d637ff032de1","ios":"levelo://app?vid=7d641315-6110-49cb-a9dd-d637ff032de1"},"vehicle_type_id":"4","last_reported":1779345696,"current_range_meters":0,"station_id":"","pricing_plan_id":"cebpf4jnsgd1na2vs0mg"},{"bike_id":"d3ff84ca-1a35-47b9-9971-176fd9813c99","system_id":"levelo_inurba_marseille","lat":43.28261,"lon":5.35076,"is_reserved":false,"is_disabled":false,"rental_uris":{"android":"levelo://app?vid=d3ff84ca-1a35-47b9-9971-176fd9813c99","ios":"levelo://app?vid=d3ff84ca-1a35-47b9-9971-176fd9813c99"},"vehicle_type_id":"4","last_reported":1779345696,"current_range_meters":2800,"station_id":"ce4bhbp2rcd13ifvqerg","pricing_plan_id":"cebpf4jnsgd1na2vs0mg"},{"bike_id":"7c7fb249-fc8e-4d79-a1ce-dd5b0f183060","system_id":"levelo_inurba_marseille","lat":43.29809,"lon":5.44031,"is_reserved":false,"is_disabled":false,"rental_uris":{"android":"levelo://app?vid=7c7fb249-fc8e-4d79-a1ce-dd5b0f183060","ios":"levelo://app?vid=7c7fb249-fc8e-4d79-a1ce-dd5b0f183060"},"vehicle_type_id":"4","last_reported":1779345696,"current_range_meters":2800,"station_id":"st_d3jp68qikq2c7381ktn0","pricing_plan_id":"cebpf4jnsgd1na2vs0mg"},{"bike_id":"11478a6d-054f-463c-83ef-2f58f5c99442","system_id":"levelo_inurba_marseille","lat":43.30894,"lon":5.37175,"is_reserved":false,"is_disabled":false,"rental_uris":{"android":"levelo://app?vid=11478a6d-054f-463c-83ef-2f58f5c99442","ios":"levelo://app?vid=11478a6d-054f-463c-83ef-2f58f5c99442"},"vehicle_type_id":"4","last_reported":1779345696,"current_range_meters":2800,"station_id":"ce4bguh2rcd13ifvqckg","pricing_plan_id":"cebpf4jnsgd1na2vs0mg"},{"bike_id":"47e75fc7-5e0f-4fd7-831f-8486114b27f3","system_id":"levelo_inurba_marseille","lat":43.28715,"lon":5.3737,"is_reserved":false,"is_disabled":true,"rental_uris":{"android":"levelo://app?vid=47e75fc7-5e0f-4fd7-831f-8486114b27f3","ios":"levelo://app?vid=47e75fc7-5e0f-4fd7-831f-8486114b27f3"},"vehicle_type_id":"4","last_reported":1779345696,"current_range_meters":2800,"station_id":"ce4bh3p2rcd13ifvqdq0","pricing_plan_id":"cebpf4jnsgd1na2vs0mg"},{"bike_id":"fbb9cd9a-eeff-47a7-a071-bf140227c01e","system_id":"levelo_inurba_marseille","lat":43.29562,"lon":5.42309,"is_reserved":false,"is_disabled":false,"rental_uris":{"android":"levelo://app?vid=fbb9cd9a-eeff-47a7-a071-bf140227c01e","ios":"levelo://app?vid=fbb9cd9a-eeff-47a7-a071-bf140227c01e"},"vehicle_type_id":"4","last_reported":1779345696,"current_range_meters":2800,"station_id":"ce4bhph2rcd13ifvqhdg","pricing_plan_id":"cebpf4jnsgd1na2vs0mg"},{"bike_id":"8254c16b-2709-467c-9f0c-f5d3dae1f566","system_id":"levelo_inurba_marseille","lat":43.31703,"lon":5.40485,"is_reserved":false,"is_disabled":false,"rental_uris":{"android":"levelo://app?vid=8254c16b-2709-467c-9f0c-f5d3dae1f566","ios":"levelo://app?vid=8254c16b-2709-467c-9f0c-f5d3dae1f566"},"vehicle_type_id":"4","last_reported":1779345696,"current_range_meters":2800,"station_id":"ce4bh012rcd13ifvqd00","pricing_plan_id":"cebpf4jnsgd1na2vs0mg"},{"bike_id":"9bbf8bad-9024-483e-8743-8079437f3821","system_id":"levelo_inurba_marseille","lat":43.29046,"lon":5.39952,"is_reserved":false,"is_disabled":false,"rental_uris":{"android":"levelo://app?vid=9bbf8bad-9024-483e-8743-8079437f3821","ios":"levelo://app?vid=9bbf8bad-9024-483e-8743-8079437f3821"},"vehicle_type_id":"4","last_reported":1779345696,"current_range_meters":2800,"station_id":"ce4bh392rcd13ifvqdm0","pricing_plan_id":"cebpf4jnsgd1na2vs0mg"},{"bike_id":"9941467d-088a-4cca-8f63-efa4a0d06d4f","system_id":"levelo_inurba_marseille","lat":43.21758,"lon":5.34602,"is_reserved":false,"is_disabled":false,"rental_uris":{"android":"levelo://app?vid=9941467d-088a-4cca-8f63-efa4a0d06d4f","ios":"levelo://app?vid=9941467d-088a-4cca-8f63-efa4a0d06d4f"},"vehicle_type_id":"4","last_reported":1779345696,"current_range_meters":2800,"station_id":"st_cvj6r9ubvosntc0bgbag","pricing_plan_id":"cebpf4jnsgd1na2vs0mg"},{"bike_id":"ef2f02be-aee5-4a1c-81a4-4943ce122dfb","system_id":"levelo_inurba_marseille","lat":43.295251,"lon":5.375086,"is_reserved":false,"is_disabled":false,"rental_uris":{"android":"levelo://app?vid=ef2f02be-aee5-4a1c-81a4-4943ce122dfb","ios":"levelo://app?vid=ef2f02be-aee5-4a1c-81a4-4943ce122dfb"},"vehicle_type_id":"4","last_reported":1779345696,"current_range_meters":2800,"station_id":"ce4bgkp2rcd13ifvqbmg","pricing_plan_id":"cebpf4jnsgd1na2vs0mg"},{"bike_id":"0be98877-0b3d-44cc-8b14-d27b00e21c61","system_id":"levelo_inurba_marseille","lat":43.30351,"lon":5.41866,"is_reserved":false,"is_disabled":false,"rental_uris":{"android":"levelo://app?vid=0be98877-0b3d-44cc-8b14-d27b00e21c61","ios":"levelo://app?vid=0be98877-0b3d-44cc-8b14-d27b00e21c61"},"vehicle_type_id":"4","last_reported":1779345696,"current_range_meters":2800,"station_id":"ce4bhop2rcd13ifvqh7g","pricing_plan_id":"cebpf4jnsgd1na2vs0mg"},{"bike_id":"2575d8fd-98b2-45f9-b710-c22d849d9412","system_id":"levelo_inurba_marseille","lat":43.30467,"lon":5.37881,"is_reserved":false,"is_disabled":false,"rental_uris":{"android":"levelo://app?vid=2575d8fd-98b2-45f9-b710-c22d849d9412","ios":"levelo://app?vid=2575d8fd-98b2-45f9-b710-c22d849d9412"},"vehicle_type_id":"4","last_reported":1779345696,"current_range_meters":3200,"station_id":"ce4bgup2rcd13ifvqcn0","pricing_plan_id":"cebpf4jnsgd1na2vs0mg"},{"bike_id":"78ee063a-5f1e-4634-b782-fad7e6ea49bb","system_id":"levelo_inurba_marseille","lat":43.28273,"lon":5.35061,"is_reserved":false,"is_disabled":true,"rental_uris":{"android":"levelo://app?vid=78ee063a-5f1e-4634-b782-fad7e6ea49bb","ios":"levelo://app?vid=78ee063a-5f1e-4634-b782-fad7e6ea49bb"},"vehicle_type_id":"4","last_reported":1779345696,"current_range_meters":3200,"station_id":"ce4bhbp2rcd13ifvqerg","pricing_plan_id":"cebpf4jnsgd1na2vs0mg"},{"bike_id":"13906fa3-7ad6-4abd-ab59-6fb3d01221a9","system_id":"levelo_inurba_marseille","lat":43.26202,"lon":5.37448,"is_reserved":false,"is_disabled":true,"rental_uris":{"android":"levelo://app?vid=13906fa3-7ad6-4abd-ab59-6fb3d01221a9","ios":"levelo://app?vid=13906fa3-7ad6-4abd-ab59-6fb3d01221a9"},"vehicle_type_id":"4","last_reported":1779345696,"current_range_meters":3200,"station_id":"ce4bhgp2rcd13ifvqfc0","pricing_plan_id":"cebpf4jnsgd1na2vs0mg"},{"bike_id":"94133b29-971d-48eb-9475-ae0b64fbd116","system_id":"levelo_inurba_marseille","lat":43.28197,"lon":5.38156,"is_reserved":false,"is_disabled":false,"rental_uris":{"android":"levelo://app?vid=94133b29-971d-48eb-9475-ae0b64fbd116","ios":"levelo://app?vid=94133b29-971d-48eb-9475-ae0b64fbd116"},"vehicle_type_id":"4","last_reported":1779345696,"current_range_meters":3200,"station_id":"","pricing_plan_id":"cebpf4jnsgd1na2vs0mg"},{"bike_id":"b905ca94-3071-4f16-9ce5-d80026149c93","system_id":"levelo_inurba_marseille","lat":43.3168,"lon":5.43692,"is_reserved":false,"is_disabled":false,"rental_uris":{"android":"levelo://app?vid=b905ca94-3071-4f16-9ce5-d80026149c93","ios":"levelo://app?vid=b905ca94-3071-4f16-9ce5-d80026149c93"},"vehicle_type_id":"4","last_reported":1779345696,"current_range_meters":3200,"station_id":"ce4bhp92rcd13ifvqhcg","pricing_plan_id":"cebpf4jnsgd1na2vs0mg"},{"bike_id":"65eb9ff9-15c9-4a56-bd3a-d3588f69bdf0","system_id":"levelo_inurba_marseille","lat":43.31887,"lon":5.40876,"is_reserved":false,"is_disabled":false,"rental_uris":{"android":"levelo://app?vid=65eb9ff9-15c9-4a56-bd3a-d3588f69bdf0","ios":"levelo://app?vid=65eb9ff9-15c9-4a56-bd3a-d3588f69bdf0"},"vehicle_type_id":"4","last_reported":1779345696,"current_range_meters":3200,"station_id":"","pricing_plan_id":"cebpf4jnsgd1na2vs0mg"},{"bike_id":"4d9ee6d9-5b9f-446e-ba40-dccb3a9755fd","system_id":"levelo_inurba_marseille","lat":43.24797,"lon":5.37444,"is_reserved":false,"is_disabled":true,"rental_uris":{"android":"levelo://app?vid=4d9ee6d9-5b9f-446e-ba40-dccb3a9755fd","ios":"levelo://app?vid=4d9ee6d9-5b9f-446e-ba40-dccb3a9755fd"},"vehicle_type_id":"4","last_reported":1779345696,"current_range_meters":3200,"station_id":"ce4bhgh2rcd13ifvqfb0","pricing_plan_id":"cebpf4jnsgd1na2vs0mg"},{"bike_id":"830fbec4-0a75-4e1e-a4d5-ab2e34d5b368","system_id":"levelo_inurba_marseille","lat":43.31332,"lon":5.36837,"is_reserved":false,"is_disabled":false,"rental_uris":{"android":"levelo://app?vid=830fbec4-0a75-4e1e-a4d5-ab2e34d5b368","ios":"levelo://app?vid=830fbec4-0a75-4e1e-a4d5-ab2e34d5b368"},"vehicle_type_id":"4","last_reported":1779345696,"current_range_meters":3200,"station_id":"","pricing_plan_id":"cebpf4jnsgd1na2vs0mg"},{"bike_id":"3a50c5a4-deb8-4283-a331-71ea6e0504a8","system_id":"levelo_inurba_marseille","lat":43.28536,"lon":5.44089,"is_reserved":false,"is_disabled":false,"rental_uris":{"android":"levelo://app?vid=3a50c5a4-deb8-4283-a331-71ea6e0504a8","ios":"levelo://app?vid=3a50c5a4-deb8-4283-a331-71ea6e0504a8"},"vehicle_type_id":"4","last_reported":1779345696,"current_range_meters":3600,"station_id":"st_d3j3df2ikq2c7380ej80","pricing_plan_id":"cebpf4jnsgd1na2vs0mg"},{"bike_id":"2dd2dd40-3c93-4eac-980f-c8d3da616b3c","system_id":"levelo_inurba_marseille","lat":43.29696,"lon":5.36676,"is_reserved":false,"is_disabled":false,"rental_uris":{"android":"levelo://app?vid=2dd2dd40-3c93-4eac-980f-c8d3da616b3c","ios":"levelo://app?vid=2dd2dd40-3c93-4eac-980f-c8d3da616b3c"},"vehicle_type_id":"4","last_reported":1779345696,"current_range_meters":3600,"station_id":"","pricing_plan_id":"cebpf4jnsgd1na2vs0mg"},{"bike_id":"f6025abd-7600-48ca-a17a-986bf5349c82","system_id":"levelo_inurba_marseille","lat":43.25724,"lon":5.41111,"is_reserved":false,"is_disabled":false,"rental_uris":{"android":"levelo://app?vid=f6025abd-7600-48ca-a17a-986bf5349c82","ios":"levelo://app?vid=f6025abd-7600-48ca-a17a-986bf5349c82"},"vehicle_type_id":"4","last_reported":1779345696,"current_range_meters":3600,"station_id":"ce4bhkp2rcd13ifvqgd0","pricing_plan_id":"cebpf4jnsgd1na2vs0mg"},{"bike_id":"6160ae8e-a0ef-40fb-a824-ac8b6555538f","system_id":"levelo_inurba_marseille","lat":43.26647,"lon":5.38981,"is_reserved":false,"is_disabled":false,"rental_uris":{"android":"levelo://app?vid=6160ae8e-a0ef-40fb-a824-ac8b6555538f","ios":"levelo://app?vid=6160ae8e-a0ef-40fb-a824-ac8b6555538f"},"vehicle_type_id":"4","last_reported":1779345696,"current_range_meters":3600,"station_id":"","pricing_plan_id":"cebpf4jnsgd1na2vs0mg"},{"bike_id":"e4850232-cc78-4e9f-9019-c3172df3a0df","system_id":"levelo_inurba_marseille","lat":43.28829,"lon":5.38212,"is_reserved":false,"is_disabled":false,"rental_uris":{"android":"levelo://app?vid=e4850232-cc78-4e9f-9019-c3172df3a0df","ios":"levelo://app?vid=e4850232-cc78-4e9f-9019-c3172df3a0df"},"vehicle_type_id":"4","last_reported":1779345696,"current_range_meters":3600,"station_id":"","pricing_plan_id":"cebpf4jnsgd1na2vs0mg"},{"bike_id":"88b71783-5a76-45d7-95c1-e155059fa86a","system_id":"levelo_inurba_marseille","lat":43.28942,"lon":5.3963,"is_reserved":false,"is_disabled":false,"rental_uris":{"android":"levelo://app?vid=88b71783-5a76-45d7-95c1-e155059fa86a","ios":"levelo://app?vid=88b71783-5a76-45d7-95c1-e155059fa86a"},"vehicle_type_id":"4","last_reported":1779345696,"current_range_meters":4000,"station_id":"ce4bh3h2rcd13ifvqdn0","pricing_plan_id":"cebpf4jnsgd1na2vs0mg"},{"bike_id":"e114369b-ffe7-4482-a0e6-09023969a312","system_id":"levelo_inurba_marseille","lat":43.279163,"lon":5.395731,"is_reserved":false,"is_disabled":false,"rental_uris":{"android":"levelo://app?vid=e114369b-ffe7-4482-a0e6-09023969a312","ios":"levelo://app?vid=e114369b-ffe7-4482-a0e6-09023969a312"},"vehicle_type_id":"4","last_reported":1779345696,"current_range_meters":4000,"station_id":"ce4bhf92rcd13ifvqf40","pricing_plan_id":"cebpf4jnsgd1na2vs0mg"},{"bike_id":"59a9bad7-c033-45d8-9bc7-dc735305b53b","system_id":"levelo_inurba_marseille","lat":43.30104,"lon":5.38103,"is_reserved":false,"is_disabled":false,"rental_uris":{"android":"levelo://app?vid=59a9bad7-c033-45d8-9bc7-dc735305b53b","ios":"levelo://app?vid=59a9bad7-c033-45d8-9bc7-dc735305b53b"},"vehicle_type_id":"4","last_reported":1779345696,"current_range_meters":4000,"station_id":"ce4bgjp2rcd13ifvqbh0","pricing_plan_id":"cebpf4jnsgd1na2vs0mg"},{"bike_id":"4341a76c-de83-439a-8ce3-4ff3f63ae155","system_id":"levelo_inurba_marseille","lat":43.28944,"lon":5.36624,"is_reserved":false,"is_disabled":false,"rental_uris":{"android":"levelo://app?vid=4341a76c-de83-439a-8ce3-4ff3f63ae155","ios":"levelo://app?vid=4341a76c-de83-439a-8ce3-4ff3f63ae155"},"vehicle_type_id":"4","last_reported":1779345696,"current_range_meters":4000,"station_id":"ce4bhap2rcd13ifvqek0","pricing_plan_id":"cebpf4jnsgd1na2vs0mg"},{"bike_id":"ed0a2e31-3f52-4952-819a-710fa6677d96","system_id":"levelo_inurba_marseille","lat":43.28701,"lon":5.4668,"is_reserved":false,"is_disabled":false,"rental_uris":{"android":"levelo://app?vid=ed0a2e31-3f52-4952-819a-710fa6677d96","ios":"levelo://app?vid=ed0a2e31-3f52-4952-819a-710fa6677d96"},"vehicle_type_id":"4","last_reported":1779345696,"current_range_meters":4000,"station_id":"st_d6tc3vkotcvc738tfjhg","pricing_plan_id":"cebpf4jnsgd1na2vs0mg"},{"bike_id":"170f04ed-c770-4a62-8a64-a4eac3d9484b","system_id":"levelo_inurba_marseille","lat":43.30194,"lon":5.36623,"is_reserved":false,"is_disabled":false,"rental_uris":{"android":"levelo://app?vid=170f04ed-c770-4a62-8a64-a4eac3d9484b","ios":"levelo://app?vid=170f04ed-c770-4a62-8a64-a4eac3d9484b"},"vehicle_type_id":"4","last_reported":1779345696,"current_range_meters":4000,"station_id":"ce4bgrh2rcd13ifvqc8g","pricing_plan_id":"cebpf4jnsgd1na2vs0mg"},{"bike_id":"cc4d7ae3-c5f7-4b04-bb34-9909f7f7970d","system_id":"levelo_inurba_marseille","lat":43.2925,"lon":5.40908,"is_reserved":false,"is_disabled":true,"rental_uris":{"android":"levelo://app?vid=cc4d7ae3-c5f7-4b04-bb34-9909f7f7970d","ios":"levelo://app?vid=cc4d7ae3-c5f7-4b04-bb34-9909f7f7970d"},"vehicle_type_id":"4","last_reported":1779345696,"current_range_meters":4000,"station_id":"ce4bh192rcd13ifvqdc0","pricing_plan_id":"cebpf4jnsgd1na2vs0mg"},{"bike_id":"ec733054-5754-41a2-b7c7-49381f677d69","system_id":"levelo_inurba_marseille","lat":43.31518,"lon":5.37324,"is_reserved":false,"is_disabled":false,"rental_uris":{"android":"levelo://app?vid=ec733054-5754-41a2-b7c7-49381f677d69","ios":"levelo://app?vid=ec733054-5754-41a2-b7c7-49381f677d69"},"vehicle_type_id":"4","last_reported":1779345696,"current_range_meters":4000,"station_id":"ce4bgt12rcd13ifvqcd0","pricing_plan_id":"cebpf4jnsgd1na2vs0mg"},{"bike_id":"9610b6c1-4de4-4635-adca-70fccdbaf631","system_id":"levelo_inurba_marseille","lat":43.2954,"lon":5.38542,"is_reserved":false,"is_disabled":true,"rental_uris":{"android":"levelo://app?vid=9610b6c1-4de4-4635-adca-70fccdbaf631","ios":"levelo://app?vid=9610b6c1-4de4-4635-adca-70fccdbaf631"},"vehicle_type_id":"4","last_reported":1779345696,"current_range_meters":4000,"station_id":"ce4bgih2rcd13ifvqba0","pricing_plan_id":"cebpf4jnsgd1na2vs0mg"},{"bike_id":"9098e61d-9a28-42cd-ae67-b1623c7e5a2f","system_id":"levelo_inurba_marseille","lat":43.31078,"lon":5.4242,"is_reserved":false,"is_disabled":false,"rental_uris":{"android":"levelo://app?vid=9098e61d-9a28-42cd-ae67-b1623c7e5a2f","ios":"levelo://app?vid=9098e61d-9a28-42cd-ae67-b1623c7e5a2f"},"vehicle_type_id":"4","last_reported":1779345696,"current_range_meters":4000,"station_id":"ce4bhp92rcd13ifvqhag","pricing_plan_id":"cebpf4jnsgd1na2vs0mg"},{"bike_id":"ab3d0653-ceb0-447c-b6ee-1608aa7ac29d","system_id":"levelo_inurba_marseille","lat":43.29205,"lon":5.46007,"is_reserved":false,"is_disabled":false,"rental_uris":{"android":"levelo://app?vid=ab3d0653-ceb0-447c-b6ee-1608aa7ac29d","ios":"levelo://app?vid=ab3d0653-ceb0-447c-b6ee-1608aa7ac29d"},"vehicle_type_id":"4","last_reported":1779345696,"current_range_meters":4000,"station_id":"","pricing_plan_id":"cebpf4jnsgd1na2vs0mg"},{"bike_id":"1945c429-a6b3-4afe-8b4e-c989148ef8b4","system_id":"levelo_inurba_marseille","lat":43.28628,"lon":5.37795,"is_reserved":false,"is_disabled":false,"rental_uris":{"android":"levelo://app?vid=1945c429-a6b3-4afe-8b4e-c989148ef8b4","ios":"levelo://app?vid=1945c429-a6b3-4afe-8b4e-c989148ef8b4"},"vehicle_type_id":"4","last_reported":1779345696,"current_range_meters":4000,"station_id":"","pricing_plan_id":"cebpf4jnsgd1na2vs0mg"},{"bike_id":"1a1e423d-336e-4f08-8cdb-839ca792da64","system_id":"levelo_inurba_marseille","lat":43.28484,"lon":5.48381,"is_reserved":false,"is_disabled":false,"rental_uris":{"android":"levelo://app?vid=1a1e423d-336e-4f08-8cdb-839ca792da64","ios":"levelo://app?vid=1a1e423d-336e-4f08-8cdb-839ca792da64"},"vehicle_type_id":"4","last_reported":1779345696,"current_range_meters":4400,"station_id":"st_d3svhcjqgbts73a3dn0g","pricing_plan_id":"cebpf4jnsgd1na2vs0mg"},{"bike_id":"7f52e041-b2aa-43cb-aef2-6b7d2d007936","system_id":"levelo_inurba_marseille","lat":43.3133,"lon":5.36719,"is_reserved":false,"is_disabled":false,"rental_uris":{"android":"levelo://app?vid=7f52e041-b2aa-43cb-aef2-6b7d2d007936","ios":"levelo://app?vid=7f52e041-b2aa-43cb-aef2-6b7d2d007936"},"vehicle_type_id":"4","last_reported":1779345696,"current_range_meters":4400,"station_id":"ce4bgr92rcd13ifvqc6g","pricing_plan_id":"cebpf4jnsgd1na2vs0mg"},{"bike_id":"9cc19fa3-fa0a-4823-9c74-ac823616ec39","system_id":"levelo_inurba_marseille","lat":43.29979,"lon":5.37174,"is_reserved":false,"is_disabled":false,"rental_uris":{"android":"levelo://app?vid=9cc19fa3-fa0a-4823-9c74-ac823616ec39","ios":"levelo://app?vid=9cc19fa3-fa0a-4823-9c74-ac823616ec39"},"vehicle_type_id":"4","last_reported":1779345696,"current_range_meters":4400,"station_id":"ce4bgr92rcd13ifvqc7g","pricing_plan_id":"cebpf4jnsgd1na2vs0mg"},{"bike_id":"f178bb57-2c11-4fbd-b133-c8300f76f39c","system_id":"levelo_inurba_marseille","lat":43.3122,"lon":5.36859,"is_reserved":false,"is_disabled":false,"rental_uris":{"android":"levelo://app?vid=f178bb57-2c11-4fbd-b133-c8300f76f39c","ios":"levelo://app?vid=f178bb57-2c11-4fbd-b133-c8300f76f39c"},"vehicle_type_id":"4","last_reported":1779345696,"current_range_meters":4400,"station_id":"ce4bgl92rcd13ifvqbq0","pricing_plan_id":"cebpf4jnsgd1na2vs0mg"},{"bike_id":"c202bc15-6fd2-4b5b-b9f8-fe2a7981a9a0","system_id":"levelo_inurba_marseille","lat":43.2332,"lon":5.35915,"is_reserved":false,"is_disabled":false,"rental_uris":{"android":"levelo://app?vid=c202bc15-6fd2-4b5b-b9f8-fe2a7981a9a0","ios":"levelo://app?vid=c202bc15-6fd2-4b5b-b9f8-fe2a7981a9a0"},"vehicle_type_id":"4","last_reported":1779345696,"current_range_meters":4400,"station_id":"","pricing_plan_id":"cebpf4jnsgd1na2vs0mg"},{"bike_id":"e8117f4a-d813-4419-ac1c-c1fe204def3b","system_id":"levelo_inurba_marseille","lat":43.30535,"lon":5.38438,"is_reserved":false,"is_disabled":false,"rental_uris":{"android":"levelo://app?vid=e8117f4a-d813-4419-ac1c-c1fe204def3b","ios":"levelo://app?vid=e8117f4a-d813-4419-ac1c-c1fe204def3b"},"vehicle_type_id":"4","last_reported":1779345696,"current_range_meters":4400,"station_id":"ce4bgg92rcd13ifvqb30","pricing_plan_id":"cebpf4jnsgd1na2vs0mg"},{"bike_id":"47c9cb97-371d-4e9f-9c20-83aba40029f7","system_id":"levelo_inurba_marseille","lat":43.225321,"lon":5.348338,"is_reserved":false,"is_disabled":false,"rental_uris":{"android":"levelo://app?vid=47c9cb97-371d-4e9f-9c20-83aba40029f7","ios":"levelo://app?vid=47c9cb97-371d-4e9f-9c20-83aba40029f7"},"vehicle_type_id":"4","last_reported":1779345696,"current_range_meters":4400,"station_id":"st_cvj5dfep6f1abm77gieg","pricing_plan_id":"cebpf4jnsgd1na2vs0mg"},{"bike_id":"11ebec84-5e98-4ff4-84d6-9b02b3f2f60b","system_id":"levelo_inurba_marseille","lat":43.3152,"lon":5.37284,"is_reserved":false,"is_disabled":false,"rental_uris":{"android":"levelo://app?vid=11ebec84-5e98-4ff4-84d6-9b02b3f2f60b","ios":"levelo://app?vid=11ebec84-5e98-4ff4-84d6-9b02b3f2f60b"},"vehicle_type_id":"4","last_reported":1779345696,"current_range_meters":4400,"station_id":"ce4bgt12rcd13ifvqcd0","pricing_plan_id":"cebpf4jnsgd1na2vs0mg"},{"bike_id":"da944e72-44c6-4bd2-9c1b-1671f752e12e","system_id":"levelo_inurba_marseille","lat":43.28426,"lon":5.35007,"is_reserved":false,"is_disabled":false,"rental_uris":{"android":"levelo://app?vid=da944e72-44c6-4bd2-9c1b-1671f752e12e","ios":"levelo://app?vid=da944e72-44c6-4bd2-9c1b-1671f752e12e"},"vehicle_type_id":"4","last_reported":1779345696,"current_range_meters":4400,"station_id":"ce4bhbh2rcd13ifvqepg","pricing_plan_id":"cebpf4jnsgd1na2vs0mg"},{"bike_id":"1eab4cac-a1a5-4765-adcf-f35d82374bfb","system_id":"levelo_inurba_marseille","lat":43.29031,"lon":5.38118,"is_reserved":false,"is_disabled":false,"rental_uris":{"android":"levelo://app?vid=1eab4cac-a1a5-4765-adcf-f35d82374bfb","ios":"levelo://app?vid=1eab4cac-a1a5-4765-adcf-f35d82374bfb"},"vehicle_type_id":"4","last_reported":1779345696,"current_range_meters":4400,"station_id":"ce4bh4p2rcd13ifvqe1g","pricing_plan_id":"cebpf4jnsgd1na2vs0mg"},{"bike_id":"7e7baf03-24b6-4996-8b95-34d4e5760aba","system_id":"levelo_inurba_marseille","lat":43.29027,"lon":5.38649,"is_reserved":false,"is_disabled":true,"rental_uris":{"android":"levelo://app?vid=7e7baf03-24b6-4996-8b95-34d4e5760aba","ios":"levelo://app?vid=7e7baf03-24b6-4996-8b95-34d4e5760aba"},"vehicle_type_id":"4","last_reported":1779345696,"current_range_meters":4400,"station_id":"ce4bh4p2rcd13ifvqe0g","pricing_plan_id":"cebpf4jnsgd1na2vs0mg"},{"bike_id":"52a52055-77e8-4305-881e-18c1ae222a72","system_id":"levelo_inurba_marseille","lat":43.24074,"lon":5.3775,"is_reserved":false,"is_disabled":false,"rental_uris":{"android":"levelo://app?vid=52a52055-77e8-4305-881e-18c1ae222a72","ios":"levelo://app?vid=52a52055-77e8-4305-881e-18c1ae222a72"},"vehicle_type_id":"4","last_reported":1779345696,"current_range_meters":4400,"station_id":"ce4bhnp2rcd13ifvqgvg","pricing_plan_id":"cebpf4jnsgd1na2vs0mg"},{"bike_id":"b419eb7c-0e72-42d3-ae8f-3b914fb58a1d","system_id":"levelo_inurba_marseille","lat":43.28737,"lon":5.37947,"is_reserved":false,"is_disabled":false,"rental_uris":{"android":"levelo://app?vid=b419eb7c-0e72-42d3-ae8f-3b914fb58a1d","ios":"levelo://app?vid=b419eb7c-0e72-42d3-ae8f-3b914fb58a1d"},"vehicle_type_id":"4","last_reported":1779345696,"current_range_meters":4800,"station_id":"ce4bh9p2rcd13ifvqec0","pricing_plan_id":"cebpf4jnsgd1na2vs0mg"},{"bike_id":"6e56ddd0-7524-400e-9ead-6aa874825d80","system_id":"levelo_inurba_marseille","lat":43.2819,"lon":5.39042,"is_reserved":false,"is_disabled":false,"rental_uris":{"android":"levelo://app?vid=6e56ddd0-7524-400e-9ead-6aa874825d80","ios":"levelo://app?vid=6e56ddd0-7524-400e-9ead-6aa874825d80"},"vehicle_type_id":"4","last_reported":1779345696,"current_range_meters":4800,"station_id":"","pricing_plan_id":"cebpf4jnsgd1na2vs0mg"},{"bike_id":"6e24a969-0f97-4d59-87fe-fb88bdf57d03","system_id":"levelo_inurba_marseille","lat":43.28373,"lon":5.38632,"is_reserved":false,"is_disabled":false,"rental_uris":{"android":"levelo://app?vid=6e24a969-0f97-4d59-87fe-fb88bdf57d03","ios":"levelo://app?vid=6e24a969-0f97-4d59-87fe-fb88bdf57d03"},"vehicle_type_id":"4","last_reported":1779345696,"current_range_meters":4800,"station_id":"ce4bh492rcd13ifvqdvg","pricing_plan_id":"cebpf4jnsgd1na2vs0mg"},{"bike_id":"971279ad-c3ba-4571-819f-fa9941bdb7dc","system_id":"levelo_inurba_marseille","lat":43.28542,"lon":5.44153,"is_reserved":false,"is_disabled":true,"rental_uris":{"android":"levelo://app?vid=971279ad-c3ba-4571-819f-fa9941bdb7dc","ios":"levelo://app?vid=971279ad-c3ba-4571-819f-fa9941bdb7dc"},"vehicle_type_id":"4","last_reported":1779345696,"current_range_meters":4800,"station_id":"st_d3j3df2ikq2c7380ej80","pricing_plan_id":"cebpf4jnsgd1na2vs0mg"},{"bike_id":"291bce7d-95a9-4f5c-a2d8-de5b55889c52","system_id":"levelo_inurba_marseille","lat":43.31443,"lon":5.37389,"is_reserved":false,"is_disabled":false,"rental_uris":{"android":"levelo://app?vid=291bce7d-95a9-4f5c-a2d8-de5b55889c52","ios":"levelo://app?vid=291bce7d-95a9-4f5c-a2d8-de5b55889c52"},"vehicle_type_id":"4","last_reported":1779345696,"current_range_meters":4800,"station_id":"","pricing_plan_id":"cebpf4jnsgd1na2vs0mg"},{"bike_id":"dcab00e4-b3bd-4572-b937-f215ffccae6a","system_id":"levelo_inurba_marseille","lat":43.26948,"lon":5.40248,"is_reserved":false,"is_disabled":false,"rental_uris":{"android":"levelo://app?vid=dcab00e4-b3bd-4572-b937-f215ffccae6a","ios":"levelo://app?vid=dcab00e4-b3bd-4572-b937-f215ffccae6a"},"vehicle_type_id":"4","last_reported":1779345696,"current_range_meters":4800,"station_id":"cjm6bp8fraef2m0cb0m0","pricing_plan_id":"cebpf4jnsgd1na2vs0mg"},{"bike_id":"1c25aaa8-0f7d-4b5d-87a7-67e7592b9dbc","system_id":"levelo_inurba_marseille","lat":43.31328,"lon":5.36727,"is_reserved":false,"is_disabled":false,"rental_uris":{"android":"levelo://app?vid=1c25aaa8-0f7d-4b5d-87a7-67e7592b9dbc","ios":"levelo://app?vid=1c25aaa8-0f7d-4b5d-87a7-67e7592b9dbc"},"vehicle_type_id":"4","last_reported":1779345696,"current_range_meters":4800,"station_id":"ce4bgr92rcd13ifvqc6g","pricing_plan_id":"cebpf4jnsgd1na2vs0mg"},{"bike_id":"bea3a927-4329-4d50-b1d7-ad4c58e7f298","system_id":"levelo_inurba_marseille","lat":43.24679,"lon":5.38132,"is_reserved":false,"is_disabled":false,"rental_uris":{"android":"levelo://app?vid=bea3a927-4329-4d50-b1d7-ad4c58e7f298","ios":"levelo://app?vid=bea3a927-4329-4d50-b1d7-ad4c58e7f298"},"vehicle_type_id":"4","last_reported":1779345696,"current_range_meters":5600,"station_id":"ce4bhih2rcd13ifvqfr0","pricing_plan_id":"cebpf4jnsgd1na2vs0mg"},{"bike_id":"931f0d4f-f79d-43bd-844d-c17a85f6359a","system_id":"levelo_inurba_marseille","lat":43.29042,"lon":5.39952,"is_reserved":false,"is_disabled":false,"rental_uris":{"android":"levelo://app?vid=931f0d4f-f79d-43bd-844d-c17a85f6359a","ios":"levelo://app?vid=931f0d4f-f79d-43bd-844d-c17a85f6359a"},"vehicle_type_id":"4","last_reported":1779345696,"current_range_meters":5600,"station_id":"ce4bh392rcd13ifvqdm0","pricing_plan_id":"cebpf4jnsgd1na2vs0mg"},{"bike_id":"6678e321-5389-4431-9c53-24777ba9d6de","system_id":"levelo_inurba_marseille","lat":43.29064,"lon":5.37148,"is_reserved":false,"is_disabled":false,"rental_uris":{"android":"levelo://app?vid=6678e321-5389-4431-9c53-24777ba9d6de","ios":"levelo://app?vid=6678e321-5389-4431-9c53-24777ba9d6de"},"vehicle_type_id":"4","last_reported":1779345696,"current_range_meters":5600,"station_id":"ce4bh5p2rcd13ifvqe4g","pricing_plan_id":"cebpf4jnsgd1na2vs0mg"},{"bike_id":"c5e693a5-5aee-4f2f-b3d3-ad6fe1a5da64","system_id":"levelo_inurba_marseille","lat":43.3246,"lon":5.36574,"is_reserved":false,"is_disabled":false,"rental_uris":{"android":"levelo://app?vid=c5e693a5-5aee-4f2f-b3d3-ad6fe1a5da64","ios":"levelo://app?vid=c5e693a5-5aee-4f2f-b3d3-ad6fe1a5da64"},"vehicle_type_id":"4","last_reported":1779345696,"current_range_meters":5600,"station_id":"ce4bhs12rcd13ifvqhvg","pricing_plan_id":"cebpf4jnsgd1na2vs0mg"},{"bike_id":"ce767e1d-3146-4d36-b9f5-2464c56e82bc","system_id":"levelo_inurba_marseille","lat":43.3122,"lon":5.36754,"is_reserved":false,"is_disabled":false,"rental_uris":{"android":"levelo://app?vid=ce767e1d-3146-4d36-b9f5-2464c56e82bc","ios":"levelo://app?vid=ce767e1d-3146-4d36-b9f5-2464c56e82bc"},"vehicle_type_id":"4","last_reported":1779345696,"current_range_meters":5600,"station_id":"","pricing_plan_id":"cebpf4jnsgd1na2vs0mg"},{"bike_id":"10a6ad89-90b3-4175-8560-8712ab5583af","system_id":"levelo_inurba_marseille","lat":43.30146,"lon":5.37422,"is_reserved":false,"is_disabled":false,"rental_uris":{"android":"levelo://app?vid=10a6ad89-90b3-4175-8560-8712ab5583af","ios":"levelo://app?vid=10a6ad89-90b3-4175-8560-8712ab5583af"},"vehicle_type_id":"4","last_reported":1779345696,"current_range_meters":5600,"station_id":"ce4bgs92rcd13ifvqcc0","pricing_plan_id":"cebpf4jnsgd1na2vs0mg"},{"bike_id":"e38caa21-a14a-4197-88a1-db68aad57c56","system_id":"levelo_inurba_marseille","lat":43.28682,"lon":5.46668,"is_reserved":false,"is_disabled":false,"rental_uris":{"android":"levelo://app?vid=e38caa21-a14a-4197-88a1-db68aad57c56","ios":"levelo://app?vid=e38caa21-a14a-4197-88a1-db68aad57c56"},"vehicle_type_id":"4","last_reported":1779345696,"current_range_meters":5600,"station_id":"st_d6tc3vkotcvc738tfjhg","pricing_plan_id":"cebpf4jnsgd1na2vs0mg"},{"bike_id":"4a6f2f62-0595-4cee-94ec-9f0d075b0093","system_id":"levelo_inurba_marseille","lat":43.2722,"lon":5.39202,"is_reserved":false,"is_disabled":false,"rental_uris":{"android":"levelo://app?vid=4a6f2f62-0595-4cee-94ec-9f0d075b0093","ios":"levelo://app?vid=4a6f2f62-0595-4cee-94ec-9f0d075b0093"},"vehicle_type_id":"4","last_reported":1779345696,"current_range_meters":5600,"station_id":"ce4bhhp2rcd13ifvqfm0","pricing_plan_id":"cebpf4jnsgd1na2vs0mg"},{"bike_id":"5b204f4b-b296-45d4-912e-16425feeb896","system_id":"levelo_inurba_marseille","lat":43.29818,"lon":5.40427,"is_reserved":false,"is_disabled":false,"rental_uris":{"android":"levelo://app?vid=5b204f4b-b296-45d4-912e-16425feeb896","ios":"levelo://app?vid=5b204f4b-b296-45d4-912e-16425feeb896"},"vehicle_type_id":"4","last_reported":1779345696,"current_range_meters":5600,"station_id":"ce4bh112rcd13ifvqd90","pricing_plan_id":"cebpf4jnsgd1na2vs0mg"},{"bike_id":"c516a5ed-b3ae-497a-8fb4-e4a29969a0c7","system_id":"levelo_inurba_marseille","lat":43.29549,"lon":5.39949,"is_reserved":false,"is_disabled":true,"rental_uris":{"android":"levelo://app?vid=c516a5ed-b3ae-497a-8fb4-e4a29969a0c7","ios":"levelo://app?vid=c516a5ed-b3ae-497a-8fb4-e4a29969a0c7"},"vehicle_type_id":"4","last_reported":1779345696,"current_range_meters":5600,"station_id":"ce4bh312rcd13ifvqdj0","pricing_plan_id":"cebpf4jnsgd1na2vs0mg"},{"bike_id":"f866df32-1984-464f-b169-bf63661abae8","system_id":"levelo_inurba_marseille","lat":43.2718,"lon":5.41004,"is_reserved":false,"is_disabled":false,"rental_uris":{"android":"levelo://app?vid=f866df32-1984-464f-b169-bf63661abae8","ios":"levelo://app?vid=f866df32-1984-464f-b169-bf63661abae8"},"vehicle_type_id":"4","last_reported":1779345696,"current_range_meters":5600,"station_id":"ce4bhl12rcd13ifvqgf0","pricing_plan_id":"cebpf4jnsgd1na2vs0mg"},{"bike_id":"29a6c69b-9046-4db1-bb8e-6ead001dacf1","system_id":"levelo_inurba_marseille","lat":43.27315,"lon":5.39089,"is_reserved":false,"is_disabled":false,"rental_uris":{"android":"levelo://app?vid=29a6c69b-9046-4db1-bb8e-6ead001dacf1","ios":"levelo://app?vid=29a6c69b-9046-4db1-bb8e-6ead001dacf1"},"vehicle_type_id":"4","last_reported":1779345696,"current_range_meters":5600,"station_id":"ce4bhgp2rcd13ifvqfe0","pricing_plan_id":"cebpf4jnsgd1na2vs0mg"},{"bike_id":"13792726-3cae-4948-839d-a0e6a6a16e40","system_id":"levelo_inurba_marseille","lat":43.28342,"lon":5.38105,"is_reserved":false,"is_disabled":false,"rental_uris":{"android":"levelo://app?vid=13792726-3cae-4948-839d-a0e6a6a16e40","ios":"levelo://app?vid=13792726-3cae-4948-839d-a0e6a6a16e40"},"vehicle_type_id":"4","last_reported":1779345696,"current_range_meters":5600,"station_id":"","pricing_plan_id":"cebpf4jnsgd1na2vs0mg"},{"bike_id":"37d1eac1-3743-4b79-a265-2a16f0f4d90d","system_id":"levelo_inurba_marseille","lat":43.29604,"lon":5.37725,"is_reserved":false,"is_disabled":true,"rental_uris":{"android":"levelo://app?vid=37d1eac1-3743-4b79-a265-2a16f0f4d90d","ios":"levelo://app?vid=37d1eac1-3743-4b79-a265-2a16f0f4d90d"},"vehicle_type_id":"4","last_reported":1779345696,"current_range_meters":6000,"station_id":"ce4bgi92rcd13ifvqb90","pricing_plan_id":"cebpf4jnsgd1na2vs0mg"},{"bike_id":"b0c3fc90-97d2-4734-ac76-b7559d809d47","system_id":"levelo_inurba_marseille","lat":43.29042,"lon":5.39964,"is_reserved":false,"is_disabled":false,"rental_uris":{"android":"levelo://app?vid=b0c3fc90-97d2-4734-ac76-b7559d809d47","ios":"levelo://app?vid=b0c3fc90-97d2-4734-ac76-b7559d809d47"},"vehicle_type_id":"4","last_reported":1779345696,"current_range_meters":6000,"station_id":"ce4bh392rcd13ifvqdm0","pricing_plan_id":"cebpf4jnsgd1na2vs0mg"},{"bike_id":"3a636bf3-84e4-4339-9994-403a1263860e","system_id":"levelo_inurba_marseille","lat":43.2783,"lon":5.39231,"is_reserved":false,"is_disabled":false,"rental_uris":{"android":"levelo://app?vid=3a636bf3-84e4-4339-9994-403a1263860e","ios":"levelo://app?vid=3a636bf3-84e4-4339-9994-403a1263860e"},"vehicle_type_id":"4","last_reported":1779345696,"current_range_meters":6000,"station_id":"ce4bhjp2rcd13ifvqga0","pricing_plan_id":"cebpf4jnsgd1na2vs0mg"},{"bike_id":"0241c479-cd07-4aa5-879a-fc2412a495e8","system_id":"levelo_inurba_marseille","lat":43.24774,"lon":5.40651,"is_reserved":false,"is_disabled":false,"rental_uris":{"android":"levelo://app?vid=0241c479-cd07-4aa5-879a-fc2412a495e8","ios":"levelo://app?vid=0241c479-cd07-4aa5-879a-fc2412a495e8"},"vehicle_type_id":"4","last_reported":1779345696,"current_range_meters":6000,"station_id":"","pricing_plan_id":"cebpf4jnsgd1na2vs0mg"},{"bike_id":"a3071a58-220a-49d7-933f-639eaa20dffd","system_id":"levelo_inurba_marseille","lat":43.28721,"lon":5.4271,"is_reserved":false,"is_disabled":false,"rental_uris":{"android":"levelo://app?vid=a3071a58-220a-49d7-933f-639eaa20dffd","ios":"levelo://app?vid=a3071a58-220a-49d7-933f-639eaa20dffd"},"vehicle_type_id":"4","last_reported":1779345696,"current_range_meters":6000,"station_id":"","pricing_plan_id":"cebpf4jnsgd1na2vs0mg"},{"bike_id":"8abba8cb-6df7-4abd-9677-4ca572eb13e8","system_id":"levelo_inurba_marseille","lat":43.28931,"lon":5.39635,"is_reserved":false,"is_disabled":false,"rental_uris":{"android":"levelo://app?vid=8abba8cb-6df7-4abd-9677-4ca572eb13e8","ios":"levelo://app?vid=8abba8cb-6df7-4abd-9677-4ca572eb13e8"},"vehicle_type_id":"4","last_reported":1779345696,"current_range_meters":6000,"station_id":"ce4bh3h2rcd13ifvqdn0","pricing_plan_id":"cebpf4jnsgd1na2vs0mg"},{"bike_id":"29d3f4a8-eb87-48d7-9078-200ee5029180","system_id":"levelo_inurba_marseille","lat":43.29207,"lon":5.36027,"is_reserved":false,"is_disabled":false,"rental_uris":{"android":"levelo://app?vid=29d3f4a8-eb87-48d7-9078-200ee5029180","ios":"levelo://app?vid=29d3f4a8-eb87-48d7-9078-200ee5029180"},"vehicle_type_id":"4","last_reported":1779345696,"current_range_meters":6000,"station_id":"ce4bhbh2rcd13ifvqeqg","pricing_plan_id":"cebpf4jnsgd1na2vs0mg"},{"bike_id":"5a938283-bd97-4afe-bccf-5238cbf0c1ba","system_id":"levelo_inurba_marseille","lat":43.30419,"lon":5.3975,"is_reserved":false,"is_disabled":false,"rental_uris":{"android":"levelo://app?vid=5a938283-bd97-4afe-bccf-5238cbf0c1ba","ios":"levelo://app?vid=5a938283-bd97-4afe-bccf-5238cbf0c1ba"},"vehicle_type_id":"4","last_reported":1779345696,"current_range_meters":6000,"station_id":"ce4bh092rcd13ifvqd20","pricing_plan_id":"cebpf4jnsgd1na2vs0mg"},{"bike_id":"4581f6a7-79e9-44cd-b96e-06f3561662b8","system_id":"levelo_inurba_marseille","lat":43.22537,"lon":5.34825,"is_reserved":false,"is_disabled":false,"rental_uris":{"android":"levelo://app?vid=4581f6a7-79e9-44cd-b96e-06f3561662b8","ios":"levelo://app?vid=4581f6a7-79e9-44cd-b96e-06f3561662b8"},"vehicle_type_id":"4","last_reported":1779345696,"current_range_meters":6000,"station_id":"st_cvj5dfep6f1abm77gieg","pricing_plan_id":"cebpf4jnsgd1na2vs0mg"},{"bike_id":"76d9f01a-7981-4ce9-bf0b-7ca3e26a009c","system_id":"levelo_inurba_marseille","lat":43.29004,"lon":5.37805,"is_reserved":false,"is_disabled":true,"rental_uris":{"android":"levelo://app?vid=76d9f01a-7981-4ce9-bf0b-7ca3e26a009c","ios":"levelo://app?vid=76d9f01a-7981-4ce9-bf0b-7ca3e26a009c"},"vehicle_type_id":"4","last_reported":1779345696,"current_range_meters":6000,"station_id":"ce4bh9p2rcd13ifvqed0","pricing_plan_id":"cebpf4jnsgd1na2vs0mg"},{"bike_id":"b7c3b95f-f293-4392-b84f-7d67115e4485","system_id":"levelo_inurba_marseille","lat":43.30543,"lon":5.38438,"is_reserved":false,"is_disabled":false,"rental_uris":{"android":"levelo://app?vid=b7c3b95f-f293-4392-b84f-7d67115e4485","ios":"levelo://app?vid=b7c3b95f-f293-4392-b84f-7d67115e4485"},"vehicle_type_id":"4","last_reported":1779345696,"current_range_meters":6000,"station_id":"ce4bgg92rcd13ifvqb30","pricing_plan_id":"cebpf4jnsgd1na2vs0mg"},{"bike_id":"80a22325-b83a-4d6b-bec2-deaf9ab6d823","system_id":"levelo_inurba_marseille","lat":43.30178,"lon":5.38081,"is_reserved":false,"is_disabled":false,"rental_uris":{"android":"levelo://app?vid=80a22325-b83a-4d6b-bec2-deaf9ab6d823","ios":"levelo://app?vid=80a22325-b83a-4d6b-bec2-deaf9ab6d823"},"vehicle_type_id":"4","last_reported":1779345696,"current_range_meters":6400,"station_id":"ce4bgjp2rcd13ifvqbh0","pricing_plan_id":"cebpf4jnsgd1na2vs0mg"},{"bike_id":"7975b169-5677-4dff-9b59-bed9c727a531","system_id":"levelo_inurba_marseille","lat":43.31133,"lon":5.37848,"is_reserved":false,"is_disabled":true,"rental_uris":{"android":"levelo://app?vid=7975b169-5677-4dff-9b59-bed9c727a531","ios":"levelo://app?vid=7975b169-5677-4dff-9b59-bed9c727a531"},"vehicle_type_id":"4","last_reported":1779345696,"current_range_meters":6400,"station_id":"","pricing_plan_id":"cebpf4jnsgd1na2vs0mg"},{"bike_id":"75e2c68f-638a-4ae2-bede-4f34839c38af","system_id":"levelo_inurba_marseille","lat":43.32102,"lon":5.36763,"is_reserved":false,"is_disabled":false,"rental_uris":{"android":"levelo://app?vid=75e2c68f-638a-4ae2-bede-4f34839c38af","ios":"levelo://app?vid=75e2c68f-638a-4ae2-bede-4f34839c38af"},"vehicle_type_id":"4","last_reported":1779345696,"current_range_meters":6400,"station_id":"ce4bhrh2rcd13ifvqhug","pricing_plan_id":"cebpf4jnsgd1na2vs0mg"},{"bike_id":"c028791d-682f-4b2a-8af5-f296d70b5de2","system_id":"levelo_inurba_marseille","lat":43.30579,"lon":5.39327,"is_reserved":false,"is_disabled":false,"rental_uris":{"android":"levelo://app?vid=c028791d-682f-4b2a-8af5-f296d70b5de2","ios":"levelo://app?vid=c028791d-682f-4b2a-8af5-f296d70b5de2"},"vehicle_type_id":"4","last_reported":1779345696,"current_range_meters":6400,"station_id":"ce4bh0p2rcd13ifvqd80","pricing_plan_id":"cebpf4jnsgd1na2vs0mg"},{"bike_id":"b6a287e1-8cbd-41f7-ad22-13bfaf641c30","system_id":"levelo_inurba_marseille","lat":43.289351,"lon":5.396233,"is_reserved":false,"is_disabled":false,"rental_uris":{"android":"levelo://app?vid=b6a287e1-8cbd-41f7-ad22-13bfaf641c30","ios":"levelo://app?vid=b6a287e1-8cbd-41f7-ad22-13bfaf641c30"},"vehicle_type_id":"4","last_reported":1779345696,"current_range_meters":6400,"station_id":"ce4bh3h2rcd13ifvqdn0","pricing_plan_id":"cebpf4jnsgd1na2vs0mg"},{"bike_id":"f56cb847-edf2-4543-abb2-9ba3a10d749a","system_id":"levelo_inurba_marseille","lat":43.29899,"lon":5.38152,"is_reserved":false,"is_disabled":false,"rental_uris":{"android":"levelo://app?vid=f56cb847-edf2-4543-abb2-9ba3a10d749a","ios":"levelo://app?vid=f56cb847-edf2-4543-abb2-9ba3a10d749a"},"vehicle_type_id":"4","last_reported":1779345696,"current_range_meters":6400,"station_id":"ce4bgj12rcd13ifvqbc0","pricing_plan_id":"cebpf4jnsgd1na2vs0mg"},{"bike_id":"e7b2834d-0414-4c8b-95bb-dbeba87a5cba","system_id":"levelo_inurba_marseille","lat":43.32935,"lon":5.38934,"is_reserved":false,"is_disabled":false,"rental_uris":{"android":"levelo://app?vid=e7b2834d-0414-4c8b-95bb-dbeba87a5cba","ios":"levelo://app?vid=e7b2834d-0414-4c8b-95bb-dbeba87a5cba"},"vehicle_type_id":"4","last_reported":1779345696,"current_range_meters":6400,"station_id":"","pricing_plan_id":"cebpf4jnsgd1na2vs0mg"},{"bike_id":"282c9669-7dad-469f-b087-8dbbc861bbc4","system_id":"levelo_inurba_marseille","lat":43.274223,"lon":5.394069,"is_reserved":false,"is_disabled":true,"rental_uris":{"android":"levelo://app?vid=282c9669-7dad-469f-b087-8dbbc861bbc4","ios":"levelo://app?vid=282c9669-7dad-469f-b087-8dbbc861bbc4"},"vehicle_type_id":"4","last_reported":1779345696,"current_range_meters":6400,"station_id":"ce4bhdp2rcd13ifvqf20","pricing_plan_id":"cebpf4jnsgd1na2vs0mg"},{"bike_id":"2cdc205c-d500-424f-979e-41ef8a9668b8","system_id":"levelo_inurba_marseille","lat":43.30603,"lon":5.37222,"is_reserved":false,"is_disabled":false,"rental_uris":{"android":"levelo://app?vid=2cdc205c-d500-424f-979e-41ef8a9668b8","ios":"levelo://app?vid=2cdc205c-d500-424f-979e-41ef8a9668b8"},"vehicle_type_id":"4","last_reported":1779345696,"current_range_meters":6400,"station_id":"ce4bgqh2rcd13ifvqc4g","pricing_plan_id":"cebpf4jnsgd1na2vs0mg"},{"bike_id":"9917874b-4685-438b-b2cd-9b78442adbdd","system_id":"levelo_inurba_marseille","lat":43.24092,"lon":5.37752,"is_reserved":false,"is_disabled":false,"rental_uris":{"android":"levelo://app?vid=9917874b-4685-438b-b2cd-9b78442adbdd","ios":"levelo://app?vid=9917874b-4685-438b-b2cd-9b78442adbdd"},"vehicle_type_id":"4","last_reported":1779345696,"current_range_meters":6400,"station_id":"ce4bhnp2rcd13ifvqgvg","pricing_plan_id":"cebpf4jnsgd1na2vs0mg"},{"bike_id":"381a1687-3b4c-4e43-ada7-0b296f458493","system_id":"levelo_inurba_marseille","lat":43.28734,"lon":5.467,"is_reserved":false,"is_disabled":false,"rental_uris":{"android":"levelo://app?vid=381a1687-3b4c-4e43-ada7-0b296f458493","ios":"levelo://app?vid=381a1687-3b4c-4e43-ada7-0b296f458493"},"vehicle_type_id":"4","last_reported":1779345696,"current_range_meters":6400,"station_id":"st_d6tc3vkotcvc738tfjhg","pricing_plan_id":"cebpf4jnsgd1na2vs0mg"},{"bike_id":"b8cb0ca9-b67d-49fe-825f-c0bcf70ec713","system_id":"levelo_inurba_marseille","lat":43.28585,"lon":5.39196,"is_reserved":false,"is_disabled":false,"rental_uris":{"android":"levelo://app?vid=b8cb0ca9-b67d-49fe-825f-c0bcf70ec713","ios":"levelo://app?vid=b8cb0ca9-b67d-49fe-825f-c0bcf70ec713"},"vehicle_type_id":"4","last_reported":1779345696,"current_range_meters":6400,"station_id":"","pricing_plan_id":"cebpf4jnsgd1na2vs0mg"},{"bike_id":"e74cc65c-76f1-42c6-85ab-a981a73da68b","system_id":"levelo_inurba_marseille","lat":43.22564,"lon":5.41616,"is_reserved":false,"is_disabled":false,"rental_uris":{"android":"levelo://app?vid=e74cc65c-76f1-42c6-85ab-a981a73da68b","ios":"levelo://app?vid=e74cc65c-76f1-42c6-85ab-a981a73da68b"},"vehicle_type_id":"4","last_reported":1779345696,"current_range_meters":6400,"station_id":"st_d2o4gvlbi1j2169b742g","pricing_plan_id":"cebpf4jnsgd1na2vs0mg"},{"bike_id":"76a5c913-50d9-463f-8787-d2e7d1a1860a","system_id":"levelo_inurba_marseille","lat":43.2575,"lon":5.41114,"is_reserved":false,"is_disabled":false,"rental_uris":{"android":"levelo://app?vid=76a5c913-50d9-463f-8787-d2e7d1a1860a","ios":"levelo://app?vid=76a5c913-50d9-463f-8787-d2e7d1a1860a"},"vehicle_type_id":"4","last_reported":1779345696,"current_range_meters":6400,"station_id":"ce4bhkp2rcd13ifvqgd0","pricing_plan_id":"cebpf4jnsgd1na2vs0mg"},{"bike_id":"8da072d2-bc69-4669-b8a2-c4b323a5ccfa","system_id":"levelo_inurba_marseille","lat":43.28415,"lon":5.37506,"is_reserved":false,"is_disabled":true,"rental_uris":{"android":"levelo://app?vid=8da072d2-bc69-4669-b8a2-c4b323a5ccfa","ios":"levelo://app?vid=8da072d2-bc69-4669-b8a2-c4b323a5ccfa"},"vehicle_type_id":"4","last_reported":1779345696,"current_range_meters":6400,"station_id":"ce4bh412rcd13ifvqds0","pricing_plan_id":"cebpf4jnsgd1na2vs0mg"},{"bike_id":"fb094e4b-6baa-4308-836f-97eb7d995621","system_id":"levelo_inurba_marseille","lat":43.2605,"lon":5.39392,"is_reserved":false,"is_disabled":false,"rental_uris":{"android":"levelo://app?vid=fb094e4b-6baa-4308-836f-97eb7d995621","ios":"levelo://app?vid=fb094e4b-6baa-4308-836f-97eb7d995621"},"vehicle_type_id":"4","last_reported":1779345696,"current_range_meters":6400,"station_id":"ce4bhh92rcd13ifvqfj0","pricing_plan_id":"cebpf4jnsgd1na2vs0mg"},{"bike_id":"8c39b6dd-b754-48e2-823c-6f28d51803e0","system_id":"levelo_inurba_marseille","lat":43.29296,"lon":5.39824,"is_reserved":false,"is_disabled":false,"rental_uris":{"android":"levelo://app?vid=8c39b6dd-b754-48e2-823c-6f28d51803e0","ios":"levelo://app?vid=8c39b6dd-b754-48e2-823c-6f28d51803e0"},"vehicle_type_id":"4","last_reported":1779345696,"current_range_meters":6400,"station_id":"","pricing_plan_id":"cebpf4jnsgd1na2vs0mg"},{"bike_id":"9b0e6946-f934-42a5-85d9-0a6d2a3567a8","system_id":"levelo_inurba_marseille","lat":43.30251,"lon":5.40033,"is_reserved":false,"is_disabled":false,"rental_uris":{"android":"levelo://app?vid=9b0e6946-f934-42a5-85d9-0a6d2a3567a8","ios":"levelo://app?vid=9b0e6946-f934-42a5-85d9-0a6d2a3567a8"},"vehicle_type_id":"4","last_reported":1779345696,"current_range_meters":6800,"station_id":"ce4bgvh2rcd13ifvqcs0","pricing_plan_id":"cebpf4jnsgd1na2vs0mg"},{"bike_id":"b3c58742-0569-4988-8f74-9982023b97a6","system_id":"levelo_inurba_marseille","lat":43.31908,"lon":5.36806,"is_reserved":false,"is_disabled":false,"rental_uris":{"android":"levelo://app?vid=b3c58742-0569-4988-8f74-9982023b97a6","ios":"levelo://app?vid=b3c58742-0569-4988-8f74-9982023b97a6"},"vehicle_type_id":"4","last_reported":1779345696,"current_range_meters":6800,"station_id":"st_d6o2h0d0559c73evc1b0","pricing_plan_id":"cebpf4jnsgd1na2vs0mg"},{"bike_id":"cdea3a3f-ad21-4609-8ff7-db1e94c68a25","system_id":"levelo_inurba_marseille","lat":43.2176,"lon":5.34607,"is_reserved":false,"is_disabled":false,"rental_uris":{"android":"levelo://app?vid=cdea3a3f-ad21-4609-8ff7-db1e94c68a25","ios":"levelo://app?vid=cdea3a3f-ad21-4609-8ff7-db1e94c68a25"},"vehicle_type_id":"4","last_reported":1779345696,"current_range_meters":6800,"station_id":"st_cvj6r9ubvosntc0bgbag","pricing_plan_id":"cebpf4jnsgd1na2vs0mg"},{"bike_id":"b1aeac0e-cd70-49e6-921e-a9c641e98038","system_id":"levelo_inurba_marseille","lat":43.28107,"lon":5.37889,"is_reserved":false,"is_disabled":false,"rental_uris":{"android":"levelo://app?vid=b1aeac0e-cd70-49e6-921e-a9c641e98038","ios":"levelo://app?vid=b1aeac0e-cd70-49e6-921e-a9c641e98038"},"vehicle_type_id":"4","last_reported":1779345696,"current_range_meters":6800,"station_id":"ce4bha12rcd13ifvqee0","pricing_plan_id":"cebpf4jnsgd1na2vs0mg"},{"bike_id":"b54a0860-ff04-4417-9804-a7525879c950","system_id":"levelo_inurba_marseille","lat":43.29496,"lon":5.37509,"is_reserved":false,"is_disabled":false,"rental_uris":{"android":"levelo://app?vid=b54a0860-ff04-4417-9804-a7525879c950","ios":"levelo://app?vid=b54a0860-ff04-4417-9804-a7525879c950"},"vehicle_type_id":"4","last_reported":1779345696,"current_range_meters":6800,"station_id":"ce4bgkp2rcd13ifvqbmg","pricing_plan_id":"cebpf4jnsgd1na2vs0mg"},{"bike_id":"86a0fb52-613b-4a6c-942d-1abbde400b19","system_id":"levelo_inurba_marseille","lat":43.2842,"lon":5.34979,"is_reserved":false,"is_disabled":true,"rental_uris":{"android":"levelo://app?vid=86a0fb52-613b-4a6c-942d-1abbde400b19","ios":"levelo://app?vid=86a0fb52-613b-4a6c-942d-1abbde400b19"},"vehicle_type_id":"4","last_reported":1779345696,"current_range_meters":6800,"station_id":"ce4bhbh2rcd13ifvqepg","pricing_plan_id":"cebpf4jnsgd1na2vs0mg"},{"bike_id":"aad75fce-f297-4a66-8546-74ab6bfcd851","system_id":"levelo_inurba_marseille","lat":43.24171,"lon":5.36392,"is_reserved":false,"is_disabled":false,"rental_uris":{"android":"levelo://app?vid=aad75fce-f297-4a66-8546-74ab6bfcd851","ios":"levelo://app?vid=aad75fce-f297-4a66-8546-74ab6bfcd851"},"vehicle_type_id":"4","last_reported":1779345696,"current_range_meters":6800,"station_id":"cpo36qri1sfpv3e86is0","pricing_plan_id":"cebpf4jnsgd1na2vs0mg"},{"bike_id":"d4489d0a-9da0-4121-b07e-4f2cd7660fd1","system_id":"levelo_inurba_marseille","lat":43.24387,"lon":5.3705,"is_reserved":false,"is_disabled":false,"rental_uris":{"android":"levelo://app?vid=d4489d0a-9da0-4121-b07e-4f2cd7660fd1","ios":"levelo://app?vid=d4489d0a-9da0-4121-b07e-4f2cd7660fd1"},"vehicle_type_id":"4","last_reported":1779345696,"current_range_meters":6800,"station_id":"ce4bhhh2rcd13ifvqfk0","pricing_plan_id":"cebpf4jnsgd1na2vs0mg"},{"bike_id":"4105c0e0-8331-402e-b4ad-0f4326869e9d","system_id":"levelo_inurba_marseille","lat":43.26795,"lon":5.3941,"is_reserved":false,"is_disabled":false,"rental_uris":{"android":"levelo://app?vid=4105c0e0-8331-402e-b4ad-0f4326869e9d","ios":"levelo://app?vid=4105c0e0-8331-402e-b4ad-0f4326869e9d"},"vehicle_type_id":"4","last_reported":1779345696,"current_range_meters":6800,"station_id":"ce4bhh12rcd13ifvqfg0","pricing_plan_id":"cebpf4jnsgd1na2vs0mg"},{"bike_id":"bac299b5-fc4e-424f-8c05-a5bbed976d4c","system_id":"levelo_inurba_marseille","lat":43.22534,"lon":5.34833,"is_reserved":false,"is_disabled":false,"rental_uris":{"android":"levelo://app?vid=bac299b5-fc4e-424f-8c05-a5bbed976d4c","ios":"levelo://app?vid=bac299b5-fc4e-424f-8c05-a5bbed976d4c"},"vehicle_type_id":"4","last_reported":1779345696,"current_range_meters":6800,"station_id":"st_cvj5dfep6f1abm77gieg","pricing_plan_id":"cebpf4jnsgd1na2vs0mg"},{"bike_id":"574f98ab-1f57-456e-a741-64ec8fa6c3b2","system_id":"levelo_inurba_marseille","lat":43.29255,"lon":5.38434,"is_reserved":false,"is_disabled":true,"rental_uris":{"android":"levelo://app?vid=574f98ab-1f57-456e-a741-64ec8fa6c3b2","ios":"levelo://app?vid=574f98ab-1f57-456e-a741-64ec8fa6c3b2"},"vehicle_type_id":"4","last_reported":1779345696,"current_range_meters":6800,"station_id":"ce4bh692rcd13ifvqea0","pricing_plan_id":"cebpf4jnsgd1na2vs0mg"},{"bike_id":"3096f3f7-7fc7-4228-b175-4b649f17f6c1","system_id":"levelo_inurba_marseille","lat":43.27988,"lon":5.41664,"is_reserved":false,"is_disabled":false,"rental_uris":{"android":"levelo://app?vid=3096f3f7-7fc7-4228-b175-4b649f17f6c1","ios":"levelo://app?vid=3096f3f7-7fc7-4228-b175-4b649f17f6c1"},"vehicle_type_id":"4","last_reported":1779345696,"current_range_meters":6800,"station_id":"ce4bho12rcd13ifvqh1g","pricing_plan_id":"cebpf4jnsgd1na2vs0mg"},{"bike_id":"85aa7030-1d2d-4efc-851d-09155d499f3c","system_id":"levelo_inurba_marseille","lat":43.32758,"lon":5.4184,"is_reserved":false,"is_disabled":false,"rental_uris":{"android":"levelo://app?vid=85aa7030-1d2d-4efc-851d-09155d499f3c","ios":"levelo://app?vid=85aa7030-1d2d-4efc-851d-09155d499f3c"},"vehicle_type_id":"4","last_reported":1779345696,"current_range_meters":6800,"station_id":"","pricing_plan_id":"cebpf4jnsgd1na2vs0mg"},{"bike_id":"5b2a581a-ec1c-4cbe-ba39-04ebd8922ba0","system_id":"levelo_inurba_marseille","lat":43.28363,"lon":5.40232,"is_reserved":false,"is_disabled":false,"rental_uris":{"android":"levelo://app?vid=5b2a581a-ec1c-4cbe-ba39-04ebd8922ba0","ios":"levelo://app?vid=5b2a581a-ec1c-4cbe-ba39-04ebd8922ba0"},"vehicle_type_id":"4","last_reported":1779345696,"current_range_meters":6800,"station_id":"","pricing_plan_id":"cebpf4jnsgd1na2vs0mg"},{"bike_id":"f700b1da-af38-4d5f-ad87-e4d046ffd9a3","system_id":"levelo_inurba_marseille","lat":43.2407,"lon":5.37761,"is_reserved":false,"is_disabled":false,"rental_uris":{"android":"levelo://app?vid=f700b1da-af38-4d5f-ad87-e4d046ffd9a3","ios":"levelo://app?vid=f700b1da-af38-4d5f-ad87-e4d046ffd9a3"},"vehicle_type_id":"4","last_reported":1779345696,"current_range_meters":6800,"station_id":"ce4bhnp2rcd13ifvqgvg","pricing_plan_id":"cebpf4jnsgd1na2vs0mg"},{"bike_id":"94d363c9-eb9c-491d-8b21-9b20b513e8f4","system_id":"levelo_inurba_marseille","lat":43.24658,"lon":5.38158,"is_reserved":false,"is_disabled":false,"rental_uris":{"android":"levelo://app?vid=94d363c9-eb9c-491d-8b21-9b20b513e8f4","ios":"levelo://app?vid=94d363c9-eb9c-491d-8b21-9b20b513e8f4"},"vehicle_type_id":"4","last_reported":1779345696,"current_range_meters":6800,"station_id":"ce4bhih2rcd13ifvqfr0","pricing_plan_id":"cebpf4jnsgd1na2vs0mg"},{"bike_id":"94c49980-82e9-40c1-8742-79af726fe66b","system_id":"levelo_inurba_marseille","lat":43.29873,"lon":5.42089,"is_reserved":false,"is_disabled":false,"rental_uris":{"android":"levelo://app?vid=94c49980-82e9-40c1-8742-79af726fe66b","ios":"levelo://app?vid=94c49980-82e9-40c1-8742-79af726fe66b"},"vehicle_type_id":"4","last_reported":1779345696,"current_range_meters":7200,"station_id":"st_d6tc004otcvc738tfe70","pricing_plan_id":"cebpf4jnsgd1na2vs0mg"},{"bike_id":"dd5bca8d-4a0a-4bc1-8cec-b991e57c6089","system_id":"levelo_inurba_marseille","lat":43.24166,"lon":5.36387,"is_reserved":false,"is_disabled":false,"rental_uris":{"android":"levelo://app?vid=dd5bca8d-4a0a-4bc1-8cec-b991e57c6089","ios":"levelo://app?vid=dd5bca8d-4a0a-4bc1-8cec-b991e57c6089"},"vehicle_type_id":"4","last_reported":1779345696,"current_range_meters":7200,"station_id":"cpo36qri1sfpv3e86is0","pricing_plan_id":"cebpf4jnsgd1na2vs0mg"},{"bike_id":"2c5c64bf-711f-4bd8-992c-6aa244c03a61","system_id":"levelo_inurba_marseille","lat":43.29629,"lon":5.38117,"is_reserved":false,"is_disabled":true,"rental_uris":{"android":"levelo://app?vid=2c5c64bf-711f-4bd8-992c-6aa244c03a61","ios":"levelo://app?vid=2c5c64bf-711f-4bd8-992c-6aa244c03a61"},"vehicle_type_id":"4","last_reported":1779345696,"current_range_meters":7200,"station_id":"ce4bgl12rcd13ifvqbo0","pricing_plan_id":"cebpf4jnsgd1na2vs0mg"},{"bike_id":"7b897032-3323-4401-bc60-c7460e420b68","system_id":"levelo_inurba_marseille","lat":43.25927,"lon":5.40902,"is_reserved":false,"is_disabled":false,"rental_uris":{"android":"levelo://app?vid=7b897032-3323-4401-bc60-c7460e420b68","ios":"levelo://app?vid=7b897032-3323-4401-bc60-c7460e420b68"},"vehicle_type_id":"4","last_reported":1779345696,"current_range_meters":7200,"station_id":"ce4bhm92rcd13ifvqglg","pricing_plan_id":"cebpf4jnsgd1na2vs0mg"},{"bike_id":"54ebc614-4655-4582-83f2-3a009523bce0","system_id":"levelo_inurba_marseille","lat":43.2544,"lon":5.3778,"is_reserved":false,"is_disabled":true,"rental_uris":{"android":"levelo://app?vid=54ebc614-4655-4582-83f2-3a009523bce0","ios":"levelo://app?vid=54ebc614-4655-4582-83f2-3a009523bce0"},"vehicle_type_id":"4","last_reported":1779345696,"current_range_meters":7200,"station_id":"ce4bhh12rcd13ifvqff0","pricing_plan_id":"cebpf4jnsgd1na2vs0mg"},{"bike_id":"4fdd8c15-1bcb-4fa5-b5bd-d33affd8bbad","system_id":"levelo_inurba_marseille","lat":43.30223,"lon":5.39928,"is_reserved":false,"is_disabled":false,"rental_uris":{"android":"levelo://app?vid=4fdd8c15-1bcb-4fa5-b5bd-d33affd8bbad","ios":"levelo://app?vid=4fdd8c15-1bcb-4fa5-b5bd-d33affd8bbad"},"vehicle_type_id":"4","last_reported":1779345696,"current_range_meters":7200,"station_id":"","pricing_plan_id":"cebpf4jnsgd1na2vs0mg"},{"bike_id":"72bee0bb-8dc4-495d-b327-1c8db4123867","system_id":"levelo_inurba_marseille","lat":43.26793,"lon":5.40256,"is_reserved":false,"is_disabled":false,"rental_uris":{"android":"levelo://app?vid=72bee0bb-8dc4-495d-b327-1c8db4123867","ios":"levelo://app?vid=72bee0bb-8dc4-495d-b327-1c8db4123867"},"vehicle_type_id":"4","last_reported":1779345696,"current_range_meters":7200,"station_id":"ce501612rcd8frsf0b60","pricing_plan_id":"cebpf4jnsgd1na2vs0mg"},{"bike_id":"cdc99775-2a76-4038-973d-58172b6f2b92","system_id":"levelo_inurba_marseille","lat":43.28969,"lon":5.3559,"is_reserved":false,"is_disabled":false,"rental_uris":{"android":"levelo://app?vid=cdc99775-2a76-4038-973d-58172b6f2b92","ios":"levelo://app?vid=cdc99775-2a76-4038-973d-58172b6f2b92"},"vehicle_type_id":"4","last_reported":1779345696,"current_range_meters":7200,"station_id":"ce4bhb92rcd13ifvqen0","pricing_plan_id":"cebpf4jnsgd1na2vs0mg"},{"bike_id":"bdb8ea9e-f317-4a97-aecb-97370038e137","system_id":"levelo_inurba_marseille","lat":43.31088,"lon":5.42429,"is_reserved":false,"is_disabled":false,"rental_uris":{"android":"levelo://app?vid=bdb8ea9e-f317-4a97-aecb-97370038e137","ios":"levelo://app?vid=bdb8ea9e-f317-4a97-aecb-97370038e137"},"vehicle_type_id":"4","last_reported":1779345696,"current_range_meters":7200,"station_id":"ce4bhp92rcd13ifvqhag","pricing_plan_id":"cebpf4jnsgd1na2vs0mg"},{"bike_id":"0b9fb95c-cf6b-4ed5-8bf4-759fc5a571cc","system_id":"levelo_inurba_marseille","lat":43.2686,"lon":5.40673,"is_reserved":false,"is_disabled":false,"rental_uris":{"android":"levelo://app?vid=0b9fb95c-cf6b-4ed5-8bf4-759fc5a571cc","ios":"levelo://app?vid=0b9fb95c-cf6b-4ed5-8bf4-759fc5a571cc"},"vehicle_type_id":"4","last_reported":1779345696,"current_range_meters":7200,"station_id":"","pricing_plan_id":"cebpf4jnsgd1na2vs0mg"},{"bike_id":"2417956b-f325-4b75-806c-e42e7b7f598c","system_id":"levelo_inurba_marseille","lat":43.24945,"lon":5.41758,"is_reserved":false,"is_disabled":false,"rental_uris":{"android":"levelo://app?vid=2417956b-f325-4b75-806c-e42e7b7f598c","ios":"levelo://app?vid=2417956b-f325-4b75-806c-e42e7b7f598c"},"vehicle_type_id":"4","last_reported":1779345696,"current_range_meters":7200,"station_id":"","pricing_plan_id":"cebpf4jnsgd1na2vs0mg"},{"bike_id":"615c49a8-b4db-44a4-9999-da0b264dbd08","system_id":"levelo_inurba_marseille","lat":43.25869,"lon":5.399,"is_reserved":false,"is_disabled":false,"rental_uris":{"android":"levelo://app?vid=615c49a8-b4db-44a4-9999-da0b264dbd08","ios":"levelo://app?vid=615c49a8-b4db-44a4-9999-da0b264dbd08"},"vehicle_type_id":"4","last_reported":1779345696,"current_range_meters":7200,"station_id":"ce4bhl92rcd13ifvqghg","pricing_plan_id":"cebpf4jnsgd1na2vs0mg"},{"bike_id":"0a3b05a4-eeb2-4a43-bcd3-8110dcb0cf7e","system_id":"levelo_inurba_marseille","lat":43.26123,"lon":5.37505,"is_reserved":false,"is_disabled":true,"rental_uris":{"android":"levelo://app?vid=0a3b05a4-eeb2-4a43-bcd3-8110dcb0cf7e","ios":"levelo://app?vid=0a3b05a4-eeb2-4a43-bcd3-8110dcb0cf7e"},"vehicle_type_id":"4","last_reported":1779345696,"current_range_meters":8000,"station_id":"","pricing_plan_id":"cebpf4jnsgd1na2vs0mg"},{"bike_id":"36aa6f0d-c8a5-421f-bb1a-43d21232f078","system_id":"levelo_inurba_marseille","lat":43.22555,"lon":5.41635,"is_reserved":false,"is_disabled":false,"rental_uris":{"android":"levelo://app?vid=36aa6f0d-c8a5-421f-bb1a-43d21232f078","ios":"levelo://app?vid=36aa6f0d-c8a5-421f-bb1a-43d21232f078"},"vehicle_type_id":"4","last_reported":1779345696,"current_range_meters":8000,"station_id":"st_d2o4gvlbi1j2169b742g","pricing_plan_id":"cebpf4jnsgd1na2vs0mg"},{"bike_id":"77b1acc3-de39-40aa-939c-5c95431b22b9","system_id":"levelo_inurba_marseille","lat":43.28689,"lon":5.39971,"is_reserved":false,"is_disabled":false,"rental_uris":{"android":"levelo://app?vid=77b1acc3-de39-40aa-939c-5c95431b22b9","ios":"levelo://app?vid=77b1acc3-de39-40aa-939c-5c95431b22b9"},"vehicle_type_id":"4","last_reported":1779345696,"current_range_meters":8000,"station_id":"ce4bho92rcd13ifvqh3g","pricing_plan_id":"cebpf4jnsgd1na2vs0mg"},{"bike_id":"092a41f3-9024-4e87-a6c3-fffcddbe9c14","system_id":"levelo_inurba_marseille","lat":43.30255,"lon":5.40041,"is_reserved":false,"is_disabled":false,"rental_uris":{"android":"levelo://app?vid=092a41f3-9024-4e87-a6c3-fffcddbe9c14","ios":"levelo://app?vid=092a41f3-9024-4e87-a6c3-fffcddbe9c14"},"vehicle_type_id":"4","last_reported":1779345696,"current_range_meters":8000,"station_id":"ce4bgvh2rcd13ifvqcs0","pricing_plan_id":"cebpf4jnsgd1na2vs0mg"},{"bike_id":"477c5db0-ace8-4c76-8cdd-10ccb6337664","system_id":"levelo_inurba_marseille","lat":43.30932,"lon":5.40147,"is_reserved":false,"is_disabled":false,"rental_uris":{"android":"levelo://app?vid=477c5db0-ace8-4c76-8cdd-10ccb6337664","ios":"levelo://app?vid=477c5db0-ace8-4c76-8cdd-10ccb6337664"},"vehicle_type_id":"4","last_reported":1779345696,"current_range_meters":8000,"station_id":"ce4bgvp2rcd13ifvqct0","pricing_plan_id":"cebpf4jnsgd1na2vs0mg"},{"bike_id":"8a745c24-f2e2-43e1-8588-618d43689edc","system_id":"levelo_inurba_marseille","lat":43.25901,"lon":5.40854,"is_reserved":false,"is_disabled":false,"rental_uris":{"android":"levelo://app?vid=8a745c24-f2e2-43e1-8588-618d43689edc","ios":"levelo://app?vid=8a745c24-f2e2-43e1-8588-618d43689edc"},"vehicle_type_id":"4","last_reported":1779345696,"current_range_meters":8000,"station_id":"ce4bhm92rcd13ifvqglg","pricing_plan_id":"cebpf4jnsgd1na2vs0mg"},{"bike_id":"12481d7b-ca53-44d2-a72d-3641cbe06950","system_id":"levelo_inurba_marseille","lat":43.29919,"lon":5.41051,"is_reserved":false,"is_disabled":false,"rental_uris":{"android":"levelo://app?vid=12481d7b-ca53-44d2-a72d-3641cbe06950","ios":"levelo://app?vid=12481d7b-ca53-44d2-a72d-3641cbe06950"},"vehicle_type_id":"4","last_reported":1779345696,"current_range_meters":8000,"station_id":"","pricing_plan_id":"cebpf4jnsgd1na2vs0mg"},{"bike_id":"887add83-6f0d-4c7e-8ae5-c4e8a30a774e","system_id":"levelo_inurba_marseille","lat":43.23137,"lon":5.43729,"is_reserved":false,"is_disabled":false,"rental_uris":{"android":"levelo://app?vid=887add83-6f0d-4c7e-8ae5-c4e8a30a774e","ios":"levelo://app?vid=887add83-6f0d-4c7e-8ae5-c4e8a30a774e"},"vehicle_type_id":"4","last_reported":1779345696,"current_range_meters":8000,"station_id":"ce4bhmp2rcd13ifvqgog","pricing_plan_id":"cebpf4jnsgd1na2vs0mg"},{"bike_id":"15a4ef45-bb40-4062-acaf-f25356ce981a","system_id":"levelo_inurba_marseille","lat":43.30558,"lon":5.36705,"is_reserved":false,"is_disabled":true,"rental_uris":{"android":"levelo://app?vid=15a4ef45-bb40-4062-acaf-f25356ce981a","ios":"levelo://app?vid=15a4ef45-bb40-4062-acaf-f25356ce981a"},"vehicle_type_id":"4","last_reported":1779345696,"current_range_meters":8000,"station_id":"ce4bgrp2rcd13ifvqc9g","pricing_plan_id":"cebpf4jnsgd1na2vs0mg"},{"bike_id":"86acb344-9066-47c1-bef7-dff26b637764","system_id":"levelo_inurba_marseille","lat":43.31686,"lon":5.40487,"is_reserved":false,"is_disabled":false,"rental_uris":{"android":"levelo://app?vid=86acb344-9066-47c1-bef7-dff26b637764","ios":"levelo://app?vid=86acb344-9066-47c1-bef7-dff26b637764"},"vehicle_type_id":"4","last_reported":1779345696,"current_range_meters":8000,"station_id":"ce4bh012rcd13ifvqd00","pricing_plan_id":"cebpf4jnsgd1na2vs0mg"},{"bike_id":"c958ab3f-0516-4bf3-a184-970575a9651e","system_id":"levelo_inurba_marseille","lat":43.30463,"lon":5.37902,"is_reserved":false,"is_disabled":false,"rental_uris":{"android":"levelo://app?vid=c958ab3f-0516-4bf3-a184-970575a9651e","ios":"levelo://app?vid=c958ab3f-0516-4bf3-a184-970575a9651e"},"vehicle_type_id":"4","last_reported":1779345696,"current_range_meters":8000,"station_id":"ce4bgup2rcd13ifvqcn0","pricing_plan_id":"cebpf4jnsgd1na2vs0mg"},{"bike_id":"1ca95aee-a991-4a29-b8d4-54ec712d9fb3","system_id":"levelo_inurba_marseille","lat":43.28699,"lon":5.46683,"is_reserved":false,"is_disabled":false,"rental_uris":{"android":"levelo://app?vid=1ca95aee-a991-4a29-b8d4-54ec712d9fb3","ios":"levelo://app?vid=1ca95aee-a991-4a29-b8d4-54ec712d9fb3"},"vehicle_type_id":"4","last_reported":1779345696,"current_range_meters":8000,"station_id":"st_d6tc3vkotcvc738tfjhg","pricing_plan_id":"cebpf4jnsgd1na2vs0mg"},{"bike_id":"32a27c34-0b6c-4b71-9c1e-e9990206823f","system_id":"levelo_inurba_marseille","lat":43.30244,"lon":5.38555,"is_reserved":false,"is_disabled":false,"rental_uris":{"android":"levelo://app?vid=32a27c34-0b6c-4b71-9c1e-e9990206823f","ios":"levelo://app?vid=32a27c34-0b6c-4b71-9c1e-e9990206823f"},"vehicle_type_id":"4","last_reported":1779345696,"current_range_meters":8000,"station_id":"","pricing_plan_id":"cebpf4jnsgd1na2vs0mg"},{"bike_id":"e27feea1-9bc4-4f71-870f-9ba99b38e6d2","system_id":"levelo_inurba_marseille","lat":43.29173,"lon":5.37279,"is_reserved":false,"is_disabled":false,"rental_uris":{"android":"levelo://app?vid=e27feea1-9bc4-4f71-870f-9ba99b38e6d2","ios":"levelo://app?vid=e27feea1-9bc4-4f71-870f-9ba99b38e6d2"},"vehicle_type_id":"4","last_reported":1779345696,"current_range_meters":8000,"station_id":"","pricing_plan_id":"cebpf4jnsgd1na2vs0mg"},{"bike_id":"616259e1-99b9-477f-9be8-a931d2e539ff","system_id":"levelo_inurba_marseille","lat":43.231941,"lon":5.355529,"is_reserved":false,"is_disabled":false,"rental_uris":{"android":"levelo://app?vid=616259e1-99b9-477f-9be8-a931d2e539ff","ios":"levelo://app?vid=616259e1-99b9-477f-9be8-a931d2e539ff"},"vehicle_type_id":"4","last_reported":1779345696,"current_range_meters":8400,"station_id":"ce4bgi92rcd13ifvqb90","pricing_plan_id":"cebpf4jnsgd1na2vs0mg"},{"bike_id":"2fbac758-0692-4d8a-9705-7fcad4dab252","system_id":"levelo_inurba_marseille","lat":43.30944,"lon":5.38017,"is_reserved":false,"is_disabled":false,"rental_uris":{"android":"levelo://app?vid=2fbac758-0692-4d8a-9705-7fcad4dab252","ios":"levelo://app?vid=2fbac758-0692-4d8a-9705-7fcad4dab252"},"vehicle_type_id":"4","last_reported":1779345696,"current_range_meters":8400,"station_id":"","pricing_plan_id":"cebpf4jnsgd1na2vs0mg"},{"bike_id":"7fda94e1-e2e3-4c99-b006-59137d824a49","system_id":"levelo_inurba_marseille","lat":43.23182,"lon":5.39991,"is_reserved":false,"is_disabled":false,"rental_uris":{"android":"levelo://app?vid=7fda94e1-e2e3-4c99-b006-59137d824a49","ios":"levelo://app?vid=7fda94e1-e2e3-4c99-b006-59137d824a49"},"vehicle_type_id":"4","last_reported":1779345696,"current_range_meters":8400,"station_id":"ce4bhn12rcd13ifvqgqg","pricing_plan_id":"cebpf4jnsgd1na2vs0mg"},{"bike_id":"b98f6561-23bb-490c-8bfc-fe304981f3cc","system_id":"levelo_inurba_marseille","lat":43.29584,"lon":5.39967,"is_reserved":false,"is_disabled":true,"rental_uris":{"android":"levelo://app?vid=b98f6561-23bb-490c-8bfc-fe304981f3cc","ios":"levelo://app?vid=b98f6561-23bb-490c-8bfc-fe304981f3cc"},"vehicle_type_id":"4","last_reported":1779345696,"current_range_meters":8400,"station_id":"ce4bh312rcd13ifvqdj0","pricing_plan_id":"cebpf4jnsgd1na2vs0mg"},{"bike_id":"5134a1f4-75ef-4557-8a9b-bd594bc1eae5","system_id":"levelo_inurba_marseille","lat":43.26549,"lon":5.37255,"is_reserved":false,"is_disabled":true,"rental_uris":{"android":"levelo://app?vid=5134a1f4-75ef-4557-8a9b-bd594bc1eae5","ios":"levelo://app?vid=5134a1f4-75ef-4557-8a9b-bd594bc1eae5"},"vehicle_type_id":"4","last_reported":1779345696,"current_range_meters":8400,"station_id":"ce4bhg12rcd13ifvqf70","pricing_plan_id":"cebpf4jnsgd1na2vs0mg"},{"bike_id":"2841de83-224d-4a3c-99b6-db495d1adef1","system_id":"levelo_inurba_marseille","lat":43.30684,"lon":5.40043,"is_reserved":false,"is_disabled":false,"rental_uris":{"android":"levelo://app?vid=2841de83-224d-4a3c-99b6-db495d1adef1","ios":"levelo://app?vid=2841de83-224d-4a3c-99b6-db495d1adef1"},"vehicle_type_id":"4","last_reported":1779345696,"current_range_meters":8400,"station_id":"","pricing_plan_id":"cebpf4jnsgd1na2vs0mg"},{"bike_id":"7ec93175-8d9c-4b31-b534-34e06405c4e0","system_id":"levelo_inurba_marseille","lat":43.29617,"lon":5.44702,"is_reserved":false,"is_disabled":false,"rental_uris":{"android":"levelo://app?vid=7ec93175-8d9c-4b31-b534-34e06405c4e0","ios":"levelo://app?vid=7ec93175-8d9c-4b31-b534-34e06405c4e0"},"vehicle_type_id":"4","last_reported":1779345696,"current_range_meters":8400,"station_id":"","pricing_plan_id":"cebpf4jnsgd1na2vs0mg"},{"bike_id":"e9b6b68f-ddd5-4a7d-afd9-2a5e1cfa5121","system_id":"levelo_inurba_marseille","lat":43.31741,"lon":5.37807,"is_reserved":false,"is_disabled":false,"rental_uris":{"android":"levelo://app?vid=e9b6b68f-ddd5-4a7d-afd9-2a5e1cfa5121","ios":"levelo://app?vid=e9b6b68f-ddd5-4a7d-afd9-2a5e1cfa5121"},"vehicle_type_id":"4","last_reported":1779345696,"current_range_meters":8400,"station_id":"ce4bgth2rcd13ifvqch0","pricing_plan_id":"cebpf4jnsgd1na2vs0mg"},{"bike_id":"89f018e6-b2b2-405c-83b7-e598f822f15d","system_id":"levelo_inurba_marseille","lat":43.27067,"lon":5.38291,"is_reserved":false,"is_disabled":false,"rental_uris":{"android":"levelo://app?vid=89f018e6-b2b2-405c-83b7-e598f822f15d","ios":"levelo://app?vid=89f018e6-b2b2-405c-83b7-e598f822f15d"},"vehicle_type_id":"4","last_reported":1779345696,"current_range_meters":8400,"station_id":"st_d3n2fo6cfp8s73cte1j0","pricing_plan_id":"cebpf4jnsgd1na2vs0mg"},{"bike_id":"1d1a4d3a-9302-44ea-b3f1-a60812928797","system_id":"levelo_inurba_marseille","lat":43.3066,"lon":5.40051,"is_reserved":false,"is_disabled":false,"rental_uris":{"android":"levelo://app?vid=1d1a4d3a-9302-44ea-b3f1-a60812928797","ios":"levelo://app?vid=1d1a4d3a-9302-44ea-b3f1-a60812928797"},"vehicle_type_id":"4","last_reported":1779345696,"current_range_meters":8400,"station_id":"ce4bh112rcd13ifvqda0","pricing_plan_id":"cebpf4jnsgd1na2vs0mg"},{"bike_id":"8e7115e5-afd0-482b-bfd7-f75a7925e115","system_id":"levelo_inurba_marseille","lat":43.30258,"lon":5.41224,"is_reserved":false,"is_disabled":false,"rental_uris":{"android":"levelo://app?vid=8e7115e5-afd0-482b-bfd7-f75a7925e115","ios":"levelo://app?vid=8e7115e5-afd0-482b-bfd7-f75a7925e115"},"vehicle_type_id":"4","last_reported":1779345696,"current_range_meters":8400,"station_id":"","pricing_plan_id":"cebpf4jnsgd1na2vs0mg"},{"bike_id":"ada748d5-583c-4dfb-b476-9536b806687d","system_id":"levelo_inurba_marseille","lat":43.28932,"lon":5.36641,"is_reserved":false,"is_disabled":false,"rental_uris":{"android":"levelo://app?vid=ada748d5-583c-4dfb-b476-9536b806687d","ios":"levelo://app?vid=ada748d5-583c-4dfb-b476-9536b806687d"},"vehicle_type_id":"4","last_reported":1779345696,"current_range_meters":8400,"station_id":"ce4bhap2rcd13ifvqek0","pricing_plan_id":"cebpf4jnsgd1na2vs0mg"},{"bike_id":"76a83b0f-6415-4f2d-ad7c-7523a2b178d8","system_id":"levelo_inurba_marseille","lat":43.308,"lon":5.38155,"is_reserved":false,"is_disabled":false,"rental_uris":{"android":"levelo://app?vid=76a83b0f-6415-4f2d-ad7c-7523a2b178d8","ios":"levelo://app?vid=76a83b0f-6415-4f2d-ad7c-7523a2b178d8"},"vehicle_type_id":"4","last_reported":1779345696,"current_range_meters":8400,"station_id":"ce4bgt12rcd13ifvqce0","pricing_plan_id":"cebpf4jnsgd1na2vs0mg"},{"bike_id":"1740c6e9-2a4b-480e-9ab5-c92782efb7d1","system_id":"levelo_inurba_marseille","lat":43.31755,"lon":5.39027,"is_reserved":false,"is_disabled":false,"rental_uris":{"android":"levelo://app?vid=1740c6e9-2a4b-480e-9ab5-c92782efb7d1","ios":"levelo://app?vid=1740c6e9-2a4b-480e-9ab5-c92782efb7d1"},"vehicle_type_id":"4","last_reported":1779345696,"current_range_meters":8400,"station_id":"ce4bhqp2rcd13ifvqhng","pricing_plan_id":"cebpf4jnsgd1na2vs0mg"},{"bike_id":"65f41086-23fc-487a-9ced-5f748d2e3f5e","system_id":"levelo_inurba_marseille","lat":43.26214,"lon":5.37435,"is_reserved":false,"is_disabled":true,"rental_uris":{"android":"levelo://app?vid=65f41086-23fc-487a-9ced-5f748d2e3f5e","ios":"levelo://app?vid=65f41086-23fc-487a-9ced-5f748d2e3f5e"},"vehicle_type_id":"4","last_reported":1779345696,"current_range_meters":8400,"station_id":"ce4bhgp2rcd13ifvqfc0","pricing_plan_id":"cebpf4jnsgd1na2vs0mg"},{"bike_id":"92475532-28d1-431b-bc92-e2f01ee50f54","system_id":"levelo_inurba_marseille","lat":43.23185,"lon":5.39997,"is_reserved":false,"is_disabled":true,"rental_uris":{"android":"levelo://app?vid=92475532-28d1-431b-bc92-e2f01ee50f54","ios":"levelo://app?vid=92475532-28d1-431b-bc92-e2f01ee50f54"},"vehicle_type_id":"4","last_reported":1779345696,"current_range_meters":8400,"station_id":"ce4bhn12rcd13ifvqgqg","pricing_plan_id":"cebpf4jnsgd1na2vs0mg"},{"bike_id":"cff3b2d3-2c26-4c9d-9990-d84b0c3e3b30","system_id":"levelo_inurba_marseille","lat":43.29583,"lon":5.39969,"is_reserved":false,"is_disabled":true,"rental_uris":{"android":"levelo://app?vid=cff3b2d3-2c26-4c9d-9990-d84b0c3e3b30","ios":"levelo://app?vid=cff3b2d3-2c26-4c9d-9990-d84b0c3e3b30"},"vehicle_type_id":"4","last_reported":1779345696,"current_range_meters":8400,"station_id":"ce4bh312rcd13ifvqdj0","pricing_plan_id":"cebpf4jnsgd1na2vs0mg"},{"bike_id":"375ee5aa-b3a4-4687-9cb5-9ce27e5d544e","system_id":"levelo_inurba_marseille","lat":43.31081,"lon":5.42426,"is_reserved":false,"is_disabled":false,"rental_uris":{"android":"levelo://app?vid=375ee5aa-b3a4-4687-9cb5-9ce27e5d544e","ios":"levelo://app?vid=375ee5aa-b3a4-4687-9cb5-9ce27e5d544e"},"vehicle_type_id":"4","last_reported":1779345696,"current_range_meters":8800,"station_id":"ce4bhp92rcd13ifvqhag","pricing_plan_id":"cebpf4jnsgd1na2vs0mg"},{"bike_id":"5a297e80-d2f0-4fb4-9886-093528a3567a","system_id":"levelo_inurba_marseille","lat":43.31448,"lon":5.37379,"is_reserved":false,"is_disabled":true,"rental_uris":{"android":"levelo://app?vid=5a297e80-d2f0-4fb4-9886-093528a3567a","ios":"levelo://app?vid=5a297e80-d2f0-4fb4-9886-093528a3567a"},"vehicle_type_id":"4","last_reported":1779345696,"current_range_meters":8800,"station_id":"","pricing_plan_id":"cebpf4jnsgd1na2vs0mg"},{"bike_id":"0cb2f30d-981a-4f69-9bec-64cc0dc95f7e","system_id":"levelo_inurba_marseille","lat":43.29528,"lon":5.39018,"is_reserved":false,"is_disabled":true,"rental_uris":{"android":"levelo://app?vid=0cb2f30d-981a-4f69-9bec-64cc0dc95f7e","ios":"levelo://app?vid=0cb2f30d-981a-4f69-9bec-64cc0dc95f7e"},"vehicle_type_id":"4","last_reported":1779345696,"current_range_meters":8800,"station_id":"ce4bh3p2rcd13ifvqdp0","pricing_plan_id":"cebpf4jnsgd1na2vs0mg"},{"bike_id":"868c7f6d-3724-4708-98f5-65cb966b2d4a","system_id":"levelo_inurba_marseille","lat":43.33542,"lon":5.37469,"is_reserved":false,"is_disabled":false,"rental_uris":{"android":"levelo://app?vid=868c7f6d-3724-4708-98f5-65cb966b2d4a","ios":"levelo://app?vid=868c7f6d-3724-4708-98f5-65cb966b2d4a"},"vehicle_type_id":"4","last_reported":1779345696,"current_range_meters":8800,"station_id":"st_d46tts09ee8s73dlu43g","pricing_plan_id":"cebpf4jnsgd1na2vs0mg"},{"bike_id":"eaf6d7d2-7aca-4232-bc5d-e17333efbf3d","system_id":"levelo_inurba_marseille","lat":43.26188,"lon":5.37462,"is_reserved":false,"is_disabled":false,"rental_uris":{"android":"levelo://app?vid=eaf6d7d2-7aca-4232-bc5d-e17333efbf3d","ios":"levelo://app?vid=eaf6d7d2-7aca-4232-bc5d-e17333efbf3d"},"vehicle_type_id":"4","last_reported":1779345696,"current_range_meters":8800,"station_id":"ce4bhgp2rcd13ifvqfc0","pricing_plan_id":"cebpf4jnsgd1na2vs0mg"},{"bike_id":"70bd1697-29a9-464f-a79a-74a540437e6e","system_id":"levelo_inurba_marseille","lat":43.33754,"lon":5.37469,"is_reserved":false,"is_disabled":false,"rental_uris":{"android":"levelo://app?vid=70bd1697-29a9-464f-a79a-74a540437e6e","ios":"levelo://app?vid=70bd1697-29a9-464f-a79a-74a540437e6e"},"vehicle_type_id":"4","last_reported":1779345696,"current_range_meters":8800,"station_id":"","pricing_plan_id":"cebpf4jnsgd1na2vs0mg"},{"bike_id":"d56609fb-859f-48f0-baf4-c46c08edd012","system_id":"levelo_inurba_marseille","lat":43.29282,"lon":5.40114,"is_reserved":false,"is_disabled":false,"rental_uris":{"android":"levelo://app?vid=d56609fb-859f-48f0-baf4-c46c08edd012","ios":"levelo://app?vid=d56609fb-859f-48f0-baf4-c46c08edd012"},"vehicle_type_id":"4","last_reported":1779345696,"current_range_meters":8800,"station_id":"ce4bh312rcd13ifvqdk0","pricing_plan_id":"cebpf4jnsgd1na2vs0mg"},{"bike_id":"aa328c66-195e-4754-bc09-a9d3e3da759b","system_id":"levelo_inurba_marseille","lat":43.28094,"lon":5.37827,"is_reserved":false,"is_disabled":false,"rental_uris":{"android":"levelo://app?vid=aa328c66-195e-4754-bc09-a9d3e3da759b","ios":"levelo://app?vid=aa328c66-195e-4754-bc09-a9d3e3da759b"},"vehicle_type_id":"4","last_reported":1779345696,"current_range_meters":8800,"station_id":"ce4bha12rcd13ifvqee0","pricing_plan_id":"cebpf4jnsgd1na2vs0mg"},{"bike_id":"269bb8e0-e133-48f5-bae2-51666cdc023f","system_id":"levelo_inurba_marseille","lat":43.3093,"lon":5.40137,"is_reserved":false,"is_disabled":false,"rental_uris":{"android":"levelo://app?vid=269bb8e0-e133-48f5-bae2-51666cdc023f","ios":"levelo://app?vid=269bb8e0-e133-48f5-bae2-51666cdc023f"},"vehicle_type_id":"4","last_reported":1779345696,"current_range_meters":8800,"station_id":"ce4bgvp2rcd13ifvqct0","pricing_plan_id":"cebpf4jnsgd1na2vs0mg"},{"bike_id":"5aee5052-f82b-48a3-9797-313893695311","system_id":"levelo_inurba_marseille","lat":43.28419,"lon":5.34987,"is_reserved":false,"is_disabled":false,"rental_uris":{"android":"levelo://app?vid=5aee5052-f82b-48a3-9797-313893695311","ios":"levelo://app?vid=5aee5052-f82b-48a3-9797-313893695311"},"vehicle_type_id":"4","last_reported":1779345696,"current_range_meters":8800,"station_id":"ce4bhbh2rcd13ifvqepg","pricing_plan_id":"cebpf4jnsgd1na2vs0mg"},{"bike_id":"3e98885b-dfca-4cf2-bbd7-b2d6787eced1","system_id":"levelo_inurba_marseille","lat":43.31747,"lon":5.39016,"is_reserved":false,"is_disabled":false,"rental_uris":{"android":"levelo://app?vid=3e98885b-dfca-4cf2-bbd7-b2d6787eced1","ios":"levelo://app?vid=3e98885b-dfca-4cf2-bbd7-b2d6787eced1"},"vehicle_type_id":"4","last_reported":1779345696,"current_range_meters":8800,"station_id":"ce4bhqp2rcd13ifvqhng","pricing_plan_id":"cebpf4jnsgd1na2vs0mg"},{"bike_id":"0c8a3b68-75de-418a-a240-6cc74bf38a02","system_id":"levelo_inurba_marseille","lat":43.29004,"lon":5.35602,"is_reserved":false,"is_disabled":false,"rental_uris":{"android":"levelo://app?vid=0c8a3b68-75de-418a-a240-6cc74bf38a02","ios":"levelo://app?vid=0c8a3b68-75de-418a-a240-6cc74bf38a02"},"vehicle_type_id":"4","last_reported":1779345696,"current_range_meters":8800,"station_id":"ce4bhb92rcd13ifvqen0","pricing_plan_id":"cebpf4jnsgd1na2vs0mg"},{"bike_id":"8ae01fbd-13ec-4abe-9b2c-1050445b111f","system_id":"levelo_inurba_marseille","lat":43.22534,"lon":5.34824,"is_reserved":false,"is_disabled":false,"rental_uris":{"android":"levelo://app?vid=8ae01fbd-13ec-4abe-9b2c-1050445b111f","ios":"levelo://app?vid=8ae01fbd-13ec-4abe-9b2c-1050445b111f"},"vehicle_type_id":"4","last_reported":1779345696,"current_range_meters":8800,"station_id":"st_cvj5dfep6f1abm77gieg","pricing_plan_id":"cebpf4jnsgd1na2vs0mg"},{"bike_id":"fca2e5aa-dfe6-4e22-afbf-2a255903d110","system_id":"levelo_inurba_marseille","lat":43.29955,"lon":5.38481,"is_reserved":false,"is_disabled":true,"rental_uris":{"android":"levelo://app?vid=fca2e5aa-dfe6-4e22-afbf-2a255903d110","ios":"levelo://app?vid=fca2e5aa-dfe6-4e22-afbf-2a255903d110"},"vehicle_type_id":"4","last_reported":1779345696,"current_range_meters":8800,"station_id":"ce4bgj92rcd13ifvqbd0","pricing_plan_id":"cebpf4jnsgd1na2vs0mg"},{"bike_id":"a7b31f75-fb7f-4c21-a209-c988f7740c2d","system_id":"levelo_inurba_marseille","lat":43.23053,"lon":5.35489,"is_reserved":false,"is_disabled":false,"rental_uris":{"android":"levelo://app?vid=a7b31f75-fb7f-4c21-a209-c988f7740c2d","ios":"levelo://app?vid=a7b31f75-fb7f-4c21-a209-c988f7740c2d"},"vehicle_type_id":"4","last_reported":1779345696,"current_range_meters":8800,"station_id":"cpo3342slgdg3j2ifvpg","pricing_plan_id":"cebpf4jnsgd1na2vs0mg"},{"bike_id":"fd8fd789-28e9-4218-9e5f-9f5a28a95f28","system_id":"levelo_inurba_marseille","lat":43.33161,"lon":5.37696,"is_reserved":false,"is_disabled":false,"rental_uris":{"android":"levelo://app?vid=fd8fd789-28e9-4218-9e5f-9f5a28a95f28","ios":"levelo://app?vid=fd8fd789-28e9-4218-9e5f-9f5a28a95f28"},"vehicle_type_id":"4","last_reported":1779345696,"current_range_meters":8800,"station_id":"st_d46cu089ee8s73dldbu0","pricing_plan_id":"cebpf4jnsgd1na2vs0mg"},{"bike_id":"76faabe3-59f6-4fa0-a8fe-e21969997c73","system_id":"levelo_inurba_marseille","lat":43.27491,"lon":5.42449,"is_reserved":false,"is_disabled":false,"rental_uris":{"android":"levelo://app?vid=76faabe3-59f6-4fa0-a8fe-e21969997c73","ios":"levelo://app?vid=76faabe3-59f6-4fa0-a8fe-e21969997c73"},"vehicle_type_id":"4","last_reported":1779345696,"current_range_meters":8800,"station_id":"ce4bhn92rcd13ifvqgrg","pricing_plan_id":"cebpf4jnsgd1na2vs0mg"},{"bike_id":"a9940280-1380-4b59-bb57-b57ac30452b9","system_id":"levelo_inurba_marseille","lat":43.26237,"lon":5.38747,"is_reserved":false,"is_disabled":false,"rental_uris":{"android":"levelo://app?vid=a9940280-1380-4b59-bb57-b57ac30452b9","ios":"levelo://app?vid=a9940280-1380-4b59-bb57-b57ac30452b9"},"vehicle_type_id":"4","last_reported":1779345696,"current_range_meters":8800,"station_id":"","pricing_plan_id":"cebpf4jnsgd1na2vs0mg"},{"bike_id":"3c30b00d-6853-40fe-b90c-6bf1cde17e7f","system_id":"levelo_inurba_marseille","lat":43.29826,"lon":5.38081,"is_reserved":false,"is_disabled":false,"rental_uris":{"android":"levelo://app?vid=3c30b00d-6853-40fe-b90c-6bf1cde17e7f","ios":"levelo://app?vid=3c30b00d-6853-40fe-b90c-6bf1cde17e7f"},"vehicle_type_id":"4","last_reported":1779345696,"current_range_meters":8800,"station_id":"ce4bgip2rcd13ifvqbb0","pricing_plan_id":"cebpf4jnsgd1na2vs0mg"},{"bike_id":"a0794e98-b85e-4223-a821-7d5d3d9344ac","system_id":"levelo_inurba_marseille","lat":43.26583,"lon":5.39007,"is_reserved":false,"is_disabled":false,"rental_uris":{"android":"levelo://app?vid=a0794e98-b85e-4223-a821-7d5d3d9344ac","ios":"levelo://app?vid=a0794e98-b85e-4223-a821-7d5d3d9344ac"},"vehicle_type_id":"4","last_reported":1779345696,"current_range_meters":8800,"station_id":"ce4bhe12rcd13ifvqf30","pricing_plan_id":"cebpf4jnsgd1na2vs0mg"},{"bike_id":"7926970b-b546-4bd9-8ad0-0c1e21624b17","system_id":"levelo_inurba_marseille","lat":43.29614,"lon":5.38082,"is_reserved":false,"is_disabled":true,"rental_uris":{"android":"levelo://app?vid=7926970b-b546-4bd9-8ad0-0c1e21624b17","ios":"levelo://app?vid=7926970b-b546-4bd9-8ad0-0c1e21624b17"},"vehicle_type_id":"4","last_reported":1779345696,"current_range_meters":8800,"station_id":"ce4bgl12rcd13ifvqbo0","pricing_plan_id":"cebpf4jnsgd1na2vs0mg"},{"bike_id":"e1e830a1-17da-4078-970c-9a0b87e3b6d3","system_id":"levelo_inurba_marseille","lat":43.305442,"lon":5.365545,"is_reserved":false,"is_disabled":false,"rental_uris":{"android":"levelo://app?vid=e1e830a1-17da-4078-970c-9a0b87e3b6d3","ios":"levelo://app?vid=e1e830a1-17da-4078-970c-9a0b87e3b6d3"},"vehicle_type_id":"4","last_reported":1779345696,"current_range_meters":8800,"station_id":"ce4bgs12rcd13ifvqcag","pricing_plan_id":"cebpf4jnsgd1na2vs0mg"},{"bike_id":"3164d9e8-c839-4029-b458-2d3d9b344e5f","system_id":"levelo_inurba_marseille","lat":43.275716,"lon":5.396434,"is_reserved":false,"is_disabled":false,"rental_uris":{"android":"levelo://app?vid=3164d9e8-c839-4029-b458-2d3d9b344e5f","ios":"levelo://app?vid=3164d9e8-c839-4029-b458-2d3d9b344e5f"},"vehicle_type_id":"4","last_reported":1779345696,"current_range_meters":8800,"station_id":"","pricing_plan_id":"cebpf4jnsgd1na2vs0mg"},{"bike_id":"222ea0a4-32b8-4f91-9246-cfbd5350dc01","system_id":"levelo_inurba_marseille","lat":43.30632,"lon":5.40087,"is_reserved":false,"is_disabled":false,"rental_uris":{"android":"levelo://app?vid=222ea0a4-32b8-4f91-9246-cfbd5350dc01","ios":"levelo://app?vid=222ea0a4-32b8-4f91-9246-cfbd5350dc01"},"vehicle_type_id":"4","last_reported":1779345696,"current_range_meters":8800,"station_id":"ce4bh112rcd13ifvqda0","pricing_plan_id":"cebpf4jnsgd1na2vs0mg"},{"bike_id":"ce8ffc2f-e682-4f9d-9e49-61205f46759d","system_id":"levelo_inurba_marseille","lat":43.3235,"lon":5.38494,"is_reserved":false,"is_disabled":false,"rental_uris":{"android":"levelo://app?vid=ce8ffc2f-e682-4f9d-9e49-61205f46759d","ios":"levelo://app?vid=ce8ffc2f-e682-4f9d-9e49-61205f46759d"},"vehicle_type_id":"4","last_reported":1779345696,"current_range_meters":8800,"station_id":"st_d45171o9ee8s73djdqug","pricing_plan_id":"cebpf4jnsgd1na2vs0mg"},{"bike_id":"b108d68d-acb9-441e-8383-3553a3b94e36","system_id":"levelo_inurba_marseille","lat":43.24171,"lon":5.36437,"is_reserved":false,"is_disabled":false,"rental_uris":{"android":"levelo://app?vid=b108d68d-acb9-441e-8383-3553a3b94e36","ios":"levelo://app?vid=b108d68d-acb9-441e-8383-3553a3b94e36"},"vehicle_type_id":"4","last_reported":1779345696,"current_range_meters":9200,"station_id":"cpo36qri1sfpv3e86is0","pricing_plan_id":"cebpf4jnsgd1na2vs0mg"},{"bike_id":"129d1c1e-a4ec-4956-9f3f-d6961f012ff9","system_id":"levelo_inurba_marseille","lat":43.28862,"lon":5.3668,"is_reserved":false,"is_disabled":false,"rental_uris":{"android":"levelo://app?vid=129d1c1e-a4ec-4956-9f3f-d6961f012ff9","ios":"levelo://app?vid=129d1c1e-a4ec-4956-9f3f-d6961f012ff9"},"vehicle_type_id":"4","last_reported":1779345696,"current_range_meters":9200,"station_id":"","pricing_plan_id":"cebpf4jnsgd1na2vs0mg"},{"bike_id":"a0280d08-603c-4972-bbac-4b41b0ce8760","system_id":"levelo_inurba_marseille","lat":43.27073,"lon":5.42286,"is_reserved":false,"is_disabled":false,"rental_uris":{"android":"levelo://app?vid=a0280d08-603c-4972-bbac-4b41b0ce8760","ios":"levelo://app?vid=a0280d08-603c-4972-bbac-4b41b0ce8760"},"vehicle_type_id":"4","last_reported":1779345696,"current_range_meters":9200,"station_id":"ce4bhk92rcd13ifvqgb0","pricing_plan_id":"cebpf4jnsgd1na2vs0mg"},{"bike_id":"3c8e4601-2639-4196-a3e1-f497274faeed","system_id":"levelo_inurba_marseille","lat":43.26056,"lon":5.39386,"is_reserved":false,"is_disabled":false,"rental_uris":{"android":"levelo://app?vid=3c8e4601-2639-4196-a3e1-f497274faeed","ios":"levelo://app?vid=3c8e4601-2639-4196-a3e1-f497274faeed"},"vehicle_type_id":"4","last_reported":1779345696,"current_range_meters":9200,"station_id":"ce4bhh92rcd13ifvqfj0","pricing_plan_id":"cebpf4jnsgd1na2vs0mg"},{"bike_id":"678c2486-f208-445a-a253-9dfac60b0dc7","system_id":"levelo_inurba_marseille","lat":43.32453,"lon":5.36912,"is_reserved":false,"is_disabled":false,"rental_uris":{"android":"levelo://app?vid=678c2486-f208-445a-a253-9dfac60b0dc7","ios":"levelo://app?vid=678c2486-f208-445a-a253-9dfac60b0dc7"},"vehicle_type_id":"4","last_reported":1779345696,"current_range_meters":9200,"station_id":"","pricing_plan_id":"cebpf4jnsgd1na2vs0mg"},{"bike_id":"fbd77f0e-0bcb-4bc3-ad7e-2f2448587e51","system_id":"levelo_inurba_marseille","lat":43.286639,"lon":5.363443,"is_reserved":false,"is_disabled":false,"rental_uris":{"android":"levelo://app?vid=fbd77f0e-0bcb-4bc3-ad7e-2f2448587e51","ios":"levelo://app?vid=fbd77f0e-0bcb-4bc3-ad7e-2f2448587e51"},"vehicle_type_id":"4","last_reported":1779345696,"current_range_meters":9200,"station_id":"ce4bhah2rcd13ifvqej0","pricing_plan_id":"cebpf4jnsgd1na2vs0mg"},{"bike_id":"e30ebf53-ca2b-4ae7-a9b8-5e935403d3db","system_id":"levelo_inurba_marseille","lat":43.31749,"lon":5.39019,"is_reserved":false,"is_disabled":false,"rental_uris":{"android":"levelo://app?vid=e30ebf53-ca2b-4ae7-a9b8-5e935403d3db","ios":"levelo://app?vid=e30ebf53-ca2b-4ae7-a9b8-5e935403d3db"},"vehicle_type_id":"4","last_reported":1779345696,"current_range_meters":9200,"station_id":"ce4bhqp2rcd13ifvqhng","pricing_plan_id":"cebpf4jnsgd1na2vs0mg"},{"bike_id":"724b6878-610b-464d-b1a2-8cc0a03bcfed","system_id":"levelo_inurba_marseille","lat":43.24948,"lon":5.40492,"is_reserved":false,"is_disabled":false,"rental_uris":{"android":"levelo://app?vid=724b6878-610b-464d-b1a2-8cc0a03bcfed","ios":"levelo://app?vid=724b6878-610b-464d-b1a2-8cc0a03bcfed"},"vehicle_type_id":"4","last_reported":1779345696,"current_range_meters":9200,"station_id":"st_d2ngiaodas8pm72gd1h0","pricing_plan_id":"cebpf4jnsgd1na2vs0mg"},{"bike_id":"bbe44ca4-bf27-4923-a4af-03a2fec9014b","system_id":"levelo_inurba_marseille","lat":43.26802,"lon":5.40268,"is_reserved":false,"is_disabled":false,"rental_uris":{"android":"levelo://app?vid=bbe44ca4-bf27-4923-a4af-03a2fec9014b","ios":"levelo://app?vid=bbe44ca4-bf27-4923-a4af-03a2fec9014b"},"vehicle_type_id":"4","last_reported":1779345696,"current_range_meters":9200,"station_id":"ce501612rcd8frsf0b60","pricing_plan_id":"cebpf4jnsgd1na2vs0mg"},{"bike_id":"d1843d81-0f3b-4e3c-93b4-f3763d5a50e7","system_id":"levelo_inurba_marseille","lat":43.25812,"lon":5.39409,"is_reserved":false,"is_disabled":false,"rental_uris":{"android":"levelo://app?vid=d1843d81-0f3b-4e3c-93b4-f3763d5a50e7","ios":"levelo://app?vid=d1843d81-0f3b-4e3c-93b4-f3763d5a50e7"},"vehicle_type_id":"4","last_reported":1779345696,"current_range_meters":9200,"station_id":"ce4bhip2rcd13ifvqft0","pricing_plan_id":"cebpf4jnsgd1na2vs0mg"},{"bike_id":"70262ac4-778f-4daf-a906-15ac9ce909a4","system_id":"levelo_inurba_marseille","lat":43.31335,"lon":5.36708,"is_reserved":false,"is_disabled":false,"rental_uris":{"android":"levelo://app?vid=70262ac4-778f-4daf-a906-15ac9ce909a4","ios":"levelo://app?vid=70262ac4-778f-4daf-a906-15ac9ce909a4"},"vehicle_type_id":"4","last_reported":1779345696,"current_range_meters":9200,"station_id":"ce4bgr92rcd13ifvqc6g","pricing_plan_id":"cebpf4jnsgd1na2vs0mg"},{"bike_id":"c1ed57f6-f105-460c-8703-1c2eae17785a","system_id":"levelo_inurba_marseille","lat":43.22517,"lon":5.34788,"is_reserved":false,"is_disabled":false,"rental_uris":{"android":"levelo://app?vid=c1ed57f6-f105-460c-8703-1c2eae17785a","ios":"levelo://app?vid=c1ed57f6-f105-460c-8703-1c2eae17785a"},"vehicle_type_id":"4","last_reported":1779345696,"current_range_meters":9200,"station_id":"st_cvj5dfep6f1abm77gieg","pricing_plan_id":"cebpf4jnsgd1na2vs0mg"},{"bike_id":"9eaa3210-dddd-49cf-86f6-7a7680d3b3f8","system_id":"levelo_inurba_marseille","lat":43.30784,"lon":5.37652,"is_reserved":false,"is_disabled":false,"rental_uris":{"android":"levelo://app?vid=9eaa3210-dddd-49cf-86f6-7a7680d3b3f8","ios":"levelo://app?vid=9eaa3210-dddd-49cf-86f6-7a7680d3b3f8"},"vehicle_type_id":"4","last_reported":1779345696,"current_range_meters":9200,"station_id":"ce4bgv92rcd13ifvqcq0","pricing_plan_id":"cebpf4jnsgd1na2vs0mg"},{"bike_id":"0926d6b8-63c6-4292-9eff-105b64b9ecec","system_id":"levelo_inurba_marseille","lat":43.30193,"lon":5.36621,"is_reserved":false,"is_disabled":false,"rental_uris":{"android":"levelo://app?vid=0926d6b8-63c6-4292-9eff-105b64b9ecec","ios":"levelo://app?vid=0926d6b8-63c6-4292-9eff-105b64b9ecec"},"vehicle_type_id":"4","last_reported":1779345696,"current_range_meters":9200,"station_id":"ce4bgrh2rcd13ifvqc8g","pricing_plan_id":"cebpf4jnsgd1na2vs0mg"},{"bike_id":"3d436a0d-575b-42d3-8681-5c87057b3b7f","system_id":"levelo_inurba_marseille","lat":43.27963,"lon":5.43616,"is_reserved":false,"is_disabled":false,"rental_uris":{"android":"levelo://app?vid=3d436a0d-575b-42d3-8681-5c87057b3b7f","ios":"levelo://app?vid=3d436a0d-575b-42d3-8681-5c87057b3b7f"},"vehicle_type_id":"4","last_reported":1779345696,"current_range_meters":9200,"station_id":"","pricing_plan_id":"cebpf4jnsgd1na2vs0mg"},{"bike_id":"06f16425-f738-4942-b403-5a661c445467","system_id":"levelo_inurba_marseille","lat":43.25821,"lon":5.39433,"is_reserved":false,"is_disabled":false,"rental_uris":{"android":"levelo://app?vid=06f16425-f738-4942-b403-5a661c445467","ios":"levelo://app?vid=06f16425-f738-4942-b403-5a661c445467"},"vehicle_type_id":"4","last_reported":1779345696,"current_range_meters":9200,"station_id":"ce4bhip2rcd13ifvqft0","pricing_plan_id":"cebpf4jnsgd1na2vs0mg"},{"bike_id":"2f38cdcf-4a72-47d9-977c-70bb20e34759","system_id":"levelo_inurba_marseille","lat":43.30677,"lon":5.40096,"is_reserved":false,"is_disabled":false,"rental_uris":{"android":"levelo://app?vid=2f38cdcf-4a72-47d9-977c-70bb20e34759","ios":"levelo://app?vid=2f38cdcf-4a72-47d9-977c-70bb20e34759"},"vehicle_type_id":"4","last_reported":1779345696,"current_range_meters":9600,"station_id":"ce4bh112rcd13ifvqda0","pricing_plan_id":"cebpf4jnsgd1na2vs0mg"},{"bike_id":"a83f64dd-2af9-4433-93f0-9e19cf3f1904","system_id":"levelo_inurba_marseille","lat":43.28659,"lon":5.3997,"is_reserved":false,"is_disabled":false,"rental_uris":{"android":"levelo://app?vid=a83f64dd-2af9-4433-93f0-9e19cf3f1904","ios":"levelo://app?vid=a83f64dd-2af9-4433-93f0-9e19cf3f1904"},"vehicle_type_id":"4","last_reported":1779345696,"current_range_meters":9600,"station_id":"","pricing_plan_id":"cebpf4jnsgd1na2vs0mg"},{"bike_id":"ad6d8b73-6259-410d-979f-09e40ec16dc9","system_id":"levelo_inurba_marseille","lat":43.3082,"lon":5.37198,"is_reserved":false,"is_disabled":false,"rental_uris":{"android":"levelo://app?vid=ad6d8b73-6259-410d-979f-09e40ec16dc9","ios":"levelo://app?vid=ad6d8b73-6259-410d-979f-09e40ec16dc9"},"vehicle_type_id":"4","last_reported":1779345696,"current_range_meters":9600,"station_id":"","pricing_plan_id":"cebpf4jnsgd1na2vs0mg"},{"bike_id":"315a2eba-2035-4156-9313-908336f3846b","system_id":"levelo_inurba_marseille","lat":43.31485,"lon":5.3842,"is_reserved":false,"is_disabled":false,"rental_uris":{"android":"levelo://app?vid=315a2eba-2035-4156-9313-908336f3846b","ios":"levelo://app?vid=315a2eba-2035-4156-9313-908336f3846b"},"vehicle_type_id":"4","last_reported":1779345696,"current_range_meters":9600,"station_id":"","pricing_plan_id":"cebpf4jnsgd1na2vs0mg"},{"bike_id":"e6b6ef0e-9083-4f61-817c-8602f08a1096","system_id":"levelo_inurba_marseille","lat":43.28458,"lon":5.39192,"is_reserved":false,"is_disabled":true,"rental_uris":{"android":"levelo://app?vid=e6b6ef0e-9083-4f61-817c-8602f08a1096","ios":"levelo://app?vid=e6b6ef0e-9083-4f61-817c-8602f08a1096"},"vehicle_type_id":"4","last_reported":1779345696,"current_range_meters":9600,"station_id":"ce4bhoh2rcd13ifvqh5g","pricing_plan_id":"cebpf4jnsgd1na2vs0mg"},{"bike_id":"24bb42dc-3126-46ff-b083-39a12cb9fbdc","system_id":"levelo_inurba_marseille","lat":43.27963,"lon":5.41028,"is_reserved":false,"is_disabled":false,"rental_uris":{"android":"levelo://app?vid=24bb42dc-3126-46ff-b083-39a12cb9fbdc","ios":"levelo://app?vid=24bb42dc-3126-46ff-b083-39a12cb9fbdc"},"vehicle_type_id":"4","last_reported":1779345696,"current_range_meters":9600,"station_id":"ce4bhnp2rcd13ifvqh0g","pricing_plan_id":"cebpf4jnsgd1na2vs0mg"},{"bike_id":"65e93d25-13d9-4015-8a34-e3f9d63bc483","system_id":"levelo_inurba_marseille","lat":43.25867,"lon":5.39896,"is_reserved":false,"is_disabled":false,"rental_uris":{"android":"levelo://app?vid=65e93d25-13d9-4015-8a34-e3f9d63bc483","ios":"levelo://app?vid=65e93d25-13d9-4015-8a34-e3f9d63bc483"},"vehicle_type_id":"4","last_reported":1779345696,"current_range_meters":9600,"station_id":"ce4bhl92rcd13ifvqghg","pricing_plan_id":"cebpf4jnsgd1na2vs0mg"},{"bike_id":"6ecace9b-c16d-43aa-9c1a-0ebc2e7bcfc4","system_id":"levelo_inurba_marseille","lat":43.32112,"lon":5.36783,"is_reserved":false,"is_disabled":false,"rental_uris":{"android":"levelo://app?vid=6ecace9b-c16d-43aa-9c1a-0ebc2e7bcfc4","ios":"levelo://app?vid=6ecace9b-c16d-43aa-9c1a-0ebc2e7bcfc4"},"vehicle_type_id":"4","last_reported":1779345696,"current_range_meters":9600,"station_id":"ce4bhrh2rcd13ifvqhug","pricing_plan_id":"cebpf4jnsgd1na2vs0mg"},{"bike_id":"0a167676-59ff-4885-9ba0-a04a9701003c","system_id":"levelo_inurba_marseille","lat":43.28462,"lon":5.35883,"is_reserved":false,"is_disabled":false,"rental_uris":{"android":"levelo://app?vid=0a167676-59ff-4885-9ba0-a04a9701003c","ios":"levelo://app?vid=0a167676-59ff-4885-9ba0-a04a9701003c"},"vehicle_type_id":"4","last_reported":1779345696,"current_range_meters":9600,"station_id":"ce4bhah2rcd13ifvqei0","pricing_plan_id":"cebpf4jnsgd1na2vs0mg"},{"bike_id":"465070b2-5ac5-41d0-8103-2031b0df56d7","system_id":"levelo_inurba_marseille","lat":43.30566,"lon":5.3656,"is_reserved":false,"is_disabled":false,"rental_uris":{"android":"levelo://app?vid=465070b2-5ac5-41d0-8103-2031b0df56d7","ios":"levelo://app?vid=465070b2-5ac5-41d0-8103-2031b0df56d7"},"vehicle_type_id":"4","last_reported":1779345696,"current_range_meters":9600,"station_id":"ce4bgs12rcd13ifvqcag","pricing_plan_id":"cebpf4jnsgd1na2vs0mg"},{"bike_id":"872aa182-f024-419d-bf9d-3a0206daec3c","system_id":"levelo_inurba_marseille","lat":43.31356,"lon":5.38484,"is_reserved":false,"is_disabled":true,"rental_uris":{"android":"levelo://app?vid=872aa182-f024-419d-bf9d-3a0206daec3c","ios":"levelo://app?vid=872aa182-f024-419d-bf9d-3a0206daec3c"},"vehicle_type_id":"4","last_reported":1779345696,"current_range_meters":9600,"station_id":"ce4bgt92rcd13ifvqcf0","pricing_plan_id":"cebpf4jnsgd1na2vs0mg"},{"bike_id":"37130fbc-f9c7-4904-a6ed-5aac0386f938","system_id":"levelo_inurba_marseille","lat":43.30304,"lon":5.39222,"is_reserved":false,"is_disabled":true,"rental_uris":{"android":"levelo://app?vid=37130fbc-f9c7-4904-a6ed-5aac0386f938","ios":"levelo://app?vid=37130fbc-f9c7-4904-a6ed-5aac0386f938"},"vehicle_type_id":"4","last_reported":1779345696,"current_range_meters":9600,"station_id":"ce4bgkh2rcd13ifvqbk0","pricing_plan_id":"cebpf4jnsgd1na2vs0mg"},{"bike_id":"6c1566ff-4e32-4c42-a7fe-e55ccb4a7bf9","system_id":"levelo_inurba_marseille","lat":43.30326,"lon":5.40432,"is_reserved":false,"is_disabled":false,"rental_uris":{"android":"levelo://app?vid=6c1566ff-4e32-4c42-a7fe-e55ccb4a7bf9","ios":"levelo://app?vid=6c1566ff-4e32-4c42-a7fe-e55ccb4a7bf9"},"vehicle_type_id":"4","last_reported":1779345696,"current_range_meters":9600,"station_id":"ce4bh012rcd13ifvqd10","pricing_plan_id":"cebpf4jnsgd1na2vs0mg"},{"bike_id":"c48a007d-8d1d-4a4e-938f-8c7f8af5cc97","system_id":"levelo_inurba_marseille","lat":43.23885,"lon":5.37425,"is_reserved":false,"is_disabled":false,"rental_uris":{"android":"levelo://app?vid=c48a007d-8d1d-4a4e-938f-8c7f8af5cc97","ios":"levelo://app?vid=c48a007d-8d1d-4a4e-938f-8c7f8af5cc97"},"vehicle_type_id":"4","last_reported":1779345696,"current_range_meters":9600,"station_id":"st_d6sm7csbq4hs73f8fpjg","pricing_plan_id":"cebpf4jnsgd1na2vs0mg"},{"bike_id":"985f0de4-50e3-4aac-9e41-065157699a0f","system_id":"levelo_inurba_marseille","lat":43.26544,"lon":5.37286,"is_reserved":false,"is_disabled":true,"rental_uris":{"android":"levelo://app?vid=985f0de4-50e3-4aac-9e41-065157699a0f","ios":"levelo://app?vid=985f0de4-50e3-4aac-9e41-065157699a0f"},"vehicle_type_id":"4","last_reported":1779345696,"current_range_meters":9600,"station_id":"ce4bhg12rcd13ifvqf70","pricing_plan_id":"cebpf4jnsgd1na2vs0mg"},{"bike_id":"924fb5a7-6478-4e31-9ad7-34a2292df595","system_id":"levelo_inurba_marseille","lat":43.28479,"lon":5.43731,"is_reserved":false,"is_disabled":false,"rental_uris":{"android":"levelo://app?vid=924fb5a7-6478-4e31-9ad7-34a2292df595","ios":"levelo://app?vid=924fb5a7-6478-4e31-9ad7-34a2292df595"},"vehicle_type_id":"4","last_reported":1779345696,"current_range_meters":9600,"station_id":"","pricing_plan_id":"cebpf4jnsgd1na2vs0mg"},{"bike_id":"744bb0ef-44e4-4935-8785-b52ed1362927","system_id":"levelo_inurba_marseille","lat":43.24672,"lon":5.38162,"is_reserved":false,"is_disabled":false,"rental_uris":{"android":"levelo://app?vid=744bb0ef-44e4-4935-8785-b52ed1362927","ios":"levelo://app?vid=744bb0ef-44e4-4935-8785-b52ed1362927"},"vehicle_type_id":"4","last_reported":1779345696,"current_range_meters":9600,"station_id":"ce4bhih2rcd13ifvqfr0","pricing_plan_id":"cebpf4jnsgd1na2vs0mg"},{"bike_id":"35c77167-3e0e-4005-9e4d-cd91f18f26aa","system_id":"levelo_inurba_marseille","lat":43.24075,"lon":5.37721,"is_reserved":false,"is_disabled":false,"rental_uris":{"android":"levelo://app?vid=35c77167-3e0e-4005-9e4d-cd91f18f26aa","ios":"levelo://app?vid=35c77167-3e0e-4005-9e4d-cd91f18f26aa"},"vehicle_type_id":"4","last_reported":1779345696,"current_range_meters":9600,"station_id":"ce4bhnp2rcd13ifvqgvg","pricing_plan_id":"cebpf4jnsgd1na2vs0mg"},{"bike_id":"f88ce4bc-9367-4665-a159-9c427584edfa","system_id":"levelo_inurba_marseille","lat":43.2903,"lon":5.39946,"is_reserved":false,"is_disabled":false,"rental_uris":{"android":"levelo://app?vid=f88ce4bc-9367-4665-a159-9c427584edfa","ios":"levelo://app?vid=f88ce4bc-9367-4665-a159-9c427584edfa"},"vehicle_type_id":"4","last_reported":1779345696,"current_range_meters":9600,"station_id":"ce4bh392rcd13ifvqdm0","pricing_plan_id":"cebpf4jnsgd1na2vs0mg"},{"bike_id":"f5d4d902-b391-40c3-9ed3-adb235a834d3","system_id":"levelo_inurba_marseille","lat":43.26566,"lon":5.39002,"is_reserved":false,"is_disabled":false,"rental_uris":{"android":"levelo://app?vid=f5d4d902-b391-40c3-9ed3-adb235a834d3","ios":"levelo://app?vid=f5d4d902-b391-40c3-9ed3-adb235a834d3"},"vehicle_type_id":"4","last_reported":1779345696,"current_range_meters":9600,"station_id":"ce4bhe12rcd13ifvqf30","pricing_plan_id":"cebpf4jnsgd1na2vs0mg"},{"bike_id":"193fc11a-4b4a-42ac-a54f-49508deebe44","system_id":"levelo_inurba_marseille","lat":43.31065,"lon":5.37184,"is_reserved":false,"is_disabled":true,"rental_uris":{"android":"levelo://app?vid=193fc11a-4b4a-42ac-a54f-49508deebe44","ios":"levelo://app?vid=193fc11a-4b4a-42ac-a54f-49508deebe44"},"vehicle_type_id":"4","last_reported":1779345696,"current_range_meters":9600,"station_id":"st_d4kl2rp97mjs73e7tdfg","pricing_plan_id":"cebpf4jnsgd1na2vs0mg"},{"bike_id":"fde6787b-4f2b-47b0-a0b5-820834f79162","system_id":"levelo_inurba_marseille","lat":43.32035,"lon":5.40627,"is_reserved":false,"is_disabled":false,"rental_uris":{"android":"levelo://app?vid=fde6787b-4f2b-47b0-a0b5-820834f79162","ios":"levelo://app?vid=fde6787b-4f2b-47b0-a0b5-820834f79162"},"vehicle_type_id":"4","last_reported":1779345696,"current_range_meters":9600,"station_id":"","pricing_plan_id":"cebpf4jnsgd1na2vs0mg"},{"bike_id":"afc7d8f8-5b5b-4cc2-8984-cf576aab538a","system_id":"levelo_inurba_marseille","lat":43.29229,"lon":5.36063,"is_reserved":false,"is_disabled":false,"rental_uris":{"android":"levelo://app?vid=afc7d8f8-5b5b-4cc2-8984-cf576aab538a","ios":"levelo://app?vid=afc7d8f8-5b5b-4cc2-8984-cf576aab538a"},"vehicle_type_id":"4","last_reported":1779345696,"current_range_meters":9600,"station_id":"ce4bhbh2rcd13ifvqeqg","pricing_plan_id":"cebpf4jnsgd1na2vs0mg"},{"bike_id":"fbdccf2e-b257-4ad4-a675-d3a6b2b6c96b","system_id":"levelo_inurba_marseille","lat":43.23896,"lon":5.37454,"is_reserved":false,"is_disabled":false,"rental_uris":{"android":"levelo://app?vid=fbdccf2e-b257-4ad4-a675-d3a6b2b6c96b","ios":"levelo://app?vid=fbdccf2e-b257-4ad4-a675-d3a6b2b6c96b"},"vehicle_type_id":"4","last_reported":1779345696,"current_range_meters":9600,"station_id":"st_d6sm7csbq4hs73f8fpjg","pricing_plan_id":"cebpf4jnsgd1na2vs0mg"},{"bike_id":"5d370724-77a2-4752-996e-f01dda7a3379","system_id":"levelo_inurba_marseille","lat":43.22559,"lon":5.41615,"is_reserved":false,"is_disabled":false,"rental_uris":{"android":"levelo://app?vid=5d370724-77a2-4752-996e-f01dda7a3379","ios":"levelo://app?vid=5d370724-77a2-4752-996e-f01dda7a3379"},"vehicle_type_id":"4","last_reported":1779345696,"current_range_meters":9600,"station_id":"st_d2o4gvlbi1j2169b742g","pricing_plan_id":"cebpf4jnsgd1na2vs0mg"},