{"last_updated":1679882401,"ttl":30,"version":"2.2","data":{"bikes":[{"bike_id":"6a386a95-0e3e-4dda-ae75-5d41fbacfa7b","system_id":"levelo_inurba_marseille","lat":43.312239,"lon":5.368562,"is_reserved":false,"is_disabled":false,"rental_uris":{"android":"levelo://app?vid=6a386a95-0e3e-4dda-ae75-5d41fbacfa7b","ios":"levelo://app?vid=6a386a95-0e3e-4dda-ae75-5d41fbacfa7b"},"vehicle_type_id":"4","last_reported":1679882401,"current_range_meters":20400,"station_id":"ce4bgl92rcd13ifvqbq0","pricing_plan_id":"free"},{"bike_id":"e2d06481-63e7-4c99-a92c-99bd55007308","system_id":"levelo_inurba_marseille","lat":43.312239,"lon":5.368562,"is_reserved":false,"is_disabled":false,"rental_uris":{"android":"levelo://app?vid=e2d06481-63e7-4c99-a92c-99bd55007308","ios":"levelo://app?vid=e2d06481-63e7-4c99-a92c-99bd55007308"},"vehicle_type_id":"4","last_reported":1679882401,"current_range_meters":16400,"station_id":"ce4bgl92rcd13ifvqbq0","pricing_plan_id":"free"},{"bike_id":"b892e1e4-0f67-4318-9af9-95b584452a62","system_id":"levelo_inurba_marseille","lat":43.318023,"lon":5.36952,"is_reserved":false,"is_disabled":false,"rental_uris":{"android":"levelo://app?vid=b892e1e4-0f67-4318-9af9-95b584452a62","ios":"levelo://app?vid=b892e1e4-0f67-4318-9af9-95b584452a62"},"vehicle_type_id":"4","last_reported":1679882401,"current_range_meters":6400,"station_id":"","pricing_plan_id":"free"},{"bike_id":"28159b16-005f-4265-a0a2-adeb875ea2c1","system_id":"levelo_inurba_marseille","lat":43.310717,"lon":5.378111,"is_reserved":false,"is_disabled":false,"rental_uris":{"android":"levelo://app?vid=28159b16-005f-4265-a0a2-adeb875ea2c1","ios":"levelo://app?vid=28159b16-005f-4265-a0a2-adeb875ea2c1"},"vehicle_type_id":"4","last_reported":1679882401,"current_range_meters":26400,"station_id":"ce4bgt12rcd13ifvqce0","pricing_plan_id":"free"},{"bike_id":"c5516517-c1a9-4d4f-baea-91eeae9bc2ad","system_id":"levelo_inurba_marseille","lat":43.317075,"lon":5.377367,"is_reserved":false,"is_disabled":false,"rental_uris":{"android":"levelo://app?vid=c5516517-c1a9-4d4f-baea-91eeae9bc2ad","ios":"levelo://app?vid=c5516517-c1a9-4d4f-baea-91eeae9bc2ad"},"vehicle_type_id":"4","last_reported":1679882401,"current_range_meters":28800,"station_id":"ce4bgth2rcd13ifvqch0","pricing_plan_id":"free"},{"bike_id":"75ca38f0-e357-4410-886e-6709cb4261fe","system_id":"levelo_inurba_marseille","lat":43.301939,"lon":5.366286,"is_reserved":false,"is_disabled":false,"rental_uris":{"android":"levelo://app?vid=75ca38f0-e357-4410-886e-6709cb4261fe","ios":"levelo://app?vid=75ca38f0-e357-4410-886e-6709cb4261fe"},"vehicle_type_id":"4","last_reported":1679882401,"current_range_meters":20800,"station_id":"ce4bgrh2rcd13ifvqc8g","pricing_plan_id":"free"},{"bike_id":"db3c8a58-c66c-42bf-846d-78672da18a6c","system_id":"levelo_inurba_marseille","lat":43.308081,"lon":5.381498,"is_reserved":false,"is_disabled":false,"rental_uris":{"android":"levelo://app?vid=db3c8a58-c66c-42bf-846d-78672da18a6c","ios":"levelo://app?vid=db3c8a58-c66c-42bf-846d-78672da18a6c"},"vehicle_type_id":"4","last_reported":1679882401,"current_range_meters":0,"station_id":"","pricing_plan_id":"free"},{"bike_id":"a907013d-a2ab-4abc-8dbf-f4c59692e482","system_id":"levelo_inurba_marseille","lat":43.308012,"lon":5.381511,"is_reserved":false,"is_disabled":false,"rental_uris":{"android":"levelo://app?vid=a907013d-a2ab-4abc-8dbf-f4c59692e482","ios":"levelo://app?vid=a907013d-a2ab-4abc-8dbf-f4c59692e482"},"vehicle_type_id":"4","last_reported":1679882401,"current_range_meters":31200,"station_id":"ce4bgt12rcd13ifvqce0","pricing_plan_id":"free"},{"bike_id":"3ba873c1-78f9-4c45-9f2d-f9c79065082f","system_id":"levelo_inurba_marseille","lat":43.308036,"lon":5.38158,"is_reserved":false,"is_disabled":false,"rental_uris":{"android":"levelo://app?vid=3ba873c1-78f9-4c45-9f2d-f9c79065082f","ios":"levelo://app?vid=3ba873c1-78f9-4c45-9f2d-f9c79065082f"},"vehicle_type_id":"4","last_reported":1679882401,"current_range_meters":0,"station_id":"","pricing_plan_id":"free"},{"bike_id":"760c0f92-dfa6-463c-a0ee-8a8b4c8035a8","system_id":"levelo_inurba_marseille","lat":43.313571,"lon":5.384829,"is_reserved":false,"is_disabled":false,"rental_uris":{"android":"levelo://app?vid=760c0f92-dfa6-463c-a0ee-8a8b4c8035a8","ios":"levelo://app?vid=760c0f92-dfa6-463c-a0ee-8a8b4c8035a8"},"vehicle_type_id":"4","last_reported":1679882401,"current_range_meters":0,"station_id":"ce4bgt92rcd13ifvqcf0","pricing_plan_id":"free"},{"bike_id":"b65dd601-76a9-4d7d-a3b6-c02a68fbbe97","system_id":"levelo_inurba_marseille","lat":43.30537,"lon":5.384303,"is_reserved":false,"is_disabled":false,"rental_uris":{"android":"levelo://app?vid=b65dd601-76a9-4d7d-a3b6-c02a68fbbe97","ios":"levelo://app?vid=b65dd601-76a9-4d7d-a3b6-c02a68fbbe97"},"vehicle_type_id":"4","last_reported":1679882401,"current_range_meters":0,"station_id":"ce4bgg92rcd13ifvqb30","pricing_plan_id":"free"},{"bike_id":"9ac94b06-682d-479a-be08-e44d87e067eb","system_id":"levelo_inurba_marseille","lat":43.311722,"lon":5.387247,"is_reserved":false,"is_disabled":false,"rental_uris":{"android":"levelo://app?vid=9ac94b06-682d-479a-be08-e44d87e067eb","ios":"levelo://app?vid=9ac94b06-682d-479a-be08-e44d87e067eb"},"vehicle_type_id":"4","last_reported":1679882401,"current_range_meters":18000,"station_id":"ce4bgv12rcd13ifvqcp0","pricing_plan_id":"free"},{"bike_id":"b21a8ffb-07b0-4319-ae2b-9b7c38f104b8","system_id":"levelo_inurba_marseille","lat":43.297289,"lon":5.376818,"is_reserved":false,"is_disabled":false,"rental_uris":{"android":"levelo://app?vid=b21a8ffb-07b0-4319-ae2b-9b7c38f104b8","ios":"levelo://app?vid=b21a8ffb-07b0-4319-ae2b-9b7c38f104b8"},"vehicle_type_id":"4","last_reported":1679882401,"current_range_meters":0,"station_id":"","pricing_plan_id":"free"},{"bike_id":"5a6c60cc-0351-4db2-aac5-3fcdf3eccac2","system_id":"levelo_inurba_marseille","lat":43.309589,"lon":5.390258,"is_reserved":false,"is_disabled":false,"rental_uris":{"android":"levelo://app?vid=5a6c60cc-0351-4db2-aac5-3fcdf3eccac2","ios":"levelo://app?vid=5a6c60cc-0351-4db2-aac5-3fcdf3eccac2"},"vehicle_type_id":"4","last_reported":1679882401,"current_range_meters":24000,"station_id":"ce4bgup2rcd13ifvqco0","pricing_plan_id":"free"},{"bike_id":"4957af2f-5f0f-471f-bd4a-f3986287913f","system_id":"levelo_inurba_marseille","lat":43.309589,"lon":5.390258,"is_reserved":false,"is_disabled":false,"rental_uris":{"android":"levelo://app?vid=4957af2f-5f0f-471f-bd4a-f3986287913f","ios":"levelo://app?vid=4957af2f-5f0f-471f-bd4a-f3986287913f"},"vehicle_type_id":"4","last_reported":1679882401,"current_range_meters":0,"station_id":"ce4bgup2rcd13ifvqco0","pricing_plan_id":"free"},{"bike_id":"0d85c83b-8919-4665-bc1a-7ed0f4bf948c","system_id":"levelo_inurba_marseille","lat":43.296482,"lon":5.376719,"is_reserved":false,"is_disabled":false,"rental_uris":{"android":"levelo://app?vid=0d85c83b-8919-4665-bc1a-7ed0f4bf948c","ios":"levelo://app?vid=0d85c83b-8919-4665-bc1a-7ed0f4bf948c"},"vehicle_type_id":"4","last_reported":1679882401,"current_range_meters":0,"station_id":"","pricing_plan_id":"free"},{"bike_id":"592ff436-450d-436c-85ce-f22d05d82214","system_id":"levelo_inurba_marseille","lat":43.295707,"lon":5.375039,"is_reserved":false,"is_disabled":false,"rental_uris":{"android":"levelo://app?vid=592ff436-450d-436c-85ce-f22d05d82214","ios":"levelo://app?vid=592ff436-450d-436c-85ce-f22d05d82214"},"vehicle_type_id":"4","last_reported":1679882401,"current_range_meters":0,"station_id":"","pricing_plan_id":"free"},{"bike_id":"f7b25ffb-3094-44f6-9b20-837127a3c3fc","system_id":"levelo_inurba_marseille","lat":43.29537,"lon":5.3753,"is_reserved":false,"is_disabled":false,"rental_uris":{"android":"levelo://app?vid=f7b25ffb-3094-44f6-9b20-837127a3c3fc","ios":"levelo://app?vid=f7b25ffb-3094-44f6-9b20-837127a3c3fc"},"vehicle_type_id":"4","last_reported":1679882401,"current_range_meters":0,"station_id":"","pricing_plan_id":"free"},{"bike_id":"e6b5e777-8c51-4322-86c7-dc89fd0cf6fc","system_id":"levelo_inurba_marseille","lat":43.314243,"lon":5.393159,"is_reserved":false,"is_disabled":false,"rental_uris":{"android":"levelo://app?vid=e6b5e777-8c51-4322-86c7-dc89fd0cf6fc","ios":"levelo://app?vid=e6b5e777-8c51-4322-86c7-dc89fd0cf6fc"},"vehicle_type_id":"4","last_reported":1679882401,"current_range_meters":0,"station_id":"","pricing_plan_id":"free"},{"bike_id":"b139ee7a-82aa-4f43-bbc1-5183380ddcb7","system_id":"levelo_inurba_marseille","lat":43.33052,"lon":5.37825,"is_reserved":false,"is_disabled":false,"rental_uris":{"android":"levelo://app?vid=b139ee7a-82aa-4f43-bbc1-5183380ddcb7","ios":"levelo://app?vid=b139ee7a-82aa-4f43-bbc1-5183380ddcb7"},"vehicle_type_id":"4","last_reported":1679882401,"current_range_meters":12000,"station_id":"","pricing_plan_id":"free"},{"bike_id":"2004d0e2-ecd1-4f6a-b407-2c97f8265ea2","system_id":"levelo_inurba_marseille","lat":43.329554,"lon":5.383517,"is_reserved":false,"is_disabled":false,"rental_uris":{"android":"levelo://app?vid=2004d0e2-ecd1-4f6a-b407-2c97f8265ea2","ios":"levelo://app?vid=2004d0e2-ecd1-4f6a-b407-2c97f8265ea2"},"vehicle_type_id":"4","last_reported":1679882401,"current_range_meters":0,"station_id":"","pricing_plan_id":"free"},{"bike_id":"4a602f20-b872-4067-bd04-793f1b56c961","system_id":"levelo_inurba_marseille","lat":43.30085,"lon":5.390856,"is_reserved":false,"is_disabled":false,"rental_uris":{"android":"levelo://app?vid=4a602f20-b872-4067-bd04-793f1b56c961","ios":"levelo://app?vid=4a602f20-b872-4067-bd04-793f1b56c961"},"vehicle_type_id":"4","last_reported":1679882401,"current_range_meters":25600,"station_id":"ce4bh192rcd13ifvqdb0","pricing_plan_id":"free"},{"bike_id":"3acf5576-28d4-4a12-9997-feda5a88ce83","system_id":"levelo_inurba_marseille","lat":43.29164,"lon":5.371613,"is_reserved":false,"is_disabled":false,"rental_uris":{"android":"levelo://app?vid=3acf5576-28d4-4a12-9997-feda5a88ce83","ios":"levelo://app?vid=3acf5576-28d4-4a12-9997-feda5a88ce83"},"vehicle_type_id":"4","last_reported":1679882401,"current_range_meters":25200,"station_id":"ce4bha92rcd13ifvqeh0","pricing_plan_id":"free"},{"bike_id":"d35f447f-94f2-480f-8adc-7ce761a712b7","system_id":"levelo_inurba_marseille","lat":43.313291,"lon":5.396838,"is_reserved":false,"is_disabled":false,"rental_uris":{"android":"levelo://app?vid=d35f447f-94f2-480f-8adc-7ce761a712b7","ios":"levelo://app?vid=d35f447f-94f2-480f-8adc-7ce761a712b7"},"vehicle_type_id":"4","last_reported":1679882401,"current_range_meters":5200,"station_id":"ce4bgvp2rcd13ifvqcu0","pricing_plan_id":"free"},{"bike_id":"cc9ae5b0-61dc-428f-b573-bc5c4ad69bd2","system_id":"levelo_inurba_marseille","lat":43.313793,"lon":5.397503,"is_reserved":false,"is_disabled":false,"rental_uris":{"android":"levelo://app?vid=cc9ae5b0-61dc-428f-b573-bc5c4ad69bd2","ios":"levelo://app?vid=cc9ae5b0-61dc-428f-b573-bc5c4ad69bd2"},"vehicle_type_id":"4","last_reported":1679882401,"current_range_meters":0,"station_id":"","pricing_plan_id":"free"},{"bike_id":"224c9665-236a-4a2f-8046-6473211985c6","system_id":"levelo_inurba_marseille","lat":43.29033,"lon":5.35906,"is_reserved":false,"is_disabled":false,"rental_uris":{"android":"levelo://app?vid=224c9665-236a-4a2f-8046-6473211985c6","ios":"levelo://app?vid=224c9665-236a-4a2f-8046-6473211985c6"},"vehicle_type_id":"4","last_reported":1679882401,"current_range_meters":0,"station_id":"ce4bha92rcd13ifvqeg0","pricing_plan_id":"free"},{"bike_id":"019b3a63-279d-423d-af89-a1caa974a532","system_id":"levelo_inurba_marseille","lat":43.290327,"lon":5.375711,"is_reserved":false,"is_disabled":false,"rental_uris":{"android":"levelo://app?vid=019b3a63-279d-423d-af89-a1caa974a532","ios":"levelo://app?vid=019b3a63-279d-423d-af89-a1caa974a532"},"vehicle_type_id":"4","last_reported":1679882401,"current_range_meters":28000,"station_id":"ce4bh692rcd13ifvqe90","pricing_plan_id":"free"},{"bike_id":"ea47189e-e661-4fe9-a58b-e223a52b8965","system_id":"levelo_inurba_marseille","lat":43.289416,"lon":5.366314,"is_reserved":false,"is_disabled":false,"rental_uris":{"android":"levelo://app?vid=ea47189e-e661-4fe9-a58b-e223a52b8965","ios":"levelo://app?vid=ea47189e-e661-4fe9-a58b-e223a52b8965"},"vehicle_type_id":"4","last_reported":1679882401,"current_range_meters":0,"station_id":"","pricing_plan_id":"free"},{"bike_id":"a0439902-a1ae-4232-b8b4-a6f754d2a2ca","system_id":"levelo_inurba_marseille","lat":43.330442,"lon":5.389148,"is_reserved":false,"is_disabled":false,"rental_uris":{"android":"levelo://app?vid=a0439902-a1ae-4232-b8b4-a6f754d2a2ca","ios":"levelo://app?vid=a0439902-a1ae-4232-b8b4-a6f754d2a2ca"},"vehicle_type_id":"4","last_reported":1679882401,"current_range_meters":0,"station_id":"ce4bhr92rcd13ifvqhrg","pricing_plan_id":"free"},{"bike_id":"ea9dc064-89af-4ab6-9e9d-c9e8ed038282","system_id":"levelo_inurba_marseille","lat":43.290995,"lon":5.381361,"is_reserved":false,"is_disabled":false,"rental_uris":{"android":"levelo://app?vid=ea9dc064-89af-4ab6-9e9d-c9e8ed038282","ios":"levelo://app?vid=ea9dc064-89af-4ab6-9e9d-c9e8ed038282"},"vehicle_type_id":"4","last_reported":1679882401,"current_range_meters":400,"station_id":"ce4bh512rcd13ifvqe2g","pricing_plan_id":"free"},{"bike_id":"660c76ca-7713-4cca-a795-889206550af5","system_id":"levelo_inurba_marseille","lat":43.28856,"lon":5.358371,"is_reserved":false,"is_disabled":false,"rental_uris":{"android":"levelo://app?vid=660c76ca-7713-4cca-a795-889206550af5","ios":"levelo://app?vid=660c76ca-7713-4cca-a795-889206550af5"},"vehicle_type_id":"4","last_reported":1679882401,"current_range_meters":29200,"station_id":"ce4bhb12rcd13ifvqem0","pricing_plan_id":"free"},{"bike_id":"5dbe79cc-8fb2-4919-b431-be73ab496c56","system_id":"levelo_inurba_marseille","lat":43.337463,"lon":5.37464,"is_reserved":false,"is_disabled":false,"rental_uris":{"android":"levelo://app?vid=5dbe79cc-8fb2-4919-b431-be73ab496c56","ios":"levelo://app?vid=5dbe79cc-8fb2-4919-b431-be73ab496c56"},"vehicle_type_id":"4","last_reported":1679882401,"current_range_meters":25600,"station_id":"","pricing_plan_id":"free"},{"bike_id":"b04af77c-200d-450f-8035-76db0bcbe255","system_id":"levelo_inurba_marseille","lat":43.298681,"lon":5.397225,"is_reserved":false,"is_disabled":false,"rental_uris":{"android":"levelo://app?vid=b04af77c-200d-450f-8035-76db0bcbe255","ios":"levelo://app?vid=b04af77c-200d-450f-8035-76db0bcbe255"},"vehicle_type_id":"4","last_reported":1679882401,"current_range_meters":22800,"station_id":"ce4bh0h2rcd13ifvqd50","pricing_plan_id":"free"},{"bike_id":"1eb5d89f-d2e9-4a36-8f38-00b01116e0d6","system_id":"levelo_inurba_marseille","lat":43.298681,"lon":5.397225,"is_reserved":false,"is_disabled":false,"rental_uris":{"android":"levelo://app?vid=1eb5d89f-d2e9-4a36-8f38-00b01116e0d6","ios":"levelo://app?vid=1eb5d89f-d2e9-4a36-8f38-00b01116e0d6"},"vehicle_type_id":"4","last_reported":1679882401,"current_range_meters":24000,"station_id":"ce4bh0h2rcd13ifvqd50","pricing_plan_id":"free"},{"bike_id":"44669105-c04f-442d-a8ac-d547f71ea8a3","system_id":"levelo_inurba_marseille","lat":43.298681,"lon":5.397225,"is_reserved":false,"is_disabled":false,"rental_uris":{"android":"levelo://app?vid=44669105-c04f-442d-a8ac-d547f71ea8a3","ios":"levelo://app?vid=44669105-c04f-442d-a8ac-d547f71ea8a3"},"vehicle_type_id":"4","last_reported":1679882401,"current_range_meters":15600,"station_id":"ce4bh0h2rcd13ifvqd50","pricing_plan_id":"free"},{"bike_id":"6b2a7726-b0ef-48da-8d59-2e431b8dc48f","system_id":"levelo_inurba_marseille","lat":43.3139,"lon":5.40318,"is_reserved":false,"is_disabled":false,"rental_uris":{"android":"levelo://app?vid=6b2a7726-b0ef-48da-8d59-2e431b8dc48f","ios":"levelo://app?vid=6b2a7726-b0ef-48da-8d59-2e431b8dc48f"},"vehicle_type_id":"4","last_reported":1679882401,"current_range_meters":18400,"station_id":"","pricing_plan_id":"free"},{"bike_id":"0dc94d3c-6a08-41a4-9be1-52cceeff8557","system_id":"levelo_inurba_marseille","lat":43.290225,"lon":5.386313,"is_reserved":false,"is_disabled":false,"rental_uris":{"android":"levelo://app?vid=0dc94d3c-6a08-41a4-9be1-52cceeff8557","ios":"levelo://app?vid=0dc94d3c-6a08-41a4-9be1-52cceeff8557"},"vehicle_type_id":"4","last_reported":1679882401,"current_range_meters":0,"station_id":"","pricing_plan_id":"free"},{"bike_id":"1d191d97-77b6-405a-b9c2-5f5dd1945ecd","system_id":"levelo_inurba_marseille","lat":43.326557,"lon":5.39846,"is_reserved":false,"is_disabled":false,"rental_uris":{"android":"levelo://app?vid=1d191d97-77b6-405a-b9c2-5f5dd1945ecd","ios":"levelo://app?vid=1d191d97-77b6-405a-b9c2-5f5dd1945ecd"},"vehicle_type_id":"4","last_reported":1679882401,"current_range_meters":3600,"station_id":"","pricing_plan_id":"free"},{"bike_id":"8f415884-7cae-4634-a0df-c4a51693437c","system_id":"levelo_inurba_marseille","lat":43.284534,"lon":5.358662,"is_reserved":false,"is_disabled":false,"rental_uris":{"android":"levelo://app?vid=8f415884-7cae-4634-a0df-c4a51693437c","ios":"levelo://app?vid=8f415884-7cae-4634-a0df-c4a51693437c"},"vehicle_type_id":"4","last_reported":1679882401,"current_range_meters":19600,"station_id":"ce4bhah2rcd13ifvqei0","pricing_plan_id":"free"},{"bike_id":"3bede14f-aea6-4e2d-a32b-ed67a3031b2d","system_id":"levelo_inurba_marseille","lat":43.29511,"lon":5.40057,"is_reserved":false,"is_disabled":false,"rental_uris":{"android":"levelo://app?vid=3bede14f-aea6-4e2d-a32b-ed67a3031b2d","ios":"levelo://app?vid=3bede14f-aea6-4e2d-a32b-ed67a3031b2d"},"vehicle_type_id":"4","last_reported":1679882401,"current_range_meters":0,"station_id":"","pricing_plan_id":"free"},{"bike_id":"24ada41e-776e-4ef3-b24c-916cfcc2f476","system_id":"levelo_inurba_marseille","lat":43.288497,"lon":5.393089,"is_reserved":false,"is_disabled":false,"rental_uris":{"android":"levelo://app?vid=24ada41e-776e-4ef3-b24c-916cfcc2f476","ios":"levelo://app?vid=24ada41e-776e-4ef3-b24c-916cfcc2f476"},"vehicle_type_id":"4","last_reported":1679882401,"current_range_meters":0,"station_id":"ce4bh2p2rcd13ifvqdi0","pricing_plan_id":"free"},{"bike_id":"cbe3bb82-0455-46df-bbc8-b0ab76033702","system_id":"levelo_inurba_marseille","lat":43.289363,"lon":5.396322,"is_reserved":false,"is_disabled":false,"rental_uris":{"android":"levelo://app?vid=cbe3bb82-0455-46df-bbc8-b0ab76033702","ios":"levelo://app?vid=cbe3bb82-0455-46df-bbc8-b0ab76033702"},"vehicle_type_id":"4","last_reported":1679882401,"current_range_meters":0,"station_id":"ce4bh3h2rcd13ifvqdn0","pricing_plan_id":"free"},{"bike_id":"92c6821f-0ca6-4c65-8f86-214d0afd2723","system_id":"levelo_inurba_marseille","lat":43.289363,"lon":5.396322,"is_reserved":false,"is_disabled":false,"rental_uris":{"android":"levelo://app?vid=92c6821f-0ca6-4c65-8f86-214d0afd2723","ios":"levelo://app?vid=92c6821f-0ca6-4c65-8f86-214d0afd2723"},"vehicle_type_id":"4","last_reported":1679882401,"current_range_meters":15600,"station_id":"ce4bh3h2rcd13ifvqdn0","pricing_plan_id":"free"},{"bike_id":"a1976e84-f8b7-44b3-aa4d-bf3ed9731248","system_id":"levelo_inurba_marseille","lat":43.282754,"lon":5.350519,"is_reserved":false,"is_disabled":false,"rental_uris":{"android":"levelo://app?vid=a1976e84-f8b7-44b3-aa4d-bf3ed9731248","ios":"levelo://app?vid=a1976e84-f8b7-44b3-aa4d-bf3ed9731248"},"vehicle_type_id":"4","last_reported":1679882401,"current_range_meters":23200,"station_id":"ce4bhbp2rcd13ifvqerg","pricing_plan_id":"free"},{"bike_id":"c42ea1de-615a-4594-a909-7bf087ecc2a1","system_id":"levelo_inurba_marseille","lat":43.281044,"lon":5.378308,"is_reserved":false,"is_disabled":false,"rental_uris":{"android":"levelo://app?vid=c42ea1de-615a-4594-a909-7bf087ecc2a1","ios":"levelo://app?vid=c42ea1de-615a-4594-a909-7bf087ecc2a1"},"vehicle_type_id":"4","last_reported":1679882401,"current_range_meters":0,"station_id":"ce4bha12rcd13ifvqee0","pricing_plan_id":"free"},{"bike_id":"65cde88b-920e-47fe-813f-d139c86f1f46","system_id":"levelo_inurba_marseille","lat":43.284462,"lon":5.392121,"is_reserved":false,"is_disabled":false,"rental_uris":{"android":"levelo://app?vid=65cde88b-920e-47fe-813f-d139c86f1f46","ios":"levelo://app?vid=65cde88b-920e-47fe-813f-d139c86f1f46"},"vehicle_type_id":"4","last_reported":1679882401,"current_range_meters":23200,"station_id":"ce4bhoh2rcd13ifvqh5g","pricing_plan_id":"free"},{"bike_id":"6eeaf2b8-39bb-412d-95fd-92d92dafbfdb","system_id":"levelo_inurba_marseille","lat":43.284462,"lon":5.392121,"is_reserved":false,"is_disabled":false,"rental_uris":{"android":"levelo://app?vid=6eeaf2b8-39bb-412d-95fd-92d92dafbfdb","ios":"levelo://app?vid=6eeaf2b8-39bb-412d-95fd-92d92dafbfdb"},"vehicle_type_id":"4","last_reported":1679882401,"current_range_meters":18400,"station_id":"ce4bhoh2rcd13ifvqh5g","pricing_plan_id":"free"},{"bike_id":"f1ed81b9-7ba6-4495-8bc8-c9ce82113d85","system_id":"levelo_inurba_marseille","lat":43.304188,"lon":5.412904,"is_reserved":false,"is_disabled":false,"rental_uris":{"android":"levelo://app?vid=f1ed81b9-7ba6-4495-8bc8-c9ce82113d85","ios":"levelo://app?vid=f1ed81b9-7ba6-4495-8bc8-c9ce82113d85"},"vehicle_type_id":"4","last_reported":1679882401,"current_range_meters":30800,"station_id":"ce4bhop2rcd13ifvqh8g","pricing_plan_id":"free"},{"bike_id":"a5f95ec5-f1ea-4038-b9d7-7a4dcd983e91","system_id":"levelo_inurba_marseille","lat":43.287154,"lon":5.399979,"is_reserved":false,"is_disabled":false,"rental_uris":{"android":"levelo://app?vid=a5f95ec5-f1ea-4038-b9d7-7a4dcd983e91","ios":"levelo://app?vid=a5f95ec5-f1ea-4038-b9d7-7a4dcd983e91"},"vehicle_type_id":"4","last_reported":1679882401,"current_range_meters":19200,"station_id":"ce4bho92rcd13ifvqh3g","pricing_plan_id":"free"},{"bike_id":"8c3ce112-f8da-4cc9-85ce-389f0f190ddd","system_id":"levelo_inurba_marseille","lat":43.28665,"lon":5.399385,"is_reserved":false,"is_disabled":false,"rental_uris":{"android":"levelo://app?vid=8c3ce112-f8da-4cc9-85ce-389f0f190ddd","ios":"levelo://app?vid=8c3ce112-f8da-4cc9-85ce-389f0f190ddd"},"vehicle_type_id":"4","last_reported":1679882401,"current_range_meters":0,"station_id":"","pricing_plan_id":"free"},{"bike_id":"c25ece2b-30b7-416f-a155-f1fd516460a5","system_id":"levelo_inurba_marseille","lat":43.299579,"lon":5.413255,"is_reserved":false,"is_disabled":false,"rental_uris":{"android":"levelo://app?vid=c25ece2b-30b7-416f-a155-f1fd516460a5","ios":"levelo://app?vid=c25ece2b-30b7-416f-a155-f1fd516460a5"},"vehicle_type_id":"4","last_reported":1679882401,"current_range_meters":23600,"station_id":"ce4bhp12rcd13ifvqh9g","pricing_plan_id":"free"},{"bike_id":"ef6c7e11-ed3f-44f7-8226-137c98eb1916","system_id":"levelo_inurba_marseille","lat":43.279742,"lon":5.38744,"is_reserved":false,"is_disabled":false,"rental_uris":{"android":"levelo://app?vid=ef6c7e11-ed3f-44f7-8226-137c98eb1916","ios":"levelo://app?vid=ef6c7e11-ed3f-44f7-8226-137c98eb1916"},"vehicle_type_id":"4","last_reported":1679882401,"current_range_meters":6400,"station_id":"ce4bhg12rcd13ifvqf80","pricing_plan_id":"free"},{"bike_id":"35c4406a-ebdf-4ae3-85d1-a002b3948d49","system_id":"levelo_inurba_marseille","lat":43.280784,"lon":5.396622,"is_reserved":false,"is_disabled":false,"rental_uris":{"android":"levelo://app?vid=35c4406a-ebdf-4ae3-85d1-a002b3948d49","ios":"levelo://app?vid=35c4406a-ebdf-4ae3-85d1-a002b3948d49"},"vehicle_type_id":"4","last_reported":1679882401,"current_range_meters":8800,"station_id":"ce4bho12rcd13ifvqh2g","pricing_plan_id":"free"},{"bike_id":"622e6c47-098c-4b11-8e3c-810f2636a14c","system_id":"levelo_inurba_marseille","lat":43.33612,"lon":5.410321,"is_reserved":false,"is_disabled":false,"rental_uris":{"android":"levelo://app?vid=622e6c47-098c-4b11-8e3c-810f2636a14c","ios":"levelo://app?vid=622e6c47-098c-4b11-8e3c-810f2636a14c"},"vehicle_type_id":"4","last_reported":1679882401,"current_range_meters":25200,"station_id":"ce4bhqh2rcd13ifvqhmg","pricing_plan_id":"free"},{"bike_id":"78afb77c-9aea-4cff-b9b7-7aab3427fa58","system_id":"levelo_inurba_marseille","lat":43.33612,"lon":5.410321,"is_reserved":false,"is_disabled":false,"rental_uris":{"android":"levelo://app?vid=78afb77c-9aea-4cff-b9b7-7aab3427fa58","ios":"levelo://app?vid=78afb77c-9aea-4cff-b9b7-7aab3427fa58"},"vehicle_type_id":"4","last_reported":1679882401,"current_range_meters":22000,"station_id":"ce4bhqh2rcd13ifvqhmg","pricing_plan_id":"free"},{"bike_id":"578b8c51-3eab-49c4-bb5a-09f6dbfb108c","system_id":"levelo_inurba_marseille","lat":43.336134,"lon":5.410341,"is_reserved":false,"is_disabled":false,"rental_uris":{"android":"levelo://app?vid=578b8c51-3eab-49c4-bb5a-09f6dbfb108c","ios":"levelo://app?vid=578b8c51-3eab-49c4-bb5a-09f6dbfb108c"},"vehicle_type_id":"4","last_reported":1679882401,"current_range_meters":22800,"station_id":"ce4bhqh2rcd13ifvqhmg","pricing_plan_id":"free"},{"bike_id":"af35db3f-a58d-4bf4-aec8-098af38ff484","system_id":"levelo_inurba_marseille","lat":43.336134,"lon":5.410341,"is_reserved":false,"is_disabled":false,"rental_uris":{"android":"levelo://app?vid=af35db3f-a58d-4bf4-aec8-098af38ff484","ios":"levelo://app?vid=af35db3f-a58d-4bf4-aec8-098af38ff484"},"vehicle_type_id":"4","last_reported":1679882401,"current_range_meters":26800,"station_id":"ce4bhqh2rcd13ifvqhmg","pricing_plan_id":"free"},{"bike_id":"7818a6ea-ee48-4545-b4a0-afee3362aa9f","system_id":"levelo_inurba_marseille","lat":43.336134,"lon":5.410341,"is_reserved":false,"is_disabled":false,"rental_uris":{"android":"levelo://app?vid=7818a6ea-ee48-4545-b4a0-afee3362aa9f","ios":"levelo://app?vid=7818a6ea-ee48-4545-b4a0-afee3362aa9f"},"vehicle_type_id":"4","last_reported":1679882401,"current_range_meters":28400,"station_id":"ce4bhqh2rcd13ifvqhmg","pricing_plan_id":"free"},{"bike_id":"f92c47b1-d325-4af1-9d48-ca87bfbe0602","system_id":"levelo_inurba_marseille","lat":43.336134,"lon":5.410341,"is_reserved":false,"is_disabled":false,"rental_uris":{"android":"levelo://app?vid=f92c47b1-d325-4af1-9d48-ca87bfbe0602","ios":"levelo://app?vid=f92c47b1-d325-4af1-9d48-ca87bfbe0602"},"vehicle_type_id":"4","last_reported":1679882401,"current_range_meters":26800,"station_id":"ce4bhqh2rcd13ifvqhmg","pricing_plan_id":"free"},{"bike_id":"85a6db2e-c132-4f11-9938-cb8790a39ec3","system_id":"levelo_inurba_marseille","lat":43.336134,"lon":5.410341,"is_reserved":false,"is_disabled":false,"rental_uris":{"android":"levelo://app?vid=85a6db2e-c132-4f11-9938-cb8790a39ec3","ios":"levelo://app?vid=85a6db2e-c132-4f11-9938-cb8790a39ec3"},"vehicle_type_id":"4","last_reported":1679882401,"current_range_meters":14400,"station_id":"ce4bhqh2rcd13ifvqhmg","pricing_plan_id":"free"},{"bike_id":"b92053e9-df8d-4ee4-a1f1-f7b0d6a77141","system_id":"levelo_inurba_marseille","lat":43.276692,"lon":5.389085,"is_reserved":false,"is_disabled":false,"rental_uris":{"android":"levelo://app?vid=b92053e9-df8d-4ee4-a1f1-f7b0d6a77141","ios":"levelo://app?vid=b92053e9-df8d-4ee4-a1f1-f7b0d6a77141"},"vehicle_type_id":"4","last_reported":1679882401,"current_range_meters":0,"station_id":"","pricing_plan_id":"free"},{"bike_id":"cbe55ca9-fd0a-4744-b80e-a61f5b38c249","system_id":"levelo_inurba_marseille","lat":43.304096,"lon":5.425385,"is_reserved":false,"is_disabled":false,"rental_uris":{"android":"levelo://app?vid=cbe55ca9-fd0a-4744-b80e-a61f5b38c249","ios":"levelo://app?vid=cbe55ca9-fd0a-4744-b80e-a61f5b38c249"},"vehicle_type_id":"4","last_reported":1679882401,"current_range_meters":10800,"station_id":"ce4bhoh2rcd13ifvqh6g","pricing_plan_id":"free"},{"bike_id":"305d0be7-5f30-4164-99ff-863ae1eef9b6","system_id":"levelo_inurba_marseille","lat":43.29552,"lon":5.42283,"is_reserved":false,"is_disabled":false,"rental_uris":{"android":"levelo://app?vid=305d0be7-5f30-4164-99ff-863ae1eef9b6","ios":"levelo://app?vid=305d0be7-5f30-4164-99ff-863ae1eef9b6"},"vehicle_type_id":"4","last_reported":1679882401,"current_range_meters":0,"station_id":"ce4bhph2rcd13ifvqhdg","pricing_plan_id":"free"},{"bike_id":"184ae05c-042b-491c-9d77-f70cdfa3800d","system_id":"levelo_inurba_marseille","lat":43.27201,"lon":5.3919,"is_reserved":false,"is_disabled":false,"rental_uris":{"android":"levelo://app?vid=184ae05c-042b-491c-9d77-f70cdfa3800d","ios":"levelo://app?vid=184ae05c-042b-491c-9d77-f70cdfa3800d"},"vehicle_type_id":"4","last_reported":1679882401,"current_range_meters":0,"station_id":"ce4bhhp2rcd13ifvqfm0","pricing_plan_id":"free"},{"bike_id":"a338d855-4253-4e1e-b5f5-7dba8b9290a8","system_id":"levelo_inurba_marseille","lat":43.33873,"lon":5.41981,"is_reserved":false,"is_disabled":false,"rental_uris":{"android":"levelo://app?vid=a338d855-4253-4e1e-b5f5-7dba8b9290a8","ios":"levelo://app?vid=a338d855-4253-4e1e-b5f5-7dba8b9290a8"},"vehicle_type_id":"4","last_reported":1679882401,"current_range_meters":26000,"station_id":"","pricing_plan_id":"free"},{"bike_id":"b4143764-337e-45a9-ae9c-570c78075766","system_id":"levelo_inurba_marseille","lat":43.33817,"lon":5.421565,"is_reserved":false,"is_disabled":false,"rental_uris":{"android":"levelo://app?vid=b4143764-337e-45a9-ae9c-570c78075766","ios":"levelo://app?vid=b4143764-337e-45a9-ae9c-570c78075766"},"vehicle_type_id":"4","last_reported":1679882401,"current_range_meters":0,"station_id":"","pricing_plan_id":"free"},{"bike_id":"078b0c38-9f38-4f35-8353-5aa1ba016d38","system_id":"levelo_inurba_marseille","lat":43.26681,"lon":5.382694,"is_reserved":false,"is_disabled":false,"rental_uris":{"android":"levelo://app?vid=078b0c38-9f38-4f35-8353-5aa1ba016d38","ios":"levelo://app?vid=078b0c38-9f38-4f35-8353-5aa1ba016d38"},"vehicle_type_id":"4","last_reported":1679882401,"current_range_meters":13600,"station_id":"ce4bhg92rcd13ifvqf90","pricing_plan_id":"free"},{"bike_id":"2d8093ed-3d9e-4650-8092-1207c164e989","system_id":"levelo_inurba_marseille","lat":43.265714,"lon":5.372891,"is_reserved":false,"is_disabled":false,"rental_uris":{"android":"levelo://app?vid=2d8093ed-3d9e-4650-8092-1207c164e989","ios":"levelo://app?vid=2d8093ed-3d9e-4650-8092-1207c164e989"},"vehicle_type_id":"4","last_reported":1679882401,"current_range_meters":5200,"station_id":"ce4bhg12rcd13ifvqf70","pricing_plan_id":"free"},{"bike_id":"1235e794-8b28-47c9-94e4-d4b352e3f408","system_id":"levelo_inurba_marseille","lat":43.26549,"lon":5.37294,"is_reserved":false,"is_disabled":false,"rental_uris":{"android":"levelo://app?vid=1235e794-8b28-47c9-94e4-d4b352e3f408","ios":"levelo://app?vid=1235e794-8b28-47c9-94e4-d4b352e3f408"},"vehicle_type_id":"4","last_reported":1679882401,"current_range_meters":0,"station_id":"","pricing_plan_id":"free"},{"bike_id":"f4da5c1e-bb08-42ce-92e5-2768460b386c","system_id":"levelo_inurba_marseille","lat":43.331864,"lon":5.431794,"is_reserved":false,"is_disabled":false,"rental_uris":{"android":"levelo://app?vid=f4da5c1e-bb08-42ce-92e5-2768460b386c","ios":"levelo://app?vid=f4da5c1e-bb08-42ce-92e5-2768460b386c"},"vehicle_type_id":"4","last_reported":1679882401,"current_range_meters":9200,"station_id":"","pricing_plan_id":"free"},{"bike_id":"d9ee510c-491e-4bc5-b33a-b6b4e44ea725","system_id":"levelo_inurba_marseille","lat":43.317104,"lon":5.436818,"is_reserved":false,"is_disabled":false,"rental_uris":{"android":"levelo://app?vid=d9ee510c-491e-4bc5-b33a-b6b4e44ea725","ios":"levelo://app?vid=d9ee510c-491e-4bc5-b33a-b6b4e44ea725"},"vehicle_type_id":"4","last_reported":1679882401,"current_range_meters":4000,"station_id":"ce4bhp92rcd13ifvqhcg","pricing_plan_id":"free"},{"bike_id":"0a1916b2-e0a8-4eb1-93d8-82fee26bf281","system_id":"levelo_inurba_marseille","lat":43.317104,"lon":5.436818,"is_reserved":false,"is_disabled":false,"rental_uris":{"android":"levelo://app?vid=0a1916b2-e0a8-4eb1-93d8-82fee26bf281","ios":"levelo://app?vid=0a1916b2-e0a8-4eb1-93d8-82fee26bf281"},"vehicle_type_id":"4","last_reported":1679882401,"current_range_meters":0,"station_id":"ce4bhp92rcd13ifvqhcg","pricing_plan_id":"free"},{"bike_id":"69600b78-0f44-40d0-ab39-402aca4eb68d","system_id":"levelo_inurba_marseille","lat":43.29898,"lon":5.436683,"is_reserved":false,"is_disabled":false,"rental_uris":{"android":"levelo://app?vid=69600b78-0f44-40d0-ab39-402aca4eb68d","ios":"levelo://app?vid=69600b78-0f44-40d0-ab39-402aca4eb68d"},"vehicle_type_id":"4","last_reported":1679882401,"current_range_meters":19600,"station_id":"","pricing_plan_id":"free"},{"bike_id":"43207228-b3fd-475f-ae03-41f3f0ffa8ba","system_id":"levelo_inurba_marseille","lat":43.260909,"lon":5.397591,"is_reserved":false,"is_disabled":false,"rental_uris":{"android":"levelo://app?vid=43207228-b3fd-475f-ae03-41f3f0ffa8ba","ios":"levelo://app?vid=43207228-b3fd-475f-ae03-41f3f0ffa8ba"},"vehicle_type_id":"4","last_reported":1679882401,"current_range_meters":5600,"station_id":"ce4bhi12rcd13ifvqfq0","pricing_plan_id":"free"},{"bike_id":"fbe0a5d1-0e1b-4802-a643-ce32d4f1b31d","system_id":"levelo_inurba_marseille","lat":43.260909,"lon":5.397591,"is_reserved":false,"is_disabled":false,"rental_uris":{"android":"levelo://app?vid=fbe0a5d1-0e1b-4802-a643-ce32d4f1b31d","ios":"levelo://app?vid=fbe0a5d1-0e1b-4802-a643-ce32d4f1b31d"},"vehicle_type_id":"4","last_reported":1679882401,"current_range_meters":9600,"station_id":"ce4bhi12rcd13ifvqfq0","pricing_plan_id":"free"},{"bike_id":"8e344158-5c99-46b8-b84a-a0b85f26dbf4","system_id":"levelo_inurba_marseille","lat":43.260909,"lon":5.397591,"is_reserved":false,"is_disabled":false,"rental_uris":{"android":"levelo://app?vid=8e344158-5c99-46b8-b84a-a0b85f26dbf4","ios":"levelo://app?vid=8e344158-5c99-46b8-b84a-a0b85f26dbf4"},"vehicle_type_id":"4","last_reported":1679882401,"current_range_meters":2400,"station_id":"ce4bhi12rcd13ifvqfq0","pricing_plan_id":"free"},{"bike_id":"de75e9e5-a260-49bf-a5ff-1926dc5f6150","system_id":"levelo_inurba_marseille","lat":43.255756,"lon":5.382303,"is_reserved":false,"is_disabled":false,"rental_uris":{"android":"levelo://app?vid=de75e9e5-a260-49bf-a5ff-1926dc5f6150","ios":"levelo://app?vid=de75e9e5-a260-49bf-a5ff-1926dc5f6150"},"vehicle_type_id":"4","last_reported":1679882401,"current_range_meters":29600,"station_id":"ce4bhih2rcd13ifvqfs0","pricing_plan_id":"free"},{"bike_id":"cff3dab9-b857-454d-af8b-0ee175eb4045","system_id":"levelo_inurba_marseille","lat":43.254947,"lon":5.376454,"is_reserved":false,"is_disabled":false,"rental_uris":{"android":"levelo://app?vid=cff3dab9-b857-454d-af8b-0ee175eb4045","ios":"levelo://app?vid=cff3dab9-b857-454d-af8b-0ee175eb4045"},"vehicle_type_id":"4","last_reported":1679882401,"current_range_meters":31600,"station_id":"ce4bhh12rcd13ifvqff0","pricing_plan_id":"free"},{"bike_id":"b5505fc3-2cf8-4bb9-84fc-38472ac1234d","system_id":"levelo_inurba_marseille","lat":43.27076,"lon":5.4227,"is_reserved":false,"is_disabled":false,"rental_uris":{"android":"levelo://app?vid=b5505fc3-2cf8-4bb9-84fc-38472ac1234d","ios":"levelo://app?vid=b5505fc3-2cf8-4bb9-84fc-38472ac1234d"},"vehicle_type_id":"4","last_reported":1679882401,"current_range_meters":5600,"station_id":"ce4bhk92rcd13ifvqgb0","pricing_plan_id":"free"},{"bike_id":"295ea8f9-0bb0-49e3-9f92-eaf3f97e1003","system_id":"levelo_inurba_marseille","lat":43.27071,"lon":5.42281,"is_reserved":false,"is_disabled":false,"rental_uris":{"android":"levelo://app?vid=295ea8f9-0bb0-49e3-9f92-eaf3f97e1003","ios":"levelo://app?vid=295ea8f9-0bb0-49e3-9f92-eaf3f97e1003"},"vehicle_type_id":"4","last_reported":1679882401,"current_range_meters":0,"station_id":"ce4bhk92rcd13ifvqgb0","pricing_plan_id":"free"},{"bike_id":"08f6336a-adc1-49fc-bc78-b01afdfdfc7c","system_id":"levelo_inurba_marseille","lat":43.270721,"lon":5.422764,"is_reserved":false,"is_disabled":false,"rental_uris":{"android":"levelo://app?vid=08f6336a-adc1-49fc-bc78-b01afdfdfc7c","ios":"levelo://app?vid=08f6336a-adc1-49fc-bc78-b01afdfdfc7c"},"vehicle_type_id":"4","last_reported":1679882401,"current_range_meters":28400,"station_id":"ce4bhk92rcd13ifvqgb0","pricing_plan_id":"free"},{"bike_id":"3a0ccc9b-137f-4160-9642-a24c9e6eadaf","system_id":"levelo_inurba_marseille","lat":43.35261,"lon":5.44025,"is_reserved":false,"is_disabled":false,"rental_uris":{"android":"levelo://app?vid=3a0ccc9b-137f-4160-9642-a24c9e6eadaf","ios":"levelo://app?vid=3a0ccc9b-137f-4160-9642-a24c9e6eadaf"},"vehicle_type_id":"4","last_reported":1679882401,"current_range_meters":4800,"station_id":"","pricing_plan_id":"free"},{"bike_id":"9fec407a-00ca-465f-8c87-4e5476d05cc9","system_id":"levelo_inurba_marseille","lat":43.25119,"lon":5.40315,"is_reserved":false,"is_disabled":false,"rental_uris":{"android":"levelo://app?vid=9fec407a-00ca-465f-8c87-4e5476d05cc9","ios":"levelo://app?vid=9fec407a-00ca-465f-8c87-4e5476d05cc9"},"vehicle_type_id":"4","last_reported":1679882401,"current_range_meters":2800,"station_id":"ce4bhlh2rcd13ifvqgig","pricing_plan_id":"free"},{"bike_id":"11ae550f-7082-400a-a1f9-079f4a67b0af","system_id":"levelo_inurba_marseille","lat":43.25102,"lon":5.403214,"is_reserved":false,"is_disabled":false,"rental_uris":{"android":"levelo://app?vid=11ae550f-7082-400a-a1f9-079f4a67b0af","ios":"levelo://app?vid=11ae550f-7082-400a-a1f9-079f4a67b0af"},"vehicle_type_id":"4","last_reported":1679882401,"current_range_meters":18800,"station_id":"ce4bhlh2rcd13ifvqgig","pricing_plan_id":"free"},{"bike_id":"21b9e376-ba41-4459-ac5a-ad74eac25798","system_id":"levelo_inurba_marseille","lat":43.25102,"lon":5.403214,"is_reserved":false,"is_disabled":false,"rental_uris":{"android":"levelo://app?vid=21b9e376-ba41-4459-ac5a-ad74eac25798","ios":"levelo://app?vid=21b9e376-ba41-4459-ac5a-ad74eac25798"},"vehicle_type_id":"4","last_reported":1679882401,"current_range_meters":0,"station_id":"ce4bhlh2rcd13ifvqgig","pricing_plan_id":"free"},{"bike_id":"0e1135ae-a901-45e5-bf14-1a90eca17423","system_id":"levelo_inurba_marseille","lat":43.25102,"lon":5.403214,"is_reserved":false,"is_disabled":false,"rental_uris":{"android":"levelo://app?vid=0e1135ae-a901-45e5-bf14-1a90eca17423","ios":"levelo://app?vid=0e1135ae-a901-45e5-bf14-1a90eca17423"},"vehicle_type_id":"4","last_reported":1679882401,"current_range_meters":31600,"station_id":"ce4bhlh2rcd13ifvqgig","pricing_plan_id":"free"},{"bike_id":"326cb4f4-cbdb-455e-ab52-28a8364df52c","system_id":"levelo_inurba_marseille","lat":43.246461,"lon":5.389014,"is_reserved":false,"is_disabled":false,"rental_uris":{"android":"levelo://app?vid=326cb4f4-cbdb-455e-ab52-28a8364df52c","ios":"levelo://app?vid=326cb4f4-cbdb-455e-ab52-28a8364df52c"},"vehicle_type_id":"4","last_reported":1679882401,"current_range_meters":23600,"station_id":"ce4bhg12rcd13ifvqf60","pricing_plan_id":"free"},{"bike_id":"8bcb4702-6194-43eb-a1fc-1fd70d7344b0","system_id":"levelo_inurba_marseille","lat":43.243971,"lon":5.3712,"is_reserved":false,"is_disabled":false,"rental_uris":{"android":"levelo://app?vid=8bcb4702-6194-43eb-a1fc-1fd70d7344b0","ios":"levelo://app?vid=8bcb4702-6194-43eb-a1fc-1fd70d7344b0"},"vehicle_type_id":"4","last_reported":1679882401,"current_range_meters":25600,"station_id":"ce4bhhh2rcd13ifvqfk0","pricing_plan_id":"free"},{"bike_id":"a797e941-4426-40eb-a320-8f2d1009450d","system_id":"levelo_inurba_marseille","lat":43.245581,"lon":5.395069,"is_reserved":false,"is_disabled":false,"rental_uris":{"android":"levelo://app?vid=a797e941-4426-40eb-a320-8f2d1009450d","ios":"levelo://app?vid=a797e941-4426-40eb-a320-8f2d1009450d"},"vehicle_type_id":"4","last_reported":1679882401,"current_range_meters":0,"station_id":"ce4bhlp2rcd13ifvqgjg","pricing_plan_id":"free"},{"bike_id":"1fde9e1d-5fd5-477c-9d4f-1dd57ba6b1b7","system_id":"levelo_inurba_marseille","lat":43.24076,"lon":5.37759,"is_reserved":false,"is_disabled":false,"rental_uris":{"android":"levelo://app?vid=1fde9e1d-5fd5-477c-9d4f-1dd57ba6b1b7","ios":"levelo://app?vid=1fde9e1d-5fd5-477c-9d4f-1dd57ba6b1b7"},"vehicle_type_id":"4","last_reported":1679882401,"current_range_meters":29200,"station_id":"ce4bhnp2rcd13ifvqgvg","pricing_plan_id":"free"},{"bike_id":"01390ef5-744a-40f2-a77b-906256da51e7","system_id":"levelo_inurba_marseille","lat":43.240623,"lon":5.377642,"is_reserved":false,"is_disabled":false,"rental_uris":{"android":"levelo://app?vid=01390ef5-744a-40f2-a77b-906256da51e7","ios":"levelo://app?vid=01390ef5-744a-40f2-a77b-906256da51e7"},"vehicle_type_id":"4","last_reported":1679882401,"current_range_meters":0,"station_id":"ce4bhnp2rcd13ifvqgvg","pricing_plan_id":"free"},{"bike_id":"d245cfdb-b3f5-40a7-baa3-2406ad54b4b5","system_id":"levelo_inurba_marseille","lat":43.285353,"lon":5.459775,"is_reserved":false,"is_disabled":false,"rental_uris":{"android":"levelo://app?vid=d245cfdb-b3f5-40a7-baa3-2406ad54b4b5","ios":"levelo://app?vid=d245cfdb-b3f5-40a7-baa3-2406ad54b4b5"},"vehicle_type_id":"4","last_reported":1679882401,"current_range_meters":24400,"station_id":"","pricing_plan_id":"free"},{"bike_id":"565ad3e8-ae7b-4d14-bae2-a7e7b8298f28","system_id":"levelo_inurba_marseille","lat":43.24398,"lon":5.40303,"is_reserved":false,"is_disabled":false,"rental_uris":{"android":"levelo://app?vid=565ad3e8-ae7b-4d14-bae2-a7e7b8298f28","ios":"levelo://app?vid=565ad3e8-ae7b-4d14-bae2-a7e7b8298f28"},"vehicle_type_id":"4","last_reported":1679882401,"current_range_meters":0,"station_id":"","pricing_plan_id":"free"},{"bike_id":"99ec9591-689f-43c6-b4f0-94293b068ab3","system_id":"levelo_inurba_marseille","lat":43.243869,"lon":5.40303,"is_reserved":false,"is_disabled":false,"rental_uris":{"android":"levelo://app?vid=99ec9591-689f-43c6-b4f0-94293b068ab3","ios":"levelo://app?vid=99ec9591-689f-43c6-b4f0-94293b068ab3"},"vehicle_type_id":"4","last_reported":1679882401,"current_range_meters":10400,"station_id":"","pricing_plan_id":"free"},{"bike_id":"9854f26e-0aee-444b-b5de-a7f77e7f5713","system_id":"levelo_inurba_marseille","lat":43.241782,"lon":5.397261,"is_reserved":false,"is_disabled":false,"rental_uris":{"android":"levelo://app?vid=9854f26e-0aee-444b-b5de-a7f77e7f5713","ios":"levelo://app?vid=9854f26e-0aee-444b-b5de-a7f77e7f5713"},"vehicle_type_id":"4","last_reported":1679882401,"current_range_meters":4000,"station_id":"ce4bhn12rcd13ifvqgpg","pricing_plan_id":"free"},{"bike_id":"d90be3db-2000-4e04-a388-d792f5ae0cb3","system_id":"levelo_inurba_marseille","lat":43.241782,"lon":5.397264,"is_reserved":false,"is_disabled":false,"rental_uris":{"android":"levelo://app?vid=d90be3db-2000-4e04-a388-d792f5ae0cb3","ios":"levelo://app?vid=d90be3db-2000-4e04-a388-d792f5ae0cb3"},"vehicle_type_id":"4","last_reported":1679882401,"current_range_meters":0,"station_id":"ce4bhn12rcd13ifvqgpg","pricing_plan_id":"free"},{"bike_id":"70d1ed66-bb3a-4af1-a162-6bab3fb83bdc","system_id":"levelo_inurba_marseille","lat":43.231923,"lon":5.355545,"is_reserved":false,"is_disabled":false,"rental_uris":{"android":"levelo://app?vid=70d1ed66-bb3a-4af1-a162-6bab3fb83bdc","ios":"levelo://app?vid=70d1ed66-bb3a-4af1-a162-6bab3fb83bdc"},"vehicle_type_id":"4","last_reported":1679882401,"current_range_meters":22800,"station_id":"ce4bhu92rcd13ifvqi70","pricing_plan_id":"free"},{"bike_id":"12b9e0b7-199c-45f2-8c4f-e74fdb124d69","system_id":"levelo_inurba_marseille","lat":43.284638,"lon":5.486913,"is_reserved":false,"is_disabled":false,"rental_uris":{"android":"levelo://app?vid=12b9e0b7-199c-45f2-8c4f-e74fdb124d69","ios":"levelo://app?vid=12b9e0b7-199c-45f2-8c4f-e74fdb124d69"},"vehicle_type_id":"4","last_reported":1679882401,"current_range_meters":6800,"station_id":"","pricing_plan_id":"free"}]}}