{"last_updated":1781361629,"ttl":60,"version":"2.2","data":{"bikes":[{"bike_id":"ec12d144-24c8-4071-abf6-197e520eae96","system_id":"levelo_inurba_marseille","lat":43.337444,"lon":5.374475,"is_reserved":false,"is_disabled":false,"rental_uris":{"android":"levelo://app?vid=ec12d144-24c8-4071-abf6-197e520eae96","ios":"levelo://app?vid=ec12d144-24c8-4071-abf6-197e520eae96"},"vehicle_type_id":"4","last_reported":1781361630,"current_range_meters":0,"station_id":"","pricing_plan_id":"cebpf4jnsgd1na2vs0mg"},{"bike_id":"cb1da28a-f234-48f6-945d-be2ad2def2a6","system_id":"levelo_inurba_marseille","lat":43.21188,"lon":5.35078,"is_reserved":false,"is_disabled":false,"rental_uris":{"android":"levelo://app?vid=cb1da28a-f234-48f6-945d-be2ad2def2a6","ios":"levelo://app?vid=cb1da28a-f234-48f6-945d-be2ad2def2a6"},"vehicle_type_id":"4","last_reported":1781361630,"current_range_meters":2800,"station_id":"st_cvj6sg6p6f1abm77japg","pricing_plan_id":"cebpf4jnsgd1na2vs0mg"},{"bike_id":"52e0ca30-f6db-4b40-a595-fe3e1b7ca10e","system_id":"levelo_inurba_marseille","lat":43.25122,"lon":5.40408,"is_reserved":false,"is_disabled":true,"rental_uris":{"android":"levelo://app?vid=52e0ca30-f6db-4b40-a595-fe3e1b7ca10e","ios":"levelo://app?vid=52e0ca30-f6db-4b40-a595-fe3e1b7ca10e"},"vehicle_type_id":"4","last_reported":1781361630,"current_range_meters":2800,"station_id":"","pricing_plan_id":"cebpf4jnsgd1na2vs0mg"},{"bike_id":"a9142846-95e6-4740-939f-fbc9f1f8a36f","system_id":"levelo_inurba_marseille","lat":43.28845,"lon":5.3584,"is_reserved":false,"is_disabled":false,"rental_uris":{"android":"levelo://app?vid=a9142846-95e6-4740-939f-fbc9f1f8a36f","ios":"levelo://app?vid=a9142846-95e6-4740-939f-fbc9f1f8a36f"},"vehicle_type_id":"4","last_reported":1781361630,"current_range_meters":2800,"station_id":"ce4bhb12rcd13ifvqem0","pricing_plan_id":"cebpf4jnsgd1na2vs0mg"},{"bike_id":"57ddaaef-4754-43d9-ba9a-d712e3445063","system_id":"levelo_inurba_marseille","lat":43.29529,"lon":5.39034,"is_reserved":false,"is_disabled":false,"rental_uris":{"android":"levelo://app?vid=57ddaaef-4754-43d9-ba9a-d712e3445063","ios":"levelo://app?vid=57ddaaef-4754-43d9-ba9a-d712e3445063"},"vehicle_type_id":"4","last_reported":1781361630,"current_range_meters":2800,"station_id":"ce4bh3p2rcd13ifvqdp0","pricing_plan_id":"cebpf4jnsgd1na2vs0mg"},{"bike_id":"34d571b2-7447-44f4-ad5a-1e998394f77b","system_id":"levelo_inurba_marseille","lat":43.30372,"lon":5.41876,"is_reserved":false,"is_disabled":false,"rental_uris":{"android":"levelo://app?vid=34d571b2-7447-44f4-ad5a-1e998394f77b","ios":"levelo://app?vid=34d571b2-7447-44f4-ad5a-1e998394f77b"},"vehicle_type_id":"4","last_reported":1781361630,"current_range_meters":2800,"station_id":"ce4bhop2rcd13ifvqh7g","pricing_plan_id":"cebpf4jnsgd1na2vs0mg"},{"bike_id":"66e086f4-0afb-4a20-9bb1-921e690c8325","system_id":"levelo_inurba_marseille","lat":43.21746,"lon":5.34598,"is_reserved":false,"is_disabled":false,"rental_uris":{"android":"levelo://app?vid=66e086f4-0afb-4a20-9bb1-921e690c8325","ios":"levelo://app?vid=66e086f4-0afb-4a20-9bb1-921e690c8325"},"vehicle_type_id":"4","last_reported":1781361630,"current_range_meters":2800,"station_id":"st_cvj6r9ubvosntc0bgbag","pricing_plan_id":"cebpf4jnsgd1na2vs0mg"},{"bike_id":"379f8066-5ce1-4a4c-bfaa-9fd9ac023697","system_id":"levelo_inurba_marseille","lat":43.30745,"lon":5.42437,"is_reserved":false,"is_disabled":false,"rental_uris":{"android":"levelo://app?vid=379f8066-5ce1-4a4c-bfaa-9fd9ac023697","ios":"levelo://app?vid=379f8066-5ce1-4a4c-bfaa-9fd9ac023697"},"vehicle_type_id":"4","last_reported":1781361630,"current_range_meters":2800,"station_id":"st_cvj6ca6bvosntc0bfgr0","pricing_plan_id":"cebpf4jnsgd1na2vs0mg"},{"bike_id":"63a8effe-7715-4925-8ffc-1e5f2227c250","system_id":"levelo_inurba_marseille","lat":43.30464,"lon":5.37901,"is_reserved":false,"is_disabled":false,"rental_uris":{"android":"levelo://app?vid=63a8effe-7715-4925-8ffc-1e5f2227c250","ios":"levelo://app?vid=63a8effe-7715-4925-8ffc-1e5f2227c250"},"vehicle_type_id":"4","last_reported":1781361630,"current_range_meters":2800,"station_id":"ce4bgup2rcd13ifvqcn0","pricing_plan_id":"cebpf4jnsgd1na2vs0mg"},{"bike_id":"b105e559-ad92-41ad-9bdf-4bd2f454dd68","system_id":"levelo_inurba_marseille","lat":43.30151,"lon":5.44958,"is_reserved":false,"is_disabled":false,"rental_uris":{"android":"levelo://app?vid=b105e559-ad92-41ad-9bdf-4bd2f454dd68","ios":"levelo://app?vid=b105e559-ad92-41ad-9bdf-4bd2f454dd68"},"vehicle_type_id":"4","last_reported":1781361630,"current_range_meters":2800,"station_id":"","pricing_plan_id":"cebpf4jnsgd1na2vs0mg"},{"bike_id":"0597446d-a34c-497a-b1ae-f78d25116d52","system_id":"levelo_inurba_marseille","lat":43.28142,"lon":5.4265,"is_reserved":false,"is_disabled":false,"rental_uris":{"android":"levelo://app?vid=0597446d-a34c-497a-b1ae-f78d25116d52","ios":"levelo://app?vid=0597446d-a34c-497a-b1ae-f78d25116d52"},"vehicle_type_id":"4","last_reported":1781361630,"current_range_meters":2800,"station_id":"ce4bhnh2rcd13ifvqgug","pricing_plan_id":"cebpf4jnsgd1na2vs0mg"},{"bike_id":"edd7f6cf-c00d-4334-ba4f-ddda86c6a12e","system_id":"levelo_inurba_marseille","lat":43.30284,"lon":5.37683,"is_reserved":false,"is_disabled":false,"rental_uris":{"android":"levelo://app?vid=edd7f6cf-c00d-4334-ba4f-ddda86c6a12e","ios":"levelo://app?vid=edd7f6cf-c00d-4334-ba4f-ddda86c6a12e"},"vehicle_type_id":"4","last_reported":1781361630,"current_range_meters":2800,"station_id":"ce4bguh2rcd13ifvqcj0","pricing_plan_id":"cebpf4jnsgd1na2vs0mg"},{"bike_id":"b154e503-5e6b-4b2c-aea8-7afe1c19122c","system_id":"levelo_inurba_marseille","lat":43.28112,"lon":5.42642,"is_reserved":false,"is_disabled":false,"rental_uris":{"android":"levelo://app?vid=b154e503-5e6b-4b2c-aea8-7afe1c19122c","ios":"levelo://app?vid=b154e503-5e6b-4b2c-aea8-7afe1c19122c"},"vehicle_type_id":"4","last_reported":1781361630,"current_range_meters":2800,"station_id":"ce4bhnh2rcd13ifvqgug","pricing_plan_id":"cebpf4jnsgd1na2vs0mg"},{"bike_id":"95a6a820-080c-4047-9edc-2eab85cc3ea0","system_id":"levelo_inurba_marseille","lat":43.31233,"lon":5.37307,"is_reserved":false,"is_disabled":false,"rental_uris":{"android":"levelo://app?vid=95a6a820-080c-4047-9edc-2eab85cc3ea0","ios":"levelo://app?vid=95a6a820-080c-4047-9edc-2eab85cc3ea0"},"vehicle_type_id":"4","last_reported":1781361630,"current_range_meters":2800,"station_id":"","pricing_plan_id":"cebpf4jnsgd1na2vs0mg"},{"bike_id":"6619904c-19d6-4ee7-bae5-e2e97129aec8","system_id":"levelo_inurba_marseille","lat":43.30792,"lon":5.38173,"is_reserved":false,"is_disabled":false,"rental_uris":{"android":"levelo://app?vid=6619904c-19d6-4ee7-bae5-e2e97129aec8","ios":"levelo://app?vid=6619904c-19d6-4ee7-bae5-e2e97129aec8"},"vehicle_type_id":"4","last_reported":1781361630,"current_range_meters":2800,"station_id":"ce4bgt12rcd13ifvqce0","pricing_plan_id":"cebpf4jnsgd1na2vs0mg"},{"bike_id":"4233803f-d4f2-46d3-9ead-8e07fa57c8fc","system_id":"levelo_inurba_marseille","lat":43.30853,"lon":5.38267,"is_reserved":false,"is_disabled":false,"rental_uris":{"android":"levelo://app?vid=4233803f-d4f2-46d3-9ead-8e07fa57c8fc","ios":"levelo://app?vid=4233803f-d4f2-46d3-9ead-8e07fa57c8fc"},"vehicle_type_id":"4","last_reported":1781361630,"current_range_meters":2800,"station_id":"","pricing_plan_id":"cebpf4jnsgd1na2vs0mg"},{"bike_id":"386f6b27-287e-4ad8-97f6-e1e364629ae3","system_id":"levelo_inurba_marseille","lat":43.29442,"lon":5.37541,"is_reserved":false,"is_disabled":false,"rental_uris":{"android":"levelo://app?vid=386f6b27-287e-4ad8-97f6-e1e364629ae3","ios":"levelo://app?vid=386f6b27-287e-4ad8-97f6-e1e364629ae3"},"vehicle_type_id":"4","last_reported":1781361630,"current_range_meters":2800,"station_id":"","pricing_plan_id":"cebpf4jnsgd1na2vs0mg"},{"bike_id":"d58d32b7-c470-4d7e-8309-ce1216da52b6","system_id":"levelo_inurba_marseille","lat":43.2656,"lon":5.37289,"is_reserved":false,"is_disabled":false,"rental_uris":{"android":"levelo://app?vid=d58d32b7-c470-4d7e-8309-ce1216da52b6","ios":"levelo://app?vid=d58d32b7-c470-4d7e-8309-ce1216da52b6"},"vehicle_type_id":"4","last_reported":1781361630,"current_range_meters":3200,"station_id":"ce4bhg12rcd13ifvqf70","pricing_plan_id":"cebpf4jnsgd1na2vs0mg"},{"bike_id":"4bbd9026-ac9b-4dc1-97ad-6610089734db","system_id":"levelo_inurba_marseille","lat":43.31543,"lon":5.38802,"is_reserved":false,"is_disabled":false,"rental_uris":{"android":"levelo://app?vid=4bbd9026-ac9b-4dc1-97ad-6610089734db","ios":"levelo://app?vid=4bbd9026-ac9b-4dc1-97ad-6610089734db"},"vehicle_type_id":"4","last_reported":1781361630,"current_range_meters":3200,"station_id":"","pricing_plan_id":"cebpf4jnsgd1na2vs0mg"},{"bike_id":"4686e432-af7f-426a-96e8-3e147ecc3667","system_id":"levelo_inurba_marseille","lat":43.23072,"lon":5.35477,"is_reserved":false,"is_disabled":false,"rental_uris":{"android":"levelo://app?vid=4686e432-af7f-426a-96e8-3e147ecc3667","ios":"levelo://app?vid=4686e432-af7f-426a-96e8-3e147ecc3667"},"vehicle_type_id":"4","last_reported":1781361630,"current_range_meters":3200,"station_id":"cpo3342slgdg3j2ifvpg","pricing_plan_id":"cebpf4jnsgd1na2vs0mg"},{"bike_id":"a16ed825-4020-4da3-8ea5-ff7f36e9712d","system_id":"levelo_inurba_marseille","lat":43.29735,"lon":5.37834,"is_reserved":false,"is_disabled":false,"rental_uris":{"android":"levelo://app?vid=a16ed825-4020-4da3-8ea5-ff7f36e9712d","ios":"levelo://app?vid=a16ed825-4020-4da3-8ea5-ff7f36e9712d"},"vehicle_type_id":"4","last_reported":1781361630,"current_range_meters":3200,"station_id":"","pricing_plan_id":"cebpf4jnsgd1na2vs0mg"},{"bike_id":"d39db183-6bf7-420a-96f5-b25822544857","system_id":"levelo_inurba_marseille","lat":43.32357,"lon":5.36727,"is_reserved":false,"is_disabled":false,"rental_uris":{"android":"levelo://app?vid=d39db183-6bf7-420a-96f5-b25822544857","ios":"levelo://app?vid=d39db183-6bf7-420a-96f5-b25822544857"},"vehicle_type_id":"4","last_reported":1781361630,"current_range_meters":3200,"station_id":"ce4bhsh2rcd13ifvqi2g","pricing_plan_id":"cebpf4jnsgd1na2vs0mg"},{"bike_id":"94581546-6d02-4038-85cb-89bf62ad18bf","system_id":"levelo_inurba_marseille","lat":43.32641,"lon":5.41002,"is_reserved":false,"is_disabled":true,"rental_uris":{"android":"levelo://app?vid=94581546-6d02-4038-85cb-89bf62ad18bf","ios":"levelo://app?vid=94581546-6d02-4038-85cb-89bf62ad18bf"},"vehicle_type_id":"4","last_reported":1781361630,"current_range_meters":3200,"station_id":"ce4bhpp2rcd13ifvqhgg","pricing_plan_id":"cebpf4jnsgd1na2vs0mg"},{"bike_id":"1e3437be-d63a-402e-abe2-0d81560ce48c","system_id":"levelo_inurba_marseille","lat":43.260271,"lon":5.37549,"is_reserved":false,"is_disabled":true,"rental_uris":{"android":"levelo://app?vid=1e3437be-d63a-402e-abe2-0d81560ce48c","ios":"levelo://app?vid=1e3437be-d63a-402e-abe2-0d81560ce48c"},"vehicle_type_id":"4","last_reported":1781361630,"current_range_meters":3200,"station_id":"ce4bhgh2rcd13ifvqfa0","pricing_plan_id":"cebpf4jnsgd1na2vs0mg"},{"bike_id":"98ffe878-d216-43fd-8447-a24527fade9a","system_id":"levelo_inurba_marseille","lat":43.29909,"lon":5.3814,"is_reserved":false,"is_disabled":false,"rental_uris":{"android":"levelo://app?vid=98ffe878-d216-43fd-8447-a24527fade9a","ios":"levelo://app?vid=98ffe878-d216-43fd-8447-a24527fade9a"},"vehicle_type_id":"4","last_reported":1781361630,"current_range_meters":3200,"station_id":"ce4bgj12rcd13ifvqbc0","pricing_plan_id":"cebpf4jnsgd1na2vs0mg"},{"bike_id":"9a6b04d8-9a90-4625-b300-57cf61aa92c1","system_id":"levelo_inurba_marseille","lat":43.282646,"lon":5.350736,"is_reserved":false,"is_disabled":false,"rental_uris":{"android":"levelo://app?vid=9a6b04d8-9a90-4625-b300-57cf61aa92c1","ios":"levelo://app?vid=9a6b04d8-9a90-4625-b300-57cf61aa92c1"},"vehicle_type_id":"4","last_reported":1781361630,"current_range_meters":3200,"station_id":"ce4bhbp2rcd13ifvqerg","pricing_plan_id":"cebpf4jnsgd1na2vs0mg"},{"bike_id":"8a9f3474-1ba5-4fc3-b4e6-1d2f8579f9d1","system_id":"levelo_inurba_marseille","lat":43.26574,"lon":5.39044,"is_reserved":false,"is_disabled":true,"rental_uris":{"android":"levelo://app?vid=8a9f3474-1ba5-4fc3-b4e6-1d2f8579f9d1","ios":"levelo://app?vid=8a9f3474-1ba5-4fc3-b4e6-1d2f8579f9d1"},"vehicle_type_id":"4","last_reported":1781361630,"current_range_meters":3200,"station_id":"ce4bhe12rcd13ifvqf30","pricing_plan_id":"cebpf4jnsgd1na2vs0mg"},{"bike_id":"19fb5691-13c0-4255-9a47-d0c48671ba98","system_id":"levelo_inurba_marseille","lat":43.28479,"lon":5.35105,"is_reserved":false,"is_disabled":false,"rental_uris":{"android":"levelo://app?vid=19fb5691-13c0-4255-9a47-d0c48671ba98","ios":"levelo://app?vid=19fb5691-13c0-4255-9a47-d0c48671ba98"},"vehicle_type_id":"4","last_reported":1781361630,"current_range_meters":3200,"station_id":"","pricing_plan_id":"cebpf4jnsgd1na2vs0mg"},{"bike_id":"833495ea-1613-461e-b1ae-6178683d0b06","system_id":"levelo_inurba_marseille","lat":43.23059,"lon":5.35493,"is_reserved":false,"is_disabled":false,"rental_uris":{"android":"levelo://app?vid=833495ea-1613-461e-b1ae-6178683d0b06","ios":"levelo://app?vid=833495ea-1613-461e-b1ae-6178683d0b06"},"vehicle_type_id":"4","last_reported":1781361630,"current_range_meters":3200,"station_id":"cpo3342slgdg3j2ifvpg","pricing_plan_id":"cebpf4jnsgd1na2vs0mg"},{"bike_id":"2aa99a16-e0c8-49a0-8ff3-a25d801fd583","system_id":"levelo_inurba_marseille","lat":43.21194,"lon":5.35076,"is_reserved":false,"is_disabled":false,"rental_uris":{"android":"levelo://app?vid=2aa99a16-e0c8-49a0-8ff3-a25d801fd583","ios":"levelo://app?vid=2aa99a16-e0c8-49a0-8ff3-a25d801fd583"},"vehicle_type_id":"4","last_reported":1781361630,"current_range_meters":3200,"station_id":"st_cvj6sg6p6f1abm77japg","pricing_plan_id":"cebpf4jnsgd1na2vs0mg"},{"bike_id":"a4b5c841-081f-4864-9ad4-e1c7a6e60416","system_id":"levelo_inurba_marseille","lat":43.23793,"lon":5.36629,"is_reserved":false,"is_disabled":true,"rental_uris":{"android":"levelo://app?vid=a4b5c841-081f-4864-9ad4-e1c7a6e60416","ios":"levelo://app?vid=a4b5c841-081f-4864-9ad4-e1c7a6e60416"},"vehicle_type_id":"4","last_reported":1781361630,"current_range_meters":3200,"station_id":"st_d3nk18o9ro0c73en2l3g","pricing_plan_id":"cebpf4jnsgd1na2vs0mg"},{"bike_id":"58d52629-f2da-46ca-abb3-8f1d9b29d31a","system_id":"levelo_inurba_marseille","lat":43.305571,"lon":5.365501,"is_reserved":false,"is_disabled":false,"rental_uris":{"android":"levelo://app?vid=58d52629-f2da-46ca-abb3-8f1d9b29d31a","ios":"levelo://app?vid=58d52629-f2da-46ca-abb3-8f1d9b29d31a"},"vehicle_type_id":"4","last_reported":1781361630,"current_range_meters":3200,"station_id":"ce4bgs12rcd13ifvqcag","pricing_plan_id":"cebpf4jnsgd1na2vs0mg"},{"bike_id":"cfc1fd7a-86fe-4625-ad49-4f065273c26e","system_id":"levelo_inurba_marseille","lat":43.24545,"lon":5.39521,"is_reserved":false,"is_disabled":false,"rental_uris":{"android":"levelo://app?vid=cfc1fd7a-86fe-4625-ad49-4f065273c26e","ios":"levelo://app?vid=cfc1fd7a-86fe-4625-ad49-4f065273c26e"},"vehicle_type_id":"4","last_reported":1781361630,"current_range_meters":3200,"station_id":"ce4bhlp2rcd13ifvqgjg","pricing_plan_id":"cebpf4jnsgd1na2vs0mg"},{"bike_id":"b8e764ec-e130-4da2-97c1-e79e39365b7d","system_id":"levelo_inurba_marseille","lat":43.25093,"lon":5.39508,"is_reserved":false,"is_disabled":false,"rental_uris":{"android":"levelo://app?vid=b8e764ec-e130-4da2-97c1-e79e39365b7d","ios":"levelo://app?vid=b8e764ec-e130-4da2-97c1-e79e39365b7d"},"vehicle_type_id":"4","last_reported":1781361630,"current_range_meters":3200,"station_id":"ce4bhm12rcd13ifvqgkg","pricing_plan_id":"cebpf4jnsgd1na2vs0mg"},{"bike_id":"ba870dc5-1c75-4721-a15c-1f5dd63835dd","system_id":"levelo_inurba_marseille","lat":43.26031,"lon":5.37548,"is_reserved":false,"is_disabled":false,"rental_uris":{"android":"levelo://app?vid=ba870dc5-1c75-4721-a15c-1f5dd63835dd","ios":"levelo://app?vid=ba870dc5-1c75-4721-a15c-1f5dd63835dd"},"vehicle_type_id":"4","last_reported":1781361630,"current_range_meters":3200,"station_id":"ce4bhgh2rcd13ifvqfa0","pricing_plan_id":"cebpf4jnsgd1na2vs0mg"},{"bike_id":"340d1fd8-7f14-484d-b83f-68f6bf894681","system_id":"levelo_inurba_marseille","lat":43.26686,"lon":5.38268,"is_reserved":false,"is_disabled":false,"rental_uris":{"android":"levelo://app?vid=340d1fd8-7f14-484d-b83f-68f6bf894681","ios":"levelo://app?vid=340d1fd8-7f14-484d-b83f-68f6bf894681"},"vehicle_type_id":"4","last_reported":1781361630,"current_range_meters":3200,"station_id":"ce4bhg92rcd13ifvqf90","pricing_plan_id":"cebpf4jnsgd1na2vs0mg"},{"bike_id":"8f361732-5d9e-4989-ab2a-14520c00e48c","system_id":"levelo_inurba_marseille","lat":43.26375,"lon":5.41087,"is_reserved":false,"is_disabled":false,"rental_uris":{"android":"levelo://app?vid=8f361732-5d9e-4989-ab2a-14520c00e48c","ios":"levelo://app?vid=8f361732-5d9e-4989-ab2a-14520c00e48c"},"vehicle_type_id":"4","last_reported":1781361630,"current_range_meters":3600,"station_id":"st_d4e5ca6na9uc73bfl5fg","pricing_plan_id":"cebpf4jnsgd1na2vs0mg"},{"bike_id":"8bdfea1b-7a87-4fa6-8cc6-0ee4762df94e","system_id":"levelo_inurba_marseille","lat":43.30134,"lon":5.39849,"is_reserved":false,"is_disabled":false,"rental_uris":{"android":"levelo://app?vid=8bdfea1b-7a87-4fa6-8cc6-0ee4762df94e","ios":"levelo://app?vid=8bdfea1b-7a87-4fa6-8cc6-0ee4762df94e"},"vehicle_type_id":"4","last_reported":1781361630,"current_range_meters":3600,"station_id":"ce4bh0h2rcd13ifvqd40","pricing_plan_id":"cebpf4jnsgd1na2vs0mg"},{"bike_id":"6592f03d-a34c-4add-9022-fdbf188f6bdf","system_id":"levelo_inurba_marseille","lat":43.23177,"lon":5.39995,"is_reserved":false,"is_disabled":false,"rental_uris":{"android":"levelo://app?vid=6592f03d-a34c-4add-9022-fdbf188f6bdf","ios":"levelo://app?vid=6592f03d-a34c-4add-9022-fdbf188f6bdf"},"vehicle_type_id":"4","last_reported":1781361630,"current_range_meters":3600,"station_id":"ce4bhn12rcd13ifvqgqg","pricing_plan_id":"cebpf4jnsgd1na2vs0mg"},{"bike_id":"a921a687-4f8b-4d1b-a254-2ddeeeaf8a37","system_id":"levelo_inurba_marseille","lat":43.24208,"lon":5.37083,"is_reserved":false,"is_disabled":false,"rental_uris":{"android":"levelo://app?vid=a921a687-4f8b-4d1b-a254-2ddeeeaf8a37","ios":"levelo://app?vid=a921a687-4f8b-4d1b-a254-2ddeeeaf8a37"},"vehicle_type_id":"4","last_reported":1781361630,"current_range_meters":3600,"station_id":"","pricing_plan_id":"cebpf4jnsgd1na2vs0mg"},{"bike_id":"a0d2ac5f-fff6-43f6-831d-dfa81e9c3981","system_id":"levelo_inurba_marseille","lat":43.29584,"lon":5.36431,"is_reserved":false,"is_disabled":false,"rental_uris":{"android":"levelo://app?vid=a0d2ac5f-fff6-43f6-831d-dfa81e9c3981","ios":"levelo://app?vid=a0d2ac5f-fff6-43f6-831d-dfa81e9c3981"},"vehicle_type_id":"4","last_reported":1781361630,"current_range_meters":3600,"station_id":"","pricing_plan_id":"cebpf4jnsgd1na2vs0mg"},{"bike_id":"5e9b1e7a-96a2-402f-b997-7a9756fec42a","system_id":"levelo_inurba_marseille","lat":43.27209,"lon":5.39176,"is_reserved":false,"is_disabled":false,"rental_uris":{"android":"levelo://app?vid=5e9b1e7a-96a2-402f-b997-7a9756fec42a","ios":"levelo://app?vid=5e9b1e7a-96a2-402f-b997-7a9756fec42a"},"vehicle_type_id":"4","last_reported":1781361630,"current_range_meters":3600,"station_id":"ce4bhhp2rcd13ifvqfm0","pricing_plan_id":"cebpf4jnsgd1na2vs0mg"},{"bike_id":"fb2a1f7d-f7e9-4d12-bb3c-32e8cd55f82d","system_id":"levelo_inurba_marseille","lat":43.29068,"lon":5.4426,"is_reserved":false,"is_disabled":false,"rental_uris":{"android":"levelo://app?vid=fb2a1f7d-f7e9-4d12-bb3c-32e8cd55f82d","ios":"levelo://app?vid=fb2a1f7d-f7e9-4d12-bb3c-32e8cd55f82d"},"vehicle_type_id":"4","last_reported":1781361630,"current_range_meters":3600,"station_id":"","pricing_plan_id":"cebpf4jnsgd1na2vs0mg"},{"bike_id":"275f7e16-2da6-4029-805d-0f00999ffe2f","system_id":"levelo_inurba_marseille","lat":43.31874,"lon":5.40755,"is_reserved":false,"is_disabled":false,"rental_uris":{"android":"levelo://app?vid=275f7e16-2da6-4029-805d-0f00999ffe2f","ios":"levelo://app?vid=275f7e16-2da6-4029-805d-0f00999ffe2f"},"vehicle_type_id":"4","last_reported":1781361630,"current_range_meters":3600,"station_id":"ce4bhq12rcd13ifvqhig","pricing_plan_id":"cebpf4jnsgd1na2vs0mg"},{"bike_id":"1ad057c2-d121-4330-870c-e46f6fafb4c0","system_id":"levelo_inurba_marseille","lat":43.27914,"lon":5.35329,"is_reserved":false,"is_disabled":false,"rental_uris":{"android":"levelo://app?vid=1ad057c2-d121-4330-870c-e46f6fafb4c0","ios":"levelo://app?vid=1ad057c2-d121-4330-870c-e46f6fafb4c0"},"vehicle_type_id":"4","last_reported":1781361630,"current_range_meters":3600,"station_id":"","pricing_plan_id":"cebpf4jnsgd1na2vs0mg"},{"bike_id":"145a7955-892f-4569-af62-2155003e90cf","system_id":"levelo_inurba_marseille","lat":43.29527,"lon":5.36491,"is_reserved":false,"is_disabled":false,"rental_uris":{"android":"levelo://app?vid=145a7955-892f-4569-af62-2155003e90cf","ios":"levelo://app?vid=145a7955-892f-4569-af62-2155003e90cf"},"vehicle_type_id":"4","last_reported":1781361630,"current_range_meters":3600,"station_id":"","pricing_plan_id":"cebpf4jnsgd1na2vs0mg"},{"bike_id":"9baebc47-9a21-445a-b575-5e8cc4ed7549","system_id":"levelo_inurba_marseille","lat":43.285,"lon":5.48381,"is_reserved":false,"is_disabled":false,"rental_uris":{"android":"levelo://app?vid=9baebc47-9a21-445a-b575-5e8cc4ed7549","ios":"levelo://app?vid=9baebc47-9a21-445a-b575-5e8cc4ed7549"},"vehicle_type_id":"4","last_reported":1781361630,"current_range_meters":3600,"station_id":"st_d3svhcjqgbts73a3dn0g","pricing_plan_id":"cebpf4jnsgd1na2vs0mg"},{"bike_id":"7717390a-9f55-4678-b2a5-ba0a73b8a548","system_id":"levelo_inurba_marseille","lat":43.31576,"lon":5.36965,"is_reserved":false,"is_disabled":false,"rental_uris":{"android":"levelo://app?vid=7717390a-9f55-4678-b2a5-ba0a73b8a548","ios":"levelo://app?vid=7717390a-9f55-4678-b2a5-ba0a73b8a548"},"vehicle_type_id":"4","last_reported":1781361630,"current_range_meters":3600,"station_id":"","pricing_plan_id":"cebpf4jnsgd1na2vs0mg"},{"bike_id":"600d5654-1850-4fbe-85fd-e85875eabc55","system_id":"levelo_inurba_marseille","lat":43.28977,"lon":5.37847,"is_reserved":false,"is_disabled":false,"rental_uris":{"android":"levelo://app?vid=600d5654-1850-4fbe-85fd-e85875eabc55","ios":"levelo://app?vid=600d5654-1850-4fbe-85fd-e85875eabc55"},"vehicle_type_id":"4","last_reported":1781361630,"current_range_meters":3600,"station_id":"ce4bh9p2rcd13ifvqed0","pricing_plan_id":"cebpf4jnsgd1na2vs0mg"},{"bike_id":"657f370c-ec66-41eb-b53a-ab00da67e5ef","system_id":"levelo_inurba_marseille","lat":43.2866,"lon":5.36354,"is_reserved":false,"is_disabled":false,"rental_uris":{"android":"levelo://app?vid=657f370c-ec66-41eb-b53a-ab00da67e5ef","ios":"levelo://app?vid=657f370c-ec66-41eb-b53a-ab00da67e5ef"},"vehicle_type_id":"4","last_reported":1781361630,"current_range_meters":3600,"station_id":"ce4bhah2rcd13ifvqej0","pricing_plan_id":"cebpf4jnsgd1na2vs0mg"},{"bike_id":"44577758-9781-4e26-a98a-6f13509dbbf8","system_id":"levelo_inurba_marseille","lat":43.33721,"lon":5.39178,"is_reserved":false,"is_disabled":false,"rental_uris":{"android":"levelo://app?vid=44577758-9781-4e26-a98a-6f13509dbbf8","ios":"levelo://app?vid=44577758-9781-4e26-a98a-6f13509dbbf8"},"vehicle_type_id":"4","last_reported":1781361630,"current_range_meters":4000,"station_id":"ce4bhr92rcd13ifvqhsg","pricing_plan_id":"cebpf4jnsgd1na2vs0mg"},{"bike_id":"83a8c956-657a-4c77-bf0a-3ae3392465f4","system_id":"levelo_inurba_marseille","lat":43.27909,"lon":5.35334,"is_reserved":false,"is_disabled":false,"rental_uris":{"android":"levelo://app?vid=83a8c956-657a-4c77-bf0a-3ae3392465f4","ios":"levelo://app?vid=83a8c956-657a-4c77-bf0a-3ae3392465f4"},"vehicle_type_id":"4","last_reported":1781361630,"current_range_meters":4000,"station_id":"","pricing_plan_id":"cebpf4jnsgd1na2vs0mg"},{"bike_id":"2f86dca4-711f-4105-8f52-e190a5543aaf","system_id":"levelo_inurba_marseille","lat":43.22539,"lon":5.34823,"is_reserved":false,"is_disabled":false,"rental_uris":{"android":"levelo://app?vid=2f86dca4-711f-4105-8f52-e190a5543aaf","ios":"levelo://app?vid=2f86dca4-711f-4105-8f52-e190a5543aaf"},"vehicle_type_id":"4","last_reported":1781361630,"current_range_meters":4000,"station_id":"st_cvj5dfep6f1abm77gieg","pricing_plan_id":"cebpf4jnsgd1na2vs0mg"},{"bike_id":"f312a474-3688-43e4-8515-a784a5c48528","system_id":"levelo_inurba_marseille","lat":43.21188,"lon":5.35056,"is_reserved":false,"is_disabled":true,"rental_uris":{"android":"levelo://app?vid=f312a474-3688-43e4-8515-a784a5c48528","ios":"levelo://app?vid=f312a474-3688-43e4-8515-a784a5c48528"},"vehicle_type_id":"4","last_reported":1781361630,"current_range_meters":4000,"station_id":"st_cvj6sg6p6f1abm77japg","pricing_plan_id":"cebpf4jnsgd1na2vs0mg"},{"bike_id":"e128b65e-1a46-4b25-bad3-8ba661209936","system_id":"levelo_inurba_marseille","lat":43.29267,"lon":5.40137,"is_reserved":false,"is_disabled":false,"rental_uris":{"android":"levelo://app?vid=e128b65e-1a46-4b25-bad3-8ba661209936","ios":"levelo://app?vid=e128b65e-1a46-4b25-bad3-8ba661209936"},"vehicle_type_id":"4","last_reported":1781361630,"current_range_meters":4000,"station_id":"ce4bh312rcd13ifvqdk0","pricing_plan_id":"cebpf4jnsgd1na2vs0mg"},{"bike_id":"b017941a-b060-4fc7-a7dd-cd481ad2a244","system_id":"levelo_inurba_marseille","lat":43.28691,"lon":5.36295,"is_reserved":false,"is_disabled":false,"rental_uris":{"android":"levelo://app?vid=b017941a-b060-4fc7-a7dd-cd481ad2a244","ios":"levelo://app?vid=b017941a-b060-4fc7-a7dd-cd481ad2a244"},"vehicle_type_id":"4","last_reported":1781361630,"current_range_meters":4000,"station_id":"ce4bhah2rcd13ifvqej0","pricing_plan_id":"cebpf4jnsgd1na2vs0mg"},{"bike_id":"a2c711c8-548f-4dc6-bb25-004e55b1b2ed","system_id":"levelo_inurba_marseille","lat":43.337444,"lon":5.374475,"is_reserved":false,"is_disabled":false,"rental_uris":{"android":"levelo://app?vid=a2c711c8-548f-4dc6-bb25-004e55b1b2ed","ios":"levelo://app?vid=a2c711c8-548f-4dc6-bb25-004e55b1b2ed"},"vehicle_type_id":"4","last_reported":1781361630,"current_range_meters":4000,"station_id":"","pricing_plan_id":"cebpf4jnsgd1na2vs0mg"},{"bike_id":"02867c96-69b1-4552-95af-126492460d31","system_id":"levelo_inurba_marseille","lat":43.25078,"lon":5.39517,"is_reserved":false,"is_disabled":false,"rental_uris":{"android":"levelo://app?vid=02867c96-69b1-4552-95af-126492460d31","ios":"levelo://app?vid=02867c96-69b1-4552-95af-126492460d31"},"vehicle_type_id":"4","last_reported":1781361630,"current_range_meters":4000,"station_id":"ce4bhm12rcd13ifvqgkg","pricing_plan_id":"cebpf4jnsgd1na2vs0mg"},{"bike_id":"5ab25b28-e35d-4f10-9ca9-7d658cce4ea9","system_id":"levelo_inurba_marseille","lat":43.28921,"lon":5.38398,"is_reserved":false,"is_disabled":true,"rental_uris":{"android":"levelo://app?vid=5ab25b28-e35d-4f10-9ca9-7d658cce4ea9","ios":"levelo://app?vid=5ab25b28-e35d-4f10-9ca9-7d658cce4ea9"},"vehicle_type_id":"4","last_reported":1781361630,"current_range_meters":4000,"station_id":"ce4bh612rcd13ifvqe6g","pricing_plan_id":"cebpf4jnsgd1na2vs0mg"},{"bike_id":"021508c7-f7c6-4357-a85c-5cf3ffc9fd7c","system_id":"levelo_inurba_marseille","lat":43.23151,"lon":5.43707,"is_reserved":false,"is_disabled":false,"rental_uris":{"android":"levelo://app?vid=021508c7-f7c6-4357-a85c-5cf3ffc9fd7c","ios":"levelo://app?vid=021508c7-f7c6-4357-a85c-5cf3ffc9fd7c"},"vehicle_type_id":"4","last_reported":1781361630,"current_range_meters":4000,"station_id":"ce4bhmp2rcd13ifvqgog","pricing_plan_id":"cebpf4jnsgd1na2vs0mg"},{"bike_id":"ccc32958-168e-4c33-8a28-5da0464cfb12","system_id":"levelo_inurba_marseille","lat":43.23155,"lon":5.43697,"is_reserved":false,"is_disabled":false,"rental_uris":{"android":"levelo://app?vid=ccc32958-168e-4c33-8a28-5da0464cfb12","ios":"levelo://app?vid=ccc32958-168e-4c33-8a28-5da0464cfb12"},"vehicle_type_id":"4","last_reported":1781361630,"current_range_meters":4000,"station_id":"ce4bhmp2rcd13ifvqgog","pricing_plan_id":"cebpf4jnsgd1na2vs0mg"},{"bike_id":"e0944573-3d47-4667-a261-da9f45bb7a7b","system_id":"levelo_inurba_marseille","lat":43.28612,"lon":5.35104,"is_reserved":false,"is_disabled":false,"rental_uris":{"android":"levelo://app?vid=e0944573-3d47-4667-a261-da9f45bb7a7b","ios":"levelo://app?vid=e0944573-3d47-4667-a261-da9f45bb7a7b"},"vehicle_type_id":"4","last_reported":1781361630,"current_range_meters":4000,"station_id":"ce4bhch2rcd13ifvqeug","pricing_plan_id":"cebpf4jnsgd1na2vs0mg"},{"bike_id":"edd47405-d388-4d04-852e-90210eefdaf9","system_id":"levelo_inurba_marseille","lat":43.23152,"lon":5.43711,"is_reserved":false,"is_disabled":false,"rental_uris":{"android":"levelo://app?vid=edd47405-d388-4d04-852e-90210eefdaf9","ios":"levelo://app?vid=edd47405-d388-4d04-852e-90210eefdaf9"},"vehicle_type_id":"4","last_reported":1781361630,"current_range_meters":4000,"station_id":"ce4bhmp2rcd13ifvqgog","pricing_plan_id":"cebpf4jnsgd1na2vs0mg"},{"bike_id":"2882d32d-720c-4b6b-b52a-a70816ab5176","system_id":"levelo_inurba_marseille","lat":43.24635,"lon":5.43153,"is_reserved":false,"is_disabled":false,"rental_uris":{"android":"levelo://app?vid=2882d32d-720c-4b6b-b52a-a70816ab5176","ios":"levelo://app?vid=2882d32d-720c-4b6b-b52a-a70816ab5176"},"vehicle_type_id":"4","last_reported":1781361630,"current_range_meters":4000,"station_id":"st_d2m6c4gdas8pm72e190g","pricing_plan_id":"cebpf4jnsgd1na2vs0mg"},{"bike_id":"77a3e5cd-10a1-4b18-bd77-e146c62f220c","system_id":"levelo_inurba_marseille","lat":43.28026,"lon":5.37464,"is_reserved":false,"is_disabled":false,"rental_uris":{"android":"levelo://app?vid=77a3e5cd-10a1-4b18-bd77-e146c62f220c","ios":"levelo://app?vid=77a3e5cd-10a1-4b18-bd77-e146c62f220c"},"vehicle_type_id":"4","last_reported":1781361630,"current_range_meters":4000,"station_id":"","pricing_plan_id":"cebpf4jnsgd1na2vs0mg"},{"bike_id":"789bb187-05f0-427e-a77f-6842144ea4ab","system_id":"levelo_inurba_marseille","lat":43.2464,"lon":5.4314,"is_reserved":false,"is_disabled":false,"rental_uris":{"android":"levelo://app?vid=789bb187-05f0-427e-a77f-6842144ea4ab","ios":"levelo://app?vid=789bb187-05f0-427e-a77f-6842144ea4ab"},"vehicle_type_id":"4","last_reported":1781361630,"current_range_meters":4000,"station_id":"st_d2m6c4gdas8pm72e190g","pricing_plan_id":"cebpf4jnsgd1na2vs0mg"},{"bike_id":"32770dfa-2c91-4ddb-8814-fbc6dd5f5a27","system_id":"levelo_inurba_marseille","lat":43.21717,"lon":5.34593,"is_reserved":false,"is_disabled":false,"rental_uris":{"android":"levelo://app?vid=32770dfa-2c91-4ddb-8814-fbc6dd5f5a27","ios":"levelo://app?vid=32770dfa-2c91-4ddb-8814-fbc6dd5f5a27"},"vehicle_type_id":"4","last_reported":1781361630,"current_range_meters":4000,"station_id":"st_cvj6r9ubvosntc0bgbag","pricing_plan_id":"cebpf4jnsgd1na2vs0mg"},{"bike_id":"1f84be2d-f15b-4000-98c7-cfba4b124b90","system_id":"levelo_inurba_marseille","lat":43.2973,"lon":5.37677,"is_reserved":false,"is_disabled":false,"rental_uris":{"android":"levelo://app?vid=1f84be2d-f15b-4000-98c7-cfba4b124b90","ios":"levelo://app?vid=1f84be2d-f15b-4000-98c7-cfba4b124b90"},"vehicle_type_id":"4","last_reported":1781361630,"current_range_meters":4400,"station_id":"ce4bgkh2rcd13ifvqbl0","pricing_plan_id":"cebpf4jnsgd1na2vs0mg"},{"bike_id":"7ec5ac6c-1ad1-484e-b1ac-0dd6240aeac8","system_id":"levelo_inurba_marseille","lat":43.32107,"lon":5.36764,"is_reserved":false,"is_disabled":false,"rental_uris":{"android":"levelo://app?vid=7ec5ac6c-1ad1-484e-b1ac-0dd6240aeac8","ios":"levelo://app?vid=7ec5ac6c-1ad1-484e-b1ac-0dd6240aeac8"},"vehicle_type_id":"4","last_reported":1781361630,"current_range_meters":4400,"station_id":"ce4bhrh2rcd13ifvqhug","pricing_plan_id":"cebpf4jnsgd1na2vs0mg"},{"bike_id":"6a27404a-fd45-46ef-b0c6-d19df52b0472","system_id":"levelo_inurba_marseille","lat":43.30048,"lon":5.37769,"is_reserved":false,"is_disabled":false,"rental_uris":{"android":"levelo://app?vid=6a27404a-fd45-46ef-b0c6-d19df52b0472","ios":"levelo://app?vid=6a27404a-fd45-46ef-b0c6-d19df52b0472"},"vehicle_type_id":"4","last_reported":1781361630,"current_range_meters":4400,"station_id":"","pricing_plan_id":"cebpf4jnsgd1na2vs0mg"},{"bike_id":"858e56b7-dbde-454e-aa20-818b9a8b4382","system_id":"levelo_inurba_marseille","lat":43.21756,"lon":5.34583,"is_reserved":false,"is_disabled":false,"rental_uris":{"android":"levelo://app?vid=858e56b7-dbde-454e-aa20-818b9a8b4382","ios":"levelo://app?vid=858e56b7-dbde-454e-aa20-818b9a8b4382"},"vehicle_type_id":"4","last_reported":1781361630,"current_range_meters":4400,"station_id":"st_cvj6r9ubvosntc0bgbag","pricing_plan_id":"cebpf4jnsgd1na2vs0mg"},{"bike_id":"a88c18f7-a05b-424b-a2e6-87c48e40dd60","system_id":"levelo_inurba_marseille","lat":43.23889,"lon":5.37466,"is_reserved":false,"is_disabled":true,"rental_uris":{"android":"levelo://app?vid=a88c18f7-a05b-424b-a2e6-87c48e40dd60","ios":"levelo://app?vid=a88c18f7-a05b-424b-a2e6-87c48e40dd60"},"vehicle_type_id":"4","last_reported":1781361630,"current_range_meters":4400,"station_id":"st_d6sm7csbq4hs73f8fpjg","pricing_plan_id":"cebpf4jnsgd1na2vs0mg"},{"bike_id":"e0a4acaa-b62c-4970-818b-fd1170d95561","system_id":"levelo_inurba_marseille","lat":43.26209,"lon":5.37445,"is_reserved":false,"is_disabled":false,"rental_uris":{"android":"levelo://app?vid=e0a4acaa-b62c-4970-818b-fd1170d95561","ios":"levelo://app?vid=e0a4acaa-b62c-4970-818b-fd1170d95561"},"vehicle_type_id":"4","last_reported":1781361630,"current_range_meters":4400,"station_id":"ce4bhgp2rcd13ifvqfc0","pricing_plan_id":"cebpf4jnsgd1na2vs0mg"},{"bike_id":"98c0a183-7ee6-4b0b-b809-46c8824508e7","system_id":"levelo_inurba_marseille","lat":43.29601,"lon":5.41976,"is_reserved":false,"is_disabled":false,"rental_uris":{"android":"levelo://app?vid=98c0a183-7ee6-4b0b-b809-46c8824508e7","ios":"levelo://app?vid=98c0a183-7ee6-4b0b-b809-46c8824508e7"},"vehicle_type_id":"4","last_reported":1781361630,"current_range_meters":4400,"station_id":"","pricing_plan_id":"cebpf4jnsgd1na2vs0mg"},{"bike_id":"158f0e84-f561-444f-8623-cf141dca2d19","system_id":"levelo_inurba_marseille","lat":43.28618,"lon":5.35099,"is_reserved":false,"is_disabled":false,"rental_uris":{"android":"levelo://app?vid=158f0e84-f561-444f-8623-cf141dca2d19","ios":"levelo://app?vid=158f0e84-f561-444f-8623-cf141dca2d19"},"vehicle_type_id":"4","last_reported":1781361630,"current_range_meters":4400,"station_id":"ce4bhch2rcd13ifvqeug","pricing_plan_id":"cebpf4jnsgd1na2vs0mg"},{"bike_id":"b94500b0-c8e7-4697-a363-e6426899264d","system_id":"levelo_inurba_marseille","lat":43.26368,"lon":5.4107,"is_reserved":false,"is_disabled":false,"rental_uris":{"android":"levelo://app?vid=b94500b0-c8e7-4697-a363-e6426899264d","ios":"levelo://app?vid=b94500b0-c8e7-4697-a363-e6426899264d"},"vehicle_type_id":"4","last_reported":1781361630,"current_range_meters":4400,"station_id":"st_d4e5ca6na9uc73bfl5fg","pricing_plan_id":"cebpf4jnsgd1na2vs0mg"},{"bike_id":"1bd36802-444b-47b8-b6d5-5854caf6a4a9","system_id":"levelo_inurba_marseille","lat":43.31484,"lon":5.37321,"is_reserved":false,"is_disabled":false,"rental_uris":{"android":"levelo://app?vid=1bd36802-444b-47b8-b6d5-5854caf6a4a9","ios":"levelo://app?vid=1bd36802-444b-47b8-b6d5-5854caf6a4a9"},"vehicle_type_id":"4","last_reported":1781361630,"current_range_meters":4400,"station_id":"ce4bgt12rcd13ifvqcd0","pricing_plan_id":"cebpf4jnsgd1na2vs0mg"},{"bike_id":"61abc050-794c-43f3-96ae-15565612cd1b","system_id":"levelo_inurba_marseille","lat":43.28684,"lon":5.46671,"is_reserved":false,"is_disabled":false,"rental_uris":{"android":"levelo://app?vid=61abc050-794c-43f3-96ae-15565612cd1b","ios":"levelo://app?vid=61abc050-794c-43f3-96ae-15565612cd1b"},"vehicle_type_id":"4","last_reported":1781361630,"current_range_meters":4400,"station_id":"st_d6tc3vkotcvc738tfjhg","pricing_plan_id":"cebpf4jnsgd1na2vs0mg"},{"bike_id":"1f4cf7cf-98e2-40ce-8e0b-c74ae682295d","system_id":"levelo_inurba_marseille","lat":43.26225,"lon":5.38769,"is_reserved":false,"is_disabled":false,"rental_uris":{"android":"levelo://app?vid=1f4cf7cf-98e2-40ce-8e0b-c74ae682295d","ios":"levelo://app?vid=1f4cf7cf-98e2-40ce-8e0b-c74ae682295d"},"vehicle_type_id":"4","last_reported":1781361630,"current_range_meters":4400,"station_id":"st_d8gjfg747rts73coq3b0","pricing_plan_id":"cebpf4jnsgd1na2vs0mg"},{"bike_id":"e37613eb-2b80-45f6-8be7-6bbc2d17cf64","system_id":"levelo_inurba_marseille","lat":43.24822,"lon":5.3744,"is_reserved":false,"is_disabled":true,"rental_uris":{"android":"levelo://app?vid=e37613eb-2b80-45f6-8be7-6bbc2d17cf64","ios":"levelo://app?vid=e37613eb-2b80-45f6-8be7-6bbc2d17cf64"},"vehicle_type_id":"4","last_reported":1781361630,"current_range_meters":4400,"station_id":"ce4bhgh2rcd13ifvqfb0","pricing_plan_id":"cebpf4jnsgd1na2vs0mg"},{"bike_id":"5e8e8cbd-3562-4720-b48e-c946471a29b5","system_id":"levelo_inurba_marseille","lat":43.29272,"lon":5.40116,"is_reserved":false,"is_disabled":false,"rental_uris":{"android":"levelo://app?vid=5e8e8cbd-3562-4720-b48e-c946471a29b5","ios":"levelo://app?vid=5e8e8cbd-3562-4720-b48e-c946471a29b5"},"vehicle_type_id":"4","last_reported":1781361630,"current_range_meters":4400,"station_id":"ce4bh312rcd13ifvqdk0","pricing_plan_id":"cebpf4jnsgd1na2vs0mg"},{"bike_id":"178788d6-7709-4484-9971-d7cbf5ca17ce","system_id":"levelo_inurba_marseille","lat":43.21744,"lon":5.34609,"is_reserved":false,"is_disabled":false,"rental_uris":{"android":"levelo://app?vid=178788d6-7709-4484-9971-d7cbf5ca17ce","ios":"levelo://app?vid=178788d6-7709-4484-9971-d7cbf5ca17ce"},"vehicle_type_id":"4","last_reported":1781361630,"current_range_meters":4400,"station_id":"st_cvj6r9ubvosntc0bgbag","pricing_plan_id":"cebpf4jnsgd1na2vs0mg"},{"bike_id":"eda98293-5c91-4dae-89c6-486a45b00f60","system_id":"levelo_inurba_marseille","lat":43.23273,"lon":5.40099,"is_reserved":false,"is_disabled":false,"rental_uris":{"android":"levelo://app?vid=eda98293-5c91-4dae-89c6-486a45b00f60","ios":"levelo://app?vid=eda98293-5c91-4dae-89c6-486a45b00f60"},"vehicle_type_id":"4","last_reported":1781361630,"current_range_meters":4400,"station_id":"","pricing_plan_id":"cebpf4jnsgd1na2vs0mg"},{"bike_id":"db8c5b68-a2ae-4ccd-8b82-df47b61ade41","system_id":"levelo_inurba_marseille","lat":43.24639,"lon":5.37971,"is_reserved":false,"is_disabled":false,"rental_uris":{"android":"levelo://app?vid=db8c5b68-a2ae-4ccd-8b82-df47b61ade41","ios":"levelo://app?vid=db8c5b68-a2ae-4ccd-8b82-df47b61ade41"},"vehicle_type_id":"4","last_reported":1781361630,"current_range_meters":4400,"station_id":"","pricing_plan_id":"cebpf4jnsgd1na2vs0mg"},{"bike_id":"9c21889d-716c-4cc5-8657-91cf6950bef4","system_id":"levelo_inurba_marseille","lat":43.30465,"lon":5.37913,"is_reserved":false,"is_disabled":false,"rental_uris":{"android":"levelo://app?vid=9c21889d-716c-4cc5-8657-91cf6950bef4","ios":"levelo://app?vid=9c21889d-716c-4cc5-8657-91cf6950bef4"},"vehicle_type_id":"4","last_reported":1781361630,"current_range_meters":4400,"station_id":"ce4bgup2rcd13ifvqcn0","pricing_plan_id":"cebpf4jnsgd1na2vs0mg"},{"bike_id":"ed1b8ea2-ecf3-46da-8352-26963074c835","system_id":"levelo_inurba_marseille","lat":43.24469,"lon":5.42536,"is_reserved":false,"is_disabled":false,"rental_uris":{"android":"levelo://app?vid=ed1b8ea2-ecf3-46da-8352-26963074c835","ios":"levelo://app?vid=ed1b8ea2-ecf3-46da-8352-26963074c835"},"vehicle_type_id":"4","last_reported":1781361630,"current_range_meters":4400,"station_id":"st_d4a3vfp97mjs738cd8kg","pricing_plan_id":"cebpf4jnsgd1na2vs0mg"},{"bike_id":"2f5a2eb1-a60a-4fe8-a5aa-002259731410","system_id":"levelo_inurba_marseille","lat":43.3104,"lon":5.37191,"is_reserved":false,"is_disabled":true,"rental_uris":{"android":"levelo://app?vid=2f5a2eb1-a60a-4fe8-a5aa-002259731410","ios":"levelo://app?vid=2f5a2eb1-a60a-4fe8-a5aa-002259731410"},"vehicle_type_id":"4","last_reported":1781361630,"current_range_meters":4400,"station_id":"st_d4kl2rp97mjs73e7tdfg","pricing_plan_id":"cebpf4jnsgd1na2vs0mg"},{"bike_id":"529357df-f1d8-4307-9f3b-6cfa0e4c6c16","system_id":"levelo_inurba_marseille","lat":43.2827,"lon":5.35079,"is_reserved":false,"is_disabled":false,"rental_uris":{"android":"levelo://app?vid=529357df-f1d8-4307-9f3b-6cfa0e4c6c16","ios":"levelo://app?vid=529357df-f1d8-4307-9f3b-6cfa0e4c6c16"},"vehicle_type_id":"4","last_reported":1781361630,"current_range_meters":4400,"station_id":"ce4bhbp2rcd13ifvqerg","pricing_plan_id":"cebpf4jnsgd1na2vs0mg"},{"bike_id":"1c840d38-6b04-453e-af16-e99dcec3b774","system_id":"levelo_inurba_marseille","lat":43.28455,"lon":5.39147,"is_reserved":false,"is_disabled":false,"rental_uris":{"android":"levelo://app?vid=1c840d38-6b04-453e-af16-e99dcec3b774","ios":"levelo://app?vid=1c840d38-6b04-453e-af16-e99dcec3b774"},"vehicle_type_id":"4","last_reported":1781361630,"current_range_meters":4400,"station_id":"ce4bhoh2rcd13ifvqh5g","pricing_plan_id":"cebpf4jnsgd1na2vs0mg"},{"bike_id":"9f069751-295a-496b-b19c-281f4491a5fd","system_id":"levelo_inurba_marseille","lat":43.35067,"lon":5.35063,"is_reserved":false,"is_disabled":false,"rental_uris":{"android":"levelo://app?vid=9f069751-295a-496b-b19c-281f4491a5fd","ios":"levelo://app?vid=9f069751-295a-496b-b19c-281f4491a5fd"},"vehicle_type_id":"4","last_reported":1781361630,"current_range_meters":4800,"station_id":"","pricing_plan_id":"cebpf4jnsgd1na2vs0mg"},{"bike_id":"874df639-e697-40fd-a19c-5db4a8f50cfa","system_id":"levelo_inurba_marseille","lat":43.317573,"lon":5.390115,"is_reserved":false,"is_disabled":false,"rental_uris":{"android":"levelo://app?vid=874df639-e697-40fd-a19c-5db4a8f50cfa","ios":"levelo://app?vid=874df639-e697-40fd-a19c-5db4a8f50cfa"},"vehicle_type_id":"4","last_reported":1781361630,"current_range_meters":4800,"station_id":"ce4bhqp2rcd13ifvqhng","pricing_plan_id":"cebpf4jnsgd1na2vs0mg"},{"bike_id":"2ba3a3c7-7dfe-43ed-8c80-d92db7ab1ce7","system_id":"levelo_inurba_marseille","lat":43.29602,"lon":5.3811,"is_reserved":false,"is_disabled":false,"rental_uris":{"android":"levelo://app?vid=2ba3a3c7-7dfe-43ed-8c80-d92db7ab1ce7","ios":"levelo://app?vid=2ba3a3c7-7dfe-43ed-8c80-d92db7ab1ce7"},"vehicle_type_id":"4","last_reported":1781361630,"current_range_meters":4800,"station_id":"ce4bgl12rcd13ifvqbo0","pricing_plan_id":"cebpf4jnsgd1na2vs0mg"},{"bike_id":"f389c322-123d-4144-915a-383855424cea","system_id":"levelo_inurba_marseille","lat":43.24388,"lon":5.37051,"is_reserved":false,"is_disabled":false,"rental_uris":{"android":"levelo://app?vid=f389c322-123d-4144-915a-383855424cea","ios":"levelo://app?vid=f389c322-123d-4144-915a-383855424cea"},"vehicle_type_id":"4","last_reported":1781361630,"current_range_meters":4800,"station_id":"ce4bhhh2rcd13ifvqfk0","pricing_plan_id":"cebpf4jnsgd1na2vs0mg"},{"bike_id":"10b39eac-a38d-4ca7-8683-b55b09ab6bc8","system_id":"levelo_inurba_marseille","lat":43.28407,"lon":5.34995,"is_reserved":false,"is_disabled":false,"rental_uris":{"android":"levelo://app?vid=10b39eac-a38d-4ca7-8683-b55b09ab6bc8","ios":"levelo://app?vid=10b39eac-a38d-4ca7-8683-b55b09ab6bc8"},"vehicle_type_id":"4","last_reported":1781361630,"current_range_meters":4800,"station_id":"ce4bhbh2rcd13ifvqepg","pricing_plan_id":"cebpf4jnsgd1na2vs0mg"},{"bike_id":"01974ce9-2ce7-4184-9698-03768bec9bb4","system_id":"levelo_inurba_marseille","lat":43.28669,"lon":5.46638,"is_reserved":false,"is_disabled":false,"rental_uris":{"android":"levelo://app?vid=01974ce9-2ce7-4184-9698-03768bec9bb4","ios":"levelo://app?vid=01974ce9-2ce7-4184-9698-03768bec9bb4"},"vehicle_type_id":"4","last_reported":1781361630,"current_range_meters":4800,"station_id":"st_d6tc3vkotcvc738tfjhg","pricing_plan_id":"cebpf4jnsgd1na2vs0mg"},{"bike_id":"960d68cb-472e-483d-974c-3b485764f425","system_id":"levelo_inurba_marseille","lat":43.31682,"lon":5.40489,"is_reserved":false,"is_disabled":false,"rental_uris":{"android":"levelo://app?vid=960d68cb-472e-483d-974c-3b485764f425","ios":"levelo://app?vid=960d68cb-472e-483d-974c-3b485764f425"},"vehicle_type_id":"4","last_reported":1781361630,"current_range_meters":4800,"station_id":"ce4bh012rcd13ifvqd00","pricing_plan_id":"cebpf4jnsgd1na2vs0mg"},{"bike_id":"a0704a6c-26e7-4cb3-88ea-ea581e546366","system_id":"levelo_inurba_marseille","lat":43.28261,"lon":5.3508,"is_reserved":false,"is_disabled":false,"rental_uris":{"android":"levelo://app?vid=a0704a6c-26e7-4cb3-88ea-ea581e546366","ios":"levelo://app?vid=a0704a6c-26e7-4cb3-88ea-ea581e546366"},"vehicle_type_id":"4","last_reported":1781361630,"current_range_meters":4800,"station_id":"ce4bhbp2rcd13ifvqerg","pricing_plan_id":"cebpf4jnsgd1na2vs0mg"},{"bike_id":"292ba82b-0dab-46c1-b4a2-48a52268ff1c","system_id":"levelo_inurba_marseille","lat":43.26553,"lon":5.39023,"is_reserved":false,"is_disabled":true,"rental_uris":{"android":"levelo://app?vid=292ba82b-0dab-46c1-b4a2-48a52268ff1c","ios":"levelo://app?vid=292ba82b-0dab-46c1-b4a2-48a52268ff1c"},"vehicle_type_id":"4","last_reported":1781361630,"current_range_meters":4800,"station_id":"ce4bhe12rcd13ifvqf30","pricing_plan_id":"cebpf4jnsgd1na2vs0mg"},{"bike_id":"20716e8d-ac68-4691-9ef7-1a11d64baef7","system_id":"levelo_inurba_marseille","lat":43.23169,"lon":5.39983,"is_reserved":false,"is_disabled":false,"rental_uris":{"android":"levelo://app?vid=20716e8d-ac68-4691-9ef7-1a11d64baef7","ios":"levelo://app?vid=20716e8d-ac68-4691-9ef7-1a11d64baef7"},"vehicle_type_id":"4","last_reported":1781361630,"current_range_meters":4800,"station_id":"ce4bhn12rcd13ifvqgqg","pricing_plan_id":"cebpf4jnsgd1na2vs0mg"},{"bike_id":"34f0010a-a185-484e-b44c-50d25e3bb39a","system_id":"levelo_inurba_marseille","lat":43.28739,"lon":5.3608,"is_reserved":false,"is_disabled":false,"rental_uris":{"android":"levelo://app?vid=34f0010a-a185-484e-b44c-50d25e3bb39a","ios":"levelo://app?vid=34f0010a-a185-484e-b44c-50d25e3bb39a"},"vehicle_type_id":"4","last_reported":1781361630,"current_range_meters":4800,"station_id":"cki0cbj6b192h4jlfktg","pricing_plan_id":"cebpf4jnsgd1na2vs0mg"},{"bike_id":"27f33be6-a4e6-4b47-b043-727ec5b73e37","system_id":"levelo_inurba_marseille","lat":43.23117,"lon":5.43703,"is_reserved":false,"is_disabled":false,"rental_uris":{"android":"levelo://app?vid=27f33be6-a4e6-4b47-b043-727ec5b73e37","ios":"levelo://app?vid=27f33be6-a4e6-4b47-b043-727ec5b73e37"},"vehicle_type_id":"4","last_reported":1781361630,"current_range_meters":4800,"station_id":"ce4bhmp2rcd13ifvqgog","pricing_plan_id":"cebpf4jnsgd1na2vs0mg"},{"bike_id":"fe006a21-2275-4bb4-a9c2-e7d31e1d0a1e","system_id":"levelo_inurba_marseille","lat":43.2617,"lon":5.37472,"is_reserved":false,"is_disabled":false,"rental_uris":{"android":"levelo://app?vid=fe006a21-2275-4bb4-a9c2-e7d31e1d0a1e","ios":"levelo://app?vid=fe006a21-2275-4bb4-a9c2-e7d31e1d0a1e"},"vehicle_type_id":"4","last_reported":1781361630,"current_range_meters":4800,"station_id":"ce4bhgp2rcd13ifvqfc0","pricing_plan_id":"cebpf4jnsgd1na2vs0mg"},{"bike_id":"cddf94dd-aa21-4796-865b-6cc41b20fadc","system_id":"levelo_inurba_marseille","lat":43.231941,"lon":5.355533,"is_reserved":false,"is_disabled":false,"rental_uris":{"android":"levelo://app?vid=cddf94dd-aa21-4796-865b-6cc41b20fadc","ios":"levelo://app?vid=cddf94dd-aa21-4796-865b-6cc41b20fadc"},"vehicle_type_id":"4","last_reported":1781361630,"current_range_meters":4800,"station_id":"ce4bhu92rcd13ifvqi70","pricing_plan_id":"cebpf4jnsgd1na2vs0mg"},{"bike_id":"06ad144a-ca3d-47e8-a21f-d6ea7efa678b","system_id":"levelo_inurba_marseille","lat":43.25579,"lon":5.38242,"is_reserved":false,"is_disabled":false,"rental_uris":{"android":"levelo://app?vid=06ad144a-ca3d-47e8-a21f-d6ea7efa678b","ios":"levelo://app?vid=06ad144a-ca3d-47e8-a21f-d6ea7efa678b"},"vehicle_type_id":"4","last_reported":1781361630,"current_range_meters":4800,"station_id":"ce4bhih2rcd13ifvqfs0","pricing_plan_id":"cebpf4jnsgd1na2vs0mg"},{"bike_id":"8caaa414-372d-49ce-8021-8a566c211a18","system_id":"levelo_inurba_marseille","lat":43.23146,"lon":5.43736,"is_reserved":false,"is_disabled":false,"rental_uris":{"android":"levelo://app?vid=8caaa414-372d-49ce-8021-8a566c211a18","ios":"levelo://app?vid=8caaa414-372d-49ce-8021-8a566c211a18"},"vehicle_type_id":"4","last_reported":1781361630,"current_range_meters":4800,"station_id":"ce4bhmp2rcd13ifvqgog","pricing_plan_id":"cebpf4jnsgd1na2vs0mg"},{"bike_id":"3ea61c54-5ae4-4ec5-8d1e-95c813254f6e","system_id":"levelo_inurba_marseille","lat":43.24491,"lon":5.4256,"is_reserved":false,"is_disabled":false,"rental_uris":{"android":"levelo://app?vid=3ea61c54-5ae4-4ec5-8d1e-95c813254f6e","ios":"levelo://app?vid=3ea61c54-5ae4-4ec5-8d1e-95c813254f6e"},"vehicle_type_id":"4","last_reported":1781361630,"current_range_meters":4800,"station_id":"st_d4a3vfp97mjs738cd8kg","pricing_plan_id":"cebpf4jnsgd1na2vs0mg"},{"bike_id":"289efcac-ae69-49a1-98df-a656a0ea867e","system_id":"levelo_inurba_marseille","lat":43.21736,"lon":5.34607,"is_reserved":false,"is_disabled":false,"rental_uris":{"android":"levelo://app?vid=289efcac-ae69-49a1-98df-a656a0ea867e","ios":"levelo://app?vid=289efcac-ae69-49a1-98df-a656a0ea867e"},"vehicle_type_id":"4","last_reported":1781361630,"current_range_meters":5600,"station_id":"st_cvj6r9ubvosntc0bgbag","pricing_plan_id":"cebpf4jnsgd1na2vs0mg"},{"bike_id":"53e2a97b-0f11-4863-81da-1a285de7db3a","system_id":"levelo_inurba_marseille","lat":43.25494,"lon":5.3766,"is_reserved":false,"is_disabled":false,"rental_uris":{"android":"levelo://app?vid=53e2a97b-0f11-4863-81da-1a285de7db3a","ios":"levelo://app?vid=53e2a97b-0f11-4863-81da-1a285de7db3a"},"vehicle_type_id":"4","last_reported":1781361630,"current_range_meters":5600,"station_id":"ce4bhh12rcd13ifvqff0","pricing_plan_id":"cebpf4jnsgd1na2vs0mg"},{"bike_id":"54b03ce9-bc41-41de-b1f4-0746c792dc2e","system_id":"levelo_inurba_marseille","lat":43.27383,"lon":5.3624,"is_reserved":false,"is_disabled":false,"rental_uris":{"android":"levelo://app?vid=54b03ce9-bc41-41de-b1f4-0746c792dc2e","ios":"levelo://app?vid=54b03ce9-bc41-41de-b1f4-0746c792dc2e"},"vehicle_type_id":"4","last_reported":1781361630,"current_range_meters":5600,"station_id":"ce4bhbh2rcd13ifvqeo0","pricing_plan_id":"cebpf4jnsgd1na2vs0mg"},{"bike_id":"9134ec61-96b2-4b67-9ba8-54575cac8fac","system_id":"levelo_inurba_marseille","lat":43.241528,"lon":5.397233,"is_reserved":false,"is_disabled":false,"rental_uris":{"android":"levelo://app?vid=9134ec61-96b2-4b67-9ba8-54575cac8fac","ios":"levelo://app?vid=9134ec61-96b2-4b67-9ba8-54575cac8fac"},"vehicle_type_id":"4","last_reported":1781361630,"current_range_meters":5600,"station_id":"ce4bhn12rcd13ifvqgpg","pricing_plan_id":"cebpf4jnsgd1na2vs0mg"},{"bike_id":"2d8a047b-0411-40fc-a69f-3169f78c4ee9","system_id":"levelo_inurba_marseille","lat":43.3237,"lon":5.3672,"is_reserved":false,"is_disabled":false,"rental_uris":{"android":"levelo://app?vid=2d8a047b-0411-40fc-a69f-3169f78c4ee9","ios":"levelo://app?vid=2d8a047b-0411-40fc-a69f-3169f78c4ee9"},"vehicle_type_id":"4","last_reported":1781361630,"current_range_meters":5600,"station_id":"ce4bhsh2rcd13ifvqi2g","pricing_plan_id":"cebpf4jnsgd1na2vs0mg"},{"bike_id":"3cede35c-7213-44a0-a9c4-1b39fdccb8e7","system_id":"levelo_inurba_marseille","lat":43.28415,"lon":5.34995,"is_reserved":false,"is_disabled":false,"rental_uris":{"android":"levelo://app?vid=3cede35c-7213-44a0-a9c4-1b39fdccb8e7","ios":"levelo://app?vid=3cede35c-7213-44a0-a9c4-1b39fdccb8e7"},"vehicle_type_id":"4","last_reported":1781361630,"current_range_meters":5600,"station_id":"ce4bhbh2rcd13ifvqepg","pricing_plan_id":"cebpf4jnsgd1na2vs0mg"},{"bike_id":"0f4ca0c0-e817-4e32-80da-6c6caffc8abd","system_id":"levelo_inurba_marseille","lat":43.28438,"lon":5.39196,"is_reserved":false,"is_disabled":false,"rental_uris":{"android":"levelo://app?vid=0f4ca0c0-e817-4e32-80da-6c6caffc8abd","ios":"levelo://app?vid=0f4ca0c0-e817-4e32-80da-6c6caffc8abd"},"vehicle_type_id":"4","last_reported":1781361630,"current_range_meters":5600,"station_id":"ce4bhoh2rcd13ifvqh5g","pricing_plan_id":"cebpf4jnsgd1na2vs0mg"},{"bike_id":"d476aca5-3b70-40b3-8b78-89f47aa194b2","system_id":"levelo_inurba_marseille","lat":43.24043,"lon":5.37719,"is_reserved":false,"is_disabled":false,"rental_uris":{"android":"levelo://app?vid=d476aca5-3b70-40b3-8b78-89f47aa194b2","ios":"levelo://app?vid=d476aca5-3b70-40b3-8b78-89f47aa194b2"},"vehicle_type_id":"4","last_reported":1781361630,"current_range_meters":5600,"station_id":"ce4bhnp2rcd13ifvqgvg","pricing_plan_id":"cebpf4jnsgd1na2vs0mg"},{"bike_id":"170d5920-d5e0-4694-8eff-d1bd5d54e8e6","system_id":"levelo_inurba_marseille","lat":43.21748,"lon":5.34598,"is_reserved":false,"is_disabled":false,"rental_uris":{"android":"levelo://app?vid=170d5920-d5e0-4694-8eff-d1bd5d54e8e6","ios":"levelo://app?vid=170d5920-d5e0-4694-8eff-d1bd5d54e8e6"},"vehicle_type_id":"4","last_reported":1781361630,"current_range_meters":5600,"station_id":"st_cvj6r9ubvosntc0bgbag","pricing_plan_id":"cebpf4jnsgd1na2vs0mg"},{"bike_id":"87546117-3f77-42d3-b97c-99332c1eb166","system_id":"levelo_inurba_marseille","lat":43.28419,"lon":5.35014,"is_reserved":false,"is_disabled":false,"rental_uris":{"android":"levelo://app?vid=87546117-3f77-42d3-b97c-99332c1eb166","ios":"levelo://app?vid=87546117-3f77-42d3-b97c-99332c1eb166"},"vehicle_type_id":"4","last_reported":1781361630,"current_range_meters":5600,"station_id":"ce4bhbh2rcd13ifvqepg","pricing_plan_id":"cebpf4jnsgd1na2vs0mg"},{"bike_id":"73935e4b-6fb3-4966-b762-d9844b0f5a6b","system_id":"levelo_inurba_marseille","lat":43.24383,"lon":5.37061,"is_reserved":false,"is_disabled":false,"rental_uris":{"android":"levelo://app?vid=73935e4b-6fb3-4966-b762-d9844b0f5a6b","ios":"levelo://app?vid=73935e4b-6fb3-4966-b762-d9844b0f5a6b"},"vehicle_type_id":"4","last_reported":1781361630,"current_range_meters":5600,"station_id":"ce4bhhh2rcd13ifvqfk0","pricing_plan_id":"cebpf4jnsgd1na2vs0mg"},{"bike_id":"5f68454a-3f46-4716-98ea-a07b68026da7","system_id":"levelo_inurba_marseille","lat":43.30096,"lon":5.37758,"is_reserved":false,"is_disabled":false,"rental_uris":{"android":"levelo://app?vid=5f68454a-3f46-4716-98ea-a07b68026da7","ios":"levelo://app?vid=5f68454a-3f46-4716-98ea-a07b68026da7"},"vehicle_type_id":"4","last_reported":1781361630,"current_range_meters":5600,"station_id":"","pricing_plan_id":"cebpf4jnsgd1na2vs0mg"},{"bike_id":"8600ac62-e423-4ce7-bd23-adf32821d6d9","system_id":"levelo_inurba_marseille","lat":43.26198,"lon":5.37456,"is_reserved":false,"is_disabled":false,"rental_uris":{"android":"levelo://app?vid=8600ac62-e423-4ce7-bd23-adf32821d6d9","ios":"levelo://app?vid=8600ac62-e423-4ce7-bd23-adf32821d6d9"},"vehicle_type_id":"4","last_reported":1781361630,"current_range_meters":5600,"station_id":"ce4bhgp2rcd13ifvqfc0","pricing_plan_id":"cebpf4jnsgd1na2vs0mg"},{"bike_id":"5b721959-b843-4261-959d-635897c03c13","system_id":"levelo_inurba_marseille","lat":43.24659,"lon":5.43141,"is_reserved":false,"is_disabled":false,"rental_uris":{"android":"levelo://app?vid=5b721959-b843-4261-959d-635897c03c13","ios":"levelo://app?vid=5b721959-b843-4261-959d-635897c03c13"},"vehicle_type_id":"4","last_reported":1781361630,"current_range_meters":5600,"station_id":"st_d2m6c4gdas8pm72e190g","pricing_plan_id":"cebpf4jnsgd1na2vs0mg"},{"bike_id":"5f189998-b2b6-4e38-b849-68910c9a3d84","system_id":"levelo_inurba_marseille","lat":43.317514,"lon":5.39012,"is_reserved":false,"is_disabled":false,"rental_uris":{"android":"levelo://app?vid=5f189998-b2b6-4e38-b849-68910c9a3d84","ios":"levelo://app?vid=5f189998-b2b6-4e38-b849-68910c9a3d84"},"vehicle_type_id":"4","last_reported":1781361630,"current_range_meters":5600,"station_id":"","pricing_plan_id":"cebpf4jnsgd1na2vs0mg"},{"bike_id":"2966e569-5f6f-488b-810b-7eb0b0a695b7","system_id":"levelo_inurba_marseille","lat":43.24149,"lon":5.39714,"is_reserved":false,"is_disabled":false,"rental_uris":{"android":"levelo://app?vid=2966e569-5f6f-488b-810b-7eb0b0a695b7","ios":"levelo://app?vid=2966e569-5f6f-488b-810b-7eb0b0a695b7"},"vehicle_type_id":"4","last_reported":1781361630,"current_range_meters":5600,"station_id":"ce4bhn12rcd13ifvqgpg","pricing_plan_id":"cebpf4jnsgd1na2vs0mg"},{"bike_id":"0297113f-11e1-4497-8b79-ab7198c0f3d4","system_id":"levelo_inurba_marseille","lat":43.28412,"lon":5.34994,"is_reserved":false,"is_disabled":false,"rental_uris":{"android":"levelo://app?vid=0297113f-11e1-4497-8b79-ab7198c0f3d4","ios":"levelo://app?vid=0297113f-11e1-4497-8b79-ab7198c0f3d4"},"vehicle_type_id":"4","last_reported":1781361630,"current_range_meters":5600,"station_id":"ce4bhbh2rcd13ifvqepg","pricing_plan_id":"cebpf4jnsgd1na2vs0mg"},{"bike_id":"514ca461-1ef9-452d-90bb-837f0bf92baf","system_id":"levelo_inurba_marseille","lat":43.317,"lon":5.40475,"is_reserved":false,"is_disabled":false,"rental_uris":{"android":"levelo://app?vid=514ca461-1ef9-452d-90bb-837f0bf92baf","ios":"levelo://app?vid=514ca461-1ef9-452d-90bb-837f0bf92baf"},"vehicle_type_id":"4","last_reported":1781361630,"current_range_meters":5600,"station_id":"ce4bh012rcd13ifvqd00","pricing_plan_id":"cebpf4jnsgd1na2vs0mg"},{"bike_id":"fe131b0b-1ef9-4416-9fb2-6e419e6feba9","system_id":"levelo_inurba_marseille","lat":43.24394,"lon":5.37072,"is_reserved":false,"is_disabled":true,"rental_uris":{"android":"levelo://app?vid=fe131b0b-1ef9-4416-9fb2-6e419e6feba9","ios":"levelo://app?vid=fe131b0b-1ef9-4416-9fb2-6e419e6feba9"},"vehicle_type_id":"4","last_reported":1781361630,"current_range_meters":5600,"station_id":"ce4bhhh2rcd13ifvqfk0","pricing_plan_id":"cebpf4jnsgd1na2vs0mg"},{"bike_id":"bbcbb2dd-841e-4503-8c72-a15d9c979dd5","system_id":"levelo_inurba_marseille","lat":43.31488,"lon":5.37302,"is_reserved":false,"is_disabled":false,"rental_uris":{"android":"levelo://app?vid=bbcbb2dd-841e-4503-8c72-a15d9c979dd5","ios":"levelo://app?vid=bbcbb2dd-841e-4503-8c72-a15d9c979dd5"},"vehicle_type_id":"4","last_reported":1781361630,"current_range_meters":5600,"station_id":"ce4bgt12rcd13ifvqcd0","pricing_plan_id":"cebpf4jnsgd1na2vs0mg"},{"bike_id":"b91d9fa1-4fec-403b-8038-57eb8aa275ac","system_id":"levelo_inurba_marseille","lat":43.24387,"lon":5.37066,"is_reserved":false,"is_disabled":false,"rental_uris":{"android":"levelo://app?vid=b91d9fa1-4fec-403b-8038-57eb8aa275ac","ios":"levelo://app?vid=b91d9fa1-4fec-403b-8038-57eb8aa275ac"},"vehicle_type_id":"4","last_reported":1781361630,"current_range_meters":5600,"station_id":"ce4bhhh2rcd13ifvqfk0","pricing_plan_id":"cebpf4jnsgd1na2vs0mg"},{"bike_id":"0a91b7e5-aad5-456e-b905-400413669c01","system_id":"levelo_inurba_marseille","lat":43.27778,"lon":5.37603,"is_reserved":false,"is_disabled":false,"rental_uris":{"android":"levelo://app?vid=0a91b7e5-aad5-456e-b905-400413669c01","ios":"levelo://app?vid=0a91b7e5-aad5-456e-b905-400413669c01"},"vehicle_type_id":"4","last_reported":1781361630,"current_range_meters":5600,"station_id":"","pricing_plan_id":"cebpf4jnsgd1na2vs0mg"},{"bike_id":"6db0e189-20d1-4d92-ab9f-a2ad8e479225","system_id":"levelo_inurba_marseille","lat":43.29266,"lon":5.35556,"is_reserved":false,"is_disabled":false,"rental_uris":{"android":"levelo://app?vid=6db0e189-20d1-4d92-ab9f-a2ad8e479225","ios":"levelo://app?vid=6db0e189-20d1-4d92-ab9f-a2ad8e479225"},"vehicle_type_id":"4","last_reported":1781361630,"current_range_meters":5600,"station_id":"","pricing_plan_id":"cebpf4jnsgd1na2vs0mg"},{"bike_id":"78f96ec0-3651-40e0-9064-540398d155f5","system_id":"levelo_inurba_marseille","lat":43.24468,"lon":5.42538,"is_reserved":false,"is_disabled":false,"rental_uris":{"android":"levelo://app?vid=78f96ec0-3651-40e0-9064-540398d155f5","ios":"levelo://app?vid=78f96ec0-3651-40e0-9064-540398d155f5"},"vehicle_type_id":"4","last_reported":1781361630,"current_range_meters":5600,"station_id":"st_d4a3vfp97mjs738cd8kg","pricing_plan_id":"cebpf4jnsgd1na2vs0mg"},{"bike_id":"2f70ef4e-6af0-41d0-bdb7-405718b4158d","system_id":"levelo_inurba_marseille","lat":43.24515,"lon":5.372983,"is_reserved":false,"is_disabled":false,"rental_uris":{"android":"levelo://app?vid=2f70ef4e-6af0-41d0-bdb7-405718b4158d","ios":"levelo://app?vid=2f70ef4e-6af0-41d0-bdb7-405718b4158d"},"vehicle_type_id":"4","last_reported":1781361630,"current_range_meters":6000,"station_id":"st_cvj6r9ubvosntc0bgbag","pricing_plan_id":"cebpf4jnsgd1na2vs0mg"},{"bike_id":"6edf579f-78f6-4a80-8faa-35bdd39ec8f9","system_id":"levelo_inurba_marseille","lat":43.30533,"lon":5.36545,"is_reserved":false,"is_disabled":false,"rental_uris":{"android":"levelo://app?vid=6edf579f-78f6-4a80-8faa-35bdd39ec8f9","ios":"levelo://app?vid=6edf579f-78f6-4a80-8faa-35bdd39ec8f9"},"vehicle_type_id":"4","last_reported":1781361630,"current_range_meters":6000,"station_id":"ce4bgs12rcd13ifvqcag","pricing_plan_id":"cebpf4jnsgd1na2vs0mg"},{"bike_id":"86b4821b-066f-4af7-9341-601c3120669c","system_id":"levelo_inurba_marseille","lat":43.26226,"lon":5.38756,"is_reserved":false,"is_disabled":false,"rental_uris":{"android":"levelo://app?vid=86b4821b-066f-4af7-9341-601c3120669c","ios":"levelo://app?vid=86b4821b-066f-4af7-9341-601c3120669c"},"vehicle_type_id":"4","last_reported":1781361630,"current_range_meters":6000,"station_id":"st_d8gjfg747rts73coq3b0","pricing_plan_id":"cebpf4jnsgd1na2vs0mg"},{"bike_id":"b9d1843a-d85f-480b-9e0d-ac8e9afe5d9f","system_id":"levelo_inurba_marseille","lat":43.337444,"lon":5.374475,"is_reserved":false,"is_disabled":false,"rental_uris":{"android":"levelo://app?vid=b9d1843a-d85f-480b-9e0d-ac8e9afe5d9f","ios":"levelo://app?vid=b9d1843a-d85f-480b-9e0d-ac8e9afe5d9f"},"vehicle_type_id":"4","last_reported":1781361630,"current_range_meters":6000,"station_id":"","pricing_plan_id":"cebpf4jnsgd1na2vs0mg"},{"bike_id":"b82f3736-7d7d-4610-88a4-4f85c7cf5fe2","system_id":"levelo_inurba_marseille","lat":43.28622,"lon":5.35106,"is_reserved":false,"is_disabled":false,"rental_uris":{"android":"levelo://app?vid=b82f3736-7d7d-4610-88a4-4f85c7cf5fe2","ios":"levelo://app?vid=b82f3736-7d7d-4610-88a4-4f85c7cf5fe2"},"vehicle_type_id":"4","last_reported":1781361630,"current_range_meters":6000,"station_id":"ce4bhch2rcd13ifvqeug","pricing_plan_id":"cebpf4jnsgd1na2vs0mg"},{"bike_id":"75f2ac1b-0110-4a69-8e2b-928c67794bef","system_id":"levelo_inurba_marseille","lat":43.24465,"lon":5.42531,"is_reserved":false,"is_disabled":false,"rental_uris":{"android":"levelo://app?vid=75f2ac1b-0110-4a69-8e2b-928c67794bef","ios":"levelo://app?vid=75f2ac1b-0110-4a69-8e2b-928c67794bef"},"vehicle_type_id":"4","last_reported":1781361630,"current_range_meters":6000,"station_id":"st_d4a3vfp97mjs738cd8kg","pricing_plan_id":"cebpf4jnsgd1na2vs0mg"},{"bike_id":"ec7ff123-2191-49c9-b4f8-c9b1016b4d1d","system_id":"levelo_inurba_marseille","lat":43.3354,"lon":5.37438,"is_reserved":false,"is_disabled":false,"rental_uris":{"android":"levelo://app?vid=ec7ff123-2191-49c9-b4f8-c9b1016b4d1d","ios":"levelo://app?vid=ec7ff123-2191-49c9-b4f8-c9b1016b4d1d"},"vehicle_type_id":"4","last_reported":1781361630,"current_range_meters":6000,"station_id":"st_d46tts09ee8s73dlu43g","pricing_plan_id":"cebpf4jnsgd1na2vs0mg"},{"bike_id":"35565049-90de-4fb4-b35d-e9c548924e41","system_id":"levelo_inurba_marseille","lat":43.26775,"lon":5.39416,"is_reserved":false,"is_disabled":true,"rental_uris":{"android":"levelo://app?vid=35565049-90de-4fb4-b35d-e9c548924e41","ios":"levelo://app?vid=35565049-90de-4fb4-b35d-e9c548924e41"},"vehicle_type_id":"4","last_reported":1781361630,"current_range_meters":6000,"station_id":"ce4bhh12rcd13ifvqfg0","pricing_plan_id":"cebpf4jnsgd1na2vs0mg"},{"bike_id":"ac3358ce-481e-4fda-9f9b-670be68b265e","system_id":"levelo_inurba_marseille","lat":43.31472,"lon":5.40235,"is_reserved":false,"is_disabled":false,"rental_uris":{"android":"levelo://app?vid=ac3358ce-481e-4fda-9f9b-670be68b265e","ios":"levelo://app?vid=ac3358ce-481e-4fda-9f9b-670be68b265e"},"vehicle_type_id":"4","last_reported":1781361630,"current_range_meters":6000,"station_id":"","pricing_plan_id":"cebpf4jnsgd1na2vs0mg"},{"bike_id":"a303e4db-b9ba-4d63-9eff-f7e5a8e536c2","system_id":"levelo_inurba_marseille","lat":43.28031,"lon":5.40889,"is_reserved":false,"is_disabled":false,"rental_uris":{"android":"levelo://app?vid=a303e4db-b9ba-4d63-9eff-f7e5a8e536c2","ios":"levelo://app?vid=a303e4db-b9ba-4d63-9eff-f7e5a8e536c2"},"vehicle_type_id":"4","last_reported":1781361630,"current_range_meters":6000,"station_id":"","pricing_plan_id":"cebpf4jnsgd1na2vs0mg"},{"bike_id":"f8512e4c-12f1-407d-a418-7fa99b208e7f","system_id":"levelo_inurba_marseille","lat":43.24796,"lon":5.37453,"is_reserved":false,"is_disabled":false,"rental_uris":{"android":"levelo://app?vid=f8512e4c-12f1-407d-a418-7fa99b208e7f","ios":"levelo://app?vid=f8512e4c-12f1-407d-a418-7fa99b208e7f"},"vehicle_type_id":"4","last_reported":1781361630,"current_range_meters":6000,"station_id":"ce4bhgh2rcd13ifvqfb0","pricing_plan_id":"cebpf4jnsgd1na2vs0mg"},{"bike_id":"8a9787a5-9a28-427a-a205-4aa9d9212c91","system_id":"levelo_inurba_marseille","lat":43.28827,"lon":5.35536,"is_reserved":false,"is_disabled":false,"rental_uris":{"android":"levelo://app?vid=8a9787a5-9a28-427a-a205-4aa9d9212c91","ios":"levelo://app?vid=8a9787a5-9a28-427a-a205-4aa9d9212c91"},"vehicle_type_id":"4","last_reported":1781361630,"current_range_meters":6000,"station_id":"","pricing_plan_id":"cebpf4jnsgd1na2vs0mg"},{"bike_id":"5cd994fa-169d-4f76-aab2-17c901ac5a60","system_id":"levelo_inurba_marseille","lat":43.21734,"lon":5.34604,"is_reserved":false,"is_disabled":false,"rental_uris":{"android":"levelo://app?vid=5cd994fa-169d-4f76-aab2-17c901ac5a60","ios":"levelo://app?vid=5cd994fa-169d-4f76-aab2-17c901ac5a60"},"vehicle_type_id":"4","last_reported":1781361630,"current_range_meters":6000,"station_id":"st_cvj6r9ubvosntc0bgbag","pricing_plan_id":"cebpf4jnsgd1na2vs0mg"},{"bike_id":"61c48f69-6958-48cc-a8e8-2bdf847d8ac4","system_id":"levelo_inurba_marseille","lat":43.27365,"lon":5.36258,"is_reserved":false,"is_disabled":false,"rental_uris":{"android":"levelo://app?vid=61c48f69-6958-48cc-a8e8-2bdf847d8ac4","ios":"levelo://app?vid=61c48f69-6958-48cc-a8e8-2bdf847d8ac4"},"vehicle_type_id":"4","last_reported":1781361630,"current_range_meters":6000,"station_id":"ce4bhbh2rcd13ifvqeo0","pricing_plan_id":"cebpf4jnsgd1na2vs0mg"},{"bike_id":"75b932a0-4603-42ed-bb26-2a8bb2db7938","system_id":"levelo_inurba_marseille","lat":43.26553,"lon":5.37266,"is_reserved":false,"is_disabled":false,"rental_uris":{"android":"levelo://app?vid=75b932a0-4603-42ed-bb26-2a8bb2db7938","ios":"levelo://app?vid=75b932a0-4603-42ed-bb26-2a8bb2db7938"},"vehicle_type_id":"4","last_reported":1781361630,"current_range_meters":6000,"station_id":"ce4bhg12rcd13ifvqf70","pricing_plan_id":"cebpf4jnsgd1na2vs0mg"},{"bike_id":"bb794378-854d-48fe-be2c-f6b13e488264","system_id":"levelo_inurba_marseille","lat":43.23965,"lon":5.36633,"is_reserved":false,"is_disabled":false,"rental_uris":{"android":"levelo://app?vid=bb794378-854d-48fe-be2c-f6b13e488264","ios":"levelo://app?vid=bb794378-854d-48fe-be2c-f6b13e488264"},"vehicle_type_id":"4","last_reported":1781361630,"current_range_meters":6000,"station_id":"ce4bhi12rcd13ifvqfp0","pricing_plan_id":"cebpf4jnsgd1na2vs0mg"},{"bike_id":"b945184a-c78f-4426-9ce0-68e4fe55805b","system_id":"levelo_inurba_marseille","lat":43.24399,"lon":5.37069,"is_reserved":false,"is_disabled":false,"rental_uris":{"android":"levelo://app?vid=b945184a-c78f-4426-9ce0-68e4fe55805b","ios":"levelo://app?vid=b945184a-c78f-4426-9ce0-68e4fe55805b"},"vehicle_type_id":"4","last_reported":1781361630,"current_range_meters":6000,"station_id":"ce4bhhh2rcd13ifvqfk0","pricing_plan_id":"cebpf4jnsgd1na2vs0mg"},{"bike_id":"b0e1c627-e366-414e-b921-4572a58307db","system_id":"levelo_inurba_marseille","lat":43.28613,"lon":5.35099,"is_reserved":false,"is_disabled":true,"rental_uris":{"android":"levelo://app?vid=b0e1c627-e366-414e-b921-4572a58307db","ios":"levelo://app?vid=b0e1c627-e366-414e-b921-4572a58307db"},"vehicle_type_id":"4","last_reported":1781361630,"current_range_meters":6000,"station_id":"ce4bhch2rcd13ifvqeug","pricing_plan_id":"cebpf4jnsgd1na2vs0mg"},{"bike_id":"903543e1-84f5-420c-985c-087b50f51827","system_id":"levelo_inurba_marseille","lat":43.28612,"lon":5.35108,"is_reserved":false,"is_disabled":false,"rental_uris":{"android":"levelo://app?vid=903543e1-84f5-420c-985c-087b50f51827","ios":"levelo://app?vid=903543e1-84f5-420c-985c-087b50f51827"},"vehicle_type_id":"4","last_reported":1781361630,"current_range_meters":6000,"station_id":"ce4bhch2rcd13ifvqeug","pricing_plan_id":"cebpf4jnsgd1na2vs0mg"},{"bike_id":"af80b9d0-5bb6-4681-825c-6022bf214ae7","system_id":"levelo_inurba_marseille","lat":43.28706,"lon":5.39986,"is_reserved":false,"is_disabled":false,"rental_uris":{"android":"levelo://app?vid=af80b9d0-5bb6-4681-825c-6022bf214ae7","ios":"levelo://app?vid=af80b9d0-5bb6-4681-825c-6022bf214ae7"},"vehicle_type_id":"4","last_reported":1781361630,"current_range_meters":6000,"station_id":"ce4bho92rcd13ifvqh3g","pricing_plan_id":"cebpf4jnsgd1na2vs0mg"},{"bike_id":"bf740f93-dcae-45bd-8189-93f0bf5977b3","system_id":"levelo_inurba_marseille","lat":43.22557,"lon":5.41632,"is_reserved":false,"is_disabled":false,"rental_uris":{"android":"levelo://app?vid=bf740f93-dcae-45bd-8189-93f0bf5977b3","ios":"levelo://app?vid=bf740f93-dcae-45bd-8189-93f0bf5977b3"},"vehicle_type_id":"4","last_reported":1781361630,"current_range_meters":6000,"station_id":"st_d2o4gvlbi1j2169b742g","pricing_plan_id":"cebpf4jnsgd1na2vs0mg"},{"bike_id":"a4367c49-3ad9-4e5d-b890-d24a763f0a44","system_id":"levelo_inurba_marseille","lat":43.28925,"lon":5.425,"is_reserved":false,"is_disabled":false,"rental_uris":{"android":"levelo://app?vid=a4367c49-3ad9-4e5d-b890-d24a763f0a44","ios":"levelo://app?vid=a4367c49-3ad9-4e5d-b890-d24a763f0a44"},"vehicle_type_id":"4","last_reported":1781361630,"current_range_meters":6000,"station_id":"","pricing_plan_id":"cebpf4jnsgd1na2vs0mg"},{"bike_id":"437e3ba7-ea12-4e88-a20f-de0ed79ac149","system_id":"levelo_inurba_marseille","lat":43.24077,"lon":5.37764,"is_reserved":false,"is_disabled":false,"rental_uris":{"android":"levelo://app?vid=437e3ba7-ea12-4e88-a20f-de0ed79ac149","ios":"levelo://app?vid=437e3ba7-ea12-4e88-a20f-de0ed79ac149"},"vehicle_type_id":"4","last_reported":1781361630,"current_range_meters":6000,"station_id":"ce4bhnp2rcd13ifvqgvg","pricing_plan_id":"cebpf4jnsgd1na2vs0mg"},{"bike_id":"d71c8d9c-12a5-4980-92e9-d2d32c577fca","system_id":"levelo_inurba_marseille","lat":43.21188,"lon":5.35074,"is_reserved":false,"is_disabled":false,"rental_uris":{"android":"levelo://app?vid=d71c8d9c-12a5-4980-92e9-d2d32c577fca","ios":"levelo://app?vid=d71c8d9c-12a5-4980-92e9-d2d32c577fca"},"vehicle_type_id":"4","last_reported":1781361630,"current_range_meters":6400,"station_id":"st_cvj6sg6p6f1abm77japg","pricing_plan_id":"cebpf4jnsgd1na2vs0mg"},{"bike_id":"c175211b-3da4-46cc-a60f-4967a28b1b76","system_id":"levelo_inurba_marseille","lat":43.3317,"lon":5.37678,"is_reserved":false,"is_disabled":false,"rental_uris":{"android":"levelo://app?vid=c175211b-3da4-46cc-a60f-4967a28b1b76","ios":"levelo://app?vid=c175211b-3da4-46cc-a60f-4967a28b1b76"},"vehicle_type_id":"4","last_reported":1781361630,"current_range_meters":6400,"station_id":"st_d46cu089ee8s73dldbu0","pricing_plan_id":"cebpf4jnsgd1na2vs0mg"},{"bike_id":"60ef35b5-2df4-436e-b925-da19a11c6328","system_id":"levelo_inurba_marseille","lat":43.32096,"lon":5.3677,"is_reserved":false,"is_disabled":false,"rental_uris":{"android":"levelo://app?vid=60ef35b5-2df4-436e-b925-da19a11c6328","ios":"levelo://app?vid=60ef35b5-2df4-436e-b925-da19a11c6328"},"vehicle_type_id":"4","last_reported":1781361630,"current_range_meters":6400,"station_id":"ce4bhrh2rcd13ifvqhug","pricing_plan_id":"cebpf4jnsgd1na2vs0mg"},{"bike_id":"bf601120-2f22-4bcd-8556-91c5f1ccc8b1","system_id":"levelo_inurba_marseille","lat":43.31405,"lon":5.38113,"is_reserved":false,"is_disabled":false,"rental_uris":{"android":"levelo://app?vid=bf601120-2f22-4bcd-8556-91c5f1ccc8b1","ios":"levelo://app?vid=bf601120-2f22-4bcd-8556-91c5f1ccc8b1"},"vehicle_type_id":"4","last_reported":1781361630,"current_range_meters":6400,"station_id":"","pricing_plan_id":"cebpf4jnsgd1na2vs0mg"},{"bike_id":"5b5ea2fb-3ba8-4c10-841c-ca34891a615c","system_id":"levelo_inurba_marseille","lat":43.29337,"lon":5.36403,"is_reserved":false,"is_disabled":false,"rental_uris":{"android":"levelo://app?vid=5b5ea2fb-3ba8-4c10-841c-ca34891a615c","ios":"levelo://app?vid=5b5ea2fb-3ba8-4c10-841c-ca34891a615c"},"vehicle_type_id":"4","last_reported":1781361630,"current_range_meters":6400,"station_id":"","pricing_plan_id":"cebpf4jnsgd1na2vs0mg"},{"bike_id":"b75b860e-f642-4d57-ae10-a57f8b9673f2","system_id":"levelo_inurba_marseille","lat":43.26232,"lon":5.38779,"is_reserved":false,"is_disabled":false,"rental_uris":{"android":"levelo://app?vid=b75b860e-f642-4d57-ae10-a57f8b9673f2","ios":"levelo://app?vid=b75b860e-f642-4d57-ae10-a57f8b9673f2"},"vehicle_type_id":"4","last_reported":1781361630,"current_range_meters":6400,"station_id":"st_d8gjfg747rts73coq3b0","pricing_plan_id":"cebpf4jnsgd1na2vs0mg"},{"bike_id":"be004f60-661b-45b9-a00d-02d877da6c38","system_id":"levelo_inurba_marseille","lat":43.25369,"lon":5.42291,"is_reserved":false,"is_disabled":false,"rental_uris":{"android":"levelo://app?vid=be004f60-661b-45b9-a00d-02d877da6c38","ios":"levelo://app?vid=be004f60-661b-45b9-a00d-02d877da6c38"},"vehicle_type_id":"4","last_reported":1781361630,"current_range_meters":6400,"station_id":"","pricing_plan_id":"cebpf4jnsgd1na2vs0mg"},{"bike_id":"4b84cc20-93d9-4e85-811a-ba432f50bc38","system_id":"levelo_inurba_marseille","lat":43.26186,"lon":5.38084,"is_reserved":false,"is_disabled":false,"rental_uris":{"android":"levelo://app?vid=4b84cc20-93d9-4e85-811a-ba432f50bc38","ios":"levelo://app?vid=4b84cc20-93d9-4e85-811a-ba432f50bc38"},"vehicle_type_id":"4","last_reported":1781361630,"current_range_meters":6400,"station_id":"","pricing_plan_id":"cebpf4jnsgd1na2vs0mg"},{"bike_id":"70074e2a-94c4-4bb0-bbca-a24f4105eb9f","system_id":"levelo_inurba_marseille","lat":43.29114,"lon":5.3841,"is_reserved":false,"is_disabled":false,"rental_uris":{"android":"levelo://app?vid=70074e2a-94c4-4bb0-bbca-a24f4105eb9f","ios":"levelo://app?vid=70074e2a-94c4-4bb0-bbca-a24f4105eb9f"},"vehicle_type_id":"4","last_reported":1781361630,"current_range_meters":6400,"station_id":"","pricing_plan_id":"cebpf4jnsgd1na2vs0mg"},{"bike_id":"132661cb-9d8a-4df2-82e1-13b15034cf8f","system_id":"levelo_inurba_marseille","lat":43.29249,"lon":5.38432,"is_reserved":false,"is_disabled":true,"rental_uris":{"android":"levelo://app?vid=132661cb-9d8a-4df2-82e1-13b15034cf8f","ios":"levelo://app?vid=132661cb-9d8a-4df2-82e1-13b15034cf8f"},"vehicle_type_id":"4","last_reported":1781361630,"current_range_meters":6400,"station_id":"ce4bh692rcd13ifvqea0","pricing_plan_id":"cebpf4jnsgd1na2vs0mg"},{"bike_id":"5f1ed053-7106-4e1b-a74e-27c1570fbe98","system_id":"levelo_inurba_marseille","lat":43.21379,"lon":5.34161,"is_reserved":false,"is_disabled":false,"rental_uris":{"android":"levelo://app?vid=5f1ed053-7106-4e1b-a74e-27c1570fbe98","ios":"levelo://app?vid=5f1ed053-7106-4e1b-a74e-27c1570fbe98"},"vehicle_type_id":"4","last_reported":1781361630,"current_range_meters":6400,"station_id":"","pricing_plan_id":"cebpf4jnsgd1na2vs0mg"},{"bike_id":"ae626b30-62e0-4f41-8d25-7028619219f7","system_id":"levelo_inurba_marseille","lat":43.24548,"lon":5.39521,"is_reserved":false,"is_disabled":false,"rental_uris":{"android":"levelo://app?vid=ae626b30-62e0-4f41-8d25-7028619219f7","ios":"levelo://app?vid=ae626b30-62e0-4f41-8d25-7028619219f7"},"vehicle_type_id":"4","last_reported":1781361630,"current_range_meters":6400,"station_id":"ce4bhlp2rcd13ifvqgjg","pricing_plan_id":"cebpf4jnsgd1na2vs0mg"},{"bike_id":"d9bbcfa4-a44d-4020-b0df-d2651b3bdf41","system_id":"levelo_inurba_marseille","lat":43.21179,"lon":5.35075,"is_reserved":false,"is_disabled":false,"rental_uris":{"android":"levelo://app?vid=d9bbcfa4-a44d-4020-b0df-d2651b3bdf41","ios":"levelo://app?vid=d9bbcfa4-a44d-4020-b0df-d2651b3bdf41"},"vehicle_type_id":"4","last_reported":1781361630,"current_range_meters":6400,"station_id":"st_cvj6sg6p6f1abm77japg","pricing_plan_id":"cebpf4jnsgd1na2vs0mg"},{"bike_id":"b334c7c0-8403-42e4-a52a-2327702cdbf3","system_id":"levelo_inurba_marseille","lat":43.26553,"lon":5.37288,"is_reserved":false,"is_disabled":false,"rental_uris":{"android":"levelo://app?vid=b334c7c0-8403-42e4-a52a-2327702cdbf3","ios":"levelo://app?vid=b334c7c0-8403-42e4-a52a-2327702cdbf3"},"vehicle_type_id":"4","last_reported":1781361630,"current_range_meters":6400,"station_id":"ce4bhg12rcd13ifvqf70","pricing_plan_id":"cebpf4jnsgd1na2vs0mg"},{"bike_id":"e4b23383-afb4-431b-81eb-35f8f5098547","system_id":"levelo_inurba_marseille","lat":43.28264,"lon":5.35081,"is_reserved":false,"is_disabled":false,"rental_uris":{"android":"levelo://app?vid=e4b23383-afb4-431b-81eb-35f8f5098547","ios":"levelo://app?vid=e4b23383-afb4-431b-81eb-35f8f5098547"},"vehicle_type_id":"4","last_reported":1781361630,"current_range_meters":6400,"station_id":"ce4bhbp2rcd13ifvqerg","pricing_plan_id":"cebpf4jnsgd1na2vs0mg"},{"bike_id":"3f68c679-477f-45fa-a374-e2a7bcf459be","system_id":"levelo_inurba_marseille","lat":43.21734,"lon":5.34606,"is_reserved":false,"is_disabled":false,"rental_uris":{"android":"levelo://app?vid=3f68c679-477f-45fa-a374-e2a7bcf459be","ios":"levelo://app?vid=3f68c679-477f-45fa-a374-e2a7bcf459be"},"vehicle_type_id":"4","last_reported":1781361630,"current_range_meters":6400,"station_id":"st_cvj6r9ubvosntc0bgbag","pricing_plan_id":"cebpf4jnsgd1na2vs0mg"},{"bike_id":"8f5b297e-a101-4dac-9b10-8764ca019902","system_id":"levelo_inurba_marseille","lat":43.313634,"lon":5.38489,"is_reserved":false,"is_disabled":true,"rental_uris":{"android":"levelo://app?vid=8f5b297e-a101-4dac-9b10-8764ca019902","ios":"levelo://app?vid=8f5b297e-a101-4dac-9b10-8764ca019902"},"vehicle_type_id":"4","last_reported":1781361630,"current_range_meters":6400,"station_id":"","pricing_plan_id":"cebpf4jnsgd1na2vs0mg"},{"bike_id":"c6555d54-519a-459c-a7d8-0f5386f527ae","system_id":"levelo_inurba_marseille","lat":43.2972,"lon":5.37414,"is_reserved":false,"is_disabled":false,"rental_uris":{"android":"levelo://app?vid=c6555d54-519a-459c-a7d8-0f5386f527ae","ios":"levelo://app?vid=c6555d54-519a-459c-a7d8-0f5386f527ae"},"vehicle_type_id":"4","last_reported":1781361630,"current_range_meters":6400,"station_id":"","pricing_plan_id":"cebpf4jnsgd1na2vs0mg"},{"bike_id":"f496ad3e-1c30-4d6a-a67e-81d2caffe5ed","system_id":"levelo_inurba_marseille","lat":43.30278,"lon":5.37691,"is_reserved":false,"is_disabled":false,"rental_uris":{"android":"levelo://app?vid=f496ad3e-1c30-4d6a-a67e-81d2caffe5ed","ios":"levelo://app?vid=f496ad3e-1c30-4d6a-a67e-81d2caffe5ed"},"vehicle_type_id":"4","last_reported":1781361630,"current_range_meters":6400,"station_id":"ce4bguh2rcd13ifvqcj0","pricing_plan_id":"cebpf4jnsgd1na2vs0mg"},{"bike_id":"6fb07b35-b88f-45ae-9e9e-ceed1b219374","system_id":"levelo_inurba_marseille","lat":43.32465,"lon":5.36579,"is_reserved":false,"is_disabled":true,"rental_uris":{"android":"levelo://app?vid=6fb07b35-b88f-45ae-9e9e-ceed1b219374","ios":"levelo://app?vid=6fb07b35-b88f-45ae-9e9e-ceed1b219374"},"vehicle_type_id":"4","last_reported":1781361630,"current_range_meters":6400,"station_id":"ce4bhs12rcd13ifvqhvg","pricing_plan_id":"cebpf4jnsgd1na2vs0mg"},{"bike_id":"3ac38b3a-df68-4ddb-8be7-f5ce5af56eb3","system_id":"levelo_inurba_marseille","lat":43.28999,"lon":5.35611,"is_reserved":false,"is_disabled":true,"rental_uris":{"android":"levelo://app?vid=3ac38b3a-df68-4ddb-8be7-f5ce5af56eb3","ios":"levelo://app?vid=3ac38b3a-df68-4ddb-8be7-f5ce5af56eb3"},"vehicle_type_id":"4","last_reported":1781361630,"current_range_meters":6400,"station_id":"ce4bhb92rcd13ifvqen0","pricing_plan_id":"cebpf4jnsgd1na2vs0mg"},{"bike_id":"df16696f-2a6c-4dd1-ac4c-994f5a39c984","system_id":"levelo_inurba_marseille","lat":43.261932,"lon":5.37447,"is_reserved":false,"is_disabled":false,"rental_uris":{"android":"levelo://app?vid=df16696f-2a6c-4dd1-ac4c-994f5a39c984","ios":"levelo://app?vid=df16696f-2a6c-4dd1-ac4c-994f5a39c984"},"vehicle_type_id":"4","last_reported":1781361630,"current_range_meters":6400,"station_id":"ce4bhgp2rcd13ifvqfc0","pricing_plan_id":"cebpf4jnsgd1na2vs0mg"},{"bike_id":"010f2b89-a7df-4f5e-beb5-08a293350360","system_id":"levelo_inurba_marseille","lat":43.23156,"lon":5.43704,"is_reserved":false,"is_disabled":false,"rental_uris":{"android":"levelo://app?vid=010f2b89-a7df-4f5e-beb5-08a293350360","ios":"levelo://app?vid=010f2b89-a7df-4f5e-beb5-08a293350360"},"vehicle_type_id":"4","last_reported":1781361630,"current_range_meters":6400,"station_id":"ce4bhmp2rcd13ifvqgog","pricing_plan_id":"cebpf4jnsgd1na2vs0mg"},{"bike_id":"f52e5c2c-8ddd-404d-8032-c7513a678f1a","system_id":"levelo_inurba_marseille","lat":43.28933,"lon":5.36633,"is_reserved":false,"is_disabled":true,"rental_uris":{"android":"levelo://app?vid=f52e5c2c-8ddd-404d-8032-c7513a678f1a","ios":"levelo://app?vid=f52e5c2c-8ddd-404d-8032-c7513a678f1a"},"vehicle_type_id":"4","last_reported":1781361630,"current_range_meters":6400,"station_id":"ce4bhap2rcd13ifvqek0","pricing_plan_id":"cebpf4jnsgd1na2vs0mg"},{"bike_id":"40cb0155-c556-484f-915b-b738bc0d2ea4","system_id":"levelo_inurba_marseille","lat":43.2119,"lon":5.35071,"is_reserved":false,"is_disabled":false,"rental_uris":{"android":"levelo://app?vid=40cb0155-c556-484f-915b-b738bc0d2ea4","ios":"levelo://app?vid=40cb0155-c556-484f-915b-b738bc0d2ea4"},"vehicle_type_id":"4","last_reported":1781361630,"current_range_meters":6400,"station_id":"st_cvj6sg6p6f1abm77japg","pricing_plan_id":"cebpf4jnsgd1na2vs0mg"},{"bike_id":"48321f0f-7988-499a-b12f-84cd26bc8f8e","system_id":"levelo_inurba_marseille","lat":43.24074,"lon":5.37759,"is_reserved":false,"is_disabled":false,"rental_uris":{"android":"levelo://app?vid=48321f0f-7988-499a-b12f-84cd26bc8f8e","ios":"levelo://app?vid=48321f0f-7988-499a-b12f-84cd26bc8f8e"},"vehicle_type_id":"4","last_reported":1781361630,"current_range_meters":6400,"station_id":"ce4bhnp2rcd13ifvqgvg","pricing_plan_id":"cebpf4jnsgd1na2vs0mg"},{"bike_id":"8150589d-aa57-493e-b46c-c7049ac03237","system_id":"levelo_inurba_marseille","lat":43.32429,"lon":5.39136,"is_reserved":false,"is_disabled":false,"rental_uris":{"android":"levelo://app?vid=8150589d-aa57-493e-b46c-c7049ac03237","ios":"levelo://app?vid=8150589d-aa57-493e-b46c-c7049ac03237"},"vehicle_type_id":"4","last_reported":1781361630,"current_range_meters":6400,"station_id":"","pricing_plan_id":"cebpf4jnsgd1na2vs0mg"},{"bike_id":"a8da77e4-dc80-4573-aff2-042d5a0489c3","system_id":"levelo_inurba_marseille","lat":43.3064,"lon":5.39878,"is_reserved":false,"is_disabled":false,"rental_uris":{"android":"levelo://app?vid=a8da77e4-dc80-4573-aff2-042d5a0489c3","ios":"levelo://app?vid=a8da77e4-dc80-4573-aff2-042d5a0489c3"},"vehicle_type_id":"4","last_reported":1781361630,"current_range_meters":6400,"station_id":"","pricing_plan_id":"cebpf4jnsgd1na2vs0mg"},{"bike_id":"45469403-b2c5-4518-9427-6181c2421365","system_id":"levelo_inurba_marseille","lat":43.22555,"lon":5.34836,"is_reserved":false,"is_disabled":false,"rental_uris":{"android":"levelo://app?vid=45469403-b2c5-4518-9427-6181c2421365","ios":"levelo://app?vid=45469403-b2c5-4518-9427-6181c2421365"},"vehicle_type_id":"4","last_reported":1781361630,"current_range_meters":6400,"station_id":"st_cvj5dfep6f1abm77gieg","pricing_plan_id":"cebpf4jnsgd1na2vs0mg"},{"bike_id":"0633c0b2-cd61-4107-9084-a3953fc3765a","system_id":"levelo_inurba_marseille","lat":43.29209,"lon":5.37656,"is_reserved":false,"is_disabled":true,"rental_uris":{"android":"levelo://app?vid=0633c0b2-cd61-4107-9084-a3953fc3765a","ios":"levelo://app?vid=0633c0b2-cd61-4107-9084-a3953fc3765a"},"vehicle_type_id":"4","last_reported":1781361630,"current_range_meters":6800,"station_id":"","pricing_plan_id":"cebpf4jnsgd1na2vs0mg"},{"bike_id":"5215f856-46a9-476f-933a-7b736a4a324f","system_id":"levelo_inurba_marseille","lat":43.28237,"lon":5.37364,"is_reserved":false,"is_disabled":false,"rental_uris":{"android":"levelo://app?vid=5215f856-46a9-476f-933a-7b736a4a324f","ios":"levelo://app?vid=5215f856-46a9-476f-933a-7b736a4a324f"},"vehicle_type_id":"4","last_reported":1781361630,"current_range_meters":6800,"station_id":"","pricing_plan_id":"cebpf4jnsgd1na2vs0mg"},{"bike_id":"35bec286-d577-4114-9ebd-7535edb3323c","system_id":"levelo_inurba_marseille","lat":43.28619,"lon":5.35115,"is_reserved":false,"is_disabled":false,"rental_uris":{"android":"levelo://app?vid=35bec286-d577-4114-9ebd-7535edb3323c","ios":"levelo://app?vid=35bec286-d577-4114-9ebd-7535edb3323c"},"vehicle_type_id":"4","last_reported":1781361630,"current_range_meters":6800,"station_id":"ce4bhch2rcd13ifvqeug","pricing_plan_id":"cebpf4jnsgd1na2vs0mg"},{"bike_id":"cc0b6bbb-3620-4343-9770-eb4b48740305","system_id":"levelo_inurba_marseille","lat":43.24159,"lon":5.36407,"is_reserved":false,"is_disabled":false,"rental_uris":{"android":"levelo://app?vid=cc0b6bbb-3620-4343-9770-eb4b48740305","ios":"levelo://app?vid=cc0b6bbb-3620-4343-9770-eb4b48740305"},"vehicle_type_id":"4","last_reported":1781361630,"current_range_meters":6800,"station_id":"cpo36qri1sfpv3e86is0","pricing_plan_id":"cebpf4jnsgd1na2vs0mg"},{"bike_id":"c43c92bc-16e7-4616-8292-b9ed941fbd42","system_id":"levelo_inurba_marseille","lat":43.2256,"lon":5.41626,"is_reserved":false,"is_disabled":false,"rental_uris":{"android":"levelo://app?vid=c43c92bc-16e7-4616-8292-b9ed941fbd42","ios":"levelo://app?vid=c43c92bc-16e7-4616-8292-b9ed941fbd42"},"vehicle_type_id":"4","last_reported":1781361630,"current_range_meters":6800,"station_id":"st_d2o4gvlbi1j2169b742g","pricing_plan_id":"cebpf4jnsgd1na2vs0mg"},{"bike_id":"d7f6f718-1d02-4a36-b488-3b555c7c0262","system_id":"levelo_inurba_marseille","lat":43.27374,"lon":5.3624,"is_reserved":false,"is_disabled":false,"rental_uris":{"android":"levelo://app?vid=d7f6f718-1d02-4a36-b488-3b555c7c0262","ios":"levelo://app?vid=d7f6f718-1d02-4a36-b488-3b555c7c0262"},"vehicle_type_id":"4","last_reported":1781361630,"current_range_meters":6800,"station_id":"ce4bhbh2rcd13ifvqeo0","pricing_plan_id":"cebpf4jnsgd1na2vs0mg"},{"bike_id":"2e296511-deb4-43a9-83f0-81592d7a3463","system_id":"levelo_inurba_marseille","lat":43.33196,"lon":5.37715,"is_reserved":false,"is_disabled":false,"rental_uris":{"android":"levelo://app?vid=2e296511-deb4-43a9-83f0-81592d7a3463","ios":"levelo://app?vid=2e296511-deb4-43a9-83f0-81592d7a3463"},"vehicle_type_id":"4","last_reported":1781361630,"current_range_meters":6800,"station_id":"","pricing_plan_id":"cebpf4jnsgd1na2vs0mg"},{"bike_id":"aa4d4832-791f-46b6-b904-76b96512b7a5","system_id":"levelo_inurba_marseille","lat":43.29595,"lon":5.43992,"is_reserved":false,"is_disabled":false,"rental_uris":{"android":"levelo://app?vid=aa4d4832-791f-46b6-b904-76b96512b7a5","ios":"levelo://app?vid=aa4d4832-791f-46b6-b904-76b96512b7a5"},"vehicle_type_id":"4","last_reported":1781361630,"current_range_meters":6800,"station_id":"","pricing_plan_id":"cebpf4jnsgd1na2vs0mg"},{"bike_id":"bc29c7d4-6340-4889-a3eb-b6e9d10cec6e","system_id":"levelo_inurba_marseille","lat":43.260279,"lon":5.375765,"is_reserved":false,"is_disabled":false,"rental_uris":{"android":"levelo://app?vid=bc29c7d4-6340-4889-a3eb-b6e9d10cec6e","ios":"levelo://app?vid=bc29c7d4-6340-4889-a3eb-b6e9d10cec6e"},"vehicle_type_id":"4","last_reported":1781361630,"current_range_meters":6800,"station_id":"ce4bhgh2rcd13ifvqfa0","pricing_plan_id":"cebpf4jnsgd1na2vs0mg"},{"bike_id":"3431c704-991e-4545-8eec-fa15e92ea294","system_id":"levelo_inurba_marseille","lat":43.31439,"lon":5.37379,"is_reserved":false,"is_disabled":true,"rental_uris":{"android":"levelo://app?vid=3431c704-991e-4545-8eec-fa15e92ea294","ios":"levelo://app?vid=3431c704-991e-4545-8eec-fa15e92ea294"},"vehicle_type_id":"4","last_reported":1781361630,"current_range_meters":6800,"station_id":"","pricing_plan_id":"cebpf4jnsgd1na2vs0mg"},{"bike_id":"74f7660a-9096-4feb-beb3-160be45c0ab9","system_id":"levelo_inurba_marseille","lat":43.24726,"lon":5.41863,"is_reserved":false,"is_disabled":false,"rental_uris":{"android":"levelo://app?vid=74f7660a-9096-4feb-beb3-160be45c0ab9","ios":"levelo://app?vid=74f7660a-9096-4feb-beb3-160be45c0ab9"},"vehicle_type_id":"4","last_reported":1781361630,"current_range_meters":6800,"station_id":"","pricing_plan_id":"cebpf4jnsgd1na2vs0mg"},{"bike_id":"12326527-aa04-43ed-8122-fab62005bcac","system_id":"levelo_inurba_marseille","lat":43.27372,"lon":5.36243,"is_reserved":false,"is_disabled":true,"rental_uris":{"android":"levelo://app?vid=12326527-aa04-43ed-8122-fab62005bcac","ios":"levelo://app?vid=12326527-aa04-43ed-8122-fab62005bcac"},"vehicle_type_id":"4","last_reported":1781361630,"current_range_meters":6800,"station_id":"ce4bhbh2rcd13ifvqeo0","pricing_plan_id":"cebpf4jnsgd1na2vs0mg"},{"bike_id":"fdc2f588-e9f9-4d5d-92c3-be1d373f5b1f","system_id":"levelo_inurba_marseille","lat":43.29269,"lon":5.36839,"is_reserved":false,"is_disabled":true,"rental_uris":{"android":"levelo://app?vid=fdc2f588-e9f9-4d5d-92c3-be1d373f5b1f","ios":"levelo://app?vid=fdc2f588-e9f9-4d5d-92c3-be1d373f5b1f"},"vehicle_type_id":"4","last_reported":1781361630,"current_range_meters":6800,"station_id":"ce4bhbp2rcd13ifvqesg","pricing_plan_id":"cebpf4jnsgd1na2vs0mg"},{"bike_id":"dc3e3e35-560a-41ac-8b92-c31e5b3f3434","system_id":"levelo_inurba_marseille","lat":43.26689,"lon":5.3927,"is_reserved":false,"is_disabled":false,"rental_uris":{"android":"levelo://app?vid=dc3e3e35-560a-41ac-8b92-c31e5b3f3434","ios":"levelo://app?vid=dc3e3e35-560a-41ac-8b92-c31e5b3f3434"},"vehicle_type_id":"4","last_reported":1781361630,"current_range_meters":6800,"station_id":"","pricing_plan_id":"cebpf4jnsgd1na2vs0mg"},{"bike_id":"d9df716e-04c3-410e-a684-88b6b88fa6c5","system_id":"levelo_inurba_marseille","lat":43.24386,"lon":5.37085,"is_reserved":false,"is_disabled":true,"rental_uris":{"android":"levelo://app?vid=d9df716e-04c3-410e-a684-88b6b88fa6c5","ios":"levelo://app?vid=d9df716e-04c3-410e-a684-88b6b88fa6c5"},"vehicle_type_id":"4","last_reported":1781361630,"current_range_meters":6800,"station_id":"ce4bhhh2rcd13ifvqfk0","pricing_plan_id":"cebpf4jnsgd1na2vs0mg"},{"bike_id":"86745466-0236-4fcb-9a90-7aec309bb231","system_id":"levelo_inurba_marseille","lat":43.30746,"lon":5.42443,"is_reserved":false,"is_disabled":false,"rental_uris":{"android":"levelo://app?vid=86745466-0236-4fcb-9a90-7aec309bb231","ios":"levelo://app?vid=86745466-0236-4fcb-9a90-7aec309bb231"},"vehicle_type_id":"4","last_reported":1781361630,"current_range_meters":6800,"station_id":"st_cvj6ca6bvosntc0bfgr0","pricing_plan_id":"cebpf4jnsgd1na2vs0mg"},{"bike_id":"74e00bd3-da7b-4234-87fe-4c6875a04c9c","system_id":"levelo_inurba_marseille","lat":43.22565,"lon":5.41646,"is_reserved":false,"is_disabled":false,"rental_uris":{"android":"levelo://app?vid=74e00bd3-da7b-4234-87fe-4c6875a04c9c","ios":"levelo://app?vid=74e00bd3-da7b-4234-87fe-4c6875a04c9c"},"vehicle_type_id":"4","last_reported":1781361630,"current_range_meters":6800,"station_id":"st_d2o4gvlbi1j2169b742g","pricing_plan_id":"cebpf4jnsgd1na2vs0mg"},{"bike_id":"27b60c6f-8fc4-4148-94f2-31670379e98b","system_id":"levelo_inurba_marseille","lat":43.255,"lon":5.37649,"is_reserved":false,"is_disabled":false,"rental_uris":{"android":"levelo://app?vid=27b60c6f-8fc4-4148-94f2-31670379e98b","ios":"levelo://app?vid=27b60c6f-8fc4-4148-94f2-31670379e98b"},"vehicle_type_id":"4","last_reported":1781361630,"current_range_meters":6800,"station_id":"ce4bhh12rcd13ifvqff0","pricing_plan_id":"cebpf4jnsgd1na2vs0mg"},{"bike_id":"f907380b-c17a-48e6-a4e9-9545e5b4ec45","system_id":"levelo_inurba_marseille","lat":43.24166,"lon":5.36395,"is_reserved":false,"is_disabled":false,"rental_uris":{"android":"levelo://app?vid=f907380b-c17a-48e6-a4e9-9545e5b4ec45","ios":"levelo://app?vid=f907380b-c17a-48e6-a4e9-9545e5b4ec45"},"vehicle_type_id":"4","last_reported":1781361630,"current_range_meters":6800,"station_id":"cpo36qri1sfpv3e86is0","pricing_plan_id":"cebpf4jnsgd1na2vs0mg"},{"bike_id":"6f7c8d87-a3f8-4ee3-8d7c-363da3b910be","system_id":"levelo_inurba_marseille","lat":43.28265,"lon":5.35076,"is_reserved":false,"is_disabled":false,"rental_uris":{"android":"levelo://app?vid=6f7c8d87-a3f8-4ee3-8d7c-363da3b910be","ios":"levelo://app?vid=6f7c8d87-a3f8-4ee3-8d7c-363da3b910be"},"vehicle_type_id":"4","last_reported":1781361630,"current_range_meters":6800,"station_id":"ce4bhbp2rcd13ifvqerg","pricing_plan_id":"cebpf4jnsgd1na2vs0mg"},{"bike_id":"e62a278a-0c00-4e53-b813-436d6db35c4d","system_id":"levelo_inurba_marseille","lat":43.26209,"lon":5.37437,"is_reserved":false,"is_disabled":false,"rental_uris":{"android":"levelo://app?vid=e62a278a-0c00-4e53-b813-436d6db35c4d","ios":"levelo://app?vid=e62a278a-0c00-4e53-b813-436d6db35c4d"},"vehicle_type_id":"4","last_reported":1781361630,"current_range_meters":6800,"station_id":"ce4bhgp2rcd13ifvqfc0","pricing_plan_id":"cebpf4jnsgd1na2vs0mg"},{"bike_id":"05953677-f427-4e3b-9693-6fa8817f0aee","system_id":"levelo_inurba_marseille","lat":43.24961,"lon":5.40494,"is_reserved":false,"is_disabled":false,"rental_uris":{"android":"levelo://app?vid=05953677-f427-4e3b-9693-6fa8817f0aee","ios":"levelo://app?vid=05953677-f427-4e3b-9693-6fa8817f0aee"},"vehicle_type_id":"4","last_reported":1781361630,"current_range_meters":6800,"station_id":"st_d2ngiaodas8pm72gd1h0","pricing_plan_id":"cebpf4jnsgd1na2vs0mg"},{"bike_id":"18ac4c20-a244-42f6-b91f-ac594a1cc529","system_id":"levelo_inurba_marseille","lat":43.31987,"lon":5.3817,"is_reserved":false,"is_disabled":false,"rental_uris":{"android":"levelo://app?vid=18ac4c20-a244-42f6-b91f-ac594a1cc529","ios":"levelo://app?vid=18ac4c20-a244-42f6-b91f-ac594a1cc529"},"vehicle_type_id":"4","last_reported":1781361630,"current_range_meters":6800,"station_id":"ce4bhr12rcd13ifvqhpg","pricing_plan_id":"cebpf4jnsgd1na2vs0mg"},{"bike_id":"e5777fcd-75b6-4167-93ec-f3dfb9895090","system_id":"levelo_inurba_marseille","lat":43.21742,"lon":5.34607,"is_reserved":false,"is_disabled":false,"rental_uris":{"android":"levelo://app?vid=e5777fcd-75b6-4167-93ec-f3dfb9895090","ios":"levelo://app?vid=e5777fcd-75b6-4167-93ec-f3dfb9895090"},"vehicle_type_id":"4","last_reported":1781361630,"current_range_meters":6800,"station_id":"st_cvj6r9ubvosntc0bgbag","pricing_plan_id":"cebpf4jnsgd1na2vs0mg"},{"bike_id":"a978a716-1e2d-4970-afb4-cac444d19730","system_id":"levelo_inurba_marseille","lat":43.23138,"lon":5.43728,"is_reserved":false,"is_disabled":false,"rental_uris":{"android":"levelo://app?vid=a978a716-1e2d-4970-afb4-cac444d19730","ios":"levelo://app?vid=a978a716-1e2d-4970-afb4-cac444d19730"},"vehicle_type_id":"4","last_reported":1781361630,"current_range_meters":6800,"station_id":"ce4bhmp2rcd13ifvqgog","pricing_plan_id":"cebpf4jnsgd1na2vs0mg"},{"bike_id":"ef048e93-3c21-4aea-ad20-87c8427753a3","system_id":"levelo_inurba_marseille","lat":43.28861,"lon":5.42547,"is_reserved":false,"is_disabled":false,"rental_uris":{"android":"levelo://app?vid=ef048e93-3c21-4aea-ad20-87c8427753a3","ios":"levelo://app?vid=ef048e93-3c21-4aea-ad20-87c8427753a3"},"vehicle_type_id":"4","last_reported":1781361630,"current_range_meters":6800,"station_id":"st_d3b462108ojc7389ooeg","pricing_plan_id":"cebpf4jnsgd1na2vs0mg"},{"bike_id":"934c47dc-f126-4a8b-a5c7-50c9e2467e27","system_id":"levelo_inurba_marseille","lat":43.30115,"lon":5.43122,"is_reserved":false,"is_disabled":false,"rental_uris":{"android":"levelo://app?vid=934c47dc-f126-4a8b-a5c7-50c9e2467e27","ios":"levelo://app?vid=934c47dc-f126-4a8b-a5c7-50c9e2467e27"},"vehicle_type_id":"4","last_reported":1781361630,"current_range_meters":6800,"station_id":"st_d3js3co5814s73ftftug","pricing_plan_id":"cebpf4jnsgd1na2vs0mg"},{"bike_id":"6e7b60d9-d329-4a53-98cb-624fdc356f92","system_id":"levelo_inurba_marseille","lat":43.24945,"lon":5.40491,"is_reserved":false,"is_disabled":false,"rental_uris":{"android":"levelo://app?vid=6e7b60d9-d329-4a53-98cb-624fdc356f92","ios":"levelo://app?vid=6e7b60d9-d329-4a53-98cb-624fdc356f92"},"vehicle_type_id":"4","last_reported":1781361630,"current_range_meters":6800,"station_id":"st_d2ngiaodas8pm72gd1h0","pricing_plan_id":"cebpf4jnsgd1na2vs0mg"},{"bike_id":"3f683387-f7ec-4b9f-9801-ff63896077b4","system_id":"levelo_inurba_marseille","lat":43.23928,"lon":5.36538,"is_reserved":false,"is_disabled":false,"rental_uris":{"android":"levelo://app?vid=3f683387-f7ec-4b9f-9801-ff63896077b4","ios":"levelo://app?vid=3f683387-f7ec-4b9f-9801-ff63896077b4"},"vehicle_type_id":"4","last_reported":1781361630,"current_range_meters":6800,"station_id":"","pricing_plan_id":"cebpf4jnsgd1na2vs0mg"},{"bike_id":"5bc53581-ac65-49e4-b56b-f1ece78f0664","system_id":"levelo_inurba_marseille","lat":43.26679,"lon":5.38276,"is_reserved":false,"is_disabled":true,"rental_uris":{"android":"levelo://app?vid=5bc53581-ac65-49e4-b56b-f1ece78f0664","ios":"levelo://app?vid=5bc53581-ac65-49e4-b56b-f1ece78f0664"},"vehicle_type_id":"4","last_reported":1781361630,"current_range_meters":6800,"station_id":"ce4bhg92rcd13ifvqf90","pricing_plan_id":"cebpf4jnsgd1na2vs0mg"},{"bike_id":"fc2ec059-43b8-43fd-a9b3-db55cc1fce07","system_id":"levelo_inurba_marseille","lat":43.21744,"lon":5.34616,"is_reserved":false,"is_disabled":false,"rental_uris":{"android":"levelo://app?vid=fc2ec059-43b8-43fd-a9b3-db55cc1fce07","ios":"levelo://app?vid=fc2ec059-43b8-43fd-a9b3-db55cc1fce07"},"vehicle_type_id":"4","last_reported":1781361630,"current_range_meters":6800,"station_id":"st_cvj6r9ubvosntc0bgbag","pricing_plan_id":"cebpf4jnsgd1na2vs0mg"},{"bike_id":"9f0be29b-c3fc-43d2-88d9-7ef79e23fe90","system_id":"levelo_inurba_marseille","lat":43.24541,"lon":5.39531,"is_reserved":false,"is_disabled":false,"rental_uris":{"android":"levelo://app?vid=9f0be29b-c3fc-43d2-88d9-7ef79e23fe90","ios":"levelo://app?vid=9f0be29b-c3fc-43d2-88d9-7ef79e23fe90"},"vehicle_type_id":"4","last_reported":1781361630,"current_range_meters":7200,"station_id":"ce4bhlp2rcd13ifvqgjg","pricing_plan_id":"cebpf4jnsgd1na2vs0mg"},{"bike_id":"cf0c68e9-108f-4cb2-8999-26e59936ff8c","system_id":"levelo_inurba_marseille","lat":43.23059,"lon":5.35497,"is_reserved":false,"is_disabled":false,"rental_uris":{"android":"levelo://app?vid=cf0c68e9-108f-4cb2-8999-26e59936ff8c","ios":"levelo://app?vid=cf0c68e9-108f-4cb2-8999-26e59936ff8c"},"vehicle_type_id":"4","last_reported":1781361630,"current_range_meters":7200,"station_id":"cpo3342slgdg3j2ifvpg","pricing_plan_id":"cebpf4jnsgd1na2vs0mg"},{"bike_id":"7750fed4-d122-41f8-ad9e-d930d3ad1cf1","system_id":"levelo_inurba_marseille","lat":43.27298,"lon":5.40063,"is_reserved":false,"is_disabled":false,"rental_uris":{"android":"levelo://app?vid=7750fed4-d122-41f8-ad9e-d930d3ad1cf1","ios":"levelo://app?vid=7750fed4-d122-41f8-ad9e-d930d3ad1cf1"},"vehicle_type_id":"4","last_reported":1781361630,"current_range_meters":7200,"station_id":"","pricing_plan_id":"cebpf4jnsgd1na2vs0mg"},{"bike_id":"91e51c37-1a79-4189-8377-f276404c68a3","system_id":"levelo_inurba_marseille","lat":43.23388,"lon":5.41242,"is_reserved":false,"is_disabled":false,"rental_uris":{"android":"levelo://app?vid=91e51c37-1a79-4189-8377-f276404c68a3","ios":"levelo://app?vid=91e51c37-1a79-4189-8377-f276404c68a3"},"vehicle_type_id":"4","last_reported":1781361630,"current_range_meters":7200,"station_id":"st_d75pvndhf9lc73cqq3eg","pricing_plan_id":"cebpf4jnsgd1na2vs0mg"},{"bike_id":"edb61a01-75c0-481c-aff3-a693a1675bfd","system_id":"levelo_inurba_marseille","lat":43.2119,"lon":5.35083,"is_reserved":false,"is_disabled":false,"rental_uris":{"android":"levelo://app?vid=edb61a01-75c0-481c-aff3-a693a1675bfd","ios":"levelo://app?vid=edb61a01-75c0-481c-aff3-a693a1675bfd"},"vehicle_type_id":"4","last_reported":1781361630,"current_range_meters":7200,"station_id":"st_cvj6sg6p6f1abm77japg","pricing_plan_id":"cebpf4jnsgd1na2vs0mg"},{"bike_id":"195f1d1e-36bb-48d2-9a0b-ee215f42c586","system_id":"levelo_inurba_marseille","lat":43.24467,"lon":5.4253,"is_reserved":false,"is_disabled":false,"rental_uris":{"android":"levelo://app?vid=195f1d1e-36bb-48d2-9a0b-ee215f42c586","ios":"levelo://app?vid=195f1d1e-36bb-48d2-9a0b-ee215f42c586"},"vehicle_type_id":"4","last_reported":1781361630,"current_range_meters":7200,"station_id":"st_d4a3vfp97mjs738cd8kg","pricing_plan_id":"cebpf4jnsgd1na2vs0mg"},{"bike_id":"a40f1285-a909-40e1-add5-f6bd88a5ab8e","system_id":"levelo_inurba_marseille","lat":43.23894,"lon":5.37449,"is_reserved":false,"is_disabled":false,"rental_uris":{"android":"levelo://app?vid=a40f1285-a909-40e1-add5-f6bd88a5ab8e","ios":"levelo://app?vid=a40f1285-a909-40e1-add5-f6bd88a5ab8e"},"vehicle_type_id":"4","last_reported":1781361630,"current_range_meters":7200,"station_id":"st_d6sm7csbq4hs73f8fpjg","pricing_plan_id":"cebpf4jnsgd1na2vs0mg"},{"bike_id":"b3bcd638-14e8-4ad2-a35a-3684157aed91","system_id":"levelo_inurba_marseille","lat":43.28609,"lon":5.35106,"is_reserved":false,"is_disabled":false,"rental_uris":{"android":"levelo://app?vid=b3bcd638-14e8-4ad2-a35a-3684157aed91","ios":"levelo://app?vid=b3bcd638-14e8-4ad2-a35a-3684157aed91"},"vehicle_type_id":"4","last_reported":1781361630,"current_range_meters":7200,"station_id":"ce4bhch2rcd13ifvqeug","pricing_plan_id":"cebpf4jnsgd1na2vs0mg"},