{"last_updated":1702638357,"ttl":30,"version":"2.2","data":{"bikes":[{"bike_id":"4d1dcfbe-1881-41ad-a27c-702008fccaa3","system_id":"levelo_inurba_marseille","lat":43.31341,"lon":5.367098,"is_reserved":false,"is_disabled":false,"rental_uris":{"android":"levelo://app?vid=4d1dcfbe-1881-41ad-a27c-702008fccaa3","ios":"levelo://app?vid=4d1dcfbe-1881-41ad-a27c-702008fccaa3"},"vehicle_type_id":"4","last_reported":1702638357,"current_range_meters":25600,"station_id":"ce4bgr92rcd13ifvqc6g","pricing_plan_id":"free"},{"bike_id":"500b1cc1-06b5-4a49-b594-610cc505f678","system_id":"levelo_inurba_marseille","lat":43.31341,"lon":5.367098,"is_reserved":false,"is_disabled":false,"rental_uris":{"android":"levelo://app?vid=500b1cc1-06b5-4a49-b594-610cc505f678","ios":"levelo://app?vid=500b1cc1-06b5-4a49-b594-610cc505f678"},"vehicle_type_id":"4","last_reported":1702638357,"current_range_meters":31200,"station_id":"ce4bgr92rcd13ifvqc6g","pricing_plan_id":"free"},{"bike_id":"8bef25e2-ab22-4025-a50c-8f0f6c8031eb","system_id":"levelo_inurba_marseille","lat":43.313391,"lon":5.36706,"is_reserved":false,"is_disabled":false,"rental_uris":{"android":"levelo://app?vid=8bef25e2-ab22-4025-a50c-8f0f6c8031eb","ios":"levelo://app?vid=8bef25e2-ab22-4025-a50c-8f0f6c8031eb"},"vehicle_type_id":"4","last_reported":1702638357,"current_range_meters":31600,"station_id":"ce4bgr92rcd13ifvqc6g","pricing_plan_id":"free"},{"bike_id":"ed0cc9b9-ef2e-400a-ae2d-91d5657b993a","system_id":"levelo_inurba_marseille","lat":43.31341,"lon":5.367098,"is_reserved":false,"is_disabled":false,"rental_uris":{"android":"levelo://app?vid=ed0cc9b9-ef2e-400a-ae2d-91d5657b993a","ios":"levelo://app?vid=ed0cc9b9-ef2e-400a-ae2d-91d5657b993a"},"vehicle_type_id":"4","last_reported":1702638357,"current_range_meters":20000,"station_id":"ce4bgr92rcd13ifvqc6g","pricing_plan_id":"free"},{"bike_id":"1e4b2a8a-079c-47e6-aed5-2e90b9a3d67e","system_id":"levelo_inurba_marseille","lat":43.313391,"lon":5.36706,"is_reserved":false,"is_disabled":false,"rental_uris":{"android":"levelo://app?vid=1e4b2a8a-079c-47e6-aed5-2e90b9a3d67e","ios":"levelo://app?vid=1e4b2a8a-079c-47e6-aed5-2e90b9a3d67e"},"vehicle_type_id":"4","last_reported":1702638357,"current_range_meters":31600,"station_id":"ce4bgr92rcd13ifvqc6g","pricing_plan_id":"free"},{"bike_id":"ceb6a469-dba4-455c-b68d-e3ae215e36bb","system_id":"levelo_inurba_marseille","lat":43.313391,"lon":5.36706,"is_reserved":false,"is_disabled":false,"rental_uris":{"android":"levelo://app?vid=ceb6a469-dba4-455c-b68d-e3ae215e36bb","ios":"levelo://app?vid=ceb6a469-dba4-455c-b68d-e3ae215e36bb"},"vehicle_type_id":"4","last_reported":1702638357,"current_range_meters":24400,"station_id":"ce4bgr92rcd13ifvqc6g","pricing_plan_id":"free"},{"bike_id":"d7015638-27cb-427d-85c5-3a2b92f9a31f","system_id":"levelo_inurba_marseille","lat":43.31341,"lon":5.367098,"is_reserved":false,"is_disabled":false,"rental_uris":{"android":"levelo://app?vid=d7015638-27cb-427d-85c5-3a2b92f9a31f","ios":"levelo://app?vid=d7015638-27cb-427d-85c5-3a2b92f9a31f"},"vehicle_type_id":"4","last_reported":1702638357,"current_range_meters":28000,"station_id":"ce4bgr92rcd13ifvqc6g","pricing_plan_id":"free"},{"bike_id":"c87e6ef7-0c44-4991-87f4-1a9e88b746f7","system_id":"levelo_inurba_marseille","lat":43.313391,"lon":5.36706,"is_reserved":false,"is_disabled":false,"rental_uris":{"android":"levelo://app?vid=c87e6ef7-0c44-4991-87f4-1a9e88b746f7","ios":"levelo://app?vid=c87e6ef7-0c44-4991-87f4-1a9e88b746f7"},"vehicle_type_id":"4","last_reported":1702638357,"current_range_meters":23600,"station_id":"ce4bgr92rcd13ifvqc6g","pricing_plan_id":"free"},{"bike_id":"cc70a5cb-e6f0-49b4-8e2a-5191d608ab1e","system_id":"levelo_inurba_marseille","lat":43.309039,"lon":5.371797,"is_reserved":false,"is_disabled":false,"rental_uris":{"android":"levelo://app?vid=cc70a5cb-e6f0-49b4-8e2a-5191d608ab1e","ios":"levelo://app?vid=cc70a5cb-e6f0-49b4-8e2a-5191d608ab1e"},"vehicle_type_id":"4","last_reported":1702638357,"current_range_meters":14400,"station_id":"ce4bguh2rcd13ifvqckg","pricing_plan_id":"free"},{"bike_id":"3f8b821f-e430-4a35-bf14-f8b6e777ea11","system_id":"levelo_inurba_marseille","lat":43.313939,"lon":5.375306,"is_reserved":false,"is_disabled":false,"rental_uris":{"android":"levelo://app?vid=3f8b821f-e430-4a35-bf14-f8b6e777ea11","ios":"levelo://app?vid=3f8b821f-e430-4a35-bf14-f8b6e777ea11"},"vehicle_type_id":"4","last_reported":1702638357,"current_range_meters":400,"station_id":"","pricing_plan_id":"free"},{"bike_id":"15ad1286-6285-4efb-8d0d-dfef3d579974","system_id":"levelo_inurba_marseille","lat":43.305712,"lon":5.365641,"is_reserved":false,"is_disabled":false,"rental_uris":{"android":"levelo://app?vid=15ad1286-6285-4efb-8d0d-dfef3d579974","ios":"levelo://app?vid=15ad1286-6285-4efb-8d0d-dfef3d579974"},"vehicle_type_id":"4","last_reported":1702638357,"current_range_meters":17200,"station_id":"ce4bgs12rcd13ifvqcag","pricing_plan_id":"free"},{"bike_id":"9a33b5f4-5f6d-4277-9f95-1588f17c277d","system_id":"levelo_inurba_marseille","lat":43.305712,"lon":5.365641,"is_reserved":false,"is_disabled":false,"rental_uris":{"android":"levelo://app?vid=9a33b5f4-5f6d-4277-9f95-1588f17c277d","ios":"levelo://app?vid=9a33b5f4-5f6d-4277-9f95-1588f17c277d"},"vehicle_type_id":"4","last_reported":1702638357,"current_range_meters":24000,"station_id":"ce4bgs12rcd13ifvqcag","pricing_plan_id":"free"},{"bike_id":"35b1af0c-c673-4213-a0b4-8f28dbb55119","system_id":"levelo_inurba_marseille","lat":43.305712,"lon":5.365641,"is_reserved":false,"is_disabled":false,"rental_uris":{"android":"levelo://app?vid=35b1af0c-c673-4213-a0b4-8f28dbb55119","ios":"levelo://app?vid=35b1af0c-c673-4213-a0b4-8f28dbb55119"},"vehicle_type_id":"4","last_reported":1702638357,"current_range_meters":24400,"station_id":"ce4bgs12rcd13ifvqcag","pricing_plan_id":"free"},{"bike_id":"a753d17b-a425-4fc2-b70c-ffb7cfc13771","system_id":"levelo_inurba_marseille","lat":43.305712,"lon":5.365641,"is_reserved":false,"is_disabled":false,"rental_uris":{"android":"levelo://app?vid=a753d17b-a425-4fc2-b70c-ffb7cfc13771","ios":"levelo://app?vid=a753d17b-a425-4fc2-b70c-ffb7cfc13771"},"vehicle_type_id":"4","last_reported":1702638357,"current_range_meters":32000,"station_id":"ce4bgs12rcd13ifvqcag","pricing_plan_id":"free"},{"bike_id":"dae3d371-2cad-40b1-928f-17d2b34f6615","system_id":"levelo_inurba_marseille","lat":43.305469,"lon":5.367023,"is_reserved":false,"is_disabled":false,"rental_uris":{"android":"levelo://app?vid=dae3d371-2cad-40b1-928f-17d2b34f6615","ios":"levelo://app?vid=dae3d371-2cad-40b1-928f-17d2b34f6615"},"vehicle_type_id":"4","last_reported":1702638357,"current_range_meters":31200,"station_id":"ce4bgrp2rcd13ifvqc9g","pricing_plan_id":"free"},{"bike_id":"0e903464-c6e7-471f-adf3-3367cce0ba5f","system_id":"levelo_inurba_marseille","lat":43.305712,"lon":5.365641,"is_reserved":false,"is_disabled":false,"rental_uris":{"android":"levelo://app?vid=0e903464-c6e7-471f-adf3-3367cce0ba5f","ios":"levelo://app?vid=0e903464-c6e7-471f-adf3-3367cce0ba5f"},"vehicle_type_id":"4","last_reported":1702638357,"current_range_meters":28800,"station_id":"ce4bgs12rcd13ifvqcag","pricing_plan_id":"free"},{"bike_id":"157a8f3a-68c6-4c32-aea5-7295b93ec660","system_id":"levelo_inurba_marseille","lat":43.305368,"lon":5.367343,"is_reserved":false,"is_disabled":false,"rental_uris":{"android":"levelo://app?vid=157a8f3a-68c6-4c32-aea5-7295b93ec660","ios":"levelo://app?vid=157a8f3a-68c6-4c32-aea5-7295b93ec660"},"vehicle_type_id":"4","last_reported":1702638357,"current_range_meters":23600,"station_id":"ce4bgrp2rcd13ifvqc9g","pricing_plan_id":"free"},{"bike_id":"b9a61213-f60b-4899-9f1f-9f5ad9c86497","system_id":"levelo_inurba_marseille","lat":43.305368,"lon":5.367343,"is_reserved":false,"is_disabled":false,"rental_uris":{"android":"levelo://app?vid=b9a61213-f60b-4899-9f1f-9f5ad9c86497","ios":"levelo://app?vid=b9a61213-f60b-4899-9f1f-9f5ad9c86497"},"vehicle_type_id":"4","last_reported":1702638357,"current_range_meters":24800,"station_id":"ce4bgrp2rcd13ifvqc9g","pricing_plan_id":"free"},{"bike_id":"a19fae66-f288-441b-a1e4-bd178918b39b","system_id":"levelo_inurba_marseille","lat":43.305427,"lon":5.367033,"is_reserved":false,"is_disabled":false,"rental_uris":{"android":"levelo://app?vid=a19fae66-f288-441b-a1e4-bd178918b39b","ios":"levelo://app?vid=a19fae66-f288-441b-a1e4-bd178918b39b"},"vehicle_type_id":"4","last_reported":1702638357,"current_range_meters":20400,"station_id":"ce4bgrp2rcd13ifvqc9g","pricing_plan_id":"free"},{"bike_id":"203c13d6-1f55-4a80-93d1-b8667e889f0c","system_id":"levelo_inurba_marseille","lat":43.305425,"lon":5.36699,"is_reserved":false,"is_disabled":false,"rental_uris":{"android":"levelo://app?vid=203c13d6-1f55-4a80-93d1-b8667e889f0c","ios":"levelo://app?vid=203c13d6-1f55-4a80-93d1-b8667e889f0c"},"vehicle_type_id":"4","last_reported":1702638357,"current_range_meters":25600,"station_id":"ce4bgrp2rcd13ifvqc9g","pricing_plan_id":"free"},{"bike_id":"602456bc-d701-4de1-a3ca-a55708f38cae","system_id":"levelo_inurba_marseille","lat":43.305423,"lon":5.366998,"is_reserved":false,"is_disabled":false,"rental_uris":{"android":"levelo://app?vid=602456bc-d701-4de1-a3ca-a55708f38cae","ios":"levelo://app?vid=602456bc-d701-4de1-a3ca-a55708f38cae"},"vehicle_type_id":"4","last_reported":1702638357,"current_range_meters":20400,"station_id":"ce4bgrp2rcd13ifvqc9g","pricing_plan_id":"free"},{"bike_id":"afbf9e4e-cc06-4eee-9749-b07bcec5e4c8","system_id":"levelo_inurba_marseille","lat":43.305712,"lon":5.365641,"is_reserved":false,"is_disabled":false,"rental_uris":{"android":"levelo://app?vid=afbf9e4e-cc06-4eee-9749-b07bcec5e4c8","ios":"levelo://app?vid=afbf9e4e-cc06-4eee-9749-b07bcec5e4c8"},"vehicle_type_id":"4","last_reported":1702638357,"current_range_meters":25600,"station_id":"ce4bgs12rcd13ifvqcag","pricing_plan_id":"free"},{"bike_id":"c995463d-990a-49f4-9bb5-81f12a64b9c8","system_id":"levelo_inurba_marseille","lat":43.305714,"lon":5.365633,"is_reserved":false,"is_disabled":false,"rental_uris":{"android":"levelo://app?vid=c995463d-990a-49f4-9bb5-81f12a64b9c8","ios":"levelo://app?vid=c995463d-990a-49f4-9bb5-81f12a64b9c8"},"vehicle_type_id":"4","last_reported":1702638357,"current_range_meters":23200,"station_id":"ce4bgs12rcd13ifvqcag","pricing_plan_id":"free"},{"bike_id":"18a9f65f-e97c-40ee-bcc3-1b1c7dd5dd34","system_id":"levelo_inurba_marseille","lat":43.305714,"lon":5.365633,"is_reserved":false,"is_disabled":false,"rental_uris":{"android":"levelo://app?vid=18a9f65f-e97c-40ee-bcc3-1b1c7dd5dd34","ios":"levelo://app?vid=18a9f65f-e97c-40ee-bcc3-1b1c7dd5dd34"},"vehicle_type_id":"4","last_reported":1702638357,"current_range_meters":31600,"station_id":"ce4bgs12rcd13ifvqcag","pricing_plan_id":"free"},{"bike_id":"7c13521e-4a84-47bd-9a47-41bfa5e48b5a","system_id":"levelo_inurba_marseille","lat":43.30535,"lon":5.366967,"is_reserved":false,"is_disabled":false,"rental_uris":{"android":"levelo://app?vid=7c13521e-4a84-47bd-9a47-41bfa5e48b5a","ios":"levelo://app?vid=7c13521e-4a84-47bd-9a47-41bfa5e48b5a"},"vehicle_type_id":"4","last_reported":1702638357,"current_range_meters":23200,"station_id":"ce4bgrp2rcd13ifvqc9g","pricing_plan_id":"free"},{"bike_id":"8c6c4dc6-846c-4b18-a416-2708d49d308f","system_id":"levelo_inurba_marseille","lat":43.305706,"lon":5.365654,"is_reserved":false,"is_disabled":false,"rental_uris":{"android":"levelo://app?vid=8c6c4dc6-846c-4b18-a416-2708d49d308f","ios":"levelo://app?vid=8c6c4dc6-846c-4b18-a416-2708d49d308f"},"vehicle_type_id":"4","last_reported":1702638357,"current_range_meters":19200,"station_id":"ce4bgs12rcd13ifvqcag","pricing_plan_id":"free"},{"bike_id":"14e93773-de84-4db5-b826-dff4c80b188c","system_id":"levelo_inurba_marseille","lat":43.305368,"lon":5.367343,"is_reserved":false,"is_disabled":false,"rental_uris":{"android":"levelo://app?vid=14e93773-de84-4db5-b826-dff4c80b188c","ios":"levelo://app?vid=14e93773-de84-4db5-b826-dff4c80b188c"},"vehicle_type_id":"4","last_reported":1702638357,"current_range_meters":19600,"station_id":"ce4bgrp2rcd13ifvqc9g","pricing_plan_id":"free"},{"bike_id":"fee8e7aa-6531-428f-a30c-a6bc6c858aa9","system_id":"levelo_inurba_marseille","lat":43.305714,"lon":5.365633,"is_reserved":false,"is_disabled":false,"rental_uris":{"android":"levelo://app?vid=fee8e7aa-6531-428f-a30c-a6bc6c858aa9","ios":"levelo://app?vid=fee8e7aa-6531-428f-a30c-a6bc6c858aa9"},"vehicle_type_id":"4","last_reported":1702638357,"current_range_meters":22800,"station_id":"ce4bgs12rcd13ifvqcag","pricing_plan_id":"free"},{"bike_id":"aacfe432-6ac6-4f6e-9473-0a63d1707f5c","system_id":"levelo_inurba_marseille","lat":43.305706,"lon":5.365654,"is_reserved":false,"is_disabled":false,"rental_uris":{"android":"levelo://app?vid=aacfe432-6ac6-4f6e-9473-0a63d1707f5c","ios":"levelo://app?vid=aacfe432-6ac6-4f6e-9473-0a63d1707f5c"},"vehicle_type_id":"4","last_reported":1702638357,"current_range_meters":3200,"station_id":"ce4bgs12rcd13ifvqcag","pricing_plan_id":"free"},{"bike_id":"955e4ab2-16e5-44e8-a986-a2f50ff96c06","system_id":"levelo_inurba_marseille","lat":43.305382,"lon":5.365389,"is_reserved":false,"is_disabled":false,"rental_uris":{"android":"levelo://app?vid=955e4ab2-16e5-44e8-a986-a2f50ff96c06","ios":"levelo://app?vid=955e4ab2-16e5-44e8-a986-a2f50ff96c06"},"vehicle_type_id":"4","last_reported":1702638357,"current_range_meters":19600,"station_id":"","pricing_plan_id":"free"},{"bike_id":"d500779a-cdab-4b60-b0a2-0288c5e71d87","system_id":"levelo_inurba_marseille","lat":43.305706,"lon":5.365654,"is_reserved":false,"is_disabled":false,"rental_uris":{"android":"levelo://app?vid=d500779a-cdab-4b60-b0a2-0288c5e71d87","ios":"levelo://app?vid=d500779a-cdab-4b60-b0a2-0288c5e71d87"},"vehicle_type_id":"4","last_reported":1702638357,"current_range_meters":26800,"station_id":"ce4bgs12rcd13ifvqcag","pricing_plan_id":"free"},{"bike_id":"55285a82-d434-477f-8efb-68044e144c3a","system_id":"levelo_inurba_marseille","lat":43.305368,"lon":5.367343,"is_reserved":false,"is_disabled":false,"rental_uris":{"android":"levelo://app?vid=55285a82-d434-477f-8efb-68044e144c3a","ios":"levelo://app?vid=55285a82-d434-477f-8efb-68044e144c3a"},"vehicle_type_id":"4","last_reported":1702638357,"current_range_meters":28800,"station_id":"ce4bgrp2rcd13ifvqc9g","pricing_plan_id":"free"},{"bike_id":"23a76755-2585-4c93-a187-d2ff6c53cfb4","system_id":"levelo_inurba_marseille","lat":43.305706,"lon":5.365654,"is_reserved":false,"is_disabled":false,"rental_uris":{"android":"levelo://app?vid=23a76755-2585-4c93-a187-d2ff6c53cfb4","ios":"levelo://app?vid=23a76755-2585-4c93-a187-d2ff6c53cfb4"},"vehicle_type_id":"4","last_reported":1702638357,"current_range_meters":6800,"station_id":"ce4bgs12rcd13ifvqcag","pricing_plan_id":"free"},{"bike_id":"ea90133d-bf35-4e95-bb67-746ac9b8d0d3","system_id":"levelo_inurba_marseille","lat":43.305706,"lon":5.365654,"is_reserved":false,"is_disabled":false,"rental_uris":{"android":"levelo://app?vid=ea90133d-bf35-4e95-bb67-746ac9b8d0d3","ios":"levelo://app?vid=ea90133d-bf35-4e95-bb67-746ac9b8d0d3"},"vehicle_type_id":"4","last_reported":1702638357,"current_range_meters":30400,"station_id":"ce4bgs12rcd13ifvqcag","pricing_plan_id":"free"},{"bike_id":"95c5359e-f913-40bc-92c0-3ea7c91e9cf3","system_id":"levelo_inurba_marseille","lat":43.305706,"lon":5.365654,"is_reserved":false,"is_disabled":false,"rental_uris":{"android":"levelo://app?vid=95c5359e-f913-40bc-92c0-3ea7c91e9cf3","ios":"levelo://app?vid=95c5359e-f913-40bc-92c0-3ea7c91e9cf3"},"vehicle_type_id":"4","last_reported":1702638357,"current_range_meters":31600,"station_id":"ce4bgs12rcd13ifvqcag","pricing_plan_id":"free"},{"bike_id":"009d6ad7-ef67-48f7-b38f-027ea7475dde","system_id":"levelo_inurba_marseille","lat":43.307945,"lon":5.376487,"is_reserved":false,"is_disabled":false,"rental_uris":{"android":"levelo://app?vid=009d6ad7-ef67-48f7-b38f-027ea7475dde","ios":"levelo://app?vid=009d6ad7-ef67-48f7-b38f-027ea7475dde"},"vehicle_type_id":"4","last_reported":1702638357,"current_range_meters":27200,"station_id":"ce4bgv92rcd13ifvqcq0","pricing_plan_id":"free"},{"bike_id":"37f04c5e-39fd-46fc-a954-097873ff9b54","system_id":"levelo_inurba_marseille","lat":43.307945,"lon":5.376487,"is_reserved":false,"is_disabled":false,"rental_uris":{"android":"levelo://app?vid=37f04c5e-39fd-46fc-a954-097873ff9b54","ios":"levelo://app?vid=37f04c5e-39fd-46fc-a954-097873ff9b54"},"vehicle_type_id":"4","last_reported":1702638357,"current_range_meters":30400,"station_id":"ce4bgv92rcd13ifvqcq0","pricing_plan_id":"free"},{"bike_id":"0e5a08d9-b20a-42c7-aa67-9c14f37f86bd","system_id":"levelo_inurba_marseille","lat":43.30304,"lon":5.368987,"is_reserved":false,"is_disabled":false,"rental_uris":{"android":"levelo://app?vid=0e5a08d9-b20a-42c7-aa67-9c14f37f86bd","ios":"levelo://app?vid=0e5a08d9-b20a-42c7-aa67-9c14f37f86bd"},"vehicle_type_id":"4","last_reported":1702638357,"current_range_meters":23600,"station_id":"ce4bgqh2rcd13ifvqc5g","pricing_plan_id":"free"},{"bike_id":"be655a2d-2ecf-4cb1-bb94-b98c65d1511a","system_id":"levelo_inurba_marseille","lat":43.303046,"lon":5.368981,"is_reserved":false,"is_disabled":false,"rental_uris":{"android":"levelo://app?vid=be655a2d-2ecf-4cb1-bb94-b98c65d1511a","ios":"levelo://app?vid=be655a2d-2ecf-4cb1-bb94-b98c65d1511a"},"vehicle_type_id":"4","last_reported":1702638357,"current_range_meters":19200,"station_id":"ce4bgqh2rcd13ifvqc5g","pricing_plan_id":"free"},{"bike_id":"fd290d82-ad28-4014-aca0-32a85e112a9f","system_id":"levelo_inurba_marseille","lat":43.30304,"lon":5.368987,"is_reserved":false,"is_disabled":false,"rental_uris":{"android":"levelo://app?vid=fd290d82-ad28-4014-aca0-32a85e112a9f","ios":"levelo://app?vid=fd290d82-ad28-4014-aca0-32a85e112a9f"},"vehicle_type_id":"4","last_reported":1702638357,"current_range_meters":27600,"station_id":"ce4bgqh2rcd13ifvqc5g","pricing_plan_id":"free"},{"bike_id":"515fcf81-5d12-430d-b05f-57e0c8d72f53","system_id":"levelo_inurba_marseille","lat":43.303046,"lon":5.368981,"is_reserved":false,"is_disabled":false,"rental_uris":{"android":"levelo://app?vid=515fcf81-5d12-430d-b05f-57e0c8d72f53","ios":"levelo://app?vid=515fcf81-5d12-430d-b05f-57e0c8d72f53"},"vehicle_type_id":"4","last_reported":1702638357,"current_range_meters":14400,"station_id":"ce4bgqh2rcd13ifvqc5g","pricing_plan_id":"free"},{"bike_id":"b21117f3-125e-43a0-898a-02da54947364","system_id":"levelo_inurba_marseille","lat":43.301939,"lon":5.366286,"is_reserved":false,"is_disabled":false,"rental_uris":{"android":"levelo://app?vid=b21117f3-125e-43a0-898a-02da54947364","ios":"levelo://app?vid=b21117f3-125e-43a0-898a-02da54947364"},"vehicle_type_id":"4","last_reported":1702638357,"current_range_meters":28000,"station_id":"ce4bgrh2rcd13ifvqc8g","pricing_plan_id":"free"},{"bike_id":"ba4a9393-82c8-4f56-b3ab-a75edc2fea0e","system_id":"levelo_inurba_marseille","lat":43.304606,"lon":5.379026,"is_reserved":false,"is_disabled":false,"rental_uris":{"android":"levelo://app?vid=ba4a9393-82c8-4f56-b3ab-a75edc2fea0e","ios":"levelo://app?vid=ba4a9393-82c8-4f56-b3ab-a75edc2fea0e"},"vehicle_type_id":"4","last_reported":1702638357,"current_range_meters":22000,"station_id":"ce4bgup2rcd13ifvqcn0","pricing_plan_id":"free"},{"bike_id":"9174a2ce-9630-48f0-a6a2-12daf6d3b4d2","system_id":"levelo_inurba_marseille","lat":43.304606,"lon":5.379026,"is_reserved":false,"is_disabled":false,"rental_uris":{"android":"levelo://app?vid=9174a2ce-9630-48f0-a6a2-12daf6d3b4d2","ios":"levelo://app?vid=9174a2ce-9630-48f0-a6a2-12daf6d3b4d2"},"vehicle_type_id":"4","last_reported":1702638357,"current_range_meters":29600,"station_id":"ce4bgup2rcd13ifvqcn0","pricing_plan_id":"free"},{"bike_id":"608261d5-2bf8-4b18-bba4-12e75858b485","system_id":"levelo_inurba_marseille","lat":43.304606,"lon":5.379026,"is_reserved":false,"is_disabled":false,"rental_uris":{"android":"levelo://app?vid=608261d5-2bf8-4b18-bba4-12e75858b485","ios":"levelo://app?vid=608261d5-2bf8-4b18-bba4-12e75858b485"},"vehicle_type_id":"4","last_reported":1702638357,"current_range_meters":12400,"station_id":"ce4bgup2rcd13ifvqcn0","pricing_plan_id":"free"},{"bike_id":"88f7ea2a-62f7-4a88-9e9d-900940b4d7e5","system_id":"levelo_inurba_marseille","lat":43.324771,"lon":5.36557,"is_reserved":false,"is_disabled":false,"rental_uris":{"android":"levelo://app?vid=88f7ea2a-62f7-4a88-9e9d-900940b4d7e5","ios":"levelo://app?vid=88f7ea2a-62f7-4a88-9e9d-900940b4d7e5"},"vehicle_type_id":"4","last_reported":1702638357,"current_range_meters":21200,"station_id":"ce4bhs12rcd13ifvqhvg","pricing_plan_id":"free"},{"bike_id":"efe4d24a-3c79-4456-8cf5-28f44dfd4210","system_id":"levelo_inurba_marseille","lat":43.30282,"lon":5.37695,"is_reserved":false,"is_disabled":false,"rental_uris":{"android":"levelo://app?vid=efe4d24a-3c79-4456-8cf5-28f44dfd4210","ios":"levelo://app?vid=efe4d24a-3c79-4456-8cf5-28f44dfd4210"},"vehicle_type_id":"4","last_reported":1702638357,"current_range_meters":19200,"station_id":"ce4bguh2rcd13ifvqcj0","pricing_plan_id":"free"},{"bike_id":"4593980f-e4e6-4719-abec-7c6e2c9dc076","system_id":"levelo_inurba_marseille","lat":43.302784,"lon":5.377158,"is_reserved":false,"is_disabled":false,"rental_uris":{"android":"levelo://app?vid=4593980f-e4e6-4719-abec-7c6e2c9dc076","ios":"levelo://app?vid=4593980f-e4e6-4719-abec-7c6e2c9dc076"},"vehicle_type_id":"4","last_reported":1702638357,"current_range_meters":28000,"station_id":"ce4bguh2rcd13ifvqcj0","pricing_plan_id":"free"},{"bike_id":"59dc5dd1-a724-4f34-acf9-17eff8213f3c","system_id":"levelo_inurba_marseille","lat":43.301337,"lon":5.374211,"is_reserved":false,"is_disabled":false,"rental_uris":{"android":"levelo://app?vid=59dc5dd1-a724-4f34-acf9-17eff8213f3c","ios":"levelo://app?vid=59dc5dd1-a724-4f34-acf9-17eff8213f3c"},"vehicle_type_id":"4","last_reported":1702638357,"current_range_meters":30400,"station_id":"ce4bgs92rcd13ifvqcc0","pricing_plan_id":"free"},{"bike_id":"fdcd74e0-5fce-436e-805d-ade6ef010660","system_id":"levelo_inurba_marseille","lat":43.32002,"lon":5.3815,"is_reserved":false,"is_disabled":false,"rental_uris":{"android":"levelo://app?vid=fdcd74e0-5fce-436e-805d-ade6ef010660","ios":"levelo://app?vid=fdcd74e0-5fce-436e-805d-ade6ef010660"},"vehicle_type_id":"4","last_reported":1702638357,"current_range_meters":0,"station_id":"ce4bhr12rcd13ifvqhpg","pricing_plan_id":"free"},{"bike_id":"c262d557-d265-471d-990c-f060bf0b69b5","system_id":"levelo_inurba_marseille","lat":43.299724,"lon":5.371829,"is_reserved":false,"is_disabled":false,"rental_uris":{"android":"levelo://app?vid=c262d557-d265-471d-990c-f060bf0b69b5","ios":"levelo://app?vid=c262d557-d265-471d-990c-f060bf0b69b5"},"vehicle_type_id":"4","last_reported":1702638357,"current_range_meters":16800,"station_id":"ce4bgr92rcd13ifvqc7g","pricing_plan_id":"free"},{"bike_id":"2afe99c1-6d0c-44a8-97a1-b690f4872358","system_id":"levelo_inurba_marseille","lat":43.305364,"lon":5.384119,"is_reserved":false,"is_disabled":false,"rental_uris":{"android":"levelo://app?vid=2afe99c1-6d0c-44a8-97a1-b690f4872358","ios":"levelo://app?vid=2afe99c1-6d0c-44a8-97a1-b690f4872358"},"vehicle_type_id":"4","last_reported":1702638357,"current_range_meters":23600,"station_id":"ce4bgg92rcd13ifvqb30","pricing_plan_id":"free"},{"bike_id":"e5ab0212-1b3e-40b5-a5e8-ef4be0bdaff2","system_id":"levelo_inurba_marseille","lat":43.298433,"lon":5.362774,"is_reserved":false,"is_disabled":false,"rental_uris":{"android":"levelo://app?vid=e5ab0212-1b3e-40b5-a5e8-ef4be0bdaff2","ios":"levelo://app?vid=e5ab0212-1b3e-40b5-a5e8-ef4be0bdaff2"},"vehicle_type_id":"4","last_reported":1702638357,"current_range_meters":27200,"station_id":"ce4bgpp2rcd13ifvqc3g","pricing_plan_id":"free"},{"bike_id":"e8416776-5809-4d8d-8244-11dbee1b6cd2","system_id":"levelo_inurba_marseille","lat":43.299176,"lon":5.374522,"is_reserved":false,"is_disabled":false,"rental_uris":{"android":"levelo://app?vid=e8416776-5809-4d8d-8244-11dbee1b6cd2","ios":"levelo://app?vid=e8416776-5809-4d8d-8244-11dbee1b6cd2"},"vehicle_type_id":"4","last_reported":1702638357,"current_range_meters":25200,"station_id":"ce4bgjh2rcd13ifvqbg0","pricing_plan_id":"free"},{"bike_id":"16ccaffc-9144-489a-a81b-44760d55dc60","system_id":"levelo_inurba_marseille","lat":43.31209,"lon":5.387133,"is_reserved":false,"is_disabled":false,"rental_uris":{"android":"levelo://app?vid=16ccaffc-9144-489a-a81b-44760d55dc60","ios":"levelo://app?vid=16ccaffc-9144-489a-a81b-44760d55dc60"},"vehicle_type_id":"4","last_reported":1702638357,"current_range_meters":16000,"station_id":"ce4bgv12rcd13ifvqcp0","pricing_plan_id":"free"},{"bike_id":"fd016f48-6f86-413a-846d-d5563d4d4a6b","system_id":"levelo_inurba_marseille","lat":43.311722,"lon":5.387247,"is_reserved":false,"is_disabled":false,"rental_uris":{"android":"levelo://app?vid=fd016f48-6f86-413a-846d-d5563d4d4a6b","ios":"levelo://app?vid=fd016f48-6f86-413a-846d-d5563d4d4a6b"},"vehicle_type_id":"4","last_reported":1702638357,"current_range_meters":16000,"station_id":"ce4bgv12rcd13ifvqcp0","pricing_plan_id":"free"},{"bike_id":"72977f01-4076-4b10-8dd7-66140f8cae08","system_id":"levelo_inurba_marseille","lat":43.297794,"lon":5.370888,"is_reserved":false,"is_disabled":false,"rental_uris":{"android":"levelo://app?vid=72977f01-4076-4b10-8dd7-66140f8cae08","ios":"levelo://app?vid=72977f01-4076-4b10-8dd7-66140f8cae08"},"vehicle_type_id":"4","last_reported":1702638357,"current_range_meters":14400,"station_id":"ce4bgop2rcd13ifvqc1g","pricing_plan_id":"free"},{"bike_id":"94dc8d4f-92ce-4f18-9f3e-dffdb24aaef5","system_id":"levelo_inurba_marseille","lat":43.328371,"lon":5.366909,"is_reserved":false,"is_disabled":false,"rental_uris":{"android":"levelo://app?vid=94dc8d4f-92ce-4f18-9f3e-dffdb24aaef5","ios":"levelo://app?vid=94dc8d4f-92ce-4f18-9f3e-dffdb24aaef5"},"vehicle_type_id":"4","last_reported":1702638357,"current_range_meters":17200,"station_id":"ce4bhs92rcd13ifvqi0g","pricing_plan_id":"free"},{"bike_id":"36bab7cb-d8bb-48df-b72b-8ccd692ab72b","system_id":"levelo_inurba_marseille","lat":43.328371,"lon":5.366909,"is_reserved":false,"is_disabled":false,"rental_uris":{"android":"levelo://app?vid=36bab7cb-d8bb-48df-b72b-8ccd692ab72b","ios":"levelo://app?vid=36bab7cb-d8bb-48df-b72b-8ccd692ab72b"},"vehicle_type_id":"4","last_reported":1702638357,"current_range_meters":21600,"station_id":"ce4bhs92rcd13ifvqi0g","pricing_plan_id":"free"},{"bike_id":"1bd0d437-ea21-4bf9-8661-f65417dfce1e","system_id":"levelo_inurba_marseille","lat":43.2968,"lon":5.37291,"is_reserved":false,"is_disabled":false,"rental_uris":{"android":"levelo://app?vid=1bd0d437-ea21-4bf9-8661-f65417dfce1e","ios":"levelo://app?vid=1bd0d437-ea21-4bf9-8661-f65417dfce1e"},"vehicle_type_id":"4","last_reported":1702638357,"current_range_meters":16400,"station_id":"ce4bgk12rcd13ifvqbj0","pricing_plan_id":"free"},{"bike_id":"1b11e655-3ede-4537-a2c3-9ba60c2b25a3","system_id":"levelo_inurba_marseille","lat":43.29584,"lon":5.36748,"is_reserved":false,"is_disabled":false,"rental_uris":{"android":"levelo://app?vid=1b11e655-3ede-4537-a2c3-9ba60c2b25a3","ios":"levelo://app?vid=1b11e655-3ede-4537-a2c3-9ba60c2b25a3"},"vehicle_type_id":"4","last_reported":1702638357,"current_range_meters":18800,"station_id":"ce4bgph2rcd13ifvqc2g","pricing_plan_id":"free"},{"bike_id":"09d732fe-fc7e-4270-81a3-b1434de91c68","system_id":"levelo_inurba_marseille","lat":43.299717,"lon":5.384845,"is_reserved":false,"is_disabled":false,"rental_uris":{"android":"levelo://app?vid=09d732fe-fc7e-4270-81a3-b1434de91c68","ios":"levelo://app?vid=09d732fe-fc7e-4270-81a3-b1434de91c68"},"vehicle_type_id":"4","last_reported":1702638357,"current_range_meters":29600,"station_id":"ce4bgj92rcd13ifvqbd0","pricing_plan_id":"free"},{"bike_id":"298ebd5a-0299-4d1f-88cf-325b9cf61e26","system_id":"levelo_inurba_marseille","lat":43.32367,"lon":5.388836,"is_reserved":false,"is_disabled":false,"rental_uris":{"android":"levelo://app?vid=298ebd5a-0299-4d1f-88cf-325b9cf61e26","ios":"levelo://app?vid=298ebd5a-0299-4d1f-88cf-325b9cf61e26"},"vehicle_type_id":"4","last_reported":1702638357,"current_range_meters":4800,"station_id":"ce4bhqp2rcd13ifvqhog","pricing_plan_id":"free"},{"bike_id":"10082bac-34fa-4735-9833-4985a7213f1c","system_id":"levelo_inurba_marseille","lat":43.293009,"lon":5.374584,"is_reserved":false,"is_disabled":false,"rental_uris":{"android":"levelo://app?vid=10082bac-34fa-4735-9833-4985a7213f1c","ios":"levelo://app?vid=10082bac-34fa-4735-9833-4985a7213f1c"},"vehicle_type_id":"4","last_reported":1702638357,"current_range_meters":20000,"station_id":"ce4bgi12rcd13ifvqb70","pricing_plan_id":"free"},{"bike_id":"56ff0c71-a37e-4ba7-80cb-13dcc88b1f4a","system_id":"levelo_inurba_marseille","lat":43.293009,"lon":5.374584,"is_reserved":false,"is_disabled":false,"rental_uris":{"android":"levelo://app?vid=56ff0c71-a37e-4ba7-80cb-13dcc88b1f4a","ios":"levelo://app?vid=56ff0c71-a37e-4ba7-80cb-13dcc88b1f4a"},"vehicle_type_id":"4","last_reported":1702638357,"current_range_meters":23200,"station_id":"ce4bgi12rcd13ifvqb70","pricing_plan_id":"free"},{"bike_id":"cb0fa216-fe81-44b6-b03a-753e35763acb","system_id":"levelo_inurba_marseille","lat":43.291675,"lon":5.371583,"is_reserved":false,"is_disabled":false,"rental_uris":{"android":"levelo://app?vid=cb0fa216-fe81-44b6-b03a-753e35763acb","ios":"levelo://app?vid=cb0fa216-fe81-44b6-b03a-753e35763acb"},"vehicle_type_id":"4","last_reported":1702638357,"current_range_meters":26400,"station_id":"ce4bha92rcd13ifvqeh0","pricing_plan_id":"free"},{"bike_id":"d95a5181-395b-42cb-ac16-9634d729c186","system_id":"levelo_inurba_marseille","lat":43.2988,"lon":5.38921,"is_reserved":false,"is_disabled":false,"rental_uris":{"android":"levelo://app?vid=d95a5181-395b-42cb-ac16-9634d729c186","ios":"levelo://app?vid=d95a5181-395b-42cb-ac16-9634d729c186"},"vehicle_type_id":"4","last_reported":1702638357,"current_range_meters":24400,"station_id":"","pricing_plan_id":"free"},{"bike_id":"0e0fffcd-6e8e-43ef-96c5-f438cff39409","system_id":"levelo_inurba_marseille","lat":43.313291,"lon":5.396838,"is_reserved":false,"is_disabled":false,"rental_uris":{"android":"levelo://app?vid=0e0fffcd-6e8e-43ef-96c5-f438cff39409","ios":"levelo://app?vid=0e0fffcd-6e8e-43ef-96c5-f438cff39409"},"vehicle_type_id":"4","last_reported":1702638357,"current_range_meters":26400,"station_id":"ce4bgvp2rcd13ifvqcu0","pricing_plan_id":"free"},{"bike_id":"3196edcc-d055-4fd3-bb21-93b3ed3851a6","system_id":"levelo_inurba_marseille","lat":43.313291,"lon":5.396838,"is_reserved":false,"is_disabled":false,"rental_uris":{"android":"levelo://app?vid=3196edcc-d055-4fd3-bb21-93b3ed3851a6","ios":"levelo://app?vid=3196edcc-d055-4fd3-bb21-93b3ed3851a6"},"vehicle_type_id":"4","last_reported":1702638357,"current_range_meters":7600,"station_id":"ce4bgvp2rcd13ifvqcu0","pricing_plan_id":"free"},{"bike_id":"cf583c9f-09fa-453d-bc83-5ff05cbf16a6","system_id":"levelo_inurba_marseille","lat":43.29529,"lon":5.385581,"is_reserved":false,"is_disabled":false,"rental_uris":{"android":"levelo://app?vid=cf583c9f-09fa-453d-bc83-5ff05cbf16a6","ios":"levelo://app?vid=cf583c9f-09fa-453d-bc83-5ff05cbf16a6"},"vehicle_type_id":"4","last_reported":1702638357,"current_range_meters":22400,"station_id":"ce4bgih2rcd13ifvqba0","pricing_plan_id":"free"},{"bike_id":"85e1a76a-e324-44e4-8311-dd3b6b8567ab","system_id":"levelo_inurba_marseille","lat":43.290327,"lon":5.375711,"is_reserved":false,"is_disabled":false,"rental_uris":{"android":"levelo://app?vid=85e1a76a-e324-44e4-8311-dd3b6b8567ab","ios":"levelo://app?vid=85e1a76a-e324-44e4-8311-dd3b6b8567ab"},"vehicle_type_id":"4","last_reported":1702638357,"current_range_meters":22000,"station_id":"ce4bh692rcd13ifvqe90","pricing_plan_id":"free"},{"bike_id":"b3c818ff-d601-4cbc-8657-f62a8fc52f61","system_id":"levelo_inurba_marseille","lat":43.290327,"lon":5.375711,"is_reserved":false,"is_disabled":false,"rental_uris":{"android":"levelo://app?vid=b3c818ff-d601-4cbc-8657-f62a8fc52f61","ios":"levelo://app?vid=b3c818ff-d601-4cbc-8657-f62a8fc52f61"},"vehicle_type_id":"4","last_reported":1702638357,"current_range_meters":800,"station_id":"ce4bh692rcd13ifvqe90","pricing_plan_id":"free"},{"bike_id":"e3e0d4a3-807b-4ad6-b290-264dac4d9514","system_id":"levelo_inurba_marseille","lat":43.290327,"lon":5.375711,"is_reserved":false,"is_disabled":false,"rental_uris":{"android":"levelo://app?vid=e3e0d4a3-807b-4ad6-b290-264dac4d9514","ios":"levelo://app?vid=e3e0d4a3-807b-4ad6-b290-264dac4d9514"},"vehicle_type_id":"4","last_reported":1702638357,"current_range_meters":10000,"station_id":"ce4bh692rcd13ifvqe90","pricing_plan_id":"free"},{"bike_id":"75dbf5f1-00d8-485a-9cfa-3e1248e06d89","system_id":"levelo_inurba_marseille","lat":43.294162,"lon":5.386292,"is_reserved":false,"is_disabled":false,"rental_uris":{"android":"levelo://app?vid=75dbf5f1-00d8-485a-9cfa-3e1248e06d89","ios":"levelo://app?vid=75dbf5f1-00d8-485a-9cfa-3e1248e06d89"},"vehicle_type_id":"4","last_reported":1702638357,"current_range_meters":27600,"station_id":"ce4bh2h2rcd13ifvqdh0","pricing_plan_id":"free"},{"bike_id":"a79835e2-eceb-4434-9026-c7037c2a0a73","system_id":"levelo_inurba_marseille","lat":43.289184,"lon":5.366408,"is_reserved":false,"is_disabled":false,"rental_uris":{"android":"levelo://app?vid=a79835e2-eceb-4434-9026-c7037c2a0a73","ios":"levelo://app?vid=a79835e2-eceb-4434-9026-c7037c2a0a73"},"vehicle_type_id":"4","last_reported":1702638357,"current_range_meters":24800,"station_id":"ce4bhap2rcd13ifvqek0","pricing_plan_id":"free"},{"bike_id":"e5b4d385-593a-48a4-85e5-0fdf907064dd","system_id":"levelo_inurba_marseille","lat":43.304296,"lon":5.397513,"is_reserved":false,"is_disabled":false,"rental_uris":{"android":"levelo://app?vid=e5b4d385-593a-48a4-85e5-0fdf907064dd","ios":"levelo://app?vid=e5b4d385-593a-48a4-85e5-0fdf907064dd"},"vehicle_type_id":"4","last_reported":1702638357,"current_range_meters":12800,"station_id":"ce4bh092rcd13ifvqd20","pricing_plan_id":"free"},{"bike_id":"dd769f33-cdfe-4ab6-9d07-5a06977f5fa7","system_id":"levelo_inurba_marseille","lat":43.290104,"lon":5.356111,"is_reserved":false,"is_disabled":false,"rental_uris":{"android":"levelo://app?vid=dd769f33-cdfe-4ab6-9d07-5a06977f5fa7","ios":"levelo://app?vid=dd769f33-cdfe-4ab6-9d07-5a06977f5fa7"},"vehicle_type_id":"4","last_reported":1702638357,"current_range_meters":14400,"station_id":"ce4bhb92rcd13ifvqen0","pricing_plan_id":"free"},{"bike_id":"29e81384-e946-4772-94ed-af76afe56560","system_id":"levelo_inurba_marseille","lat":43.290995,"lon":5.381361,"is_reserved":false,"is_disabled":false,"rental_uris":{"android":"levelo://app?vid=29e81384-e946-4772-94ed-af76afe56560","ios":"levelo://app?vid=29e81384-e946-4772-94ed-af76afe56560"},"vehicle_type_id":"4","last_reported":1702638357,"current_range_meters":25200,"station_id":"ce4bh512rcd13ifvqe2g","pricing_plan_id":"free"},{"bike_id":"7f5aab96-6bfb-4c46-8e85-8b1448ca0bad","system_id":"levelo_inurba_marseille","lat":43.295169,"lon":5.390426,"is_reserved":false,"is_disabled":false,"rental_uris":{"android":"levelo://app?vid=7f5aab96-6bfb-4c46-8e85-8b1448ca0bad","ios":"levelo://app?vid=7f5aab96-6bfb-4c46-8e85-8b1448ca0bad"},"vehicle_type_id":"4","last_reported":1702638357,"current_range_meters":30000,"station_id":"ce4bh3p2rcd13ifvqdp0","pricing_plan_id":"free"},{"bike_id":"3a7201ea-2baa-4286-809d-d3ac0bdba165","system_id":"levelo_inurba_marseille","lat":43.295169,"lon":5.390426,"is_reserved":false,"is_disabled":false,"rental_uris":{"android":"levelo://app?vid=3a7201ea-2baa-4286-809d-d3ac0bdba165","ios":"levelo://app?vid=3a7201ea-2baa-4286-809d-d3ac0bdba165"},"vehicle_type_id":"4","last_reported":1702638357,"current_range_meters":28000,"station_id":"ce4bh3p2rcd13ifvqdp0","pricing_plan_id":"free"},{"bike_id":"fb93e14e-8af5-4bf9-9888-a389eb1b304e","system_id":"levelo_inurba_marseille","lat":43.305994,"lon":5.393687,"is_reserved":false,"is_disabled":false,"rental_uris":{"android":"levelo://app?vid=fb93e14e-8af5-4bf9-9888-a389eb1b304e","ios":"levelo://app?vid=fb93e14e-8af5-4bf9-9888-a389eb1b304e"},"vehicle_type_id":"4","last_reported":1702638357,"current_range_meters":19600,"station_id":"ce4bh0p2rcd13ifvqd80","pricing_plan_id":"free"},{"bike_id":"ba0ee73b-c5f1-4cef-a929-860bc019b7de","system_id":"levelo_inurba_marseille","lat":43.31278,"lon":5.4016,"is_reserved":false,"is_disabled":false,"rental_uris":{"android":"levelo://app?vid=ba0ee73b-c5f1-4cef-a929-860bc019b7de","ios":"levelo://app?vid=ba0ee73b-c5f1-4cef-a929-860bc019b7de"},"vehicle_type_id":"4","last_reported":1702638357,"current_range_meters":26800,"station_id":"ce4bh092rcd13ifvqd30","pricing_plan_id":"free"},{"bike_id":"e5e97f74-e4a8-4bb6-ad54-01574dddc219","system_id":"levelo_inurba_marseille","lat":43.31276,"lon":5.40168,"is_reserved":false,"is_disabled":false,"rental_uris":{"android":"levelo://app?vid=e5e97f74-e4a8-4bb6-ad54-01574dddc219","ios":"levelo://app?vid=e5e97f74-e4a8-4bb6-ad54-01574dddc219"},"vehicle_type_id":"4","last_reported":1702638357,"current_range_meters":7600,"station_id":"ce4bh092rcd13ifvqd30","pricing_plan_id":"free"},{"bike_id":"258fb4dc-8b86-4317-a659-25c2fa641a42","system_id":"levelo_inurba_marseille","lat":43.309326,"lon":5.401372,"is_reserved":false,"is_disabled":false,"rental_uris":{"android":"levelo://app?vid=258fb4dc-8b86-4317-a659-25c2fa641a42","ios":"levelo://app?vid=258fb4dc-8b86-4317-a659-25c2fa641a42"},"vehicle_type_id":"4","last_reported":1702638357,"current_range_meters":20800,"station_id":"ce4bgvp2rcd13ifvqct0","pricing_plan_id":"free"},{"bike_id":"bf2e972a-0f79-47ee-8d7c-512b373195ba","system_id":"levelo_inurba_marseille","lat":43.30642,"lon":5.401031,"is_reserved":false,"is_disabled":false,"rental_uris":{"android":"levelo://app?vid=bf2e972a-0f79-47ee-8d7c-512b373195ba","ios":"levelo://app?vid=bf2e972a-0f79-47ee-8d7c-512b373195ba"},"vehicle_type_id":"4","last_reported":1702638357,"current_range_meters":19600,"station_id":"ce4bh112rcd13ifvqda0","pricing_plan_id":"free"},{"bike_id":"930bba3a-4350-44cf-bb9b-310a6cbdb5ef","system_id":"levelo_inurba_marseille","lat":43.337588,"lon":5.374531,"is_reserved":false,"is_disabled":false,"rental_uris":{"android":"levelo://app?vid=930bba3a-4350-44cf-bb9b-310a6cbdb5ef","ios":"levelo://app?vid=930bba3a-4350-44cf-bb9b-310a6cbdb5ef"},"vehicle_type_id":"4","last_reported":1702638357,"current_range_meters":28800,"station_id":"","pricing_plan_id":"free"},{"bike_id":"d1dce9b5-e14d-4595-b783-599f2e5be667","system_id":"levelo_inurba_marseille","lat":43.33771,"lon":5.37428,"is_reserved":false,"is_disabled":false,"rental_uris":{"android":"levelo://app?vid=d1dce9b5-e14d-4595-b783-599f2e5be667","ios":"levelo://app?vid=d1dce9b5-e14d-4595-b783-599f2e5be667"},"vehicle_type_id":"4","last_reported":1702638357,"current_range_meters":22400,"station_id":"","pricing_plan_id":"free"},{"bike_id":"b9e9a235-4e4d-4875-ad51-b4ccaf1ae1af","system_id":"levelo_inurba_marseille","lat":43.337658,"lon":5.374707,"is_reserved":false,"is_disabled":false,"rental_uris":{"android":"levelo://app?vid=b9e9a235-4e4d-4875-ad51-b4ccaf1ae1af","ios":"levelo://app?vid=b9e9a235-4e4d-4875-ad51-b4ccaf1ae1af"},"vehicle_type_id":"4","last_reported":1702638357,"current_range_meters":29600,"station_id":"","pricing_plan_id":"free"},{"bike_id":"281389d3-f3dc-4cee-a9b6-6fd88ece3576","system_id":"levelo_inurba_marseille","lat":43.286593,"lon":5.363346,"is_reserved":false,"is_disabled":false,"rental_uris":{"android":"levelo://app?vid=281389d3-f3dc-4cee-a9b6-6fd88ece3576","ios":"levelo://app?vid=281389d3-f3dc-4cee-a9b6-6fd88ece3576"},"vehicle_type_id":"4","last_reported":1702638357,"current_range_meters":25200,"station_id":"ce4bhah2rcd13ifvqej0","pricing_plan_id":"free"},{"bike_id":"4d9bc380-fafc-478e-bfdb-2d9c0eae75d0","system_id":"levelo_inurba_marseille","lat":43.289307,"lon":5.38406,"is_reserved":false,"is_disabled":false,"rental_uris":{"android":"levelo://app?vid=4d9bc380-fafc-478e-bfdb-2d9c0eae75d0","ios":"levelo://app?vid=4d9bc380-fafc-478e-bfdb-2d9c0eae75d0"},"vehicle_type_id":"4","last_reported":1702638357,"current_range_meters":23600,"station_id":"ce4bh612rcd13ifvqe6g","pricing_plan_id":"free"},{"bike_id":"8f8d0833-80ad-4ae3-9b79-9e1274e667c8","system_id":"levelo_inurba_marseille","lat":43.289307,"lon":5.38406,"is_reserved":false,"is_disabled":false,"rental_uris":{"android":"levelo://app?vid=8f8d0833-80ad-4ae3-9b79-9e1274e667c8","ios":"levelo://app?vid=8f8d0833-80ad-4ae3-9b79-9e1274e667c8"},"vehicle_type_id":"4","last_reported":1702638357,"current_range_meters":1200,"station_id":"ce4bh612rcd13ifvqe6g","pricing_plan_id":"free"},{"bike_id":"3879799c-9cb5-4268-b479-f5fd9c4f5437","system_id":"levelo_inurba_marseille","lat":43.29027,"lon":5.38639,"is_reserved":false,"is_disabled":false,"rental_uris":{"android":"levelo://app?vid=3879799c-9cb5-4268-b479-f5fd9c4f5437","ios":"levelo://app?vid=3879799c-9cb5-4268-b479-f5fd9c4f5437"},"vehicle_type_id":"4","last_reported":1702638357,"current_range_meters":0,"station_id":"ce4bh4p2rcd13ifvqe0g","pricing_plan_id":"free"},{"bike_id":"cf39560a-2ffd-4345-9919-dfc40d7d98e6","system_id":"levelo_inurba_marseille","lat":43.289307,"lon":5.38406,"is_reserved":false,"is_disabled":false,"rental_uris":{"android":"levelo://app?vid=cf39560a-2ffd-4345-9919-dfc40d7d98e6","ios":"levelo://app?vid=cf39560a-2ffd-4345-9919-dfc40d7d98e6"},"vehicle_type_id":"4","last_reported":1702638357,"current_range_meters":22000,"station_id":"ce4bh612rcd13ifvqe6g","pricing_plan_id":"free"},{"bike_id":"f1515c32-3614-4f43-bc5a-32cd8903b4da","system_id":"levelo_inurba_marseille","lat":43.290345,"lon":5.38646,"is_reserved":false,"is_disabled":false,"rental_uris":{"android":"levelo://app?vid=f1515c32-3614-4f43-bc5a-32cd8903b4da","ios":"levelo://app?vid=f1515c32-3614-4f43-bc5a-32cd8903b4da"},"vehicle_type_id":"4","last_reported":1702638357,"current_range_meters":25600,"station_id":"ce4bh4p2rcd13ifvqe0g","pricing_plan_id":"free"},{"bike_id":"0fde133f-2ee1-4951-ad09-34a95cf256fa","system_id":"levelo_inurba_marseille","lat":43.302759,"lon":5.400793,"is_reserved":false,"is_disabled":false,"rental_uris":{"android":"levelo://app?vid=0fde133f-2ee1-4951-ad09-34a95cf256fa","ios":"levelo://app?vid=0fde133f-2ee1-4951-ad09-34a95cf256fa"},"vehicle_type_id":"4","last_reported":1702638357,"current_range_meters":22400,"station_id":"ce4bgvh2rcd13ifvqcs0","pricing_plan_id":"free"},{"bike_id":"051b3582-5aef-4f33-9d1b-7ca6a5741455","system_id":"levelo_inurba_marseille","lat":43.31705,"lon":5.40443,"is_reserved":false,"is_disabled":false,"rental_uris":{"android":"levelo://app?vid=051b3582-5aef-4f33-9d1b-7ca6a5741455","ios":"levelo://app?vid=051b3582-5aef-4f33-9d1b-7ca6a5741455"},"vehicle_type_id":"4","last_reported":1702638357,"current_range_meters":20800,"station_id":"ce4bh012rcd13ifvqd00","pricing_plan_id":"free"},{"bike_id":"8a78d25a-06fd-4ade-b8ff-4fc441069425","system_id":"levelo_inurba_marseille","lat":43.3169,"lon":5.40484,"is_reserved":false,"is_disabled":false,"rental_uris":{"android":"levelo://app?vid=8a78d25a-06fd-4ade-b8ff-4fc441069425","ios":"levelo://app?vid=8a78d25a-06fd-4ade-b8ff-4fc441069425"},"vehicle_type_id":"4","last_reported":1702638357,"current_range_meters":0,"station_id":"ce4bh012rcd13ifvqd00","pricing_plan_id":"free"},{"bike_id":"4784f602-9c5c-4840-8116-3e6d83ec78be","system_id":"levelo_inurba_marseille","lat":43.284538,"lon":5.358657,"is_reserved":false,"is_disabled":false,"rental_uris":{"android":"levelo://app?vid=4784f602-9c5c-4840-8116-3e6d83ec78be","ios":"levelo://app?vid=4784f602-9c5c-4840-8116-3e6d83ec78be"},"vehicle_type_id":"4","last_reported":1702638357,"current_range_meters":20800,"station_id":"ce4bhah2rcd13ifvqei0","pricing_plan_id":"free"},{"bike_id":"ccf80a34-893f-43ff-bccc-1bc2a7fbc5e8","system_id":"levelo_inurba_marseille","lat":43.319179,"lon":5.407725,"is_reserved":false,"is_disabled":false,"rental_uris":{"android":"levelo://app?vid=ccf80a34-893f-43ff-bccc-1bc2a7fbc5e8","ios":"levelo://app?vid=ccf80a34-893f-43ff-bccc-1bc2a7fbc5e8"},"vehicle_type_id":"4","last_reported":1702638357,"current_range_meters":28400,"station_id":"ce4bhq12rcd13ifvqhig","pricing_plan_id":"free"},{"bike_id":"1ab5cd54-43c0-49fa-a466-54df9f902037","system_id":"levelo_inurba_marseille","lat":43.323464,"lon":5.406297,"is_reserved":false,"is_disabled":false,"rental_uris":{"android":"levelo://app?vid=1ab5cd54-43c0-49fa-a466-54df9f902037","ios":"levelo://app?vid=1ab5cd54-43c0-49fa-a466-54df9f902037"},"vehicle_type_id":"4","last_reported":1702638357,"current_range_meters":31200,"station_id":"ce4bhq92rcd13ifvqhjg","pricing_plan_id":"free"},{"bike_id":"41f7c2ab-6ae9-416d-bdc9-69f9f84af943","system_id":"levelo_inurba_marseille","lat":43.323464,"lon":5.406297,"is_reserved":false,"is_disabled":false,"rental_uris":{"android":"levelo://app?vid=41f7c2ab-6ae9-416d-bdc9-69f9f84af943","ios":"levelo://app?vid=41f7c2ab-6ae9-416d-bdc9-69f9f84af943"},"vehicle_type_id":"4","last_reported":1702638357,"current_range_meters":31600,"station_id":"ce4bhq92rcd13ifvqhjg","pricing_plan_id":"free"},{"bike_id":"3d06a341-0369-465b-8c4d-3de59ffe0f5b","system_id":"levelo_inurba_marseille","lat":43.323464,"lon":5.406297,"is_reserved":false,"is_disabled":false,"rental_uris":{"android":"levelo://app?vid=3d06a341-0369-465b-8c4d-3de59ffe0f5b","ios":"levelo://app?vid=3d06a341-0369-465b-8c4d-3de59ffe0f5b"},"vehicle_type_id":"4","last_reported":1702638357,"current_range_meters":12000,"station_id":"ce4bhq92rcd13ifvqhjg","pricing_plan_id":"free"},{"bike_id":"bc7b2e0c-d3cc-42df-94d4-7dbfea78b738","system_id":"levelo_inurba_marseille","lat":43.284793,"lon":5.384119,"is_reserved":false,"is_disabled":false,"rental_uris":{"android":"levelo://app?vid=bc7b2e0c-d3cc-42df-94d4-7dbfea78b738","ios":"levelo://app?vid=bc7b2e0c-d3cc-42df-94d4-7dbfea78b738"},"vehicle_type_id":"4","last_reported":1702638357,"current_range_meters":12000,"station_id":"ce4bh512rcd13ifvqe3g","pricing_plan_id":"free"},{"bike_id":"a2d4bf01-cba6-442f-8d53-bf99d0fc6380","system_id":"levelo_inurba_marseille","lat":43.297946,"lon":5.404063,"is_reserved":false,"is_disabled":false,"rental_uris":{"android":"levelo://app?vid=a2d4bf01-cba6-442f-8d53-bf99d0fc6380","ios":"levelo://app?vid=a2d4bf01-cba6-442f-8d53-bf99d0fc6380"},"vehicle_type_id":"4","last_reported":1702638357,"current_range_meters":19600,"station_id":"ce4bh112rcd13ifvqd90","pricing_plan_id":"free"},{"bike_id":"f2affc15-5623-4b9a-abf9-3fa0020a76c5","system_id":"levelo_inurba_marseille","lat":43.283494,"lon":5.380945,"is_reserved":false,"is_disabled":false,"rental_uris":{"android":"levelo://app?vid=f2affc15-5623-4b9a-abf9-3fa0020a76c5","ios":"levelo://app?vid=f2affc15-5623-4b9a-abf9-3fa0020a76c5"},"vehicle_type_id":"4","last_reported":1702638357,"current_range_meters":10400,"station_id":"ce4bh412rcd13ifvqdr0","pricing_plan_id":"free"},{"bike_id":"54a693e2-c190-42cf-9a8d-77e6cd9ebe13","system_id":"levelo_inurba_marseille","lat":43.282754,"lon":5.350519,"is_reserved":false,"is_disabled":false,"rental_uris":{"android":"levelo://app?vid=54a693e2-c190-42cf-9a8d-77e6cd9ebe13","ios":"levelo://app?vid=54a693e2-c190-42cf-9a8d-77e6cd9ebe13"},"vehicle_type_id":"4","last_reported":1702638357,"current_range_meters":24000,"station_id":"ce4bhbp2rcd13ifvqerg","pricing_plan_id":"free"},{"bike_id":"12caba1e-b1ff-4399-92f7-301759e5bd10","system_id":"levelo_inurba_marseille","lat":43.282754,"lon":5.350519,"is_reserved":false,"is_disabled":false,"rental_uris":{"android":"levelo://app?vid=12caba1e-b1ff-4399-92f7-301759e5bd10","ios":"levelo://app?vid=12caba1e-b1ff-4399-92f7-301759e5bd10"},"vehicle_type_id":"4","last_reported":1702638357,"current_range_meters":21600,"station_id":"ce4bhbp2rcd13ifvqerg","pricing_plan_id":"free"},{"bike_id":"95a09ee9-d973-40fc-bfcc-6ae15035f9ab","system_id":"levelo_inurba_marseille","lat":43.283502,"lon":5.386471,"is_reserved":false,"is_disabled":false,"rental_uris":{"android":"levelo://app?vid=95a09ee9-d973-40fc-bfcc-6ae15035f9ab","ios":"levelo://app?vid=95a09ee9-d973-40fc-bfcc-6ae15035f9ab"},"vehicle_type_id":"4","last_reported":1702638357,"current_range_meters":23600,"station_id":"ce4bh492rcd13ifvqdvg","pricing_plan_id":"free"},{"bike_id":"cc3c7805-2ae8-4384-9773-c2ba13cafe11","system_id":"levelo_inurba_marseille","lat":43.282754,"lon":5.350519,"is_reserved":false,"is_disabled":false,"rental_uris":{"android":"levelo://app?vid=cc3c7805-2ae8-4384-9773-c2ba13cafe11","ios":"levelo://app?vid=cc3c7805-2ae8-4384-9773-c2ba13cafe11"},"vehicle_type_id":"4","last_reported":1702638357,"current_range_meters":21200,"station_id":"ce4bhbp2rcd13ifvqerg","pricing_plan_id":"free"},{"bike_id":"a27f49e2-4f7b-4ddb-bf16-97ea6394510c","system_id":"levelo_inurba_marseille","lat":43.282744,"lon":5.350533,"is_reserved":false,"is_disabled":false,"rental_uris":{"android":"levelo://app?vid=a27f49e2-4f7b-4ddb-bf16-97ea6394510c","ios":"levelo://app?vid=a27f49e2-4f7b-4ddb-bf16-97ea6394510c"},"vehicle_type_id":"4","last_reported":1702638357,"current_range_meters":4000,"station_id":"ce4bhbp2rcd13ifvqerg","pricing_plan_id":"free"},{"bike_id":"b38cd2bb-cd5f-43ee-b439-e1e6920188d4","system_id":"levelo_inurba_marseille","lat":43.28031,"lon":5.36943,"is_reserved":false,"is_disabled":false,"rental_uris":{"android":"levelo://app?vid=b38cd2bb-cd5f-43ee-b439-e1e6920188d4","ios":"levelo://app?vid=b38cd2bb-cd5f-43ee-b439-e1e6920188d4"},"vehicle_type_id":"4","last_reported":1702638357,"current_range_meters":17600,"station_id":"ce4bha12rcd13ifvqef0","pricing_plan_id":"free"},{"bike_id":"b96fb424-0f04-424d-be08-e7f7ec8ddb2f","system_id":"levelo_inurba_marseille","lat":43.29041,"lon":5.399634,"is_reserved":false,"is_disabled":false,"rental_uris":{"android":"levelo://app?vid=b96fb424-0f04-424d-be08-e7f7ec8ddb2f","ios":"levelo://app?vid=b96fb424-0f04-424d-be08-e7f7ec8ddb2f"},"vehicle_type_id":"4","last_reported":1702638357,"current_range_meters":22400,"station_id":"ce4bh392rcd13ifvqdm0","pricing_plan_id":"free"},{"bike_id":"18cf92ac-d3d1-4acc-9c66-09a484dec5d1","system_id":"levelo_inurba_marseille","lat":43.296263,"lon":5.40601,"is_reserved":false,"is_disabled":false,"rental_uris":{"android":"levelo://app?vid=18cf92ac-d3d1-4acc-9c66-09a484dec5d1","ios":"levelo://app?vid=18cf92ac-d3d1-4acc-9c66-09a484dec5d1"},"vehicle_type_id":"4","last_reported":1702638357,"current_range_meters":11200,"station_id":"ce4bh0h2rcd13ifvqd60","pricing_plan_id":"free"},{"bike_id":"159836d9-6fda-474f-8f74-626dfdb8d71b","system_id":"levelo_inurba_marseille","lat":43.284462,"lon":5.392121,"is_reserved":false,"is_disabled":false,"rental_uris":{"android":"levelo://app?vid=159836d9-6fda-474f-8f74-626dfdb8d71b","ios":"levelo://app?vid=159836d9-6fda-474f-8f74-626dfdb8d71b"},"vehicle_type_id":"4","last_reported":1702638357,"current_range_meters":23200,"station_id":"ce4bhoh2rcd13ifvqh5g","pricing_plan_id":"free"},{"bike_id":"a504b27d-6e8a-48d0-866f-304fb1963ec6","system_id":"levelo_inurba_marseille","lat":43.32663,"lon":5.40975,"is_reserved":false,"is_disabled":false,"rental_uris":{"android":"levelo://app?vid=a504b27d-6e8a-48d0-866f-304fb1963ec6","ios":"levelo://app?vid=a504b27d-6e8a-48d0-866f-304fb1963ec6"},"vehicle_type_id":"4","last_reported":1702638357,"current_range_meters":400,"station_id":"ce4bhpp2rcd13ifvqhgg","pricing_plan_id":"free"},{"bike_id":"16e35e61-0d29-460d-a592-ee400d072ad7","system_id":"levelo_inurba_marseille","lat":43.30418,"lon":5.41277,"is_reserved":false,"is_disabled":false,"rental_uris":{"android":"levelo://app?vid=16e35e61-0d29-460d-a592-ee400d072ad7","ios":"levelo://app?vid=16e35e61-0d29-460d-a592-ee400d072ad7"},"vehicle_type_id":"4","last_reported":1702638357,"current_range_meters":22800,"station_id":"ce4bhop2rcd13ifvqh8g","pricing_plan_id":"free"},{"bike_id":"846dafa0-598f-4789-939c-acd53b4e0ffa","system_id":"levelo_inurba_marseille","lat":43.304188,"lon":5.412904,"is_reserved":false,"is_disabled":false,"rental_uris":{"android":"levelo://app?vid=846dafa0-598f-4789-939c-acd53b4e0ffa","ios":"levelo://app?vid=846dafa0-598f-4789-939c-acd53b4e0ffa"},"vehicle_type_id":"4","last_reported":1702638357,"current_range_meters":18400,"station_id":"ce4bhop2rcd13ifvqh8g","pricing_plan_id":"free"},{"bike_id":"c99de67d-4722-47ad-9289-1378328c61a0","system_id":"levelo_inurba_marseille","lat":43.304188,"lon":5.412904,"is_reserved":false,"is_disabled":false,"rental_uris":{"android":"levelo://app?vid=c99de67d-4722-47ad-9289-1378328c61a0","ios":"levelo://app?vid=c99de67d-4722-47ad-9289-1378328c61a0"},"vehicle_type_id":"4","last_reported":1702638357,"current_range_meters":31200,"station_id":"ce4bhop2rcd13ifvqh8g","pricing_plan_id":"free"},{"bike_id":"56e09bd2-5ce7-4c5b-b607-259a8d82b4a9","system_id":"levelo_inurba_marseille","lat":43.279087,"lon":5.380114,"is_reserved":false,"is_disabled":false,"rental_uris":{"android":"levelo://app?vid=56e09bd2-5ce7-4c5b-b607-259a8d82b4a9","ios":"levelo://app?vid=56e09bd2-5ce7-4c5b-b607-259a8d82b4a9"},"vehicle_type_id":"4","last_reported":1702638357,"current_range_meters":28800,"station_id":"ce4bhf92rcd13ifvqf50","pricing_plan_id":"free"},{"bike_id":"fb71efe7-9a5c-4e7b-b7ad-6d0155124a82","system_id":"levelo_inurba_marseille","lat":43.279742,"lon":5.38744,"is_reserved":false,"is_disabled":false,"rental_uris":{"android":"levelo://app?vid=fb71efe7-9a5c-4e7b-b7ad-6d0155124a82","ios":"levelo://app?vid=fb71efe7-9a5c-4e7b-b7ad-6d0155124a82"},"vehicle_type_id":"4","last_reported":1702638357,"current_range_meters":12800,"station_id":"ce4bhg12rcd13ifvqf80","pricing_plan_id":"free"},{"bike_id":"bd4324ca-43eb-4326-9cb5-89a7a52ddb66","system_id":"levelo_inurba_marseille","lat":43.279742,"lon":5.38744,"is_reserved":false,"is_disabled":false,"rental_uris":{"android":"levelo://app?vid=bd4324ca-43eb-4326-9cb5-89a7a52ddb66","ios":"levelo://app?vid=bd4324ca-43eb-4326-9cb5-89a7a52ddb66"},"vehicle_type_id":"4","last_reported":1702638357,"current_range_meters":20400,"station_id":"ce4bhg12rcd13ifvqf80","pricing_plan_id":"free"},{"bike_id":"72da60ac-c4be-4e45-ba40-8b7f74c7f23d","system_id":"levelo_inurba_marseille","lat":43.325233,"lon":5.414318,"is_reserved":false,"is_disabled":false,"rental_uris":{"android":"levelo://app?vid=72da60ac-c4be-4e45-ba40-8b7f74c7f23d","ios":"levelo://app?vid=72da60ac-c4be-4e45-ba40-8b7f74c7f23d"},"vehicle_type_id":"4","last_reported":1702638357,"current_range_meters":31200,"station_id":"ce4bhq12rcd13ifvqhhg","pricing_plan_id":"free"},{"bike_id":"df02e553-a4ca-423e-8237-15b9c38ca522","system_id":"levelo_inurba_marseille","lat":43.303837,"lon":5.418724,"is_reserved":false,"is_disabled":false,"rental_uris":{"android":"levelo://app?vid=df02e553-a4ca-423e-8237-15b9c38ca522","ios":"levelo://app?vid=df02e553-a4ca-423e-8237-15b9c38ca522"},"vehicle_type_id":"4","last_reported":1702638357,"current_range_meters":26000,"station_id":"ce4bhop2rcd13ifvqh7g","pricing_plan_id":"free"},{"bike_id":"2b34d9c8-3f1f-40bd-b2c1-047e0924a646","system_id":"levelo_inurba_marseille","lat":43.273609,"lon":5.362708,"is_reserved":false,"is_disabled":false,"rental_uris":{"android":"levelo://app?vid=2b34d9c8-3f1f-40bd-b2c1-047e0924a646","ios":"levelo://app?vid=2b34d9c8-3f1f-40bd-b2c1-047e0924a646"},"vehicle_type_id":"4","last_reported":1702638357,"current_range_meters":24400,"station_id":"ce4bhbh2rcd13ifvqeo0","pricing_plan_id":"free"},{"bike_id":"e925b3d1-1a08-4c4b-beb4-4c15019c4a47","system_id":"levelo_inurba_marseille","lat":43.310785,"lon":5.424305,"is_reserved":false,"is_disabled":false,"rental_uris":{"android":"levelo://app?vid=e925b3d1-1a08-4c4b-beb4-4c15019c4a47","ios":"levelo://app?vid=e925b3d1-1a08-4c4b-beb4-4c15019c4a47"},"vehicle_type_id":"4","last_reported":1702638357,"current_range_meters":27200,"station_id":"ce4bhp92rcd13ifvqhag","pricing_plan_id":"free"},{"bike_id":"435c43fc-4889-44ab-9b05-535635f4a017","system_id":"levelo_inurba_marseille","lat":43.340804,"lon":5.410219,"is_reserved":false,"is_disabled":false,"rental_uris":{"android":"levelo://app?vid=435c43fc-4889-44ab-9b05-535635f4a017","ios":"levelo://app?vid=435c43fc-4889-44ab-9b05-535635f4a017"},"vehicle_type_id":"4","last_reported":1702638357,"current_range_meters":30800,"station_id":"ce4bhqh2rcd13ifvqhlg","pricing_plan_id":"free"},{"bike_id":"f66a35b3-d1a2-4e3b-a219-8bd098e9973c","system_id":"levelo_inurba_marseille","lat":43.340804,"lon":5.410219,"is_reserved":false,"is_disabled":false,"rental_uris":{"android":"levelo://app?vid=f66a35b3-d1a2-4e3b-a219-8bd098e9973c","ios":"levelo://app?vid=f66a35b3-d1a2-4e3b-a219-8bd098e9973c"},"vehicle_type_id":"4","last_reported":1702638357,"current_range_meters":11600,"station_id":"ce4bhqh2rcd13ifvqhlg","pricing_plan_id":"free"},{"bike_id":"42480997-c2e6-46dd-835e-645a39cad71d","system_id":"levelo_inurba_marseille","lat":43.340804,"lon":5.410219,"is_reserved":false,"is_disabled":false,"rental_uris":{"android":"levelo://app?vid=42480997-c2e6-46dd-835e-645a39cad71d","ios":"levelo://app?vid=42480997-c2e6-46dd-835e-645a39cad71d"},"vehicle_type_id":"4","last_reported":1702638357,"current_range_meters":31600,"station_id":"ce4bhqh2rcd13ifvqhlg","pricing_plan_id":"free"},{"bike_id":"bef127eb-ad09-4148-acb9-c2e1f27e433e","system_id":"levelo_inurba_marseille","lat":43.340804,"lon":5.410219,"is_reserved":false,"is_disabled":false,"rental_uris":{"android":"levelo://app?vid=bef127eb-ad09-4148-acb9-c2e1f27e433e","ios":"levelo://app?vid=bef127eb-ad09-4148-acb9-c2e1f27e433e"},"vehicle_type_id":"4","last_reported":1702638357,"current_range_meters":22000,"station_id":"ce4bhqh2rcd13ifvqhlg","pricing_plan_id":"free"},{"bike_id":"3ca2c2d2-99b0-4aa6-a05d-e30f02e6a7fb","system_id":"levelo_inurba_marseille","lat":43.276092,"lon":5.395289,"is_reserved":false,"is_disabled":false,"rental_uris":{"android":"levelo://app?vid=3ca2c2d2-99b0-4aa6-a05d-e30f02e6a7fb","ios":"levelo://app?vid=3ca2c2d2-99b0-4aa6-a05d-e30f02e6a7fb"},"vehicle_type_id":"4","last_reported":1702638357,"current_range_meters":28000,"station_id":"","pricing_plan_id":"free"},{"bike_id":"5d3f594c-9b0e-418e-807f-31b01190d134","system_id":"levelo_inurba_marseille","lat":43.295523,"lon":5.422926,"is_reserved":false,"is_disabled":false,"rental_uris":{"android":"levelo://app?vid=5d3f594c-9b0e-418e-807f-31b01190d134","ios":"levelo://app?vid=5d3f594c-9b0e-418e-807f-31b01190d134"},"vehicle_type_id":"4","last_reported":1702638357,"current_range_meters":28800,"station_id":"ce4bhph2rcd13ifvqhdg","pricing_plan_id":"free"},{"bike_id":"94984fc3-6575-498f-bb52-e6c05e1c5e4b","system_id":"levelo_inurba_marseille","lat":43.295523,"lon":5.422926,"is_reserved":false,"is_disabled":false,"rental_uris":{"android":"levelo://app?vid=94984fc3-6575-498f-bb52-e6c05e1c5e4b","ios":"levelo://app?vid=94984fc3-6575-498f-bb52-e6c05e1c5e4b"},"vehicle_type_id":"4","last_reported":1702638357,"current_range_meters":21600,"station_id":"ce4bhph2rcd13ifvqhdg","pricing_plan_id":"free"},{"bike_id":"5a1b5282-2b51-4d9c-bacd-5818412db10f","system_id":"levelo_inurba_marseille","lat":43.29555,"lon":5.42283,"is_reserved":false,"is_disabled":false,"rental_uris":{"android":"levelo://app?vid=5a1b5282-2b51-4d9c-bacd-5818412db10f","ios":"levelo://app?vid=5a1b5282-2b51-4d9c-bacd-5818412db10f"},"vehicle_type_id":"4","last_reported":1702638357,"current_range_meters":19600,"station_id":"ce4bhph2rcd13ifvqhdg","pricing_plan_id":"free"},{"bike_id":"9128feaf-36b8-4e63-849f-ccc68f896dc0","system_id":"levelo_inurba_marseille","lat":43.295523,"lon":5.422926,"is_reserved":false,"is_disabled":false,"rental_uris":{"android":"levelo://app?vid=9128feaf-36b8-4e63-849f-ccc68f896dc0","ios":"levelo://app?vid=9128feaf-36b8-4e63-849f-ccc68f896dc0"},"vehicle_type_id":"4","last_reported":1702638357,"current_range_meters":31600,"station_id":"ce4bhph2rcd13ifvqhdg","pricing_plan_id":"free"},{"bike_id":"44b5f216-a7b6-4c19-8600-d0fc7a6dee0a","system_id":"levelo_inurba_marseille","lat":43.295523,"lon":5.422926,"is_reserved":false,"is_disabled":false,"rental_uris":{"android":"levelo://app?vid=44b5f216-a7b6-4c19-8600-d0fc7a6dee0a","ios":"levelo://app?vid=44b5f216-a7b6-4c19-8600-d0fc7a6dee0a"},"vehicle_type_id":"4","last_reported":1702638357,"current_range_meters":23600,"station_id":"ce4bhph2rcd13ifvqhdg","pricing_plan_id":"free"},{"bike_id":"69f8ad0f-2459-47c5-93c3-15dea485ac8b","system_id":"levelo_inurba_marseille","lat":43.295511,"lon":5.422926,"is_reserved":false,"is_disabled":false,"rental_uris":{"android":"levelo://app?vid=69f8ad0f-2459-47c5-93c3-15dea485ac8b","ios":"levelo://app?vid=69f8ad0f-2459-47c5-93c3-15dea485ac8b"},"vehicle_type_id":"4","last_reported":1702638357,"current_range_meters":25600,"station_id":"ce4bhph2rcd13ifvqhdg","pricing_plan_id":"free"},{"bike_id":"a7863f6b-776e-4daa-b931-d7ecbe1a71ad","system_id":"levelo_inurba_marseille","lat":43.29552,"lon":5.42286,"is_reserved":false,"is_disabled":false,"rental_uris":{"android":"levelo://app?vid=a7863f6b-776e-4daa-b931-d7ecbe1a71ad","ios":"levelo://app?vid=a7863f6b-776e-4daa-b931-d7ecbe1a71ad"},"vehicle_type_id":"4","last_reported":1702638357,"current_range_meters":21600,"station_id":"ce4bhph2rcd13ifvqhdg","pricing_plan_id":"free"},{"bike_id":"0fdd36e0-a97d-4931-83bd-dc41afbd80cb","system_id":"levelo_inurba_marseille","lat":43.295511,"lon":5.422926,"is_reserved":false,"is_disabled":false,"rental_uris":{"android":"levelo://app?vid=0fdd36e0-a97d-4931-83bd-dc41afbd80cb","ios":"levelo://app?vid=0fdd36e0-a97d-4931-83bd-dc41afbd80cb"},"vehicle_type_id":"4","last_reported":1702638357,"current_range_meters":26000,"station_id":"ce4bhph2rcd13ifvqhdg","pricing_plan_id":"free"},{"bike_id":"1d2472e2-350f-44fa-a627-38e6bb5829da","system_id":"levelo_inurba_marseille","lat":43.295511,"lon":5.422926,"is_reserved":false,"is_disabled":false,"rental_uris":{"android":"levelo://app?vid=1d2472e2-350f-44fa-a627-38e6bb5829da","ios":"levelo://app?vid=1d2472e2-350f-44fa-a627-38e6bb5829da"},"vehicle_type_id":"4","last_reported":1702638357,"current_range_meters":27600,"station_id":"ce4bhph2rcd13ifvqhdg","pricing_plan_id":"free"},{"bike_id":"06a152b5-9ae9-41fc-b408-86d5fb5f4aa7","system_id":"levelo_inurba_marseille","lat":43.305693,"lon":5.427284,"is_reserved":false,"is_disabled":false,"rental_uris":{"android":"levelo://app?vid=06a152b5-9ae9-41fc-b408-86d5fb5f4aa7","ios":"levelo://app?vid=06a152b5-9ae9-41fc-b408-86d5fb5f4aa7"},"vehicle_type_id":"4","last_reported":1702638357,"current_range_meters":29600,"station_id":"ce4bhoh2rcd13ifvqh6g","pricing_plan_id":"free"},{"bike_id":"5ac043c2-3f2f-4aeb-85cd-6efa9fcefa9f","system_id":"levelo_inurba_marseille","lat":43.278128,"lon":5.407195,"is_reserved":false,"is_disabled":false,"rental_uris":{"android":"levelo://app?vid=5ac043c2-3f2f-4aeb-85cd-6efa9fcefa9f","ios":"levelo://app?vid=5ac043c2-3f2f-4aeb-85cd-6efa9fcefa9f"},"vehicle_type_id":"4","last_reported":1702638357,"current_range_meters":28000,"station_id":"ce4bhnh2rcd13ifvqgtg","pricing_plan_id":"free"},{"bike_id":"13136e7b-17d5-41a3-baf1-84312a187446","system_id":"levelo_inurba_marseille","lat":43.278128,"lon":5.407195,"is_reserved":false,"is_disabled":false,"rental_uris":{"android":"levelo://app?vid=13136e7b-17d5-41a3-baf1-84312a187446","ios":"levelo://app?vid=13136e7b-17d5-41a3-baf1-84312a187446"},"vehicle_type_id":"4","last_reported":1702638357,"current_range_meters":30800,"station_id":"ce4bhnh2rcd13ifvqgtg","pricing_plan_id":"free"},{"bike_id":"9ed8a8b0-adcb-4301-a90b-ada718e24e35","system_id":"levelo_inurba_marseille","lat":43.278128,"lon":5.407195,"is_reserved":false,"is_disabled":false,"rental_uris":{"android":"levelo://app?vid=9ed8a8b0-adcb-4301-a90b-ada718e24e35","ios":"levelo://app?vid=9ed8a8b0-adcb-4301-a90b-ada718e24e35"},"vehicle_type_id":"4","last_reported":1702638357,"current_range_meters":27600,"station_id":"ce4bhnh2rcd13ifvqgtg","pricing_plan_id":"free"},{"bike_id":"aaf0a2da-6559-483e-b877-95aab8f7a9d9","system_id":"levelo_inurba_marseille","lat":43.27816,"lon":5.4072,"is_reserved":false,"is_disabled":false,"rental_uris":{"android":"levelo://app?vid=aaf0a2da-6559-483e-b877-95aab8f7a9d9","ios":"levelo://app?vid=aaf0a2da-6559-483e-b877-95aab8f7a9d9"},"vehicle_type_id":"4","last_reported":1702638357,"current_range_meters":22800,"station_id":"ce4bhnh2rcd13ifvqgtg","pricing_plan_id":"free"},{"bike_id":"6baecf9e-750f-4685-ba33-d33fd9cbfd22","system_id":"levelo_inurba_marseille","lat":43.278079,"lon":5.407071,"is_reserved":false,"is_disabled":false,"rental_uris":{"android":"levelo://app?vid=6baecf9e-750f-4685-ba33-d33fd9cbfd22","ios":"levelo://app?vid=6baecf9e-750f-4685-ba33-d33fd9cbfd22"},"vehicle_type_id":"4","last_reported":1702638357,"current_range_meters":30400,"station_id":"ce4bhnh2rcd13ifvqgtg","pricing_plan_id":"free"},{"bike_id":"99672b23-a5b6-4be4-9c79-7ddffd972fd5","system_id":"levelo_inurba_marseille","lat":43.278128,"lon":5.407195,"is_reserved":false,"is_disabled":false,"rental_uris":{"android":"levelo://app?vid=99672b23-a5b6-4be4-9c79-7ddffd972fd5","ios":"levelo://app?vid=99672b23-a5b6-4be4-9c79-7ddffd972fd5"},"vehicle_type_id":"4","last_reported":1702638357,"current_range_meters":25200,"station_id":"ce4bhnh2rcd13ifvqgtg","pricing_plan_id":"free"},{"bike_id":"b3065cc4-8c73-4370-8087-57edb1a961ba","system_id":"levelo_inurba_marseille","lat":43.269319,"lon":5.389397,"is_reserved":false,"is_disabled":false,"rental_uris":{"android":"levelo://app?vid=b3065cc4-8c73-4370-8087-57edb1a961ba","ios":"levelo://app?vid=b3065cc4-8c73-4370-8087-57edb1a961ba"},"vehicle_type_id":"4","last_reported":1702638357,"current_range_meters":26800,"station_id":"ce4bhhh2rcd13ifvqfl0","pricing_plan_id":"free"},{"bike_id":"233e4d84-6e5c-4e53-ae5b-241ab43f5062","system_id":"levelo_inurba_marseille","lat":43.26812,"lon":5.38921,"is_reserved":false,"is_disabled":false,"rental_uris":{"android":"levelo://app?vid=233e4d84-6e5c-4e53-ae5b-241ab43f5062","ios":"levelo://app?vid=233e4d84-6e5c-4e53-ae5b-241ab43f5062"},"vehicle_type_id":"4","last_reported":1702638357,"current_range_meters":4400,"station_id":"","pricing_plan_id":"free"},{"bike_id":"b794e0c4-a80d-4e4f-ab9f-0c66d357f86c","system_id":"levelo_inurba_marseille","lat":43.27996,"lon":5.416643,"is_reserved":false,"is_disabled":false,"rental_uris":{"android":"levelo://app?vid=b794e0c4-a80d-4e4f-ab9f-0c66d357f86c","ios":"levelo://app?vid=b794e0c4-a80d-4e4f-ab9f-0c66d357f86c"},"vehicle_type_id":"4","last_reported":1702638357,"current_range_meters":10800,"station_id":"ce4bho12rcd13ifvqh1g","pricing_plan_id":"free"},{"bike_id":"0b69adc4-dd91-4379-bab2-f30bbaa4a680","system_id":"levelo_inurba_marseille","lat":43.27996,"lon":5.416624,"is_reserved":false,"is_disabled":false,"rental_uris":{"android":"levelo://app?vid=0b69adc4-dd91-4379-bab2-f30bbaa4a680","ios":"levelo://app?vid=0b69adc4-dd91-4379-bab2-f30bbaa4a680"},"vehicle_type_id":"4","last_reported":1702638357,"current_range_meters":27600,"station_id":"ce4bho12rcd13ifvqh1g","pricing_plan_id":"free"},{"bike_id":"8df36a2f-9a4c-411e-9780-e3e8c897fac1","system_id":"levelo_inurba_marseille","lat":43.27996,"lon":5.416624,"is_reserved":false,"is_disabled":false,"rental_uris":{"android":"levelo://app?vid=8df36a2f-9a4c-411e-9780-e3e8c897fac1","ios":"levelo://app?vid=8df36a2f-9a4c-411e-9780-e3e8c897fac1"},"vehicle_type_id":"4","last_reported":1702638357,"current_range_meters":30800,"station_id":"ce4bho12rcd13ifvqh1g","pricing_plan_id":"free"},{"bike_id":"6c35392b-0a79-49cb-9b20-603a6453776a","system_id":"levelo_inurba_marseille","lat":43.265714,"lon":5.372891,"is_reserved":false,"is_disabled":false,"rental_uris":{"android":"levelo://app?vid=6c35392b-0a79-49cb-9b20-603a6453776a","ios":"levelo://app?vid=6c35392b-0a79-49cb-9b20-603a6453776a"},"vehicle_type_id":"4","last_reported":1702638357,"current_range_meters":31200,"station_id":"ce4bhg12rcd13ifvqf70","pricing_plan_id":"free"},{"bike_id":"e1573d71-16e3-4afd-bf77-5d942f0a4d28","system_id":"levelo_inurba_marseille","lat":43.265714,"lon":5.372891,"is_reserved":false,"is_disabled":false,"rental_uris":{"android":"levelo://app?vid=e1573d71-16e3-4afd-bf77-5d942f0a4d28","ios":"levelo://app?vid=e1573d71-16e3-4afd-bf77-5d942f0a4d28"},"vehicle_type_id":"4","last_reported":1702638357,"current_range_meters":14400,"station_id":"ce4bhg12rcd13ifvqf70","pricing_plan_id":"free"},{"bike_id":"3abe65a7-8de6-4cf9-93ba-b747aa99968c","system_id":"levelo_inurba_marseille","lat":43.26189,"lon":5.37442,"is_reserved":false,"is_disabled":false,"rental_uris":{"android":"levelo://app?vid=3abe65a7-8de6-4cf9-93ba-b747aa99968c","ios":"levelo://app?vid=3abe65a7-8de6-4cf9-93ba-b747aa99968c"},"vehicle_type_id":"4","last_reported":1702638357,"current_range_meters":15600,"station_id":"ce4bhgp2rcd13ifvqfc0","pricing_plan_id":"free"},{"bike_id":"fbbbc3fc-687a-4886-b28e-abbd93c88af2","system_id":"levelo_inurba_marseille","lat":43.261782,"lon":5.374515,"is_reserved":false,"is_disabled":false,"rental_uris":{"android":"levelo://app?vid=fbbbc3fc-687a-4886-b28e-abbd93c88af2","ios":"levelo://app?vid=fbbbc3fc-687a-4886-b28e-abbd93c88af2"},"vehicle_type_id":"4","last_reported":1702638357,"current_range_meters":28400,"station_id":"ce4bhgp2rcd13ifvqfc0","pricing_plan_id":"free"},{"bike_id":"dec88595-b205-44d3-bd77-a712252a5398","system_id":"levelo_inurba_marseille","lat":43.261782,"lon":5.374515,"is_reserved":false,"is_disabled":false,"rental_uris":{"android":"levelo://app?vid=dec88595-b205-44d3-bd77-a712252a5398","ios":"levelo://app?vid=dec88595-b205-44d3-bd77-a712252a5398"},"vehicle_type_id":"4","last_reported":1702638357,"current_range_meters":28400,"station_id":"ce4bhgp2rcd13ifvqfc0","pricing_plan_id":"free"},{"bike_id":"042f3ecb-e781-419a-99eb-dc757092b818","system_id":"levelo_inurba_marseille","lat":43.261782,"lon":5.374515,"is_reserved":false,"is_disabled":false,"rental_uris":{"android":"levelo://app?vid=042f3ecb-e781-419a-99eb-dc757092b818","ios":"levelo://app?vid=042f3ecb-e781-419a-99eb-dc757092b818"},"vehicle_type_id":"4","last_reported":1702638357,"current_range_meters":28400,"station_id":"ce4bhgp2rcd13ifvqfc0","pricing_plan_id":"free"},{"bike_id":"dcd51afc-e0ea-40ce-a3ed-c5c9a2a1a2ae","system_id":"levelo_inurba_marseille","lat":43.317104,"lon":5.436818,"is_reserved":false,"is_disabled":false,"rental_uris":{"android":"levelo://app?vid=dcd51afc-e0ea-40ce-a3ed-c5c9a2a1a2ae","ios":"levelo://app?vid=dcd51afc-e0ea-40ce-a3ed-c5c9a2a1a2ae"},"vehicle_type_id":"4","last_reported":1702638357,"current_range_meters":28800,"station_id":"ce4bhp92rcd13ifvqhcg","pricing_plan_id":"free"},{"bike_id":"4510633c-6100-41ad-9855-e4f0def2a04e","system_id":"levelo_inurba_marseille","lat":43.29901,"lon":5.43665,"is_reserved":false,"is_disabled":false,"rental_uris":{"android":"levelo://app?vid=4510633c-6100-41ad-9855-e4f0def2a04e","ios":"levelo://app?vid=4510633c-6100-41ad-9855-e4f0def2a04e"},"vehicle_type_id":"4","last_reported":1702638357,"current_range_meters":20400,"station_id":"ce4bhpp2rcd13ifvqhfg","pricing_plan_id":"free"},{"bike_id":"281cc086-7c8f-44e0-abbe-0ddc559b2c6b","system_id":"levelo_inurba_marseille","lat":43.281548,"lon":5.42643,"is_reserved":false,"is_disabled":false,"rental_uris":{"android":"levelo://app?vid=281cc086-7c8f-44e0-abbe-0ddc559b2c6b","ios":"levelo://app?vid=281cc086-7c8f-44e0-abbe-0ddc559b2c6b"},"vehicle_type_id":"4","last_reported":1702638357,"current_range_meters":31200,"station_id":"ce4bhnh2rcd13ifvqgug","pricing_plan_id":"free"},{"bike_id":"898f9814-e653-48c5-8d49-4d5eaed0dd4d","system_id":"levelo_inurba_marseille","lat":43.281548,"lon":5.42643,"is_reserved":false,"is_disabled":false,"rental_uris":{"android":"levelo://app?vid=898f9814-e653-48c5-8d49-4d5eaed0dd4d","ios":"levelo://app?vid=898f9814-e653-48c5-8d49-4d5eaed0dd4d"},"vehicle_type_id":"4","last_reported":1702638357,"current_range_meters":28000,"station_id":"ce4bhnh2rcd13ifvqgug","pricing_plan_id":"free"},{"bike_id":"e1a4e7f2-d6c9-431f-9be0-2c76848eb849","system_id":"levelo_inurba_marseille","lat":43.281548,"lon":5.42643,"is_reserved":false,"is_disabled":false,"rental_uris":{"android":"levelo://app?vid=e1a4e7f2-d6c9-431f-9be0-2c76848eb849","ios":"levelo://app?vid=e1a4e7f2-d6c9-431f-9be0-2c76848eb849"},"vehicle_type_id":"4","last_reported":1702638357,"current_range_meters":30000,"station_id":"ce4bhnh2rcd13ifvqgug","pricing_plan_id":"free"},{"bike_id":"5a7aad06-a599-40eb-87c0-e5cd41ac6735","system_id":"levelo_inurba_marseille","lat":43.260539,"lon":5.394015,"is_reserved":false,"is_disabled":false,"rental_uris":{"android":"levelo://app?vid=5a7aad06-a599-40eb-87c0-e5cd41ac6735","ios":"levelo://app?vid=5a7aad06-a599-40eb-87c0-e5cd41ac6735"},"vehicle_type_id":"4","last_reported":1702638357,"current_range_meters":22800,"station_id":"","pricing_plan_id":"free"},{"bike_id":"7f1d355d-d0e0-455c-acdb-1d3fb2975bf5","system_id":"levelo_inurba_marseille","lat":43.275028,"lon":5.424534,"is_reserved":false,"is_disabled":false,"rental_uris":{"android":"levelo://app?vid=7f1d355d-d0e0-455c-acdb-1d3fb2975bf5","ios":"levelo://app?vid=7f1d355d-d0e0-455c-acdb-1d3fb2975bf5"},"vehicle_type_id":"4","last_reported":1702638357,"current_range_meters":22000,"station_id":"ce4bhn92rcd13ifvqgrg","pricing_plan_id":"free"},{"bike_id":"0b41f3a7-2efa-462f-b0bd-2fee3739c3ce","system_id":"levelo_inurba_marseille","lat":43.275028,"lon":5.424534,"is_reserved":false,"is_disabled":false,"rental_uris":{"android":"levelo://app?vid=0b41f3a7-2efa-462f-b0bd-2fee3739c3ce","ios":"levelo://app?vid=0b41f3a7-2efa-462f-b0bd-2fee3739c3ce"},"vehicle_type_id":"4","last_reported":1702638357,"current_range_meters":31600,"station_id":"ce4bhn92rcd13ifvqgrg","pricing_plan_id":"free"},{"bike_id":"7a3b8a2b-9eaf-4ce3-9206-95378878fe92","system_id":"levelo_inurba_marseille","lat":43.275028,"lon":5.424534,"is_reserved":false,"is_disabled":false,"rental_uris":{"android":"levelo://app?vid=7a3b8a2b-9eaf-4ce3-9206-95378878fe92","ios":"levelo://app?vid=7a3b8a2b-9eaf-4ce3-9206-95378878fe92"},"vehicle_type_id":"4","last_reported":1702638357,"current_range_meters":30400,"station_id":"ce4bhn92rcd13ifvqgrg","pricing_plan_id":"free"},{"bike_id":"98f76432-4a0c-4f4b-ab4c-b425671124f8","system_id":"levelo_inurba_marseille","lat":43.25493,"lon":5.37648,"is_reserved":false,"is_disabled":false,"rental_uris":{"android":"levelo://app?vid=98f76432-4a0c-4f4b-ab4c-b425671124f8","ios":"levelo://app?vid=98f76432-4a0c-4f4b-ab4c-b425671124f8"},"vehicle_type_id":"4","last_reported":1702638357,"current_range_meters":5200,"station_id":"ce4bhh12rcd13ifvqff0","pricing_plan_id":"free"},{"bike_id":"9c3c7a57-ad11-4999-a6bb-c2cc2581b075","system_id":"levelo_inurba_marseille","lat":43.27066,"lon":5.42278,"is_reserved":false,"is_disabled":false,"rental_uris":{"android":"levelo://app?vid=9c3c7a57-ad11-4999-a6bb-c2cc2581b075","ios":"levelo://app?vid=9c3c7a57-ad11-4999-a6bb-c2cc2581b075"},"vehicle_type_id":"4","last_reported":1702638357,"current_range_meters":28000,"station_id":"","pricing_plan_id":"free"},{"bike_id":"6ac9f128-ddfa-4e31-a487-dd14c456b374","system_id":"levelo_inurba_marseille","lat":43.25941,"lon":5.40902,"is_reserved":false,"is_disabled":false,"rental_uris":{"android":"levelo://app?vid=6ac9f128-ddfa-4e31-a487-dd14c456b374","ios":"levelo://app?vid=6ac9f128-ddfa-4e31-a487-dd14c456b374"},"vehicle_type_id":"4","last_reported":1702638357,"current_range_meters":7600,"station_id":"ce4bhm92rcd13ifvqglg","pricing_plan_id":"free"},{"bike_id":"974d0537-2322-48eb-8813-582c8783fb65","system_id":"levelo_inurba_marseille","lat":43.259009,"lon":5.40929,"is_reserved":false,"is_disabled":false,"rental_uris":{"android":"levelo://app?vid=974d0537-2322-48eb-8813-582c8783fb65","ios":"levelo://app?vid=974d0537-2322-48eb-8813-582c8783fb65"},"vehicle_type_id":"4","last_reported":1702638357,"current_range_meters":15200,"station_id":"ce4bhm92rcd13ifvqglg","pricing_plan_id":"free"},{"bike_id":"e1ce5875-df5e-453d-aca3-a97eb03dbea1","system_id":"levelo_inurba_marseille","lat":43.25936,"lon":5.40913,"is_reserved":false,"is_disabled":false,"rental_uris":{"android":"levelo://app?vid=e1ce5875-df5e-453d-aca3-a97eb03dbea1","ios":"levelo://app?vid=e1ce5875-df5e-453d-aca3-a97eb03dbea1"},"vehicle_type_id":"4","last_reported":1702638357,"current_range_meters":19200,"station_id":"ce4bhm92rcd13ifvqglg","pricing_plan_id":"free"},{"bike_id":"db140ae3-05d1-43cc-a7cb-19fe416166e3","system_id":"levelo_inurba_marseille","lat":43.25933,"lon":5.40911,"is_reserved":false,"is_disabled":false,"rental_uris":{"android":"levelo://app?vid=db140ae3-05d1-43cc-a7cb-19fe416166e3","ios":"levelo://app?vid=db140ae3-05d1-43cc-a7cb-19fe416166e3"},"vehicle_type_id":"4","last_reported":1702638357,"current_range_meters":11600,"station_id":"ce4bhm92rcd13ifvqglg","pricing_plan_id":"free"},{"bike_id":"b0f80740-e3e1-420c-9fab-1084f4861ab8","system_id":"levelo_inurba_marseille","lat":43.25933,"lon":5.40911,"is_reserved":false,"is_disabled":false,"rental_uris":{"android":"levelo://app?vid=b0f80740-e3e1-420c-9fab-1084f4861ab8","ios":"levelo://app?vid=b0f80740-e3e1-420c-9fab-1084f4861ab8"},"vehicle_type_id":"4","last_reported":1702638357,"current_range_meters":22800,"station_id":"ce4bhm92rcd13ifvqglg","pricing_plan_id":"free"},{"bike_id":"640714f5-618c-4118-bfeb-63a862712304","system_id":"levelo_inurba_marseille","lat":43.259009,"lon":5.40929,"is_reserved":false,"is_disabled":false,"rental_uris":{"android":"levelo://app?vid=640714f5-618c-4118-bfeb-63a862712304","ios":"levelo://app?vid=640714f5-618c-4118-bfeb-63a862712304"},"vehicle_type_id":"4","last_reported":1702638357,"current_range_meters":22400,"station_id":"ce4bhm92rcd13ifvqglg","pricing_plan_id":"free"},{"bike_id":"4977ef1c-759d-460b-be92-ce3af5cbab8e","system_id":"levelo_inurba_marseille","lat":43.25933,"lon":5.40913,"is_reserved":false,"is_disabled":false,"rental_uris":{"android":"levelo://app?vid=4977ef1c-759d-460b-be92-ce3af5cbab8e","ios":"levelo://app?vid=4977ef1c-759d-460b-be92-ce3af5cbab8e"},"vehicle_type_id":"4","last_reported":1702638357,"current_range_meters":19200,"station_id":"ce4bhm92rcd13ifvqglg","pricing_plan_id":"free"},{"bike_id":"35364066-adc2-47be-9522-4c24a54ce8e0","system_id":"levelo_inurba_marseille","lat":43.259013,"lon":5.409301,"is_reserved":false,"is_disabled":false,"rental_uris":{"android":"levelo://app?vid=35364066-adc2-47be-9522-4c24a54ce8e0","ios":"levelo://app?vid=35364066-adc2-47be-9522-4c24a54ce8e0"},"vehicle_type_id":"4","last_reported":1702638357,"current_range_meters":16800,"station_id":"ce4bhm92rcd13ifvqglg","pricing_plan_id":"free"},{"bike_id":"1e9e428d-b61f-405f-b6da-009e00ac3d50","system_id":"levelo_inurba_marseille","lat":43.250009,"lon":5.389195,"is_reserved":false,"is_disabled":false,"rental_uris":{"android":"levelo://app?vid=1e9e428d-b61f-405f-b6da-009e00ac3d50","ios":"levelo://app?vid=1e9e428d-b61f-405f-b6da-009e00ac3d50"},"vehicle_type_id":"4","last_reported":1702638357,"current_range_meters":22800,"station_id":"ce4bhgp2rcd13ifvqfd0","pricing_plan_id":"free"},{"bike_id":"ec16a795-5585-444e-8ca4-570968e9dc79","system_id":"levelo_inurba_marseille","lat":43.250009,"lon":5.389195,"is_reserved":false,"is_disabled":false,"rental_uris":{"android":"levelo://app?vid=ec16a795-5585-444e-8ca4-570968e9dc79","ios":"levelo://app?vid=ec16a795-5585-444e-8ca4-570968e9dc79"},"vehicle_type_id":"4","last_reported":1702638357,"current_range_meters":23200,"station_id":"ce4bhgp2rcd13ifvqfd0","pricing_plan_id":"free"},{"bike_id":"5297fcc5-1945-4ff2-a2b1-e38307af91ef","system_id":"levelo_inurba_marseille","lat":43.250009,"lon":5.389195,"is_reserved":false,"is_disabled":false,"rental_uris":{"android":"levelo://app?vid=5297fcc5-1945-4ff2-a2b1-e38307af91ef","ios":"levelo://app?vid=5297fcc5-1945-4ff2-a2b1-e38307af91ef"},"vehicle_type_id":"4","last_reported":1702638357,"current_range_meters":23600,"station_id":"ce4bhgp2rcd13ifvqfd0","pricing_plan_id":"free"},{"bike_id":"a5bc77c8-399e-4356-b8c2-77e7577aea13","system_id":"levelo_inurba_marseille","lat":43.2479,"lon":5.374457,"is_reserved":false,"is_disabled":false,"rental_uris":{"android":"levelo://app?vid=a5bc77c8-399e-4356-b8c2-77e7577aea13","ios":"levelo://app?vid=a5bc77c8-399e-4356-b8c2-77e7577aea13"},"vehicle_type_id":"4","last_reported":1702638357,"current_range_meters":29600,"station_id":"ce4bhgh2rcd13ifvqfb0","pricing_plan_id":"free"},{"bike_id":"7ed7460e-fc93-40b0-a372-719690ef3251","system_id":"levelo_inurba_marseille","lat":43.250023,"lon":5.38919,"is_reserved":false,"is_disabled":false,"rental_uris":{"android":"levelo://app?vid=7ed7460e-fc93-40b0-a372-719690ef3251","ios":"levelo://app?vid=7ed7460e-fc93-40b0-a372-719690ef3251"},"vehicle_type_id":"4","last_reported":1702638357,"current_range_meters":20800,"station_id":"ce4bhgp2rcd13ifvqfd0","pricing_plan_id":"free"},{"bike_id":"c6090ec4-8560-48bc-94a6-7a1d3e384089","system_id":"levelo_inurba_marseille","lat":43.25102,"lon":5.403214,"is_reserved":false,"is_disabled":false,"rental_uris":{"android":"levelo://app?vid=c6090ec4-8560-48bc-94a6-7a1d3e384089","ios":"levelo://app?vid=c6090ec4-8560-48bc-94a6-7a1d3e384089"},"vehicle_type_id":"4","last_reported":1702638357,"current_range_meters":12400,"station_id":"ce4bhlh2rcd13ifvqgig","pricing_plan_id":"free"},{"bike_id":"3e136f55-94b9-44dc-b71a-9ddbf22ab5e7","system_id":"levelo_inurba_marseille","lat":43.24663,"lon":5.38153,"is_reserved":false,"is_disabled":false,"rental_uris":{"android":"levelo://app?vid=3e136f55-94b9-44dc-b71a-9ddbf22ab5e7","ios":"levelo://app?vid=3e136f55-94b9-44dc-b71a-9ddbf22ab5e7"},"vehicle_type_id":"4","last_reported":1702638357,"current_range_meters":5200,"station_id":"ce4bhih2rcd13ifvqfr0","pricing_plan_id":"free"},{"bike_id":"76b3450d-b4f9-4302-bdc7-d4c7b251dffc","system_id":"levelo_inurba_marseille","lat":43.25102,"lon":5.403214,"is_reserved":false,"is_disabled":false,"rental_uris":{"android":"levelo://app?vid=76b3450d-b4f9-4302-bdc7-d4c7b251dffc","ios":"levelo://app?vid=76b3450d-b4f9-4302-bdc7-d4c7b251dffc"},"vehicle_type_id":"4","last_reported":1702638357,"current_range_meters":29200,"station_id":"ce4bhlh2rcd13ifvqgig","pricing_plan_id":"free"},{"bike_id":"75e7fda2-ef5f-4af1-bebc-e679c02badd3","system_id":"levelo_inurba_marseille","lat":43.25102,"lon":5.403214,"is_reserved":false,"is_disabled":false,"rental_uris":{"android":"levelo://app?vid=75e7fda2-ef5f-4af1-bebc-e679c02badd3","ios":"levelo://app?vid=75e7fda2-ef5f-4af1-bebc-e679c02badd3"},"vehicle_type_id":"4","last_reported":1702638357,"current_range_meters":14400,"station_id":"ce4bhlh2rcd13ifvqgig","pricing_plan_id":"free"},{"bike_id":"ed9632cc-8dd9-4331-9652-db0cdf9b04c9","system_id":"levelo_inurba_marseille","lat":43.24693,"lon":5.382096,"is_reserved":false,"is_disabled":false,"rental_uris":{"android":"levelo://app?vid=ed9632cc-8dd9-4331-9652-db0cdf9b04c9","ios":"levelo://app?vid=ed9632cc-8dd9-4331-9652-db0cdf9b04c9"},"vehicle_type_id":"4","last_reported":1702638357,"current_range_meters":22400,"station_id":"ce4bhih2rcd13ifvqfr0","pricing_plan_id":"free"},{"bike_id":"707d78d9-2f46-4a12-9014-c30042a580b2","system_id":"levelo_inurba_marseille","lat":43.246595,"lon":5.381587,"is_reserved":false,"is_disabled":false,"rental_uris":{"android":"levelo://app?vid=707d78d9-2f46-4a12-9014-c30042a580b2","ios":"levelo://app?vid=707d78d9-2f46-4a12-9014-c30042a580b2"},"vehicle_type_id":"4","last_reported":1702638357,"current_range_meters":14800,"station_id":"ce4bhih2rcd13ifvqfr0","pricing_plan_id":"free"},{"bike_id":"4801bce4-f2d8-4d38-9b21-58084e0cd275","system_id":"levelo_inurba_marseille","lat":43.25102,"lon":5.403214,"is_reserved":false,"is_disabled":false,"rental_uris":{"android":"levelo://app?vid=4801bce4-f2d8-4d38-9b21-58084e0cd275","ios":"levelo://app?vid=4801bce4-f2d8-4d38-9b21-58084e0cd275"},"vehicle_type_id":"4","last_reported":1702638357,"current_range_meters":23200,"station_id":"ce4bhlh2rcd13ifvqgig","pricing_plan_id":"free"},{"bike_id":"8f56fd84-9b07-4290-b5e3-cac21f5b1a8f","system_id":"levelo_inurba_marseille","lat":43.25102,"lon":5.403214,"is_reserved":false,"is_disabled":false,"rental_uris":{"android":"levelo://app?vid=8f56fd84-9b07-4290-b5e3-cac21f5b1a8f","ios":"levelo://app?vid=8f56fd84-9b07-4290-b5e3-cac21f5b1a8f"},"vehicle_type_id":"4","last_reported":1702638357,"current_range_meters":18800,"station_id":"ce4bhlh2rcd13ifvqgig","pricing_plan_id":"free"},{"bike_id":"770ef6a2-0a17-41d1-bf0a-a6704725080d","system_id":"levelo_inurba_marseille","lat":43.25102,"lon":5.403214,"is_reserved":false,"is_disabled":false,"rental_uris":{"android":"levelo://app?vid=770ef6a2-0a17-41d1-bf0a-a6704725080d","ios":"levelo://app?vid=770ef6a2-0a17-41d1-bf0a-a6704725080d"},"vehicle_type_id":"4","last_reported":1702638357,"current_range_meters":3200,"station_id":"ce4bhlh2rcd13ifvqgig","pricing_plan_id":"free"},{"bike_id":"f269f42c-dbc8-42e9-bf16-9bc34a050758","system_id":"levelo_inurba_marseille","lat":43.25102,"lon":5.403214,"is_reserved":false,"is_disabled":false,"rental_uris":{"android":"levelo://app?vid=f269f42c-dbc8-42e9-bf16-9bc34a050758","ios":"levelo://app?vid=f269f42c-dbc8-42e9-bf16-9bc34a050758"},"vehicle_type_id":"4","last_reported":1702638357,"current_range_meters":16800,"station_id":"ce4bhlh2rcd13ifvqgig","pricing_plan_id":"free"},{"bike_id":"a2dda63e-6f80-4f86-ab71-bbfb2699139a","system_id":"levelo_inurba_marseille","lat":43.25102,"lon":5.403214,"is_reserved":false,"is_disabled":false,"rental_uris":{"android":"levelo://app?vid=a2dda63e-6f80-4f86-ab71-bbfb2699139a","ios":"levelo://app?vid=a2dda63e-6f80-4f86-ab71-bbfb2699139a"},"vehicle_type_id":"4","last_reported":1702638357,"current_range_meters":31200,"station_id":"ce4bhlh2rcd13ifvqgig","pricing_plan_id":"free"},{"bike_id":"f8439625-ee9d-4d9c-9264-2936b8368847","system_id":"levelo_inurba_marseille","lat":43.25102,"lon":5.403214,"is_reserved":false,"is_disabled":false,"rental_uris":{"android":"levelo://app?vid=f8439625-ee9d-4d9c-9264-2936b8368847","ios":"levelo://app?vid=f8439625-ee9d-4d9c-9264-2936b8368847"},"vehicle_type_id":"4","last_reported":1702638357,"current_range_meters":13200,"station_id":"ce4bhlh2rcd13ifvqgig","pricing_plan_id":"free"},{"bike_id":"00d6a301-8506-46e6-97b4-90d5cba35057","system_id":"levelo_inurba_marseille","lat":43.246467,"lon":5.388984,"is_reserved":false,"is_disabled":false,"rental_uris":{"android":"levelo://app?vid=00d6a301-8506-46e6-97b4-90d5cba35057","ios":"levelo://app?vid=00d6a301-8506-46e6-97b4-90d5cba35057"},"vehicle_type_id":"4","last_reported":1702638357,"current_range_meters":30800,"station_id":"ce4bhg12rcd13ifvqf60","pricing_plan_id":"free"},{"bike_id":"24cf7ba8-9382-4158-b77d-2dba9f470feb","system_id":"levelo_inurba_marseille","lat":43.243884,"lon":5.370736,"is_reserved":false,"is_disabled":false,"rental_uris":{"android":"levelo://app?vid=24cf7ba8-9382-4158-b77d-2dba9f470feb","ios":"levelo://app?vid=24cf7ba8-9382-4158-b77d-2dba9f470feb"},"vehicle_type_id":"4","last_reported":1702638357,"current_range_meters":27200,"station_id":"ce4bhhh2rcd13ifvqfk0","pricing_plan_id":"free"},{"bike_id":"0b62bb29-02fd-4a95-ab0f-8ca69b333db9","system_id":"levelo_inurba_marseille","lat":43.243884,"lon":5.370737,"is_reserved":false,"is_disabled":false,"rental_uris":{"android":"levelo://app?vid=0b62bb29-02fd-4a95-ab0f-8ca69b333db9","ios":"levelo://app?vid=0b62bb29-02fd-4a95-ab0f-8ca69b333db9"},"vehicle_type_id":"4","last_reported":1702638357,"current_range_meters":18400,"station_id":"ce4bhhh2rcd13ifvqfk0","pricing_plan_id":"free"},{"bike_id":"180d3e01-737a-4839-b7d6-7587e3a7b83b","system_id":"levelo_inurba_marseille","lat":43.239588,"lon":5.366238,"is_reserved":false,"is_disabled":false,"rental_uris":{"android":"levelo://app?vid=180d3e01-737a-4839-b7d6-7587e3a7b83b","ios":"levelo://app?vid=180d3e01-737a-4839-b7d6-7587e3a7b83b"},"vehicle_type_id":"4","last_reported":1702638357,"current_range_meters":23200,"station_id":"ce4bhi12rcd13ifvqfp0","pricing_plan_id":"free"},{"bike_id":"91e2d1f5-a49f-47fa-a88a-f82abbf45c4b","system_id":"levelo_inurba_marseille","lat":43.239588,"lon":5.366238,"is_reserved":false,"is_disabled":false,"rental_uris":{"android":"levelo://app?vid=91e2d1f5-a49f-47fa-a88a-f82abbf45c4b","ios":"levelo://app?vid=91e2d1f5-a49f-47fa-a88a-f82abbf45c4b"},"vehicle_type_id":"4","last_reported":1702638357,"current_range_meters":24800,"station_id":"ce4bhi12rcd13ifvqfp0","pricing_plan_id":"free"},{"bike_id":"ebbe1ab4-3413-43cb-b51f-b32ca996f64c","system_id":"levelo_inurba_marseille","lat":43.23537,"lon":5.399147,"is_reserved":false,"is_disabled":false,"rental_uris":{"android":"levelo://app?vid=ebbe1ab4-3413-43cb-b51f-b32ca996f64c","ios":"levelo://app?vid=ebbe1ab4-3413-43cb-b51f-b32ca996f64c"},"vehicle_type_id":"4","last_reported":1702638357,"current_range_meters":10000,"station_id":"ce4bhn12rcd13ifvqgqg","pricing_plan_id":"free"},{"bike_id":"160d3fcc-bd25-4280-b137-d9379b2a4d30","system_id":"levelo_inurba_marseille","lat":43.231919,"lon":5.355532,"is_reserved":false,"is_disabled":false,"rental_uris":{"android":"levelo://app?vid=160d3fcc-bd25-4280-b137-d9379b2a4d30","ios":"levelo://app?vid=160d3fcc-bd25-4280-b137-d9379b2a4d30"},"vehicle_type_id":"4","last_reported":1702638357,"current_range_meters":20400,"station_id":"ce4bhu92rcd13ifvqi70","pricing_plan_id":"free"},{"bike_id":"5c56cc11-c1ca-430f-b898-95a1151d8a21","system_id":"levelo_inurba_marseille","lat":43.232,"lon":5.35547,"is_reserved":false,"is_disabled":false,"rental_uris":{"android":"levelo://app?vid=5c56cc11-c1ca-430f-b898-95a1151d8a21","ios":"levelo://app?vid=5c56cc11-c1ca-430f-b898-95a1151d8a21"},"vehicle_type_id":"4","last_reported":1702638357,"current_range_meters":27600,"station_id":"ce4bhu92rcd13ifvqi70","pricing_plan_id":"free"},{"bike_id":"81e904a9-3da5-429d-9d59-11820eabd019","system_id":"levelo_inurba_marseille","lat":43.231919,"lon":5.355532,"is_reserved":false,"is_disabled":false,"rental_uris":{"android":"levelo://app?vid=81e904a9-3da5-429d-9d59-11820eabd019","ios":"levelo://app?vid=81e904a9-3da5-429d-9d59-11820eabd019"},"vehicle_type_id":"4","last_reported":1702638357,"current_range_meters":27200,"station_id":"ce4bhu92rcd13ifvqi70","pricing_plan_id":"free"},{"bike_id":"1c152701-4b2a-4bae-9910-af52ecb96d7d","system_id":"levelo_inurba_marseille","lat":43.23192,"lon":5.355432,"is_reserved":false,"is_disabled":false,"rental_uris":{"android":"levelo://app?vid=1c152701-4b2a-4bae-9910-af52ecb96d7d","ios":"levelo://app?vid=1c152701-4b2a-4bae-9910-af52ecb96d7d"},"vehicle_type_id":"4","last_reported":1702638357,"current_range_meters":15600,"station_id":"ce4bhu92rcd13ifvqi70","pricing_plan_id":"free"},{"bike_id":"d657bd16-ddba-486a-8e03-61a1863435fa","system_id":"levelo_inurba_marseille","lat":43.231794,"lon":5.400052,"is_reserved":false,"is_disabled":false,"rental_uris":{"android":"levelo://app?vid=d657bd16-ddba-486a-8e03-61a1863435fa","ios":"levelo://app?vid=d657bd16-ddba-486a-8e03-61a1863435fa"},"vehicle_type_id":"4","last_reported":1702638357,"current_range_meters":30400,"station_id":"ce4bhn12rcd13ifvqgqg","pricing_plan_id":"free"},{"bike_id":"15390e95-9aad-4940-b530-77bde5a963d6","system_id":"levelo_inurba_marseille","lat":43.231793,"lon":5.400044,"is_reserved":false,"is_disabled":false,"rental_uris":{"android":"levelo://app?vid=15390e95-9aad-4940-b530-77bde5a963d6","ios":"levelo://app?vid=15390e95-9aad-4940-b530-77bde5a963d6"},"vehicle_type_id":"4","last_reported":1702638357,"current_range_meters":26800,"station_id":"ce4bhn12rcd13ifvqgqg","pricing_plan_id":"free"},{"bike_id":"d670efb1-efdf-42e6-83af-fe750cac2ec7","system_id":"levelo_inurba_marseille","lat":43.2318,"lon":5.39991,"is_reserved":false,"is_disabled":false,"rental_uris":{"android":"levelo://app?vid=d670efb1-efdf-42e6-83af-fe750cac2ec7","ios":"levelo://app?vid=d670efb1-efdf-42e6-83af-fe750cac2ec7"},"vehicle_type_id":"4","last_reported":1702638357,"current_range_meters":14000,"station_id":"ce4bhn12rcd13ifvqgqg","pricing_plan_id":"free"},{"bike_id":"9ea1be43-fefe-4b43-a11d-aef0c1b7e1e5","system_id":"levelo_inurba_marseille","lat":43.231794,"lon":5.400052,"is_reserved":false,"is_disabled":false,"rental_uris":{"android":"levelo://app?vid=9ea1be43-fefe-4b43-a11d-aef0c1b7e1e5","ios":"levelo://app?vid=9ea1be43-fefe-4b43-a11d-aef0c1b7e1e5"},"vehicle_type_id":"4","last_reported":1702638357,"current_range_meters":9600,"station_id":"ce4bhn12rcd13ifvqgqg","pricing_plan_id":"free"},{"bike_id":"d0d0daa4-e934-4a9a-bcc9-d07eea8d3617","system_id":"levelo_inurba_marseille","lat":43.23152,"lon":5.43716,"is_reserved":false,"is_disabled":false,"rental_uris":{"android":"levelo://app?vid=d0d0daa4-e934-4a9a-bcc9-d07eea8d3617","ios":"levelo://app?vid=d0d0daa4-e934-4a9a-bcc9-d07eea8d3617"},"vehicle_type_id":"4","last_reported":1702638357,"current_range_meters":10000,"station_id":"ce4bhmp2rcd13ifvqgog","pricing_plan_id":"free"}]}}