{"last_updated":1779481782,"ttl":60,"version":"2.2","data":{"bikes":[{"bike_id":"7d641315-6110-49cb-a9dd-d637ff032de1","system_id":"levelo_inurba_marseille","lat":43.337444,"lon":5.374475,"is_reserved":false,"is_disabled":false,"rental_uris":{"android":"levelo://app?vid=7d641315-6110-49cb-a9dd-d637ff032de1","ios":"levelo://app?vid=7d641315-6110-49cb-a9dd-d637ff032de1"},"vehicle_type_id":"4","last_reported":1779481783,"current_range_meters":0,"station_id":"","pricing_plan_id":"cebpf4jnsgd1na2vs0mg"},{"bike_id":"2ed3c576-99df-4598-964f-671c16e614d9","system_id":"levelo_inurba_marseille","lat":43.281055,"lon":5.378458,"is_reserved":false,"is_disabled":false,"rental_uris":{"android":"levelo://app?vid=2ed3c576-99df-4598-964f-671c16e614d9","ios":"levelo://app?vid=2ed3c576-99df-4598-964f-671c16e614d9"},"vehicle_type_id":"4","last_reported":1779481783,"current_range_meters":2800,"station_id":"ce4bha12rcd13ifvqee0","pricing_plan_id":"cebpf4jnsgd1na2vs0mg"},{"bike_id":"ad6d8b73-6259-410d-979f-09e40ec16dc9","system_id":"levelo_inurba_marseille","lat":43.3082,"lon":5.37198,"is_reserved":false,"is_disabled":false,"rental_uris":{"android":"levelo://app?vid=ad6d8b73-6259-410d-979f-09e40ec16dc9","ios":"levelo://app?vid=ad6d8b73-6259-410d-979f-09e40ec16dc9"},"vehicle_type_id":"4","last_reported":1779481783,"current_range_meters":2800,"station_id":"","pricing_plan_id":"cebpf4jnsgd1na2vs0mg"},{"bike_id":"659c2a7d-0ea7-4860-8a0d-b842864337df","system_id":"levelo_inurba_marseille","lat":43.270516,"lon":5.402619,"is_reserved":false,"is_disabled":false,"rental_uris":{"android":"levelo://app?vid=659c2a7d-0ea7-4860-8a0d-b842864337df","ios":"levelo://app?vid=659c2a7d-0ea7-4860-8a0d-b842864337df"},"vehicle_type_id":"4","last_reported":1779481783,"current_range_meters":2800,"station_id":"ce4bhk92rcd13ifvqgc0","pricing_plan_id":"cebpf4jnsgd1na2vs0mg"},{"bike_id":"678c2486-f208-445a-a253-9dfac60b0dc7","system_id":"levelo_inurba_marseille","lat":43.32454,"lon":5.36882,"is_reserved":false,"is_disabled":false,"rental_uris":{"android":"levelo://app?vid=678c2486-f208-445a-a253-9dfac60b0dc7","ios":"levelo://app?vid=678c2486-f208-445a-a253-9dfac60b0dc7"},"vehicle_type_id":"4","last_reported":1779481783,"current_range_meters":2800,"station_id":"","pricing_plan_id":"cebpf4jnsgd1na2vs0mg"},{"bike_id":"bd9c66d1-8252-4533-9bd9-04795d1785b6","system_id":"levelo_inurba_marseille","lat":43.26225,"lon":5.37413,"is_reserved":false,"is_disabled":true,"rental_uris":{"android":"levelo://app?vid=bd9c66d1-8252-4533-9bd9-04795d1785b6","ios":"levelo://app?vid=bd9c66d1-8252-4533-9bd9-04795d1785b6"},"vehicle_type_id":"4","last_reported":1779481783,"current_range_meters":2800,"station_id":"","pricing_plan_id":"cebpf4jnsgd1na2vs0mg"},{"bike_id":"12481d7b-ca53-44d2-a72d-3641cbe06950","system_id":"levelo_inurba_marseille","lat":43.29918,"lon":5.41053,"is_reserved":false,"is_disabled":false,"rental_uris":{"android":"levelo://app?vid=12481d7b-ca53-44d2-a72d-3641cbe06950","ios":"levelo://app?vid=12481d7b-ca53-44d2-a72d-3641cbe06950"},"vehicle_type_id":"4","last_reported":1779481783,"current_range_meters":2800,"station_id":"","pricing_plan_id":"cebpf4jnsgd1na2vs0mg"},{"bike_id":"ca8a2f0a-5935-4f1a-8f98-7a83aa5c69de","system_id":"levelo_inurba_marseille","lat":43.30699,"lon":5.36882,"is_reserved":false,"is_disabled":false,"rental_uris":{"android":"levelo://app?vid=ca8a2f0a-5935-4f1a-8f98-7a83aa5c69de","ios":"levelo://app?vid=ca8a2f0a-5935-4f1a-8f98-7a83aa5c69de"},"vehicle_type_id":"4","last_reported":1779481783,"current_range_meters":2800,"station_id":"","pricing_plan_id":"cebpf4jnsgd1na2vs0mg"},{"bike_id":"43f9baae-9ada-4c8e-8de4-50421e1986bf","system_id":"levelo_inurba_marseille","lat":43.26942,"lon":5.40258,"is_reserved":false,"is_disabled":false,"rental_uris":{"android":"levelo://app?vid=43f9baae-9ada-4c8e-8de4-50421e1986bf","ios":"levelo://app?vid=43f9baae-9ada-4c8e-8de4-50421e1986bf"},"vehicle_type_id":"4","last_reported":1779481783,"current_range_meters":2800,"station_id":"cjm6bp8fraef2m0cb0m0","pricing_plan_id":"cebpf4jnsgd1na2vs0mg"},{"bike_id":"01f4c16c-50ab-45fe-ac49-254f0609c902","system_id":"levelo_inurba_marseille","lat":43.24396,"lon":5.37071,"is_reserved":false,"is_disabled":true,"rental_uris":{"android":"levelo://app?vid=01f4c16c-50ab-45fe-ac49-254f0609c902","ios":"levelo://app?vid=01f4c16c-50ab-45fe-ac49-254f0609c902"},"vehicle_type_id":"4","last_reported":1779481783,"current_range_meters":2800,"station_id":"ce4bhhh2rcd13ifvqfk0","pricing_plan_id":"cebpf4jnsgd1na2vs0mg"},{"bike_id":"4edc3e30-d617-4ad4-a645-4294bc9bcad2","system_id":"levelo_inurba_marseille","lat":43.294378,"lon":5.397567,"is_reserved":false,"is_disabled":false,"rental_uris":{"android":"levelo://app?vid=4edc3e30-d617-4ad4-a645-4294bc9bcad2","ios":"levelo://app?vid=4edc3e30-d617-4ad4-a645-4294bc9bcad2"},"vehicle_type_id":"4","last_reported":1779481783,"current_range_meters":2800,"station_id":"ce4bh3h2rcd13ifvqdo0","pricing_plan_id":"cebpf4jnsgd1na2vs0mg"},{"bike_id":"bef50b1c-fc9b-4619-b1c7-813e61226c22","system_id":"levelo_inurba_marseille","lat":43.271706,"lon":5.40994,"is_reserved":false,"is_disabled":false,"rental_uris":{"android":"levelo://app?vid=bef50b1c-fc9b-4619-b1c7-813e61226c22","ios":"levelo://app?vid=bef50b1c-fc9b-4619-b1c7-813e61226c22"},"vehicle_type_id":"4","last_reported":1779481783,"current_range_meters":2800,"station_id":"ce4bhl12rcd13ifvqgf0","pricing_plan_id":"cebpf4jnsgd1na2vs0mg"},{"bike_id":"d5925df4-084c-4520-8a3f-e5f152dbfff6","system_id":"levelo_inurba_marseille","lat":43.3133,"lon":5.403,"is_reserved":false,"is_disabled":false,"rental_uris":{"android":"levelo://app?vid=d5925df4-084c-4520-8a3f-e5f152dbfff6","ios":"levelo://app?vid=d5925df4-084c-4520-8a3f-e5f152dbfff6"},"vehicle_type_id":"4","last_reported":1779481783,"current_range_meters":2800,"station_id":"","pricing_plan_id":"cebpf4jnsgd1na2vs0mg"},{"bike_id":"3343b1f8-b9af-461f-bbb2-5ede37c9a2aa","system_id":"levelo_inurba_marseille","lat":43.27128,"lon":5.40413,"is_reserved":false,"is_disabled":false,"rental_uris":{"android":"levelo://app?vid=3343b1f8-b9af-461f-bbb2-5ede37c9a2aa","ios":"levelo://app?vid=3343b1f8-b9af-461f-bbb2-5ede37c9a2aa"},"vehicle_type_id":"4","last_reported":1779481783,"current_range_meters":2800,"station_id":"","pricing_plan_id":"cebpf4jnsgd1na2vs0mg"},{"bike_id":"8c218a72-cddc-405e-9a2a-c6399d26a5e4","system_id":"levelo_inurba_marseille","lat":43.283514,"lon":5.381117,"is_reserved":false,"is_disabled":false,"rental_uris":{"android":"levelo://app?vid=8c218a72-cddc-405e-9a2a-c6399d26a5e4","ios":"levelo://app?vid=8c218a72-cddc-405e-9a2a-c6399d26a5e4"},"vehicle_type_id":"4","last_reported":1779481783,"current_range_meters":2800,"station_id":"ce4bh412rcd13ifvqdr0","pricing_plan_id":"cebpf4jnsgd1na2vs0mg"},{"bike_id":"42193e8f-adcc-42a7-8b8f-1af033b141e5","system_id":"levelo_inurba_marseille","lat":43.30936,"lon":5.39616,"is_reserved":false,"is_disabled":false,"rental_uris":{"android":"levelo://app?vid=42193e8f-adcc-42a7-8b8f-1af033b141e5","ios":"levelo://app?vid=42193e8f-adcc-42a7-8b8f-1af033b141e5"},"vehicle_type_id":"4","last_reported":1779481783,"current_range_meters":3200,"station_id":"ce4bh012rcd13ifvqcv0","pricing_plan_id":"cebpf4jnsgd1na2vs0mg"},{"bike_id":"3936af97-ef4d-4f58-a35e-a0221d7e9a6c","system_id":"levelo_inurba_marseille","lat":43.22563,"lon":5.41646,"is_reserved":false,"is_disabled":false,"rental_uris":{"android":"levelo://app?vid=3936af97-ef4d-4f58-a35e-a0221d7e9a6c","ios":"levelo://app?vid=3936af97-ef4d-4f58-a35e-a0221d7e9a6c"},"vehicle_type_id":"4","last_reported":1779481783,"current_range_meters":3200,"station_id":"st_d2o4gvlbi1j2169b742g","pricing_plan_id":"cebpf4jnsgd1na2vs0mg"},{"bike_id":"7ec93175-8d9c-4b31-b534-34e06405c4e0","system_id":"levelo_inurba_marseille","lat":43.29638,"lon":5.44675,"is_reserved":false,"is_disabled":false,"rental_uris":{"android":"levelo://app?vid=7ec93175-8d9c-4b31-b534-34e06405c4e0","ios":"levelo://app?vid=7ec93175-8d9c-4b31-b534-34e06405c4e0"},"vehicle_type_id":"4","last_reported":1779481783,"current_range_meters":3200,"station_id":"","pricing_plan_id":"cebpf4jnsgd1na2vs0mg"},{"bike_id":"f8b18e61-ae28-4509-ae29-9f0f6000baf4","system_id":"levelo_inurba_marseille","lat":43.26213,"lon":5.37459,"is_reserved":false,"is_disabled":false,"rental_uris":{"android":"levelo://app?vid=f8b18e61-ae28-4509-ae29-9f0f6000baf4","ios":"levelo://app?vid=f8b18e61-ae28-4509-ae29-9f0f6000baf4"},"vehicle_type_id":"4","last_reported":1779481783,"current_range_meters":3200,"station_id":"ce4bhgp2rcd13ifvqfc0","pricing_plan_id":"cebpf4jnsgd1na2vs0mg"},{"bike_id":"a501344a-4d57-45f2-a199-808d535cf4f7","system_id":"levelo_inurba_marseille","lat":43.26226,"lon":5.40445,"is_reserved":false,"is_disabled":false,"rental_uris":{"android":"levelo://app?vid=a501344a-4d57-45f2-a199-808d535cf4f7","ios":"levelo://app?vid=a501344a-4d57-45f2-a199-808d535cf4f7"},"vehicle_type_id":"4","last_reported":1779481783,"current_range_meters":3200,"station_id":"ce4bhmh2rcd13ifvqgmg","pricing_plan_id":"cebpf4jnsgd1na2vs0mg"},{"bike_id":"831eb3fe-58c0-43aa-9c3c-e788c914eb48","system_id":"levelo_inurba_marseille","lat":43.27646,"lon":5.36138,"is_reserved":false,"is_disabled":true,"rental_uris":{"android":"levelo://app?vid=831eb3fe-58c0-43aa-9c3c-e788c914eb48","ios":"levelo://app?vid=831eb3fe-58c0-43aa-9c3c-e788c914eb48"},"vehicle_type_id":"4","last_reported":1779481783,"current_range_meters":3200,"station_id":"ce4bgj92rcd13ifvqbe0","pricing_plan_id":"cebpf4jnsgd1na2vs0mg"},{"bike_id":"cf99433c-aa5f-4f04-8bd8-4700be0e4569","system_id":"levelo_inurba_marseille","lat":43.29301,"lon":5.37166,"is_reserved":false,"is_disabled":false,"rental_uris":{"android":"levelo://app?vid=cf99433c-aa5f-4f04-8bd8-4700be0e4569","ios":"levelo://app?vid=cf99433c-aa5f-4f04-8bd8-4700be0e4569"},"vehicle_type_id":"4","last_reported":1779481783,"current_range_meters":3200,"station_id":"ce4bgh92rcd13ifvqb40","pricing_plan_id":"cebpf4jnsgd1na2vs0mg"},{"bike_id":"cfc603c4-ab39-45b4-8776-e23c3342c18a","system_id":"levelo_inurba_marseille","lat":43.27928,"lon":5.38685,"is_reserved":false,"is_disabled":false,"rental_uris":{"android":"levelo://app?vid=cfc603c4-ab39-45b4-8776-e23c3342c18a","ios":"levelo://app?vid=cfc603c4-ab39-45b4-8776-e23c3342c18a"},"vehicle_type_id":"4","last_reported":1779481783,"current_range_meters":3200,"station_id":"","pricing_plan_id":"cebpf4jnsgd1na2vs0mg"},{"bike_id":"74660328-c441-4424-99ad-d9576cde46bb","system_id":"levelo_inurba_marseille","lat":43.31886,"lon":5.36816,"is_reserved":false,"is_disabled":false,"rental_uris":{"android":"levelo://app?vid=74660328-c441-4424-99ad-d9576cde46bb","ios":"levelo://app?vid=74660328-c441-4424-99ad-d9576cde46bb"},"vehicle_type_id":"4","last_reported":1779481783,"current_range_meters":3200,"station_id":"st_d6o2h0d0559c73evc1b0","pricing_plan_id":"cebpf4jnsgd1na2vs0mg"},{"bike_id":"eeca1756-cd62-40df-b0f5-c2894ddebeef","system_id":"levelo_inurba_marseille","lat":43.26207,"lon":5.38722,"is_reserved":false,"is_disabled":false,"rental_uris":{"android":"levelo://app?vid=eeca1756-cd62-40df-b0f5-c2894ddebeef","ios":"levelo://app?vid=eeca1756-cd62-40df-b0f5-c2894ddebeef"},"vehicle_type_id":"4","last_reported":1779481783,"current_range_meters":3200,"station_id":"","pricing_plan_id":"cebpf4jnsgd1na2vs0mg"},{"bike_id":"b4ff70fb-9acb-4be7-a576-ee3d94b3d3bc","system_id":"levelo_inurba_marseille","lat":43.30976,"lon":5.39083,"is_reserved":false,"is_disabled":false,"rental_uris":{"android":"levelo://app?vid=b4ff70fb-9acb-4be7-a576-ee3d94b3d3bc","ios":"levelo://app?vid=b4ff70fb-9acb-4be7-a576-ee3d94b3d3bc"},"vehicle_type_id":"4","last_reported":1779481783,"current_range_meters":3200,"station_id":"","pricing_plan_id":"cebpf4jnsgd1na2vs0mg"},{"bike_id":"278c10e2-1367-4f49-9048-90cc384d648a","system_id":"levelo_inurba_marseille","lat":43.28878,"lon":5.3584,"is_reserved":false,"is_disabled":false,"rental_uris":{"android":"levelo://app?vid=278c10e2-1367-4f49-9048-90cc384d648a","ios":"levelo://app?vid=278c10e2-1367-4f49-9048-90cc384d648a"},"vehicle_type_id":"4","last_reported":1779481783,"current_range_meters":3600,"station_id":"ce4bhb12rcd13ifvqem0","pricing_plan_id":"cebpf4jnsgd1na2vs0mg"},{"bike_id":"01c94870-6a1e-431d-93b0-5ea6e97e09a8","system_id":"levelo_inurba_marseille","lat":43.29224,"lon":5.36049,"is_reserved":false,"is_disabled":false,"rental_uris":{"android":"levelo://app?vid=01c94870-6a1e-431d-93b0-5ea6e97e09a8","ios":"levelo://app?vid=01c94870-6a1e-431d-93b0-5ea6e97e09a8"},"vehicle_type_id":"4","last_reported":1779481783,"current_range_meters":3600,"station_id":"ce4bhbh2rcd13ifvqeqg","pricing_plan_id":"cebpf4jnsgd1na2vs0mg"},{"bike_id":"76285c49-5750-42e6-ac86-3e359ce12d47","system_id":"levelo_inurba_marseille","lat":43.30149,"lon":5.380863,"is_reserved":false,"is_disabled":false,"rental_uris":{"android":"levelo://app?vid=76285c49-5750-42e6-ac86-3e359ce12d47","ios":"levelo://app?vid=76285c49-5750-42e6-ac86-3e359ce12d47"},"vehicle_type_id":"4","last_reported":1779481783,"current_range_meters":3600,"station_id":"ce4bgjp2rcd13ifvqbh0","pricing_plan_id":"cebpf4jnsgd1na2vs0mg"},{"bike_id":"29d3842c-78e9-4c8d-9620-387ce917725c","system_id":"levelo_inurba_marseille","lat":43.29616,"lon":5.3713,"is_reserved":false,"is_disabled":false,"rental_uris":{"android":"levelo://app?vid=29d3842c-78e9-4c8d-9620-387ce917725c","ios":"levelo://app?vid=29d3842c-78e9-4c8d-9620-387ce917725c"},"vehicle_type_id":"4","last_reported":1779481783,"current_range_meters":3600,"station_id":"ce4bgnh2rcd13ifvqc0g","pricing_plan_id":"cebpf4jnsgd1na2vs0mg"},{"bike_id":"c0fc652c-1559-442c-9073-abcdfaa2b068","system_id":"levelo_inurba_marseille","lat":43.28714,"lon":5.46667,"is_reserved":false,"is_disabled":false,"rental_uris":{"android":"levelo://app?vid=c0fc652c-1559-442c-9073-abcdfaa2b068","ios":"levelo://app?vid=c0fc652c-1559-442c-9073-abcdfaa2b068"},"vehicle_type_id":"4","last_reported":1779481783,"current_range_meters":3600,"station_id":"st_d6tc3vkotcvc738tfjhg","pricing_plan_id":"cebpf4jnsgd1na2vs0mg"},{"bike_id":"05781668-5791-4852-a332-38083d790184","system_id":"levelo_inurba_marseille","lat":43.23893,"lon":5.3745,"is_reserved":false,"is_disabled":false,"rental_uris":{"android":"levelo://app?vid=05781668-5791-4852-a332-38083d790184","ios":"levelo://app?vid=05781668-5791-4852-a332-38083d790184"},"vehicle_type_id":"4","last_reported":1779481783,"current_range_meters":3600,"station_id":"st_d6sm7csbq4hs73f8fpjg","pricing_plan_id":"cebpf4jnsgd1na2vs0mg"},{"bike_id":"16826eb4-3e44-42fc-834f-fd48acef22fa","system_id":"levelo_inurba_marseille","lat":43.2929,"lon":5.36854,"is_reserved":false,"is_disabled":false,"rental_uris":{"android":"levelo://app?vid=16826eb4-3e44-42fc-834f-fd48acef22fa","ios":"levelo://app?vid=16826eb4-3e44-42fc-834f-fd48acef22fa"},"vehicle_type_id":"4","last_reported":1779481783,"current_range_meters":3600,"station_id":"ce4bhbp2rcd13ifvqesg","pricing_plan_id":"cebpf4jnsgd1na2vs0mg"},{"bike_id":"1060fcfa-2808-412d-ace9-19d58700332b","system_id":"levelo_inurba_marseille","lat":43.30308,"lon":5.36906,"is_reserved":false,"is_disabled":false,"rental_uris":{"android":"levelo://app?vid=1060fcfa-2808-412d-ace9-19d58700332b","ios":"levelo://app?vid=1060fcfa-2808-412d-ace9-19d58700332b"},"vehicle_type_id":"4","last_reported":1779481783,"current_range_meters":3600,"station_id":"ce4bgqh2rcd13ifvqc5g","pricing_plan_id":"cebpf4jnsgd1na2vs0mg"},{"bike_id":"d4b24d5a-ab80-49ff-a5e8-f0826657d7ee","system_id":"levelo_inurba_marseille","lat":43.31358,"lon":5.38488,"is_reserved":false,"is_disabled":false,"rental_uris":{"android":"levelo://app?vid=d4b24d5a-ab80-49ff-a5e8-f0826657d7ee","ios":"levelo://app?vid=d4b24d5a-ab80-49ff-a5e8-f0826657d7ee"},"vehicle_type_id":"4","last_reported":1779481783,"current_range_meters":3600,"station_id":"ce4bgt92rcd13ifvqcf0","pricing_plan_id":"cebpf4jnsgd1na2vs0mg"},{"bike_id":"e3186371-0391-47d4-9927-7c8a3c2904ba","system_id":"levelo_inurba_marseille","lat":43.28304,"lon":5.38538,"is_reserved":false,"is_disabled":false,"rental_uris":{"android":"levelo://app?vid=e3186371-0391-47d4-9927-7c8a3c2904ba","ios":"levelo://app?vid=e3186371-0391-47d4-9927-7c8a3c2904ba"},"vehicle_type_id":"4","last_reported":1779481783,"current_range_meters":4000,"station_id":"","pricing_plan_id":"cebpf4jnsgd1na2vs0mg"},{"bike_id":"a84fab8c-089a-4371-8813-a34f0edb4145","system_id":"levelo_inurba_marseille","lat":43.2293,"lon":5.35373,"is_reserved":false,"is_disabled":true,"rental_uris":{"android":"levelo://app?vid=a84fab8c-089a-4371-8813-a34f0edb4145","ios":"levelo://app?vid=a84fab8c-089a-4371-8813-a34f0edb4145"},"vehicle_type_id":"4","last_reported":1779481783,"current_range_meters":4000,"station_id":"cpo3532slgdg3j2ikp40","pricing_plan_id":"cebpf4jnsgd1na2vs0mg"},{"bike_id":"e932ec08-651e-4915-bfa6-9e0fee3ef016","system_id":"levelo_inurba_marseille","lat":43.31715,"lon":5.40459,"is_reserved":false,"is_disabled":false,"rental_uris":{"android":"levelo://app?vid=e932ec08-651e-4915-bfa6-9e0fee3ef016","ios":"levelo://app?vid=e932ec08-651e-4915-bfa6-9e0fee3ef016"},"vehicle_type_id":"4","last_reported":1779481783,"current_range_meters":4000,"station_id":"ce4bh012rcd13ifvqd00","pricing_plan_id":"cebpf4jnsgd1na2vs0mg"},{"bike_id":"07247daf-b77b-4710-992e-beb4bd515990","system_id":"levelo_inurba_marseille","lat":43.25511,"lon":5.37652,"is_reserved":false,"is_disabled":false,"rental_uris":{"android":"levelo://app?vid=07247daf-b77b-4710-992e-beb4bd515990","ios":"levelo://app?vid=07247daf-b77b-4710-992e-beb4bd515990"},"vehicle_type_id":"4","last_reported":1779481783,"current_range_meters":4000,"station_id":"ce4bhh12rcd13ifvqff0","pricing_plan_id":"cebpf4jnsgd1na2vs0mg"},{"bike_id":"0515141f-c245-4fd9-bbd6-8bc3719eeff2","system_id":"levelo_inurba_marseille","lat":43.28899,"lon":5.36054,"is_reserved":false,"is_disabled":true,"rental_uris":{"android":"levelo://app?vid=0515141f-c245-4fd9-bbd6-8bc3719eeff2","ios":"levelo://app?vid=0515141f-c245-4fd9-bbd6-8bc3719eeff2"},"vehicle_type_id":"4","last_reported":1779481783,"current_range_meters":4000,"station_id":"","pricing_plan_id":"cebpf4jnsgd1na2vs0mg"},{"bike_id":"f91d1b05-ba81-422b-a82b-bcc586c9fab5","system_id":"levelo_inurba_marseille","lat":43.28105,"lon":5.37838,"is_reserved":false,"is_disabled":false,"rental_uris":{"android":"levelo://app?vid=f91d1b05-ba81-422b-a82b-bcc586c9fab5","ios":"levelo://app?vid=f91d1b05-ba81-422b-a82b-bcc586c9fab5"},"vehicle_type_id":"4","last_reported":1779481783,"current_range_meters":4000,"station_id":"ce4bha12rcd13ifvqee0","pricing_plan_id":"cebpf4jnsgd1na2vs0mg"},{"bike_id":"540a69ca-658b-4067-a2ee-d5503c2153b3","system_id":"levelo_inurba_marseille","lat":43.31385,"lon":5.38543,"is_reserved":false,"is_disabled":false,"rental_uris":{"android":"levelo://app?vid=540a69ca-658b-4067-a2ee-d5503c2153b3","ios":"levelo://app?vid=540a69ca-658b-4067-a2ee-d5503c2153b3"},"vehicle_type_id":"4","last_reported":1779481783,"current_range_meters":4000,"station_id":"ce4bgt92rcd13ifvqcf0","pricing_plan_id":"cebpf4jnsgd1na2vs0mg"},{"bike_id":"1204b2ed-716f-433d-a659-fbcf8963dc7b","system_id":"levelo_inurba_marseille","lat":43.24218,"lon":5.39703,"is_reserved":false,"is_disabled":false,"rental_uris":{"android":"levelo://app?vid=1204b2ed-716f-433d-a659-fbcf8963dc7b","ios":"levelo://app?vid=1204b2ed-716f-433d-a659-fbcf8963dc7b"},"vehicle_type_id":"4","last_reported":1779481783,"current_range_meters":4000,"station_id":"ce4bhn12rcd13ifvqgpg","pricing_plan_id":"cebpf4jnsgd1na2vs0mg"},{"bike_id":"544c3714-9187-432a-b37e-ebed552e3d0d","system_id":"levelo_inurba_marseille","lat":43.28924,"lon":5.38394,"is_reserved":false,"is_disabled":false,"rental_uris":{"android":"levelo://app?vid=544c3714-9187-432a-b37e-ebed552e3d0d","ios":"levelo://app?vid=544c3714-9187-432a-b37e-ebed552e3d0d"},"vehicle_type_id":"4","last_reported":1779481783,"current_range_meters":4000,"station_id":"ce4bh612rcd13ifvqe6g","pricing_plan_id":"cebpf4jnsgd1na2vs0mg"},{"bike_id":"8f553ecc-4868-4820-9e74-f2e94808630a","system_id":"levelo_inurba_marseille","lat":43.276642,"lon":5.388585,"is_reserved":false,"is_disabled":false,"rental_uris":{"android":"levelo://app?vid=8f553ecc-4868-4820-9e74-f2e94808630a","ios":"levelo://app?vid=8f553ecc-4868-4820-9e74-f2e94808630a"},"vehicle_type_id":"4","last_reported":1779481783,"current_range_meters":4000,"station_id":"ce4bhi12rcd13ifvqfo0","pricing_plan_id":"cebpf4jnsgd1na2vs0mg"},{"bike_id":"e3d24c03-6ca9-4ece-8523-9ee1af722b4b","system_id":"levelo_inurba_marseille","lat":43.29612,"lon":5.37723,"is_reserved":false,"is_disabled":false,"rental_uris":{"android":"levelo://app?vid=e3d24c03-6ca9-4ece-8523-9ee1af722b4b","ios":"levelo://app?vid=e3d24c03-6ca9-4ece-8523-9ee1af722b4b"},"vehicle_type_id":"4","last_reported":1779481783,"current_range_meters":4000,"station_id":"ce4bgi92rcd13ifvqb90","pricing_plan_id":"cebpf4jnsgd1na2vs0mg"},{"bike_id":"24abcfc1-4580-4a46-b970-73785234bcb8","system_id":"levelo_inurba_marseille","lat":43.24062,"lon":5.3773,"is_reserved":false,"is_disabled":false,"rental_uris":{"android":"levelo://app?vid=24abcfc1-4580-4a46-b970-73785234bcb8","ios":"levelo://app?vid=24abcfc1-4580-4a46-b970-73785234bcb8"},"vehicle_type_id":"4","last_reported":1779481783,"current_range_meters":4000,"station_id":"ce4bhnp2rcd13ifvqgvg","pricing_plan_id":"cebpf4jnsgd1na2vs0mg"},{"bike_id":"0f1760a9-bb42-4ae9-bb87-6f15ac7eae5b","system_id":"levelo_inurba_marseille","lat":43.29831,"lon":5.44053,"is_reserved":false,"is_disabled":false,"rental_uris":{"android":"levelo://app?vid=0f1760a9-bb42-4ae9-bb87-6f15ac7eae5b","ios":"levelo://app?vid=0f1760a9-bb42-4ae9-bb87-6f15ac7eae5b"},"vehicle_type_id":"4","last_reported":1779481783,"current_range_meters":4000,"station_id":"st_d3jp68qikq2c7381ktn0","pricing_plan_id":"cebpf4jnsgd1na2vs0mg"},{"bike_id":"8a59138f-e9ab-4084-bd9c-4a7113ee474f","system_id":"levelo_inurba_marseille","lat":43.255,"lon":5.37648,"is_reserved":false,"is_disabled":false,"rental_uris":{"android":"levelo://app?vid=8a59138f-e9ab-4084-bd9c-4a7113ee474f","ios":"levelo://app?vid=8a59138f-e9ab-4084-bd9c-4a7113ee474f"},"vehicle_type_id":"4","last_reported":1779481783,"current_range_meters":4400,"station_id":"ce4bhh12rcd13ifvqff0","pricing_plan_id":"cebpf4jnsgd1na2vs0mg"},{"bike_id":"c97309d8-44c6-4946-84f5-9a696edce419","system_id":"levelo_inurba_marseille","lat":43.31742,"lon":5.37777,"is_reserved":false,"is_disabled":false,"rental_uris":{"android":"levelo://app?vid=c97309d8-44c6-4946-84f5-9a696edce419","ios":"levelo://app?vid=c97309d8-44c6-4946-84f5-9a696edce419"},"vehicle_type_id":"4","last_reported":1779481783,"current_range_meters":4400,"station_id":"","pricing_plan_id":"cebpf4jnsgd1na2vs0mg"},{"bike_id":"b8c64bb1-72aa-46f0-97ef-f52101220048","system_id":"levelo_inurba_marseille","lat":43.30813,"lon":5.38133,"is_reserved":false,"is_disabled":false,"rental_uris":{"android":"levelo://app?vid=b8c64bb1-72aa-46f0-97ef-f52101220048","ios":"levelo://app?vid=b8c64bb1-72aa-46f0-97ef-f52101220048"},"vehicle_type_id":"4","last_reported":1779481783,"current_range_meters":4400,"station_id":"ce4bgt12rcd13ifvqce0","pricing_plan_id":"cebpf4jnsgd1na2vs0mg"},{"bike_id":"37893482-1ca7-4e65-a3f3-86c49eda4a22","system_id":"levelo_inurba_marseille","lat":43.30394,"lon":5.42474,"is_reserved":false,"is_disabled":true,"rental_uris":{"android":"levelo://app?vid=37893482-1ca7-4e65-a3f3-86c49eda4a22","ios":"levelo://app?vid=37893482-1ca7-4e65-a3f3-86c49eda4a22"},"vehicle_type_id":"4","last_reported":1779481783,"current_range_meters":4400,"station_id":"ce4bhoh2rcd13ifvqh6g","pricing_plan_id":"cebpf4jnsgd1na2vs0mg"},{"bike_id":"4f9b74af-2a14-4f34-bdde-27a61de43c5b","system_id":"levelo_inurba_marseille","lat":43.30972,"lon":5.39048,"is_reserved":false,"is_disabled":false,"rental_uris":{"android":"levelo://app?vid=4f9b74af-2a14-4f34-bdde-27a61de43c5b","ios":"levelo://app?vid=4f9b74af-2a14-4f34-bdde-27a61de43c5b"},"vehicle_type_id":"4","last_reported":1779481783,"current_range_meters":4400,"station_id":"ce4bgup2rcd13ifvqco0","pricing_plan_id":"cebpf4jnsgd1na2vs0mg"},{"bike_id":"1c18f7e7-efdd-45f7-ba21-e0d32607c74c","system_id":"levelo_inurba_marseille","lat":43.28726,"lon":5.46649,"is_reserved":false,"is_disabled":false,"rental_uris":{"android":"levelo://app?vid=1c18f7e7-efdd-45f7-ba21-e0d32607c74c","ios":"levelo://app?vid=1c18f7e7-efdd-45f7-ba21-e0d32607c74c"},"vehicle_type_id":"4","last_reported":1779481783,"current_range_meters":4400,"station_id":"st_d6tc3vkotcvc738tfjhg","pricing_plan_id":"cebpf4jnsgd1na2vs0mg"},{"bike_id":"b145127f-b86c-4a71-b4c0-33f76deb60c3","system_id":"levelo_inurba_marseille","lat":43.29028,"lon":5.38635,"is_reserved":false,"is_disabled":false,"rental_uris":{"android":"levelo://app?vid=b145127f-b86c-4a71-b4c0-33f76deb60c3","ios":"levelo://app?vid=b145127f-b86c-4a71-b4c0-33f76deb60c3"},"vehicle_type_id":"4","last_reported":1779481783,"current_range_meters":4400,"station_id":"ce4bh4p2rcd13ifvqe0g","pricing_plan_id":"cebpf4jnsgd1na2vs0mg"},{"bike_id":"c8d558af-ac97-4e77-9fc7-e811447926c0","system_id":"levelo_inurba_marseille","lat":43.26222,"lon":5.38768,"is_reserved":false,"is_disabled":false,"rental_uris":{"android":"levelo://app?vid=c8d558af-ac97-4e77-9fc7-e811447926c0","ios":"levelo://app?vid=c8d558af-ac97-4e77-9fc7-e811447926c0"},"vehicle_type_id":"4","last_reported":1779481783,"current_range_meters":4400,"station_id":"","pricing_plan_id":"cebpf4jnsgd1na2vs0mg"},{"bike_id":"413d45ce-d9a2-4698-a80f-9356c5d343dd","system_id":"levelo_inurba_marseille","lat":43.29262,"lon":5.40097,"is_reserved":false,"is_disabled":false,"rental_uris":{"android":"levelo://app?vid=413d45ce-d9a2-4698-a80f-9356c5d343dd","ios":"levelo://app?vid=413d45ce-d9a2-4698-a80f-9356c5d343dd"},"vehicle_type_id":"4","last_reported":1779481783,"current_range_meters":4400,"station_id":"ce4bh312rcd13ifvqdk0","pricing_plan_id":"cebpf4jnsgd1na2vs0mg"},{"bike_id":"5bac44cc-22e4-498a-8535-bf953d5b9a8f","system_id":"levelo_inurba_marseille","lat":43.25523,"lon":5.37673,"is_reserved":false,"is_disabled":false,"rental_uris":{"android":"levelo://app?vid=5bac44cc-22e4-498a-8535-bf953d5b9a8f","ios":"levelo://app?vid=5bac44cc-22e4-498a-8535-bf953d5b9a8f"},"vehicle_type_id":"4","last_reported":1779481783,"current_range_meters":4400,"station_id":"ce4bhh12rcd13ifvqff0","pricing_plan_id":"cebpf4jnsgd1na2vs0mg"},{"bike_id":"ae73dd5f-c448-475f-be97-7d9f664d23a6","system_id":"levelo_inurba_marseille","lat":43.28538,"lon":5.38412,"is_reserved":false,"is_disabled":false,"rental_uris":{"android":"levelo://app?vid=ae73dd5f-c448-475f-be97-7d9f664d23a6","ios":"levelo://app?vid=ae73dd5f-c448-475f-be97-7d9f664d23a6"},"vehicle_type_id":"4","last_reported":1779481783,"current_range_meters":4400,"station_id":"","pricing_plan_id":"cebpf4jnsgd1na2vs0mg"},{"bike_id":"b5f78969-2d9d-448d-8f6d-b8c13de13c70","system_id":"levelo_inurba_marseille","lat":43.23178,"lon":5.39987,"is_reserved":false,"is_disabled":false,"rental_uris":{"android":"levelo://app?vid=b5f78969-2d9d-448d-8f6d-b8c13de13c70","ios":"levelo://app?vid=b5f78969-2d9d-448d-8f6d-b8c13de13c70"},"vehicle_type_id":"4","last_reported":1779481783,"current_range_meters":4400,"station_id":"ce4bhn12rcd13ifvqgqg","pricing_plan_id":"cebpf4jnsgd1na2vs0mg"},{"bike_id":"c77ed54e-3d2a-4435-90ab-591781710cbd","system_id":"levelo_inurba_marseille","lat":43.29041,"lon":5.38137,"is_reserved":false,"is_disabled":false,"rental_uris":{"android":"levelo://app?vid=c77ed54e-3d2a-4435-90ab-591781710cbd","ios":"levelo://app?vid=c77ed54e-3d2a-4435-90ab-591781710cbd"},"vehicle_type_id":"4","last_reported":1779481783,"current_range_meters":4400,"station_id":"ce4bh4p2rcd13ifvqe1g","pricing_plan_id":"cebpf4jnsgd1na2vs0mg"},{"bike_id":"97ca1358-cf81-42c6-8b60-3daa288743c1","system_id":"levelo_inurba_marseille","lat":43.30132,"lon":5.3877,"is_reserved":false,"is_disabled":false,"rental_uris":{"android":"levelo://app?vid=97ca1358-cf81-42c6-8b60-3daa288743c1","ios":"levelo://app?vid=97ca1358-cf81-42c6-8b60-3daa288743c1"},"vehicle_type_id":"4","last_reported":1779481783,"current_range_meters":4400,"station_id":"ce4bghh2rcd13ifvqb60","pricing_plan_id":"cebpf4jnsgd1na2vs0mg"},{"bike_id":"3d436a0d-575b-42d3-8681-5c87057b3b7f","system_id":"levelo_inurba_marseille","lat":43.27961,"lon":5.43613,"is_reserved":false,"is_disabled":false,"rental_uris":{"android":"levelo://app?vid=3d436a0d-575b-42d3-8681-5c87057b3b7f","ios":"levelo://app?vid=3d436a0d-575b-42d3-8681-5c87057b3b7f"},"vehicle_type_id":"4","last_reported":1779481783,"current_range_meters":4400,"station_id":"","pricing_plan_id":"cebpf4jnsgd1na2vs0mg"},{"bike_id":"acd6894a-5372-437b-a9b7-c0a175650af8","system_id":"levelo_inurba_marseille","lat":43.29205,"lon":5.42259,"is_reserved":false,"is_disabled":true,"rental_uris":{"android":"levelo://app?vid=acd6894a-5372-437b-a9b7-c0a175650af8","ios":"levelo://app?vid=acd6894a-5372-437b-a9b7-c0a175650af8"},"vehicle_type_id":"4","last_reported":1779481783,"current_range_meters":4400,"station_id":"","pricing_plan_id":"cebpf4jnsgd1na2vs0mg"},{"bike_id":"64163096-c6f9-4f72-b6a9-38fc12a1fa4d","system_id":"levelo_inurba_marseille","lat":43.30947,"lon":5.39026,"is_reserved":false,"is_disabled":false,"rental_uris":{"android":"levelo://app?vid=64163096-c6f9-4f72-b6a9-38fc12a1fa4d","ios":"levelo://app?vid=64163096-c6f9-4f72-b6a9-38fc12a1fa4d"},"vehicle_type_id":"4","last_reported":1779481783,"current_range_meters":4400,"station_id":"ce4bgup2rcd13ifvqco0","pricing_plan_id":"cebpf4jnsgd1na2vs0mg"},{"bike_id":"531e6b23-1b60-475a-9411-24d6c208971a","system_id":"levelo_inurba_marseille","lat":43.25644,"lon":5.38508,"is_reserved":false,"is_disabled":false,"rental_uris":{"android":"levelo://app?vid=531e6b23-1b60-475a-9411-24d6c208971a","ios":"levelo://app?vid=531e6b23-1b60-475a-9411-24d6c208971a"},"vehicle_type_id":"4","last_reported":1779481783,"current_range_meters":4400,"station_id":"","pricing_plan_id":"cebpf4jnsgd1na2vs0mg"},{"bike_id":"8b4b3657-430a-42f5-b52a-b189dd1d93e1","system_id":"levelo_inurba_marseille","lat":43.2894,"lon":5.39622,"is_reserved":false,"is_disabled":false,"rental_uris":{"android":"levelo://app?vid=8b4b3657-430a-42f5-b52a-b189dd1d93e1","ios":"levelo://app?vid=8b4b3657-430a-42f5-b52a-b189dd1d93e1"},"vehicle_type_id":"4","last_reported":1779481783,"current_range_meters":4400,"station_id":"ce4bh3h2rcd13ifvqdn0","pricing_plan_id":"cebpf4jnsgd1na2vs0mg"},{"bike_id":"bd1f59d3-fe85-4e5c-9a8f-b55d4b63e5e2","system_id":"levelo_inurba_marseille","lat":43.294899,"lon":5.433005,"is_reserved":false,"is_disabled":false,"rental_uris":{"android":"levelo://app?vid=bd1f59d3-fe85-4e5c-9a8f-b55d4b63e5e2","ios":"levelo://app?vid=bd1f59d3-fe85-4e5c-9a8f-b55d4b63e5e2"},"vehicle_type_id":"4","last_reported":1779481783,"current_range_meters":4400,"station_id":"st_d3j5ugp08ojc73fj9d10","pricing_plan_id":"cebpf4jnsgd1na2vs0mg"},{"bike_id":"45369635-b560-4fde-a375-1a15195e4529","system_id":"levelo_inurba_marseille","lat":43.30334,"lon":5.40422,"is_reserved":false,"is_disabled":false,"rental_uris":{"android":"levelo://app?vid=45369635-b560-4fde-a375-1a15195e4529","ios":"levelo://app?vid=45369635-b560-4fde-a375-1a15195e4529"},"vehicle_type_id":"4","last_reported":1779481783,"current_range_meters":4400,"station_id":"ce4bh012rcd13ifvqd10","pricing_plan_id":"cebpf4jnsgd1na2vs0mg"},{"bike_id":"5c530a9e-7c4a-4aa6-adac-4172a237ef4e","system_id":"levelo_inurba_marseille","lat":43.28588,"lon":5.35005,"is_reserved":false,"is_disabled":false,"rental_uris":{"android":"levelo://app?vid=5c530a9e-7c4a-4aa6-adac-4172a237ef4e","ios":"levelo://app?vid=5c530a9e-7c4a-4aa6-adac-4172a237ef4e"},"vehicle_type_id":"4","last_reported":1779481783,"current_range_meters":4800,"station_id":"","pricing_plan_id":"cebpf4jnsgd1na2vs0mg"},{"bike_id":"b7e0fa63-60b1-4ef3-814a-19fe58151f8d","system_id":"levelo_inurba_marseille","lat":43.24178,"lon":5.36316,"is_reserved":false,"is_disabled":true,"rental_uris":{"android":"levelo://app?vid=b7e0fa63-60b1-4ef3-814a-19fe58151f8d","ios":"levelo://app?vid=b7e0fa63-60b1-4ef3-814a-19fe58151f8d"},"vehicle_type_id":"4","last_reported":1779481783,"current_range_meters":4800,"station_id":"","pricing_plan_id":"cebpf4jnsgd1na2vs0mg"},{"bike_id":"47086e48-4e5c-41d9-85cc-44e2cc73023e","system_id":"levelo_inurba_marseille","lat":43.30947,"lon":5.39025,"is_reserved":false,"is_disabled":false,"rental_uris":{"android":"levelo://app?vid=47086e48-4e5c-41d9-85cc-44e2cc73023e","ios":"levelo://app?vid=47086e48-4e5c-41d9-85cc-44e2cc73023e"},"vehicle_type_id":"4","last_reported":1779481783,"current_range_meters":4800,"station_id":"ce4bgup2rcd13ifvqco0","pricing_plan_id":"cebpf4jnsgd1na2vs0mg"},{"bike_id":"55ff971c-f753-4ef7-83e4-054f84d32949","system_id":"levelo_inurba_marseille","lat":43.29983,"lon":5.36636,"is_reserved":false,"is_disabled":true,"rental_uris":{"android":"levelo://app?vid=55ff971c-f753-4ef7-83e4-054f84d32949","ios":"levelo://app?vid=55ff971c-f753-4ef7-83e4-054f84d32949"},"vehicle_type_id":"4","last_reported":1779481783,"current_range_meters":4800,"station_id":"","pricing_plan_id":"cebpf4jnsgd1na2vs0mg"},{"bike_id":"4c73ac5b-f848-44b9-9488-246344552796","system_id":"levelo_inurba_marseille","lat":43.28517,"lon":5.44103,"is_reserved":false,"is_disabled":false,"rental_uris":{"android":"levelo://app?vid=4c73ac5b-f848-44b9-9488-246344552796","ios":"levelo://app?vid=4c73ac5b-f848-44b9-9488-246344552796"},"vehicle_type_id":"4","last_reported":1779481783,"current_range_meters":4800,"station_id":"st_d3j3df2ikq2c7380ej80","pricing_plan_id":"cebpf4jnsgd1na2vs0mg"},{"bike_id":"315c5b44-d31a-417b-972b-b898212aeeed","system_id":"levelo_inurba_marseille","lat":43.29531,"lon":5.38549,"is_reserved":false,"is_disabled":false,"rental_uris":{"android":"levelo://app?vid=315c5b44-d31a-417b-972b-b898212aeeed","ios":"levelo://app?vid=315c5b44-d31a-417b-972b-b898212aeeed"},"vehicle_type_id":"4","last_reported":1779481783,"current_range_meters":4800,"station_id":"ce4bgih2rcd13ifvqba0","pricing_plan_id":"cebpf4jnsgd1na2vs0mg"},{"bike_id":"e1e8d0c5-7cff-4a52-a548-b6f5342738ad","system_id":"levelo_inurba_marseille","lat":43.3137,"lon":5.36709,"is_reserved":false,"is_disabled":false,"rental_uris":{"android":"levelo://app?vid=e1e8d0c5-7cff-4a52-a548-b6f5342738ad","ios":"levelo://app?vid=e1e8d0c5-7cff-4a52-a548-b6f5342738ad"},"vehicle_type_id":"4","last_reported":1779481783,"current_range_meters":4800,"station_id":"ce4bgr92rcd13ifvqc6g","pricing_plan_id":"cebpf4jnsgd1na2vs0mg"},{"bike_id":"ec5b297c-6c6f-46d7-af1b-87cfe632aa27","system_id":"levelo_inurba_marseille","lat":43.29203,"lon":5.35802,"is_reserved":false,"is_disabled":true,"rental_uris":{"android":"levelo://app?vid=ec5b297c-6c6f-46d7-af1b-87cfe632aa27","ios":"levelo://app?vid=ec5b297c-6c6f-46d7-af1b-87cfe632aa27"},"vehicle_type_id":"4","last_reported":1779481783,"current_range_meters":4800,"station_id":"ce4bhb12rcd13ifvqel0","pricing_plan_id":"cebpf4jnsgd1na2vs0mg"},{"bike_id":"3087c968-4926-49f3-8cf6-3c974e51f6a0","system_id":"levelo_inurba_marseille","lat":43.24814,"lon":5.37444,"is_reserved":false,"is_disabled":true,"rental_uris":{"android":"levelo://app?vid=3087c968-4926-49f3-8cf6-3c974e51f6a0","ios":"levelo://app?vid=3087c968-4926-49f3-8cf6-3c974e51f6a0"},"vehicle_type_id":"4","last_reported":1779481783,"current_range_meters":4800,"station_id":"ce4bhgh2rcd13ifvqfb0","pricing_plan_id":"cebpf4jnsgd1na2vs0mg"},{"bike_id":"86e422cc-9741-45d9-be58-9b6d6df0d53f","system_id":"levelo_inurba_marseille","lat":43.281537,"lon":5.426405,"is_reserved":false,"is_disabled":false,"rental_uris":{"android":"levelo://app?vid=86e422cc-9741-45d9-be58-9b6d6df0d53f","ios":"levelo://app?vid=86e422cc-9741-45d9-be58-9b6d6df0d53f"},"vehicle_type_id":"4","last_reported":1779481783,"current_range_meters":4800,"station_id":"ce4bhnh2rcd13ifvqgug","pricing_plan_id":"cebpf4jnsgd1na2vs0mg"},{"bike_id":"062108ee-2f9e-415c-b428-0c1380f714aa","system_id":"levelo_inurba_marseille","lat":43.29269,"lon":5.38434,"is_reserved":false,"is_disabled":false,"rental_uris":{"android":"levelo://app?vid=062108ee-2f9e-415c-b428-0c1380f714aa","ios":"levelo://app?vid=062108ee-2f9e-415c-b428-0c1380f714aa"},"vehicle_type_id":"4","last_reported":1779481783,"current_range_meters":4800,"station_id":"ce4bh692rcd13ifvqea0","pricing_plan_id":"cebpf4jnsgd1na2vs0mg"},{"bike_id":"8e7d492e-68d9-4c3d-9774-ac3c0c3019e6","system_id":"levelo_inurba_marseille","lat":43.24554,"lon":5.39505,"is_reserved":false,"is_disabled":false,"rental_uris":{"android":"levelo://app?vid=8e7d492e-68d9-4c3d-9774-ac3c0c3019e6","ios":"levelo://app?vid=8e7d492e-68d9-4c3d-9774-ac3c0c3019e6"},"vehicle_type_id":"4","last_reported":1779481783,"current_range_meters":4800,"station_id":"ce4bhlp2rcd13ifvqgjg","pricing_plan_id":"cebpf4jnsgd1na2vs0mg"},{"bike_id":"103c3925-0fed-4670-8dde-c29c1ddbe606","system_id":"levelo_inurba_marseille","lat":43.246323,"lon":5.431301,"is_reserved":false,"is_disabled":false,"rental_uris":{"android":"levelo://app?vid=103c3925-0fed-4670-8dde-c29c1ddbe606","ios":"levelo://app?vid=103c3925-0fed-4670-8dde-c29c1ddbe606"},"vehicle_type_id":"4","last_reported":1779481783,"current_range_meters":4800,"station_id":"st_d2m6c4gdas8pm72e190g","pricing_plan_id":"cebpf4jnsgd1na2vs0mg"},{"bike_id":"383bc2a5-d00a-4712-81f3-06a9cac9787d","system_id":"levelo_inurba_marseille","lat":43.31119,"lon":5.37755,"is_reserved":false,"is_disabled":false,"rental_uris":{"android":"levelo://app?vid=383bc2a5-d00a-4712-81f3-06a9cac9787d","ios":"levelo://app?vid=383bc2a5-d00a-4712-81f3-06a9cac9787d"},"vehicle_type_id":"4","last_reported":1779481783,"current_range_meters":4800,"station_id":"ce4bgt92rcd13ifvqcg0","pricing_plan_id":"cebpf4jnsgd1na2vs0mg"},{"bike_id":"cda9777a-862f-41cf-8f17-3e00db1fbfaa","system_id":"levelo_inurba_marseille","lat":43.28242,"lon":5.39068,"is_reserved":false,"is_disabled":false,"rental_uris":{"android":"levelo://app?vid=cda9777a-862f-41cf-8f17-3e00db1fbfaa","ios":"levelo://app?vid=cda9777a-862f-41cf-8f17-3e00db1fbfaa"},"vehicle_type_id":"4","last_reported":1779481783,"current_range_meters":4800,"station_id":"ce4bhn92rcd13ifvqgsg","pricing_plan_id":"cebpf4jnsgd1na2vs0mg"},{"bike_id":"d6ef5181-9c65-4b14-a132-bd2560a893a3","system_id":"levelo_inurba_marseille","lat":43.25832,"lon":5.39426,"is_reserved":false,"is_disabled":false,"rental_uris":{"android":"levelo://app?vid=d6ef5181-9c65-4b14-a132-bd2560a893a3","ios":"levelo://app?vid=d6ef5181-9c65-4b14-a132-bd2560a893a3"},"vehicle_type_id":"4","last_reported":1779481783,"current_range_meters":5600,"station_id":"ce4bhip2rcd13ifvqft0","pricing_plan_id":"cebpf4jnsgd1na2vs0mg"},{"bike_id":"58f08ebb-b0c6-47ad-85e5-88369ba3049c","system_id":"levelo_inurba_marseille","lat":43.25124,"lon":5.4035,"is_reserved":false,"is_disabled":true,"rental_uris":{"android":"levelo://app?vid=58f08ebb-b0c6-47ad-85e5-88369ba3049c","ios":"levelo://app?vid=58f08ebb-b0c6-47ad-85e5-88369ba3049c"},"vehicle_type_id":"4","last_reported":1779481783,"current_range_meters":5600,"station_id":"ce4bhlh2rcd13ifvqgig","pricing_plan_id":"cebpf4jnsgd1na2vs0mg"},{"bike_id":"2d09449d-df92-4d3e-9412-ea34f0e8afc0","system_id":"levelo_inurba_marseille","lat":43.29617,"lon":5.38541,"is_reserved":false,"is_disabled":false,"rental_uris":{"android":"levelo://app?vid=2d09449d-df92-4d3e-9412-ea34f0e8afc0","ios":"levelo://app?vid=2d09449d-df92-4d3e-9412-ea34f0e8afc0"},"vehicle_type_id":"4","last_reported":1779481783,"current_range_meters":5600,"station_id":"","pricing_plan_id":"cebpf4jnsgd1na2vs0mg"},{"bike_id":"dbb64609-0996-41ff-88a8-2d79d3b5bca3","system_id":"levelo_inurba_marseille","lat":43.29547,"lon":5.38508,"is_reserved":false,"is_disabled":false,"rental_uris":{"android":"levelo://app?vid=dbb64609-0996-41ff-88a8-2d79d3b5bca3","ios":"levelo://app?vid=dbb64609-0996-41ff-88a8-2d79d3b5bca3"},"vehicle_type_id":"4","last_reported":1779481783,"current_range_meters":5600,"station_id":"ce4bgih2rcd13ifvqba0","pricing_plan_id":"cebpf4jnsgd1na2vs0mg"},{"bike_id":"af8563ac-7daa-4dd6-8ff1-c9409dd979f1","system_id":"levelo_inurba_marseille","lat":43.29886,"lon":5.39731,"is_reserved":false,"is_disabled":false,"rental_uris":{"android":"levelo://app?vid=af8563ac-7daa-4dd6-8ff1-c9409dd979f1","ios":"levelo://app?vid=af8563ac-7daa-4dd6-8ff1-c9409dd979f1"},"vehicle_type_id":"4","last_reported":1779481783,"current_range_meters":5600,"station_id":"ce4bh0h2rcd13ifvqd50","pricing_plan_id":"cebpf4jnsgd1na2vs0mg"},{"bike_id":"1837a2a3-633f-43f6-9da3-4f5664ddff40","system_id":"levelo_inurba_marseille","lat":43.25597,"lon":5.38248,"is_reserved":false,"is_disabled":true,"rental_uris":{"android":"levelo://app?vid=1837a2a3-633f-43f6-9da3-4f5664ddff40","ios":"levelo://app?vid=1837a2a3-633f-43f6-9da3-4f5664ddff40"},"vehicle_type_id":"4","last_reported":1779481783,"current_range_meters":5600,"station_id":"ce4bhih2rcd13ifvqfs0","pricing_plan_id":"cebpf4jnsgd1na2vs0mg"},{"bike_id":"d8301dbb-3ee9-44a4-b623-25ddcbb6b7c0","system_id":"levelo_inurba_marseille","lat":43.28411,"lon":5.37504,"is_reserved":false,"is_disabled":false,"rental_uris":{"android":"levelo://app?vid=d8301dbb-3ee9-44a4-b623-25ddcbb6b7c0","ios":"levelo://app?vid=d8301dbb-3ee9-44a4-b623-25ddcbb6b7c0"},"vehicle_type_id":"4","last_reported":1779481783,"current_range_meters":5600,"station_id":"ce4bh412rcd13ifvqds0","pricing_plan_id":"cebpf4jnsgd1na2vs0mg"},{"bike_id":"ca7bec4c-c9ce-4816-988f-528f79a7e440","system_id":"levelo_inurba_marseille","lat":43.32045,"lon":5.41564,"is_reserved":false,"is_disabled":false,"rental_uris":{"android":"levelo://app?vid=ca7bec4c-c9ce-4816-988f-528f79a7e440","ios":"levelo://app?vid=ca7bec4c-c9ce-4816-988f-528f79a7e440"},"vehicle_type_id":"4","last_reported":1779481783,"current_range_meters":5600,"station_id":"ce4bhq92rcd13ifvqhkg","pricing_plan_id":"cebpf4jnsgd1na2vs0mg"},{"bike_id":"3397d705-122e-4b74-aeb9-195e6e4516a2","system_id":"levelo_inurba_marseille","lat":43.29739,"lon":5.37272,"is_reserved":false,"is_disabled":false,"rental_uris":{"android":"levelo://app?vid=3397d705-122e-4b74-aeb9-195e6e4516a2","ios":"levelo://app?vid=3397d705-122e-4b74-aeb9-195e6e4516a2"},"vehicle_type_id":"4","last_reported":1779481783,"current_range_meters":5600,"station_id":"","pricing_plan_id":"cebpf4jnsgd1na2vs0mg"},{"bike_id":"3200b978-002a-4bf0-9ea7-51cc9e75e711","system_id":"levelo_inurba_marseille","lat":43.27191,"lon":5.40976,"is_reserved":false,"is_disabled":false,"rental_uris":{"android":"levelo://app?vid=3200b978-002a-4bf0-9ea7-51cc9e75e711","ios":"levelo://app?vid=3200b978-002a-4bf0-9ea7-51cc9e75e711"},"vehicle_type_id":"4","last_reported":1779481783,"current_range_meters":5600,"station_id":"ce4bhl12rcd13ifvqgf0","pricing_plan_id":"cebpf4jnsgd1na2vs0mg"},{"bike_id":"010884ae-4f3a-4939-a2c5-58451e8b7c73","system_id":"levelo_inurba_marseille","lat":43.2886,"lon":5.42528,"is_reserved":false,"is_disabled":false,"rental_uris":{"android":"levelo://app?vid=010884ae-4f3a-4939-a2c5-58451e8b7c73","ios":"levelo://app?vid=010884ae-4f3a-4939-a2c5-58451e8b7c73"},"vehicle_type_id":"4","last_reported":1779481783,"current_range_meters":5600,"station_id":"st_d3b462108ojc7389ooeg","pricing_plan_id":"cebpf4jnsgd1na2vs0mg"},{"bike_id":"aa71664e-fae7-4d97-8515-ddae352558ad","system_id":"levelo_inurba_marseille","lat":43.29301,"lon":5.40082,"is_reserved":false,"is_disabled":true,"rental_uris":{"android":"levelo://app?vid=aa71664e-fae7-4d97-8515-ddae352558ad","ios":"levelo://app?vid=aa71664e-fae7-4d97-8515-ddae352558ad"},"vehicle_type_id":"4","last_reported":1779481783,"current_range_meters":5600,"station_id":"ce4bh312rcd13ifvqdk0","pricing_plan_id":"cebpf4jnsgd1na2vs0mg"},{"bike_id":"843e51c5-e16f-4b79-aadc-becfcf0f79be","system_id":"levelo_inurba_marseille","lat":43.32352,"lon":5.36718,"is_reserved":false,"is_disabled":false,"rental_uris":{"android":"levelo://app?vid=843e51c5-e16f-4b79-aadc-becfcf0f79be","ios":"levelo://app?vid=843e51c5-e16f-4b79-aadc-becfcf0f79be"},"vehicle_type_id":"4","last_reported":1779481783,"current_range_meters":5600,"station_id":"ce4bhsh2rcd13ifvqi2g","pricing_plan_id":"cebpf4jnsgd1na2vs0mg"},{"bike_id":"ca8270b4-d39a-47bc-a5ba-46cea51aa1f5","system_id":"levelo_inurba_marseille","lat":43.28033,"lon":5.35296,"is_reserved":false,"is_disabled":false,"rental_uris":{"android":"levelo://app?vid=ca8270b4-d39a-47bc-a5ba-46cea51aa1f5","ios":"levelo://app?vid=ca8270b4-d39a-47bc-a5ba-46cea51aa1f5"},"vehicle_type_id":"4","last_reported":1779481783,"current_range_meters":5600,"station_id":"","pricing_plan_id":"cebpf4jnsgd1na2vs0mg"},{"bike_id":"a0789018-2c68-4a2f-8146-a8f2b8e4a119","system_id":"levelo_inurba_marseille","lat":43.27964,"lon":5.38697,"is_reserved":false,"is_disabled":true,"rental_uris":{"android":"levelo://app?vid=a0789018-2c68-4a2f-8146-a8f2b8e4a119","ios":"levelo://app?vid=a0789018-2c68-4a2f-8146-a8f2b8e4a119"},"vehicle_type_id":"4","last_reported":1779481783,"current_range_meters":5600,"station_id":"ce4bhg12rcd13ifvqf80","pricing_plan_id":"cebpf4jnsgd1na2vs0mg"},{"bike_id":"53e850d2-8398-4fbb-a24e-59337eda12b8","system_id":"levelo_inurba_marseille","lat":43.303036,"lon":5.392172,"is_reserved":false,"is_disabled":false,"rental_uris":{"android":"levelo://app?vid=53e850d2-8398-4fbb-a24e-59337eda12b8","ios":"levelo://app?vid=53e850d2-8398-4fbb-a24e-59337eda12b8"},"vehicle_type_id":"4","last_reported":1779481783,"current_range_meters":5600,"station_id":"ce4bgkh2rcd13ifvqbk0","pricing_plan_id":"cebpf4jnsgd1na2vs0mg"},{"bike_id":"4857e8ec-fd88-492a-bfe4-a15b23541e6f","system_id":"levelo_inurba_marseille","lat":43.29711,"lon":5.37305,"is_reserved":false,"is_disabled":false,"rental_uris":{"android":"levelo://app?vid=4857e8ec-fd88-492a-bfe4-a15b23541e6f","ios":"levelo://app?vid=4857e8ec-fd88-492a-bfe4-a15b23541e6f"},"vehicle_type_id":"4","last_reported":1779481783,"current_range_meters":5600,"station_id":"ce4bgk12rcd13ifvqbj0","pricing_plan_id":"cebpf4jnsgd1na2vs0mg"},{"bike_id":"72526a08-f6ff-46a9-9b10-91d396b96e2d","system_id":"levelo_inurba_marseille","lat":43.29607,"lon":5.36759,"is_reserved":false,"is_disabled":true,"rental_uris":{"android":"levelo://app?vid=72526a08-f6ff-46a9-9b10-91d396b96e2d","ios":"levelo://app?vid=72526a08-f6ff-46a9-9b10-91d396b96e2d"},"vehicle_type_id":"4","last_reported":1779481783,"current_range_meters":5600,"station_id":"ce4bgph2rcd13ifvqc2g","pricing_plan_id":"cebpf4jnsgd1na2vs0mg"},{"bike_id":"29f4756e-20ba-48af-83c2-b5be4ce60e4e","system_id":"levelo_inurba_marseille","lat":43.28409,"lon":5.3497,"is_reserved":false,"is_disabled":false,"rental_uris":{"android":"levelo://app?vid=29f4756e-20ba-48af-83c2-b5be4ce60e4e","ios":"levelo://app?vid=29f4756e-20ba-48af-83c2-b5be4ce60e4e"},"vehicle_type_id":"4","last_reported":1779481783,"current_range_meters":5600,"station_id":"ce4bhbh2rcd13ifvqepg","pricing_plan_id":"cebpf4jnsgd1na2vs0mg"},{"bike_id":"c85481a7-6f10-42ae-9962-33b2e58299f5","system_id":"levelo_inurba_marseille","lat":43.308,"lon":5.38147,"is_reserved":false,"is_disabled":false,"rental_uris":{"android":"levelo://app?vid=c85481a7-6f10-42ae-9962-33b2e58299f5","ios":"levelo://app?vid=c85481a7-6f10-42ae-9962-33b2e58299f5"},"vehicle_type_id":"4","last_reported":1779481783,"current_range_meters":5600,"station_id":"ce4bgt12rcd13ifvqce0","pricing_plan_id":"cebpf4jnsgd1na2vs0mg"},{"bike_id":"c1541a66-534c-41a5-9ed0-52f98bef9a44","system_id":"levelo_inurba_marseille","lat":43.28487,"lon":5.38409,"is_reserved":false,"is_disabled":false,"rental_uris":{"android":"levelo://app?vid=c1541a66-534c-41a5-9ed0-52f98bef9a44","ios":"levelo://app?vid=c1541a66-534c-41a5-9ed0-52f98bef9a44"},"vehicle_type_id":"4","last_reported":1779481783,"current_range_meters":5600,"station_id":"ce4bh512rcd13ifvqe3g","pricing_plan_id":"cebpf4jnsgd1na2vs0mg"},{"bike_id":"ce1257fa-2ee4-4500-b86b-8956ada98213","system_id":"levelo_inurba_marseille","lat":43.30617,"lon":5.39263,"is_reserved":false,"is_disabled":true,"rental_uris":{"android":"levelo://app?vid=ce1257fa-2ee4-4500-b86b-8956ada98213","ios":"levelo://app?vid=ce1257fa-2ee4-4500-b86b-8956ada98213"},"vehicle_type_id":"4","last_reported":1779481783,"current_range_meters":5600,"station_id":"","pricing_plan_id":"cebpf4jnsgd1na2vs0mg"},{"bike_id":"419f8fd4-ee4b-475f-93f7-7c9d2fa71368","system_id":"levelo_inurba_marseille","lat":43.29529,"lon":5.38548,"is_reserved":false,"is_disabled":false,"rental_uris":{"android":"levelo://app?vid=419f8fd4-ee4b-475f-93f7-7c9d2fa71368","ios":"levelo://app?vid=419f8fd4-ee4b-475f-93f7-7c9d2fa71368"},"vehicle_type_id":"4","last_reported":1779481783,"current_range_meters":5600,"station_id":"ce4bgih2rcd13ifvqba0","pricing_plan_id":"cebpf4jnsgd1na2vs0mg"},{"bike_id":"ae813e1c-f002-41c2-ab00-93a6ceca7521","system_id":"levelo_inurba_marseille","lat":43.30775,"lon":5.3926,"is_reserved":false,"is_disabled":false,"rental_uris":{"android":"levelo://app?vid=ae813e1c-f002-41c2-ab00-93a6ceca7521","ios":"levelo://app?vid=ae813e1c-f002-41c2-ab00-93a6ceca7521"},"vehicle_type_id":"4","last_reported":1779481783,"current_range_meters":5600,"station_id":"","pricing_plan_id":"cebpf4jnsgd1na2vs0mg"},{"bike_id":"aed87d5d-b91e-4da1-a3a6-de78a7c48cc1","system_id":"levelo_inurba_marseille","lat":43.25122,"lon":5.40308,"is_reserved":false,"is_disabled":false,"rental_uris":{"android":"levelo://app?vid=aed87d5d-b91e-4da1-a3a6-de78a7c48cc1","ios":"levelo://app?vid=aed87d5d-b91e-4da1-a3a6-de78a7c48cc1"},"vehicle_type_id":"4","last_reported":1779481783,"current_range_meters":5600,"station_id":"ce4bhlh2rcd13ifvqgig","pricing_plan_id":"cebpf4jnsgd1na2vs0mg"},{"bike_id":"5eb47de2-6d0b-4d6a-b931-7c6d8bfe6b8f","system_id":"levelo_inurba_marseille","lat":43.26234,"lon":5.3876,"is_reserved":false,"is_disabled":false,"rental_uris":{"android":"levelo://app?vid=5eb47de2-6d0b-4d6a-b931-7c6d8bfe6b8f","ios":"levelo://app?vid=5eb47de2-6d0b-4d6a-b931-7c6d8bfe6b8f"},"vehicle_type_id":"4","last_reported":1779481783,"current_range_meters":5600,"station_id":"","pricing_plan_id":"cebpf4jnsgd1na2vs0mg"},{"bike_id":"97be077c-4cfd-422b-a27c-c57451ae6077","system_id":"levelo_inurba_marseille","lat":43.2901,"lon":5.35626,"is_reserved":false,"is_disabled":false,"rental_uris":{"android":"levelo://app?vid=97be077c-4cfd-422b-a27c-c57451ae6077","ios":"levelo://app?vid=97be077c-4cfd-422b-a27c-c57451ae6077"},"vehicle_type_id":"4","last_reported":1779481783,"current_range_meters":5600,"station_id":"ce4bhb92rcd13ifvqen0","pricing_plan_id":"cebpf4jnsgd1na2vs0mg"},{"bike_id":"875ff3ec-3d53-4289-87d8-004996e2dc85","system_id":"levelo_inurba_marseille","lat":43.292646,"lon":5.38435,"is_reserved":false,"is_disabled":false,"rental_uris":{"android":"levelo://app?vid=875ff3ec-3d53-4289-87d8-004996e2dc85","ios":"levelo://app?vid=875ff3ec-3d53-4289-87d8-004996e2dc85"},"vehicle_type_id":"4","last_reported":1779481783,"current_range_meters":5600,"station_id":"ce4bh692rcd13ifvqea0","pricing_plan_id":"cebpf4jnsgd1na2vs0mg"},{"bike_id":"c7352d91-a351-4741-9e2e-3bbeeac985d0","system_id":"levelo_inurba_marseille","lat":43.30731,"lon":5.42438,"is_reserved":false,"is_disabled":false,"rental_uris":{"android":"levelo://app?vid=c7352d91-a351-4741-9e2e-3bbeeac985d0","ios":"levelo://app?vid=c7352d91-a351-4741-9e2e-3bbeeac985d0"},"vehicle_type_id":"4","last_reported":1779481783,"current_range_meters":5600,"station_id":"st_cvj6ca6bvosntc0bfgr0","pricing_plan_id":"cebpf4jnsgd1na2vs0mg"},{"bike_id":"0e760750-d481-46ee-9563-bca9699511d9","system_id":"levelo_inurba_marseille","lat":43.28941,"lon":5.39615,"is_reserved":false,"is_disabled":false,"rental_uris":{"android":"levelo://app?vid=0e760750-d481-46ee-9563-bca9699511d9","ios":"levelo://app?vid=0e760750-d481-46ee-9563-bca9699511d9"},"vehicle_type_id":"4","last_reported":1779481783,"current_range_meters":6000,"station_id":"ce4bh3h2rcd13ifvqdn0","pricing_plan_id":"cebpf4jnsgd1na2vs0mg"},{"bike_id":"5cd16571-7e0f-4f01-8cf6-d8caba7f9ec5","system_id":"levelo_inurba_marseille","lat":43.28881,"lon":5.35806,"is_reserved":false,"is_disabled":false,"rental_uris":{"android":"levelo://app?vid=5cd16571-7e0f-4f01-8cf6-d8caba7f9ec5","ios":"levelo://app?vid=5cd16571-7e0f-4f01-8cf6-d8caba7f9ec5"},"vehicle_type_id":"4","last_reported":1779481783,"current_range_meters":6000,"station_id":"ce4bhb12rcd13ifvqem0","pricing_plan_id":"cebpf4jnsgd1na2vs0mg"},{"bike_id":"50a38418-c250-49bf-8b1a-5f7f799e302a","system_id":"levelo_inurba_marseille","lat":43.23075,"lon":5.35475,"is_reserved":false,"is_disabled":false,"rental_uris":{"android":"levelo://app?vid=50a38418-c250-49bf-8b1a-5f7f799e302a","ios":"levelo://app?vid=50a38418-c250-49bf-8b1a-5f7f799e302a"},"vehicle_type_id":"4","last_reported":1779481783,"current_range_meters":6000,"station_id":"cpo3342slgdg3j2ifvpg","pricing_plan_id":"cebpf4jnsgd1na2vs0mg"},{"bike_id":"a5bc7d5e-faac-4e03-be86-e645a2bcd1ac","system_id":"levelo_inurba_marseille","lat":43.288563,"lon":5.393163,"is_reserved":false,"is_disabled":false,"rental_uris":{"android":"levelo://app?vid=a5bc7d5e-faac-4e03-be86-e645a2bcd1ac","ios":"levelo://app?vid=a5bc7d5e-faac-4e03-be86-e645a2bcd1ac"},"vehicle_type_id":"4","last_reported":1779481783,"current_range_meters":6000,"station_id":"ce4bh2p2rcd13ifvqdi0","pricing_plan_id":"cebpf4jnsgd1na2vs0mg"},{"bike_id":"ffd53158-4574-470f-825a-07c56015133e","system_id":"levelo_inurba_marseille","lat":43.28608,"lon":5.39874,"is_reserved":false,"is_disabled":false,"rental_uris":{"android":"levelo://app?vid=ffd53158-4574-470f-825a-07c56015133e","ios":"levelo://app?vid=ffd53158-4574-470f-825a-07c56015133e"},"vehicle_type_id":"4","last_reported":1779481783,"current_range_meters":6000,"station_id":"st_d4a7ka997mjs738ck50g","pricing_plan_id":"cebpf4jnsgd1na2vs0mg"},{"bike_id":"0db8267b-0e02-4e40-9b69-4889ebb416f0","system_id":"levelo_inurba_marseille","lat":43.295733,"lon":5.375199,"is_reserved":false,"is_disabled":true,"rental_uris":{"android":"levelo://app?vid=0db8267b-0e02-4e40-9b69-4889ebb416f0","ios":"levelo://app?vid=0db8267b-0e02-4e40-9b69-4889ebb416f0"},"vehicle_type_id":"4","last_reported":1779481783,"current_range_meters":6000,"station_id":"ce4bgh92rcd13ifvqb50","pricing_plan_id":"cebpf4jnsgd1na2vs0mg"},{"bike_id":"aebacc0a-9996-41c3-946b-37f14a90dc4c","system_id":"levelo_inurba_marseille","lat":43.265439,"lon":5.372901,"is_reserved":false,"is_disabled":true,"rental_uris":{"android":"levelo://app?vid=aebacc0a-9996-41c3-946b-37f14a90dc4c","ios":"levelo://app?vid=aebacc0a-9996-41c3-946b-37f14a90dc4c"},"vehicle_type_id":"4","last_reported":1779481783,"current_range_meters":6000,"station_id":"ce4bhg12rcd13ifvqf70","pricing_plan_id":"cebpf4jnsgd1na2vs0mg"},{"bike_id":"10605502-92ee-48c7-946d-19178aa5282a","system_id":"levelo_inurba_marseille","lat":43.27368,"lon":5.36255,"is_reserved":false,"is_disabled":true,"rental_uris":{"android":"levelo://app?vid=10605502-92ee-48c7-946d-19178aa5282a","ios":"levelo://app?vid=10605502-92ee-48c7-946d-19178aa5282a"},"vehicle_type_id":"4","last_reported":1779481783,"current_range_meters":6000,"station_id":"ce4bhbh2rcd13ifvqeo0","pricing_plan_id":"cebpf4jnsgd1na2vs0mg"},{"bike_id":"c0673171-2c38-4ff5-a7c5-a9d55205f829","system_id":"levelo_inurba_marseille","lat":43.288687,"lon":5.425582,"is_reserved":false,"is_disabled":false,"rental_uris":{"android":"levelo://app?vid=c0673171-2c38-4ff5-a7c5-a9d55205f829","ios":"levelo://app?vid=c0673171-2c38-4ff5-a7c5-a9d55205f829"},"vehicle_type_id":"4","last_reported":1779481783,"current_range_meters":6000,"station_id":"","pricing_plan_id":"cebpf4jnsgd1na2vs0mg"},{"bike_id":"ad0ce0a0-b313-407e-b7d9-63b7147a0c85","system_id":"levelo_inurba_marseille","lat":43.24472,"lon":5.42533,"is_reserved":false,"is_disabled":false,"rental_uris":{"android":"levelo://app?vid=ad0ce0a0-b313-407e-b7d9-63b7147a0c85","ios":"levelo://app?vid=ad0ce0a0-b313-407e-b7d9-63b7147a0c85"},"vehicle_type_id":"4","last_reported":1779481783,"current_range_meters":6000,"station_id":"st_d4a3vfp97mjs738cd8kg","pricing_plan_id":"cebpf4jnsgd1na2vs0mg"},{"bike_id":"edfb0a6d-63aa-411f-a619-5896580d1dcc","system_id":"levelo_inurba_marseille","lat":43.279131,"lon":5.395748,"is_reserved":false,"is_disabled":false,"rental_uris":{"android":"levelo://app?vid=edfb0a6d-63aa-411f-a619-5896580d1dcc","ios":"levelo://app?vid=edfb0a6d-63aa-411f-a619-5896580d1dcc"},"vehicle_type_id":"4","last_reported":1779481783,"current_range_meters":6000,"station_id":"ce4bhf92rcd13ifvqf40","pricing_plan_id":"cebpf4jnsgd1na2vs0mg"},{"bike_id":"898345a5-015f-4e7c-abad-d69e931303cd","system_id":"levelo_inurba_marseille","lat":43.30677,"lon":5.36608,"is_reserved":false,"is_disabled":false,"rental_uris":{"android":"levelo://app?vid=898345a5-015f-4e7c-abad-d69e931303cd","ios":"levelo://app?vid=898345a5-015f-4e7c-abad-d69e931303cd"},"vehicle_type_id":"4","last_reported":1779481783,"current_range_meters":6000,"station_id":"","pricing_plan_id":"cebpf4jnsgd1na2vs0mg"},{"bike_id":"125c4d5b-9f0c-4f70-b053-7773cea0e270","system_id":"levelo_inurba_marseille","lat":43.28151,"lon":5.43764,"is_reserved":false,"is_disabled":false,"rental_uris":{"android":"levelo://app?vid=125c4d5b-9f0c-4f70-b053-7773cea0e270","ios":"levelo://app?vid=125c4d5b-9f0c-4f70-b053-7773cea0e270"},"vehicle_type_id":"4","last_reported":1779481783,"current_range_meters":6000,"station_id":"","pricing_plan_id":"cebpf4jnsgd1na2vs0mg"},{"bike_id":"f3448339-13d8-400f-addf-3afd299d4084","system_id":"levelo_inurba_marseille","lat":43.30888,"lon":5.39653,"is_reserved":false,"is_disabled":false,"rental_uris":{"android":"levelo://app?vid=f3448339-13d8-400f-addf-3afd299d4084","ios":"levelo://app?vid=f3448339-13d8-400f-addf-3afd299d4084"},"vehicle_type_id":"4","last_reported":1779481783,"current_range_meters":6000,"station_id":"ce4bh012rcd13ifvqcv0","pricing_plan_id":"cebpf4jnsgd1na2vs0mg"},{"bike_id":"4d98389f-601f-4d47-91e2-0c805ecfe265","system_id":"levelo_inurba_marseille","lat":43.290459,"lon":5.424381,"is_reserved":false,"is_disabled":false,"rental_uris":{"android":"levelo://app?vid=4d98389f-601f-4d47-91e2-0c805ecfe265","ios":"levelo://app?vid=4d98389f-601f-4d47-91e2-0c805ecfe265"},"vehicle_type_id":"4","last_reported":1779481783,"current_range_meters":6000,"station_id":"","pricing_plan_id":"cebpf4jnsgd1na2vs0mg"},{"bike_id":"3aa4650d-b7c8-4aa8-9109-03ce5752d06b","system_id":"levelo_inurba_marseille","lat":43.30126,"lon":5.38776,"is_reserved":false,"is_disabled":false,"rental_uris":{"android":"levelo://app?vid=3aa4650d-b7c8-4aa8-9109-03ce5752d06b","ios":"levelo://app?vid=3aa4650d-b7c8-4aa8-9109-03ce5752d06b"},"vehicle_type_id":"4","last_reported":1779481783,"current_range_meters":6400,"station_id":"ce4bghh2rcd13ifvqb60","pricing_plan_id":"cebpf4jnsgd1na2vs0mg"},{"bike_id":"20f52871-1aed-4877-a3a3-cb10650ae58f","system_id":"levelo_inurba_marseille","lat":43.28408,"lon":5.34979,"is_reserved":false,"is_disabled":false,"rental_uris":{"android":"levelo://app?vid=20f52871-1aed-4877-a3a3-cb10650ae58f","ios":"levelo://app?vid=20f52871-1aed-4877-a3a3-cb10650ae58f"},"vehicle_type_id":"4","last_reported":1779481783,"current_range_meters":6400,"station_id":"ce4bhbh2rcd13ifvqepg","pricing_plan_id":"cebpf4jnsgd1na2vs0mg"},{"bike_id":"a54270e7-ae4d-43a8-a3da-f8a8a482945d","system_id":"levelo_inurba_marseille","lat":43.28882,"lon":5.35839,"is_reserved":false,"is_disabled":false,"rental_uris":{"android":"levelo://app?vid=a54270e7-ae4d-43a8-a3da-f8a8a482945d","ios":"levelo://app?vid=a54270e7-ae4d-43a8-a3da-f8a8a482945d"},"vehicle_type_id":"4","last_reported":1779481783,"current_range_meters":6400,"station_id":"ce4bhb12rcd13ifvqem0","pricing_plan_id":"cebpf4jnsgd1na2vs0mg"},{"bike_id":"ea0ed1bd-e0bc-4d67-803d-65f9cf990f77","system_id":"levelo_inurba_marseille","lat":43.30942,"lon":5.39035,"is_reserved":false,"is_disabled":false,"rental_uris":{"android":"levelo://app?vid=ea0ed1bd-e0bc-4d67-803d-65f9cf990f77","ios":"levelo://app?vid=ea0ed1bd-e0bc-4d67-803d-65f9cf990f77"},"vehicle_type_id":"4","last_reported":1779481783,"current_range_meters":6400,"station_id":"ce4bgup2rcd13ifvqco0","pricing_plan_id":"cebpf4jnsgd1na2vs0mg"},{"bike_id":"a937fd21-c70f-4e0f-88f7-641ada6ab82c","system_id":"levelo_inurba_marseille","lat":43.26043,"lon":5.37538,"is_reserved":false,"is_disabled":true,"rental_uris":{"android":"levelo://app?vid=a937fd21-c70f-4e0f-88f7-641ada6ab82c","ios":"levelo://app?vid=a937fd21-c70f-4e0f-88f7-641ada6ab82c"},"vehicle_type_id":"4","last_reported":1779481783,"current_range_meters":6400,"station_id":"ce4bhgh2rcd13ifvqfa0","pricing_plan_id":"cebpf4jnsgd1na2vs0mg"},{"bike_id":"30e9f498-caaa-43c9-b87b-90a43f0d6a11","system_id":"levelo_inurba_marseille","lat":43.287126,"lon":5.399855,"is_reserved":false,"is_disabled":false,"rental_uris":{"android":"levelo://app?vid=30e9f498-caaa-43c9-b87b-90a43f0d6a11","ios":"levelo://app?vid=30e9f498-caaa-43c9-b87b-90a43f0d6a11"},"vehicle_type_id":"4","last_reported":1779481783,"current_range_meters":6400,"station_id":"ce4bho92rcd13ifvqh3g","pricing_plan_id":"cebpf4jnsgd1na2vs0mg"},{"bike_id":"a178688d-fd28-46a3-9742-20e9e3d623fd","system_id":"levelo_inurba_marseille","lat":43.29755,"lon":5.38042,"is_reserved":false,"is_disabled":false,"rental_uris":{"android":"levelo://app?vid=a178688d-fd28-46a3-9742-20e9e3d623fd","ios":"levelo://app?vid=a178688d-fd28-46a3-9742-20e9e3d623fd"},"vehicle_type_id":"4","last_reported":1779481783,"current_range_meters":6400,"station_id":"ce4bgip2rcd13ifvqbb0","pricing_plan_id":"cebpf4jnsgd1na2vs0mg"},{"bike_id":"0f96caad-55a4-4ac5-8982-f3aca9322cc7","system_id":"levelo_inurba_marseille","lat":43.29267,"lon":5.38438,"is_reserved":false,"is_disabled":false,"rental_uris":{"android":"levelo://app?vid=0f96caad-55a4-4ac5-8982-f3aca9322cc7","ios":"levelo://app?vid=0f96caad-55a4-4ac5-8982-f3aca9322cc7"},"vehicle_type_id":"4","last_reported":1779481783,"current_range_meters":6400,"station_id":"ce4bh692rcd13ifvqea0","pricing_plan_id":"cebpf4jnsgd1na2vs0mg"},{"bike_id":"e5765682-87e3-4649-97f1-cbe838483508","system_id":"levelo_inurba_marseille","lat":43.32099,"lon":5.36776,"is_reserved":false,"is_disabled":false,"rental_uris":{"android":"levelo://app?vid=e5765682-87e3-4649-97f1-cbe838483508","ios":"levelo://app?vid=e5765682-87e3-4649-97f1-cbe838483508"},"vehicle_type_id":"4","last_reported":1779481783,"current_range_meters":6400,"station_id":"ce4bhrh2rcd13ifvqhug","pricing_plan_id":"cebpf4jnsgd1na2vs0mg"},{"bike_id":"9ababcea-6d2c-4b63-b274-5f3326cd3fee","system_id":"levelo_inurba_marseille","lat":43.2551,"lon":5.37666,"is_reserved":false,"is_disabled":false,"rental_uris":{"android":"levelo://app?vid=9ababcea-6d2c-4b63-b274-5f3326cd3fee","ios":"levelo://app?vid=9ababcea-6d2c-4b63-b274-5f3326cd3fee"},"vehicle_type_id":"4","last_reported":1779481783,"current_range_meters":6400,"station_id":"ce4bhh12rcd13ifvqff0","pricing_plan_id":"cebpf4jnsgd1na2vs0mg"},{"bike_id":"842bc819-110f-4368-b3ff-9e842854a1ed","system_id":"levelo_inurba_marseille","lat":43.24784,"lon":5.37409,"is_reserved":false,"is_disabled":false,"rental_uris":{"android":"levelo://app?vid=842bc819-110f-4368-b3ff-9e842854a1ed","ios":"levelo://app?vid=842bc819-110f-4368-b3ff-9e842854a1ed"},"vehicle_type_id":"4","last_reported":1779481783,"current_range_meters":6400,"station_id":"ce4bhgh2rcd13ifvqfb0","pricing_plan_id":"cebpf4jnsgd1na2vs0mg"},{"bike_id":"a821a46f-2560-423c-9235-2c6ca27aa55b","system_id":"levelo_inurba_marseille","lat":43.28093,"lon":5.35663,"is_reserved":false,"is_disabled":false,"rental_uris":{"android":"levelo://app?vid=a821a46f-2560-423c-9235-2c6ca27aa55b","ios":"levelo://app?vid=a821a46f-2560-423c-9235-2c6ca27aa55b"},"vehicle_type_id":"4","last_reported":1779481783,"current_range_meters":6400,"station_id":"","pricing_plan_id":"cebpf4jnsgd1na2vs0mg"},{"bike_id":"18e8f524-265f-4597-a356-11fa8ed802b9","system_id":"levelo_inurba_marseille","lat":43.29011,"lon":5.38635,"is_reserved":false,"is_disabled":false,"rental_uris":{"android":"levelo://app?vid=18e8f524-265f-4597-a356-11fa8ed802b9","ios":"levelo://app?vid=18e8f524-265f-4597-a356-11fa8ed802b9"},"vehicle_type_id":"4","last_reported":1779481783,"current_range_meters":6400,"station_id":"ce4bh4p2rcd13ifvqe0g","pricing_plan_id":"cebpf4jnsgd1na2vs0mg"},{"bike_id":"a48e9725-901e-43ad-9509-b3b3bd6891f5","system_id":"levelo_inurba_marseille","lat":43.29687,"lon":5.37285,"is_reserved":false,"is_disabled":false,"rental_uris":{"android":"levelo://app?vid=a48e9725-901e-43ad-9509-b3b3bd6891f5","ios":"levelo://app?vid=a48e9725-901e-43ad-9509-b3b3bd6891f5"},"vehicle_type_id":"4","last_reported":1779481783,"current_range_meters":6400,"station_id":"ce4bgk12rcd13ifvqbj0","pricing_plan_id":"cebpf4jnsgd1na2vs0mg"},{"bike_id":"7816563c-9631-4d35-a020-dda58ed96e8f","system_id":"levelo_inurba_marseille","lat":43.23201,"lon":5.35547,"is_reserved":false,"is_disabled":true,"rental_uris":{"android":"levelo://app?vid=7816563c-9631-4d35-a020-dda58ed96e8f","ios":"levelo://app?vid=7816563c-9631-4d35-a020-dda58ed96e8f"},"vehicle_type_id":"4","last_reported":1779481783,"current_range_meters":6400,"station_id":"ce4bhu92rcd13ifvqi70","pricing_plan_id":"cebpf4jnsgd1na2vs0mg"},{"bike_id":"0df38292-184d-438e-9e5d-345920247ab2","system_id":"levelo_inurba_marseille","lat":43.28671,"lon":5.38667,"is_reserved":false,"is_disabled":false,"rental_uris":{"android":"levelo://app?vid=0df38292-184d-438e-9e5d-345920247ab2","ios":"levelo://app?vid=0df38292-184d-438e-9e5d-345920247ab2"},"vehicle_type_id":"4","last_reported":1779481783,"current_range_meters":6400,"station_id":"ce4bh492rcd13ifvqdug","pricing_plan_id":"cebpf4jnsgd1na2vs0mg"},{"bike_id":"1f6dde78-ab44-400e-9f31-06322b5aad33","system_id":"levelo_inurba_marseille","lat":43.296169,"lon":5.371566,"is_reserved":false,"is_disabled":false,"rental_uris":{"android":"levelo://app?vid=1f6dde78-ab44-400e-9f31-06322b5aad33","ios":"levelo://app?vid=1f6dde78-ab44-400e-9f31-06322b5aad33"},"vehicle_type_id":"4","last_reported":1779481783,"current_range_meters":6400,"station_id":"ce4bgnh2rcd13ifvqc0g","pricing_plan_id":"cebpf4jnsgd1na2vs0mg"},{"bike_id":"4441972b-7bcd-41ec-a161-75d1792b802d","system_id":"levelo_inurba_marseille","lat":43.30798,"lon":5.37647,"is_reserved":false,"is_disabled":true,"rental_uris":{"android":"levelo://app?vid=4441972b-7bcd-41ec-a161-75d1792b802d","ios":"levelo://app?vid=4441972b-7bcd-41ec-a161-75d1792b802d"},"vehicle_type_id":"4","last_reported":1779481783,"current_range_meters":6400,"station_id":"ce4bgv92rcd13ifvqcq0","pricing_plan_id":"cebpf4jnsgd1na2vs0mg"},{"bike_id":"23b9361c-eba5-4306-98b2-3eb1c0511004","system_id":"levelo_inurba_marseille","lat":43.2416,"lon":5.39726,"is_reserved":false,"is_disabled":false,"rental_uris":{"android":"levelo://app?vid=23b9361c-eba5-4306-98b2-3eb1c0511004","ios":"levelo://app?vid=23b9361c-eba5-4306-98b2-3eb1c0511004"},"vehicle_type_id":"4","last_reported":1779481783,"current_range_meters":6400,"station_id":"ce4bhn12rcd13ifvqgpg","pricing_plan_id":"cebpf4jnsgd1na2vs0mg"},{"bike_id":"947b176a-b2e8-47b8-a2a0-55c6c69bd01b","system_id":"levelo_inurba_marseille","lat":43.30528,"lon":5.36689,"is_reserved":false,"is_disabled":false,"rental_uris":{"android":"levelo://app?vid=947b176a-b2e8-47b8-a2a0-55c6c69bd01b","ios":"levelo://app?vid=947b176a-b2e8-47b8-a2a0-55c6c69bd01b"},"vehicle_type_id":"4","last_reported":1779481783,"current_range_meters":6400,"station_id":"ce4bgrp2rcd13ifvqc9g","pricing_plan_id":"cebpf4jnsgd1na2vs0mg"},{"bike_id":"8e5683c2-4140-4ca4-b466-7b671c6130d0","system_id":"levelo_inurba_marseille","lat":43.29465,"lon":5.38121,"is_reserved":false,"is_disabled":false,"rental_uris":{"android":"levelo://app?vid=8e5683c2-4140-4ca4-b466-7b671c6130d0","ios":"levelo://app?vid=8e5683c2-4140-4ca4-b466-7b671c6130d0"},"vehicle_type_id":"4","last_reported":1779481783,"current_range_meters":6400,"station_id":"","pricing_plan_id":"cebpf4jnsgd1na2vs0mg"},{"bike_id":"2c7071b6-82ac-4791-b91b-52303916ef74","system_id":"levelo_inurba_marseille","lat":43.30599,"lon":5.393642,"is_reserved":false,"is_disabled":false,"rental_uris":{"android":"levelo://app?vid=2c7071b6-82ac-4791-b91b-52303916ef74","ios":"levelo://app?vid=2c7071b6-82ac-4791-b91b-52303916ef74"},"vehicle_type_id":"4","last_reported":1779481783,"current_range_meters":6400,"station_id":"ce4bh0p2rcd13ifvqd80","pricing_plan_id":"cebpf4jnsgd1na2vs0mg"},{"bike_id":"3c55f59d-b1d8-4169-bf98-f220d4ec85bb","system_id":"levelo_inurba_marseille","lat":43.30943,"lon":5.39076,"is_reserved":false,"is_disabled":false,"rental_uris":{"android":"levelo://app?vid=3c55f59d-b1d8-4169-bf98-f220d4ec85bb","ios":"levelo://app?vid=3c55f59d-b1d8-4169-bf98-f220d4ec85bb"},"vehicle_type_id":"4","last_reported":1779481783,"current_range_meters":6400,"station_id":"ce4bgup2rcd13ifvqco0","pricing_plan_id":"cebpf4jnsgd1na2vs0mg"},{"bike_id":"9344265d-ff03-45ef-9121-0085bc1a43ad","system_id":"levelo_inurba_marseille","lat":43.28418,"lon":5.37505,"is_reserved":false,"is_disabled":true,"rental_uris":{"android":"levelo://app?vid=9344265d-ff03-45ef-9121-0085bc1a43ad","ios":"levelo://app?vid=9344265d-ff03-45ef-9121-0085bc1a43ad"},"vehicle_type_id":"4","last_reported":1779481783,"current_range_meters":6400,"station_id":"ce4bh412rcd13ifvqds0","pricing_plan_id":"cebpf4jnsgd1na2vs0mg"},{"bike_id":"3f30ce56-c01f-40ac-b044-fd61c64c18a6","system_id":"levelo_inurba_marseille","lat":43.29911,"lon":5.39738,"is_reserved":false,"is_disabled":false,"rental_uris":{"android":"levelo://app?vid=3f30ce56-c01f-40ac-b044-fd61c64c18a6","ios":"levelo://app?vid=3f30ce56-c01f-40ac-b044-fd61c64c18a6"},"vehicle_type_id":"4","last_reported":1779481783,"current_range_meters":6400,"station_id":"ce4bh0h2rcd13ifvqd50","pricing_plan_id":"cebpf4jnsgd1na2vs0mg"},{"bike_id":"ae26a13a-8ca3-45d3-964a-5afe431afb56","system_id":"levelo_inurba_marseille","lat":43.29866,"lon":5.39728,"is_reserved":false,"is_disabled":false,"rental_uris":{"android":"levelo://app?vid=ae26a13a-8ca3-45d3-964a-5afe431afb56","ios":"levelo://app?vid=ae26a13a-8ca3-45d3-964a-5afe431afb56"},"vehicle_type_id":"4","last_reported":1779481783,"current_range_meters":6400,"station_id":"ce4bh0h2rcd13ifvqd50","pricing_plan_id":"cebpf4jnsgd1na2vs0mg"},{"bike_id":"92f55a06-09e7-490e-aef6-78292570638c","system_id":"levelo_inurba_marseille","lat":43.23073,"lon":5.3549,"is_reserved":false,"is_disabled":false,"rental_uris":{"android":"levelo://app?vid=92f55a06-09e7-490e-aef6-78292570638c","ios":"levelo://app?vid=92f55a06-09e7-490e-aef6-78292570638c"},"vehicle_type_id":"4","last_reported":1779481783,"current_range_meters":6800,"station_id":"cpo3342slgdg3j2ifvpg","pricing_plan_id":"cebpf4jnsgd1na2vs0mg"},{"bike_id":"0ebd8f06-dab0-44bf-94cf-d6d99aba450f","system_id":"levelo_inurba_marseille","lat":43.30544,"lon":5.36536,"is_reserved":false,"is_disabled":false,"rental_uris":{"android":"levelo://app?vid=0ebd8f06-dab0-44bf-94cf-d6d99aba450f","ios":"levelo://app?vid=0ebd8f06-dab0-44bf-94cf-d6d99aba450f"},"vehicle_type_id":"4","last_reported":1779481783,"current_range_meters":6800,"station_id":"ce4bgs12rcd13ifvqcag","pricing_plan_id":"cebpf4jnsgd1na2vs0mg"},{"bike_id":"d585e531-3cdf-41d2-b8b1-7ec9a069f3f8","system_id":"levelo_inurba_marseille","lat":43.28342,"lon":5.38091,"is_reserved":false,"is_disabled":false,"rental_uris":{"android":"levelo://app?vid=d585e531-3cdf-41d2-b8b1-7ec9a069f3f8","ios":"levelo://app?vid=d585e531-3cdf-41d2-b8b1-7ec9a069f3f8"},"vehicle_type_id":"4","last_reported":1779481783,"current_range_meters":6800,"station_id":"ce4bh412rcd13ifvqdr0","pricing_plan_id":"cebpf4jnsgd1na2vs0mg"},{"bike_id":"d827e303-aea2-4311-8dc0-b4274f2eb69c","system_id":"levelo_inurba_marseille","lat":43.28854,"lon":5.42438,"is_reserved":false,"is_disabled":false,"rental_uris":{"android":"levelo://app?vid=d827e303-aea2-4311-8dc0-b4274f2eb69c","ios":"levelo://app?vid=d827e303-aea2-4311-8dc0-b4274f2eb69c"},"vehicle_type_id":"4","last_reported":1779481783,"current_range_meters":6800,"station_id":"","pricing_plan_id":"cebpf4jnsgd1na2vs0mg"},{"bike_id":"a5a13f56-2ce1-4768-9c87-3dc638b9e3f4","system_id":"levelo_inurba_marseille","lat":43.28285,"lon":5.35026,"is_reserved":false,"is_disabled":true,"rental_uris":{"android":"levelo://app?vid=a5a13f56-2ce1-4768-9c87-3dc638b9e3f4","ios":"levelo://app?vid=a5a13f56-2ce1-4768-9c87-3dc638b9e3f4"},"vehicle_type_id":"4","last_reported":1779481783,"current_range_meters":6800,"station_id":"ce4bhbp2rcd13ifvqerg","pricing_plan_id":"cebpf4jnsgd1na2vs0mg"},{"bike_id":"209768cb-e06f-456f-904a-0cd6b0e4cc2a","system_id":"levelo_inurba_marseille","lat":43.30428,"lon":5.39749,"is_reserved":false,"is_disabled":false,"rental_uris":{"android":"levelo://app?vid=209768cb-e06f-456f-904a-0cd6b0e4cc2a","ios":"levelo://app?vid=209768cb-e06f-456f-904a-0cd6b0e4cc2a"},"vehicle_type_id":"4","last_reported":1779481783,"current_range_meters":6800,"station_id":"ce4bh092rcd13ifvqd20","pricing_plan_id":"cebpf4jnsgd1na2vs0mg"},{"bike_id":"26ab2d2a-a439-4e9b-894e-cab9501a6341","system_id":"levelo_inurba_marseille","lat":43.30265,"lon":5.400703,"is_reserved":false,"is_disabled":false,"rental_uris":{"android":"levelo://app?vid=26ab2d2a-a439-4e9b-894e-cab9501a6341","ios":"levelo://app?vid=26ab2d2a-a439-4e9b-894e-cab9501a6341"},"vehicle_type_id":"4","last_reported":1779481783,"current_range_meters":6800,"station_id":"ce4bgvh2rcd13ifvqcs0","pricing_plan_id":"cebpf4jnsgd1na2vs0mg"},{"bike_id":"21365cae-86d6-4d77-a777-80caf46a8b04","system_id":"levelo_inurba_marseille","lat":43.33781,"lon":5.37487,"is_reserved":false,"is_disabled":false,"rental_uris":{"android":"levelo://app?vid=21365cae-86d6-4d77-a777-80caf46a8b04","ios":"levelo://app?vid=21365cae-86d6-4d77-a777-80caf46a8b04"},"vehicle_type_id":"4","last_reported":1779481783,"current_range_meters":6800,"station_id":"st_d46tts09ee8s73dlu43g","pricing_plan_id":"cebpf4jnsgd1na2vs0mg"},{"bike_id":"ced4aba4-6533-4378-b3dd-130e34ae5409","system_id":"levelo_inurba_marseille","lat":43.27965,"lon":5.38708,"is_reserved":false,"is_disabled":false,"rental_uris":{"android":"levelo://app?vid=ced4aba4-6533-4378-b3dd-130e34ae5409","ios":"levelo://app?vid=ced4aba4-6533-4378-b3dd-130e34ae5409"},"vehicle_type_id":"4","last_reported":1779481783,"current_range_meters":6800,"station_id":"ce4bhg12rcd13ifvqf80","pricing_plan_id":"cebpf4jnsgd1na2vs0mg"},{"bike_id":"67fd4f56-d6e3-41be-8298-e0a75fdcdf70","system_id":"levelo_inurba_marseille","lat":43.2978,"lon":5.37668,"is_reserved":false,"is_disabled":true,"rental_uris":{"android":"levelo://app?vid=67fd4f56-d6e3-41be-8298-e0a75fdcdf70","ios":"levelo://app?vid=67fd4f56-d6e3-41be-8298-e0a75fdcdf70"},"vehicle_type_id":"4","last_reported":1779481783,"current_range_meters":6800,"station_id":"","pricing_plan_id":"cebpf4jnsgd1na2vs0mg"},{"bike_id":"f4c0b23e-43a3-4715-8696-99bddc13e830","system_id":"levelo_inurba_marseille","lat":43.30815,"lon":5.44622,"is_reserved":false,"is_disabled":false,"rental_uris":{"android":"levelo://app?vid=f4c0b23e-43a3-4715-8696-99bddc13e830","ios":"levelo://app?vid=f4c0b23e-43a3-4715-8696-99bddc13e830"},"vehicle_type_id":"4","last_reported":1779481783,"current_range_meters":6800,"station_id":"","pricing_plan_id":"cebpf4jnsgd1na2vs0mg"},{"bike_id":"342e1869-2af9-4deb-828c-8b87225a4d4f","system_id":"levelo_inurba_marseille","lat":43.304227,"lon":5.38883,"is_reserved":false,"is_disabled":false,"rental_uris":{"android":"levelo://app?vid=342e1869-2af9-4deb-828c-8b87225a4d4f","ios":"levelo://app?vid=342e1869-2af9-4deb-828c-8b87225a4d4f"},"vehicle_type_id":"4","last_reported":1779481783,"current_range_meters":6800,"station_id":"ce4bgk12rcd13ifvqbi0","pricing_plan_id":"cebpf4jnsgd1na2vs0mg"},{"bike_id":"ca3dd108-3945-4e9d-a88b-8f930eb1ba2b","system_id":"levelo_inurba_marseille","lat":43.29373,"lon":5.37837,"is_reserved":false,"is_disabled":false,"rental_uris":{"android":"levelo://app?vid=ca3dd108-3945-4e9d-a88b-8f930eb1ba2b","ios":"levelo://app?vid=ca3dd108-3945-4e9d-a88b-8f930eb1ba2b"},"vehicle_type_id":"4","last_reported":1779481783,"current_range_meters":6800,"station_id":"ce4bgjh2rcd13ifvqbf0","pricing_plan_id":"cebpf4jnsgd1na2vs0mg"},{"bike_id":"1b107236-5c99-4d3e-b827-c2ab64321487","system_id":"levelo_inurba_marseille","lat":43.27197,"lon":5.40975,"is_reserved":false,"is_disabled":false,"rental_uris":{"android":"levelo://app?vid=1b107236-5c99-4d3e-b827-c2ab64321487","ios":"levelo://app?vid=1b107236-5c99-4d3e-b827-c2ab64321487"},"vehicle_type_id":"4","last_reported":1779481783,"current_range_meters":6800,"station_id":"ce4bhl12rcd13ifvqgf0","pricing_plan_id":"cebpf4jnsgd1na2vs0mg"},{"bike_id":"6a94ba67-44c6-4208-b305-a9f0a5c4db3e","system_id":"levelo_inurba_marseille","lat":43.22554,"lon":5.41617,"is_reserved":false,"is_disabled":false,"rental_uris":{"android":"levelo://app?vid=6a94ba67-44c6-4208-b305-a9f0a5c4db3e","ios":"levelo://app?vid=6a94ba67-44c6-4208-b305-a9f0a5c4db3e"},"vehicle_type_id":"4","last_reported":1779481783,"current_range_meters":6800,"station_id":"st_d2o4gvlbi1j2169b742g","pricing_plan_id":"cebpf4jnsgd1na2vs0mg"},{"bike_id":"8d6439b0-b948-4458-b63b-23c400bc6479","system_id":"levelo_inurba_marseille","lat":43.305371,"lon":5.367307,"is_reserved":false,"is_disabled":false,"rental_uris":{"android":"levelo://app?vid=8d6439b0-b948-4458-b63b-23c400bc6479","ios":"levelo://app?vid=8d6439b0-b948-4458-b63b-23c400bc6479"},"vehicle_type_id":"4","last_reported":1779481783,"current_range_meters":6800,"station_id":"ce4bgrp2rcd13ifvqc9g","pricing_plan_id":"cebpf4jnsgd1na2vs0mg"},{"bike_id":"29f177f7-be7f-4da8-8bcc-664e10bce6bf","system_id":"levelo_inurba_marseille","lat":43.2854,"lon":5.44106,"is_reserved":false,"is_disabled":false,"rental_uris":{"android":"levelo://app?vid=29f177f7-be7f-4da8-8bcc-664e10bce6bf","ios":"levelo://app?vid=29f177f7-be7f-4da8-8bcc-664e10bce6bf"},"vehicle_type_id":"4","last_reported":1779481783,"current_range_meters":6800,"station_id":"st_d3j3df2ikq2c7380ej80","pricing_plan_id":"cebpf4jnsgd1na2vs0mg"},{"bike_id":"56e2dafd-3325-4fa4-ae96-e59e656b7788","system_id":"levelo_inurba_marseille","lat":43.262088,"lon":5.374431,"is_reserved":false,"is_disabled":false,"rental_uris":{"android":"levelo://app?vid=56e2dafd-3325-4fa4-ae96-e59e656b7788","ios":"levelo://app?vid=56e2dafd-3325-4fa4-ae96-e59e656b7788"},"vehicle_type_id":"4","last_reported":1779481783,"current_range_meters":6800,"station_id":"ce4bhgp2rcd13ifvqfc0","pricing_plan_id":"cebpf4jnsgd1na2vs0mg"},{"bike_id":"2cede324-d456-4558-ac0a-2a84941d7b49","system_id":"levelo_inurba_marseille","lat":43.26557,"lon":5.39026,"is_reserved":false,"is_disabled":false,"rental_uris":{"android":"levelo://app?vid=2cede324-d456-4558-ac0a-2a84941d7b49","ios":"levelo://app?vid=2cede324-d456-4558-ac0a-2a84941d7b49"},"vehicle_type_id":"4","last_reported":1779481783,"current_range_meters":6800,"station_id":"ce4bhe12rcd13ifvqf30","pricing_plan_id":"cebpf4jnsgd1na2vs0mg"},{"bike_id":"d59dc68b-4696-42bd-a9dd-bf4d9cca7fd1","system_id":"levelo_inurba_marseille","lat":43.2466,"lon":5.38898,"is_reserved":false,"is_disabled":false,"rental_uris":{"android":"levelo://app?vid=d59dc68b-4696-42bd-a9dd-bf4d9cca7fd1","ios":"levelo://app?vid=d59dc68b-4696-42bd-a9dd-bf4d9cca7fd1"},"vehicle_type_id":"4","last_reported":1779481783,"current_range_meters":6800,"station_id":"ce4bhg12rcd13ifvqf60","pricing_plan_id":"cebpf4jnsgd1na2vs0mg"},{"bike_id":"c8586636-834e-4845-92bc-42a54d2ff104","system_id":"levelo_inurba_marseille","lat":43.28411,"lon":5.34996,"is_reserved":false,"is_disabled":false,"rental_uris":{"android":"levelo://app?vid=c8586636-834e-4845-92bc-42a54d2ff104","ios":"levelo://app?vid=c8586636-834e-4845-92bc-42a54d2ff104"},"vehicle_type_id":"4","last_reported":1779481783,"current_range_meters":6800,"station_id":"ce4bhbh2rcd13ifvqepg","pricing_plan_id":"cebpf4jnsgd1na2vs0mg"},{"bike_id":"a1805e6f-c662-4e61-bfbd-8752c6a0a421","system_id":"levelo_inurba_marseille","lat":43.28424,"lon":5.34992,"is_reserved":false,"is_disabled":false,"rental_uris":{"android":"levelo://app?vid=a1805e6f-c662-4e61-bfbd-8752c6a0a421","ios":"levelo://app?vid=a1805e6f-c662-4e61-bfbd-8752c6a0a421"},"vehicle_type_id":"4","last_reported":1779481783,"current_range_meters":7200,"station_id":"ce4bhbh2rcd13ifvqepg","pricing_plan_id":"cebpf4jnsgd1na2vs0mg"},{"bike_id":"f90ee025-9270-4421-a34e-0e24a2722a27","system_id":"levelo_inurba_marseille","lat":43.2906,"lon":5.42389,"is_reserved":false,"is_disabled":false,"rental_uris":{"android":"levelo://app?vid=f90ee025-9270-4421-a34e-0e24a2722a27","ios":"levelo://app?vid=f90ee025-9270-4421-a34e-0e24a2722a27"},"vehicle_type_id":"4","last_reported":1779481783,"current_range_meters":7200,"station_id":"","pricing_plan_id":"cebpf4jnsgd1na2vs0mg"},{"bike_id":"33fd2c4d-0195-4fe3-9b07-cb7d63fcd224","system_id":"levelo_inurba_marseille","lat":43.25339,"lon":5.42158,"is_reserved":false,"is_disabled":false,"rental_uris":{"android":"levelo://app?vid=33fd2c4d-0195-4fe3-9b07-cb7d63fcd224","ios":"levelo://app?vid=33fd2c4d-0195-4fe3-9b07-cb7d63fcd224"},"vehicle_type_id":"4","last_reported":1779481783,"current_range_meters":7200,"station_id":"st_d2m65c5bi1j21697t3ng","pricing_plan_id":"cebpf4jnsgd1na2vs0mg"},{"bike_id":"f143917a-38c4-4b36-b7b6-1eae9b137d00","system_id":"levelo_inurba_marseille","lat":43.29493,"lon":5.43307,"is_reserved":false,"is_disabled":false,"rental_uris":{"android":"levelo://app?vid=f143917a-38c4-4b36-b7b6-1eae9b137d00","ios":"levelo://app?vid=f143917a-38c4-4b36-b7b6-1eae9b137d00"},"vehicle_type_id":"4","last_reported":1779481783,"current_range_meters":7200,"station_id":"st_d3j5ugp08ojc73fj9d10","pricing_plan_id":"cebpf4jnsgd1na2vs0mg"},{"bike_id":"b136b22c-bd11-4f33-ac25-6cd5883b144e","system_id":"levelo_inurba_marseille","lat":43.28485,"lon":5.44059,"is_reserved":false,"is_disabled":false,"rental_uris":{"android":"levelo://app?vid=b136b22c-bd11-4f33-ac25-6cd5883b144e","ios":"levelo://app?vid=b136b22c-bd11-4f33-ac25-6cd5883b144e"},"vehicle_type_id":"4","last_reported":1779481783,"current_range_meters":7200,"station_id":"st_d3j3df2ikq2c7380ej80","pricing_plan_id":"cebpf4jnsgd1na2vs0mg"},{"bike_id":"eab6554e-ffe1-41e6-b6c3-fb0d8578d82f","system_id":"levelo_inurba_marseille","lat":43.29543,"lon":5.38547,"is_reserved":false,"is_disabled":false,"rental_uris":{"android":"levelo://app?vid=eab6554e-ffe1-41e6-b6c3-fb0d8578d82f","ios":"levelo://app?vid=eab6554e-ffe1-41e6-b6c3-fb0d8578d82f"},"vehicle_type_id":"4","last_reported":1779481783,"current_range_meters":7200,"station_id":"ce4bgih2rcd13ifvqba0","pricing_plan_id":"cebpf4jnsgd1na2vs0mg"},{"bike_id":"d2fd7dd9-7aa9-4fba-8623-ab64b15bceaf","system_id":"levelo_inurba_marseille","lat":43.25088,"lon":5.39519,"is_reserved":false,"is_disabled":false,"rental_uris":{"android":"levelo://app?vid=d2fd7dd9-7aa9-4fba-8623-ab64b15bceaf","ios":"levelo://app?vid=d2fd7dd9-7aa9-4fba-8623-ab64b15bceaf"},"vehicle_type_id":"4","last_reported":1779481783,"current_range_meters":7200,"station_id":"ce4bhm12rcd13ifvqgkg","pricing_plan_id":"cebpf4jnsgd1na2vs0mg"},{"bike_id":"129836ae-42bf-42de-99af-078009d74406","system_id":"levelo_inurba_marseille","lat":43.27436,"lon":5.39412,"is_reserved":false,"is_disabled":true,"rental_uris":{"android":"levelo://app?vid=129836ae-42bf-42de-99af-078009d74406","ios":"levelo://app?vid=129836ae-42bf-42de-99af-078009d74406"},"vehicle_type_id":"4","last_reported":1779481783,"current_range_meters":7200,"station_id":"ce4bhdp2rcd13ifvqf20","pricing_plan_id":"cebpf4jnsgd1na2vs0mg"},{"bike_id":"9230d5b4-0891-4239-93b1-c918870fbe57","system_id":"levelo_inurba_marseille","lat":43.25864,"lon":5.39894,"is_reserved":false,"is_disabled":false,"rental_uris":{"android":"levelo://app?vid=9230d5b4-0891-4239-93b1-c918870fbe57","ios":"levelo://app?vid=9230d5b4-0891-4239-93b1-c918870fbe57"},"vehicle_type_id":"4","last_reported":1779481783,"current_range_meters":7200,"station_id":"ce4bhl92rcd13ifvqghg","pricing_plan_id":"cebpf4jnsgd1na2vs0mg"},{"bike_id":"396c8b81-b007-4d0f-b64b-72551239a29d","system_id":"levelo_inurba_marseille","lat":43.29631,"lon":5.40594,"is_reserved":false,"is_disabled":false,"rental_uris":{"android":"levelo://app?vid=396c8b81-b007-4d0f-b64b-72551239a29d","ios":"levelo://app?vid=396c8b81-b007-4d0f-b64b-72551239a29d"},"vehicle_type_id":"4","last_reported":1779481783,"current_range_meters":7200,"station_id":"ce4bh0h2rcd13ifvqd60","pricing_plan_id":"cebpf4jnsgd1na2vs0mg"},{"bike_id":"dbfe84b8-e710-4503-9c42-358b3fa7c34c","system_id":"levelo_inurba_marseille","lat":43.24658,"lon":5.38172,"is_reserved":false,"is_disabled":false,"rental_uris":{"android":"levelo://app?vid=dbfe84b8-e710-4503-9c42-358b3fa7c34c","ios":"levelo://app?vid=dbfe84b8-e710-4503-9c42-358b3fa7c34c"},"vehicle_type_id":"4","last_reported":1779481783,"current_range_meters":7200,"station_id":"ce4bhih2rcd13ifvqfr0","pricing_plan_id":"cebpf4jnsgd1na2vs0mg"},{"bike_id":"3c0d67f6-6cb8-4b70-95cb-54df21025055","system_id":"levelo_inurba_marseille","lat":43.29511,"lon":5.38479,"is_reserved":false,"is_disabled":false,"rental_uris":{"android":"levelo://app?vid=3c0d67f6-6cb8-4b70-95cb-54df21025055","ios":"levelo://app?vid=3c0d67f6-6cb8-4b70-95cb-54df21025055"},"vehicle_type_id":"4","last_reported":1779481783,"current_range_meters":7200,"station_id":"","pricing_plan_id":"cebpf4jnsgd1na2vs0mg"},{"bike_id":"93a86e4e-a4ef-4e28-affe-c8c156df70f5","system_id":"levelo_inurba_marseille","lat":43.33033,"lon":5.39031,"is_reserved":false,"is_disabled":false,"rental_uris":{"android":"levelo://app?vid=93a86e4e-a4ef-4e28-affe-c8c156df70f5","ios":"levelo://app?vid=93a86e4e-a4ef-4e28-affe-c8c156df70f5"},"vehicle_type_id":"4","last_reported":1779481783,"current_range_meters":7200,"station_id":"ce4bhr92rcd13ifvqhrg","pricing_plan_id":"cebpf4jnsgd1na2vs0mg"},{"bike_id":"833ab14c-40be-405e-91ca-6803d2f29851","system_id":"levelo_inurba_marseille","lat":43.30943,"lon":5.39028,"is_reserved":false,"is_disabled":false,"rental_uris":{"android":"levelo://app?vid=833ab14c-40be-405e-91ca-6803d2f29851","ios":"levelo://app?vid=833ab14c-40be-405e-91ca-6803d2f29851"},"vehicle_type_id":"4","last_reported":1779481783,"current_range_meters":7200,"station_id":"ce4bgup2rcd13ifvqco0","pricing_plan_id":"cebpf4jnsgd1na2vs0mg"},{"bike_id":"7443fe19-f83c-4256-993c-a845a175ae39","system_id":"levelo_inurba_marseille","lat":43.29026,"lon":5.38625,"is_reserved":false,"is_disabled":false,"rental_uris":{"android":"levelo://app?vid=7443fe19-f83c-4256-993c-a845a175ae39","ios":"levelo://app?vid=7443fe19-f83c-4256-993c-a845a175ae39"},"vehicle_type_id":"4","last_reported":1779481783,"current_range_meters":7200,"station_id":"ce4bh4p2rcd13ifvqe0g","pricing_plan_id":"cebpf4jnsgd1na2vs0mg"},{"bike_id":"999d3ebd-e3d7-4530-b990-3ec06b375240","system_id":"levelo_inurba_marseille","lat":43.28105,"lon":5.37842,"is_reserved":false,"is_disabled":true,"rental_uris":{"android":"levelo://app?vid=999d3ebd-e3d7-4530-b990-3ec06b375240","ios":"levelo://app?vid=999d3ebd-e3d7-4530-b990-3ec06b375240"},"vehicle_type_id":"4","last_reported":1779481783,"current_range_meters":7200,"station_id":"ce4bha12rcd13ifvqee0","pricing_plan_id":"cebpf4jnsgd1na2vs0mg"},{"bike_id":"ecb3216d-7028-458a-a783-dbdb74df765a","system_id":"levelo_inurba_marseille","lat":43.31345,"lon":5.39674,"is_reserved":false,"is_disabled":false,"rental_uris":{"android":"levelo://app?vid=ecb3216d-7028-458a-a783-dbdb74df765a","ios":"levelo://app?vid=ecb3216d-7028-458a-a783-dbdb74df765a"},"vehicle_type_id":"4","last_reported":1779481783,"current_range_meters":7200,"station_id":"ce4bgvp2rcd13ifvqcu0","pricing_plan_id":"cebpf4jnsgd1na2vs0mg"},{"bike_id":"509b5142-3b54-4a82-a39d-99d0a3825b01","system_id":"levelo_inurba_marseille","lat":43.24427,"lon":5.37138,"is_reserved":false,"is_disabled":false,"rental_uris":{"android":"levelo://app?vid=509b5142-3b54-4a82-a39d-99d0a3825b01","ios":"levelo://app?vid=509b5142-3b54-4a82-a39d-99d0a3825b01"},"vehicle_type_id":"4","last_reported":1779481783,"current_range_meters":7200,"station_id":"","pricing_plan_id":"cebpf4jnsgd1na2vs0mg"},{"bike_id":"4d8faa10-fcc7-45a3-a6e9-56479d139f15","system_id":"levelo_inurba_marseille","lat":43.28485,"lon":5.35864,"is_reserved":false,"is_disabled":false,"rental_uris":{"android":"levelo://app?vid=4d8faa10-fcc7-45a3-a6e9-56479d139f15","ios":"levelo://app?vid=4d8faa10-fcc7-45a3-a6e9-56479d139f15"},"vehicle_type_id":"4","last_reported":1779481783,"current_range_meters":7200,"station_id":"ce4bhah2rcd13ifvqei0","pricing_plan_id":"cebpf4jnsgd1na2vs0mg"},{"bike_id":"0b0fc63d-9ac4-4dd4-84a7-54847fdaeefe","system_id":"levelo_inurba_marseille","lat":43.310806,"lon":5.424333,"is_reserved":false,"is_disabled":false,"rental_uris":{"android":"levelo://app?vid=0b0fc63d-9ac4-4dd4-84a7-54847fdaeefe","ios":"levelo://app?vid=0b0fc63d-9ac4-4dd4-84a7-54847fdaeefe"},"vehicle_type_id":"4","last_reported":1779481783,"current_range_meters":7200,"station_id":"ce4bhp92rcd13ifvqhag","pricing_plan_id":"cebpf4jnsgd1na2vs0mg"},{"bike_id":"05b28374-b5f6-48af-89da-787cf161fe81","system_id":"levelo_inurba_marseille","lat":43.27201,"lon":5.39182,"is_reserved":false,"is_disabled":false,"rental_uris":{"android":"levelo://app?vid=05b28374-b5f6-48af-89da-787cf161fe81","ios":"levelo://app?vid=05b28374-b5f6-48af-89da-787cf161fe81"},"vehicle_type_id":"4","last_reported":1779481783,"current_range_meters":7200,"station_id":"ce4bhhp2rcd13ifvqfm0","pricing_plan_id":"cebpf4jnsgd1na2vs0mg"},{"bike_id":"78b7a86a-a4af-4200-9b4f-06f48ffe27ce","system_id":"levelo_inurba_marseille","lat":43.29691,"lon":5.40212,"is_reserved":false,"is_disabled":false,"rental_uris":{"android":"levelo://app?vid=78b7a86a-a4af-4200-9b4f-06f48ffe27ce","ios":"levelo://app?vid=78b7a86a-a4af-4200-9b4f-06f48ffe27ce"},"vehicle_type_id":"4","last_reported":1779481783,"current_range_meters":7200,"station_id":"","pricing_plan_id":"cebpf4jnsgd1na2vs0mg"},{"bike_id":"3e35e13c-4feb-4694-8733-d2ec8312eb38","system_id":"levelo_inurba_marseille","lat":43.30956,"lon":5.39027,"is_reserved":false,"is_disabled":false,"rental_uris":{"android":"levelo://app?vid=3e35e13c-4feb-4694-8733-d2ec8312eb38","ios":"levelo://app?vid=3e35e13c-4feb-4694-8733-d2ec8312eb38"},"vehicle_type_id":"4","last_reported":1779481783,"current_range_meters":7200,"station_id":"ce4bgup2rcd13ifvqco0","pricing_plan_id":"cebpf4jnsgd1na2vs0mg"},{"bike_id":"a468becb-cfcc-4425-88fd-08f2a5a23757","system_id":"levelo_inurba_marseille","lat":43.29303,"lon":5.36834,"is_reserved":false,"is_disabled":false,"rental_uris":{"android":"levelo://app?vid=a468becb-cfcc-4425-88fd-08f2a5a23757","ios":"levelo://app?vid=a468becb-cfcc-4425-88fd-08f2a5a23757"},"vehicle_type_id":"4","last_reported":1779481783,"current_range_meters":7200,"station_id":"ce4bhbp2rcd13ifvqesg","pricing_plan_id":"cebpf4jnsgd1na2vs0mg"},{"bike_id":"e4de3b3b-d2e6-4c2a-adc3-6834ab3c7631","system_id":"levelo_inurba_marseille","lat":43.28644,"lon":5.40474,"is_reserved":false,"is_disabled":false,"rental_uris":{"android":"levelo://app?vid=e4de3b3b-d2e6-4c2a-adc3-6834ab3c7631","ios":"levelo://app?vid=e4de3b3b-d2e6-4c2a-adc3-6834ab3c7631"},"vehicle_type_id":"4","last_reported":1779481783,"current_range_meters":7200,"station_id":"","pricing_plan_id":"cebpf4jnsgd1na2vs0mg"},{"bike_id":"e0c89d73-82ff-4881-9178-6a3f1a454ba1","system_id":"levelo_inurba_marseille","lat":43.25876,"lon":5.39893,"is_reserved":false,"is_disabled":false,"rental_uris":{"android":"levelo://app?vid=e0c89d73-82ff-4881-9178-6a3f1a454ba1","ios":"levelo://app?vid=e0c89d73-82ff-4881-9178-6a3f1a454ba1"},"vehicle_type_id":"4","last_reported":1779481783,"current_range_meters":7200,"station_id":"ce4bhl92rcd13ifvqghg","pricing_plan_id":"cebpf4jnsgd1na2vs0mg"},{"bike_id":"960d768b-45a3-49f4-bc63-fb8d971183c9","system_id":"levelo_inurba_marseille","lat":43.28438,"lon":5.3495,"is_reserved":false,"is_disabled":false,"rental_uris":{"android":"levelo://app?vid=960d768b-45a3-49f4-bc63-fb8d971183c9","ios":"levelo://app?vid=960d768b-45a3-49f4-bc63-fb8d971183c9"},"vehicle_type_id":"4","last_reported":1779481783,"current_range_meters":7200,"station_id":"ce4bhbh2rcd13ifvqepg","pricing_plan_id":"cebpf4jnsgd1na2vs0mg"},{"bike_id":"979e7be3-fb37-4086-a9dd-fe487430cf39","system_id":"levelo_inurba_marseille","lat":43.29599,"lon":5.37728,"is_reserved":false,"is_disabled":false,"rental_uris":{"android":"levelo://app?vid=979e7be3-fb37-4086-a9dd-fe487430cf39","ios":"levelo://app?vid=979e7be3-fb37-4086-a9dd-fe487430cf39"},"vehicle_type_id":"4","last_reported":1779481783,"current_range_meters":7200,"station_id":"ce4bgi92rcd13ifvqb90","pricing_plan_id":"cebpf4jnsgd1na2vs0mg"},{"bike_id":"18570c3f-2dab-4b3b-99da-8889edbbfb35","system_id":"levelo_inurba_marseille","lat":43.24547,"lon":5.39525,"is_reserved":false,"is_disabled":false,"rental_uris":{"android":"levelo://app?vid=18570c3f-2dab-4b3b-99da-8889edbbfb35","ios":"levelo://app?vid=18570c3f-2dab-4b3b-99da-8889edbbfb35"},"vehicle_type_id":"4","last_reported":1779481783,"current_range_meters":7200,"station_id":"ce4bhlp2rcd13ifvqgjg","pricing_plan_id":"cebpf4jnsgd1na2vs0mg"},{"bike_id":"1b84f242-b427-44cd-86c6-6b247513b959","system_id":"levelo_inurba_marseille","lat":43.29531,"lon":5.38539,"is_reserved":false,"is_disabled":false,"rental_uris":{"android":"levelo://app?vid=1b84f242-b427-44cd-86c6-6b247513b959","ios":"levelo://app?vid=1b84f242-b427-44cd-86c6-6b247513b959"},"vehicle_type_id":"4","last_reported":1779481783,"current_range_meters":7200,"station_id":"ce4bgih2rcd13ifvqba0","pricing_plan_id":"cebpf4jnsgd1na2vs0mg"},{"bike_id":"9f5be29c-43a9-4701-bc5a-14b1d89e0c1f","system_id":"levelo_inurba_marseille","lat":43.28081,"lon":5.39644,"is_reserved":false,"is_disabled":false,"rental_uris":{"android":"levelo://app?vid=9f5be29c-43a9-4701-bc5a-14b1d89e0c1f","ios":"levelo://app?vid=9f5be29c-43a9-4701-bc5a-14b1d89e0c1f"},"vehicle_type_id":"4","last_reported":1779481783,"current_range_meters":7200,"station_id":"ce4bho12rcd13ifvqh2g","pricing_plan_id":"cebpf4jnsgd1na2vs0mg"},{"bike_id":"6151e9cf-ce86-4e9f-894d-a7a67562ed5e","system_id":"levelo_inurba_marseille","lat":43.2319,"lon":5.39954,"is_reserved":false,"is_disabled":false,"rental_uris":{"android":"levelo://app?vid=6151e9cf-ce86-4e9f-894d-a7a67562ed5e","ios":"levelo://app?vid=6151e9cf-ce86-4e9f-894d-a7a67562ed5e"},"vehicle_type_id":"4","last_reported":1779481783,"current_range_meters":7200,"station_id":"ce4bhn12rcd13ifvqgqg","pricing_plan_id":"cebpf4jnsgd1na2vs0mg"},{"bike_id":"ce8d53bb-2e59-41a6-90c6-31de32a3a076","system_id":"levelo_inurba_marseille","lat":43.31236,"lon":5.36837,"is_reserved":false,"is_disabled":false,"rental_uris":{"android":"levelo://app?vid=ce8d53bb-2e59-41a6-90c6-31de32a3a076","ios":"levelo://app?vid=ce8d53bb-2e59-41a6-90c6-31de32a3a076"},"vehicle_type_id":"4","last_reported":1779481783,"current_range_meters":8000,"station_id":"ce4bgl92rcd13ifvqbq0","pricing_plan_id":"cebpf4jnsgd1na2vs0mg"},{"bike_id":"e8bd13bf-3fca-4f3b-89e4-0674a7d02d62","system_id":"levelo_inurba_marseille","lat":43.29952,"lon":5.37744,"is_reserved":false,"is_disabled":false,"rental_uris":{"android":"levelo://app?vid=e8bd13bf-3fca-4f3b-89e4-0674a7d02d62","ios":"levelo://app?vid=e8bd13bf-3fca-4f3b-89e4-0674a7d02d62"},"vehicle_type_id":"4","last_reported":1779481783,"current_range_meters":8000,"station_id":"","pricing_plan_id":"cebpf4jnsgd1na2vs0mg"},{"bike_id":"efcc1335-da4a-4d4a-bc29-691a8e8a6f8a","system_id":"levelo_inurba_marseille","lat":43.31386,"lon":5.38475,"is_reserved":false,"is_disabled":false,"rental_uris":{"android":"levelo://app?vid=efcc1335-da4a-4d4a-bc29-691a8e8a6f8a","ios":"levelo://app?vid=efcc1335-da4a-4d4a-bc29-691a8e8a6f8a"},"vehicle_type_id":"4","last_reported":1779481783,"current_range_meters":8000,"station_id":"ce4bgt92rcd13ifvqcf0","pricing_plan_id":"cebpf4jnsgd1na2vs0mg"},{"bike_id":"9fb74047-56c4-40a2-a30a-c2d7f57a9404","system_id":"levelo_inurba_marseille","lat":43.3125,"lon":5.3685,"is_reserved":false,"is_disabled":false,"rental_uris":{"android":"levelo://app?vid=9fb74047-56c4-40a2-a30a-c2d7f57a9404","ios":"levelo://app?vid=9fb74047-56c4-40a2-a30a-c2d7f57a9404"},"vehicle_type_id":"4","last_reported":1779481783,"current_range_meters":8000,"station_id":"ce4bgl92rcd13ifvqbq0","pricing_plan_id":"cebpf4jnsgd1na2vs0mg"},{"bike_id":"8e3ff5a6-3101-4e31-9f20-ac769cb9f7f6","system_id":"levelo_inurba_marseille","lat":43.25503,"lon":5.37649,"is_reserved":false,"is_disabled":false,"rental_uris":{"android":"levelo://app?vid=8e3ff5a6-3101-4e31-9f20-ac769cb9f7f6","ios":"levelo://app?vid=8e3ff5a6-3101-4e31-9f20-ac769cb9f7f6"},"vehicle_type_id":"4","last_reported":1779481783,"current_range_meters":8000,"station_id":"ce4bhh12rcd13ifvqff0","pricing_plan_id":"cebpf4jnsgd1na2vs0mg"},{"bike_id":"7d566c0e-7e7f-4a32-a693-c9977ae80425","system_id":"levelo_inurba_marseille","lat":43.30954,"lon":5.3902,"is_reserved":false,"is_disabled":false,"rental_uris":{"android":"levelo://app?vid=7d566c0e-7e7f-4a32-a693-c9977ae80425","ios":"levelo://app?vid=7d566c0e-7e7f-4a32-a693-c9977ae80425"},"vehicle_type_id":"4","last_reported":1779481783,"current_range_meters":8000,"station_id":"ce4bgup2rcd13ifvqco0","pricing_plan_id":"cebpf4jnsgd1na2vs0mg"},{"bike_id":"bd328f95-4a63-423b-91bb-97d7fb6befec","system_id":"levelo_inurba_marseille","lat":43.29037,"lon":5.42394,"is_reserved":false,"is_disabled":false,"rental_uris":{"android":"levelo://app?vid=bd328f95-4a63-423b-91bb-97d7fb6befec","ios":"levelo://app?vid=bd328f95-4a63-423b-91bb-97d7fb6befec"},"vehicle_type_id":"4","last_reported":1779481783,"current_range_meters":8000,"station_id":"","pricing_plan_id":"cebpf4jnsgd1na2vs0mg"},{"bike_id":"b097ccd0-034f-4b6f-862f-4e2e945b92d5","system_id":"levelo_inurba_marseille","lat":43.295936,"lon":5.380948,"is_reserved":false,"is_disabled":false,"rental_uris":{"android":"levelo://app?vid=b097ccd0-034f-4b6f-862f-4e2e945b92d5","ios":"levelo://app?vid=b097ccd0-034f-4b6f-862f-4e2e945b92d5"},"vehicle_type_id":"4","last_reported":1779481783,"current_range_meters":8000,"station_id":"ce4bgl12rcd13ifvqbo0","pricing_plan_id":"cebpf4jnsgd1na2vs0mg"},{"bike_id":"962191a6-210c-43be-89b6-bfc7f4bdb6c5","system_id":"levelo_inurba_marseille","lat":43.27939,"lon":5.41021,"is_reserved":false,"is_disabled":false,"rental_uris":{"android":"levelo://app?vid=962191a6-210c-43be-89b6-bfc7f4bdb6c5","ios":"levelo://app?vid=962191a6-210c-43be-89b6-bfc7f4bdb6c5"},"vehicle_type_id":"4","last_reported":1779481783,"current_range_meters":8000,"station_id":"ce4bhnp2rcd13ifvqh0g","pricing_plan_id":"cebpf4jnsgd1na2vs0mg"},{"bike_id":"b53de538-9912-45a2-ae61-fb3868d362d9","system_id":"levelo_inurba_marseille","lat":43.25331,"lon":5.42146,"is_reserved":false,"is_disabled":false,"rental_uris":{"android":"levelo://app?vid=b53de538-9912-45a2-ae61-fb3868d362d9","ios":"levelo://app?vid=b53de538-9912-45a2-ae61-fb3868d362d9"},"vehicle_type_id":"4","last_reported":1779481783,"current_range_meters":8000,"station_id":"st_d2m65c5bi1j21697t3ng","pricing_plan_id":"cebpf4jnsgd1na2vs0mg"},{"bike_id":"8bd5fbed-57e7-4548-a2ba-268e4a9abdd5","system_id":"levelo_inurba_marseille","lat":43.2955,"lon":5.42291,"is_reserved":false,"is_disabled":false,"rental_uris":{"android":"levelo://app?vid=8bd5fbed-57e7-4548-a2ba-268e4a9abdd5","ios":"levelo://app?vid=8bd5fbed-57e7-4548-a2ba-268e4a9abdd5"},"vehicle_type_id":"4","last_reported":1779481783,"current_range_meters":8000,"station_id":"ce4bhph2rcd13ifvqhdg","pricing_plan_id":"cebpf4jnsgd1na2vs0mg"},{"bike_id":"039b5170-e834-45b1-8918-01bf7f1d0edc","system_id":"levelo_inurba_marseille","lat":43.25135,"lon":5.3945,"is_reserved":false,"is_disabled":false,"rental_uris":{"android":"levelo://app?vid=039b5170-e834-45b1-8918-01bf7f1d0edc","ios":"levelo://app?vid=039b5170-e834-45b1-8918-01bf7f1d0edc"},"vehicle_type_id":"4","last_reported":1779481783,"current_range_meters":8000,"station_id":"","pricing_plan_id":"cebpf4jnsgd1na2vs0mg"},{"bike_id":"49c2dd3a-4508-4975-a06b-650d8e8a42fc","system_id":"levelo_inurba_marseille","lat":43.270621,"lon":5.383077,"is_reserved":false,"is_disabled":false,"rental_uris":{"android":"levelo://app?vid=49c2dd3a-4508-4975-a06b-650d8e8a42fc","ios":"levelo://app?vid=49c2dd3a-4508-4975-a06b-650d8e8a42fc"},"vehicle_type_id":"4","last_reported":1779481783,"current_range_meters":8000,"station_id":"st_d3n2fo6cfp8s73cte1j0","pricing_plan_id":"cebpf4jnsgd1na2vs0mg"},{"bike_id":"e1b44b00-4d57-4041-868b-035f91b12a2e","system_id":"levelo_inurba_marseille","lat":43.29898,"lon":5.4367,"is_reserved":false,"is_disabled":false,"rental_uris":{"android":"levelo://app?vid=e1b44b00-4d57-4041-868b-035f91b12a2e","ios":"levelo://app?vid=e1b44b00-4d57-4041-868b-035f91b12a2e"},"vehicle_type_id":"4","last_reported":1779481783,"current_range_meters":8000,"station_id":"ce4bhpp2rcd13ifvqhfg","pricing_plan_id":"cebpf4jnsgd1na2vs0mg"},