{"last_updated":1727251980,"ttl":60,"version":"2.2","data":{"bikes":[{"bike_id":"3ece1c85-3698-4ad1-ad02-0c512fc8f312","system_id":"levelo_inurba_marseille","lat":43.29038,"lon":5.37565,"is_reserved":false,"is_disabled":false,"rental_uris":{"android":"levelo://app?vid=3ece1c85-3698-4ad1-ad02-0c512fc8f312","ios":"levelo://app?vid=3ece1c85-3698-4ad1-ad02-0c512fc8f312"},"vehicle_type_id":"4","last_reported":1727251980,"current_range_meters":37600,"station_id":"ce4bh692rcd13ifvqe90","pricing_plan_id":"cebpf4jnsgd1na2vs0mg"},{"bike_id":"6109ada7-505d-440e-a420-8d4d66c41f19","system_id":"levelo_inurba_marseille","lat":43.27438,"lon":5.42467,"is_reserved":false,"is_disabled":false,"rental_uris":{"android":"levelo://app?vid=6109ada7-505d-440e-a420-8d4d66c41f19","ios":"levelo://app?vid=6109ada7-505d-440e-a420-8d4d66c41f19"},"vehicle_type_id":"4","last_reported":1727251980,"current_range_meters":23200,"station_id":"","pricing_plan_id":"cebpf4jnsgd1na2vs0mg"},{"bike_id":"fcb8d09b-fe0f-4eb4-aaf0-10be5e0e49b5","system_id":"levelo_inurba_marseille","lat":43.27491,"lon":5.42458,"is_reserved":false,"is_disabled":false,"rental_uris":{"android":"levelo://app?vid=fcb8d09b-fe0f-4eb4-aaf0-10be5e0e49b5","ios":"levelo://app?vid=fcb8d09b-fe0f-4eb4-aaf0-10be5e0e49b5"},"vehicle_type_id":"4","last_reported":1727251980,"current_range_meters":22800,"station_id":"ce4bhn92rcd13ifvqgrg","pricing_plan_id":"cebpf4jnsgd1na2vs0mg"},{"bike_id":"c84bec2f-3d45-490d-9e77-f03ed32b27f9","system_id":"levelo_inurba_marseille","lat":43.31667,"lon":5.39842,"is_reserved":false,"is_disabled":false,"rental_uris":{"android":"levelo://app?vid=c84bec2f-3d45-490d-9e77-f03ed32b27f9","ios":"levelo://app?vid=c84bec2f-3d45-490d-9e77-f03ed32b27f9"},"vehicle_type_id":"4","last_reported":1727251980,"current_range_meters":38000,"station_id":"","pricing_plan_id":"cebpf4jnsgd1na2vs0mg"},{"bike_id":"f7a338af-1395-4aab-9a8f-5f637cc6b9d3","system_id":"levelo_inurba_marseille","lat":43.309057,"lon":5.368433,"is_reserved":false,"is_disabled":false,"rental_uris":{"android":"levelo://app?vid=f7a338af-1395-4aab-9a8f-5f637cc6b9d3","ios":"levelo://app?vid=f7a338af-1395-4aab-9a8f-5f637cc6b9d3"},"vehicle_type_id":"4","last_reported":1727251980,"current_range_meters":22000,"station_id":"ce4bgn92rcd13ifvqbvg","pricing_plan_id":"cebpf4jnsgd1na2vs0mg"},{"bike_id":"9de15766-f6e5-4718-b239-efcc3a94df68","system_id":"levelo_inurba_marseille","lat":43.30155,"lon":5.38078,"is_reserved":false,"is_disabled":false,"rental_uris":{"android":"levelo://app?vid=9de15766-f6e5-4718-b239-efcc3a94df68","ios":"levelo://app?vid=9de15766-f6e5-4718-b239-efcc3a94df68"},"vehicle_type_id":"4","last_reported":1727251980,"current_range_meters":8400,"station_id":"ce4bgjp2rcd13ifvqbh0","pricing_plan_id":"cebpf4jnsgd1na2vs0mg"},{"bike_id":"3c374343-aa99-421a-8521-b9bd189598db","system_id":"levelo_inurba_marseille","lat":43.28268,"lon":5.35066,"is_reserved":false,"is_disabled":false,"rental_uris":{"android":"levelo://app?vid=3c374343-aa99-421a-8521-b9bd189598db","ios":"levelo://app?vid=3c374343-aa99-421a-8521-b9bd189598db"},"vehicle_type_id":"4","last_reported":1727251980,"current_range_meters":36400,"station_id":"ce4bhbp2rcd13ifvqerg","pricing_plan_id":"cebpf4jnsgd1na2vs0mg"},{"bike_id":"25efd241-95d4-4957-9414-50676d4f1256","system_id":"levelo_inurba_marseille","lat":43.3266,"lon":5.40987,"is_reserved":false,"is_disabled":false,"rental_uris":{"android":"levelo://app?vid=25efd241-95d4-4957-9414-50676d4f1256","ios":"levelo://app?vid=25efd241-95d4-4957-9414-50676d4f1256"},"vehicle_type_id":"4","last_reported":1727251980,"current_range_meters":37600,"station_id":"ce4bhpp2rcd13ifvqhgg","pricing_plan_id":"cebpf4jnsgd1na2vs0mg"},{"bike_id":"6611bc06-9a54-4948-b754-895d54ece40f","system_id":"levelo_inurba_marseille","lat":43.278234,"lon":5.407458,"is_reserved":false,"is_disabled":false,"rental_uris":{"android":"levelo://app?vid=6611bc06-9a54-4948-b754-895d54ece40f","ios":"levelo://app?vid=6611bc06-9a54-4948-b754-895d54ece40f"},"vehicle_type_id":"4","last_reported":1727251980,"current_range_meters":16800,"station_id":"ce4bhnh2rcd13ifvqgtg","pricing_plan_id":"cebpf4jnsgd1na2vs0mg"},{"bike_id":"82570b0d-38e2-4ab9-ba53-e02f5e0e5fc4","system_id":"levelo_inurba_marseille","lat":43.29173,"lon":5.37161,"is_reserved":false,"is_disabled":false,"rental_uris":{"android":"levelo://app?vid=82570b0d-38e2-4ab9-ba53-e02f5e0e5fc4","ios":"levelo://app?vid=82570b0d-38e2-4ab9-ba53-e02f5e0e5fc4"},"vehicle_type_id":"4","last_reported":1727251980,"current_range_meters":24400,"station_id":"ce4bha92rcd13ifvqeh0","pricing_plan_id":"cebpf4jnsgd1na2vs0mg"},{"bike_id":"dec73f4f-b681-4818-a068-daca63f0a22d","system_id":"levelo_inurba_marseille","lat":43.22935,"lon":5.35392,"is_reserved":false,"is_disabled":false,"rental_uris":{"android":"levelo://app?vid=dec73f4f-b681-4818-a068-daca63f0a22d","ios":"levelo://app?vid=dec73f4f-b681-4818-a068-daca63f0a22d"},"vehicle_type_id":"4","last_reported":1727251980,"current_range_meters":38400,"station_id":"cpo3532slgdg3j2ikp40","pricing_plan_id":"cebpf4jnsgd1na2vs0mg"},{"bike_id":"9926f8d4-52ff-41d7-995b-39e4b6d4cdc0","system_id":"levelo_inurba_marseille","lat":43.32478,"lon":5.36561,"is_reserved":false,"is_disabled":false,"rental_uris":{"android":"levelo://app?vid=9926f8d4-52ff-41d7-995b-39e4b6d4cdc0","ios":"levelo://app?vid=9926f8d4-52ff-41d7-995b-39e4b6d4cdc0"},"vehicle_type_id":"4","last_reported":1727251980,"current_range_meters":38800,"station_id":"ce4bhs12rcd13ifvqhvg","pricing_plan_id":"cebpf4jnsgd1na2vs0mg"},{"bike_id":"5a1bba4f-6ec7-4239-b623-82532191f577","system_id":"levelo_inurba_marseille","lat":43.23152,"lon":5.4371,"is_reserved":false,"is_disabled":false,"rental_uris":{"android":"levelo://app?vid=5a1bba4f-6ec7-4239-b623-82532191f577","ios":"levelo://app?vid=5a1bba4f-6ec7-4239-b623-82532191f577"},"vehicle_type_id":"4","last_reported":1727251980,"current_range_meters":25200,"station_id":"ce4bhmp2rcd13ifvqgog","pricing_plan_id":"cebpf4jnsgd1na2vs0mg"},{"bike_id":"08248fef-1a11-4ca6-9a29-f4bae5d2a2d2","system_id":"levelo_inurba_marseille","lat":43.24076,"lon":5.37748,"is_reserved":false,"is_disabled":false,"rental_uris":{"android":"levelo://app?vid=08248fef-1a11-4ca6-9a29-f4bae5d2a2d2","ios":"levelo://app?vid=08248fef-1a11-4ca6-9a29-f4bae5d2a2d2"},"vehicle_type_id":"4","last_reported":1727251980,"current_range_meters":22000,"station_id":"ce4bhnp2rcd13ifvqgvg","pricing_plan_id":"cebpf4jnsgd1na2vs0mg"},{"bike_id":"bb12d251-5d23-49a2-a2a5-87d7ed7ece91","system_id":"levelo_inurba_marseille","lat":43.31365,"lon":5.36688,"is_reserved":false,"is_disabled":false,"rental_uris":{"android":"levelo://app?vid=bb12d251-5d23-49a2-a2a5-87d7ed7ece91","ios":"levelo://app?vid=bb12d251-5d23-49a2-a2a5-87d7ed7ece91"},"vehicle_type_id":"4","last_reported":1727251980,"current_range_meters":38000,"station_id":"ce4bgr92rcd13ifvqc6g","pricing_plan_id":"cebpf4jnsgd1na2vs0mg"},{"bike_id":"ace5fd0f-acec-4ab5-b75b-8aa836650221","system_id":"levelo_inurba_marseille","lat":43.24072,"lon":5.37764,"is_reserved":false,"is_disabled":false,"rental_uris":{"android":"levelo://app?vid=ace5fd0f-acec-4ab5-b75b-8aa836650221","ios":"levelo://app?vid=ace5fd0f-acec-4ab5-b75b-8aa836650221"},"vehicle_type_id":"4","last_reported":1727251980,"current_range_meters":34000,"station_id":"ce4bhnp2rcd13ifvqgvg","pricing_plan_id":"cebpf4jnsgd1na2vs0mg"},{"bike_id":"845f573e-7dbf-4256-aa3a-85c63fe661e8","system_id":"levelo_inurba_marseille","lat":43.28565,"lon":5.39515,"is_reserved":false,"is_disabled":false,"rental_uris":{"android":"levelo://app?vid=845f573e-7dbf-4256-aa3a-85c63fe661e8","ios":"levelo://app?vid=845f573e-7dbf-4256-aa3a-85c63fe661e8"},"vehicle_type_id":"4","last_reported":1727251980,"current_range_meters":28400,"station_id":"ce4bh292rcd13ifvqdg0","pricing_plan_id":"cebpf4jnsgd1na2vs0mg"},{"bike_id":"6d2b6ba7-f5a0-4ed8-91d4-68a064ae5d51","system_id":"levelo_inurba_marseille","lat":43.28931,"lon":5.38393,"is_reserved":false,"is_disabled":false,"rental_uris":{"android":"levelo://app?vid=6d2b6ba7-f5a0-4ed8-91d4-68a064ae5d51","ios":"levelo://app?vid=6d2b6ba7-f5a0-4ed8-91d4-68a064ae5d51"},"vehicle_type_id":"4","last_reported":1727251980,"current_range_meters":26000,"station_id":"ce4bh612rcd13ifvqe6g","pricing_plan_id":"cebpf4jnsgd1na2vs0mg"},{"bike_id":"cb63d342-63b2-41e3-8455-4366ca08c9e6","system_id":"levelo_inurba_marseille","lat":43.31379,"lon":5.36658,"is_reserved":false,"is_disabled":false,"rental_uris":{"android":"levelo://app?vid=cb63d342-63b2-41e3-8455-4366ca08c9e6","ios":"levelo://app?vid=cb63d342-63b2-41e3-8455-4366ca08c9e6"},"vehicle_type_id":"4","last_reported":1727251980,"current_range_meters":33200,"station_id":"","pricing_plan_id":"cebpf4jnsgd1na2vs0mg"},{"bike_id":"46fa38ec-b4b2-4d33-aeab-fdf60dc4a5d6","system_id":"levelo_inurba_marseille","lat":43.30555,"lon":5.36533,"is_reserved":false,"is_disabled":false,"rental_uris":{"android":"levelo://app?vid=46fa38ec-b4b2-4d33-aeab-fdf60dc4a5d6","ios":"levelo://app?vid=46fa38ec-b4b2-4d33-aeab-fdf60dc4a5d6"},"vehicle_type_id":"4","last_reported":1727251980,"current_range_meters":28800,"station_id":"ce4bgs12rcd13ifvqcag","pricing_plan_id":"cebpf4jnsgd1na2vs0mg"},{"bike_id":"d4cf6aea-8938-4748-896d-adca184b256f","system_id":"levelo_inurba_marseille","lat":43.30475,"lon":5.37904,"is_reserved":false,"is_disabled":false,"rental_uris":{"android":"levelo://app?vid=d4cf6aea-8938-4748-896d-adca184b256f","ios":"levelo://app?vid=d4cf6aea-8938-4748-896d-adca184b256f"},"vehicle_type_id":"4","last_reported":1727251980,"current_range_meters":39200,"station_id":"ce4bgup2rcd13ifvqcn0","pricing_plan_id":"cebpf4jnsgd1na2vs0mg"},{"bike_id":"26ae5e78-d5d8-4979-9051-2e2eb46c8ee6","system_id":"levelo_inurba_marseille","lat":43.31992,"lon":5.38163,"is_reserved":false,"is_disabled":false,"rental_uris":{"android":"levelo://app?vid=26ae5e78-d5d8-4979-9051-2e2eb46c8ee6","ios":"levelo://app?vid=26ae5e78-d5d8-4979-9051-2e2eb46c8ee6"},"vehicle_type_id":"4","last_reported":1727251980,"current_range_meters":32400,"station_id":"ce4bhr12rcd13ifvqhpg","pricing_plan_id":"cebpf4jnsgd1na2vs0mg"},{"bike_id":"7737b815-6daf-41f0-8354-4b28ba75917f","system_id":"levelo_inurba_marseille","lat":43.30191,"lon":5.39821,"is_reserved":false,"is_disabled":false,"rental_uris":{"android":"levelo://app?vid=7737b815-6daf-41f0-8354-4b28ba75917f","ios":"levelo://app?vid=7737b815-6daf-41f0-8354-4b28ba75917f"},"vehicle_type_id":"4","last_reported":1727251980,"current_range_meters":18000,"station_id":"ce4bgvp2rcd13ifvqct0","pricing_plan_id":"cebpf4jnsgd1na2vs0mg"},{"bike_id":"99507cd4-d3a1-4c51-9118-722753207de7","system_id":"levelo_inurba_marseille","lat":43.27069,"lon":5.42279,"is_reserved":false,"is_disabled":false,"rental_uris":{"android":"levelo://app?vid=99507cd4-d3a1-4c51-9118-722753207de7","ios":"levelo://app?vid=99507cd4-d3a1-4c51-9118-722753207de7"},"vehicle_type_id":"4","last_reported":1727251980,"current_range_meters":16400,"station_id":"ce4bhk92rcd13ifvqgb0","pricing_plan_id":"cebpf4jnsgd1na2vs0mg"},{"bike_id":"b8d0ef95-6f66-4b45-a83c-7092471dbcda","system_id":"levelo_inurba_marseille","lat":43.26686,"lon":5.38271,"is_reserved":false,"is_disabled":false,"rental_uris":{"android":"levelo://app?vid=b8d0ef95-6f66-4b45-a83c-7092471dbcda","ios":"levelo://app?vid=b8d0ef95-6f66-4b45-a83c-7092471dbcda"},"vehicle_type_id":"4","last_reported":1727251980,"current_range_meters":25600,"station_id":"ce4bhg92rcd13ifvqf90","pricing_plan_id":"cebpf4jnsgd1na2vs0mg"},{"bike_id":"949865b6-0f61-41c8-a9b8-4b7d8bcb89af","system_id":"levelo_inurba_marseille","lat":43.29842,"lon":5.36272,"is_reserved":false,"is_disabled":false,"rental_uris":{"android":"levelo://app?vid=949865b6-0f61-41c8-a9b8-4b7d8bcb89af","ios":"levelo://app?vid=949865b6-0f61-41c8-a9b8-4b7d8bcb89af"},"vehicle_type_id":"4","last_reported":1727251980,"current_range_meters":26800,"station_id":"ce4bgpp2rcd13ifvqc3g","pricing_plan_id":"cebpf4jnsgd1na2vs0mg"},{"bike_id":"efd48c0e-c735-48ad-bc8d-40b1425ab3e2","system_id":"levelo_inurba_marseille","lat":43.24074,"lon":5.37757,"is_reserved":false,"is_disabled":false,"rental_uris":{"android":"levelo://app?vid=efd48c0e-c735-48ad-bc8d-40b1425ab3e2","ios":"levelo://app?vid=efd48c0e-c735-48ad-bc8d-40b1425ab3e2"},"vehicle_type_id":"4","last_reported":1727251980,"current_range_meters":7200,"station_id":"ce4bhnp2rcd13ifvqgvg","pricing_plan_id":"cebpf4jnsgd1na2vs0mg"},{"bike_id":"506ffd4e-10e3-4a2c-b443-e028f2f8fed6","system_id":"levelo_inurba_marseille","lat":43.26033,"lon":5.37548,"is_reserved":false,"is_disabled":false,"rental_uris":{"android":"levelo://app?vid=506ffd4e-10e3-4a2c-b443-e028f2f8fed6","ios":"levelo://app?vid=506ffd4e-10e3-4a2c-b443-e028f2f8fed6"},"vehicle_type_id":"4","last_reported":1727251980,"current_range_meters":37600,"station_id":"ce4bhgh2rcd13ifvqfa0","pricing_plan_id":"cebpf4jnsgd1na2vs0mg"},{"bike_id":"3b195df4-d71b-45c6-b4ee-0701cb9345da","system_id":"levelo_inurba_marseille","lat":43.30162,"lon":5.37419,"is_reserved":false,"is_disabled":false,"rental_uris":{"android":"levelo://app?vid=3b195df4-d71b-45c6-b4ee-0701cb9345da","ios":"levelo://app?vid=3b195df4-d71b-45c6-b4ee-0701cb9345da"},"vehicle_type_id":"4","last_reported":1727251980,"current_range_meters":27200,"station_id":"ce4bgs92rcd13ifvqcc0","pricing_plan_id":"cebpf4jnsgd1na2vs0mg"},{"bike_id":"f57f9a2b-463a-495e-b929-b7d110fc5488","system_id":"levelo_inurba_marseille","lat":43.2984,"lon":5.36265,"is_reserved":false,"is_disabled":false,"rental_uris":{"android":"levelo://app?vid=f57f9a2b-463a-495e-b929-b7d110fc5488","ios":"levelo://app?vid=f57f9a2b-463a-495e-b929-b7d110fc5488"},"vehicle_type_id":"4","last_reported":1727251980,"current_range_meters":12400,"station_id":"ce4bgpp2rcd13ifvqc3g","pricing_plan_id":"cebpf4jnsgd1na2vs0mg"},{"bike_id":"9e8a6286-2aa6-4c4f-837d-ef22b57ca874","system_id":"levelo_inurba_marseille","lat":43.24079,"lon":5.37746,"is_reserved":false,"is_disabled":false,"rental_uris":{"android":"levelo://app?vid=9e8a6286-2aa6-4c4f-837d-ef22b57ca874","ios":"levelo://app?vid=9e8a6286-2aa6-4c4f-837d-ef22b57ca874"},"vehicle_type_id":"4","last_reported":1727251980,"current_range_meters":23200,"station_id":"ce4bhnp2rcd13ifvqgvg","pricing_plan_id":"cebpf4jnsgd1na2vs0mg"},{"bike_id":"ab2acc54-6d78-4c46-b9fd-3d516ff6d860","system_id":"levelo_inurba_marseille","lat":43.24077,"lon":5.37759,"is_reserved":false,"is_disabled":false,"rental_uris":{"android":"levelo://app?vid=ab2acc54-6d78-4c46-b9fd-3d516ff6d860","ios":"levelo://app?vid=ab2acc54-6d78-4c46-b9fd-3d516ff6d860"},"vehicle_type_id":"4","last_reported":1727251980,"current_range_meters":26000,"station_id":"ce4bhnp2rcd13ifvqgvg","pricing_plan_id":"cebpf4jnsgd1na2vs0mg"},{"bike_id":"86b6dccf-ea7c-412a-a291-bf2084731947","system_id":"levelo_inurba_marseille","lat":43.27374,"lon":5.36262,"is_reserved":false,"is_disabled":false,"rental_uris":{"android":"levelo://app?vid=86b6dccf-ea7c-412a-a291-bf2084731947","ios":"levelo://app?vid=86b6dccf-ea7c-412a-a291-bf2084731947"},"vehicle_type_id":"4","last_reported":1727251980,"current_range_meters":38800,"station_id":"ce4bhbh2rcd13ifvqeo0","pricing_plan_id":"cebpf4jnsgd1na2vs0mg"},{"bike_id":"f8c704cc-636c-4268-80af-5309e4b09904","system_id":"levelo_inurba_marseille","lat":43.2419,"lon":5.39721,"is_reserved":false,"is_disabled":false,"rental_uris":{"android":"levelo://app?vid=f8c704cc-636c-4268-80af-5309e4b09904","ios":"levelo://app?vid=f8c704cc-636c-4268-80af-5309e4b09904"},"vehicle_type_id":"4","last_reported":1727251980,"current_range_meters":34000,"station_id":"ce4bhn12rcd13ifvqgpg","pricing_plan_id":"cebpf4jnsgd1na2vs0mg"},{"bike_id":"8db4eeae-90dc-450b-8149-34b6ce69b1f8","system_id":"levelo_inurba_marseille","lat":43.23183,"lon":5.39988,"is_reserved":false,"is_disabled":false,"rental_uris":{"android":"levelo://app?vid=8db4eeae-90dc-450b-8149-34b6ce69b1f8","ios":"levelo://app?vid=8db4eeae-90dc-450b-8149-34b6ce69b1f8"},"vehicle_type_id":"4","last_reported":1727251980,"current_range_meters":27600,"station_id":"ce4bhn12rcd13ifvqgqg","pricing_plan_id":"cebpf4jnsgd1na2vs0mg"},{"bike_id":"d0f7e891-626f-4a6a-a80d-04fe26abcc45","system_id":"levelo_inurba_marseille","lat":43.27497,"lon":5.42449,"is_reserved":false,"is_disabled":false,"rental_uris":{"android":"levelo://app?vid=d0f7e891-626f-4a6a-a80d-04fe26abcc45","ios":"levelo://app?vid=d0f7e891-626f-4a6a-a80d-04fe26abcc45"},"vehicle_type_id":"4","last_reported":1727251980,"current_range_meters":5600,"station_id":"ce4bhn92rcd13ifvqgrg","pricing_plan_id":"cebpf4jnsgd1na2vs0mg"},{"bike_id":"9f2c03f5-19a3-49d4-90fc-92657b0c22a1","system_id":"levelo_inurba_marseille","lat":43.313438,"lon":5.36718,"is_reserved":false,"is_disabled":false,"rental_uris":{"android":"levelo://app?vid=9f2c03f5-19a3-49d4-90fc-92657b0c22a1","ios":"levelo://app?vid=9f2c03f5-19a3-49d4-90fc-92657b0c22a1"},"vehicle_type_id":"4","last_reported":1727251980,"current_range_meters":4800,"station_id":"ce4bgr92rcd13ifvqc6g","pricing_plan_id":"cebpf4jnsgd1na2vs0mg"},{"bike_id":"8868b073-6d41-41a6-8f4c-e99c4a0515a9","system_id":"levelo_inurba_marseille","lat":43.3048,"lon":5.37911,"is_reserved":false,"is_disabled":false,"rental_uris":{"android":"levelo://app?vid=8868b073-6d41-41a6-8f4c-e99c4a0515a9","ios":"levelo://app?vid=8868b073-6d41-41a6-8f4c-e99c4a0515a9"},"vehicle_type_id":"4","last_reported":1727251980,"current_range_meters":36400,"station_id":"ce4bgup2rcd13ifvqcn0","pricing_plan_id":"cebpf4jnsgd1na2vs0mg"},{"bike_id":"7a8458d5-44ac-4f2e-abef-3f01eb31f7ca","system_id":"levelo_inurba_marseille","lat":43.337444,"lon":5.374475,"is_reserved":false,"is_disabled":false,"rental_uris":{"android":"levelo://app?vid=7a8458d5-44ac-4f2e-abef-3f01eb31f7ca","ios":"levelo://app?vid=7a8458d5-44ac-4f2e-abef-3f01eb31f7ca"},"vehicle_type_id":"4","last_reported":1727251980,"current_range_meters":26800,"station_id":"","pricing_plan_id":"cebpf4jnsgd1na2vs0mg"},{"bike_id":"f053eec1-5c92-467a-97cd-189e8ce40be1","system_id":"levelo_inurba_marseille","lat":43.31669,"lon":5.39906,"is_reserved":false,"is_disabled":false,"rental_uris":{"android":"levelo://app?vid=f053eec1-5c92-467a-97cd-189e8ce40be1","ios":"levelo://app?vid=f053eec1-5c92-467a-97cd-189e8ce40be1"},"vehicle_type_id":"4","last_reported":1727251980,"current_range_meters":38000,"station_id":"","pricing_plan_id":"cebpf4jnsgd1na2vs0mg"},{"bike_id":"d812607d-3a62-423c-9775-7d74c606b75f","system_id":"levelo_inurba_marseille","lat":43.29263,"lon":5.38423,"is_reserved":false,"is_disabled":false,"rental_uris":{"android":"levelo://app?vid=d812607d-3a62-423c-9775-7d74c606b75f","ios":"levelo://app?vid=d812607d-3a62-423c-9775-7d74c606b75f"},"vehicle_type_id":"4","last_reported":1727251980,"current_range_meters":16800,"station_id":"ce4bh692rcd13ifvqea0","pricing_plan_id":"cebpf4jnsgd1na2vs0mg"},{"bike_id":"a5bed6c7-0181-4d5a-bf16-c9aae083ea7a","system_id":"levelo_inurba_marseille","lat":43.27485,"lon":5.42454,"is_reserved":false,"is_disabled":false,"rental_uris":{"android":"levelo://app?vid=a5bed6c7-0181-4d5a-bf16-c9aae083ea7a","ios":"levelo://app?vid=a5bed6c7-0181-4d5a-bf16-c9aae083ea7a"},"vehicle_type_id":"4","last_reported":1727251980,"current_range_meters":28000,"station_id":"ce4bhn92rcd13ifvqgrg","pricing_plan_id":"cebpf4jnsgd1na2vs0mg"},{"bike_id":"0b1e4c37-3578-47d3-9fbc-3d280b331de0","system_id":"levelo_inurba_marseille","lat":43.3375,"lon":5.374312,"is_reserved":false,"is_disabled":false,"rental_uris":{"android":"levelo://app?vid=0b1e4c37-3578-47d3-9fbc-3d280b331de0","ios":"levelo://app?vid=0b1e4c37-3578-47d3-9fbc-3d280b331de0"},"vehicle_type_id":"4","last_reported":1727251980,"current_range_meters":38000,"station_id":"","pricing_plan_id":"cebpf4jnsgd1na2vs0mg"},{"bike_id":"15300eb9-9609-4833-bf7c-718f7db799de","system_id":"levelo_inurba_marseille","lat":43.25942,"lon":5.40904,"is_reserved":false,"is_disabled":false,"rental_uris":{"android":"levelo://app?vid=15300eb9-9609-4833-bf7c-718f7db799de","ios":"levelo://app?vid=15300eb9-9609-4833-bf7c-718f7db799de"},"vehicle_type_id":"4","last_reported":1727251980,"current_range_meters":23200,"station_id":"ce4bhm92rcd13ifvqglg","pricing_plan_id":"cebpf4jnsgd1na2vs0mg"},{"bike_id":"68b6f0c4-dee8-48fe-b463-b00692c3562a","system_id":"levelo_inurba_marseille","lat":43.30537,"lon":5.36697,"is_reserved":false,"is_disabled":false,"rental_uris":{"android":"levelo://app?vid=68b6f0c4-dee8-48fe-b463-b00692c3562a","ios":"levelo://app?vid=68b6f0c4-dee8-48fe-b463-b00692c3562a"},"vehicle_type_id":"4","last_reported":1727251980,"current_range_meters":18800,"station_id":"ce4bgrp2rcd13ifvqc9g","pricing_plan_id":"cebpf4jnsgd1na2vs0mg"},{"bike_id":"3868db70-65e3-4c33-8860-dd2aa92efe99","system_id":"levelo_inurba_marseille","lat":43.29579,"lon":5.37507,"is_reserved":false,"is_disabled":false,"rental_uris":{"android":"levelo://app?vid=3868db70-65e3-4c33-8860-dd2aa92efe99","ios":"levelo://app?vid=3868db70-65e3-4c33-8860-dd2aa92efe99"},"vehicle_type_id":"4","last_reported":1727251980,"current_range_meters":37600,"station_id":"ce4bgh92rcd13ifvqb50","pricing_plan_id":"cebpf4jnsgd1na2vs0mg"},{"bike_id":"79426253-97d3-4469-87d5-d4debe947c03","system_id":"levelo_inurba_marseille","lat":43.24083,"lon":5.37756,"is_reserved":false,"is_disabled":false,"rental_uris":{"android":"levelo://app?vid=79426253-97d3-4469-87d5-d4debe947c03","ios":"levelo://app?vid=79426253-97d3-4469-87d5-d4debe947c03"},"vehicle_type_id":"4","last_reported":1727251980,"current_range_meters":28800,"station_id":"ce4bhnp2rcd13ifvqgvg","pricing_plan_id":"cebpf4jnsgd1na2vs0mg"},{"bike_id":"c9caa42e-e8a7-4b6e-b172-795704959513","system_id":"levelo_inurba_marseille","lat":43.30906,"lon":5.36862,"is_reserved":false,"is_disabled":false,"rental_uris":{"android":"levelo://app?vid=c9caa42e-e8a7-4b6e-b172-795704959513","ios":"levelo://app?vid=c9caa42e-e8a7-4b6e-b172-795704959513"},"vehicle_type_id":"4","last_reported":1727251980,"current_range_meters":32400,"station_id":"ce4bgn92rcd13ifvqbvg","pricing_plan_id":"cebpf4jnsgd1na2vs0mg"},{"bike_id":"d79635ac-16b5-46ea-8c21-b60892941bd3","system_id":"levelo_inurba_marseille","lat":43.323313,"lon":5.406246,"is_reserved":false,"is_disabled":false,"rental_uris":{"android":"levelo://app?vid=d79635ac-16b5-46ea-8c21-b60892941bd3","ios":"levelo://app?vid=d79635ac-16b5-46ea-8c21-b60892941bd3"},"vehicle_type_id":"4","last_reported":1727251980,"current_range_meters":37600,"station_id":"ce4bhq92rcd13ifvqhjg","pricing_plan_id":"cebpf4jnsgd1na2vs0mg"},{"bike_id":"560ec151-6932-49c2-96c9-d829b4dcbf21","system_id":"levelo_inurba_marseille","lat":43.29301,"lon":5.37469,"is_reserved":false,"is_disabled":false,"rental_uris":{"android":"levelo://app?vid=560ec151-6932-49c2-96c9-d829b4dcbf21","ios":"levelo://app?vid=560ec151-6932-49c2-96c9-d829b4dcbf21"},"vehicle_type_id":"4","last_reported":1727251980,"current_range_meters":16000,"station_id":"ce4bgi12rcd13ifvqb70","pricing_plan_id":"cebpf4jnsgd1na2vs0mg"},{"bike_id":"e226fa75-354b-45fa-a0c9-9a730e04d4ea","system_id":"levelo_inurba_marseille","lat":43.31225,"lon":5.36855,"is_reserved":false,"is_disabled":false,"rental_uris":{"android":"levelo://app?vid=e226fa75-354b-45fa-a0c9-9a730e04d4ea","ios":"levelo://app?vid=e226fa75-354b-45fa-a0c9-9a730e04d4ea"},"vehicle_type_id":"4","last_reported":1727251980,"current_range_meters":24400,"station_id":"ce4bgl92rcd13ifvqbq0","pricing_plan_id":"cebpf4jnsgd1na2vs0mg"},{"bike_id":"d32afec2-3e03-4df6-9495-d6ecc4c3ce3d","system_id":"levelo_inurba_marseille","lat":43.31226,"lon":5.36855,"is_reserved":false,"is_disabled":false,"rental_uris":{"android":"levelo://app?vid=d32afec2-3e03-4df6-9495-d6ecc4c3ce3d","ios":"levelo://app?vid=d32afec2-3e03-4df6-9495-d6ecc4c3ce3d"},"vehicle_type_id":"4","last_reported":1727251980,"current_range_meters":24800,"station_id":"ce4bgl92rcd13ifvqbq0","pricing_plan_id":"cebpf4jnsgd1na2vs0mg"},{"bike_id":"8d7bee43-5833-4b61-b867-44649187d848","system_id":"levelo_inurba_marseille","lat":43.30154,"lon":5.38078,"is_reserved":false,"is_disabled":false,"rental_uris":{"android":"levelo://app?vid=8d7bee43-5833-4b61-b867-44649187d848","ios":"levelo://app?vid=8d7bee43-5833-4b61-b867-44649187d848"},"vehicle_type_id":"4","last_reported":1727251980,"current_range_meters":7200,"station_id":"ce4bgjp2rcd13ifvqbh0","pricing_plan_id":"cebpf4jnsgd1na2vs0mg"},{"bike_id":"cefb6643-fc89-4b04-b95f-6cff2759399c","system_id":"levelo_inurba_marseille","lat":43.32286,"lon":5.38283,"is_reserved":false,"is_disabled":false,"rental_uris":{"android":"levelo://app?vid=cefb6643-fc89-4b04-b95f-6cff2759399c","ios":"levelo://app?vid=cefb6643-fc89-4b04-b95f-6cff2759399c"},"vehicle_type_id":"4","last_reported":1727251980,"current_range_meters":39200,"station_id":"ce4bhr12rcd13ifvqhqg","pricing_plan_id":"cebpf4jnsgd1na2vs0mg"},{"bike_id":"88cf1e9e-bae5-4242-b0c9-d6f998116d6a","system_id":"levelo_inurba_marseille","lat":43.3056,"lon":5.36536,"is_reserved":false,"is_disabled":false,"rental_uris":{"android":"levelo://app?vid=88cf1e9e-bae5-4242-b0c9-d6f998116d6a","ios":"levelo://app?vid=88cf1e9e-bae5-4242-b0c9-d6f998116d6a"},"vehicle_type_id":"4","last_reported":1727251980,"current_range_meters":28000,"station_id":"ce4bgs12rcd13ifvqcag","pricing_plan_id":"cebpf4jnsgd1na2vs0mg"},{"bike_id":"6795e26b-2184-4694-9560-3fd53f2ced85","system_id":"levelo_inurba_marseille","lat":43.29063,"lon":5.37167,"is_reserved":false,"is_disabled":false,"rental_uris":{"android":"levelo://app?vid=6795e26b-2184-4694-9560-3fd53f2ced85","ios":"levelo://app?vid=6795e26b-2184-4694-9560-3fd53f2ced85"},"vehicle_type_id":"4","last_reported":1727251980,"current_range_meters":36800,"station_id":"ce4bh5p2rcd13ifvqe4g","pricing_plan_id":"cebpf4jnsgd1na2vs0mg"},{"bike_id":"52bd4024-da2c-49f1-8b38-895ad0d2dbb4","system_id":"levelo_inurba_marseille","lat":43.33745,"lon":5.37451,"is_reserved":false,"is_disabled":false,"rental_uris":{"android":"levelo://app?vid=52bd4024-da2c-49f1-8b38-895ad0d2dbb4","ios":"levelo://app?vid=52bd4024-da2c-49f1-8b38-895ad0d2dbb4"},"vehicle_type_id":"4","last_reported":1727251980,"current_range_meters":38400,"station_id":"","pricing_plan_id":"cebpf4jnsgd1na2vs0mg"},{"bike_id":"b1951137-0319-4711-ab68-245e2b6b93d3","system_id":"levelo_inurba_marseille","lat":43.313538,"lon":5.366998,"is_reserved":false,"is_disabled":false,"rental_uris":{"android":"levelo://app?vid=b1951137-0319-4711-ab68-245e2b6b93d3","ios":"levelo://app?vid=b1951137-0319-4711-ab68-245e2b6b93d3"},"vehicle_type_id":"4","last_reported":1727251980,"current_range_meters":35200,"station_id":"ce4bgr92rcd13ifvqc6g","pricing_plan_id":"cebpf4jnsgd1na2vs0mg"},{"bike_id":"c616d233-ea67-4895-8880-51b610224d27","system_id":"levelo_inurba_marseille","lat":43.30544,"lon":5.36537,"is_reserved":false,"is_disabled":false,"rental_uris":{"android":"levelo://app?vid=c616d233-ea67-4895-8880-51b610224d27","ios":"levelo://app?vid=c616d233-ea67-4895-8880-51b610224d27"},"vehicle_type_id":"4","last_reported":1727251980,"current_range_meters":16800,"station_id":"ce4bgs12rcd13ifvqcag","pricing_plan_id":"cebpf4jnsgd1na2vs0mg"},{"bike_id":"25c2da3d-9bb6-48b8-8579-2ff6744c67cb","system_id":"levelo_inurba_marseille","lat":43.23153,"lon":5.43711,"is_reserved":false,"is_disabled":false,"rental_uris":{"android":"levelo://app?vid=25c2da3d-9bb6-48b8-8579-2ff6744c67cb","ios":"levelo://app?vid=25c2da3d-9bb6-48b8-8579-2ff6744c67cb"},"vehicle_type_id":"4","last_reported":1727251980,"current_range_meters":37600,"station_id":"ce4bhmp2rcd13ifvqgog","pricing_plan_id":"cebpf4jnsgd1na2vs0mg"},{"bike_id":"908d9174-fcfd-458b-b0f0-554f56187ce8","system_id":"levelo_inurba_marseille","lat":43.2465,"lon":5.38893,"is_reserved":false,"is_disabled":false,"rental_uris":{"android":"levelo://app?vid=908d9174-fcfd-458b-b0f0-554f56187ce8","ios":"levelo://app?vid=908d9174-fcfd-458b-b0f0-554f56187ce8"},"vehicle_type_id":"4","last_reported":1727251980,"current_range_meters":17200,"station_id":"ce4bhg12rcd13ifvqf60","pricing_plan_id":"cebpf4jnsgd1na2vs0mg"},{"bike_id":"a58d77f3-76c4-4456-9500-a6a202aa3e6f","system_id":"levelo_inurba_marseille","lat":43.30551,"lon":5.36748,"is_reserved":false,"is_disabled":false,"rental_uris":{"android":"levelo://app?vid=a58d77f3-76c4-4456-9500-a6a202aa3e6f","ios":"levelo://app?vid=a58d77f3-76c4-4456-9500-a6a202aa3e6f"},"vehicle_type_id":"4","last_reported":1727251980,"current_range_meters":34000,"station_id":"ce4bgrp2rcd13ifvqc9g","pricing_plan_id":"cebpf4jnsgd1na2vs0mg"},{"bike_id":"79a05bb1-ccec-47f0-8ebd-1f95854549f8","system_id":"levelo_inurba_marseille","lat":43.31285,"lon":5.38042,"is_reserved":false,"is_disabled":false,"rental_uris":{"android":"levelo://app?vid=79a05bb1-ccec-47f0-8ebd-1f95854549f8","ios":"levelo://app?vid=79a05bb1-ccec-47f0-8ebd-1f95854549f8"},"vehicle_type_id":"4","last_reported":1727251980,"current_range_meters":12000,"station_id":"","pricing_plan_id":"cebpf4jnsgd1na2vs0mg"},{"bike_id":"82a46f4c-338e-4f2c-bb15-b73bebda5189","system_id":"levelo_inurba_marseille","lat":43.23148,"lon":5.4372,"is_reserved":false,"is_disabled":false,"rental_uris":{"android":"levelo://app?vid=82a46f4c-338e-4f2c-bb15-b73bebda5189","ios":"levelo://app?vid=82a46f4c-338e-4f2c-bb15-b73bebda5189"},"vehicle_type_id":"4","last_reported":1727251980,"current_range_meters":38000,"station_id":"ce4bhmp2rcd13ifvqgog","pricing_plan_id":"cebpf4jnsgd1na2vs0mg"},{"bike_id":"dcd3b0dc-4092-4c72-9ee6-e4db25c4ab3a","system_id":"levelo_inurba_marseille","lat":43.30472,"lon":5.37894,"is_reserved":false,"is_disabled":false,"rental_uris":{"android":"levelo://app?vid=dcd3b0dc-4092-4c72-9ee6-e4db25c4ab3a","ios":"levelo://app?vid=dcd3b0dc-4092-4c72-9ee6-e4db25c4ab3a"},"vehicle_type_id":"4","last_reported":1727251980,"current_range_meters":36000,"station_id":"ce4bgup2rcd13ifvqcn0","pricing_plan_id":"cebpf4jnsgd1na2vs0mg"},{"bike_id":"0a992446-6b56-471a-aef8-074c00566bcd","system_id":"levelo_inurba_marseille","lat":43.28953,"lon":5.36411,"is_reserved":false,"is_disabled":false,"rental_uris":{"android":"levelo://app?vid=0a992446-6b56-471a-aef8-074c00566bcd","ios":"levelo://app?vid=0a992446-6b56-471a-aef8-074c00566bcd"},"vehicle_type_id":"4","last_reported":1727251980,"current_range_meters":29600,"station_id":"ce4bhc92rcd13ifvqetg","pricing_plan_id":"cebpf4jnsgd1na2vs0mg"},{"bike_id":"796cb342-ddc2-46b9-af55-e1044983438d","system_id":"levelo_inurba_marseille","lat":43.30312,"lon":5.36915,"is_reserved":false,"is_disabled":false,"rental_uris":{"android":"levelo://app?vid=796cb342-ddc2-46b9-af55-e1044983438d","ios":"levelo://app?vid=796cb342-ddc2-46b9-af55-e1044983438d"},"vehicle_type_id":"4","last_reported":1727251980,"current_range_meters":34000,"station_id":"ce4bgqh2rcd13ifvqc5g","pricing_plan_id":"cebpf4jnsgd1na2vs0mg"},{"bike_id":"de6a92b9-d1bd-41c7-855f-bab2bbdacd22","system_id":"levelo_inurba_marseille","lat":43.31363,"lon":5.36709,"is_reserved":false,"is_disabled":false,"rental_uris":{"android":"levelo://app?vid=de6a92b9-d1bd-41c7-855f-bab2bbdacd22","ios":"levelo://app?vid=de6a92b9-d1bd-41c7-855f-bab2bbdacd22"},"vehicle_type_id":"4","last_reported":1727251980,"current_range_meters":24000,"station_id":"ce4bgr92rcd13ifvqc6g","pricing_plan_id":"cebpf4jnsgd1na2vs0mg"},{"bike_id":"3fb94ac6-1872-4a49-be5f-fc77bf5b3901","system_id":"levelo_inurba_marseille","lat":43.30907,"lon":5.36858,"is_reserved":false,"is_disabled":false,"rental_uris":{"android":"levelo://app?vid=3fb94ac6-1872-4a49-be5f-fc77bf5b3901","ios":"levelo://app?vid=3fb94ac6-1872-4a49-be5f-fc77bf5b3901"},"vehicle_type_id":"4","last_reported":1727251980,"current_range_meters":35600,"station_id":"ce4bgn92rcd13ifvqbvg","pricing_plan_id":"cebpf4jnsgd1na2vs0mg"},{"bike_id":"afe1147d-19a3-4ef5-af6d-d81518b52f2d","system_id":"levelo_inurba_marseille","lat":43.31221,"lon":5.36869,"is_reserved":false,"is_disabled":false,"rental_uris":{"android":"levelo://app?vid=afe1147d-19a3-4ef5-af6d-d81518b52f2d","ios":"levelo://app?vid=afe1147d-19a3-4ef5-af6d-d81518b52f2d"},"vehicle_type_id":"4","last_reported":1727251980,"current_range_meters":27600,"station_id":"ce4bgl92rcd13ifvqbq0","pricing_plan_id":"cebpf4jnsgd1na2vs0mg"},{"bike_id":"ecb70881-b110-48a8-b751-24b4690d4031","system_id":"levelo_inurba_marseille","lat":43.23186,"lon":5.39987,"is_reserved":false,"is_disabled":false,"rental_uris":{"android":"levelo://app?vid=ecb70881-b110-48a8-b751-24b4690d4031","ios":"levelo://app?vid=ecb70881-b110-48a8-b751-24b4690d4031"},"vehicle_type_id":"4","last_reported":1727251980,"current_range_meters":8000,"station_id":"ce4bhn12rcd13ifvqgqg","pricing_plan_id":"cebpf4jnsgd1na2vs0mg"},{"bike_id":"d8a8068d-65ed-4f41-b2cf-23a1db74680a","system_id":"levelo_inurba_marseille","lat":43.313488,"lon":5.367102,"is_reserved":false,"is_disabled":false,"rental_uris":{"android":"levelo://app?vid=d8a8068d-65ed-4f41-b2cf-23a1db74680a","ios":"levelo://app?vid=d8a8068d-65ed-4f41-b2cf-23a1db74680a"},"vehicle_type_id":"4","last_reported":1727251980,"current_range_meters":28000,"station_id":"ce4bgr92rcd13ifvqc6g","pricing_plan_id":"cebpf4jnsgd1na2vs0mg"},{"bike_id":"fad29254-39f9-4a49-9777-cbc08cc0c63d","system_id":"levelo_inurba_marseille","lat":43.30477,"lon":5.37913,"is_reserved":false,"is_disabled":false,"rental_uris":{"android":"levelo://app?vid=fad29254-39f9-4a49-9777-cbc08cc0c63d","ios":"levelo://app?vid=fad29254-39f9-4a49-9777-cbc08cc0c63d"},"vehicle_type_id":"4","last_reported":1727251980,"current_range_meters":6400,"station_id":"ce4bgup2rcd13ifvqcn0","pricing_plan_id":"cebpf4jnsgd1na2vs0mg"},{"bike_id":"25bd7405-be80-4a77-a761-8a1efed52652","system_id":"levelo_inurba_marseille","lat":43.299,"lon":5.43655,"is_reserved":false,"is_disabled":false,"rental_uris":{"android":"levelo://app?vid=25bd7405-be80-4a77-a761-8a1efed52652","ios":"levelo://app?vid=25bd7405-be80-4a77-a761-8a1efed52652"},"vehicle_type_id":"4","last_reported":1727251980,"current_range_meters":38800,"station_id":"ce4bhpp2rcd13ifvqhfg","pricing_plan_id":"cebpf4jnsgd1na2vs0mg"},{"bike_id":"47ab5fec-ba93-48dd-81fc-bc5186e180ec","system_id":"levelo_inurba_marseille","lat":43.30478,"lon":5.37899,"is_reserved":false,"is_disabled":false,"rental_uris":{"android":"levelo://app?vid=47ab5fec-ba93-48dd-81fc-bc5186e180ec","ios":"levelo://app?vid=47ab5fec-ba93-48dd-81fc-bc5186e180ec"},"vehicle_type_id":"4","last_reported":1727251980,"current_range_meters":28400,"station_id":"ce4bgup2rcd13ifvqcn0","pricing_plan_id":"cebpf4jnsgd1na2vs0mg"},{"bike_id":"bbd31db5-c137-4320-95f9-7cb19235dc07","system_id":"levelo_inurba_marseille","lat":43.30797,"lon":5.43518,"is_reserved":false,"is_disabled":false,"rental_uris":{"android":"levelo://app?vid=bbd31db5-c137-4320-95f9-7cb19235dc07","ios":"levelo://app?vid=bbd31db5-c137-4320-95f9-7cb19235dc07"},"vehicle_type_id":"4","last_reported":1727251980,"current_range_meters":39200,"station_id":"ce4bhph2rcd13ifvqheg","pricing_plan_id":"cebpf4jnsgd1na2vs0mg"},{"bike_id":"5f5215b8-a74e-490d-acf4-116c426a9b8e","system_id":"levelo_inurba_marseille","lat":43.24081,"lon":5.37744,"is_reserved":false,"is_disabled":false,"rental_uris":{"android":"levelo://app?vid=5f5215b8-a74e-490d-acf4-116c426a9b8e","ios":"levelo://app?vid=5f5215b8-a74e-490d-acf4-116c426a9b8e"},"vehicle_type_id":"4","last_reported":1727251980,"current_range_meters":30000,"station_id":"ce4bhnp2rcd13ifvqgvg","pricing_plan_id":"cebpf4jnsgd1na2vs0mg"},{"bike_id":"f6275728-f078-4fe3-a4cc-467a5a2ab004","system_id":"levelo_inurba_marseille","lat":43.31474,"lon":5.3696,"is_reserved":false,"is_disabled":false,"rental_uris":{"android":"levelo://app?vid=f6275728-f078-4fe3-a4cc-467a5a2ab004","ios":"levelo://app?vid=f6275728-f078-4fe3-a4cc-467a5a2ab004"},"vehicle_type_id":"4","last_reported":1727251980,"current_range_meters":35600,"station_id":"","pricing_plan_id":"cebpf4jnsgd1na2vs0mg"},{"bike_id":"6c83e8de-2394-45de-b88a-44b94545067b","system_id":"levelo_inurba_marseille","lat":43.3136,"lon":5.40244,"is_reserved":false,"is_disabled":false,"rental_uris":{"android":"levelo://app?vid=6c83e8de-2394-45de-b88a-44b94545067b","ios":"levelo://app?vid=6c83e8de-2394-45de-b88a-44b94545067b"},"vehicle_type_id":"4","last_reported":1727251980,"current_range_meters":27200,"station_id":"ce4bhqh2rcd13ifvqhlg","pricing_plan_id":"cebpf4jnsgd1na2vs0mg"},{"bike_id":"0728f0ed-31f2-4606-8bb7-4a823154a64b","system_id":"levelo_inurba_marseille","lat":43.30545,"lon":5.36698,"is_reserved":false,"is_disabled":false,"rental_uris":{"android":"levelo://app?vid=0728f0ed-31f2-4606-8bb7-4a823154a64b","ios":"levelo://app?vid=0728f0ed-31f2-4606-8bb7-4a823154a64b"},"vehicle_type_id":"4","last_reported":1727251980,"current_range_meters":32000,"station_id":"ce4bgrp2rcd13ifvqc9g","pricing_plan_id":"cebpf4jnsgd1na2vs0mg"},{"bike_id":"77a4bbcb-d7bb-40c6-a476-467fc9c8641c","system_id":"levelo_inurba_marseille","lat":43.30428,"lon":5.38885,"is_reserved":false,"is_disabled":false,"rental_uris":{"android":"levelo://app?vid=77a4bbcb-d7bb-40c6-a476-467fc9c8641c","ios":"levelo://app?vid=77a4bbcb-d7bb-40c6-a476-467fc9c8641c"},"vehicle_type_id":"4","last_reported":1727251980,"current_range_meters":8400,"station_id":"ce4bgk12rcd13ifvqbi0","pricing_plan_id":"cebpf4jnsgd1na2vs0mg"},{"bike_id":"8b5ce162-4ff7-4cf9-877e-e0c5939d5c2b","system_id":"levelo_inurba_marseille","lat":43.26784,"lon":5.39414,"is_reserved":false,"is_disabled":false,"rental_uris":{"android":"levelo://app?vid=8b5ce162-4ff7-4cf9-877e-e0c5939d5c2b","ios":"levelo://app?vid=8b5ce162-4ff7-4cf9-877e-e0c5939d5c2b"},"vehicle_type_id":"4","last_reported":1727251980,"current_range_meters":31200,"station_id":"ce4bhh12rcd13ifvqfg0","pricing_plan_id":"cebpf4jnsgd1na2vs0mg"},{"bike_id":"e55f3079-c3e1-4916-a059-dce3a1010b9a","system_id":"levelo_inurba_marseille","lat":43.31352,"lon":5.36721,"is_reserved":false,"is_disabled":false,"rental_uris":{"android":"levelo://app?vid=e55f3079-c3e1-4916-a059-dce3a1010b9a","ios":"levelo://app?vid=e55f3079-c3e1-4916-a059-dce3a1010b9a"},"vehicle_type_id":"4","last_reported":1727251980,"current_range_meters":20400,"station_id":"ce4bgr92rcd13ifvqc6g","pricing_plan_id":"cebpf4jnsgd1na2vs0mg"},{"bike_id":"2e01ffdd-6397-4929-8889-077a10353aec","system_id":"levelo_inurba_marseille","lat":43.24082,"lon":5.37753,"is_reserved":false,"is_disabled":false,"rental_uris":{"android":"levelo://app?vid=2e01ffdd-6397-4929-8889-077a10353aec","ios":"levelo://app?vid=2e01ffdd-6397-4929-8889-077a10353aec"},"vehicle_type_id":"4","last_reported":1727251980,"current_range_meters":36800,"station_id":"ce4bhnp2rcd13ifvqgvg","pricing_plan_id":"cebpf4jnsgd1na2vs0mg"},{"bike_id":"b72436f1-4060-4037-8b9a-2fee7870779a","system_id":"levelo_inurba_marseille","lat":43.2835,"lon":5.38097,"is_reserved":false,"is_disabled":false,"rental_uris":{"android":"levelo://app?vid=b72436f1-4060-4037-8b9a-2fee7870779a","ios":"levelo://app?vid=b72436f1-4060-4037-8b9a-2fee7870779a"},"vehicle_type_id":"4","last_reported":1727251980,"current_range_meters":25200,"station_id":"ce4bh412rcd13ifvqdr0","pricing_plan_id":"cebpf4jnsgd1na2vs0mg"},{"bike_id":"9e0d7cb9-bd10-47a4-932f-0e2d3b375713","system_id":"levelo_inurba_marseille","lat":43.23152,"lon":5.43722,"is_reserved":false,"is_disabled":false,"rental_uris":{"android":"levelo://app?vid=9e0d7cb9-bd10-47a4-932f-0e2d3b375713","ios":"levelo://app?vid=9e0d7cb9-bd10-47a4-932f-0e2d3b375713"},"vehicle_type_id":"4","last_reported":1727251980,"current_range_meters":19200,"station_id":"ce4bhmp2rcd13ifvqgog","pricing_plan_id":"cebpf4jnsgd1na2vs0mg"},{"bike_id":"39da39d1-f7dd-417d-9656-c9d4e0cc65e5","system_id":"levelo_inurba_marseille","lat":43.31482,"lon":5.37305,"is_reserved":false,"is_disabled":false,"rental_uris":{"android":"levelo://app?vid=39da39d1-f7dd-417d-9656-c9d4e0cc65e5","ios":"levelo://app?vid=39da39d1-f7dd-417d-9656-c9d4e0cc65e5"},"vehicle_type_id":"4","last_reported":1727251980,"current_range_meters":38800,"station_id":"ce4bgt12rcd13ifvqcd0","pricing_plan_id":"cebpf4jnsgd1na2vs0mg"},{"bike_id":"1802deb5-1c46-4f67-afa3-157e0fdc0220","system_id":"levelo_inurba_marseille","lat":43.2782,"lon":5.40718,"is_reserved":false,"is_disabled":false,"rental_uris":{"android":"levelo://app?vid=1802deb5-1c46-4f67-afa3-157e0fdc0220","ios":"levelo://app?vid=1802deb5-1c46-4f67-afa3-157e0fdc0220"},"vehicle_type_id":"4","last_reported":1727251980,"current_range_meters":25200,"station_id":"ce4bhnh2rcd13ifvqgtg","pricing_plan_id":"cebpf4jnsgd1na2vs0mg"},{"bike_id":"dd242317-41e5-44f2-bc98-6bc74d7c5925","system_id":"levelo_inurba_marseille","lat":43.23154,"lon":5.43704,"is_reserved":false,"is_disabled":false,"rental_uris":{"android":"levelo://app?vid=dd242317-41e5-44f2-bc98-6bc74d7c5925","ios":"levelo://app?vid=dd242317-41e5-44f2-bc98-6bc74d7c5925"},"vehicle_type_id":"4","last_reported":1727251980,"current_range_meters":22000,"station_id":"ce4bhmp2rcd13ifvqgog","pricing_plan_id":"cebpf4jnsgd1na2vs0mg"},{"bike_id":"2fb0fc57-8a81-4d2e-a35d-ac88f05ffb63","system_id":"levelo_inurba_marseille","lat":43.33604,"lon":5.41026,"is_reserved":false,"is_disabled":false,"rental_uris":{"android":"levelo://app?vid=2fb0fc57-8a81-4d2e-a35d-ac88f05ffb63","ios":"levelo://app?vid=2fb0fc57-8a81-4d2e-a35d-ac88f05ffb63"},"vehicle_type_id":"4","last_reported":1727251980,"current_range_meters":8800,"station_id":"ce4bhqh2rcd13ifvqhmg","pricing_plan_id":"cebpf4jnsgd1na2vs0mg"},{"bike_id":"6b05d1b6-58bb-4caa-86c1-fd0559805b4c","system_id":"levelo_inurba_marseille","lat":43.25497,"lon":5.37652,"is_reserved":false,"is_disabled":false,"rental_uris":{"android":"levelo://app?vid=6b05d1b6-58bb-4caa-86c1-fd0559805b4c","ios":"levelo://app?vid=6b05d1b6-58bb-4caa-86c1-fd0559805b4c"},"vehicle_type_id":"4","last_reported":1727251980,"current_range_meters":17200,"station_id":"ce4bhh12rcd13ifvqff0","pricing_plan_id":"cebpf4jnsgd1na2vs0mg"},{"bike_id":"7d1c5f24-b2c4-4b39-a45e-5cd31c748af9","system_id":"levelo_inurba_marseille","lat":43.32476,"lon":5.36574,"is_reserved":false,"is_disabled":false,"rental_uris":{"android":"levelo://app?vid=7d1c5f24-b2c4-4b39-a45e-5cd31c748af9","ios":"levelo://app?vid=7d1c5f24-b2c4-4b39-a45e-5cd31c748af9"},"vehicle_type_id":"4","last_reported":1727251980,"current_range_meters":35200,"station_id":"ce4bhs12rcd13ifvqhvg","pricing_plan_id":"cebpf4jnsgd1na2vs0mg"},{"bike_id":"3f41ed7c-84fc-4945-95cd-7ba497b195f1","system_id":"levelo_inurba_marseille","lat":43.29029,"lon":5.38648,"is_reserved":false,"is_disabled":false,"rental_uris":{"android":"levelo://app?vid=3f41ed7c-84fc-4945-95cd-7ba497b195f1","ios":"levelo://app?vid=3f41ed7c-84fc-4945-95cd-7ba497b195f1"},"vehicle_type_id":"4","last_reported":1727251980,"current_range_meters":16400,"station_id":"ce4bh4p2rcd13ifvqe0g","pricing_plan_id":"cebpf4jnsgd1na2vs0mg"},{"bike_id":"c3603bd2-71ff-4acc-80f6-dbc56b8e4a31","system_id":"levelo_inurba_marseille","lat":43.291654,"lon":5.371574,"is_reserved":false,"is_disabled":false,"rental_uris":{"android":"levelo://app?vid=c3603bd2-71ff-4acc-80f6-dbc56b8e4a31","ios":"levelo://app?vid=c3603bd2-71ff-4acc-80f6-dbc56b8e4a31"},"vehicle_type_id":"4","last_reported":1727251980,"current_range_meters":24000,"station_id":"ce4bha92rcd13ifvqeh0","pricing_plan_id":"cebpf4jnsgd1na2vs0mg"},{"bike_id":"f24f457c-b638-4a05-a4da-606c7ade2a4e","system_id":"levelo_inurba_marseille","lat":43.29303,"lon":5.37175,"is_reserved":false,"is_disabled":false,"rental_uris":{"android":"levelo://app?vid=f24f457c-b638-4a05-a4da-606c7ade2a4e","ios":"levelo://app?vid=f24f457c-b638-4a05-a4da-606c7ade2a4e"},"vehicle_type_id":"4","last_reported":1727251980,"current_range_meters":27600,"station_id":"ce4bgh92rcd13ifvqb40","pricing_plan_id":"cebpf4jnsgd1na2vs0mg"},{"bike_id":"1c7ac8c1-a157-40ca-adb4-1b6aa054cb73","system_id":"levelo_inurba_marseille","lat":43.29007,"lon":5.35602,"is_reserved":false,"is_disabled":false,"rental_uris":{"android":"levelo://app?vid=1c7ac8c1-a157-40ca-adb4-1b6aa054cb73","ios":"levelo://app?vid=1c7ac8c1-a157-40ca-adb4-1b6aa054cb73"},"vehicle_type_id":"4","last_reported":1727251980,"current_range_meters":30000,"station_id":"ce4bhb92rcd13ifvqen0","pricing_plan_id":"cebpf4jnsgd1na2vs0mg"},{"bike_id":"678517f3-0084-4d6a-84ce-b6aea7e19a52","system_id":"levelo_inurba_marseille","lat":43.24586,"lon":5.38055,"is_reserved":false,"is_disabled":false,"rental_uris":{"android":"levelo://app?vid=678517f3-0084-4d6a-84ce-b6aea7e19a52","ios":"levelo://app?vid=678517f3-0084-4d6a-84ce-b6aea7e19a52"},"vehicle_type_id":"4","last_reported":1727251980,"current_range_meters":36000,"station_id":"ce4bhlp2rcd13ifvqgjg","pricing_plan_id":"cebpf4jnsgd1na2vs0mg"},{"bike_id":"b7eadcf9-fceb-4bd9-8b72-db3ef2c96ce6","system_id":"levelo_inurba_marseille","lat":43.24087,"lon":5.37751,"is_reserved":false,"is_disabled":false,"rental_uris":{"android":"levelo://app?vid=b7eadcf9-fceb-4bd9-8b72-db3ef2c96ce6","ios":"levelo://app?vid=b7eadcf9-fceb-4bd9-8b72-db3ef2c96ce6"},"vehicle_type_id":"4","last_reported":1727251980,"current_range_meters":27600,"station_id":"ce4bhnp2rcd13ifvqgvg","pricing_plan_id":"cebpf4jnsgd1na2vs0mg"},{"bike_id":"aaa141a4-cf9d-4e22-91a8-4356795a1564","system_id":"levelo_inurba_marseille","lat":43.312988,"lon":5.396826,"is_reserved":false,"is_disabled":false,"rental_uris":{"android":"levelo://app?vid=aaa141a4-cf9d-4e22-91a8-4356795a1564","ios":"levelo://app?vid=aaa141a4-cf9d-4e22-91a8-4356795a1564"},"vehicle_type_id":"4","last_reported":1727251980,"current_range_meters":16000,"station_id":"ce4bgvp2rcd13ifvqcu0","pricing_plan_id":"cebpf4jnsgd1na2vs0mg"},{"bike_id":"5a4aef1f-508a-457d-94bd-5b9b738c8fae","system_id":"levelo_inurba_marseille","lat":43.26213,"lon":5.37436,"is_reserved":false,"is_disabled":false,"rental_uris":{"android":"levelo://app?vid=5a4aef1f-508a-457d-94bd-5b9b738c8fae","ios":"levelo://app?vid=5a4aef1f-508a-457d-94bd-5b9b738c8fae"},"vehicle_type_id":"4","last_reported":1727251980,"current_range_meters":14800,"station_id":"ce4bhgp2rcd13ifvqfc0","pricing_plan_id":"cebpf4jnsgd1na2vs0mg"},{"bike_id":"8396b9d4-9398-4805-9041-0c159077f677","system_id":"levelo_inurba_marseille","lat":43.262125,"lon":5.37441,"is_reserved":false,"is_disabled":false,"rental_uris":{"android":"levelo://app?vid=8396b9d4-9398-4805-9041-0c159077f677","ios":"levelo://app?vid=8396b9d4-9398-4805-9041-0c159077f677"},"vehicle_type_id":"4","last_reported":1727251980,"current_range_meters":38400,"station_id":"ce4bhgp2rcd13ifvqfc0","pricing_plan_id":"cebpf4jnsgd1na2vs0mg"},{"bike_id":"361eaa0e-a99b-4fb6-854a-0d4baef269ba","system_id":"levelo_inurba_marseille","lat":43.24074,"lon":5.37756,"is_reserved":false,"is_disabled":false,"rental_uris":{"android":"levelo://app?vid=361eaa0e-a99b-4fb6-854a-0d4baef269ba","ios":"levelo://app?vid=361eaa0e-a99b-4fb6-854a-0d4baef269ba"},"vehicle_type_id":"4","last_reported":1727251980,"current_range_meters":34800,"station_id":"ce4bhnp2rcd13ifvqgvg","pricing_plan_id":"cebpf4jnsgd1na2vs0mg"},{"bike_id":"1f655e29-2838-4be4-9d59-d3da21fe6810","system_id":"levelo_inurba_marseille","lat":43.31353,"lon":5.36735,"is_reserved":false,"is_disabled":false,"rental_uris":{"android":"levelo://app?vid=1f655e29-2838-4be4-9d59-d3da21fe6810","ios":"levelo://app?vid=1f655e29-2838-4be4-9d59-d3da21fe6810"},"vehicle_type_id":"4","last_reported":1727251980,"current_range_meters":39200,"station_id":"ce4bgr92rcd13ifvqc6g","pricing_plan_id":"cebpf4jnsgd1na2vs0mg"},{"bike_id":"73e7f655-b2b9-4127-a50c-dc2251f994d0","system_id":"levelo_inurba_marseille","lat":43.28767,"lon":5.39682,"is_reserved":false,"is_disabled":false,"rental_uris":{"android":"levelo://app?vid=73e7f655-b2b9-4127-a50c-dc2251f994d0","ios":"levelo://app?vid=73e7f655-b2b9-4127-a50c-dc2251f994d0"},"vehicle_type_id":"4","last_reported":1727251980,"current_range_meters":36400,"station_id":"","pricing_plan_id":"cebpf4jnsgd1na2vs0mg"},{"bike_id":"1004d956-cea1-4e6d-9524-27344f3e8b11","system_id":"levelo_inurba_marseille","lat":43.313553,"lon":5.36714,"is_reserved":false,"is_disabled":false,"rental_uris":{"android":"levelo://app?vid=1004d956-cea1-4e6d-9524-27344f3e8b11","ios":"levelo://app?vid=1004d956-cea1-4e6d-9524-27344f3e8b11"},"vehicle_type_id":"4","last_reported":1727251980,"current_range_meters":12400,"station_id":"ce4bgr92rcd13ifvqc6g","pricing_plan_id":"cebpf4jnsgd1na2vs0mg"},{"bike_id":"1d676881-5880-4049-bf15-d63a02fd54ca","system_id":"levelo_inurba_marseille","lat":43.26684,"lon":5.38266,"is_reserved":false,"is_disabled":false,"rental_uris":{"android":"levelo://app?vid=1d676881-5880-4049-bf15-d63a02fd54ca","ios":"levelo://app?vid=1d676881-5880-4049-bf15-d63a02fd54ca"},"vehicle_type_id":"4","last_reported":1727251980,"current_range_meters":28800,"station_id":"ce4bhg92rcd13ifvqf90","pricing_plan_id":"cebpf4jnsgd1na2vs0mg"},{"bike_id":"a75d11e4-5000-41f8-9ff2-fbd2a76366d5","system_id":"levelo_inurba_marseille","lat":43.33965,"lon":5.42069,"is_reserved":false,"is_disabled":false,"rental_uris":{"android":"levelo://app?vid=a75d11e4-5000-41f8-9ff2-fbd2a76366d5","ios":"levelo://app?vid=a75d11e4-5000-41f8-9ff2-fbd2a76366d5"},"vehicle_type_id":"4","last_reported":1727251980,"current_range_meters":22400,"station_id":"","pricing_plan_id":"cebpf4jnsgd1na2vs0mg"},{"bike_id":"ea4f7293-f9ba-4702-a0ef-940482517fb3","system_id":"levelo_inurba_marseille","lat":43.26211,"lon":5.3744,"is_reserved":false,"is_disabled":false,"rental_uris":{"android":"levelo://app?vid=ea4f7293-f9ba-4702-a0ef-940482517fb3","ios":"levelo://app?vid=ea4f7293-f9ba-4702-a0ef-940482517fb3"},"vehicle_type_id":"4","last_reported":1727251980,"current_range_meters":24400,"station_id":"ce4bhgp2rcd13ifvqfc0","pricing_plan_id":"cebpf4jnsgd1na2vs0mg"},{"bike_id":"106a9564-fb31-4dd5-ae47-72782c3e325e","system_id":"levelo_inurba_marseille","lat":43.30153,"lon":5.38082,"is_reserved":false,"is_disabled":false,"rental_uris":{"android":"levelo://app?vid=106a9564-fb31-4dd5-ae47-72782c3e325e","ios":"levelo://app?vid=106a9564-fb31-4dd5-ae47-72782c3e325e"},"vehicle_type_id":"4","last_reported":1727251980,"current_range_meters":30800,"station_id":"ce4bgjp2rcd13ifvqbh0","pricing_plan_id":"cebpf4jnsgd1na2vs0mg"},{"bike_id":"c4420aa8-2491-4076-8aab-1dbd4cfdc419","system_id":"levelo_inurba_marseille","lat":43.3135,"lon":5.36718,"is_reserved":false,"is_disabled":false,"rental_uris":{"android":"levelo://app?vid=c4420aa8-2491-4076-8aab-1dbd4cfdc419","ios":"levelo://app?vid=c4420aa8-2491-4076-8aab-1dbd4cfdc419"},"vehicle_type_id":"4","last_reported":1727251980,"current_range_meters":36000,"station_id":"ce4bgr92rcd13ifvqc6g","pricing_plan_id":"cebpf4jnsgd1na2vs0mg"},{"bike_id":"b219bd9e-1b0a-4956-9e88-9fbe4e039fad","system_id":"levelo_inurba_marseille","lat":43.27078,"lon":5.42278,"is_reserved":false,"is_disabled":false,"rental_uris":{"android":"levelo://app?vid=b219bd9e-1b0a-4956-9e88-9fbe4e039fad","ios":"levelo://app?vid=b219bd9e-1b0a-4956-9e88-9fbe4e039fad"},"vehicle_type_id":"4","last_reported":1727251980,"current_range_meters":13600,"station_id":"ce4bhk92rcd13ifvqgb0","pricing_plan_id":"cebpf4jnsgd1na2vs0mg"},{"bike_id":"85dde36e-19c7-4630-93c3-b5f8536bd9bd","system_id":"levelo_inurba_marseille","lat":43.24083,"lon":5.37747,"is_reserved":false,"is_disabled":false,"rental_uris":{"android":"levelo://app?vid=85dde36e-19c7-4630-93c3-b5f8536bd9bd","ios":"levelo://app?vid=85dde36e-19c7-4630-93c3-b5f8536bd9bd"},"vehicle_type_id":"4","last_reported":1727251980,"current_range_meters":4000,"station_id":"ce4bhnp2rcd13ifvqgvg","pricing_plan_id":"cebpf4jnsgd1na2vs0mg"},{"bike_id":"9fd8e932-0bbe-45a7-a9ac-3aa157bc97f4","system_id":"levelo_inurba_marseille","lat":43.27374,"lon":5.36259,"is_reserved":false,"is_disabled":false,"rental_uris":{"android":"levelo://app?vid=9fd8e932-0bbe-45a7-a9ac-3aa157bc97f4","ios":"levelo://app?vid=9fd8e932-0bbe-45a7-a9ac-3aa157bc97f4"},"vehicle_type_id":"4","last_reported":1727251980,"current_range_meters":38800,"station_id":"ce4bhbh2rcd13ifvqeo0","pricing_plan_id":"cebpf4jnsgd1na2vs0mg"},{"bike_id":"d2b29a3f-a9f9-4e26-bd8f-3dbbdf2f5a97","system_id":"levelo_inurba_marseille","lat":43.30539,"lon":5.36537,"is_reserved":false,"is_disabled":false,"rental_uris":{"android":"levelo://app?vid=d2b29a3f-a9f9-4e26-bd8f-3dbbdf2f5a97","ios":"levelo://app?vid=d2b29a3f-a9f9-4e26-bd8f-3dbbdf2f5a97"},"vehicle_type_id":"4","last_reported":1727251980,"current_range_meters":36400,"station_id":"ce4bgs12rcd13ifvqcag","pricing_plan_id":"cebpf4jnsgd1na2vs0mg"},{"bike_id":"ab8a776f-7a05-4324-9e26-529ce9006afc","system_id":"levelo_inurba_marseille","lat":43.29284,"lon":5.36849,"is_reserved":false,"is_disabled":false,"rental_uris":{"android":"levelo://app?vid=ab8a776f-7a05-4324-9e26-529ce9006afc","ios":"levelo://app?vid=ab8a776f-7a05-4324-9e26-529ce9006afc"},"vehicle_type_id":"4","last_reported":1727251980,"current_range_meters":38800,"station_id":"ce4bhbp2rcd13ifvqesg","pricing_plan_id":"cebpf4jnsgd1na2vs0mg"},{"bike_id":"10a437b8-b58e-40b1-b0b7-6372b1519414","system_id":"levelo_inurba_marseille","lat":43.303067,"lon":5.368947,"is_reserved":false,"is_disabled":false,"rental_uris":{"android":"levelo://app?vid=10a437b8-b58e-40b1-b0b7-6372b1519414","ios":"levelo://app?vid=10a437b8-b58e-40b1-b0b7-6372b1519414"},"vehicle_type_id":"4","last_reported":1727251980,"current_range_meters":24400,"station_id":"ce4bgqh2rcd13ifvqc5g","pricing_plan_id":"cebpf4jnsgd1na2vs0mg"},{"bike_id":"bd698227-90d0-4ce2-bcf1-67aa87f34781","system_id":"levelo_inurba_marseille","lat":43.30541,"lon":5.36558,"is_reserved":false,"is_disabled":false,"rental_uris":{"android":"levelo://app?vid=bd698227-90d0-4ce2-bcf1-67aa87f34781","ios":"levelo://app?vid=bd698227-90d0-4ce2-bcf1-67aa87f34781"},"vehicle_type_id":"4","last_reported":1727251980,"current_range_meters":26000,"station_id":"ce4bgs12rcd13ifvqcag","pricing_plan_id":"cebpf4jnsgd1na2vs0mg"},{"bike_id":"74e059c3-7187-493a-8ce2-9e9bb5cc544b","system_id":"levelo_inurba_marseille","lat":43.30154,"lon":5.38079,"is_reserved":false,"is_disabled":false,"rental_uris":{"android":"levelo://app?vid=74e059c3-7187-493a-8ce2-9e9bb5cc544b","ios":"levelo://app?vid=74e059c3-7187-493a-8ce2-9e9bb5cc544b"},"vehicle_type_id":"4","last_reported":1727251980,"current_range_meters":6800,"station_id":"ce4bgjp2rcd13ifvqbh0","pricing_plan_id":"cebpf4jnsgd1na2vs0mg"},{"bike_id":"34b37506-7d30-458e-9867-ea1175c8e140","system_id":"levelo_inurba_marseille","lat":43.2621,"lon":5.37448,"is_reserved":false,"is_disabled":false,"rental_uris":{"android":"levelo://app?vid=34b37506-7d30-458e-9867-ea1175c8e140","ios":"levelo://app?vid=34b37506-7d30-458e-9867-ea1175c8e140"},"vehicle_type_id":"4","last_reported":1727251980,"current_range_meters":24000,"station_id":"ce4bhgp2rcd13ifvqfc0","pricing_plan_id":"cebpf4jnsgd1na2vs0mg"},{"bike_id":"8a22d159-e43f-4c50-a861-0498723eaf8f","system_id":"levelo_inurba_marseille","lat":43.30271,"lon":5.37699,"is_reserved":false,"is_disabled":false,"rental_uris":{"android":"levelo://app?vid=8a22d159-e43f-4c50-a861-0498723eaf8f","ios":"levelo://app?vid=8a22d159-e43f-4c50-a861-0498723eaf8f"},"vehicle_type_id":"4","last_reported":1727251980,"current_range_meters":20000,"station_id":"ce4bguh2rcd13ifvqcj0","pricing_plan_id":"cebpf4jnsgd1na2vs0mg"},{"bike_id":"b4706c34-b833-4c37-b2c3-67a06c70f9de","system_id":"levelo_inurba_marseille","lat":43.23966,"lon":5.36627,"is_reserved":false,"is_disabled":false,"rental_uris":{"android":"levelo://app?vid=b4706c34-b833-4c37-b2c3-67a06c70f9de","ios":"levelo://app?vid=b4706c34-b833-4c37-b2c3-67a06c70f9de"},"vehicle_type_id":"4","last_reported":1727251980,"current_range_meters":12400,"station_id":"ce4bhi12rcd13ifvqfp0","pricing_plan_id":"cebpf4jnsgd1na2vs0mg"},{"bike_id":"a539d736-f210-4c08-ae25-6b20192f5bb4","system_id":"levelo_inurba_marseille","lat":43.3055,"lon":5.36535,"is_reserved":false,"is_disabled":false,"rental_uris":{"android":"levelo://app?vid=a539d736-f210-4c08-ae25-6b20192f5bb4","ios":"levelo://app?vid=a539d736-f210-4c08-ae25-6b20192f5bb4"},"vehicle_type_id":"4","last_reported":1727251980,"current_range_meters":23200,"station_id":"ce4bgs12rcd13ifvqcag","pricing_plan_id":"cebpf4jnsgd1na2vs0mg"},{"bike_id":"a27e8d57-ffc7-47b9-8eb9-3712c05cf56e","system_id":"levelo_inurba_marseille","lat":43.30472,"lon":5.37903,"is_reserved":false,"is_disabled":false,"rental_uris":{"android":"levelo://app?vid=a27e8d57-ffc7-47b9-8eb9-3712c05cf56e","ios":"levelo://app?vid=a27e8d57-ffc7-47b9-8eb9-3712c05cf56e"},"vehicle_type_id":"4","last_reported":1727251980,"current_range_meters":38400,"station_id":"ce4bgup2rcd13ifvqcn0","pricing_plan_id":"cebpf4jnsgd1na2vs0mg"},{"bike_id":"0a4710f5-a2ae-4573-9abc-f5634b0a0e7d","system_id":"levelo_inurba_marseille","lat":43.31353,"lon":5.36707,"is_reserved":false,"is_disabled":false,"rental_uris":{"android":"levelo://app?vid=0a4710f5-a2ae-4573-9abc-f5634b0a0e7d","ios":"levelo://app?vid=0a4710f5-a2ae-4573-9abc-f5634b0a0e7d"},"vehicle_type_id":"4","last_reported":1727251980,"current_range_meters":39200,"station_id":"ce4bgr92rcd13ifvqc6g","pricing_plan_id":"cebpf4jnsgd1na2vs0mg"},{"bike_id":"69821ebc-0dfd-418d-b8ce-9e2a1cbb4f94","system_id":"levelo_inurba_marseille","lat":43.2799,"lon":5.41659,"is_reserved":false,"is_disabled":false,"rental_uris":{"android":"levelo://app?vid=69821ebc-0dfd-418d-b8ce-9e2a1cbb4f94","ios":"levelo://app?vid=69821ebc-0dfd-418d-b8ce-9e2a1cbb4f94"},"vehicle_type_id":"4","last_reported":1727251980,"current_range_meters":18000,"station_id":"ce4bho12rcd13ifvqh1g","pricing_plan_id":"cebpf4jnsgd1na2vs0mg"},{"bike_id":"4df3f7e3-2ffb-41b4-8826-748394786ae8","system_id":"levelo_inurba_marseille","lat":43.29276,"lon":5.3685,"is_reserved":false,"is_disabled":false,"rental_uris":{"android":"levelo://app?vid=4df3f7e3-2ffb-41b4-8826-748394786ae8","ios":"levelo://app?vid=4df3f7e3-2ffb-41b4-8826-748394786ae8"},"vehicle_type_id":"4","last_reported":1727251980,"current_range_meters":38800,"station_id":"ce4bhbp2rcd13ifvqesg","pricing_plan_id":"cebpf4jnsgd1na2vs0mg"},{"bike_id":"8282acf3-1e10-4e7a-9e2e-d47e811adce2","system_id":"levelo_inurba_marseille","lat":43.25503,"lon":5.37652,"is_reserved":false,"is_disabled":false,"rental_uris":{"android":"levelo://app?vid=8282acf3-1e10-4e7a-9e2e-d47e811adce2","ios":"levelo://app?vid=8282acf3-1e10-4e7a-9e2e-d47e811adce2"},"vehicle_type_id":"4","last_reported":1727251980,"current_range_meters":38800,"station_id":"ce4bhh12rcd13ifvqff0","pricing_plan_id":"cebpf4jnsgd1na2vs0mg"},{"bike_id":"ebec7cd5-5fed-46ce-abdb-3cd659f607ac","system_id":"levelo_inurba_marseille","lat":43.29557,"lon":5.42285,"is_reserved":false,"is_disabled":false,"rental_uris":{"android":"levelo://app?vid=ebec7cd5-5fed-46ce-abdb-3cd659f607ac","ios":"levelo://app?vid=ebec7cd5-5fed-46ce-abdb-3cd659f607ac"},"vehicle_type_id":"4","last_reported":1727251980,"current_range_meters":35200,"station_id":"ce4bhph2rcd13ifvqhdg","pricing_plan_id":"cebpf4jnsgd1na2vs0mg"},{"bike_id":"66933eb4-3af8-4c33-a5a2-f1b70b2dcc35","system_id":"levelo_inurba_marseille","lat":43.26788,"lon":5.39408,"is_reserved":false,"is_disabled":false,"rental_uris":{"android":"levelo://app?vid=66933eb4-3af8-4c33-a5a2-f1b70b2dcc35","ios":"levelo://app?vid=66933eb4-3af8-4c33-a5a2-f1b70b2dcc35"},"vehicle_type_id":"4","last_reported":1727251980,"current_range_meters":30800,"station_id":"ce4bhh12rcd13ifvqfg0","pricing_plan_id":"cebpf4jnsgd1na2vs0mg"},{"bike_id":"df5b38d2-64cb-4df0-856f-ea9bd22c082c","system_id":"levelo_inurba_marseille","lat":43.23187,"lon":5.35556,"is_reserved":false,"is_disabled":false,"rental_uris":{"android":"levelo://app?vid=df5b38d2-64cb-4df0-856f-ea9bd22c082c","ios":"levelo://app?vid=df5b38d2-64cb-4df0-856f-ea9bd22c082c"},"vehicle_type_id":"4","last_reported":1727251980,"current_range_meters":8400,"station_id":"ce4bhu92rcd13ifvqi70","pricing_plan_id":"cebpf4jnsgd1na2vs0mg"},{"bike_id":"707528d8-0988-4632-94dc-544d37620d76","system_id":"levelo_inurba_marseille","lat":43.3361,"lon":5.41024,"is_reserved":false,"is_disabled":false,"rental_uris":{"android":"levelo://app?vid=707528d8-0988-4632-94dc-544d37620d76","ios":"levelo://app?vid=707528d8-0988-4632-94dc-544d37620d76"},"vehicle_type_id":"4","last_reported":1727251980,"current_range_meters":39200,"station_id":"ce4bhqh2rcd13ifvqhmg","pricing_plan_id":"cebpf4jnsgd1na2vs0mg"},{"bike_id":"46369a02-7f02-47d2-ba1b-104d3914dff3","system_id":"levelo_inurba_marseille","lat":43.24652,"lon":5.38901,"is_reserved":false,"is_disabled":false,"rental_uris":{"android":"levelo://app?vid=46369a02-7f02-47d2-ba1b-104d3914dff3","ios":"levelo://app?vid=46369a02-7f02-47d2-ba1b-104d3914dff3"},"vehicle_type_id":"4","last_reported":1727251980,"current_range_meters":36800,"station_id":"ce4bhg12rcd13ifvqf60","pricing_plan_id":"cebpf4jnsgd1na2vs0mg"},{"bike_id":"752c36e5-5b1f-41f1-845d-c09a02895ccf","system_id":"levelo_inurba_marseille","lat":43.26682,"lon":5.38274,"is_reserved":false,"is_disabled":false,"rental_uris":{"android":"levelo://app?vid=752c36e5-5b1f-41f1-845d-c09a02895ccf","ios":"levelo://app?vid=752c36e5-5b1f-41f1-845d-c09a02895ccf"},"vehicle_type_id":"4","last_reported":1727251980,"current_range_meters":18000,"station_id":"ce4bhg92rcd13ifvqf90","pricing_plan_id":"cebpf4jnsgd1na2vs0mg"},{"bike_id":"8b825796-5aea-45b9-9d5d-0791d3a29a6a","system_id":"levelo_inurba_marseille","lat":43.30306,"lon":5.36895,"is_reserved":false,"is_disabled":false,"rental_uris":{"android":"levelo://app?vid=8b825796-5aea-45b9-9d5d-0791d3a29a6a","ios":"levelo://app?vid=8b825796-5aea-45b9-9d5d-0791d3a29a6a"},"vehicle_type_id":"4","last_reported":1727251980,"current_range_meters":24000,"station_id":"ce4bgqh2rcd13ifvqc5g","pricing_plan_id":"cebpf4jnsgd1na2vs0mg"},{"bike_id":"cb1adf5d-f2d0-4b7f-b2cd-ff3a0afadda5","system_id":"levelo_inurba_marseille","lat":43.27493,"lon":5.42459,"is_reserved":false,"is_disabled":false,"rental_uris":{"android":"levelo://app?vid=cb1adf5d-f2d0-4b7f-b2cd-ff3a0afadda5","ios":"levelo://app?vid=cb1adf5d-f2d0-4b7f-b2cd-ff3a0afadda5"},"vehicle_type_id":"4","last_reported":1727251980,"current_range_meters":8800,"station_id":"ce4bhn92rcd13ifvqgrg","pricing_plan_id":"cebpf4jnsgd1na2vs0mg"},{"bike_id":"60e5e884-dc96-4dfe-969a-d2edc8aada7b","system_id":"levelo_inurba_marseille","lat":43.33777,"lon":5.37432,"is_reserved":false,"is_disabled":false,"rental_uris":{"android":"levelo://app?vid=60e5e884-dc96-4dfe-969a-d2edc8aada7b","ios":"levelo://app?vid=60e5e884-dc96-4dfe-969a-d2edc8aada7b"},"vehicle_type_id":"4","last_reported":1727251980,"current_range_meters":25200,"station_id":"","pricing_plan_id":"cebpf4jnsgd1na2vs0mg"},{"bike_id":"65b4e0d5-7afe-44e1-81c9-aa488da87ebb","system_id":"levelo_inurba_marseille","lat":43.28698,"lon":5.37919,"is_reserved":false,"is_disabled":false,"rental_uris":{"android":"levelo://app?vid=65b4e0d5-7afe-44e1-81c9-aa488da87ebb","ios":"levelo://app?vid=65b4e0d5-7afe-44e1-81c9-aa488da87ebb"},"vehicle_type_id":"4","last_reported":1727251980,"current_range_meters":33600,"station_id":"ce4bh9p2rcd13ifvqec0","pricing_plan_id":"cebpf4jnsgd1na2vs0mg"},{"bike_id":"b001c319-9fe6-40dd-b580-6c149f34cfba","system_id":"levelo_inurba_marseille","lat":43.31226,"lon":5.36874,"is_reserved":false,"is_disabled":false,"rental_uris":{"android":"levelo://app?vid=b001c319-9fe6-40dd-b580-6c149f34cfba","ios":"levelo://app?vid=b001c319-9fe6-40dd-b580-6c149f34cfba"},"vehicle_type_id":"4","last_reported":1727251980,"current_range_meters":12800,"station_id":"ce4bgl92rcd13ifvqbq0","pricing_plan_id":"cebpf4jnsgd1na2vs0mg"},{"bike_id":"fbfece86-a432-4354-a4ca-5912d4b60df7","system_id":"levelo_inurba_marseille","lat":43.30593,"lon":5.39355,"is_reserved":false,"is_disabled":false,"rental_uris":{"android":"levelo://app?vid=fbfece86-a432-4354-a4ca-5912d4b60df7","ios":"levelo://app?vid=fbfece86-a432-4354-a4ca-5912d4b60df7"},"vehicle_type_id":"4","last_reported":1727251980,"current_range_meters":10000,"station_id":"ce4bh0p2rcd13ifvqd80","pricing_plan_id":"cebpf4jnsgd1na2vs0mg"},{"bike_id":"bca81bcc-db8f-4252-98dd-a19370662d96","system_id":"levelo_inurba_marseille","lat":43.30159,"lon":5.37419,"is_reserved":false,"is_disabled":false,"rental_uris":{"android":"levelo://app?vid=bca81bcc-db8f-4252-98dd-a19370662d96","ios":"levelo://app?vid=bca81bcc-db8f-4252-98dd-a19370662d96"},"vehicle_type_id":"4","last_reported":1727251980,"current_range_meters":22800,"station_id":"ce4bgs92rcd13ifvqcc0","pricing_plan_id":"cebpf4jnsgd1na2vs0mg"},{"bike_id":"4cdcc24b-9fa8-408d-82fd-4b382c2146be","system_id":"levelo_inurba_marseille","lat":43.24186,"lon":5.39731,"is_reserved":false,"is_disabled":false,"rental_uris":{"android":"levelo://app?vid=4cdcc24b-9fa8-408d-82fd-4b382c2146be","ios":"levelo://app?vid=4cdcc24b-9fa8-408d-82fd-4b382c2146be"},"vehicle_type_id":"4","last_reported":1727251980,"current_range_meters":30400,"station_id":"ce4bhn12rcd13ifvqgpg","pricing_plan_id":"cebpf4jnsgd1na2vs0mg"},{"bike_id":"afb362a3-340b-4aef-9fbb-5a655e0b49b2","system_id":"levelo_inurba_marseille","lat":43.29926,"lon":5.3748,"is_reserved":false,"is_disabled":false,"rental_uris":{"android":"levelo://app?vid=afb362a3-340b-4aef-9fbb-5a655e0b49b2","ios":"levelo://app?vid=afb362a3-340b-4aef-9fbb-5a655e0b49b2"},"vehicle_type_id":"4","last_reported":1727251980,"current_range_meters":27200,"station_id":"ce4bgjh2rcd13ifvqbg0","pricing_plan_id":"cebpf4jnsgd1na2vs0mg"},{"bike_id":"27431c98-bcee-4fbc-9005-ef4fd6a106b8","system_id":"levelo_inurba_marseille","lat":43.23184,"lon":5.39979,"is_reserved":false,"is_disabled":false,"rental_uris":{"android":"levelo://app?vid=27431c98-bcee-4fbc-9005-ef4fd6a106b8","ios":"levelo://app?vid=27431c98-bcee-4fbc-9005-ef4fd6a106b8"},"vehicle_type_id":"4","last_reported":1727251980,"current_range_meters":11600,"station_id":"ce4bhn12rcd13ifvqgqg","pricing_plan_id":"cebpf4jnsgd1na2vs0mg"},{"bike_id":"f1bddba5-3de2-4996-80f2-28e6def469bb","system_id":"levelo_inurba_marseille","lat":43.30534,"lon":5.36696,"is_reserved":false,"is_disabled":false,"rental_uris":{"android":"levelo://app?vid=f1bddba5-3de2-4996-80f2-28e6def469bb","ios":"levelo://app?vid=f1bddba5-3de2-4996-80f2-28e6def469bb"},"vehicle_type_id":"4","last_reported":1727251980,"current_range_meters":30400,"station_id":"ce4bgrp2rcd13ifvqc9g","pricing_plan_id":"cebpf4jnsgd1na2vs0mg"},{"bike_id":"e8123db6-ffeb-4e4f-83eb-50286191679c","system_id":"levelo_inurba_marseille","lat":43.29966,"lon":5.37185,"is_reserved":false,"is_disabled":false,"rental_uris":{"android":"levelo://app?vid=e8123db6-ffeb-4e4f-83eb-50286191679c","ios":"levelo://app?vid=e8123db6-ffeb-4e4f-83eb-50286191679c"},"vehicle_type_id":"4","last_reported":1727251980,"current_range_meters":5600,"station_id":"ce4bgr92rcd13ifvqc7g","pricing_plan_id":"cebpf4jnsgd1na2vs0mg"},{"bike_id":"72db74d2-2c4f-4a12-a06e-67002269c7dd","system_id":"levelo_inurba_marseille","lat":43.30469,"lon":5.37888,"is_reserved":false,"is_disabled":false,"rental_uris":{"android":"levelo://app?vid=72db74d2-2c4f-4a12-a06e-67002269c7dd","ios":"levelo://app?vid=72db74d2-2c4f-4a12-a06e-67002269c7dd"},"vehicle_type_id":"4","last_reported":1727251980,"current_range_meters":37600,"station_id":"ce4bgup2rcd13ifvqcn0","pricing_plan_id":"cebpf4jnsgd1na2vs0mg"},{"bike_id":"903507de-16f6-48d0-a454-2c9d4c61bdc6","system_id":"levelo_inurba_marseille","lat":43.30143,"lon":5.37417,"is_reserved":false,"is_disabled":false,"rental_uris":{"android":"levelo://app?vid=903507de-16f6-48d0-a454-2c9d4c61bdc6","ios":"levelo://app?vid=903507de-16f6-48d0-a454-2c9d4c61bdc6"},"vehicle_type_id":"4","last_reported":1727251980,"current_range_meters":28400,"station_id":"ce4bgs92rcd13ifvqcc0","pricing_plan_id":"cebpf4jnsgd1na2vs0mg"},{"bike_id":"ad9e6ef0-4a19-4a93-88ed-c66cad530a0a","system_id":"levelo_inurba_marseille","lat":43.32541,"lon":5.4144,"is_reserved":false,"is_disabled":false,"rental_uris":{"android":"levelo://app?vid=ad9e6ef0-4a19-4a93-88ed-c66cad530a0a","ios":"levelo://app?vid=ad9e6ef0-4a19-4a93-88ed-c66cad530a0a"},"vehicle_type_id":"4","last_reported":1727251980,"current_range_meters":39200,"station_id":"ce4bhq12rcd13ifvqhhg","pricing_plan_id":"cebpf4jnsgd1na2vs0mg"},{"bike_id":"3ddc1fc9-4fe8-4c82-b6c6-96c8768afd76","system_id":"levelo_inurba_marseille","lat":43.30556,"lon":5.36698,"is_reserved":false,"is_disabled":false,"rental_uris":{"android":"levelo://app?vid=3ddc1fc9-4fe8-4c82-b6c6-96c8768afd76","ios":"levelo://app?vid=3ddc1fc9-4fe8-4c82-b6c6-96c8768afd76"},"vehicle_type_id":"4","last_reported":1727251980,"current_range_meters":26800,"station_id":"ce4bgrp2rcd13ifvqc9g","pricing_plan_id":"cebpf4jnsgd1na2vs0mg"},{"bike_id":"9b1d7181-980f-4e7d-8355-3762a48d9cd8","system_id":"levelo_inurba_marseille","lat":43.337444,"lon":5.374475,"is_reserved":false,"is_disabled":false,"rental_uris":{"android":"levelo://app?vid=9b1d7181-980f-4e7d-8355-3762a48d9cd8","ios":"levelo://app?vid=9b1d7181-980f-4e7d-8355-3762a48d9cd8"},"vehicle_type_id":"4","last_reported":1727251980,"current_range_meters":8000,"station_id":"","pricing_plan_id":"cebpf4jnsgd1na2vs0mg"},{"bike_id":"d379372b-ab0b-42cd-88e9-e2f059de8e10","system_id":"levelo_inurba_marseille","lat":43.31356,"lon":5.36715,"is_reserved":false,"is_disabled":false,"rental_uris":{"android":"levelo://app?vid=d379372b-ab0b-42cd-88e9-e2f059de8e10","ios":"levelo://app?vid=d379372b-ab0b-42cd-88e9-e2f059de8e10"},"vehicle_type_id":"4","last_reported":1727251980,"current_range_meters":24000,"station_id":"ce4bgr92rcd13ifvqc6g","pricing_plan_id":"cebpf4jnsgd1na2vs0mg"},{"bike_id":"1274b247-fec9-43e7-b337-0b053285a2d8","system_id":"levelo_inurba_marseille","lat":43.29851,"lon":5.36286,"is_reserved":false,"is_disabled":false,"rental_uris":{"android":"levelo://app?vid=1274b247-fec9-43e7-b337-0b053285a2d8","ios":"levelo://app?vid=1274b247-fec9-43e7-b337-0b053285a2d8"},"vehicle_type_id":"4","last_reported":1727251980,"current_range_meters":39200,"station_id":"ce4bgpp2rcd13ifvqc3g","pricing_plan_id":"cebpf4jnsgd1na2vs0mg"},{"bike_id":"fd6b2286-61c6-41b0-899b-63aa95ee7bfa","system_id":"levelo_inurba_marseille","lat":43.30149,"lon":5.37417,"is_reserved":false,"is_disabled":false,"rental_uris":{"android":"levelo://app?vid=fd6b2286-61c6-41b0-899b-63aa95ee7bfa","ios":"levelo://app?vid=fd6b2286-61c6-41b0-899b-63aa95ee7bfa"},"vehicle_type_id":"4","last_reported":1727251980,"current_range_meters":28400,"station_id":"ce4bgs92rcd13ifvqcc0","pricing_plan_id":"cebpf4jnsgd1na2vs0mg"},{"bike_id":"9fb7a36e-9db3-4853-97de-268216ce31fb","system_id":"levelo_inurba_marseille","lat":43.28936,"lon":5.36638,"is_reserved":false,"is_disabled":false,"rental_uris":{"android":"levelo://app?vid=9fb7a36e-9db3-4853-97de-268216ce31fb","ios":"levelo://app?vid=9fb7a36e-9db3-4853-97de-268216ce31fb"},"vehicle_type_id":"4","last_reported":1727251980,"current_range_meters":37600,"station_id":"ce4bhap2rcd13ifvqek0","pricing_plan_id":"cebpf4jnsgd1na2vs0mg"},{"bike_id":"a1d82605-350d-4120-889c-7761b40719ec","system_id":"levelo_inurba_marseille","lat":43.32108,"lon":5.36771,"is_reserved":false,"is_disabled":false,"rental_uris":{"android":"levelo://app?vid=a1d82605-350d-4120-889c-7761b40719ec","ios":"levelo://app?vid=a1d82605-350d-4120-889c-7761b40719ec"},"vehicle_type_id":"4","last_reported":1727251980,"current_range_meters":20800,"station_id":"ce4bhrh2rcd13ifvqhug","pricing_plan_id":"cebpf4jnsgd1na2vs0mg"},{"bike_id":"45c962d2-6a7e-406f-a364-432c7532adb1","system_id":"levelo_inurba_marseille","lat":43.26684,"lon":5.38272,"is_reserved":false,"is_disabled":false,"rental_uris":{"android":"levelo://app?vid=45c962d2-6a7e-406f-a364-432c7532adb1","ios":"levelo://app?vid=45c962d2-6a7e-406f-a364-432c7532adb1"},"vehicle_type_id":"4","last_reported":1727251980,"current_range_meters":4800,"station_id":"ce4bhg92rcd13ifvqf90","pricing_plan_id":"cebpf4jnsgd1na2vs0mg"},{"bike_id":"dbf76b6b-0c4f-4a58-9db4-6b58ad871be6","system_id":"levelo_inurba_marseille","lat":43.31354,"lon":5.38488,"is_reserved":false,"is_disabled":false,"rental_uris":{"android":"levelo://app?vid=dbf76b6b-0c4f-4a58-9db4-6b58ad871be6","ios":"levelo://app?vid=dbf76b6b-0c4f-4a58-9db4-6b58ad871be6"},"vehicle_type_id":"4","last_reported":1727251980,"current_range_meters":28800,"station_id":"ce4bgt92rcd13ifvqcf0","pricing_plan_id":"cebpf4jnsgd1na2vs0mg"},{"bike_id":"8fb232c5-d21b-4052-928e-b0f8d765da85","system_id":"levelo_inurba_marseille","lat":43.3016,"lon":5.3808,"is_reserved":false,"is_disabled":false,"rental_uris":{"android":"levelo://app?vid=8fb232c5-d21b-4052-928e-b0f8d765da85","ios":"levelo://app?vid=8fb232c5-d21b-4052-928e-b0f8d765da85"},"vehicle_type_id":"4","last_reported":1727251980,"current_range_meters":36800,"station_id":"ce4bgjp2rcd13ifvqbh0","pricing_plan_id":"cebpf4jnsgd1na2vs0mg"},{"bike_id":"1166f6b1-5b87-4bc1-b21d-c61655b2fee0","system_id":"levelo_inurba_marseille","lat":43.29445,"lon":5.38053,"is_reserved":false,"is_disabled":false,"rental_uris":{"android":"levelo://app?vid=1166f6b1-5b87-4bc1-b21d-c61655b2fee0","ios":"levelo://app?vid=1166f6b1-5b87-4bc1-b21d-c61655b2fee0"},"vehicle_type_id":"4","last_reported":1727251980,"current_range_meters":35200,"station_id":"","pricing_plan_id":"cebpf4jnsgd1na2vs0mg"},{"bike_id":"38ce5fcb-e5e8-4e52-8658-7d1800ef1837","system_id":"levelo_inurba_marseille","lat":43.29918,"lon":5.37476,"is_reserved":false,"is_disabled":false,"rental_uris":{"android":"levelo://app?vid=38ce5fcb-e5e8-4e52-8658-7d1800ef1837","ios":"levelo://app?vid=38ce5fcb-e5e8-4e52-8658-7d1800ef1837"},"vehicle_type_id":"4","last_reported":1727251980,"current_range_meters":30800,"station_id":"ce4bgjh2rcd13ifvqbg0","pricing_plan_id":"cebpf4jnsgd1na2vs0mg"},{"bike_id":"36ced023-f236-41da-89da-a4f975daf2ba","system_id":"levelo_inurba_marseille","lat":43.3229,"lon":5.38271,"is_reserved":false,"is_disabled":false,"rental_uris":{"android":"levelo://app?vid=36ced023-f236-41da-89da-a4f975daf2ba","ios":"levelo://app?vid=36ced023-f236-41da-89da-a4f975daf2ba"},"vehicle_type_id":"4","last_reported":1727251980,"current_range_meters":36400,"station_id":"ce4bhr12rcd13ifvqhqg","pricing_plan_id":"cebpf4jnsgd1na2vs0mg"},{"bike_id":"4d0d4da6-8077-4217-a5d8-7fe49130d4fc","system_id":"levelo_inurba_marseille","lat":43.29576,"lon":5.37503,"is_reserved":false,"is_disabled":false,"rental_uris":{"android":"levelo://app?vid=4d0d4da6-8077-4217-a5d8-7fe49130d4fc","ios":"levelo://app?vid=4d0d4da6-8077-4217-a5d8-7fe49130d4fc"},"vehicle_type_id":"4","last_reported":1727251980,"current_range_meters":38800,"station_id":"ce4bgh92rcd13ifvqb50","pricing_plan_id":"cebpf4jnsgd1na2vs0mg"},{"bike_id":"a9b5ef82-4273-45d0-b93e-a999e67c47fd","system_id":"levelo_inurba_marseille","lat":43.30156,"lon":5.38079,"is_reserved":false,"is_disabled":false,"rental_uris":{"android":"levelo://app?vid=a9b5ef82-4273-45d0-b93e-a999e67c47fd","ios":"levelo://app?vid=a9b5ef82-4273-45d0-b93e-a999e67c47fd"},"vehicle_type_id":"4","last_reported":1727251980,"current_range_meters":38400,"station_id":"ce4bgjp2rcd13ifvqbh0","pricing_plan_id":"cebpf4jnsgd1na2vs0mg"},{"bike_id":"249c9091-61aa-4e8e-8e7b-4cdb5273009f","system_id":"levelo_inurba_marseille","lat":43.30147,"lon":5.37421,"is_reserved":false,"is_disabled":false,"rental_uris":{"android":"levelo://app?vid=249c9091-61aa-4e8e-8e7b-4cdb5273009f","ios":"levelo://app?vid=249c9091-61aa-4e8e-8e7b-4cdb5273009f"},"vehicle_type_id":"4","last_reported":1727251980,"current_range_meters":7200,"station_id":"ce4bgs92rcd13ifvqcc0","pricing_plan_id":"cebpf4jnsgd1na2vs0mg"},{"bike_id":"971728ae-b16c-439d-816f-eec38b5330df","system_id":"levelo_inurba_marseille","lat":43.24085,"lon":5.37746,"is_reserved":false,"is_disabled":false,"rental_uris":{"android":"levelo://app?vid=971728ae-b16c-439d-816f-eec38b5330df","ios":"levelo://app?vid=971728ae-b16c-439d-816f-eec38b5330df"},"vehicle_type_id":"4","last_reported":1727251980,"current_range_meters":24800,"station_id":"ce4bhnp2rcd13ifvqgvg","pricing_plan_id":"cebpf4jnsgd1na2vs0mg"},{"bike_id":"5d22d37c-c8d4-4feb-8685-bf150cafbdc6","system_id":"levelo_inurba_marseille","lat":43.2407,"lon":5.37757,"is_reserved":false,"is_disabled":false,"rental_uris":{"android":"levelo://app?vid=5d22d37c-c8d4-4feb-8685-bf150cafbdc6","ios":"levelo://app?vid=5d22d37c-c8d4-4feb-8685-bf150cafbdc6"},"vehicle_type_id":"4","last_reported":1727251980,"current_range_meters":18800,"station_id":"ce4bhnp2rcd13ifvqgvg","pricing_plan_id":"cebpf4jnsgd1na2vs0mg"},{"bike_id":"9d669928-70c4-4f73-a6f5-ceed2e87e7a7","system_id":"levelo_inurba_marseille","lat":43.30286,"lon":5.377,"is_reserved":false,"is_disabled":false,"rental_uris":{"android":"levelo://app?vid=9d669928-70c4-4f73-a6f5-ceed2e87e7a7","ios":"levelo://app?vid=9d669928-70c4-4f73-a6f5-ceed2e87e7a7"},"vehicle_type_id":"4","last_reported":1727251980,"current_range_meters":14800,"station_id":"ce4bguh2rcd13ifvqcj0","pricing_plan_id":"cebpf4jnsgd1na2vs0mg"},{"bike_id":"17701005-77c3-4e4f-a0b4-b2ece630517d","system_id":"levelo_inurba_marseille","lat":43.23957,"lon":5.36626,"is_reserved":false,"is_disabled":false,"rental_uris":{"android":"levelo://app?vid=17701005-77c3-4e4f-a0b4-b2ece630517d","ios":"levelo://app?vid=17701005-77c3-4e4f-a0b4-b2ece630517d"},"vehicle_type_id":"4","last_reported":1727251980,"current_range_meters":37600,"station_id":"ce4bhi12rcd13ifvqfp0","pricing_plan_id":"cebpf4jnsgd1na2vs0mg"},{"bike_id":"d63000b7-2151-47b7-bd1a-07aebafaaafd","system_id":"levelo_inurba_marseille","lat":43.29615,"lon":5.3773,"is_reserved":false,"is_disabled":false,"rental_uris":{"android":"levelo://app?vid=d63000b7-2151-47b7-bd1a-07aebafaaafd","ios":"levelo://app?vid=d63000b7-2151-47b7-bd1a-07aebafaaafd"},"vehicle_type_id":"4","last_reported":1727251980,"current_range_meters":6800,"station_id":"ce4bgi92rcd13ifvqb90","pricing_plan_id":"cebpf4jnsgd1na2vs0mg"},{"bike_id":"b327798d-28c4-4643-8cfa-44c6ce1e73ad","system_id":"levelo_inurba_marseille","lat":43.27843,"lon":5.39214,"is_reserved":false,"is_disabled":false,"rental_uris":{"android":"levelo://app?vid=b327798d-28c4-4643-8cfa-44c6ce1e73ad","ios":"levelo://app?vid=b327798d-28c4-4643-8cfa-44c6ce1e73ad"},"vehicle_type_id":"4","last_reported":1727251980,"current_range_meters":4000,"station_id":"ce4bhjp2rcd13ifvqga0","pricing_plan_id":"cebpf4jnsgd1na2vs0mg"},{"bike_id":"20b02bf8-7c07-47cd-bbba-31b992e68154","system_id":"levelo_inurba_marseille","lat":43.30154,"lon":5.38079,"is_reserved":false,"is_disabled":false,"rental_uris":{"android":"levelo://app?vid=20b02bf8-7c07-47cd-bbba-31b992e68154","ios":"levelo://app?vid=20b02bf8-7c07-47cd-bbba-31b992e68154"},"vehicle_type_id":"4","last_reported":1727251980,"current_range_meters":38000,"station_id":"ce4bgjp2rcd13ifvqbh0","pricing_plan_id":"cebpf4jnsgd1na2vs0mg"},{"bike_id":"778731f7-47c1-44a1-aa54-fde700589853","system_id":"levelo_inurba_marseille","lat":43.27491,"lon":5.42458,"is_reserved":false,"is_disabled":false,"rental_uris":{"android":"levelo://app?vid=778731f7-47c1-44a1-aa54-fde700589853","ios":"levelo://app?vid=778731f7-47c1-44a1-aa54-fde700589853"},"vehicle_type_id":"4","last_reported":1727251980,"current_range_meters":30000,"station_id":"ce4bhn92rcd13ifvqgrg","pricing_plan_id":"cebpf4jnsgd1na2vs0mg"},{"bike_id":"0cc33d26-020f-4173-9323-eb7416c37d5f","system_id":"levelo_inurba_marseille","lat":43.28714,"lon":5.37932,"is_reserved":false,"is_disabled":false,"rental_uris":{"android":"levelo://app?vid=0cc33d26-020f-4173-9323-eb7416c37d5f","ios":"levelo://app?vid=0cc33d26-020f-4173-9323-eb7416c37d5f"},"vehicle_type_id":"4","last_reported":1727251980,"current_range_meters":30400,"station_id":"ce4bh9p2rcd13ifvqec0","pricing_plan_id":"cebpf4jnsgd1na2vs0mg"},{"bike_id":"8e890df9-1215-4fb6-873e-d625163b0e12","system_id":"levelo_inurba_marseille","lat":43.3054,"lon":5.36538,"is_reserved":false,"is_disabled":false,"rental_uris":{"android":"levelo://app?vid=8e890df9-1215-4fb6-873e-d625163b0e12","ios":"levelo://app?vid=8e890df9-1215-4fb6-873e-d625163b0e12"},"vehicle_type_id":"4","last_reported":1727251980,"current_range_meters":18800,"station_id":"ce4bgs12rcd13ifvqcag","pricing_plan_id":"cebpf4jnsgd1na2vs0mg"},{"bike_id":"b1c6f62a-361d-4707-9dc7-b403f39177cc","system_id":"levelo_inurba_marseille","lat":43.3361,"lon":5.41028,"is_reserved":false,"is_disabled":false,"rental_uris":{"android":"levelo://app?vid=b1c6f62a-361d-4707-9dc7-b403f39177cc","ios":"levelo://app?vid=b1c6f62a-361d-4707-9dc7-b403f39177cc"},"vehicle_type_id":"4","last_reported":1727251980,"current_range_meters":12000,"station_id":"ce4bhqh2rcd13ifvqhmg","pricing_plan_id":"cebpf4jnsgd1na2vs0mg"},{"bike_id":"7e9e8414-11aa-4516-a0ba-b99da07411a2","system_id":"levelo_inurba_marseille","lat":43.24081,"lon":5.37754,"is_reserved":false,"is_disabled":false,"rental_uris":{"android":"levelo://app?vid=7e9e8414-11aa-4516-a0ba-b99da07411a2","ios":"levelo://app?vid=7e9e8414-11aa-4516-a0ba-b99da07411a2"},"vehicle_type_id":"4","last_reported":1727251980,"current_range_meters":17200,"station_id":"ce4bhnp2rcd13ifvqgvg","pricing_plan_id":"cebpf4jnsgd1na2vs0mg"},{"bike_id":"4017bff6-936b-4cab-ac5e-29c86cb92eec","system_id":"levelo_inurba_marseille","lat":43.337444,"lon":5.374475,"is_reserved":false,"is_disabled":false,"rental_uris":{"android":"levelo://app?vid=4017bff6-936b-4cab-ac5e-29c86cb92eec","ios":"levelo://app?vid=4017bff6-936b-4cab-ac5e-29c86cb92eec"},"vehicle_type_id":"4","last_reported":1727251980,"current_range_meters":36400,"station_id":"ce4bh192rcd13ifvqdb0","pricing_plan_id":"cebpf4jnsgd1na2vs0mg"},{"bike_id":"e764e478-5433-4139-aa84-f94d14b36ec5","system_id":"levelo_inurba_marseille","lat":43.33611,"lon":5.41028,"is_reserved":false,"is_disabled":false,"rental_uris":{"android":"levelo://app?vid=e764e478-5433-4139-aa84-f94d14b36ec5","ios":"levelo://app?vid=e764e478-5433-4139-aa84-f94d14b36ec5"},"vehicle_type_id":"4","last_reported":1727251980,"current_range_meters":16000,"station_id":"ce4bhqh2rcd13ifvqhmg","pricing_plan_id":"cebpf4jnsgd1na2vs0mg"},{"bike_id":"60094dbc-2b68-4180-a709-7e0b5894cbda","system_id":"levelo_inurba_marseille","lat":43.321119,"lon":5.367665,"is_reserved":false,"is_disabled":false,"rental_uris":{"android":"levelo://app?vid=60094dbc-2b68-4180-a709-7e0b5894cbda","ios":"levelo://app?vid=60094dbc-2b68-4180-a709-7e0b5894cbda"},"vehicle_type_id":"4","last_reported":1727251980,"current_range_meters":30400,"station_id":"ce4bhrh2rcd13ifvqhug","pricing_plan_id":"cebpf4jnsgd1na2vs0mg"},{"bike_id":"d5aa1add-115d-4e1a-b824-66ecde93a367","system_id":"levelo_inurba_marseille","lat":43.24085,"lon":5.37744,"is_reserved":false,"is_disabled":false,"rental_uris":{"android":"levelo://app?vid=d5aa1add-115d-4e1a-b824-66ecde93a367","ios":"levelo://app?vid=d5aa1add-115d-4e1a-b824-66ecde93a367"},"vehicle_type_id":"4","last_reported":1727251980,"current_range_meters":8800,"station_id":"ce4bhnp2rcd13ifvqgvg","pricing_plan_id":"cebpf4jnsgd1na2vs0mg"},{"bike_id":"5aa05a57-d014-4c37-8c67-d2b5705209eb","system_id":"levelo_inurba_marseille","lat":43.24083,"lon":5.37743,"is_reserved":false,"is_disabled":false,"rental_uris":{"android":"levelo://app?vid=5aa05a57-d014-4c37-8c67-d2b5705209eb","ios":"levelo://app?vid=5aa05a57-d014-4c37-8c67-d2b5705209eb"},"vehicle_type_id":"4","last_reported":1727251980,"current_range_meters":27600,"station_id":"ce4bhnp2rcd13ifvqgvg","pricing_plan_id":"cebpf4jnsgd1na2vs0mg"},{"bike_id":"eec3eb1f-631d-43e1-8834-dea90b68d531","system_id":"levelo_inurba_marseille","lat":43.27489,"lon":5.42464,"is_reserved":false,"is_disabled":false,"rental_uris":{"android":"levelo://app?vid=eec3eb1f-631d-43e1-8834-dea90b68d531","ios":"levelo://app?vid=eec3eb1f-631d-43e1-8834-dea90b68d531"},"vehicle_type_id":"4","last_reported":1727251980,"current_range_meters":17200,"station_id":"ce4bhn92rcd13ifvqgrg","pricing_plan_id":"cebpf4jnsgd1na2vs0mg"},{"bike_id":"4c43b43f-be17-43d2-95e0-fab0c099fe37","system_id":"levelo_inurba_marseille","lat":43.23152,"lon":5.43702,"is_reserved":false,"is_disabled":false,"rental_uris":{"android":"levelo://app?vid=4c43b43f-be17-43d2-95e0-fab0c099fe37","ios":"levelo://app?vid=4c43b43f-be17-43d2-95e0-fab0c099fe37"},"vehicle_type_id":"4","last_reported":1727251980,"current_range_meters":38000,"station_id":"ce4bhmp2rcd13ifvqgog","pricing_plan_id":"cebpf4jnsgd1na2vs0mg"},{"bike_id":"b2496dd9-d249-417a-b5a8-f9a07e6044bc","system_id":"levelo_inurba_marseille","lat":43.28716,"lon":5.37937,"is_reserved":false,"is_disabled":false,"rental_uris":{"android":"levelo://app?vid=b2496dd9-d249-417a-b5a8-f9a07e6044bc","ios":"levelo://app?vid=b2496dd9-d249-417a-b5a8-f9a07e6044bc"},"vehicle_type_id":"4","last_reported":1727251980,"current_range_meters":38000,"station_id":"ce4bh9p2rcd13ifvqec0","pricing_plan_id":"cebpf4jnsgd1na2vs0mg"},{"bike_id":"a7bca3df-0344-4204-86d7-b742d4769839","system_id":"levelo_inurba_marseille","lat":43.30863,"lon":5.3685,"is_reserved":false,"is_disabled":false,"rental_uris":{"android":"levelo://app?vid=a7bca3df-0344-4204-86d7-b742d4769839","ios":"levelo://app?vid=a7bca3df-0344-4204-86d7-b742d4769839"},"vehicle_type_id":"4","last_reported":1727251980,"current_range_meters":28400,"station_id":"ce4bgn92rcd13ifvqbvg","pricing_plan_id":"cebpf4jnsgd1na2vs0mg"},{"bike_id":"a5f55373-698d-437b-8ca1-cf29ecbe349b","system_id":"levelo_inurba_marseille","lat":43.27489,"lon":5.42456,"is_reserved":false,"is_disabled":false,"rental_uris":{"android":"levelo://app?vid=a5f55373-698d-437b-8ca1-cf29ecbe349b","ios":"levelo://app?vid=a5f55373-698d-437b-8ca1-cf29ecbe349b"},"vehicle_type_id":"4","last_reported":1727251980,"current_range_meters":32000,"station_id":"ce4bhn92rcd13ifvqgrg","pricing_plan_id":"cebpf4jnsgd1na2vs0mg"},{"bike_id":"2d3f7b7b-7d32-4a74-957b-859b4e619117","system_id":"levelo_inurba_marseille","lat":43.26066,"lon":5.39392,"is_reserved":false,"is_disabled":false,"rental_uris":{"android":"levelo://app?vid=2d3f7b7b-7d32-4a74-957b-859b4e619117","ios":"levelo://app?vid=2d3f7b7b-7d32-4a74-957b-859b4e619117"},"vehicle_type_id":"4","last_reported":1727251980,"current_range_meters":36800,"station_id":"ce4bhh92rcd13ifvqfj0","pricing_plan_id":"cebpf4jnsgd1na2vs0mg"},{"bike_id":"ac4c8e29-0856-449d-bc90-35283c138610","system_id":"levelo_inurba_marseille","lat":43.29162,"lon":5.3716,"is_reserved":false,"is_disabled":false,"rental_uris":{"android":"levelo://app?vid=ac4c8e29-0856-449d-bc90-35283c138610","ios":"levelo://app?vid=ac4c8e29-0856-449d-bc90-35283c138610"},"vehicle_type_id":"4","last_reported":1727251980,"current_range_meters":22000,"station_id":"ce4bha92rcd13ifvqeh0","pricing_plan_id":"cebpf4jnsgd1na2vs0mg"},{"bike_id":"fa44942c-4b00-4c60-8bfc-560b78433a68","system_id":"levelo_inurba_marseille","lat":43.30102,"lon":5.39074,"is_reserved":false,"is_disabled":false,"rental_uris":{"android":"levelo://app?vid=fa44942c-4b00-4c60-8bfc-560b78433a68","ios":"levelo://app?vid=fa44942c-4b00-4c60-8bfc-560b78433a68"},"vehicle_type_id":"4","last_reported":1727251980,"current_range_meters":8800,"station_id":"ce4bh192rcd13ifvqdb0","pricing_plan_id":"cebpf4jnsgd1na2vs0mg"},{"bike_id":"49f08ebf-9df9-49ee-bfcf-f0633fff6347","system_id":"levelo_inurba_marseille","lat":43.298279,"lon":5.389249,"is_reserved":false,"is_disabled":false,"rental_uris":{"android":"levelo://app?vid=49f08ebf-9df9-49ee-bfcf-f0633fff6347","ios":"levelo://app?vid=49f08ebf-9df9-49ee-bfcf-f0633fff6347"},"vehicle_type_id":"4","last_reported":1727251980,"current_range_meters":32000,"station_id":"ce4bh392rcd13ifvqdl0","pricing_plan_id":"cebpf4jnsgd1na2vs0mg"},{"bike_id":"7827170f-fe53-4f76-acc5-1f9d10e67145","system_id":"levelo_inurba_marseille","lat":43.22932,"lon":5.35375,"is_reserved":false,"is_disabled":false,"rental_uris":{"android":"levelo://app?vid=7827170f-fe53-4f76-acc5-1f9d10e67145","ios":"levelo://app?vid=7827170f-fe53-4f76-acc5-1f9d10e67145"},"vehicle_type_id":"4","last_reported":1727251980,"current_range_meters":38400,"station_id":"cpo3532slgdg3j2ikp40","pricing_plan_id":"cebpf4jnsgd1na2vs0mg"},{"bike_id":"d831a0c8-0bcd-4449-91a5-836df1a52d4b","system_id":"levelo_inurba_marseille","lat":43.307183,"lon":5.37276,"is_reserved":false,"is_disabled":false,"rental_uris":{"android":"levelo://app?vid=d831a0c8-0bcd-4449-91a5-836df1a52d4b","ios":"levelo://app?vid=d831a0c8-0bcd-4449-91a5-836df1a52d4b"},"vehicle_type_id":"4","last_reported":1727251980,"current_range_meters":11200,"station_id":"","pricing_plan_id":"cebpf4jnsgd1na2vs0mg"},{"bike_id":"37ea3e6e-16e9-42b3-b4f9-836c84a7a894","system_id":"levelo_inurba_marseille","lat":43.23187,"lon":5.39988,"is_reserved":false,"is_disabled":false,"rental_uris":{"android":"levelo://app?vid=37ea3e6e-16e9-42b3-b4f9-836c84a7a894","ios":"levelo://app?vid=37ea3e6e-16e9-42b3-b4f9-836c84a7a894"},"vehicle_type_id":"4","last_reported":1727251980,"current_range_meters":27600,"station_id":"ce4bhn12rcd13ifvqgqg","pricing_plan_id":"cebpf4jnsgd1na2vs0mg"},{"bike_id":"337d797f-5bad-4e42-a3a9-741eceae0aa0","system_id":"levelo_inurba_marseille","lat":43.33719,"lon":5.39178,"is_reserved":false,"is_disabled":false,"rental_uris":{"android":"levelo://app?vid=337d797f-5bad-4e42-a3a9-741eceae0aa0","ios":"levelo://app?vid=337d797f-5bad-4e42-a3a9-741eceae0aa0"},"vehicle_type_id":"4","last_reported":1727251980,"current_range_meters":38400,"station_id":"ce4bhr92rcd13ifvqhsg","pricing_plan_id":"cebpf4jnsgd1na2vs0mg"},{"bike_id":"c429e26a-1acd-4e91-9809-a448ccb99898","system_id":"levelo_inurba_marseille","lat":43.28124,"lon":5.40594,"is_reserved":false,"is_disabled":false,"rental_uris":{"android":"levelo://app?vid=c429e26a-1acd-4e91-9809-a448ccb99898","ios":"levelo://app?vid=c429e26a-1acd-4e91-9809-a448ccb99898"},"vehicle_type_id":"4","last_reported":1727251980,"current_range_meters":36400,"station_id":"","pricing_plan_id":"cebpf4jnsgd1na2vs0mg"},{"bike_id":"7d13bfe6-cac1-417a-a866-11f3f6431dbc","system_id":"levelo_inurba_marseille","lat":43.28856,"lon":5.37141,"is_reserved":false,"is_disabled":false,"rental_uris":{"android":"levelo://app?vid=7d13bfe6-cac1-417a-a866-11f3f6431dbc","ios":"levelo://app?vid=7d13bfe6-cac1-417a-a866-11f3f6431dbc"},"vehicle_type_id":"4","last_reported":1727251980,"current_range_meters":27200,"station_id":"ce4bht12rcd13ifvqi60","pricing_plan_id":"cebpf4jnsgd1na2vs0mg"},{"bike_id":"4a4bfd88-bdfc-4802-b3a8-e798e4274727","system_id":"levelo_inurba_marseille","lat":43.32288,"lon":5.38266,"is_reserved":false,"is_disabled":false,"rental_uris":{"android":"levelo://app?vid=4a4bfd88-bdfc-4802-b3a8-e798e4274727","ios":"levelo://app?vid=4a4bfd88-bdfc-4802-b3a8-e798e4274727"},"vehicle_type_id":"4","last_reported":1727251980,"current_range_meters":28800,"station_id":"ce4bhr12rcd13ifvqhqg","pricing_plan_id":"cebpf4jnsgd1na2vs0mg"},{"bike_id":"0c20d553-ba87-413c-aaa7-a20a8a4727a0","system_id":"levelo_inurba_marseille","lat":43.299319,"lon":5.365004,"is_reserved":false,"is_disabled":false,"rental_uris":{"android":"levelo://app?vid=0c20d553-ba87-413c-aaa7-a20a8a4727a0","ios":"levelo://app?vid=0c20d553-ba87-413c-aaa7-a20a8a4727a0"},"vehicle_type_id":"4","last_reported":1727251980,"current_range_meters":24000,"station_id":"ce4bgm92rcd13ifvqbr0","pricing_plan_id":"cebpf4jnsgd1na2vs0mg"},{"bike_id":"6d96f985-9c01-48a6-84cc-38d4437fa126","system_id":"levelo_inurba_marseille","lat":43.23155,"lon":5.43706,"is_reserved":false,"is_disabled":false,"rental_uris":{"android":"levelo://app?vid=6d96f985-9c01-48a6-84cc-38d4437fa126","ios":"levelo://app?vid=6d96f985-9c01-48a6-84cc-38d4437fa126"},"vehicle_type_id":"4","last_reported":1727251980,"current_range_meters":14000,"station_id":"ce4bhmp2rcd13ifvqgog","pricing_plan_id":"cebpf4jnsgd1na2vs0mg"},{"bike_id":"6e26fd40-fb44-40d1-afbb-79f17e933784","system_id":"levelo_inurba_marseille","lat":43.30958,"lon":5.39048,"is_reserved":false,"is_disabled":false,"rental_uris":{"android":"levelo://app?vid=6e26fd40-fb44-40d1-afbb-79f17e933784","ios":"levelo://app?vid=6e26fd40-fb44-40d1-afbb-79f17e933784"},"vehicle_type_id":"4","last_reported":1727251980,"current_range_meters":34800,"station_id":"ce4bgup2rcd13ifvqco0","pricing_plan_id":"cebpf4jnsgd1na2vs0mg"},{"bike_id":"cf08a50f-142e-42f1-b2a2-499e47211796","system_id":"levelo_inurba_marseille","lat":43.336093,"lon":5.410272,"is_reserved":false,"is_disabled":false,"rental_uris":{"android":"levelo://app?vid=cf08a50f-142e-42f1-b2a2-499e47211796","ios":"levelo://app?vid=cf08a50f-142e-42f1-b2a2-499e47211796"},"vehicle_type_id":"4","last_reported":1727251980,"current_range_meters":28000,"station_id":"ce4bgqh2rcd13ifvqc5g","pricing_plan_id":"cebpf4jnsgd1na2vs0mg"},{"bike_id":"83ba5108-5b0a-4d30-bc54-2eaa9d223d59","system_id":"levelo_inurba_marseille","lat":43.30474,"lon":5.37895,"is_reserved":false,"is_disabled":false,"rental_uris":{"android":"levelo://app?vid=83ba5108-5b0a-4d30-bc54-2eaa9d223d59","ios":"levelo://app?vid=83ba5108-5b0a-4d30-bc54-2eaa9d223d59"},"vehicle_type_id":"4","last_reported":1727251980,"current_range_meters":27600,"station_id":"ce4bgup2rcd13ifvqcn0","pricing_plan_id":"cebpf4jnsgd1na2vs0mg"},{"bike_id":"95b59248-193a-47df-9847-7d547353f860","system_id":"levelo_inurba_marseille","lat":43.3048,"lon":5.37907,"is_reserved":false,"is_disabled":false,"rental_uris":{"android":"levelo://app?vid=95b59248-193a-47df-9847-7d547353f860","ios":"levelo://app?vid=95b59248-193a-47df-9847-7d547353f860"},"vehicle_type_id":"4","last_reported":1727251980,"current_range_meters":35600,"station_id":"ce4bgup2rcd13ifvqcn0","pricing_plan_id":"cebpf4jnsgd1na2vs0mg"},{"bike_id":"9ac9d415-314c-47c9-83c9-409ec35ee620","system_id":"levelo_inurba_marseille","lat":43.24077,"lon":5.3776,"is_reserved":false,"is_disabled":false,"rental_uris":{"android":"levelo://app?vid=9ac9d415-314c-47c9-83c9-409ec35ee620","ios":"levelo://app?vid=9ac9d415-314c-47c9-83c9-409ec35ee620"},"vehicle_type_id":"4","last_reported":1727251980,"current_range_meters":38400,"station_id":"ce4bhnp2rcd13ifvqgvg","pricing_plan_id":"cebpf4jnsgd1na2vs0mg"},{"bike_id":"0fa02f19-62ea-444b-908b-23c26cd28fb0","system_id":"levelo_inurba_marseille","lat":43.30142,"lon":5.37426,"is_reserved":false,"is_disabled":false,"rental_uris":{"android":"levelo://app?vid=0fa02f19-62ea-444b-908b-23c26cd28fb0","ios":"levelo://app?vid=0fa02f19-62ea-444b-908b-23c26cd28fb0"},"vehicle_type_id":"4","last_reported":1727251980,"current_range_meters":32000,"station_id":"ce4bgs92rcd13ifvqcc0","pricing_plan_id":"cebpf4jnsgd1na2vs0mg"},{"bike_id":"4d31a4eb-f1f8-4c48-aaf0-bc7a81a344c8","system_id":"levelo_inurba_marseille","lat":43.297,"lon":5.36614,"is_reserved":false,"is_disabled":false,"rental_uris":{"android":"levelo://app?vid=4d31a4eb-f1f8-4c48-aaf0-bc7a81a344c8","ios":"levelo://app?vid=4d31a4eb-f1f8-4c48-aaf0-bc7a81a344c8"},"vehicle_type_id":"4","last_reported":1727251980,"current_range_meters":30400,"station_id":"ce4bgs92rcd13ifvqcc0","pricing_plan_id":"cebpf4jnsgd1na2vs0mg"},{"bike_id":"42550025-67db-4121-a821-98bc0072167e","system_id":"levelo_inurba_marseille","lat":43.30312,"lon":5.37716,"is_reserved":false,"is_disabled":false,"rental_uris":{"android":"levelo://app?vid=42550025-67db-4121-a821-98bc0072167e","ios":"levelo://app?vid=42550025-67db-4121-a821-98bc0072167e"},"vehicle_type_id":"4","last_reported":1727251980,"current_range_meters":12400,"station_id":"ce4bguh2rcd13ifvqcj0","pricing_plan_id":"cebpf4jnsgd1na2vs0mg"},{"bike_id":"5e787303-50e2-4b6f-ac85-c0e6d3015235","system_id":"levelo_inurba_marseille","lat":43.29899,"lon":5.4366,"is_reserved":false,"is_disabled":false,"rental_uris":{"android":"levelo://app?vid=5e787303-50e2-4b6f-ac85-c0e6d3015235","ios":"levelo://app?vid=5e787303-50e2-4b6f-ac85-c0e6d3015235"},"vehicle_type_id":"4","last_reported":1727251980,"current_range_meters":38000,"station_id":"ce4bhpp2rcd13ifvqhfg","pricing_plan_id":"cebpf4jnsgd1na2vs0mg"},{"bike_id":"ede37da0-431f-462e-af97-45c71435ab2a","system_id":"levelo_inurba_marseille","lat":43.24182,"lon":5.39722,"is_reserved":false,"is_disabled":false,"rental_uris":{"android":"levelo://app?vid=ede37da0-431f-462e-af97-45c71435ab2a","ios":"levelo://app?vid=ede37da0-431f-462e-af97-45c71435ab2a"},"vehicle_type_id":"4","last_reported":1727251980,"current_range_meters":21600,"station_id":"ce4bhn12rcd13ifvqgpg","pricing_plan_id":"cebpf4jnsgd1na2vs0mg"},{"bike_id":"5f382580-7123-4ed7-9363-794ed4ff431e","system_id":"levelo_inurba_marseille","lat":43.30474,"lon":5.37905,"is_reserved":false,"is_disabled":false,"rental_uris":{"android":"levelo://app?vid=5f382580-7123-4ed7-9363-794ed4ff431e","ios":"levelo://app?vid=5f382580-7123-4ed7-9363-794ed4ff431e"},"vehicle_type_id":"4","last_reported":1727251980,"current_range_meters":39200,"station_id":"ce4bgup2rcd13ifvqcn0","pricing_plan_id":"cebpf4jnsgd1na2vs0mg"},{"bike_id":"7e4ac136-a5e1-4bb6-95e3-1ac7c58dfb31","system_id":"levelo_inurba_marseille","lat":43.30952,"lon":5.39039,"is_reserved":false,"is_disabled":false,"rental_uris":{"android":"levelo://app?vid=7e4ac136-a5e1-4bb6-95e3-1ac7c58dfb31","ios":"levelo://app?vid=7e4ac136-a5e1-4bb6-95e3-1ac7c58dfb31"},"vehicle_type_id":"4","last_reported":1727251980,"current_range_meters":34000,"station_id":"ce4bgup2rcd13ifvqco0","pricing_plan_id":"cebpf4jnsgd1na2vs0mg"},{"bike_id":"eded2c3d-555a-4278-8c69-4bf8c363d29a","system_id":"levelo_inurba_marseille","lat":43.29529,"lon":5.37499,"is_reserved":false,"is_disabled":false,"rental_uris":{"android":"levelo://app?vid=eded2c3d-555a-4278-8c69-4bf8c363d29a","ios":"levelo://app?vid=eded2c3d-555a-4278-8c69-4bf8c363d29a"},"vehicle_type_id":"4","last_reported":1727251980,"current_range_meters":38000,"station_id":"ce4bgkp2rcd13ifvqbmg","pricing_plan_id":"cebpf4jnsgd1na2vs0mg"},{"bike_id":"5a424b04-e0fc-4717-afab-aacb064c7c38","system_id":"levelo_inurba_marseille","lat":43.30159,"lon":5.38079,"is_reserved":false,"is_disabled":false,"rental_uris":{"android":"levelo://app?vid=5a424b04-e0fc-4717-afab-aacb064c7c38","ios":"levelo://app?vid=5a424b04-e0fc-4717-afab-aacb064c7c38"},"vehicle_type_id":"4","last_reported":1727251980,"current_range_meters":38000,"station_id":"ce4bgjp2rcd13ifvqbh0","pricing_plan_id":"cebpf4jnsgd1na2vs0mg"},{"bike_id":"aa5c02e3-762a-4e41-a50a-e115a66a0a87","system_id":"levelo_inurba_marseille","lat":43.26209,"lon":5.3745,"is_reserved":false,"is_disabled":false,"rental_uris":{"android":"levelo://app?vid=aa5c02e3-762a-4e41-a50a-e115a66a0a87","ios":"levelo://app?vid=aa5c02e3-762a-4e41-a50a-e115a66a0a87"},"vehicle_type_id":"4","last_reported":1727251980,"current_range_meters":4800,"station_id":"ce4bhgp2rcd13ifvqfc0","pricing_plan_id":"cebpf4jnsgd1na2vs0mg"},{"bike_id":"a0649a41-dc4f-496e-be8e-956228c45d34","system_id":"levelo_inurba_marseille","lat":43.28474,"lon":5.38419,"is_reserved":false,"is_disabled":false,"rental_uris":{"android":"levelo://app?vid=a0649a41-dc4f-496e-be8e-956228c45d34","ios":"levelo://app?vid=a0649a41-dc4f-496e-be8e-956228c45d34"},"vehicle_type_id":"4","last_reported":1727251980,"current_range_meters":30000,"station_id":"ce4bh512rcd13ifvqe3g","pricing_plan_id":"cebpf4jnsgd1na2vs0mg"},{"bike_id":"cb43db5f-dabc-4efe-9bbf-90d1dc90ca9b","system_id":"levelo_inurba_marseille","lat":43.33607,"lon":5.41035,"is_reserved":false,"is_disabled":false,"rental_uris":{"android":"levelo://app?vid=cb43db5f-dabc-4efe-9bbf-90d1dc90ca9b","ios":"levelo://app?vid=cb43db5f-dabc-4efe-9bbf-90d1dc90ca9b"},"vehicle_type_id":"4","last_reported":1727251980,"current_range_meters":34000,"station_id":"ce4bhqh2rcd13ifvqhmg","pricing_plan_id":"cebpf4jnsgd1na2vs0mg"},{"bike_id":"e27bd823-51e3-4a37-80f5-813c24988b35","system_id":"levelo_inurba_marseille","lat":43.29801,"lon":5.38095,"is_reserved":false,"is_disabled":false,"rental_uris":{"android":"levelo://app?vid=e27bd823-51e3-4a37-80f5-813c24988b35","ios":"levelo://app?vid=e27bd823-51e3-4a37-80f5-813c24988b35"},"vehicle_type_id":"4","last_reported":1727251980,"current_range_meters":28400,"station_id":"ce4bgip2rcd13ifvqbb0","pricing_plan_id":"cebpf4jnsgd1na2vs0mg"},{"bike_id":"1d1e53fc-98fe-4b7b-b216-e590e2308610","system_id":"levelo_inurba_marseille","lat":43.27495,"lon":5.4246,"is_reserved":false,"is_disabled":false,"rental_uris":{"android":"levelo://app?vid=1d1e53fc-98fe-4b7b-b216-e590e2308610","ios":"levelo://app?vid=1d1e53fc-98fe-4b7b-b216-e590e2308610"},"vehicle_type_id":"4","last_reported":1727251980,"current_range_meters":32400,"station_id":"ce4bhn92rcd13ifvqgrg","pricing_plan_id":"cebpf4jnsgd1na2vs0mg"},{"bike_id":"3d160dae-6782-4e53-81e7-e40908ad46c5","system_id":"levelo_inurba_marseille","lat":43.31877,"lon":5.37423,"is_reserved":false,"is_disabled":false,"rental_uris":{"android":"levelo://app?vid=3d160dae-6782-4e53-81e7-e40908ad46c5","ios":"levelo://app?vid=3d160dae-6782-4e53-81e7-e40908ad46c5"},"vehicle_type_id":"4","last_reported":1727251980,"current_range_meters":36400,"station_id":"","pricing_plan_id":"cebpf4jnsgd1na2vs0mg"},