{"last_updated":1750695221,"ttl":60,"version":"2.2","data":{"bikes":[{"bike_id":"3da29fb8-fc97-44c6-b9ac-31dd456b2fd4","system_id":"levelo_inurba_marseille","lat":43.33771,"lon":5.37424,"is_reserved":false,"is_disabled":true,"rental_uris":{"android":"levelo://app?vid=3da29fb8-fc97-44c6-b9ac-31dd456b2fd4","ios":"levelo://app?vid=3da29fb8-fc97-44c6-b9ac-31dd456b2fd4"},"vehicle_type_id":"4","last_reported":1750695221,"current_range_meters":0,"station_id":"","pricing_plan_id":"cebpf4jnsgd1na2vs0mg"},{"bike_id":"01861ad8-a8d7-4be6-816e-651927c87584","system_id":"levelo_inurba_marseille","lat":43.33751,"lon":5.37456,"is_reserved":false,"is_disabled":true,"rental_uris":{"android":"levelo://app?vid=01861ad8-a8d7-4be6-816e-651927c87584","ios":"levelo://app?vid=01861ad8-a8d7-4be6-816e-651927c87584"},"vehicle_type_id":"4","last_reported":1750695221,"current_range_meters":0,"station_id":"","pricing_plan_id":"cebpf4jnsgd1na2vs0mg"},{"bike_id":"f0a1d594-9817-42ab-a8d6-aea4947e8858","system_id":"levelo_inurba_marseille","lat":43.28833,"lon":5.43436,"is_reserved":false,"is_disabled":true,"rental_uris":{"android":"levelo://app?vid=f0a1d594-9817-42ab-a8d6-aea4947e8858","ios":"levelo://app?vid=f0a1d594-9817-42ab-a8d6-aea4947e8858"},"vehicle_type_id":"4","last_reported":1750695221,"current_range_meters":0,"station_id":"","pricing_plan_id":"cebpf4jnsgd1na2vs0mg"},{"bike_id":"38fa1014-dc0c-49c9-ad0a-4ed146026865","system_id":"levelo_inurba_marseille","lat":43.211932,"lon":5.350818,"is_reserved":false,"is_disabled":true,"rental_uris":{"android":"levelo://app?vid=38fa1014-dc0c-49c9-ad0a-4ed146026865","ios":"levelo://app?vid=38fa1014-dc0c-49c9-ad0a-4ed146026865"},"vehicle_type_id":"4","last_reported":1750695221,"current_range_meters":0,"station_id":"","pricing_plan_id":"cebpf4jnsgd1na2vs0mg"},{"bike_id":"62a493c7-4534-4419-ad43-0582de34a72a","system_id":"levelo_inurba_marseille","lat":43.21366,"lon":5.355183,"is_reserved":false,"is_disabled":true,"rental_uris":{"android":"levelo://app?vid=62a493c7-4534-4419-ad43-0582de34a72a","ios":"levelo://app?vid=62a493c7-4534-4419-ad43-0582de34a72a"},"vehicle_type_id":"4","last_reported":1750695221,"current_range_meters":0,"station_id":"","pricing_plan_id":"cebpf4jnsgd1na2vs0mg"},{"bike_id":"33615944-bcfe-40a4-9477-206b01eec142","system_id":"levelo_inurba_marseille","lat":43.2925,"lon":5.3668,"is_reserved":false,"is_disabled":true,"rental_uris":{"android":"levelo://app?vid=33615944-bcfe-40a4-9477-206b01eec142","ios":"levelo://app?vid=33615944-bcfe-40a4-9477-206b01eec142"},"vehicle_type_id":"4","last_reported":1750695221,"current_range_meters":0,"station_id":"","pricing_plan_id":"cebpf4jnsgd1na2vs0mg"},{"bike_id":"bec97e80-f20a-4137-a561-725ff16a4b68","system_id":"levelo_inurba_marseille","lat":43.27128,"lon":5.39246,"is_reserved":false,"is_disabled":true,"rental_uris":{"android":"levelo://app?vid=bec97e80-f20a-4137-a561-725ff16a4b68","ios":"levelo://app?vid=bec97e80-f20a-4137-a561-725ff16a4b68"},"vehicle_type_id":"4","last_reported":1750695221,"current_range_meters":0,"station_id":"","pricing_plan_id":"cebpf4jnsgd1na2vs0mg"},{"bike_id":"139d47bd-ff87-42d8-a4c6-89da4be6f80c","system_id":"levelo_inurba_marseille","lat":43.27965,"lon":5.44242,"is_reserved":false,"is_disabled":true,"rental_uris":{"android":"levelo://app?vid=139d47bd-ff87-42d8-a4c6-89da4be6f80c","ios":"levelo://app?vid=139d47bd-ff87-42d8-a4c6-89da4be6f80c"},"vehicle_type_id":"4","last_reported":1750695221,"current_range_meters":0,"station_id":"","pricing_plan_id":"cebpf4jnsgd1na2vs0mg"},{"bike_id":"b627105c-3934-4ca1-8179-b0b3f7c80098","system_id":"levelo_inurba_marseille","lat":43.29546,"lon":5.36508,"is_reserved":false,"is_disabled":true,"rental_uris":{"android":"levelo://app?vid=b627105c-3934-4ca1-8179-b0b3f7c80098","ios":"levelo://app?vid=b627105c-3934-4ca1-8179-b0b3f7c80098"},"vehicle_type_id":"4","last_reported":1750695221,"current_range_meters":0,"station_id":"","pricing_plan_id":"cebpf4jnsgd1na2vs0mg"},{"bike_id":"91aba767-1cca-4550-b38f-d3b7ad9c97e6","system_id":"levelo_inurba_marseille","lat":43.282262,"lon":5.403036,"is_reserved":false,"is_disabled":true,"rental_uris":{"android":"levelo://app?vid=91aba767-1cca-4550-b38f-d3b7ad9c97e6","ios":"levelo://app?vid=91aba767-1cca-4550-b38f-d3b7ad9c97e6"},"vehicle_type_id":"4","last_reported":1750695221,"current_range_meters":0,"station_id":"","pricing_plan_id":"cebpf4jnsgd1na2vs0mg"},{"bike_id":"ad493fb3-a825-4f89-a635-4be1c1102b11","system_id":"levelo_inurba_marseille","lat":43.32658,"lon":5.42333,"is_reserved":false,"is_disabled":true,"rental_uris":{"android":"levelo://app?vid=ad493fb3-a825-4f89-a635-4be1c1102b11","ios":"levelo://app?vid=ad493fb3-a825-4f89-a635-4be1c1102b11"},"vehicle_type_id":"4","last_reported":1750695221,"current_range_meters":0,"station_id":"","pricing_plan_id":"cebpf4jnsgd1na2vs0mg"},{"bike_id":"3a3a1818-f20a-442b-bfcf-0e0a18008f43","system_id":"levelo_inurba_marseille","lat":43.26608,"lon":5.37475,"is_reserved":false,"is_disabled":true,"rental_uris":{"android":"levelo://app?vid=3a3a1818-f20a-442b-bfcf-0e0a18008f43","ios":"levelo://app?vid=3a3a1818-f20a-442b-bfcf-0e0a18008f43"},"vehicle_type_id":"4","last_reported":1750695221,"current_range_meters":0,"station_id":"","pricing_plan_id":"cebpf4jnsgd1na2vs0mg"},{"bike_id":"d6609b4f-333b-43c1-9ebe-8726f5e76e88","system_id":"levelo_inurba_marseille","lat":43.337444,"lon":5.374475,"is_reserved":false,"is_disabled":true,"rental_uris":{"android":"levelo://app?vid=d6609b4f-333b-43c1-9ebe-8726f5e76e88","ios":"levelo://app?vid=d6609b4f-333b-43c1-9ebe-8726f5e76e88"},"vehicle_type_id":"4","last_reported":1750695221,"current_range_meters":0,"station_id":"","pricing_plan_id":"cebpf4jnsgd1na2vs0mg"},{"bike_id":"88ae5b64-1dbd-48a9-b30e-c1d98d52e5a6","system_id":"levelo_inurba_marseille","lat":43.28073,"lon":5.40783,"is_reserved":false,"is_disabled":true,"rental_uris":{"android":"levelo://app?vid=88ae5b64-1dbd-48a9-b30e-c1d98d52e5a6","ios":"levelo://app?vid=88ae5b64-1dbd-48a9-b30e-c1d98d52e5a6"},"vehicle_type_id":"4","last_reported":1750695221,"current_range_meters":0,"station_id":"","pricing_plan_id":"cebpf4jnsgd1na2vs0mg"},{"bike_id":"99c5813d-660e-4826-8197-aeb2710801e5","system_id":"levelo_inurba_marseille","lat":43.29987,"lon":5.37572,"is_reserved":false,"is_disabled":true,"rental_uris":{"android":"levelo://app?vid=99c5813d-660e-4826-8197-aeb2710801e5","ios":"levelo://app?vid=99c5813d-660e-4826-8197-aeb2710801e5"},"vehicle_type_id":"4","last_reported":1750695221,"current_range_meters":0,"station_id":"","pricing_plan_id":"cebpf4jnsgd1na2vs0mg"},{"bike_id":"0c86cdad-b64a-47bf-ba91-5b398064181c","system_id":"levelo_inurba_marseille","lat":43.38411,"lon":5.35853,"is_reserved":false,"is_disabled":true,"rental_uris":{"android":"levelo://app?vid=0c86cdad-b64a-47bf-ba91-5b398064181c","ios":"levelo://app?vid=0c86cdad-b64a-47bf-ba91-5b398064181c"},"vehicle_type_id":"4","last_reported":1750695221,"current_range_meters":0,"station_id":"","pricing_plan_id":"cebpf4jnsgd1na2vs0mg"},{"bike_id":"864876d2-2c4b-40c5-9f79-10a6fc4a121b","system_id":"levelo_inurba_marseille","lat":43.29629,"lon":5.37738,"is_reserved":false,"is_disabled":true,"rental_uris":{"android":"levelo://app?vid=864876d2-2c4b-40c5-9f79-10a6fc4a121b","ios":"levelo://app?vid=864876d2-2c4b-40c5-9f79-10a6fc4a121b"},"vehicle_type_id":"4","last_reported":1750695221,"current_range_meters":0,"station_id":"ce4bgi92rcd13ifvqb90","pricing_plan_id":"cebpf4jnsgd1na2vs0mg"},{"bike_id":"eb2d484d-0677-43f7-a6e4-0674a96dd30d","system_id":"levelo_inurba_marseille","lat":43.27621,"lon":5.36108,"is_reserved":false,"is_disabled":true,"rental_uris":{"android":"levelo://app?vid=eb2d484d-0677-43f7-a6e4-0674a96dd30d","ios":"levelo://app?vid=eb2d484d-0677-43f7-a6e4-0674a96dd30d"},"vehicle_type_id":"4","last_reported":1750695221,"current_range_meters":0,"station_id":"ce4bgj92rcd13ifvqbe0","pricing_plan_id":"cebpf4jnsgd1na2vs0mg"},{"bike_id":"b8a6717c-ff2c-4421-b3b1-ad24c8872e74","system_id":"levelo_inurba_marseille","lat":43.29367,"lon":5.37846,"is_reserved":false,"is_disabled":true,"rental_uris":{"android":"levelo://app?vid=b8a6717c-ff2c-4421-b3b1-ad24c8872e74","ios":"levelo://app?vid=b8a6717c-ff2c-4421-b3b1-ad24c8872e74"},"vehicle_type_id":"4","last_reported":1750695221,"current_range_meters":0,"station_id":"ce4bgjh2rcd13ifvqbf0","pricing_plan_id":"cebpf4jnsgd1na2vs0mg"},{"bike_id":"5ba43198-0f74-499c-940d-34d450b5dd18","system_id":"levelo_inurba_marseille","lat":43.29257,"lon":5.38441,"is_reserved":false,"is_disabled":true,"rental_uris":{"android":"levelo://app?vid=5ba43198-0f74-499c-940d-34d450b5dd18","ios":"levelo://app?vid=5ba43198-0f74-499c-940d-34d450b5dd18"},"vehicle_type_id":"4","last_reported":1750695221,"current_range_meters":0,"station_id":"ce4bh692rcd13ifvqea0","pricing_plan_id":"cebpf4jnsgd1na2vs0mg"},{"bike_id":"08fa7e5a-99f4-43f8-88e1-10b93bf85a5f","system_id":"levelo_inurba_marseille","lat":43.27895,"lon":5.38012,"is_reserved":false,"is_disabled":true,"rental_uris":{"android":"levelo://app?vid=08fa7e5a-99f4-43f8-88e1-10b93bf85a5f","ios":"levelo://app?vid=08fa7e5a-99f4-43f8-88e1-10b93bf85a5f"},"vehicle_type_id":"4","last_reported":1750695221,"current_range_meters":0,"station_id":"ce4bhf92rcd13ifvqf50","pricing_plan_id":"cebpf4jnsgd1na2vs0mg"},{"bike_id":"c092e169-3acd-4b1e-ae2d-ce506f2c5ed6","system_id":"levelo_inurba_marseille","lat":43.23182,"lon":5.39991,"is_reserved":false,"is_disabled":true,"rental_uris":{"android":"levelo://app?vid=c092e169-3acd-4b1e-ae2d-ce506f2c5ed6","ios":"levelo://app?vid=c092e169-3acd-4b1e-ae2d-ce506f2c5ed6"},"vehicle_type_id":"4","last_reported":1750695221,"current_range_meters":0,"station_id":"ce4bhn12rcd13ifvqgqg","pricing_plan_id":"cebpf4jnsgd1na2vs0mg"},{"bike_id":"b7d431d0-f6fb-4e17-8037-c2a4877dd692","system_id":"levelo_inurba_marseille","lat":43.27938,"lon":5.41045,"is_reserved":false,"is_disabled":true,"rental_uris":{"android":"levelo://app?vid=b7d431d0-f6fb-4e17-8037-c2a4877dd692","ios":"levelo://app?vid=b7d431d0-f6fb-4e17-8037-c2a4877dd692"},"vehicle_type_id":"4","last_reported":1750695221,"current_range_meters":0,"station_id":"ce4bhnp2rcd13ifvqh0g","pricing_plan_id":"cebpf4jnsgd1na2vs0mg"},{"bike_id":"9620012a-d6a0-497c-8fcd-781d3dde8f26","system_id":"levelo_inurba_marseille","lat":43.30374,"lon":5.4248,"is_reserved":false,"is_disabled":true,"rental_uris":{"android":"levelo://app?vid=9620012a-d6a0-497c-8fcd-781d3dde8f26","ios":"levelo://app?vid=9620012a-d6a0-497c-8fcd-781d3dde8f26"},"vehicle_type_id":"4","last_reported":1750695221,"current_range_meters":0,"station_id":"ce4bhoh2rcd13ifvqh6g","pricing_plan_id":"cebpf4jnsgd1na2vs0mg"},{"bike_id":"c97d875c-093c-4a18-88bd-0f2c53778776","system_id":"levelo_inurba_marseille","lat":43.303947,"lon":5.409903,"is_reserved":false,"is_disabled":true,"rental_uris":{"android":"levelo://app?vid=c97d875c-093c-4a18-88bd-0f2c53778776","ios":"levelo://app?vid=c97d875c-093c-4a18-88bd-0f2c53778776"},"vehicle_type_id":"4","last_reported":1750695221,"current_range_meters":0,"station_id":"ce4bhop2rcd13ifvqh8g","pricing_plan_id":"cebpf4jnsgd1na2vs0mg"},{"bike_id":"9fd65c04-16fd-42f8-add8-09029514eb32","system_id":"levelo_inurba_marseille","lat":43.329934,"lon":5.390874,"is_reserved":false,"is_disabled":true,"rental_uris":{"android":"levelo://app?vid=9fd65c04-16fd-42f8-add8-09029514eb32","ios":"levelo://app?vid=9fd65c04-16fd-42f8-add8-09029514eb32"},"vehicle_type_id":"4","last_reported":1750695221,"current_range_meters":0,"station_id":"ce4bhr92rcd13ifvqhrg","pricing_plan_id":"cebpf4jnsgd1na2vs0mg"},{"bike_id":"9885a4dc-7032-4ca1-ab77-ed1279451834","system_id":"levelo_inurba_marseille","lat":43.28607,"lon":5.37066,"is_reserved":false,"is_disabled":true,"rental_uris":{"android":"levelo://app?vid=9885a4dc-7032-4ca1-ab77-ed1279451834","ios":"levelo://app?vid=9885a4dc-7032-4ca1-ab77-ed1279451834"},"vehicle_type_id":"4","last_reported":1750695221,"current_range_meters":0,"station_id":"ce4bht12rcd13ifvqi60","pricing_plan_id":"cebpf4jnsgd1na2vs0mg"},{"bike_id":"e33d6114-e768-4962-ac07-ecceca34b693","system_id":"levelo_inurba_marseille","lat":43.25477,"lon":5.401123,"is_reserved":false,"is_disabled":true,"rental_uris":{"android":"levelo://app?vid=e33d6114-e768-4962-ac07-ecceca34b693","ios":"levelo://app?vid=e33d6114-e768-4962-ac07-ecceca34b693"},"vehicle_type_id":"4","last_reported":1750695221,"current_range_meters":400,"station_id":"","pricing_plan_id":"cebpf4jnsgd1na2vs0mg"},{"bike_id":"1aa82fab-e7c6-414d-853f-60c8dc3c72ae","system_id":"levelo_inurba_marseille","lat":43.2962,"lon":5.37165,"is_reserved":false,"is_disabled":true,"rental_uris":{"android":"levelo://app?vid=1aa82fab-e7c6-414d-853f-60c8dc3c72ae","ios":"levelo://app?vid=1aa82fab-e7c6-414d-853f-60c8dc3c72ae"},"vehicle_type_id":"4","last_reported":1750695221,"current_range_meters":400,"station_id":"ce4bgnh2rcd13ifvqc0g","pricing_plan_id":"cebpf4jnsgd1na2vs0mg"},{"bike_id":"17ae184c-83d0-456b-8826-799b2caa8c08","system_id":"levelo_inurba_marseille","lat":43.30533,"lon":5.36512,"is_reserved":false,"is_disabled":true,"rental_uris":{"android":"levelo://app?vid=17ae184c-83d0-456b-8826-799b2caa8c08","ios":"levelo://app?vid=17ae184c-83d0-456b-8826-799b2caa8c08"},"vehicle_type_id":"4","last_reported":1750695221,"current_range_meters":400,"station_id":"ce4bgs12rcd13ifvqcag","pricing_plan_id":"cebpf4jnsgd1na2vs0mg"},{"bike_id":"3b61ef95-7ddb-402a-a451-538a54e74d2e","system_id":"levelo_inurba_marseille","lat":43.30942,"lon":5.40143,"is_reserved":false,"is_disabled":true,"rental_uris":{"android":"levelo://app?vid=3b61ef95-7ddb-402a-a451-538a54e74d2e","ios":"levelo://app?vid=3b61ef95-7ddb-402a-a451-538a54e74d2e"},"vehicle_type_id":"4","last_reported":1750695221,"current_range_meters":400,"station_id":"ce4bgvp2rcd13ifvqct0","pricing_plan_id":"cebpf4jnsgd1na2vs0mg"},{"bike_id":"b4f6b232-8346-46d3-a6c2-2dbe6b7e0b2e","system_id":"levelo_inurba_marseille","lat":43.2721,"lon":5.39176,"is_reserved":false,"is_disabled":true,"rental_uris":{"android":"levelo://app?vid=b4f6b232-8346-46d3-a6c2-2dbe6b7e0b2e","ios":"levelo://app?vid=b4f6b232-8346-46d3-a6c2-2dbe6b7e0b2e"},"vehicle_type_id":"4","last_reported":1750695221,"current_range_meters":400,"station_id":"ce4bhhp2rcd13ifvqfm0","pricing_plan_id":"cebpf4jnsgd1na2vs0mg"},{"bike_id":"18cc39a9-091c-4b55-8966-336dd008acc5","system_id":"levelo_inurba_marseille","lat":43.31703,"lon":5.37739,"is_reserved":false,"is_disabled":true,"rental_uris":{"android":"levelo://app?vid=18cc39a9-091c-4b55-8966-336dd008acc5","ios":"levelo://app?vid=18cc39a9-091c-4b55-8966-336dd008acc5"},"vehicle_type_id":"4","last_reported":1750695221,"current_range_meters":800,"station_id":"ce4bgth2rcd13ifvqch0","pricing_plan_id":"cebpf4jnsgd1na2vs0mg"},{"bike_id":"521aef3c-cb0f-4862-8640-c2ad32f906a5","system_id":"levelo_inurba_marseille","lat":43.30396,"lon":5.41313,"is_reserved":false,"is_disabled":true,"rental_uris":{"android":"levelo://app?vid=521aef3c-cb0f-4862-8640-c2ad32f906a5","ios":"levelo://app?vid=521aef3c-cb0f-4862-8640-c2ad32f906a5"},"vehicle_type_id":"4","last_reported":1750695221,"current_range_meters":800,"station_id":"ce4bhop2rcd13ifvqh8g","pricing_plan_id":"cebpf4jnsgd1na2vs0mg"},{"bike_id":"08fa03b5-d9d6-4e04-bbd4-654303aeae57","system_id":"levelo_inurba_marseille","lat":43.30302,"lon":5.39703,"is_reserved":false,"is_disabled":true,"rental_uris":{"android":"levelo://app?vid=08fa03b5-d9d6-4e04-bbd4-654303aeae57","ios":"levelo://app?vid=08fa03b5-d9d6-4e04-bbd4-654303aeae57"},"vehicle_type_id":"4","last_reported":1750695221,"current_range_meters":1200,"station_id":"","pricing_plan_id":"cebpf4jnsgd1na2vs0mg"},{"bike_id":"338663c6-d299-476b-8cdd-5f920db3329e","system_id":"levelo_inurba_marseille","lat":43.30933,"lon":5.40143,"is_reserved":false,"is_disabled":true,"rental_uris":{"android":"levelo://app?vid=338663c6-d299-476b-8cdd-5f920db3329e","ios":"levelo://app?vid=338663c6-d299-476b-8cdd-5f920db3329e"},"vehicle_type_id":"4","last_reported":1750695221,"current_range_meters":1200,"station_id":"ce4bgvp2rcd13ifvqct0","pricing_plan_id":"cebpf4jnsgd1na2vs0mg"},{"bike_id":"786bcaf7-aaed-414c-91e1-724c4d825040","system_id":"levelo_inurba_marseille","lat":43.31326,"lon":5.39712,"is_reserved":false,"is_disabled":true,"rental_uris":{"android":"levelo://app?vid=786bcaf7-aaed-414c-91e1-724c4d825040","ios":"levelo://app?vid=786bcaf7-aaed-414c-91e1-724c4d825040"},"vehicle_type_id":"4","last_reported":1750695221,"current_range_meters":1200,"station_id":"ce4bgvp2rcd13ifvqcu0","pricing_plan_id":"cebpf4jnsgd1na2vs0mg"},{"bike_id":"da47b0ea-b339-4596-a6cc-ed61fbdcb601","system_id":"levelo_inurba_marseille","lat":43.30096,"lon":5.39072,"is_reserved":false,"is_disabled":false,"rental_uris":{"android":"levelo://app?vid=da47b0ea-b339-4596-a6cc-ed61fbdcb601","ios":"levelo://app?vid=da47b0ea-b339-4596-a6cc-ed61fbdcb601"},"vehicle_type_id":"4","last_reported":1750695221,"current_range_meters":1200,"station_id":"ce4bh192rcd13ifvqdb0","pricing_plan_id":"cebpf4jnsgd1na2vs0mg"},{"bike_id":"6d0a141f-2c0f-45d4-8e72-ca8fec77eb36","system_id":"levelo_inurba_marseille","lat":43.27432,"lon":5.39422,"is_reserved":false,"is_disabled":true,"rental_uris":{"android":"levelo://app?vid=6d0a141f-2c0f-45d4-8e72-ca8fec77eb36","ios":"levelo://app?vid=6d0a141f-2c0f-45d4-8e72-ca8fec77eb36"},"vehicle_type_id":"4","last_reported":1750695221,"current_range_meters":1200,"station_id":"ce4bhdp2rcd13ifvqf20","pricing_plan_id":"cebpf4jnsgd1na2vs0mg"},{"bike_id":"65f2b875-4f3e-402f-a722-e8d4fe698df1","system_id":"levelo_inurba_marseille","lat":43.27429,"lon":5.39414,"is_reserved":false,"is_disabled":true,"rental_uris":{"android":"levelo://app?vid=65f2b875-4f3e-402f-a722-e8d4fe698df1","ios":"levelo://app?vid=65f2b875-4f3e-402f-a722-e8d4fe698df1"},"vehicle_type_id":"4","last_reported":1750695221,"current_range_meters":1200,"station_id":"ce4bhdp2rcd13ifvqf20","pricing_plan_id":"cebpf4jnsgd1na2vs0mg"},{"bike_id":"cb64d32b-0e0d-42ae-ae4f-29cb9faa8f15","system_id":"levelo_inurba_marseille","lat":43.239618,"lon":5.366231,"is_reserved":false,"is_disabled":true,"rental_uris":{"android":"levelo://app?vid=cb64d32b-0e0d-42ae-ae4f-29cb9faa8f15","ios":"levelo://app?vid=cb64d32b-0e0d-42ae-ae4f-29cb9faa8f15"},"vehicle_type_id":"4","last_reported":1750695221,"current_range_meters":1200,"station_id":"ce4bhi12rcd13ifvqfp0","pricing_plan_id":"cebpf4jnsgd1na2vs0mg"},{"bike_id":"cf58c7f0-f4ce-46f3-bc88-34fdf7307bfe","system_id":"levelo_inurba_marseille","lat":43.24675,"lon":5.38164,"is_reserved":false,"is_disabled":true,"rental_uris":{"android":"levelo://app?vid=cf58c7f0-f4ce-46f3-bc88-34fdf7307bfe","ios":"levelo://app?vid=cf58c7f0-f4ce-46f3-bc88-34fdf7307bfe"},"vehicle_type_id":"4","last_reported":1750695221,"current_range_meters":1200,"station_id":"ce4bhih2rcd13ifvqfr0","pricing_plan_id":"cebpf4jnsgd1na2vs0mg"},{"bike_id":"6aea103c-0aab-4587-ac7a-c2d6d2307625","system_id":"levelo_inurba_marseille","lat":43.296,"lon":5.38099,"is_reserved":false,"is_disabled":true,"rental_uris":{"android":"levelo://app?vid=6aea103c-0aab-4587-ac7a-c2d6d2307625","ios":"levelo://app?vid=6aea103c-0aab-4587-ac7a-c2d6d2307625"},"vehicle_type_id":"4","last_reported":1750695221,"current_range_meters":1600,"station_id":"ce4bgl12rcd13ifvqbo0","pricing_plan_id":"cebpf4jnsgd1na2vs0mg"},{"bike_id":"640141b4-bd81-4ace-a83d-c94203a2f514","system_id":"levelo_inurba_marseille","lat":43.30242,"lon":5.40061,"is_reserved":false,"is_disabled":true,"rental_uris":{"android":"levelo://app?vid=640141b4-bd81-4ace-a83d-c94203a2f514","ios":"levelo://app?vid=640141b4-bd81-4ace-a83d-c94203a2f514"},"vehicle_type_id":"4","last_reported":1750695221,"current_range_meters":1600,"station_id":"ce4bgvh2rcd13ifvqcs0","pricing_plan_id":"cebpf4jnsgd1na2vs0mg"},{"bike_id":"3e3655a9-5c98-42f9-94b4-328ce6b703ab","system_id":"levelo_inurba_marseille","lat":43.29575,"lon":5.39965,"is_reserved":false,"is_disabled":true,"rental_uris":{"android":"levelo://app?vid=3e3655a9-5c98-42f9-94b4-328ce6b703ab","ios":"levelo://app?vid=3e3655a9-5c98-42f9-94b4-328ce6b703ab"},"vehicle_type_id":"4","last_reported":1750695221,"current_range_meters":1600,"station_id":"ce4bh312rcd13ifvqdj0","pricing_plan_id":"cebpf4jnsgd1na2vs0mg"},{"bike_id":"e389d272-24df-4f2f-a0c4-75fe22daae91","system_id":"levelo_inurba_marseille","lat":43.29889,"lon":5.38903,"is_reserved":false,"is_disabled":true,"rental_uris":{"android":"levelo://app?vid=e389d272-24df-4f2f-a0c4-75fe22daae91","ios":"levelo://app?vid=e389d272-24df-4f2f-a0c4-75fe22daae91"},"vehicle_type_id":"4","last_reported":1750695221,"current_range_meters":1600,"station_id":"ce4bh392rcd13ifvqdl0","pricing_plan_id":"cebpf4jnsgd1na2vs0mg"},{"bike_id":"8cbb3d6d-96d1-44b6-be3e-a5a6e9a12bd9","system_id":"levelo_inurba_marseille","lat":43.28667,"lon":5.38676,"is_reserved":false,"is_disabled":true,"rental_uris":{"android":"levelo://app?vid=8cbb3d6d-96d1-44b6-be3e-a5a6e9a12bd9","ios":"levelo://app?vid=8cbb3d6d-96d1-44b6-be3e-a5a6e9a12bd9"},"vehicle_type_id":"4","last_reported":1750695221,"current_range_meters":1600,"station_id":"ce4bh492rcd13ifvqdug","pricing_plan_id":"cebpf4jnsgd1na2vs0mg"},{"bike_id":"aed74840-f9df-4b24-a8f2-c9cc47d925ca","system_id":"levelo_inurba_marseille","lat":43.28219,"lon":5.39058,"is_reserved":false,"is_disabled":true,"rental_uris":{"android":"levelo://app?vid=aed74840-f9df-4b24-a8f2-c9cc47d925ca","ios":"levelo://app?vid=aed74840-f9df-4b24-a8f2-c9cc47d925ca"},"vehicle_type_id":"4","last_reported":1750695221,"current_range_meters":2000,"station_id":"","pricing_plan_id":"cebpf4jnsgd1na2vs0mg"},{"bike_id":"f56dcaae-d58a-4946-8310-365360b72aa2","system_id":"levelo_inurba_marseille","lat":43.3012,"lon":5.39857,"is_reserved":false,"is_disabled":false,"rental_uris":{"android":"levelo://app?vid=f56dcaae-d58a-4946-8310-365360b72aa2","ios":"levelo://app?vid=f56dcaae-d58a-4946-8310-365360b72aa2"},"vehicle_type_id":"4","last_reported":1750695221,"current_range_meters":2000,"station_id":"ce4bh0h2rcd13ifvqd40","pricing_plan_id":"cebpf4jnsgd1na2vs0mg"},{"bike_id":"91b04312-e1fb-446a-bb2c-6bc33fcd9f30","system_id":"levelo_inurba_marseille","lat":43.302159,"lon":5.394719,"is_reserved":false,"is_disabled":true,"rental_uris":{"android":"levelo://app?vid=91b04312-e1fb-446a-bb2c-6bc33fcd9f30","ios":"levelo://app?vid=91b04312-e1fb-446a-bb2c-6bc33fcd9f30"},"vehicle_type_id":"4","last_reported":1750695221,"current_range_meters":2000,"station_id":"ce4bh0p2rcd13ifvqd70","pricing_plan_id":"cebpf4jnsgd1na2vs0mg"},{"bike_id":"c7c396b0-10c2-4555-8e5d-fd8937dfc8ca","system_id":"levelo_inurba_marseille","lat":43.29259,"lon":5.38438,"is_reserved":false,"is_disabled":true,"rental_uris":{"android":"levelo://app?vid=c7c396b0-10c2-4555-8e5d-fd8937dfc8ca","ios":"levelo://app?vid=c7c396b0-10c2-4555-8e5d-fd8937dfc8ca"},"vehicle_type_id":"4","last_reported":1750695221,"current_range_meters":2000,"station_id":"ce4bh692rcd13ifvqea0","pricing_plan_id":"cebpf4jnsgd1na2vs0mg"},{"bike_id":"5f65d576-e2d6-4caf-bb42-8efdb742d3c6","system_id":"levelo_inurba_marseille","lat":43.30426,"lon":5.39748,"is_reserved":false,"is_disabled":false,"rental_uris":{"android":"levelo://app?vid=5f65d576-e2d6-4caf-bb42-8efdb742d3c6","ios":"levelo://app?vid=5f65d576-e2d6-4caf-bb42-8efdb742d3c6"},"vehicle_type_id":"4","last_reported":1750695221,"current_range_meters":2800,"station_id":"ce4bh092rcd13ifvqd20","pricing_plan_id":"cebpf4jnsgd1na2vs0mg"},{"bike_id":"0c88184a-d12e-4627-b32d-30f226370a06","system_id":"levelo_inurba_marseille","lat":43.29033,"lon":5.37576,"is_reserved":false,"is_disabled":false,"rental_uris":{"android":"levelo://app?vid=0c88184a-d12e-4627-b32d-30f226370a06","ios":"levelo://app?vid=0c88184a-d12e-4627-b32d-30f226370a06"},"vehicle_type_id":"4","last_reported":1750695221,"current_range_meters":2800,"station_id":"ce4bh692rcd13ifvqe90","pricing_plan_id":"cebpf4jnsgd1na2vs0mg"},{"bike_id":"56cee8ba-a14d-4a16-a542-c157cc2699a0","system_id":"levelo_inurba_marseille","lat":43.29004,"lon":5.35611,"is_reserved":false,"is_disabled":false,"rental_uris":{"android":"levelo://app?vid=56cee8ba-a14d-4a16-a542-c157cc2699a0","ios":"levelo://app?vid=56cee8ba-a14d-4a16-a542-c157cc2699a0"},"vehicle_type_id":"4","last_reported":1750695221,"current_range_meters":2800,"station_id":"ce4bhb92rcd13ifvqen0","pricing_plan_id":"cebpf4jnsgd1na2vs0mg"},{"bike_id":"a019f995-4982-4abd-8f76-37cac65ecc6a","system_id":"levelo_inurba_marseille","lat":43.25496,"lon":5.37646,"is_reserved":false,"is_disabled":false,"rental_uris":{"android":"levelo://app?vid=a019f995-4982-4abd-8f76-37cac65ecc6a","ios":"levelo://app?vid=a019f995-4982-4abd-8f76-37cac65ecc6a"},"vehicle_type_id":"4","last_reported":1750695221,"current_range_meters":2800,"station_id":"ce4bhh12rcd13ifvqff0","pricing_plan_id":"cebpf4jnsgd1na2vs0mg"},{"bike_id":"7fe7428f-0766-42d2-8ae6-5fe67c9d5206","system_id":"levelo_inurba_marseille","lat":43.307263,"lon":5.424583,"is_reserved":false,"is_disabled":false,"rental_uris":{"android":"levelo://app?vid=7fe7428f-0766-42d2-8ae6-5fe67c9d5206","ios":"levelo://app?vid=7fe7428f-0766-42d2-8ae6-5fe67c9d5206"},"vehicle_type_id":"4","last_reported":1750695221,"current_range_meters":2800,"station_id":"st_cvj6ca6bvosntc0bfgr0","pricing_plan_id":"cebpf4jnsgd1na2vs0mg"},{"bike_id":"d9984571-be4a-4a61-b034-addaa30aa360","system_id":"levelo_inurba_marseille","lat":43.27034,"lon":5.42328,"is_reserved":false,"is_disabled":false,"rental_uris":{"android":"levelo://app?vid=d9984571-be4a-4a61-b034-addaa30aa360","ios":"levelo://app?vid=d9984571-be4a-4a61-b034-addaa30aa360"},"vehicle_type_id":"4","last_reported":1750695221,"current_range_meters":3200,"station_id":"","pricing_plan_id":"cebpf4jnsgd1na2vs0mg"},{"bike_id":"a66f85b3-f692-41aa-98b6-3f97b9a3f52d","system_id":"levelo_inurba_marseille","lat":43.2281,"lon":5.34914,"is_reserved":false,"is_disabled":false,"rental_uris":{"android":"levelo://app?vid=a66f85b3-f692-41aa-98b6-3f97b9a3f52d","ios":"levelo://app?vid=a66f85b3-f692-41aa-98b6-3f97b9a3f52d"},"vehicle_type_id":"4","last_reported":1750695221,"current_range_meters":3200,"station_id":"","pricing_plan_id":"cebpf4jnsgd1na2vs0mg"},{"bike_id":"315d89df-fb8c-40e9-bd02-a7881e6f4613","system_id":"levelo_inurba_marseille","lat":43.29204,"lon":5.40095,"is_reserved":false,"is_disabled":false,"rental_uris":{"android":"levelo://app?vid=315d89df-fb8c-40e9-bd02-a7881e6f4613","ios":"levelo://app?vid=315d89df-fb8c-40e9-bd02-a7881e6f4613"},"vehicle_type_id":"4","last_reported":1750695221,"current_range_meters":3200,"station_id":"","pricing_plan_id":"cebpf4jnsgd1na2vs0mg"},{"bike_id":"7733c00b-a3a9-4ac1-aa3e-325085b96bfd","system_id":"levelo_inurba_marseille","lat":43.29302,"lon":5.37452,"is_reserved":false,"is_disabled":false,"rental_uris":{"android":"levelo://app?vid=7733c00b-a3a9-4ac1-aa3e-325085b96bfd","ios":"levelo://app?vid=7733c00b-a3a9-4ac1-aa3e-325085b96bfd"},"vehicle_type_id":"4","last_reported":1750695221,"current_range_meters":3200,"station_id":"ce4bgi12rcd13ifvqb70","pricing_plan_id":"cebpf4jnsgd1na2vs0mg"},{"bike_id":"c7c6c6b7-b20c-4d48-bc41-b94171ed63e9","system_id":"levelo_inurba_marseille","lat":43.299398,"lon":5.36555,"is_reserved":false,"is_disabled":false,"rental_uris":{"android":"levelo://app?vid=c7c6c6b7-b20c-4d48-bc41-b94171ed63e9","ios":"levelo://app?vid=c7c6c6b7-b20c-4d48-bc41-b94171ed63e9"},"vehicle_type_id":"4","last_reported":1750695221,"current_range_meters":3200,"station_id":"ce4bgrh2rcd13ifvqc8g","pricing_plan_id":"cebpf4jnsgd1na2vs0mg"},{"bike_id":"73076640-f7cc-4536-bd18-8e83d8ef7729","system_id":"levelo_inurba_marseille","lat":43.29868,"lon":5.38907,"is_reserved":false,"is_disabled":false,"rental_uris":{"android":"levelo://app?vid=73076640-f7cc-4536-bd18-8e83d8ef7729","ios":"levelo://app?vid=73076640-f7cc-4536-bd18-8e83d8ef7729"},"vehicle_type_id":"4","last_reported":1750695221,"current_range_meters":3200,"station_id":"ce4bh392rcd13ifvqdl0","pricing_plan_id":"cebpf4jnsgd1na2vs0mg"},{"bike_id":"803f6e7d-eccb-4a36-99ee-6d3d826c16da","system_id":"levelo_inurba_marseille","lat":43.28701,"lon":5.37365,"is_reserved":false,"is_disabled":false,"rental_uris":{"android":"levelo://app?vid=803f6e7d-eccb-4a36-99ee-6d3d826c16da","ios":"levelo://app?vid=803f6e7d-eccb-4a36-99ee-6d3d826c16da"},"vehicle_type_id":"4","last_reported":1750695221,"current_range_meters":3200,"station_id":"ce4bh3p2rcd13ifvqdq0","pricing_plan_id":"cebpf4jnsgd1na2vs0mg"},{"bike_id":"35c76a28-d00b-44d6-891d-941e54ac47dd","system_id":"levelo_inurba_marseille","lat":43.28926,"lon":5.38395,"is_reserved":false,"is_disabled":false,"rental_uris":{"android":"levelo://app?vid=35c76a28-d00b-44d6-891d-941e54ac47dd","ios":"levelo://app?vid=35c76a28-d00b-44d6-891d-941e54ac47dd"},"vehicle_type_id":"4","last_reported":1750695221,"current_range_meters":3200,"station_id":"ce4bh612rcd13ifvqe6g","pricing_plan_id":"cebpf4jnsgd1na2vs0mg"},{"bike_id":"917ba730-6511-436a-890d-bde8bffd70e9","system_id":"levelo_inurba_marseille","lat":43.28418,"lon":5.34986,"is_reserved":false,"is_disabled":false,"rental_uris":{"android":"levelo://app?vid=917ba730-6511-436a-890d-bde8bffd70e9","ios":"levelo://app?vid=917ba730-6511-436a-890d-bde8bffd70e9"},"vehicle_type_id":"4","last_reported":1750695221,"current_range_meters":3200,"station_id":"ce4bhbh2rcd13ifvqepg","pricing_plan_id":"cebpf4jnsgd1na2vs0mg"},{"bike_id":"3316a2de-5b89-4ab1-88a1-85f83ad335dc","system_id":"levelo_inurba_marseille","lat":43.32332,"lon":5.40618,"is_reserved":false,"is_disabled":false,"rental_uris":{"android":"levelo://app?vid=3316a2de-5b89-4ab1-88a1-85f83ad335dc","ios":"levelo://app?vid=3316a2de-5b89-4ab1-88a1-85f83ad335dc"},"vehicle_type_id":"4","last_reported":1750695221,"current_range_meters":3200,"station_id":"ce4bhq92rcd13ifvqhjg","pricing_plan_id":"cebpf4jnsgd1na2vs0mg"},{"bike_id":"9cb193d0-906b-4ac2-85c5-eea810b1d20f","system_id":"levelo_inurba_marseille","lat":43.29439,"lon":5.43212,"is_reserved":false,"is_disabled":false,"rental_uris":{"android":"levelo://app?vid=9cb193d0-906b-4ac2-85c5-eea810b1d20f","ios":"levelo://app?vid=9cb193d0-906b-4ac2-85c5-eea810b1d20f"},"vehicle_type_id":"4","last_reported":1750695221,"current_range_meters":3600,"station_id":"","pricing_plan_id":"cebpf4jnsgd1na2vs0mg"},{"bike_id":"0ccd24b7-588b-4acd-b1f4-59a71facf9e8","system_id":"levelo_inurba_marseille","lat":43.25319,"lon":5.40427,"is_reserved":false,"is_disabled":false,"rental_uris":{"android":"levelo://app?vid=0ccd24b7-588b-4acd-b1f4-59a71facf9e8","ios":"levelo://app?vid=0ccd24b7-588b-4acd-b1f4-59a71facf9e8"},"vehicle_type_id":"4","last_reported":1750695221,"current_range_meters":3600,"station_id":"","pricing_plan_id":"cebpf4jnsgd1na2vs0mg"},{"bike_id":"b7b8c8aa-1af3-4d36-b717-6d67edfb7a3b","system_id":"levelo_inurba_marseille","lat":43.28415,"lon":5.34978,"is_reserved":false,"is_disabled":false,"rental_uris":{"android":"levelo://app?vid=b7b8c8aa-1af3-4d36-b717-6d67edfb7a3b","ios":"levelo://app?vid=b7b8c8aa-1af3-4d36-b717-6d67edfb7a3b"},"vehicle_type_id":"4","last_reported":1750695221,"current_range_meters":3600,"station_id":"ce4bhbh2rcd13ifvqepg","pricing_plan_id":"cebpf4jnsgd1na2vs0mg"},{"bike_id":"cbbf71b5-6569-4e9b-ba90-3ac2da187ffd","system_id":"levelo_inurba_marseille","lat":43.28048,"lon":5.35092,"is_reserved":false,"is_disabled":false,"rental_uris":{"android":"levelo://app?vid=cbbf71b5-6569-4e9b-ba90-3ac2da187ffd","ios":"levelo://app?vid=cbbf71b5-6569-4e9b-ba90-3ac2da187ffd"},"vehicle_type_id":"4","last_reported":1750695221,"current_range_meters":4000,"station_id":"","pricing_plan_id":"cebpf4jnsgd1na2vs0mg"},{"bike_id":"0503e1d2-ec4f-4cb3-9ea6-e4f3eb558d3e","system_id":"levelo_inurba_marseille","lat":43.299237,"lon":5.369643,"is_reserved":false,"is_disabled":false,"rental_uris":{"android":"levelo://app?vid=0503e1d2-ec4f-4cb3-9ea6-e4f3eb558d3e","ios":"levelo://app?vid=0503e1d2-ec4f-4cb3-9ea6-e4f3eb558d3e"},"vehicle_type_id":"4","last_reported":1750695221,"current_range_meters":4000,"station_id":"","pricing_plan_id":"cebpf4jnsgd1na2vs0mg"},{"bike_id":"5a7650f7-21d0-4046-b9a8-c410dee74360","system_id":"levelo_inurba_marseille","lat":43.27993,"lon":5.41659,"is_reserved":false,"is_disabled":false,"rental_uris":{"android":"levelo://app?vid=5a7650f7-21d0-4046-b9a8-c410dee74360","ios":"levelo://app?vid=5a7650f7-21d0-4046-b9a8-c410dee74360"},"vehicle_type_id":"4","last_reported":1750695221,"current_range_meters":4000,"station_id":"ce4bho12rcd13ifvqh1g","pricing_plan_id":"cebpf4jnsgd1na2vs0mg"},{"bike_id":"3ec40639-fb55-4453-953d-5189d25c7bc0","system_id":"levelo_inurba_marseille","lat":43.32058,"lon":5.41543,"is_reserved":false,"is_disabled":false,"rental_uris":{"android":"levelo://app?vid=3ec40639-fb55-4453-953d-5189d25c7bc0","ios":"levelo://app?vid=3ec40639-fb55-4453-953d-5189d25c7bc0"},"vehicle_type_id":"4","last_reported":1750695221,"current_range_meters":4000,"station_id":"ce4bhq92rcd13ifvqhkg","pricing_plan_id":"cebpf4jnsgd1na2vs0mg"},{"bike_id":"c1549565-483b-476f-b74c-9bea9058ce2f","system_id":"levelo_inurba_marseille","lat":43.32286,"lon":5.38283,"is_reserved":false,"is_disabled":false,"rental_uris":{"android":"levelo://app?vid=c1549565-483b-476f-b74c-9bea9058ce2f","ios":"levelo://app?vid=c1549565-483b-476f-b74c-9bea9058ce2f"},"vehicle_type_id":"4","last_reported":1750695221,"current_range_meters":4000,"station_id":"ce4bhr12rcd13ifvqhqg","pricing_plan_id":"cebpf4jnsgd1na2vs0mg"},{"bike_id":"3d07ef76-af52-42e0-81f1-5f4963c9ee29","system_id":"levelo_inurba_marseille","lat":43.29523,"lon":5.43855,"is_reserved":false,"is_disabled":false,"rental_uris":{"android":"levelo://app?vid=3d07ef76-af52-42e0-81f1-5f4963c9ee29","ios":"levelo://app?vid=3d07ef76-af52-42e0-81f1-5f4963c9ee29"},"vehicle_type_id":"4","last_reported":1750695221,"current_range_meters":4400,"station_id":"","pricing_plan_id":"cebpf4jnsgd1na2vs0mg"},{"bike_id":"efc4b3aa-4b0c-437c-b4a3-5b23e664ddbd","system_id":"levelo_inurba_marseille","lat":43.25502,"lon":5.37651,"is_reserved":false,"is_disabled":false,"rental_uris":{"android":"levelo://app?vid=efc4b3aa-4b0c-437c-b4a3-5b23e664ddbd","ios":"levelo://app?vid=efc4b3aa-4b0c-437c-b4a3-5b23e664ddbd"},"vehicle_type_id":"4","last_reported":1750695221,"current_range_meters":4400,"station_id":"ce4bhh12rcd13ifvqff0","pricing_plan_id":"cebpf4jnsgd1na2vs0mg"},{"bike_id":"29e479f7-8b4a-4d95-a43e-a2df2b2e5450","system_id":"levelo_inurba_marseille","lat":43.29896,"lon":5.43669,"is_reserved":false,"is_disabled":false,"rental_uris":{"android":"levelo://app?vid=29e479f7-8b4a-4d95-a43e-a2df2b2e5450","ios":"levelo://app?vid=29e479f7-8b4a-4d95-a43e-a2df2b2e5450"},"vehicle_type_id":"4","last_reported":1750695221,"current_range_meters":4400,"station_id":"ce4bhpp2rcd13ifvqhfg","pricing_plan_id":"cebpf4jnsgd1na2vs0mg"},{"bike_id":"efa9657d-3ee1-47d1-a78c-8258bde3487a","system_id":"levelo_inurba_marseille","lat":43.269367,"lon":5.386047,"is_reserved":false,"is_disabled":false,"rental_uris":{"android":"levelo://app?vid=efa9657d-3ee1-47d1-a78c-8258bde3487a","ios":"levelo://app?vid=efa9657d-3ee1-47d1-a78c-8258bde3487a"},"vehicle_type_id":"4","last_reported":1750695221,"current_range_meters":4800,"station_id":"ce4bhh92rcd13ifvqfh0","pricing_plan_id":"cebpf4jnsgd1na2vs0mg"},{"bike_id":"797e96ee-7ea4-4208-85ec-7f76149d0c44","system_id":"levelo_inurba_marseille","lat":43.298966,"lon":5.436644,"is_reserved":false,"is_disabled":false,"rental_uris":{"android":"levelo://app?vid=797e96ee-7ea4-4208-85ec-7f76149d0c44","ios":"levelo://app?vid=797e96ee-7ea4-4208-85ec-7f76149d0c44"},"vehicle_type_id":"4","last_reported":1750695221,"current_range_meters":4800,"station_id":"ce4bhpp2rcd13ifvqhfg","pricing_plan_id":"cebpf4jnsgd1na2vs0mg"},{"bike_id":"b7036bc1-c072-4f36-9c66-21ff695540f4","system_id":"levelo_inurba_marseille","lat":43.246848,"lon":5.394363,"is_reserved":false,"is_disabled":false,"rental_uris":{"android":"levelo://app?vid=b7036bc1-c072-4f36-9c66-21ff695540f4","ios":"levelo://app?vid=b7036bc1-c072-4f36-9c66-21ff695540f4"},"vehicle_type_id":"4","last_reported":1750695221,"current_range_meters":5600,"station_id":"","pricing_plan_id":"cebpf4jnsgd1na2vs0mg"},{"bike_id":"6416c2e4-cafb-4338-8c91-fc22f5ec1b0b","system_id":"levelo_inurba_marseille","lat":43.24805,"lon":5.37457,"is_reserved":false,"is_disabled":false,"rental_uris":{"android":"levelo://app?vid=6416c2e4-cafb-4338-8c91-fc22f5ec1b0b","ios":"levelo://app?vid=6416c2e4-cafb-4338-8c91-fc22f5ec1b0b"},"vehicle_type_id":"4","last_reported":1750695221,"current_range_meters":5600,"station_id":"ce4bhgh2rcd13ifvqfb0","pricing_plan_id":"cebpf4jnsgd1na2vs0mg"},{"bike_id":"ac1430aa-22c5-4395-9022-3eebbe88178a","system_id":"levelo_inurba_marseille","lat":43.28371,"lon":5.34974,"is_reserved":false,"is_disabled":false,"rental_uris":{"android":"levelo://app?vid=ac1430aa-22c5-4395-9022-3eebbe88178a","ios":"levelo://app?vid=ac1430aa-22c5-4395-9022-3eebbe88178a"},"vehicle_type_id":"4","last_reported":1750695221,"current_range_meters":6000,"station_id":"","pricing_plan_id":"cebpf4jnsgd1na2vs0mg"},{"bike_id":"e00116b5-29ba-45d1-b032-69dbad09bbba","system_id":"levelo_inurba_marseille","lat":43.299005,"lon":5.436633,"is_reserved":false,"is_disabled":false,"rental_uris":{"android":"levelo://app?vid=e00116b5-29ba-45d1-b032-69dbad09bbba","ios":"levelo://app?vid=e00116b5-29ba-45d1-b032-69dbad09bbba"},"vehicle_type_id":"4","last_reported":1750695221,"current_range_meters":6000,"station_id":"ce4bhpp2rcd13ifvqhfg","pricing_plan_id":"cebpf4jnsgd1na2vs0mg"},{"bike_id":"e672c7ab-9539-485a-b360-1e12bbab178b","system_id":"levelo_inurba_marseille","lat":43.30343,"lon":5.43495,"is_reserved":false,"is_disabled":false,"rental_uris":{"android":"levelo://app?vid=e672c7ab-9539-485a-b360-1e12bbab178b","ios":"levelo://app?vid=e672c7ab-9539-485a-b360-1e12bbab178b"},"vehicle_type_id":"4","last_reported":1750695221,"current_range_meters":6400,"station_id":"","pricing_plan_id":"cebpf4jnsgd1na2vs0mg"},{"bike_id":"0f7ffa36-ef7c-4ef6-9861-b6f03fbbaab7","system_id":"levelo_inurba_marseille","lat":43.28409,"lon":5.35,"is_reserved":false,"is_disabled":false,"rental_uris":{"android":"levelo://app?vid=0f7ffa36-ef7c-4ef6-9861-b6f03fbbaab7","ios":"levelo://app?vid=0f7ffa36-ef7c-4ef6-9861-b6f03fbbaab7"},"vehicle_type_id":"4","last_reported":1750695221,"current_range_meters":6400,"station_id":"ce4bhbh2rcd13ifvqepg","pricing_plan_id":"cebpf4jnsgd1na2vs0mg"},{"bike_id":"a9ecf3bc-55f2-4f21-993e-dbc85feacd44","system_id":"levelo_inurba_marseille","lat":43.2655,"lon":5.37285,"is_reserved":false,"is_disabled":false,"rental_uris":{"android":"levelo://app?vid=a9ecf3bc-55f2-4f21-993e-dbc85feacd44","ios":"levelo://app?vid=a9ecf3bc-55f2-4f21-993e-dbc85feacd44"},"vehicle_type_id":"4","last_reported":1750695221,"current_range_meters":6400,"station_id":"ce4bhg12rcd13ifvqf70","pricing_plan_id":"cebpf4jnsgd1na2vs0mg"},{"bike_id":"cea4ad69-4830-4d74-ba70-ec4faa9c8cf2","system_id":"levelo_inurba_marseille","lat":43.26029,"lon":5.37545,"is_reserved":false,"is_disabled":false,"rental_uris":{"android":"levelo://app?vid=cea4ad69-4830-4d74-ba70-ec4faa9c8cf2","ios":"levelo://app?vid=cea4ad69-4830-4d74-ba70-ec4faa9c8cf2"},"vehicle_type_id":"4","last_reported":1750695221,"current_range_meters":6400,"station_id":"ce4bhgh2rcd13ifvqfa0","pricing_plan_id":"cebpf4jnsgd1na2vs0mg"},{"bike_id":"2732cc42-69c3-447e-a99b-baedc39a619e","system_id":"levelo_inurba_marseille","lat":43.32343,"lon":5.40604,"is_reserved":false,"is_disabled":false,"rental_uris":{"android":"levelo://app?vid=2732cc42-69c3-447e-a99b-baedc39a619e","ios":"levelo://app?vid=2732cc42-69c3-447e-a99b-baedc39a619e"},"vehicle_type_id":"4","last_reported":1750695221,"current_range_meters":6400,"station_id":"ce4bhq92rcd13ifvqhjg","pricing_plan_id":"cebpf4jnsgd1na2vs0mg"},{"bike_id":"2918bcfc-3ae7-4e90-b1ca-239f9a284a9c","system_id":"levelo_inurba_marseille","lat":43.305269,"lon":5.393766,"is_reserved":false,"is_disabled":false,"rental_uris":{"android":"levelo://app?vid=2918bcfc-3ae7-4e90-b1ca-239f9a284a9c","ios":"levelo://app?vid=2918bcfc-3ae7-4e90-b1ca-239f9a284a9c"},"vehicle_type_id":"4","last_reported":1750695221,"current_range_meters":6800,"station_id":"","pricing_plan_id":"cebpf4jnsgd1na2vs0mg"},{"bike_id":"2f20e2c6-bc30-42d2-9f93-01aaacad1eb3","system_id":"levelo_inurba_marseille","lat":43.27661,"lon":5.4178,"is_reserved":false,"is_disabled":false,"rental_uris":{"android":"levelo://app?vid=2f20e2c6-bc30-42d2-9f93-01aaacad1eb3","ios":"levelo://app?vid=2f20e2c6-bc30-42d2-9f93-01aaacad1eb3"},"vehicle_type_id":"4","last_reported":1750695221,"current_range_meters":6800,"station_id":"","pricing_plan_id":"cebpf4jnsgd1na2vs0mg"},{"bike_id":"3b6919c2-07c8-4a24-82b1-82f182cff1b0","system_id":"levelo_inurba_marseille","lat":43.276184,"lon":5.36109,"is_reserved":false,"is_disabled":false,"rental_uris":{"android":"levelo://app?vid=3b6919c2-07c8-4a24-82b1-82f182cff1b0","ios":"levelo://app?vid=3b6919c2-07c8-4a24-82b1-82f182cff1b0"},"vehicle_type_id":"4","last_reported":1750695221,"current_range_meters":6800,"station_id":"ce4bgj92rcd13ifvqbe0","pricing_plan_id":"cebpf4jnsgd1na2vs0mg"},{"bike_id":"cfd7dc6a-c850-40a6-b665-8540969f83d7","system_id":"levelo_inurba_marseille","lat":43.24807,"lon":5.37456,"is_reserved":false,"is_disabled":false,"rental_uris":{"android":"levelo://app?vid=cfd7dc6a-c850-40a6-b665-8540969f83d7","ios":"levelo://app?vid=cfd7dc6a-c850-40a6-b665-8540969f83d7"},"vehicle_type_id":"4","last_reported":1750695221,"current_range_meters":6800,"station_id":"ce4bhgh2rcd13ifvqfb0","pricing_plan_id":"cebpf4jnsgd1na2vs0mg"},{"bike_id":"029b8d3d-e36e-4d25-83b7-45adea928f6b","system_id":"levelo_inurba_marseille","lat":43.25723,"lon":5.41105,"is_reserved":false,"is_disabled":false,"rental_uris":{"android":"levelo://app?vid=029b8d3d-e36e-4d25-83b7-45adea928f6b","ios":"levelo://app?vid=029b8d3d-e36e-4d25-83b7-45adea928f6b"},"vehicle_type_id":"4","last_reported":1750695221,"current_range_meters":6800,"station_id":"ce4bhkp2rcd13ifvqgd0","pricing_plan_id":"cebpf4jnsgd1na2vs0mg"},{"bike_id":"a160023e-4db7-47ee-b81c-320748e28009","system_id":"levelo_inurba_marseille","lat":43.28151,"lon":5.42639,"is_reserved":false,"is_disabled":false,"rental_uris":{"android":"levelo://app?vid=a160023e-4db7-47ee-b81c-320748e28009","ios":"levelo://app?vid=a160023e-4db7-47ee-b81c-320748e28009"},"vehicle_type_id":"4","last_reported":1750695221,"current_range_meters":6800,"station_id":"ce4bhnh2rcd13ifvqgug","pricing_plan_id":"cebpf4jnsgd1na2vs0mg"},{"bike_id":"6f3bf653-1233-4103-a0ae-98654401105e","system_id":"levelo_inurba_marseille","lat":43.32369,"lon":5.38884,"is_reserved":false,"is_disabled":false,"rental_uris":{"android":"levelo://app?vid=6f3bf653-1233-4103-a0ae-98654401105e","ios":"levelo://app?vid=6f3bf653-1233-4103-a0ae-98654401105e"},"vehicle_type_id":"4","last_reported":1750695221,"current_range_meters":6800,"station_id":"ce4bhqp2rcd13ifvqhog","pricing_plan_id":"cebpf4jnsgd1na2vs0mg"},{"bike_id":"ca8687bf-dfce-4b5c-b0a9-6d631d7031ca","system_id":"levelo_inurba_marseille","lat":43.29631,"lon":5.40596,"is_reserved":false,"is_disabled":false,"rental_uris":{"android":"levelo://app?vid=ca8687bf-dfce-4b5c-b0a9-6d631d7031ca","ios":"levelo://app?vid=ca8687bf-dfce-4b5c-b0a9-6d631d7031ca"},"vehicle_type_id":"4","last_reported":1750695221,"current_range_meters":7200,"station_id":"ce4bh0h2rcd13ifvqd60","pricing_plan_id":"cebpf4jnsgd1na2vs0mg"},{"bike_id":"62b1b560-5c29-472e-8280-496a14b020c8","system_id":"levelo_inurba_marseille","lat":43.291971,"lon":5.358047,"is_reserved":false,"is_disabled":false,"rental_uris":{"android":"levelo://app?vid=62b1b560-5c29-472e-8280-496a14b020c8","ios":"levelo://app?vid=62b1b560-5c29-472e-8280-496a14b020c8"},"vehicle_type_id":"4","last_reported":1750695221,"current_range_meters":7200,"station_id":"ce4bhb12rcd13ifvqel0","pricing_plan_id":"cebpf4jnsgd1na2vs0mg"},{"bike_id":"7ae0439a-55a5-4eda-a1b1-e99a3a0f9d2b","system_id":"levelo_inurba_marseille","lat":43.27373,"lon":5.36254,"is_reserved":false,"is_disabled":false,"rental_uris":{"android":"levelo://app?vid=7ae0439a-55a5-4eda-a1b1-e99a3a0f9d2b","ios":"levelo://app?vid=7ae0439a-55a5-4eda-a1b1-e99a3a0f9d2b"},"vehicle_type_id":"4","last_reported":1750695221,"current_range_meters":7200,"station_id":"ce4bhbh2rcd13ifvqeo0","pricing_plan_id":"cebpf4jnsgd1na2vs0mg"},{"bike_id":"186e0132-3539-48e1-a7de-e3ef9b5f8f24","system_id":"levelo_inurba_marseille","lat":43.28407,"lon":5.34993,"is_reserved":false,"is_disabled":false,"rental_uris":{"android":"levelo://app?vid=186e0132-3539-48e1-a7de-e3ef9b5f8f24","ios":"levelo://app?vid=186e0132-3539-48e1-a7de-e3ef9b5f8f24"},"vehicle_type_id":"4","last_reported":1750695221,"current_range_meters":7200,"station_id":"ce4bhbh2rcd13ifvqepg","pricing_plan_id":"cebpf4jnsgd1na2vs0mg"},{"bike_id":"ba90ae45-f133-453f-af48-1a612d8a4759","system_id":"levelo_inurba_marseille","lat":43.27947,"lon":5.41043,"is_reserved":false,"is_disabled":false,"rental_uris":{"android":"levelo://app?vid=ba90ae45-f133-453f-af48-1a612d8a4759","ios":"levelo://app?vid=ba90ae45-f133-453f-af48-1a612d8a4759"},"vehicle_type_id":"4","last_reported":1750695221,"current_range_meters":7200,"station_id":"ce4bhnp2rcd13ifvqh0g","pricing_plan_id":"cebpf4jnsgd1na2vs0mg"},{"bike_id":"5b4ce889-7d70-4792-92a1-1369f3cf95f5","system_id":"levelo_inurba_marseille","lat":43.239676,"lon":5.366267,"is_reserved":false,"is_disabled":false,"rental_uris":{"android":"levelo://app?vid=5b4ce889-7d70-4792-92a1-1369f3cf95f5","ios":"levelo://app?vid=5b4ce889-7d70-4792-92a1-1369f3cf95f5"},"vehicle_type_id":"4","last_reported":1750695221,"current_range_meters":8000,"station_id":"ce4bhi12rcd13ifvqfp0","pricing_plan_id":"cebpf4jnsgd1na2vs0mg"},{"bike_id":"a15dea6e-5180-4d61-a1e9-2f4a5a994078","system_id":"levelo_inurba_marseille","lat":43.24083,"lon":5.3775,"is_reserved":false,"is_disabled":false,"rental_uris":{"android":"levelo://app?vid=a15dea6e-5180-4d61-a1e9-2f4a5a994078","ios":"levelo://app?vid=a15dea6e-5180-4d61-a1e9-2f4a5a994078"},"vehicle_type_id":"4","last_reported":1750695221,"current_range_meters":8000,"station_id":"ce4bhnp2rcd13ifvqgvg","pricing_plan_id":"cebpf4jnsgd1na2vs0mg"},{"bike_id":"c5b0454e-0a23-446e-9c7a-166ef3f87dff","system_id":"levelo_inurba_marseille","lat":43.31712,"lon":5.43704,"is_reserved":false,"is_disabled":false,"rental_uris":{"android":"levelo://app?vid=c5b0454e-0a23-446e-9c7a-166ef3f87dff","ios":"levelo://app?vid=c5b0454e-0a23-446e-9c7a-166ef3f87dff"},"vehicle_type_id":"4","last_reported":1750695221,"current_range_meters":8000,"station_id":"ce4bhp92rcd13ifvqhcg","pricing_plan_id":"cebpf4jnsgd1na2vs0mg"},{"bike_id":"8c6de0c1-9eaf-4c18-8155-d956789067ae","system_id":"levelo_inurba_marseille","lat":43.27935,"lon":5.44267,"is_reserved":false,"is_disabled":false,"rental_uris":{"android":"levelo://app?vid=8c6de0c1-9eaf-4c18-8155-d956789067ae","ios":"levelo://app?vid=8c6de0c1-9eaf-4c18-8155-d956789067ae"},"vehicle_type_id":"4","last_reported":1750695221,"current_range_meters":8400,"station_id":"","pricing_plan_id":"cebpf4jnsgd1na2vs0mg"},{"bike_id":"a9e5e555-fdaf-49c0-b286-f0f2659b17d0","system_id":"levelo_inurba_marseille","lat":43.28316,"lon":5.43235,"is_reserved":false,"is_disabled":false,"rental_uris":{"android":"levelo://app?vid=a9e5e555-fdaf-49c0-b286-f0f2659b17d0","ios":"levelo://app?vid=a9e5e555-fdaf-49c0-b286-f0f2659b17d0"},"vehicle_type_id":"4","last_reported":1750695221,"current_range_meters":8400,"station_id":"","pricing_plan_id":"cebpf4jnsgd1na2vs0mg"},{"bike_id":"f66a6e34-c553-4ffc-a010-eca73da9f571","system_id":"levelo_inurba_marseille","lat":43.2803,"lon":5.39907,"is_reserved":false,"is_disabled":false,"rental_uris":{"android":"levelo://app?vid=f66a6e34-c553-4ffc-a010-eca73da9f571","ios":"levelo://app?vid=f66a6e34-c553-4ffc-a010-eca73da9f571"},"vehicle_type_id":"4","last_reported":1750695221,"current_range_meters":8400,"station_id":"","pricing_plan_id":"cebpf4jnsgd1na2vs0mg"},{"bike_id":"8d197929-9fd5-4312-a5f7-b6d7fc6475a8","system_id":"levelo_inurba_marseille","lat":43.23527,"lon":5.36009,"is_reserved":false,"is_disabled":false,"rental_uris":{"android":"levelo://app?vid=8d197929-9fd5-4312-a5f7-b6d7fc6475a8","ios":"levelo://app?vid=8d197929-9fd5-4312-a5f7-b6d7fc6475a8"},"vehicle_type_id":"4","last_reported":1750695221,"current_range_meters":8800,"station_id":"","pricing_plan_id":"cebpf4jnsgd1na2vs0mg"},{"bike_id":"d7c56714-1585-4954-976a-05b319c2a630","system_id":"levelo_inurba_marseille","lat":43.30793,"lon":5.37475,"is_reserved":false,"is_disabled":false,"rental_uris":{"android":"levelo://app?vid=d7c56714-1585-4954-976a-05b319c2a630","ios":"levelo://app?vid=d7c56714-1585-4954-976a-05b319c2a630"},"vehicle_type_id":"4","last_reported":1750695221,"current_range_meters":8800,"station_id":"","pricing_plan_id":"cebpf4jnsgd1na2vs0mg"},{"bike_id":"05e5180f-046a-4a6a-a0fa-a74392cb6ce6","system_id":"levelo_inurba_marseille","lat":43.27316,"lon":5.39077,"is_reserved":false,"is_disabled":false,"rental_uris":{"android":"levelo://app?vid=05e5180f-046a-4a6a-a0fa-a74392cb6ce6","ios":"levelo://app?vid=05e5180f-046a-4a6a-a0fa-a74392cb6ce6"},"vehicle_type_id":"4","last_reported":1750695221,"current_range_meters":8800,"station_id":"ce4bhgp2rcd13ifvqfe0","pricing_plan_id":"cebpf4jnsgd1na2vs0mg"},{"bike_id":"f10e38ce-c08a-4001-873a-ec3e8846285a","system_id":"levelo_inurba_marseille","lat":43.32959,"lon":5.38038,"is_reserved":false,"is_disabled":false,"rental_uris":{"android":"levelo://app?vid=f10e38ce-c08a-4001-873a-ec3e8846285a","ios":"levelo://app?vid=f10e38ce-c08a-4001-873a-ec3e8846285a"},"vehicle_type_id":"4","last_reported":1750695221,"current_range_meters":9200,"station_id":"","pricing_plan_id":"cebpf4jnsgd1na2vs0mg"},{"bike_id":"d8434632-e1e8-4cc5-a991-38941de11369","system_id":"levelo_inurba_marseille","lat":43.308072,"lon":5.381527,"is_reserved":false,"is_disabled":false,"rental_uris":{"android":"levelo://app?vid=d8434632-e1e8-4cc5-a991-38941de11369","ios":"levelo://app?vid=d8434632-e1e8-4cc5-a991-38941de11369"},"vehicle_type_id":"4","last_reported":1750695221,"current_range_meters":9200,"station_id":"ce4bgt12rcd13ifvqce0","pricing_plan_id":"cebpf4jnsgd1na2vs0mg"},{"bike_id":"b9e623cb-32da-4c3e-ba9f-1c7ee0fafaf9","system_id":"levelo_inurba_marseille","lat":43.29223,"lon":5.36066,"is_reserved":false,"is_disabled":false,"rental_uris":{"android":"levelo://app?vid=b9e623cb-32da-4c3e-ba9f-1c7ee0fafaf9","ios":"levelo://app?vid=b9e623cb-32da-4c3e-ba9f-1c7ee0fafaf9"},"vehicle_type_id":"4","last_reported":1750695221,"current_range_meters":9200,"station_id":"ce4bhbh2rcd13ifvqeqg","pricing_plan_id":"cebpf4jnsgd1na2vs0mg"},{"bike_id":"d0355270-d04c-4910-acd5-96415de64e67","system_id":"levelo_inurba_marseille","lat":43.337198,"lon":5.391923,"is_reserved":false,"is_disabled":false,"rental_uris":{"android":"levelo://app?vid=d0355270-d04c-4910-acd5-96415de64e67","ios":"levelo://app?vid=d0355270-d04c-4910-acd5-96415de64e67"},"vehicle_type_id":"4","last_reported":1750695221,"current_range_meters":9200,"station_id":"ce4bhr92rcd13ifvqhsg","pricing_plan_id":"cebpf4jnsgd1na2vs0mg"},{"bike_id":"008ac6e0-b1cf-4c53-9fc8-3bdb2303addb","system_id":"levelo_inurba_marseille","lat":43.29067,"lon":5.390448,"is_reserved":false,"is_disabled":false,"rental_uris":{"android":"levelo://app?vid=008ac6e0-b1cf-4c53-9fc8-3bdb2303addb","ios":"levelo://app?vid=008ac6e0-b1cf-4c53-9fc8-3bdb2303addb"},"vehicle_type_id":"4","last_reported":1750695221,"current_range_meters":9600,"station_id":"","pricing_plan_id":"cebpf4jnsgd1na2vs0mg"},{"bike_id":"8257b643-518f-430e-a44e-b8097996bffd","system_id":"levelo_inurba_marseille","lat":43.30647,"lon":5.40102,"is_reserved":false,"is_disabled":false,"rental_uris":{"android":"levelo://app?vid=8257b643-518f-430e-a44e-b8097996bffd","ios":"levelo://app?vid=8257b643-518f-430e-a44e-b8097996bffd"},"vehicle_type_id":"4","last_reported":1750695221,"current_range_meters":9600,"station_id":"ce4bh112rcd13ifvqda0","pricing_plan_id":"cebpf4jnsgd1na2vs0mg"},{"bike_id":"8531d039-aa59-404c-9708-5e2f1cb0e534","system_id":"levelo_inurba_marseille","lat":43.26552,"lon":5.37284,"is_reserved":false,"is_disabled":false,"rental_uris":{"android":"levelo://app?vid=8531d039-aa59-404c-9708-5e2f1cb0e534","ios":"levelo://app?vid=8531d039-aa59-404c-9708-5e2f1cb0e534"},"vehicle_type_id":"4","last_reported":1750695221,"current_range_meters":9600,"station_id":"ce4bhg12rcd13ifvqf70","pricing_plan_id":"cebpf4jnsgd1na2vs0mg"},{"bike_id":"a1033bc2-b095-44b8-a4e4-f4e18eb31e8a","system_id":"levelo_inurba_marseille","lat":43.24997,"lon":5.38931,"is_reserved":false,"is_disabled":false,"rental_uris":{"android":"levelo://app?vid=a1033bc2-b095-44b8-a4e4-f4e18eb31e8a","ios":"levelo://app?vid=a1033bc2-b095-44b8-a4e4-f4e18eb31e8a"},"vehicle_type_id":"4","last_reported":1750695221,"current_range_meters":9600,"station_id":"ce4bhgp2rcd13ifvqfd0","pricing_plan_id":"cebpf4jnsgd1na2vs0mg"},{"bike_id":"70764641-799a-4261-99bd-903918c1b74a","system_id":"levelo_inurba_marseille","lat":43.32888,"lon":5.38407,"is_reserved":false,"is_disabled":false,"rental_uris":{"android":"levelo://app?vid=70764641-799a-4261-99bd-903918c1b74a","ios":"levelo://app?vid=70764641-799a-4261-99bd-903918c1b74a"},"vehicle_type_id":"4","last_reported":1750695221,"current_range_meters":10000,"station_id":"","pricing_plan_id":"cebpf4jnsgd1na2vs0mg"},{"bike_id":"8aa84724-593d-49c5-91e6-da8ff4cf8d81","system_id":"levelo_inurba_marseille","lat":43.28099,"lon":5.37833,"is_reserved":false,"is_disabled":false,"rental_uris":{"android":"levelo://app?vid=8aa84724-593d-49c5-91e6-da8ff4cf8d81","ios":"levelo://app?vid=8aa84724-593d-49c5-91e6-da8ff4cf8d81"},"vehicle_type_id":"4","last_reported":1750695221,"current_range_meters":10000,"station_id":"ce4bha12rcd13ifvqee0","pricing_plan_id":"cebpf4jnsgd1na2vs0mg"},{"bike_id":"70ae734a-8b2b-4e01-83f8-611696ba12a9","system_id":"levelo_inurba_marseille","lat":43.262064,"lon":5.379619,"is_reserved":false,"is_disabled":false,"rental_uris":{"android":"levelo://app?vid=70ae734a-8b2b-4e01-83f8-611696ba12a9","ios":"levelo://app?vid=70ae734a-8b2b-4e01-83f8-611696ba12a9"},"vehicle_type_id":"4","last_reported":1750695221,"current_range_meters":10000,"station_id":"ce4bhjp2rcd13ifvqg90","pricing_plan_id":"cebpf4jnsgd1na2vs0mg"},{"bike_id":"1da502a7-2b04-4933-8c7f-8c0db2cadf94","system_id":"levelo_inurba_marseille","lat":43.27372,"lon":5.36262,"is_reserved":false,"is_disabled":false,"rental_uris":{"android":"levelo://app?vid=1da502a7-2b04-4933-8c7f-8c0db2cadf94","ios":"levelo://app?vid=1da502a7-2b04-4933-8c7f-8c0db2cadf94"},"vehicle_type_id":"4","last_reported":1750695221,"current_range_meters":10800,"station_id":"ce4bhbh2rcd13ifvqeo0","pricing_plan_id":"cebpf4jnsgd1na2vs0mg"},{"bike_id":"1af973f7-abe2-4b1f-9912-d20c3a101a4d","system_id":"levelo_inurba_marseille","lat":43.28153,"lon":5.42643,"is_reserved":false,"is_disabled":false,"rental_uris":{"android":"levelo://app?vid=1af973f7-abe2-4b1f-9912-d20c3a101a4d","ios":"levelo://app?vid=1af973f7-abe2-4b1f-9912-d20c3a101a4d"},"vehicle_type_id":"4","last_reported":1750695221,"current_range_meters":10800,"station_id":"ce4bhnh2rcd13ifvqgug","pricing_plan_id":"cebpf4jnsgd1na2vs0mg"},{"bike_id":"ae8831fa-fb18-4f64-a722-0d92c5a748b4","system_id":"levelo_inurba_marseille","lat":43.27996,"lon":5.41669,"is_reserved":false,"is_disabled":false,"rental_uris":{"android":"levelo://app?vid=ae8831fa-fb18-4f64-a722-0d92c5a748b4","ios":"levelo://app?vid=ae8831fa-fb18-4f64-a722-0d92c5a748b4"},"vehicle_type_id":"4","last_reported":1750695221,"current_range_meters":10800,"station_id":"ce4bho12rcd13ifvqh1g","pricing_plan_id":"cebpf4jnsgd1na2vs0mg"},{"bike_id":"f5775577-0ff8-4a53-b67f-237e00f1b09c","system_id":"levelo_inurba_marseille","lat":43.30564,"lon":5.36708,"is_reserved":false,"is_disabled":false,"rental_uris":{"android":"levelo://app?vid=f5775577-0ff8-4a53-b67f-237e00f1b09c","ios":"levelo://app?vid=f5775577-0ff8-4a53-b67f-237e00f1b09c"},"vehicle_type_id":"4","last_reported":1750695221,"current_range_meters":11600,"station_id":"ce4bgrp2rcd13ifvqc9g","pricing_plan_id":"cebpf4jnsgd1na2vs0mg"},{"bike_id":"6d8fe57d-c07b-424c-b956-c841be708442","system_id":"levelo_inurba_marseille","lat":43.27503,"lon":5.361411,"is_reserved":false,"is_disabled":false,"rental_uris":{"android":"levelo://app?vid=6d8fe57d-c07b-424c-b956-c841be708442","ios":"levelo://app?vid=6d8fe57d-c07b-424c-b956-c841be708442"},"vehicle_type_id":"4","last_reported":1750695221,"current_range_meters":11600,"station_id":"ce4bhbh2rcd13ifvqeo0","pricing_plan_id":"cebpf4jnsgd1na2vs0mg"},{"bike_id":"929fc6a4-ae66-4aa6-8cef-b1ba8fd053ac","system_id":"levelo_inurba_marseille","lat":43.26936,"lon":5.40265,"is_reserved":false,"is_disabled":false,"rental_uris":{"android":"levelo://app?vid=929fc6a4-ae66-4aa6-8cef-b1ba8fd053ac","ios":"levelo://app?vid=929fc6a4-ae66-4aa6-8cef-b1ba8fd053ac"},"vehicle_type_id":"4","last_reported":1750695221,"current_range_meters":11600,"station_id":"cjm6bp8fraef2m0cb0m0","pricing_plan_id":"cebpf4jnsgd1na2vs0mg"},{"bike_id":"723f5d56-ac33-4c94-8bb8-ee4c6dc93f60","system_id":"levelo_inurba_marseille","lat":43.22928,"lon":5.35383,"is_reserved":false,"is_disabled":false,"rental_uris":{"android":"levelo://app?vid=723f5d56-ac33-4c94-8bb8-ee4c6dc93f60","ios":"levelo://app?vid=723f5d56-ac33-4c94-8bb8-ee4c6dc93f60"},"vehicle_type_id":"4","last_reported":1750695221,"current_range_meters":11600,"station_id":"cpo3532slgdg3j2ikp40","pricing_plan_id":"cebpf4jnsgd1na2vs0mg"},{"bike_id":"e0022c09-20df-40d4-979e-9701c97b5261","system_id":"levelo_inurba_marseille","lat":43.3303,"lon":5.39124,"is_reserved":false,"is_disabled":false,"rental_uris":{"android":"levelo://app?vid=e0022c09-20df-40d4-979e-9701c97b5261","ios":"levelo://app?vid=e0022c09-20df-40d4-979e-9701c97b5261"},"vehicle_type_id":"4","last_reported":1750695221,"current_range_meters":12400,"station_id":"","pricing_plan_id":"cebpf4jnsgd1na2vs0mg"},{"bike_id":"fda47356-a4c9-42f1-ba12-be6cfb55fe28","system_id":"levelo_inurba_marseille","lat":43.28409,"lon":5.34975,"is_reserved":false,"is_disabled":false,"rental_uris":{"android":"levelo://app?vid=fda47356-a4c9-42f1-ba12-be6cfb55fe28","ios":"levelo://app?vid=fda47356-a4c9-42f1-ba12-be6cfb55fe28"},"vehicle_type_id":"4","last_reported":1750695221,"current_range_meters":12400,"station_id":"ce4bhbh2rcd13ifvqepg","pricing_plan_id":"cebpf4jnsgd1na2vs0mg"},{"bike_id":"c42dfc65-0b65-49e8-88bf-7e31968002c2","system_id":"levelo_inurba_marseille","lat":43.27814,"lon":5.40724,"is_reserved":false,"is_disabled":false,"rental_uris":{"android":"levelo://app?vid=c42dfc65-0b65-49e8-88bf-7e31968002c2","ios":"levelo://app?vid=c42dfc65-0b65-49e8-88bf-7e31968002c2"},"vehicle_type_id":"4","last_reported":1750695221,"current_range_meters":12400,"station_id":"ce4bhnh2rcd13ifvqgtg","pricing_plan_id":"cebpf4jnsgd1na2vs0mg"},{"bike_id":"03adc2a1-2e70-4681-8182-5314c703a6e5","system_id":"levelo_inurba_marseille","lat":43.26798,"lon":5.3942,"is_reserved":false,"is_disabled":false,"rental_uris":{"android":"levelo://app?vid=03adc2a1-2e70-4681-8182-5314c703a6e5","ios":"levelo://app?vid=03adc2a1-2e70-4681-8182-5314c703a6e5"},"vehicle_type_id":"4","last_reported":1750695221,"current_range_meters":12800,"station_id":"ce4bhh12rcd13ifvqfg0","pricing_plan_id":"cebpf4jnsgd1na2vs0mg"},{"bike_id":"2ee4ecdb-129d-49b4-915d-53e427294585","system_id":"levelo_inurba_marseille","lat":43.24167,"lon":5.36394,"is_reserved":false,"is_disabled":false,"rental_uris":{"android":"levelo://app?vid=2ee4ecdb-129d-49b4-915d-53e427294585","ios":"levelo://app?vid=2ee4ecdb-129d-49b4-915d-53e427294585"},"vehicle_type_id":"4","last_reported":1750695221,"current_range_meters":12800,"station_id":"cpo36qri1sfpv3e86is0","pricing_plan_id":"cebpf4jnsgd1na2vs0mg"},{"bike_id":"3c1c33b6-ae37-4eec-8328-ec5109174f3c","system_id":"levelo_inurba_marseille","lat":43.30641,"lon":5.4008,"is_reserved":false,"is_disabled":false,"rental_uris":{"android":"levelo://app?vid=3c1c33b6-ae37-4eec-8328-ec5109174f3c","ios":"levelo://app?vid=3c1c33b6-ae37-4eec-8328-ec5109174f3c"},"vehicle_type_id":"4","last_reported":1750695221,"current_range_meters":13600,"station_id":"ce4bh112rcd13ifvqda0","pricing_plan_id":"cebpf4jnsgd1na2vs0mg"},{"bike_id":"096046d7-2aa7-49f7-9acb-575a99b304b3","system_id":"levelo_inurba_marseille","lat":43.26027,"lon":5.37561,"is_reserved":false,"is_disabled":false,"rental_uris":{"android":"levelo://app?vid=096046d7-2aa7-49f7-9acb-575a99b304b3","ios":"levelo://app?vid=096046d7-2aa7-49f7-9acb-575a99b304b3"},"vehicle_type_id":"4","last_reported":1750695221,"current_range_meters":13600,"station_id":"ce4bhgh2rcd13ifvqfa0","pricing_plan_id":"cebpf4jnsgd1na2vs0mg"},{"bike_id":"52952563-c932-4aa9-833c-ec952264d00d","system_id":"levelo_inurba_marseille","lat":43.23961,"lon":5.36623,"is_reserved":false,"is_disabled":false,"rental_uris":{"android":"levelo://app?vid=52952563-c932-4aa9-833c-ec952264d00d","ios":"levelo://app?vid=52952563-c932-4aa9-833c-ec952264d00d"},"vehicle_type_id":"4","last_reported":1750695221,"current_range_meters":13600,"station_id":"ce4bhi12rcd13ifvqfp0","pricing_plan_id":"cebpf4jnsgd1na2vs0mg"},{"bike_id":"a69156ca-7afd-4760-8d18-8e2581fdad03","system_id":"levelo_inurba_marseille","lat":43.22949,"lon":5.35412,"is_reserved":false,"is_disabled":false,"rental_uris":{"android":"levelo://app?vid=a69156ca-7afd-4760-8d18-8e2581fdad03","ios":"levelo://app?vid=a69156ca-7afd-4760-8d18-8e2581fdad03"},"vehicle_type_id":"4","last_reported":1750695221,"current_range_meters":13600,"station_id":"cpo3532slgdg3j2ikp40","pricing_plan_id":"cebpf4jnsgd1na2vs0mg"},{"bike_id":"9ad43fe6-1b49-4ea3-9f06-a5733a9a82aa","system_id":"levelo_inurba_marseille","lat":43.21203,"lon":5.35073,"is_reserved":false,"is_disabled":false,"rental_uris":{"android":"levelo://app?vid=9ad43fe6-1b49-4ea3-9f06-a5733a9a82aa","ios":"levelo://app?vid=9ad43fe6-1b49-4ea3-9f06-a5733a9a82aa"},"vehicle_type_id":"4","last_reported":1750695221,"current_range_meters":14000,"station_id":"","pricing_plan_id":"cebpf4jnsgd1na2vs0mg"},{"bike_id":"dd519862-60a0-458a-9042-68e401d92ca8","system_id":"levelo_inurba_marseille","lat":43.23967,"lon":5.36636,"is_reserved":false,"is_disabled":false,"rental_uris":{"android":"levelo://app?vid=dd519862-60a0-458a-9042-68e401d92ca8","ios":"levelo://app?vid=dd519862-60a0-458a-9042-68e401d92ca8"},"vehicle_type_id":"4","last_reported":1750695221,"current_range_meters":14000,"station_id":"ce4bhi12rcd13ifvqfp0","pricing_plan_id":"cebpf4jnsgd1na2vs0mg"},{"bike_id":"bcd1861d-6d87-4dae-8ab5-fc62ee4e37f9","system_id":"levelo_inurba_marseille","lat":43.25083,"lon":5.39528,"is_reserved":false,"is_disabled":false,"rental_uris":{"android":"levelo://app?vid=bcd1861d-6d87-4dae-8ab5-fc62ee4e37f9","ios":"levelo://app?vid=bcd1861d-6d87-4dae-8ab5-fc62ee4e37f9"},"vehicle_type_id":"4","last_reported":1750695221,"current_range_meters":14000,"station_id":"ce4bhm12rcd13ifvqgkg","pricing_plan_id":"cebpf4jnsgd1na2vs0mg"},{"bike_id":"4ab5fdbc-6d5f-40c6-8ae0-f5a32f5c0435","system_id":"levelo_inurba_marseille","lat":43.28155,"lon":5.42647,"is_reserved":false,"is_disabled":false,"rental_uris":{"android":"levelo://app?vid=4ab5fdbc-6d5f-40c6-8ae0-f5a32f5c0435","ios":"levelo://app?vid=4ab5fdbc-6d5f-40c6-8ae0-f5a32f5c0435"},"vehicle_type_id":"4","last_reported":1750695221,"current_range_meters":14000,"station_id":"ce4bhnh2rcd13ifvqgug","pricing_plan_id":"cebpf4jnsgd1na2vs0mg"},{"bike_id":"695acd82-ae0d-4f72-8385-183d1feea454","system_id":"levelo_inurba_marseille","lat":43.22938,"lon":5.35376,"is_reserved":false,"is_disabled":false,"rental_uris":{"android":"levelo://app?vid=695acd82-ae0d-4f72-8385-183d1feea454","ios":"levelo://app?vid=695acd82-ae0d-4f72-8385-183d1feea454"},"vehicle_type_id":"4","last_reported":1750695221,"current_range_meters":14000,"station_id":"cpo3532slgdg3j2ikp40","pricing_plan_id":"cebpf4jnsgd1na2vs0mg"},{"bike_id":"36ee4635-6d58-43c2-8cec-51daaa215973","system_id":"levelo_inurba_marseille","lat":43.24152,"lon":5.36424,"is_reserved":false,"is_disabled":false,"rental_uris":{"android":"levelo://app?vid=36ee4635-6d58-43c2-8cec-51daaa215973","ios":"levelo://app?vid=36ee4635-6d58-43c2-8cec-51daaa215973"},"vehicle_type_id":"4","last_reported":1750695221,"current_range_meters":14000,"station_id":"cpo36qri1sfpv3e86is0","pricing_plan_id":"cebpf4jnsgd1na2vs0mg"},{"bike_id":"175434a2-13f0-4bf4-9fe9-1e01255207a2","system_id":"levelo_inurba_marseille","lat":43.24166,"lon":5.36402,"is_reserved":false,"is_disabled":false,"rental_uris":{"android":"levelo://app?vid=175434a2-13f0-4bf4-9fe9-1e01255207a2","ios":"levelo://app?vid=175434a2-13f0-4bf4-9fe9-1e01255207a2"},"vehicle_type_id":"4","last_reported":1750695221,"current_range_meters":14000,"station_id":"cpo36qri1sfpv3e86is0","pricing_plan_id":"cebpf4jnsgd1na2vs0mg"},{"bike_id":"d1e50195-3b98-4355-8033-d7cc97e2d52d","system_id":"levelo_inurba_marseille","lat":43.34605,"lon":5.36668,"is_reserved":false,"is_disabled":false,"rental_uris":{"android":"levelo://app?vid=d1e50195-3b98-4355-8033-d7cc97e2d52d","ios":"levelo://app?vid=d1e50195-3b98-4355-8033-d7cc97e2d52d"},"vehicle_type_id":"4","last_reported":1750695221,"current_range_meters":14400,"station_id":"","pricing_plan_id":"cebpf4jnsgd1na2vs0mg"},{"bike_id":"44718d04-49fc-41cc-a123-ed9c52433461","system_id":"levelo_inurba_marseille","lat":43.31163,"lon":5.38718,"is_reserved":false,"is_disabled":false,"rental_uris":{"android":"levelo://app?vid=44718d04-49fc-41cc-a123-ed9c52433461","ios":"levelo://app?vid=44718d04-49fc-41cc-a123-ed9c52433461"},"vehicle_type_id":"4","last_reported":1750695221,"current_range_meters":14400,"station_id":"ce4bgv12rcd13ifvqcp0","pricing_plan_id":"cebpf4jnsgd1na2vs0mg"},{"bike_id":"db490380-a789-4f87-8345-03053cafe8eb","system_id":"levelo_inurba_marseille","lat":43.28403,"lon":5.34996,"is_reserved":false,"is_disabled":false,"rental_uris":{"android":"levelo://app?vid=db490380-a789-4f87-8345-03053cafe8eb","ios":"levelo://app?vid=db490380-a789-4f87-8345-03053cafe8eb"},"vehicle_type_id":"4","last_reported":1750695221,"current_range_meters":14400,"station_id":"ce4bhbh2rcd13ifvqepg","pricing_plan_id":"cebpf4jnsgd1na2vs0mg"},{"bike_id":"dcb10811-af0c-4a83-a2ce-c0bcfa4230a2","system_id":"levelo_inurba_marseille","lat":43.28434,"lon":5.34978,"is_reserved":false,"is_disabled":false,"rental_uris":{"android":"levelo://app?vid=dcb10811-af0c-4a83-a2ce-c0bcfa4230a2","ios":"levelo://app?vid=dcb10811-af0c-4a83-a2ce-c0bcfa4230a2"},"vehicle_type_id":"4","last_reported":1750695221,"current_range_meters":14400,"station_id":"ce4bhbh2rcd13ifvqepg","pricing_plan_id":"cebpf4jnsgd1na2vs0mg"},{"bike_id":"e3c98ea9-5ede-4f57-8f11-2e25041a9538","system_id":"levelo_inurba_marseille","lat":43.298999,"lon":5.43658,"is_reserved":false,"is_disabled":false,"rental_uris":{"android":"levelo://app?vid=e3c98ea9-5ede-4f57-8f11-2e25041a9538","ios":"levelo://app?vid=e3c98ea9-5ede-4f57-8f11-2e25041a9538"},"vehicle_type_id":"4","last_reported":1750695221,"current_range_meters":14400,"station_id":"ce4bhpp2rcd13ifvqhfg","pricing_plan_id":"cebpf4jnsgd1na2vs0mg"},{"bike_id":"2c4864c5-8096-41d1-9a5a-e66d9e3c5d1a","system_id":"levelo_inurba_marseille","lat":43.33605,"lon":5.41031,"is_reserved":false,"is_disabled":false,"rental_uris":{"android":"levelo://app?vid=2c4864c5-8096-41d1-9a5a-e66d9e3c5d1a","ios":"levelo://app?vid=2c4864c5-8096-41d1-9a5a-e66d9e3c5d1a"},"vehicle_type_id":"4","last_reported":1750695221,"current_range_meters":14400,"station_id":"ce4bhqh2rcd13ifvqhmg","pricing_plan_id":"cebpf4jnsgd1na2vs0mg"},{"bike_id":"c2878ac7-5ffd-4973-93a6-18e34740dfdb","system_id":"levelo_inurba_marseille","lat":43.309365,"lon":5.401379,"is_reserved":false,"is_disabled":false,"rental_uris":{"android":"levelo://app?vid=c2878ac7-5ffd-4973-93a6-18e34740dfdb","ios":"levelo://app?vid=c2878ac7-5ffd-4973-93a6-18e34740dfdb"},"vehicle_type_id":"4","last_reported":1750695221,"current_range_meters":14800,"station_id":"ce4bgvp2rcd13ifvqct0","pricing_plan_id":"cebpf4jnsgd1na2vs0mg"},{"bike_id":"9213f417-38fe-4ac6-ba73-fa7495d6b748","system_id":"levelo_inurba_marseille","lat":43.24189,"lon":5.36423,"is_reserved":false,"is_disabled":false,"rental_uris":{"android":"levelo://app?vid=9213f417-38fe-4ac6-ba73-fa7495d6b748","ios":"levelo://app?vid=9213f417-38fe-4ac6-ba73-fa7495d6b748"},"vehicle_type_id":"4","last_reported":1750695221,"current_range_meters":14800,"station_id":"cpo36qri1sfpv3e86is0","pricing_plan_id":"cebpf4jnsgd1na2vs0mg"},{"bike_id":"2857b340-e34b-447f-8900-ec45353b79a7","system_id":"levelo_inurba_marseille","lat":43.301701,"lon":5.366079,"is_reserved":false,"is_disabled":false,"rental_uris":{"android":"levelo://app?vid=2857b340-e34b-447f-8900-ec45353b79a7","ios":"levelo://app?vid=2857b340-e34b-447f-8900-ec45353b79a7"},"vehicle_type_id":"4","last_reported":1750695221,"current_range_meters":15200,"station_id":"","pricing_plan_id":"cebpf4jnsgd1na2vs0mg"},{"bike_id":"c576e876-ea4b-4d4c-9d9d-36d9912502ad","system_id":"levelo_inurba_marseille","lat":43.301746,"lon":5.36615,"is_reserved":false,"is_disabled":false,"rental_uris":{"android":"levelo://app?vid=c576e876-ea4b-4d4c-9d9d-36d9912502ad","ios":"levelo://app?vid=c576e876-ea4b-4d4c-9d9d-36d9912502ad"},"vehicle_type_id":"4","last_reported":1750695221,"current_range_meters":15200,"station_id":"ce4bgrh2rcd13ifvqc8g","pricing_plan_id":"cebpf4jnsgd1na2vs0mg"},{"bike_id":"5026cdb4-a1eb-42b7-96f0-e06fd4695fec","system_id":"levelo_inurba_marseille","lat":43.29984,"lon":5.39968,"is_reserved":false,"is_disabled":false,"rental_uris":{"android":"levelo://app?vid=5026cdb4-a1eb-42b7-96f0-e06fd4695fec","ios":"levelo://app?vid=5026cdb4-a1eb-42b7-96f0-e06fd4695fec"},"vehicle_type_id":"4","last_reported":1750695221,"current_range_meters":16000,"station_id":"","pricing_plan_id":"cebpf4jnsgd1na2vs0mg"},{"bike_id":"2dc54638-263b-48ea-ab1f-3ace50bf72b9","system_id":"levelo_inurba_marseille","lat":43.26967,"lon":5.39824,"is_reserved":false,"is_disabled":false,"rental_uris":{"android":"levelo://app?vid=2dc54638-263b-48ea-ab1f-3ace50bf72b9","ios":"levelo://app?vid=2dc54638-263b-48ea-ab1f-3ace50bf72b9"},"vehicle_type_id":"4","last_reported":1750695221,"current_range_meters":16000,"station_id":"","pricing_plan_id":"cebpf4jnsgd1na2vs0mg"},{"bike_id":"99603681-a550-414e-a093-e432b3084798","system_id":"levelo_inurba_marseille","lat":43.28232,"lon":5.35087,"is_reserved":false,"is_disabled":false,"rental_uris":{"android":"levelo://app?vid=99603681-a550-414e-a093-e432b3084798","ios":"levelo://app?vid=99603681-a550-414e-a093-e432b3084798"},"vehicle_type_id":"4","last_reported":1750695221,"current_range_meters":16000,"station_id":"","pricing_plan_id":"cebpf4jnsgd1na2vs0mg"},{"bike_id":"7cb8be58-35ab-42ba-af4b-1b17d9977ae0","system_id":"levelo_inurba_marseille","lat":43.28618,"lon":5.35105,"is_reserved":false,"is_disabled":false,"rental_uris":{"android":"levelo://app?vid=7cb8be58-35ab-42ba-af4b-1b17d9977ae0","ios":"levelo://app?vid=7cb8be58-35ab-42ba-af4b-1b17d9977ae0"},"vehicle_type_id":"4","last_reported":1750695221,"current_range_meters":16000,"station_id":"ce4bhch2rcd13ifvqeug","pricing_plan_id":"cebpf4jnsgd1na2vs0mg"},{"bike_id":"7d0c8565-a033-4e0d-a29d-420f927f9f72","system_id":"levelo_inurba_marseille","lat":43.26156,"lon":5.374437,"is_reserved":false,"is_disabled":false,"rental_uris":{"android":"levelo://app?vid=7d0c8565-a033-4e0d-a29d-420f927f9f72","ios":"levelo://app?vid=7d0c8565-a033-4e0d-a29d-420f927f9f72"},"vehicle_type_id":"4","last_reported":1750695221,"current_range_meters":16000,"station_id":"ce4bhgp2rcd13ifvqfc0","pricing_plan_id":"cebpf4jnsgd1na2vs0mg"},{"bike_id":"c0bdd773-acc1-45de-b11b-c26213d7a3d0","system_id":"levelo_inurba_marseille","lat":43.23965,"lon":5.36631,"is_reserved":false,"is_disabled":false,"rental_uris":{"android":"levelo://app?vid=c0bdd773-acc1-45de-b11b-c26213d7a3d0","ios":"levelo://app?vid=c0bdd773-acc1-45de-b11b-c26213d7a3d0"},"vehicle_type_id":"4","last_reported":1750695221,"current_range_meters":16000,"station_id":"ce4bhi12rcd13ifvqfp0","pricing_plan_id":"cebpf4jnsgd1na2vs0mg"},{"bike_id":"d3b4acd1-475d-43e1-bb04-3b5b22c96457","system_id":"levelo_inurba_marseille","lat":43.29902,"lon":5.43675,"is_reserved":false,"is_disabled":false,"rental_uris":{"android":"levelo://app?vid=d3b4acd1-475d-43e1-bb04-3b5b22c96457","ios":"levelo://app?vid=d3b4acd1-475d-43e1-bb04-3b5b22c96457"},"vehicle_type_id":"4","last_reported":1750695221,"current_range_meters":16000,"station_id":"ce4bhpp2rcd13ifvqhfg","pricing_plan_id":"cebpf4jnsgd1na2vs0mg"},{"bike_id":"708a5153-e9eb-4b8c-828a-f2918a7ff712","system_id":"levelo_inurba_marseille","lat":43.33734,"lon":5.39173,"is_reserved":false,"is_disabled":false,"rental_uris":{"android":"levelo://app?vid=708a5153-e9eb-4b8c-828a-f2918a7ff712","ios":"levelo://app?vid=708a5153-e9eb-4b8c-828a-f2918a7ff712"},"vehicle_type_id":"4","last_reported":1750695221,"current_range_meters":16000,"station_id":"ce4bhr92rcd13ifvqhsg","pricing_plan_id":"cebpf4jnsgd1na2vs0mg"},{"bike_id":"e77b75b6-d130-43a3-abb4-254740d44e61","system_id":"levelo_inurba_marseille","lat":43.24181,"lon":5.36367,"is_reserved":false,"is_disabled":false,"rental_uris":{"android":"levelo://app?vid=e77b75b6-d130-43a3-abb4-254740d44e61","ios":"levelo://app?vid=e77b75b6-d130-43a3-abb4-254740d44e61"},"vehicle_type_id":"4","last_reported":1750695221,"current_range_meters":16000,"station_id":"cpo36qri1sfpv3e86is0","pricing_plan_id":"cebpf4jnsgd1na2vs0mg"},{"bike_id":"fef44388-49ac-49ef-bd8f-02894ed142a3","system_id":"levelo_inurba_marseille","lat":43.28998,"lon":5.35605,"is_reserved":false,"is_disabled":false,"rental_uris":{"android":"levelo://app?vid=fef44388-49ac-49ef-bd8f-02894ed142a3","ios":"levelo://app?vid=fef44388-49ac-49ef-bd8f-02894ed142a3"},"vehicle_type_id":"4","last_reported":1750695221,"current_range_meters":16400,"station_id":"ce4bhb92rcd13ifvqen0","pricing_plan_id":"cebpf4jnsgd1na2vs0mg"},{"bike_id":"a5389446-33af-421e-9ee6-bd72cd5a4a72","system_id":"levelo_inurba_marseille","lat":43.25085,"lon":5.39534,"is_reserved":false,"is_disabled":false,"rental_uris":{"android":"levelo://app?vid=a5389446-33af-421e-9ee6-bd72cd5a4a72","ios":"levelo://app?vid=a5389446-33af-421e-9ee6-bd72cd5a4a72"},"vehicle_type_id":"4","last_reported":1750695221,"current_range_meters":16400,"station_id":"ce4bhm12rcd13ifvqgkg","pricing_plan_id":"cebpf4jnsgd1na2vs0mg"},{"bike_id":"ff359b06-e82b-4518-b602-f9c62162a27d","system_id":"levelo_inurba_marseille","lat":43.21173,"lon":5.35098,"is_reserved":false,"is_disabled":false,"rental_uris":{"android":"levelo://app?vid=ff359b06-e82b-4518-b602-f9c62162a27d","ios":"levelo://app?vid=ff359b06-e82b-4518-b602-f9c62162a27d"},"vehicle_type_id":"4","last_reported":1750695221,"current_range_meters":16400,"station_id":"st_cvj6sg6p6f1abm77japg","pricing_plan_id":"cebpf4jnsgd1na2vs0mg"},{"bike_id":"66fe660e-bbbe-4cd1-b5fb-9344c71cb66e","system_id":"levelo_inurba_marseille","lat":43.211929,"lon":5.350761,"is_reserved":false,"is_disabled":false,"rental_uris":{"android":"levelo://app?vid=66fe660e-bbbe-4cd1-b5fb-9344c71cb66e","ios":"levelo://app?vid=66fe660e-bbbe-4cd1-b5fb-9344c71cb66e"},"vehicle_type_id":"4","last_reported":1750695221,"current_range_meters":16400,"station_id":"st_cvj6sg6p6f1abm77japg","pricing_plan_id":"cebpf4jnsgd1na2vs0mg"},{"bike_id":"ede9d90e-40c0-4c71-93b8-e7868f45b71f","system_id":"levelo_inurba_marseille","lat":43.25036,"lon":5.40217,"is_reserved":false,"is_disabled":false,"rental_uris":{"android":"levelo://app?vid=ede9d90e-40c0-4c71-93b8-e7868f45b71f","ios":"levelo://app?vid=ede9d90e-40c0-4c71-93b8-e7868f45b71f"},"vehicle_type_id":"4","last_reported":1750695221,"current_range_meters":16800,"station_id":"","pricing_plan_id":"cebpf4jnsgd1na2vs0mg"},{"bike_id":"f7c00105-0276-47aa-9c87-c86cd7159f18","system_id":"levelo_inurba_marseille","lat":43.309,"lon":5.36841,"is_reserved":false,"is_disabled":false,"rental_uris":{"android":"levelo://app?vid=f7c00105-0276-47aa-9c87-c86cd7159f18","ios":"levelo://app?vid=f7c00105-0276-47aa-9c87-c86cd7159f18"},"vehicle_type_id":"4","last_reported":1750695221,"current_range_meters":16800,"station_id":"ce4bgn92rcd13ifvqbvg","pricing_plan_id":"cebpf4jnsgd1na2vs0mg"},{"bike_id":"c50330a6-49e9-426c-8c78-bb0a4eda25a1","system_id":"levelo_inurba_marseille","lat":43.30254,"lon":5.40067,"is_reserved":false,"is_disabled":false,"rental_uris":{"android":"levelo://app?vid=c50330a6-49e9-426c-8c78-bb0a4eda25a1","ios":"levelo://app?vid=c50330a6-49e9-426c-8c78-bb0a4eda25a1"},"vehicle_type_id":"4","last_reported":1750695221,"current_range_meters":16800,"station_id":"ce4bgvh2rcd13ifvqcs0","pricing_plan_id":"cebpf4jnsgd1na2vs0mg"},{"bike_id":"783eb5d0-873b-499e-ba2d-09641212b473","system_id":"levelo_inurba_marseille","lat":43.28422,"lon":5.34985,"is_reserved":false,"is_disabled":false,"rental_uris":{"android":"levelo://app?vid=783eb5d0-873b-499e-ba2d-09641212b473","ios":"levelo://app?vid=783eb5d0-873b-499e-ba2d-09641212b473"},"vehicle_type_id":"4","last_reported":1750695221,"current_range_meters":16800,"station_id":"ce4bhbh2rcd13ifvqepg","pricing_plan_id":"cebpf4jnsgd1na2vs0mg"},{"bike_id":"af8ac115-b126-43d0-8dc2-1ca55684e741","system_id":"levelo_inurba_marseille","lat":43.28412,"lon":5.34988,"is_reserved":false,"is_disabled":false,"rental_uris":{"android":"levelo://app?vid=af8ac115-b126-43d0-8dc2-1ca55684e741","ios":"levelo://app?vid=af8ac115-b126-43d0-8dc2-1ca55684e741"},"vehicle_type_id":"4","last_reported":1750695221,"current_range_meters":16800,"station_id":"ce4bhbh2rcd13ifvqepg","pricing_plan_id":"cebpf4jnsgd1na2vs0mg"},{"bike_id":"2ae681f1-67a7-461d-bc84-e47c3d59d060","system_id":"levelo_inurba_marseille","lat":43.28264,"lon":5.35066,"is_reserved":false,"is_disabled":false,"rental_uris":{"android":"levelo://app?vid=2ae681f1-67a7-461d-bc84-e47c3d59d060","ios":"levelo://app?vid=2ae681f1-67a7-461d-bc84-e47c3d59d060"},"vehicle_type_id":"4","last_reported":1750695221,"current_range_meters":16800,"station_id":"ce4bhbp2rcd13ifvqerg","pricing_plan_id":"cebpf4jnsgd1na2vs0mg"},{"bike_id":"a47b3ca7-ac74-4aca-9c76-314ff6c96723","system_id":"levelo_inurba_marseille","lat":43.24172,"lon":5.36391,"is_reserved":false,"is_disabled":false,"rental_uris":{"android":"levelo://app?vid=a47b3ca7-ac74-4aca-9c76-314ff6c96723","ios":"levelo://app?vid=a47b3ca7-ac74-4aca-9c76-314ff6c96723"},"vehicle_type_id":"4","last_reported":1750695221,"current_range_meters":16800,"station_id":"cpo36qri1sfpv3e86is0","pricing_plan_id":"cebpf4jnsgd1na2vs0mg"},{"bike_id":"c3b67a3c-755c-43da-b7f2-a4d8a045bf9d","system_id":"levelo_inurba_marseille","lat":43.21198,"lon":5.35078,"is_reserved":false,"is_disabled":false,"rental_uris":{"android":"levelo://app?vid=c3b67a3c-755c-43da-b7f2-a4d8a045bf9d","ios":"levelo://app?vid=c3b67a3c-755c-43da-b7f2-a4d8a045bf9d"},"vehicle_type_id":"4","last_reported":1750695221,"current_range_meters":16800,"station_id":"st_cvj6sg6p6f1abm77japg","pricing_plan_id":"cebpf4jnsgd1na2vs0mg"},{"bike_id":"8bc99dda-0ecb-4209-a614-58636df6b374","system_id":"levelo_inurba_marseille","lat":43.2119,"lon":5.35073,"is_reserved":false,"is_disabled":false,"rental_uris":{"android":"levelo://app?vid=8bc99dda-0ecb-4209-a614-58636df6b374","ios":"levelo://app?vid=8bc99dda-0ecb-4209-a614-58636df6b374"},"vehicle_type_id":"4","last_reported":1750695221,"current_range_meters":16800,"station_id":"st_cvj6sg6p6f1abm77japg","pricing_plan_id":"cebpf4jnsgd1na2vs0mg"},{"bike_id":"b6b861fa-fd27-43ad-89fb-4be1a264be92","system_id":"levelo_inurba_marseille","lat":43.25307,"lon":5.37497,"is_reserved":false,"is_disabled":false,"rental_uris":{"android":"levelo://app?vid=b6b861fa-fd27-43ad-89fb-4be1a264be92","ios":"levelo://app?vid=b6b861fa-fd27-43ad-89fb-4be1a264be92"},"vehicle_type_id":"4","last_reported":1750695221,"current_range_meters":17200,"station_id":"","pricing_plan_id":"cebpf4jnsgd1na2vs0mg"},{"bike_id":"7c3f6852-4f29-42a9-a8c1-e2b82bb43fcf","system_id":"levelo_inurba_marseille","lat":43.29254,"lon":5.4266,"is_reserved":false,"is_disabled":false,"rental_uris":{"android":"levelo://app?vid=7c3f6852-4f29-42a9-a8c1-e2b82bb43fcf","ios":"levelo://app?vid=7c3f6852-4f29-42a9-a8c1-e2b82bb43fcf"},"vehicle_type_id":"4","last_reported":1750695221,"current_range_meters":17200,"station_id":"","pricing_plan_id":"cebpf4jnsgd1na2vs0mg"},{"bike_id":"af0829a1-1a65-455b-b630-7f38b979293f","system_id":"levelo_inurba_marseille","lat":43.273757,"lon":5.362527,"is_reserved":false,"is_disabled":false,"rental_uris":{"android":"levelo://app?vid=af0829a1-1a65-455b-b630-7f38b979293f","ios":"levelo://app?vid=af0829a1-1a65-455b-b630-7f38b979293f"},"vehicle_type_id":"4","last_reported":1750695221,"current_range_meters":17200,"station_id":"ce4bhbh2rcd13ifvqeo0","pricing_plan_id":"cebpf4jnsgd1na2vs0mg"},{"bike_id":"ebc64ebc-4d05-460e-ae32-b1f3dec7d542","system_id":"levelo_inurba_marseille","lat":43.28616,"lon":5.35106,"is_reserved":false,"is_disabled":false,"rental_uris":{"android":"levelo://app?vid=ebc64ebc-4d05-460e-ae32-b1f3dec7d542","ios":"levelo://app?vid=ebc64ebc-4d05-460e-ae32-b1f3dec7d542"},"vehicle_type_id":"4","last_reported":1750695221,"current_range_meters":17200,"station_id":"ce4bhch2rcd13ifvqeug","pricing_plan_id":"cebpf4jnsgd1na2vs0mg"},{"bike_id":"0ac24836-1209-412c-b20f-55d51ce07651","system_id":"levelo_inurba_marseille","lat":43.30797,"lon":5.43535,"is_reserved":false,"is_disabled":false,"rental_uris":{"android":"levelo://app?vid=0ac24836-1209-412c-b20f-55d51ce07651","ios":"levelo://app?vid=0ac24836-1209-412c-b20f-55d51ce07651"},"vehicle_type_id":"4","last_reported":1750695221,"current_range_meters":17200,"station_id":"ce4bhph2rcd13ifvqheg","pricing_plan_id":"cebpf4jnsgd1na2vs0mg"},{"bike_id":"e6e1ec66-36d4-41d2-872a-c2836e7851fd","system_id":"levelo_inurba_marseille","lat":43.21752,"lon":5.34599,"is_reserved":false,"is_disabled":false,"rental_uris":{"android":"levelo://app?vid=e6e1ec66-36d4-41d2-872a-c2836e7851fd","ios":"levelo://app?vid=e6e1ec66-36d4-41d2-872a-c2836e7851fd"},"vehicle_type_id":"4","last_reported":1750695221,"current_range_meters":17200,"station_id":"st_cvj6r9ubvosntc0bgbag","pricing_plan_id":"cebpf4jnsgd1na2vs0mg"},{"bike_id":"15bd695a-9ca5-4a9a-baad-f88187a333a1","system_id":"levelo_inurba_marseille","lat":43.28615,"lon":5.35098,"is_reserved":false,"is_disabled":false,"rental_uris":{"android":"levelo://app?vid=15bd695a-9ca5-4a9a-baad-f88187a333a1","ios":"levelo://app?vid=15bd695a-9ca5-4a9a-baad-f88187a333a1"},"vehicle_type_id":"4","last_reported":1750695221,"current_range_meters":17600,"station_id":"ce4bhch2rcd13ifvqeug","pricing_plan_id":"cebpf4jnsgd1na2vs0mg"},{"bike_id":"3cd404d1-613f-4351-8fdf-d20535e0aa98","system_id":"levelo_inurba_marseille","lat":43.337444,"lon":5.374475,"is_reserved":false,"is_disabled":false,"rental_uris":{"android":"levelo://app?vid=3cd404d1-613f-4351-8fdf-d20535e0aa98","ios":"levelo://app?vid=3cd404d1-613f-4351-8fdf-d20535e0aa98"},"vehicle_type_id":"4","last_reported":1750695221,"current_range_meters":18000,"station_id":"","pricing_plan_id":"cebpf4jnsgd1na2vs0mg"},{"bike_id":"11ebf4fb-e752-44af-81e3-7d28e8eee9cc","system_id":"levelo_inurba_marseille","lat":43.28126,"lon":5.432,"is_reserved":false,"is_disabled":false,"rental_uris":{"android":"levelo://app?vid=11ebf4fb-e752-44af-81e3-7d28e8eee9cc","ios":"levelo://app?vid=11ebf4fb-e752-44af-81e3-7d28e8eee9cc"},"vehicle_type_id":"4","last_reported":1750695221,"current_range_meters":18000,"station_id":"","pricing_plan_id":"cebpf4jnsgd1na2vs0mg"},{"bike_id":"2f07b810-8949-46c4-a7d1-2876ec3c6856","system_id":"levelo_inurba_marseille","lat":43.28413,"lon":5.34976,"is_reserved":false,"is_disabled":false,"rental_uris":{"android":"levelo://app?vid=2f07b810-8949-46c4-a7d1-2876ec3c6856","ios":"levelo://app?vid=2f07b810-8949-46c4-a7d1-2876ec3c6856"},"vehicle_type_id":"4","last_reported":1750695221,"current_range_meters":18000,"station_id":"ce4bhbh2rcd13ifvqepg","pricing_plan_id":"cebpf4jnsgd1na2vs0mg"},{"bike_id":"930055bb-9881-4952-9303-cb8643e1da28","system_id":"levelo_inurba_marseille","lat":43.28616,"lon":5.35099,"is_reserved":false,"is_disabled":false,"rental_uris":{"android":"levelo://app?vid=930055bb-9881-4952-9303-cb8643e1da28","ios":"levelo://app?vid=930055bb-9881-4952-9303-cb8643e1da28"},"vehicle_type_id":"4","last_reported":1750695221,"current_range_meters":18000,"station_id":"ce4bhch2rcd13ifvqeug","pricing_plan_id":"cebpf4jnsgd1na2vs0mg"},{"bike_id":"0f728689-eecf-4b45-a4da-be117efaa010","system_id":"levelo_inurba_marseille","lat":43.24652,"lon":5.38899,"is_reserved":false,"is_disabled":false,"rental_uris":{"android":"levelo://app?vid=0f728689-eecf-4b45-a4da-be117efaa010","ios":"levelo://app?vid=0f728689-eecf-4b45-a4da-be117efaa010"},"vehicle_type_id":"4","last_reported":1750695221,"current_range_meters":18000,"station_id":"ce4bhg12rcd13ifvqf60","pricing_plan_id":"cebpf4jnsgd1na2vs0mg"},{"bike_id":"9d4f6242-f63d-4995-af72-07e695625b70","system_id":"levelo_inurba_marseille","lat":43.24645,"lon":5.38892,"is_reserved":false,"is_disabled":false,"rental_uris":{"android":"levelo://app?vid=9d4f6242-f63d-4995-af72-07e695625b70","ios":"levelo://app?vid=9d4f6242-f63d-4995-af72-07e695625b70"},"vehicle_type_id":"4","last_reported":1750695221,"current_range_meters":18000,"station_id":"ce4bhg12rcd13ifvqf60","pricing_plan_id":"cebpf4jnsgd1na2vs0mg"},{"bike_id":"092eaa9b-252b-425c-bacd-75ec9a41e9e9","system_id":"levelo_inurba_marseille","lat":43.24061,"lon":5.3775,"is_reserved":false,"is_disabled":false,"rental_uris":{"android":"levelo://app?vid=092eaa9b-252b-425c-bacd-75ec9a41e9e9","ios":"levelo://app?vid=092eaa9b-252b-425c-bacd-75ec9a41e9e9"},"vehicle_type_id":"4","last_reported":1750695221,"current_range_meters":18000,"station_id":"ce4bhnp2rcd13ifvqgvg","pricing_plan_id":"cebpf4jnsgd1na2vs0mg"},{"bike_id":"801c2515-e061-4ec1-b305-97c3a566a070","system_id":"levelo_inurba_marseille","lat":43.21194,"lon":5.35099,"is_reserved":false,"is_disabled":false,"rental_uris":{"android":"levelo://app?vid=801c2515-e061-4ec1-b305-97c3a566a070","ios":"levelo://app?vid=801c2515-e061-4ec1-b305-97c3a566a070"},"vehicle_type_id":"4","last_reported":1750695221,"current_range_meters":18000,"station_id":"st_cvj6sg6p6f1abm77japg","pricing_plan_id":"cebpf4jnsgd1na2vs0mg"},{"bike_id":"ecd4395f-2f23-49d0-9d20-0f5e8f0b33c4","system_id":"levelo_inurba_marseille","lat":43.295282,"lon":5.38538,"is_reserved":false,"is_disabled":false,"rental_uris":{"android":"levelo://app?vid=ecd4395f-2f23-49d0-9d20-0f5e8f0b33c4","ios":"levelo://app?vid=ecd4395f-2f23-49d0-9d20-0f5e8f0b33c4"},"vehicle_type_id":"4","last_reported":1750695221,"current_range_meters":18800,"station_id":"ce4bgih2rcd13ifvqba0","pricing_plan_id":"cebpf4jnsgd1na2vs0mg"},{"bike_id":"6c778c52-2f3a-48c3-9632-b8122b0593da","system_id":"levelo_inurba_marseille","lat":43.29281,"lon":5.4012,"is_reserved":false,"is_disabled":false,"rental_uris":{"android":"levelo://app?vid=6c778c52-2f3a-48c3-9632-b8122b0593da","ios":"levelo://app?vid=6c778c52-2f3a-48c3-9632-b8122b0593da"},"vehicle_type_id":"4","last_reported":1750695221,"current_range_meters":18800,"station_id":"ce4bh312rcd13ifvqdk0","pricing_plan_id":"cebpf4jnsgd1na2vs0mg"},{"bike_id":"cef721fd-afe4-48d0-89b0-0777a634e87f","system_id":"levelo_inurba_marseille","lat":43.24402,"lon":5.37125,"is_reserved":false,"is_disabled":false,"rental_uris":{"android":"levelo://app?vid=cef721fd-afe4-48d0-89b0-0777a634e87f","ios":"levelo://app?vid=cef721fd-afe4-48d0-89b0-0777a634e87f"},"vehicle_type_id":"4","last_reported":1750695221,"current_range_meters":18800,"station_id":"ce4bhhh2rcd13ifvqfk0","pricing_plan_id":"cebpf4jnsgd1na2vs0mg"},{"bike_id":"17e9d97a-85d8-4046-b343-9e54d7d0276b","system_id":"levelo_inurba_marseille","lat":43.270486,"lon":5.402422,"is_reserved":false,"is_disabled":false,"rental_uris":{"android":"levelo://app?vid=17e9d97a-85d8-4046-b343-9e54d7d0276b","ios":"levelo://app?vid=17e9d97a-85d8-4046-b343-9e54d7d0276b"},"vehicle_type_id":"4","last_reported":1750695221,"current_range_meters":18800,"station_id":"ce4bhk92rcd13ifvqgc0","pricing_plan_id":"cebpf4jnsgd1na2vs0mg"},{"bike_id":"4129ac86-5e30-4116-bad0-39de2ee79b06","system_id":"levelo_inurba_marseille","lat":43.245427,"lon":5.395264,"is_reserved":false,"is_disabled":false,"rental_uris":{"android":"levelo://app?vid=4129ac86-5e30-4116-bad0-39de2ee79b06","ios":"levelo://app?vid=4129ac86-5e30-4116-bad0-39de2ee79b06"},"vehicle_type_id":"4","last_reported":1750695221,"current_range_meters":18800,"station_id":"ce4bhlp2rcd13ifvqgjg","pricing_plan_id":"cebpf4jnsgd1na2vs0mg"},{"bike_id":"3fa5c838-8c54-44e5-97e6-f53fb2c9fcf6","system_id":"levelo_inurba_marseille","lat":43.279457,"lon":5.410247,"is_reserved":false,"is_disabled":false,"rental_uris":{"android":"levelo://app?vid=3fa5c838-8c54-44e5-97e6-f53fb2c9fcf6","ios":"levelo://app?vid=3fa5c838-8c54-44e5-97e6-f53fb2c9fcf6"},"vehicle_type_id":"4","last_reported":1750695221,"current_range_meters":18800,"station_id":"ce4bhnp2rcd13ifvqh0g","pricing_plan_id":"cebpf4jnsgd1na2vs0mg"},{"bike_id":"6bf0fb3d-c4f9-404a-a416-1560f7fa7c5b","system_id":"levelo_inurba_marseille","lat":43.2417,"lon":5.36362,"is_reserved":false,"is_disabled":false,"rental_uris":{"android":"levelo://app?vid=6bf0fb3d-c4f9-404a-a416-1560f7fa7c5b","ios":"levelo://app?vid=6bf0fb3d-c4f9-404a-a416-1560f7fa7c5b"},"vehicle_type_id":"4","last_reported":1750695221,"current_range_meters":18800,"station_id":"cpo36qri1sfpv3e86is0","pricing_plan_id":"cebpf4jnsgd1na2vs0mg"},{"bike_id":"ff1500cc-ac8f-45c9-881c-9fd6595094a3","system_id":"levelo_inurba_marseille","lat":43.31814,"lon":5.40177,"is_reserved":false,"is_disabled":false,"rental_uris":{"android":"levelo://app?vid=ff1500cc-ac8f-45c9-881c-9fd6595094a3","ios":"levelo://app?vid=ff1500cc-ac8f-45c9-881c-9fd6595094a3"},"vehicle_type_id":"4","last_reported":1750695221,"current_range_meters":19200,"station_id":"","pricing_plan_id":"cebpf4jnsgd1na2vs0mg"},{"bike_id":"00668fc1-f681-4a7b-a0ce-5b46051a3a46","system_id":"levelo_inurba_marseille","lat":43.27374,"lon":5.36258,"is_reserved":false,"is_disabled":false,"rental_uris":{"android":"levelo://app?vid=00668fc1-f681-4a7b-a0ce-5b46051a3a46","ios":"levelo://app?vid=00668fc1-f681-4a7b-a0ce-5b46051a3a46"},"vehicle_type_id":"4","last_reported":1750695221,"current_range_meters":19200,"station_id":"ce4bhbh2rcd13ifvqeo0","pricing_plan_id":"cebpf4jnsgd1na2vs0mg"},{"bike_id":"8da5d167-a956-4b6f-b80d-1162023c715e","system_id":"levelo_inurba_marseille","lat":43.28268,"lon":5.35068,"is_reserved":false,"is_disabled":false,"rental_uris":{"android":"levelo://app?vid=8da5d167-a956-4b6f-b80d-1162023c715e","ios":"levelo://app?vid=8da5d167-a956-4b6f-b80d-1162023c715e"},"vehicle_type_id":"4","last_reported":1750695221,"current_range_meters":19200,"station_id":"ce4bhbp2rcd13ifvqerg","pricing_plan_id":"cebpf4jnsgd1na2vs0mg"},{"bike_id":"51b217be-9488-41c1-b083-6d728251b280","system_id":"levelo_inurba_marseille","lat":43.243314,"lon":5.36893,"is_reserved":false,"is_disabled":false,"rental_uris":{"android":"levelo://app?vid=51b217be-9488-41c1-b083-6d728251b280","ios":"levelo://app?vid=51b217be-9488-41c1-b083-6d728251b280"},"vehicle_type_id":"4","last_reported":1750695221,"current_range_meters":19600,"station_id":"","pricing_plan_id":"cebpf4jnsgd1na2vs0mg"},{"bike_id":"3499a886-617e-4add-bc79-7d776e7943e6","system_id":"levelo_inurba_marseille","lat":43.33733,"lon":5.37462,"is_reserved":false,"is_disabled":false,"rental_uris":{"android":"levelo://app?vid=3499a886-617e-4add-bc79-7d776e7943e6","ios":"levelo://app?vid=3499a886-617e-4add-bc79-7d776e7943e6"},"vehicle_type_id":"4","last_reported":1750695221,"current_range_meters":19600,"station_id":"","pricing_plan_id":"cebpf4jnsgd1na2vs0mg"},{"bike_id":"39975c47-ab5a-43f5-8e64-39af3349dd84","system_id":"levelo_inurba_marseille","lat":43.29788,"lon":5.38105,"is_reserved":false,"is_disabled":false,"rental_uris":{"android":"levelo://app?vid=39975c47-ab5a-43f5-8e64-39af3349dd84","ios":"levelo://app?vid=39975c47-ab5a-43f5-8e64-39af3349dd84"},"vehicle_type_id":"4","last_reported":1750695221,"current_range_meters":19600,"station_id":"ce4bgip2rcd13ifvqbb0","pricing_plan_id":"cebpf4jnsgd1na2vs0mg"},{"bike_id":"1a8d5b15-2aac-4c86-8dbb-14c9332d584c","system_id":"levelo_inurba_marseille","lat":43.28431,"lon":5.34994,"is_reserved":false,"is_disabled":false,"rental_uris":{"android":"levelo://app?vid=1a8d5b15-2aac-4c86-8dbb-14c9332d584c","ios":"levelo://app?vid=1a8d5b15-2aac-4c86-8dbb-14c9332d584c"},"vehicle_type_id":"4","last_reported":1750695221,"current_range_meters":19600,"station_id":"ce4bhbh2rcd13ifvqepg","pricing_plan_id":"cebpf4jnsgd1na2vs0mg"},{"bike_id":"844c8b41-f923-48aa-990d-f3cc22da735e","system_id":"levelo_inurba_marseille","lat":43.28606,"lon":5.35101,"is_reserved":false,"is_disabled":false,"rental_uris":{"android":"levelo://app?vid=844c8b41-f923-48aa-990d-f3cc22da735e","ios":"levelo://app?vid=844c8b41-f923-48aa-990d-f3cc22da735e"},"vehicle_type_id":"4","last_reported":1750695221,"current_range_meters":19600,"station_id":"ce4bhch2rcd13ifvqeug","pricing_plan_id":"cebpf4jnsgd1na2vs0mg"},{"bike_id":"d19fa5bd-9e2e-4c5d-adaa-b9e3d98655a7","system_id":"levelo_inurba_marseille","lat":43.28439,"lon":5.39204,"is_reserved":false,"is_disabled":false,"rental_uris":{"android":"levelo://app?vid=d19fa5bd-9e2e-4c5d-adaa-b9e3d98655a7","ios":"levelo://app?vid=d19fa5bd-9e2e-4c5d-adaa-b9e3d98655a7"},"vehicle_type_id":"4","last_reported":1750695221,"current_range_meters":19600,"station_id":"ce4bhoh2rcd13ifvqh5g","pricing_plan_id":"cebpf4jnsgd1na2vs0mg"},{"bike_id":"7c8425a0-f7d7-4822-8dfb-e80d7f754aea","system_id":"levelo_inurba_marseille","lat":43.31711,"lon":5.43707,"is_reserved":false,"is_disabled":false,"rental_uris":{"android":"levelo://app?vid=7c8425a0-f7d7-4822-8dfb-e80d7f754aea","ios":"levelo://app?vid=7c8425a0-f7d7-4822-8dfb-e80d7f754aea"},"vehicle_type_id":"4","last_reported":1750695221,"current_range_meters":19600,"station_id":"ce4bhp92rcd13ifvqhcg","pricing_plan_id":"cebpf4jnsgd1na2vs0mg"},{"bike_id":"fd076047-2a0c-4e63-8701-7dcb3be8b959","system_id":"levelo_inurba_marseille","lat":43.22952,"lon":5.3538,"is_reserved":false,"is_disabled":false,"rental_uris":{"android":"levelo://app?vid=fd076047-2a0c-4e63-8701-7dcb3be8b959","ios":"levelo://app?vid=fd076047-2a0c-4e63-8701-7dcb3be8b959"},"vehicle_type_id":"4","last_reported":1750695221,"current_range_meters":19600,"station_id":"cpo3532slgdg3j2ikp40","pricing_plan_id":"cebpf4jnsgd1na2vs0mg"},{"bike_id":"af112b62-19de-41d4-b8d7-e14d0172315d","system_id":"levelo_inurba_marseille","lat":43.32729,"lon":5.39285,"is_reserved":false,"is_disabled":false,"rental_uris":{"android":"levelo://app?vid=af112b62-19de-41d4-b8d7-e14d0172315d","ios":"levelo://app?vid=af112b62-19de-41d4-b8d7-e14d0172315d"},"vehicle_type_id":"4","last_reported":1750695221,"current_range_meters":20000,"station_id":"","pricing_plan_id":"cebpf4jnsgd1na2vs0mg"},{"bike_id":"35e4e1cf-c974-4239-9082-aa87925bf921","system_id":"levelo_inurba_marseille","lat":43.281067,"lon":5.378295,"is_reserved":false,"is_disabled":false,"rental_uris":{"android":"levelo://app?vid=35e4e1cf-c974-4239-9082-aa87925bf921","ios":"levelo://app?vid=35e4e1cf-c974-4239-9082-aa87925bf921"},"vehicle_type_id":"4","last_reported":1750695221,"current_range_meters":20000,"station_id":"ce4bha12rcd13ifvqee0","pricing_plan_id":"cebpf4jnsgd1na2vs0mg"},{"bike_id":"b8ac3d52-f2a0-41a7-ab9d-a8efbe7557c4","system_id":"levelo_inurba_marseille","lat":43.29006,"lon":5.35607,"is_reserved":false,"is_disabled":false,"rental_uris":{"android":"levelo://app?vid=b8ac3d52-f2a0-41a7-ab9d-a8efbe7557c4","ios":"levelo://app?vid=b8ac3d52-f2a0-41a7-ab9d-a8efbe7557c4"},"vehicle_type_id":"4","last_reported":1750695221,"current_range_meters":20000,"station_id":"ce4bhb92rcd13ifvqen0","pricing_plan_id":"cebpf4jnsgd1na2vs0mg"},{"bike_id":"f85c047a-1229-417e-87f1-28a743af7103","system_id":"levelo_inurba_marseille","lat":43.28411,"lon":5.34993,"is_reserved":false,"is_disabled":false,"rental_uris":{"android":"levelo://app?vid=f85c047a-1229-417e-87f1-28a743af7103","ios":"levelo://app?vid=f85c047a-1229-417e-87f1-28a743af7103"},"vehicle_type_id":"4","last_reported":1750695221,"current_range_meters":20000,"station_id":"ce4bhbh2rcd13ifvqepg","pricing_plan_id":"cebpf4jnsgd1na2vs0mg"},{"bike_id":"3217f456-6e57-4ca2-9f7b-2490a214ed83","system_id":"levelo_inurba_marseille","lat":43.28406,"lon":5.34988,"is_reserved":false,"is_disabled":false,"rental_uris":{"android":"levelo://app?vid=3217f456-6e57-4ca2-9f7b-2490a214ed83","ios":"levelo://app?vid=3217f456-6e57-4ca2-9f7b-2490a214ed83"},"vehicle_type_id":"4","last_reported":1750695221,"current_range_meters":20000,"station_id":"ce4bhbh2rcd13ifvqepg","pricing_plan_id":"cebpf4jnsgd1na2vs0mg"},{"bike_id":"ac2a260b-7541-497e-bc6d-084f0e62340b","system_id":"levelo_inurba_marseille","lat":43.28409,"lon":5.34973,"is_reserved":false,"is_disabled":false,"rental_uris":{"android":"levelo://app?vid=ac2a260b-7541-497e-bc6d-084f0e62340b","ios":"levelo://app?vid=ac2a260b-7541-497e-bc6d-084f0e62340b"},"vehicle_type_id":"4","last_reported":1750695221,"current_range_meters":20000,"station_id":"ce4bhbh2rcd13ifvqepg","pricing_plan_id":"cebpf4jnsgd1na2vs0mg"},{"bike_id":"4b5e4cdd-a385-433b-a382-1be6343ce999","system_id":"levelo_inurba_marseille","lat":43.2396,"lon":5.36637,"is_reserved":false,"is_disabled":false,"rental_uris":{"android":"levelo://app?vid=4b5e4cdd-a385-433b-a382-1be6343ce999","ios":"levelo://app?vid=4b5e4cdd-a385-433b-a382-1be6343ce999"},"vehicle_type_id":"4","last_reported":1750695221,"current_range_meters":20000,"station_id":"ce4bhi12rcd13ifvqfp0","pricing_plan_id":"cebpf4jnsgd1na2vs0mg"},{"bike_id":"0783249e-9f70-464a-b769-adb77239d765","system_id":"levelo_inurba_marseille","lat":43.21195,"lon":5.35069,"is_reserved":false,"is_disabled":false,"rental_uris":{"android":"levelo://app?vid=0783249e-9f70-464a-b769-adb77239d765","ios":"levelo://app?vid=0783249e-9f70-464a-b769-adb77239d765"},"vehicle_type_id":"4","last_reported":1750695221,"current_range_meters":20000,"station_id":"st_cvj6sg6p6f1abm77japg","pricing_plan_id":"cebpf4jnsgd1na2vs0mg"},{"bike_id":"992e3d98-fde3-478c-808a-d323777ae415","system_id":"levelo_inurba_marseille","lat":43.25243,"lon":5.40858,"is_reserved":false,"is_disabled":false,"rental_uris":{"android":"levelo://app?vid=992e3d98-fde3-478c-808a-d323777ae415","ios":"levelo://app?vid=992e3d98-fde3-478c-808a-d323777ae415"},"vehicle_type_id":"4","last_reported":1750695221,"current_range_meters":20400,"station_id":"","pricing_plan_id":"cebpf4jnsgd1na2vs0mg"},{"bike_id":"ae9e0e54-2dfb-43e2-8209-0db884c06ef6","system_id":"levelo_inurba_marseille","lat":43.305404,"lon":5.367042,"is_reserved":false,"is_disabled":false,"rental_uris":{"android":"levelo://app?vid=ae9e0e54-2dfb-43e2-8209-0db884c06ef6","ios":"levelo://app?vid=ae9e0e54-2dfb-43e2-8209-0db884c06ef6"},"vehicle_type_id":"4","last_reported":1750695221,"current_range_meters":20400,"station_id":"","pricing_plan_id":"cebpf4jnsgd1na2vs0mg"},{"bike_id":"2e85236b-566e-4dec-aeb7-2c5d6be748cb","system_id":"levelo_inurba_marseille","lat":43.26201,"lon":5.37932,"is_reserved":false,"is_disabled":false,"rental_uris":{"android":"levelo://app?vid=2e85236b-566e-4dec-aeb7-2c5d6be748cb","ios":"levelo://app?vid=2e85236b-566e-4dec-aeb7-2c5d6be748cb"},"vehicle_type_id":"4","last_reported":1750695221,"current_range_meters":20400,"station_id":"ce4bhjp2rcd13ifvqg90","pricing_plan_id":"cebpf4jnsgd1na2vs0mg"},{"bike_id":"26a14eba-87a9-47b8-9607-30bd0042d428","system_id":"levelo_inurba_marseille","lat":43.31436,"lon":5.39495,"is_reserved":false,"is_disabled":false,"rental_uris":{"android":"levelo://app?vid=26a14eba-87a9-47b8-9607-30bd0042d428","ios":"levelo://app?vid=26a14eba-87a9-47b8-9607-30bd0042d428"},"vehicle_type_id":"4","last_reported":1750695221,"current_range_meters":20800,"station_id":"","pricing_plan_id":"cebpf4jnsgd1na2vs0mg"},{"bike_id":"a7542d1d-908d-4f5c-8b27-3bb62ca4047d","system_id":"levelo_inurba_marseille","lat":43.31477,"lon":5.37295,"is_reserved":false,"is_disabled":false,"rental_uris":{"android":"levelo://app?vid=a7542d1d-908d-4f5c-8b27-3bb62ca4047d","ios":"levelo://app?vid=a7542d1d-908d-4f5c-8b27-3bb62ca4047d"},"vehicle_type_id":"4","last_reported":1750695221,"current_range_meters":20800,"station_id":"","pricing_plan_id":"cebpf4jnsgd1na2vs0mg"},{"bike_id":"4434f12d-aa2a-4d71-8568-f64fc1cf374d","system_id":"levelo_inurba_marseille","lat":43.30261,"lon":5.40082,"is_reserved":false,"is_disabled":false,"rental_uris":{"android":"levelo://app?vid=4434f12d-aa2a-4d71-8568-f64fc1cf374d","ios":"levelo://app?vid=4434f12d-aa2a-4d71-8568-f64fc1cf374d"},