{"last_updated":1743883789,"ttl":60,"version":"2.2","data":{"bikes":[{"bike_id":"2947ce29-c55a-4f00-b57b-cb647d290c55","system_id":"levelo_inurba_marseille","lat":43.24807,"lon":5.37457,"is_reserved":false,"is_disabled":true,"rental_uris":{"android":"levelo://app?vid=2947ce29-c55a-4f00-b57b-cb647d290c55","ios":"levelo://app?vid=2947ce29-c55a-4f00-b57b-cb647d290c55"},"vehicle_type_id":"4","last_reported":1743883789,"current_range_meters":2800,"station_id":"ce4bhgh2rcd13ifvqfb0","pricing_plan_id":"cebpf4jnsgd1na2vs0mg"},{"bike_id":"4c139bbe-29a0-4311-a0ad-5b4717eca053","system_id":"levelo_inurba_marseille","lat":43.2948,"lon":5.38685,"is_reserved":false,"is_disabled":false,"rental_uris":{"android":"levelo://app?vid=4c139bbe-29a0-4311-a0ad-5b4717eca053","ios":"levelo://app?vid=4c139bbe-29a0-4311-a0ad-5b4717eca053"},"vehicle_type_id":"4","last_reported":1743883789,"current_range_meters":2800,"station_id":"","pricing_plan_id":"cebpf4jnsgd1na2vs0mg"},{"bike_id":"c450ef08-e212-49f1-80d8-0c7d3dfd83d9","system_id":"levelo_inurba_marseille","lat":43.24673,"lon":5.40114,"is_reserved":false,"is_disabled":false,"rental_uris":{"android":"levelo://app?vid=c450ef08-e212-49f1-80d8-0c7d3dfd83d9","ios":"levelo://app?vid=c450ef08-e212-49f1-80d8-0c7d3dfd83d9"},"vehicle_type_id":"4","last_reported":1743883789,"current_range_meters":2800,"station_id":"","pricing_plan_id":"cebpf4jnsgd1na2vs0mg"},{"bike_id":"2dd2ca3d-4991-4739-a46f-831a32895452","system_id":"levelo_inurba_marseille","lat":43.29115,"lon":5.35573,"is_reserved":false,"is_disabled":true,"rental_uris":{"android":"levelo://app?vid=2dd2ca3d-4991-4739-a46f-831a32895452","ios":"levelo://app?vid=2dd2ca3d-4991-4739-a46f-831a32895452"},"vehicle_type_id":"4","last_reported":1743883789,"current_range_meters":2800,"station_id":"","pricing_plan_id":"cebpf4jnsgd1na2vs0mg"},{"bike_id":"b52ea0b4-74b0-4916-a5b1-9442e68d6bab","system_id":"levelo_inurba_marseille","lat":43.292913,"lon":5.374647,"is_reserved":false,"is_disabled":false,"rental_uris":{"android":"levelo://app?vid=b52ea0b4-74b0-4916-a5b1-9442e68d6bab","ios":"levelo://app?vid=b52ea0b4-74b0-4916-a5b1-9442e68d6bab"},"vehicle_type_id":"4","last_reported":1743883789,"current_range_meters":2800,"station_id":"ce4bgi12rcd13ifvqb70","pricing_plan_id":"cebpf4jnsgd1na2vs0mg"},{"bike_id":"109f9901-debb-404a-aea9-d1ed76905ed3","system_id":"levelo_inurba_marseille","lat":43.29239,"lon":5.40897,"is_reserved":false,"is_disabled":false,"rental_uris":{"android":"levelo://app?vid=109f9901-debb-404a-aea9-d1ed76905ed3","ios":"levelo://app?vid=109f9901-debb-404a-aea9-d1ed76905ed3"},"vehicle_type_id":"4","last_reported":1743883789,"current_range_meters":2800,"station_id":"ce4bh192rcd13ifvqdc0","pricing_plan_id":"cebpf4jnsgd1na2vs0mg"},{"bike_id":"7b858873-3ffb-4dcc-8815-157571c6f534","system_id":"levelo_inurba_marseille","lat":43.29772,"lon":5.38119,"is_reserved":false,"is_disabled":true,"rental_uris":{"android":"levelo://app?vid=7b858873-3ffb-4dcc-8815-157571c6f534","ios":"levelo://app?vid=7b858873-3ffb-4dcc-8815-157571c6f534"},"vehicle_type_id":"4","last_reported":1743883789,"current_range_meters":2800,"station_id":"ce4bgip2rcd13ifvqbb0","pricing_plan_id":"cebpf4jnsgd1na2vs0mg"},{"bike_id":"b0744bd6-c473-4f27-91bc-b79e9a11efd5","system_id":"levelo_inurba_marseille","lat":43.299683,"lon":5.371687,"is_reserved":false,"is_disabled":false,"rental_uris":{"android":"levelo://app?vid=b0744bd6-c473-4f27-91bc-b79e9a11efd5","ios":"levelo://app?vid=b0744bd6-c473-4f27-91bc-b79e9a11efd5"},"vehicle_type_id":"4","last_reported":1743883789,"current_range_meters":2800,"station_id":"ce4bh012rcd13ifvqd10","pricing_plan_id":"cebpf4jnsgd1na2vs0mg"},{"bike_id":"9c2b6a5e-7819-444a-8092-abc8a61457a3","system_id":"levelo_inurba_marseille","lat":43.295658,"lon":5.39964,"is_reserved":false,"is_disabled":false,"rental_uris":{"android":"levelo://app?vid=9c2b6a5e-7819-444a-8092-abc8a61457a3","ios":"levelo://app?vid=9c2b6a5e-7819-444a-8092-abc8a61457a3"},"vehicle_type_id":"4","last_reported":1743883789,"current_range_meters":2800,"station_id":"ce4bh312rcd13ifvqdj0","pricing_plan_id":"cebpf4jnsgd1na2vs0mg"},{"bike_id":"f68c934e-287c-496e-8dd7-5cd721f936d1","system_id":"levelo_inurba_marseille","lat":43.29008,"lon":5.38126,"is_reserved":false,"is_disabled":false,"rental_uris":{"android":"levelo://app?vid=f68c934e-287c-496e-8dd7-5cd721f936d1","ios":"levelo://app?vid=f68c934e-287c-496e-8dd7-5cd721f936d1"},"vehicle_type_id":"4","last_reported":1743883789,"current_range_meters":3200,"station_id":"ce4bh4p2rcd13ifvqe1g","pricing_plan_id":"cebpf4jnsgd1na2vs0mg"},{"bike_id":"635725c6-1e25-4bf5-afe8-428858730378","system_id":"levelo_inurba_marseille","lat":43.26541,"lon":5.39068,"is_reserved":false,"is_disabled":false,"rental_uris":{"android":"levelo://app?vid=635725c6-1e25-4bf5-afe8-428858730378","ios":"levelo://app?vid=635725c6-1e25-4bf5-afe8-428858730378"},"vehicle_type_id":"4","last_reported":1743883789,"current_range_meters":3200,"station_id":"","pricing_plan_id":"cebpf4jnsgd1na2vs0mg"},{"bike_id":"88a9d37f-fd8f-44ca-9617-df8990416c5d","system_id":"levelo_inurba_marseille","lat":43.28489,"lon":5.38591,"is_reserved":false,"is_disabled":false,"rental_uris":{"android":"levelo://app?vid=88a9d37f-fd8f-44ca-9617-df8990416c5d","ios":"levelo://app?vid=88a9d37f-fd8f-44ca-9617-df8990416c5d"},"vehicle_type_id":"4","last_reported":1743883789,"current_range_meters":3200,"station_id":"ce4bh8p2rcd13ifvqeb0","pricing_plan_id":"cebpf4jnsgd1na2vs0mg"},{"bike_id":"86895fcb-42a7-4019-892c-3e27366266f1","system_id":"levelo_inurba_marseille","lat":43.25002,"lon":5.38923,"is_reserved":false,"is_disabled":false,"rental_uris":{"android":"levelo://app?vid=86895fcb-42a7-4019-892c-3e27366266f1","ios":"levelo://app?vid=86895fcb-42a7-4019-892c-3e27366266f1"},"vehicle_type_id":"4","last_reported":1743883789,"current_range_meters":3200,"station_id":"ce4bhgp2rcd13ifvqfd0","pricing_plan_id":"cebpf4jnsgd1na2vs0mg"},{"bike_id":"f20756e6-fb3b-4415-8977-0d45a3dced21","system_id":"levelo_inurba_marseille","lat":43.293013,"lon":5.374691,"is_reserved":false,"is_disabled":false,"rental_uris":{"android":"levelo://app?vid=f20756e6-fb3b-4415-8977-0d45a3dced21","ios":"levelo://app?vid=f20756e6-fb3b-4415-8977-0d45a3dced21"},"vehicle_type_id":"4","last_reported":1743883789,"current_range_meters":3200,"station_id":"ce4bgi12rcd13ifvqb70","pricing_plan_id":"cebpf4jnsgd1na2vs0mg"},{"bike_id":"d2cad865-9482-4d47-b6ac-d930ad5fc231","system_id":"levelo_inurba_marseille","lat":43.265,"lon":5.3953,"is_reserved":false,"is_disabled":false,"rental_uris":{"android":"levelo://app?vid=d2cad865-9482-4d47-b6ac-d930ad5fc231","ios":"levelo://app?vid=d2cad865-9482-4d47-b6ac-d930ad5fc231"},"vehicle_type_id":"4","last_reported":1743883789,"current_range_meters":3200,"station_id":"ce4bhi12rcd13ifvqfq0","pricing_plan_id":"cebpf4jnsgd1na2vs0mg"},{"bike_id":"47287278-58df-457d-8e99-dd9f16fb1db6","system_id":"levelo_inurba_marseille","lat":43.29516,"lon":5.39032,"is_reserved":false,"is_disabled":false,"rental_uris":{"android":"levelo://app?vid=47287278-58df-457d-8e99-dd9f16fb1db6","ios":"levelo://app?vid=47287278-58df-457d-8e99-dd9f16fb1db6"},"vehicle_type_id":"4","last_reported":1743883789,"current_range_meters":3200,"station_id":"ce4bh3p2rcd13ifvqdp0","pricing_plan_id":"cebpf4jnsgd1na2vs0mg"},{"bike_id":"ae40b1e0-6383-4acf-8389-5599dc54e4ce","system_id":"levelo_inurba_marseille","lat":43.23961,"lon":5.36628,"is_reserved":false,"is_disabled":false,"rental_uris":{"android":"levelo://app?vid=ae40b1e0-6383-4acf-8389-5599dc54e4ce","ios":"levelo://app?vid=ae40b1e0-6383-4acf-8389-5599dc54e4ce"},"vehicle_type_id":"4","last_reported":1743883789,"current_range_meters":3600,"station_id":"ce4bhi12rcd13ifvqfp0","pricing_plan_id":"cebpf4jnsgd1na2vs0mg"},{"bike_id":"f8b5af23-c1af-4cdf-ba8b-28c11e3b8319","system_id":"levelo_inurba_marseille","lat":43.27663,"lon":5.38879,"is_reserved":false,"is_disabled":false,"rental_uris":{"android":"levelo://app?vid=f8b5af23-c1af-4cdf-ba8b-28c11e3b8319","ios":"levelo://app?vid=f8b5af23-c1af-4cdf-ba8b-28c11e3b8319"},"vehicle_type_id":"4","last_reported":1743883789,"current_range_meters":3600,"station_id":"ce4bhi12rcd13ifvqfo0","pricing_plan_id":"cebpf4jnsgd1na2vs0mg"},{"bike_id":"7b8bf5fc-1902-47f0-8478-c99dd39ef1a1","system_id":"levelo_inurba_marseille","lat":43.30092,"lon":5.39072,"is_reserved":false,"is_disabled":false,"rental_uris":{"android":"levelo://app?vid=7b8bf5fc-1902-47f0-8478-c99dd39ef1a1","ios":"levelo://app?vid=7b8bf5fc-1902-47f0-8478-c99dd39ef1a1"},"vehicle_type_id":"4","last_reported":1743883789,"current_range_meters":3600,"station_id":"ce4bh192rcd13ifvqdb0","pricing_plan_id":"cebpf4jnsgd1na2vs0mg"},{"bike_id":"9ef45fd2-cfd9-4ce6-8b03-cf5ad6b86dfe","system_id":"levelo_inurba_marseille","lat":43.31748,"lon":5.39008,"is_reserved":false,"is_disabled":false,"rental_uris":{"android":"levelo://app?vid=9ef45fd2-cfd9-4ce6-8b03-cf5ad6b86dfe","ios":"levelo://app?vid=9ef45fd2-cfd9-4ce6-8b03-cf5ad6b86dfe"},"vehicle_type_id":"4","last_reported":1743883789,"current_range_meters":4000,"station_id":"ce4bhqp2rcd13ifvqhng","pricing_plan_id":"cebpf4jnsgd1na2vs0mg"},{"bike_id":"4e34d051-2612-4f14-81e8-e240a85a2e78","system_id":"levelo_inurba_marseille","lat":43.29448,"lon":5.39736,"is_reserved":false,"is_disabled":false,"rental_uris":{"android":"levelo://app?vid=4e34d051-2612-4f14-81e8-e240a85a2e78","ios":"levelo://app?vid=4e34d051-2612-4f14-81e8-e240a85a2e78"},"vehicle_type_id":"4","last_reported":1743883789,"current_range_meters":3600,"station_id":"ce4bh3h2rcd13ifvqdo0","pricing_plan_id":"cebpf4jnsgd1na2vs0mg"},{"bike_id":"379ffa92-3a8f-401f-8f19-9ddc5430cb05","system_id":"levelo_inurba_marseille","lat":43.29535,"lon":5.38533,"is_reserved":false,"is_disabled":false,"rental_uris":{"android":"levelo://app?vid=379ffa92-3a8f-401f-8f19-9ddc5430cb05","ios":"levelo://app?vid=379ffa92-3a8f-401f-8f19-9ddc5430cb05"},"vehicle_type_id":"4","last_reported":1743883789,"current_range_meters":3600,"station_id":"ce4bgih2rcd13ifvqba0","pricing_plan_id":"cebpf4jnsgd1na2vs0mg"},{"bike_id":"c9e48476-4e25-4365-92ab-ecf9cee0c983","system_id":"levelo_inurba_marseille","lat":43.25869,"lon":5.39916,"is_reserved":false,"is_disabled":false,"rental_uris":{"android":"levelo://app?vid=c9e48476-4e25-4365-92ab-ecf9cee0c983","ios":"levelo://app?vid=c9e48476-4e25-4365-92ab-ecf9cee0c983"},"vehicle_type_id":"4","last_reported":1743883789,"current_range_meters":3600,"station_id":"ce4bhl92rcd13ifvqghg","pricing_plan_id":"cebpf4jnsgd1na2vs0mg"},{"bike_id":"cbc88232-01d1-446a-95d4-cdec87c66378","system_id":"levelo_inurba_marseille","lat":43.304421,"lon":5.397617,"is_reserved":false,"is_disabled":false,"rental_uris":{"android":"levelo://app?vid=cbc88232-01d1-446a-95d4-cdec87c66378","ios":"levelo://app?vid=cbc88232-01d1-446a-95d4-cdec87c66378"},"vehicle_type_id":"4","last_reported":1743883789,"current_range_meters":3600,"station_id":"ce4bh092rcd13ifvqd20","pricing_plan_id":"cebpf4jnsgd1na2vs0mg"},{"bike_id":"7fbcc6c4-7052-4e83-a908-fd787646fe9e","system_id":"levelo_inurba_marseille","lat":43.24664,"lon":5.38163,"is_reserved":false,"is_disabled":false,"rental_uris":{"android":"levelo://app?vid=7fbcc6c4-7052-4e83-a908-fd787646fe9e","ios":"levelo://app?vid=7fbcc6c4-7052-4e83-a908-fd787646fe9e"},"vehicle_type_id":"4","last_reported":1743883789,"current_range_meters":4000,"station_id":"ce4bhih2rcd13ifvqfr0","pricing_plan_id":"cebpf4jnsgd1na2vs0mg"},{"bike_id":"52dce605-95d3-4475-ab15-87d6fb96ef3f","system_id":"levelo_inurba_marseille","lat":43.29663,"lon":5.38114,"is_reserved":false,"is_disabled":false,"rental_uris":{"android":"levelo://app?vid=52dce605-95d3-4475-ab15-87d6fb96ef3f","ios":"levelo://app?vid=52dce605-95d3-4475-ab15-87d6fb96ef3f"},"vehicle_type_id":"4","last_reported":1743883789,"current_range_meters":4000,"station_id":"","pricing_plan_id":"cebpf4jnsgd1na2vs0mg"},{"bike_id":"bd033146-eee4-4aa8-b562-1998c1c7a585","system_id":"levelo_inurba_marseille","lat":43.28107,"lon":5.37837,"is_reserved":false,"is_disabled":false,"rental_uris":{"android":"levelo://app?vid=bd033146-eee4-4aa8-b562-1998c1c7a585","ios":"levelo://app?vid=bd033146-eee4-4aa8-b562-1998c1c7a585"},"vehicle_type_id":"4","last_reported":1743883789,"current_range_meters":3600,"station_id":"ce4bha12rcd13ifvqee0","pricing_plan_id":"cebpf4jnsgd1na2vs0mg"},{"bike_id":"900cc1f8-7651-4113-8058-69adfe25a0d3","system_id":"levelo_inurba_marseille","lat":43.2992,"lon":5.37451,"is_reserved":false,"is_disabled":false,"rental_uris":{"android":"levelo://app?vid=900cc1f8-7651-4113-8058-69adfe25a0d3","ios":"levelo://app?vid=900cc1f8-7651-4113-8058-69adfe25a0d3"},"vehicle_type_id":"4","last_reported":1743883789,"current_range_meters":4400,"station_id":"ce4bgjh2rcd13ifvqbg0","pricing_plan_id":"cebpf4jnsgd1na2vs0mg"},{"bike_id":"7dbc24f4-ec56-4d86-a5c8-992c8fde4f03","system_id":"levelo_inurba_marseille","lat":43.2848,"lon":5.38563,"is_reserved":false,"is_disabled":false,"rental_uris":{"android":"levelo://app?vid=7dbc24f4-ec56-4d86-a5c8-992c8fde4f03","ios":"levelo://app?vid=7dbc24f4-ec56-4d86-a5c8-992c8fde4f03"},"vehicle_type_id":"4","last_reported":1743883789,"current_range_meters":4400,"station_id":"ce4bh8p2rcd13ifvqeb0","pricing_plan_id":"cebpf4jnsgd1na2vs0mg"},{"bike_id":"b308ad88-1bb0-47e7-88e1-892eeaefc242","system_id":"levelo_inurba_marseille","lat":43.29969,"lon":5.38491,"is_reserved":false,"is_disabled":false,"rental_uris":{"android":"levelo://app?vid=b308ad88-1bb0-47e7-88e1-892eeaefc242","ios":"levelo://app?vid=b308ad88-1bb0-47e7-88e1-892eeaefc242"},"vehicle_type_id":"4","last_reported":1743883789,"current_range_meters":4400,"station_id":"ce4bgj92rcd13ifvqbd0","pricing_plan_id":"cebpf4jnsgd1na2vs0mg"},{"bike_id":"5502daae-188b-4f3c-871b-992109045ad0","system_id":"levelo_inurba_marseille","lat":43.26576,"lon":5.39032,"is_reserved":false,"is_disabled":false,"rental_uris":{"android":"levelo://app?vid=5502daae-188b-4f3c-871b-992109045ad0","ios":"levelo://app?vid=5502daae-188b-4f3c-871b-992109045ad0"},"vehicle_type_id":"4","last_reported":1743883789,"current_range_meters":4400,"station_id":"ce4bhe12rcd13ifvqf30","pricing_plan_id":"cebpf4jnsgd1na2vs0mg"},{"bike_id":"62e0dd52-174d-432e-9faf-3126f79e5907","system_id":"levelo_inurba_marseille","lat":43.29261,"lon":5.38439,"is_reserved":false,"is_disabled":false,"rental_uris":{"android":"levelo://app?vid=62e0dd52-174d-432e-9faf-3126f79e5907","ios":"levelo://app?vid=62e0dd52-174d-432e-9faf-3126f79e5907"},"vehicle_type_id":"4","last_reported":1743883789,"current_range_meters":4400,"station_id":"ce4bh692rcd13ifvqea0","pricing_plan_id":"cebpf4jnsgd1na2vs0mg"},{"bike_id":"a8d7ec23-859d-4e10-821f-d2c2053f8e11","system_id":"levelo_inurba_marseille","lat":43.28666,"lon":5.36363,"is_reserved":false,"is_disabled":false,"rental_uris":{"android":"levelo://app?vid=a8d7ec23-859d-4e10-821f-d2c2053f8e11","ios":"levelo://app?vid=a8d7ec23-859d-4e10-821f-d2c2053f8e11"},"vehicle_type_id":"4","last_reported":1743883789,"current_range_meters":4400,"station_id":"ce4bhah2rcd13ifvqej0","pricing_plan_id":"cebpf4jnsgd1na2vs0mg"},{"bike_id":"052e081b-7c4f-46d1-acea-23139ca9aa00","system_id":"levelo_inurba_marseille","lat":43.29955,"lon":5.3847,"is_reserved":false,"is_disabled":false,"rental_uris":{"android":"levelo://app?vid=052e081b-7c4f-46d1-acea-23139ca9aa00","ios":"levelo://app?vid=052e081b-7c4f-46d1-acea-23139ca9aa00"},"vehicle_type_id":"4","last_reported":1743883789,"current_range_meters":4400,"station_id":"ce4bgj92rcd13ifvqbd0","pricing_plan_id":"cebpf4jnsgd1na2vs0mg"},{"bike_id":"fbb4e19a-9f3f-4956-9d80-534cc07df1bc","system_id":"levelo_inurba_marseille","lat":43.29253,"lon":5.38446,"is_reserved":false,"is_disabled":false,"rental_uris":{"android":"levelo://app?vid=fbb4e19a-9f3f-4956-9d80-534cc07df1bc","ios":"levelo://app?vid=fbb4e19a-9f3f-4956-9d80-534cc07df1bc"},"vehicle_type_id":"4","last_reported":1743883789,"current_range_meters":4400,"station_id":"ce4bh692rcd13ifvqea0","pricing_plan_id":"cebpf4jnsgd1na2vs0mg"},{"bike_id":"9a255e8c-81a2-413f-9f2a-8ef6f18eb5ee","system_id":"levelo_inurba_marseille","lat":43.28034,"lon":5.36949,"is_reserved":false,"is_disabled":false,"rental_uris":{"android":"levelo://app?vid=9a255e8c-81a2-413f-9f2a-8ef6f18eb5ee","ios":"levelo://app?vid=9a255e8c-81a2-413f-9f2a-8ef6f18eb5ee"},"vehicle_type_id":"4","last_reported":1743883789,"current_range_meters":4400,"station_id":"ce4bha12rcd13ifvqef0","pricing_plan_id":"cebpf4jnsgd1na2vs0mg"},{"bike_id":"3b5a32fa-8751-40c9-9544-8dc185c8022a","system_id":"levelo_inurba_marseille","lat":43.29266,"lon":5.38429,"is_reserved":false,"is_disabled":false,"rental_uris":{"android":"levelo://app?vid=3b5a32fa-8751-40c9-9544-8dc185c8022a","ios":"levelo://app?vid=3b5a32fa-8751-40c9-9544-8dc185c8022a"},"vehicle_type_id":"4","last_reported":1743883789,"current_range_meters":4800,"station_id":"ce4bh692rcd13ifvqea0","pricing_plan_id":"cebpf4jnsgd1na2vs0mg"},{"bike_id":"392bab13-99db-4538-944b-dee6c39bc607","system_id":"levelo_inurba_marseille","lat":43.29291,"lon":5.37157,"is_reserved":false,"is_disabled":false,"rental_uris":{"android":"levelo://app?vid=392bab13-99db-4538-944b-dee6c39bc607","ios":"levelo://app?vid=392bab13-99db-4538-944b-dee6c39bc607"},"vehicle_type_id":"4","last_reported":1743883789,"current_range_meters":4800,"station_id":"ce4bgh92rcd13ifvqb40","pricing_plan_id":"cebpf4jnsgd1na2vs0mg"},{"bike_id":"4697ff33-6753-4e9e-ab64-dd62a5908032","system_id":"levelo_inurba_marseille","lat":43.300144,"lon":5.384793,"is_reserved":false,"is_disabled":false,"rental_uris":{"android":"levelo://app?vid=4697ff33-6753-4e9e-ab64-dd62a5908032","ios":"levelo://app?vid=4697ff33-6753-4e9e-ab64-dd62a5908032"},"vehicle_type_id":"4","last_reported":1743883789,"current_range_meters":4800,"station_id":"ce4bgj92rcd13ifvqbd0","pricing_plan_id":"cebpf4jnsgd1na2vs0mg"},{"bike_id":"3180bb7a-7b0d-4f56-8174-0abdd247f6b9","system_id":"levelo_inurba_marseille","lat":43.28351,"lon":5.38101,"is_reserved":false,"is_disabled":false,"rental_uris":{"android":"levelo://app?vid=3180bb7a-7b0d-4f56-8174-0abdd247f6b9","ios":"levelo://app?vid=3180bb7a-7b0d-4f56-8174-0abdd247f6b9"},"vehicle_type_id":"4","last_reported":1743883789,"current_range_meters":4800,"station_id":"ce4bh412rcd13ifvqdr0","pricing_plan_id":"cebpf4jnsgd1na2vs0mg"},{"bike_id":"a94c3638-b014-42a6-b3e4-8dc9c7e3cfb3","system_id":"levelo_inurba_marseille","lat":43.298645,"lon":5.383676,"is_reserved":false,"is_disabled":false,"rental_uris":{"android":"levelo://app?vid=a94c3638-b014-42a6-b3e4-8dc9c7e3cfb3","ios":"levelo://app?vid=a94c3638-b014-42a6-b3e4-8dc9c7e3cfb3"},"vehicle_type_id":"4","last_reported":1743883789,"current_range_meters":4400,"station_id":"ce4bgj92rcd13ifvqbd0","pricing_plan_id":"cebpf4jnsgd1na2vs0mg"},{"bike_id":"a393b677-25ac-4523-9c55-970b43fe178e","system_id":"levelo_inurba_marseille","lat":43.28722,"lon":5.37368,"is_reserved":false,"is_disabled":false,"rental_uris":{"android":"levelo://app?vid=a393b677-25ac-4523-9c55-970b43fe178e","ios":"levelo://app?vid=a393b677-25ac-4523-9c55-970b43fe178e"},"vehicle_type_id":"4","last_reported":1743883789,"current_range_meters":4800,"station_id":"ce4bh3p2rcd13ifvqdq0","pricing_plan_id":"cebpf4jnsgd1na2vs0mg"},{"bike_id":"25c634ee-0bb9-4abc-bd46-d14941c874ab","system_id":"levelo_inurba_marseille","lat":43.29528,"lon":5.38547,"is_reserved":false,"is_disabled":false,"rental_uris":{"android":"levelo://app?vid=25c634ee-0bb9-4abc-bd46-d14941c874ab","ios":"levelo://app?vid=25c634ee-0bb9-4abc-bd46-d14941c874ab"},"vehicle_type_id":"4","last_reported":1743883789,"current_range_meters":5600,"station_id":"ce4bgih2rcd13ifvqba0","pricing_plan_id":"cebpf4jnsgd1na2vs0mg"},{"bike_id":"7988fa7b-115e-4e19-86e3-e91b6496d2ce","system_id":"levelo_inurba_marseille","lat":43.27666,"lon":5.3887,"is_reserved":false,"is_disabled":false,"rental_uris":{"android":"levelo://app?vid=7988fa7b-115e-4e19-86e3-e91b6496d2ce","ios":"levelo://app?vid=7988fa7b-115e-4e19-86e3-e91b6496d2ce"},"vehicle_type_id":"4","last_reported":1743883789,"current_range_meters":5600,"station_id":"ce4bhi12rcd13ifvqfo0","pricing_plan_id":"cebpf4jnsgd1na2vs0mg"},{"bike_id":"037a3688-1113-4c7f-803b-25f60b7d4e3b","system_id":"levelo_inurba_marseille","lat":43.24804,"lon":5.37467,"is_reserved":false,"is_disabled":false,"rental_uris":{"android":"levelo://app?vid=037a3688-1113-4c7f-803b-25f60b7d4e3b","ios":"levelo://app?vid=037a3688-1113-4c7f-803b-25f60b7d4e3b"},"vehicle_type_id":"4","last_reported":1743883789,"current_range_meters":5600,"station_id":"ce4bhgh2rcd13ifvqfb0","pricing_plan_id":"cebpf4jnsgd1na2vs0mg"},{"bike_id":"b991118a-b3fd-4081-a6c6-23b69168496a","system_id":"levelo_inurba_marseille","lat":43.21755,"lon":5.34589,"is_reserved":false,"is_disabled":true,"rental_uris":{"android":"levelo://app?vid=b991118a-b3fd-4081-a6c6-23b69168496a","ios":"levelo://app?vid=b991118a-b3fd-4081-a6c6-23b69168496a"},"vehicle_type_id":"4","last_reported":1743883789,"current_range_meters":5600,"station_id":"st_cvj6r9ubvosntc0bgbag","pricing_plan_id":"cebpf4jnsgd1na2vs0mg"},{"bike_id":"0fbc3c27-4167-4d09-84f7-3726082c84fc","system_id":"levelo_inurba_marseille","lat":43.248011,"lon":5.37458,"is_reserved":false,"is_disabled":false,"rental_uris":{"android":"levelo://app?vid=0fbc3c27-4167-4d09-84f7-3726082c84fc","ios":"levelo://app?vid=0fbc3c27-4167-4d09-84f7-3726082c84fc"},"vehicle_type_id":"4","last_reported":1743883789,"current_range_meters":4800,"station_id":"ce4bhgh2rcd13ifvqfb0","pricing_plan_id":"cebpf4jnsgd1na2vs0mg"},{"bike_id":"9f11ddad-f9cf-432b-8e0c-b6536f5e7092","system_id":"levelo_inurba_marseille","lat":43.2794,"lon":5.4104,"is_reserved":false,"is_disabled":false,"rental_uris":{"android":"levelo://app?vid=9f11ddad-f9cf-432b-8e0c-b6536f5e7092","ios":"levelo://app?vid=9f11ddad-f9cf-432b-8e0c-b6536f5e7092"},"vehicle_type_id":"4","last_reported":1743883789,"current_range_meters":5600,"station_id":"ce4bhnp2rcd13ifvqh0g","pricing_plan_id":"cebpf4jnsgd1na2vs0mg"},{"bike_id":"50297066-959d-45c5-a71e-b062cc3724ec","system_id":"levelo_inurba_marseille","lat":43.30792,"lon":5.37313,"is_reserved":false,"is_disabled":false,"rental_uris":{"android":"levelo://app?vid=50297066-959d-45c5-a71e-b062cc3724ec","ios":"levelo://app?vid=50297066-959d-45c5-a71e-b062cc3724ec"},"vehicle_type_id":"4","last_reported":1743883789,"current_range_meters":5600,"station_id":"","pricing_plan_id":"cebpf4jnsgd1na2vs0mg"},{"bike_id":"a4b1b24e-b2df-4c16-aebe-a57f906cef7d","system_id":"levelo_inurba_marseille","lat":43.25115,"lon":5.4032,"is_reserved":false,"is_disabled":false,"rental_uris":{"android":"levelo://app?vid=a4b1b24e-b2df-4c16-aebe-a57f906cef7d","ios":"levelo://app?vid=a4b1b24e-b2df-4c16-aebe-a57f906cef7d"},"vehicle_type_id":"4","last_reported":1743883789,"current_range_meters":5600,"station_id":"ce4bhlh2rcd13ifvqgig","pricing_plan_id":"cebpf4jnsgd1na2vs0mg"},{"bike_id":"02dd5f37-e4ce-4efc-9ce6-2776472fc632","system_id":"levelo_inurba_marseille","lat":43.25087,"lon":5.40329,"is_reserved":false,"is_disabled":false,"rental_uris":{"android":"levelo://app?vid=02dd5f37-e4ce-4efc-9ce6-2776472fc632","ios":"levelo://app?vid=02dd5f37-e4ce-4efc-9ce6-2776472fc632"},"vehicle_type_id":"4","last_reported":1743883789,"current_range_meters":5600,"station_id":"ce4bhlh2rcd13ifvqgig","pricing_plan_id":"cebpf4jnsgd1na2vs0mg"},{"bike_id":"c73a85e2-fb2d-4d21-bea0-c717ffa7bb89","system_id":"levelo_inurba_marseille","lat":43.30487,"lon":5.36702,"is_reserved":false,"is_disabled":true,"rental_uris":{"android":"levelo://app?vid=c73a85e2-fb2d-4d21-bea0-c717ffa7bb89","ios":"levelo://app?vid=c73a85e2-fb2d-4d21-bea0-c717ffa7bb89"},"vehicle_type_id":"4","last_reported":1743883789,"current_range_meters":6000,"station_id":"","pricing_plan_id":"cebpf4jnsgd1na2vs0mg"},{"bike_id":"7064148b-fc23-42ee-95cf-48ea007aa905","system_id":"levelo_inurba_marseille","lat":43.292668,"lon":5.384458,"is_reserved":false,"is_disabled":false,"rental_uris":{"android":"levelo://app?vid=7064148b-fc23-42ee-95cf-48ea007aa905","ios":"levelo://app?vid=7064148b-fc23-42ee-95cf-48ea007aa905"},"vehicle_type_id":"4","last_reported":1743883789,"current_range_meters":6000,"station_id":"","pricing_plan_id":"cebpf4jnsgd1na2vs0mg"},{"bike_id":"ef186f61-c450-4ec4-9e69-10eb56fa0921","system_id":"levelo_inurba_marseille","lat":43.30467,"lon":5.37902,"is_reserved":false,"is_disabled":false,"rental_uris":{"android":"levelo://app?vid=ef186f61-c450-4ec4-9e69-10eb56fa0921","ios":"levelo://app?vid=ef186f61-c450-4ec4-9e69-10eb56fa0921"},"vehicle_type_id":"4","last_reported":1743883789,"current_range_meters":6000,"station_id":"ce4bgup2rcd13ifvqcn0","pricing_plan_id":"cebpf4jnsgd1na2vs0mg"},{"bike_id":"2a48bfa8-783f-4718-9f89-4e27b7461e42","system_id":"levelo_inurba_marseille","lat":43.27175,"lon":5.40998,"is_reserved":false,"is_disabled":false,"rental_uris":{"android":"levelo://app?vid=2a48bfa8-783f-4718-9f89-4e27b7461e42","ios":"levelo://app?vid=2a48bfa8-783f-4718-9f89-4e27b7461e42"},"vehicle_type_id":"4","last_reported":1743883789,"current_range_meters":5600,"station_id":"ce4bhl12rcd13ifvqgf0","pricing_plan_id":"cebpf4jnsgd1na2vs0mg"},{"bike_id":"43fe2ba1-31d3-42fc-b0e3-8377005f35b2","system_id":"levelo_inurba_marseille","lat":43.29282,"lon":5.37635,"is_reserved":false,"is_disabled":false,"rental_uris":{"android":"levelo://app?vid=43fe2ba1-31d3-42fc-b0e3-8377005f35b2","ios":"levelo://app?vid=43fe2ba1-31d3-42fc-b0e3-8377005f35b2"},"vehicle_type_id":"4","last_reported":1743883789,"current_range_meters":6000,"station_id":"ce4bgi12rcd13ifvqb80","pricing_plan_id":"cebpf4jnsgd1na2vs0mg"},{"bike_id":"81f8279c-ce59-4a6f-9e48-35b3c08a5d17","system_id":"levelo_inurba_marseille","lat":43.26805,"lon":5.40263,"is_reserved":false,"is_disabled":false,"rental_uris":{"android":"levelo://app?vid=81f8279c-ce59-4a6f-9e48-35b3c08a5d17","ios":"levelo://app?vid=81f8279c-ce59-4a6f-9e48-35b3c08a5d17"},"vehicle_type_id":"4","last_reported":1743883789,"current_range_meters":6000,"station_id":"ce501612rcd8frsf0b60","pricing_plan_id":"cebpf4jnsgd1na2vs0mg"},{"bike_id":"9e5b14b8-1de5-49d5-829a-2ac119492a70","system_id":"levelo_inurba_marseille","lat":43.2923,"lon":5.40922,"is_reserved":false,"is_disabled":false,"rental_uris":{"android":"levelo://app?vid=9e5b14b8-1de5-49d5-829a-2ac119492a70","ios":"levelo://app?vid=9e5b14b8-1de5-49d5-829a-2ac119492a70"},"vehicle_type_id":"4","last_reported":1743883789,"current_range_meters":6400,"station_id":"ce4bh192rcd13ifvqdc0","pricing_plan_id":"cebpf4jnsgd1na2vs0mg"},{"bike_id":"75182cae-9f4d-4a89-ae2e-cf3cb883ff8e","system_id":"levelo_inurba_marseille","lat":43.29618,"lon":5.38076,"is_reserved":false,"is_disabled":false,"rental_uris":{"android":"levelo://app?vid=75182cae-9f4d-4a89-ae2e-cf3cb883ff8e","ios":"levelo://app?vid=75182cae-9f4d-4a89-ae2e-cf3cb883ff8e"},"vehicle_type_id":"4","last_reported":1743883789,"current_range_meters":6400,"station_id":"ce4bgl12rcd13ifvqbo0","pricing_plan_id":"cebpf4jnsgd1na2vs0mg"},{"bike_id":"de50bbab-1368-4da3-a92a-1e482f1dcc12","system_id":"levelo_inurba_marseille","lat":43.29061,"lon":5.37158,"is_reserved":false,"is_disabled":false,"rental_uris":{"android":"levelo://app?vid=de50bbab-1368-4da3-a92a-1e482f1dcc12","ios":"levelo://app?vid=de50bbab-1368-4da3-a92a-1e482f1dcc12"},"vehicle_type_id":"4","last_reported":1743883789,"current_range_meters":6400,"station_id":"ce4bh5p2rcd13ifvqe4g","pricing_plan_id":"cebpf4jnsgd1na2vs0mg"},{"bike_id":"11101b03-02c0-4bb4-a9dc-326497f91f4e","system_id":"levelo_inurba_marseille","lat":43.29261,"lon":5.40894,"is_reserved":false,"is_disabled":true,"rental_uris":{"android":"levelo://app?vid=11101b03-02c0-4bb4-a9dc-326497f91f4e","ios":"levelo://app?vid=11101b03-02c0-4bb4-a9dc-326497f91f4e"},"vehicle_type_id":"4","last_reported":1743883789,"current_range_meters":6400,"station_id":"ce4bh192rcd13ifvqdc0","pricing_plan_id":"cebpf4jnsgd1na2vs0mg"},{"bike_id":"95ebc31d-ba2c-4855-9413-141191b5e202","system_id":"levelo_inurba_marseille","lat":43.29267,"lon":5.4012,"is_reserved":false,"is_disabled":true,"rental_uris":{"android":"levelo://app?vid=95ebc31d-ba2c-4855-9413-141191b5e202","ios":"levelo://app?vid=95ebc31d-ba2c-4855-9413-141191b5e202"},"vehicle_type_id":"4","last_reported":1743883789,"current_range_meters":6400,"station_id":"ce4bh312rcd13ifvqdk0","pricing_plan_id":"cebpf4jnsgd1na2vs0mg"},{"bike_id":"592b60c0-b8ac-4b03-aa21-649bff32b1fc","system_id":"levelo_inurba_marseille","lat":43.29368,"lon":5.37858,"is_reserved":false,"is_disabled":false,"rental_uris":{"android":"levelo://app?vid=592b60c0-b8ac-4b03-aa21-649bff32b1fc","ios":"levelo://app?vid=592b60c0-b8ac-4b03-aa21-649bff32b1fc"},"vehicle_type_id":"4","last_reported":1743883789,"current_range_meters":6800,"station_id":"ce4bgjh2rcd13ifvqbf0","pricing_plan_id":"cebpf4jnsgd1na2vs0mg"},{"bike_id":"6bd58051-6de0-49c1-a3aa-86cb0ce24a3c","system_id":"levelo_inurba_marseille","lat":43.29927,"lon":5.37463,"is_reserved":false,"is_disabled":false,"rental_uris":{"android":"levelo://app?vid=6bd58051-6de0-49c1-a3aa-86cb0ce24a3c","ios":"levelo://app?vid=6bd58051-6de0-49c1-a3aa-86cb0ce24a3c"},"vehicle_type_id":"4","last_reported":1743883789,"current_range_meters":6800,"station_id":"ce4bgjh2rcd13ifvqbg0","pricing_plan_id":"cebpf4jnsgd1na2vs0mg"},{"bike_id":"e7b956ce-2ab2-4301-8fd3-6312d753e8f6","system_id":"levelo_inurba_marseille","lat":43.246593,"lon":5.381665,"is_reserved":false,"is_disabled":true,"rental_uris":{"android":"levelo://app?vid=e7b956ce-2ab2-4301-8fd3-6312d753e8f6","ios":"levelo://app?vid=e7b956ce-2ab2-4301-8fd3-6312d753e8f6"},"vehicle_type_id":"4","last_reported":1743883789,"current_range_meters":6800,"station_id":"ce4bhih2rcd13ifvqfr0","pricing_plan_id":"cebpf4jnsgd1na2vs0mg"},{"bike_id":"783ef245-163c-4c81-b038-df23059b7c57","system_id":"levelo_inurba_marseille","lat":43.310755,"lon":5.383546,"is_reserved":false,"is_disabled":false,"rental_uris":{"android":"levelo://app?vid=783ef245-163c-4c81-b038-df23059b7c57","ios":"levelo://app?vid=783ef245-163c-4c81-b038-df23059b7c57"},"vehicle_type_id":"4","last_reported":1743883789,"current_range_meters":6800,"station_id":"","pricing_plan_id":"cebpf4jnsgd1na2vs0mg"},{"bike_id":"6c6ee60d-f888-40cb-80ea-148fe4a497c9","system_id":"levelo_inurba_marseille","lat":43.29381,"lon":5.37845,"is_reserved":false,"is_disabled":false,"rental_uris":{"android":"levelo://app?vid=6c6ee60d-f888-40cb-80ea-148fe4a497c9","ios":"levelo://app?vid=6c6ee60d-f888-40cb-80ea-148fe4a497c9"},"vehicle_type_id":"4","last_reported":1743883789,"current_range_meters":6800,"station_id":"ce4bgjh2rcd13ifvqbf0","pricing_plan_id":"cebpf4jnsgd1na2vs0mg"},{"bike_id":"45343cba-f296-49e5-a5e5-28aefc24f75d","system_id":"levelo_inurba_marseille","lat":43.29276,"lon":5.40136,"is_reserved":false,"is_disabled":false,"rental_uris":{"android":"levelo://app?vid=45343cba-f296-49e5-a5e5-28aefc24f75d","ios":"levelo://app?vid=45343cba-f296-49e5-a5e5-28aefc24f75d"},"vehicle_type_id":"4","last_reported":1743883789,"current_range_meters":6800,"station_id":"ce4bh312rcd13ifvqdk0","pricing_plan_id":"cebpf4jnsgd1na2vs0mg"},{"bike_id":"a4d2c98f-6cdc-4d59-a681-294db74d27dd","system_id":"levelo_inurba_marseille","lat":43.29272,"lon":5.38446,"is_reserved":false,"is_disabled":false,"rental_uris":{"android":"levelo://app?vid=a4d2c98f-6cdc-4d59-a681-294db74d27dd","ios":"levelo://app?vid=a4d2c98f-6cdc-4d59-a681-294db74d27dd"},"vehicle_type_id":"4","last_reported":1743883789,"current_range_meters":6800,"station_id":"ce4bh692rcd13ifvqea0","pricing_plan_id":"cebpf4jnsgd1na2vs0mg"},{"bike_id":"e2817bf1-6a4c-4ca7-a0a1-361592415893","system_id":"levelo_inurba_marseille","lat":43.29264,"lon":5.38429,"is_reserved":false,"is_disabled":false,"rental_uris":{"android":"levelo://app?vid=e2817bf1-6a4c-4ca7-a0a1-361592415893","ios":"levelo://app?vid=e2817bf1-6a4c-4ca7-a0a1-361592415893"},"vehicle_type_id":"4","last_reported":1743883789,"current_range_meters":6800,"station_id":"ce4bh692rcd13ifvqea0","pricing_plan_id":"cebpf4jnsgd1na2vs0mg"},{"bike_id":"5fe2d280-b6d7-49eb-9cc3-3d3e1f41a97a","system_id":"levelo_inurba_marseille","lat":43.28485,"lon":5.38415,"is_reserved":false,"is_disabled":false,"rental_uris":{"android":"levelo://app?vid=5fe2d280-b6d7-49eb-9cc3-3d3e1f41a97a","ios":"levelo://app?vid=5fe2d280-b6d7-49eb-9cc3-3d3e1f41a97a"},"vehicle_type_id":"4","last_reported":1743883789,"current_range_meters":6800,"station_id":"ce4bh512rcd13ifvqe3g","pricing_plan_id":"cebpf4jnsgd1na2vs0mg"},{"bike_id":"1a1ab6b9-fdb8-4cba-919e-b6a1042754d3","system_id":"levelo_inurba_marseille","lat":43.24825,"lon":5.37451,"is_reserved":false,"is_disabled":false,"rental_uris":{"android":"levelo://app?vid=1a1ab6b9-fdb8-4cba-919e-b6a1042754d3","ios":"levelo://app?vid=1a1ab6b9-fdb8-4cba-919e-b6a1042754d3"},"vehicle_type_id":"4","last_reported":1743883789,"current_range_meters":6800,"station_id":"ce4bhgh2rcd13ifvqfb0","pricing_plan_id":"cebpf4jnsgd1na2vs0mg"},{"bike_id":"9533e516-1048-427e-8563-f694ebf77506","system_id":"levelo_inurba_marseille","lat":43.3054,"lon":5.36711,"is_reserved":false,"is_disabled":false,"rental_uris":{"android":"levelo://app?vid=9533e516-1048-427e-8563-f694ebf77506","ios":"levelo://app?vid=9533e516-1048-427e-8563-f694ebf77506"},"vehicle_type_id":"4","last_reported":1743883789,"current_range_meters":6800,"station_id":"ce4bgrp2rcd13ifvqc9g","pricing_plan_id":"cebpf4jnsgd1na2vs0mg"},{"bike_id":"2a428b58-5520-4267-9c22-1c64ded41082","system_id":"levelo_inurba_marseille","lat":43.298832,"lon":5.389006,"is_reserved":false,"is_disabled":false,"rental_uris":{"android":"levelo://app?vid=2a428b58-5520-4267-9c22-1c64ded41082","ios":"levelo://app?vid=2a428b58-5520-4267-9c22-1c64ded41082"},"vehicle_type_id":"4","last_reported":1743883789,"current_range_meters":6800,"station_id":"ce4bgt12rcd13ifvqce0","pricing_plan_id":"cebpf4jnsgd1na2vs0mg"},{"bike_id":"a2afc7a6-7398-4fc2-97d8-6d89425b2baf","system_id":"levelo_inurba_marseille","lat":43.27557,"lon":5.38434,"is_reserved":false,"is_disabled":false,"rental_uris":{"android":"levelo://app?vid=a2afc7a6-7398-4fc2-97d8-6d89425b2baf","ios":"levelo://app?vid=a2afc7a6-7398-4fc2-97d8-6d89425b2baf"},"vehicle_type_id":"4","last_reported":1743883789,"current_range_meters":6400,"station_id":"ce4bhh92rcd13ifvqfi0","pricing_plan_id":"cebpf4jnsgd1na2vs0mg"},{"bike_id":"2148bd29-323e-49b7-945c-369e0ae50c2c","system_id":"levelo_inurba_marseille","lat":43.29023,"lon":5.38636,"is_reserved":false,"is_disabled":false,"rental_uris":{"android":"levelo://app?vid=2148bd29-323e-49b7-945c-369e0ae50c2c","ios":"levelo://app?vid=2148bd29-323e-49b7-945c-369e0ae50c2c"},"vehicle_type_id":"4","last_reported":1743883789,"current_range_meters":7200,"station_id":"ce4bh4p2rcd13ifvqe0g","pricing_plan_id":"cebpf4jnsgd1na2vs0mg"},{"bike_id":"9b1a9043-250a-4e2a-a479-8b08e0ef8c51","system_id":"levelo_inurba_marseille","lat":43.28258,"lon":5.3507,"is_reserved":false,"is_disabled":true,"rental_uris":{"android":"levelo://app?vid=9b1a9043-250a-4e2a-a479-8b08e0ef8c51","ios":"levelo://app?vid=9b1a9043-250a-4e2a-a479-8b08e0ef8c51"},"vehicle_type_id":"4","last_reported":1743883789,"current_range_meters":7200,"station_id":"ce4bhbp2rcd13ifvqerg","pricing_plan_id":"cebpf4jnsgd1na2vs0mg"},{"bike_id":"8fa92ff1-c2cb-4fa2-b3ce-e14c12ce1bf4","system_id":"levelo_inurba_marseille","lat":43.281544,"lon":5.42643,"is_reserved":false,"is_disabled":false,"rental_uris":{"android":"levelo://app?vid=8fa92ff1-c2cb-4fa2-b3ce-e14c12ce1bf4","ios":"levelo://app?vid=8fa92ff1-c2cb-4fa2-b3ce-e14c12ce1bf4"},"vehicle_type_id":"4","last_reported":1743883789,"current_range_meters":7200,"station_id":"ce4bhnh2rcd13ifvqgug","pricing_plan_id":"cebpf4jnsgd1na2vs0mg"},{"bike_id":"fd368e52-28cf-414d-a46d-b367645ec73e","system_id":"levelo_inurba_marseille","lat":43.29253,"lon":5.3843,"is_reserved":false,"is_disabled":false,"rental_uris":{"android":"levelo://app?vid=fd368e52-28cf-414d-a46d-b367645ec73e","ios":"levelo://app?vid=fd368e52-28cf-414d-a46d-b367645ec73e"},"vehicle_type_id":"4","last_reported":1743883789,"current_range_meters":7200,"station_id":"ce4bh692rcd13ifvqea0","pricing_plan_id":"cebpf4jnsgd1na2vs0mg"},{"bike_id":"b8ea7543-4f4d-43dd-964e-6d7060acec98","system_id":"levelo_inurba_marseille","lat":43.29312,"lon":5.37178,"is_reserved":false,"is_disabled":false,"rental_uris":{"android":"levelo://app?vid=b8ea7543-4f4d-43dd-964e-6d7060acec98","ios":"levelo://app?vid=b8ea7543-4f4d-43dd-964e-6d7060acec98"},"vehicle_type_id":"4","last_reported":1743883789,"current_range_meters":7200,"station_id":"ce4bgh92rcd13ifvqb40","pricing_plan_id":"cebpf4jnsgd1na2vs0mg"},{"bike_id":"cd017620-29c0-4d91-b54d-781c8909fc00","system_id":"levelo_inurba_marseille","lat":43.27905,"lon":5.38019,"is_reserved":false,"is_disabled":false,"rental_uris":{"android":"levelo://app?vid=cd017620-29c0-4d91-b54d-781c8909fc00","ios":"levelo://app?vid=cd017620-29c0-4d91-b54d-781c8909fc00"},"vehicle_type_id":"4","last_reported":1743883789,"current_range_meters":7200,"station_id":"ce4bhf92rcd13ifvqf50","pricing_plan_id":"cebpf4jnsgd1na2vs0mg"},{"bike_id":"05736583-a4df-4140-bff4-80483d983a4a","system_id":"levelo_inurba_marseille","lat":43.30026,"lon":5.39969,"is_reserved":false,"is_disabled":false,"rental_uris":{"android":"levelo://app?vid=05736583-a4df-4140-bff4-80483d983a4a","ios":"levelo://app?vid=05736583-a4df-4140-bff4-80483d983a4a"},"vehicle_type_id":"4","last_reported":1743883789,"current_range_meters":7200,"station_id":"","pricing_plan_id":"cebpf4jnsgd1na2vs0mg"},{"bike_id":"d043da4c-8593-477c-a3f7-8e7748e47725","system_id":"levelo_inurba_marseille","lat":43.32453,"lon":5.3896,"is_reserved":false,"is_disabled":false,"rental_uris":{"android":"levelo://app?vid=d043da4c-8593-477c-a3f7-8e7748e47725","ios":"levelo://app?vid=d043da4c-8593-477c-a3f7-8e7748e47725"},"vehicle_type_id":"4","last_reported":1743883789,"current_range_meters":7200,"station_id":"","pricing_plan_id":"cebpf4jnsgd1na2vs0mg"},{"bike_id":"c9bc89cd-58d1-4a47-b4fa-ac99803a3fe2","system_id":"levelo_inurba_marseille","lat":43.28408,"lon":5.37515,"is_reserved":false,"is_disabled":false,"rental_uris":{"android":"levelo://app?vid=c9bc89cd-58d1-4a47-b4fa-ac99803a3fe2","ios":"levelo://app?vid=c9bc89cd-58d1-4a47-b4fa-ac99803a3fe2"},"vehicle_type_id":"4","last_reported":1743883789,"current_range_meters":7200,"station_id":"ce4bh412rcd13ifvqds0","pricing_plan_id":"cebpf4jnsgd1na2vs0mg"},{"bike_id":"67cc2dc7-658f-4218-aefd-4fa0eb14328b","system_id":"levelo_inurba_marseille","lat":43.29529,"lon":5.38538,"is_reserved":false,"is_disabled":false,"rental_uris":{"android":"levelo://app?vid=67cc2dc7-658f-4218-aefd-4fa0eb14328b","ios":"levelo://app?vid=67cc2dc7-658f-4218-aefd-4fa0eb14328b"},"vehicle_type_id":"4","last_reported":1743883789,"current_range_meters":7200,"station_id":"ce4bgih2rcd13ifvqba0","pricing_plan_id":"cebpf4jnsgd1na2vs0mg"},{"bike_id":"a0b25c10-93be-44af-acf8-14ed670dddbf","system_id":"levelo_inurba_marseille","lat":43.296,"lon":5.38099,"is_reserved":false,"is_disabled":false,"rental_uris":{"android":"levelo://app?vid=a0b25c10-93be-44af-acf8-14ed670dddbf","ios":"levelo://app?vid=a0b25c10-93be-44af-acf8-14ed670dddbf"},"vehicle_type_id":"4","last_reported":1743883789,"current_range_meters":7200,"station_id":"ce4bgl12rcd13ifvqbo0","pricing_plan_id":"cebpf4jnsgd1na2vs0mg"},{"bike_id":"feb6e46c-3fb2-45a9-a2fb-22ac62feb505","system_id":"levelo_inurba_marseille","lat":43.23059,"lon":5.3548,"is_reserved":false,"is_disabled":true,"rental_uris":{"android":"levelo://app?vid=feb6e46c-3fb2-45a9-a2fb-22ac62feb505","ios":"levelo://app?vid=feb6e46c-3fb2-45a9-a2fb-22ac62feb505"},"vehicle_type_id":"4","last_reported":1743883789,"current_range_meters":7200,"station_id":"cpo3342slgdg3j2ifvpg","pricing_plan_id":"cebpf4jnsgd1na2vs0mg"},{"bike_id":"ebffeb3d-56d1-4cc7-9557-3fbf8601e25e","system_id":"levelo_inurba_marseille","lat":43.2894,"lon":5.36624,"is_reserved":false,"is_disabled":false,"rental_uris":{"android":"levelo://app?vid=ebffeb3d-56d1-4cc7-9557-3fbf8601e25e","ios":"levelo://app?vid=ebffeb3d-56d1-4cc7-9557-3fbf8601e25e"},"vehicle_type_id":"4","last_reported":1743883789,"current_range_meters":7200,"station_id":"ce4bhap2rcd13ifvqek0","pricing_plan_id":"cebpf4jnsgd1na2vs0mg"},{"bike_id":"d7f5d9e5-94ad-4e87-9546-49e5a15ec074","system_id":"levelo_inurba_marseille","lat":43.29968,"lon":5.37174,"is_reserved":false,"is_disabled":false,"rental_uris":{"android":"levelo://app?vid=d7f5d9e5-94ad-4e87-9546-49e5a15ec074","ios":"levelo://app?vid=d7f5d9e5-94ad-4e87-9546-49e5a15ec074"},"vehicle_type_id":"4","last_reported":1743883789,"current_range_meters":8000,"station_id":"ce4bgr92rcd13ifvqc7g","pricing_plan_id":"cebpf4jnsgd1na2vs0mg"},{"bike_id":"9a36e749-313f-43fc-ac90-b52b5015306e","system_id":"levelo_inurba_marseille","lat":43.21196,"lon":5.35069,"is_reserved":false,"is_disabled":false,"rental_uris":{"android":"levelo://app?vid=9a36e749-313f-43fc-ac90-b52b5015306e","ios":"levelo://app?vid=9a36e749-313f-43fc-ac90-b52b5015306e"},"vehicle_type_id":"4","last_reported":1743883789,"current_range_meters":8000,"station_id":"st_cvj6sg6p6f1abm77japg","pricing_plan_id":"cebpf4jnsgd1na2vs0mg"},{"bike_id":"8c8b51f5-f52c-4826-844f-5ebfd0bed1b4","system_id":"levelo_inurba_marseille","lat":43.27837,"lon":5.3921,"is_reserved":false,"is_disabled":false,"rental_uris":{"android":"levelo://app?vid=8c8b51f5-f52c-4826-844f-5ebfd0bed1b4","ios":"levelo://app?vid=8c8b51f5-f52c-4826-844f-5ebfd0bed1b4"},"vehicle_type_id":"4","last_reported":1743883789,"current_range_meters":8000,"station_id":"ce4bhjp2rcd13ifvqga0","pricing_plan_id":"cebpf4jnsgd1na2vs0mg"},{"bike_id":"f0859770-03d4-4cfd-b351-546c17a9f3aa","system_id":"levelo_inurba_marseille","lat":43.29307,"lon":5.37185,"is_reserved":false,"is_disabled":false,"rental_uris":{"android":"levelo://app?vid=f0859770-03d4-4cfd-b351-546c17a9f3aa","ios":"levelo://app?vid=f0859770-03d4-4cfd-b351-546c17a9f3aa"},"vehicle_type_id":"4","last_reported":1743883789,"current_range_meters":8000,"station_id":"ce4bgh92rcd13ifvqb40","pricing_plan_id":"cebpf4jnsgd1na2vs0mg"},{"bike_id":"5ca6e8c5-294b-49bb-b113-a9faee54bd52","system_id":"levelo_inurba_marseille","lat":43.29266,"lon":5.38436,"is_reserved":false,"is_disabled":false,"rental_uris":{"android":"levelo://app?vid=5ca6e8c5-294b-49bb-b113-a9faee54bd52","ios":"levelo://app?vid=5ca6e8c5-294b-49bb-b113-a9faee54bd52"},"vehicle_type_id":"4","last_reported":1743883789,"current_range_meters":8000,"station_id":"ce4bh692rcd13ifvqea0","pricing_plan_id":"cebpf4jnsgd1na2vs0mg"},{"bike_id":"b4c0fae1-9641-47e3-b51f-24e5c6754244","system_id":"levelo_inurba_marseille","lat":43.29264,"lon":5.38431,"is_reserved":false,"is_disabled":false,"rental_uris":{"android":"levelo://app?vid=b4c0fae1-9641-47e3-b51f-24e5c6754244","ios":"levelo://app?vid=b4c0fae1-9641-47e3-b51f-24e5c6754244"},"vehicle_type_id":"4","last_reported":1743883789,"current_range_meters":8000,"station_id":"ce4bh692rcd13ifvqea0","pricing_plan_id":"cebpf4jnsgd1na2vs0mg"},{"bike_id":"bef052f2-2d3a-4b9f-a5db-0df626e48d8a","system_id":"levelo_inurba_marseille","lat":43.29415,"lon":5.38629,"is_reserved":false,"is_disabled":false,"rental_uris":{"android":"levelo://app?vid=bef052f2-2d3a-4b9f-a5db-0df626e48d8a","ios":"levelo://app?vid=bef052f2-2d3a-4b9f-a5db-0df626e48d8a"},"vehicle_type_id":"4","last_reported":1743883789,"current_range_meters":8000,"station_id":"ce4bh2h2rcd13ifvqdh0","pricing_plan_id":"cebpf4jnsgd1na2vs0mg"},{"bike_id":"02779b29-7a5d-439e-936a-d77d08eab911","system_id":"levelo_inurba_marseille","lat":43.249967,"lon":5.389227,"is_reserved":false,"is_disabled":false,"rental_uris":{"android":"levelo://app?vid=02779b29-7a5d-439e-936a-d77d08eab911","ios":"levelo://app?vid=02779b29-7a5d-439e-936a-d77d08eab911"},"vehicle_type_id":"4","last_reported":1743883789,"current_range_meters":8000,"station_id":"ce4bhgp2rcd13ifvqfd0","pricing_plan_id":"cebpf4jnsgd1na2vs0mg"},{"bike_id":"82e42512-0143-41e9-8304-aae55767297b","system_id":"levelo_inurba_marseille","lat":43.29268,"lon":5.3844,"is_reserved":false,"is_disabled":false,"rental_uris":{"android":"levelo://app?vid=82e42512-0143-41e9-8304-aae55767297b","ios":"levelo://app?vid=82e42512-0143-41e9-8304-aae55767297b"},"vehicle_type_id":"4","last_reported":1743883789,"current_range_meters":8000,"station_id":"ce4bh692rcd13ifvqea0","pricing_plan_id":"cebpf4jnsgd1na2vs0mg"},{"bike_id":"6b94501a-1648-4241-a738-c9d13e28823d","system_id":"levelo_inurba_marseille","lat":43.289812,"lon":5.39831,"is_reserved":false,"is_disabled":false,"rental_uris":{"android":"levelo://app?vid=6b94501a-1648-4241-a738-c9d13e28823d","ios":"levelo://app?vid=6b94501a-1648-4241-a738-c9d13e28823d"},"vehicle_type_id":"4","last_reported":1743883789,"current_range_meters":8000,"station_id":"ce4bh392rcd13ifvqdm0","pricing_plan_id":"cebpf4jnsgd1na2vs0mg"},{"bike_id":"58f2ce45-fc04-4c4b-9865-0e114db3c331","system_id":"levelo_inurba_marseille","lat":43.24811,"lon":5.37471,"is_reserved":false,"is_disabled":false,"rental_uris":{"android":"levelo://app?vid=58f2ce45-fc04-4c4b-9865-0e114db3c331","ios":"levelo://app?vid=58f2ce45-fc04-4c4b-9865-0e114db3c331"},"vehicle_type_id":"4","last_reported":1743883789,"current_range_meters":8000,"station_id":"ce4bhgh2rcd13ifvqfb0","pricing_plan_id":"cebpf4jnsgd1na2vs0mg"},{"bike_id":"8f01751a-5d2d-40d0-a248-0cf1d5da886c","system_id":"levelo_inurba_marseille","lat":43.305263,"lon":5.367083,"is_reserved":false,"is_disabled":false,"rental_uris":{"android":"levelo://app?vid=8f01751a-5d2d-40d0-a248-0cf1d5da886c","ios":"levelo://app?vid=8f01751a-5d2d-40d0-a248-0cf1d5da886c"},"vehicle_type_id":"4","last_reported":1743883789,"current_range_meters":8400,"station_id":"ce4bgrp2rcd13ifvqc9g","pricing_plan_id":"cebpf4jnsgd1na2vs0mg"},{"bike_id":"e276e300-244b-412d-997b-1479fc0c9050","system_id":"levelo_inurba_marseille","lat":43.2742,"lon":5.39411,"is_reserved":false,"is_disabled":false,"rental_uris":{"android":"levelo://app?vid=e276e300-244b-412d-997b-1479fc0c9050","ios":"levelo://app?vid=e276e300-244b-412d-997b-1479fc0c9050"},"vehicle_type_id":"4","last_reported":1743883789,"current_range_meters":8000,"station_id":"ce4bhdp2rcd13ifvqf20","pricing_plan_id":"cebpf4jnsgd1na2vs0mg"},{"bike_id":"ed33f895-d65e-495f-abb8-b8f6df67f426","system_id":"levelo_inurba_marseille","lat":43.29254,"lon":5.38437,"is_reserved":false,"is_disabled":false,"rental_uris":{"android":"levelo://app?vid=ed33f895-d65e-495f-abb8-b8f6df67f426","ios":"levelo://app?vid=ed33f895-d65e-495f-abb8-b8f6df67f426"},"vehicle_type_id":"4","last_reported":1743883789,"current_range_meters":8400,"station_id":"ce4bh692rcd13ifvqea0","pricing_plan_id":"cebpf4jnsgd1na2vs0mg"},{"bike_id":"4e893e8d-d4bf-4646-b596-c13a9cb73c42","system_id":"levelo_inurba_marseille","lat":43.28509,"lon":5.38567,"is_reserved":false,"is_disabled":false,"rental_uris":{"android":"levelo://app?vid=4e893e8d-d4bf-4646-b596-c13a9cb73c42","ios":"levelo://app?vid=4e893e8d-d4bf-4646-b596-c13a9cb73c42"},"vehicle_type_id":"4","last_reported":1743883789,"current_range_meters":8400,"station_id":"ce4bh8p2rcd13ifvqeb0","pricing_plan_id":"cebpf4jnsgd1na2vs0mg"},{"bike_id":"1007202f-efec-4331-9906-bd0827d23b86","system_id":"levelo_inurba_marseille","lat":43.25117,"lon":5.40318,"is_reserved":false,"is_disabled":false,"rental_uris":{"android":"levelo://app?vid=1007202f-efec-4331-9906-bd0827d23b86","ios":"levelo://app?vid=1007202f-efec-4331-9906-bd0827d23b86"},"vehicle_type_id":"4","last_reported":1743883789,"current_range_meters":8400,"station_id":"ce4bhlh2rcd13ifvqgig","pricing_plan_id":"cebpf4jnsgd1na2vs0mg"},{"bike_id":"fb0d4993-67fa-4314-9525-ef2ba9197c72","system_id":"levelo_inurba_marseille","lat":43.30321,"lon":5.4059,"is_reserved":false,"is_disabled":false,"rental_uris":{"android":"levelo://app?vid=fb0d4993-67fa-4314-9525-ef2ba9197c72","ios":"levelo://app?vid=fb0d4993-67fa-4314-9525-ef2ba9197c72"},"vehicle_type_id":"4","last_reported":1743883789,"current_range_meters":8400,"station_id":"","pricing_plan_id":"cebpf4jnsgd1na2vs0mg"},{"bike_id":"c3da230f-b1cd-4c60-afdc-862e2979b486","system_id":"levelo_inurba_marseille","lat":43.29432,"lon":5.3862,"is_reserved":false,"is_disabled":false,"rental_uris":{"android":"levelo://app?vid=c3da230f-b1cd-4c60-afdc-862e2979b486","ios":"levelo://app?vid=c3da230f-b1cd-4c60-afdc-862e2979b486"},"vehicle_type_id":"4","last_reported":1743883789,"current_range_meters":8400,"station_id":"ce4bh2h2rcd13ifvqdh0","pricing_plan_id":"cebpf4jnsgd1na2vs0mg"},{"bike_id":"e896077d-dd64-4c9e-993e-05fedb7630a7","system_id":"levelo_inurba_marseille","lat":43.25118,"lon":5.40318,"is_reserved":false,"is_disabled":false,"rental_uris":{"android":"levelo://app?vid=e896077d-dd64-4c9e-993e-05fedb7630a7","ios":"levelo://app?vid=e896077d-dd64-4c9e-993e-05fedb7630a7"},"vehicle_type_id":"4","last_reported":1743883789,"current_range_meters":8400,"station_id":"ce4bhlh2rcd13ifvqgig","pricing_plan_id":"cebpf4jnsgd1na2vs0mg"},{"bike_id":"da2c0523-95d2-4536-9674-1400e7cb2212","system_id":"levelo_inurba_marseille","lat":43.24174,"lon":5.39721,"is_reserved":false,"is_disabled":false,"rental_uris":{"android":"levelo://app?vid=da2c0523-95d2-4536-9674-1400e7cb2212","ios":"levelo://app?vid=da2c0523-95d2-4536-9674-1400e7cb2212"},"vehicle_type_id":"4","last_reported":1743883789,"current_range_meters":8400,"station_id":"ce4bhn12rcd13ifvqgpg","pricing_plan_id":"cebpf4jnsgd1na2vs0mg"},{"bike_id":"ac7a85da-6a1d-42f4-b3e0-decaec458451","system_id":"levelo_inurba_marseille","lat":43.229251,"lon":5.353734,"is_reserved":false,"is_disabled":true,"rental_uris":{"android":"levelo://app?vid=ac7a85da-6a1d-42f4-b3e0-decaec458451","ios":"levelo://app?vid=ac7a85da-6a1d-42f4-b3e0-decaec458451"},"vehicle_type_id":"4","last_reported":1743883789,"current_range_meters":8400,"station_id":"cpo3532slgdg3j2ikp40","pricing_plan_id":"cebpf4jnsgd1na2vs0mg"},{"bike_id":"b422b8de-761e-424a-8f02-d34f3e8cb905","system_id":"levelo_inurba_marseille","lat":43.2953,"lon":5.38549,"is_reserved":false,"is_disabled":false,"rental_uris":{"android":"levelo://app?vid=b422b8de-761e-424a-8f02-d34f3e8cb905","ios":"levelo://app?vid=b422b8de-761e-424a-8f02-d34f3e8cb905"},"vehicle_type_id":"4","last_reported":1743883789,"current_range_meters":8400,"station_id":"ce4bgih2rcd13ifvqba0","pricing_plan_id":"cebpf4jnsgd1na2vs0mg"},{"bike_id":"d144cdeb-94c3-4a1d-92d5-9d5462e2a94e","system_id":"levelo_inurba_marseille","lat":43.28033,"lon":5.36946,"is_reserved":false,"is_disabled":false,"rental_uris":{"android":"levelo://app?vid=d144cdeb-94c3-4a1d-92d5-9d5462e2a94e","ios":"levelo://app?vid=d144cdeb-94c3-4a1d-92d5-9d5462e2a94e"},"vehicle_type_id":"4","last_reported":1743883789,"current_range_meters":8400,"station_id":"ce4bha12rcd13ifvqef0","pricing_plan_id":"cebpf4jnsgd1na2vs0mg"},{"bike_id":"020181d2-31a5-4ed0-9ac7-23a9efb5c985","system_id":"levelo_inurba_marseille","lat":43.26942,"lon":5.38659,"is_reserved":false,"is_disabled":false,"rental_uris":{"android":"levelo://app?vid=020181d2-31a5-4ed0-9ac7-23a9efb5c985","ios":"levelo://app?vid=020181d2-31a5-4ed0-9ac7-23a9efb5c985"},"vehicle_type_id":"4","last_reported":1743883789,"current_range_meters":8400,"station_id":"ce4bhh92rcd13ifvqfh0","pricing_plan_id":"cebpf4jnsgd1na2vs0mg"},{"bike_id":"831af6d8-f807-4ce8-9f99-a2a24b8049e5","system_id":"levelo_inurba_marseille","lat":43.27931,"lon":5.41054,"is_reserved":false,"is_disabled":false,"rental_uris":{"android":"levelo://app?vid=831af6d8-f807-4ce8-9f99-a2a24b8049e5","ios":"levelo://app?vid=831af6d8-f807-4ce8-9f99-a2a24b8049e5"},"vehicle_type_id":"4","last_reported":1743883789,"current_range_meters":8400,"station_id":"ce4bhnp2rcd13ifvqh0g","pricing_plan_id":"cebpf4jnsgd1na2vs0mg"},{"bike_id":"86950742-2a83-439a-b6d7-c0601bd4f799","system_id":"levelo_inurba_marseille","lat":43.28049,"lon":5.36936,"is_reserved":false,"is_disabled":false,"rental_uris":{"android":"levelo://app?vid=86950742-2a83-439a-b6d7-c0601bd4f799","ios":"levelo://app?vid=86950742-2a83-439a-b6d7-c0601bd4f799"},"vehicle_type_id":"4","last_reported":1743883789,"current_range_meters":8400,"station_id":"ce4bha12rcd13ifvqef0","pricing_plan_id":"cebpf4jnsgd1na2vs0mg"},{"bike_id":"eb79d1f9-7c91-4ea2-b5f8-796189743e1a","system_id":"levelo_inurba_marseille","lat":43.3373,"lon":5.39179,"is_reserved":false,"is_disabled":false,"rental_uris":{"android":"levelo://app?vid=eb79d1f9-7c91-4ea2-b5f8-796189743e1a","ios":"levelo://app?vid=eb79d1f9-7c91-4ea2-b5f8-796189743e1a"},"vehicle_type_id":"4","last_reported":1743883789,"current_range_meters":8800,"station_id":"ce4bhr92rcd13ifvqhsg","pricing_plan_id":"cebpf4jnsgd1na2vs0mg"},{"bike_id":"3d1eb0d1-456d-49ec-abaf-8033983b634f","system_id":"levelo_inurba_marseille","lat":43.28344,"lon":5.38105,"is_reserved":false,"is_disabled":false,"rental_uris":{"android":"levelo://app?vid=3d1eb0d1-456d-49ec-abaf-8033983b634f","ios":"levelo://app?vid=3d1eb0d1-456d-49ec-abaf-8033983b634f"},"vehicle_type_id":"4","last_reported":1743883789,"current_range_meters":8400,"station_id":"ce4bh412rcd13ifvqdr0","pricing_plan_id":"cebpf4jnsgd1na2vs0mg"},{"bike_id":"56a99f02-87ab-48ff-84da-16147fd25926","system_id":"levelo_inurba_marseille","lat":43.294128,"lon":5.38636,"is_reserved":false,"is_disabled":false,"rental_uris":{"android":"levelo://app?vid=56a99f02-87ab-48ff-84da-16147fd25926","ios":"levelo://app?vid=56a99f02-87ab-48ff-84da-16147fd25926"},"vehicle_type_id":"4","last_reported":1743883789,"current_range_meters":8800,"station_id":"ce4bh2h2rcd13ifvqdh0","pricing_plan_id":"cebpf4jnsgd1na2vs0mg"},{"bike_id":"38ad89e0-7fa7-4f82-ba91-0b721a9dc995","system_id":"levelo_inurba_marseille","lat":43.24806,"lon":5.37459,"is_reserved":false,"is_disabled":false,"rental_uris":{"android":"levelo://app?vid=38ad89e0-7fa7-4f82-ba91-0b721a9dc995","ios":"levelo://app?vid=38ad89e0-7fa7-4f82-ba91-0b721a9dc995"},"vehicle_type_id":"4","last_reported":1743883789,"current_range_meters":8800,"station_id":"ce4bhgh2rcd13ifvqfb0","pricing_plan_id":"cebpf4jnsgd1na2vs0mg"},{"bike_id":"22bb8e72-b882-45b0-8ef0-48c0d733be7f","system_id":"levelo_inurba_marseille","lat":43.30326,"lon":5.40435,"is_reserved":false,"is_disabled":false,"rental_uris":{"android":"levelo://app?vid=22bb8e72-b882-45b0-8ef0-48c0d733be7f","ios":"levelo://app?vid=22bb8e72-b882-45b0-8ef0-48c0d733be7f"},"vehicle_type_id":"4","last_reported":1743883789,"current_range_meters":8800,"station_id":"ce4bh012rcd13ifvqd10","pricing_plan_id":"cebpf4jnsgd1na2vs0mg"},{"bike_id":"fdad6e5e-1467-4616-9d72-68b29d343e00","system_id":"levelo_inurba_marseille","lat":43.32285,"lon":5.38304,"is_reserved":false,"is_disabled":false,"rental_uris":{"android":"levelo://app?vid=fdad6e5e-1467-4616-9d72-68b29d343e00","ios":"levelo://app?vid=fdad6e5e-1467-4616-9d72-68b29d343e00"},"vehicle_type_id":"4","last_reported":1743883789,"current_range_meters":8800,"station_id":"ce4bhr12rcd13ifvqhqg","pricing_plan_id":"cebpf4jnsgd1na2vs0mg"},{"bike_id":"01e2454a-b794-4ef0-ab24-a4075be75791","system_id":"levelo_inurba_marseille","lat":43.2961,"lon":5.37723,"is_reserved":false,"is_disabled":false,"rental_uris":{"android":"levelo://app?vid=01e2454a-b794-4ef0-ab24-a4075be75791","ios":"levelo://app?vid=01e2454a-b794-4ef0-ab24-a4075be75791"},"vehicle_type_id":"4","last_reported":1743883789,"current_range_meters":8800,"station_id":"ce4bgi92rcd13ifvqb90","pricing_plan_id":"cebpf4jnsgd1na2vs0mg"},{"bike_id":"1c600046-fb8a-47c3-8c47-03c4e2502051","system_id":"levelo_inurba_marseille","lat":43.29038,"lon":5.3862,"is_reserved":false,"is_disabled":false,"rental_uris":{"android":"levelo://app?vid=1c600046-fb8a-47c3-8c47-03c4e2502051","ios":"levelo://app?vid=1c600046-fb8a-47c3-8c47-03c4e2502051"},"vehicle_type_id":"4","last_reported":1743883789,"current_range_meters":8800,"station_id":"ce4bh4p2rcd13ifvqe0g","pricing_plan_id":"cebpf4jnsgd1na2vs0mg"},{"bike_id":"8e8105ce-63e2-4441-9ebe-d6a09a08a22e","system_id":"levelo_inurba_marseille","lat":43.29668,"lon":5.36204,"is_reserved":false,"is_disabled":false,"rental_uris":{"android":"levelo://app?vid=8e8105ce-63e2-4441-9ebe-d6a09a08a22e","ios":"levelo://app?vid=8e8105ce-63e2-4441-9ebe-d6a09a08a22e"},"vehicle_type_id":"4","last_reported":1743883789,"current_range_meters":8800,"station_id":"","pricing_plan_id":"cebpf4jnsgd1na2vs0mg"},{"bike_id":"7ef2be62-90dd-4dbc-90f2-e5533bbe1e96","system_id":"levelo_inurba_marseille","lat":43.29523,"lon":5.38531,"is_reserved":false,"is_disabled":false,"rental_uris":{"android":"levelo://app?vid=7ef2be62-90dd-4dbc-90f2-e5533bbe1e96","ios":"levelo://app?vid=7ef2be62-90dd-4dbc-90f2-e5533bbe1e96"},"vehicle_type_id":"4","last_reported":1743883789,"current_range_meters":8800,"station_id":"ce4bgih2rcd13ifvqba0","pricing_plan_id":"cebpf4jnsgd1na2vs0mg"},{"bike_id":"06b3eb39-a6d7-4a45-939c-b459a5c1bea3","system_id":"levelo_inurba_marseille","lat":43.31077,"lon":5.38353,"is_reserved":false,"is_disabled":false,"rental_uris":{"android":"levelo://app?vid=06b3eb39-a6d7-4a45-939c-b459a5c1bea3","ios":"levelo://app?vid=06b3eb39-a6d7-4a45-939c-b459a5c1bea3"},"vehicle_type_id":"4","last_reported":1743883789,"current_range_meters":8800,"station_id":"ce4bgv92rcd13ifvqcr0","pricing_plan_id":"cebpf4jnsgd1na2vs0mg"},{"bike_id":"1d0362ef-c0e7-4c7f-b0d9-d344dd685268","system_id":"levelo_inurba_marseille","lat":43.29622,"lon":5.37154,"is_reserved":false,"is_disabled":false,"rental_uris":{"android":"levelo://app?vid=1d0362ef-c0e7-4c7f-b0d9-d344dd685268","ios":"levelo://app?vid=1d0362ef-c0e7-4c7f-b0d9-d344dd685268"},"vehicle_type_id":"4","last_reported":1743883789,"current_range_meters":8800,"station_id":"ce4bgnh2rcd13ifvqc0g","pricing_plan_id":"cebpf4jnsgd1na2vs0mg"},{"bike_id":"3a57919f-ee85-408b-abb3-8451f9ab6282","system_id":"levelo_inurba_marseille","lat":43.29528,"lon":5.38543,"is_reserved":false,"is_disabled":false,"rental_uris":{"android":"levelo://app?vid=3a57919f-ee85-408b-abb3-8451f9ab6282","ios":"levelo://app?vid=3a57919f-ee85-408b-abb3-8451f9ab6282"},"vehicle_type_id":"4","last_reported":1743883789,"current_range_meters":8800,"station_id":"ce4bgih2rcd13ifvqba0","pricing_plan_id":"cebpf4jnsgd1na2vs0mg"},{"bike_id":"b84264c4-8104-49ae-a897-a40e315a30ec","system_id":"levelo_inurba_marseille","lat":43.2942,"lon":5.38618,"is_reserved":false,"is_disabled":false,"rental_uris":{"android":"levelo://app?vid=b84264c4-8104-49ae-a897-a40e315a30ec","ios":"levelo://app?vid=b84264c4-8104-49ae-a897-a40e315a30ec"},"vehicle_type_id":"4","last_reported":1743883789,"current_range_meters":8800,"station_id":"ce4bh2h2rcd13ifvqdh0","pricing_plan_id":"cebpf4jnsgd1na2vs0mg"},{"bike_id":"5528d9dc-888f-4a21-a6d4-47a17173f468","system_id":"levelo_inurba_marseille","lat":43.26501,"lon":5.39539,"is_reserved":false,"is_disabled":false,"rental_uris":{"android":"levelo://app?vid=5528d9dc-888f-4a21-a6d4-47a17173f468","ios":"levelo://app?vid=5528d9dc-888f-4a21-a6d4-47a17173f468"},"vehicle_type_id":"4","last_reported":1743883789,"current_range_meters":9200,"station_id":"ce4bhi12rcd13ifvqfq0","pricing_plan_id":"cebpf4jnsgd1na2vs0mg"},{"bike_id":"cbd682bb-35da-4589-966b-b522540c219e","system_id":"levelo_inurba_marseille","lat":43.29647,"lon":5.38126,"is_reserved":false,"is_disabled":false,"rental_uris":{"android":"levelo://app?vid=cbd682bb-35da-4589-966b-b522540c219e","ios":"levelo://app?vid=cbd682bb-35da-4589-966b-b522540c219e"},"vehicle_type_id":"4","last_reported":1743883789,"current_range_meters":9200,"station_id":"","pricing_plan_id":"cebpf4jnsgd1na2vs0mg"},{"bike_id":"db5b074a-d935-442f-b4d3-96df771d91d1","system_id":"levelo_inurba_marseille","lat":43.248074,"lon":5.374566,"is_reserved":false,"is_disabled":false,"rental_uris":{"android":"levelo://app?vid=db5b074a-d935-442f-b4d3-96df771d91d1","ios":"levelo://app?vid=db5b074a-d935-442f-b4d3-96df771d91d1"},"vehicle_type_id":"4","last_reported":1743883789,"current_range_meters":9200,"station_id":"ce4bhgh2rcd13ifvqfb0","pricing_plan_id":"cebpf4jnsgd1na2vs0mg"},{"bike_id":"1622461e-25a5-4ec6-9188-643400d8cf0e","system_id":"levelo_inurba_marseille","lat":43.30818,"lon":5.43509,"is_reserved":false,"is_disabled":false,"rental_uris":{"android":"levelo://app?vid=1622461e-25a5-4ec6-9188-643400d8cf0e","ios":"levelo://app?vid=1622461e-25a5-4ec6-9188-643400d8cf0e"},"vehicle_type_id":"4","last_reported":1743883789,"current_range_meters":9200,"station_id":"ce4bhph2rcd13ifvqheg","pricing_plan_id":"cebpf4jnsgd1na2vs0mg"},{"bike_id":"597e3cb0-7bf1-4c5c-814c-bff699977597","system_id":"levelo_inurba_marseille","lat":43.33156,"lon":5.38169,"is_reserved":false,"is_disabled":false,"rental_uris":{"android":"levelo://app?vid=597e3cb0-7bf1-4c5c-814c-bff699977597","ios":"levelo://app?vid=597e3cb0-7bf1-4c5c-814c-bff699977597"},"vehicle_type_id":"4","last_reported":1743883789,"current_range_meters":9200,"station_id":"","pricing_plan_id":"cebpf4jnsgd1na2vs0mg"},{"bike_id":"dbd8fe7c-ac98-4d0c-88b3-a42651eb56f0","system_id":"levelo_inurba_marseille","lat":43.27992,"lon":5.38753,"is_reserved":false,"is_disabled":false,"rental_uris":{"android":"levelo://app?vid=dbd8fe7c-ac98-4d0c-88b3-a42651eb56f0","ios":"levelo://app?vid=dbd8fe7c-ac98-4d0c-88b3-a42651eb56f0"},"vehicle_type_id":"4","last_reported":1743883789,"current_range_meters":9200,"station_id":"ce4bhg12rcd13ifvqf80","pricing_plan_id":"cebpf4jnsgd1na2vs0mg"},{"bike_id":"0fd423f4-42b2-47ef-be8d-1258a1f21589","system_id":"levelo_inurba_marseille","lat":43.29271,"lon":5.38449,"is_reserved":false,"is_disabled":false,"rental_uris":{"android":"levelo://app?vid=0fd423f4-42b2-47ef-be8d-1258a1f21589","ios":"levelo://app?vid=0fd423f4-42b2-47ef-be8d-1258a1f21589"},"vehicle_type_id":"4","last_reported":1743883789,"current_range_meters":9200,"station_id":"ce4bh692rcd13ifvqea0","pricing_plan_id":"cebpf4jnsgd1na2vs0mg"},{"bike_id":"75e06f13-45de-477c-944c-cd392d1381e7","system_id":"levelo_inurba_marseille","lat":43.30323,"lon":5.40429,"is_reserved":false,"is_disabled":false,"rental_uris":{"android":"levelo://app?vid=75e06f13-45de-477c-944c-cd392d1381e7","ios":"levelo://app?vid=75e06f13-45de-477c-944c-cd392d1381e7"},"vehicle_type_id":"4","last_reported":1743883789,"current_range_meters":9200,"station_id":"ce4bh012rcd13ifvqd10","pricing_plan_id":"cebpf4jnsgd1na2vs0mg"},{"bike_id":"9a5feeab-a279-4da2-abfe-ef5b3c0da1fb","system_id":"levelo_inurba_marseille","lat":43.28954,"lon":5.37619,"is_reserved":false,"is_disabled":false,"rental_uris":{"android":"levelo://app?vid=9a5feeab-a279-4da2-abfe-ef5b3c0da1fb","ios":"levelo://app?vid=9a5feeab-a279-4da2-abfe-ef5b3c0da1fb"},"vehicle_type_id":"4","last_reported":1743883789,"current_range_meters":9600,"station_id":"","pricing_plan_id":"cebpf4jnsgd1na2vs0mg"},{"bike_id":"f7ed8f9f-08ba-43a2-8fa1-b91f250b7b84","system_id":"levelo_inurba_marseille","lat":43.31679,"lon":5.40471,"is_reserved":false,"is_disabled":false,"rental_uris":{"android":"levelo://app?vid=f7ed8f9f-08ba-43a2-8fa1-b91f250b7b84","ios":"levelo://app?vid=f7ed8f9f-08ba-43a2-8fa1-b91f250b7b84"},"vehicle_type_id":"4","last_reported":1743883789,"current_range_meters":9200,"station_id":"ce4bh012rcd13ifvqd00","pricing_plan_id":"cebpf4jnsgd1na2vs0mg"},{"bike_id":"18254cc3-53ce-4adc-b747-d6283d7989e0","system_id":"levelo_inurba_marseille","lat":43.30431,"lon":5.38882,"is_reserved":false,"is_disabled":false,"rental_uris":{"android":"levelo://app?vid=18254cc3-53ce-4adc-b747-d6283d7989e0","ios":"levelo://app?vid=18254cc3-53ce-4adc-b747-d6283d7989e0"},"vehicle_type_id":"4","last_reported":1743883789,"current_range_meters":9200,"station_id":"ce4bgk12rcd13ifvqbi0","pricing_plan_id":"cebpf4jnsgd1na2vs0mg"},{"bike_id":"c38496df-4bf6-4c97-91c3-17abcf370a7f","system_id":"levelo_inurba_marseille","lat":43.2927,"lon":5.38436,"is_reserved":false,"is_disabled":false,"rental_uris":{"android":"levelo://app?vid=c38496df-4bf6-4c97-91c3-17abcf370a7f","ios":"levelo://app?vid=c38496df-4bf6-4c97-91c3-17abcf370a7f"},"vehicle_type_id":"4","last_reported":1743883789,"current_range_meters":9200,"station_id":"ce4bh692rcd13ifvqea0","pricing_plan_id":"cebpf4jnsgd1na2vs0mg"},{"bike_id":"e29cf6ea-fbad-46c8-8f2d-eeb22bcc87e4","system_id":"levelo_inurba_marseille","lat":43.2942,"lon":5.38629,"is_reserved":false,"is_disabled":false,"rental_uris":{"android":"levelo://app?vid=e29cf6ea-fbad-46c8-8f2d-eeb22bcc87e4","ios":"levelo://app?vid=e29cf6ea-fbad-46c8-8f2d-eeb22bcc87e4"},"vehicle_type_id":"4","last_reported":1743883789,"current_range_meters":9200,"station_id":"ce4bh2h2rcd13ifvqdh0","pricing_plan_id":"cebpf4jnsgd1na2vs0mg"},{"bike_id":"fcc9abbd-dfa8-4c21-91c3-36ed1013a60b","system_id":"levelo_inurba_marseille","lat":43.29277,"lon":5.40123,"is_reserved":false,"is_disabled":false,"rental_uris":{"android":"levelo://app?vid=fcc9abbd-dfa8-4c21-91c3-36ed1013a60b","ios":"levelo://app?vid=fcc9abbd-dfa8-4c21-91c3-36ed1013a60b"},"vehicle_type_id":"4","last_reported":1743883789,"current_range_meters":9200,"station_id":"ce4bh312rcd13ifvqdk0","pricing_plan_id":"cebpf4jnsgd1na2vs0mg"},{"bike_id":"0c76f3c9-bc89-4414-9c4b-485533d7e18d","system_id":"levelo_inurba_marseille","lat":43.29262,"lon":5.3844,"is_reserved":false,"is_disabled":false,"rental_uris":{"android":"levelo://app?vid=0c76f3c9-bc89-4414-9c4b-485533d7e18d","ios":"levelo://app?vid=0c76f3c9-bc89-4414-9c4b-485533d7e18d"},"vehicle_type_id":"4","last_reported":1743883789,"current_range_meters":9200,"station_id":"ce4bh692rcd13ifvqea0","pricing_plan_id":"cebpf4jnsgd1na2vs0mg"},{"bike_id":"41074238-a978-4eb9-b243-3b9bf9fd4ae5","system_id":"levelo_inurba_marseille","lat":43.2998,"lon":5.37438,"is_reserved":false,"is_disabled":false,"rental_uris":{"android":"levelo://app?vid=41074238-a978-4eb9-b243-3b9bf9fd4ae5","ios":"levelo://app?vid=41074238-a978-4eb9-b243-3b9bf9fd4ae5"},"vehicle_type_id":"4","last_reported":1743883789,"current_range_meters":9200,"station_id":"","pricing_plan_id":"cebpf4jnsgd1na2vs0mg"},{"bike_id":"4fe58138-60b4-4d45-a746-cf71d1b18f1e","system_id":"levelo_inurba_marseille","lat":43.292708,"lon":5.384353,"is_reserved":false,"is_disabled":false,"rental_uris":{"android":"levelo://app?vid=4fe58138-60b4-4d45-a746-cf71d1b18f1e","ios":"levelo://app?vid=4fe58138-60b4-4d45-a746-cf71d1b18f1e"},"vehicle_type_id":"4","last_reported":1743883789,"current_range_meters":9200,"station_id":"ce4bh692rcd13ifvqea0","pricing_plan_id":"cebpf4jnsgd1na2vs0mg"},{"bike_id":"d5e984d3-343e-4e16-bd54-bc3ebbd48639","system_id":"levelo_inurba_marseille","lat":43.30096,"lon":5.38781,"is_reserved":false,"is_disabled":true,"rental_uris":{"android":"levelo://app?vid=d5e984d3-343e-4e16-bd54-bc3ebbd48639","ios":"levelo://app?vid=d5e984d3-343e-4e16-bd54-bc3ebbd48639"},"vehicle_type_id":"4","last_reported":1743883789,"current_range_meters":9600,"station_id":"ce4bghh2rcd13ifvqb60","pricing_plan_id":"cebpf4jnsgd1na2vs0mg"},{"bike_id":"fdfd01fc-093d-4c48-8c80-06fe1b4633e3","system_id":"levelo_inurba_marseille","lat":43.29248,"lon":5.38441,"is_reserved":false,"is_disabled":true,"rental_uris":{"android":"levelo://app?vid=fdfd01fc-093d-4c48-8c80-06fe1b4633e3","ios":"levelo://app?vid=fdfd01fc-093d-4c48-8c80-06fe1b4633e3"},"vehicle_type_id":"4","last_reported":1743883789,"current_range_meters":9600,"station_id":"ce4bh692rcd13ifvqea0","pricing_plan_id":"cebpf4jnsgd1na2vs0mg"},{"bike_id":"e8d9f7ef-c8d3-4238-9360-3a3f9acc3468","system_id":"levelo_inurba_marseille","lat":43.30926,"lon":5.40148,"is_reserved":false,"is_disabled":false,"rental_uris":{"android":"levelo://app?vid=e8d9f7ef-c8d3-4238-9360-3a3f9acc3468","ios":"levelo://app?vid=e8d9f7ef-c8d3-4238-9360-3a3f9acc3468"},"vehicle_type_id":"4","last_reported":1743883789,"current_range_meters":9600,"station_id":"ce4bgvp2rcd13ifvqct0","pricing_plan_id":"cebpf4jnsgd1na2vs0mg"},{"bike_id":"bc910be3-a353-4772-b532-ed0cf10f856d","system_id":"levelo_inurba_marseille","lat":43.3088,"lon":5.39657,"is_reserved":false,"is_disabled":false,"rental_uris":{"android":"levelo://app?vid=bc910be3-a353-4772-b532-ed0cf10f856d","ios":"levelo://app?vid=bc910be3-a353-4772-b532-ed0cf10f856d"},"vehicle_type_id":"4","last_reported":1743883789,"current_range_meters":9600,"station_id":"ce4bh012rcd13ifvqcv0","pricing_plan_id":"cebpf4jnsgd1na2vs0mg"},{"bike_id":"6ea6e92e-1292-4c08-a967-942b78033e2c","system_id":"levelo_inurba_marseille","lat":43.29533,"lon":5.38538,"is_reserved":false,"is_disabled":false,"rental_uris":{"android":"levelo://app?vid=6ea6e92e-1292-4c08-a967-942b78033e2c","ios":"levelo://app?vid=6ea6e92e-1292-4c08-a967-942b78033e2c"},"vehicle_type_id":"4","last_reported":1743883789,"current_range_meters":9600,"station_id":"ce4bgih2rcd13ifvqba0","pricing_plan_id":"cebpf4jnsgd1na2vs0mg"},{"bike_id":"990da929-1cb7-46ce-a5e3-a46343bfffe7","system_id":"levelo_inurba_marseille","lat":43.29808,"lon":5.38107,"is_reserved":false,"is_disabled":true,"rental_uris":{"android":"levelo://app?vid=990da929-1cb7-46ce-a5e3-a46343bfffe7","ios":"levelo://app?vid=990da929-1cb7-46ce-a5e3-a46343bfffe7"},"vehicle_type_id":"4","last_reported":1743883789,"current_range_meters":9600,"station_id":"ce4bgip2rcd13ifvqbb0","pricing_plan_id":"cebpf4jnsgd1na2vs0mg"},{"bike_id":"ac2c70e4-85e0-48f2-8e15-e23e948cc8ee","system_id":"levelo_inurba_marseille","lat":43.28455,"lon":5.38425,"is_reserved":false,"is_disabled":false,"rental_uris":{"android":"levelo://app?vid=ac2c70e4-85e0-48f2-8e15-e23e948cc8ee","ios":"levelo://app?vid=ac2c70e4-85e0-48f2-8e15-e23e948cc8ee"},"vehicle_type_id":"4","last_reported":1743883789,"current_range_meters":9200,"station_id":"ce4bh512rcd13ifvqe3g","pricing_plan_id":"cebpf4jnsgd1na2vs0mg"},{"bike_id":"19e5e026-6d23-4689-a279-bec1f0dfe8ef","system_id":"levelo_inurba_marseille","lat":43.22934,"lon":5.35376,"is_reserved":false,"is_disabled":false,"rental_uris":{"android":"levelo://app?vid=19e5e026-6d23-4689-a279-bec1f0dfe8ef","ios":"levelo://app?vid=19e5e026-6d23-4689-a279-bec1f0dfe8ef"},"vehicle_type_id":"4","last_reported":1743883789,"current_range_meters":9600,"station_id":"cpo3532slgdg3j2ikp40","pricing_plan_id":"cebpf4jnsgd1na2vs0mg"},{"bike_id":"30b57730-cb66-4122-bd93-7dabcaba84e7","system_id":"levelo_inurba_marseille","lat":43.24912,"lon":5.40688,"is_reserved":false,"is_disabled":false,"rental_uris":{"android":"levelo://app?vid=30b57730-cb66-4122-bd93-7dabcaba84e7","ios":"levelo://app?vid=30b57730-cb66-4122-bd93-7dabcaba84e7"},"vehicle_type_id":"4","last_reported":1743883789,"current_range_meters":9600,"station_id":"","pricing_plan_id":"cebpf4jnsgd1na2vs0mg"},{"bike_id":"1e72d3fb-accb-4636-a1fd-813f0b952e02","system_id":"levelo_inurba_marseille","lat":43.30884,"lon":5.39663,"is_reserved":false,"is_disabled":false,"rental_uris":{"android":"levelo://app?vid=1e72d3fb-accb-4636-a1fd-813f0b952e02","ios":"levelo://app?vid=1e72d3fb-accb-4636-a1fd-813f0b952e02"},"vehicle_type_id":"4","last_reported":1743883789,"current_range_meters":9600,"station_id":"ce4bh012rcd13ifvqcv0","pricing_plan_id":"cebpf4jnsgd1na2vs0mg"},{"bike_id":"a4f46b8f-c067-4428-9a95-2b0700ef3af0","system_id":"levelo_inurba_marseille","lat":43.29531,"lon":5.38549,"is_reserved":false,"is_disabled":false,"rental_uris":{"android":"levelo://app?vid=a4f46b8f-c067-4428-9a95-2b0700ef3af0","ios":"levelo://app?vid=a4f46b8f-c067-4428-9a95-2b0700ef3af0"},"vehicle_type_id":"4","last_reported":1743883789,"current_range_meters":9600,"station_id":"ce4bgih2rcd13ifvqba0","pricing_plan_id":"cebpf4jnsgd1na2vs0mg"},{"bike_id":"f026eb80-b911-4274-bb5d-af622566135d","system_id":"levelo_inurba_marseille","lat":43.29228,"lon":5.38452,"is_reserved":false,"is_disabled":false,"rental_uris":{"android":"levelo://app?vid=f026eb80-b911-4274-bb5d-af622566135d","ios":"levelo://app?vid=f026eb80-b911-4274-bb5d-af622566135d"},"vehicle_type_id":"4","last_reported":1743883789,"current_range_meters":10000,"station_id":"ce4bh692rcd13ifvqea0","pricing_plan_id":"cebpf4jnsgd1na2vs0mg"},{"bike_id":"fb7a6658-65a4-4af9-acc1-679ce624548f","system_id":"levelo_inurba_marseille","lat":43.26244,"lon":5.40453,"is_reserved":false,"is_disabled":false,"rental_uris":{"android":"levelo://app?vid=fb7a6658-65a4-4af9-acc1-679ce624548f","ios":"levelo://app?vid=fb7a6658-65a4-4af9-acc1-679ce624548f"},"vehicle_type_id":"4","last_reported":1743883789,"current_range_meters":10000,"station_id":"ce4bhmh2rcd13ifvqgmg","pricing_plan_id":"cebpf4jnsgd1na2vs0mg"},{"bike_id":"db29433a-c7f6-40d6-b0e1-3a1f0abf15ab","system_id":"levelo_inurba_marseille","lat":43.241712,"lon":5.364041,"is_reserved":false,"is_disabled":true,"rental_uris":{"android":"levelo://app?vid=db29433a-c7f6-40d6-b0e1-3a1f0abf15ab","ios":"levelo://app?vid=db29433a-c7f6-40d6-b0e1-3a1f0abf15ab"},"vehicle_type_id":"4","last_reported":1743883789,"current_range_meters":10000,"station_id":"ce4bh412rcd13ifvqdr0","pricing_plan_id":"cebpf4jnsgd1na2vs0mg"},{"bike_id":"a6a4aada-4dec-4c66-9029-bd9ebff46b38","system_id":"levelo_inurba_marseille","lat":43.31336,"lon":5.39695,"is_reserved":false,"is_disabled":false,"rental_uris":{"android":"levelo://app?vid=a6a4aada-4dec-4c66-9029-bd9ebff46b38","ios":"levelo://app?vid=a6a4aada-4dec-4c66-9029-bd9ebff46b38"},"vehicle_type_id":"4","last_reported":1743883789,"current_range_meters":10000,"station_id":"ce4bgvp2rcd13ifvqcu0","pricing_plan_id":"cebpf4jnsgd1na2vs0mg"},{"bike_id":"070defeb-06d3-4dff-b75a-e4a595285b64","system_id":"levelo_inurba_marseille","lat":43.28447,"lon":5.39205,"is_reserved":false,"is_disabled":false,"rental_uris":{"android":"levelo://app?vid=070defeb-06d3-4dff-b75a-e4a595285b64","ios":"levelo://app?vid=070defeb-06d3-4dff-b75a-e4a595285b64"},"vehicle_type_id":"4","last_reported":1743883789,"current_range_meters":10000,"station_id":"ce4bhoh2rcd13ifvqh5g","pricing_plan_id":"cebpf4jnsgd1na2vs0mg"},{"bike_id":"301b6729-c45c-4915-8ef6-dadde3959d3d","system_id":"levelo_inurba_marseille","lat":43.26516,"lon":5.39056,"is_reserved":false,"is_disabled":true,"rental_uris":{"android":"levelo://app?vid=301b6729-c45c-4915-8ef6-dadde3959d3d","ios":"levelo://app?vid=301b6729-c45c-4915-8ef6-dadde3959d3d"},"vehicle_type_id":"4","last_reported":1743883789,"current_range_meters":10000,"station_id":"","pricing_plan_id":"cebpf4jnsgd1na2vs0mg"},{"bike_id":"25314db0-1249-4b49-9956-f519e7c8e80f","system_id":"levelo_inurba_marseille","lat":43.32101,"lon":5.36776,"is_reserved":false,"is_disabled":false,"rental_uris":{"android":"levelo://app?vid=25314db0-1249-4b49-9956-f519e7c8e80f","ios":"levelo://app?vid=25314db0-1249-4b49-9956-f519e7c8e80f"},"vehicle_type_id":"4","last_reported":1743883789,"current_range_meters":10000,"station_id":"ce4bhrh2rcd13ifvqhug","pricing_plan_id":"cebpf4jnsgd1na2vs0mg"},{"bike_id":"6d605c61-05c9-4c92-892c-0bd54fbaee0e","system_id":"levelo_inurba_marseille","lat":43.27186,"lon":5.40989,"is_reserved":false,"is_disabled":false,"rental_uris":{"android":"levelo://app?vid=6d605c61-05c9-4c92-892c-0bd54fbaee0e","ios":"levelo://app?vid=6d605c61-05c9-4c92-892c-0bd54fbaee0e"},"vehicle_type_id":"4","last_reported":1743883789,"current_range_meters":10000,"station_id":"ce4bhl12rcd13ifvqgf0","pricing_plan_id":"cebpf4jnsgd1na2vs0mg"},{"bike_id":"efc90fae-7f0f-489e-802b-b2158e88d143","system_id":"levelo_inurba_marseille","lat":43.2572,"lon":5.41094,"is_reserved":false,"is_disabled":false,"rental_uris":{"android":"levelo://app?vid=efc90fae-7f0f-489e-802b-b2158e88d143","ios":"levelo://app?vid=efc90fae-7f0f-489e-802b-b2158e88d143"},"vehicle_type_id":"4","last_reported":1743883789,"current_range_meters":9600,"station_id":"ce4bhkp2rcd13ifvqgd0","pricing_plan_id":"cebpf4jnsgd1na2vs0mg"},{"bike_id":"4c25fb76-cd0e-4544-8837-d2585ee48375","system_id":"levelo_inurba_marseille","lat":43.29899,"lon":5.43655,"is_reserved":false,"is_disabled":false,"rental_uris":{"android":"levelo://app?vid=4c25fb76-cd0e-4544-8837-d2585ee48375","ios":"levelo://app?vid=4c25fb76-cd0e-4544-8837-d2585ee48375"},"vehicle_type_id":"4","last_reported":1743883789,"current_range_meters":10000,"station_id":"ce4bhpp2rcd13ifvqhfg","pricing_plan_id":"cebpf4jnsgd1na2vs0mg"},{"bike_id":"3a45d79d-f040-4d44-b43c-a5960338e178","system_id":"levelo_inurba_marseille","lat":43.28935,"lon":5.36636,"is_reserved":false,"is_disabled":false,"rental_uris":{"android":"levelo://app?vid=3a45d79d-f040-4d44-b43c-a5960338e178","ios":"levelo://app?vid=3a45d79d-f040-4d44-b43c-a5960338e178"},"vehicle_type_id":"4","last_reported":1743883789,"current_range_meters":10000,"station_id":"ce4bhap2rcd13ifvqek0","pricing_plan_id":"cebpf4jnsgd1na2vs0mg"},{"bike_id":"7a935817-47e2-4cb3-8324-a647fdf3a140","system_id":"levelo_inurba_marseille","lat":43.29549,"lon":5.38531,"is_reserved":false,"is_disabled":true,"rental_uris":{"android":"levelo://app?vid=7a935817-47e2-4cb3-8324-a647fdf3a140","ios":"levelo://app?vid=7a935817-47e2-4cb3-8324-a647fdf3a140"},"vehicle_type_id":"4","last_reported":1743883789,"current_range_meters":10000,"station_id":"ce4bgih2rcd13ifvqba0","pricing_plan_id":"cebpf4jnsgd1na2vs0mg"},{"bike_id":"7ca5f8ee-4ce7-4124-bc3d-985aadaddb95","system_id":"levelo_inurba_marseille","lat":43.27896,"lon":5.38017,"is_reserved":false,"is_disabled":false,"rental_uris":{"android":"levelo://app?vid=7ca5f8ee-4ce7-4124-bc3d-985aadaddb95","ios":"levelo://app?vid=7ca5f8ee-4ce7-4124-bc3d-985aadaddb95"},"vehicle_type_id":"4","last_reported":1743883789,"current_range_meters":10800,"station_id":"ce4bhf92rcd13ifvqf50","pricing_plan_id":"cebpf4jnsgd1na2vs0mg"},{"bike_id":"58b17406-9bc6-4a67-b002-5d6db4195932","system_id":"levelo_inurba_marseille","lat":43.26212,"lon":5.40461,"is_reserved":false,"is_disabled":false,"rental_uris":{"android":"levelo://app?vid=58b17406-9bc6-4a67-b002-5d6db4195932","ios":"levelo://app?vid=58b17406-9bc6-4a67-b002-5d6db4195932"},"vehicle_type_id":"4","last_reported":1743883789,"current_range_meters":10800,"station_id":"ce4bhmh2rcd13ifvqgmg","pricing_plan_id":"cebpf4jnsgd1na2vs0mg"},{"bike_id":"1b687475-b71f-4719-b796-e3e372f5c123","system_id":"levelo_inurba_marseille","lat":43.284442,"lon":5.392041,"is_reserved":false,"is_disabled":false,"rental_uris":{"android":"levelo://app?vid=1b687475-b71f-4719-b796-e3e372f5c123","ios":"levelo://app?vid=1b687475-b71f-4719-b796-e3e372f5c123"},"vehicle_type_id":"4","last_reported":1743883789,"current_range_meters":10000,"station_id":"ce4bhip2rcd13ifvqft0","pricing_plan_id":"cebpf4jnsgd1na2vs0mg"},{"bike_id":"25ab24b5-b311-4a08-b362-36380a20f6db","system_id":"levelo_inurba_marseille","lat":43.29269,"lon":5.38391,"is_reserved":false,"is_disabled":false,"rental_uris":{"android":"levelo://app?vid=25ab24b5-b311-4a08-b362-36380a20f6db","ios":"levelo://app?vid=25ab24b5-b311-4a08-b362-36380a20f6db"},"vehicle_type_id":"4","last_reported":1743883789,"current_range_meters":10800,"station_id":"ce4bh692rcd13ifvqea0","pricing_plan_id":"cebpf4jnsgd1na2vs0mg"},{"bike_id":"ae2491ec-6c71-4a54-8266-8b04f74c4c6b","system_id":"levelo_inurba_marseille","lat":43.3199,"lon":5.38144,"is_reserved":false,"is_disabled":false,"rental_uris":{"android":"levelo://app?vid=ae2491ec-6c71-4a54-8266-8b04f74c4c6b","ios":"levelo://app?vid=ae2491ec-6c71-4a54-8266-8b04f74c4c6b"},"vehicle_type_id":"4","last_reported":1743883789,"current_range_meters":11200,"station_id":"ce4bhr12rcd13ifvqhpg","pricing_plan_id":"cebpf4jnsgd1na2vs0mg"},{"bike_id":"61e926fe-3dd1-4572-9b21-809d24ca6684","system_id":"levelo_inurba_marseille","lat":43.30417,"lon":5.41281,"is_reserved":false,"is_disabled":false,"rental_uris":{"android":"levelo://app?vid=61e926fe-3dd1-4572-9b21-809d24ca6684","ios":"levelo://app?vid=61e926fe-3dd1-4572-9b21-809d24ca6684"},"vehicle_type_id":"4","last_reported":1743883789,"current_range_meters":11200,"station_id":"ce4bhop2rcd13ifvqh8g","pricing_plan_id":"cebpf4jnsgd1na2vs0mg"},{"bike_id":"6847ef93-24cb-4717-81ac-eb1646d04969","system_id":"levelo_inurba_marseille","lat":43.28036,"lon":5.3695,"is_reserved":false,"is_disabled":false,"rental_uris":{"android":"levelo://app?vid=6847ef93-24cb-4717-81ac-eb1646d04969","ios":"levelo://app?vid=6847ef93-24cb-4717-81ac-eb1646d04969"},"vehicle_type_id":"4","last_reported":1743883789,"current_range_meters":11200,"station_id":"ce4bha12rcd13ifvqef0","pricing_plan_id":"cebpf4jnsgd1na2vs0mg"},{"bike_id":"74aa386e-40bb-4033-8cf4-8be7f9c96b67","system_id":"levelo_inurba_marseille","lat":43.26221,"lon":5.3791,"is_reserved":false,"is_disabled":true,"rental_uris":{"android":"levelo://app?vid=74aa386e-40bb-4033-8cf4-8be7f9c96b67","ios":"levelo://app?vid=74aa386e-40bb-4033-8cf4-8be7f9c96b67"},"vehicle_type_id":"4","last_reported":1743883789,"current_range_meters":11200,"station_id":"","pricing_plan_id":"cebpf4jnsgd1na2vs0mg"},{"bike_id":"b70cced5-dc6e-4ac4-aef4-4cfbee9a2e11","system_id":"levelo_inurba_marseille","lat":43.29612,"lon":5.37678,"is_reserved":false,"is_disabled":true,"rental_uris":{"android":"levelo://app?vid=b70cced5-dc6e-4ac4-aef4-4cfbee9a2e11","ios":"levelo://app?vid=b70cced5-dc6e-4ac4-aef4-4cfbee9a2e11"},"vehicle_type_id":"4","last_reported":1743883789,"current_range_meters":11200,"station_id":"ce4bgi92rcd13ifvqb90","pricing_plan_id":"cebpf4jnsgd1na2vs0mg"},{"bike_id":"c80e89f7-3453-4a01-8c2d-fff7152b857c","system_id":"levelo_inurba_marseille","lat":43.28036,"lon":5.36949,"is_reserved":false,"is_disabled":false,"rental_uris":{"android":"levelo://app?vid=c80e89f7-3453-4a01-8c2d-fff7152b857c","ios":"levelo://app?vid=c80e89f7-3453-4a01-8c2d-fff7152b857c"},"vehicle_type_id":"4","last_reported":1743883789,"current_range_meters":11200,"station_id":"ce4bha12rcd13ifvqef0","pricing_plan_id":"cebpf4jnsgd1na2vs0mg"},{"bike_id":"6038df80-ab50-46c2-a499-645734af582c","system_id":"levelo_inurba_marseille","lat":43.29257,"lon":5.38436,"is_reserved":false,"is_disabled":false,"rental_uris":{"android":"levelo://app?vid=6038df80-ab50-46c2-a499-645734af582c","ios":"levelo://app?vid=6038df80-ab50-46c2-a499-645734af582c"},"vehicle_type_id":"4","last_reported":1743883789,"current_range_meters":11200,"station_id":"ce4bh692rcd13ifvqea0","pricing_plan_id":"cebpf4jnsgd1na2vs0mg"},{"bike_id":"741ce7f8-845d-4b0f-9d44-aeb10e4c4b8c","system_id":"levelo_inurba_marseille","lat":43.28073,"lon":5.396553,"is_reserved":false,"is_disabled":false,"rental_uris":{"android":"levelo://app?vid=741ce7f8-845d-4b0f-9d44-aeb10e4c4b8c","ios":"levelo://app?vid=741ce7f8-845d-4b0f-9d44-aeb10e4c4b8c"},"vehicle_type_id":"4","last_reported":1743883789,"current_range_meters":11200,"station_id":"ce4bho12rcd13ifvqh2g","pricing_plan_id":"cebpf4jnsgd1na2vs0mg"},{"bike_id":"f3ac3b66-473e-41c1-81ce-ad94ca5d358b","system_id":"levelo_inurba_marseille","lat":43.28979,"lon":5.3783,"is_reserved":false,"is_disabled":false,"rental_uris":{"android":"levelo://app?vid=f3ac3b66-473e-41c1-81ce-ad94ca5d358b","ios":"levelo://app?vid=f3ac3b66-473e-41c1-81ce-ad94ca5d358b"},"vehicle_type_id":"4","last_reported":1743883789,"current_range_meters":11200,"station_id":"ce4bh9p2rcd13ifvqed0","pricing_plan_id":"cebpf4jnsgd1na2vs0mg"},{"bike_id":"aeaafdce-072b-410b-bb71-bd5216dc505b","system_id":"levelo_inurba_marseille","lat":43.2313,"lon":5.40048,"is_reserved":false,"is_disabled":false,"rental_uris":{"android":"levelo://app?vid=aeaafdce-072b-410b-bb71-bd5216dc505b","ios":"levelo://app?vid=aeaafdce-072b-410b-bb71-bd5216dc505b"},"vehicle_type_id":"4","last_reported":1743883789,"current_range_meters":11600,"station_id":"","pricing_plan_id":"cebpf4jnsgd1na2vs0mg"},{"bike_id":"2bf35b3b-6747-447d-b74f-9799f6a9ce79","system_id":"levelo_inurba_marseille","lat":43.31745,"lon":5.39011,"is_reserved":false,"is_disabled":false,"rental_uris":{"android":"levelo://app?vid=2bf35b3b-6747-447d-b74f-9799f6a9ce79","ios":"levelo://app?vid=2bf35b3b-6747-447d-b74f-9799f6a9ce79"},"vehicle_type_id":"4","last_reported":1743883789,"current_range_meters":12000,"station_id":"ce4bhqp2rcd13ifvqhng","pricing_plan_id":"cebpf4jnsgd1na2vs0mg"},{"bike_id":"690a81aa-a334-4f44-a77b-62c241321293","system_id":"levelo_inurba_marseille","lat":43.28713,"lon":5.37936,"is_reserved":false,"is_disabled":false,"rental_uris":{"android":"levelo://app?vid=690a81aa-a334-4f44-a77b-62c241321293","ios":"levelo://app?vid=690a81aa-a334-4f44-a77b-62c241321293"},"vehicle_type_id":"4","last_reported":1743883789,"current_range_meters":11600,"station_id":"ce4bh9p2rcd13ifvqec0","pricing_plan_id":"cebpf4jnsgd1na2vs0mg"},{"bike_id":"26bffcb6-6826-468d-aadb-be235a4cf008","system_id":"levelo_inurba_marseille","lat":43.2941,"lon":5.38637,"is_reserved":false,"is_disabled":false,"rental_uris":{"android":"levelo://app?vid=26bffcb6-6826-468d-aadb-be235a4cf008","ios":"levelo://app?vid=26bffcb6-6826-468d-aadb-be235a4cf008"},"vehicle_type_id":"4","last_reported":1743883789,"current_range_meters":11600,"station_id":"ce4bh2h2rcd13ifvqdh0","pricing_plan_id":"cebpf4jnsgd1na2vs0mg"},{"bike_id":"047dcc88-32eb-4bd4-992c-5bd9c7d944a8","system_id":"levelo_inurba_marseille","lat":43.27895,"lon":5.38022,"is_reserved":false,"is_disabled":false,"rental_uris":{"android":"levelo://app?vid=047dcc88-32eb-4bd4-992c-5bd9c7d944a8","ios":"levelo://app?vid=047dcc88-32eb-4bd4-992c-5bd9c7d944a8"},"vehicle_type_id":"4","last_reported":1743883789,"current_range_meters":11600,"station_id":"ce4bhf92rcd13ifvqf50","pricing_plan_id":"cebpf4jnsgd1na2vs0mg"},{"bike_id":"6caa9fdd-9f3c-4bc4-b75b-ac87fc400cd6","system_id":"levelo_inurba_marseille","lat":43.26933,"lon":5.38901,"is_reserved":false,"is_disabled":false,"rental_uris":{"android":"levelo://app?vid=6caa9fdd-9f3c-4bc4-b75b-ac87fc400cd6","ios":"levelo://app?vid=6caa9fdd-9f3c-4bc4-b75b-ac87fc400cd6"},"vehicle_type_id":"4","last_reported":1743883789,"current_range_meters":11600,"station_id":"ce4bhhh2rcd13ifvqfl0","pricing_plan_id":"cebpf4jnsgd1na2vs0mg"},{"bike_id":"0f3d6cb8-7efe-42ee-ab50-2a663f90e5af","system_id":"levelo_inurba_marseille","lat":43.2761,"lon":5.3609,"is_reserved":false,"is_disabled":false,"rental_uris":{"android":"levelo://app?vid=0f3d6cb8-7efe-42ee-ab50-2a663f90e5af","ios":"levelo://app?vid=0f3d6cb8-7efe-42ee-ab50-2a663f90e5af"},"vehicle_type_id":"4","last_reported":1743883789,"current_range_meters":11600,"station_id":"ce4bgj92rcd13ifvqbe0","pricing_plan_id":"cebpf4jnsgd1na2vs0mg"},{"bike_id":"48e9e8f2-61d9-4a52-9338-a075ef764bdd","system_id":"levelo_inurba_marseille","lat":43.29514,"lon":5.39403,"is_reserved":false,"is_disabled":false,"rental_uris":{"android":"levelo://app?vid=48e9e8f2-61d9-4a52-9338-a075ef764bdd","ios":"levelo://app?vid=48e9e8f2-61d9-4a52-9338-a075ef764bdd"},"vehicle_type_id":"4","last_reported":1743883789,"current_range_meters":11600,"station_id":"ce4bh292rcd13ifvqdf0","pricing_plan_id":"cebpf4jnsgd1na2vs0mg"},{"bike_id":"c18f5f31-0732-4e0a-948f-24e696213f4d","system_id":"levelo_inurba_marseille","lat":43.30305,"lon":5.36881,"is_reserved":false,"is_disabled":false,"rental_uris":{"android":"levelo://app?vid=c18f5f31-0732-4e0a-948f-24e696213f4d","ios":"levelo://app?vid=c18f5f31-0732-4e0a-948f-24e696213f4d"},"vehicle_type_id":"4","last_reported":1743883789,"current_range_meters":11600,"station_id":"ce4bgqh2rcd13ifvqc5g","pricing_plan_id":"cebpf4jnsgd1na2vs0mg"},{"bike_id":"6023584e-870f-454d-88b0-bf3dc0e21fbe","system_id":"levelo_inurba_marseille","lat":43.24393,"lon":5.37066,"is_reserved":false,"is_disabled":true,"rental_uris":{"android":"levelo://app?vid=6023584e-870f-454d-88b0-bf3dc0e21fbe","ios":"levelo://app?vid=6023584e-870f-454d-88b0-bf3dc0e21fbe"},"vehicle_type_id":"4","last_reported":1743883789,"current_range_meters":11600,"station_id":"","pricing_plan_id":"cebpf4jnsgd1na2vs0mg"},{"bike_id":"e7f90cba-219a-4c12-800a-229dd7f06b7d","system_id":"levelo_inurba_marseille","lat":43.25117,"lon":5.4032,"is_reserved":false,"is_disabled":false,"rental_uris":{"android":"levelo://app?vid=e7f90cba-219a-4c12-800a-229dd7f06b7d","ios":"levelo://app?vid=e7f90cba-219a-4c12-800a-229dd7f06b7d"},"vehicle_type_id":"4","last_reported":1743883789,"current_range_meters":12000,"station_id":"ce4bhlh2rcd13ifvqgig","pricing_plan_id":"cebpf4jnsgd1na2vs0mg"},{"bike_id":"3e2664d6-5575-469b-8dc8-c5b4c4fad3b9","system_id":"levelo_inurba_marseille","lat":43.30247,"lon":5.40069,"is_reserved":false,"is_disabled":false,"rental_uris":{"android":"levelo://app?vid=3e2664d6-5575-469b-8dc8-c5b4c4fad3b9","ios":"levelo://app?vid=3e2664d6-5575-469b-8dc8-c5b4c4fad3b9"},"vehicle_type_id":"4","last_reported":1743883789,"current_range_meters":11600,"station_id":"ce4bgvh2rcd13ifvqcs0","pricing_plan_id":"cebpf4jnsgd1na2vs0mg"},{"bike_id":"cefa97f7-bda3-45c8-a24f-53c66ddd100f","system_id":"levelo_inurba_marseille","lat":43.23965,"lon":5.3663,"is_reserved":false,"is_disabled":false,"rental_uris":{"android":"levelo://app?vid=cefa97f7-bda3-45c8-a24f-53c66ddd100f","ios":"levelo://app?vid=cefa97f7-bda3-45c8-a24f-53c66ddd100f"},"vehicle_type_id":"4","last_reported":1743883789,"current_range_meters":12000,"station_id":"ce4bhi12rcd13ifvqfp0","pricing_plan_id":"cebpf4jnsgd1na2vs0mg"},{"bike_id":"0e8ae664-7633-44ef-bbad-618872148445","system_id":"levelo_inurba_marseille","lat":43.317,"lon":5.37765,"is_reserved":false,"is_disabled":false,"rental_uris":{"android":"levelo://app?vid=0e8ae664-7633-44ef-bbad-618872148445","ios":"levelo://app?vid=0e8ae664-7633-44ef-bbad-618872148445"},"vehicle_type_id":"4","last_reported":1743883789,"current_range_meters":11600,"station_id":"ce4bgth2rcd13ifvqch0","pricing_plan_id":"cebpf4jnsgd1na2vs0mg"},{"bike_id":"1d16e172-d477-4a96-8d7d-42ff6a622d2e","system_id":"levelo_inurba_marseille","lat":43.2469,"lon":5.41188,"is_reserved":false,"is_disabled":false,"rental_uris":{"android":"levelo://app?vid=1d16e172-d477-4a96-8d7d-42ff6a622d2e","ios":"levelo://app?vid=1d16e172-d477-4a96-8d7d-42ff6a622d2e"},"vehicle_type_id":"4","last_reported":1743883789,"current_range_meters":12000,"station_id":"","pricing_plan_id":"cebpf4jnsgd1na2vs0mg"},{"bike_id":"64928ba1-df5f-4bed-a597-6dab5f3f4879","system_id":"levelo_inurba_marseille","lat":43.21756,"lon":5.34594,"is_reserved":false,"is_disabled":false,"rental_uris":{"android":"levelo://app?vid=64928ba1-df5f-4bed-a597-6dab5f3f4879","ios":"levelo://app?vid=64928ba1-df5f-4bed-a597-6dab5f3f4879"},"vehicle_type_id":"4","last_reported":1743883789,"current_range_meters":12000,"station_id":"ce4bhgh2rcd13ifvqfb0","pricing_plan_id":"cebpf4jnsgd1na2vs0mg"},{"bike_id":"12095ccb-6f38-4ea3-8f75-94bec0f83432","system_id":"levelo_inurba_marseille","lat":43.29258,"lon":5.38438,"is_reserved":false,"is_disabled":false,"rental_uris":{"android":"levelo://app?vid=12095ccb-6f38-4ea3-8f75-94bec0f83432","ios":"levelo://app?vid=12095ccb-6f38-4ea3-8f75-94bec0f83432"},"vehicle_type_id":"4","last_reported":1743883789,"current_range_meters":12000,"station_id":"ce4bh692rcd13ifvqea0","pricing_plan_id":"cebpf4jnsgd1na2vs0mg"},{"bike_id":"e82f7598-ef71-4a7a-9107-2754e23fe2bf","system_id":"levelo_inurba_marseille","lat":43.28416,"lon":5.37509,"is_reserved":false,"is_disabled":false,"rental_uris":{"android":"levelo://app?vid=e82f7598-ef71-4a7a-9107-2754e23fe2bf","ios":"levelo://app?vid=e82f7598-ef71-4a7a-9107-2754e23fe2bf"},"vehicle_type_id":"4","last_reported":1743883789,"current_range_meters":12000,"station_id":"ce4bh412rcd13ifvqds0","pricing_plan_id":"cebpf4jnsgd1na2vs0mg"},{"bike_id":"09b65bd7-ade1-44ba-b768-34e98f4f0d73","system_id":"levelo_inurba_marseille","lat":43.307322,"lon":5.424522,"is_reserved":false,"is_disabled":false,"rental_uris":{"android":"levelo://app?vid=09b65bd7-ade1-44ba-b768-34e98f4f0d73","ios":"levelo://app?vid=09b65bd7-ade1-44ba-b768-34e98f4f0d73"},"vehicle_type_id":"4","last_reported":1743883789,"current_range_meters":12000,"station_id":"st_cvj6ca6bvosntc0bfgr0","pricing_plan_id":"cebpf4jnsgd1na2vs0mg"},{"bike_id":"44fd9589-5ec0-4f13-bed7-8a8a96b0f4fe","system_id":"levelo_inurba_marseille","lat":43.29264,"lon":5.38441,"is_reserved":false,"is_disabled":false,"rental_uris":{"android":"levelo://app?vid=44fd9589-5ec0-4f13-bed7-8a8a96b0f4fe","ios":"levelo://app?vid=44fd9589-5ec0-4f13-bed7-8a8a96b0f4fe"},"vehicle_type_id":"4","last_reported":1743883789,"current_range_meters":12000,"station_id":"ce4bh692rcd13ifvqea0","pricing_plan_id":"cebpf4jnsgd1na2vs0mg"},{"bike_id":"ead2f46e-40fb-45c8-8a51-cd63d9889ae4","system_id":"levelo_inurba_marseille","lat":43.286964,"lon":5.373911,"is_reserved":false,"is_disabled":false,"rental_uris":{"android":"levelo://app?vid=ead2f46e-40fb-45c8-8a51-cd63d9889ae4","ios":"levelo://app?vid=ead2f46e-40fb-45c8-8a51-cd63d9889ae4"},"vehicle_type_id":"4","last_reported":1743883789,"current_range_meters":12000,"station_id":"ce4bh3p2rcd13ifvqdq0","pricing_plan_id":"cebpf4jnsgd1na2vs0mg"},{"bike_id":"66e4125d-e33c-48ae-8483-a7dcb8318b6e","system_id":"levelo_inurba_marseille","lat":43.24818,"lon":5.37446,"is_reserved":false,"is_disabled":false,"rental_uris":{"android":"levelo://app?vid=66e4125d-e33c-48ae-8483-a7dcb8318b6e","ios":"levelo://app?vid=66e4125d-e33c-48ae-8483-a7dcb8318b6e"},"vehicle_type_id":"4","last_reported":1743883789,"current_range_meters":12000,"station_id":"ce4bhgh2rcd13ifvqfb0","pricing_plan_id":"cebpf4jnsgd1na2vs0mg"},{"bike_id":"a6064373-4863-4de1-99db-ff063ca1121f","system_id":"levelo_inurba_marseille","lat":43.27561,"lon":5.38439,"is_reserved":false,"is_disabled":false,"rental_uris":{"android":"levelo://app?vid=a6064373-4863-4de1-99db-ff063ca1121f","ios":"levelo://app?vid=a6064373-4863-4de1-99db-ff063ca1121f"},"vehicle_type_id":"4","last_reported":1743883789,"current_range_meters":12000,"station_id":"ce4bhh92rcd13ifvqfi0","pricing_plan_id":"cebpf4jnsgd1na2vs0mg"},{"bike_id":"559ef334-e00c-4400-9db7-2be88fe13599","system_id":"levelo_inurba_marseille","lat":43.29256,"lon":5.38457,"is_reserved":false,"is_disabled":false,"rental_uris":{"android":"levelo://app?vid=559ef334-e00c-4400-9db7-2be88fe13599","ios":"levelo://app?vid=559ef334-e00c-4400-9db7-2be88fe13599"},"vehicle_type_id":"4","last_reported":1743883789,"current_range_meters":12000,"station_id":"ce4bh692rcd13ifvqea0","pricing_plan_id":"cebpf4jnsgd1na2vs0mg"},{"bike_id":"af25f797-6d99-4718-a853-b261d8f0db84","system_id":"levelo_inurba_marseille","lat":43.2941,"lon":5.38635,"is_reserved":false,"is_disabled":false,"rental_uris":{"android":"levelo://app?vid=af25f797-6d99-4718-a853-b261d8f0db84","ios":"levelo://app?vid=af25f797-6d99-4718-a853-b261d8f0db84"},"vehicle_type_id":"4","last_reported":1743883789,"current_range_meters":12000,"station_id":"ce4bh2h2rcd13ifvqdh0","pricing_plan_id":"cebpf4jnsgd1na2vs0mg"},{"bike_id":"3f29f8c3-8e3e-4e45-bae8-cc9e0f0c5f8e","system_id":"levelo_inurba_marseille","lat":43.32364,"lon":5.38884,"is_reserved":false,"is_disabled":false,"rental_uris":{"android":"levelo://app?vid=3f29f8c3-8e3e-4e45-bae8-cc9e0f0c5f8e","ios":"levelo://app?vid=3f29f8c3-8e3e-4e45-bae8-cc9e0f0c5f8e"},"vehicle_type_id":"4","last_reported":1743883789,"current_range_meters":12400,"station_id":"ce4bhqp2rcd13ifvqhog","pricing_plan_id":"cebpf4jnsgd1na2vs0mg"},{"bike_id":"6b652b17-4709-4398-8896-6b070cee45a3","system_id":"levelo_inurba_marseille","lat":43.31534,"lon":5.38044,"is_reserved":false,"is_disabled":false,"rental_uris":{"android":"levelo://app?vid=6b652b17-4709-4398-8896-6b070cee45a3","ios":"levelo://app?vid=6b652b17-4709-4398-8896-6b070cee45a3"},"vehicle_type_id":"4","last_reported":1743883789,"current_range_meters":12400,"station_id":"ce4bhsp2rcd13ifvqi50","pricing_plan_id":"cebpf4jnsgd1na2vs0mg"},{"bike_id":"1b440a2b-d9a4-49c7-bc9d-e6a6c1ca357d","system_id":"levelo_inurba_marseille","lat":43.295767,"lon":5.399789,"is_reserved":false,"is_disabled":false,"rental_uris":{"android":"levelo://app?vid=1b440a2b-d9a4-49c7-bc9d-e6a6c1ca357d","ios":"levelo://app?vid=1b440a2b-d9a4-49c7-bc9d-e6a6c1ca357d"},"vehicle_type_id":"4","last_reported":1743883789,"current_range_meters":12000,"station_id":"ce4bh312rcd13ifvqdj0","pricing_plan_id":"cebpf4jnsgd1na2vs0mg"},{"bike_id":"97d77224-5748-4443-848a-6ab951c45d6d","system_id":"levelo_inurba_marseille","lat":43.322827,"lon":5.382923,"is_reserved":false,"is_disabled":false,"rental_uris":{"android":"levelo://app?vid=97d77224-5748-4443-848a-6ab951c45d6d","ios":"levelo://app?vid=97d77224-5748-4443-848a-6ab951c45d6d"},"vehicle_type_id":"4","last_reported":1743883789,"current_range_meters":12400,"station_id":"ce4bhr12rcd13ifvqhqg","pricing_plan_id":"cebpf4jnsgd1na2vs0mg"},{"bike_id":"1bf28fcd-357a-43a7-b215-31bb2951a59c","system_id":"levelo_inurba_marseille","lat":43.29615,"lon":5.42282,"is_reserved":false,"is_disabled":false,"rental_uris":{"android":"levelo://app?vid=1bf28fcd-357a-43a7-b215-31bb2951a59c","ios":"levelo://app?vid=1bf28fcd-357a-43a7-b215-31bb2951a59c"},"vehicle_type_id":"4","last_reported":1743883789,"current_range_meters":12400,"station_id":"","pricing_plan_id":"cebpf4jnsgd1na2vs0mg"},{"bike_id":"634114ae-da3d-411f-9165-1f4d1f7fd652","system_id":"levelo_inurba_marseille","lat":43.33607,"lon":5.41025,"is_reserved":false,"is_disabled":false,"rental_uris":{"android":"levelo://app?vid=634114ae-da3d-411f-9165-1f4d1f7fd652","ios":"levelo://app?vid=634114ae-da3d-411f-9165-1f4d1f7fd652"},"vehicle_type_id":"4","last_reported":1743883789,"current_range_meters":12400,"station_id":"ce4bhqh2rcd13ifvqhmg","pricing_plan_id":"cebpf4jnsgd1na2vs0mg"},{"bike_id":"d3dc3f85-23f5-4ff4-8b8c-410bfe7aa0b8","system_id":"levelo_inurba_marseille","lat":43.28943,"lon":5.36622,"is_reserved":false,"is_disabled":false,"rental_uris":{"android":"levelo://app?vid=d3dc3f85-23f5-4ff4-8b8c-410bfe7aa0b8","ios":"levelo://app?vid=d3dc3f85-23f5-4ff4-8b8c-410bfe7aa0b8"},"vehicle_type_id":"4","last_reported":1743883789,"current_range_meters":12400,"station_id":"ce4bhap2rcd13ifvqek0","pricing_plan_id":"cebpf4jnsgd1na2vs0mg"},{"bike_id":"fe0a042b-8767-479a-bfef-94033efb9ac4","system_id":"levelo_inurba_marseille","lat":43.2959,"lon":5.38109,"is_reserved":false,"is_disabled":false,"rental_uris":{"android":"levelo://app?vid=fe0a042b-8767-479a-bfef-94033efb9ac4","ios":"levelo://app?vid=fe0a042b-8767-479a-bfef-94033efb9ac4"},"vehicle_type_id":"4","last_reported":1743883789,"current_range_meters":12400,"station_id":"ce4bgl12rcd13ifvqbo0","pricing_plan_id":"cebpf4jnsgd1na2vs0mg"},{"bike_id":"26d8c584-8626-4605-8539-02f6b48429ae","system_id":"levelo_inurba_marseille","lat":43.27182,"lon":5.41004,"is_reserved":false,"is_disabled":false,"rental_uris":{"android":"levelo://app?vid=26d8c584-8626-4605-8539-02f6b48429ae","ios":"levelo://app?vid=26d8c584-8626-4605-8539-02f6b48429ae"},"vehicle_type_id":"4","last_reported":1743883789,"current_range_meters":12400,"station_id":"ce4bhl12rcd13ifvqgf0","pricing_plan_id":"cebpf4jnsgd1na2vs0mg"},{"bike_id":"80ea1bb0-32e0-4e3d-a8a3-f124120dc5ec","system_id":"levelo_inurba_marseille","lat":43.29256,"lon":5.38427,"is_reserved":false,"is_disabled":false,"rental_uris":{"android":"levelo://app?vid=80ea1bb0-32e0-4e3d-a8a3-f124120dc5ec","ios":"levelo://app?vid=80ea1bb0-32e0-4e3d-a8a3-f124120dc5ec"},"vehicle_type_id":"4","last_reported":1743883789,"current_range_meters":12400,"station_id":"ce4bh692rcd13ifvqea0","pricing_plan_id":"cebpf4jnsgd1na2vs0mg"},{"bike_id":"c871680e-8b92-42ad-bf1a-5390b278188c","system_id":"levelo_inurba_marseille","lat":43.33606,"lon":5.41023,"is_reserved":false,"is_disabled":false,"rental_uris":{"android":"levelo://app?vid=c871680e-8b92-42ad-bf1a-5390b278188c","ios":"levelo://app?vid=c871680e-8b92-42ad-bf1a-5390b278188c"},"vehicle_type_id":"4","last_reported":1743883789,"current_range_meters":12400,"station_id":"ce4bhqh2rcd13ifvqhmg","pricing_plan_id":"cebpf4jnsgd1na2vs0mg"},{"bike_id":"2d918998-bbeb-47dd-9267-a92cefb17950","system_id":"levelo_inurba_marseille","lat":43.29848,"lon":5.36285,"is_reserved":false,"is_disabled":false,"rental_uris":{"android":"levelo://app?vid=2d918998-bbeb-47dd-9267-a92cefb17950","ios":"levelo://app?vid=2d918998-bbeb-47dd-9267-a92cefb17950"},"vehicle_type_id":"4","last_reported":1743883789,"current_range_meters":12400,"station_id":"ce4bgpp2rcd13ifvqc3g","pricing_plan_id":"cebpf4jnsgd1na2vs0mg"},{"bike_id":"a6ba87f3-77e7-4e71-8233-f3c7a7039e6c","system_id":"levelo_inurba_marseille","lat":43.2942,"lon":5.38615,"is_reserved":false,"is_disabled":false,"rental_uris":{"android":"levelo://app?vid=a6ba87f3-77e7-4e71-8233-f3c7a7039e6c","ios":"levelo://app?vid=a6ba87f3-77e7-4e71-8233-f3c7a7039e6c"},"vehicle_type_id":"4","last_reported":1743883789,"current_range_meters":12800,"station_id":"ce4bh2h2rcd13ifvqdh0","pricing_plan_id":"cebpf4jnsgd1na2vs0mg"},{"bike_id":"9c9e91df-e133-414a-8295-3f6a292805f6","system_id":"levelo_inurba_marseille","lat":43.23191,"lon":5.35562,"is_reserved":false,"is_disabled":true,"rental_uris":{"android":"levelo://app?vid=9c9e91df-e133-414a-8295-3f6a292805f6","ios":"levelo://app?vid=9c9e91df-e133-414a-8295-3f6a292805f6"},"vehicle_type_id":"4","last_reported":1743883789,"current_range_meters":12800,"station_id":"ce4bhu92rcd13ifvqi70","pricing_plan_id":"cebpf4jnsgd1na2vs0mg"},