{"last_updated":1761135731,"ttl":60,"version":"2.2","data":{"bikes":[{"bike_id":"23d2e327-9a1c-43f9-a1d7-2fca27e96f84","system_id":"levelo_inurba_marseille","lat":43.27345,"lon":5.41503,"is_reserved":false,"is_disabled":false,"rental_uris":{"android":"levelo://app?vid=23d2e327-9a1c-43f9-a1d7-2fca27e96f84","ios":"levelo://app?vid=23d2e327-9a1c-43f9-a1d7-2fca27e96f84"},"vehicle_type_id":"4","last_reported":1761135731,"current_range_meters":2800,"station_id":"","pricing_plan_id":"cebpf4jnsgd1na2vs0mg"},{"bike_id":"163f1c6c-98e0-4365-ad77-f0d5d98ce2d8","system_id":"levelo_inurba_marseille","lat":43.211908,"lon":5.350735,"is_reserved":false,"is_disabled":false,"rental_uris":{"android":"levelo://app?vid=163f1c6c-98e0-4365-ad77-f0d5d98ce2d8","ios":"levelo://app?vid=163f1c6c-98e0-4365-ad77-f0d5d98ce2d8"},"vehicle_type_id":"4","last_reported":1761135731,"current_range_meters":2800,"station_id":"","pricing_plan_id":"cebpf4jnsgd1na2vs0mg"},{"bike_id":"01aad2f5-b0dc-48e3-99b3-0b1bd663825d","system_id":"levelo_inurba_marseille","lat":43.28675,"lon":5.38667,"is_reserved":false,"is_disabled":false,"rental_uris":{"android":"levelo://app?vid=01aad2f5-b0dc-48e3-99b3-0b1bd663825d","ios":"levelo://app?vid=01aad2f5-b0dc-48e3-99b3-0b1bd663825d"},"vehicle_type_id":"4","last_reported":1761135731,"current_range_meters":3200,"station_id":"ce4bh492rcd13ifvqdug","pricing_plan_id":"cebpf4jnsgd1na2vs0mg"},{"bike_id":"56808f09-5a62-403b-b8e3-97d89aaf3152","system_id":"levelo_inurba_marseille","lat":43.29794,"lon":5.37918,"is_reserved":false,"is_disabled":false,"rental_uris":{"android":"levelo://app?vid=56808f09-5a62-403b-b8e3-97d89aaf3152","ios":"levelo://app?vid=56808f09-5a62-403b-b8e3-97d89aaf3152"},"vehicle_type_id":"4","last_reported":1761135731,"current_range_meters":3200,"station_id":"","pricing_plan_id":"cebpf4jnsgd1na2vs0mg"},{"bike_id":"98490d11-db71-4361-ab96-f0addd49d050","system_id":"levelo_inurba_marseille","lat":43.30001,"lon":5.3735,"is_reserved":false,"is_disabled":false,"rental_uris":{"android":"levelo://app?vid=98490d11-db71-4361-ab96-f0addd49d050","ios":"levelo://app?vid=98490d11-db71-4361-ab96-f0addd49d050"},"vehicle_type_id":"4","last_reported":1761135731,"current_range_meters":3200,"station_id":"","pricing_plan_id":"cebpf4jnsgd1na2vs0mg"},{"bike_id":"805cc412-434c-4829-8363-1954f7f430fd","system_id":"levelo_inurba_marseille","lat":43.29868,"lon":5.384,"is_reserved":false,"is_disabled":false,"rental_uris":{"android":"levelo://app?vid=805cc412-434c-4829-8363-1954f7f430fd","ios":"levelo://app?vid=805cc412-434c-4829-8363-1954f7f430fd"},"vehicle_type_id":"4","last_reported":1761135731,"current_range_meters":3200,"station_id":"","pricing_plan_id":"cebpf4jnsgd1na2vs0mg"},{"bike_id":"fbb74503-2d8f-4e8a-9630-af6095649c50","system_id":"levelo_inurba_marseille","lat":43.32824,"lon":5.36432,"is_reserved":false,"is_disabled":false,"rental_uris":{"android":"levelo://app?vid=fbb74503-2d8f-4e8a-9630-af6095649c50","ios":"levelo://app?vid=fbb74503-2d8f-4e8a-9630-af6095649c50"},"vehicle_type_id":"4","last_reported":1761135731,"current_range_meters":3600,"station_id":"","pricing_plan_id":"cebpf4jnsgd1na2vs0mg"},{"bike_id":"4509cfed-2882-4252-9af9-5b27f4ea0942","system_id":"levelo_inurba_marseille","lat":43.26783,"lon":5.39415,"is_reserved":false,"is_disabled":false,"rental_uris":{"android":"levelo://app?vid=4509cfed-2882-4252-9af9-5b27f4ea0942","ios":"levelo://app?vid=4509cfed-2882-4252-9af9-5b27f4ea0942"},"vehicle_type_id":"4","last_reported":1761135731,"current_range_meters":4000,"station_id":"ce4bhh12rcd13ifvqfg0","pricing_plan_id":"cebpf4jnsgd1na2vs0mg"},{"bike_id":"cabec919-03a0-4b34-bf87-345ea1075063","system_id":"levelo_inurba_marseille","lat":43.24074,"lon":5.37759,"is_reserved":false,"is_disabled":false,"rental_uris":{"android":"levelo://app?vid=cabec919-03a0-4b34-bf87-345ea1075063","ios":"levelo://app?vid=cabec919-03a0-4b34-bf87-345ea1075063"},"vehicle_type_id":"4","last_reported":1761135731,"current_range_meters":4400,"station_id":"ce4bhnp2rcd13ifvqgvg","pricing_plan_id":"cebpf4jnsgd1na2vs0mg"},{"bike_id":"ae4a8087-800f-4e80-8c70-bf5c5336b213","system_id":"levelo_inurba_marseille","lat":43.29278,"lon":5.38451,"is_reserved":false,"is_disabled":false,"rental_uris":{"android":"levelo://app?vid=ae4a8087-800f-4e80-8c70-bf5c5336b213","ios":"levelo://app?vid=ae4a8087-800f-4e80-8c70-bf5c5336b213"},"vehicle_type_id":"4","last_reported":1761135731,"current_range_meters":4400,"station_id":"ce4bh692rcd13ifvqea0","pricing_plan_id":"cebpf4jnsgd1na2vs0mg"},{"bike_id":"8952652d-181d-4647-99e0-dd7c8dc8f72d","system_id":"levelo_inurba_marseille","lat":43.28531,"lon":5.44114,"is_reserved":false,"is_disabled":false,"rental_uris":{"android":"levelo://app?vid=8952652d-181d-4647-99e0-dd7c8dc8f72d","ios":"levelo://app?vid=8952652d-181d-4647-99e0-dd7c8dc8f72d"},"vehicle_type_id":"4","last_reported":1761135731,"current_range_meters":4800,"station_id":"st_d3j3df2ikq2c7380ej80","pricing_plan_id":"cebpf4jnsgd1na2vs0mg"},{"bike_id":"415308a1-5a9c-4d1e-8130-89765bdd833b","system_id":"levelo_inurba_marseille","lat":43.29435,"lon":5.3976,"is_reserved":false,"is_disabled":false,"rental_uris":{"android":"levelo://app?vid=415308a1-5a9c-4d1e-8130-89765bdd833b","ios":"levelo://app?vid=415308a1-5a9c-4d1e-8130-89765bdd833b"},"vehicle_type_id":"4","last_reported":1761135731,"current_range_meters":4800,"station_id":"ce4bh3h2rcd13ifvqdo0","pricing_plan_id":"cebpf4jnsgd1na2vs0mg"},{"bike_id":"43743f56-d59b-4990-b06a-44ae26d2f530","system_id":"levelo_inurba_marseille","lat":43.21745,"lon":5.34603,"is_reserved":false,"is_disabled":false,"rental_uris":{"android":"levelo://app?vid=43743f56-d59b-4990-b06a-44ae26d2f530","ios":"levelo://app?vid=43743f56-d59b-4990-b06a-44ae26d2f530"},"vehicle_type_id":"4","last_reported":1761135731,"current_range_meters":4800,"station_id":"","pricing_plan_id":"cebpf4jnsgd1na2vs0mg"},{"bike_id":"808ad6d0-1fc7-49dd-b178-234a0e505cc8","system_id":"levelo_inurba_marseille","lat":43.240753,"lon":5.377534,"is_reserved":false,"is_disabled":false,"rental_uris":{"android":"levelo://app?vid=808ad6d0-1fc7-49dd-b178-234a0e505cc8","ios":"levelo://app?vid=808ad6d0-1fc7-49dd-b178-234a0e505cc8"},"vehicle_type_id":"4","last_reported":1761135731,"current_range_meters":5600,"station_id":"ce4bhnp2rcd13ifvqgvg","pricing_plan_id":"cebpf4jnsgd1na2vs0mg"},{"bike_id":"a78314b3-7251-499d-9367-f706731bdbff","system_id":"levelo_inurba_marseille","lat":43.29031,"lon":5.38647,"is_reserved":false,"is_disabled":false,"rental_uris":{"android":"levelo://app?vid=a78314b3-7251-499d-9367-f706731bdbff","ios":"levelo://app?vid=a78314b3-7251-499d-9367-f706731bdbff"},"vehicle_type_id":"4","last_reported":1761135731,"current_range_meters":5600,"station_id":"ce4bh4p2rcd13ifvqe0g","pricing_plan_id":"cebpf4jnsgd1na2vs0mg"},{"bike_id":"f255e9fb-de61-4a45-bf2f-820fa2974e2c","system_id":"levelo_inurba_marseille","lat":43.33608,"lon":5.41034,"is_reserved":false,"is_disabled":false,"rental_uris":{"android":"levelo://app?vid=f255e9fb-de61-4a45-bf2f-820fa2974e2c","ios":"levelo://app?vid=f255e9fb-de61-4a45-bf2f-820fa2974e2c"},"vehicle_type_id":"4","last_reported":1761135731,"current_range_meters":5600,"station_id":"ce4bhqh2rcd13ifvqhmg","pricing_plan_id":"cebpf4jnsgd1na2vs0mg"},{"bike_id":"a870d8c4-d388-4bd8-a292-a2b1665e7e0e","system_id":"levelo_inurba_marseille","lat":43.304308,"lon":5.405861,"is_reserved":false,"is_disabled":false,"rental_uris":{"android":"levelo://app?vid=a870d8c4-d388-4bd8-a292-a2b1665e7e0e","ios":"levelo://app?vid=a870d8c4-d388-4bd8-a292-a2b1665e7e0e"},"vehicle_type_id":"4","last_reported":1761135731,"current_range_meters":5600,"station_id":"","pricing_plan_id":"cebpf4jnsgd1na2vs0mg"},{"bike_id":"6c873f48-bfe2-4505-bbb1-854e1de7b128","system_id":"levelo_inurba_marseille","lat":43.28672,"lon":5.38665,"is_reserved":false,"is_disabled":false,"rental_uris":{"android":"levelo://app?vid=6c873f48-bfe2-4505-bbb1-854e1de7b128","ios":"levelo://app?vid=6c873f48-bfe2-4505-bbb1-854e1de7b128"},"vehicle_type_id":"4","last_reported":1761135731,"current_range_meters":5600,"station_id":"ce4bh492rcd13ifvqdug","pricing_plan_id":"cebpf4jnsgd1na2vs0mg"},{"bike_id":"a2e131f8-3c9f-478a-b394-6a9db5f46a7a","system_id":"levelo_inurba_marseille","lat":43.30131,"lon":5.37428,"is_reserved":false,"is_disabled":true,"rental_uris":{"android":"levelo://app?vid=a2e131f8-3c9f-478a-b394-6a9db5f46a7a","ios":"levelo://app?vid=a2e131f8-3c9f-478a-b394-6a9db5f46a7a"},"vehicle_type_id":"4","last_reported":1761135731,"current_range_meters":5600,"station_id":"ce4bgs92rcd13ifvqcc0","pricing_plan_id":"cebpf4jnsgd1na2vs0mg"},{"bike_id":"9d4f8f12-dafb-4c23-b744-ae823cb2a838","system_id":"levelo_inurba_marseille","lat":43.288545,"lon":5.358559,"is_reserved":false,"is_disabled":false,"rental_uris":{"android":"levelo://app?vid=9d4f8f12-dafb-4c23-b744-ae823cb2a838","ios":"levelo://app?vid=9d4f8f12-dafb-4c23-b744-ae823cb2a838"},"vehicle_type_id":"4","last_reported":1761135731,"current_range_meters":5600,"station_id":"ce4bhb12rcd13ifvqem0","pricing_plan_id":"cebpf4jnsgd1na2vs0mg"},{"bike_id":"27a0a5b8-bb02-4a68-83d8-ad971dc33659","system_id":"levelo_inurba_marseille","lat":43.29744,"lon":5.37903,"is_reserved":false,"is_disabled":false,"rental_uris":{"android":"levelo://app?vid=27a0a5b8-bb02-4a68-83d8-ad971dc33659","ios":"levelo://app?vid=27a0a5b8-bb02-4a68-83d8-ad971dc33659"},"vehicle_type_id":"4","last_reported":1761135731,"current_range_meters":5600,"station_id":"","pricing_plan_id":"cebpf4jnsgd1na2vs0mg"},{"bike_id":"e7cb61d9-84d9-41c0-8427-00fc6a9e436b","system_id":"levelo_inurba_marseille","lat":43.31064,"lon":5.37559,"is_reserved":false,"is_disabled":false,"rental_uris":{"android":"levelo://app?vid=e7cb61d9-84d9-41c0-8427-00fc6a9e436b","ios":"levelo://app?vid=e7cb61d9-84d9-41c0-8427-00fc6a9e436b"},"vehicle_type_id":"4","last_reported":1761135731,"current_range_meters":5600,"station_id":"","pricing_plan_id":"cebpf4jnsgd1na2vs0mg"},{"bike_id":"4154d683-e72a-4592-9e60-2a3872848698","system_id":"levelo_inurba_marseille","lat":43.28475,"lon":5.48401,"is_reserved":false,"is_disabled":false,"rental_uris":{"android":"levelo://app?vid=4154d683-e72a-4592-9e60-2a3872848698","ios":"levelo://app?vid=4154d683-e72a-4592-9e60-2a3872848698"},"vehicle_type_id":"4","last_reported":1761135731,"current_range_meters":6000,"station_id":"st_d3jp68qikq2c7381ktn0","pricing_plan_id":"cebpf4jnsgd1na2vs0mg"},{"bike_id":"adb6da43-a790-4bbe-8cdb-8fa1e5d17796","system_id":"levelo_inurba_marseille","lat":43.3175,"lon":5.38585,"is_reserved":false,"is_disabled":true,"rental_uris":{"android":"levelo://app?vid=adb6da43-a790-4bbe-8cdb-8fa1e5d17796","ios":"levelo://app?vid=adb6da43-a790-4bbe-8cdb-8fa1e5d17796"},"vehicle_type_id":"4","last_reported":1761135731,"current_range_meters":6000,"station_id":"","pricing_plan_id":"cebpf4jnsgd1na2vs0mg"},{"bike_id":"2d24ac31-78f9-481b-9d5c-ea0a58464439","system_id":"levelo_inurba_marseille","lat":43.29171,"lon":5.42303,"is_reserved":false,"is_disabled":false,"rental_uris":{"android":"levelo://app?vid=2d24ac31-78f9-481b-9d5c-ea0a58464439","ios":"levelo://app?vid=2d24ac31-78f9-481b-9d5c-ea0a58464439"},"vehicle_type_id":"4","last_reported":1761135731,"current_range_meters":6000,"station_id":"","pricing_plan_id":"cebpf4jnsgd1na2vs0mg"},{"bike_id":"3b7c3b5c-0290-4026-b758-6cdbf06eaedd","system_id":"levelo_inurba_marseille","lat":43.31723,"lon":5.42395,"is_reserved":false,"is_disabled":false,"rental_uris":{"android":"levelo://app?vid=3b7c3b5c-0290-4026-b758-6cdbf06eaedd","ios":"levelo://app?vid=3b7c3b5c-0290-4026-b758-6cdbf06eaedd"},"vehicle_type_id":"4","last_reported":1761135731,"current_range_meters":6400,"station_id":"ce4bhp92rcd13ifvqhbg","pricing_plan_id":"cebpf4jnsgd1na2vs0mg"},{"bike_id":"92ea918e-c6b0-4f13-8a5a-178279579b93","system_id":"levelo_inurba_marseille","lat":43.31354,"lon":5.38497,"is_reserved":false,"is_disabled":false,"rental_uris":{"android":"levelo://app?vid=92ea918e-c6b0-4f13-8a5a-178279579b93","ios":"levelo://app?vid=92ea918e-c6b0-4f13-8a5a-178279579b93"},"vehicle_type_id":"4","last_reported":1761135731,"current_range_meters":6800,"station_id":"ce4bgt92rcd13ifvqcf0","pricing_plan_id":"cebpf4jnsgd1na2vs0mg"},{"bike_id":"68b48f58-bd49-459a-8a9b-d3b5d6177101","system_id":"levelo_inurba_marseille","lat":43.292664,"lon":5.376482,"is_reserved":false,"is_disabled":false,"rental_uris":{"android":"levelo://app?vid=68b48f58-bd49-459a-8a9b-d3b5d6177101","ios":"levelo://app?vid=68b48f58-bd49-459a-8a9b-d3b5d6177101"},"vehicle_type_id":"4","last_reported":1761135731,"current_range_meters":7200,"station_id":"ce4bgi12rcd13ifvqb80","pricing_plan_id":"cebpf4jnsgd1na2vs0mg"},{"bike_id":"3d068a7d-8c2c-4f97-8d7d-54140fa95800","system_id":"levelo_inurba_marseille","lat":43.273583,"lon":5.39879,"is_reserved":false,"is_disabled":false,"rental_uris":{"android":"levelo://app?vid=3d068a7d-8c2c-4f97-8d7d-54140fa95800","ios":"levelo://app?vid=3d068a7d-8c2c-4f97-8d7d-54140fa95800"},"vehicle_type_id":"4","last_reported":1761135731,"current_range_meters":7200,"station_id":"","pricing_plan_id":"cebpf4jnsgd1na2vs0mg"},{"bike_id":"08f884e1-40bf-4382-9b87-338ee53fe904","system_id":"levelo_inurba_marseille","lat":43.29887,"lon":5.43671,"is_reserved":false,"is_disabled":false,"rental_uris":{"android":"levelo://app?vid=08f884e1-40bf-4382-9b87-338ee53fe904","ios":"levelo://app?vid=08f884e1-40bf-4382-9b87-338ee53fe904"},"vehicle_type_id":"4","last_reported":1761135731,"current_range_meters":7200,"station_id":"ce4bhpp2rcd13ifvqhfg","pricing_plan_id":"cebpf4jnsgd1na2vs0mg"},{"bike_id":"027b5216-0be3-4305-9f75-81fde0a8497b","system_id":"levelo_inurba_marseille","lat":43.284572,"lon":5.358903,"is_reserved":false,"is_disabled":false,"rental_uris":{"android":"levelo://app?vid=027b5216-0be3-4305-9f75-81fde0a8497b","ios":"levelo://app?vid=027b5216-0be3-4305-9f75-81fde0a8497b"},"vehicle_type_id":"4","last_reported":1761135731,"current_range_meters":7200,"station_id":"ce4bhah2rcd13ifvqei0","pricing_plan_id":"cebpf4jnsgd1na2vs0mg"},{"bike_id":"66bec76d-d7e9-4a1e-a715-39e56334bf96","system_id":"levelo_inurba_marseille","lat":43.2828,"lon":5.39652,"is_reserved":false,"is_disabled":false,"rental_uris":{"android":"levelo://app?vid=66bec76d-d7e9-4a1e-a715-39e56334bf96","ios":"levelo://app?vid=66bec76d-d7e9-4a1e-a715-39e56334bf96"},"vehicle_type_id":"4","last_reported":1761135731,"current_range_meters":8000,"station_id":"","pricing_plan_id":"cebpf4jnsgd1na2vs0mg"},{"bike_id":"da3c5d5d-639d-4a11-88e1-f7b9c2ad220a","system_id":"levelo_inurba_marseille","lat":43.31645,"lon":5.37687,"is_reserved":false,"is_disabled":true,"rental_uris":{"android":"levelo://app?vid=da3c5d5d-639d-4a11-88e1-f7b9c2ad220a","ios":"levelo://app?vid=da3c5d5d-639d-4a11-88e1-f7b9c2ad220a"},"vehicle_type_id":"4","last_reported":1761135731,"current_range_meters":8000,"station_id":"ce4bgth2rcd13ifvqch0","pricing_plan_id":"cebpf4jnsgd1na2vs0mg"},{"bike_id":"1400b5a7-48d8-4fcf-8799-395355690205","system_id":"levelo_inurba_marseille","lat":43.286674,"lon":5.386718,"is_reserved":false,"is_disabled":false,"rental_uris":{"android":"levelo://app?vid=1400b5a7-48d8-4fcf-8799-395355690205","ios":"levelo://app?vid=1400b5a7-48d8-4fcf-8799-395355690205"},"vehicle_type_id":"4","last_reported":1761135731,"current_range_meters":8000,"station_id":"ce4bh492rcd13ifvqdug","pricing_plan_id":"cebpf4jnsgd1na2vs0mg"},{"bike_id":"537fd2bc-cfc1-4f63-a635-b52976b305da","system_id":"levelo_inurba_marseille","lat":43.28341,"lon":5.381,"is_reserved":false,"is_disabled":false,"rental_uris":{"android":"levelo://app?vid=537fd2bc-cfc1-4f63-a635-b52976b305da","ios":"levelo://app?vid=537fd2bc-cfc1-4f63-a635-b52976b305da"},"vehicle_type_id":"4","last_reported":1761135731,"current_range_meters":8000,"station_id":"ce4bh412rcd13ifvqdr0","pricing_plan_id":"cebpf4jnsgd1na2vs0mg"},{"bike_id":"21a770c2-7850-4b78-ba2c-c68039fc32e3","system_id":"levelo_inurba_marseille","lat":43.31219,"lon":5.36856,"is_reserved":false,"is_disabled":false,"rental_uris":{"android":"levelo://app?vid=21a770c2-7850-4b78-ba2c-c68039fc32e3","ios":"levelo://app?vid=21a770c2-7850-4b78-ba2c-c68039fc32e3"},"vehicle_type_id":"4","last_reported":1761135731,"current_range_meters":8400,"station_id":"ce4bgl92rcd13ifvqbq0","pricing_plan_id":"cebpf4jnsgd1na2vs0mg"},{"bike_id":"b7e41c34-cad5-468c-aadc-3ef8a1845b5a","system_id":"levelo_inurba_marseille","lat":43.28165,"lon":5.36103,"is_reserved":false,"is_disabled":false,"rental_uris":{"android":"levelo://app?vid=b7e41c34-cad5-468c-aadc-3ef8a1845b5a","ios":"levelo://app?vid=b7e41c34-cad5-468c-aadc-3ef8a1845b5a"},"vehicle_type_id":"4","last_reported":1761135731,"current_range_meters":8400,"station_id":"","pricing_plan_id":"cebpf4jnsgd1na2vs0mg"},{"bike_id":"97585d63-cae0-46a3-8fec-9651d52b3156","system_id":"levelo_inurba_marseille","lat":43.27915,"lon":5.38004,"is_reserved":false,"is_disabled":true,"rental_uris":{"android":"levelo://app?vid=97585d63-cae0-46a3-8fec-9651d52b3156","ios":"levelo://app?vid=97585d63-cae0-46a3-8fec-9651d52b3156"},"vehicle_type_id":"4","last_reported":1761135731,"current_range_meters":8400,"station_id":"ce4bhf92rcd13ifvqf50","pricing_plan_id":"cebpf4jnsgd1na2vs0mg"},{"bike_id":"93ca0983-5605-40b6-94de-2e4843617815","system_id":"levelo_inurba_marseille","lat":43.27377,"lon":5.36259,"is_reserved":false,"is_disabled":false,"rental_uris":{"android":"levelo://app?vid=93ca0983-5605-40b6-94de-2e4843617815","ios":"levelo://app?vid=93ca0983-5605-40b6-94de-2e4843617815"},"vehicle_type_id":"4","last_reported":1761135731,"current_range_meters":8400,"station_id":"ce4bhbh2rcd13ifvqeo0","pricing_plan_id":"cebpf4jnsgd1na2vs0mg"},{"bike_id":"c60ccf38-01a4-4072-92d4-ec954f787498","system_id":"levelo_inurba_marseille","lat":43.23153,"lon":5.43721,"is_reserved":false,"is_disabled":false,"rental_uris":{"android":"levelo://app?vid=c60ccf38-01a4-4072-92d4-ec954f787498","ios":"levelo://app?vid=c60ccf38-01a4-4072-92d4-ec954f787498"},"vehicle_type_id":"4","last_reported":1761135731,"current_range_meters":8400,"station_id":"ce4bhmp2rcd13ifvqgog","pricing_plan_id":"cebpf4jnsgd1na2vs0mg"},{"bike_id":"c4432b73-0adb-475d-83b3-18f6e7bba483","system_id":"levelo_inurba_marseille","lat":43.33015,"lon":5.3942,"is_reserved":false,"is_disabled":false,"rental_uris":{"android":"levelo://app?vid=c4432b73-0adb-475d-83b3-18f6e7bba483","ios":"levelo://app?vid=c4432b73-0adb-475d-83b3-18f6e7bba483"},"vehicle_type_id":"4","last_reported":1761135731,"current_range_meters":8400,"station_id":"","pricing_plan_id":"cebpf4jnsgd1na2vs0mg"},{"bike_id":"8153e0c6-8ca5-436d-8c20-76e01f33e15f","system_id":"levelo_inurba_marseille","lat":43.29225,"lon":5.36069,"is_reserved":false,"is_disabled":false,"rental_uris":{"android":"levelo://app?vid=8153e0c6-8ca5-436d-8c20-76e01f33e15f","ios":"levelo://app?vid=8153e0c6-8ca5-436d-8c20-76e01f33e15f"},"vehicle_type_id":"4","last_reported":1761135731,"current_range_meters":8800,"station_id":"ce4bhbh2rcd13ifvqeqg","pricing_plan_id":"cebpf4jnsgd1na2vs0mg"},{"bike_id":"b8457e49-45d1-4539-8d31-1eb0283df508","system_id":"levelo_inurba_marseille","lat":43.33159,"lon":5.355,"is_reserved":false,"is_disabled":false,"rental_uris":{"android":"levelo://app?vid=b8457e49-45d1-4539-8d31-1eb0283df508","ios":"levelo://app?vid=b8457e49-45d1-4539-8d31-1eb0283df508"},"vehicle_type_id":"4","last_reported":1761135731,"current_range_meters":8800,"station_id":"","pricing_plan_id":"cebpf4jnsgd1na2vs0mg"},{"bike_id":"3201e625-69d5-420e-838c-f4c3f44666ef","system_id":"levelo_inurba_marseille","lat":43.33819,"lon":5.37426,"is_reserved":false,"is_disabled":false,"rental_uris":{"android":"levelo://app?vid=3201e625-69d5-420e-838c-f4c3f44666ef","ios":"levelo://app?vid=3201e625-69d5-420e-838c-f4c3f44666ef"},"vehicle_type_id":"4","last_reported":1761135731,"current_range_meters":9200,"station_id":"","pricing_plan_id":"cebpf4jnsgd1na2vs0mg"},{"bike_id":"1e828d29-9ce3-4620-8df4-1dbcabd64cc3","system_id":"levelo_inurba_marseille","lat":43.21205,"lon":5.35087,"is_reserved":false,"is_disabled":false,"rental_uris":{"android":"levelo://app?vid=1e828d29-9ce3-4620-8df4-1dbcabd64cc3","ios":"levelo://app?vid=1e828d29-9ce3-4620-8df4-1dbcabd64cc3"},"vehicle_type_id":"4","last_reported":1761135731,"current_range_meters":9200,"station_id":"st_cvj6sg6p6f1abm77japg","pricing_plan_id":"cebpf4jnsgd1na2vs0mg"},{"bike_id":"f152e168-155a-435c-987f-2a8a35b715a8","system_id":"levelo_inurba_marseille","lat":43.24998,"lon":5.38925,"is_reserved":false,"is_disabled":false,"rental_uris":{"android":"levelo://app?vid=f152e168-155a-435c-987f-2a8a35b715a8","ios":"levelo://app?vid=f152e168-155a-435c-987f-2a8a35b715a8"},"vehicle_type_id":"4","last_reported":1761135731,"current_range_meters":9200,"station_id":"ce4bhgp2rcd13ifvqfd0","pricing_plan_id":"cebpf4jnsgd1na2vs0mg"},{"bike_id":"f0a0f9e0-9a34-4c3b-a6a5-acc799ba7abf","system_id":"levelo_inurba_marseille","lat":43.29007,"lon":5.35608,"is_reserved":false,"is_disabled":false,"rental_uris":{"android":"levelo://app?vid=f0a0f9e0-9a34-4c3b-a6a5-acc799ba7abf","ios":"levelo://app?vid=f0a0f9e0-9a34-4c3b-a6a5-acc799ba7abf"},"vehicle_type_id":"4","last_reported":1761135731,"current_range_meters":9200,"station_id":"ce4bhb92rcd13ifvqen0","pricing_plan_id":"cebpf4jnsgd1na2vs0mg"},{"bike_id":"2001468e-90bd-42ea-9666-40fe17e68dad","system_id":"levelo_inurba_marseille","lat":43.2893,"lon":5.38399,"is_reserved":false,"is_disabled":false,"rental_uris":{"android":"levelo://app?vid=2001468e-90bd-42ea-9666-40fe17e68dad","ios":"levelo://app?vid=2001468e-90bd-42ea-9666-40fe17e68dad"},"vehicle_type_id":"4","last_reported":1761135731,"current_range_meters":9200,"station_id":"ce4bh612rcd13ifvqe6g","pricing_plan_id":"cebpf4jnsgd1na2vs0mg"},{"bike_id":"19840955-f9d6-49c1-86e8-b7616b7da32c","system_id":"levelo_inurba_marseille","lat":43.33134,"lon":5.39115,"is_reserved":false,"is_disabled":true,"rental_uris":{"android":"levelo://app?vid=19840955-f9d6-49c1-86e8-b7616b7da32c","ios":"levelo://app?vid=19840955-f9d6-49c1-86e8-b7616b7da32c"},"vehicle_type_id":"4","last_reported":1761135731,"current_range_meters":9200,"station_id":"","pricing_plan_id":"cebpf4jnsgd1na2vs0mg"},{"bike_id":"a8c95dee-0daa-48c5-b1ab-76329d6c37f2","system_id":"levelo_inurba_marseille","lat":43.30942,"lon":5.39025,"is_reserved":false,"is_disabled":false,"rental_uris":{"android":"levelo://app?vid=a8c95dee-0daa-48c5-b1ab-76329d6c37f2","ios":"levelo://app?vid=a8c95dee-0daa-48c5-b1ab-76329d6c37f2"},"vehicle_type_id":"4","last_reported":1761135731,"current_range_meters":9200,"station_id":"ce4bgup2rcd13ifvqco0","pricing_plan_id":"cebpf4jnsgd1na2vs0mg"},{"bike_id":"e3f03a4b-79e8-4c86-8b60-dae37cb49b4e","system_id":"levelo_inurba_marseille","lat":43.21759,"lon":5.34592,"is_reserved":false,"is_disabled":false,"rental_uris":{"android":"levelo://app?vid=e3f03a4b-79e8-4c86-8b60-dae37cb49b4e","ios":"levelo://app?vid=e3f03a4b-79e8-4c86-8b60-dae37cb49b4e"},"vehicle_type_id":"4","last_reported":1761135731,"current_range_meters":9600,"station_id":"st_cvj6r9ubvosntc0bgbag","pricing_plan_id":"cebpf4jnsgd1na2vs0mg"},{"bike_id":"dea5fc77-4f02-4143-ad80-5621c85a3199","system_id":"levelo_inurba_marseille","lat":43.29037,"lon":5.39965,"is_reserved":false,"is_disabled":false,"rental_uris":{"android":"levelo://app?vid=dea5fc77-4f02-4143-ad80-5621c85a3199","ios":"levelo://app?vid=dea5fc77-4f02-4143-ad80-5621c85a3199"},"vehicle_type_id":"4","last_reported":1761135731,"current_range_meters":9600,"station_id":"ce4bh392rcd13ifvqdm0","pricing_plan_id":"cebpf4jnsgd1na2vs0mg"},{"bike_id":"e46fad4b-1f59-4ded-ac7e-3b679458b6f2","system_id":"levelo_inurba_marseille","lat":43.2694,"lon":5.40249,"is_reserved":false,"is_disabled":false,"rental_uris":{"android":"levelo://app?vid=e46fad4b-1f59-4ded-ac7e-3b679458b6f2","ios":"levelo://app?vid=e46fad4b-1f59-4ded-ac7e-3b679458b6f2"},"vehicle_type_id":"4","last_reported":1761135731,"current_range_meters":10000,"station_id":"cjm6bp8fraef2m0cb0m0","pricing_plan_id":"cebpf4jnsgd1na2vs0mg"},{"bike_id":"dac46a03-a053-41f2-b44f-fe18b5243cf4","system_id":"levelo_inurba_marseille","lat":43.21742,"lon":5.34602,"is_reserved":false,"is_disabled":false,"rental_uris":{"android":"levelo://app?vid=dac46a03-a053-41f2-b44f-fe18b5243cf4","ios":"levelo://app?vid=dac46a03-a053-41f2-b44f-fe18b5243cf4"},"vehicle_type_id":"4","last_reported":1761135731,"current_range_meters":10000,"station_id":"","pricing_plan_id":"cebpf4jnsgd1na2vs0mg"},{"bike_id":"d38bb17a-4ac6-4da6-829b-fc2ffe260364","system_id":"levelo_inurba_marseille","lat":43.318912,"lon":5.40746,"is_reserved":false,"is_disabled":true,"rental_uris":{"android":"levelo://app?vid=d38bb17a-4ac6-4da6-829b-fc2ffe260364","ios":"levelo://app?vid=d38bb17a-4ac6-4da6-829b-fc2ffe260364"},"vehicle_type_id":"4","last_reported":1761135731,"current_range_meters":10000,"station_id":"ce4bhq12rcd13ifvqhig","pricing_plan_id":"cebpf4jnsgd1na2vs0mg"},{"bike_id":"60a40cd9-d0d8-4650-acd5-cfc6416ca84f","system_id":"levelo_inurba_marseille","lat":43.31167,"lon":5.38725,"is_reserved":false,"is_disabled":false,"rental_uris":{"android":"levelo://app?vid=60a40cd9-d0d8-4650-acd5-cfc6416ca84f","ios":"levelo://app?vid=60a40cd9-d0d8-4650-acd5-cfc6416ca84f"},"vehicle_type_id":"4","last_reported":1761135731,"current_range_meters":10000,"station_id":"ce4bgv12rcd13ifvqcp0","pricing_plan_id":"cebpf4jnsgd1na2vs0mg"},{"bike_id":"323bf2de-3bb4-4b4c-b330-b19ea807dbf5","system_id":"levelo_inurba_marseille","lat":43.3108,"lon":5.38354,"is_reserved":false,"is_disabled":true,"rental_uris":{"android":"levelo://app?vid=323bf2de-3bb4-4b4c-b330-b19ea807dbf5","ios":"levelo://app?vid=323bf2de-3bb4-4b4c-b330-b19ea807dbf5"},"vehicle_type_id":"4","last_reported":1761135731,"current_range_meters":10000,"station_id":"ce4bgv92rcd13ifvqcr0","pricing_plan_id":"cebpf4jnsgd1na2vs0mg"},{"bike_id":"46a666d6-5fe4-4f5c-b5c3-0de01c5b0330","system_id":"levelo_inurba_marseille","lat":43.29042,"lon":5.38649,"is_reserved":false,"is_disabled":false,"rental_uris":{"android":"levelo://app?vid=46a666d6-5fe4-4f5c-b5c3-0de01c5b0330","ios":"levelo://app?vid=46a666d6-5fe4-4f5c-b5c3-0de01c5b0330"},"vehicle_type_id":"4","last_reported":1761135731,"current_range_meters":10000,"station_id":"ce4bh4p2rcd13ifvqe0g","pricing_plan_id":"cebpf4jnsgd1na2vs0mg"},{"bike_id":"d83ba3b5-f05f-4b3f-995a-05ad1a505367","system_id":"levelo_inurba_marseille","lat":43.31718,"lon":5.42389,"is_reserved":false,"is_disabled":false,"rental_uris":{"android":"levelo://app?vid=d83ba3b5-f05f-4b3f-995a-05ad1a505367","ios":"levelo://app?vid=d83ba3b5-f05f-4b3f-995a-05ad1a505367"},"vehicle_type_id":"4","last_reported":1761135731,"current_range_meters":10800,"station_id":"ce4bhp92rcd13ifvqhbg","pricing_plan_id":"cebpf4jnsgd1na2vs0mg"},{"bike_id":"9969dc89-b3da-432d-a478-1a7bf655bb81","system_id":"levelo_inurba_marseille","lat":43.32341,"lon":5.36738,"is_reserved":false,"is_disabled":false,"rental_uris":{"android":"levelo://app?vid=9969dc89-b3da-432d-a478-1a7bf655bb81","ios":"levelo://app?vid=9969dc89-b3da-432d-a478-1a7bf655bb81"},"vehicle_type_id":"4","last_reported":1761135731,"current_range_meters":10800,"station_id":"ce4bhsh2rcd13ifvqi2g","pricing_plan_id":"cebpf4jnsgd1na2vs0mg"},{"bike_id":"dc9944ee-02b2-4bc9-a8c7-ea6b7f3ef928","system_id":"levelo_inurba_marseille","lat":43.29225,"lon":5.36069,"is_reserved":false,"is_disabled":false,"rental_uris":{"android":"levelo://app?vid=dc9944ee-02b2-4bc9-a8c7-ea6b7f3ef928","ios":"levelo://app?vid=dc9944ee-02b2-4bc9-a8c7-ea6b7f3ef928"},"vehicle_type_id":"4","last_reported":1761135731,"current_range_meters":10800,"station_id":"ce4bhbh2rcd13ifvqeqg","pricing_plan_id":"cebpf4jnsgd1na2vs0mg"},{"bike_id":"146c2516-bef0-44a7-b04d-fb80b55a97f2","system_id":"levelo_inurba_marseille","lat":43.30127,"lon":5.43114,"is_reserved":false,"is_disabled":false,"rental_uris":{"android":"levelo://app?vid=146c2516-bef0-44a7-b04d-fb80b55a97f2","ios":"levelo://app?vid=146c2516-bef0-44a7-b04d-fb80b55a97f2"},"vehicle_type_id":"4","last_reported":1761135731,"current_range_meters":11200,"station_id":"st_d3js3co5814s73ftftug","pricing_plan_id":"cebpf4jnsgd1na2vs0mg"},{"bike_id":"4e7e8f57-06ea-4923-b3c1-ea91802d5920","system_id":"levelo_inurba_marseille","lat":43.27982,"lon":5.4165,"is_reserved":false,"is_disabled":false,"rental_uris":{"android":"levelo://app?vid=4e7e8f57-06ea-4923-b3c1-ea91802d5920","ios":"levelo://app?vid=4e7e8f57-06ea-4923-b3c1-ea91802d5920"},"vehicle_type_id":"4","last_reported":1761135731,"current_range_meters":11200,"station_id":"ce4bho12rcd13ifvqh1g","pricing_plan_id":"cebpf4jnsgd1na2vs0mg"},{"bike_id":"02f7835e-8895-43db-bc46-dc0659a292d5","system_id":"levelo_inurba_marseille","lat":43.29331,"lon":5.3707,"is_reserved":false,"is_disabled":false,"rental_uris":{"android":"levelo://app?vid=02f7835e-8895-43db-bc46-dc0659a292d5","ios":"levelo://app?vid=02f7835e-8895-43db-bc46-dc0659a292d5"},"vehicle_type_id":"4","last_reported":1761135731,"current_range_meters":11200,"station_id":"","pricing_plan_id":"cebpf4jnsgd1na2vs0mg"},{"bike_id":"40e17525-0511-4786-8546-896444b0c93b","system_id":"levelo_inurba_marseille","lat":43.21199,"lon":5.35081,"is_reserved":false,"is_disabled":false,"rental_uris":{"android":"levelo://app?vid=40e17525-0511-4786-8546-896444b0c93b","ios":"levelo://app?vid=40e17525-0511-4786-8546-896444b0c93b"},"vehicle_type_id":"4","last_reported":1761135731,"current_range_meters":11200,"station_id":"st_cvj6sg6p6f1abm77japg","pricing_plan_id":"cebpf4jnsgd1na2vs0mg"},{"bike_id":"4010250f-6a1e-4c14-a48c-f6af023594cc","system_id":"levelo_inurba_marseille","lat":43.29895,"lon":5.4367,"is_reserved":false,"is_disabled":false,"rental_uris":{"android":"levelo://app?vid=4010250f-6a1e-4c14-a48c-f6af023594cc","ios":"levelo://app?vid=4010250f-6a1e-4c14-a48c-f6af023594cc"},"vehicle_type_id":"4","last_reported":1761135731,"current_range_meters":11600,"station_id":"ce4bhpp2rcd13ifvqhfg","pricing_plan_id":"cebpf4jnsgd1na2vs0mg"},{"bike_id":"f665c282-3252-4819-b79f-55919462919d","system_id":"levelo_inurba_marseille","lat":43.290078,"lon":5.356244,"is_reserved":false,"is_disabled":false,"rental_uris":{"android":"levelo://app?vid=f665c282-3252-4819-b79f-55919462919d","ios":"levelo://app?vid=f665c282-3252-4819-b79f-55919462919d"},"vehicle_type_id":"4","last_reported":1761135731,"current_range_meters":11600,"station_id":"ce4bhb92rcd13ifvqen0","pricing_plan_id":"cebpf4jnsgd1na2vs0mg"},{"bike_id":"7a6f32e9-4536-488d-9229-955825286ecb","system_id":"levelo_inurba_marseille","lat":43.32368,"lon":5.36776,"is_reserved":false,"is_disabled":false,"rental_uris":{"android":"levelo://app?vid=7a6f32e9-4536-488d-9229-955825286ecb","ios":"levelo://app?vid=7a6f32e9-4536-488d-9229-955825286ecb"},"vehicle_type_id":"4","last_reported":1761135731,"current_range_meters":12000,"station_id":"ce4bhsh2rcd13ifvqi2g","pricing_plan_id":"cebpf4jnsgd1na2vs0mg"},{"bike_id":"82576c51-8b9b-43eb-aa43-fc4a18c9ea5b","system_id":"levelo_inurba_marseille","lat":43.21749,"lon":5.34603,"is_reserved":false,"is_disabled":false,"rental_uris":{"android":"levelo://app?vid=82576c51-8b9b-43eb-aa43-fc4a18c9ea5b","ios":"levelo://app?vid=82576c51-8b9b-43eb-aa43-fc4a18c9ea5b"},"vehicle_type_id":"4","last_reported":1761135731,"current_range_meters":12000,"station_id":"st_cvj6r9ubvosntc0bgbag","pricing_plan_id":"cebpf4jnsgd1na2vs0mg"},{"bike_id":"89dd87c4-c8d0-4de7-8902-2b0447e67475","system_id":"levelo_inurba_marseille","lat":43.31232,"lon":5.36877,"is_reserved":false,"is_disabled":false,"rental_uris":{"android":"levelo://app?vid=89dd87c4-c8d0-4de7-8902-2b0447e67475","ios":"levelo://app?vid=89dd87c4-c8d0-4de7-8902-2b0447e67475"},"vehicle_type_id":"4","last_reported":1761135731,"current_range_meters":12000,"station_id":"","pricing_plan_id":"cebpf4jnsgd1na2vs0mg"},{"bike_id":"bbf0e5b3-61ac-473b-99b0-cf0316df431b","system_id":"levelo_inurba_marseille","lat":43.29994,"lon":5.37171,"is_reserved":false,"is_disabled":true,"rental_uris":{"android":"levelo://app?vid=bbf0e5b3-61ac-473b-99b0-cf0316df431b","ios":"levelo://app?vid=bbf0e5b3-61ac-473b-99b0-cf0316df431b"},"vehicle_type_id":"4","last_reported":1761135731,"current_range_meters":12000,"station_id":"ce4bgr92rcd13ifvqc7g","pricing_plan_id":"cebpf4jnsgd1na2vs0mg"},{"bike_id":"464bd8a3-6573-4884-b980-774e68ad4ab1","system_id":"levelo_inurba_marseille","lat":43.27196,"lon":5.40986,"is_reserved":false,"is_disabled":false,"rental_uris":{"android":"levelo://app?vid=464bd8a3-6573-4884-b980-774e68ad4ab1","ios":"levelo://app?vid=464bd8a3-6573-4884-b980-774e68ad4ab1"},"vehicle_type_id":"4","last_reported":1761135731,"current_range_meters":12000,"station_id":"ce4bhl12rcd13ifvqgf0","pricing_plan_id":"cebpf4jnsgd1na2vs0mg"},{"bike_id":"fdb474ef-53c3-4f52-b2bb-431bcfa4e02c","system_id":"levelo_inurba_marseille","lat":43.28493,"lon":5.38416,"is_reserved":false,"is_disabled":false,"rental_uris":{"android":"levelo://app?vid=fdb474ef-53c3-4f52-b2bb-431bcfa4e02c","ios":"levelo://app?vid=fdb474ef-53c3-4f52-b2bb-431bcfa4e02c"},"vehicle_type_id":"4","last_reported":1761135731,"current_range_meters":12000,"station_id":"ce4bh512rcd13ifvqe3g","pricing_plan_id":"cebpf4jnsgd1na2vs0mg"},{"bike_id":"792f2a84-09f5-49a0-87b8-507e34865962","system_id":"levelo_inurba_marseille","lat":43.26229,"lon":5.4045,"is_reserved":false,"is_disabled":false,"rental_uris":{"android":"levelo://app?vid=792f2a84-09f5-49a0-87b8-507e34865962","ios":"levelo://app?vid=792f2a84-09f5-49a0-87b8-507e34865962"},"vehicle_type_id":"4","last_reported":1761135731,"current_range_meters":12000,"station_id":"ce4bhmh2rcd13ifvqgmg","pricing_plan_id":"cebpf4jnsgd1na2vs0mg"},{"bike_id":"b869754e-ab30-4b29-93e2-c3b579cde905","system_id":"levelo_inurba_marseille","lat":43.27058,"lon":5.383,"is_reserved":false,"is_disabled":false,"rental_uris":{"android":"levelo://app?vid=b869754e-ab30-4b29-93e2-c3b579cde905","ios":"levelo://app?vid=b869754e-ab30-4b29-93e2-c3b579cde905"},"vehicle_type_id":"4","last_reported":1761135731,"current_range_meters":12000,"station_id":"st_d3n2fo6cfp8s73cte1j0","pricing_plan_id":"cebpf4jnsgd1na2vs0mg"},{"bike_id":"6ea4db1a-bb11-46d4-bc50-dfb3b45ad0dc","system_id":"levelo_inurba_marseille","lat":43.23191,"lon":5.35553,"is_reserved":false,"is_disabled":false,"rental_uris":{"android":"levelo://app?vid=6ea4db1a-bb11-46d4-bc50-dfb3b45ad0dc","ios":"levelo://app?vid=6ea4db1a-bb11-46d4-bc50-dfb3b45ad0dc"},"vehicle_type_id":"4","last_reported":1761135731,"current_range_meters":12400,"station_id":"ce4bhu92rcd13ifvqi70","pricing_plan_id":"cebpf4jnsgd1na2vs0mg"},{"bike_id":"8019ec39-0894-4bd0-b05a-e74768265a39","system_id":"levelo_inurba_marseille","lat":43.299219,"lon":5.365281,"is_reserved":false,"is_disabled":false,"rental_uris":{"android":"levelo://app?vid=8019ec39-0894-4bd0-b05a-e74768265a39","ios":"levelo://app?vid=8019ec39-0894-4bd0-b05a-e74768265a39"},"vehicle_type_id":"4","last_reported":1761135731,"current_range_meters":12400,"station_id":"ce4bgj92rcd13ifvqbd0","pricing_plan_id":"cebpf4jnsgd1na2vs0mg"},{"bike_id":"46e71a08-7e6c-4660-87ec-495dba3c6628","system_id":"levelo_inurba_marseille","lat":43.29671,"lon":5.36229,"is_reserved":false,"is_disabled":false,"rental_uris":{"android":"levelo://app?vid=46e71a08-7e6c-4660-87ec-495dba3c6628","ios":"levelo://app?vid=46e71a08-7e6c-4660-87ec-495dba3c6628"},"vehicle_type_id":"4","last_reported":1761135731,"current_range_meters":12400,"station_id":"","pricing_plan_id":"cebpf4jnsgd1na2vs0mg"},{"bike_id":"71f8762b-5310-4f23-b091-2e422ee48b97","system_id":"levelo_inurba_marseille","lat":43.29069,"lon":5.37169,"is_reserved":false,"is_disabled":false,"rental_uris":{"android":"levelo://app?vid=71f8762b-5310-4f23-b091-2e422ee48b97","ios":"levelo://app?vid=71f8762b-5310-4f23-b091-2e422ee48b97"},"vehicle_type_id":"4","last_reported":1761135731,"current_range_meters":12800,"station_id":"ce4bh5p2rcd13ifvqe4g","pricing_plan_id":"cebpf4jnsgd1na2vs0mg"},{"bike_id":"396aaa55-c35f-41fc-8337-93bac25c9dde","system_id":"levelo_inurba_marseille","lat":43.29239,"lon":5.35563,"is_reserved":false,"is_disabled":false,"rental_uris":{"android":"levelo://app?vid=396aaa55-c35f-41fc-8337-93bac25c9dde","ios":"levelo://app?vid=396aaa55-c35f-41fc-8337-93bac25c9dde"},"vehicle_type_id":"4","last_reported":1761135731,"current_range_meters":12800,"station_id":"","pricing_plan_id":"cebpf4jnsgd1na2vs0mg"},{"bike_id":"3746d960-b70c-4b3b-bac5-335cdef7c3b3","system_id":"levelo_inurba_marseille","lat":43.26026,"lon":5.37547,"is_reserved":false,"is_disabled":false,"rental_uris":{"android":"levelo://app?vid=3746d960-b70c-4b3b-bac5-335cdef7c3b3","ios":"levelo://app?vid=3746d960-b70c-4b3b-bac5-335cdef7c3b3"},"vehicle_type_id":"4","last_reported":1761135731,"current_range_meters":12800,"station_id":"ce4bhgh2rcd13ifvqfa0","pricing_plan_id":"cebpf4jnsgd1na2vs0mg"},{"bike_id":"27e4da55-03ac-4a27-9cbb-4218c6a866bf","system_id":"levelo_inurba_marseille","lat":43.280642,"lon":5.352788,"is_reserved":false,"is_disabled":false,"rental_uris":{"android":"levelo://app?vid=27e4da55-03ac-4a27-9cbb-4218c6a866bf","ios":"levelo://app?vid=27e4da55-03ac-4a27-9cbb-4218c6a866bf"},"vehicle_type_id":"4","last_reported":1761135731,"current_range_meters":12800,"station_id":"","pricing_plan_id":"cebpf4jnsgd1na2vs0mg"},{"bike_id":"37d01fc8-4b4d-4652-a489-1254eb9d4c80","system_id":"levelo_inurba_marseille","lat":43.34076,"lon":5.40411,"is_reserved":false,"is_disabled":false,"rental_uris":{"android":"levelo://app?vid=37d01fc8-4b4d-4652-a489-1254eb9d4c80","ios":"levelo://app?vid=37d01fc8-4b4d-4652-a489-1254eb9d4c80"},"vehicle_type_id":"4","last_reported":1761135731,"current_range_meters":12800,"station_id":"","pricing_plan_id":"cebpf4jnsgd1na2vs0mg"},{"bike_id":"67911635-1700-4c82-8e29-752e55f14923","system_id":"levelo_inurba_marseille","lat":43.28243,"lon":5.35058,"is_reserved":false,"is_disabled":false,"rental_uris":{"android":"levelo://app?vid=67911635-1700-4c82-8e29-752e55f14923","ios":"levelo://app?vid=67911635-1700-4c82-8e29-752e55f14923"},"vehicle_type_id":"4","last_reported":1761135731,"current_range_meters":12800,"station_id":"ce4bhbp2rcd13ifvqerg","pricing_plan_id":"cebpf4jnsgd1na2vs0mg"},{"bike_id":"6146b6a3-a2f0-4083-b0dd-fa6ecd5a65f0","system_id":"levelo_inurba_marseille","lat":43.27372,"lon":5.36257,"is_reserved":false,"is_disabled":false,"rental_uris":{"android":"levelo://app?vid=6146b6a3-a2f0-4083-b0dd-fa6ecd5a65f0","ios":"levelo://app?vid=6146b6a3-a2f0-4083-b0dd-fa6ecd5a65f0"},"vehicle_type_id":"4","last_reported":1761135731,"current_range_meters":13600,"station_id":"ce4bhbh2rcd13ifvqeo0","pricing_plan_id":"cebpf4jnsgd1na2vs0mg"},{"bike_id":"3fc586b4-0dd8-4f55-abab-3f8a70918568","system_id":"levelo_inurba_marseille","lat":43.29272,"lon":5.38438,"is_reserved":false,"is_disabled":false,"rental_uris":{"android":"levelo://app?vid=3fc586b4-0dd8-4f55-abab-3f8a70918568","ios":"levelo://app?vid=3fc586b4-0dd8-4f55-abab-3f8a70918568"},"vehicle_type_id":"4","last_reported":1761135731,"current_range_meters":13600,"station_id":"ce4bh692rcd13ifvqea0","pricing_plan_id":"cebpf4jnsgd1na2vs0mg"},{"bike_id":"d0ff1bf3-bf02-4425-b159-58f7005beb16","system_id":"levelo_inurba_marseille","lat":43.30281,"lon":5.37693,"is_reserved":false,"is_disabled":false,"rental_uris":{"android":"levelo://app?vid=d0ff1bf3-bf02-4425-b159-58f7005beb16","ios":"levelo://app?vid=d0ff1bf3-bf02-4425-b159-58f7005beb16"},"vehicle_type_id":"4","last_reported":1761135731,"current_range_meters":13600,"station_id":"ce4bguh2rcd13ifvqcj0","pricing_plan_id":"cebpf4jnsgd1na2vs0mg"},{"bike_id":"3e1315f1-911d-4714-b2d1-92d473bf2dc2","system_id":"levelo_inurba_marseille","lat":43.284683,"lon":5.392114,"is_reserved":false,"is_disabled":false,"rental_uris":{"android":"levelo://app?vid=3e1315f1-911d-4714-b2d1-92d473bf2dc2","ios":"levelo://app?vid=3e1315f1-911d-4714-b2d1-92d473bf2dc2"},"vehicle_type_id":"4","last_reported":1761135731,"current_range_meters":14000,"station_id":"ce4bhoh2rcd13ifvqh5g","pricing_plan_id":"cebpf4jnsgd1na2vs0mg"},{"bike_id":"bbd08cf4-31da-4d68-b46e-697f80190f23","system_id":"levelo_inurba_marseille","lat":43.27177,"lon":5.40997,"is_reserved":false,"is_disabled":false,"rental_uris":{"android":"levelo://app?vid=bbd08cf4-31da-4d68-b46e-697f80190f23","ios":"levelo://app?vid=bbd08cf4-31da-4d68-b46e-697f80190f23"},"vehicle_type_id":"4","last_reported":1761135731,"current_range_meters":14400,"station_id":"","pricing_plan_id":"cebpf4jnsgd1na2vs0mg"},{"bike_id":"f8f48198-8e77-4275-9d51-7537222a401c","system_id":"levelo_inurba_marseille","lat":43.30477,"lon":5.37903,"is_reserved":false,"is_disabled":false,"rental_uris":{"android":"levelo://app?vid=f8f48198-8e77-4275-9d51-7537222a401c","ios":"levelo://app?vid=f8f48198-8e77-4275-9d51-7537222a401c"},"vehicle_type_id":"4","last_reported":1761135731,"current_range_meters":14400,"station_id":"ce4bgup2rcd13ifvqcn0","pricing_plan_id":"cebpf4jnsgd1na2vs0mg"},{"bike_id":"5b2fb394-b654-4cda-abea-19d87e1a4938","system_id":"levelo_inurba_marseille","lat":43.240822,"lon":5.377519,"is_reserved":false,"is_disabled":false,"rental_uris":{"android":"levelo://app?vid=5b2fb394-b654-4cda-abea-19d87e1a4938","ios":"levelo://app?vid=5b2fb394-b654-4cda-abea-19d87e1a4938"},"vehicle_type_id":"4","last_reported":1761135731,"current_range_meters":14400,"station_id":"ce4bhnp2rcd13ifvqgvg","pricing_plan_id":"cebpf4jnsgd1na2vs0mg"},{"bike_id":"6b661c60-324a-44c8-a38c-2bde49306c48","system_id":"levelo_inurba_marseille","lat":43.30462,"lon":5.37903,"is_reserved":false,"is_disabled":false,"rental_uris":{"android":"levelo://app?vid=6b661c60-324a-44c8-a38c-2bde49306c48","ios":"levelo://app?vid=6b661c60-324a-44c8-a38c-2bde49306c48"},"vehicle_type_id":"4","last_reported":1761135731,"current_range_meters":14400,"station_id":"ce4bgup2rcd13ifvqcn0","pricing_plan_id":"cebpf4jnsgd1na2vs0mg"},{"bike_id":"8517d2ad-4627-4d5c-b43d-563f1cd29009","system_id":"levelo_inurba_marseille","lat":43.30453,"lon":5.36905,"is_reserved":false,"is_disabled":false,"rental_uris":{"android":"levelo://app?vid=8517d2ad-4627-4d5c-b43d-563f1cd29009","ios":"levelo://app?vid=8517d2ad-4627-4d5c-b43d-563f1cd29009"},"vehicle_type_id":"4","last_reported":1761135731,"current_range_meters":14800,"station_id":"","pricing_plan_id":"cebpf4jnsgd1na2vs0mg"},{"bike_id":"4cebc5c1-a17c-4fcf-8be8-00e7b9cbf1c1","system_id":"levelo_inurba_marseille","lat":43.30882,"lon":5.39647,"is_reserved":false,"is_disabled":false,"rental_uris":{"android":"levelo://app?vid=4cebc5c1-a17c-4fcf-8be8-00e7b9cbf1c1","ios":"levelo://app?vid=4cebc5c1-a17c-4fcf-8be8-00e7b9cbf1c1"},"vehicle_type_id":"4","last_reported":1761135731,"current_range_meters":14800,"station_id":"ce4bh012rcd13ifvqcv0","pricing_plan_id":"cebpf4jnsgd1na2vs0mg"},{"bike_id":"3d7013be-dfe4-430a-97e8-197a834810ee","system_id":"levelo_inurba_marseille","lat":43.246436,"lon":5.388891,"is_reserved":false,"is_disabled":false,"rental_uris":{"android":"levelo://app?vid=3d7013be-dfe4-430a-97e8-197a834810ee","ios":"levelo://app?vid=3d7013be-dfe4-430a-97e8-197a834810ee"},"vehicle_type_id":"4","last_reported":1761135731,"current_range_meters":14800,"station_id":"ce4bhg12rcd13ifvqf60","pricing_plan_id":"cebpf4jnsgd1na2vs0mg"},{"bike_id":"65df4d6d-8abb-4a02-907e-7e8b789e1820","system_id":"levelo_inurba_marseille","lat":43.23783,"lon":5.36627,"is_reserved":false,"is_disabled":false,"rental_uris":{"android":"levelo://app?vid=65df4d6d-8abb-4a02-907e-7e8b789e1820","ios":"levelo://app?vid=65df4d6d-8abb-4a02-907e-7e8b789e1820"},"vehicle_type_id":"4","last_reported":1761135731,"current_range_meters":14800,"station_id":"st_d3nk18o9ro0c73en2l3g","pricing_plan_id":"cebpf4jnsgd1na2vs0mg"},{"bike_id":"b61e6817-4496-4ad7-ab43-b524af2e26e5","system_id":"levelo_inurba_marseille","lat":43.2866,"lon":5.38661,"is_reserved":false,"is_disabled":false,"rental_uris":{"android":"levelo://app?vid=b61e6817-4496-4ad7-ab43-b524af2e26e5","ios":"levelo://app?vid=b61e6817-4496-4ad7-ab43-b524af2e26e5"},"vehicle_type_id":"4","last_reported":1761135731,"current_range_meters":14800,"station_id":"","pricing_plan_id":"cebpf4jnsgd1na2vs0mg"},{"bike_id":"07e992db-48e1-481b-a50e-3b491cfc1455","system_id":"levelo_inurba_marseille","lat":43.31991,"lon":5.41291,"is_reserved":false,"is_disabled":false,"rental_uris":{"android":"levelo://app?vid=07e992db-48e1-481b-a50e-3b491cfc1455","ios":"levelo://app?vid=07e992db-48e1-481b-a50e-3b491cfc1455"},"vehicle_type_id":"4","last_reported":1761135731,"current_range_meters":14800,"station_id":"","pricing_plan_id":"cebpf4jnsgd1na2vs0mg"},{"bike_id":"65aad121-cea7-4731-852b-6b709cdf1c89","system_id":"levelo_inurba_marseille","lat":43.337444,"lon":5.374475,"is_reserved":false,"is_disabled":false,"rental_uris":{"android":"levelo://app?vid=65aad121-cea7-4731-852b-6b709cdf1c89","ios":"levelo://app?vid=65aad121-cea7-4731-852b-6b709cdf1c89"},"vehicle_type_id":"4","last_reported":1761135731,"current_range_meters":14800,"station_id":"","pricing_plan_id":"cebpf4jnsgd1na2vs0mg"},{"bike_id":"45c5f284-52b6-47ea-aca4-69f6aa73fb13","system_id":"levelo_inurba_marseille","lat":43.29619,"lon":5.37159,"is_reserved":false,"is_disabled":false,"rental_uris":{"android":"levelo://app?vid=45c5f284-52b6-47ea-aca4-69f6aa73fb13","ios":"levelo://app?vid=45c5f284-52b6-47ea-aca4-69f6aa73fb13"},"vehicle_type_id":"4","last_reported":1761135731,"current_range_meters":15200,"station_id":"ce4bgnh2rcd13ifvqc0g","pricing_plan_id":"cebpf4jnsgd1na2vs0mg"},{"bike_id":"0529bcda-9068-46b1-a2d9-aaf824a26d2e","system_id":"levelo_inurba_marseille","lat":43.22563,"lon":5.41626,"is_reserved":false,"is_disabled":false,"rental_uris":{"android":"levelo://app?vid=0529bcda-9068-46b1-a2d9-aaf824a26d2e","ios":"levelo://app?vid=0529bcda-9068-46b1-a2d9-aaf824a26d2e"},"vehicle_type_id":"4","last_reported":1761135731,"current_range_meters":15200,"station_id":"st_d2o4gvlbi1j2169b742g","pricing_plan_id":"cebpf4jnsgd1na2vs0mg"},{"bike_id":"c4214b1c-a7b4-4038-9923-0cc8b20f170d","system_id":"levelo_inurba_marseille","lat":43.26551,"lon":5.37286,"is_reserved":false,"is_disabled":false,"rental_uris":{"android":"levelo://app?vid=c4214b1c-a7b4-4038-9923-0cc8b20f170d","ios":"levelo://app?vid=c4214b1c-a7b4-4038-9923-0cc8b20f170d"},"vehicle_type_id":"4","last_reported":1761135731,"current_range_meters":16000,"station_id":"ce4bhg12rcd13ifvqf70","pricing_plan_id":"cebpf4jnsgd1na2vs0mg"},{"bike_id":"e01c0407-9fea-4afc-844a-8e1d738fcda5","system_id":"levelo_inurba_marseille","lat":43.24171,"lon":5.36396,"is_reserved":false,"is_disabled":false,"rental_uris":{"android":"levelo://app?vid=e01c0407-9fea-4afc-844a-8e1d738fcda5","ios":"levelo://app?vid=e01c0407-9fea-4afc-844a-8e1d738fcda5"},"vehicle_type_id":"4","last_reported":1761135731,"current_range_meters":16000,"station_id":"cpo36qri1sfpv3e86is0","pricing_plan_id":"cebpf4jnsgd1na2vs0mg"},{"bike_id":"89d8739f-4b8e-4f60-8f43-e495253557db","system_id":"levelo_inurba_marseille","lat":43.28537,"lon":5.44094,"is_reserved":false,"is_disabled":false,"rental_uris":{"android":"levelo://app?vid=89d8739f-4b8e-4f60-8f43-e495253557db","ios":"levelo://app?vid=89d8739f-4b8e-4f60-8f43-e495253557db"},"vehicle_type_id":"4","last_reported":1761135731,"current_range_meters":16000,"station_id":"st_d3j3df2ikq2c7380ej80","pricing_plan_id":"cebpf4jnsgd1na2vs0mg"},{"bike_id":"e81ea38e-7c02-4a5a-b40c-4d63413eb05c","system_id":"levelo_inurba_marseille","lat":43.23149,"lon":5.43699,"is_reserved":false,"is_disabled":false,"rental_uris":{"android":"levelo://app?vid=e81ea38e-7c02-4a5a-b40c-4d63413eb05c","ios":"levelo://app?vid=e81ea38e-7c02-4a5a-b40c-4d63413eb05c"},"vehicle_type_id":"4","last_reported":1761135731,"current_range_meters":16000,"station_id":"ce4bhmp2rcd13ifvqgog","pricing_plan_id":"cebpf4jnsgd1na2vs0mg"},{"bike_id":"e7709aff-f080-4c40-b225-77642ea3c5cc","system_id":"levelo_inurba_marseille","lat":43.24169,"lon":5.36396,"is_reserved":false,"is_disabled":false,"rental_uris":{"android":"levelo://app?vid=e7709aff-f080-4c40-b225-77642ea3c5cc","ios":"levelo://app?vid=e7709aff-f080-4c40-b225-77642ea3c5cc"},"vehicle_type_id":"4","last_reported":1761135731,"current_range_meters":16000,"station_id":"cpo36qri1sfpv3e86is0","pricing_plan_id":"cebpf4jnsgd1na2vs0mg"},{"bike_id":"9870a68d-ae62-4bec-82c3-a7443a850bdc","system_id":"levelo_inurba_marseille","lat":43.31283,"lon":5.37781,"is_reserved":false,"is_disabled":false,"rental_uris":{"android":"levelo://app?vid=9870a68d-ae62-4bec-82c3-a7443a850bdc","ios":"levelo://app?vid=9870a68d-ae62-4bec-82c3-a7443a850bdc"},"vehicle_type_id":"4","last_reported":1761135731,"current_range_meters":16400,"station_id":"","pricing_plan_id":"cebpf4jnsgd1na2vs0mg"},{"bike_id":"618a9c44-e479-45b6-b144-58d3228e3132","system_id":"levelo_inurba_marseille","lat":43.246341,"lon":5.388943,"is_reserved":false,"is_disabled":false,"rental_uris":{"android":"levelo://app?vid=618a9c44-e479-45b6-b144-58d3228e3132","ios":"levelo://app?vid=618a9c44-e479-45b6-b144-58d3228e3132"},"vehicle_type_id":"4","last_reported":1761135731,"current_range_meters":16400,"station_id":"ce4bhg12rcd13ifvqf60","pricing_plan_id":"cebpf4jnsgd1na2vs0mg"},{"bike_id":"b3b13e92-d401-45af-ad84-a41c7bbeb5fe","system_id":"levelo_inurba_marseille","lat":43.30965,"lon":5.37516,"is_reserved":false,"is_disabled":false,"rental_uris":{"android":"levelo://app?vid=b3b13e92-d401-45af-ad84-a41c7bbeb5fe","ios":"levelo://app?vid=b3b13e92-d401-45af-ad84-a41c7bbeb5fe"},"vehicle_type_id":"4","last_reported":1761135731,"current_range_meters":16400,"station_id":"","pricing_plan_id":"cebpf4jnsgd1na2vs0mg"},{"bike_id":"9d8bcd8e-8ecf-425f-98ef-b7c9398172e2","system_id":"levelo_inurba_marseille","lat":43.32364,"lon":5.36764,"is_reserved":false,"is_disabled":false,"rental_uris":{"android":"levelo://app?vid=9d8bcd8e-8ecf-425f-98ef-b7c9398172e2","ios":"levelo://app?vid=9d8bcd8e-8ecf-425f-98ef-b7c9398172e2"},"vehicle_type_id":"4","last_reported":1761135731,"current_range_meters":16400,"station_id":"ce4bhsh2rcd13ifvqi2g","pricing_plan_id":"cebpf4jnsgd1na2vs0mg"},{"bike_id":"4eae2ec4-8862-466e-a3d9-395cca4276d0","system_id":"levelo_inurba_marseille","lat":43.30313,"lon":5.37526,"is_reserved":false,"is_disabled":false,"rental_uris":{"android":"levelo://app?vid=4eae2ec4-8862-466e-a3d9-395cca4276d0","ios":"levelo://app?vid=4eae2ec4-8862-466e-a3d9-395cca4276d0"},"vehicle_type_id":"4","last_reported":1761135731,"current_range_meters":16400,"station_id":"","pricing_plan_id":"cebpf4jnsgd1na2vs0mg"},{"bike_id":"13a951fd-10b9-4071-a5aa-fa8a411656af","system_id":"levelo_inurba_marseille","lat":43.30504,"lon":5.37924,"is_reserved":false,"is_disabled":false,"rental_uris":{"android":"levelo://app?vid=13a951fd-10b9-4071-a5aa-fa8a411656af","ios":"levelo://app?vid=13a951fd-10b9-4071-a5aa-fa8a411656af"},"vehicle_type_id":"4","last_reported":1761135731,"current_range_meters":16400,"station_id":"","pricing_plan_id":"cebpf4jnsgd1na2vs0mg"},{"bike_id":"83a6b934-366b-4ee4-b0e8-45c2e4b88221","system_id":"levelo_inurba_marseille","lat":43.29276,"lon":5.3684,"is_reserved":false,"is_disabled":false,"rental_uris":{"android":"levelo://app?vid=83a6b934-366b-4ee4-b0e8-45c2e4b88221","ios":"levelo://app?vid=83a6b934-366b-4ee4-b0e8-45c2e4b88221"},"vehicle_type_id":"4","last_reported":1761135731,"current_range_meters":16400,"station_id":"ce4bhbp2rcd13ifvqesg","pricing_plan_id":"cebpf4jnsgd1na2vs0mg"},{"bike_id":"c6c2dba1-db81-4cd1-9c62-d4db3c03abcc","system_id":"levelo_inurba_marseille","lat":43.25578,"lon":5.3823,"is_reserved":false,"is_disabled":false,"rental_uris":{"android":"levelo://app?vid=c6c2dba1-db81-4cd1-9c62-d4db3c03abcc","ios":"levelo://app?vid=c6c2dba1-db81-4cd1-9c62-d4db3c03abcc"},"vehicle_type_id":"4","last_reported":1761135731,"current_range_meters":16400,"station_id":"ce4bhih2rcd13ifvqfs0","pricing_plan_id":"cebpf4jnsgd1na2vs0mg"},{"bike_id":"a79c6bd1-700c-48dd-854c-b0af28c99022","system_id":"levelo_inurba_marseille","lat":43.24639,"lon":5.43146,"is_reserved":false,"is_disabled":false,"rental_uris":{"android":"levelo://app?vid=a79c6bd1-700c-48dd-854c-b0af28c99022","ios":"levelo://app?vid=a79c6bd1-700c-48dd-854c-b0af28c99022"},"vehicle_type_id":"4","last_reported":1761135731,"current_range_meters":16400,"station_id":"st_d2m6c4gdas8pm72e190g","pricing_plan_id":"cebpf4jnsgd1na2vs0mg"},{"bike_id":"2ff2319d-129a-4d22-a25d-01d96c2dcbc1","system_id":"levelo_inurba_marseille","lat":43.24647,"lon":5.38892,"is_reserved":false,"is_disabled":false,"rental_uris":{"android":"levelo://app?vid=2ff2319d-129a-4d22-a25d-01d96c2dcbc1","ios":"levelo://app?vid=2ff2319d-129a-4d22-a25d-01d96c2dcbc1"},"vehicle_type_id":"4","last_reported":1761135731,"current_range_meters":16800,"station_id":"ce4bhg12rcd13ifvqf60","pricing_plan_id":"cebpf4jnsgd1na2vs0mg"},{"bike_id":"042b51df-71d2-40e9-9102-008e9be6293c","system_id":"levelo_inurba_marseille","lat":43.31689,"lon":5.40455,"is_reserved":false,"is_disabled":false,"rental_uris":{"android":"levelo://app?vid=042b51df-71d2-40e9-9102-008e9be6293c","ios":"levelo://app?vid=042b51df-71d2-40e9-9102-008e9be6293c"},"vehicle_type_id":"4","last_reported":1761135731,"current_range_meters":16800,"station_id":"ce4bh012rcd13ifvqd00","pricing_plan_id":"cebpf4jnsgd1na2vs0mg"},{"bike_id":"46db557c-a6b2-46d8-86d3-e7576ea8768c","system_id":"levelo_inurba_marseille","lat":43.26208,"lon":5.3744,"is_reserved":false,"is_disabled":false,"rental_uris":{"android":"levelo://app?vid=46db557c-a6b2-46d8-86d3-e7576ea8768c","ios":"levelo://app?vid=46db557c-a6b2-46d8-86d3-e7576ea8768c"},"vehicle_type_id":"4","last_reported":1761135731,"current_range_meters":16800,"station_id":"ce4bhgp2rcd13ifvqfc0","pricing_plan_id":"cebpf4jnsgd1na2vs0mg"},{"bike_id":"fff8c963-3c30-4f56-97a9-1062cce669f5","system_id":"levelo_inurba_marseille","lat":43.29358,"lon":5.37833,"is_reserved":false,"is_disabled":false,"rental_uris":{"android":"levelo://app?vid=fff8c963-3c30-4f56-97a9-1062cce669f5","ios":"levelo://app?vid=fff8c963-3c30-4f56-97a9-1062cce669f5"},"vehicle_type_id":"4","last_reported":1761135731,"current_range_meters":16800,"station_id":"ce4bgjh2rcd13ifvqbf0","pricing_plan_id":"cebpf4jnsgd1na2vs0mg"},{"bike_id":"c8c0fa58-a519-4343-9887-b0c694f93aef","system_id":"levelo_inurba_marseille","lat":43.2887,"lon":5.42528,"is_reserved":false,"is_disabled":false,"rental_uris":{"android":"levelo://app?vid=c8c0fa58-a519-4343-9887-b0c694f93aef","ios":"levelo://app?vid=c8c0fa58-a519-4343-9887-b0c694f93aef"},"vehicle_type_id":"4","last_reported":1761135731,"current_range_meters":17200,"station_id":"st_d3b462108ojc7389ooeg","pricing_plan_id":"cebpf4jnsgd1na2vs0mg"},{"bike_id":"0ec4ef5d-d495-417b-9bb4-a7234e30b1f5","system_id":"levelo_inurba_marseille","lat":43.24531,"lon":5.39524,"is_reserved":false,"is_disabled":false,"rental_uris":{"android":"levelo://app?vid=0ec4ef5d-d495-417b-9bb4-a7234e30b1f5","ios":"levelo://app?vid=0ec4ef5d-d495-417b-9bb4-a7234e30b1f5"},"vehicle_type_id":"4","last_reported":1761135731,"current_range_meters":17200,"station_id":"ce4bhlp2rcd13ifvqgjg","pricing_plan_id":"cebpf4jnsgd1na2vs0mg"},{"bike_id":"612b7784-911c-4890-a540-330f9d5f4992","system_id":"levelo_inurba_marseille","lat":43.24164,"lon":5.36396,"is_reserved":false,"is_disabled":false,"rental_uris":{"android":"levelo://app?vid=612b7784-911c-4890-a540-330f9d5f4992","ios":"levelo://app?vid=612b7784-911c-4890-a540-330f9d5f4992"},"vehicle_type_id":"4","last_reported":1761135731,"current_range_meters":17200,"station_id":"cpo36qri1sfpv3e86is0","pricing_plan_id":"cebpf4jnsgd1na2vs0mg"},{"bike_id":"96142ba4-373a-4846-a6df-5463ffc1eb0e","system_id":"levelo_inurba_marseille","lat":43.26227,"lon":5.40456,"is_reserved":false,"is_disabled":false,"rental_uris":{"android":"levelo://app?vid=96142ba4-373a-4846-a6df-5463ffc1eb0e","ios":"levelo://app?vid=96142ba4-373a-4846-a6df-5463ffc1eb0e"},"vehicle_type_id":"4","last_reported":1761135731,"current_range_meters":17200,"station_id":"ce4bhmh2rcd13ifvqgmg","pricing_plan_id":"cebpf4jnsgd1na2vs0mg"},{"bike_id":"1db58ee4-5c7d-4ef1-8a33-4047f3a1feb6","system_id":"levelo_inurba_marseille","lat":43.32544,"lon":5.41447,"is_reserved":false,"is_disabled":false,"rental_uris":{"android":"levelo://app?vid=1db58ee4-5c7d-4ef1-8a33-4047f3a1feb6","ios":"levelo://app?vid=1db58ee4-5c7d-4ef1-8a33-4047f3a1feb6"},"vehicle_type_id":"4","last_reported":1761135731,"current_range_meters":17200,"station_id":"ce4bhq12rcd13ifvqhhg","pricing_plan_id":"cebpf4jnsgd1na2vs0mg"},{"bike_id":"0cf9e2b8-85c8-4cfa-8657-8b253a599faf","system_id":"levelo_inurba_marseille","lat":43.29281,"lon":5.36821,"is_reserved":false,"is_disabled":false,"rental_uris":{"android":"levelo://app?vid=0cf9e2b8-85c8-4cfa-8657-8b253a599faf","ios":"levelo://app?vid=0cf9e2b8-85c8-4cfa-8657-8b253a599faf"},"vehicle_type_id":"4","last_reported":1761135731,"current_range_meters":17200,"station_id":"ce4bhbp2rcd13ifvqesg","pricing_plan_id":"cebpf4jnsgd1na2vs0mg"},{"bike_id":"99332a38-6d7c-4935-86ee-07acb729932e","system_id":"levelo_inurba_marseille","lat":43.298023,"lon":5.381016,"is_reserved":false,"is_disabled":false,"rental_uris":{"android":"levelo://app?vid=99332a38-6d7c-4935-86ee-07acb729932e","ios":"levelo://app?vid=99332a38-6d7c-4935-86ee-07acb729932e"},"vehicle_type_id":"4","last_reported":1761135731,"current_range_meters":17600,"station_id":"ce4bgip2rcd13ifvqbb0","pricing_plan_id":"cebpf4jnsgd1na2vs0mg"},{"bike_id":"6dedb052-20a2-44cd-aeba-04edee226593","system_id":"levelo_inurba_marseille","lat":43.2256,"lon":5.41618,"is_reserved":false,"is_disabled":false,"rental_uris":{"android":"levelo://app?vid=6dedb052-20a2-44cd-aeba-04edee226593","ios":"levelo://app?vid=6dedb052-20a2-44cd-aeba-04edee226593"},"vehicle_type_id":"4","last_reported":1761135731,"current_range_meters":17600,"station_id":"st_d2o4gvlbi1j2169b742g","pricing_plan_id":"cebpf4jnsgd1na2vs0mg"},{"bike_id":"61525fe3-26d4-4c5c-a075-e59599c296c4","system_id":"levelo_inurba_marseille","lat":43.31444,"lon":5.39296,"is_reserved":false,"is_disabled":false,"rental_uris":{"android":"levelo://app?vid=61525fe3-26d4-4c5c-a075-e59599c296c4","ios":"levelo://app?vid=61525fe3-26d4-4c5c-a075-e59599c296c4"},"vehicle_type_id":"4","last_reported":1761135731,"current_range_meters":17600,"station_id":"","pricing_plan_id":"cebpf4jnsgd1na2vs0mg"},{"bike_id":"d4da7a79-ca5e-4367-bfbd-cf0176fdbd36","system_id":"levelo_inurba_marseille","lat":43.30527,"lon":5.36558,"is_reserved":false,"is_disabled":false,"rental_uris":{"android":"levelo://app?vid=d4da7a79-ca5e-4367-bfbd-cf0176fdbd36","ios":"levelo://app?vid=d4da7a79-ca5e-4367-bfbd-cf0176fdbd36"},"vehicle_type_id":"4","last_reported":1761135731,"current_range_meters":17600,"station_id":"","pricing_plan_id":"cebpf4jnsgd1na2vs0mg"},{"bike_id":"76617880-e916-4001-97b7-117fee9fa177","system_id":"levelo_inurba_marseille","lat":43.28416,"lon":5.37514,"is_reserved":false,"is_disabled":false,"rental_uris":{"android":"levelo://app?vid=76617880-e916-4001-97b7-117fee9fa177","ios":"levelo://app?vid=76617880-e916-4001-97b7-117fee9fa177"},"vehicle_type_id":"4","last_reported":1761135731,"current_range_meters":17600,"station_id":"ce4bh412rcd13ifvqds0","pricing_plan_id":"cebpf4jnsgd1na2vs0mg"},{"bike_id":"833454a9-a964-4a4c-9ed7-ea52870a89e4","system_id":"levelo_inurba_marseille","lat":43.28483,"lon":5.38414,"is_reserved":false,"is_disabled":false,"rental_uris":{"android":"levelo://app?vid=833454a9-a964-4a4c-9ed7-ea52870a89e4","ios":"levelo://app?vid=833454a9-a964-4a4c-9ed7-ea52870a89e4"},"vehicle_type_id":"4","last_reported":1761135731,"current_range_meters":17600,"station_id":"ce4bh512rcd13ifvqe3g","pricing_plan_id":"cebpf4jnsgd1na2vs0mg"},{"bike_id":"37919a81-5f03-4e93-b094-379888e8cb5b","system_id":"levelo_inurba_marseille","lat":43.3034,"lon":5.36916,"is_reserved":false,"is_disabled":false,"rental_uris":{"android":"levelo://app?vid=37919a81-5f03-4e93-b094-379888e8cb5b","ios":"levelo://app?vid=37919a81-5f03-4e93-b094-379888e8cb5b"},"vehicle_type_id":"4","last_reported":1761135731,"current_range_meters":18000,"station_id":"ce4bgqh2rcd13ifvqc5g","pricing_plan_id":"cebpf4jnsgd1na2vs0mg"},{"bike_id":"4c2b5c5f-ac7a-43d4-a4ed-480a42d5e982","system_id":"levelo_inurba_marseille","lat":43.33924,"lon":5.39761,"is_reserved":false,"is_disabled":false,"rental_uris":{"android":"levelo://app?vid=4c2b5c5f-ac7a-43d4-a4ed-480a42d5e982","ios":"levelo://app?vid=4c2b5c5f-ac7a-43d4-a4ed-480a42d5e982"},"vehicle_type_id":"4","last_reported":1761135731,"current_range_meters":18000,"station_id":"","pricing_plan_id":"cebpf4jnsgd1na2vs0mg"},{"bike_id":"fc088b50-e903-4413-b68e-3a2b8a695866","system_id":"levelo_inurba_marseille","lat":43.24633,"lon":5.43148,"is_reserved":false,"is_disabled":false,"rental_uris":{"android":"levelo://app?vid=fc088b50-e903-4413-b68e-3a2b8a695866","ios":"levelo://app?vid=fc088b50-e903-4413-b68e-3a2b8a695866"},"vehicle_type_id":"4","last_reported":1761135731,"current_range_meters":18000,"station_id":"st_d2m6c4gdas8pm72e190g","pricing_plan_id":"cebpf4jnsgd1na2vs0mg"},{"bike_id":"3a35bfe3-1ac9-4c9c-b44e-c38ba2fb191b","system_id":"levelo_inurba_marseille","lat":43.33604,"lon":5.41029,"is_reserved":false,"is_disabled":false,"rental_uris":{"android":"levelo://app?vid=3a35bfe3-1ac9-4c9c-b44e-c38ba2fb191b","ios":"levelo://app?vid=3a35bfe3-1ac9-4c9c-b44e-c38ba2fb191b"},"vehicle_type_id":"4","last_reported":1761135731,"current_range_meters":18000,"station_id":"ce4bhqh2rcd13ifvqhmg","pricing_plan_id":"cebpf4jnsgd1na2vs0mg"},{"bike_id":"622a446d-7aa9-48f8-a28a-4bdb017917b6","system_id":"levelo_inurba_marseille","lat":43.30165,"lon":5.38102,"is_reserved":false,"is_disabled":false,"rental_uris":{"android":"levelo://app?vid=622a446d-7aa9-48f8-a28a-4bdb017917b6","ios":"levelo://app?vid=622a446d-7aa9-48f8-a28a-4bdb017917b6"},"vehicle_type_id":"4","last_reported":1761135731,"current_range_meters":18000,"station_id":"ce4bgjp2rcd13ifvqbh0","pricing_plan_id":"cebpf4jnsgd1na2vs0mg"},{"bike_id":"c67f70ff-6787-4002-8d14-586baa1e3a16","system_id":"levelo_inurba_marseille","lat":43.2508,"lon":5.3952,"is_reserved":false,"is_disabled":false,"rental_uris":{"android":"levelo://app?vid=c67f70ff-6787-4002-8d14-586baa1e3a16","ios":"levelo://app?vid=c67f70ff-6787-4002-8d14-586baa1e3a16"},"vehicle_type_id":"4","last_reported":1761135731,"current_range_meters":18000,"station_id":"ce4bhm12rcd13ifvqgkg","pricing_plan_id":"cebpf4jnsgd1na2vs0mg"},{"bike_id":"bda3ed1a-3199-4eb8-8229-577855d09dbb","system_id":"levelo_inurba_marseille","lat":43.3163,"lon":5.37876,"is_reserved":false,"is_disabled":false,"rental_uris":{"android":"levelo://app?vid=bda3ed1a-3199-4eb8-8229-577855d09dbb","ios":"levelo://app?vid=bda3ed1a-3199-4eb8-8229-577855d09dbb"},"vehicle_type_id":"4","last_reported":1761135731,"current_range_meters":18000,"station_id":"","pricing_plan_id":"cebpf4jnsgd1na2vs0mg"},{"bike_id":"5c47bca9-cbb4-41ca-8e7b-bbb103ec87ae","system_id":"levelo_inurba_marseille","lat":43.33603,"lon":5.41031,"is_reserved":false,"is_disabled":false,"rental_uris":{"android":"levelo://app?vid=5c47bca9-cbb4-41ca-8e7b-bbb103ec87ae","ios":"levelo://app?vid=5c47bca9-cbb4-41ca-8e7b-bbb103ec87ae"},"vehicle_type_id":"4","last_reported":1761135731,"current_range_meters":18000,"station_id":"ce4bhqh2rcd13ifvqhmg","pricing_plan_id":"cebpf4jnsgd1na2vs0mg"},{"bike_id":"d5730d14-308c-462e-80e1-759633e3f133","system_id":"levelo_inurba_marseille","lat":43.23151,"lon":5.43712,"is_reserved":false,"is_disabled":false,"rental_uris":{"android":"levelo://app?vid=d5730d14-308c-462e-80e1-759633e3f133","ios":"levelo://app?vid=d5730d14-308c-462e-80e1-759633e3f133"},"vehicle_type_id":"4","last_reported":1761135731,"current_range_meters":18000,"station_id":"ce4bhmp2rcd13ifvqgog","pricing_plan_id":"cebpf4jnsgd1na2vs0mg"},{"bike_id":"d9247930-f477-4727-872b-24c5b02f6614","system_id":"levelo_inurba_marseille","lat":43.27193,"lon":5.41008,"is_reserved":false,"is_disabled":false,"rental_uris":{"android":"levelo://app?vid=d9247930-f477-4727-872b-24c5b02f6614","ios":"levelo://app?vid=d9247930-f477-4727-872b-24c5b02f6614"},"vehicle_type_id":"4","last_reported":1761135731,"current_range_meters":18000,"station_id":"ce4bhl12rcd13ifvqgf0","pricing_plan_id":"cebpf4jnsgd1na2vs0mg"},{"bike_id":"55e90a26-98e4-4248-854f-c415996cafea","system_id":"levelo_inurba_marseille","lat":43.33769,"lon":5.37442,"is_reserved":false,"is_disabled":false,"rental_uris":{"android":"levelo://app?vid=55e90a26-98e4-4248-854f-c415996cafea","ios":"levelo://app?vid=55e90a26-98e4-4248-854f-c415996cafea"},"vehicle_type_id":"4","last_reported":1761135731,"current_range_meters":18000,"station_id":"","pricing_plan_id":"cebpf4jnsgd1na2vs0mg"},{"bike_id":"dbc0d0e4-3ce5-451e-acf0-bf33472288a2","system_id":"levelo_inurba_marseille","lat":43.26023,"lon":5.37548,"is_reserved":false,"is_disabled":false,"rental_uris":{"android":"levelo://app?vid=dbc0d0e4-3ce5-451e-acf0-bf33472288a2","ios":"levelo://app?vid=dbc0d0e4-3ce5-451e-acf0-bf33472288a2"},"vehicle_type_id":"4","last_reported":1761135731,"current_range_meters":18800,"station_id":"ce4bhgh2rcd13ifvqfa0","pricing_plan_id":"cebpf4jnsgd1na2vs0mg"},{"bike_id":"56819d93-8004-46c8-979b-2bd25e698a4a","system_id":"levelo_inurba_marseille","lat":43.25115,"lon":5.40315,"is_reserved":false,"is_disabled":false,"rental_uris":{"android":"levelo://app?vid=56819d93-8004-46c8-979b-2bd25e698a4a","ios":"levelo://app?vid=56819d93-8004-46c8-979b-2bd25e698a4a"},"vehicle_type_id":"4","last_reported":1761135731,"current_range_meters":18800,"station_id":"ce4bhlh2rcd13ifvqgig","pricing_plan_id":"cebpf4jnsgd1na2vs0mg"},{"bike_id":"2a22829e-2bd6-41ec-a3e5-ef826e7425d3","system_id":"levelo_inurba_marseille","lat":43.321187,"lon":5.367478,"is_reserved":false,"is_disabled":false,"rental_uris":{"android":"levelo://app?vid=2a22829e-2bd6-41ec-a3e5-ef826e7425d3","ios":"levelo://app?vid=2a22829e-2bd6-41ec-a3e5-ef826e7425d3"},"vehicle_type_id":"4","last_reported":1761135731,"current_range_meters":18800,"station_id":"ce4bhrh2rcd13ifvqhug","pricing_plan_id":"cebpf4jnsgd1na2vs0mg"},{"bike_id":"9bbace99-b214-44be-a3b7-dd1a06ef8275","system_id":"levelo_inurba_marseille","lat":43.296628,"lon":5.395919,"is_reserved":false,"is_disabled":false,"rental_uris":{"android":"levelo://app?vid=9bbace99-b214-44be-a3b7-dd1a06ef8275","ios":"levelo://app?vid=9bbace99-b214-44be-a3b7-dd1a06ef8275"},"vehicle_type_id":"4","last_reported":1761135731,"current_range_meters":18800,"station_id":"chh1huq6cuj3fo74tm60","pricing_plan_id":"cebpf4jnsgd1na2vs0mg"},{"bike_id":"577029bc-bd18-4117-9291-f90fc266f36e","system_id":"levelo_inurba_marseille","lat":43.301368,"lon":5.374343,"is_reserved":false,"is_disabled":false,"rental_uris":{"android":"levelo://app?vid=577029bc-bd18-4117-9291-f90fc266f36e","ios":"levelo://app?vid=577029bc-bd18-4117-9291-f90fc266f36e"},"vehicle_type_id":"4","last_reported":1761135731,"current_range_meters":18800,"station_id":"ce4bgs92rcd13ifvqcc0","pricing_plan_id":"cebpf4jnsgd1na2vs0mg"},{"bike_id":"89ddf3b0-93c7-40cc-958c-80c69f9edea9","system_id":"levelo_inurba_marseille","lat":43.301223,"lon":5.374188,"is_reserved":false,"is_disabled":false,"rental_uris":{"android":"levelo://app?vid=89ddf3b0-93c7-40cc-958c-80c69f9edea9","ios":"levelo://app?vid=89ddf3b0-93c7-40cc-958c-80c69f9edea9"},"vehicle_type_id":"4","last_reported":1761135731,"current_range_meters":18800,"station_id":"ce4bgs92rcd13ifvqcc0","pricing_plan_id":"cebpf4jnsgd1na2vs0mg"},{"bike_id":"09f2ac65-5a04-431a-a5cc-cb096a1f815f","system_id":"levelo_inurba_marseille","lat":43.29214,"lon":5.36042,"is_reserved":false,"is_disabled":true,"rental_uris":{"android":"levelo://app?vid=09f2ac65-5a04-431a-a5cc-cb096a1f815f","ios":"levelo://app?vid=09f2ac65-5a04-431a-a5cc-cb096a1f815f"},"vehicle_type_id":"4","last_reported":1761135731,"current_range_meters":18800,"station_id":"ce4bhbh2rcd13ifvqeqg","pricing_plan_id":"cebpf4jnsgd1na2vs0mg"},{"bike_id":"fcd7f423-9fb7-4b86-b7b1-2ceba0b1d295","system_id":"levelo_inurba_marseille","lat":43.30459,"lon":5.37902,"is_reserved":false,"is_disabled":false,"rental_uris":{"android":"levelo://app?vid=fcd7f423-9fb7-4b86-b7b1-2ceba0b1d295","ios":"levelo://app?vid=fcd7f423-9fb7-4b86-b7b1-2ceba0b1d295"},"vehicle_type_id":"4","last_reported":1761135731,"current_range_meters":18800,"station_id":"ce4bgup2rcd13ifvqcn0","pricing_plan_id":"cebpf4jnsgd1na2vs0mg"},{"bike_id":"ed210678-a2a0-494b-bc7d-51247be12ed0","system_id":"levelo_inurba_marseille","lat":43.2962,"lon":5.37729,"is_reserved":false,"is_disabled":false,"rental_uris":{"android":"levelo://app?vid=ed210678-a2a0-494b-bc7d-51247be12ed0","ios":"levelo://app?vid=ed210678-a2a0-494b-bc7d-51247be12ed0"},"vehicle_type_id":"4","last_reported":1761135731,"current_range_meters":19200,"station_id":"ce4bgi92rcd13ifvqb90","pricing_plan_id":"cebpf4jnsgd1na2vs0mg"},{"bike_id":"37a496e0-c5b1-4201-8ed8-5a117c58f04d","system_id":"levelo_inurba_marseille","lat":43.292761,"lon":5.368449,"is_reserved":false,"is_disabled":false,"rental_uris":{"android":"levelo://app?vid=37a496e0-c5b1-4201-8ed8-5a117c58f04d","ios":"levelo://app?vid=37a496e0-c5b1-4201-8ed8-5a117c58f04d"},"vehicle_type_id":"4","last_reported":1761135731,"current_range_meters":19200,"station_id":"ce4bhbp2rcd13ifvqesg","pricing_plan_id":"cebpf4jnsgd1na2vs0mg"},{"bike_id":"e8d5589c-46e6-4f16-98dc-f58df1da932e","system_id":"levelo_inurba_marseille","lat":43.27179,"lon":5.40989,"is_reserved":false,"is_disabled":false,"rental_uris":{"android":"levelo://app?vid=e8d5589c-46e6-4f16-98dc-f58df1da932e","ios":"levelo://app?vid=e8d5589c-46e6-4f16-98dc-f58df1da932e"},"vehicle_type_id":"4","last_reported":1761135731,"current_range_meters":19200,"station_id":"ce4bhl12rcd13ifvqgf0","pricing_plan_id":"cebpf4jnsgd1na2vs0mg"},{"bike_id":"04fc3a3b-d8fb-4f51-b87f-a6cdf720371c","system_id":"levelo_inurba_marseille","lat":43.30784,"lon":5.37681,"is_reserved":false,"is_disabled":false,"rental_uris":{"android":"levelo://app?vid=04fc3a3b-d8fb-4f51-b87f-a6cdf720371c","ios":"levelo://app?vid=04fc3a3b-d8fb-4f51-b87f-a6cdf720371c"},"vehicle_type_id":"4","last_reported":1761135731,"current_range_meters":19200,"station_id":"ce4bgv92rcd13ifvqcq0","pricing_plan_id":"cebpf4jnsgd1na2vs0mg"},{"bike_id":"38a91666-5531-4645-9b69-7065fe5fe443","system_id":"levelo_inurba_marseille","lat":43.27579,"lon":5.3843,"is_reserved":false,"is_disabled":false,"rental_uris":{"android":"levelo://app?vid=38a91666-5531-4645-9b69-7065fe5fe443","ios":"levelo://app?vid=38a91666-5531-4645-9b69-7065fe5fe443"},"vehicle_type_id":"4","last_reported":1761135731,"current_range_meters":19200,"station_id":"ce4bhh92rcd13ifvqfi0","pricing_plan_id":"cebpf4jnsgd1na2vs0mg"},{"bike_id":"bc1ce556-4f70-40b2-a104-08b26a535c74","system_id":"levelo_inurba_marseille","lat":43.22564,"lon":5.41634,"is_reserved":false,"is_disabled":false,"rental_uris":{"android":"levelo://app?vid=bc1ce556-4f70-40b2-a104-08b26a535c74","ios":"levelo://app?vid=bc1ce556-4f70-40b2-a104-08b26a535c74"},"vehicle_type_id":"4","last_reported":1761135731,"current_range_meters":19200,"station_id":"st_d2o4gvlbi1j2169b742g","pricing_plan_id":"cebpf4jnsgd1na2vs0mg"},{"bike_id":"a72f33d4-c8c3-41c7-9f2f-0c59907fcbba","system_id":"levelo_inurba_marseille","lat":43.273751,"lon":5.362626,"is_reserved":false,"is_disabled":false,"rental_uris":{"android":"levelo://app?vid=a72f33d4-c8c3-41c7-9f2f-0c59907fcbba","ios":"levelo://app?vid=a72f33d4-c8c3-41c7-9f2f-0c59907fcbba"},"vehicle_type_id":"4","last_reported":1761135731,"current_range_meters":19200,"station_id":"ce4bhbh2rcd13ifvqeo0","pricing_plan_id":"cebpf4jnsgd1na2vs0mg"},{"bike_id":"900512a2-14c6-421d-969e-c3dc812fd854","system_id":"levelo_inurba_marseille","lat":43.290305,"lon":5.372418,"is_reserved":false,"is_disabled":false,"rental_uris":{"android":"levelo://app?vid=900512a2-14c6-421d-969e-c3dc812fd854","ios":"levelo://app?vid=900512a2-14c6-421d-969e-c3dc812fd854"},"vehicle_type_id":"4","last_reported":1761135731,"current_range_meters":19200,"station_id":"","pricing_plan_id":"cebpf4jnsgd1na2vs0mg"},{"bike_id":"23e4735f-e2ae-4d73-883c-30a038d0feb1","system_id":"levelo_inurba_marseille","lat":43.32287,"lon":5.38263,"is_reserved":false,"is_disabled":false,"rental_uris":{"android":"levelo://app?vid=23e4735f-e2ae-4d73-883c-30a038d0feb1","ios":"levelo://app?vid=23e4735f-e2ae-4d73-883c-30a038d0feb1"},"vehicle_type_id":"4","last_reported":1761135731,"current_range_meters":19600,"station_id":"ce4bhr12rcd13ifvqhqg","pricing_plan_id":"cebpf4jnsgd1na2vs0mg"},{"bike_id":"954002ef-8069-4a73-9af2-4a86737c08e2","system_id":"levelo_inurba_marseille","lat":43.28177,"lon":5.42638,"is_reserved":false,"is_disabled":false,"rental_uris":{"android":"levelo://app?vid=954002ef-8069-4a73-9af2-4a86737c08e2","ios":"levelo://app?vid=954002ef-8069-4a73-9af2-4a86737c08e2"},"vehicle_type_id":"4","last_reported":1761135731,"current_range_meters":19600,"station_id":"ce4bhnh2rcd13ifvqgug","pricing_plan_id":"cebpf4jnsgd1na2vs0mg"},{"bike_id":"75eebb0f-2447-4bf8-b846-45b5b359059b","system_id":"levelo_inurba_marseille","lat":43.337572,"lon":5.374903,"is_reserved":false,"is_disabled":false,"rental_uris":{"android":"levelo://app?vid=75eebb0f-2447-4bf8-b846-45b5b359059b","ios":"levelo://app?vid=75eebb0f-2447-4bf8-b846-45b5b359059b"},"vehicle_type_id":"4","last_reported":1761135731,"current_range_meters":19600,"station_id":"","pricing_plan_id":"cebpf4jnsgd1na2vs0mg"},{"bike_id":"692a999f-f646-43fe-b949-d58fd32447f4","system_id":"levelo_inurba_marseille","lat":43.32551,"lon":5.39007,"is_reserved":false,"is_disabled":false,"rental_uris":{"android":"levelo://app?vid=692a999f-f646-43fe-b949-d58fd32447f4","ios":"levelo://app?vid=692a999f-f646-43fe-b949-d58fd32447f4"},"vehicle_type_id":"4","last_reported":1761135731,"current_range_meters":19600,"station_id":"","pricing_plan_id":"cebpf4jnsgd1na2vs0mg"},{"bike_id":"9393f9ef-7253-457f-bdcb-e284d908af29","system_id":"levelo_inurba_marseille","lat":43.28851,"lon":5.35852,"is_reserved":false,"is_disabled":false,"rental_uris":{"android":"levelo://app?vid=9393f9ef-7253-457f-bdcb-e284d908af29","ios":"levelo://app?vid=9393f9ef-7253-457f-bdcb-e284d908af29"},"vehicle_type_id":"4","last_reported":1761135731,"current_range_meters":19600,"station_id":"ce4bhb12rcd13ifvqem0","pricing_plan_id":"cebpf4jnsgd1na2vs0mg"},{"bike_id":"13ffca06-ecc4-46ee-aa82-6818647126c8","system_id":"levelo_inurba_marseille","lat":43.29909,"lon":5.43677,"is_reserved":false,"is_disabled":false,"rental_uris":{"android":"levelo://app?vid=13ffca06-ecc4-46ee-aa82-6818647126c8","ios":"levelo://app?vid=13ffca06-ecc4-46ee-aa82-6818647126c8"},"vehicle_type_id":"4","last_reported":1761135731,"current_range_meters":19600,"station_id":"ce4bhpp2rcd13ifvqhfg","pricing_plan_id":"cebpf4jnsgd1na2vs0mg"},{"bike_id":"86181e2a-9af6-447f-b0e1-1836af49734a","system_id":"levelo_inurba_marseille","lat":43.25937,"lon":5.40908,"is_reserved":false,"is_disabled":false,"rental_uris":{"android":"levelo://app?vid=86181e2a-9af6-447f-b0e1-1836af49734a","ios":"levelo://app?vid=86181e2a-9af6-447f-b0e1-1836af49734a"},"vehicle_type_id":"4","last_reported":1761135731,"current_range_meters":19600,"station_id":"ce4bhm92rcd13ifvqglg","pricing_plan_id":"cebpf4jnsgd1na2vs0mg"},{"bike_id":"f96a7626-86a5-47ef-adf5-28feb0b7f0ac","system_id":"levelo_inurba_marseille","lat":43.27214,"lon":5.39167,"is_reserved":false,"is_disabled":false,"rental_uris":{"android":"levelo://app?vid=f96a7626-86a5-47ef-adf5-28feb0b7f0ac","ios":"levelo://app?vid=f96a7626-86a5-47ef-adf5-28feb0b7f0ac"},"vehicle_type_id":"4","last_reported":1761135731,"current_range_meters":19600,"station_id":"","pricing_plan_id":"cebpf4jnsgd1na2vs0mg"},{"bike_id":"6eb9cec2-9853-41d7-ad07-81e478775a6f","system_id":"levelo_inurba_marseille","lat":43.317147,"lon":5.424003,"is_reserved":false,"is_disabled":false,"rental_uris":{"android":"levelo://app?vid=6eb9cec2-9853-41d7-ad07-81e478775a6f","ios":"levelo://app?vid=6eb9cec2-9853-41d7-ad07-81e478775a6f"},"vehicle_type_id":"4","last_reported":1761135731,"current_range_meters":20000,"station_id":"ce4bhp92rcd13ifvqhbg","pricing_plan_id":"cebpf4jnsgd1na2vs0mg"},{"bike_id":"58691b84-05c1-40a6-9eca-73c5b71a3b5c","system_id":"levelo_inurba_marseille","lat":43.24386,"lon":5.37056,"is_reserved":false,"is_disabled":false,"rental_uris":{"android":"levelo://app?vid=58691b84-05c1-40a6-9eca-73c5b71a3b5c","ios":"levelo://app?vid=58691b84-05c1-40a6-9eca-73c5b71a3b5c"},"vehicle_type_id":"4","last_reported":1761135731,"current_range_meters":20000,"station_id":"ce4bhhh2rcd13ifvqfk0","pricing_plan_id":"cebpf4jnsgd1na2vs0mg"},{"bike_id":"d9f4453a-b041-4d4d-b6f9-599555369608","system_id":"levelo_inurba_marseille","lat":43.30553,"lon":5.36525,"is_reserved":false,"is_disabled":false,"rental_uris":{"android":"levelo://app?vid=d9f4453a-b041-4d4d-b6f9-599555369608","ios":"levelo://app?vid=d9f4453a-b041-4d4d-b6f9-599555369608"},"vehicle_type_id":"4","last_reported":1761135731,"current_range_meters":20000,"station_id":"ce4bgs12rcd13ifvqcag","pricing_plan_id":"cebpf4jnsgd1na2vs0mg"},{"bike_id":"7e29b7b2-0f9f-45d3-8c19-2b59c104f08b","system_id":"levelo_inurba_marseille","lat":43.30328,"lon":5.36893,"is_reserved":false,"is_disabled":false,"rental_uris":{"android":"levelo://app?vid=7e29b7b2-0f9f-45d3-8c19-2b59c104f08b","ios":"levelo://app?vid=7e29b7b2-0f9f-45d3-8c19-2b59c104f08b"},"vehicle_type_id":"4","last_reported":1761135731,"current_range_meters":20000,"station_id":"ce4bgqh2rcd13ifvqc5g","pricing_plan_id":"cebpf4jnsgd1na2vs0mg"},{"bike_id":"79db06a8-8d0b-4f68-a2e3-4948c01bcef4","system_id":"levelo_inurba_marseille","lat":43.255916,"lon":5.382336,"is_reserved":false,"is_disabled":false,"rental_uris":{"android":"levelo://app?vid=79db06a8-8d0b-4f68-a2e3-4948c01bcef4","ios":"levelo://app?vid=79db06a8-8d0b-4f68-a2e3-4948c01bcef4"},"vehicle_type_id":"4","last_reported":1761135731,"current_range_meters":20000,"station_id":"ce4bhih2rcd13ifvqfs0","pricing_plan_id":"cebpf4jnsgd1na2vs0mg"},{"bike_id":"6872eaaa-65f8-4d06-a403-84075684fe08","system_id":"levelo_inurba_marseille","lat":43.29259,"lon":5.37622,"is_reserved":false,"is_disabled":false,"rental_uris":{"android":"levelo://app?vid=6872eaaa-65f8-4d06-a403-84075684fe08","ios":"levelo://app?vid=6872eaaa-65f8-4d06-a403-84075684fe08"},"vehicle_type_id":"4","last_reported":1761135731,"current_range_meters":20000,"station_id":"ce4bgi12rcd13ifvqb80","pricing_plan_id":"cebpf4jnsgd1na2vs0mg"},{"bike_id":"035ca1d7-233f-4f69-9569-4f3393764361","system_id":"levelo_inurba_marseille","lat":43.30856,"lon":5.37327,"is_reserved":false,"is_disabled":false,"rental_uris":{"android":"levelo://app?vid=035ca1d7-233f-4f69-9569-4f3393764361","ios":"levelo://app?vid=035ca1d7-233f-4f69-9569-4f3393764361"},"vehicle_type_id":"4","last_reported":1761135731,"current_range_meters":20000,"station_id":"","pricing_plan_id":"cebpf4jnsgd1na2vs0mg"},{"bike_id":"814d76c3-0098-4200-b96c-1c6315d3a0c0","system_id":"levelo_inurba_marseille","lat":43.297839,"lon":5.381212,"is_reserved":false,"is_disabled":false,"rental_uris":{"android":"levelo://app?vid=814d76c3-0098-4200-b96c-1c6315d3a0c0","ios":"levelo://app?vid=814d76c3-0098-4200-b96c-1c6315d3a0c0"},"vehicle_type_id":"4","last_reported":1761135731,"current_range_meters":20000,"station_id":"ce4bho92rcd13ifvqh4g","pricing_plan_id":"cebpf4jnsgd1na2vs0mg"},{"bike_id":"265ffbc0-e60e-4406-8810-87e0abc2b983","system_id":"levelo_inurba_marseille","lat":43.23954,"lon":5.36636,"is_reserved":false,"is_disabled":false,"rental_uris":{"android":"levelo://app?vid=265ffbc0-e60e-4406-8810-87e0abc2b983","ios":"levelo://app?vid=265ffbc0-e60e-4406-8810-87e0abc2b983"},"vehicle_type_id":"4","last_reported":1761135731,"current_range_meters":20000,"station_id":"ce4bhi12rcd13ifvqfp0","pricing_plan_id":"cebpf4jnsgd1na2vs0mg"},{"bike_id":"88b2962d-442b-480d-a54f-7ba286a29a00","system_id":"levelo_inurba_marseille","lat":43.31211,"lon":5.36858,"is_reserved":false,"is_disabled":false,"rental_uris":{"android":"levelo://app?vid=88b2962d-442b-480d-a54f-7ba286a29a00","ios":"levelo://app?vid=88b2962d-442b-480d-a54f-7ba286a29a00"},"vehicle_type_id":"4","last_reported":1761135731,"current_range_meters":20000,"station_id":"ce4bgl92rcd13ifvqbq0","pricing_plan_id":"cebpf4jnsgd1na2vs0mg"},{"bike_id":"8bcacd78-80de-4026-af75-b37ebe3030fe","system_id":"levelo_inurba_marseille","lat":43.334756,"lon":5.404255,"is_reserved":false,"is_disabled":false,"rental_uris":{"android":"levelo://app?vid=8bcacd78-80de-4026-af75-b37ebe3030fe","ios":"levelo://app?vid=8bcacd78-80de-4026-af75-b37ebe3030fe"},"vehicle_type_id":"4","last_reported":1761135731,"current_range_meters":20000,"station_id":"","pricing_plan_id":"cebpf4jnsgd1na2vs0mg"},{"bike_id":"27acfebf-8743-48f0-8474-f5519d36a2a6","system_id":"levelo_inurba_marseille","lat":43.30125,"lon":5.38787,"is_reserved":false,"is_disabled":false,"rental_uris":{"android":"levelo://app?vid=27acfebf-8743-48f0-8474-f5519d36a2a6","ios":"levelo://app?vid=27acfebf-8743-48f0-8474-f5519d36a2a6"},"vehicle_type_id":"4","last_reported":1761135731,"current_range_meters":20000,"station_id":"ce4bghh2rcd13ifvqb60","pricing_plan_id":"cebpf4jnsgd1na2vs0mg"},{"bike_id":"4de5a3a5-3b6e-4ce7-8372-1db61e216cbe","system_id":"levelo_inurba_marseille","lat":43.2463,"lon":5.43157,"is_reserved":false,"is_disabled":false,"rental_uris":{"android":"levelo://app?vid=4de5a3a5-3b6e-4ce7-8372-1db61e216cbe","ios":"levelo://app?vid=4de5a3a5-3b6e-4ce7-8372-1db61e216cbe"},"vehicle_type_id":"4","last_reported":1761135731,"current_range_meters":20000,"station_id":"st_d2m6c4gdas8pm72e190g","pricing_plan_id":"cebpf4jnsgd1na2vs0mg"},{"bike_id":"9c023054-f387-47db-bf1d-2774b5d6d642","system_id":"levelo_inurba_marseille","lat":43.31712,"lon":5.38178,"is_reserved":false,"is_disabled":false,"rental_uris":{"android":"levelo://app?vid=9c023054-f387-47db-bf1d-2774b5d6d642","ios":"levelo://app?vid=9c023054-f387-47db-bf1d-2774b5d6d642"},"vehicle_type_id":"4","last_reported":1761135731,"current_range_meters":20000,"station_id":"","pricing_plan_id":"cebpf4jnsgd1na2vs0mg"},{"bike_id":"14bba554-dfdf-4ab0-b798-1fbca9420bc5","system_id":"levelo_inurba_marseille","lat":43.28265,"lon":5.35057,"is_reserved":false,"is_disabled":false,"rental_uris":{"android":"levelo://app?vid=14bba554-dfdf-4ab0-b798-1fbca9420bc5","ios":"levelo://app?vid=14bba554-dfdf-4ab0-b798-1fbca9420bc5"},"vehicle_type_id":"4","last_reported":1761135731,"current_range_meters":20000,"station_id":"ce4bhbp2rcd13ifvqerg","pricing_plan_id":"cebpf4jnsgd1na2vs0mg"},{"bike_id":"26ecfd90-2879-4ffd-b3cb-633752b421a5","system_id":"levelo_inurba_marseille","lat":43.2655,"lon":5.3729,"is_reserved":false,"is_disabled":false,"rental_uris":{"android":"levelo://app?vid=26ecfd90-2879-4ffd-b3cb-633752b421a5","ios":"levelo://app?vid=26ecfd90-2879-4ffd-b3cb-633752b421a5"},"vehicle_type_id":"4","last_reported":1761135731,"current_range_meters":20400,"station_id":"ce4bhg12rcd13ifvqf70","pricing_plan_id":"cebpf4jnsgd1na2vs0mg"},{"bike_id":"e437460d-805d-4c07-9b55-237013e207ed","system_id":"levelo_inurba_marseille","lat":43.307962,"lon":5.381422,"is_reserved":false,"is_disabled":true,"rental_uris":{"android":"levelo://app?vid=e437460d-805d-4c07-9b55-237013e207ed","ios":"levelo://app?vid=e437460d-805d-4c07-9b55-237013e207ed"},"vehicle_type_id":"4","last_reported":1761135731,"current_range_meters":20400,"station_id":"ce4bgt12rcd13ifvqce0","pricing_plan_id":"cebpf4jnsgd1na2vs0mg"},{"bike_id":"48b84716-1dc4-4e68-8b3f-28fa080f39d3","system_id":"levelo_inurba_marseille","lat":43.292751,"lon":5.368366,"is_reserved":false,"is_disabled":false,"rental_uris":{"android":"levelo://app?vid=48b84716-1dc4-4e68-8b3f-28fa080f39d3","ios":"levelo://app?vid=48b84716-1dc4-4e68-8b3f-28fa080f39d3"},"vehicle_type_id":"4","last_reported":1761135731,"current_range_meters":20400,"station_id":"","pricing_plan_id":"cebpf4jnsgd1na2vs0mg"},{"bike_id":"d9f7f1c1-1484-4a53-aa3a-b215ce5c380f","system_id":"levelo_inurba_marseille","lat":43.23192,"lon":5.3555,"is_reserved":false,"is_disabled":false,"rental_uris":{"android":"levelo://app?vid=d9f7f1c1-1484-4a53-aa3a-b215ce5c380f","ios":"levelo://app?vid=d9f7f1c1-1484-4a53-aa3a-b215ce5c380f"},"vehicle_type_id":"4","last_reported":1761135731,"current_range_meters":20400,"station_id":"ce4bhu92rcd13ifvqi70","pricing_plan_id":"cebpf4jnsgd1na2vs0mg"},{"bike_id":"fa5f9595-b313-48d1-bf52-8ef81d00c6e4","system_id":"levelo_inurba_marseille","lat":43.2893,"lon":5.36638,"is_reserved":false,"is_disabled":false,"rental_uris":{"android":"levelo://app?vid=fa5f9595-b313-48d1-bf52-8ef81d00c6e4","ios":"levelo://app?vid=fa5f9595-b313-48d1-bf52-8ef81d00c6e4"},"vehicle_type_id":"4","last_reported":1761135731,"current_range_meters":20400,"station_id":"ce4bhap2rcd13ifvqek0","pricing_plan_id":"cebpf4jnsgd1na2vs0mg"},{"bike_id":"8b568fab-e273-49f6-bdca-e47680ec431f","system_id":"levelo_inurba_marseille","lat":43.337959,"lon":5.374369,"is_reserved":false,"is_disabled":false,"rental_uris":{"android":"levelo://app?vid=8b568fab-e273-49f6-bdca-e47680ec431f","ios":"levelo://app?vid=8b568fab-e273-49f6-bdca-e47680ec431f"},"vehicle_type_id":"4","last_reported":1761135731,"current_range_meters":20800,"station_id":"","pricing_plan_id":"cebpf4jnsgd1na2vs0mg"},{"bike_id":"58a77564-4c48-4f8a-a9d9-51d5c5aa56c6","system_id":"levelo_inurba_marseille","lat":43.30525,"lon":5.36712,"is_reserved":false,"is_disabled":false,"rental_uris":{"android":"levelo://app?vid=58a77564-4c48-4f8a-a9d9-51d5c5aa56c6","ios":"levelo://app?vid=58a77564-4c48-4f8a-a9d9-51d5c5aa56c6"},"vehicle_type_id":"4","last_reported":1761135731,"current_range_meters":20800,"station_id":"ce4bgrp2rcd13ifvqc9g","pricing_plan_id":"cebpf4jnsgd1na2vs0mg"},{"bike_id":"745eb1d9-36e7-43e9-ab13-378f0c560a0c","system_id":"levelo_inurba_marseille","lat":43.33729,"lon":5.39189,"is_reserved":false,"is_disabled":true,"rental_uris":{"android":"levelo://app?vid=745eb1d9-36e7-43e9-ab13-378f0c560a0c","ios":"levelo://app?vid=745eb1d9-36e7-43e9-ab13-378f0c560a0c"},"vehicle_type_id":"4","last_reported":1761135731,"current_range_meters":20800,"station_id":"ce4bhr92rcd13ifvqhsg","pricing_plan_id":"cebpf4jnsgd1na2vs0mg"},{"bike_id":"088fafca-bb49-415a-8c81-5041fa87acef","system_id":"levelo_inurba_marseille","lat":43.30313,"lon":5.36887,"is_reserved":false,"is_disabled":false,"rental_uris":{"android":"levelo://app?vid=088fafca-bb49-415a-8c81-5041fa87acef","ios":"levelo://app?vid=088fafca-bb49-415a-8c81-5041fa87acef"},"vehicle_type_id":"4","last_reported":1761135731,"current_range_meters":20800,"station_id":"ce4bgqh2rcd13ifvqc5g","pricing_plan_id":"cebpf4jnsgd1na2vs0mg"},{"bike_id":"3f39f326-54eb-4aae-a58b-8646f373029d","system_id":"levelo_inurba_marseille","lat":43.24384,"lon":5.37069,"is_reserved":false,"is_disabled":false,"rental_uris":{"android":"levelo://app?vid=3f39f326-54eb-4aae-a58b-8646f373029d","ios":"levelo://app?vid=3f39f326-54eb-4aae-a58b-8646f373029d"},"vehicle_type_id":"4","last_reported":1761135731,"current_range_meters":20800,"station_id":"ce4bhhh2rcd13ifvqfk0","pricing_plan_id":"cebpf4jnsgd1na2vs0mg"},{"bike_id":"f1767e8c-7fb7-4f51-b9bb-5ad11a10d1fc","system_id":"levelo_inurba_marseille","lat":43.315275,"lon":5.380351,"is_reserved":false,"is_disabled":false,"rental_uris":{"android":"levelo://app?vid=f1767e8c-7fb7-4f51-b9bb-5ad11a10d1fc","ios":"levelo://app?vid=f1767e8c-7fb7-4f51-b9bb-5ad11a10d1fc"},"vehicle_type_id":"4","last_reported":1761135731,"current_range_meters":20800,"station_id":"ce4bhsp2rcd13ifvqi50","pricing_plan_id":"cebpf4jnsgd1na2vs0mg"},{"bike_id":"ea418a9e-00a4-4180-856c-feac78f9a5ff","system_id":"levelo_inurba_marseille","lat":43.2956,"lon":5.42286,"is_reserved":false,"is_disabled":false,"rental_uris":{"android":"levelo://app?vid=ea418a9e-00a4-4180-856c-feac78f9a5ff","ios":"levelo://app?vid=ea418a9e-00a4-4180-856c-feac78f9a5ff"},"vehicle_type_id":"4","last_reported":1761135731,"current_range_meters":20800,"station_id":"ce4bhph2rcd13ifvqhdg","pricing_plan_id":"cebpf4jnsgd1na2vs0mg"},{"bike_id":"bc5270d3-d28a-4a8c-82f0-1f1b8b07ccf0","system_id":"levelo_inurba_marseille","lat":43.30305,"lon":5.36876,"is_reserved":false,"is_disabled":false,"rental_uris":{"android":"levelo://app?vid=bc5270d3-d28a-4a8c-82f0-1f1b8b07ccf0","ios":"levelo://app?vid=bc5270d3-d28a-4a8c-82f0-1f1b8b07ccf0"},"vehicle_type_id":"4","last_reported":1761135731,"current_range_meters":21600,"station_id":"ce4bgqh2rcd13ifvqc5g","pricing_plan_id":"cebpf4jnsgd1na2vs0mg"},{"bike_id":"af37513c-3b30-47b4-a01a-74ad197a4d8a","system_id":"levelo_inurba_marseille","lat":43.25934,"lon":5.40912,"is_reserved":false,"is_disabled":false,"rental_uris":{"android":"levelo://app?vid=af37513c-3b30-47b4-a01a-74ad197a4d8a","ios":"levelo://app?vid=af37513c-3b30-47b4-a01a-74ad197a4d8a"},"vehicle_type_id":"4","last_reported":1761135731,"current_range_meters":21600,"station_id":"ce4bhm92rcd13ifvqglg","pricing_plan_id":"cebpf4jnsgd1na2vs0mg"},{"bike_id":"5deb1481-0f0e-41e1-a1ba-0d8c0e934059","system_id":"levelo_inurba_marseille","lat":43.33587,"lon":5.40983,"is_reserved":false,"is_disabled":false,"rental_uris":{"android":"levelo://app?vid=5deb1481-0f0e-41e1-a1ba-0d8c0e934059","ios":"levelo://app?vid=5deb1481-0f0e-41e1-a1ba-0d8c0e934059"},"vehicle_type_id":"4","last_reported":1761135731,"current_range_meters":21600,"station_id":"ce4bhqh2rcd13ifvqhmg","pricing_plan_id":"cebpf4jnsgd1na2vs0mg"},{"bike_id":"15b13ee0-f74d-44ce-bded-66c5548b39ce","system_id":"levelo_inurba_marseille","lat":43.24075,"lon":5.37749,"is_reserved":false,"is_disabled":false,"rental_uris":{"android":"levelo://app?vid=15b13ee0-f74d-44ce-bded-66c5548b39ce","ios":"levelo://app?vid=15b13ee0-f74d-44ce-bded-66c5548b39ce"},"vehicle_type_id":"4","last_reported":1761135731,"current_range_meters":21600,"station_id":"ce4bhnp2rcd13ifvqgvg","pricing_plan_id":"cebpf4jnsgd1na2vs0mg"},{"bike_id":"55adc491-cf1b-4ad8-8d4b-c7696b077e05","system_id":"levelo_inurba_marseille","lat":43.3206,"lon":5.41552,"is_reserved":false,"is_disabled":false,"rental_uris":{"android":"levelo://app?vid=55adc491-cf1b-4ad8-8d4b-c7696b077e05","ios":"levelo://app?vid=55adc491-cf1b-4ad8-8d4b-c7696b077e05"},"vehicle_type_id":"4","last_reported":1761135731,"current_range_meters":21600,"station_id":"ce4bhq92rcd13ifvqhkg","pricing_plan_id":"cebpf4jnsgd1na2vs0mg"},{"bike_id":"bd38ac37-a773-4a3d-af0f-c9eb0aba0be9","system_id":"levelo_inurba_marseille","lat":43.27055,"lon":5.40255,"is_reserved":false,"is_disabled":false,"rental_uris":{"android":"levelo://app?vid=bd38ac37-a773-4a3d-af0f-c9eb0aba0be9","ios":"levelo://app?vid=bd38ac37-a773-4a3d-af0f-c9eb0aba0be9"},"vehicle_type_id":"4","last_reported":1761135731,"current_range_meters":21600,"station_id":"ce4bhk92rcd13ifvqgc0","pricing_plan_id":"cebpf4jnsgd1na2vs0mg"},{"bike_id":"848732f0-de57-4c7b-8c1c-59414a9d2707","system_id":"levelo_inurba_marseille","lat":43.26196,"lon":5.37445,"is_reserved":false,"is_disabled":false,"rental_uris":{"android":"levelo://app?vid=848732f0-de57-4c7b-8c1c-59414a9d2707","ios":"levelo://app?vid=848732f0-de57-4c7b-8c1c-59414a9d2707"},"vehicle_type_id":"4","last_reported":1761135731,"current_range_meters":21600,"station_id":"ce4bhgp2rcd13ifvqfc0","pricing_plan_id":"cebpf4jnsgd1na2vs0mg"},{"bike_id":"bdcd4dfa-7e63-495d-a24e-17b0a60bf1f9","system_id":"levelo_inurba_marseille","lat":43.28872,"lon":5.42516,"is_reserved":false,"is_disabled":false,"rental_uris":{"android":"levelo://app?vid=bdcd4dfa-7e63-495d-a24e-17b0a60bf1f9","ios":"levelo://app?vid=bdcd4dfa-7e63-495d-a24e-17b0a60bf1f9"},"vehicle_type_id":"4","last_reported":1761135731,"current_range_meters":22000,"station_id":"st_d3b462108ojc7389ooeg","pricing_plan_id":"cebpf4jnsgd1na2vs0mg"},{"bike_id":"2172ef7f-240b-4c72-bf8d-26c79cc1f73d","system_id":"levelo_inurba_marseille","lat":43.29921,"lon":5.4368,"is_reserved":false,"is_disabled":false,"rental_uris":{"android":"levelo://app?vid=2172ef7f-240b-4c72-bf8d-26c79cc1f73d","ios":"levelo://app?vid=2172ef7f-240b-4c72-bf8d-26c79cc1f73d"},"vehicle_type_id":"4","last_reported":1761135731,"current_range_meters":22000,"station_id":"ce4bhpp2rcd13ifvqhfg","pricing_plan_id":"cebpf4jnsgd1na2vs0mg"},{"bike_id":"9a1972b5-72a6-4763-9884-2f966099622e","system_id":"levelo_inurba_marseille","lat":43.30013,"lon":5.37673,"is_reserved":false,"is_disabled":false,"rental_uris":{"android":"levelo://app?vid=9a1972b5-72a6-4763-9884-2f966099622e","ios":"levelo://app?vid=9a1972b5-72a6-4763-9884-2f966099622e"},"vehicle_type_id":"4","last_reported":1761135731,"current_range_meters":22000,"station_id":"","pricing_plan_id":"cebpf4jnsgd1na2vs0mg"},{"bike_id":"ac1cb474-c925-40d8-b4e4-efbb5f66921b","system_id":"levelo_inurba_marseille","lat":43.30589,"lon":5.39353,"is_reserved":false,"is_disabled":false,"rental_uris":{"android":"levelo://app?vid=ac1cb474-c925-40d8-b4e4-efbb5f66921b","ios":"levelo://app?vid=ac1cb474-c925-40d8-b4e4-efbb5f66921b"},"vehicle_type_id":"4","last_reported":1761135731,"current_range_meters":22000,"station_id":"ce4bh0p2rcd13ifvqd80","pricing_plan_id":"cebpf4jnsgd1na2vs0mg"},{"bike_id":"9d3ee974-fef4-4beb-b4c9-4df0516693a8","system_id":"levelo_inurba_marseille","lat":43.296241,"lon":5.377181,"is_reserved":false,"is_disabled":false,"rental_uris":{"android":"levelo://app?vid=9d3ee974-fef4-4beb-b4c9-4df0516693a8","ios":"levelo://app?vid=9d3ee974-fef4-4beb-b4c9-4df0516693a8"},"vehicle_type_id":"4","last_reported":1761135731,"current_range_meters":22000,"station_id":"ce4bgih2rcd13ifvqba0","pricing_plan_id":"cebpf4jnsgd1na2vs0mg"},{"bike_id":"1e9a9b5f-770c-46b3-8fcc-c21952bc6cdb","system_id":"levelo_inurba_marseille","lat":43.231593,"lon":5.437086,"is_reserved":false,"is_disabled":false,"rental_uris":{"android":"levelo://app?vid=1e9a9b5f-770c-46b3-8fcc-c21952bc6cdb","ios":"levelo://app?vid=1e9a9b5f-770c-46b3-8fcc-c21952bc6cdb"},"vehicle_type_id":"4","last_reported":1761135731,"current_range_meters":22000,"station_id":"ce4bhmp2rcd13ifvqgog","pricing_plan_id":"cebpf4jnsgd1na2vs0mg"},{"bike_id":"9514162b-54b7-4e5c-9ab8-d3862d9a0c79","system_id":"levelo_inurba_marseille","lat":43.304567,"lon":5.379102,"is_reserved":false,"is_disabled":false,"rental_uris":{"android":"levelo://app?vid=9514162b-54b7-4e5c-9ab8-d3862d9a0c79","ios":"levelo://app?vid=9514162b-54b7-4e5c-9ab8-d3862d9a0c79"},"vehicle_type_id":"4","last_reported":1761135731,"current_range_meters":22000,"station_id":"ce4bgup2rcd13ifvqcn0","pricing_plan_id":"cebpf4jnsgd1na2vs0mg"},{"bike_id":"f05f1499-2581-4d57-b54c-03f6765f35a0","system_id":"levelo_inurba_marseille","lat":43.259517,"lon":5.408754,"is_reserved":false,"is_disabled":false,"rental_uris":{"android":"levelo://app?vid=f05f1499-2581-4d57-b54c-03f6765f35a0","ios":"levelo://app?vid=f05f1499-2581-4d57-b54c-03f6765f35a0"},"vehicle_type_id":"4","last_reported":1761135731,"current_range_meters":22000,"station_id":"ce4bhm92rcd13ifvqglg","pricing_plan_id":"cebpf4jnsgd1na2vs0mg"},{"bike_id":"339ac88b-aba7-4e5d-876d-ed017b74af5e","system_id":"levelo_inurba_marseille","lat":43.30469,"lon":5.37899,"is_reserved":false,"is_disabled":false,"rental_uris":{"android":"levelo://app?vid=339ac88b-aba7-4e5d-876d-ed017b74af5e","ios":"levelo://app?vid=339ac88b-aba7-4e5d-876d-ed017b74af5e"},"vehicle_type_id":"4","last_reported":1761135731,"current_range_meters":22000,"station_id":"ce4bgup2rcd13ifvqcn0","pricing_plan_id":"cebpf4jnsgd1na2vs0mg"},{"bike_id":"81f3da82-33b1-4c2b-81ba-c4ef13e58609","system_id":"levelo_inurba_marseille","lat":43.27306,"lon":5.39076,"is_reserved":false,"is_disabled":false,"rental_uris":{"android":"levelo://app?vid=81f3da82-33b1-4c2b-81ba-c4ef13e58609","ios":"levelo://app?vid=81f3da82-33b1-4c2b-81ba-c4ef13e58609"},"vehicle_type_id":"4","last_reported":1761135731,"current_range_meters":22400,"station_id":"ce4bhgp2rcd13ifvqfe0","pricing_plan_id":"cebpf4jnsgd1na2vs0mg"},{"bike_id":"6e62cf1c-40f3-4230-ba3a-611416a731d6","system_id":"levelo_inurba_marseille","lat":43.21189,"lon":5.35073,"is_reserved":false,"is_disabled":false,"rental_uris":{"android":"levelo://app?vid=6e62cf1c-40f3-4230-ba3a-611416a731d6","ios":"levelo://app?vid=6e62cf1c-40f3-4230-ba3a-611416a731d6"},"vehicle_type_id":"4","last_reported":1761135731,"current_range_meters":22400,"station_id":"st_cvj6sg6p6f1abm77japg","pricing_plan_id":"cebpf4jnsgd1na2vs0mg"},{"bike_id":"8da1ab0a-99cf-4f57-855d-a40a02fd45b1","system_id":"levelo_inurba_marseille","lat":43.24394,"lon":5.37062,"is_reserved":false,"is_disabled":false,"rental_uris":{"android":"levelo://app?vid=8da1ab0a-99cf-4f57-855d-a40a02fd45b1","ios":"levelo://app?vid=8da1ab0a-99cf-4f57-855d-a40a02fd45b1"},"vehicle_type_id":"4","last_reported":1761135731,"current_range_meters":22400,"station_id":"ce4bhhh2rcd13ifvqfk0","pricing_plan_id":"cebpf4jnsgd1na2vs0mg"},{"bike_id":"7cee0061-d542-4d98-8e29-76e0e9a147ad","system_id":"levelo_inurba_marseille","lat":43.27375,"lon":5.36252,"is_reserved":false,"is_disabled":false,"rental_uris":{"android":"levelo://app?vid=7cee0061-d542-4d98-8e29-76e0e9a147ad","ios":"levelo://app?vid=7cee0061-d542-4d98-8e29-76e0e9a147ad"},"vehicle_type_id":"4","last_reported":1761135731,"current_range_meters":22400,"station_id":"ce4bhbh2rcd13ifvqeo0","pricing_plan_id":"cebpf4jnsgd1na2vs0mg"},{"bike_id":"078081c6-88c0-4f2d-a619-261bfa8b66b2","system_id":"levelo_inurba_marseille","lat":43.29819,"lon":5.4389,"is_reserved":false,"is_disabled":false,"rental_uris":{"android":"levelo://app?vid=078081c6-88c0-4f2d-a619-261bfa8b66b2","ios":"levelo://app?vid=078081c6-88c0-4f2d-a619-261bfa8b66b2"},"vehicle_type_id":"4","last_reported":1761135731,"current_range_meters":22400,"station_id":"","pricing_plan_id":"cebpf4jnsgd1na2vs0mg"},{"bike_id":"5acf1ee2-44dc-4844-ad36-023d59b2e5d1","system_id":"levelo_inurba_marseille","lat":43.24157,"lon":5.39652,"is_reserved":false,"is_disabled":false,"rental_uris":{"android":"levelo://app?vid=5acf1ee2-44dc-4844-ad36-023d59b2e5d1","ios":"levelo://app?vid=5acf1ee2-44dc-4844-ad36-023d59b2e5d1"},"vehicle_type_id":"4","last_reported":1761135731,"current_range_meters":22400,"station_id":"ce4bhn12rcd13ifvqgpg","pricing_plan_id":"cebpf4jnsgd1na2vs0mg"},{"bike_id":"d9ecb998-ceaa-4a39-8aba-9f0e44069447","system_id":"levelo_inurba_marseille","lat":43.32147,"lon":5.38731,"is_reserved":false,"is_disabled":false,"rental_uris":{"android":"levelo://app?vid=d9ecb998-ceaa-4a39-8aba-9f0e44069447","ios":"levelo://app?vid=d9ecb998-ceaa-4a39-8aba-9f0e44069447"},"vehicle_type_id":"4","last_reported":1761135731,"current_range_meters":22400,"station_id":"","pricing_plan_id":"cebpf4jnsgd1na2vs0mg"},{"bike_id":"83802814-8da1-4d74-997f-2eedaeb578da","system_id":"levelo_inurba_marseille","lat":43.28575,"lon":5.39489,"is_reserved":false,"is_disabled":false,"rental_uris":{"android":"levelo://app?vid=83802814-8da1-4d74-997f-2eedaeb578da","ios":"levelo://app?vid=83802814-8da1-4d74-997f-2eedaeb578da"},"vehicle_type_id":"4","last_reported":1761135731,"current_range_meters":22800,"station_id":"ce4bh292rcd13ifvqdg0","pricing_plan_id":"cebpf4jnsgd1na2vs0mg"},{"bike_id":"8ef09c09-0794-4bbd-89f3-c74aedb5cff1","system_id":"levelo_inurba_marseille","lat":43.28374,"lon":5.38646,"is_reserved":false,"is_disabled":false,"rental_uris":{"android":"levelo://app?vid=8ef09c09-0794-4bbd-89f3-c74aedb5cff1","ios":"levelo://app?vid=8ef09c09-0794-4bbd-89f3-c74aedb5cff1"},"vehicle_type_id":"4","last_reported":1761135731,"current_range_meters":22800,"station_id":"ce4bh492rcd13ifvqdvg","pricing_plan_id":"cebpf4jnsgd1na2vs0mg"},{"bike_id":"6552118e-9997-496d-8ae3-3aae82824535","system_id":"levelo_inurba_marseille","lat":43.32246,"lon":5.38357,"is_reserved":false,"is_disabled":false,"rental_uris":{"android":"levelo://app?vid=6552118e-9997-496d-8ae3-3aae82824535","ios":"levelo://app?vid=6552118e-9997-496d-8ae3-3aae82824535"},"vehicle_type_id":"4","last_reported":1761135731,"current_range_meters":22800,"station_id":"","pricing_plan_id":"cebpf4jnsgd1na2vs0mg"},{"bike_id":"f8c755d7-1bb8-4fcd-bb3f-74aeb49951cc","system_id":"levelo_inurba_marseille","lat":43.313666,"lon":5.378967,"is_reserved":false,"is_disabled":false,"rental_uris":{"android":"levelo://app?vid=f8c755d7-1bb8-4fcd-bb3f-74aeb49951cc","ios":"levelo://app?vid=f8c755d7-1bb8-4fcd-bb3f-74aeb49951cc"},"vehicle_type_id":"4","last_reported":1761135731,"current_range_meters":22800,"station_id":"","pricing_plan_id":"cebpf4jnsgd1na2vs0mg"},{"bike_id":"25510b45-08cd-431b-9096-a61c2284a027","system_id":"levelo_inurba_marseille","lat":43.31695,"lon":5.3819,"is_reserved":false,"is_disabled":false,"rental_uris":{"android":"levelo://app?vid=25510b45-08cd-431b-9096-a61c2284a027","ios":"levelo://app?vid=25510b45-08cd-431b-9096-a61c2284a027"},"vehicle_type_id":"4","last_reported":1761135731,"current_range_meters":22800,"station_id":"","pricing_plan_id":"cebpf4jnsgd1na2vs0mg"},