{"last_updated":1753733587,"ttl":60,"version":"2.2","data":{"bikes":[{"bike_id":"f1319388-bea7-428b-968b-cc2ce08e02cf","system_id":"levelo_inurba_marseille","lat":43.305855,"lon":5.372213,"is_reserved":false,"is_disabled":false,"rental_uris":{"android":"levelo://app?vid=f1319388-bea7-428b-968b-cc2ce08e02cf","ios":"levelo://app?vid=f1319388-bea7-428b-968b-cc2ce08e02cf"},"vehicle_type_id":"4","last_reported":1753733587,"current_range_meters":2800,"station_id":"","pricing_plan_id":"cebpf4jnsgd1na2vs0mg"},{"bike_id":"dac588d7-495d-4e69-9b93-17d9b421b548","system_id":"levelo_inurba_marseille","lat":43.29172,"lon":5.37172,"is_reserved":false,"is_disabled":false,"rental_uris":{"android":"levelo://app?vid=dac588d7-495d-4e69-9b93-17d9b421b548","ios":"levelo://app?vid=dac588d7-495d-4e69-9b93-17d9b421b548"},"vehicle_type_id":"4","last_reported":1753733587,"current_range_meters":3200,"station_id":"ce4bha92rcd13ifvqeh0","pricing_plan_id":"cebpf4jnsgd1na2vs0mg"},{"bike_id":"042a8476-d3c4-476b-9557-f32c03e9d625","system_id":"levelo_inurba_marseille","lat":43.3395,"lon":5.35739,"is_reserved":false,"is_disabled":false,"rental_uris":{"android":"levelo://app?vid=042a8476-d3c4-476b-9557-f32c03e9d625","ios":"levelo://app?vid=042a8476-d3c4-476b-9557-f32c03e9d625"},"vehicle_type_id":"4","last_reported":1753733587,"current_range_meters":3200,"station_id":"","pricing_plan_id":"cebpf4jnsgd1na2vs0mg"},{"bike_id":"f2402a96-c208-4f6f-a8ee-42a761693bc2","system_id":"levelo_inurba_marseille","lat":43.27946,"lon":5.41053,"is_reserved":false,"is_disabled":false,"rental_uris":{"android":"levelo://app?vid=f2402a96-c208-4f6f-a8ee-42a761693bc2","ios":"levelo://app?vid=f2402a96-c208-4f6f-a8ee-42a761693bc2"},"vehicle_type_id":"4","last_reported":1753733587,"current_range_meters":3600,"station_id":"ce4bhnp2rcd13ifvqh0g","pricing_plan_id":"cebpf4jnsgd1na2vs0mg"},{"bike_id":"7e65c5ea-0429-45f5-a396-bd32e67f0744","system_id":"levelo_inurba_marseille","lat":43.33474,"lon":5.40043,"is_reserved":false,"is_disabled":false,"rental_uris":{"android":"levelo://app?vid=7e65c5ea-0429-45f5-a396-bd32e67f0744","ios":"levelo://app?vid=7e65c5ea-0429-45f5-a396-bd32e67f0744"},"vehicle_type_id":"4","last_reported":1753733587,"current_range_meters":4400,"station_id":"","pricing_plan_id":"cebpf4jnsgd1na2vs0mg"},{"bike_id":"e35fcfbd-f519-4325-9172-801d3707319b","system_id":"levelo_inurba_marseille","lat":43.28718,"lon":5.37941,"is_reserved":false,"is_disabled":false,"rental_uris":{"android":"levelo://app?vid=e35fcfbd-f519-4325-9172-801d3707319b","ios":"levelo://app?vid=e35fcfbd-f519-4325-9172-801d3707319b"},"vehicle_type_id":"4","last_reported":1753733587,"current_range_meters":4800,"station_id":"ce4bh9p2rcd13ifvqec0","pricing_plan_id":"cebpf4jnsgd1na2vs0mg"},{"bike_id":"ec42fb6b-075e-444d-9f5b-c4f4aa64b3be","system_id":"levelo_inurba_marseille","lat":43.2894,"lon":5.36634,"is_reserved":false,"is_disabled":false,"rental_uris":{"android":"levelo://app?vid=ec42fb6b-075e-444d-9f5b-c4f4aa64b3be","ios":"levelo://app?vid=ec42fb6b-075e-444d-9f5b-c4f4aa64b3be"},"vehicle_type_id":"4","last_reported":1753733587,"current_range_meters":4800,"station_id":"ce4bhap2rcd13ifvqek0","pricing_plan_id":"cebpf4jnsgd1na2vs0mg"},{"bike_id":"a4f2aaa9-2276-4bad-8f3c-97ce00d95922","system_id":"levelo_inurba_marseille","lat":43.31712,"lon":5.43711,"is_reserved":false,"is_disabled":false,"rental_uris":{"android":"levelo://app?vid=a4f2aaa9-2276-4bad-8f3c-97ce00d95922","ios":"levelo://app?vid=a4f2aaa9-2276-4bad-8f3c-97ce00d95922"},"vehicle_type_id":"4","last_reported":1753733587,"current_range_meters":4800,"station_id":"ce4bhp92rcd13ifvqhcg","pricing_plan_id":"cebpf4jnsgd1na2vs0mg"},{"bike_id":"bf85ff2c-1acd-41b3-ab73-adc499c01993","system_id":"levelo_inurba_marseille","lat":43.2963,"lon":5.40602,"is_reserved":false,"is_disabled":false,"rental_uris":{"android":"levelo://app?vid=bf85ff2c-1acd-41b3-ab73-adc499c01993","ios":"levelo://app?vid=bf85ff2c-1acd-41b3-ab73-adc499c01993"},"vehicle_type_id":"4","last_reported":1753733587,"current_range_meters":5600,"station_id":"ce4bh0h2rcd13ifvqd60","pricing_plan_id":"cebpf4jnsgd1na2vs0mg"},{"bike_id":"77ade77a-ca7b-4a58-a003-2dc11bd6040a","system_id":"levelo_inurba_marseille","lat":43.28477,"lon":5.38408,"is_reserved":false,"is_disabled":false,"rental_uris":{"android":"levelo://app?vid=77ade77a-ca7b-4a58-a003-2dc11bd6040a","ios":"levelo://app?vid=77ade77a-ca7b-4a58-a003-2dc11bd6040a"},"vehicle_type_id":"4","last_reported":1753733587,"current_range_meters":4800,"station_id":"ce4bh512rcd13ifvqe3g","pricing_plan_id":"cebpf4jnsgd1na2vs0mg"},{"bike_id":"77bd0b44-ee79-4b28-9980-3e9ac108ced9","system_id":"levelo_inurba_marseille","lat":43.31704,"lon":5.43703,"is_reserved":false,"is_disabled":false,"rental_uris":{"android":"levelo://app?vid=77bd0b44-ee79-4b28-9980-3e9ac108ced9","ios":"levelo://app?vid=77bd0b44-ee79-4b28-9980-3e9ac108ced9"},"vehicle_type_id":"4","last_reported":1753733587,"current_range_meters":6000,"station_id":"ce4bhp92rcd13ifvqhcg","pricing_plan_id":"cebpf4jnsgd1na2vs0mg"},{"bike_id":"078f11b0-bb56-4df0-87db-0c5d635cc500","system_id":"levelo_inurba_marseille","lat":43.22522,"lon":5.34789,"is_reserved":false,"is_disabled":false,"rental_uris":{"android":"levelo://app?vid=078f11b0-bb56-4df0-87db-0c5d635cc500","ios":"levelo://app?vid=078f11b0-bb56-4df0-87db-0c5d635cc500"},"vehicle_type_id":"4","last_reported":1753733587,"current_range_meters":6000,"station_id":"st_cvj5dfep6f1abm77gieg","pricing_plan_id":"cebpf4jnsgd1na2vs0mg"},{"bike_id":"56bf0055-e112-4078-b5aa-ffa4580277bd","system_id":"levelo_inurba_marseille","lat":43.316637,"lon":5.378037,"is_reserved":false,"is_disabled":false,"rental_uris":{"android":"levelo://app?vid=56bf0055-e112-4078-b5aa-ffa4580277bd","ios":"levelo://app?vid=56bf0055-e112-4078-b5aa-ffa4580277bd"},"vehicle_type_id":"4","last_reported":1753733587,"current_range_meters":6400,"station_id":"","pricing_plan_id":"cebpf4jnsgd1na2vs0mg"},{"bike_id":"0c5f5cf3-d0e1-4237-a3c4-4c4c2a309598","system_id":"levelo_inurba_marseille","lat":43.29308,"lon":5.37446,"is_reserved":false,"is_disabled":false,"rental_uris":{"android":"levelo://app?vid=0c5f5cf3-d0e1-4237-a3c4-4c4c2a309598","ios":"levelo://app?vid=0c5f5cf3-d0e1-4237-a3c4-4c4c2a309598"},"vehicle_type_id":"4","last_reported":1753733587,"current_range_meters":6400,"station_id":"ce4bgi12rcd13ifvqb70","pricing_plan_id":"cebpf4jnsgd1na2vs0mg"},{"bike_id":"57d2148b-4900-48dc-9253-f8ca7d2e9d8a","system_id":"levelo_inurba_marseille","lat":43.303122,"lon":5.405017,"is_reserved":false,"is_disabled":false,"rental_uris":{"android":"levelo://app?vid=57d2148b-4900-48dc-9253-f8ca7d2e9d8a","ios":"levelo://app?vid=57d2148b-4900-48dc-9253-f8ca7d2e9d8a"},"vehicle_type_id":"4","last_reported":1753733587,"current_range_meters":6400,"station_id":"","pricing_plan_id":"cebpf4jnsgd1na2vs0mg"},{"bike_id":"198a8a48-9082-408a-ac7c-20dca32fbf4e","system_id":"levelo_inurba_marseille","lat":43.32054,"lon":5.40878,"is_reserved":false,"is_disabled":false,"rental_uris":{"android":"levelo://app?vid=198a8a48-9082-408a-ac7c-20dca32fbf4e","ios":"levelo://app?vid=198a8a48-9082-408a-ac7c-20dca32fbf4e"},"vehicle_type_id":"4","last_reported":1753733587,"current_range_meters":6400,"station_id":"","pricing_plan_id":"cebpf4jnsgd1na2vs0mg"},{"bike_id":"19835b89-6e3e-429c-ab73-9f5ae7f0d6f1","system_id":"levelo_inurba_marseille","lat":43.31693,"lon":5.40466,"is_reserved":false,"is_disabled":false,"rental_uris":{"android":"levelo://app?vid=19835b89-6e3e-429c-ab73-9f5ae7f0d6f1","ios":"levelo://app?vid=19835b89-6e3e-429c-ab73-9f5ae7f0d6f1"},"vehicle_type_id":"4","last_reported":1753733587,"current_range_meters":6800,"station_id":"ce4bh012rcd13ifvqd00","pricing_plan_id":"cebpf4jnsgd1na2vs0mg"},{"bike_id":"5518d9b8-e472-4352-a7ad-53267d47030e","system_id":"levelo_inurba_marseille","lat":43.24803,"lon":5.37459,"is_reserved":false,"is_disabled":false,"rental_uris":{"android":"levelo://app?vid=5518d9b8-e472-4352-a7ad-53267d47030e","ios":"levelo://app?vid=5518d9b8-e472-4352-a7ad-53267d47030e"},"vehicle_type_id":"4","last_reported":1753733587,"current_range_meters":6800,"station_id":"ce4bhgh2rcd13ifvqfb0","pricing_plan_id":"cebpf4jnsgd1na2vs0mg"},{"bike_id":"30e61914-81df-4221-a5ca-afa04df93201","system_id":"levelo_inurba_marseille","lat":43.31689,"lon":5.40478,"is_reserved":false,"is_disabled":false,"rental_uris":{"android":"levelo://app?vid=30e61914-81df-4221-a5ca-afa04df93201","ios":"levelo://app?vid=30e61914-81df-4221-a5ca-afa04df93201"},"vehicle_type_id":"4","last_reported":1753733587,"current_range_meters":6800,"station_id":"ce4bh012rcd13ifvqd00","pricing_plan_id":"cebpf4jnsgd1na2vs0mg"},{"bike_id":"4c9938a8-602d-4248-964f-b42e15582945","system_id":"levelo_inurba_marseille","lat":43.2918,"lon":5.39323,"is_reserved":false,"is_disabled":false,"rental_uris":{"android":"levelo://app?vid=4c9938a8-602d-4248-964f-b42e15582945","ios":"levelo://app?vid=4c9938a8-602d-4248-964f-b42e15582945"},"vehicle_type_id":"4","last_reported":1753733587,"current_range_meters":6800,"station_id":"ce4bh192rcd13ifvqdd0","pricing_plan_id":"cebpf4jnsgd1na2vs0mg"},{"bike_id":"b604414a-75d1-4caf-88ce-dc870ad2bb31","system_id":"levelo_inurba_marseille","lat":43.27958,"lon":5.38701,"is_reserved":false,"is_disabled":false,"rental_uris":{"android":"levelo://app?vid=b604414a-75d1-4caf-88ce-dc870ad2bb31","ios":"levelo://app?vid=b604414a-75d1-4caf-88ce-dc870ad2bb31"},"vehicle_type_id":"4","last_reported":1753733587,"current_range_meters":7200,"station_id":"ce4bhg12rcd13ifvqf80","pricing_plan_id":"cebpf4jnsgd1na2vs0mg"},{"bike_id":"f11d5c36-c7b9-4fc1-92df-c7e100615396","system_id":"levelo_inurba_marseille","lat":43.29548,"lon":5.42296,"is_reserved":false,"is_disabled":false,"rental_uris":{"android":"levelo://app?vid=f11d5c36-c7b9-4fc1-92df-c7e100615396","ios":"levelo://app?vid=f11d5c36-c7b9-4fc1-92df-c7e100615396"},"vehicle_type_id":"4","last_reported":1753733587,"current_range_meters":7200,"station_id":"ce4bhph2rcd13ifvqhdg","pricing_plan_id":"cebpf4jnsgd1na2vs0mg"},{"bike_id":"638bc15a-1fac-42c6-b9d0-ec674c8637df","system_id":"levelo_inurba_marseille","lat":43.30905,"lon":5.37148,"is_reserved":false,"is_disabled":false,"rental_uris":{"android":"levelo://app?vid=638bc15a-1fac-42c6-b9d0-ec674c8637df","ios":"levelo://app?vid=638bc15a-1fac-42c6-b9d0-ec674c8637df"},"vehicle_type_id":"4","last_reported":1753733587,"current_range_meters":8000,"station_id":"ce4bguh2rcd13ifvqckg","pricing_plan_id":"cebpf4jnsgd1na2vs0mg"},{"bike_id":"463e03fe-b9b0-4212-a764-9bd6d78e3c2e","system_id":"levelo_inurba_marseille","lat":43.31014,"lon":5.38137,"is_reserved":false,"is_disabled":false,"rental_uris":{"android":"levelo://app?vid=463e03fe-b9b0-4212-a764-9bd6d78e3c2e","ios":"levelo://app?vid=463e03fe-b9b0-4212-a764-9bd6d78e3c2e"},"vehicle_type_id":"4","last_reported":1753733587,"current_range_meters":8000,"station_id":"","pricing_plan_id":"cebpf4jnsgd1na2vs0mg"},{"bike_id":"d5fc9c65-763d-46c5-8ba1-b54464ebd93e","system_id":"levelo_inurba_marseille","lat":43.29076,"lon":5.37168,"is_reserved":false,"is_disabled":false,"rental_uris":{"android":"levelo://app?vid=d5fc9c65-763d-46c5-8ba1-b54464ebd93e","ios":"levelo://app?vid=d5fc9c65-763d-46c5-8ba1-b54464ebd93e"},"vehicle_type_id":"4","last_reported":1753733587,"current_range_meters":7200,"station_id":"ce4bh5p2rcd13ifvqe4g","pricing_plan_id":"cebpf4jnsgd1na2vs0mg"},{"bike_id":"a994df70-6b87-4743-97c2-d5fbedba418c","system_id":"levelo_inurba_marseille","lat":43.26731,"lon":5.39463,"is_reserved":false,"is_disabled":false,"rental_uris":{"android":"levelo://app?vid=a994df70-6b87-4743-97c2-d5fbedba418c","ios":"levelo://app?vid=a994df70-6b87-4743-97c2-d5fbedba418c"},"vehicle_type_id":"4","last_reported":1753733587,"current_range_meters":7200,"station_id":"ce4bhh12rcd13ifvqfg0","pricing_plan_id":"cebpf4jnsgd1na2vs0mg"},{"bike_id":"2b00bc48-e555-4ad4-8e36-b4f54e6b8132","system_id":"levelo_inurba_marseille","lat":43.29784,"lon":5.381,"is_reserved":false,"is_disabled":false,"rental_uris":{"android":"levelo://app?vid=2b00bc48-e555-4ad4-8e36-b4f54e6b8132","ios":"levelo://app?vid=2b00bc48-e555-4ad4-8e36-b4f54e6b8132"},"vehicle_type_id":"4","last_reported":1753733587,"current_range_meters":3200,"station_id":"ce4bgip2rcd13ifvqbb0","pricing_plan_id":"cebpf4jnsgd1na2vs0mg"},{"bike_id":"da0dea9a-07a2-4249-aa7c-2489e28d40de","system_id":"levelo_inurba_marseille","lat":43.29663,"lon":5.36235,"is_reserved":false,"is_disabled":false,"rental_uris":{"android":"levelo://app?vid=da0dea9a-07a2-4249-aa7c-2489e28d40de","ios":"levelo://app?vid=da0dea9a-07a2-4249-aa7c-2489e28d40de"},"vehicle_type_id":"4","last_reported":1753733587,"current_range_meters":8400,"station_id":"","pricing_plan_id":"cebpf4jnsgd1na2vs0mg"},{"bike_id":"06943e41-0870-4a54-a54a-7a2b9ba02564","system_id":"levelo_inurba_marseille","lat":43.29916,"lon":5.38198,"is_reserved":false,"is_disabled":false,"rental_uris":{"android":"levelo://app?vid=06943e41-0870-4a54-a54a-7a2b9ba02564","ios":"levelo://app?vid=06943e41-0870-4a54-a54a-7a2b9ba02564"},"vehicle_type_id":"4","last_reported":1753733587,"current_range_meters":8400,"station_id":"ce4bgj12rcd13ifvqbc0","pricing_plan_id":"cebpf4jnsgd1na2vs0mg"},{"bike_id":"c4b5428a-10ac-4bb9-8720-27b495adcad8","system_id":"levelo_inurba_marseille","lat":43.28614,"lon":5.35111,"is_reserved":false,"is_disabled":false,"rental_uris":{"android":"levelo://app?vid=c4b5428a-10ac-4bb9-8720-27b495adcad8","ios":"levelo://app?vid=c4b5428a-10ac-4bb9-8720-27b495adcad8"},"vehicle_type_id":"4","last_reported":1753733587,"current_range_meters":8400,"station_id":"ce4bhch2rcd13ifvqeug","pricing_plan_id":"cebpf4jnsgd1na2vs0mg"},{"bike_id":"d1ee7493-1c8a-469d-8c3c-eed7b0a6afe5","system_id":"levelo_inurba_marseille","lat":43.299683,"lon":5.386239,"is_reserved":false,"is_disabled":false,"rental_uris":{"android":"levelo://app?vid=d1ee7493-1c8a-469d-8c3c-eed7b0a6afe5","ios":"levelo://app?vid=d1ee7493-1c8a-469d-8c3c-eed7b0a6afe5"},"vehicle_type_id":"4","last_reported":1753733587,"current_range_meters":8800,"station_id":"","pricing_plan_id":"cebpf4jnsgd1na2vs0mg"},{"bike_id":"8ef07c70-dcb7-458e-b16a-ccc9f5063dc6","system_id":"levelo_inurba_marseille","lat":43.29308,"lon":5.37458,"is_reserved":false,"is_disabled":false,"rental_uris":{"android":"levelo://app?vid=8ef07c70-dcb7-458e-b16a-ccc9f5063dc6","ios":"levelo://app?vid=8ef07c70-dcb7-458e-b16a-ccc9f5063dc6"},"vehicle_type_id":"4","last_reported":1753733587,"current_range_meters":8800,"station_id":"ce4bgi12rcd13ifvqb70","pricing_plan_id":"cebpf4jnsgd1na2vs0mg"},{"bike_id":"d9d4aa90-a1f6-4de1-9709-d508dc801e5a","system_id":"levelo_inurba_marseille","lat":43.2873,"lon":5.36092,"is_reserved":false,"is_disabled":false,"rental_uris":{"android":"levelo://app?vid=d9d4aa90-a1f6-4de1-9709-d508dc801e5a","ios":"levelo://app?vid=d9d4aa90-a1f6-4de1-9709-d508dc801e5a"},"vehicle_type_id":"4","last_reported":1753733587,"current_range_meters":8800,"station_id":"cki0cbj6b192h4jlfktg","pricing_plan_id":"cebpf4jnsgd1na2vs0mg"},{"bike_id":"cc8a8cac-1e35-4c45-aba6-824872a10fb7","system_id":"levelo_inurba_marseille","lat":43.28475,"lon":5.38419,"is_reserved":false,"is_disabled":false,"rental_uris":{"android":"levelo://app?vid=cc8a8cac-1e35-4c45-aba6-824872a10fb7","ios":"levelo://app?vid=cc8a8cac-1e35-4c45-aba6-824872a10fb7"},"vehicle_type_id":"4","last_reported":1753733587,"current_range_meters":8400,"station_id":"ce4bh512rcd13ifvqe3g","pricing_plan_id":"cebpf4jnsgd1na2vs0mg"},{"bike_id":"0830cf7a-2a1b-4201-8b62-7d33cf1eb54b","system_id":"levelo_inurba_marseille","lat":43.31661,"lon":5.40485,"is_reserved":false,"is_disabled":false,"rental_uris":{"android":"levelo://app?vid=0830cf7a-2a1b-4201-8b62-7d33cf1eb54b","ios":"levelo://app?vid=0830cf7a-2a1b-4201-8b62-7d33cf1eb54b"},"vehicle_type_id":"4","last_reported":1753733587,"current_range_meters":9200,"station_id":"ce4bh012rcd13ifvqd00","pricing_plan_id":"cebpf4jnsgd1na2vs0mg"},{"bike_id":"bf295fbf-1f72-4e1a-a8f1-f319bb5fd736","system_id":"levelo_inurba_marseille","lat":43.29314,"lon":5.37035,"is_reserved":false,"is_disabled":false,"rental_uris":{"android":"levelo://app?vid=bf295fbf-1f72-4e1a-a8f1-f319bb5fd736","ios":"levelo://app?vid=bf295fbf-1f72-4e1a-a8f1-f319bb5fd736"},"vehicle_type_id":"4","last_reported":1753733587,"current_range_meters":9200,"station_id":"","pricing_plan_id":"cebpf4jnsgd1na2vs0mg"},{"bike_id":"fb45cff3-08fa-4cc9-bf53-0d8295f6b8d1","system_id":"levelo_inurba_marseille","lat":43.27875,"lon":5.42806,"is_reserved":false,"is_disabled":false,"rental_uris":{"android":"levelo://app?vid=fb45cff3-08fa-4cc9-bf53-0d8295f6b8d1","ios":"levelo://app?vid=fb45cff3-08fa-4cc9-bf53-0d8295f6b8d1"},"vehicle_type_id":"4","last_reported":1753733587,"current_range_meters":9200,"station_id":"","pricing_plan_id":"cebpf4jnsgd1na2vs0mg"},{"bike_id":"4b0f864b-4119-431e-a7e7-940c53d91925","system_id":"levelo_inurba_marseille","lat":43.297921,"lon":5.380705,"is_reserved":false,"is_disabled":false,"rental_uris":{"android":"levelo://app?vid=4b0f864b-4119-431e-a7e7-940c53d91925","ios":"levelo://app?vid=4b0f864b-4119-431e-a7e7-940c53d91925"},"vehicle_type_id":"4","last_reported":1753733587,"current_range_meters":9200,"station_id":"ce4bgip2rcd13ifvqbb0","pricing_plan_id":"cebpf4jnsgd1na2vs0mg"},{"bike_id":"eac438a9-250c-4f80-b97e-66e585adbfcf","system_id":"levelo_inurba_marseille","lat":43.22499,"lon":5.34775,"is_reserved":false,"is_disabled":false,"rental_uris":{"android":"levelo://app?vid=eac438a9-250c-4f80-b97e-66e585adbfcf","ios":"levelo://app?vid=eac438a9-250c-4f80-b97e-66e585adbfcf"},"vehicle_type_id":"4","last_reported":1753733587,"current_range_meters":9200,"station_id":"st_cvj5dfep6f1abm77gieg","pricing_plan_id":"cebpf4jnsgd1na2vs0mg"},{"bike_id":"484a9f68-9688-4e97-be5f-e4e9246c76ed","system_id":"levelo_inurba_marseille","lat":43.30604,"lon":5.37224,"is_reserved":false,"is_disabled":false,"rental_uris":{"android":"levelo://app?vid=484a9f68-9688-4e97-be5f-e4e9246c76ed","ios":"levelo://app?vid=484a9f68-9688-4e97-be5f-e4e9246c76ed"},"vehicle_type_id":"4","last_reported":1753733587,"current_range_meters":9200,"station_id":"ce4bgqh2rcd13ifvqc4g","pricing_plan_id":"cebpf4jnsgd1na2vs0mg"},{"bike_id":"9bf37ea7-04c0-46df-9c89-48cdf0982003","system_id":"levelo_inurba_marseille","lat":43.30303,"lon":5.36888,"is_reserved":false,"is_disabled":false,"rental_uris":{"android":"levelo://app?vid=9bf37ea7-04c0-46df-9c89-48cdf0982003","ios":"levelo://app?vid=9bf37ea7-04c0-46df-9c89-48cdf0982003"},"vehicle_type_id":"4","last_reported":1753733587,"current_range_meters":8800,"station_id":"ce4bgqh2rcd13ifvqc5g","pricing_plan_id":"cebpf4jnsgd1na2vs0mg"},{"bike_id":"a5ced537-0f08-4ef7-857a-4640ef3fc50a","system_id":"levelo_inurba_marseille","lat":43.27316,"lon":5.39067,"is_reserved":false,"is_disabled":false,"rental_uris":{"android":"levelo://app?vid=a5ced537-0f08-4ef7-857a-4640ef3fc50a","ios":"levelo://app?vid=a5ced537-0f08-4ef7-857a-4640ef3fc50a"},"vehicle_type_id":"4","last_reported":1753733587,"current_range_meters":9200,"station_id":"ce4bhgp2rcd13ifvqfe0","pricing_plan_id":"cebpf4jnsgd1na2vs0mg"},{"bike_id":"4f020d92-8765-4eac-adb3-6d0daf9ec32d","system_id":"levelo_inurba_marseille","lat":43.28423,"lon":5.34984,"is_reserved":false,"is_disabled":false,"rental_uris":{"android":"levelo://app?vid=4f020d92-8765-4eac-adb3-6d0daf9ec32d","ios":"levelo://app?vid=4f020d92-8765-4eac-adb3-6d0daf9ec32d"},"vehicle_type_id":"4","last_reported":1753733587,"current_range_meters":9600,"station_id":"ce4bhbh2rcd13ifvqepg","pricing_plan_id":"cebpf4jnsgd1na2vs0mg"},{"bike_id":"52154182-1854-4282-9513-49da0b6e805f","system_id":"levelo_inurba_marseille","lat":43.29525,"lon":5.38554,"is_reserved":false,"is_disabled":false,"rental_uris":{"android":"levelo://app?vid=52154182-1854-4282-9513-49da0b6e805f","ios":"levelo://app?vid=52154182-1854-4282-9513-49da0b6e805f"},"vehicle_type_id":"4","last_reported":1753733587,"current_range_meters":9600,"station_id":"ce4bgih2rcd13ifvqba0","pricing_plan_id":"cebpf4jnsgd1na2vs0mg"},{"bike_id":"eb03a8d8-d058-4a9d-9845-07966daa1bf4","system_id":"levelo_inurba_marseille","lat":43.29617,"lon":5.37727,"is_reserved":false,"is_disabled":false,"rental_uris":{"android":"levelo://app?vid=eb03a8d8-d058-4a9d-9845-07966daa1bf4","ios":"levelo://app?vid=eb03a8d8-d058-4a9d-9845-07966daa1bf4"},"vehicle_type_id":"4","last_reported":1753733587,"current_range_meters":9600,"station_id":"ce4bgi92rcd13ifvqb90","pricing_plan_id":"cebpf4jnsgd1na2vs0mg"},{"bike_id":"57bcf702-bfc0-4a61-9027-cab0f4227ce5","system_id":"levelo_inurba_marseille","lat":43.28099,"lon":5.37835,"is_reserved":false,"is_disabled":false,"rental_uris":{"android":"levelo://app?vid=57bcf702-bfc0-4a61-9027-cab0f4227ce5","ios":"levelo://app?vid=57bcf702-bfc0-4a61-9027-cab0f4227ce5"},"vehicle_type_id":"4","last_reported":1753733587,"current_range_meters":9600,"station_id":"ce4bha12rcd13ifvqee0","pricing_plan_id":"cebpf4jnsgd1na2vs0mg"},{"bike_id":"34087b6f-4fdf-42ff-91fe-4e2f2da71ce1","system_id":"levelo_inurba_marseille","lat":43.29455,"lon":5.3745,"is_reserved":false,"is_disabled":false,"rental_uris":{"android":"levelo://app?vid=34087b6f-4fdf-42ff-91fe-4e2f2da71ce1","ios":"levelo://app?vid=34087b6f-4fdf-42ff-91fe-4e2f2da71ce1"},"vehicle_type_id":"4","last_reported":1753733587,"current_range_meters":9600,"station_id":"","pricing_plan_id":"cebpf4jnsgd1na2vs0mg"},{"bike_id":"ebb0c905-5c52-41f0-be36-97ac127af859","system_id":"levelo_inurba_marseille","lat":43.27493,"lon":5.42453,"is_reserved":false,"is_disabled":false,"rental_uris":{"android":"levelo://app?vid=ebb0c905-5c52-41f0-be36-97ac127af859","ios":"levelo://app?vid=ebb0c905-5c52-41f0-be36-97ac127af859"},"vehicle_type_id":"4","last_reported":1753733587,"current_range_meters":9600,"station_id":"ce4bhn92rcd13ifvqgrg","pricing_plan_id":"cebpf4jnsgd1na2vs0mg"},{"bike_id":"92995e75-acdc-4cd4-ab92-5c3564a22d5a","system_id":"levelo_inurba_marseille","lat":43.29608,"lon":5.38127,"is_reserved":false,"is_disabled":false,"rental_uris":{"android":"levelo://app?vid=92995e75-acdc-4cd4-ab92-5c3564a22d5a","ios":"levelo://app?vid=92995e75-acdc-4cd4-ab92-5c3564a22d5a"},"vehicle_type_id":"4","last_reported":1753733587,"current_range_meters":9600,"station_id":"ce4bgl12rcd13ifvqbo0","pricing_plan_id":"cebpf4jnsgd1na2vs0mg"},{"bike_id":"f078f85b-29cc-469a-b7a1-13876bebe32b","system_id":"levelo_inurba_marseille","lat":43.29573,"lon":5.36755,"is_reserved":false,"is_disabled":false,"rental_uris":{"android":"levelo://app?vid=f078f85b-29cc-469a-b7a1-13876bebe32b","ios":"levelo://app?vid=f078f85b-29cc-469a-b7a1-13876bebe32b"},"vehicle_type_id":"4","last_reported":1753733587,"current_range_meters":9600,"station_id":"ce4bgph2rcd13ifvqc2g","pricing_plan_id":"cebpf4jnsgd1na2vs0mg"},{"bike_id":"9e99c2dc-b510-4f62-9348-1c7f5aa4646d","system_id":"levelo_inurba_marseille","lat":43.30956,"lon":5.39025,"is_reserved":false,"is_disabled":false,"rental_uris":{"android":"levelo://app?vid=9e99c2dc-b510-4f62-9348-1c7f5aa4646d","ios":"levelo://app?vid=9e99c2dc-b510-4f62-9348-1c7f5aa4646d"},"vehicle_type_id":"4","last_reported":1753733587,"current_range_meters":9200,"station_id":"ce4bgup2rcd13ifvqco0","pricing_plan_id":"cebpf4jnsgd1na2vs0mg"},{"bike_id":"3152576e-d602-4c3f-980e-717f41aed773","system_id":"levelo_inurba_marseille","lat":43.33737,"lon":5.37465,"is_reserved":false,"is_disabled":false,"rental_uris":{"android":"levelo://app?vid=3152576e-d602-4c3f-980e-717f41aed773","ios":"levelo://app?vid=3152576e-d602-4c3f-980e-717f41aed773"},"vehicle_type_id":"4","last_reported":1753733587,"current_range_meters":9600,"station_id":"","pricing_plan_id":"cebpf4jnsgd1na2vs0mg"},{"bike_id":"9cee27f4-71e2-4fe2-8a1d-b762c5bb3560","system_id":"levelo_inurba_marseille","lat":43.29304,"lon":5.37458,"is_reserved":false,"is_disabled":false,"rental_uris":{"android":"levelo://app?vid=9cee27f4-71e2-4fe2-8a1d-b762c5bb3560","ios":"levelo://app?vid=9cee27f4-71e2-4fe2-8a1d-b762c5bb3560"},"vehicle_type_id":"4","last_reported":1753733587,"current_range_meters":10000,"station_id":"ce4bgi12rcd13ifvqb70","pricing_plan_id":"cebpf4jnsgd1na2vs0mg"},{"bike_id":"4a480595-e608-476d-b896-d18539936de1","system_id":"levelo_inurba_marseille","lat":43.29799,"lon":5.40404,"is_reserved":false,"is_disabled":false,"rental_uris":{"android":"levelo://app?vid=4a480595-e608-476d-b896-d18539936de1","ios":"levelo://app?vid=4a480595-e608-476d-b896-d18539936de1"},"vehicle_type_id":"4","last_reported":1753733587,"current_range_meters":10000,"station_id":"ce4bh112rcd13ifvqd90","pricing_plan_id":"cebpf4jnsgd1na2vs0mg"},{"bike_id":"704a475e-b3dc-4102-a491-422475a5b7b1","system_id":"levelo_inurba_marseille","lat":43.28076,"lon":5.39664,"is_reserved":false,"is_disabled":false,"rental_uris":{"android":"levelo://app?vid=704a475e-b3dc-4102-a491-422475a5b7b1","ios":"levelo://app?vid=704a475e-b3dc-4102-a491-422475a5b7b1"},"vehicle_type_id":"4","last_reported":1753733587,"current_range_meters":10800,"station_id":"ce4bho12rcd13ifvqh2g","pricing_plan_id":"cebpf4jnsgd1na2vs0mg"},{"bike_id":"b0562e78-62b2-42dc-bb1e-2da442cdc296","system_id":"levelo_inurba_marseille","lat":43.28607,"lon":5.3511,"is_reserved":false,"is_disabled":false,"rental_uris":{"android":"levelo://app?vid=b0562e78-62b2-42dc-bb1e-2da442cdc296","ios":"levelo://app?vid=b0562e78-62b2-42dc-bb1e-2da442cdc296"},"vehicle_type_id":"4","last_reported":1753733587,"current_range_meters":10800,"station_id":"ce4bhch2rcd13ifvqeug","pricing_plan_id":"cebpf4jnsgd1na2vs0mg"},{"bike_id":"22709049-0d39-445f-b228-d9eaa5759f44","system_id":"levelo_inurba_marseille","lat":43.28397,"lon":5.34991,"is_reserved":false,"is_disabled":false,"rental_uris":{"android":"levelo://app?vid=22709049-0d39-445f-b228-d9eaa5759f44","ios":"levelo://app?vid=22709049-0d39-445f-b228-d9eaa5759f44"},"vehicle_type_id":"4","last_reported":1753733587,"current_range_meters":10800,"station_id":"ce4bhbh2rcd13ifvqepg","pricing_plan_id":"cebpf4jnsgd1na2vs0mg"},{"bike_id":"24e4fbdb-edb3-4f7d-8c37-f4ec34322a64","system_id":"levelo_inurba_marseille","lat":43.30898,"lon":5.37205,"is_reserved":false,"is_disabled":false,"rental_uris":{"android":"levelo://app?vid=24e4fbdb-edb3-4f7d-8c37-f4ec34322a64","ios":"levelo://app?vid=24e4fbdb-edb3-4f7d-8c37-f4ec34322a64"},"vehicle_type_id":"4","last_reported":1753733587,"current_range_meters":10800,"station_id":"ce4bguh2rcd13ifvqckg","pricing_plan_id":"cebpf4jnsgd1na2vs0mg"},{"bike_id":"b7aaff0a-c1ab-42d1-856e-fb10176ebe4b","system_id":"levelo_inurba_marseille","lat":43.27935,"lon":5.38726,"is_reserved":false,"is_disabled":false,"rental_uris":{"android":"levelo://app?vid=b7aaff0a-c1ab-42d1-856e-fb10176ebe4b","ios":"levelo://app?vid=b7aaff0a-c1ab-42d1-856e-fb10176ebe4b"},"vehicle_type_id":"4","last_reported":1753733587,"current_range_meters":10800,"station_id":"ce4bhg12rcd13ifvqf80","pricing_plan_id":"cebpf4jnsgd1na2vs0mg"},{"bike_id":"6b291fd0-b213-410e-a437-ab23ccb2d7cd","system_id":"levelo_inurba_marseille","lat":43.29705,"lon":5.37695,"is_reserved":false,"is_disabled":false,"rental_uris":{"android":"levelo://app?vid=6b291fd0-b213-410e-a437-ab23ccb2d7cd","ios":"levelo://app?vid=6b291fd0-b213-410e-a437-ab23ccb2d7cd"},"vehicle_type_id":"4","last_reported":1753733587,"current_range_meters":10800,"station_id":"ce4bgkh2rcd13ifvqbl0","pricing_plan_id":"cebpf4jnsgd1na2vs0mg"},{"bike_id":"2cf31370-d3b0-4cb4-bcf0-8f69a04b3bc3","system_id":"levelo_inurba_marseille","lat":43.28635,"lon":5.35104,"is_reserved":false,"is_disabled":false,"rental_uris":{"android":"levelo://app?vid=2cf31370-d3b0-4cb4-bcf0-8f69a04b3bc3","ios":"levelo://app?vid=2cf31370-d3b0-4cb4-bcf0-8f69a04b3bc3"},"vehicle_type_id":"4","last_reported":1753733587,"current_range_meters":10800,"station_id":"ce4bhch2rcd13ifvqeug","pricing_plan_id":"cebpf4jnsgd1na2vs0mg"},{"bike_id":"feb40379-0815-4a68-aadb-305942f11d04","system_id":"levelo_inurba_marseille","lat":43.249463,"lon":5.389938,"is_reserved":false,"is_disabled":true,"rental_uris":{"android":"levelo://app?vid=feb40379-0815-4a68-aadb-305942f11d04","ios":"levelo://app?vid=feb40379-0815-4a68-aadb-305942f11d04"},"vehicle_type_id":"4","last_reported":1753733587,"current_range_meters":10800,"station_id":"","pricing_plan_id":"cebpf4jnsgd1na2vs0mg"},{"bike_id":"e3efed6d-762b-423e-8bf2-894c49050f48","system_id":"levelo_inurba_marseille","lat":43.29517,"lon":5.39061,"is_reserved":false,"is_disabled":false,"rental_uris":{"android":"levelo://app?vid=e3efed6d-762b-423e-8bf2-894c49050f48","ios":"levelo://app?vid=e3efed6d-762b-423e-8bf2-894c49050f48"},"vehicle_type_id":"4","last_reported":1753733587,"current_range_meters":11200,"station_id":"ce4bh3p2rcd13ifvqdp0","pricing_plan_id":"cebpf4jnsgd1na2vs0mg"},{"bike_id":"c490285a-ad86-41e9-a650-bc7838a33af4","system_id":"levelo_inurba_marseille","lat":43.23074,"lon":5.35494,"is_reserved":false,"is_disabled":false,"rental_uris":{"android":"levelo://app?vid=c490285a-ad86-41e9-a650-bc7838a33af4","ios":"levelo://app?vid=c490285a-ad86-41e9-a650-bc7838a33af4"},"vehicle_type_id":"4","last_reported":1753733587,"current_range_meters":11200,"station_id":"cpo3342slgdg3j2ifvpg","pricing_plan_id":"cebpf4jnsgd1na2vs0mg"},{"bike_id":"3efe99ad-0b45-4c18-92ca-96f6cb43a670","system_id":"levelo_inurba_marseille","lat":43.323662,"lon":5.367562,"is_reserved":false,"is_disabled":true,"rental_uris":{"android":"levelo://app?vid=3efe99ad-0b45-4c18-92ca-96f6cb43a670","ios":"levelo://app?vid=3efe99ad-0b45-4c18-92ca-96f6cb43a670"},"vehicle_type_id":"4","last_reported":1753733587,"current_range_meters":11200,"station_id":"ce4bhsh2rcd13ifvqi2g","pricing_plan_id":"cebpf4jnsgd1na2vs0mg"},{"bike_id":"72e03784-0704-41e0-b1f1-3eacc06d2c0c","system_id":"levelo_inurba_marseille","lat":43.30868,"lon":5.3717,"is_reserved":false,"is_disabled":false,"rental_uris":{"android":"levelo://app?vid=72e03784-0704-41e0-b1f1-3eacc06d2c0c","ios":"levelo://app?vid=72e03784-0704-41e0-b1f1-3eacc06d2c0c"},"vehicle_type_id":"4","last_reported":1753733587,"current_range_meters":11200,"station_id":"ce4bguh2rcd13ifvqckg","pricing_plan_id":"cebpf4jnsgd1na2vs0mg"},{"bike_id":"28a46342-4835-4ef4-a561-63d01bab106c","system_id":"levelo_inurba_marseille","lat":43.28617,"lon":5.35114,"is_reserved":false,"is_disabled":false,"rental_uris":{"android":"levelo://app?vid=28a46342-4835-4ef4-a561-63d01bab106c","ios":"levelo://app?vid=28a46342-4835-4ef4-a561-63d01bab106c"},"vehicle_type_id":"4","last_reported":1753733587,"current_range_meters":11200,"station_id":"ce4bhch2rcd13ifvqeug","pricing_plan_id":"cebpf4jnsgd1na2vs0mg"},{"bike_id":"fffb8926-f81a-47ad-9534-d2f1f5cc9f93","system_id":"levelo_inurba_marseille","lat":43.29712,"lon":5.36616,"is_reserved":false,"is_disabled":false,"rental_uris":{"android":"levelo://app?vid=fffb8926-f81a-47ad-9534-d2f1f5cc9f93","ios":"levelo://app?vid=fffb8926-f81a-47ad-9534-d2f1f5cc9f93"},"vehicle_type_id":"4","last_reported":1753733587,"current_range_meters":10800,"station_id":"ce4bgn12rcd13ifvqbt0","pricing_plan_id":"cebpf4jnsgd1na2vs0mg"},{"bike_id":"ba19fae0-44ee-437f-913a-8c915df8c368","system_id":"levelo_inurba_marseille","lat":43.28403,"lon":5.34998,"is_reserved":false,"is_disabled":false,"rental_uris":{"android":"levelo://app?vid=ba19fae0-44ee-437f-913a-8c915df8c368","ios":"levelo://app?vid=ba19fae0-44ee-437f-913a-8c915df8c368"},"vehicle_type_id":"4","last_reported":1753733587,"current_range_meters":11200,"station_id":"ce4bhbh2rcd13ifvqepg","pricing_plan_id":"cebpf4jnsgd1na2vs0mg"},{"bike_id":"0710cc23-964c-41f9-b259-8bd1211f7d6e","system_id":"levelo_inurba_marseille","lat":43.286266,"lon":5.350855,"is_reserved":false,"is_disabled":false,"rental_uris":{"android":"levelo://app?vid=0710cc23-964c-41f9-b259-8bd1211f7d6e","ios":"levelo://app?vid=0710cc23-964c-41f9-b259-8bd1211f7d6e"},"vehicle_type_id":"4","last_reported":1753733587,"current_range_meters":11600,"station_id":"ce4bhch2rcd13ifvqeug","pricing_plan_id":"cebpf4jnsgd1na2vs0mg"},{"bike_id":"0d079687-545f-4bf6-8076-1fab5fa9e33c","system_id":"levelo_inurba_marseille","lat":43.26211,"lon":5.37455,"is_reserved":false,"is_disabled":false,"rental_uris":{"android":"levelo://app?vid=0d079687-545f-4bf6-8076-1fab5fa9e33c","ios":"levelo://app?vid=0d079687-545f-4bf6-8076-1fab5fa9e33c"},"vehicle_type_id":"4","last_reported":1753733587,"current_range_meters":11600,"station_id":"ce4bhgp2rcd13ifvqfc0","pricing_plan_id":"cebpf4jnsgd1na2vs0mg"},{"bike_id":"0dd0f68e-6e0d-4262-9ea7-fec04b7ede4d","system_id":"levelo_inurba_marseille","lat":43.27835,"lon":5.39212,"is_reserved":false,"is_disabled":false,"rental_uris":{"android":"levelo://app?vid=0dd0f68e-6e0d-4262-9ea7-fec04b7ede4d","ios":"levelo://app?vid=0dd0f68e-6e0d-4262-9ea7-fec04b7ede4d"},"vehicle_type_id":"4","last_reported":1753733587,"current_range_meters":11600,"station_id":"ce4bhjp2rcd13ifvqga0","pricing_plan_id":"cebpf4jnsgd1na2vs0mg"},{"bike_id":"9a53c405-7cae-4213-857e-35d22ee808a3","system_id":"levelo_inurba_marseille","lat":43.28412,"lon":5.35007,"is_reserved":false,"is_disabled":false,"rental_uris":{"android":"levelo://app?vid=9a53c405-7cae-4213-857e-35d22ee808a3","ios":"levelo://app?vid=9a53c405-7cae-4213-857e-35d22ee808a3"},"vehicle_type_id":"4","last_reported":1753733587,"current_range_meters":11600,"station_id":"ce4bhbh2rcd13ifvqepg","pricing_plan_id":"cebpf4jnsgd1na2vs0mg"},{"bike_id":"8e37ef79-bd01-46c2-9d9e-3d3f7741a07a","system_id":"levelo_inurba_marseille","lat":43.297302,"lon":5.374166,"is_reserved":false,"is_disabled":false,"rental_uris":{"android":"levelo://app?vid=8e37ef79-bd01-46c2-9d9e-3d3f7741a07a","ios":"levelo://app?vid=8e37ef79-bd01-46c2-9d9e-3d3f7741a07a"},"vehicle_type_id":"4","last_reported":1753733587,"current_range_meters":11600,"station_id":"","pricing_plan_id":"cebpf4jnsgd1na2vs0mg"},{"bike_id":"3d7bd2df-1620-4d2f-8a21-1ea51448f90e","system_id":"levelo_inurba_marseille","lat":43.28614,"lon":5.35113,"is_reserved":false,"is_disabled":false,"rental_uris":{"android":"levelo://app?vid=3d7bd2df-1620-4d2f-8a21-1ea51448f90e","ios":"levelo://app?vid=3d7bd2df-1620-4d2f-8a21-1ea51448f90e"},"vehicle_type_id":"4","last_reported":1753733587,"current_range_meters":11600,"station_id":"ce4bhch2rcd13ifvqeug","pricing_plan_id":"cebpf4jnsgd1na2vs0mg"},{"bike_id":"08054b9e-09e8-4d87-94a2-f07824f4f6ad","system_id":"levelo_inurba_marseille","lat":43.298815,"lon":5.39735,"is_reserved":false,"is_disabled":false,"rental_uris":{"android":"levelo://app?vid=08054b9e-09e8-4d87-94a2-f07824f4f6ad","ios":"levelo://app?vid=08054b9e-09e8-4d87-94a2-f07824f4f6ad"},"vehicle_type_id":"4","last_reported":1753733587,"current_range_meters":11600,"station_id":"ce4bh0h2rcd13ifvqd50","pricing_plan_id":"cebpf4jnsgd1na2vs0mg"},{"bike_id":"65e3db07-f188-422b-b687-3d06cfe2bcf8","system_id":"levelo_inurba_marseille","lat":43.28049,"lon":5.35012,"is_reserved":false,"is_disabled":false,"rental_uris":{"android":"levelo://app?vid=65e3db07-f188-422b-b687-3d06cfe2bcf8","ios":"levelo://app?vid=65e3db07-f188-422b-b687-3d06cfe2bcf8"},"vehicle_type_id":"4","last_reported":1753733587,"current_range_meters":11600,"station_id":"","pricing_plan_id":"cebpf4jnsgd1na2vs0mg"},{"bike_id":"84036e62-78c0-42e9-a5c2-ad3d3703bc8c","system_id":"levelo_inurba_marseille","lat":43.27962,"lon":5.41058,"is_reserved":false,"is_disabled":true,"rental_uris":{"android":"levelo://app?vid=84036e62-78c0-42e9-a5c2-ad3d3703bc8c","ios":"levelo://app?vid=84036e62-78c0-42e9-a5c2-ad3d3703bc8c"},"vehicle_type_id":"4","last_reported":1753733587,"current_range_meters":12000,"station_id":"ce4bhnp2rcd13ifvqh0g","pricing_plan_id":"cebpf4jnsgd1na2vs0mg"},{"bike_id":"308b14e7-6d1b-4240-8160-dc6b288ed44f","system_id":"levelo_inurba_marseille","lat":43.30433,"lon":5.38895,"is_reserved":false,"is_disabled":false,"rental_uris":{"android":"levelo://app?vid=308b14e7-6d1b-4240-8160-dc6b288ed44f","ios":"levelo://app?vid=308b14e7-6d1b-4240-8160-dc6b288ed44f"},"vehicle_type_id":"4","last_reported":1753733587,"current_range_meters":11600,"station_id":"ce4bgk12rcd13ifvqbi0","pricing_plan_id":"cebpf4jnsgd1na2vs0mg"},{"bike_id":"da8a121b-dd93-4a31-8254-38a795a66238","system_id":"levelo_inurba_marseille","lat":43.24073,"lon":5.37768,"is_reserved":false,"is_disabled":false,"rental_uris":{"android":"levelo://app?vid=da8a121b-dd93-4a31-8254-38a795a66238","ios":"levelo://app?vid=da8a121b-dd93-4a31-8254-38a795a66238"},"vehicle_type_id":"4","last_reported":1753733587,"current_range_meters":11600,"station_id":"ce4bhnp2rcd13ifvqgvg","pricing_plan_id":"cebpf4jnsgd1na2vs0mg"},{"bike_id":"149fbe11-3bce-47a0-b584-c7c7bd6bb12f","system_id":"levelo_inurba_marseille","lat":43.21638,"lon":5.34425,"is_reserved":false,"is_disabled":false,"rental_uris":{"android":"levelo://app?vid=149fbe11-3bce-47a0-b584-c7c7bd6bb12f","ios":"levelo://app?vid=149fbe11-3bce-47a0-b584-c7c7bd6bb12f"},"vehicle_type_id":"4","last_reported":1753733587,"current_range_meters":11600,"station_id":"","pricing_plan_id":"cebpf4jnsgd1na2vs0mg"},{"bike_id":"c85546d4-3ea8-44da-9c2d-e6b7bf575831","system_id":"levelo_inurba_marseille","lat":43.28433,"lon":5.35004,"is_reserved":false,"is_disabled":false,"rental_uris":{"android":"levelo://app?vid=c85546d4-3ea8-44da-9c2d-e6b7bf575831","ios":"levelo://app?vid=c85546d4-3ea8-44da-9c2d-e6b7bf575831"},"vehicle_type_id":"4","last_reported":1753733587,"current_range_meters":11600,"station_id":"ce4bhbh2rcd13ifvqepg","pricing_plan_id":"cebpf4jnsgd1na2vs0mg"},{"bike_id":"209c73e6-1f69-4d13-9fed-77cb46eecd05","system_id":"levelo_inurba_marseille","lat":43.34681,"lon":5.38065,"is_reserved":false,"is_disabled":false,"rental_uris":{"android":"levelo://app?vid=209c73e6-1f69-4d13-9fed-77cb46eecd05","ios":"levelo://app?vid=209c73e6-1f69-4d13-9fed-77cb46eecd05"},"vehicle_type_id":"4","last_reported":1753733587,"current_range_meters":11600,"station_id":"","pricing_plan_id":"cebpf4jnsgd1na2vs0mg"},{"bike_id":"465af1c6-94fa-401b-ad2c-153493985e44","system_id":"levelo_inurba_marseille","lat":43.317109,"lon":5.377431,"is_reserved":false,"is_disabled":false,"rental_uris":{"android":"levelo://app?vid=465af1c6-94fa-401b-ad2c-153493985e44","ios":"levelo://app?vid=465af1c6-94fa-401b-ad2c-153493985e44"},"vehicle_type_id":"4","last_reported":1753733587,"current_range_meters":11600,"station_id":"ce4bgth2rcd13ifvqch0","pricing_plan_id":"cebpf4jnsgd1na2vs0mg"},{"bike_id":"108b3875-9677-473a-96fe-c1ecf75f4b39","system_id":"levelo_inurba_marseille","lat":43.25722,"lon":5.41109,"is_reserved":false,"is_disabled":false,"rental_uris":{"android":"levelo://app?vid=108b3875-9677-473a-96fe-c1ecf75f4b39","ios":"levelo://app?vid=108b3875-9677-473a-96fe-c1ecf75f4b39"},"vehicle_type_id":"4","last_reported":1753733587,"current_range_meters":12000,"station_id":"ce4bhkp2rcd13ifvqgd0","pricing_plan_id":"cebpf4jnsgd1na2vs0mg"},{"bike_id":"5a3d5c19-c10f-4e83-aed3-bc03bdf5166b","system_id":"levelo_inurba_marseille","lat":43.29226,"lon":5.36083,"is_reserved":false,"is_disabled":false,"rental_uris":{"android":"levelo://app?vid=5a3d5c19-c10f-4e83-aed3-bc03bdf5166b","ios":"levelo://app?vid=5a3d5c19-c10f-4e83-aed3-bc03bdf5166b"},"vehicle_type_id":"4","last_reported":1753733587,"current_range_meters":12000,"station_id":"ce4bhbh2rcd13ifvqeqg","pricing_plan_id":"cebpf4jnsgd1na2vs0mg"},{"bike_id":"3be48ac4-9d3c-486a-bd60-c64cdf4f8d54","system_id":"levelo_inurba_marseille","lat":43.28358,"lon":5.38112,"is_reserved":false,"is_disabled":false,"rental_uris":{"android":"levelo://app?vid=3be48ac4-9d3c-486a-bd60-c64cdf4f8d54","ios":"levelo://app?vid=3be48ac4-9d3c-486a-bd60-c64cdf4f8d54"},"vehicle_type_id":"4","last_reported":1753733587,"current_range_meters":12000,"station_id":"ce4bh412rcd13ifvqdr0","pricing_plan_id":"cebpf4jnsgd1na2vs0mg"},{"bike_id":"467035e7-1dac-427b-869f-c900d457faf0","system_id":"levelo_inurba_marseille","lat":43.29264,"lon":5.38451,"is_reserved":false,"is_disabled":false,"rental_uris":{"android":"levelo://app?vid=467035e7-1dac-427b-869f-c900d457faf0","ios":"levelo://app?vid=467035e7-1dac-427b-869f-c900d457faf0"},"vehicle_type_id":"4","last_reported":1753733587,"current_range_meters":12000,"station_id":"ce4bh692rcd13ifvqea0","pricing_plan_id":"cebpf4jnsgd1na2vs0mg"},{"bike_id":"94a0aa85-27b9-4dcf-a5ac-77c5e283b2a5","system_id":"levelo_inurba_marseille","lat":43.26566,"lon":5.39028,"is_reserved":false,"is_disabled":false,"rental_uris":{"android":"levelo://app?vid=94a0aa85-27b9-4dcf-a5ac-77c5e283b2a5","ios":"levelo://app?vid=94a0aa85-27b9-4dcf-a5ac-77c5e283b2a5"},"vehicle_type_id":"4","last_reported":1753733587,"current_range_meters":12000,"station_id":"ce4bhe12rcd13ifvqf30","pricing_plan_id":"cebpf4jnsgd1na2vs0mg"},{"bike_id":"95dd70e4-879c-49e7-b318-a6c71b22a43e","system_id":"levelo_inurba_marseille","lat":43.2703,"lon":5.39295,"is_reserved":false,"is_disabled":false,"rental_uris":{"android":"levelo://app?vid=95dd70e4-879c-49e7-b318-a6c71b22a43e","ios":"levelo://app?vid=95dd70e4-879c-49e7-b318-a6c71b22a43e"},"vehicle_type_id":"4","last_reported":1753733587,"current_range_meters":12000,"station_id":"","pricing_plan_id":"cebpf4jnsgd1na2vs0mg"},{"bike_id":"8156ba1c-79d1-400d-96a0-33669bb7caeb","system_id":"levelo_inurba_marseille","lat":43.3259,"lon":5.41148,"is_reserved":false,"is_disabled":false,"rental_uris":{"android":"levelo://app?vid=8156ba1c-79d1-400d-96a0-33669bb7caeb","ios":"levelo://app?vid=8156ba1c-79d1-400d-96a0-33669bb7caeb"},"vehicle_type_id":"4","last_reported":1753733587,"current_range_meters":12000,"station_id":"","pricing_plan_id":"cebpf4jnsgd1na2vs0mg"},{"bike_id":"3b48ba16-ab0b-4729-a066-df71ea8ccf50","system_id":"levelo_inurba_marseille","lat":43.29547,"lon":5.4228,"is_reserved":false,"is_disabled":false,"rental_uris":{"android":"levelo://app?vid=3b48ba16-ab0b-4729-a066-df71ea8ccf50","ios":"levelo://app?vid=3b48ba16-ab0b-4729-a066-df71ea8ccf50"},"vehicle_type_id":"4","last_reported":1753733587,"current_range_meters":11600,"station_id":"ce4bhph2rcd13ifvqhdg","pricing_plan_id":"cebpf4jnsgd1na2vs0mg"},{"bike_id":"50678583-3aab-4d54-b7b2-e6d15fab5f80","system_id":"levelo_inurba_marseille","lat":43.311736,"lon":5.387201,"is_reserved":false,"is_disabled":false,"rental_uris":{"android":"levelo://app?vid=50678583-3aab-4d54-b7b2-e6d15fab5f80","ios":"levelo://app?vid=50678583-3aab-4d54-b7b2-e6d15fab5f80"},"vehicle_type_id":"4","last_reported":1753733587,"current_range_meters":12000,"station_id":"ce4bgv12rcd13ifvqcp0","pricing_plan_id":"cebpf4jnsgd1na2vs0mg"},{"bike_id":"6541f4e1-7382-4881-89d6-9d6d6932e167","system_id":"levelo_inurba_marseille","lat":43.30249,"lon":5.40074,"is_reserved":false,"is_disabled":false,"rental_uris":{"android":"levelo://app?vid=6541f4e1-7382-4881-89d6-9d6d6932e167","ios":"levelo://app?vid=6541f4e1-7382-4881-89d6-9d6d6932e167"},"vehicle_type_id":"4","last_reported":1753733587,"current_range_meters":12000,"station_id":"ce4bgvh2rcd13ifvqcs0","pricing_plan_id":"cebpf4jnsgd1na2vs0mg"},{"bike_id":"687e7f7d-e543-46f4-b3a9-f045362f5602","system_id":"levelo_inurba_marseille","lat":43.2809,"lon":5.37878,"is_reserved":false,"is_disabled":false,"rental_uris":{"android":"levelo://app?vid=687e7f7d-e543-46f4-b3a9-f045362f5602","ios":"levelo://app?vid=687e7f7d-e543-46f4-b3a9-f045362f5602"},"vehicle_type_id":"4","last_reported":1753733587,"current_range_meters":12000,"station_id":"ce4bha12rcd13ifvqee0","pricing_plan_id":"cebpf4jnsgd1na2vs0mg"},{"bike_id":"4a3f6541-c9b0-45d8-ac3a-e7e76ed59bf5","system_id":"levelo_inurba_marseille","lat":43.24563,"lon":5.38911,"is_reserved":false,"is_disabled":false,"rental_uris":{"android":"levelo://app?vid=4a3f6541-c9b0-45d8-ac3a-e7e76ed59bf5","ios":"levelo://app?vid=4a3f6541-c9b0-45d8-ac3a-e7e76ed59bf5"},"vehicle_type_id":"4","last_reported":1753733587,"current_range_meters":12400,"station_id":"","pricing_plan_id":"cebpf4jnsgd1na2vs0mg"},{"bike_id":"f6810538-536b-4a67-833e-9c3f6d4a15db","system_id":"levelo_inurba_marseille","lat":43.31181,"lon":5.38708,"is_reserved":false,"is_disabled":false,"rental_uris":{"android":"levelo://app?vid=f6810538-536b-4a67-833e-9c3f6d4a15db","ios":"levelo://app?vid=f6810538-536b-4a67-833e-9c3f6d4a15db"},"vehicle_type_id":"4","last_reported":1753733587,"current_range_meters":12000,"station_id":"ce4bgv12rcd13ifvqcp0","pricing_plan_id":"cebpf4jnsgd1na2vs0mg"},{"bike_id":"54c52b06-ff8a-4c6a-9124-b0f6a393dfb7","system_id":"levelo_inurba_marseille","lat":43.3116,"lon":5.38725,"is_reserved":false,"is_disabled":false,"rental_uris":{"android":"levelo://app?vid=54c52b06-ff8a-4c6a-9124-b0f6a393dfb7","ios":"levelo://app?vid=54c52b06-ff8a-4c6a-9124-b0f6a393dfb7"},"vehicle_type_id":"4","last_reported":1753733587,"current_range_meters":12000,"station_id":"ce4bgv12rcd13ifvqcp0","pricing_plan_id":"cebpf4jnsgd1na2vs0mg"},{"bike_id":"3179abad-e0fe-4492-a29d-de7e91426623","system_id":"levelo_inurba_marseille","lat":43.28273,"lon":5.35078,"is_reserved":false,"is_disabled":true,"rental_uris":{"android":"levelo://app?vid=3179abad-e0fe-4492-a29d-de7e91426623","ios":"levelo://app?vid=3179abad-e0fe-4492-a29d-de7e91426623"},"vehicle_type_id":"4","last_reported":1753733587,"current_range_meters":12400,"station_id":"ce4bhbp2rcd13ifvqerg","pricing_plan_id":"cebpf4jnsgd1na2vs0mg"},{"bike_id":"6973ef58-78c9-4458-bebb-10b3cfb8c46b","system_id":"levelo_inurba_marseille","lat":43.29583,"lon":5.3675,"is_reserved":false,"is_disabled":false,"rental_uris":{"android":"levelo://app?vid=6973ef58-78c9-4458-bebb-10b3cfb8c46b","ios":"levelo://app?vid=6973ef58-78c9-4458-bebb-10b3cfb8c46b"},"vehicle_type_id":"4","last_reported":1753733587,"current_range_meters":12800,"station_id":"ce4bgph2rcd13ifvqc2g","pricing_plan_id":"cebpf4jnsgd1na2vs0mg"},{"bike_id":"3dd2b2f9-64bc-4f1c-ad06-386f2ab19894","system_id":"levelo_inurba_marseille","lat":43.29731,"lon":5.36445,"is_reserved":false,"is_disabled":false,"rental_uris":{"android":"levelo://app?vid=3dd2b2f9-64bc-4f1c-ad06-386f2ab19894","ios":"levelo://app?vid=3dd2b2f9-64bc-4f1c-ad06-386f2ab19894"},"vehicle_type_id":"4","last_reported":1753733587,"current_range_meters":12800,"station_id":"","pricing_plan_id":"cebpf4jnsgd1na2vs0mg"},{"bike_id":"c5d6c16c-667e-4c61-9e09-b5efae6e86bc","system_id":"levelo_inurba_marseille","lat":43.29893,"lon":5.43657,"is_reserved":false,"is_disabled":false,"rental_uris":{"android":"levelo://app?vid=c5d6c16c-667e-4c61-9e09-b5efae6e86bc","ios":"levelo://app?vid=c5d6c16c-667e-4c61-9e09-b5efae6e86bc"},"vehicle_type_id":"4","last_reported":1753733587,"current_range_meters":12800,"station_id":"ce4bhpp2rcd13ifvqhfg","pricing_plan_id":"cebpf4jnsgd1na2vs0mg"},{"bike_id":"947cf9dd-0905-42a3-aafb-8e1c05b7ea7a","system_id":"levelo_inurba_marseille","lat":43.30714,"lon":5.38427,"is_reserved":false,"is_disabled":false,"rental_uris":{"android":"levelo://app?vid=947cf9dd-0905-42a3-aafb-8e1c05b7ea7a","ios":"levelo://app?vid=947cf9dd-0905-42a3-aafb-8e1c05b7ea7a"},"vehicle_type_id":"4","last_reported":1753733587,"current_range_meters":12800,"station_id":"","pricing_plan_id":"cebpf4jnsgd1na2vs0mg"},{"bike_id":"3f41142b-4afc-4204-8883-c6ab60103a37","system_id":"levelo_inurba_marseille","lat":43.28855,"lon":5.35836,"is_reserved":false,"is_disabled":false,"rental_uris":{"android":"levelo://app?vid=3f41142b-4afc-4204-8883-c6ab60103a37","ios":"levelo://app?vid=3f41142b-4afc-4204-8883-c6ab60103a37"},"vehicle_type_id":"4","last_reported":1753733587,"current_range_meters":12800,"station_id":"ce4bhb12rcd13ifvqem0","pricing_plan_id":"cebpf4jnsgd1na2vs0mg"},{"bike_id":"34765211-2ebc-4022-87cc-18acc3f5bbb4","system_id":"levelo_inurba_marseille","lat":43.29631,"lon":5.40615,"is_reserved":false,"is_disabled":false,"rental_uris":{"android":"levelo://app?vid=34765211-2ebc-4022-87cc-18acc3f5bbb4","ios":"levelo://app?vid=34765211-2ebc-4022-87cc-18acc3f5bbb4"},"vehicle_type_id":"4","last_reported":1753733587,"current_range_meters":13600,"station_id":"ce4bh0h2rcd13ifvqd60","pricing_plan_id":"cebpf4jnsgd1na2vs0mg"},{"bike_id":"4370e06d-b0a4-4742-a3c8-14fd373c61e9","system_id":"levelo_inurba_marseille","lat":43.28404,"lon":5.34984,"is_reserved":false,"is_disabled":false,"rental_uris":{"android":"levelo://app?vid=4370e06d-b0a4-4742-a3c8-14fd373c61e9","ios":"levelo://app?vid=4370e06d-b0a4-4742-a3c8-14fd373c61e9"},"vehicle_type_id":"4","last_reported":1753733587,"current_range_meters":13600,"station_id":"ce4bhbh2rcd13ifvqepg","pricing_plan_id":"cebpf4jnsgd1na2vs0mg"},{"bike_id":"7dd1a394-ac3b-45ae-8f59-195d372bf63b","system_id":"levelo_inurba_marseille","lat":43.30075,"lon":5.38058,"is_reserved":false,"is_disabled":true,"rental_uris":{"android":"levelo://app?vid=7dd1a394-ac3b-45ae-8f59-195d372bf63b","ios":"levelo://app?vid=7dd1a394-ac3b-45ae-8f59-195d372bf63b"},"vehicle_type_id":"4","last_reported":1753733587,"current_range_meters":13600,"station_id":"","pricing_plan_id":"cebpf4jnsgd1na2vs0mg"},{"bike_id":"f1135650-4eea-43f9-8595-185c29787a73","system_id":"levelo_inurba_marseille","lat":43.31166,"lon":5.38715,"is_reserved":false,"is_disabled":false,"rental_uris":{"android":"levelo://app?vid=f1135650-4eea-43f9-8595-185c29787a73","ios":"levelo://app?vid=f1135650-4eea-43f9-8595-185c29787a73"},"vehicle_type_id":"4","last_reported":1753733587,"current_range_meters":13600,"station_id":"ce4bgv12rcd13ifvqcp0","pricing_plan_id":"cebpf4jnsgd1na2vs0mg"},{"bike_id":"aafba76e-3da3-4ebb-9332-0bac111897c0","system_id":"levelo_inurba_marseille","lat":43.22936,"lon":5.35327,"is_reserved":false,"is_disabled":false,"rental_uris":{"android":"levelo://app?vid=aafba76e-3da3-4ebb-9332-0bac111897c0","ios":"levelo://app?vid=aafba76e-3da3-4ebb-9332-0bac111897c0"},"vehicle_type_id":"4","last_reported":1753733587,"current_range_meters":13600,"station_id":"cpo3532slgdg3j2ikp40","pricing_plan_id":"cebpf4jnsgd1na2vs0mg"},{"bike_id":"11648341-5a9b-4630-b256-1b937e7ffd66","system_id":"levelo_inurba_marseille","lat":43.304693,"lon":5.372776,"is_reserved":false,"is_disabled":false,"rental_uris":{"android":"levelo://app?vid=11648341-5a9b-4630-b256-1b937e7ffd66","ios":"levelo://app?vid=11648341-5a9b-4630-b256-1b937e7ffd66"},"vehicle_type_id":"4","last_reported":1753733587,"current_range_meters":13600,"station_id":"","pricing_plan_id":"cebpf4jnsgd1na2vs0mg"},{"bike_id":"882bdff1-651a-41c1-9ab0-596f43205cf1","system_id":"levelo_inurba_marseille","lat":43.337444,"lon":5.374475,"is_reserved":false,"is_disabled":false,"rental_uris":{"android":"levelo://app?vid=882bdff1-651a-41c1-9ab0-596f43205cf1","ios":"levelo://app?vid=882bdff1-651a-41c1-9ab0-596f43205cf1"},"vehicle_type_id":"4","last_reported":1753733587,"current_range_meters":14000,"station_id":"ce4bgkp2rcd13ifvqbmg","pricing_plan_id":"cebpf4jnsgd1na2vs0mg"},{"bike_id":"2a19dfaa-99ee-41a7-9d99-b5d87715b9d2","system_id":"levelo_inurba_marseille","lat":43.29302,"lon":5.37447,"is_reserved":false,"is_disabled":false,"rental_uris":{"android":"levelo://app?vid=2a19dfaa-99ee-41a7-9d99-b5d87715b9d2","ios":"levelo://app?vid=2a19dfaa-99ee-41a7-9d99-b5d87715b9d2"},"vehicle_type_id":"4","last_reported":1753733587,"current_range_meters":14000,"station_id":"ce4bgi12rcd13ifvqb70","pricing_plan_id":"cebpf4jnsgd1na2vs0mg"},{"bike_id":"c13ce413-660f-4ff8-9547-d17d0704485e","system_id":"levelo_inurba_marseille","lat":43.21201,"lon":5.35087,"is_reserved":false,"is_disabled":false,"rental_uris":{"android":"levelo://app?vid=c13ce413-660f-4ff8-9547-d17d0704485e","ios":"levelo://app?vid=c13ce413-660f-4ff8-9547-d17d0704485e"},"vehicle_type_id":"4","last_reported":1753733587,"current_range_meters":14000,"station_id":"","pricing_plan_id":"cebpf4jnsgd1na2vs0mg"},{"bike_id":"2fff0963-a9c2-4145-b00f-e7e3f781128c","system_id":"levelo_inurba_marseille","lat":43.30317,"lon":5.40446,"is_reserved":false,"is_disabled":false,"rental_uris":{"android":"levelo://app?vid=2fff0963-a9c2-4145-b00f-e7e3f781128c","ios":"levelo://app?vid=2fff0963-a9c2-4145-b00f-e7e3f781128c"},"vehicle_type_id":"4","last_reported":1753733587,"current_range_meters":14000,"station_id":"ce4bh012rcd13ifvqd10","pricing_plan_id":"cebpf4jnsgd1na2vs0mg"},{"bike_id":"978af847-6d99-4854-a15b-46de05aa92a8","system_id":"levelo_inurba_marseille","lat":43.30312,"lon":5.39196,"is_reserved":false,"is_disabled":false,"rental_uris":{"android":"levelo://app?vid=978af847-6d99-4854-a15b-46de05aa92a8","ios":"levelo://app?vid=978af847-6d99-4854-a15b-46de05aa92a8"},"vehicle_type_id":"4","last_reported":1753733587,"current_range_meters":14000,"station_id":"ce4bgkh2rcd13ifvqbk0","pricing_plan_id":"cebpf4jnsgd1na2vs0mg"},{"bike_id":"40547155-d82f-458b-a043-9ef85aeb712c","system_id":"levelo_inurba_marseille","lat":43.31168,"lon":5.38718,"is_reserved":false,"is_disabled":false,"rental_uris":{"android":"levelo://app?vid=40547155-d82f-458b-a043-9ef85aeb712c","ios":"levelo://app?vid=40547155-d82f-458b-a043-9ef85aeb712c"},"vehicle_type_id":"4","last_reported":1753733587,"current_range_meters":14000,"station_id":"ce4bgv12rcd13ifvqcp0","pricing_plan_id":"cebpf4jnsgd1na2vs0mg"},{"bike_id":"b718c82c-c13f-4521-9b7e-fcc6394b6189","system_id":"levelo_inurba_marseille","lat":43.28356,"lon":5.38105,"is_reserved":false,"is_disabled":false,"rental_uris":{"android":"levelo://app?vid=b718c82c-c13f-4521-9b7e-fcc6394b6189","ios":"levelo://app?vid=b718c82c-c13f-4521-9b7e-fcc6394b6189"},"vehicle_type_id":"4","last_reported":1753733587,"current_range_meters":14000,"station_id":"ce4bh412rcd13ifvqdr0","pricing_plan_id":"cebpf4jnsgd1na2vs0mg"},{"bike_id":"3f496ed7-9a33-4d4a-8a33-a653e8bae2fd","system_id":"levelo_inurba_marseille","lat":43.32316,"lon":5.40586,"is_reserved":false,"is_disabled":false,"rental_uris":{"android":"levelo://app?vid=3f496ed7-9a33-4d4a-8a33-a653e8bae2fd","ios":"levelo://app?vid=3f496ed7-9a33-4d4a-8a33-a653e8bae2fd"},"vehicle_type_id":"4","last_reported":1753733587,"current_range_meters":14000,"station_id":"ce4bhq92rcd13ifvqhjg","pricing_plan_id":"cebpf4jnsgd1na2vs0mg"},{"bike_id":"e0ce0053-71c4-4b07-8b9e-379e7ce2bf22","system_id":"levelo_inurba_marseille","lat":43.3028,"lon":5.39794,"is_reserved":false,"is_disabled":false,"rental_uris":{"android":"levelo://app?vid=e0ce0053-71c4-4b07-8b9e-379e7ce2bf22","ios":"levelo://app?vid=e0ce0053-71c4-4b07-8b9e-379e7ce2bf22"},"vehicle_type_id":"4","last_reported":1753733587,"current_range_meters":14000,"station_id":"","pricing_plan_id":"cebpf4jnsgd1na2vs0mg"},{"bike_id":"2a3a9f20-00d1-4c95-a093-ba8e28724bc0","system_id":"levelo_inurba_marseille","lat":43.306584,"lon":5.375733,"is_reserved":false,"is_disabled":false,"rental_uris":{"android":"levelo://app?vid=2a3a9f20-00d1-4c95-a093-ba8e28724bc0","ios":"levelo://app?vid=2a3a9f20-00d1-4c95-a093-ba8e28724bc0"},"vehicle_type_id":"4","last_reported":1753733587,"current_range_meters":14000,"station_id":"","pricing_plan_id":"cebpf4jnsgd1na2vs0mg"},{"bike_id":"194c6d8c-586b-49a5-8f94-a3cb56ef7b2c","system_id":"levelo_inurba_marseille","lat":43.30428,"lon":5.38888,"is_reserved":false,"is_disabled":false,"rental_uris":{"android":"levelo://app?vid=194c6d8c-586b-49a5-8f94-a3cb56ef7b2c","ios":"levelo://app?vid=194c6d8c-586b-49a5-8f94-a3cb56ef7b2c"},"vehicle_type_id":"4","last_reported":1753733587,"current_range_meters":13600,"station_id":"ce4bgk12rcd13ifvqbi0","pricing_plan_id":"cebpf4jnsgd1na2vs0mg"},{"bike_id":"c1ed0047-371a-402e-a73a-0992f7f3ab1a","system_id":"levelo_inurba_marseille","lat":43.27202,"lon":5.41093,"is_reserved":false,"is_disabled":true,"rental_uris":{"android":"levelo://app?vid=c1ed0047-371a-402e-a73a-0992f7f3ab1a","ios":"levelo://app?vid=c1ed0047-371a-402e-a73a-0992f7f3ab1a"},"vehicle_type_id":"4","last_reported":1753733587,"current_range_meters":14400,"station_id":"ce4bhl12rcd13ifvqgf0","pricing_plan_id":"cebpf4jnsgd1na2vs0mg"},{"bike_id":"d4b0442d-37e3-4887-8827-87b59f4e9086","system_id":"levelo_inurba_marseille","lat":43.2977,"lon":5.38108,"is_reserved":false,"is_disabled":false,"rental_uris":{"android":"levelo://app?vid=d4b0442d-37e3-4887-8827-87b59f4e9086","ios":"levelo://app?vid=d4b0442d-37e3-4887-8827-87b59f4e9086"},"vehicle_type_id":"4","last_reported":1753733587,"current_range_meters":14400,"station_id":"","pricing_plan_id":"cebpf4jnsgd1na2vs0mg"},{"bike_id":"a0757552-cef1-4156-a44e-da8e0ad06a62","system_id":"levelo_inurba_marseille","lat":43.22931,"lon":5.35375,"is_reserved":false,"is_disabled":false,"rental_uris":{"android":"levelo://app?vid=a0757552-cef1-4156-a44e-da8e0ad06a62","ios":"levelo://app?vid=a0757552-cef1-4156-a44e-da8e0ad06a62"},"vehicle_type_id":"4","last_reported":1753733587,"current_range_meters":14400,"station_id":"cpo3532slgdg3j2ikp40","pricing_plan_id":"cebpf4jnsgd1na2vs0mg"},{"bike_id":"2c05888a-7ae8-44a4-a376-fc4db5630c25","system_id":"levelo_inurba_marseille","lat":43.28609,"lon":5.35106,"is_reserved":false,"is_disabled":false,"rental_uris":{"android":"levelo://app?vid=2c05888a-7ae8-44a4-a376-fc4db5630c25","ios":"levelo://app?vid=2c05888a-7ae8-44a4-a376-fc4db5630c25"},"vehicle_type_id":"4","last_reported":1753733587,"current_range_meters":14400,"station_id":"ce4bhch2rcd13ifvqeug","pricing_plan_id":"cebpf4jnsgd1na2vs0mg"},{"bike_id":"39d47f17-7e3b-4eef-ade8-4066c80100f2","system_id":"levelo_inurba_marseille","lat":43.28954,"lon":5.36636,"is_reserved":false,"is_disabled":false,"rental_uris":{"android":"levelo://app?vid=39d47f17-7e3b-4eef-ade8-4066c80100f2","ios":"levelo://app?vid=39d47f17-7e3b-4eef-ade8-4066c80100f2"},"vehicle_type_id":"4","last_reported":1753733587,"current_range_meters":14400,"station_id":"ce4bhap2rcd13ifvqek0","pricing_plan_id":"cebpf4jnsgd1na2vs0mg"},{"bike_id":"f297ecb0-f504-4ce2-a698-235b8f25b26b","system_id":"levelo_inurba_marseille","lat":43.24171,"lon":5.36384,"is_reserved":false,"is_disabled":false,"rental_uris":{"android":"levelo://app?vid=f297ecb0-f504-4ce2-a698-235b8f25b26b","ios":"levelo://app?vid=f297ecb0-f504-4ce2-a698-235b8f25b26b"},"vehicle_type_id":"4","last_reported":1753733587,"current_range_meters":14400,"station_id":"cpo36qri1sfpv3e86is0","pricing_plan_id":"cebpf4jnsgd1na2vs0mg"},{"bike_id":"a1b97484-32f0-47ed-8a3b-b44c9a0d45d8","system_id":"levelo_inurba_marseille","lat":43.2979,"lon":5.39333,"is_reserved":false,"is_disabled":false,"rental_uris":{"android":"levelo://app?vid=a1b97484-32f0-47ed-8a3b-b44c9a0d45d8","ios":"levelo://app?vid=a1b97484-32f0-47ed-8a3b-b44c9a0d45d8"},"vehicle_type_id":"4","last_reported":1753733587,"current_range_meters":14400,"station_id":"chh1huq6cuj3fo74tm60","pricing_plan_id":"cebpf4jnsgd1na2vs0mg"},{"bike_id":"35d3a393-2c2a-429b-a76d-547346fe6e73","system_id":"levelo_inurba_marseille","lat":43.30929,"lon":5.40148,"is_reserved":false,"is_disabled":false,"rental_uris":{"android":"levelo://app?vid=35d3a393-2c2a-429b-a76d-547346fe6e73","ios":"levelo://app?vid=35d3a393-2c2a-429b-a76d-547346fe6e73"},"vehicle_type_id":"4","last_reported":1753733587,"current_range_meters":14400,"station_id":"ce4bgvp2rcd13ifvqct0","pricing_plan_id":"cebpf4jnsgd1na2vs0mg"},{"bike_id":"52fa2f88-6678-4b0d-bdeb-77d5e9331688","system_id":"levelo_inurba_marseille","lat":43.21185,"lon":5.35076,"is_reserved":false,"is_disabled":false,"rental_uris":{"android":"levelo://app?vid=52fa2f88-6678-4b0d-bdeb-77d5e9331688","ios":"levelo://app?vid=52fa2f88-6678-4b0d-bdeb-77d5e9331688"},"vehicle_type_id":"4","last_reported":1753733587,"current_range_meters":14400,"station_id":"st_cvj6sg6p6f1abm77japg","pricing_plan_id":"cebpf4jnsgd1na2vs0mg"},{"bike_id":"b47394be-66b0-49b3-9fa5-ad23c5559521","system_id":"levelo_inurba_marseille","lat":43.29304,"lon":5.37156,"is_reserved":false,"is_disabled":false,"rental_uris":{"android":"levelo://app?vid=b47394be-66b0-49b3-9fa5-ad23c5559521","ios":"levelo://app?vid=b47394be-66b0-49b3-9fa5-ad23c5559521"},"vehicle_type_id":"4","last_reported":1753733587,"current_range_meters":14800,"station_id":"ce4bgh92rcd13ifvqb40","pricing_plan_id":"cebpf4jnsgd1na2vs0mg"},{"bike_id":"f300057d-7ab5-4146-a741-d20b49532b99","system_id":"levelo_inurba_marseille","lat":43.2998,"lon":5.37173,"is_reserved":false,"is_disabled":true,"rental_uris":{"android":"levelo://app?vid=f300057d-7ab5-4146-a741-d20b49532b99","ios":"levelo://app?vid=f300057d-7ab5-4146-a741-d20b49532b99"},"vehicle_type_id":"4","last_reported":1753733587,"current_range_meters":14800,"station_id":"ce4bgr92rcd13ifvqc7g","pricing_plan_id":"cebpf4jnsgd1na2vs0mg"},{"bike_id":"3c40c0d5-7da3-46c7-be45-d5a1c997bdf3","system_id":"levelo_inurba_marseille","lat":43.28361,"lon":5.38093,"is_reserved":false,"is_disabled":false,"rental_uris":{"android":"levelo://app?vid=3c40c0d5-7da3-46c7-be45-d5a1c997bdf3","ios":"levelo://app?vid=3c40c0d5-7da3-46c7-be45-d5a1c997bdf3"},"vehicle_type_id":"4","last_reported":1753733587,"current_range_meters":14800,"station_id":"ce4bh412rcd13ifvqdr0","pricing_plan_id":"cebpf4jnsgd1na2vs0mg"},{"bike_id":"3c6d990b-d853-4774-9e68-ab11c54c28bf","system_id":"levelo_inurba_marseille","lat":43.28433,"lon":5.3502,"is_reserved":false,"is_disabled":false,"rental_uris":{"android":"levelo://app?vid=3c6d990b-d853-4774-9e68-ab11c54c28bf","ios":"levelo://app?vid=3c6d990b-d853-4774-9e68-ab11c54c28bf"},"vehicle_type_id":"4","last_reported":1753733587,"current_range_meters":14800,"station_id":"ce4bhbh2rcd13ifvqepg","pricing_plan_id":"cebpf4jnsgd1na2vs0mg"},{"bike_id":"32826f34-8228-4d4b-815c-cc490d99eb72","system_id":"levelo_inurba_marseille","lat":43.22513,"lon":5.34767,"is_reserved":false,"is_disabled":false,"rental_uris":{"android":"levelo://app?vid=32826f34-8228-4d4b-815c-cc490d99eb72","ios":"levelo://app?vid=32826f34-8228-4d4b-815c-cc490d99eb72"},"vehicle_type_id":"4","last_reported":1753733587,"current_range_meters":14800,"station_id":"st_cvj5dfep6f1abm77gieg","pricing_plan_id":"cebpf4jnsgd1na2vs0mg"},{"bike_id":"2fd1d214-1c01-4d21-8950-f90bd8d495c7","system_id":"levelo_inurba_marseille","lat":43.28852,"lon":5.39334,"is_reserved":false,"is_disabled":false,"rental_uris":{"android":"levelo://app?vid=2fd1d214-1c01-4d21-8950-f90bd8d495c7","ios":"levelo://app?vid=2fd1d214-1c01-4d21-8950-f90bd8d495c7"},"vehicle_type_id":"4","last_reported":1753733587,"current_range_meters":14800,"station_id":"ce4bh2p2rcd13ifvqdi0","pricing_plan_id":"cebpf4jnsgd1na2vs0mg"},{"bike_id":"b97ffecd-6455-4c53-ac00-08f3870ed1f7","system_id":"levelo_inurba_marseille","lat":43.29998,"lon":5.37626,"is_reserved":false,"is_disabled":false,"rental_uris":{"android":"levelo://app?vid=b97ffecd-6455-4c53-ac00-08f3870ed1f7","ios":"levelo://app?vid=b97ffecd-6455-4c53-ac00-08f3870ed1f7"},"vehicle_type_id":"4","last_reported":1753733587,"current_range_meters":14800,"station_id":"","pricing_plan_id":"cebpf4jnsgd1na2vs0mg"},{"bike_id":"9eac2b93-68ce-4c3e-87da-d321cccc88eb","system_id":"levelo_inurba_marseille","lat":43.26032,"lon":5.37552,"is_reserved":false,"is_disabled":false,"rental_uris":{"android":"levelo://app?vid=9eac2b93-68ce-4c3e-87da-d321cccc88eb","ios":"levelo://app?vid=9eac2b93-68ce-4c3e-87da-d321cccc88eb"},"vehicle_type_id":"4","last_reported":1753733587,"current_range_meters":14400,"station_id":"ce4bhgh2rcd13ifvqfa0","pricing_plan_id":"cebpf4jnsgd1na2vs0mg"},{"bike_id":"0938e41e-f961-425a-8c0f-36baf4215fb9","system_id":"levelo_inurba_marseille","lat":43.270673,"lon":5.4227,"is_reserved":false,"is_disabled":false,"rental_uris":{"android":"levelo://app?vid=0938e41e-f961-425a-8c0f-36baf4215fb9","ios":"levelo://app?vid=0938e41e-f961-425a-8c0f-36baf4215fb9"},"vehicle_type_id":"4","last_reported":1753733587,"current_range_meters":14800,"station_id":"ce4bhk92rcd13ifvqgb0","pricing_plan_id":"cebpf4jnsgd1na2vs0mg"},{"bike_id":"8badb92e-fd8c-440b-8a00-e2b92cae4802","system_id":"levelo_inurba_marseille","lat":43.24801,"lon":5.37457,"is_reserved":false,"is_disabled":false,"rental_uris":{"android":"levelo://app?vid=8badb92e-fd8c-440b-8a00-e2b92cae4802","ios":"levelo://app?vid=8badb92e-fd8c-440b-8a00-e2b92cae4802"},"vehicle_type_id":"4","last_reported":1753733587,"current_range_meters":15200,"station_id":"","pricing_plan_id":"cebpf4jnsgd1na2vs0mg"},{"bike_id":"a627f6a2-5d66-4596-8946-e15c15639b0b","system_id":"levelo_inurba_marseille","lat":43.2467,"lon":5.3817,"is_reserved":false,"is_disabled":false,"rental_uris":{"android":"levelo://app?vid=a627f6a2-5d66-4596-8946-e15c15639b0b","ios":"levelo://app?vid=a627f6a2-5d66-4596-8946-e15c15639b0b"},"vehicle_type_id":"4","last_reported":1753733587,"current_range_meters":15200,"station_id":"ce4bhih2rcd13ifvqfr0","pricing_plan_id":"cebpf4jnsgd1na2vs0mg"},{"bike_id":"62352c01-8fb4-4193-baea-87d4bf79c6cc","system_id":"levelo_inurba_marseille","lat":43.28468,"lon":5.35896,"is_reserved":false,"is_disabled":false,"rental_uris":{"android":"levelo://app?vid=62352c01-8fb4-4193-baea-87d4bf79c6cc","ios":"levelo://app?vid=62352c01-8fb4-4193-baea-87d4bf79c6cc"},"vehicle_type_id":"4","last_reported":1753733587,"current_range_meters":15200,"station_id":"ce4bhah2rcd13ifvqei0","pricing_plan_id":"cebpf4jnsgd1na2vs0mg"},{"bike_id":"1d599ca9-96fe-4939-8af9-7954ed58ad38","system_id":"levelo_inurba_marseille","lat":43.23551,"lon":5.36038,"is_reserved":false,"is_disabled":false,"rental_uris":{"android":"levelo://app?vid=1d599ca9-96fe-4939-8af9-7954ed58ad38","ios":"levelo://app?vid=1d599ca9-96fe-4939-8af9-7954ed58ad38"},"vehicle_type_id":"4","last_reported":1753733587,"current_range_meters":15200,"station_id":"","pricing_plan_id":"cebpf4jnsgd1na2vs0mg"},{"bike_id":"3c552e5c-02ca-4d60-893f-b4238415c9e4","system_id":"levelo_inurba_marseille","lat":43.27959,"lon":5.38688,"is_reserved":false,"is_disabled":false,"rental_uris":{"android":"levelo://app?vid=3c552e5c-02ca-4d60-893f-b4238415c9e4","ios":"levelo://app?vid=3c552e5c-02ca-4d60-893f-b4238415c9e4"},"vehicle_type_id":"4","last_reported":1753733587,"current_range_meters":15200,"station_id":"ce4bhg12rcd13ifvqf80","pricing_plan_id":"cebpf4jnsgd1na2vs0mg"},{"bike_id":"7efb8d2c-6cb2-435f-a65c-4425eb4f817d","system_id":"levelo_inurba_marseille","lat":43.28853,"lon":5.3932,"is_reserved":false,"is_disabled":false,"rental_uris":{"android":"levelo://app?vid=7efb8d2c-6cb2-435f-a65c-4425eb4f817d","ios":"levelo://app?vid=7efb8d2c-6cb2-435f-a65c-4425eb4f817d"},"vehicle_type_id":"4","last_reported":1753733587,"current_range_meters":15200,"station_id":"ce4bh2p2rcd13ifvqdi0","pricing_plan_id":"cebpf4jnsgd1na2vs0mg"},{"bike_id":"a60cfa8f-4852-4dbe-8636-c427ddb59196","system_id":"levelo_inurba_marseille","lat":43.29575,"lon":5.36739,"is_reserved":false,"is_disabled":false,"rental_uris":{"android":"levelo://app?vid=a60cfa8f-4852-4dbe-8636-c427ddb59196","ios":"levelo://app?vid=a60cfa8f-4852-4dbe-8636-c427ddb59196"},"vehicle_type_id":"4","last_reported":1753733587,"current_range_meters":15200,"station_id":"ce4bgph2rcd13ifvqc2g","pricing_plan_id":"cebpf4jnsgd1na2vs0mg"},{"bike_id":"fb20ac4c-ff7b-44a5-8bc1-3dadc0880714","system_id":"levelo_inurba_marseille","lat":43.2762,"lon":5.36131,"is_reserved":false,"is_disabled":false,"rental_uris":{"android":"levelo://app?vid=fb20ac4c-ff7b-44a5-8bc1-3dadc0880714","ios":"levelo://app?vid=fb20ac4c-ff7b-44a5-8bc1-3dadc0880714"},"vehicle_type_id":"4","last_reported":1753733587,"current_range_meters":16000,"station_id":"ce4bgj92rcd13ifvqbe0","pricing_plan_id":"cebpf4jnsgd1na2vs0mg"},{"bike_id":"40523d3c-3186-4c9d-bf57-cc5e90987418","system_id":"levelo_inurba_marseille","lat":43.24674,"lon":5.38173,"is_reserved":false,"is_disabled":false,"rental_uris":{"android":"levelo://app?vid=40523d3c-3186-4c9d-bf57-cc5e90987418","ios":"levelo://app?vid=40523d3c-3186-4c9d-bf57-cc5e90987418"},"vehicle_type_id":"4","last_reported":1753733587,"current_range_meters":16000,"station_id":"ce4bhih2rcd13ifvqfr0","pricing_plan_id":"cebpf4jnsgd1na2vs0mg"},{"bike_id":"e93b5b1a-31c9-4ad5-b9f2-f5b52c7aabbd","system_id":"levelo_inurba_marseille","lat":43.28156,"lon":5.42648,"is_reserved":false,"is_disabled":false,"rental_uris":{"android":"levelo://app?vid=e93b5b1a-31c9-4ad5-b9f2-f5b52c7aabbd","ios":"levelo://app?vid=e93b5b1a-31c9-4ad5-b9f2-f5b52c7aabbd"},"vehicle_type_id":"4","last_reported":1753733587,"current_range_meters":16000,"station_id":"ce4bhnh2rcd13ifvqgug","pricing_plan_id":"cebpf4jnsgd1na2vs0mg"},{"bike_id":"f935bdfe-ce07-40e9-9f05-f13806b2bee8","system_id":"levelo_inurba_marseille","lat":43.22506,"lon":5.34781,"is_reserved":false,"is_disabled":false,"rental_uris":{"android":"levelo://app?vid=f935bdfe-ce07-40e9-9f05-f13806b2bee8","ios":"levelo://app?vid=f935bdfe-ce07-40e9-9f05-f13806b2bee8"},"vehicle_type_id":"4","last_reported":1753733587,"current_range_meters":16000,"station_id":"st_cvj5dfep6f1abm77gieg","pricing_plan_id":"cebpf4jnsgd1na2vs0mg"},{"bike_id":"e609f502-6eb4-44f6-84e6-e23523a2fefb","system_id":"levelo_inurba_marseille","lat":43.29026,"lon":5.38648,"is_reserved":false,"is_disabled":false,"rental_uris":{"android":"levelo://app?vid=e609f502-6eb4-44f6-84e6-e23523a2fefb","ios":"levelo://app?vid=e609f502-6eb4-44f6-84e6-e23523a2fefb"},"vehicle_type_id":"4","last_reported":1753733587,"current_range_meters":16000,"station_id":"ce4bh4p2rcd13ifvqe0g","pricing_plan_id":"cebpf4jnsgd1na2vs0mg"},{"bike_id":"62f5da51-1009-4002-b725-5765ccaaf3ec","system_id":"levelo_inurba_marseille","lat":43.29341,"lon":5.40177,"is_reserved":false,"is_disabled":false,"rental_uris":{"android":"levelo://app?vid=62f5da51-1009-4002-b725-5765ccaaf3ec","ios":"levelo://app?vid=62f5da51-1009-4002-b725-5765ccaaf3ec"},"vehicle_type_id":"4","last_reported":1753733587,"current_range_meters":16000,"station_id":"","pricing_plan_id":"cebpf4jnsgd1na2vs0mg"},{"bike_id":"4f0d56f5-e54c-465b-a15e-32b747ab0912","system_id":"levelo_inurba_marseille","lat":43.31703,"lon":5.40469,"is_reserved":false,"is_disabled":true,"rental_uris":{"android":"levelo://app?vid=4f0d56f5-e54c-465b-a15e-32b747ab0912","ios":"levelo://app?vid=4f0d56f5-e54c-465b-a15e-32b747ab0912"},"vehicle_type_id":"4","last_reported":1753733587,"current_range_meters":16000,"station_id":"ce4bh012rcd13ifvqd00","pricing_plan_id":"cebpf4jnsgd1na2vs0mg"},{"bike_id":"450571a0-b1c1-4af8-9a7f-7a2798f9511a","system_id":"levelo_inurba_marseille","lat":43.28948,"lon":5.36627,"is_reserved":false,"is_disabled":false,"rental_uris":{"android":"levelo://app?vid=450571a0-b1c1-4af8-9a7f-7a2798f9511a","ios":"levelo://app?vid=450571a0-b1c1-4af8-9a7f-7a2798f9511a"},"vehicle_type_id":"4","last_reported":1753733587,"current_range_meters":16000,"station_id":"ce4bhap2rcd13ifvqek0","pricing_plan_id":"cebpf4jnsgd1na2vs0mg"},{"bike_id":"4bfaa48f-84dd-4da8-8f81-81b4a794ffc8","system_id":"levelo_inurba_marseille","lat":43.24398,"lon":5.37063,"is_reserved":false,"is_disabled":false,"rental_uris":{"android":"levelo://app?vid=4bfaa48f-84dd-4da8-8f81-81b4a794ffc8","ios":"levelo://app?vid=4bfaa48f-84dd-4da8-8f81-81b4a794ffc8"},"vehicle_type_id":"4","last_reported":1753733587,"current_range_meters":16000,"station_id":"ce4bhhh2rcd13ifvqfk0","pricing_plan_id":"cebpf4jnsgd1na2vs0mg"},{"bike_id":"01a8e307-f9de-4eb5-a307-55559ca42c36","system_id":"levelo_inurba_marseille","lat":43.22504,"lon":5.34784,"is_reserved":false,"is_disabled":false,"rental_uris":{"android":"levelo://app?vid=01a8e307-f9de-4eb5-a307-55559ca42c36","ios":"levelo://app?vid=01a8e307-f9de-4eb5-a307-55559ca42c36"},"vehicle_type_id":"4","last_reported":1753733587,"current_range_meters":16000,"station_id":"st_cvj5dfep6f1abm77gieg","pricing_plan_id":"cebpf4jnsgd1na2vs0mg"},{"bike_id":"7d0bc366-7472-4dec-a2f3-a1ab117a465c","system_id":"levelo_inurba_marseille","lat":43.323,"lon":5.38276,"is_reserved":false,"is_disabled":false,"rental_uris":{"android":"levelo://app?vid=7d0bc366-7472-4dec-a2f3-a1ab117a465c","ios":"levelo://app?vid=7d0bc366-7472-4dec-a2f3-a1ab117a465c"},"vehicle_type_id":"4","last_reported":1753733587,"current_range_meters":16000,"station_id":"ce4bhr12rcd13ifvqhqg","pricing_plan_id":"cebpf4jnsgd1na2vs0mg"},{"bike_id":"57a14804-707e-4743-8fdc-ee255b7e6e88","system_id":"levelo_inurba_marseille","lat":43.28615,"lon":5.35085,"is_reserved":false,"is_disabled":false,"rental_uris":{"android":"levelo://app?vid=57a14804-707e-4743-8fdc-ee255b7e6e88","ios":"levelo://app?vid=57a14804-707e-4743-8fdc-ee255b7e6e88"},"vehicle_type_id":"4","last_reported":1753733587,"current_range_meters":16400,"station_id":"ce4bhch2rcd13ifvqeug","pricing_plan_id":"cebpf4jnsgd1na2vs0mg"},{"bike_id":"905576ef-66ce-426e-9600-566828c3b671","system_id":"levelo_inurba_marseille","lat":43.21747,"lon":5.34592,"is_reserved":false,"is_disabled":true,"rental_uris":{"android":"levelo://app?vid=905576ef-66ce-426e-9600-566828c3b671","ios":"levelo://app?vid=905576ef-66ce-426e-9600-566828c3b671"},"vehicle_type_id":"4","last_reported":1753733587,"current_range_meters":16400,"station_id":"","pricing_plan_id":"cebpf4jnsgd1na2vs0mg"},{"bike_id":"edc93c31-35c3-4bc5-aec7-fdf1428c4e79","system_id":"levelo_inurba_marseille","lat":43.26249,"lon":5.37493,"is_reserved":false,"is_disabled":false,"rental_uris":{"android":"levelo://app?vid=edc93c31-35c3-4bc5-aec7-fdf1428c4e79","ios":"levelo://app?vid=edc93c31-35c3-4bc5-aec7-fdf1428c4e79"},"vehicle_type_id":"4","last_reported":1753733587,"current_range_meters":16400,"station_id":"","pricing_plan_id":"cebpf4jnsgd1na2vs0mg"},{"bike_id":"8f346c07-df4f-459b-ac59-d111eb9f0783","system_id":"levelo_inurba_marseille","lat":43.22491,"lon":5.34816,"is_reserved":false,"is_disabled":false,"rental_uris":{"android":"levelo://app?vid=8f346c07-df4f-459b-ac59-d111eb9f0783","ios":"levelo://app?vid=8f346c07-df4f-459b-ac59-d111eb9f0783"},"vehicle_type_id":"4","last_reported":1753733587,"current_range_meters":16400,"station_id":"st_cvj5dfep6f1abm77gieg","pricing_plan_id":"cebpf4jnsgd1na2vs0mg"},{"bike_id":"b163cbce-9f43-4adc-a88f-c20bb7f5ef9a","system_id":"levelo_inurba_marseille","lat":43.29015,"lon":5.38129,"is_reserved":false,"is_disabled":false,"rental_uris":{"android":"levelo://app?vid=b163cbce-9f43-4adc-a88f-c20bb7f5ef9a","ios":"levelo://app?vid=b163cbce-9f43-4adc-a88f-c20bb7f5ef9a"},"vehicle_type_id":"4","last_reported":1753733587,"current_range_meters":16400,"station_id":"ce4bh4p2rcd13ifvqe1g","pricing_plan_id":"cebpf4jnsgd1na2vs0mg"},{"bike_id":"e6485ac6-3ab0-4361-bc74-1262b4685e83","system_id":"levelo_inurba_marseille","lat":43.28074,"lon":5.39664,"is_reserved":false,"is_disabled":false,"rental_uris":{"android":"levelo://app?vid=e6485ac6-3ab0-4361-bc74-1262b4685e83","ios":"levelo://app?vid=e6485ac6-3ab0-4361-bc74-1262b4685e83"},"vehicle_type_id":"4","last_reported":1753733587,"current_range_meters":16400,"station_id":"ce4bho12rcd13ifvqh2g","pricing_plan_id":"cebpf4jnsgd1na2vs0mg"},{"bike_id":"6dc7452b-0807-4862-b6b1-dea04f7a861f","system_id":"levelo_inurba_marseille","lat":43.26191,"lon":5.37452,"is_reserved":false,"is_disabled":false,"rental_uris":{"android":"levelo://app?vid=6dc7452b-0807-4862-b6b1-dea04f7a861f","ios":"levelo://app?vid=6dc7452b-0807-4862-b6b1-dea04f7a861f"},"vehicle_type_id":"4","last_reported":1753733587,"current_range_meters":16400,"station_id":"ce4bhgp2rcd13ifvqfc0","pricing_plan_id":"cebpf4jnsgd1na2vs0mg"},{"bike_id":"e27c0db7-39d2-477c-a198-3fc5db23fc2e","system_id":"levelo_inurba_marseille","lat":43.28465,"lon":5.38544,"is_reserved":false,"is_disabled":false,"rental_uris":{"android":"levelo://app?vid=e27c0db7-39d2-477c-a198-3fc5db23fc2e","ios":"levelo://app?vid=e27c0db7-39d2-477c-a198-3fc5db23fc2e"},"vehicle_type_id":"4","last_reported":1753733587,"current_range_meters":16000,"station_id":"ce4bh8p2rcd13ifvqeb0","pricing_plan_id":"cebpf4jnsgd1na2vs0mg"},{"bike_id":"18d9d1bb-3481-4fe6-8e41-40913fa9f69c","system_id":"levelo_inurba_marseille","lat":43.24795,"lon":5.37459,"is_reserved":false,"is_disabled":false,"rental_uris":{"android":"levelo://app?vid=18d9d1bb-3481-4fe6-8e41-40913fa9f69c","ios":"levelo://app?vid=18d9d1bb-3481-4fe6-8e41-40913fa9f69c"},"vehicle_type_id":"4","last_reported":1753733587,"current_range_meters":16400,"station_id":"ce4bhgh2rcd13ifvqfb0","pricing_plan_id":"cebpf4jnsgd1na2vs0mg"},{"bike_id":"fe1e01f8-d4ce-40a3-9bef-dc35d4f0ebf5","system_id":"levelo_inurba_marseille","lat":43.28419,"lon":5.34991,"is_reserved":false,"is_disabled":true,"rental_uris":{"android":"levelo://app?vid=fe1e01f8-d4ce-40a3-9bef-dc35d4f0ebf5","ios":"levelo://app?vid=fe1e01f8-d4ce-40a3-9bef-dc35d4f0ebf5"},"vehicle_type_id":"4","last_reported":1753733587,"current_range_meters":16400,"station_id":"ce4bhbh2rcd13ifvqepg","pricing_plan_id":"cebpf4jnsgd1na2vs0mg"},{"bike_id":"b2261cbb-e05d-412d-97ff-56f45c735038","system_id":"levelo_inurba_marseille","lat":43.304601,"lon":5.379315,"is_reserved":false,"is_disabled":false,"rental_uris":{"android":"levelo://app?vid=b2261cbb-e05d-412d-97ff-56f45c735038","ios":"levelo://app?vid=b2261cbb-e05d-412d-97ff-56f45c735038"},"vehicle_type_id":"4","last_reported":1753733587,"current_range_meters":19200,"station_id":"ce4bgup2rcd13ifvqcn0","pricing_plan_id":"cebpf4jnsgd1na2vs0mg"},{"bike_id":"10d081c1-273e-4901-9c1f-64e9f8f6e8dc","system_id":"levelo_inurba_marseille","lat":43.29969,"lon":5.38507,"is_reserved":false,"is_disabled":false,"rental_uris":{"android":"levelo://app?vid=10d081c1-273e-4901-9c1f-64e9f8f6e8dc","ios":"levelo://app?vid=10d081c1-273e-4901-9c1f-64e9f8f6e8dc"},"vehicle_type_id":"4","last_reported":1753733587,"current_range_meters":16400,"station_id":"ce4bgj92rcd13ifvqbd0","pricing_plan_id":"cebpf4jnsgd1na2vs0mg"},{"bike_id":"d74a53f2-a358-4ccb-8d9f-ff313ea2ec34","system_id":"levelo_inurba_marseille","lat":43.21191,"lon":5.35073,"is_reserved":false,"is_disabled":false,"rental_uris":{"android":"levelo://app?vid=d74a53f2-a358-4ccb-8d9f-ff313ea2ec34","ios":"levelo://app?vid=d74a53f2-a358-4ccb-8d9f-ff313ea2ec34"},"vehicle_type_id":"4","last_reported":1753733587,"current_range_meters":16400,"station_id":"st_cvj6sg6p6f1abm77japg","pricing_plan_id":"cebpf4jnsgd1na2vs0mg"},{"bike_id":"88255ee3-5bdb-4dfb-bc09-6ade39a110e2","system_id":"levelo_inurba_marseille","lat":43.23961,"lon":5.36624,"is_reserved":false,"is_disabled":false,"rental_uris":{"android":"levelo://app?vid=88255ee3-5bdb-4dfb-bc09-6ade39a110e2","ios":"levelo://app?vid=88255ee3-5bdb-4dfb-bc09-6ade39a110e2"},"vehicle_type_id":"4","last_reported":1753733587,"current_range_meters":16400,"station_id":"ce4bhi12rcd13ifvqfp0","pricing_plan_id":"cebpf4jnsgd1na2vs0mg"},{"bike_id":"d68f005b-a113-40ab-b864-ae13d182dcb7","system_id":"levelo_inurba_marseille","lat":43.31361,"lon":5.38492,"is_reserved":false,"is_disabled":false,"rental_uris":{"android":"levelo://app?vid=d68f005b-a113-40ab-b864-ae13d182dcb7","ios":"levelo://app?vid=d68f005b-a113-40ab-b864-ae13d182dcb7"},"vehicle_type_id":"4","last_reported":1753733587,"current_range_meters":16800,"station_id":"ce4bgt92rcd13ifvqcf0","pricing_plan_id":"cebpf4jnsgd1na2vs0mg"},{"bike_id":"f7d60fad-0a86-490c-b830-28669403cd61","system_id":"levelo_inurba_marseille","lat":43.29539,"lon":5.38535,"is_reserved":false,"is_disabled":false,"rental_uris":{"android":"levelo://app?vid=f7d60fad-0a86-490c-b830-28669403cd61","ios":"levelo://app?vid=f7d60fad-0a86-490c-b830-28669403cd61"},"vehicle_type_id":"4","last_reported":1753733587,"current_range_meters":16800,"station_id":"ce4bgih2rcd13ifvqba0","pricing_plan_id":"cebpf4jnsgd1na2vs0mg"},{"bike_id":"50ddb991-132a-407b-b3f1-2adbe5e9db55","system_id":"levelo_inurba_marseille","lat":43.3092,"lon":5.40161,"is_reserved":false,"is_disabled":true,"rental_uris":{"android":"levelo://app?vid=50ddb991-132a-407b-b3f1-2adbe5e9db55","ios":"levelo://app?vid=50ddb991-132a-407b-b3f1-2adbe5e9db55"},"vehicle_type_id":"4","last_reported":1753733587,"current_range_meters":16800,"station_id":"ce4bgvp2rcd13ifvqct0","pricing_plan_id":"cebpf4jnsgd1na2vs0mg"},{"bike_id":"4fca0476-db68-435a-a735-859d472979ef","system_id":"levelo_inurba_marseille","lat":43.27567,"lon":5.38417,"is_reserved":false,"is_disabled":false,"rental_uris":{"android":"levelo://app?vid=4fca0476-db68-435a-a735-859d472979ef","ios":"levelo://app?vid=4fca0476-db68-435a-a735-859d472979ef"},"vehicle_type_id":"4","last_reported":1753733587,"current_range_meters":16800,"station_id":"ce4bhh92rcd13ifvqfi0","pricing_plan_id":"cebpf4jnsgd1na2vs0mg"},{"bike_id":"cd23317c-504f-4fcf-bb4b-f40fa6ebbfeb","system_id":"levelo_inurba_marseille","lat":43.295502,"lon":5.385488,"is_reserved":false,"is_disabled":false,"rental_uris":{"android":"levelo://app?vid=cd23317c-504f-4fcf-bb4b-f40fa6ebbfeb","ios":"levelo://app?vid=cd23317c-504f-4fcf-bb4b-f40fa6ebbfeb"},"vehicle_type_id":"4","last_reported":1753733587,"current_range_meters":16800,"station_id":"ce4bgih2rcd13ifvqba0","pricing_plan_id":"cebpf4jnsgd1na2vs0mg"},{"bike_id":"3bc47fe9-f2bb-40b4-a64d-f16b5a9e7396","system_id":"levelo_inurba_marseille","lat":43.2656,"lon":5.39023,"is_reserved":false,"is_disabled":false,"rental_uris":{"android":"levelo://app?vid=3bc47fe9-f2bb-40b4-a64d-f16b5a9e7396","ios":"levelo://app?vid=3bc47fe9-f2bb-40b4-a64d-f16b5a9e7396"},"vehicle_type_id":"4","last_reported":1753733587,"current_range_meters":16800,"station_id":"ce4bhe12rcd13ifvqf30","pricing_plan_id":"cebpf4jnsgd1na2vs0mg"},{"bike_id":"e883b3c2-be15-44fe-b8fb-8aa2b6b18b9a","system_id":"levelo_inurba_marseille","lat":43.26195,"lon":5.3745,"is_reserved":false,"is_disabled":false,"rental_uris":{"android":"levelo://app?vid=e883b3c2-be15-44fe-b8fb-8aa2b6b18b9a","ios":"levelo://app?vid=e883b3c2-be15-44fe-b8fb-8aa2b6b18b9a"},"vehicle_type_id":"4","last_reported":1753733587,"current_range_meters":16800,"station_id":"ce4bhgp2rcd13ifvqfc0","pricing_plan_id":"cebpf4jnsgd1na2vs0mg"},{"bike_id":"839cb358-c777-49a7-9b10-9da2596c35a1","system_id":"levelo_inurba_marseille","lat":43.33762,"lon":5.3749,"is_reserved":false,"is_disabled":false,"rental_uris":{"android":"levelo://app?vid=839cb358-c777-49a7-9b10-9da2596c35a1","ios":"levelo://app?vid=839cb358-c777-49a7-9b10-9da2596c35a1"},"vehicle_type_id":"4","last_reported":1753733587,"current_range_meters":16800,"station_id":"","pricing_plan_id":"cebpf4jnsgd1na2vs0mg"},{"bike_id":"c3ee32a3-551f-4fcf-94e8-8d023a3bf2fc","system_id":"levelo_inurba_marseille","lat":43.2883,"lon":5.39301,"is_reserved":false,"is_disabled":false,"rental_uris":{"android":"levelo://app?vid=c3ee32a3-551f-4fcf-94e8-8d023a3bf2fc","ios":"levelo://app?vid=c3ee32a3-551f-4fcf-94e8-8d023a3bf2fc"},"vehicle_type_id":"4","last_reported":1753733587,"current_range_meters":16800,"station_id":"ce4bh2p2rcd13ifvqdi0","pricing_plan_id":"cebpf4jnsgd1na2vs0mg"},{"bike_id":"3d9f2061-7fb9-4387-9262-8d2451911c2b","system_id":"levelo_inurba_marseille","lat":43.22918,"lon":5.3539,"is_reserved":false,"is_disabled":false,"rental_uris":{"android":"levelo://app?vid=3d9f2061-7fb9-4387-9262-8d2451911c2b","ios":"levelo://app?vid=3d9f2061-7fb9-4387-9262-8d2451911c2b"},"vehicle_type_id":"4","last_reported":1753733587,"current_range_meters":16800,"station_id":"cpo3532slgdg3j2ikp40","pricing_plan_id":"cebpf4jnsgd1na2vs0mg"},{"bike_id":"978250d6-89e4-43d2-82a2-187bf4c07df4","system_id":"levelo_inurba_marseille","lat":43.26563,"lon":5.37301,"is_reserved":false,"is_disabled":false,"rental_uris":{"android":"levelo://app?vid=978250d6-89e4-43d2-82a2-187bf4c07df4","ios":"levelo://app?vid=978250d6-89e4-43d2-82a2-187bf4c07df4"},"vehicle_type_id":"4","last_reported":1753733587,"current_range_meters":16800,"station_id":"ce4bhg12rcd13ifvqf70","pricing_plan_id":"cebpf4jnsgd1na2vs0mg"},{"bike_id":"35c04ed3-3f32-4bf9-8a1e-9f2898086490","system_id":"levelo_inurba_marseille","lat":43.33756,"lon":5.37443,"is_reserved":false,"is_disabled":false,"rental_uris":{"android":"levelo://app?vid=35c04ed3-3f32-4bf9-8a1e-9f2898086490","ios":"levelo://app?vid=35c04ed3-3f32-4bf9-8a1e-9f2898086490"},"vehicle_type_id":"4","last_reported":1753733587,"current_range_meters":17200,"station_id":"","pricing_plan_id":"cebpf4jnsgd1na2vs0mg"},{"bike_id":"91a0b7fe-14e8-4429-a37f-cfe4e6e9493c","system_id":"levelo_inurba_marseille","lat":43.29532,"lon":5.38555,"is_reserved":false,"is_disabled":false,"rental_uris":{"android":"levelo://app?vid=91a0b7fe-14e8-4429-a37f-cfe4e6e9493c","ios":"levelo://app?vid=91a0b7fe-14e8-4429-a37f-cfe4e6e9493c"},"vehicle_type_id":"4","last_reported":1753733587,"current_range_meters":17200,"station_id":"ce4bgih2rcd13ifvqba0","pricing_plan_id":"cebpf4jnsgd1na2vs0mg"},{"bike_id":"4a789262-50b7-4dff-96a3-d59dd4ab1de0","system_id":"levelo_inurba_marseille","lat":43.28827,"lon":5.35853,"is_reserved":false,"is_disabled":false,"rental_uris":{"android":"levelo://app?vid=4a789262-50b7-4dff-96a3-d59dd4ab1de0","ios":"levelo://app?vid=4a789262-50b7-4dff-96a3-d59dd4ab1de0"},"vehicle_type_id":"4","last_reported":1753733587,"current_range_meters":17200,"station_id":"ce4bhb12rcd13ifvqem0","pricing_plan_id":"cebpf4jnsgd1na2vs0mg"},{"bike_id":"19f4a97d-9afe-4b74-a880-076e94f9a175","system_id":"levelo_inurba_marseille","lat":43.28439,"lon":5.39207,"is_reserved":false,"is_disabled":false,"rental_uris":{"android":"levelo://app?vid=19f4a97d-9afe-4b74-a880-076e94f9a175","ios":"levelo://app?vid=19f4a97d-9afe-4b74-a880-076e94f9a175"},"vehicle_type_id":"4","last_reported":1753733587,"current_range_meters":17200,"station_id":"ce4bhoh2rcd13ifvqh5g","pricing_plan_id":"cebpf4jnsgd1na2vs0mg"},{"bike_id":"234b5607-275d-464d-b9ac-142f4d6e3f7d","system_id":"levelo_inurba_marseille","lat":43.27995,"lon":5.40009,"is_reserved":false,"is_disabled":false,"rental_uris":{"android":"levelo://app?vid=234b5607-275d-464d-b9ac-142f4d6e3f7d","ios":"levelo://app?vid=234b5607-275d-464d-b9ac-142f4d6e3f7d"},"vehicle_type_id":"4","last_reported":1753733587,"current_range_meters":17200,"station_id":"ce4bho92rcd13ifvqh4g","pricing_plan_id":"cebpf4jnsgd1na2vs0mg"},{"bike_id":"6f7ccb69-bf92-486d-92b3-1d25f0d6e17f","system_id":"levelo_inurba_marseille","lat":43.26218,"lon":5.37456,"is_reserved":false,"is_disabled":false,"rental_uris":{"android":"levelo://app?vid=6f7ccb69-bf92-486d-92b3-1d25f0d6e17f","ios":"levelo://app?vid=6f7ccb69-bf92-486d-92b3-1d25f0d6e17f"},"vehicle_type_id":"4","last_reported":1753733587,"current_range_meters":17200,"station_id":"ce4bhgp2rcd13ifvqfc0","pricing_plan_id":"cebpf4jnsgd1na2vs0mg"},{"bike_id":"5dfabdc2-b806-44aa-94b4-47dba92b8204","system_id":"levelo_inurba_marseille","lat":43.2293,"lon":5.35388,"is_reserved":false,"is_disabled":false,"rental_uris":{"android":"levelo://app?vid=5dfabdc2-b806-44aa-94b4-47dba92b8204","ios":"levelo://app?vid=5dfabdc2-b806-44aa-94b4-47dba92b8204"},"vehicle_type_id":"4","last_reported":1753733587,"current_range_meters":17200,"station_id":"cpo3532slgdg3j2ikp40","pricing_plan_id":"cebpf4jnsgd1na2vs0mg"},{"bike_id":"af88012c-476f-4f79-91cc-a83dfea30034","system_id":"levelo_inurba_marseille","lat":43.2835,"lon":5.38105,"is_reserved":false,"is_disabled":false,"rental_uris":{"android":"levelo://app?vid=af88012c-476f-4f79-91cc-a83dfea30034","ios":"levelo://app?vid=af88012c-476f-4f79-91cc-a83dfea30034"},"vehicle_type_id":"4","last_reported":1753733587,"current_range_meters":17200,"station_id":"ce4bh412rcd13ifvqdr0","pricing_plan_id":"cebpf4jnsgd1na2vs0mg"},{"bike_id":"49491b9e-bc95-484f-b8e1-371ec4848922","system_id":"levelo_inurba_marseille","lat":43.229218,"lon":5.353708,"is_reserved":false,"is_disabled":false,"rental_uris":{"android":"levelo://app?vid=49491b9e-bc95-484f-b8e1-371ec4848922","ios":"levelo://app?vid=49491b9e-bc95-484f-b8e1-371ec4848922"},"vehicle_type_id":"4","last_reported":1753733587,"current_range_meters":17200,"station_id":"cpo3532slgdg3j2ikp40","pricing_plan_id":"cebpf4jnsgd1na2vs0mg"},{"bike_id":"7a00bbc5-9a1f-446a-9a97-534ec5a5827b","system_id":"levelo_inurba_marseille","lat":43.26203,"lon":5.37466,"is_reserved":false,"is_disabled":false,"rental_uris":{"android":"levelo://app?vid=7a00bbc5-9a1f-446a-9a97-534ec5a5827b","ios":"levelo://app?vid=7a00bbc5-9a1f-446a-9a97-534ec5a5827b"},"vehicle_type_id":"4","last_reported":1753733587,"current_range_meters":17200,"station_id":"ce4bhgp2rcd13ifvqfc0","pricing_plan_id":"cebpf4jnsgd1na2vs0mg"},{"bike_id":"c49463dd-1217-4ce4-b76d-fa451fa00ef8","system_id":"levelo_inurba_marseille","lat":43.28616,"lon":5.3511,"is_reserved":false,"is_disabled":false,"rental_uris":{"android":"levelo://app?vid=c49463dd-1217-4ce4-b76d-fa451fa00ef8","ios":"levelo://app?vid=c49463dd-1217-4ce4-b76d-fa451fa00ef8"},"vehicle_type_id":"4","last_reported":1753733587,"current_range_meters":17200,"station_id":"ce4bhch2rcd13ifvqeug","pricing_plan_id":"cebpf4jnsgd1na2vs0mg"},{"bike_id":"de7a02f5-fdaf-4fd7-90bc-8f34669b86bf","system_id":"levelo_inurba_marseille","lat":43.280815,"lon":5.396626,"is_reserved":false,"is_disabled":false,"rental_uris":{"android":"levelo://app?vid=de7a02f5-fdaf-4fd7-90bc-8f34669b86bf","ios":"levelo://app?vid=de7a02f5-fdaf-4fd7-90bc-8f34669b86bf"},"vehicle_type_id":"4","last_reported":1753733587,"current_range_meters":17200,"station_id":"","pricing_plan_id":"cebpf4jnsgd1na2vs0mg"},{"bike_id":"c11f4789-7d37-4722-9529-2b6d43a6d56c","system_id":"levelo_inurba_marseille","lat":43.2817,"lon":5.4265,"is_reserved":false,"is_disabled":true,"rental_uris":{"android":"levelo://app?vid=c11f4789-7d37-4722-9529-2b6d43a6d56c","ios":"levelo://app?vid=c11f4789-7d37-4722-9529-2b6d43a6d56c"},"vehicle_type_id":"4","last_reported":1753733587,"current_range_meters":17200,"station_id":"ce4bhnh2rcd13ifvqgug","pricing_plan_id":"cebpf4jnsgd1na2vs0mg"},{"bike_id":"75c073ec-9535-4d35-886a-7cda86424558","system_id":"levelo_inurba_marseille","lat":43.30102,"lon":5.39095,"is_reserved":false,"is_disabled":false,"rental_uris":{"android":"levelo://app?vid=75c073ec-9535-4d35-886a-7cda86424558","ios":"levelo://app?vid=75c073ec-9535-4d35-886a-7cda86424558"},"vehicle_type_id":"4","last_reported":1753733587,"current_range_meters":17200,"station_id":"ce4bh192rcd13ifvqdb0","pricing_plan_id":"cebpf4jnsgd1na2vs0mg"},{"bike_id":"d08b6ea0-1fd3-4c34-817f-960720a8c326","system_id":"levelo_inurba_marseille","lat":43.29309,"lon":5.38536,"is_reserved":false,"is_disabled":false,"rental_uris":{"android":"levelo://app?vid=d08b6ea0-1fd3-4c34-817f-960720a8c326","ios":"levelo://app?vid=d08b6ea0-1fd3-4c34-817f-960720a8c326"},"vehicle_type_id":"4","last_reported":1753733587,"current_range_meters":17200,"station_id":"","pricing_plan_id":"cebpf4jnsgd1na2vs0mg"},{"bike_id":"f26efa5e-65eb-49c1-ac45-4876b46677f5","system_id":"levelo_inurba_marseille","lat":43.27173,"lon":5.40997,"is_reserved":false,"is_disabled":false,"rental_uris":{"android":"levelo://app?vid=f26efa5e-65eb-49c1-ac45-4876b46677f5","ios":"levelo://app?vid=f26efa5e-65eb-49c1-ac45-4876b46677f5"},"vehicle_type_id":"4","last_reported":1753733587,"current_range_meters":17200,"station_id":"ce4bhl12rcd13ifvqgf0","pricing_plan_id":"cebpf4jnsgd1na2vs0mg"},{"bike_id":"1e90265e-14d6-43a1-b563-50d4767a5c47","system_id":"levelo_inurba_marseille","lat":43.26481,"lon":5.39554,"is_reserved":false,"is_disabled":false,"rental_uris":{"android":"levelo://app?vid=1e90265e-14d6-43a1-b563-50d4767a5c47","ios":"levelo://app?vid=1e90265e-14d6-43a1-b563-50d4767a5c47"},"vehicle_type_id":"4","last_reported":1753733587,"current_range_meters":17200,"station_id":"ce4bhi12rcd13ifvqfq0","pricing_plan_id":"cebpf4jnsgd1na2vs0mg"},{"bike_id":"57927d23-89e7-4ddd-a64f-277b3ded0af3","system_id":"levelo_inurba_marseille","lat":43.2407,"lon":5.37713,"is_reserved":false,"is_disabled":false,"rental_uris":{"android":"levelo://app?vid=57927d23-89e7-4ddd-a64f-277b3ded0af3","ios":"levelo://app?vid=57927d23-89e7-4ddd-a64f-277b3ded0af3"},"vehicle_type_id":"4","last_reported":1753733587,"current_range_meters":17600,"station_id":"ce4bhnp2rcd13ifvqgvg","pricing_plan_id":"cebpf4jnsgd1na2vs0mg"},{"bike_id":"4ffc9d79-d56a-482d-b7d9-a5892348f435","system_id":"levelo_inurba_marseille","lat":43.28427,"lon":5.3502,"is_reserved":false,"is_disabled":false,"rental_uris":{"android":"levelo://app?vid=4ffc9d79-d56a-482d-b7d9-a5892348f435","ios":"levelo://app?vid=4ffc9d79-d56a-482d-b7d9-a5892348f435"},"vehicle_type_id":"4","last_reported":1753733587,"current_range_meters":17600,"station_id":"ce4bhbh2rcd13ifvqepg","pricing_plan_id":"cebpf4jnsgd1na2vs0mg"},{"bike_id":"eb899311-9461-4d06-8287-47c6d7fd9b65","system_id":"levelo_inurba_marseille","lat":43.28491,"lon":5.38577,"is_reserved":false,"is_disabled":true,"rental_uris":{"android":"levelo://app?vid=eb899311-9461-4d06-8287-47c6d7fd9b65","ios":"levelo://app?vid=eb899311-9461-4d06-8287-47c6d7fd9b65"},"vehicle_type_id":"4","last_reported":1753733587,"current_range_meters":17600,"station_id":"ce4bh8p2rcd13ifvqeb0","pricing_plan_id":"cebpf4jnsgd1na2vs0mg"},{"bike_id":"c0831af8-626f-42e9-9390-189c3db4410e","system_id":"levelo_inurba_marseille","lat":43.31357,"lon":5.38493,"is_reserved":false,"is_disabled":false,"rental_uris":{"android":"levelo://app?vid=c0831af8-626f-42e9-9390-189c3db4410e","ios":"levelo://app?vid=c0831af8-626f-42e9-9390-189c3db4410e"},"vehicle_type_id":"4","last_reported":1753733587,"current_range_meters":17600,"station_id":"ce4bgt92rcd13ifvqcf0","pricing_plan_id":"cebpf4jnsgd1na2vs0mg"},{"bike_id":"9e0794d9-5b0f-4abe-86a5-cb5105e71f83","system_id":"levelo_inurba_marseille","lat":43.29531,"lon":5.38545,"is_reserved":false,"is_disabled":false,"rental_uris":{"android":"levelo://app?vid=9e0794d9-5b0f-4abe-86a5-cb5105e71f83","ios":"levelo://app?vid=9e0794d9-5b0f-4abe-86a5-cb5105e71f83"},"vehicle_type_id":"4","last_reported":1753733587,"current_range_meters":17200,"station_id":"ce4bgih2rcd13ifvqba0","pricing_plan_id":"cebpf4jnsgd1na2vs0mg"},{"bike_id":"84381d51-d8bf-4e0c-b58a-542cf5fe160c","system_id":"levelo_inurba_marseille","lat":43.3018,"lon":5.39926,"is_reserved":false,"is_disabled":false,"rental_uris":{"android":"levelo://app?vid=84381d51-d8bf-4e0c-b58a-542cf5fe160c","ios":"levelo://app?vid=84381d51-d8bf-4e0c-b58a-542cf5fe160c"},"vehicle_type_id":"4","last_reported":1753733587,"current_range_meters":17600,"station_id":"","pricing_plan_id":"cebpf4jnsgd1na2vs0mg"},{"bike_id":"8d456a32-f5e7-4d9d-ae9d-a2a9a58546f8","system_id":"levelo_inurba_marseille","lat":43.295261,"lon":5.385424,"is_reserved":false,"is_disabled":false,"rental_uris":{"android":"levelo://app?vid=8d456a32-f5e7-4d9d-ae9d-a2a9a58546f8","ios":"levelo://app?vid=8d456a32-f5e7-4d9d-ae9d-a2a9a58546f8"},"vehicle_type_id":"4","last_reported":1753733587,"current_range_meters":17600,"station_id":"ce4bgih2rcd13ifvqba0","pricing_plan_id":"cebpf4jnsgd1na2vs0mg"},{"bike_id":"75aa074a-8804-4fec-88d9-260a8abf5ca1","system_id":"levelo_inurba_marseille","lat":43.26549,"lon":5.3732,"is_reserved":false,"is_disabled":false,"rental_uris":{"android":"levelo://app?vid=75aa074a-8804-4fec-88d9-260a8abf5ca1","ios":"levelo://app?vid=75aa074a-8804-4fec-88d9-260a8abf5ca1"},"vehicle_type_id":"4","last_reported":1753733587,"current_range_meters":17600,"station_id":"ce4bhg12rcd13ifvqf70","pricing_plan_id":"cebpf4jnsgd1na2vs0mg"},{"bike_id":"b5a9c95c-b3e9-4464-908a-30684a2d7b90","system_id":"levelo_inurba_marseille","lat":43.28987,"lon":5.35711,"is_reserved":false,"is_disabled":false,"rental_uris":{"android":"levelo://app?vid=b5a9c95c-b3e9-4464-908a-30684a2d7b90","ios":"levelo://app?vid=b5a9c95c-b3e9-4464-908a-30684a2d7b90"},"vehicle_type_id":"4","last_reported":1753733587,"current_range_meters":17600,"station_id":"","pricing_plan_id":"cebpf4jnsgd1na2vs0mg"},{"bike_id":"62e54455-0cad-476e-836b-6efe5dee6c34","system_id":"levelo_inurba_marseille","lat":43.22495,"lon":5.34775,"is_reserved":false,"is_disabled":false,"rental_uris":{"android":"levelo://app?vid=62e54455-0cad-476e-836b-6efe5dee6c34","ios":"levelo://app?vid=62e54455-0cad-476e-836b-6efe5dee6c34"},"vehicle_type_id":"4","last_reported":1753733587,"current_range_meters":17600,"station_id":"st_cvj5dfep6f1abm77gieg","pricing_plan_id":"cebpf4jnsgd1na2vs0mg"},{"bike_id":"d28c55a6-f91c-47bc-82a5-9dc653cbc3d1","system_id":"levelo_inurba_marseille","lat":43.29895,"lon":5.38158,"is_reserved":false,"is_disabled":false,"rental_uris":{"android":"levelo://app?vid=d28c55a6-f91c-47bc-82a5-9dc653cbc3d1","ios":"levelo://app?vid=d28c55a6-f91c-47bc-82a5-9dc653cbc3d1"},"vehicle_type_id":"4","last_reported":1753733587,"current_range_meters":17600,"station_id":"ce4bgj12rcd13ifvqbc0","pricing_plan_id":"cebpf4jnsgd1na2vs0mg"},{"bike_id":"90d7df2a-251b-43b9-9339-5d650e173049","system_id":"levelo_inurba_marseille","lat":43.22933,"lon":5.35381,"is_reserved":false,"is_disabled":false,"rental_uris":{"android":"levelo://app?vid=90d7df2a-251b-43b9-9339-5d650e173049","ios":"levelo://app?vid=90d7df2a-251b-43b9-9339-5d650e173049"},"vehicle_type_id":"4","last_reported":1753733587,"current_range_meters":17600,"station_id":"cpo3532slgdg3j2ikp40","pricing_plan_id":"cebpf4jnsgd1na2vs0mg"},{"bike_id":"39080695-4aff-4fdf-b171-11c07b4b0950","system_id":"levelo_inurba_marseille","lat":43.24725,"lon":5.38181,"is_reserved":false,"is_disabled":false,"rental_uris":{"android":"levelo://app?vid=39080695-4aff-4fdf-b171-11c07b4b0950","ios":"levelo://app?vid=39080695-4aff-4fdf-b171-11c07b4b0950"},"vehicle_type_id":"4","last_reported":1753733587,"current_range_meters":17600,"station_id":"","pricing_plan_id":"cebpf4jnsgd1na2vs0mg"},{"bike_id":"5d57ebcf-2331-4742-b553-56b444588875","system_id":"levelo_inurba_marseille","lat":43.2622,"lon":5.37478,"is_reserved":false,"is_disabled":false,"rental_uris":{"android":"levelo://app?vid=5d57ebcf-2331-4742-b553-56b444588875","ios":"levelo://app?vid=5d57ebcf-2331-4742-b553-56b444588875"},"vehicle_type_id":"4","last_reported":1753733587,"current_range_meters":18000,"station_id":"ce4bhgp2rcd13ifvqfc0","pricing_plan_id":"cebpf4jnsgd1na2vs0mg"},{"bike_id":"df59e2f2-ebcb-4b5d-884c-2c743fa57461","system_id":"levelo_inurba_marseille","lat":43.28622,"lon":5.35114,"is_reserved":false,"is_disabled":false,"rental_uris":{"android":"levelo://app?vid=df59e2f2-ebcb-4b5d-884c-2c743fa57461","ios":"levelo://app?vid=df59e2f2-ebcb-4b5d-884c-2c743fa57461"},"vehicle_type_id":"4","last_reported":1753733587,"current_range_meters":18000,"station_id":"ce4bhch2rcd13ifvqeug","pricing_plan_id":"cebpf4jnsgd1na2vs0mg"},{"bike_id":"d70eab93-aabb-484c-b669-64ff9d17ce6c","system_id":"levelo_inurba_marseille","lat":43.31337,"lon":5.36716,"is_reserved":false,"is_disabled":false,"rental_uris":{"android":"levelo://app?vid=d70eab93-aabb-484c-b669-64ff9d17ce6c","ios":"levelo://app?vid=d70eab93-aabb-484c-b669-64ff9d17ce6c"},"vehicle_type_id":"4","last_reported":1753733587,"current_range_meters":17600,"station_id":"ce4bgr92rcd13ifvqc6g","pricing_plan_id":"cebpf4jnsgd1na2vs0mg"},{"bike_id":"ad736a16-2922-4d70-ad7b-1cc9b960fedd","system_id":"levelo_inurba_marseille","lat":43.290279,"lon":5.386616,"is_reserved":false,"is_disabled":false,"rental_uris":{"android":"levelo://app?vid=ad736a16-2922-4d70-ad7b-1cc9b960fedd","ios":"levelo://app?vid=ad736a16-2922-4d70-ad7b-1cc9b960fedd"},"vehicle_type_id":"4","last_reported":1753733587,"current_range_meters":18000,"station_id":"ce4bh4p2rcd13ifvqe0g","pricing_plan_id":"cebpf4jnsgd1na2vs0mg"},{"bike_id":"f678aa4b-31eb-4ee2-8d31-92d2cbeb67ef","system_id":"levelo_inurba_marseille","lat":43.29283,"lon":5.37449,"is_reserved":false,"is_disabled":false,"rental_uris":{"android":"levelo://app?vid=f678aa4b-31eb-4ee2-8d31-92d2cbeb67ef","ios":"levelo://app?vid=f678aa4b-31eb-4ee2-8d31-92d2cbeb67ef"},"vehicle_type_id":"4","last_reported":1753733587,"current_range_meters":18000,"station_id":"ce4bgi12rcd13ifvqb70","pricing_plan_id":"cebpf4jnsgd1na2vs0mg"},{"bike_id":"8600117f-2868-4874-a87b-44da40a3eccd","system_id":"levelo_inurba_marseille","lat":43.2293,"lon":5.35384,"is_reserved":false,"is_disabled":false,"rental_uris":{"android":"levelo://app?vid=8600117f-2868-4874-a87b-44da40a3eccd","ios":"levelo://app?vid=8600117f-2868-4874-a87b-44da40a3eccd"},"vehicle_type_id":"4","last_reported":1753733587,"current_range_meters":18000,"station_id":"cpo3532slgdg3j2ikp40","pricing_plan_id":"cebpf4jnsgd1na2vs0mg"},{"bike_id":"d8e6094c-0de7-412e-bab8-3969f4a35524","system_id":"levelo_inurba_marseille","lat":43.29847,"lon":5.37574,"is_reserved":false,"is_disabled":false,"rental_uris":{"android":"levelo://app?vid=d8e6094c-0de7-412e-bab8-3969f4a35524","ios":"levelo://app?vid=d8e6094c-0de7-412e-bab8-3969f4a35524"},"vehicle_type_id":"4","last_reported":1753733587,"current_range_meters":18000,"station_id":"","pricing_plan_id":"cebpf4jnsgd1na2vs0mg"},{"bike_id":"0284b153-ed18-4aff-854a-398618bd67fc","system_id":"levelo_inurba_marseille","lat":43.28414,"lon":5.35001,"is_reserved":false,"is_disabled":false,"rental_uris":{"android":"levelo://app?vid=0284b153-ed18-4aff-854a-398618bd67fc","ios":"levelo://app?vid=0284b153-ed18-4aff-854a-398618bd67fc"},"vehicle_type_id":"4","last_reported":1753733587,"current_range_meters":18000,"station_id":"ce4bhbh2rcd13ifvqepg","pricing_plan_id":"cebpf4jnsgd1na2vs0mg"},