{"last_updated":1740680016,"ttl":60,"version":"2.2","data":{"bikes":[{"bike_id":"e00b5aea-eebb-4a11-bf1c-3d86eebc5ea1","system_id":"levelo_inurba_marseille","lat":43.28152,"lon":5.42647,"is_reserved":false,"is_disabled":false,"rental_uris":{"android":"levelo://app?vid=e00b5aea-eebb-4a11-bf1c-3d86eebc5ea1","ios":"levelo://app?vid=e00b5aea-eebb-4a11-bf1c-3d86eebc5ea1"},"vehicle_type_id":"4","last_reported":1740680016,"current_range_meters":2800,"station_id":"ce4bhnh2rcd13ifvqgug","pricing_plan_id":"cebpf4jnsgd1na2vs0mg"},{"bike_id":"f1763837-b717-4236-9475-bc2a59110291","system_id":"levelo_inurba_marseille","lat":43.27988,"lon":5.41652,"is_reserved":false,"is_disabled":false,"rental_uris":{"android":"levelo://app?vid=f1763837-b717-4236-9475-bc2a59110291","ios":"levelo://app?vid=f1763837-b717-4236-9475-bc2a59110291"},"vehicle_type_id":"4","last_reported":1740680016,"current_range_meters":2000,"station_id":"ce4bho12rcd13ifvqh1g","pricing_plan_id":"cebpf4jnsgd1na2vs0mg"},{"bike_id":"b5368874-e19e-4e33-8e44-b3ac25e43af6","system_id":"levelo_inurba_marseille","lat":43.31314,"lon":5.37082,"is_reserved":false,"is_disabled":false,"rental_uris":{"android":"levelo://app?vid=b5368874-e19e-4e33-8e44-b3ac25e43af6","ios":"levelo://app?vid=b5368874-e19e-4e33-8e44-b3ac25e43af6"},"vehicle_type_id":"4","last_reported":1740680016,"current_range_meters":2800,"station_id":"","pricing_plan_id":"cebpf4jnsgd1na2vs0mg"},{"bike_id":"c844d88f-c57c-4aaa-b06b-2247e01589c7","system_id":"levelo_inurba_marseille","lat":43.26781,"lon":5.39417,"is_reserved":false,"is_disabled":false,"rental_uris":{"android":"levelo://app?vid=c844d88f-c57c-4aaa-b06b-2247e01589c7","ios":"levelo://app?vid=c844d88f-c57c-4aaa-b06b-2247e01589c7"},"vehicle_type_id":"4","last_reported":1740680016,"current_range_meters":2800,"station_id":"ce4bhh12rcd13ifvqfg0","pricing_plan_id":"cebpf4jnsgd1na2vs0mg"},{"bike_id":"4ed62df5-8789-40ec-bdbc-7a123ff09130","system_id":"levelo_inurba_marseille","lat":43.29034,"lon":5.37567,"is_reserved":false,"is_disabled":false,"rental_uris":{"android":"levelo://app?vid=4ed62df5-8789-40ec-bdbc-7a123ff09130","ios":"levelo://app?vid=4ed62df5-8789-40ec-bdbc-7a123ff09130"},"vehicle_type_id":"4","last_reported":1740680016,"current_range_meters":1600,"station_id":"ce4bh692rcd13ifvqe90","pricing_plan_id":"cebpf4jnsgd1na2vs0mg"},{"bike_id":"640aae84-8e2f-4929-a15c-8f2862940c5d","system_id":"levelo_inurba_marseille","lat":43.27908,"lon":5.37991,"is_reserved":false,"is_disabled":false,"rental_uris":{"android":"levelo://app?vid=640aae84-8e2f-4929-a15c-8f2862940c5d","ios":"levelo://app?vid=640aae84-8e2f-4929-a15c-8f2862940c5d"},"vehicle_type_id":"4","last_reported":1740680016,"current_range_meters":2800,"station_id":"ce4bhf92rcd13ifvqf50","pricing_plan_id":"cebpf4jnsgd1na2vs0mg"},{"bike_id":"8d106a55-62e0-4c11-8627-92ac9349a131","system_id":"levelo_inurba_marseille","lat":43.32738,"lon":5.39236,"is_reserved":false,"is_disabled":false,"rental_uris":{"android":"levelo://app?vid=8d106a55-62e0-4c11-8627-92ac9349a131","ios":"levelo://app?vid=8d106a55-62e0-4c11-8627-92ac9349a131"},"vehicle_type_id":"4","last_reported":1740680016,"current_range_meters":3200,"station_id":"","pricing_plan_id":"cebpf4jnsgd1na2vs0mg"},{"bike_id":"3a0c0a74-a3bc-47a7-a887-de18925e96f3","system_id":"levelo_inurba_marseille","lat":43.26031,"lon":5.37554,"is_reserved":false,"is_disabled":false,"rental_uris":{"android":"levelo://app?vid=3a0c0a74-a3bc-47a7-a887-de18925e96f3","ios":"levelo://app?vid=3a0c0a74-a3bc-47a7-a887-de18925e96f3"},"vehicle_type_id":"4","last_reported":1740680016,"current_range_meters":3200,"station_id":"ce4bhgh2rcd13ifvqfa0","pricing_plan_id":"cebpf4jnsgd1na2vs0mg"},{"bike_id":"ae70189c-c99b-41f7-a425-e295eac4d66c","system_id":"levelo_inurba_marseille","lat":43.31321,"lon":5.39693,"is_reserved":false,"is_disabled":false,"rental_uris":{"android":"levelo://app?vid=ae70189c-c99b-41f7-a425-e295eac4d66c","ios":"levelo://app?vid=ae70189c-c99b-41f7-a425-e295eac4d66c"},"vehicle_type_id":"4","last_reported":1740680016,"current_range_meters":3200,"station_id":"ce4bgvp2rcd13ifvqcu0","pricing_plan_id":"cebpf4jnsgd1na2vs0mg"},{"bike_id":"9dcc9010-af29-4293-9763-ae4b69600ec7","system_id":"levelo_inurba_marseille","lat":43.30956,"lon":5.39034,"is_reserved":false,"is_disabled":false,"rental_uris":{"android":"levelo://app?vid=9dcc9010-af29-4293-9763-ae4b69600ec7","ios":"levelo://app?vid=9dcc9010-af29-4293-9763-ae4b69600ec7"},"vehicle_type_id":"4","last_reported":1740680016,"current_range_meters":3200,"station_id":"ce4bgup2rcd13ifvqco0","pricing_plan_id":"cebpf4jnsgd1na2vs0mg"},{"bike_id":"7e87147c-0284-4138-8c11-d9b75f832cf6","system_id":"levelo_inurba_marseille","lat":43.25582,"lon":5.38231,"is_reserved":false,"is_disabled":false,"rental_uris":{"android":"levelo://app?vid=7e87147c-0284-4138-8c11-d9b75f832cf6","ios":"levelo://app?vid=7e87147c-0284-4138-8c11-d9b75f832cf6"},"vehicle_type_id":"4","last_reported":1740680016,"current_range_meters":3200,"station_id":"ce4bhih2rcd13ifvqfs0","pricing_plan_id":"cebpf4jnsgd1na2vs0mg"},{"bike_id":"45f88f4e-60c1-4e76-a254-e71c2f32640a","system_id":"levelo_inurba_marseille","lat":43.29427,"lon":5.39753,"is_reserved":false,"is_disabled":false,"rental_uris":{"android":"levelo://app?vid=45f88f4e-60c1-4e76-a254-e71c2f32640a","ios":"levelo://app?vid=45f88f4e-60c1-4e76-a254-e71c2f32640a"},"vehicle_type_id":"4","last_reported":1740680016,"current_range_meters":3200,"station_id":"ce4bh3h2rcd13ifvqdo0","pricing_plan_id":"cebpf4jnsgd1na2vs0mg"},{"bike_id":"88406f65-b4b2-4c3f-9fc7-03f5d8cd7d83","system_id":"levelo_inurba_marseille","lat":43.27849,"lon":5.40798,"is_reserved":false,"is_disabled":false,"rental_uris":{"android":"levelo://app?vid=88406f65-b4b2-4c3f-9fc7-03f5d8cd7d83","ios":"levelo://app?vid=88406f65-b4b2-4c3f-9fc7-03f5d8cd7d83"},"vehicle_type_id":"4","last_reported":1740680016,"current_range_meters":3200,"station_id":"","pricing_plan_id":"cebpf4jnsgd1na2vs0mg"},{"bike_id":"c0f9da6a-94bb-4a29-b92e-beecdffe3853","system_id":"levelo_inurba_marseille","lat":43.336,"lon":5.41035,"is_reserved":false,"is_disabled":false,"rental_uris":{"android":"levelo://app?vid=c0f9da6a-94bb-4a29-b92e-beecdffe3853","ios":"levelo://app?vid=c0f9da6a-94bb-4a29-b92e-beecdffe3853"},"vehicle_type_id":"4","last_reported":1740680016,"current_range_meters":12800,"station_id":"ce4bhqh2rcd13ifvqhmg","pricing_plan_id":"cebpf4jnsgd1na2vs0mg"},{"bike_id":"208d8e6c-23dc-41dc-958c-e4f08e42db3e","system_id":"levelo_inurba_marseille","lat":43.28105,"lon":5.37838,"is_reserved":false,"is_disabled":false,"rental_uris":{"android":"levelo://app?vid=208d8e6c-23dc-41dc-958c-e4f08e42db3e","ios":"levelo://app?vid=208d8e6c-23dc-41dc-958c-e4f08e42db3e"},"vehicle_type_id":"4","last_reported":1740680016,"current_range_meters":2800,"station_id":"ce4bha12rcd13ifvqee0","pricing_plan_id":"cebpf4jnsgd1na2vs0mg"},{"bike_id":"78f82992-06a0-42d2-a600-a62f6a13c390","system_id":"levelo_inurba_marseille","lat":43.25583,"lon":5.38236,"is_reserved":false,"is_disabled":false,"rental_uris":{"android":"levelo://app?vid=78f82992-06a0-42d2-a600-a62f6a13c390","ios":"levelo://app?vid=78f82992-06a0-42d2-a600-a62f6a13c390"},"vehicle_type_id":"4","last_reported":1740680016,"current_range_meters":3200,"station_id":"ce4bhih2rcd13ifvqfs0","pricing_plan_id":"cebpf4jnsgd1na2vs0mg"},{"bike_id":"0ac55ddb-a288-49ea-9f77-ff0500a1a68a","system_id":"levelo_inurba_marseille","lat":43.30286,"lon":5.39229,"is_reserved":false,"is_disabled":false,"rental_uris":{"android":"levelo://app?vid=0ac55ddb-a288-49ea-9f77-ff0500a1a68a","ios":"levelo://app?vid=0ac55ddb-a288-49ea-9f77-ff0500a1a68a"},"vehicle_type_id":"4","last_reported":1740680016,"current_range_meters":2800,"station_id":"ce4bgt92rcd13ifvqcf0","pricing_plan_id":"cebpf4jnsgd1na2vs0mg"},{"bike_id":"d19fb45b-52d9-410f-aed3-00b10125c17f","system_id":"levelo_inurba_marseille","lat":43.29346,"lon":5.37954,"is_reserved":false,"is_disabled":false,"rental_uris":{"android":"levelo://app?vid=d19fb45b-52d9-410f-aed3-00b10125c17f","ios":"levelo://app?vid=d19fb45b-52d9-410f-aed3-00b10125c17f"},"vehicle_type_id":"4","last_reported":1740680016,"current_range_meters":3200,"station_id":"ce4bgh92rcd13ifvqb40","pricing_plan_id":"cebpf4jnsgd1na2vs0mg"},{"bike_id":"998713f0-f5f4-4113-b29d-b3cea6f50bcc","system_id":"levelo_inurba_marseille","lat":43.28157,"lon":5.42643,"is_reserved":false,"is_disabled":false,"rental_uris":{"android":"levelo://app?vid=998713f0-f5f4-4113-b29d-b3cea6f50bcc","ios":"levelo://app?vid=998713f0-f5f4-4113-b29d-b3cea6f50bcc"},"vehicle_type_id":"4","last_reported":1740680016,"current_range_meters":2800,"station_id":"ce4bhnh2rcd13ifvqgug","pricing_plan_id":"cebpf4jnsgd1na2vs0mg"},{"bike_id":"6107e21e-9c6d-4bf5-bdfe-52cabfa09c41","system_id":"levelo_inurba_marseille","lat":43.29844,"lon":5.36286,"is_reserved":false,"is_disabled":false,"rental_uris":{"android":"levelo://app?vid=6107e21e-9c6d-4bf5-bdfe-52cabfa09c41","ios":"levelo://app?vid=6107e21e-9c6d-4bf5-bdfe-52cabfa09c41"},"vehicle_type_id":"4","last_reported":1740680016,"current_range_meters":2000,"station_id":"ce4bgpp2rcd13ifvqc3g","pricing_plan_id":"cebpf4jnsgd1na2vs0mg"},{"bike_id":"c74b4061-6aca-4ee7-97a8-6c7bff98fd7d","system_id":"levelo_inurba_marseille","lat":43.30663,"lon":5.40086,"is_reserved":false,"is_disabled":false,"rental_uris":{"android":"levelo://app?vid=c74b4061-6aca-4ee7-97a8-6c7bff98fd7d","ios":"levelo://app?vid=c74b4061-6aca-4ee7-97a8-6c7bff98fd7d"},"vehicle_type_id":"4","last_reported":1740680016,"current_range_meters":3600,"station_id":"ce4bh112rcd13ifvqda0","pricing_plan_id":"cebpf4jnsgd1na2vs0mg"},{"bike_id":"1a38be76-5185-43d4-bb50-e29f5849a81a","system_id":"levelo_inurba_marseille","lat":43.32414,"lon":5.39315,"is_reserved":false,"is_disabled":false,"rental_uris":{"android":"levelo://app?vid=1a38be76-5185-43d4-bb50-e29f5849a81a","ios":"levelo://app?vid=1a38be76-5185-43d4-bb50-e29f5849a81a"},"vehicle_type_id":"4","last_reported":1740680016,"current_range_meters":3600,"station_id":"","pricing_plan_id":"cebpf4jnsgd1na2vs0mg"},{"bike_id":"53b8527e-7a64-4f9a-a186-f9f6342ff39b","system_id":"levelo_inurba_marseille","lat":43.29019,"lon":5.38125,"is_reserved":false,"is_disabled":false,"rental_uris":{"android":"levelo://app?vid=53b8527e-7a64-4f9a-a186-f9f6342ff39b","ios":"levelo://app?vid=53b8527e-7a64-4f9a-a186-f9f6342ff39b"},"vehicle_type_id":"4","last_reported":1740680016,"current_range_meters":3600,"station_id":"ce4bh4p2rcd13ifvqe1g","pricing_plan_id":"cebpf4jnsgd1na2vs0mg"},{"bike_id":"54c31ebb-3951-40cd-a63d-6a7618eddad9","system_id":"levelo_inurba_marseille","lat":43.26057,"lon":5.39408,"is_reserved":false,"is_disabled":false,"rental_uris":{"android":"levelo://app?vid=54c31ebb-3951-40cd-a63d-6a7618eddad9","ios":"levelo://app?vid=54c31ebb-3951-40cd-a63d-6a7618eddad9"},"vehicle_type_id":"4","last_reported":1740680016,"current_range_meters":3600,"station_id":"ce4bhh92rcd13ifvqfj0","pricing_plan_id":"cebpf4jnsgd1na2vs0mg"},{"bike_id":"e2cede1f-926c-4a5b-be97-7f6234266874","system_id":"levelo_inurba_marseille","lat":43.30943,"lon":5.37223,"is_reserved":false,"is_disabled":false,"rental_uris":{"android":"levelo://app?vid=e2cede1f-926c-4a5b-be97-7f6234266874","ios":"levelo://app?vid=e2cede1f-926c-4a5b-be97-7f6234266874"},"vehicle_type_id":"4","last_reported":1740680016,"current_range_meters":8400,"station_id":"","pricing_plan_id":"cebpf4jnsgd1na2vs0mg"},{"bike_id":"e4e7d22b-f8a1-4857-8d96-bad1307ff50d","system_id":"levelo_inurba_marseille","lat":43.33004,"lon":5.39034,"is_reserved":false,"is_disabled":false,"rental_uris":{"android":"levelo://app?vid=e4e7d22b-f8a1-4857-8d96-bad1307ff50d","ios":"levelo://app?vid=e4e7d22b-f8a1-4857-8d96-bad1307ff50d"},"vehicle_type_id":"4","last_reported":1740680016,"current_range_meters":4000,"station_id":"ce4bhr92rcd13ifvqhrg","pricing_plan_id":"cebpf4jnsgd1na2vs0mg"},{"bike_id":"a821e09e-1a6f-447a-878e-7332384bcc14","system_id":"levelo_inurba_marseille","lat":43.31718,"lon":5.42409,"is_reserved":false,"is_disabled":false,"rental_uris":{"android":"levelo://app?vid=a821e09e-1a6f-447a-878e-7332384bcc14","ios":"levelo://app?vid=a821e09e-1a6f-447a-878e-7332384bcc14"},"vehicle_type_id":"4","last_reported":1740680016,"current_range_meters":3200,"station_id":"ce4bhp92rcd13ifvqhbg","pricing_plan_id":"cebpf4jnsgd1na2vs0mg"},{"bike_id":"778186a5-4bae-4acb-a08b-3d7deb0b9657","system_id":"levelo_inurba_marseille","lat":43.2985,"lon":5.36287,"is_reserved":false,"is_disabled":false,"rental_uris":{"android":"levelo://app?vid=778186a5-4bae-4acb-a08b-3d7deb0b9657","ios":"levelo://app?vid=778186a5-4bae-4acb-a08b-3d7deb0b9657"},"vehicle_type_id":"4","last_reported":1740680016,"current_range_meters":3600,"station_id":"ce4bgpp2rcd13ifvqc3g","pricing_plan_id":"cebpf4jnsgd1na2vs0mg"},{"bike_id":"f8729ff8-e714-4afc-9121-272f5471a32d","system_id":"levelo_inurba_marseille","lat":43.22929,"lon":5.35379,"is_reserved":false,"is_disabled":false,"rental_uris":{"android":"levelo://app?vid=f8729ff8-e714-4afc-9121-272f5471a32d","ios":"levelo://app?vid=f8729ff8-e714-4afc-9121-272f5471a32d"},"vehicle_type_id":"4","last_reported":1740680016,"current_range_meters":4000,"station_id":"cpo3532slgdg3j2ikp40","pricing_plan_id":"cebpf4jnsgd1na2vs0mg"},{"bike_id":"96175d8d-7896-4ec6-945b-1089d48e949b","system_id":"levelo_inurba_marseille","lat":43.28694,"lon":5.39986,"is_reserved":false,"is_disabled":false,"rental_uris":{"android":"levelo://app?vid=96175d8d-7896-4ec6-945b-1089d48e949b","ios":"levelo://app?vid=96175d8d-7896-4ec6-945b-1089d48e949b"},"vehicle_type_id":"4","last_reported":1740680016,"current_range_meters":6000,"station_id":"ce4bho92rcd13ifvqh3g","pricing_plan_id":"cebpf4jnsgd1na2vs0mg"},{"bike_id":"ef5e42e5-56f8-46ea-89ed-a14ff0564c46","system_id":"levelo_inurba_marseille","lat":43.30319,"lon":5.40438,"is_reserved":false,"is_disabled":false,"rental_uris":{"android":"levelo://app?vid=ef5e42e5-56f8-46ea-89ed-a14ff0564c46","ios":"levelo://app?vid=ef5e42e5-56f8-46ea-89ed-a14ff0564c46"},"vehicle_type_id":"4","last_reported":1740680016,"current_range_meters":4000,"station_id":"ce4bh012rcd13ifvqd10","pricing_plan_id":"cebpf4jnsgd1na2vs0mg"},{"bike_id":"c7a4d580-961d-4699-88d0-27631d373648","system_id":"levelo_inurba_marseille","lat":43.26494,"lon":5.39575,"is_reserved":false,"is_disabled":false,"rental_uris":{"android":"levelo://app?vid=c7a4d580-961d-4699-88d0-27631d373648","ios":"levelo://app?vid=c7a4d580-961d-4699-88d0-27631d373648"},"vehicle_type_id":"4","last_reported":1740680016,"current_range_meters":4400,"station_id":"ce4bhi12rcd13ifvqfq0","pricing_plan_id":"cebpf4jnsgd1na2vs0mg"},{"bike_id":"c518dac6-44cb-42e8-b958-bad037d1ceb3","system_id":"levelo_inurba_marseille","lat":43.25584,"lon":5.38241,"is_reserved":false,"is_disabled":false,"rental_uris":{"android":"levelo://app?vid=c518dac6-44cb-42e8-b958-bad037d1ceb3","ios":"levelo://app?vid=c518dac6-44cb-42e8-b958-bad037d1ceb3"},"vehicle_type_id":"4","last_reported":1740680016,"current_range_meters":4400,"station_id":"ce4bhih2rcd13ifvqfs0","pricing_plan_id":"cebpf4jnsgd1na2vs0mg"},{"bike_id":"a1cd8c31-41dc-4a4f-9e3d-ed9bcf7ba8cd","system_id":"levelo_inurba_marseille","lat":43.29258,"lon":5.40905,"is_reserved":false,"is_disabled":false,"rental_uris":{"android":"levelo://app?vid=a1cd8c31-41dc-4a4f-9e3d-ed9bcf7ba8cd","ios":"levelo://app?vid=a1cd8c31-41dc-4a4f-9e3d-ed9bcf7ba8cd"},"vehicle_type_id":"4","last_reported":1740680016,"current_range_meters":4400,"station_id":"","pricing_plan_id":"cebpf4jnsgd1na2vs0mg"},{"bike_id":"a2c85ab7-1e06-4246-89e2-5126635f3241","system_id":"levelo_inurba_marseille","lat":43.25568,"lon":5.38248,"is_reserved":false,"is_disabled":false,"rental_uris":{"android":"levelo://app?vid=a2c85ab7-1e06-4246-89e2-5126635f3241","ios":"levelo://app?vid=a2c85ab7-1e06-4246-89e2-5126635f3241"},"vehicle_type_id":"4","last_reported":1740680016,"current_range_meters":4400,"station_id":"ce4bhih2rcd13ifvqfs0","pricing_plan_id":"cebpf4jnsgd1na2vs0mg"},{"bike_id":"327e8383-df85-4071-b211-04521b86419a","system_id":"levelo_inurba_marseille","lat":43.29265,"lon":5.38454,"is_reserved":false,"is_disabled":false,"rental_uris":{"android":"levelo://app?vid=327e8383-df85-4071-b211-04521b86419a","ios":"levelo://app?vid=327e8383-df85-4071-b211-04521b86419a"},"vehicle_type_id":"4","last_reported":1740680016,"current_range_meters":4400,"station_id":"ce4bh692rcd13ifvqea0","pricing_plan_id":"cebpf4jnsgd1na2vs0mg"},{"bike_id":"9c9c9e50-71d5-4ca5-ac28-2c0a7e9e3a36","system_id":"levelo_inurba_marseille","lat":43.29792,"lon":5.38104,"is_reserved":false,"is_disabled":false,"rental_uris":{"android":"levelo://app?vid=9c9c9e50-71d5-4ca5-ac28-2c0a7e9e3a36","ios":"levelo://app?vid=9c9c9e50-71d5-4ca5-ac28-2c0a7e9e3a36"},"vehicle_type_id":"4","last_reported":1740680016,"current_range_meters":4000,"station_id":"ce4bgip2rcd13ifvqbb0","pricing_plan_id":"cebpf4jnsgd1na2vs0mg"},{"bike_id":"943c379f-6235-4a12-ab01-4bec3bc2019d","system_id":"levelo_inurba_marseille","lat":43.30559,"lon":5.36538,"is_reserved":false,"is_disabled":false,"rental_uris":{"android":"levelo://app?vid=943c379f-6235-4a12-ab01-4bec3bc2019d","ios":"levelo://app?vid=943c379f-6235-4a12-ab01-4bec3bc2019d"},"vehicle_type_id":"4","last_reported":1740680016,"current_range_meters":4400,"station_id":"ce4bgs12rcd13ifvqcag","pricing_plan_id":"cebpf4jnsgd1na2vs0mg"},{"bike_id":"983055ff-bc71-4f16-b4f9-602a665c6612","system_id":"levelo_inurba_marseille","lat":43.28155,"lon":5.42648,"is_reserved":false,"is_disabled":false,"rental_uris":{"android":"levelo://app?vid=983055ff-bc71-4f16-b4f9-602a665c6612","ios":"levelo://app?vid=983055ff-bc71-4f16-b4f9-602a665c6612"},"vehicle_type_id":"4","last_reported":1740680016,"current_range_meters":4800,"station_id":"ce4bhnh2rcd13ifvqgug","pricing_plan_id":"cebpf4jnsgd1na2vs0mg"},{"bike_id":"3b59a3a9-a4d7-4c38-a0ed-109b44e86498","system_id":"levelo_inurba_marseille","lat":43.26558,"lon":5.37282,"is_reserved":false,"is_disabled":false,"rental_uris":{"android":"levelo://app?vid=3b59a3a9-a4d7-4c38-a0ed-109b44e86498","ios":"levelo://app?vid=3b59a3a9-a4d7-4c38-a0ed-109b44e86498"},"vehicle_type_id":"4","last_reported":1740680016,"current_range_meters":4800,"station_id":"ce4bhg12rcd13ifvqf70","pricing_plan_id":"cebpf4jnsgd1na2vs0mg"},{"bike_id":"da653d59-4522-4709-8feb-75882f8253f4","system_id":"levelo_inurba_marseille","lat":43.32259,"lon":5.40564,"is_reserved":false,"is_disabled":false,"rental_uris":{"android":"levelo://app?vid=da653d59-4522-4709-8feb-75882f8253f4","ios":"levelo://app?vid=da653d59-4522-4709-8feb-75882f8253f4"},"vehicle_type_id":"4","last_reported":1740680016,"current_range_meters":4800,"station_id":"","pricing_plan_id":"cebpf4jnsgd1na2vs0mg"},{"bike_id":"38f138b2-fe39-47fa-b641-be828222bc61","system_id":"levelo_inurba_marseille","lat":43.29967,"lon":5.38492,"is_reserved":false,"is_disabled":false,"rental_uris":{"android":"levelo://app?vid=38f138b2-fe39-47fa-b641-be828222bc61","ios":"levelo://app?vid=38f138b2-fe39-47fa-b641-be828222bc61"},"vehicle_type_id":"4","last_reported":1740680016,"current_range_meters":4400,"station_id":"ce4bgj92rcd13ifvqbd0","pricing_plan_id":"cebpf4jnsgd1na2vs0mg"},{"bike_id":"cf326b2d-a99f-4868-b5d4-42e88f169b29","system_id":"levelo_inurba_marseille","lat":43.30182,"lon":5.36637,"is_reserved":false,"is_disabled":false,"rental_uris":{"android":"levelo://app?vid=cf326b2d-a99f-4868-b5d4-42e88f169b29","ios":"levelo://app?vid=cf326b2d-a99f-4868-b5d4-42e88f169b29"},"vehicle_type_id":"4","last_reported":1740680016,"current_range_meters":4800,"station_id":"ce4bgrh2rcd13ifvqc8g","pricing_plan_id":"cebpf4jnsgd1na2vs0mg"},{"bike_id":"ae23d63f-1813-4ce3-9f00-de91edb6a690","system_id":"levelo_inurba_marseille","lat":43.29229,"lon":5.36069,"is_reserved":false,"is_disabled":false,"rental_uris":{"android":"levelo://app?vid=ae23d63f-1813-4ce3-9f00-de91edb6a690","ios":"levelo://app?vid=ae23d63f-1813-4ce3-9f00-de91edb6a690"},"vehicle_type_id":"4","last_reported":1740680016,"current_range_meters":5600,"station_id":"ce4bhbh2rcd13ifvqeqg","pricing_plan_id":"cebpf4jnsgd1na2vs0mg"},{"bike_id":"03222294-73e1-4f6a-b701-7fd17f400e4b","system_id":"levelo_inurba_marseille","lat":43.27986,"lon":5.38733,"is_reserved":false,"is_disabled":false,"rental_uris":{"android":"levelo://app?vid=03222294-73e1-4f6a-b701-7fd17f400e4b","ios":"levelo://app?vid=03222294-73e1-4f6a-b701-7fd17f400e4b"},"vehicle_type_id":"4","last_reported":1740680016,"current_range_meters":4800,"station_id":"ce4bhg12rcd13ifvqf80","pricing_plan_id":"cebpf4jnsgd1na2vs0mg"},{"bike_id":"4495ab2e-d533-4d54-ae01-e7b3e18c83cc","system_id":"levelo_inurba_marseille","lat":43.2467,"lon":5.38157,"is_reserved":false,"is_disabled":false,"rental_uris":{"android":"levelo://app?vid=4495ab2e-d533-4d54-ae01-e7b3e18c83cc","ios":"levelo://app?vid=4495ab2e-d533-4d54-ae01-e7b3e18c83cc"},"vehicle_type_id":"4","last_reported":1740680016,"current_range_meters":5600,"station_id":"ce4bhih2rcd13ifvqfr0","pricing_plan_id":"cebpf4jnsgd1na2vs0mg"},{"bike_id":"791ad4a0-6486-46e8-a7ed-36002f7c0df9","system_id":"levelo_inurba_marseille","lat":43.30525,"lon":5.36706,"is_reserved":false,"is_disabled":false,"rental_uris":{"android":"levelo://app?vid=791ad4a0-6486-46e8-a7ed-36002f7c0df9","ios":"levelo://app?vid=791ad4a0-6486-46e8-a7ed-36002f7c0df9"},"vehicle_type_id":"4","last_reported":1740680016,"current_range_meters":3200,"station_id":"ce4bgrp2rcd13ifvqc9g","pricing_plan_id":"cebpf4jnsgd1na2vs0mg"},{"bike_id":"96d5537a-88e5-4b8e-a4a0-be8964513e71","system_id":"levelo_inurba_marseille","lat":43.29527,"lon":5.39399,"is_reserved":false,"is_disabled":false,"rental_uris":{"android":"levelo://app?vid=96d5537a-88e5-4b8e-a4a0-be8964513e71","ios":"levelo://app?vid=96d5537a-88e5-4b8e-a4a0-be8964513e71"},"vehicle_type_id":"4","last_reported":1740680016,"current_range_meters":6000,"station_id":"ce4bh292rcd13ifvqdf0","pricing_plan_id":"cebpf4jnsgd1na2vs0mg"},{"bike_id":"09004143-84b1-48d9-ae6a-819ced5ad41d","system_id":"levelo_inurba_marseille","lat":43.29284,"lon":5.38427,"is_reserved":false,"is_disabled":false,"rental_uris":{"android":"levelo://app?vid=09004143-84b1-48d9-ae6a-819ced5ad41d","ios":"levelo://app?vid=09004143-84b1-48d9-ae6a-819ced5ad41d"},"vehicle_type_id":"4","last_reported":1740680016,"current_range_meters":6000,"station_id":"ce4bh692rcd13ifvqea0","pricing_plan_id":"cebpf4jnsgd1na2vs0mg"},{"bike_id":"2cbb97b2-9e8a-4452-8eb4-371ad62cc488","system_id":"levelo_inurba_marseille","lat":43.309761,"lon":5.401176,"is_reserved":false,"is_disabled":false,"rental_uris":{"android":"levelo://app?vid=2cbb97b2-9e8a-4452-8eb4-371ad62cc488","ios":"levelo://app?vid=2cbb97b2-9e8a-4452-8eb4-371ad62cc488"},"vehicle_type_id":"4","last_reported":1740680016,"current_range_meters":6000,"station_id":"ce4bgvp2rcd13ifvqct0","pricing_plan_id":"cebpf4jnsgd1na2vs0mg"},{"bike_id":"01bfb5d9-6080-452c-b6bf-2a0a33aa1ddb","system_id":"levelo_inurba_marseille","lat":43.2559,"lon":5.38233,"is_reserved":false,"is_disabled":false,"rental_uris":{"android":"levelo://app?vid=01bfb5d9-6080-452c-b6bf-2a0a33aa1ddb","ios":"levelo://app?vid=01bfb5d9-6080-452c-b6bf-2a0a33aa1ddb"},"vehicle_type_id":"4","last_reported":1740680016,"current_range_meters":6400,"station_id":"ce4bhih2rcd13ifvqfs0","pricing_plan_id":"cebpf4jnsgd1na2vs0mg"},{"bike_id":"bd30aaf0-72ed-432d-89cf-22505da4c6cf","system_id":"levelo_inurba_marseille","lat":43.28156,"lon":5.42637,"is_reserved":false,"is_disabled":false,"rental_uris":{"android":"levelo://app?vid=bd30aaf0-72ed-432d-89cf-22505da4c6cf","ios":"levelo://app?vid=bd30aaf0-72ed-432d-89cf-22505da4c6cf"},"vehicle_type_id":"4","last_reported":1740680016,"current_range_meters":6400,"station_id":"ce4bhnh2rcd13ifvqgug","pricing_plan_id":"cebpf4jnsgd1na2vs0mg"},{"bike_id":"c6cb7573-2753-4147-8f1a-c552c41c610f","system_id":"levelo_inurba_marseille","lat":43.26801,"lon":5.39411,"is_reserved":false,"is_disabled":true,"rental_uris":{"android":"levelo://app?vid=c6cb7573-2753-4147-8f1a-c552c41c610f","ios":"levelo://app?vid=c6cb7573-2753-4147-8f1a-c552c41c610f"},"vehicle_type_id":"4","last_reported":1740680016,"current_range_meters":6400,"station_id":"ce4bhh12rcd13ifvqfg0","pricing_plan_id":"cebpf4jnsgd1na2vs0mg"},{"bike_id":"5d6da8f6-7526-44f9-b896-6d071fc98e30","system_id":"levelo_inurba_marseille","lat":43.27214,"lon":5.39181,"is_reserved":false,"is_disabled":false,"rental_uris":{"android":"levelo://app?vid=5d6da8f6-7526-44f9-b896-6d071fc98e30","ios":"levelo://app?vid=5d6da8f6-7526-44f9-b896-6d071fc98e30"},"vehicle_type_id":"4","last_reported":1740680016,"current_range_meters":6000,"station_id":"ce4bhhp2rcd13ifvqfm0","pricing_plan_id":"cebpf4jnsgd1na2vs0mg"},{"bike_id":"44df3902-4db6-4e33-b4d4-208f1bea50aa","system_id":"levelo_inurba_marseille","lat":43.32478,"lon":5.36566,"is_reserved":false,"is_disabled":false,"rental_uris":{"android":"levelo://app?vid=44df3902-4db6-4e33-b4d4-208f1bea50aa","ios":"levelo://app?vid=44df3902-4db6-4e33-b4d4-208f1bea50aa"},"vehicle_type_id":"4","last_reported":1740680016,"current_range_meters":6000,"station_id":"ce4bhs12rcd13ifvqhvg","pricing_plan_id":"cebpf4jnsgd1na2vs0mg"},{"bike_id":"69f562d3-ea8a-4196-9f79-4d9f3b3d9c7c","system_id":"levelo_inurba_marseille","lat":43.28517,"lon":5.3909,"is_reserved":false,"is_disabled":false,"rental_uris":{"android":"levelo://app?vid=69f562d3-ea8a-4196-9f79-4d9f3b3d9c7c","ios":"levelo://app?vid=69f562d3-ea8a-4196-9f79-4d9f3b3d9c7c"},"vehicle_type_id":"4","last_reported":1740680016,"current_range_meters":6400,"station_id":"ce4bgvp2rcd13ifvqcu0","pricing_plan_id":"cebpf4jnsgd1na2vs0mg"},{"bike_id":"5c02b13c-c0df-464a-9d46-e28e12349d4a","system_id":"levelo_inurba_marseille","lat":43.25576,"lon":5.38237,"is_reserved":false,"is_disabled":false,"rental_uris":{"android":"levelo://app?vid=5c02b13c-c0df-464a-9d46-e28e12349d4a","ios":"levelo://app?vid=5c02b13c-c0df-464a-9d46-e28e12349d4a"},"vehicle_type_id":"4","last_reported":1740680016,"current_range_meters":5600,"station_id":"ce4bhih2rcd13ifvqfs0","pricing_plan_id":"cebpf4jnsgd1na2vs0mg"},{"bike_id":"e4e2407e-ea13-4fad-b551-81bfa5e7f924","system_id":"levelo_inurba_marseille","lat":43.321,"lon":5.36781,"is_reserved":false,"is_disabled":false,"rental_uris":{"android":"levelo://app?vid=e4e2407e-ea13-4fad-b551-81bfa5e7f924","ios":"levelo://app?vid=e4e2407e-ea13-4fad-b551-81bfa5e7f924"},"vehicle_type_id":"4","last_reported":1740680016,"current_range_meters":6400,"station_id":"ce4bhrh2rcd13ifvqhug","pricing_plan_id":"cebpf4jnsgd1na2vs0mg"},{"bike_id":"7cef3ab8-2b83-421c-82f8-bbc69cfd23e3","system_id":"levelo_inurba_marseille","lat":43.28348,"lon":5.38109,"is_reserved":false,"is_disabled":false,"rental_uris":{"android":"levelo://app?vid=7cef3ab8-2b83-421c-82f8-bbc69cfd23e3","ios":"levelo://app?vid=7cef3ab8-2b83-421c-82f8-bbc69cfd23e3"},"vehicle_type_id":"4","last_reported":1740680016,"current_range_meters":6800,"station_id":"ce4bh412rcd13ifvqdr0","pricing_plan_id":"cebpf4jnsgd1na2vs0mg"},{"bike_id":"42cf9ef6-e6fe-4322-8921-79325cd2f67d","system_id":"levelo_inurba_marseille","lat":43.29713,"lon":5.36641,"is_reserved":false,"is_disabled":false,"rental_uris":{"android":"levelo://app?vid=42cf9ef6-e6fe-4322-8921-79325cd2f67d","ios":"levelo://app?vid=42cf9ef6-e6fe-4322-8921-79325cd2f67d"},"vehicle_type_id":"4","last_reported":1740680016,"current_range_meters":6800,"station_id":"ce4bgn12rcd13ifvqbt0","pricing_plan_id":"cebpf4jnsgd1na2vs0mg"},{"bike_id":"5b5dd59c-7244-4655-926a-aeac3e00109d","system_id":"levelo_inurba_marseille","lat":43.30656,"lon":5.40064,"is_reserved":false,"is_disabled":false,"rental_uris":{"android":"levelo://app?vid=5b5dd59c-7244-4655-926a-aeac3e00109d","ios":"levelo://app?vid=5b5dd59c-7244-4655-926a-aeac3e00109d"},"vehicle_type_id":"4","last_reported":1740680016,"current_range_meters":6400,"station_id":"ce4bh112rcd13ifvqda0","pricing_plan_id":"cebpf4jnsgd1na2vs0mg"},{"bike_id":"e57bbd66-1f9a-4123-957c-8890bfcbb83c","system_id":"levelo_inurba_marseille","lat":43.30543,"lon":5.38426,"is_reserved":false,"is_disabled":false,"rental_uris":{"android":"levelo://app?vid=e57bbd66-1f9a-4123-957c-8890bfcbb83c","ios":"levelo://app?vid=e57bbd66-1f9a-4123-957c-8890bfcbb83c"},"vehicle_type_id":"4","last_reported":1740680016,"current_range_meters":6800,"station_id":"ce4bgg92rcd13ifvqb30","pricing_plan_id":"cebpf4jnsgd1na2vs0mg"},{"bike_id":"8ba31a41-541a-4339-863e-1d27a2399440","system_id":"levelo_inurba_marseille","lat":43.28717,"lon":5.36096,"is_reserved":false,"is_disabled":false,"rental_uris":{"android":"levelo://app?vid=8ba31a41-541a-4339-863e-1d27a2399440","ios":"levelo://app?vid=8ba31a41-541a-4339-863e-1d27a2399440"},"vehicle_type_id":"4","last_reported":1740680016,"current_range_meters":6800,"station_id":"cki0cbj6b192h4jlfktg","pricing_plan_id":"cebpf4jnsgd1na2vs0mg"},{"bike_id":"31171f8c-3056-4774-acb6-aa3248204fc2","system_id":"levelo_inurba_marseille","lat":43.25871,"lon":5.39894,"is_reserved":false,"is_disabled":false,"rental_uris":{"android":"levelo://app?vid=31171f8c-3056-4774-acb6-aa3248204fc2","ios":"levelo://app?vid=31171f8c-3056-4774-acb6-aa3248204fc2"},"vehicle_type_id":"4","last_reported":1740680016,"current_range_meters":6800,"station_id":"ce4bhl92rcd13ifvqghg","pricing_plan_id":"cebpf4jnsgd1na2vs0mg"},{"bike_id":"7950a84b-bc83-460a-b58b-c7f6d7ff0c41","system_id":"levelo_inurba_marseille","lat":43.25865,"lon":5.39896,"is_reserved":false,"is_disabled":false,"rental_uris":{"android":"levelo://app?vid=7950a84b-bc83-460a-b58b-c7f6d7ff0c41","ios":"levelo://app?vid=7950a84b-bc83-460a-b58b-c7f6d7ff0c41"},"vehicle_type_id":"4","last_reported":1740680016,"current_range_meters":6800,"station_id":"ce4bhl92rcd13ifvqghg","pricing_plan_id":"cebpf4jnsgd1na2vs0mg"},{"bike_id":"3aed6401-30fa-417b-b1f4-fed91c185d13","system_id":"levelo_inurba_marseille","lat":43.27944,"lon":5.4104,"is_reserved":false,"is_disabled":false,"rental_uris":{"android":"levelo://app?vid=3aed6401-30fa-417b-b1f4-fed91c185d13","ios":"levelo://app?vid=3aed6401-30fa-417b-b1f4-fed91c185d13"},"vehicle_type_id":"4","last_reported":1740680016,"current_range_meters":0,"station_id":"ce4bhnp2rcd13ifvqh0g","pricing_plan_id":"cebpf4jnsgd1na2vs0mg"},{"bike_id":"c6890d8b-2713-4d0b-8bd3-a068aa0435c9","system_id":"levelo_inurba_marseille","lat":43.2953,"lon":5.38546,"is_reserved":false,"is_disabled":false,"rental_uris":{"android":"levelo://app?vid=c6890d8b-2713-4d0b-8bd3-a068aa0435c9","ios":"levelo://app?vid=c6890d8b-2713-4d0b-8bd3-a068aa0435c9"},"vehicle_type_id":"4","last_reported":1740680016,"current_range_meters":7200,"station_id":"ce4bgih2rcd13ifvqba0","pricing_plan_id":"cebpf4jnsgd1na2vs0mg"},{"bike_id":"f0333f81-6f9d-4206-a285-bd6e4b0dbfc4","system_id":"levelo_inurba_marseille","lat":43.32363,"lon":5.38881,"is_reserved":false,"is_disabled":false,"rental_uris":{"android":"levelo://app?vid=f0333f81-6f9d-4206-a285-bd6e4b0dbfc4","ios":"levelo://app?vid=f0333f81-6f9d-4206-a285-bd6e4b0dbfc4"},"vehicle_type_id":"4","last_reported":1740680016,"current_range_meters":7200,"station_id":"ce4bhqp2rcd13ifvqhog","pricing_plan_id":"cebpf4jnsgd1na2vs0mg"},{"bike_id":"a0ecf14f-85b9-4cf2-8656-ea8b4d243f09","system_id":"levelo_inurba_marseille","lat":43.29009,"lon":5.3813,"is_reserved":false,"is_disabled":false,"rental_uris":{"android":"levelo://app?vid=a0ecf14f-85b9-4cf2-8656-ea8b4d243f09","ios":"levelo://app?vid=a0ecf14f-85b9-4cf2-8656-ea8b4d243f09"},"vehicle_type_id":"4","last_reported":1740680016,"current_range_meters":11600,"station_id":"ce4bh4p2rcd13ifvqe1g","pricing_plan_id":"cebpf4jnsgd1na2vs0mg"},{"bike_id":"f7fa310e-a603-4f2a-b773-484031d0f25e","system_id":"levelo_inurba_marseille","lat":43.29038,"lon":5.37574,"is_reserved":false,"is_disabled":false,"rental_uris":{"android":"levelo://app?vid=f7fa310e-a603-4f2a-b773-484031d0f25e","ios":"levelo://app?vid=f7fa310e-a603-4f2a-b773-484031d0f25e"},"vehicle_type_id":"4","last_reported":1740680016,"current_range_meters":7200,"station_id":"ce4bh692rcd13ifvqe90","pricing_plan_id":"cebpf4jnsgd1na2vs0mg"},{"bike_id":"a3aae3bb-458b-4c7d-8b9d-709bfd9d1faf","system_id":"levelo_inurba_marseille","lat":43.30885,"lon":5.39654,"is_reserved":false,"is_disabled":false,"rental_uris":{"android":"levelo://app?vid=a3aae3bb-458b-4c7d-8b9d-709bfd9d1faf","ios":"levelo://app?vid=a3aae3bb-458b-4c7d-8b9d-709bfd9d1faf"},"vehicle_type_id":"4","last_reported":1740680016,"current_range_meters":8000,"station_id":"ce4bh012rcd13ifvqcv0","pricing_plan_id":"cebpf4jnsgd1na2vs0mg"},{"bike_id":"acf901a5-f1b2-4b14-be8d-312c60ce096d","system_id":"levelo_inurba_marseille","lat":43.31092,"lon":5.42436,"is_reserved":false,"is_disabled":false,"rental_uris":{"android":"levelo://app?vid=acf901a5-f1b2-4b14-be8d-312c60ce096d","ios":"levelo://app?vid=acf901a5-f1b2-4b14-be8d-312c60ce096d"},"vehicle_type_id":"4","last_reported":1740680016,"current_range_meters":7200,"station_id":"ce4bhp92rcd13ifvqhag","pricing_plan_id":"cebpf4jnsgd1na2vs0mg"},{"bike_id":"3b068379-8a73-4a0f-a1f5-339f4499c9ac","system_id":"levelo_inurba_marseille","lat":43.29259,"lon":5.40914,"is_reserved":false,"is_disabled":false,"rental_uris":{"android":"levelo://app?vid=3b068379-8a73-4a0f-a1f5-339f4499c9ac","ios":"levelo://app?vid=3b068379-8a73-4a0f-a1f5-339f4499c9ac"},"vehicle_type_id":"4","last_reported":1740680016,"current_range_meters":8800,"station_id":"ce4bh192rcd13ifvqdc0","pricing_plan_id":"cebpf4jnsgd1na2vs0mg"},{"bike_id":"2037704c-bb45-4338-8094-6f6a468ce88e","system_id":"levelo_inurba_marseille","lat":43.31166,"lon":5.38728,"is_reserved":false,"is_disabled":false,"rental_uris":{"android":"levelo://app?vid=2037704c-bb45-4338-8094-6f6a468ce88e","ios":"levelo://app?vid=2037704c-bb45-4338-8094-6f6a468ce88e"},"vehicle_type_id":"4","last_reported":1740680016,"current_range_meters":8000,"station_id":"ce4bgv12rcd13ifvqcp0","pricing_plan_id":"cebpf4jnsgd1na2vs0mg"},{"bike_id":"4a139258-8348-42d9-8cbf-cf2fadde1eb6","system_id":"levelo_inurba_marseille","lat":43.29541,"lon":5.38552,"is_reserved":false,"is_disabled":false,"rental_uris":{"android":"levelo://app?vid=4a139258-8348-42d9-8cbf-cf2fadde1eb6","ios":"levelo://app?vid=4a139258-8348-42d9-8cbf-cf2fadde1eb6"},"vehicle_type_id":"4","last_reported":1740680016,"current_range_meters":8000,"station_id":"ce4bgih2rcd13ifvqba0","pricing_plan_id":"cebpf4jnsgd1na2vs0mg"},{"bike_id":"73c5b327-5ab1-4e01-975d-255698a5fdbe","system_id":"levelo_inurba_marseille","lat":43.28454,"lon":5.35877,"is_reserved":false,"is_disabled":false,"rental_uris":{"android":"levelo://app?vid=73c5b327-5ab1-4e01-975d-255698a5fdbe","ios":"levelo://app?vid=73c5b327-5ab1-4e01-975d-255698a5fdbe"},"vehicle_type_id":"4","last_reported":1740680016,"current_range_meters":8000,"station_id":"ce4bhah2rcd13ifvqei0","pricing_plan_id":"cebpf4jnsgd1na2vs0mg"},{"bike_id":"f10f9796-7541-497b-b6e6-805f6c2689ac","system_id":"levelo_inurba_marseille","lat":43.24655,"lon":5.38164,"is_reserved":false,"is_disabled":false,"rental_uris":{"android":"levelo://app?vid=f10f9796-7541-497b-b6e6-805f6c2689ac","ios":"levelo://app?vid=f10f9796-7541-497b-b6e6-805f6c2689ac"},"vehicle_type_id":"4","last_reported":1740680016,"current_range_meters":8000,"station_id":"ce4bhih2rcd13ifvqfr0","pricing_plan_id":"cebpf4jnsgd1na2vs0mg"},{"bike_id":"7cc97efa-bdc8-4c4f-ab2f-63742aa24d7a","system_id":"levelo_inurba_marseille","lat":43.29947,"lon":5.3654,"is_reserved":false,"is_disabled":false,"rental_uris":{"android":"levelo://app?vid=7cc97efa-bdc8-4c4f-ab2f-63742aa24d7a","ios":"levelo://app?vid=7cc97efa-bdc8-4c4f-ab2f-63742aa24d7a"},"vehicle_type_id":"4","last_reported":1740680016,"current_range_meters":8000,"station_id":"ce4bgm92rcd13ifvqbr0","pricing_plan_id":"cebpf4jnsgd1na2vs0mg"},{"bike_id":"681bc537-4ce0-4757-a2f5-b434981747df","system_id":"levelo_inurba_marseille","lat":43.29245,"lon":5.38444,"is_reserved":false,"is_disabled":false,"rental_uris":{"android":"levelo://app?vid=681bc537-4ce0-4757-a2f5-b434981747df","ios":"levelo://app?vid=681bc537-4ce0-4757-a2f5-b434981747df"},"vehicle_type_id":"4","last_reported":1740680016,"current_range_meters":8000,"station_id":"ce4bh692rcd13ifvqea0","pricing_plan_id":"cebpf4jnsgd1na2vs0mg"},{"bike_id":"e9b1f4f6-8cd2-4d45-b745-f988b618af7c","system_id":"levelo_inurba_marseille","lat":43.30952,"lon":5.39035,"is_reserved":false,"is_disabled":false,"rental_uris":{"android":"levelo://app?vid=e9b1f4f6-8cd2-4d45-b745-f988b618af7c","ios":"levelo://app?vid=e9b1f4f6-8cd2-4d45-b745-f988b618af7c"},"vehicle_type_id":"4","last_reported":1740680016,"current_range_meters":8000,"station_id":"ce4bgup2rcd13ifvqco0","pricing_plan_id":"cebpf4jnsgd1na2vs0mg"},{"bike_id":"0facce3b-0bc3-4ea7-a266-99cc9e78edc2","system_id":"levelo_inurba_marseille","lat":43.29784,"lon":5.39334,"is_reserved":false,"is_disabled":false,"rental_uris":{"android":"levelo://app?vid=0facce3b-0bc3-4ea7-a266-99cc9e78edc2","ios":"levelo://app?vid=0facce3b-0bc3-4ea7-a266-99cc9e78edc2"},"vehicle_type_id":"4","last_reported":1740680016,"current_range_meters":8000,"station_id":"chh1huq6cuj3fo74tm60","pricing_plan_id":"cebpf4jnsgd1na2vs0mg"},{"bike_id":"62c1afa0-1f14-44b9-836a-201a2c0f4530","system_id":"levelo_inurba_marseille","lat":43.27999,"lon":5.40012,"is_reserved":false,"is_disabled":false,"rental_uris":{"android":"levelo://app?vid=62c1afa0-1f14-44b9-836a-201a2c0f4530","ios":"levelo://app?vid=62c1afa0-1f14-44b9-836a-201a2c0f4530"},"vehicle_type_id":"4","last_reported":1740680016,"current_range_meters":6000,"station_id":"ce4bho92rcd13ifvqh4g","pricing_plan_id":"cebpf4jnsgd1na2vs0mg"},{"bike_id":"c8d518a7-1558-4a0b-95a2-5d329b1938e6","system_id":"levelo_inurba_marseille","lat":43.29207,"lon":5.39344,"is_reserved":false,"is_disabled":false,"rental_uris":{"android":"levelo://app?vid=c8d518a7-1558-4a0b-95a2-5d329b1938e6","ios":"levelo://app?vid=c8d518a7-1558-4a0b-95a2-5d329b1938e6"},"vehicle_type_id":"4","last_reported":1740680016,"current_range_meters":12000,"station_id":"ce4bh192rcd13ifvqdd0","pricing_plan_id":"cebpf4jnsgd1na2vs0mg"},{"bike_id":"cd5c8d1c-dc14-4e67-96cb-91b5450d347c","system_id":"levelo_inurba_marseille","lat":43.30416,"lon":5.4128,"is_reserved":false,"is_disabled":false,"rental_uris":{"android":"levelo://app?vid=cd5c8d1c-dc14-4e67-96cb-91b5450d347c","ios":"levelo://app?vid=cd5c8d1c-dc14-4e67-96cb-91b5450d347c"},"vehicle_type_id":"4","last_reported":1740680016,"current_range_meters":8000,"station_id":"ce4bhop2rcd13ifvqh8g","pricing_plan_id":"cebpf4jnsgd1na2vs0mg"},{"bike_id":"32512d29-a871-48cc-be36-f6f4d191882e","system_id":"levelo_inurba_marseille","lat":43.28611,"lon":5.35099,"is_reserved":false,"is_disabled":false,"rental_uris":{"android":"levelo://app?vid=32512d29-a871-48cc-be36-f6f4d191882e","ios":"levelo://app?vid=32512d29-a871-48cc-be36-f6f4d191882e"},"vehicle_type_id":"4","last_reported":1740680016,"current_range_meters":7200,"station_id":"ce4bhch2rcd13ifvqeug","pricing_plan_id":"cebpf4jnsgd1na2vs0mg"},{"bike_id":"cede3cd9-b287-4e84-a051-2feb15a3c91a","system_id":"levelo_inurba_marseille","lat":43.3042,"lon":5.41267,"is_reserved":false,"is_disabled":false,"rental_uris":{"android":"levelo://app?vid=cede3cd9-b287-4e84-a051-2feb15a3c91a","ios":"levelo://app?vid=cede3cd9-b287-4e84-a051-2feb15a3c91a"},"vehicle_type_id":"4","last_reported":1740680016,"current_range_meters":8000,"station_id":"ce4bhop2rcd13ifvqh8g","pricing_plan_id":"cebpf4jnsgd1na2vs0mg"},{"bike_id":"8dc35b1c-a9eb-4bac-8f95-b01bae8ea8df","system_id":"levelo_inurba_marseille","lat":43.3081,"lon":5.43522,"is_reserved":false,"is_disabled":false,"rental_uris":{"android":"levelo://app?vid=8dc35b1c-a9eb-4bac-8f95-b01bae8ea8df","ios":"levelo://app?vid=8dc35b1c-a9eb-4bac-8f95-b01bae8ea8df"},"vehicle_type_id":"4","last_reported":1740680016,"current_range_meters":8000,"station_id":"ce4bhph2rcd13ifvqheg","pricing_plan_id":"cebpf4jnsgd1na2vs0mg"},{"bike_id":"43a45805-f627-4902-813a-babba1201619","system_id":"levelo_inurba_marseille","lat":43.29198,"lon":5.39315,"is_reserved":false,"is_disabled":false,"rental_uris":{"android":"levelo://app?vid=43a45805-f627-4902-813a-babba1201619","ios":"levelo://app?vid=43a45805-f627-4902-813a-babba1201619"},"vehicle_type_id":"4","last_reported":1740680016,"current_range_meters":8800,"station_id":"ce4bh192rcd13ifvqdd0","pricing_plan_id":"cebpf4jnsgd1na2vs0mg"},{"bike_id":"1a32d243-0295-4550-a298-7a9c410c2d53","system_id":"levelo_inurba_marseille","lat":43.25872,"lon":5.39895,"is_reserved":false,"is_disabled":false,"rental_uris":{"android":"levelo://app?vid=1a32d243-0295-4550-a298-7a9c410c2d53","ios":"levelo://app?vid=1a32d243-0295-4550-a298-7a9c410c2d53"},"vehicle_type_id":"4","last_reported":1740680016,"current_range_meters":8000,"station_id":"ce4bhl92rcd13ifvqghg","pricing_plan_id":"cebpf4jnsgd1na2vs0mg"},{"bike_id":"39369c67-b6b1-4351-9f37-e16f04ac94c9","system_id":"levelo_inurba_marseille","lat":43.2319,"lon":5.35555,"is_reserved":false,"is_disabled":false,"rental_uris":{"android":"levelo://app?vid=39369c67-b6b1-4351-9f37-e16f04ac94c9","ios":"levelo://app?vid=39369c67-b6b1-4351-9f37-e16f04ac94c9"},"vehicle_type_id":"4","last_reported":1740680016,"current_range_meters":8400,"station_id":"ce4bhu92rcd13ifvqi70","pricing_plan_id":"cebpf4jnsgd1na2vs0mg"},{"bike_id":"8b12f042-66ff-4f72-8110-b87f1cf65c0b","system_id":"levelo_inurba_marseille","lat":43.33406,"lon":5.40079,"is_reserved":false,"is_disabled":false,"rental_uris":{"android":"levelo://app?vid=8b12f042-66ff-4f72-8110-b87f1cf65c0b","ios":"levelo://app?vid=8b12f042-66ff-4f72-8110-b87f1cf65c0b"},"vehicle_type_id":"4","last_reported":1740680016,"current_range_meters":8400,"station_id":"","pricing_plan_id":"cebpf4jnsgd1na2vs0mg"},{"bike_id":"d70925e2-b08d-440c-97c4-855665399fa2","system_id":"levelo_inurba_marseille","lat":43.29893,"lon":5.38823,"is_reserved":false,"is_disabled":false,"rental_uris":{"android":"levelo://app?vid=d70925e2-b08d-440c-97c4-855665399fa2","ios":"levelo://app?vid=d70925e2-b08d-440c-97c4-855665399fa2"},"vehicle_type_id":"4","last_reported":1740680016,"current_range_meters":8400,"station_id":"","pricing_plan_id":"cebpf4jnsgd1na2vs0mg"},{"bike_id":"527282d5-b6b7-4188-8e55-b5bfb3428885","system_id":"levelo_inurba_marseille","lat":43.28152,"lon":5.42636,"is_reserved":false,"is_disabled":false,"rental_uris":{"android":"levelo://app?vid=527282d5-b6b7-4188-8e55-b5bfb3428885","ios":"levelo://app?vid=527282d5-b6b7-4188-8e55-b5bfb3428885"},"vehicle_type_id":"4","last_reported":1740680016,"current_range_meters":8400,"station_id":"ce4bhl12rcd13ifvqgf0","pricing_plan_id":"cebpf4jnsgd1na2vs0mg"},{"bike_id":"ea8cb564-d405-42e3-911c-0afdd772ee76","system_id":"levelo_inurba_marseille","lat":43.3277,"lon":5.39211,"is_reserved":false,"is_disabled":false,"rental_uris":{"android":"levelo://app?vid=ea8cb564-d405-42e3-911c-0afdd772ee76","ios":"levelo://app?vid=ea8cb564-d405-42e3-911c-0afdd772ee76"},"vehicle_type_id":"4","last_reported":1740680016,"current_range_meters":8400,"station_id":"","pricing_plan_id":"cebpf4jnsgd1na2vs0mg"},{"bike_id":"d02db53f-3585-4d74-99f6-3e084f25792c","system_id":"levelo_inurba_marseille","lat":43.2606,"lon":5.39397,"is_reserved":false,"is_disabled":false,"rental_uris":{"android":"levelo://app?vid=d02db53f-3585-4d74-99f6-3e084f25792c","ios":"levelo://app?vid=d02db53f-3585-4d74-99f6-3e084f25792c"},"vehicle_type_id":"4","last_reported":1740680016,"current_range_meters":8000,"station_id":"ce4bhh92rcd13ifvqfj0","pricing_plan_id":"cebpf4jnsgd1na2vs0mg"},{"bike_id":"ba0dd171-9fac-456d-9b00-2403db9c6041","system_id":"levelo_inurba_marseille","lat":43.29535,"lon":5.3853,"is_reserved":false,"is_disabled":false,"rental_uris":{"android":"levelo://app?vid=ba0dd171-9fac-456d-9b00-2403db9c6041","ios":"levelo://app?vid=ba0dd171-9fac-456d-9b00-2403db9c6041"},"vehicle_type_id":"4","last_reported":1740680016,"current_range_meters":9600,"station_id":"ce4bgih2rcd13ifvqba0","pricing_plan_id":"cebpf4jnsgd1na2vs0mg"},{"bike_id":"9647918c-d815-4482-8c45-927333bd2450","system_id":"levelo_inurba_marseille","lat":43.27841,"lon":5.40731,"is_reserved":false,"is_disabled":false,"rental_uris":{"android":"levelo://app?vid=9647918c-d815-4482-8c45-927333bd2450","ios":"levelo://app?vid=9647918c-d815-4482-8c45-927333bd2450"},"vehicle_type_id":"4","last_reported":1740680016,"current_range_meters":8400,"station_id":"ce4bhnh2rcd13ifvqgtg","pricing_plan_id":"cebpf4jnsgd1na2vs0mg"},{"bike_id":"2d7d4d42-7ecd-49cd-a62f-3f204f180034","system_id":"levelo_inurba_marseille","lat":43.293958,"lon":5.373557,"is_reserved":false,"is_disabled":false,"rental_uris":{"android":"levelo://app?vid=2d7d4d42-7ecd-49cd-a62f-3f204f180034","ios":"levelo://app?vid=2d7d4d42-7ecd-49cd-a62f-3f204f180034"},"vehicle_type_id":"4","last_reported":1740680016,"current_range_meters":8000,"station_id":"ce4bgh92rcd13ifvqb40","pricing_plan_id":"cebpf4jnsgd1na2vs0mg"},{"bike_id":"745c5d38-332d-426b-8e7b-acb525d1c540","system_id":"levelo_inurba_marseille","lat":43.25088,"lon":5.39521,"is_reserved":false,"is_disabled":false,"rental_uris":{"android":"levelo://app?vid=745c5d38-332d-426b-8e7b-acb525d1c540","ios":"levelo://app?vid=745c5d38-332d-426b-8e7b-acb525d1c540"},"vehicle_type_id":"4","last_reported":1740680016,"current_range_meters":8800,"station_id":"ce4bhm12rcd13ifvqgkg","pricing_plan_id":"cebpf4jnsgd1na2vs0mg"},{"bike_id":"e4fbf1d0-0a82-4ae4-95f0-c610456a4662","system_id":"levelo_inurba_marseille","lat":43.24545,"lon":5.39526,"is_reserved":false,"is_disabled":false,"rental_uris":{"android":"levelo://app?vid=e4fbf1d0-0a82-4ae4-95f0-c610456a4662","ios":"levelo://app?vid=e4fbf1d0-0a82-4ae4-95f0-c610456a4662"},"vehicle_type_id":"4","last_reported":1740680016,"current_range_meters":8000,"station_id":"ce4bhlp2rcd13ifvqgjg","pricing_plan_id":"cebpf4jnsgd1na2vs0mg"},{"bike_id":"039ef6be-b708-42df-a6eb-d41656f1ce53","system_id":"levelo_inurba_marseille","lat":43.25106,"lon":5.40338,"is_reserved":false,"is_disabled":false,"rental_uris":{"android":"levelo://app?vid=039ef6be-b708-42df-a6eb-d41656f1ce53","ios":"levelo://app?vid=039ef6be-b708-42df-a6eb-d41656f1ce53"},"vehicle_type_id":"4","last_reported":1740680016,"current_range_meters":8800,"station_id":"ce4bhlh2rcd13ifvqgig","pricing_plan_id":"cebpf4jnsgd1na2vs0mg"},{"bike_id":"f9a98d6b-0659-4e9e-99ec-ff8f8d52269e","system_id":"levelo_inurba_marseille","lat":43.2994,"lon":5.36536,"is_reserved":false,"is_disabled":false,"rental_uris":{"android":"levelo://app?vid=f9a98d6b-0659-4e9e-99ec-ff8f8d52269e","ios":"levelo://app?vid=f9a98d6b-0659-4e9e-99ec-ff8f8d52269e"},"vehicle_type_id":"4","last_reported":1740680016,"current_range_meters":8800,"station_id":"ce4bgm92rcd13ifvqbr0","pricing_plan_id":"cebpf4jnsgd1na2vs0mg"},{"bike_id":"8c48f52a-a87f-4b10-9bad-48a387153477","system_id":"levelo_inurba_marseille","lat":43.3236,"lon":5.38874,"is_reserved":false,"is_disabled":false,"rental_uris":{"android":"levelo://app?vid=8c48f52a-a87f-4b10-9bad-48a387153477","ios":"levelo://app?vid=8c48f52a-a87f-4b10-9bad-48a387153477"},"vehicle_type_id":"4","last_reported":1740680016,"current_range_meters":8800,"station_id":"ce4bhqp2rcd13ifvqhog","pricing_plan_id":"cebpf4jnsgd1na2vs0mg"},{"bike_id":"1371a589-b1f1-403a-8462-fd9e0ec9b29b","system_id":"levelo_inurba_marseille","lat":43.29419,"lon":5.38625,"is_reserved":false,"is_disabled":false,"rental_uris":{"android":"levelo://app?vid=1371a589-b1f1-403a-8462-fd9e0ec9b29b","ios":"levelo://app?vid=1371a589-b1f1-403a-8462-fd9e0ec9b29b"},"vehicle_type_id":"4","last_reported":1740680016,"current_range_meters":8400,"station_id":"ce4bh2h2rcd13ifvqdh0","pricing_plan_id":"cebpf4jnsgd1na2vs0mg"},{"bike_id":"3eb6318b-c22d-4336-9e17-ca033c67b753","system_id":"levelo_inurba_marseille","lat":43.29001,"lon":5.3561,"is_reserved":false,"is_disabled":false,"rental_uris":{"android":"levelo://app?vid=3eb6318b-c22d-4336-9e17-ca033c67b753","ios":"levelo://app?vid=3eb6318b-c22d-4336-9e17-ca033c67b753"},"vehicle_type_id":"4","last_reported":1740680016,"current_range_meters":8800,"station_id":"ce4bhb92rcd13ifvqen0","pricing_plan_id":"cebpf4jnsgd1na2vs0mg"},{"bike_id":"afd98e29-9e65-49b1-96e9-da6c0e62de76","system_id":"levelo_inurba_marseille","lat":43.2926,"lon":5.38224,"is_reserved":false,"is_disabled":false,"rental_uris":{"android":"levelo://app?vid=afd98e29-9e65-49b1-96e9-da6c0e62de76","ios":"levelo://app?vid=afd98e29-9e65-49b1-96e9-da6c0e62de76"},"vehicle_type_id":"4","last_reported":1740680016,"current_range_meters":9200,"station_id":"","pricing_plan_id":"cebpf4jnsgd1na2vs0mg"},{"bike_id":"233a8a90-f1fa-4d67-8760-98c518577d60","system_id":"levelo_inurba_marseille","lat":43.24068,"lon":5.37767,"is_reserved":false,"is_disabled":false,"rental_uris":{"android":"levelo://app?vid=233a8a90-f1fa-4d67-8760-98c518577d60","ios":"levelo://app?vid=233a8a90-f1fa-4d67-8760-98c518577d60"},"vehicle_type_id":"4","last_reported":1740680016,"current_range_meters":9600,"station_id":"ce4bhnp2rcd13ifvqgvg","pricing_plan_id":"cebpf4jnsgd1na2vs0mg"},{"bike_id":"c6a706de-1201-4046-842c-a40e69c00c90","system_id":"levelo_inurba_marseille","lat":43.23193,"lon":5.39979,"is_reserved":false,"is_disabled":false,"rental_uris":{"android":"levelo://app?vid=c6a706de-1201-4046-842c-a40e69c00c90","ios":"levelo://app?vid=c6a706de-1201-4046-842c-a40e69c00c90"},"vehicle_type_id":"4","last_reported":1740680016,"current_range_meters":9200,"station_id":"ce4bhn12rcd13ifvqgqg","pricing_plan_id":"cebpf4jnsgd1na2vs0mg"},{"bike_id":"c6b23046-3dbb-4c24-b439-362e9ad2c23a","system_id":"levelo_inurba_marseille","lat":43.25002,"lon":5.38921,"is_reserved":false,"is_disabled":false,"rental_uris":{"android":"levelo://app?vid=c6b23046-3dbb-4c24-b439-362e9ad2c23a","ios":"levelo://app?vid=c6b23046-3dbb-4c24-b439-362e9ad2c23a"},"vehicle_type_id":"4","last_reported":1740680016,"current_range_meters":9200,"station_id":"ce4bhgp2rcd13ifvqfd0","pricing_plan_id":"cebpf4jnsgd1na2vs0mg"},{"bike_id":"88c0b7c0-8c39-41ba-8c83-8a35a76f43f5","system_id":"levelo_inurba_marseille","lat":43.29571,"lon":5.39969,"is_reserved":false,"is_disabled":false,"rental_uris":{"android":"levelo://app?vid=88c0b7c0-8c39-41ba-8c83-8a35a76f43f5","ios":"levelo://app?vid=88c0b7c0-8c39-41ba-8c83-8a35a76f43f5"},"vehicle_type_id":"4","last_reported":1740680016,"current_range_meters":8800,"station_id":"ce4bh312rcd13ifvqdj0","pricing_plan_id":"cebpf4jnsgd1na2vs0mg"},{"bike_id":"c997b30a-bd84-4943-809c-ccf6d5b32c4f","system_id":"levelo_inurba_marseille","lat":43.27623,"lon":5.3611,"is_reserved":false,"is_disabled":false,"rental_uris":{"android":"levelo://app?vid=c997b30a-bd84-4943-809c-ccf6d5b32c4f","ios":"levelo://app?vid=c997b30a-bd84-4943-809c-ccf6d5b32c4f"},"vehicle_type_id":"4","last_reported":1740680016,"current_range_meters":9200,"station_id":"ce4bgj92rcd13ifvqbe0","pricing_plan_id":"cebpf4jnsgd1na2vs0mg"},{"bike_id":"e05c4769-e595-419d-9422-800c16c2266e","system_id":"levelo_inurba_marseille","lat":43.30113,"lon":5.3985,"is_reserved":false,"is_disabled":false,"rental_uris":{"android":"levelo://app?vid=e05c4769-e595-419d-9422-800c16c2266e","ios":"levelo://app?vid=e05c4769-e595-419d-9422-800c16c2266e"},"vehicle_type_id":"4","last_reported":1740680016,"current_range_meters":9200,"station_id":"ce4bh0h2rcd13ifvqd40","pricing_plan_id":"cebpf4jnsgd1na2vs0mg"},{"bike_id":"3f0907b3-da2b-41a5-8662-a0489e1a0f25","system_id":"levelo_inurba_marseille","lat":43.32111,"lon":5.36772,"is_reserved":false,"is_disabled":false,"rental_uris":{"android":"levelo://app?vid=3f0907b3-da2b-41a5-8662-a0489e1a0f25","ios":"levelo://app?vid=3f0907b3-da2b-41a5-8662-a0489e1a0f25"},"vehicle_type_id":"4","last_reported":1740680016,"current_range_meters":9200,"station_id":"ce4bhrh2rcd13ifvqhug","pricing_plan_id":"cebpf4jnsgd1na2vs0mg"},{"bike_id":"fcb0e18a-24f0-410c-aa7f-215e9f3a0ea9","system_id":"levelo_inurba_marseille","lat":43.29788,"lon":5.37112,"is_reserved":false,"is_disabled":false,"rental_uris":{"android":"levelo://app?vid=fcb0e18a-24f0-410c-aa7f-215e9f3a0ea9","ios":"levelo://app?vid=fcb0e18a-24f0-410c-aa7f-215e9f3a0ea9"},"vehicle_type_id":"4","last_reported":1740680016,"current_range_meters":9200,"station_id":"ce4bgop2rcd13ifvqc1g","pricing_plan_id":"cebpf4jnsgd1na2vs0mg"},{"bike_id":"91f909e9-358e-43ed-a45f-822af931a978","system_id":"levelo_inurba_marseille","lat":43.23212,"lon":5.40367,"is_reserved":false,"is_disabled":false,"rental_uris":{"android":"levelo://app?vid=91f909e9-358e-43ed-a45f-822af931a978","ios":"levelo://app?vid=91f909e9-358e-43ed-a45f-822af931a978"},"vehicle_type_id":"4","last_reported":1740680016,"current_range_meters":9200,"station_id":"","pricing_plan_id":"cebpf4jnsgd1na2vs0mg"},{"bike_id":"74d4a88d-ad3a-4128-a926-23a749e3d79b","system_id":"levelo_inurba_marseille","lat":43.23193,"lon":5.35553,"is_reserved":false,"is_disabled":false,"rental_uris":{"android":"levelo://app?vid=74d4a88d-ad3a-4128-a926-23a749e3d79b","ios":"levelo://app?vid=74d4a88d-ad3a-4128-a926-23a749e3d79b"},"vehicle_type_id":"4","last_reported":1740680016,"current_range_meters":9600,"station_id":"ce4bhu92rcd13ifvqi70","pricing_plan_id":"cebpf4jnsgd1na2vs0mg"},{"bike_id":"5e0e22b0-e973-48d0-8bed-a771273f721a","system_id":"levelo_inurba_marseille","lat":43.27366,"lon":5.36234,"is_reserved":false,"is_disabled":false,"rental_uris":{"android":"levelo://app?vid=5e0e22b0-e973-48d0-8bed-a771273f721a","ios":"levelo://app?vid=5e0e22b0-e973-48d0-8bed-a771273f721a"},"vehicle_type_id":"4","last_reported":1740680016,"current_range_meters":9600,"station_id":"ce4bhbh2rcd13ifvqeo0","pricing_plan_id":"cebpf4jnsgd1na2vs0mg"},{"bike_id":"c8f24993-8122-465f-935b-b3ef0ac3b0b6","system_id":"levelo_inurba_marseille","lat":43.30633,"lon":5.40096,"is_reserved":false,"is_disabled":false,"rental_uris":{"android":"levelo://app?vid=c8f24993-8122-465f-935b-b3ef0ac3b0b6","ios":"levelo://app?vid=c8f24993-8122-465f-935b-b3ef0ac3b0b6"},"vehicle_type_id":"4","last_reported":1740680016,"current_range_meters":9200,"station_id":"ce4bh112rcd13ifvqda0","pricing_plan_id":"cebpf4jnsgd1na2vs0mg"},{"bike_id":"03ecd382-3850-4874-86ef-0467a1a8c988","system_id":"levelo_inurba_marseille","lat":43.24197,"lon":5.39739,"is_reserved":false,"is_disabled":true,"rental_uris":{"android":"levelo://app?vid=03ecd382-3850-4874-86ef-0467a1a8c988","ios":"levelo://app?vid=03ecd382-3850-4874-86ef-0467a1a8c988"},"vehicle_type_id":"4","last_reported":1740680016,"current_range_meters":9600,"station_id":"ce4bhn12rcd13ifvqgpg","pricing_plan_id":"cebpf4jnsgd1na2vs0mg"},{"bike_id":"a8c90833-ddb5-47b3-9888-02d50da1b0e6","system_id":"levelo_inurba_marseille","lat":43.29789,"lon":5.39359,"is_reserved":false,"is_disabled":false,"rental_uris":{"android":"levelo://app?vid=a8c90833-ddb5-47b3-9888-02d50da1b0e6","ios":"levelo://app?vid=a8c90833-ddb5-47b3-9888-02d50da1b0e6"},"vehicle_type_id":"4","last_reported":1740680016,"current_range_meters":9600,"station_id":"chh1huq6cuj3fo74tm60","pricing_plan_id":"cebpf4jnsgd1na2vs0mg"},{"bike_id":"e4127e72-139a-478c-bc8d-43f39e537533","system_id":"levelo_inurba_marseille","lat":43.29708,"lon":5.36612,"is_reserved":false,"is_disabled":false,"rental_uris":{"android":"levelo://app?vid=e4127e72-139a-478c-bc8d-43f39e537533","ios":"levelo://app?vid=e4127e72-139a-478c-bc8d-43f39e537533"},"vehicle_type_id":"4","last_reported":1740680016,"current_range_meters":9600,"station_id":"ce4bgn12rcd13ifvqbt0","pricing_plan_id":"cebpf4jnsgd1na2vs0mg"},{"bike_id":"882cac04-fa7f-4f03-9238-14946d05ea85","system_id":"levelo_inurba_marseille","lat":43.29007,"lon":5.35603,"is_reserved":false,"is_disabled":false,"rental_uris":{"android":"levelo://app?vid=882cac04-fa7f-4f03-9238-14946d05ea85","ios":"levelo://app?vid=882cac04-fa7f-4f03-9238-14946d05ea85"},"vehicle_type_id":"4","last_reported":1740680016,"current_range_meters":9600,"station_id":"ce4bhb92rcd13ifvqen0","pricing_plan_id":"cebpf4jnsgd1na2vs0mg"},{"bike_id":"74d88716-f1a5-49ec-bc7f-88a2b4f5c64e","system_id":"levelo_inurba_marseille","lat":43.28355,"lon":5.38632,"is_reserved":false,"is_disabled":false,"rental_uris":{"android":"levelo://app?vid=74d88716-f1a5-49ec-bc7f-88a2b4f5c64e","ios":"levelo://app?vid=74d88716-f1a5-49ec-bc7f-88a2b4f5c64e"},"vehicle_type_id":"4","last_reported":1740680016,"current_range_meters":9600,"station_id":"ce4bh492rcd13ifvqdvg","pricing_plan_id":"cebpf4jnsgd1na2vs0mg"},{"bike_id":"d894e943-f8b7-4959-a89a-c841e20958cd","system_id":"levelo_inurba_marseille","lat":43.29095,"lon":5.38124,"is_reserved":false,"is_disabled":false,"rental_uris":{"android":"levelo://app?vid=d894e943-f8b7-4959-a89a-c841e20958cd","ios":"levelo://app?vid=d894e943-f8b7-4959-a89a-c841e20958cd"},"vehicle_type_id":"4","last_reported":1740680016,"current_range_meters":9600,"station_id":"ce4bh512rcd13ifvqe2g","pricing_plan_id":"cebpf4jnsgd1na2vs0mg"},{"bike_id":"52442e26-12ff-40ac-8863-3951c0a93399","system_id":"levelo_inurba_marseille","lat":43.26943,"lon":5.40249,"is_reserved":false,"is_disabled":false,"rental_uris":{"android":"levelo://app?vid=52442e26-12ff-40ac-8863-3951c0a93399","ios":"levelo://app?vid=52442e26-12ff-40ac-8863-3951c0a93399"},"vehicle_type_id":"4","last_reported":1740680016,"current_range_meters":10000,"station_id":"cjm6bp8fraef2m0cb0m0","pricing_plan_id":"cebpf4jnsgd1na2vs0mg"},{"bike_id":"1181ce1e-a248-40b0-9ad6-bb150270a904","system_id":"levelo_inurba_marseille","lat":43.31866,"lon":5.37635,"is_reserved":false,"is_disabled":false,"rental_uris":{"android":"levelo://app?vid=1181ce1e-a248-40b0-9ad6-bb150270a904","ios":"levelo://app?vid=1181ce1e-a248-40b0-9ad6-bb150270a904"},"vehicle_type_id":"4","last_reported":1740680016,"current_range_meters":10800,"station_id":"","pricing_plan_id":"cebpf4jnsgd1na2vs0mg"},{"bike_id":"d8994050-39f7-4aaa-af77-5e87c12121df","system_id":"levelo_inurba_marseille","lat":43.29002,"lon":5.35614,"is_reserved":false,"is_disabled":false,"rental_uris":{"android":"levelo://app?vid=d8994050-39f7-4aaa-af77-5e87c12121df","ios":"levelo://app?vid=d8994050-39f7-4aaa-af77-5e87c12121df"},"vehicle_type_id":"4","last_reported":1740680016,"current_range_meters":10000,"station_id":"ce4bhb92rcd13ifvqen0","pricing_plan_id":"cebpf4jnsgd1na2vs0mg"},{"bike_id":"4dcd9f60-32d9-44fe-ab24-79d6dd9f8b83","system_id":"levelo_inurba_marseille","lat":43.29001,"lon":5.35595,"is_reserved":false,"is_disabled":false,"rental_uris":{"android":"levelo://app?vid=4dcd9f60-32d9-44fe-ab24-79d6dd9f8b83","ios":"levelo://app?vid=4dcd9f60-32d9-44fe-ab24-79d6dd9f8b83"},"vehicle_type_id":"4","last_reported":1740680016,"current_range_meters":10000,"station_id":"ce4bhb92rcd13ifvqen0","pricing_plan_id":"cebpf4jnsgd1na2vs0mg"},{"bike_id":"cbf7b8fb-370b-4ae5-a219-f3d732a9dd17","system_id":"levelo_inurba_marseille","lat":43.25581,"lon":5.3823,"is_reserved":false,"is_disabled":false,"rental_uris":{"android":"levelo://app?vid=cbf7b8fb-370b-4ae5-a219-f3d732a9dd17","ios":"levelo://app?vid=cbf7b8fb-370b-4ae5-a219-f3d732a9dd17"},"vehicle_type_id":"4","last_reported":1740680016,"current_range_meters":9600,"station_id":"ce4bhih2rcd13ifvqfs0","pricing_plan_id":"cebpf4jnsgd1na2vs0mg"},{"bike_id":"0684c9b8-68d1-4121-82b2-00c0eebe64db","system_id":"levelo_inurba_marseille","lat":43.27948,"lon":5.41038,"is_reserved":false,"is_disabled":false,"rental_uris":{"android":"levelo://app?vid=0684c9b8-68d1-4121-82b2-00c0eebe64db","ios":"levelo://app?vid=0684c9b8-68d1-4121-82b2-00c0eebe64db"},"vehicle_type_id":"4","last_reported":1740680016,"current_range_meters":10000,"station_id":"ce4bhnp2rcd13ifvqh0g","pricing_plan_id":"cebpf4jnsgd1na2vs0mg"},{"bike_id":"e5c4159e-1b69-403c-900c-f56cee27c4b9","system_id":"levelo_inurba_marseille","lat":43.29002,"lon":5.35593,"is_reserved":false,"is_disabled":false,"rental_uris":{"android":"levelo://app?vid=e5c4159e-1b69-403c-900c-f56cee27c4b9","ios":"levelo://app?vid=e5c4159e-1b69-403c-900c-f56cee27c4b9"},"vehicle_type_id":"4","last_reported":1740680016,"current_range_meters":10000,"station_id":"ce4bhb92rcd13ifvqen0","pricing_plan_id":"cebpf4jnsgd1na2vs0mg"},{"bike_id":"1bdde381-f1d7-43bb-98d8-b30bc368c0a9","system_id":"levelo_inurba_marseille","lat":43.29596,"lon":5.38116,"is_reserved":false,"is_disabled":false,"rental_uris":{"android":"levelo://app?vid=1bdde381-f1d7-43bb-98d8-b30bc368c0a9","ios":"levelo://app?vid=1bdde381-f1d7-43bb-98d8-b30bc368c0a9"},"vehicle_type_id":"4","last_reported":1740680016,"current_range_meters":11600,"station_id":"ce4bgl12rcd13ifvqbo0","pricing_plan_id":"cebpf4jnsgd1na2vs0mg"},{"bike_id":"b314b2f6-1e4d-4863-9ce0-49841450f422","system_id":"levelo_inurba_marseille","lat":43.23192,"lon":5.35553,"is_reserved":false,"is_disabled":false,"rental_uris":{"android":"levelo://app?vid=b314b2f6-1e4d-4863-9ce0-49841450f422","ios":"levelo://app?vid=b314b2f6-1e4d-4863-9ce0-49841450f422"},"vehicle_type_id":"4","last_reported":1740680016,"current_range_meters":10800,"station_id":"ce4bhu92rcd13ifvqi70","pricing_plan_id":"cebpf4jnsgd1na2vs0mg"},{"bike_id":"9aeb3c4a-a7ed-4b78-aca1-0d13fcf03987","system_id":"levelo_inurba_marseille","lat":43.29268,"lon":5.38427,"is_reserved":false,"is_disabled":false,"rental_uris":{"android":"levelo://app?vid=9aeb3c4a-a7ed-4b78-aca1-0d13fcf03987","ios":"levelo://app?vid=9aeb3c4a-a7ed-4b78-aca1-0d13fcf03987"},"vehicle_type_id":"4","last_reported":1740680016,"current_range_meters":10800,"station_id":"ce4bh692rcd13ifvqea0","pricing_plan_id":"cebpf4jnsgd1na2vs0mg"},{"bike_id":"325735dc-12f6-48c8-9a05-d378991cdb6c","system_id":"levelo_inurba_marseille","lat":43.29263,"lon":5.38431,"is_reserved":false,"is_disabled":false,"rental_uris":{"android":"levelo://app?vid=325735dc-12f6-48c8-9a05-d378991cdb6c","ios":"levelo://app?vid=325735dc-12f6-48c8-9a05-d378991cdb6c"},"vehicle_type_id":"4","last_reported":1740680016,"current_range_meters":10800,"station_id":"ce4bh692rcd13ifvqea0","pricing_plan_id":"cebpf4jnsgd1na2vs0mg"},{"bike_id":"7f813861-dc21-44f2-975d-21a8e426f2c4","system_id":"levelo_inurba_marseille","lat":43.29301,"lon":5.37192,"is_reserved":false,"is_disabled":false,"rental_uris":{"android":"levelo://app?vid=7f813861-dc21-44f2-975d-21a8e426f2c4","ios":"levelo://app?vid=7f813861-dc21-44f2-975d-21a8e426f2c4"},"vehicle_type_id":"4","last_reported":1740680016,"current_range_meters":10800,"station_id":"ce4bgh92rcd13ifvqb40","pricing_plan_id":"cebpf4jnsgd1na2vs0mg"},{"bike_id":"2f218cd9-6dc2-4509-acc5-b6e8dd4cef8b","system_id":"levelo_inurba_marseille","lat":43.28464,"lon":5.35894,"is_reserved":false,"is_disabled":false,"rental_uris":{"android":"levelo://app?vid=2f218cd9-6dc2-4509-acc5-b6e8dd4cef8b","ios":"levelo://app?vid=2f218cd9-6dc2-4509-acc5-b6e8dd4cef8b"},"vehicle_type_id":"4","last_reported":1740680016,"current_range_meters":10800,"station_id":"ce4bhah2rcd13ifvqei0","pricing_plan_id":"cebpf4jnsgd1na2vs0mg"},{"bike_id":"17209f80-451e-4586-b620-381cc150687e","system_id":"levelo_inurba_marseille","lat":43.29865,"lon":5.38892,"is_reserved":false,"is_disabled":false,"rental_uris":{"android":"levelo://app?vid=17209f80-451e-4586-b620-381cc150687e","ios":"levelo://app?vid=17209f80-451e-4586-b620-381cc150687e"},"vehicle_type_id":"4","last_reported":1740680016,"current_range_meters":10800,"station_id":"ce4bh392rcd13ifvqdl0","pricing_plan_id":"cebpf4jnsgd1na2vs0mg"},{"bike_id":"4517841d-f497-4adf-b7bc-cc9acc9fc2a5","system_id":"levelo_inurba_marseille","lat":43.29702,"lon":5.36608,"is_reserved":false,"is_disabled":false,"rental_uris":{"android":"levelo://app?vid=4517841d-f497-4adf-b7bc-cc9acc9fc2a5","ios":"levelo://app?vid=4517841d-f497-4adf-b7bc-cc9acc9fc2a5"},"vehicle_type_id":"4","last_reported":1740680016,"current_range_meters":10800,"station_id":"ce4bgn12rcd13ifvqbt0","pricing_plan_id":"cebpf4jnsgd1na2vs0mg"},{"bike_id":"75184a06-17c0-4821-8f1e-4f2fe03c10ac","system_id":"levelo_inurba_marseille","lat":43.28658,"lon":5.36355,"is_reserved":false,"is_disabled":false,"rental_uris":{"android":"levelo://app?vid=75184a06-17c0-4821-8f1e-4f2fe03c10ac","ios":"levelo://app?vid=75184a06-17c0-4821-8f1e-4f2fe03c10ac"},"vehicle_type_id":"4","last_reported":1740680016,"current_range_meters":10000,"station_id":"ce4bhah2rcd13ifvqej0","pricing_plan_id":"cebpf4jnsgd1na2vs0mg"},{"bike_id":"cd55dab6-f16f-477a-8396-951702ed9ff6","system_id":"levelo_inurba_marseille","lat":43.29568,"lon":5.36744,"is_reserved":false,"is_disabled":false,"rental_uris":{"android":"levelo://app?vid=cd55dab6-f16f-477a-8396-951702ed9ff6","ios":"levelo://app?vid=cd55dab6-f16f-477a-8396-951702ed9ff6"},"vehicle_type_id":"4","last_reported":1740680016,"current_range_meters":10800,"station_id":"ce4bgph2rcd13ifvqc2g","pricing_plan_id":"cebpf4jnsgd1na2vs0mg"},{"bike_id":"79dd12ea-fee8-4cce-b7f0-42f5f2122985","system_id":"levelo_inurba_marseille","lat":43.292,"lon":5.38542,"is_reserved":false,"is_disabled":false,"rental_uris":{"android":"levelo://app?vid=79dd12ea-fee8-4cce-b7f0-42f5f2122985","ios":"levelo://app?vid=79dd12ea-fee8-4cce-b7f0-42f5f2122985"},"vehicle_type_id":"4","last_reported":1740680016,"current_range_meters":8800,"station_id":"","pricing_plan_id":"cebpf4jnsgd1na2vs0mg"},{"bike_id":"34cd32c4-5524-4c21-b488-5c40c1437c1a","system_id":"levelo_inurba_marseille","lat":43.298327,"lon":5.379723,"is_reserved":false,"is_disabled":false,"rental_uris":{"android":"levelo://app?vid=34cd32c4-5524-4c21-b488-5c40c1437c1a","ios":"levelo://app?vid=34cd32c4-5524-4c21-b488-5c40c1437c1a"},"vehicle_type_id":"4","last_reported":1740680016,"current_range_meters":10800,"station_id":"ce4bgpp2rcd13ifvqc3g","pricing_plan_id":"cebpf4jnsgd1na2vs0mg"},{"bike_id":"a87cd413-0750-4b7e-962e-d772a7c89fec","system_id":"levelo_inurba_marseille","lat":43.25604,"lon":5.38245,"is_reserved":false,"is_disabled":false,"rental_uris":{"android":"levelo://app?vid=a87cd413-0750-4b7e-962e-d772a7c89fec","ios":"levelo://app?vid=a87cd413-0750-4b7e-962e-d772a7c89fec"},"vehicle_type_id":"4","last_reported":1740680016,"current_range_meters":12000,"station_id":"ce4bhih2rcd13ifvqfs0","pricing_plan_id":"cebpf4jnsgd1na2vs0mg"},{"bike_id":"94ca4ae4-5d38-443f-8b7e-5532d58cd543","system_id":"levelo_inurba_marseille","lat":43.29019,"lon":5.38135,"is_reserved":false,"is_disabled":false,"rental_uris":{"android":"levelo://app?vid=94ca4ae4-5d38-443f-8b7e-5532d58cd543","ios":"levelo://app?vid=94ca4ae4-5d38-443f-8b7e-5532d58cd543"},"vehicle_type_id":"4","last_reported":1740680016,"current_range_meters":11200,"station_id":"ce4bh4p2rcd13ifvqe1g","pricing_plan_id":"cebpf4jnsgd1na2vs0mg"},{"bike_id":"907b990b-0a8a-4924-acec-37622f347ce1","system_id":"levelo_inurba_marseille","lat":43.28614,"lon":5.35188,"is_reserved":false,"is_disabled":false,"rental_uris":{"android":"levelo://app?vid=907b990b-0a8a-4924-acec-37622f347ce1","ios":"levelo://app?vid=907b990b-0a8a-4924-acec-37622f347ce1"},"vehicle_type_id":"4","last_reported":1740680016,"current_range_meters":11600,"station_id":"ce4bhch2rcd13ifvqeug","pricing_plan_id":"cebpf4jnsgd1na2vs0mg"},{"bike_id":"eea25fa1-2db0-4cb4-901f-2535ea4c664c","system_id":"levelo_inurba_marseille","lat":43.30319,"lon":5.4044,"is_reserved":false,"is_disabled":false,"rental_uris":{"android":"levelo://app?vid=eea25fa1-2db0-4cb4-901f-2535ea4c664c","ios":"levelo://app?vid=eea25fa1-2db0-4cb4-901f-2535ea4c664c"},"vehicle_type_id":"4","last_reported":1740680016,"current_range_meters":12400,"station_id":"ce4bh012rcd13ifvqd10","pricing_plan_id":"cebpf4jnsgd1na2vs0mg"},{"bike_id":"5cdf1157-258e-4dbe-9eac-97f9742be378","system_id":"levelo_inurba_marseille","lat":43.27378,"lon":5.36257,"is_reserved":false,"is_disabled":false,"rental_uris":{"android":"levelo://app?vid=5cdf1157-258e-4dbe-9eac-97f9742be378","ios":"levelo://app?vid=5cdf1157-258e-4dbe-9eac-97f9742be378"},"vehicle_type_id":"4","last_reported":1740680016,"current_range_meters":16000,"station_id":"ce4bhbh2rcd13ifvqeo0","pricing_plan_id":"cebpf4jnsgd1na2vs0mg"},{"bike_id":"64d5bd85-58b2-4b54-b93c-4a6aef9a8da8","system_id":"levelo_inurba_marseille","lat":43.30545,"lon":5.36539,"is_reserved":false,"is_disabled":true,"rental_uris":{"android":"levelo://app?vid=64d5bd85-58b2-4b54-b93c-4a6aef9a8da8","ios":"levelo://app?vid=64d5bd85-58b2-4b54-b93c-4a6aef9a8da8"},"vehicle_type_id":"4","last_reported":1740680016,"current_range_meters":11600,"station_id":"ce4bgs12rcd13ifvqcag","pricing_plan_id":"cebpf4jnsgd1na2vs0mg"},{"bike_id":"25280302-8ec4-4c21-984e-bcefb3715e41","system_id":"levelo_inurba_marseille","lat":43.29856,"lon":5.3628,"is_reserved":false,"is_disabled":false,"rental_uris":{"android":"levelo://app?vid=25280302-8ec4-4c21-984e-bcefb3715e41","ios":"levelo://app?vid=25280302-8ec4-4c21-984e-bcefb3715e41"},"vehicle_type_id":"4","last_reported":1740680016,"current_range_meters":10000,"station_id":"ce4bgpp2rcd13ifvqc3g","pricing_plan_id":"cebpf4jnsgd1na2vs0mg"},{"bike_id":"600a74b7-374d-44b1-ad44-49833b1e1ec8","system_id":"levelo_inurba_marseille","lat":43.29901,"lon":5.436,"is_reserved":false,"is_disabled":false,"rental_uris":{"android":"levelo://app?vid=600a74b7-374d-44b1-ad44-49833b1e1ec8","ios":"levelo://app?vid=600a74b7-374d-44b1-ad44-49833b1e1ec8"},"vehicle_type_id":"4","last_reported":1740680016,"current_range_meters":12400,"station_id":"ce4bhpp2rcd13ifvqhfg","pricing_plan_id":"cebpf4jnsgd1na2vs0mg"},{"bike_id":"a2c451cb-006a-459d-87d7-9819cf7d38dd","system_id":"levelo_inurba_marseille","lat":43.26202,"lon":5.37936,"is_reserved":false,"is_disabled":false,"rental_uris":{"android":"levelo://app?vid=a2c451cb-006a-459d-87d7-9819cf7d38dd","ios":"levelo://app?vid=a2c451cb-006a-459d-87d7-9819cf7d38dd"},"vehicle_type_id":"4","last_reported":1740680016,"current_range_meters":11600,"station_id":"ce4bhjp2rcd13ifvqg90","pricing_plan_id":"cebpf4jnsgd1na2vs0mg"},{"bike_id":"d37ad41a-14a5-4ec4-861d-36e3a0eea0c4","system_id":"levelo_inurba_marseille","lat":43.27994,"lon":5.40013,"is_reserved":false,"is_disabled":false,"rental_uris":{"android":"levelo://app?vid=d37ad41a-14a5-4ec4-861d-36e3a0eea0c4","ios":"levelo://app?vid=d37ad41a-14a5-4ec4-861d-36e3a0eea0c4"},"vehicle_type_id":"4","last_reported":1740680016,"current_range_meters":11600,"station_id":"ce4bho92rcd13ifvqh4g","pricing_plan_id":"cebpf4jnsgd1na2vs0mg"},{"bike_id":"2c0affc2-a2ea-4e24-a659-6e93261f5330","system_id":"levelo_inurba_marseille","lat":43.28845,"lon":5.35853,"is_reserved":false,"is_disabled":false,"rental_uris":{"android":"levelo://app?vid=2c0affc2-a2ea-4e24-a659-6e93261f5330","ios":"levelo://app?vid=2c0affc2-a2ea-4e24-a659-6e93261f5330"},"vehicle_type_id":"4","last_reported":1740680016,"current_range_meters":7200,"station_id":"ce4bhb12rcd13ifvqem0","pricing_plan_id":"cebpf4jnsgd1na2vs0mg"},{"bike_id":"443370dd-f8b8-457a-b6f8-389b804ff6fc","system_id":"levelo_inurba_marseille","lat":43.32373,"lon":5.38884,"is_reserved":false,"is_disabled":false,"rental_uris":{"android":"levelo://app?vid=443370dd-f8b8-457a-b6f8-389b804ff6fc","ios":"levelo://app?vid=443370dd-f8b8-457a-b6f8-389b804ff6fc"},"vehicle_type_id":"4","last_reported":1740680016,"current_range_meters":12000,"station_id":"ce4bhqp2rcd13ifvqhog","pricing_plan_id":"cebpf4jnsgd1na2vs0mg"},{"bike_id":"4e2e11f8-e9a3-4f3a-9372-23488c564b9c","system_id":"levelo_inurba_marseille","lat":43.28456,"lon":5.35891,"is_reserved":false,"is_disabled":false,"rental_uris":{"android":"levelo://app?vid=4e2e11f8-e9a3-4f3a-9372-23488c564b9c","ios":"levelo://app?vid=4e2e11f8-e9a3-4f3a-9372-23488c564b9c"},"vehicle_type_id":"4","last_reported":1740680016,"current_range_meters":12000,"station_id":"ce4bhah2rcd13ifvqei0","pricing_plan_id":"cebpf4jnsgd1na2vs0mg"},{"bike_id":"c4ccb655-dd9b-43ab-8f3c-0263f338f6f3","system_id":"levelo_inurba_marseille","lat":43.29933,"lon":5.36551,"is_reserved":false,"is_disabled":false,"rental_uris":{"android":"levelo://app?vid=c4ccb655-dd9b-43ab-8f3c-0263f338f6f3","ios":"levelo://app?vid=c4ccb655-dd9b-43ab-8f3c-0263f338f6f3"},"vehicle_type_id":"4","last_reported":1740680016,"current_range_meters":13600,"station_id":"ce4bgm92rcd13ifvqbr0","pricing_plan_id":"cebpf4jnsgd1na2vs0mg"},{"bike_id":"b72644ff-69f6-4dfa-8deb-8a6de6ffcd42","system_id":"levelo_inurba_marseille","lat":43.24075,"lon":5.3776,"is_reserved":false,"is_disabled":false,"rental_uris":{"android":"levelo://app?vid=b72644ff-69f6-4dfa-8deb-8a6de6ffcd42","ios":"levelo://app?vid=b72644ff-69f6-4dfa-8deb-8a6de6ffcd42"},"vehicle_type_id":"4","last_reported":1740680016,"current_range_meters":12400,"station_id":"ce4bhnp2rcd13ifvqgvg","pricing_plan_id":"cebpf4jnsgd1na2vs0mg"},{"bike_id":"e89404bc-b67d-4aa0-b5b9-0d5adc52fc30","system_id":"levelo_inurba_marseille","lat":43.2861,"lon":5.35099,"is_reserved":false,"is_disabled":false,"rental_uris":{"android":"levelo://app?vid=e89404bc-b67d-4aa0-b5b9-0d5adc52fc30","ios":"levelo://app?vid=e89404bc-b67d-4aa0-b5b9-0d5adc52fc30"},"vehicle_type_id":"4","last_reported":1740680016,"current_range_meters":10000,"station_id":"ce4bhch2rcd13ifvqeug","pricing_plan_id":"cebpf4jnsgd1na2vs0mg"},{"bike_id":"3de9aeda-1f9a-4bbc-8b90-e02a49e56ca9","system_id":"levelo_inurba_marseille","lat":43.2319,"lon":5.3556,"is_reserved":false,"is_disabled":false,"rental_uris":{"android":"levelo://app?vid=3de9aeda-1f9a-4bbc-8b90-e02a49e56ca9","ios":"levelo://app?vid=3de9aeda-1f9a-4bbc-8b90-e02a49e56ca9"},"vehicle_type_id":"4","last_reported":1740680016,"current_range_meters":12400,"station_id":"ce4bhu92rcd13ifvqi70","pricing_plan_id":"cebpf4jnsgd1na2vs0mg"},{"bike_id":"b984ed3d-0db1-49b9-8e2b-609c960de8d5","system_id":"levelo_inurba_marseille","lat":43.29876,"lon":5.38911,"is_reserved":false,"is_disabled":false,"rental_uris":{"android":"levelo://app?vid=b984ed3d-0db1-49b9-8e2b-609c960de8d5","ios":"levelo://app?vid=b984ed3d-0db1-49b9-8e2b-609c960de8d5"},"vehicle_type_id":"4","last_reported":1740680016,"current_range_meters":12400,"station_id":"ce4bh392rcd13ifvqdl0","pricing_plan_id":"cebpf4jnsgd1na2vs0mg"},{"bike_id":"24949d68-375b-45f3-af72-df603690b8e5","system_id":"levelo_inurba_marseille","lat":43.28628,"lon":5.35094,"is_reserved":false,"is_disabled":false,"rental_uris":{"android":"levelo://app?vid=24949d68-375b-45f3-af72-df603690b8e5","ios":"levelo://app?vid=24949d68-375b-45f3-af72-df603690b8e5"},"vehicle_type_id":"4","last_reported":1740680016,"current_range_meters":14000,"station_id":"ce4bhch2rcd13ifvqeug","pricing_plan_id":"cebpf4jnsgd1na2vs0mg"},{"bike_id":"428cc8c3-41c4-481d-ad15-0bd46f567261","system_id":"levelo_inurba_marseille","lat":43.28619,"lon":5.35107,"is_reserved":false,"is_disabled":false,"rental_uris":{"android":"levelo://app?vid=428cc8c3-41c4-481d-ad15-0bd46f567261","ios":"levelo://app?vid=428cc8c3-41c4-481d-ad15-0bd46f567261"},"vehicle_type_id":"4","last_reported":1740680016,"current_range_meters":12800,"station_id":"ce4bhch2rcd13ifvqeug","pricing_plan_id":"cebpf4jnsgd1na2vs0mg"},{"bike_id":"7cf7b894-d393-4f1a-903c-6b57f99cdc54","system_id":"levelo_inurba_marseille","lat":43.26389,"lon":5.38441,"is_reserved":false,"is_disabled":false,"rental_uris":{"android":"levelo://app?vid=7cf7b894-d393-4f1a-903c-6b57f99cdc54","ios":"levelo://app?vid=7cf7b894-d393-4f1a-903c-6b57f99cdc54"},"vehicle_type_id":"4","last_reported":1740680016,"current_range_meters":13600,"station_id":"","pricing_plan_id":"cebpf4jnsgd1na2vs0mg"},{"bike_id":"5169bf4e-5ac4-4560-9d3b-f48581611c45","system_id":"levelo_inurba_marseille","lat":43.25096,"lon":5.39522,"is_reserved":false,"is_disabled":false,"rental_uris":{"android":"levelo://app?vid=5169bf4e-5ac4-4560-9d3b-f48581611c45","ios":"levelo://app?vid=5169bf4e-5ac4-4560-9d3b-f48581611c45"},"vehicle_type_id":"4","last_reported":1740680016,"current_range_meters":13600,"station_id":"ce4bhm12rcd13ifvqgkg","pricing_plan_id":"cebpf4jnsgd1na2vs0mg"},{"bike_id":"074c2cfc-d4ac-4214-9099-40034921ab92","system_id":"levelo_inurba_marseille","lat":43.29421,"lon":5.38624,"is_reserved":false,"is_disabled":false,"rental_uris":{"android":"levelo://app?vid=074c2cfc-d4ac-4214-9099-40034921ab92","ios":"levelo://app?vid=074c2cfc-d4ac-4214-9099-40034921ab92"},"vehicle_type_id":"4","last_reported":1740680016,"current_range_meters":13600,"station_id":"ce4bh2h2rcd13ifvqdh0","pricing_plan_id":"cebpf4jnsgd1na2vs0mg"},{"bike_id":"5ef817b1-e1eb-4e6b-a154-6d59940f68e8","system_id":"levelo_inurba_marseille","lat":43.24077,"lon":5.37757,"is_reserved":false,"is_disabled":false,"rental_uris":{"android":"levelo://app?vid=5ef817b1-e1eb-4e6b-a154-6d59940f68e8","ios":"levelo://app?vid=5ef817b1-e1eb-4e6b-a154-6d59940f68e8"},"vehicle_type_id":"4","last_reported":1740680016,"current_range_meters":11200,"station_id":"ce4bhnp2rcd13ifvqgvg","pricing_plan_id":"cebpf4jnsgd1na2vs0mg"},{"bike_id":"0a282276-cae9-4315-82a7-95bcf0ecf611","system_id":"levelo_inurba_marseille","lat":43.28105,"lon":5.37875,"is_reserved":false,"is_disabled":false,"rental_uris":{"android":"levelo://app?vid=0a282276-cae9-4315-82a7-95bcf0ecf611","ios":"levelo://app?vid=0a282276-cae9-4315-82a7-95bcf0ecf611"},"vehicle_type_id":"4","last_reported":1740680016,"current_range_meters":13600,"station_id":"ce4bha12rcd13ifvqee0","pricing_plan_id":"cebpf4jnsgd1na2vs0mg"},{"bike_id":"1393e48a-5096-48c2-8ef4-ef737b7b43ae","system_id":"levelo_inurba_marseille","lat":43.25094,"lon":5.39519,"is_reserved":false,"is_disabled":false,"rental_uris":{"android":"levelo://app?vid=1393e48a-5096-48c2-8ef4-ef737b7b43ae","ios":"levelo://app?vid=1393e48a-5096-48c2-8ef4-ef737b7b43ae"},"vehicle_type_id":"4","last_reported":1740680016,"current_range_meters":13600,"station_id":"ce4bhm12rcd13ifvqgkg","pricing_plan_id":"cebpf4jnsgd1na2vs0mg"},{"bike_id":"87c3b9ed-38ff-4c4d-b193-67da48003ece","system_id":"levelo_inurba_marseille","lat":43.29414,"lon":5.38635,"is_reserved":false,"is_disabled":false,"rental_uris":{"android":"levelo://app?vid=87c3b9ed-38ff-4c4d-b193-67da48003ece","ios":"levelo://app?vid=87c3b9ed-38ff-4c4d-b193-67da48003ece"},"vehicle_type_id":"4","last_reported":1740680016,"current_range_meters":13600,"station_id":"ce4bh2h2rcd13ifvqdh0","pricing_plan_id":"cebpf4jnsgd1na2vs0mg"},{"bike_id":"9c16f73b-d883-4318-9d54-d8eb1fe44c91","system_id":"levelo_inurba_marseille","lat":43.27774,"lon":5.40695,"is_reserved":false,"is_disabled":false,"rental_uris":{"android":"levelo://app?vid=9c16f73b-d883-4318-9d54-d8eb1fe44c91","ios":"levelo://app?vid=9c16f73b-d883-4318-9d54-d8eb1fe44c91"},"vehicle_type_id":"4","last_reported":1740680016,"current_range_meters":13600,"station_id":"ce4bhnh2rcd13ifvqgtg","pricing_plan_id":"cebpf4jnsgd1na2vs0mg"},{"bike_id":"1223b46f-5f4d-46e5-9ceb-1051c7bcf468","system_id":"levelo_inurba_marseille","lat":43.31489,"lon":5.37313,"is_reserved":false,"is_disabled":false,"rental_uris":{"android":"levelo://app?vid=1223b46f-5f4d-46e5-9ceb-1051c7bcf468","ios":"levelo://app?vid=1223b46f-5f4d-46e5-9ceb-1051c7bcf468"},"vehicle_type_id":"4","last_reported":1740680016,"current_range_meters":12800,"station_id":"ce4bhr12rcd13ifvqhqg","pricing_plan_id":"cebpf4jnsgd1na2vs0mg"},{"bike_id":"6bf62df5-9f2c-4676-be2e-3425368f3119","system_id":"levelo_inurba_marseille","lat":43.29321,"lon":5.38257,"is_reserved":false,"is_disabled":false,"rental_uris":{"android":"levelo://app?vid=6bf62df5-9f2c-4676-be2e-3425368f3119","ios":"levelo://app?vid=6bf62df5-9f2c-4676-be2e-3425368f3119"},"vehicle_type_id":"4","last_reported":1740680016,"current_range_meters":13600,"station_id":"","pricing_plan_id":"cebpf4jnsgd1na2vs0mg"},{"bike_id":"ea21029e-dc9c-4a5b-81b1-d14ee0c03d1e","system_id":"levelo_inurba_marseille","lat":43.255802,"lon":5.382281,"is_reserved":false,"is_disabled":false,"rental_uris":{"android":"levelo://app?vid=ea21029e-dc9c-4a5b-81b1-d14ee0c03d1e","ios":"levelo://app?vid=ea21029e-dc9c-4a5b-81b1-d14ee0c03d1e"},"vehicle_type_id":"4","last_reported":1740680016,"current_range_meters":13600,"station_id":"ce4bhh12rcd13ifvqff0","pricing_plan_id":"cebpf4jnsgd1na2vs0mg"},{"bike_id":"07a70f40-d064-434b-83aa-228acdf7dd53","system_id":"levelo_inurba_marseille","lat":43.23181,"lon":5.39992,"is_reserved":false,"is_disabled":false,"rental_uris":{"android":"levelo://app?vid=07a70f40-d064-434b-83aa-228acdf7dd53","ios":"levelo://app?vid=07a70f40-d064-434b-83aa-228acdf7dd53"},"vehicle_type_id":"4","last_reported":1740680016,"current_range_meters":14000,"station_id":"ce4bhn12rcd13ifvqgqg","pricing_plan_id":"cebpf4jnsgd1na2vs0mg"},{"bike_id":"81e8452c-a271-4f9b-bdda-6a4db27b7838","system_id":"levelo_inurba_marseille","lat":43.29533,"lon":5.3855,"is_reserved":false,"is_disabled":false,"rental_uris":{"android":"levelo://app?vid=81e8452c-a271-4f9b-bdda-6a4db27b7838","ios":"levelo://app?vid=81e8452c-a271-4f9b-bdda-6a4db27b7838"},"vehicle_type_id":"4","last_reported":1740680016,"current_range_meters":13600,"station_id":"ce4bgih2rcd13ifvqba0","pricing_plan_id":"cebpf4jnsgd1na2vs0mg"},{"bike_id":"9a913e1a-0f9f-41db-989d-e8f286bed392","system_id":"levelo_inurba_marseille","lat":43.26812,"lon":5.40247,"is_reserved":false,"is_disabled":false,"rental_uris":{"android":"levelo://app?vid=9a913e1a-0f9f-41db-989d-e8f286bed392","ios":"levelo://app?vid=9a913e1a-0f9f-41db-989d-e8f286bed392"},"vehicle_type_id":"4","last_reported":1740680016,"current_range_meters":15200,"station_id":"ce501612rcd8frsf0b60","pricing_plan_id":"cebpf4jnsgd1na2vs0mg"},{"bike_id":"24d94c9a-4298-4e08-9a3b-87a19812bd61","system_id":"levelo_inurba_marseille","lat":43.29884,"lon":5.38898,"is_reserved":false,"is_disabled":false,"rental_uris":{"android":"levelo://app?vid=24d94c9a-4298-4e08-9a3b-87a19812bd61","ios":"levelo://app?vid=24d94c9a-4298-4e08-9a3b-87a19812bd61"},"vehicle_type_id":"4","last_reported":1740680016,"current_range_meters":12800,"station_id":"ce4bh392rcd13ifvqdl0","pricing_plan_id":"cebpf4jnsgd1na2vs0mg"},{"bike_id":"f289344a-7eed-4401-851c-f62438075b36","system_id":"levelo_inurba_marseille","lat":43.288589,"lon":5.358532,"is_reserved":false,"is_disabled":false,"rental_uris":{"android":"levelo://app?vid=f289344a-7eed-4401-851c-f62438075b36","ios":"levelo://app?vid=f289344a-7eed-4401-851c-f62438075b36"},"vehicle_type_id":"4","last_reported":1740680016,"current_range_meters":14000,"station_id":"ce4bhi12rcd13ifvqfq0","pricing_plan_id":"cebpf4jnsgd1na2vs0mg"},{"bike_id":"927ccb1a-4e91-4dc6-b099-5a543622a5f9","system_id":"levelo_inurba_marseille","lat":43.29552,"lon":5.4229,"is_reserved":false,"is_disabled":false,"rental_uris":{"android":"levelo://app?vid=927ccb1a-4e91-4dc6-b099-5a543622a5f9","ios":"levelo://app?vid=927ccb1a-4e91-4dc6-b099-5a543622a5f9"},"vehicle_type_id":"4","last_reported":1740680016,"current_range_meters":14000,"station_id":"ce4bhph2rcd13ifvqhdg","pricing_plan_id":"cebpf4jnsgd1na2vs0mg"},{"bike_id":"d53fb70a-6708-4ff2-a2f4-4d1115ea53f1","system_id":"levelo_inurba_marseille","lat":43.29718,"lon":5.36649,"is_reserved":false,"is_disabled":false,"rental_uris":{"android":"levelo://app?vid=d53fb70a-6708-4ff2-a2f4-4d1115ea53f1","ios":"levelo://app?vid=d53fb70a-6708-4ff2-a2f4-4d1115ea53f1"},"vehicle_type_id":"4","last_reported":1740680016,"current_range_meters":14000,"station_id":"ce4bgn12rcd13ifvqbt0","pricing_plan_id":"cebpf4jnsgd1na2vs0mg"},{"bike_id":"003cb376-6e56-4c40-a318-aab1ad8c5cc5","system_id":"levelo_inurba_marseille","lat":43.29021,"lon":5.3755,"is_reserved":false,"is_disabled":false,"rental_uris":{"android":"levelo://app?vid=003cb376-6e56-4c40-a318-aab1ad8c5cc5","ios":"levelo://app?vid=003cb376-6e56-4c40-a318-aab1ad8c5cc5"},"vehicle_type_id":"4","last_reported":1740680016,"current_range_meters":14000,"station_id":"ce4bh692rcd13ifvqe90","pricing_plan_id":"cebpf4jnsgd1na2vs0mg"},{"bike_id":"5b28cd77-a409-482f-8702-f764eef9151e","system_id":"levelo_inurba_marseille","lat":43.25929,"lon":5.40864,"is_reserved":false,"is_disabled":true,"rental_uris":{"android":"levelo://app?vid=5b28cd77-a409-482f-8702-f764eef9151e","ios":"levelo://app?vid=5b28cd77-a409-482f-8702-f764eef9151e"},"vehicle_type_id":"4","last_reported":1740680016,"current_range_meters":14400,"station_id":"ce4bhm92rcd13ifvqglg","pricing_plan_id":"cebpf4jnsgd1na2vs0mg"},{"bike_id":"4faa25b2-6d20-4258-a63e-5adea7aec14e","system_id":"levelo_inurba_marseille","lat":43.28457,"lon":5.35901,"is_reserved":false,"is_disabled":true,"rental_uris":{"android":"levelo://app?vid=4faa25b2-6d20-4258-a63e-5adea7aec14e","ios":"levelo://app?vid=4faa25b2-6d20-4258-a63e-5adea7aec14e"},"vehicle_type_id":"4","last_reported":1740680016,"current_range_meters":14400,"station_id":"ce4bhah2rcd13ifvqei0","pricing_plan_id":"cebpf4jnsgd1na2vs0mg"},{"bike_id":"d4918d6a-5525-4be8-b0c4-7af64b54343d","system_id":"levelo_inurba_marseille","lat":43.24165,"lon":5.36399,"is_reserved":false,"is_disabled":false,"rental_uris":{"android":"levelo://app?vid=d4918d6a-5525-4be8-b0c4-7af64b54343d","ios":"levelo://app?vid=d4918d6a-5525-4be8-b0c4-7af64b54343d"},"vehicle_type_id":"4","last_reported":1740680016,"current_range_meters":14800,"station_id":"cpo36qri1sfpv3e86is0","pricing_plan_id":"cebpf4jnsgd1na2vs0mg"},{"bike_id":"10b6c0d0-a3ef-460e-ad30-22fe050ad6b8","system_id":"levelo_inurba_marseille","lat":43.2884,"lon":5.35873,"is_reserved":false,"is_disabled":false,"rental_uris":{"android":"levelo://app?vid=10b6c0d0-a3ef-460e-ad30-22fe050ad6b8","ios":"levelo://app?vid=10b6c0d0-a3ef-460e-ad30-22fe050ad6b8"},"vehicle_type_id":"4","last_reported":1740680016,"current_range_meters":14400,"station_id":"ce4bhb12rcd13ifvqem0","pricing_plan_id":"cebpf4jnsgd1na2vs0mg"},{"bike_id":"ebcf2632-bb71-4fd6-9cdd-aed0eaf98b2f","system_id":"levelo_inurba_marseille","lat":43.3079,"lon":5.38159,"is_reserved":false,"is_disabled":false,"rental_uris":{"android":"levelo://app?vid=ebcf2632-bb71-4fd6-9cdd-aed0eaf98b2f","ios":"levelo://app?vid=ebcf2632-bb71-4fd6-9cdd-aed0eaf98b2f"},"vehicle_type_id":"4","last_reported":1740680016,"current_range_meters":16000,"station_id":"ce4bgt12rcd13ifvqce0","pricing_plan_id":"cebpf4jnsgd1na2vs0mg"},{"bike_id":"c3392adb-9e64-4e89-891a-a2c8d504aa80","system_id":"levelo_inurba_marseille","lat":43.30097,"lon":5.39868,"is_reserved":false,"is_disabled":false,"rental_uris":{"android":"levelo://app?vid=c3392adb-9e64-4e89-891a-a2c8d504aa80","ios":"levelo://app?vid=c3392adb-9e64-4e89-891a-a2c8d504aa80"},"vehicle_type_id":"4","last_reported":1740680016,"current_range_meters":14800,"station_id":"ce4bh0h2rcd13ifvqd40","pricing_plan_id":"cebpf4jnsgd1na2vs0mg"},{"bike_id":"20d08730-d04f-482a-9ed2-1d3e29b92784","system_id":"levelo_inurba_marseille","lat":43.32367,"lon":5.38865,"is_reserved":false,"is_disabled":false,"rental_uris":{"android":"levelo://app?vid=20d08730-d04f-482a-9ed2-1d3e29b92784","ios":"levelo://app?vid=20d08730-d04f-482a-9ed2-1d3e29b92784"},"vehicle_type_id":"4","last_reported":1740680016,"current_range_meters":14400,"station_id":"ce4bhqp2rcd13ifvqhog","pricing_plan_id":"cebpf4jnsgd1na2vs0mg"},{"bike_id":"6f08793c-0e13-4755-8250-eb14e46e9c0b","system_id":"levelo_inurba_marseille","lat":43.23187,"lon":5.39976,"is_reserved":false,"is_disabled":false,"rental_uris":{"android":"levelo://app?vid=6f08793c-0e13-4755-8250-eb14e46e9c0b","ios":"levelo://app?vid=6f08793c-0e13-4755-8250-eb14e46e9c0b"},"vehicle_type_id":"4","last_reported":1740680016,"current_range_meters":14400,"station_id":"ce4bhn12rcd13ifvqgqg","pricing_plan_id":"cebpf4jnsgd1na2vs0mg"},{"bike_id":"ef77bf7f-5b88-41c9-8d3b-c8c9c0447dd9","system_id":"levelo_inurba_marseille","lat":43.28071,"lon":5.35044,"is_reserved":false,"is_disabled":false,"rental_uris":{"android":"levelo://app?vid=ef77bf7f-5b88-41c9-8d3b-c8c9c0447dd9","ios":"levelo://app?vid=ef77bf7f-5b88-41c9-8d3b-c8c9c0447dd9"},"vehicle_type_id":"4","last_reported":1740680016,"current_range_meters":14400,"station_id":"","pricing_plan_id":"cebpf4jnsgd1na2vs0mg"},{"bike_id":"df371ec5-85eb-45fe-9ecc-99d17c629739","system_id":"levelo_inurba_marseille","lat":43.30145,"lon":5.38766,"is_reserved":false,"is_disabled":false,"rental_uris":{"android":"levelo://app?vid=df371ec5-85eb-45fe-9ecc-99d17c629739","ios":"levelo://app?vid=df371ec5-85eb-45fe-9ecc-99d17c629739"},"vehicle_type_id":"4","last_reported":1740680016,"current_range_meters":14400,"station_id":"ce4bghh2rcd13ifvqb60","pricing_plan_id":"cebpf4jnsgd1na2vs0mg"},{"bike_id":"ddb08c38-26a9-4324-99ac-ec473f3dc3f7","system_id":"levelo_inurba_marseille","lat":43.30462,"lon":5.37906,"is_reserved":false,"is_disabled":false,"rental_uris":{"android":"levelo://app?vid=ddb08c38-26a9-4324-99ac-ec473f3dc3f7","ios":"levelo://app?vid=ddb08c38-26a9-4324-99ac-ec473f3dc3f7"},"vehicle_type_id":"4","last_reported":1740680016,"current_range_meters":14400,"station_id":"ce4bgup2rcd13ifvqcn0","pricing_plan_id":"cebpf4jnsgd1na2vs0mg"},{"bike_id":"ecca5f75-0c83-4b75-9aec-a2ca8ac40211","system_id":"levelo_inurba_marseille","lat":43.29226,"lon":5.36074,"is_reserved":false,"is_disabled":false,"rental_uris":{"android":"levelo://app?vid=ecca5f75-0c83-4b75-9aec-a2ca8ac40211","ios":"levelo://app?vid=ecca5f75-0c83-4b75-9aec-a2ca8ac40211"},"vehicle_type_id":"4","last_reported":1740680016,"current_range_meters":15200,"station_id":"ce4bhbh2rcd13ifvqeqg","pricing_plan_id":"cebpf4jnsgd1na2vs0mg"},{"bike_id":"0f665076-3e0b-47a6-8189-e37583df5925","system_id":"levelo_inurba_marseille","lat":43.29254,"lon":5.37615,"is_reserved":false,"is_disabled":false,"rental_uris":{"android":"levelo://app?vid=0f665076-3e0b-47a6-8189-e37583df5925","ios":"levelo://app?vid=0f665076-3e0b-47a6-8189-e37583df5925"},"vehicle_type_id":"4","last_reported":1740680016,"current_range_meters":14800,"station_id":"ce4bgi12rcd13ifvqb80","pricing_plan_id":"cebpf4jnsgd1na2vs0mg"},{"bike_id":"0771be02-e3e2-47da-b3c9-86df7888c832","system_id":"levelo_inurba_marseille","lat":43.29233,"lon":5.36073,"is_reserved":false,"is_disabled":false,"rental_uris":{"android":"levelo://app?vid=0771be02-e3e2-47da-b3c9-86df7888c832","ios":"levelo://app?vid=0771be02-e3e2-47da-b3c9-86df7888c832"},"vehicle_type_id":"4","last_reported":1740680016,"current_range_meters":14800,"station_id":"ce4bhbh2rcd13ifvqeqg","pricing_plan_id":"cebpf4jnsgd1na2vs0mg"},{"bike_id":"87f4694a-7002-40c0-9a0e-2123fd36309b","system_id":"levelo_inurba_marseille","lat":43.29035,"lon":5.35598,"is_reserved":false,"is_disabled":false,"rental_uris":{"android":"levelo://app?vid=87f4694a-7002-40c0-9a0e-2123fd36309b","ios":"levelo://app?vid=87f4694a-7002-40c0-9a0e-2123fd36309b"},"vehicle_type_id":"4","last_reported":1740680016,"current_range_meters":14800,"station_id":"ce4bhb92rcd13ifvqen0","pricing_plan_id":"cebpf4jnsgd1na2vs0mg"},{"bike_id":"a4c22857-6480-465b-b474-1cc963b1061a","system_id":"levelo_inurba_marseille","lat":43.26064,"lon":5.39394,"is_reserved":false,"is_disabled":false,"rental_uris":{"android":"levelo://app?vid=a4c22857-6480-465b-b474-1cc963b1061a","ios":"levelo://app?vid=a4c22857-6480-465b-b474-1cc963b1061a"},"vehicle_type_id":"4","last_reported":1740680016,"current_range_meters":15200,"station_id":"ce4bhh92rcd13ifvqfj0","pricing_plan_id":"cebpf4jnsgd1na2vs0mg"},{"bike_id":"d6eac1e4-94c7-4b0a-b122-2daa16ebae64","system_id":"levelo_inurba_marseille","lat":43.32358,"lon":5.38881,"is_reserved":false,"is_disabled":false,"rental_uris":{"android":"levelo://app?vid=d6eac1e4-94c7-4b0a-b122-2daa16ebae64","ios":"levelo://app?vid=d6eac1e4-94c7-4b0a-b122-2daa16ebae64"},"vehicle_type_id":"4","last_reported":1740680016,"current_range_meters":16800,"station_id":"ce4bhqp2rcd13ifvqhog","pricing_plan_id":"cebpf4jnsgd1na2vs0mg"},{"bike_id":"737315e8-e42f-478d-8994-74c9331bd58d","system_id":"levelo_inurba_marseille","lat":43.30804,"lon":5.4352,"is_reserved":false,"is_disabled":false,"rental_uris":{"android":"levelo://app?vid=737315e8-e42f-478d-8994-74c9331bd58d","ios":"levelo://app?vid=737315e8-e42f-478d-8994-74c9331bd58d"},"vehicle_type_id":"4","last_reported":1740680016,"current_range_meters":15200,"station_id":"","pricing_plan_id":"cebpf4jnsgd1na2vs0mg"},{"bike_id":"e7defb06-1cca-4da3-bb87-8415e7f8beb2","system_id":"levelo_inurba_marseille","lat":43.28576,"lon":5.39496,"is_reserved":false,"is_disabled":false,"rental_uris":{"android":"levelo://app?vid=e7defb06-1cca-4da3-bb87-8415e7f8beb2","ios":"levelo://app?vid=e7defb06-1cca-4da3-bb87-8415e7f8beb2"},"vehicle_type_id":"4","last_reported":1740680016,"current_range_meters":15200,"station_id":"ce4bh612rcd13ifvqe6g","pricing_plan_id":"cebpf4jnsgd1na2vs0mg"},{"bike_id":"b0721fff-83c5-4544-8db7-16112d61ea1f","system_id":"levelo_inurba_marseille","lat":43.29273,"lon":5.36841,"is_reserved":false,"is_disabled":false,"rental_uris":{"android":"levelo://app?vid=b0721fff-83c5-4544-8db7-16112d61ea1f","ios":"levelo://app?vid=b0721fff-83c5-4544-8db7-16112d61ea1f"},"vehicle_type_id":"4","last_reported":1740680016,"current_range_meters":15200,"station_id":"ce4bhbp2rcd13ifvqesg","pricing_plan_id":"cebpf4jnsgd1na2vs0mg"},{"bike_id":"e8d74a75-9af0-4f02-931d-4add73e3f899","system_id":"levelo_inurba_marseille","lat":43.290223,"lon":5.386267,"is_reserved":false,"is_disabled":false,"rental_uris":{"android":"levelo://app?vid=e8d74a75-9af0-4f02-931d-4add73e3f899","ios":"levelo://app?vid=e8d74a75-9af0-4f02-931d-4add73e3f899"},"vehicle_type_id":"4","last_reported":1740680016,"current_range_meters":15200,"station_id":"ce4bh4p2rcd13ifvqe0g","pricing_plan_id":"cebpf4jnsgd1na2vs0mg"},{"bike_id":"fd9be55b-8afa-47de-ad36-0b8c24615704","system_id":"levelo_inurba_marseille","lat":43.28619,"lon":5.35102,"is_reserved":false,"is_disabled":false,"rental_uris":{"android":"levelo://app?vid=fd9be55b-8afa-47de-ad36-0b8c24615704","ios":"levelo://app?vid=fd9be55b-8afa-47de-ad36-0b8c24615704"},"vehicle_type_id":"4","last_reported":1740680016,"current_range_meters":16000,"station_id":"ce4bhch2rcd13ifvqeug","pricing_plan_id":"cebpf4jnsgd1na2vs0mg"},{"bike_id":"43d6aa6f-20c7-4a1b-bcb8-31b660876567","system_id":"levelo_inurba_marseille","lat":43.26556,"lon":5.37284,"is_reserved":false,"is_disabled":false,"rental_uris":{"android":"levelo://app?vid=43d6aa6f-20c7-4a1b-bcb8-31b660876567","ios":"levelo://app?vid=43d6aa6f-20c7-4a1b-bcb8-31b660876567"},"vehicle_type_id":"4","last_reported":1740680016,"current_range_meters":16400,"station_id":"ce4bhg12rcd13ifvqf70","pricing_plan_id":"cebpf4jnsgd1na2vs0mg"},{"bike_id":"7562303f-eb2b-41bb-be54-db23a576d5e8","system_id":"levelo_inurba_marseille","lat":43.2862,"lon":5.35102,"is_reserved":false,"is_disabled":false,"rental_uris":{"android":"levelo://app?vid=7562303f-eb2b-41bb-be54-db23a576d5e8","ios":"levelo://app?vid=7562303f-eb2b-41bb-be54-db23a576d5e8"},"vehicle_type_id":"4","last_reported":1740680016,"current_range_meters":16000,"station_id":"ce4bhch2rcd13ifvqeug","pricing_plan_id":"cebpf4jnsgd1na2vs0mg"},{"bike_id":"8fefab7e-6d4f-4769-b738-361658ee32b0","system_id":"levelo_inurba_marseille","lat":43.31165,"lon":5.38719,"is_reserved":false,"is_disabled":false,"rental_uris":{"android":"levelo://app?vid=8fefab7e-6d4f-4769-b738-361658ee32b0","ios":"levelo://app?vid=8fefab7e-6d4f-4769-b738-361658ee32b0"},"vehicle_type_id":"4","last_reported":1740680016,"current_range_meters":16000,"station_id":"ce4bgv12rcd13ifvqcp0","pricing_plan_id":"cebpf4jnsgd1na2vs0mg"},{"bike_id":"3f5e4c77-943b-4a46-b257-614bf13afec4","system_id":"levelo_inurba_marseille","lat":43.241716,"lon":5.363957,"is_reserved":false,"is_disabled":false,"rental_uris":{"android":"levelo://app?vid=3f5e4c77-943b-4a46-b257-614bf13afec4","ios":"levelo://app?vid=3f5e4c77-943b-4a46-b257-614bf13afec4"},"vehicle_type_id":"4","last_reported":1740680016,"current_range_meters":16000,"station_id":"cpo36qri1sfpv3e86is0","pricing_plan_id":"cebpf4jnsgd1na2vs0mg"},{"bike_id":"579e0332-0190-4b8b-833d-9443b2b04d38","system_id":"levelo_inurba_marseille","lat":43.30167,"lon":5.39894,"is_reserved":false,"is_disabled":false,"rental_uris":{"android":"levelo://app?vid=579e0332-0190-4b8b-833d-9443b2b04d38","ios":"levelo://app?vid=579e0332-0190-4b8b-833d-9443b2b04d38"},"vehicle_type_id":"4","last_reported":1740680016,"current_range_meters":16400,"station_id":"ce4bh0h2rcd13ifvqd40","pricing_plan_id":"cebpf4jnsgd1na2vs0mg"},{"bike_id":"76892776-daaf-47b4-ba5c-2d5940785ede","system_id":"levelo_inurba_marseille","lat":43.28421,"lon":5.34988,"is_reserved":false,"is_disabled":false,"rental_uris":{"android":"levelo://app?vid=76892776-daaf-47b4-ba5c-2d5940785ede","ios":"levelo://app?vid=76892776-daaf-47b4-ba5c-2d5940785ede"},"vehicle_type_id":"4","last_reported":1740680016,"current_range_meters":16000,"station_id":"ce4bhbh2rcd13ifvqepg","pricing_plan_id":"cebpf4jnsgd1na2vs0mg"},{"bike_id":"06f46088-86dd-4f85-a76e-b4e1ebe0acc7","system_id":"levelo_inurba_marseille","lat":43.28612,"lon":5.35095,"is_reserved":false,"is_disabled":false,"rental_uris":{"android":"levelo://app?vid=06f46088-86dd-4f85-a76e-b4e1ebe0acc7","ios":"levelo://app?vid=06f46088-86dd-4f85-a76e-b4e1ebe0acc7"},"vehicle_type_id":"4","last_reported":1740680016,"current_range_meters":16000,"station_id":"ce4bhch2rcd13ifvqeug","pricing_plan_id":"cebpf4jnsgd1na2vs0mg"},{"bike_id":"ca9592ac-785e-4085-9aa1-2448d7d308ac","system_id":"levelo_inurba_marseille","lat":43.29005,"lon":5.35607,"is_reserved":false,"is_disabled":false,"rental_uris":{"android":"levelo://app?vid=ca9592ac-785e-4085-9aa1-2448d7d308ac","ios":"levelo://app?vid=ca9592ac-785e-4085-9aa1-2448d7d308ac"},"vehicle_type_id":"4","last_reported":1740680016,"current_range_meters":16000,"station_id":"ce4bhb92rcd13ifvqen0","pricing_plan_id":"cebpf4jnsgd1na2vs0mg"},{"bike_id":"2412e7ae-2d2f-4d27-bdd4-af1970882d31","system_id":"levelo_inurba_marseille","lat":43.29266,"lon":5.38433,"is_reserved":false,"is_disabled":false,"rental_uris":{"android":"levelo://app?vid=2412e7ae-2d2f-4d27-bdd4-af1970882d31","ios":"levelo://app?vid=2412e7ae-2d2f-4d27-bdd4-af1970882d31"},"vehicle_type_id":"4","last_reported":1740680016,"current_range_meters":14800,"station_id":"ce4bh692rcd13ifvqea0","pricing_plan_id":"cebpf4jnsgd1na2vs0mg"},{"bike_id":"271a3cc1-c2f8-4e2e-b16b-87c3f4f923bd","system_id":"levelo_inurba_marseille","lat":43.27614,"lon":5.36105,"is_reserved":false,"is_disabled":false,"rental_uris":{"android":"levelo://app?vid=271a3cc1-c2f8-4e2e-b16b-87c3f4f923bd","ios":"levelo://app?vid=271a3cc1-c2f8-4e2e-b16b-87c3f4f923bd"},"vehicle_type_id":"4","last_reported":1740680016,"current_range_meters":16000,"station_id":"ce4bgj92rcd13ifvqbe0","pricing_plan_id":"cebpf4jnsgd1na2vs0mg"},{"bike_id":"d8132d83-56d3-42d1-b03b-bd11b257e433","system_id":"levelo_inurba_marseille","lat":43.29695,"lon":5.36614,"is_reserved":false,"is_disabled":false,"rental_uris":{"android":"levelo://app?vid=d8132d83-56d3-42d1-b03b-bd11b257e433","ios":"levelo://app?vid=d8132d83-56d3-42d1-b03b-bd11b257e433"},"vehicle_type_id":"4","last_reported":1740680016,"current_range_meters":16400,"station_id":"ce4bgn12rcd13ifvqbt0","pricing_plan_id":"cebpf4jnsgd1na2vs0mg"},{"bike_id":"fa26304d-a817-45c4-8a53-a07e9e75834b","system_id":"levelo_inurba_marseille","lat":43.28696,"lon":5.37394,"is_reserved":false,"is_disabled":false,"rental_uris":{"android":"levelo://app?vid=fa26304d-a817-45c4-8a53-a07e9e75834b","ios":"levelo://app?vid=fa26304d-a817-45c4-8a53-a07e9e75834b"},"vehicle_type_id":"4","last_reported":1740680016,"current_range_meters":16400,"station_id":"ce4bh3p2rcd13ifvqdq0","pricing_plan_id":"cebpf4jnsgd1na2vs0mg"},{"bike_id":"3c4be159-d43c-4f32-a522-93e302ce069d","system_id":"levelo_inurba_marseille","lat":43.28656,"lon":5.36353,"is_reserved":false,"is_disabled":false,"rental_uris":{"android":"levelo://app?vid=3c4be159-d43c-4f32-a522-93e302ce069d","ios":"levelo://app?vid=3c4be159-d43c-4f32-a522-93e302ce069d"},"vehicle_type_id":"4","last_reported":1740680016,"current_range_meters":16400,"station_id":"ce4bhah2rcd13ifvqej0","pricing_plan_id":"cebpf4jnsgd1na2vs0mg"},{"bike_id":"41ae3cba-df90-47eb-9185-828aeb3d2ccd","system_id":"levelo_inurba_marseille","lat":43.231781,"lon":5.399871,"is_reserved":false,"is_disabled":false,"rental_uris":{"android":"levelo://app?vid=41ae3cba-df90-47eb-9185-828aeb3d2ccd","ios":"levelo://app?vid=41ae3cba-df90-47eb-9185-828aeb3d2ccd"},"vehicle_type_id":"4","last_reported":1740680016,"current_range_meters":17600,"station_id":"ce4bhih2rcd13ifvqfs0","pricing_plan_id":"cebpf4jnsgd1na2vs0mg"},{"bike_id":"085d2eb7-97b3-41c6-8d64-9cbab612adf7","system_id":"levelo_inurba_marseille","lat":43.305368,"lon":5.367028,"is_reserved":false,"is_disabled":false,"rental_uris":{"android":"levelo://app?vid=085d2eb7-97b3-41c6-8d64-9cbab612adf7","ios":"levelo://app?vid=085d2eb7-97b3-41c6-8d64-9cbab612adf7"},"vehicle_type_id":"4","last_reported":1740680016,"current_range_meters":16400,"station_id":"ce4bhah2rcd13ifvqej0","pricing_plan_id":"cebpf4jnsgd1na2vs0mg"},{"bike_id":"f9d03cc0-95b2-4db8-a9db-9ae8130838c0","system_id":"levelo_inurba_marseille","lat":43.29443,"lon":5.3974,"is_reserved":false,"is_disabled":false,"rental_uris":{"android":"levelo://app?vid=f9d03cc0-95b2-4db8-a9db-9ae8130838c0","ios":"levelo://app?vid=f9d03cc0-95b2-4db8-a9db-9ae8130838c0"},