{"last_updated":1749532278,"ttl":60,"version":"2.2","data":{"bikes":[{"bike_id":"04983142-7950-4df8-ad98-d43a378ca8b2","system_id":"levelo_inurba_marseille","lat":43.28919,"lon":5.37138,"is_reserved":false,"is_disabled":false,"rental_uris":{"android":"levelo://app?vid=04983142-7950-4df8-ad98-d43a378ca8b2","ios":"levelo://app?vid=04983142-7950-4df8-ad98-d43a378ca8b2"},"vehicle_type_id":"4","last_reported":1749532278,"current_range_meters":2800,"station_id":"","pricing_plan_id":"cebpf4jnsgd1na2vs0mg"},{"bike_id":"2ee95ae0-83a2-4f87-92e7-182763430c39","system_id":"levelo_inurba_marseille","lat":43.286566,"lon":5.36357,"is_reserved":false,"is_disabled":true,"rental_uris":{"android":"levelo://app?vid=2ee95ae0-83a2-4f87-92e7-182763430c39","ios":"levelo://app?vid=2ee95ae0-83a2-4f87-92e7-182763430c39"},"vehicle_type_id":"4","last_reported":1749532278,"current_range_meters":2800,"station_id":"ce4bhah2rcd13ifvqej0","pricing_plan_id":"cebpf4jnsgd1na2vs0mg"},{"bike_id":"37131763-d567-471b-9511-f463050a0ad1","system_id":"levelo_inurba_marseille","lat":43.29568,"lon":5.37499,"is_reserved":false,"is_disabled":true,"rental_uris":{"android":"levelo://app?vid=37131763-d567-471b-9511-f463050a0ad1","ios":"levelo://app?vid=37131763-d567-471b-9511-f463050a0ad1"},"vehicle_type_id":"4","last_reported":1749532278,"current_range_meters":2800,"station_id":"ce4bgh92rcd13ifvqb50","pricing_plan_id":"cebpf4jnsgd1na2vs0mg"},{"bike_id":"994fbbd1-7b7a-4973-8b72-780a5cbeda75","system_id":"levelo_inurba_marseille","lat":43.28982,"lon":5.37815,"is_reserved":false,"is_disabled":true,"rental_uris":{"android":"levelo://app?vid=994fbbd1-7b7a-4973-8b72-780a5cbeda75","ios":"levelo://app?vid=994fbbd1-7b7a-4973-8b72-780a5cbeda75"},"vehicle_type_id":"4","last_reported":1749532278,"current_range_meters":3200,"station_id":"ce4bh9p2rcd13ifvqed0","pricing_plan_id":"cebpf4jnsgd1na2vs0mg"},{"bike_id":"a61242dd-8369-4520-9963-a504224e1a30","system_id":"levelo_inurba_marseille","lat":43.23144,"lon":5.40803,"is_reserved":false,"is_disabled":true,"rental_uris":{"android":"levelo://app?vid=a61242dd-8369-4520-9963-a504224e1a30","ios":"levelo://app?vid=a61242dd-8369-4520-9963-a504224e1a30"},"vehicle_type_id":"4","last_reported":1749532278,"current_range_meters":3200,"station_id":"","pricing_plan_id":"cebpf4jnsgd1na2vs0mg"},{"bike_id":"5878f80c-b2bb-4352-99ea-67e3a7136bd9","system_id":"levelo_inurba_marseille","lat":43.33027,"lon":5.39021,"is_reserved":false,"is_disabled":false,"rental_uris":{"android":"levelo://app?vid=5878f80c-b2bb-4352-99ea-67e3a7136bd9","ios":"levelo://app?vid=5878f80c-b2bb-4352-99ea-67e3a7136bd9"},"vehicle_type_id":"4","last_reported":1749532278,"current_range_meters":3600,"station_id":"ce4bhr92rcd13ifvqhrg","pricing_plan_id":"cebpf4jnsgd1na2vs0mg"},{"bike_id":"a035a007-70c2-4187-834b-b664f9225bcc","system_id":"levelo_inurba_marseille","lat":43.28147,"lon":5.4262,"is_reserved":false,"is_disabled":false,"rental_uris":{"android":"levelo://app?vid=a035a007-70c2-4187-834b-b664f9225bcc","ios":"levelo://app?vid=a035a007-70c2-4187-834b-b664f9225bcc"},"vehicle_type_id":"4","last_reported":1749532278,"current_range_meters":4000,"station_id":"ce4bhnh2rcd13ifvqgug","pricing_plan_id":"cebpf4jnsgd1na2vs0mg"},{"bike_id":"8c03ec80-dc19-4c9d-b151-e0210828c13a","system_id":"levelo_inurba_marseille","lat":43.29677,"lon":5.39416,"is_reserved":false,"is_disabled":false,"rental_uris":{"android":"levelo://app?vid=8c03ec80-dc19-4c9d-b151-e0210828c13a","ios":"levelo://app?vid=8c03ec80-dc19-4c9d-b151-e0210828c13a"},"vehicle_type_id":"4","last_reported":1749532278,"current_range_meters":4000,"station_id":"","pricing_plan_id":"cebpf4jnsgd1na2vs0mg"},{"bike_id":"051bd09c-1cd7-486d-b543-b1e8ddda0ea0","system_id":"levelo_inurba_marseille","lat":43.28491,"lon":5.38552,"is_reserved":false,"is_disabled":false,"rental_uris":{"android":"levelo://app?vid=051bd09c-1cd7-486d-b543-b1e8ddda0ea0","ios":"levelo://app?vid=051bd09c-1cd7-486d-b543-b1e8ddda0ea0"},"vehicle_type_id":"4","last_reported":1749532278,"current_range_meters":4000,"station_id":"ce4bh8p2rcd13ifvqeb0","pricing_plan_id":"cebpf4jnsgd1na2vs0mg"},{"bike_id":"6d691a1f-e8cc-404e-aa28-71e3fdb381f1","system_id":"levelo_inurba_marseille","lat":43.33743,"lon":5.3558,"is_reserved":false,"is_disabled":false,"rental_uris":{"android":"levelo://app?vid=6d691a1f-e8cc-404e-aa28-71e3fdb381f1","ios":"levelo://app?vid=6d691a1f-e8cc-404e-aa28-71e3fdb381f1"},"vehicle_type_id":"4","last_reported":1749532278,"current_range_meters":4400,"station_id":"","pricing_plan_id":"cebpf4jnsgd1na2vs0mg"},{"bike_id":"46ad0958-a2d7-473e-8aeb-a02bfd147679","system_id":"levelo_inurba_marseille","lat":43.23964,"lon":5.36632,"is_reserved":false,"is_disabled":true,"rental_uris":{"android":"levelo://app?vid=46ad0958-a2d7-473e-8aeb-a02bfd147679","ios":"levelo://app?vid=46ad0958-a2d7-473e-8aeb-a02bfd147679"},"vehicle_type_id":"4","last_reported":1749532278,"current_range_meters":4400,"station_id":"ce4bhi12rcd13ifvqfp0","pricing_plan_id":"cebpf4jnsgd1na2vs0mg"},{"bike_id":"5ff7c847-94f1-4642-94ea-e9dc6811d073","system_id":"levelo_inurba_marseille","lat":43.26011,"lon":5.37407,"is_reserved":false,"is_disabled":false,"rental_uris":{"android":"levelo://app?vid=5ff7c847-94f1-4642-94ea-e9dc6811d073","ios":"levelo://app?vid=5ff7c847-94f1-4642-94ea-e9dc6811d073"},"vehicle_type_id":"4","last_reported":1749532278,"current_range_meters":5600,"station_id":"","pricing_plan_id":"cebpf4jnsgd1na2vs0mg"},{"bike_id":"d3860c84-0e7a-473f-a04e-1ba052379ffe","system_id":"levelo_inurba_marseille","lat":43.29595,"lon":5.39356,"is_reserved":false,"is_disabled":false,"rental_uris":{"android":"levelo://app?vid=d3860c84-0e7a-473f-a04e-1ba052379ffe","ios":"levelo://app?vid=d3860c84-0e7a-473f-a04e-1ba052379ffe"},"vehicle_type_id":"4","last_reported":1749532278,"current_range_meters":6000,"station_id":"","pricing_plan_id":"cebpf4jnsgd1na2vs0mg"},{"bike_id":"1022cd5f-2520-4520-b841-53be7c299c99","system_id":"levelo_inurba_marseille","lat":43.30213,"lon":5.3949,"is_reserved":false,"is_disabled":false,"rental_uris":{"android":"levelo://app?vid=1022cd5f-2520-4520-b841-53be7c299c99","ios":"levelo://app?vid=1022cd5f-2520-4520-b841-53be7c299c99"},"vehicle_type_id":"4","last_reported":1749532278,"current_range_meters":6000,"station_id":"ce4bh0p2rcd13ifvqd70","pricing_plan_id":"cebpf4jnsgd1na2vs0mg"},{"bike_id":"89e61be4-479c-4cec-a748-e4051ae578a2","system_id":"levelo_inurba_marseille","lat":43.32356,"lon":5.38895,"is_reserved":false,"is_disabled":false,"rental_uris":{"android":"levelo://app?vid=89e61be4-479c-4cec-a748-e4051ae578a2","ios":"levelo://app?vid=89e61be4-479c-4cec-a748-e4051ae578a2"},"vehicle_type_id":"4","last_reported":1749532278,"current_range_meters":6000,"station_id":"ce4bhqp2rcd13ifvqhog","pricing_plan_id":"cebpf4jnsgd1na2vs0mg"},{"bike_id":"39cdf7ed-89dc-4de2-aafe-6c9905ce3698","system_id":"levelo_inurba_marseille","lat":43.297833,"lon":5.367812,"is_reserved":false,"is_disabled":false,"rental_uris":{"android":"levelo://app?vid=39cdf7ed-89dc-4de2-aafe-6c9905ce3698","ios":"levelo://app?vid=39cdf7ed-89dc-4de2-aafe-6c9905ce3698"},"vehicle_type_id":"4","last_reported":1749532278,"current_range_meters":6400,"station_id":"","pricing_plan_id":"cebpf4jnsgd1na2vs0mg"},{"bike_id":"11d99533-1239-4522-b0b5-f8a3bff696e7","system_id":"levelo_inurba_marseille","lat":43.30144,"lon":5.424388,"is_reserved":false,"is_disabled":false,"rental_uris":{"android":"levelo://app?vid=11d99533-1239-4522-b0b5-f8a3bff696e7","ios":"levelo://app?vid=11d99533-1239-4522-b0b5-f8a3bff696e7"},"vehicle_type_id":"4","last_reported":1749532278,"current_range_meters":6400,"station_id":"","pricing_plan_id":"cebpf4jnsgd1na2vs0mg"},{"bike_id":"8b4caff4-6ee7-47a5-a64f-5ccaa83c132f","system_id":"levelo_inurba_marseille","lat":43.29517,"lon":5.42511,"is_reserved":false,"is_disabled":false,"rental_uris":{"android":"levelo://app?vid=8b4caff4-6ee7-47a5-a64f-5ccaa83c132f","ios":"levelo://app?vid=8b4caff4-6ee7-47a5-a64f-5ccaa83c132f"},"vehicle_type_id":"4","last_reported":1749532278,"current_range_meters":6400,"station_id":"","pricing_plan_id":"cebpf4jnsgd1na2vs0mg"},{"bike_id":"ef00612a-c422-47ef-96a2-4c7fc268b4ad","system_id":"levelo_inurba_marseille","lat":43.30665,"lon":5.401029,"is_reserved":false,"is_disabled":true,"rental_uris":{"android":"levelo://app?vid=ef00612a-c422-47ef-96a2-4c7fc268b4ad","ios":"levelo://app?vid=ef00612a-c422-47ef-96a2-4c7fc268b4ad"},"vehicle_type_id":"4","last_reported":1749532278,"current_range_meters":6400,"station_id":"ce4bh112rcd13ifvqda0","pricing_plan_id":"cebpf4jnsgd1na2vs0mg"},{"bike_id":"9cd7e3b6-3a6c-4599-87c4-09cad6e5304c","system_id":"levelo_inurba_marseille","lat":43.32325,"lon":5.38883,"is_reserved":false,"is_disabled":false,"rental_uris":{"android":"levelo://app?vid=9cd7e3b6-3a6c-4599-87c4-09cad6e5304c","ios":"levelo://app?vid=9cd7e3b6-3a6c-4599-87c4-09cad6e5304c"},"vehicle_type_id":"4","last_reported":1749532278,"current_range_meters":6400,"station_id":"ce4bhqp2rcd13ifvqhog","pricing_plan_id":"cebpf4jnsgd1na2vs0mg"},{"bike_id":"a34aa760-19cf-4750-9133-b676aeeef362","system_id":"levelo_inurba_marseille","lat":43.295372,"lon":5.374938,"is_reserved":false,"is_disabled":true,"rental_uris":{"android":"levelo://app?vid=a34aa760-19cf-4750-9133-b676aeeef362","ios":"levelo://app?vid=a34aa760-19cf-4750-9133-b676aeeef362"},"vehicle_type_id":"4","last_reported":1749532278,"current_range_meters":6800,"station_id":"ce4bgkp2rcd13ifvqbmg","pricing_plan_id":"cebpf4jnsgd1na2vs0mg"},{"bike_id":"9ab5dcb2-22af-49e2-b2c1-32117ad578dc","system_id":"levelo_inurba_marseille","lat":43.295118,"lon":5.425718,"is_reserved":false,"is_disabled":false,"rental_uris":{"android":"levelo://app?vid=9ab5dcb2-22af-49e2-b2c1-32117ad578dc","ios":"levelo://app?vid=9ab5dcb2-22af-49e2-b2c1-32117ad578dc"},"vehicle_type_id":"4","last_reported":1749532278,"current_range_meters":6800,"station_id":"","pricing_plan_id":"cebpf4jnsgd1na2vs0mg"},{"bike_id":"dd9196c5-8e84-4320-ac54-4a0c2ef6010d","system_id":"levelo_inurba_marseille","lat":43.28106,"lon":5.37855,"is_reserved":false,"is_disabled":false,"rental_uris":{"android":"levelo://app?vid=dd9196c5-8e84-4320-ac54-4a0c2ef6010d","ios":"levelo://app?vid=dd9196c5-8e84-4320-ac54-4a0c2ef6010d"},"vehicle_type_id":"4","last_reported":1749532278,"current_range_meters":6800,"station_id":"ce4bha12rcd13ifvqee0","pricing_plan_id":"cebpf4jnsgd1na2vs0mg"},{"bike_id":"5cab8021-47c8-4131-a2c2-7572304f54a4","system_id":"levelo_inurba_marseille","lat":43.282756,"lon":5.350746,"is_reserved":false,"is_disabled":true,"rental_uris":{"android":"levelo://app?vid=5cab8021-47c8-4131-a2c2-7572304f54a4","ios":"levelo://app?vid=5cab8021-47c8-4131-a2c2-7572304f54a4"},"vehicle_type_id":"4","last_reported":1749532278,"current_range_meters":6800,"station_id":"ce4bhbp2rcd13ifvqerg","pricing_plan_id":"cebpf4jnsgd1na2vs0mg"},{"bike_id":"face3f4f-ed5e-448e-97cb-093774dcb28c","system_id":"levelo_inurba_marseille","lat":43.31501,"lon":5.37345,"is_reserved":false,"is_disabled":false,"rental_uris":{"android":"levelo://app?vid=face3f4f-ed5e-448e-97cb-093774dcb28c","ios":"levelo://app?vid=face3f4f-ed5e-448e-97cb-093774dcb28c"},"vehicle_type_id":"4","last_reported":1749532278,"current_range_meters":6800,"station_id":"ce4bgt12rcd13ifvqcd0","pricing_plan_id":"cebpf4jnsgd1na2vs0mg"},{"bike_id":"da424ee0-913f-44dd-8451-24217ed66a3a","system_id":"levelo_inurba_marseille","lat":43.29357,"lon":5.38748,"is_reserved":false,"is_disabled":false,"rental_uris":{"android":"levelo://app?vid=da424ee0-913f-44dd-8451-24217ed66a3a","ios":"levelo://app?vid=da424ee0-913f-44dd-8451-24217ed66a3a"},"vehicle_type_id":"4","last_reported":1749532278,"current_range_meters":6800,"station_id":"","pricing_plan_id":"cebpf4jnsgd1na2vs0mg"},{"bike_id":"3bb87db6-8022-418f-a4aa-7c455834f81e","system_id":"levelo_inurba_marseille","lat":43.23587,"lon":5.37904,"is_reserved":false,"is_disabled":true,"rental_uris":{"android":"levelo://app?vid=3bb87db6-8022-418f-a4aa-7c455834f81e","ios":"levelo://app?vid=3bb87db6-8022-418f-a4aa-7c455834f81e"},"vehicle_type_id":"4","last_reported":1749532278,"current_range_meters":7200,"station_id":"","pricing_plan_id":"cebpf4jnsgd1na2vs0mg"},{"bike_id":"1a8e2202-2209-482f-96c5-39bed8576448","system_id":"levelo_inurba_marseille","lat":43.28547,"lon":5.39482,"is_reserved":false,"is_disabled":false,"rental_uris":{"android":"levelo://app?vid=1a8e2202-2209-482f-96c5-39bed8576448","ios":"levelo://app?vid=1a8e2202-2209-482f-96c5-39bed8576448"},"vehicle_type_id":"4","last_reported":1749532278,"current_range_meters":7200,"station_id":"ce4bh292rcd13ifvqdg0","pricing_plan_id":"cebpf4jnsgd1na2vs0mg"},{"bike_id":"dd67f108-95bf-4a1e-b619-4bb77e009c5b","system_id":"levelo_inurba_marseille","lat":43.29063,"lon":5.42774,"is_reserved":false,"is_disabled":false,"rental_uris":{"android":"levelo://app?vid=dd67f108-95bf-4a1e-b619-4bb77e009c5b","ios":"levelo://app?vid=dd67f108-95bf-4a1e-b619-4bb77e009c5b"},"vehicle_type_id":"4","last_reported":1749532278,"current_range_meters":7200,"station_id":"","pricing_plan_id":"cebpf4jnsgd1na2vs0mg"},{"bike_id":"59971f0d-bd5c-488a-b349-c7d59a4cb436","system_id":"levelo_inurba_marseille","lat":43.29608,"lon":5.40562,"is_reserved":false,"is_disabled":false,"rental_uris":{"android":"levelo://app?vid=59971f0d-bd5c-488a-b349-c7d59a4cb436","ios":"levelo://app?vid=59971f0d-bd5c-488a-b349-c7d59a4cb436"},"vehicle_type_id":"4","last_reported":1749532278,"current_range_meters":7200,"station_id":"ce4bh0h2rcd13ifvqd60","pricing_plan_id":"cebpf4jnsgd1na2vs0mg"},{"bike_id":"b627a4bc-ec3d-4a3d-b098-2cb9e5bfa8f1","system_id":"levelo_inurba_marseille","lat":43.289593,"lon":5.479226,"is_reserved":false,"is_disabled":false,"rental_uris":{"android":"levelo://app?vid=b627a4bc-ec3d-4a3d-b098-2cb9e5bfa8f1","ios":"levelo://app?vid=b627a4bc-ec3d-4a3d-b098-2cb9e5bfa8f1"},"vehicle_type_id":"4","last_reported":1749532278,"current_range_meters":7200,"station_id":"","pricing_plan_id":"cebpf4jnsgd1na2vs0mg"},{"bike_id":"ee7a2e6a-3e65-41f6-b8b3-501fb42682dc","system_id":"levelo_inurba_marseille","lat":43.2756,"lon":5.38428,"is_reserved":false,"is_disabled":true,"rental_uris":{"android":"levelo://app?vid=ee7a2e6a-3e65-41f6-b8b3-501fb42682dc","ios":"levelo://app?vid=ee7a2e6a-3e65-41f6-b8b3-501fb42682dc"},"vehicle_type_id":"4","last_reported":1749532278,"current_range_meters":7200,"station_id":"ce4bhh92rcd13ifvqfi0","pricing_plan_id":"cebpf4jnsgd1na2vs0mg"},{"bike_id":"2e5b7a2e-ae80-4b63-807c-0d74d0713d36","system_id":"levelo_inurba_marseille","lat":43.284305,"lon":5.349904,"is_reserved":false,"is_disabled":true,"rental_uris":{"android":"levelo://app?vid=2e5b7a2e-ae80-4b63-807c-0d74d0713d36","ios":"levelo://app?vid=2e5b7a2e-ae80-4b63-807c-0d74d0713d36"},"vehicle_type_id":"4","last_reported":1749532278,"current_range_meters":8000,"station_id":"ce4bhbh2rcd13ifvqepg","pricing_plan_id":"cebpf4jnsgd1na2vs0mg"},{"bike_id":"e2d652bf-32d8-4ec3-8313-fd967dce45b3","system_id":"levelo_inurba_marseille","lat":43.30609,"lon":5.37221,"is_reserved":false,"is_disabled":false,"rental_uris":{"android":"levelo://app?vid=e2d652bf-32d8-4ec3-8313-fd967dce45b3","ios":"levelo://app?vid=e2d652bf-32d8-4ec3-8313-fd967dce45b3"},"vehicle_type_id":"4","last_reported":1749532278,"current_range_meters":7200,"station_id":"ce4bgqh2rcd13ifvqc4g","pricing_plan_id":"cebpf4jnsgd1na2vs0mg"},{"bike_id":"ccb4e220-32d0-4c1e-8d80-fbde8bb7853e","system_id":"levelo_inurba_marseille","lat":43.33032,"lon":5.3904,"is_reserved":false,"is_disabled":true,"rental_uris":{"android":"levelo://app?vid=ccb4e220-32d0-4c1e-8d80-fbde8bb7853e","ios":"levelo://app?vid=ccb4e220-32d0-4c1e-8d80-fbde8bb7853e"},"vehicle_type_id":"4","last_reported":1749532278,"current_range_meters":8000,"station_id":"ce4bhr92rcd13ifvqhrg","pricing_plan_id":"cebpf4jnsgd1na2vs0mg"},{"bike_id":"8c39e882-6c54-45f7-a327-664efe6d554a","system_id":"levelo_inurba_marseille","lat":43.30165,"lon":5.38054,"is_reserved":false,"is_disabled":false,"rental_uris":{"android":"levelo://app?vid=8c39e882-6c54-45f7-a327-664efe6d554a","ios":"levelo://app?vid=8c39e882-6c54-45f7-a327-664efe6d554a"},"vehicle_type_id":"4","last_reported":1749532278,"current_range_meters":8000,"station_id":"ce4bgjp2rcd13ifvqbh0","pricing_plan_id":"cebpf4jnsgd1na2vs0mg"},{"bike_id":"7101e620-cc76-4028-b91a-a52aa997ec1d","system_id":"levelo_inurba_marseille","lat":43.306255,"lon":5.373583,"is_reserved":false,"is_disabled":false,"rental_uris":{"android":"levelo://app?vid=7101e620-cc76-4028-b91a-a52aa997ec1d","ios":"levelo://app?vid=7101e620-cc76-4028-b91a-a52aa997ec1d"},"vehicle_type_id":"4","last_reported":1749532278,"current_range_meters":8000,"station_id":"","pricing_plan_id":"cebpf4jnsgd1na2vs0mg"},{"bike_id":"1e81a32b-a654-4850-aaa5-a9d684742657","system_id":"levelo_inurba_marseille","lat":43.316363,"lon":5.383225,"is_reserved":false,"is_disabled":false,"rental_uris":{"android":"levelo://app?vid=1e81a32b-a654-4850-aaa5-a9d684742657","ios":"levelo://app?vid=1e81a32b-a654-4850-aaa5-a9d684742657"},"vehicle_type_id":"4","last_reported":1749532278,"current_range_meters":8400,"station_id":"","pricing_plan_id":"cebpf4jnsgd1na2vs0mg"},{"bike_id":"7a286b17-17df-491a-a381-1330c2f7a715","system_id":"levelo_inurba_marseille","lat":43.29903,"lon":5.43662,"is_reserved":false,"is_disabled":false,"rental_uris":{"android":"levelo://app?vid=7a286b17-17df-491a-a381-1330c2f7a715","ios":"levelo://app?vid=7a286b17-17df-491a-a381-1330c2f7a715"},"vehicle_type_id":"4","last_reported":1749532278,"current_range_meters":8400,"station_id":"ce4bhpp2rcd13ifvqhfg","pricing_plan_id":"cebpf4jnsgd1na2vs0mg"},{"bike_id":"269c3ad1-219f-4f66-afed-c62bc34ad4b1","system_id":"levelo_inurba_marseille","lat":43.294378,"lon":5.397608,"is_reserved":false,"is_disabled":false,"rental_uris":{"android":"levelo://app?vid=269c3ad1-219f-4f66-afed-c62bc34ad4b1","ios":"levelo://app?vid=269c3ad1-219f-4f66-afed-c62bc34ad4b1"},"vehicle_type_id":"4","last_reported":1749532278,"current_range_meters":8400,"station_id":"ce4bh3h2rcd13ifvqdo0","pricing_plan_id":"cebpf4jnsgd1na2vs0mg"},{"bike_id":"163afe55-7bd6-403d-b45e-164c9f011511","system_id":"levelo_inurba_marseille","lat":43.29229,"lon":5.36073,"is_reserved":false,"is_disabled":false,"rental_uris":{"android":"levelo://app?vid=163afe55-7bd6-403d-b45e-164c9f011511","ios":"levelo://app?vid=163afe55-7bd6-403d-b45e-164c9f011511"},"vehicle_type_id":"4","last_reported":1749532278,"current_range_meters":8000,"station_id":"ce4bhbh2rcd13ifvqeqg","pricing_plan_id":"cebpf4jnsgd1na2vs0mg"},{"bike_id":"a8fcb642-c8d4-48b7-bc7d-d92da8830f3d","system_id":"levelo_inurba_marseille","lat":43.299847,"lon":5.371761,"is_reserved":false,"is_disabled":true,"rental_uris":{"android":"levelo://app?vid=a8fcb642-c8d4-48b7-bc7d-d92da8830f3d","ios":"levelo://app?vid=a8fcb642-c8d4-48b7-bc7d-d92da8830f3d"},"vehicle_type_id":"4","last_reported":1749532278,"current_range_meters":8800,"station_id":"ce4bgr92rcd13ifvqc7g","pricing_plan_id":"cebpf4jnsgd1na2vs0mg"},{"bike_id":"891bbe9c-bdee-4496-9b81-374f60075b8d","system_id":"levelo_inurba_marseille","lat":43.30814,"lon":5.38159,"is_reserved":false,"is_disabled":false,"rental_uris":{"android":"levelo://app?vid=891bbe9c-bdee-4496-9b81-374f60075b8d","ios":"levelo://app?vid=891bbe9c-bdee-4496-9b81-374f60075b8d"},"vehicle_type_id":"4","last_reported":1749532278,"current_range_meters":9200,"station_id":"ce4bgt12rcd13ifvqce0","pricing_plan_id":"cebpf4jnsgd1na2vs0mg"},{"bike_id":"6fd4cd93-a409-4da9-ad4b-b6025023458d","system_id":"levelo_inurba_marseille","lat":43.30115,"lon":5.37083,"is_reserved":false,"is_disabled":false,"rental_uris":{"android":"levelo://app?vid=6fd4cd93-a409-4da9-ad4b-b6025023458d","ios":"levelo://app?vid=6fd4cd93-a409-4da9-ad4b-b6025023458d"},"vehicle_type_id":"4","last_reported":1749532278,"current_range_meters":9200,"station_id":"","pricing_plan_id":"cebpf4jnsgd1na2vs0mg"},{"bike_id":"fbb9b34c-7031-4d75-9691-342c610b2101","system_id":"levelo_inurba_marseille","lat":43.283872,"lon":5.364679,"is_reserved":false,"is_disabled":false,"rental_uris":{"android":"levelo://app?vid=fbb9b34c-7031-4d75-9691-342c610b2101","ios":"levelo://app?vid=fbb9b34c-7031-4d75-9691-342c610b2101"},"vehicle_type_id":"4","last_reported":1749532278,"current_range_meters":9200,"station_id":"","pricing_plan_id":"cebpf4jnsgd1na2vs0mg"},{"bike_id":"97f44c64-b8dc-4a71-890d-8186e1e67d4f","system_id":"levelo_inurba_marseille","lat":43.298076,"lon":5.404106,"is_reserved":false,"is_disabled":false,"rental_uris":{"android":"levelo://app?vid=97f44c64-b8dc-4a71-890d-8186e1e67d4f","ios":"levelo://app?vid=97f44c64-b8dc-4a71-890d-8186e1e67d4f"},"vehicle_type_id":"4","last_reported":1749532278,"current_range_meters":9200,"station_id":"ce4bh112rcd13ifvqd90","pricing_plan_id":"cebpf4jnsgd1na2vs0mg"},{"bike_id":"35055393-59aa-400c-82f3-1df464532a80","system_id":"levelo_inurba_marseille","lat":43.31357,"lon":5.38493,"is_reserved":false,"is_disabled":false,"rental_uris":{"android":"levelo://app?vid=35055393-59aa-400c-82f3-1df464532a80","ios":"levelo://app?vid=35055393-59aa-400c-82f3-1df464532a80"},"vehicle_type_id":"4","last_reported":1749532278,"current_range_meters":9200,"station_id":"ce4bgt92rcd13ifvqcf0","pricing_plan_id":"cebpf4jnsgd1na2vs0mg"},{"bike_id":"2f32b755-3ca4-4102-8e33-37fff5e1ff8d","system_id":"levelo_inurba_marseille","lat":43.27142,"lon":5.40138,"is_reserved":false,"is_disabled":false,"rental_uris":{"android":"levelo://app?vid=2f32b755-3ca4-4102-8e33-37fff5e1ff8d","ios":"levelo://app?vid=2f32b755-3ca4-4102-8e33-37fff5e1ff8d"},"vehicle_type_id":"4","last_reported":1749532278,"current_range_meters":9200,"station_id":"","pricing_plan_id":"cebpf4jnsgd1na2vs0mg"},{"bike_id":"88285205-2359-4354-a3ec-a6776c6e646e","system_id":"levelo_inurba_marseille","lat":43.2976,"lon":5.39784,"is_reserved":false,"is_disabled":false,"rental_uris":{"android":"levelo://app?vid=88285205-2359-4354-a3ec-a6776c6e646e","ios":"levelo://app?vid=88285205-2359-4354-a3ec-a6776c6e646e"},"vehicle_type_id":"4","last_reported":1749532278,"current_range_meters":9200,"station_id":"","pricing_plan_id":"cebpf4jnsgd1na2vs0mg"},{"bike_id":"60574b4d-5b84-4c23-9869-7030add2bd57","system_id":"levelo_inurba_marseille","lat":43.31759,"lon":5.39025,"is_reserved":false,"is_disabled":false,"rental_uris":{"android":"levelo://app?vid=60574b4d-5b84-4c23-9869-7030add2bd57","ios":"levelo://app?vid=60574b4d-5b84-4c23-9869-7030add2bd57"},"vehicle_type_id":"4","last_reported":1749532278,"current_range_meters":9200,"station_id":"ce4bhqp2rcd13ifvqhng","pricing_plan_id":"cebpf4jnsgd1na2vs0mg"},{"bike_id":"b917c716-764c-4d37-a337-bb31d5ca52b8","system_id":"levelo_inurba_marseille","lat":43.21195,"lon":5.35075,"is_reserved":false,"is_disabled":false,"rental_uris":{"android":"levelo://app?vid=b917c716-764c-4d37-a337-bb31d5ca52b8","ios":"levelo://app?vid=b917c716-764c-4d37-a337-bb31d5ca52b8"},"vehicle_type_id":"4","last_reported":1749532278,"current_range_meters":9200,"station_id":"st_cvj6sg6p6f1abm77japg","pricing_plan_id":"cebpf4jnsgd1na2vs0mg"},{"bike_id":"da14da1f-7442-42b5-98f6-365f4fbd4c56","system_id":"levelo_inurba_marseille","lat":43.32459,"lon":5.4117,"is_reserved":false,"is_disabled":false,"rental_uris":{"android":"levelo://app?vid=da14da1f-7442-42b5-98f6-365f4fbd4c56","ios":"levelo://app?vid=da14da1f-7442-42b5-98f6-365f4fbd4c56"},"vehicle_type_id":"4","last_reported":1749532278,"current_range_meters":9200,"station_id":"","pricing_plan_id":"cebpf4jnsgd1na2vs0mg"},{"bike_id":"62bea32f-b147-4070-b162-523f879a2a9c","system_id":"levelo_inurba_marseille","lat":43.25322,"lon":5.39369,"is_reserved":false,"is_disabled":true,"rental_uris":{"android":"levelo://app?vid=62bea32f-b147-4070-b162-523f879a2a9c","ios":"levelo://app?vid=62bea32f-b147-4070-b162-523f879a2a9c"},"vehicle_type_id":"4","last_reported":1749532278,"current_range_meters":9200,"station_id":"","pricing_plan_id":"cebpf4jnsgd1na2vs0mg"},{"bike_id":"c09b1c1e-6d5b-4a72-8f97-eccd430a9e54","system_id":"levelo_inurba_marseille","lat":43.26677,"lon":5.38264,"is_reserved":false,"is_disabled":true,"rental_uris":{"android":"levelo://app?vid=c09b1c1e-6d5b-4a72-8f97-eccd430a9e54","ios":"levelo://app?vid=c09b1c1e-6d5b-4a72-8f97-eccd430a9e54"},"vehicle_type_id":"4","last_reported":1749532278,"current_range_meters":9200,"station_id":"ce4bhgp2rcd13ifvqfc0","pricing_plan_id":"cebpf4jnsgd1na2vs0mg"},{"bike_id":"523f2d40-4972-4555-ab17-75f321104893","system_id":"levelo_inurba_marseille","lat":43.30223,"lon":5.39467,"is_reserved":false,"is_disabled":false,"rental_uris":{"android":"levelo://app?vid=523f2d40-4972-4555-ab17-75f321104893","ios":"levelo://app?vid=523f2d40-4972-4555-ab17-75f321104893"},"vehicle_type_id":"4","last_reported":1749532278,"current_range_meters":9600,"station_id":"ce4bh0p2rcd13ifvqd70","pricing_plan_id":"cebpf4jnsgd1na2vs0mg"},{"bike_id":"d7030190-8990-4e1e-9de1-604a08fb39e2","system_id":"levelo_inurba_marseille","lat":43.30443,"lon":5.3917,"is_reserved":false,"is_disabled":false,"rental_uris":{"android":"levelo://app?vid=d7030190-8990-4e1e-9de1-604a08fb39e2","ios":"levelo://app?vid=d7030190-8990-4e1e-9de1-604a08fb39e2"},"vehicle_type_id":"4","last_reported":1749532278,"current_range_meters":9600,"station_id":"","pricing_plan_id":"cebpf4jnsgd1na2vs0mg"},{"bike_id":"41b05a5c-3976-4894-82d0-3dd8ff457770","system_id":"levelo_inurba_marseille","lat":43.30944,"lon":5.40167,"is_reserved":false,"is_disabled":false,"rental_uris":{"android":"levelo://app?vid=41b05a5c-3976-4894-82d0-3dd8ff457770","ios":"levelo://app?vid=41b05a5c-3976-4894-82d0-3dd8ff457770"},"vehicle_type_id":"4","last_reported":1749532278,"current_range_meters":9600,"station_id":"ce4bgvp2rcd13ifvqct0","pricing_plan_id":"cebpf4jnsgd1na2vs0mg"},{"bike_id":"ca19a9fa-b66e-4bc3-972d-3c183c320761","system_id":"levelo_inurba_marseille","lat":43.30665,"lon":5.40077,"is_reserved":false,"is_disabled":false,"rental_uris":{"android":"levelo://app?vid=ca19a9fa-b66e-4bc3-972d-3c183c320761","ios":"levelo://app?vid=ca19a9fa-b66e-4bc3-972d-3c183c320761"},"vehicle_type_id":"4","last_reported":1749532278,"current_range_meters":9600,"station_id":"ce4bh112rcd13ifvqda0","pricing_plan_id":"cebpf4jnsgd1na2vs0mg"},{"bike_id":"6ada4d07-33bc-4197-910f-991c0a3eb216","system_id":"levelo_inurba_marseille","lat":43.29582,"lon":5.36738,"is_reserved":false,"is_disabled":false,"rental_uris":{"android":"levelo://app?vid=6ada4d07-33bc-4197-910f-991c0a3eb216","ios":"levelo://app?vid=6ada4d07-33bc-4197-910f-991c0a3eb216"},"vehicle_type_id":"4","last_reported":1749532278,"current_range_meters":9600,"station_id":"ce4bgph2rcd13ifvqc2g","pricing_plan_id":"cebpf4jnsgd1na2vs0mg"},{"bike_id":"462a4fe4-7c2b-425e-bf3f-83ef7b1ba959","system_id":"levelo_inurba_marseille","lat":43.2841,"lon":5.37516,"is_reserved":false,"is_disabled":false,"rental_uris":{"android":"levelo://app?vid=462a4fe4-7c2b-425e-bf3f-83ef7b1ba959","ios":"levelo://app?vid=462a4fe4-7c2b-425e-bf3f-83ef7b1ba959"},"vehicle_type_id":"4","last_reported":1749532278,"current_range_meters":9600,"station_id":"ce4bh412rcd13ifvqds0","pricing_plan_id":"cebpf4jnsgd1na2vs0mg"},{"bike_id":"4b9eb7f0-61d0-4628-a7e2-d737cbbeb8ac","system_id":"levelo_inurba_marseille","lat":43.2553,"lon":5.42019,"is_reserved":false,"is_disabled":false,"rental_uris":{"android":"levelo://app?vid=4b9eb7f0-61d0-4628-a7e2-d737cbbeb8ac","ios":"levelo://app?vid=4b9eb7f0-61d0-4628-a7e2-d737cbbeb8ac"},"vehicle_type_id":"4","last_reported":1749532278,"current_range_meters":9600,"station_id":"","pricing_plan_id":"cebpf4jnsgd1na2vs0mg"},{"bike_id":"5aee6e98-5d72-4a58-8068-559ee9f9703d","system_id":"levelo_inurba_marseille","lat":43.21197,"lon":5.35061,"is_reserved":false,"is_disabled":false,"rental_uris":{"android":"levelo://app?vid=5aee6e98-5d72-4a58-8068-559ee9f9703d","ios":"levelo://app?vid=5aee6e98-5d72-4a58-8068-559ee9f9703d"},"vehicle_type_id":"4","last_reported":1749532278,"current_range_meters":9600,"station_id":"st_cvj6sg6p6f1abm77japg","pricing_plan_id":"cebpf4jnsgd1na2vs0mg"},{"bike_id":"c8c4af1d-070c-484a-a3f7-babd17d99646","system_id":"levelo_inurba_marseille","lat":43.336805,"lon":5.392164,"is_reserved":false,"is_disabled":false,"rental_uris":{"android":"levelo://app?vid=c8c4af1d-070c-484a-a3f7-babd17d99646","ios":"levelo://app?vid=c8c4af1d-070c-484a-a3f7-babd17d99646"},"vehicle_type_id":"4","last_reported":1749532278,"current_range_meters":9600,"station_id":"ce4bhr92rcd13ifvqhsg","pricing_plan_id":"cebpf4jnsgd1na2vs0mg"},{"bike_id":"eca942b4-34e9-4d21-b68a-0dfee2c9821f","system_id":"levelo_inurba_marseille","lat":43.30128,"lon":5.3879,"is_reserved":false,"is_disabled":true,"rental_uris":{"android":"levelo://app?vid=eca942b4-34e9-4d21-b68a-0dfee2c9821f","ios":"levelo://app?vid=eca942b4-34e9-4d21-b68a-0dfee2c9821f"},"vehicle_type_id":"4","last_reported":1749532278,"current_range_meters":9600,"station_id":"ce4bghh2rcd13ifvqb60","pricing_plan_id":"cebpf4jnsgd1na2vs0mg"},{"bike_id":"a5fee259-17bc-433f-8c5f-d8d3e70c6426","system_id":"levelo_inurba_marseille","lat":43.29044,"lon":5.39983,"is_reserved":false,"is_disabled":false,"rental_uris":{"android":"levelo://app?vid=a5fee259-17bc-433f-8c5f-d8d3e70c6426","ios":"levelo://app?vid=a5fee259-17bc-433f-8c5f-d8d3e70c6426"},"vehicle_type_id":"4","last_reported":1749532278,"current_range_meters":9600,"station_id":"ce4bh392rcd13ifvqdm0","pricing_plan_id":"cebpf4jnsgd1na2vs0mg"},{"bike_id":"2af4af64-0065-45b8-93fc-e286f53a888e","system_id":"levelo_inurba_marseille","lat":43.233789,"lon":5.365129,"is_reserved":false,"is_disabled":false,"rental_uris":{"android":"levelo://app?vid=2af4af64-0065-45b8-93fc-e286f53a888e","ios":"levelo://app?vid=2af4af64-0065-45b8-93fc-e286f53a888e"},"vehicle_type_id":"4","last_reported":1749532278,"current_range_meters":9600,"station_id":"","pricing_plan_id":"cebpf4jnsgd1na2vs0mg"},{"bike_id":"b85be41e-2140-41ca-9627-a0ca198e2d51","system_id":"levelo_inurba_marseille","lat":43.31502,"lon":5.37252,"is_reserved":false,"is_disabled":false,"rental_uris":{"android":"levelo://app?vid=b85be41e-2140-41ca-9627-a0ca198e2d51","ios":"levelo://app?vid=b85be41e-2140-41ca-9627-a0ca198e2d51"},"vehicle_type_id":"4","last_reported":1749532278,"current_range_meters":10000,"station_id":"ce4bgt12rcd13ifvqcd0","pricing_plan_id":"cebpf4jnsgd1na2vs0mg"},{"bike_id":"1aa16519-d685-4976-8de7-f71f9cc62b8f","system_id":"levelo_inurba_marseille","lat":43.27763,"lon":5.4216,"is_reserved":false,"is_disabled":true,"rental_uris":{"android":"levelo://app?vid=1aa16519-d685-4976-8de7-f71f9cc62b8f","ios":"levelo://app?vid=1aa16519-d685-4976-8de7-f71f9cc62b8f"},"vehicle_type_id":"4","last_reported":1749532278,"current_range_meters":10000,"station_id":"","pricing_plan_id":"cebpf4jnsgd1na2vs0mg"},{"bike_id":"4eada35f-a65e-4d4e-b60d-b88e9a624416","system_id":"levelo_inurba_marseille","lat":43.24397,"lon":5.37063,"is_reserved":false,"is_disabled":true,"rental_uris":{"android":"levelo://app?vid=4eada35f-a65e-4d4e-b60d-b88e9a624416","ios":"levelo://app?vid=4eada35f-a65e-4d4e-b60d-b88e9a624416"},"vehicle_type_id":"4","last_reported":1749532278,"current_range_meters":10000,"station_id":"ce4bhhh2rcd13ifvqfk0","pricing_plan_id":"cebpf4jnsgd1na2vs0mg"},{"bike_id":"024943c5-334c-4e30-9fa1-4e01ad9ec84d","system_id":"levelo_inurba_marseille","lat":43.25821,"lon":5.39427,"is_reserved":false,"is_disabled":true,"rental_uris":{"android":"levelo://app?vid=024943c5-334c-4e30-9fa1-4e01ad9ec84d","ios":"levelo://app?vid=024943c5-334c-4e30-9fa1-4e01ad9ec84d"},"vehicle_type_id":"4","last_reported":1749532278,"current_range_meters":10000,"station_id":"ce4bhip2rcd13ifvqft0","pricing_plan_id":"cebpf4jnsgd1na2vs0mg"},{"bike_id":"463c3dc9-e6d5-4599-981c-ee322f38485f","system_id":"levelo_inurba_marseille","lat":43.31384,"lon":5.3849,"is_reserved":false,"is_disabled":false,"rental_uris":{"android":"levelo://app?vid=463c3dc9-e6d5-4599-981c-ee322f38485f","ios":"levelo://app?vid=463c3dc9-e6d5-4599-981c-ee322f38485f"},"vehicle_type_id":"4","last_reported":1749532278,"current_range_meters":10000,"station_id":"ce4bgt92rcd13ifvqcf0","pricing_plan_id":"cebpf4jnsgd1na2vs0mg"},{"bike_id":"2649ef45-0b6a-4349-a65a-a2f74f74f74f","system_id":"levelo_inurba_marseille","lat":43.264821,"lon":5.392324,"is_reserved":false,"is_disabled":false,"rental_uris":{"android":"levelo://app?vid=2649ef45-0b6a-4349-a65a-a2f74f74f74f","ios":"levelo://app?vid=2649ef45-0b6a-4349-a65a-a2f74f74f74f"},"vehicle_type_id":"4","last_reported":1749532278,"current_range_meters":10000,"station_id":"","pricing_plan_id":"cebpf4jnsgd1na2vs0mg"},{"bike_id":"88113087-f0bb-4133-ab2a-bbfce1f3d99a","system_id":"levelo_inurba_marseille","lat":43.31695,"lon":5.40488,"is_reserved":false,"is_disabled":true,"rental_uris":{"android":"levelo://app?vid=88113087-f0bb-4133-ab2a-bbfce1f3d99a","ios":"levelo://app?vid=88113087-f0bb-4133-ab2a-bbfce1f3d99a"},"vehicle_type_id":"4","last_reported":1749532278,"current_range_meters":10000,"station_id":"ce4bh012rcd13ifvqd00","pricing_plan_id":"cebpf4jnsgd1na2vs0mg"},{"bike_id":"f156dd16-bfc6-4d9c-8774-e71864afe86d","system_id":"levelo_inurba_marseille","lat":43.28005,"lon":5.41656,"is_reserved":false,"is_disabled":true,"rental_uris":{"android":"levelo://app?vid=f156dd16-bfc6-4d9c-8774-e71864afe86d","ios":"levelo://app?vid=f156dd16-bfc6-4d9c-8774-e71864afe86d"},"vehicle_type_id":"4","last_reported":1749532278,"current_range_meters":10000,"station_id":"ce4bho12rcd13ifvqh1g","pricing_plan_id":"cebpf4jnsgd1na2vs0mg"},{"bike_id":"9c321b1f-5d95-44be-92f0-5a6d215c91ff","system_id":"levelo_inurba_marseille","lat":43.310726,"lon":5.38361,"is_reserved":false,"is_disabled":false,"rental_uris":{"android":"levelo://app?vid=9c321b1f-5d95-44be-92f0-5a6d215c91ff","ios":"levelo://app?vid=9c321b1f-5d95-44be-92f0-5a6d215c91ff"},"vehicle_type_id":"4","last_reported":1749532278,"current_range_meters":10000,"station_id":"ce4bgv92rcd13ifvqcr0","pricing_plan_id":"cebpf4jnsgd1na2vs0mg"},{"bike_id":"38732871-8503-466e-a980-ace2b8f5936b","system_id":"levelo_inurba_marseille","lat":43.27059,"lon":5.42248,"is_reserved":false,"is_disabled":false,"rental_uris":{"android":"levelo://app?vid=38732871-8503-466e-a980-ace2b8f5936b","ios":"levelo://app?vid=38732871-8503-466e-a980-ace2b8f5936b"},"vehicle_type_id":"4","last_reported":1749532278,"current_range_meters":10800,"station_id":"ce4bhk92rcd13ifvqgb0","pricing_plan_id":"cebpf4jnsgd1na2vs0mg"},{"bike_id":"acf56c95-903d-4e41-b227-6ed213a46e8f","system_id":"levelo_inurba_marseille","lat":43.31372,"lon":5.38513,"is_reserved":false,"is_disabled":false,"rental_uris":{"android":"levelo://app?vid=acf56c95-903d-4e41-b227-6ed213a46e8f","ios":"levelo://app?vid=acf56c95-903d-4e41-b227-6ed213a46e8f"},"vehicle_type_id":"4","last_reported":1749532278,"current_range_meters":10800,"station_id":"ce4bgt92rcd13ifvqcf0","pricing_plan_id":"cebpf4jnsgd1na2vs0mg"},{"bike_id":"40d277a1-8cc5-4f77-807e-87b9f07c6ca5","system_id":"levelo_inurba_marseille","lat":43.286099,"lon":5.351075,"is_reserved":false,"is_disabled":true,"rental_uris":{"android":"levelo://app?vid=40d277a1-8cc5-4f77-807e-87b9f07c6ca5","ios":"levelo://app?vid=40d277a1-8cc5-4f77-807e-87b9f07c6ca5"},"vehicle_type_id":"4","last_reported":1749532278,"current_range_meters":10800,"station_id":"ce4bhch2rcd13ifvqeug","pricing_plan_id":"cebpf4jnsgd1na2vs0mg"},{"bike_id":"7facd0d3-e088-4a5a-a896-d77e8e818ab6","system_id":"levelo_inurba_marseille","lat":43.29219,"lon":5.360467,"is_reserved":false,"is_disabled":true,"rental_uris":{"android":"levelo://app?vid=7facd0d3-e088-4a5a-a896-d77e8e818ab6","ios":"levelo://app?vid=7facd0d3-e088-4a5a-a896-d77e8e818ab6"},"vehicle_type_id":"4","last_reported":1749532278,"current_range_meters":10800,"station_id":"ce4bhbh2rcd13ifvqeqg","pricing_plan_id":"cebpf4jnsgd1na2vs0mg"},{"bike_id":"fea03510-d732-494e-a818-113e6eebaa67","system_id":"levelo_inurba_marseille","lat":43.22935,"lon":5.35369,"is_reserved":false,"is_disabled":true,"rental_uris":{"android":"levelo://app?vid=fea03510-d732-494e-a818-113e6eebaa67","ios":"levelo://app?vid=fea03510-d732-494e-a818-113e6eebaa67"},"vehicle_type_id":"4","last_reported":1749532278,"current_range_meters":10800,"station_id":"cpo3532slgdg3j2ikp40","pricing_plan_id":"cebpf4jnsgd1na2vs0mg"},{"bike_id":"b6285f6b-e9e7-470d-9b6d-1afe99ab71bf","system_id":"levelo_inurba_marseille","lat":43.26181,"lon":5.42068,"is_reserved":false,"is_disabled":false,"rental_uris":{"android":"levelo://app?vid=b6285f6b-e9e7-470d-9b6d-1afe99ab71bf","ios":"levelo://app?vid=b6285f6b-e9e7-470d-9b6d-1afe99ab71bf"},"vehicle_type_id":"4","last_reported":1749532278,"current_range_meters":11200,"station_id":"","pricing_plan_id":"cebpf4jnsgd1na2vs0mg"},{"bike_id":"660219bc-9f09-49e5-8bb8-0a89276755ae","system_id":"levelo_inurba_marseille","lat":43.29999,"lon":5.37185,"is_reserved":false,"is_disabled":true,"rental_uris":{"android":"levelo://app?vid=660219bc-9f09-49e5-8bb8-0a89276755ae","ios":"levelo://app?vid=660219bc-9f09-49e5-8bb8-0a89276755ae"},"vehicle_type_id":"4","last_reported":1749532278,"current_range_meters":11200,"station_id":"ce4bgr92rcd13ifvqc7g","pricing_plan_id":"cebpf4jnsgd1na2vs0mg"},{"bike_id":"6fc54af2-68f2-455a-a83f-004e9d098345","system_id":"levelo_inurba_marseille","lat":43.29585,"lon":5.39849,"is_reserved":false,"is_disabled":false,"rental_uris":{"android":"levelo://app?vid=6fc54af2-68f2-455a-a83f-004e9d098345","ios":"levelo://app?vid=6fc54af2-68f2-455a-a83f-004e9d098345"},"vehicle_type_id":"4","last_reported":1749532278,"current_range_meters":11200,"station_id":"","pricing_plan_id":"cebpf4jnsgd1na2vs0mg"},{"bike_id":"8e317286-d121-41fb-88b8-5b957116b9fe","system_id":"levelo_inurba_marseille","lat":43.21193,"lon":5.35065,"is_reserved":false,"is_disabled":false,"rental_uris":{"android":"levelo://app?vid=8e317286-d121-41fb-88b8-5b957116b9fe","ios":"levelo://app?vid=8e317286-d121-41fb-88b8-5b957116b9fe"},"vehicle_type_id":"4","last_reported":1749532278,"current_range_meters":11200,"station_id":"st_cvj6sg6p6f1abm77japg","pricing_plan_id":"cebpf4jnsgd1na2vs0mg"},{"bike_id":"ad6c329c-2135-419b-93d2-3080b8444257","system_id":"levelo_inurba_marseille","lat":43.28361,"lon":5.38096,"is_reserved":false,"is_disabled":true,"rental_uris":{"android":"levelo://app?vid=ad6c329c-2135-419b-93d2-3080b8444257","ios":"levelo://app?vid=ad6c329c-2135-419b-93d2-3080b8444257"},"vehicle_type_id":"4","last_reported":1749532278,"current_range_meters":11200,"station_id":"ce4bh412rcd13ifvqdr0","pricing_plan_id":"cebpf4jnsgd1na2vs0mg"},{"bike_id":"bc6fc902-3c91-4208-80a6-cebe896f2457","system_id":"levelo_inurba_marseille","lat":43.302894,"lon":5.389889,"is_reserved":false,"is_disabled":false,"rental_uris":{"android":"levelo://app?vid=bc6fc902-3c91-4208-80a6-cebe896f2457","ios":"levelo://app?vid=bc6fc902-3c91-4208-80a6-cebe896f2457"},"vehicle_type_id":"4","last_reported":1749532278,"current_range_meters":11200,"station_id":"","pricing_plan_id":"cebpf4jnsgd1na2vs0mg"},{"bike_id":"0ca5c1a0-e310-4625-a32d-0a021a84cc09","system_id":"levelo_inurba_marseille","lat":43.30538,"lon":5.37597,"is_reserved":false,"is_disabled":false,"rental_uris":{"android":"levelo://app?vid=0ca5c1a0-e310-4625-a32d-0a021a84cc09","ios":"levelo://app?vid=0ca5c1a0-e310-4625-a32d-0a021a84cc09"},"vehicle_type_id":"4","last_reported":1749532278,"current_range_meters":11600,"station_id":"","pricing_plan_id":"cebpf4jnsgd1na2vs0mg"},{"bike_id":"2ffb5d6d-efc6-4007-9177-680a2afd86cf","system_id":"levelo_inurba_marseille","lat":43.31118,"lon":5.37746,"is_reserved":false,"is_disabled":false,"rental_uris":{"android":"levelo://app?vid=2ffb5d6d-efc6-4007-9177-680a2afd86cf","ios":"levelo://app?vid=2ffb5d6d-efc6-4007-9177-680a2afd86cf"},"vehicle_type_id":"4","last_reported":1749532278,"current_range_meters":11600,"station_id":"ce4bgt92rcd13ifvqcg0","pricing_plan_id":"cebpf4jnsgd1na2vs0mg"},{"bike_id":"140ab034-222f-4ace-867a-9da3b2af3d45","system_id":"levelo_inurba_marseille","lat":43.30095,"lon":5.39899,"is_reserved":false,"is_disabled":false,"rental_uris":{"android":"levelo://app?vid=140ab034-222f-4ace-867a-9da3b2af3d45","ios":"levelo://app?vid=140ab034-222f-4ace-867a-9da3b2af3d45"},"vehicle_type_id":"4","last_reported":1749532278,"current_range_meters":11600,"station_id":"ce4bh0h2rcd13ifvqd40","pricing_plan_id":"cebpf4jnsgd1na2vs0mg"},{"bike_id":"39d32260-51d5-455a-ba53-6471389bd255","system_id":"levelo_inurba_marseille","lat":43.32009,"lon":5.37621,"is_reserved":false,"is_disabled":false,"rental_uris":{"android":"levelo://app?vid=39d32260-51d5-455a-ba53-6471389bd255","ios":"levelo://app?vid=39d32260-51d5-455a-ba53-6471389bd255"},"vehicle_type_id":"4","last_reported":1749532278,"current_range_meters":11600,"station_id":"","pricing_plan_id":"cebpf4jnsgd1na2vs0mg"},{"bike_id":"78b95532-d4cb-47ec-9f68-abab35ec3297","system_id":"levelo_inurba_marseille","lat":43.2937,"lon":5.37823,"is_reserved":false,"is_disabled":false,"rental_uris":{"android":"levelo://app?vid=78b95532-d4cb-47ec-9f68-abab35ec3297","ios":"levelo://app?vid=78b95532-d4cb-47ec-9f68-abab35ec3297"},"vehicle_type_id":"4","last_reported":1749532278,"current_range_meters":11600,"station_id":"ce4bgjh2rcd13ifvqbf0","pricing_plan_id":"cebpf4jnsgd1na2vs0mg"},{"bike_id":"c6056b5c-18ab-4596-a052-b852d805ce59","system_id":"levelo_inurba_marseille","lat":43.30214,"lon":5.39447,"is_reserved":false,"is_disabled":false,"rental_uris":{"android":"levelo://app?vid=c6056b5c-18ab-4596-a052-b852d805ce59","ios":"levelo://app?vid=c6056b5c-18ab-4596-a052-b852d805ce59"},"vehicle_type_id":"4","last_reported":1749532278,"current_range_meters":11600,"station_id":"ce4bh0p2rcd13ifvqd70","pricing_plan_id":"cebpf4jnsgd1na2vs0mg"},{"bike_id":"0b602b86-9c91-4b76-89a4-a3531e2c7f0e","system_id":"levelo_inurba_marseille","lat":43.3238,"lon":5.38855,"is_reserved":false,"is_disabled":false,"rental_uris":{"android":"levelo://app?vid=0b602b86-9c91-4b76-89a4-a3531e2c7f0e","ios":"levelo://app?vid=0b602b86-9c91-4b76-89a4-a3531e2c7f0e"},"vehicle_type_id":"4","last_reported":1749532278,"current_range_meters":11600,"station_id":"ce4bhqp2rcd13ifvqhog","pricing_plan_id":"cebpf4jnsgd1na2vs0mg"},{"bike_id":"ec900863-52d3-44cb-a121-68dbf4281d0c","system_id":"levelo_inurba_marseille","lat":43.30869,"lon":5.3962,"is_reserved":false,"is_disabled":false,"rental_uris":{"android":"levelo://app?vid=ec900863-52d3-44cb-a121-68dbf4281d0c","ios":"levelo://app?vid=ec900863-52d3-44cb-a121-68dbf4281d0c"},"vehicle_type_id":"4","last_reported":1749532278,"current_range_meters":12000,"station_id":"ce4bh012rcd13ifvqcv0","pricing_plan_id":"cebpf4jnsgd1na2vs0mg"},{"bike_id":"ec02e175-aaa4-4066-abe1-304d2d5f3fc5","system_id":"levelo_inurba_marseille","lat":43.24176,"lon":5.39731,"is_reserved":false,"is_disabled":false,"rental_uris":{"android":"levelo://app?vid=ec02e175-aaa4-4066-abe1-304d2d5f3fc5","ios":"levelo://app?vid=ec02e175-aaa4-4066-abe1-304d2d5f3fc5"},"vehicle_type_id":"4","last_reported":1749532278,"current_range_meters":12000,"station_id":"ce4bhn12rcd13ifvqgpg","pricing_plan_id":"cebpf4jnsgd1na2vs0mg"},{"bike_id":"c7432800-1b14-4854-84d5-dd3690953cae","system_id":"levelo_inurba_marseille","lat":43.261962,"lon":5.374675,"is_reserved":false,"is_disabled":true,"rental_uris":{"android":"levelo://app?vid=c7432800-1b14-4854-84d5-dd3690953cae","ios":"levelo://app?vid=c7432800-1b14-4854-84d5-dd3690953cae"},"vehicle_type_id":"4","last_reported":1749532278,"current_range_meters":12000,"station_id":"ce4bhgp2rcd13ifvqfc0","pricing_plan_id":"cebpf4jnsgd1na2vs0mg"},{"bike_id":"65ea561a-2be8-4848-b6da-b760b05269f7","system_id":"levelo_inurba_marseille","lat":43.3128,"lon":5.40156,"is_reserved":false,"is_disabled":false,"rental_uris":{"android":"levelo://app?vid=65ea561a-2be8-4848-b6da-b760b05269f7","ios":"levelo://app?vid=65ea561a-2be8-4848-b6da-b760b05269f7"},"vehicle_type_id":"4","last_reported":1749532278,"current_range_meters":12000,"station_id":"ce4bh092rcd13ifvqd30","pricing_plan_id":"cebpf4jnsgd1na2vs0mg"},{"bike_id":"0053f0bd-3481-4f8f-a19e-7dd7a6624507","system_id":"levelo_inurba_marseille","lat":43.29878,"lon":5.43676,"is_reserved":false,"is_disabled":false,"rental_uris":{"android":"levelo://app?vid=0053f0bd-3481-4f8f-a19e-7dd7a6624507","ios":"levelo://app?vid=0053f0bd-3481-4f8f-a19e-7dd7a6624507"},"vehicle_type_id":"4","last_reported":1749532278,"current_range_meters":12000,"station_id":"ce4bhpp2rcd13ifvqhfg","pricing_plan_id":"cebpf4jnsgd1na2vs0mg"},{"bike_id":"0dbbf1a7-7b2b-4906-9be6-42ea3e66e751","system_id":"levelo_inurba_marseille","lat":43.270604,"lon":5.40264,"is_reserved":false,"is_disabled":false,"rental_uris":{"android":"levelo://app?vid=0dbbf1a7-7b2b-4906-9be6-42ea3e66e751","ios":"levelo://app?vid=0dbbf1a7-7b2b-4906-9be6-42ea3e66e751"},"vehicle_type_id":"4","last_reported":1749532278,"current_range_meters":12000,"station_id":"ce4bhk92rcd13ifvqgc0","pricing_plan_id":"cebpf4jnsgd1na2vs0mg"},{"bike_id":"1aea7cfc-afca-4737-8f8d-ae60132524de","system_id":"levelo_inurba_marseille","lat":43.287856,"lon":5.398721,"is_reserved":false,"is_disabled":false,"rental_uris":{"android":"levelo://app?vid=1aea7cfc-afca-4737-8f8d-ae60132524de","ios":"levelo://app?vid=1aea7cfc-afca-4737-8f8d-ae60132524de"},"vehicle_type_id":"4","last_reported":1749532278,"current_range_meters":12000,"station_id":"","pricing_plan_id":"cebpf4jnsgd1na2vs0mg"},{"bike_id":"60a8540b-0b97-4e6a-b532-b4cdb1bca662","system_id":"levelo_inurba_marseille","lat":43.25963,"lon":5.387846,"is_reserved":false,"is_disabled":false,"rental_uris":{"android":"levelo://app?vid=60a8540b-0b97-4e6a-b532-b4cdb1bca662","ios":"levelo://app?vid=60a8540b-0b97-4e6a-b532-b4cdb1bca662"},"vehicle_type_id":"4","last_reported":1749532278,"current_range_meters":12000,"station_id":"","pricing_plan_id":"cebpf4jnsgd1na2vs0mg"},{"bike_id":"6d064464-dec5-46b8-98bd-56bde5fb4740","system_id":"levelo_inurba_marseille","lat":43.28994,"lon":5.35588,"is_reserved":false,"is_disabled":true,"rental_uris":{"android":"levelo://app?vid=6d064464-dec5-46b8-98bd-56bde5fb4740","ios":"levelo://app?vid=6d064464-dec5-46b8-98bd-56bde5fb4740"},"vehicle_type_id":"4","last_reported":1749532278,"current_range_meters":12000,"station_id":"ce4bhb92rcd13ifvqen0","pricing_plan_id":"cebpf4jnsgd1na2vs0mg"},{"bike_id":"8991f545-6711-4ae5-a7a4-2a506f75b953","system_id":"levelo_inurba_marseille","lat":43.23966,"lon":5.36628,"is_reserved":false,"is_disabled":false,"rental_uris":{"android":"levelo://app?vid=8991f545-6711-4ae5-a7a4-2a506f75b953","ios":"levelo://app?vid=8991f545-6711-4ae5-a7a4-2a506f75b953"},"vehicle_type_id":"4","last_reported":1749532278,"current_range_meters":11600,"station_id":"ce4bhi12rcd13ifvqfp0","pricing_plan_id":"cebpf4jnsgd1na2vs0mg"},{"bike_id":"ce0f0bc6-7026-45aa-b10b-2dda47f8fac3","system_id":"levelo_inurba_marseille","lat":43.28652,"lon":5.3866,"is_reserved":false,"is_disabled":false,"rental_uris":{"android":"levelo://app?vid=ce0f0bc6-7026-45aa-b10b-2dda47f8fac3","ios":"levelo://app?vid=ce0f0bc6-7026-45aa-b10b-2dda47f8fac3"},"vehicle_type_id":"4","last_reported":1749532278,"current_range_meters":12000,"station_id":"ce4bh492rcd13ifvqdug","pricing_plan_id":"cebpf4jnsgd1na2vs0mg"},{"bike_id":"5077581b-cebb-46fc-ba69-4fa8272d4810","system_id":"levelo_inurba_marseille","lat":43.21367,"lon":5.35531,"is_reserved":false,"is_disabled":false,"rental_uris":{"android":"levelo://app?vid=5077581b-cebb-46fc-ba69-4fa8272d4810","ios":"levelo://app?vid=5077581b-cebb-46fc-ba69-4fa8272d4810"},"vehicle_type_id":"4","last_reported":1749532278,"current_range_meters":12400,"station_id":"","pricing_plan_id":"cebpf4jnsgd1na2vs0mg"},{"bike_id":"0a2e1cca-2122-4731-b57c-fb29888125f9","system_id":"levelo_inurba_marseille","lat":43.2842,"lon":5.37503,"is_reserved":false,"is_disabled":false,"rental_uris":{"android":"levelo://app?vid=0a2e1cca-2122-4731-b57c-fb29888125f9","ios":"levelo://app?vid=0a2e1cca-2122-4731-b57c-fb29888125f9"},"vehicle_type_id":"4","last_reported":1749532278,"current_range_meters":12400,"station_id":"ce4bh412rcd13ifvqds0","pricing_plan_id":"cebpf4jnsgd1na2vs0mg"},{"bike_id":"402b268f-51d8-4319-85da-3f411d4d5d91","system_id":"levelo_inurba_marseille","lat":43.21206,"lon":5.35068,"is_reserved":false,"is_disabled":false,"rental_uris":{"android":"levelo://app?vid=402b268f-51d8-4319-85da-3f411d4d5d91","ios":"levelo://app?vid=402b268f-51d8-4319-85da-3f411d4d5d91"},"vehicle_type_id":"4","last_reported":1749532278,"current_range_meters":12400,"station_id":"st_cvj6sg6p6f1abm77japg","pricing_plan_id":"cebpf4jnsgd1na2vs0mg"},{"bike_id":"4d26fb08-98cd-4156-8858-cdf0c4e8c3e8","system_id":"levelo_inurba_marseille","lat":43.2512,"lon":5.40344,"is_reserved":false,"is_disabled":false,"rental_uris":{"android":"levelo://app?vid=4d26fb08-98cd-4156-8858-cdf0c4e8c3e8","ios":"levelo://app?vid=4d26fb08-98cd-4156-8858-cdf0c4e8c3e8"},"vehicle_type_id":"4","last_reported":1749532278,"current_range_meters":12400,"station_id":"ce4bhlh2rcd13ifvqgig","pricing_plan_id":"cebpf4jnsgd1na2vs0mg"},{"bike_id":"93a8514d-9e08-4750-b1ec-dac5f103b87e","system_id":"levelo_inurba_marseille","lat":43.28475,"lon":5.35899,"is_reserved":false,"is_disabled":false,"rental_uris":{"android":"levelo://app?vid=93a8514d-9e08-4750-b1ec-dac5f103b87e","ios":"levelo://app?vid=93a8514d-9e08-4750-b1ec-dac5f103b87e"},"vehicle_type_id":"4","last_reported":1749532278,"current_range_meters":12800,"station_id":"ce4bhah2rcd13ifvqei0","pricing_plan_id":"cebpf4jnsgd1na2vs0mg"},{"bike_id":"ef555bdb-3115-4b1f-9398-9c76776e1204","system_id":"levelo_inurba_marseille","lat":43.260255,"lon":5.374255,"is_reserved":false,"is_disabled":false,"rental_uris":{"android":"levelo://app?vid=ef555bdb-3115-4b1f-9398-9c76776e1204","ios":"levelo://app?vid=ef555bdb-3115-4b1f-9398-9c76776e1204"},"vehicle_type_id":"4","last_reported":1749532278,"current_range_meters":12800,"station_id":"","pricing_plan_id":"cebpf4jnsgd1na2vs0mg"},{"bike_id":"5958541c-d2e7-4fc0-b6e8-efde527d71c5","system_id":"levelo_inurba_marseille","lat":43.30848,"lon":5.39655,"is_reserved":false,"is_disabled":false,"rental_uris":{"android":"levelo://app?vid=5958541c-d2e7-4fc0-b6e8-efde527d71c5","ios":"levelo://app?vid=5958541c-d2e7-4fc0-b6e8-efde527d71c5"},"vehicle_type_id":"4","last_reported":1749532278,"current_range_meters":12800,"station_id":"","pricing_plan_id":"cebpf4jnsgd1na2vs0mg"},{"bike_id":"7afdb58a-d1c4-470b-8c7d-d9ea2565734d","system_id":"levelo_inurba_marseille","lat":43.26198,"lon":5.40457,"is_reserved":false,"is_disabled":false,"rental_uris":{"android":"levelo://app?vid=7afdb58a-d1c4-470b-8c7d-d9ea2565734d","ios":"levelo://app?vid=7afdb58a-d1c4-470b-8c7d-d9ea2565734d"},"vehicle_type_id":"4","last_reported":1749532278,"current_range_meters":12800,"station_id":"ce4bhmh2rcd13ifvqgmg","pricing_plan_id":"cebpf4jnsgd1na2vs0mg"},{"bike_id":"12a16a15-78c8-4ee4-92fd-26dda98aa3f7","system_id":"levelo_inurba_marseille","lat":43.31061,"lon":5.3835,"is_reserved":false,"is_disabled":false,"rental_uris":{"android":"levelo://app?vid=12a16a15-78c8-4ee4-92fd-26dda98aa3f7","ios":"levelo://app?vid=12a16a15-78c8-4ee4-92fd-26dda98aa3f7"},"vehicle_type_id":"4","last_reported":1749532278,"current_range_meters":12800,"station_id":"ce4bgv92rcd13ifvqcr0","pricing_plan_id":"cebpf4jnsgd1na2vs0mg"},{"bike_id":"c63f4860-73c6-489f-895c-b31b8d653c8d","system_id":"levelo_inurba_marseille","lat":43.28436,"lon":5.34973,"is_reserved":false,"is_disabled":true,"rental_uris":{"android":"levelo://app?vid=c63f4860-73c6-489f-895c-b31b8d653c8d","ios":"levelo://app?vid=c63f4860-73c6-489f-895c-b31b8d653c8d"},"vehicle_type_id":"4","last_reported":1749532278,"current_range_meters":12800,"station_id":"ce4bhbh2rcd13ifvqepg","pricing_plan_id":"cebpf4jnsgd1na2vs0mg"},{"bike_id":"794295a6-f00b-4912-afa5-4f722b8fa33a","system_id":"levelo_inurba_marseille","lat":43.27214,"lon":5.39182,"is_reserved":false,"is_disabled":false,"rental_uris":{"android":"levelo://app?vid=794295a6-f00b-4912-afa5-4f722b8fa33a","ios":"levelo://app?vid=794295a6-f00b-4912-afa5-4f722b8fa33a"},"vehicle_type_id":"4","last_reported":1749532278,"current_range_meters":13600,"station_id":"ce4bhhp2rcd13ifvqfm0","pricing_plan_id":"cebpf4jnsgd1na2vs0mg"},{"bike_id":"3bda16d8-90d9-4118-9969-3498193106e5","system_id":"levelo_inurba_marseille","lat":43.28408,"lon":5.37543,"is_reserved":false,"is_disabled":true,"rental_uris":{"android":"levelo://app?vid=3bda16d8-90d9-4118-9969-3498193106e5","ios":"levelo://app?vid=3bda16d8-90d9-4118-9969-3498193106e5"},"vehicle_type_id":"4","last_reported":1749532278,"current_range_meters":13600,"station_id":"ce4bh412rcd13ifvqds0","pricing_plan_id":"cebpf4jnsgd1na2vs0mg"},{"bike_id":"64a09ca2-e946-476b-8b71-a03c555f6713","system_id":"levelo_inurba_marseille","lat":43.30146,"lon":5.3807,"is_reserved":false,"is_disabled":false,"rental_uris":{"android":"levelo://app?vid=64a09ca2-e946-476b-8b71-a03c555f6713","ios":"levelo://app?vid=64a09ca2-e946-476b-8b71-a03c555f6713"},"vehicle_type_id":"4","last_reported":1749532278,"current_range_meters":13600,"station_id":"ce4bgjp2rcd13ifvqbh0","pricing_plan_id":"cebpf4jnsgd1na2vs0mg"},{"bike_id":"4568ee80-1629-4775-9896-f657f586174a","system_id":"levelo_inurba_marseille","lat":43.31124,"lon":5.37757,"is_reserved":false,"is_disabled":false,"rental_uris":{"android":"levelo://app?vid=4568ee80-1629-4775-9896-f657f586174a","ios":"levelo://app?vid=4568ee80-1629-4775-9896-f657f586174a"},"vehicle_type_id":"4","last_reported":1749532278,"current_range_meters":13600,"station_id":"ce4bgt92rcd13ifvqcg0","pricing_plan_id":"cebpf4jnsgd1na2vs0mg"},{"bike_id":"23e89bac-e2bf-4e89-8e08-1f432b7a4188","system_id":"levelo_inurba_marseille","lat":43.2119,"lon":5.35078,"is_reserved":false,"is_disabled":true,"rental_uris":{"android":"levelo://app?vid=23e89bac-e2bf-4e89-8e08-1f432b7a4188","ios":"levelo://app?vid=23e89bac-e2bf-4e89-8e08-1f432b7a4188"},"vehicle_type_id":"4","last_reported":1749532278,"current_range_meters":14000,"station_id":"st_cvj6sg6p6f1abm77japg","pricing_plan_id":"cebpf4jnsgd1na2vs0mg"},{"bike_id":"b7651752-8eb3-4b67-91fc-0a6e006c8d1f","system_id":"levelo_inurba_marseille","lat":43.21186,"lon":5.35077,"is_reserved":false,"is_disabled":false,"rental_uris":{"android":"levelo://app?vid=b7651752-8eb3-4b67-91fc-0a6e006c8d1f","ios":"levelo://app?vid=b7651752-8eb3-4b67-91fc-0a6e006c8d1f"},"vehicle_type_id":"4","last_reported":1749532278,"current_range_meters":14000,"station_id":"st_cvj6sg6p6f1abm77japg","pricing_plan_id":"cebpf4jnsgd1na2vs0mg"},{"bike_id":"c46183ac-8cca-4cdf-a8a9-22b7c63cf27e","system_id":"levelo_inurba_marseille","lat":43.28869,"lon":5.35846,"is_reserved":false,"is_disabled":true,"rental_uris":{"android":"levelo://app?vid=c46183ac-8cca-4cdf-a8a9-22b7c63cf27e","ios":"levelo://app?vid=c46183ac-8cca-4cdf-a8a9-22b7c63cf27e"},"vehicle_type_id":"4","last_reported":1749532278,"current_range_meters":14000,"station_id":"ce4bhb12rcd13ifvqem0","pricing_plan_id":"cebpf4jnsgd1na2vs0mg"},{"bike_id":"6d7846b8-8c63-4a95-abfe-b504a0e7f6a5","system_id":"levelo_inurba_marseille","lat":43.30604,"lon":5.3934,"is_reserved":false,"is_disabled":false,"rental_uris":{"android":"levelo://app?vid=6d7846b8-8c63-4a95-abfe-b504a0e7f6a5","ios":"levelo://app?vid=6d7846b8-8c63-4a95-abfe-b504a0e7f6a5"},"vehicle_type_id":"4","last_reported":1749532278,"current_range_meters":14000,"station_id":"ce4bh0p2rcd13ifvqd80","pricing_plan_id":"cebpf4jnsgd1na2vs0mg"},{"bike_id":"c97276cb-ddd3-4fe2-87e0-822d30d01ef4","system_id":"levelo_inurba_marseille","lat":43.31068,"lon":5.38348,"is_reserved":false,"is_disabled":false,"rental_uris":{"android":"levelo://app?vid=c97276cb-ddd3-4fe2-87e0-822d30d01ef4","ios":"levelo://app?vid=c97276cb-ddd3-4fe2-87e0-822d30d01ef4"},"vehicle_type_id":"4","last_reported":1749532278,"current_range_meters":14000,"station_id":"ce4bgv92rcd13ifvqcr0","pricing_plan_id":"cebpf4jnsgd1na2vs0mg"},{"bike_id":"d71e62aa-b960-4994-88e0-d92ede407231","system_id":"levelo_inurba_marseille","lat":43.28556,"lon":5.39494,"is_reserved":false,"is_disabled":false,"rental_uris":{"android":"levelo://app?vid=d71e62aa-b960-4994-88e0-d92ede407231","ios":"levelo://app?vid=d71e62aa-b960-4994-88e0-d92ede407231"},"vehicle_type_id":"4","last_reported":1749532278,"current_range_meters":14400,"station_id":"ce4bh292rcd13ifvqdg0","pricing_plan_id":"cebpf4jnsgd1na2vs0mg"},{"bike_id":"a06a5e76-7a40-4637-ae47-ceef6131d43b","system_id":"levelo_inurba_marseille","lat":43.30283,"lon":5.36977,"is_reserved":false,"is_disabled":false,"rental_uris":{"android":"levelo://app?vid=a06a5e76-7a40-4637-ae47-ceef6131d43b","ios":"levelo://app?vid=a06a5e76-7a40-4637-ae47-ceef6131d43b"},"vehicle_type_id":"4","last_reported":1749532278,"current_range_meters":14400,"station_id":"","pricing_plan_id":"cebpf4jnsgd1na2vs0mg"},{"bike_id":"eba2c017-d17a-4eca-aa92-886ad3c19570","system_id":"levelo_inurba_marseille","lat":43.33419,"lon":5.39732,"is_reserved":false,"is_disabled":false,"rental_uris":{"android":"levelo://app?vid=eba2c017-d17a-4eca-aa92-886ad3c19570","ios":"levelo://app?vid=eba2c017-d17a-4eca-aa92-886ad3c19570"},"vehicle_type_id":"4","last_reported":1749532278,"current_range_meters":14400,"station_id":"","pricing_plan_id":"cebpf4jnsgd1na2vs0mg"},{"bike_id":"456fd0fb-6b00-49e3-944b-55516afdf508","system_id":"levelo_inurba_marseille","lat":43.28277,"lon":5.350855,"is_reserved":false,"is_disabled":true,"rental_uris":{"android":"levelo://app?vid=456fd0fb-6b00-49e3-944b-55516afdf508","ios":"levelo://app?vid=456fd0fb-6b00-49e3-944b-55516afdf508"},"vehicle_type_id":"4","last_reported":1749532278,"current_range_meters":14400,"station_id":"ce4bhbp2rcd13ifvqerg","pricing_plan_id":"cebpf4jnsgd1na2vs0mg"},{"bike_id":"ff2fa996-4278-49cb-93ad-bb8a2ad0f902","system_id":"levelo_inurba_marseille","lat":43.27377,"lon":5.36256,"is_reserved":false,"is_disabled":false,"rental_uris":{"android":"levelo://app?vid=ff2fa996-4278-49cb-93ad-bb8a2ad0f902","ios":"levelo://app?vid=ff2fa996-4278-49cb-93ad-bb8a2ad0f902"},"vehicle_type_id":"4","last_reported":1749532278,"current_range_meters":14400,"station_id":"ce4bhbh2rcd13ifvqeo0","pricing_plan_id":"cebpf4jnsgd1na2vs0mg"},{"bike_id":"d62a950a-d94a-496a-b77c-2730c1a07144","system_id":"levelo_inurba_marseille","lat":43.28703,"lon":5.39969,"is_reserved":false,"is_disabled":false,"rental_uris":{"android":"levelo://app?vid=d62a950a-d94a-496a-b77c-2730c1a07144","ios":"levelo://app?vid=d62a950a-d94a-496a-b77c-2730c1a07144"},"vehicle_type_id":"4","last_reported":1749532278,"current_range_meters":14400,"station_id":"ce4bho92rcd13ifvqh3g","pricing_plan_id":"cebpf4jnsgd1na2vs0mg"},{"bike_id":"5fc6b75e-5842-4279-a563-a4331bb8775e","system_id":"levelo_inurba_marseille","lat":43.29009,"lon":5.35608,"is_reserved":false,"is_disabled":false,"rental_uris":{"android":"levelo://app?vid=5fc6b75e-5842-4279-a563-a4331bb8775e","ios":"levelo://app?vid=5fc6b75e-5842-4279-a563-a4331bb8775e"},"vehicle_type_id":"4","last_reported":1749532278,"current_range_meters":14000,"station_id":"ce4bhb92rcd13ifvqen0","pricing_plan_id":"cebpf4jnsgd1na2vs0mg"},{"bike_id":"a26f8764-c0b8-4df6-9002-5ba3978882a6","system_id":"levelo_inurba_marseille","lat":43.29009,"lon":5.35637,"is_reserved":false,"is_disabled":true,"rental_uris":{"android":"levelo://app?vid=a26f8764-c0b8-4df6-9002-5ba3978882a6","ios":"levelo://app?vid=a26f8764-c0b8-4df6-9002-5ba3978882a6"},"vehicle_type_id":"4","last_reported":1749532278,"current_range_meters":14400,"station_id":"ce4bhb92rcd13ifvqen0","pricing_plan_id":"cebpf4jnsgd1na2vs0mg"},{"bike_id":"b517a375-3cba-4f61-83db-598bdc7e35c2","system_id":"levelo_inurba_marseille","lat":43.28084,"lon":5.39642,"is_reserved":false,"is_disabled":false,"rental_uris":{"android":"levelo://app?vid=b517a375-3cba-4f61-83db-598bdc7e35c2","ios":"levelo://app?vid=b517a375-3cba-4f61-83db-598bdc7e35c2"},"vehicle_type_id":"4","last_reported":1749532278,"current_range_meters":14400,"station_id":"ce4bho12rcd13ifvqh2g","pricing_plan_id":"cebpf4jnsgd1na2vs0mg"},{"bike_id":"ca27e12a-1f2d-4cf2-be29-12a2b9ff1547","system_id":"levelo_inurba_marseille","lat":43.3172,"lon":5.42391,"is_reserved":false,"is_disabled":false,"rental_uris":{"android":"levelo://app?vid=ca27e12a-1f2d-4cf2-be29-12a2b9ff1547","ios":"levelo://app?vid=ca27e12a-1f2d-4cf2-be29-12a2b9ff1547"},"vehicle_type_id":"4","last_reported":1749532278,"current_range_meters":14400,"station_id":"ce4bhp92rcd13ifvqhbg","pricing_plan_id":"cebpf4jnsgd1na2vs0mg"},{"bike_id":"e925ed2b-babc-4cf9-b75b-bac898fd5635","system_id":"levelo_inurba_marseille","lat":43.21197,"lon":5.35075,"is_reserved":false,"is_disabled":false,"rental_uris":{"android":"levelo://app?vid=e925ed2b-babc-4cf9-b75b-bac898fd5635","ios":"levelo://app?vid=e925ed2b-babc-4cf9-b75b-bac898fd5635"},"vehicle_type_id":"4","last_reported":1749532278,"current_range_meters":14400,"station_id":"st_cvj6sg6p6f1abm77japg","pricing_plan_id":"cebpf4jnsgd1na2vs0mg"},{"bike_id":"3a642daa-c509-4966-b3ed-a2aad9246ee2","system_id":"levelo_inurba_marseille","lat":43.30774,"lon":5.37636,"is_reserved":false,"is_disabled":false,"rental_uris":{"android":"levelo://app?vid=3a642daa-c509-4966-b3ed-a2aad9246ee2","ios":"levelo://app?vid=3a642daa-c509-4966-b3ed-a2aad9246ee2"},"vehicle_type_id":"4","last_reported":1749532278,"current_range_meters":14800,"station_id":"ce4bgv92rcd13ifvqcq0","pricing_plan_id":"cebpf4jnsgd1na2vs0mg"},{"bike_id":"b2a55171-9e11-4eba-beeb-f2e7c5d27df2","system_id":"levelo_inurba_marseille","lat":43.21192,"lon":5.35071,"is_reserved":false,"is_disabled":false,"rental_uris":{"android":"levelo://app?vid=b2a55171-9e11-4eba-beeb-f2e7c5d27df2","ios":"levelo://app?vid=b2a55171-9e11-4eba-beeb-f2e7c5d27df2"},"vehicle_type_id":"4","last_reported":1749532278,"current_range_meters":14800,"station_id":"st_cvj6sg6p6f1abm77japg","pricing_plan_id":"cebpf4jnsgd1na2vs0mg"},{"bike_id":"ec0ad91e-4eb6-466b-8e4b-380d5be20e64","system_id":"levelo_inurba_marseille","lat":43.25524,"lon":5.40888,"is_reserved":false,"is_disabled":false,"rental_uris":{"android":"levelo://app?vid=ec0ad91e-4eb6-466b-8e4b-380d5be20e64","ios":"levelo://app?vid=ec0ad91e-4eb6-466b-8e4b-380d5be20e64"},"vehicle_type_id":"4","last_reported":1749532278,"current_range_meters":15200,"station_id":"","pricing_plan_id":"cebpf4jnsgd1na2vs0mg"},{"bike_id":"39ddcdda-6f05-4e0a-af3a-d5c016ffc082","system_id":"levelo_inurba_marseille","lat":43.286634,"lon":5.386801,"is_reserved":false,"is_disabled":false,"rental_uris":{"android":"levelo://app?vid=39ddcdda-6f05-4e0a-af3a-d5c016ffc082","ios":"levelo://app?vid=39ddcdda-6f05-4e0a-af3a-d5c016ffc082"},"vehicle_type_id":"4","last_reported":1749532278,"current_range_meters":15200,"station_id":"ce4bh492rcd13ifvqdug","pricing_plan_id":"cebpf4jnsgd1na2vs0mg"},{"bike_id":"29a207e6-b15a-414d-8198-522627b7f792","system_id":"levelo_inurba_marseille","lat":43.31367,"lon":5.384981,"is_reserved":false,"is_disabled":false,"rental_uris":{"android":"levelo://app?vid=29a207e6-b15a-414d-8198-522627b7f792","ios":"levelo://app?vid=29a207e6-b15a-414d-8198-522627b7f792"},"vehicle_type_id":"4","last_reported":1749532278,"current_range_meters":15200,"station_id":"ce4bgt92rcd13ifvqcf0","pricing_plan_id":"cebpf4jnsgd1na2vs0mg"},{"bike_id":"3f4b281e-6732-4711-953c-a18c63e62a35","system_id":"levelo_inurba_marseille","lat":43.30152,"lon":5.38075,"is_reserved":false,"is_disabled":false,"rental_uris":{"android":"levelo://app?vid=3f4b281e-6732-4711-953c-a18c63e62a35","ios":"levelo://app?vid=3f4b281e-6732-4711-953c-a18c63e62a35"},"vehicle_type_id":"4","last_reported":1749532278,"current_range_meters":15200,"station_id":"ce4bgjp2rcd13ifvqbh0","pricing_plan_id":"cebpf4jnsgd1na2vs0mg"},{"bike_id":"a39f2bea-0f71-4718-b801-b2aba9057162","system_id":"levelo_inurba_marseille","lat":43.30897,"lon":5.40141,"is_reserved":false,"is_disabled":false,"rental_uris":{"android":"levelo://app?vid=a39f2bea-0f71-4718-b801-b2aba9057162","ios":"levelo://app?vid=a39f2bea-0f71-4718-b801-b2aba9057162"},"vehicle_type_id":"4","last_reported":1749532278,"current_range_meters":15200,"station_id":"ce4bgvp2rcd13ifvqct0","pricing_plan_id":"cebpf4jnsgd1na2vs0mg"},{"bike_id":"c6830c0d-e468-46fa-b9c2-96c1aec56a2d","system_id":"levelo_inurba_marseille","lat":43.27284,"lon":5.43103,"is_reserved":false,"is_disabled":false,"rental_uris":{"android":"levelo://app?vid=c6830c0d-e468-46fa-b9c2-96c1aec56a2d","ios":"levelo://app?vid=c6830c0d-e468-46fa-b9c2-96c1aec56a2d"},"vehicle_type_id":"4","last_reported":1749532278,"current_range_meters":15200,"station_id":"","pricing_plan_id":"cebpf4jnsgd1na2vs0mg"},{"bike_id":"f79292e4-f3c3-4e7a-bd5f-6ad7145387ef","system_id":"levelo_inurba_marseille","lat":43.274195,"lon":5.394178,"is_reserved":false,"is_disabled":true,"rental_uris":{"android":"levelo://app?vid=f79292e4-f3c3-4e7a-bd5f-6ad7145387ef","ios":"levelo://app?vid=f79292e4-f3c3-4e7a-bd5f-6ad7145387ef"},"vehicle_type_id":"4","last_reported":1749532278,"current_range_meters":16000,"station_id":"ce4bhdp2rcd13ifvqf20","pricing_plan_id":"cebpf4jnsgd1na2vs0mg"},{"bike_id":"7fbb8cf5-f563-4c4a-90cf-1a5ac10b01c4","system_id":"levelo_inurba_marseille","lat":43.21204,"lon":5.3507,"is_reserved":false,"is_disabled":false,"rental_uris":{"android":"levelo://app?vid=7fbb8cf5-f563-4c4a-90cf-1a5ac10b01c4","ios":"levelo://app?vid=7fbb8cf5-f563-4c4a-90cf-1a5ac10b01c4"},"vehicle_type_id":"4","last_reported":1749532278,"current_range_meters":16000,"station_id":"st_cvj6sg6p6f1abm77japg","pricing_plan_id":"cebpf4jnsgd1na2vs0mg"},{"bike_id":"b1e8eb07-82b7-4bcc-af1f-8461c1c89166","system_id":"levelo_inurba_marseille","lat":43.31375,"lon":5.38499,"is_reserved":false,"is_disabled":false,"rental_uris":{"android":"levelo://app?vid=b1e8eb07-82b7-4bcc-af1f-8461c1c89166","ios":"levelo://app?vid=b1e8eb07-82b7-4bcc-af1f-8461c1c89166"},"vehicle_type_id":"4","last_reported":1749532278,"current_range_meters":16000,"station_id":"ce4bgt92rcd13ifvqcf0","pricing_plan_id":"cebpf4jnsgd1na2vs0mg"},{"bike_id":"f00192c2-38c1-47e2-b6ea-e386eb93b28d","system_id":"levelo_inurba_marseille","lat":43.296072,"lon":5.380898,"is_reserved":false,"is_disabled":false,"rental_uris":{"android":"levelo://app?vid=f00192c2-38c1-47e2-b6ea-e386eb93b28d","ios":"levelo://app?vid=f00192c2-38c1-47e2-b6ea-e386eb93b28d"},"vehicle_type_id":"4","last_reported":1749532278,"current_range_meters":16000,"station_id":"ce4bgl12rcd13ifvqbo0","pricing_plan_id":"cebpf4jnsgd1na2vs0mg"},{"bike_id":"187b0a7b-e256-4c19-9794-bb250a6c5653","system_id":"levelo_inurba_marseille","lat":43.3184,"lon":5.37948,"is_reserved":false,"is_disabled":false,"rental_uris":{"android":"levelo://app?vid=187b0a7b-e256-4c19-9794-bb250a6c5653","ios":"levelo://app?vid=187b0a7b-e256-4c19-9794-bb250a6c5653"},"vehicle_type_id":"4","last_reported":1749532278,"current_range_meters":16000,"station_id":"","pricing_plan_id":"cebpf4jnsgd1na2vs0mg"},{"bike_id":"426430cb-0a17-44b4-ae06-f0d6427ec850","system_id":"levelo_inurba_marseille","lat":43.30889,"lon":5.3961,"is_reserved":false,"is_disabled":false,"rental_uris":{"android":"levelo://app?vid=426430cb-0a17-44b4-ae06-f0d6427ec850","ios":"levelo://app?vid=426430cb-0a17-44b4-ae06-f0d6427ec850"},"vehicle_type_id":"4","last_reported":1749532278,"current_range_meters":16000,"station_id":"ce4bh012rcd13ifvqcv0","pricing_plan_id":"cebpf4jnsgd1na2vs0mg"},{"bike_id":"25909464-de48-4519-b5c4-e0f831c11d42","system_id":"levelo_inurba_marseille","lat":43.28729,"lon":5.37932,"is_reserved":false,"is_disabled":false,"rental_uris":{"android":"levelo://app?vid=25909464-de48-4519-b5c4-e0f831c11d42","ios":"levelo://app?vid=25909464-de48-4519-b5c4-e0f831c11d42"},"vehicle_type_id":"4","last_reported":1749532278,"current_range_meters":16400,"station_id":"ce4bh9p2rcd13ifvqec0","pricing_plan_id":"cebpf4jnsgd1na2vs0mg"},{"bike_id":"43449477-5d4e-4908-a1f4-19ff2876f22d","system_id":"levelo_inurba_marseille","lat":43.27972,"lon":5.38713,"is_reserved":false,"is_disabled":false,"rental_uris":{"android":"levelo://app?vid=43449477-5d4e-4908-a1f4-19ff2876f22d","ios":"levelo://app?vid=43449477-5d4e-4908-a1f4-19ff2876f22d"},"vehicle_type_id":"4","last_reported":1749532278,"current_range_meters":16400,"station_id":"ce4bhg12rcd13ifvqf80","pricing_plan_id":"cebpf4jnsgd1na2vs0mg"},{"bike_id":"407a03d3-9a1b-41f7-922a-36dbbbdf4c88","system_id":"levelo_inurba_marseille","lat":43.3201,"lon":5.38158,"is_reserved":false,"is_disabled":false,"rental_uris":{"android":"levelo://app?vid=407a03d3-9a1b-41f7-922a-36dbbbdf4c88","ios":"levelo://app?vid=407a03d3-9a1b-41f7-922a-36dbbbdf4c88"},"vehicle_type_id":"4","last_reported":1749532278,"current_range_meters":16400,"station_id":"ce4bhr12rcd13ifvqhpg","pricing_plan_id":"cebpf4jnsgd1na2vs0mg"},{"bike_id":"a7e979e5-7afa-4658-b3e7-2502946031d3","system_id":"levelo_inurba_marseille","lat":43.25521,"lon":5.42043,"is_reserved":false,"is_disabled":false,"rental_uris":{"android":"levelo://app?vid=a7e979e5-7afa-4658-b3e7-2502946031d3","ios":"levelo://app?vid=a7e979e5-7afa-4658-b3e7-2502946031d3"},"vehicle_type_id":"4","last_reported":1749532278,"current_range_meters":16400,"station_id":"","pricing_plan_id":"cebpf4jnsgd1na2vs0mg"},{"bike_id":"dae597e4-75f5-4640-9873-b993fe836f2b","system_id":"levelo_inurba_marseille","lat":43.28442,"lon":5.39181,"is_reserved":false,"is_disabled":false,"rental_uris":{"android":"levelo://app?vid=dae597e4-75f5-4640-9873-b993fe836f2b","ios":"levelo://app?vid=dae597e4-75f5-4640-9873-b993fe836f2b"},"vehicle_type_id":"4","last_reported":1749532278,"current_range_meters":16400,"station_id":"ce4bhoh2rcd13ifvqh5g","pricing_plan_id":"cebpf4jnsgd1na2vs0mg"},{"bike_id":"90b127b9-70de-44b9-831d-86f5f3179ba0","system_id":"levelo_inurba_marseille","lat":43.288556,"lon":5.393249,"is_reserved":false,"is_disabled":false,"rental_uris":{"android":"levelo://app?vid=90b127b9-70de-44b9-831d-86f5f3179ba0","ios":"levelo://app?vid=90b127b9-70de-44b9-831d-86f5f3179ba0"},"vehicle_type_id":"4","last_reported":1749532278,"current_range_meters":16400,"station_id":"ce4bh2p2rcd13ifvqdi0","pricing_plan_id":"cebpf4jnsgd1na2vs0mg"},{"bike_id":"07569b3f-c31c-4cfe-b4e4-44554ef2a881","system_id":"levelo_inurba_marseille","lat":43.29283,"lon":5.40138,"is_reserved":false,"is_disabled":false,"rental_uris":{"android":"levelo://app?vid=07569b3f-c31c-4cfe-b4e4-44554ef2a881","ios":"levelo://app?vid=07569b3f-c31c-4cfe-b4e4-44554ef2a881"},"vehicle_type_id":"4","last_reported":1749532278,"current_range_meters":16400,"station_id":"ce4bh312rcd13ifvqdk0","pricing_plan_id":"cebpf4jnsgd1na2vs0mg"},{"bike_id":"bc85336d-e3f8-4f6c-8585-034696feb45f","system_id":"levelo_inurba_marseille","lat":43.28703,"lon":5.38656,"is_reserved":false,"is_disabled":false,"rental_uris":{"android":"levelo://app?vid=bc85336d-e3f8-4f6c-8585-034696feb45f","ios":"levelo://app?vid=bc85336d-e3f8-4f6c-8585-034696feb45f"},"vehicle_type_id":"4","last_reported":1749532278,"current_range_meters":16400,"station_id":"","pricing_plan_id":"cebpf4jnsgd1na2vs0mg"},{"bike_id":"2a69f8e6-ed04-4f94-bf99-4cae87a630e5","system_id":"levelo_inurba_marseille","lat":43.25124,"lon":5.40328,"is_reserved":false,"is_disabled":false,"rental_uris":{"android":"levelo://app?vid=2a69f8e6-ed04-4f94-bf99-4cae87a630e5","ios":"levelo://app?vid=2a69f8e6-ed04-4f94-bf99-4cae87a630e5"},"vehicle_type_id":"4","last_reported":1749532278,"current_range_meters":16400,"station_id":"ce4bhlh2rcd13ifvqgig","pricing_plan_id":"cebpf4jnsgd1na2vs0mg"},{"bike_id":"a5da21bd-71eb-4d26-82be-85824b99a760","system_id":"levelo_inurba_marseille","lat":43.24074,"lon":5.37761,"is_reserved":false,"is_disabled":false,"rental_uris":{"android":"levelo://app?vid=a5da21bd-71eb-4d26-82be-85824b99a760","ios":"levelo://app?vid=a5da21bd-71eb-4d26-82be-85824b99a760"},"vehicle_type_id":"4","last_reported":1749532278,"current_range_meters":16400,"station_id":"ce4bhnp2rcd13ifvqgvg","pricing_plan_id":"cebpf4jnsgd1na2vs0mg"},{"bike_id":"5478c1b4-4c7d-476f-b8e4-102490ff70cd","system_id":"levelo_inurba_marseille","lat":43.319182,"lon":5.373544,"is_reserved":false,"is_disabled":false,"rental_uris":{"android":"levelo://app?vid=5478c1b4-4c7d-476f-b8e4-102490ff70cd","ios":"levelo://app?vid=5478c1b4-4c7d-476f-b8e4-102490ff70cd"},"vehicle_type_id":"4","last_reported":1749532278,"current_range_meters":16800,"station_id":"","pricing_plan_id":"cebpf4jnsgd1na2vs0mg"},{"bike_id":"0197ce67-c2bc-4d03-bc9a-15f201693bd4","system_id":"levelo_inurba_marseille","lat":43.31755,"lon":5.39031,"is_reserved":false,"is_disabled":false,"rental_uris":{"android":"levelo://app?vid=0197ce67-c2bc-4d03-bc9a-15f201693bd4","ios":"levelo://app?vid=0197ce67-c2bc-4d03-bc9a-15f201693bd4"},"vehicle_type_id":"4","last_reported":1749532278,"current_range_meters":16800,"station_id":"ce4bhqp2rcd13ifvqhng","pricing_plan_id":"cebpf4jnsgd1na2vs0mg"},{"bike_id":"c30dbedc-c866-492b-a092-32c1ee0c1f22","system_id":"levelo_inurba_marseille","lat":43.29538,"lon":5.38542,"is_reserved":false,"is_disabled":true,"rental_uris":{"android":"levelo://app?vid=c30dbedc-c866-492b-a092-32c1ee0c1f22","ios":"levelo://app?vid=c30dbedc-c866-492b-a092-32c1ee0c1f22"},"vehicle_type_id":"4","last_reported":1749532278,"current_range_meters":16800,"station_id":"ce4bgih2rcd13ifvqba0","pricing_plan_id":"cebpf4jnsgd1na2vs0mg"},{"bike_id":"4229be07-5a51-41a1-b4e0-6e1b3ef89c53","system_id":"levelo_inurba_marseille","lat":43.251198,"lon":5.403329,"is_reserved":false,"is_disabled":false,"rental_uris":{"android":"levelo://app?vid=4229be07-5a51-41a1-b4e0-6e1b3ef89c53","ios":"levelo://app?vid=4229be07-5a51-41a1-b4e0-6e1b3ef89c53"},"vehicle_type_id":"4","last_reported":1749532278,"current_range_meters":16800,"station_id":"ce4bhlh2rcd13ifvqgig","pricing_plan_id":"cebpf4jnsgd1na2vs0mg"},{"bike_id":"fad9b98f-1bfd-41b0-be76-c725e485d072","system_id":"levelo_inurba_marseille","lat":43.2119,"lon":5.35072,"is_reserved":false,"is_disabled":false,"rental_uris":{"android":"levelo://app?vid=fad9b98f-1bfd-41b0-be76-c725e485d072","ios":"levelo://app?vid=fad9b98f-1bfd-41b0-be76-c725e485d072"},"vehicle_type_id":"4","last_reported":1749532278,"current_range_meters":16800,"station_id":"st_cvj6sg6p6f1abm77japg","pricing_plan_id":"cebpf4jnsgd1na2vs0mg"},{"bike_id":"f5d0a81b-9965-4f52-8f27-5ee5286b7ec9","system_id":"levelo_inurba_marseille","lat":43.303405,"lon":5.379057,"is_reserved":false,"is_disabled":false,"rental_uris":{"android":"levelo://app?vid=f5d0a81b-9965-4f52-8f27-5ee5286b7ec9","ios":"levelo://app?vid=f5d0a81b-9965-4f52-8f27-5ee5286b7ec9"},"vehicle_type_id":"4","last_reported":1749532278,"current_range_meters":16800,"station_id":"ce4bgup2rcd13ifvqcn0","pricing_plan_id":"cebpf4jnsgd1na2vs0mg"},{"bike_id":"1e20f032-0f6a-40b2-ad29-e4d2225496fa","system_id":"levelo_inurba_marseille","lat":43.3032,"lon":5.37084,"is_reserved":false,"is_disabled":false,"rental_uris":{"android":"levelo://app?vid=1e20f032-0f6a-40b2-ad29-e4d2225496fa","ios":"levelo://app?vid=1e20f032-0f6a-40b2-ad29-e4d2225496fa"},"vehicle_type_id":"4","last_reported":1749532278,"current_range_meters":16800,"station_id":"","pricing_plan_id":"cebpf4jnsgd1na2vs0mg"},{"bike_id":"f47be119-bfcb-4a6a-b442-d0ce0aaf9e3f","system_id":"levelo_inurba_marseille","lat":43.29258,"lon":5.40909,"is_reserved":false,"is_disabled":true,"rental_uris":{"android":"levelo://app?vid=f47be119-bfcb-4a6a-b442-d0ce0aaf9e3f","ios":"levelo://app?vid=f47be119-bfcb-4a6a-b442-d0ce0aaf9e3f"},"vehicle_type_id":"4","last_reported":1749532278,"current_range_meters":16800,"station_id":"ce4bh192rcd13ifvqdc0","pricing_plan_id":"cebpf4jnsgd1na2vs0mg"},{"bike_id":"b1aeb2d5-fe0a-44ee-88db-f38cdfc215e4","system_id":"levelo_inurba_marseille","lat":43.29532,"lon":5.37499,"is_reserved":false,"is_disabled":true,"rental_uris":{"android":"levelo://app?vid=b1aeb2d5-fe0a-44ee-88db-f38cdfc215e4","ios":"levelo://app?vid=b1aeb2d5-fe0a-44ee-88db-f38cdfc215e4"},"vehicle_type_id":"4","last_reported":1749532278,"current_range_meters":16800,"station_id":"ce4bgkp2rcd13ifvqbmg","pricing_plan_id":"cebpf4jnsgd1na2vs0mg"},{"bike_id":"d43fc9cb-cc33-4fa6-9a91-7b9b3d3eac5b","system_id":"levelo_inurba_marseille","lat":43.257336,"lon":5.410746,"is_reserved":false,"is_disabled":false,"rental_uris":{"android":"levelo://app?vid=d43fc9cb-cc33-4fa6-9a91-7b9b3d3eac5b","ios":"levelo://app?vid=d43fc9cb-cc33-4fa6-9a91-7b9b3d3eac5b"},"vehicle_type_id":"4","last_reported":1749532278,"current_range_meters":16800,"station_id":"ce4bhkp2rcd13ifvqgd0","pricing_plan_id":"cebpf4jnsgd1na2vs0mg"},{"bike_id":"48b9e544-61b6-44f8-bf67-b53af4ee54c1","system_id":"levelo_inurba_marseille","lat":43.28106,"lon":5.37842,"is_reserved":false,"is_disabled":false,"rental_uris":{"android":"levelo://app?vid=48b9e544-61b6-44f8-bf67-b53af4ee54c1","ios":"levelo://app?vid=48b9e544-61b6-44f8-bf67-b53af4ee54c1"},"vehicle_type_id":"4","last_reported":1749532278,"current_range_meters":17200,"station_id":"ce4bha12rcd13ifvqee0","pricing_plan_id":"cebpf4jnsgd1na2vs0mg"},{"bike_id":"52b5b854-3ad1-41ca-b9e5-f0208cf81dc6","system_id":"levelo_inurba_marseille","lat":43.310705,"lon":5.38356,"is_reserved":false,"is_disabled":false,"rental_uris":{"android":"levelo://app?vid=52b5b854-3ad1-41ca-b9e5-f0208cf81dc6","ios":"levelo://app?vid=52b5b854-3ad1-41ca-b9e5-f0208cf81dc6"},"vehicle_type_id":"4","last_reported":1749532278,"current_range_meters":17200,"station_id":"ce4bgv92rcd13ifvqcr0","pricing_plan_id":"cebpf4jnsgd1na2vs0mg"},{"bike_id":"84f5a926-1dd6-4535-b647-2764ce0ca103","system_id":"levelo_inurba_marseille","lat":43.32078,"lon":5.36757,"is_reserved":false,"is_disabled":false,"rental_uris":{"android":"levelo://app?vid=84f5a926-1dd6-4535-b647-2764ce0ca103","ios":"levelo://app?vid=84f5a926-1dd6-4535-b647-2764ce0ca103"},"vehicle_type_id":"4","last_reported":1749532278,"current_range_meters":17200,"station_id":"ce4bhrh2rcd13ifvqhug","pricing_plan_id":"cebpf4jnsgd1na2vs0mg"},{"bike_id":"c91783c3-c3b4-4db8-ab1a-36a0bcef1ce9","system_id":"levelo_inurba_marseille","lat":43.287,"lon":5.399842,"is_reserved":false,"is_disabled":false,"rental_uris":{"android":"levelo://app?vid=c91783c3-c3b4-4db8-ab1a-36a0bcef1ce9","ios":"levelo://app?vid=c91783c3-c3b4-4db8-ab1a-36a0bcef1ce9"},"vehicle_type_id":"4","last_reported":1749532278,"current_range_meters":17200,"station_id":"ce4bho92rcd13ifvqh3g","pricing_plan_id":"cebpf4jnsgd1na2vs0mg"},{"bike_id":"3218c5b8-4eac-4b35-8d9b-6837793f038c","system_id":"levelo_inurba_marseille","lat":43.29813,"lon":5.40413,"is_reserved":false,"is_disabled":false,"rental_uris":{"android":"levelo://app?vid=3218c5b8-4eac-4b35-8d9b-6837793f038c","ios":"levelo://app?vid=3218c5b8-4eac-4b35-8d9b-6837793f038c"},"vehicle_type_id":"4","last_reported":1749532278,"current_range_meters":16800,"station_id":"ce4bh112rcd13ifvqd90","pricing_plan_id":"cebpf4jnsgd1na2vs0mg"},{"bike_id":"38f3574c-6050-4f7b-b824-25609fb7b634","system_id":"levelo_inurba_marseille","lat":43.29973,"lon":5.38492,"is_reserved":false,"is_disabled":true,"rental_uris":{"android":"levelo://app?vid=38f3574c-6050-4f7b-b824-25609fb7b634","ios":"levelo://app?vid=38f3574c-6050-4f7b-b824-25609fb7b634"},"vehicle_type_id":"4","last_reported":1749532278,"current_range_meters":17200,"station_id":"ce4bgj92rcd13ifvqbd0","pricing_plan_id":"cebpf4jnsgd1na2vs0mg"},{"bike_id":"74f6790a-387c-41e8-bfd4-e4232685986d","system_id":"levelo_inurba_marseille","lat":43.31079,"lon":5.38365,"is_reserved":false,"is_disabled":false,"rental_uris":{"android":"levelo://app?vid=74f6790a-387c-41e8-bfd4-e4232685986d","ios":"levelo://app?vid=74f6790a-387c-41e8-bfd4-e4232685986d"},"vehicle_type_id":"4","last_reported":1749532278,"current_range_meters":17600,"station_id":"ce4bgv92rcd13ifvqcr0","pricing_plan_id":"cebpf4jnsgd1na2vs0mg"},{"bike_id":"dd811bf3-0181-407a-8576-29b1b5c691ec","system_id":"levelo_inurba_marseille","lat":43.29601,"lon":5.427168,"is_reserved":false,"is_disabled":false,"rental_uris":{"android":"levelo://app?vid=dd811bf3-0181-407a-8576-29b1b5c691ec","ios":"levelo://app?vid=dd811bf3-0181-407a-8576-29b1b5c691ec"},"vehicle_type_id":"4","last_reported":1749532278,"current_range_meters":17600,"station_id":"","pricing_plan_id":"cebpf4jnsgd1na2vs0mg"},{"bike_id":"b0f39c6b-d7da-4e83-881b-6c0b5f546bf0","system_id":"levelo_inurba_marseille","lat":43.31711,"lon":5.40458,"is_reserved":false,"is_disabled":false,"rental_uris":{"android":"levelo://app?vid=b0f39c6b-d7da-4e83-881b-6c0b5f546bf0","ios":"levelo://app?vid=b0f39c6b-d7da-4e83-881b-6c0b5f546bf0"},"vehicle_type_id":"4","last_reported":1749532278,"current_range_meters":17600,"station_id":"ce4bh012rcd13ifvqd00","pricing_plan_id":"cebpf4jnsgd1na2vs0mg"},{"bike_id":"002ad4e8-6140-4bdd-b14b-f38ee707447e","system_id":"levelo_inurba_marseille","lat":43.30987,"lon":5.38578,"is_reserved":false,"is_disabled":false,"rental_uris":{"android":"levelo://app?vid=002ad4e8-6140-4bdd-b14b-f38ee707447e","ios":"levelo://app?vid=002ad4e8-6140-4bdd-b14b-f38ee707447e"},"vehicle_type_id":"4","last_reported":1749532278,"current_range_meters":17600,"station_id":"","pricing_plan_id":"cebpf4jnsgd1na2vs0mg"},{"bike_id":"be180ca3-3ac2-4f91-8499-4a129826eed4","system_id":"levelo_inurba_marseille","lat":43.28613,"lon":5.351145,"is_reserved":false,"is_disabled":false,"rental_uris":{"android":"levelo://app?vid=be180ca3-3ac2-4f91-8499-4a129826eed4","ios":"levelo://app?vid=be180ca3-3ac2-4f91-8499-4a129826eed4"},"vehicle_type_id":"4","last_reported":1749532278,"current_range_meters":17600,"station_id":"ce4bhch2rcd13ifvqeug","pricing_plan_id":"cebpf4jnsgd1na2vs0mg"},{"bike_id":"371c4004-1947-4f49-8440-b49f77b56132","system_id":"levelo_inurba_marseille","lat":43.32013,"lon":5.38132,"is_reserved":false,"is_disabled":true,"rental_uris":{"android":"levelo://app?vid=371c4004-1947-4f49-8440-b49f77b56132","ios":"levelo://app?vid=371c4004-1947-4f49-8440-b49f77b56132"},"vehicle_type_id":"4","last_reported":1749532278,"current_range_meters":17600,"station_id":"ce4bhr12rcd13ifvqhpg","pricing_plan_id":"cebpf4jnsgd1na2vs0mg"},{"bike_id":"aff08a3c-f634-48cc-8e17-49555c45191d","system_id":"levelo_inurba_marseille","lat":43.30422,"lon":5.39747,"is_reserved":false,"is_disabled":false,"rental_uris":{"android":"levelo://app?vid=aff08a3c-f634-48cc-8e17-49555c45191d","ios":"levelo://app?vid=aff08a3c-f634-48cc-8e17-49555c45191d"},"vehicle_type_id":"4","last_reported":1749532278,"current_range_meters":17600,"station_id":"ce4bh092rcd13ifvqd20","pricing_plan_id":"cebpf4jnsgd1na2vs0mg"},{"bike_id":"55ef8b12-c006-4911-821c-c74b36d61539","system_id":"levelo_inurba_marseille","lat":43.32384,"lon":5.38885,"is_reserved":false,"is_disabled":false,"rental_uris":{"android":"levelo://app?vid=55ef8b12-c006-4911-821c-c74b36d61539","ios":"levelo://app?vid=55ef8b12-c006-4911-821c-c74b36d61539"},"vehicle_type_id":"4","last_reported":1749532278,"current_range_meters":17600,"station_id":"ce4bhqp2rcd13ifvqhog","pricing_plan_id":"cebpf4jnsgd1na2vs0mg"},{"bike_id":"a5b3008d-4885-415a-b7a5-954036b89bda","system_id":"levelo_inurba_marseille","lat":43.27812,"lon":5.40712,"is_reserved":false,"is_disabled":false,"rental_uris":{"android":"levelo://app?vid=a5b3008d-4885-415a-b7a5-954036b89bda","ios":"levelo://app?vid=a5b3008d-4885-415a-b7a5-954036b89bda"},"vehicle_type_id":"4","last_reported":1749532278,"current_range_meters":18000,"station_id":"ce4bhnh2rcd13ifvqgtg","pricing_plan_id":"cebpf4jnsgd1na2vs0mg"},{"bike_id":"ff7270b8-3612-4178-90ca-533a887b55d6","system_id":"levelo_inurba_marseille","lat":43.28735,"lon":5.39972,"is_reserved":false,"is_disabled":false,"rental_uris":{"android":"levelo://app?vid=ff7270b8-3612-4178-90ca-533a887b55d6","ios":"levelo://app?vid=ff7270b8-3612-4178-90ca-533a887b55d6"},"vehicle_type_id":"4","last_reported":1749532278,"current_range_meters":18000,"station_id":"ce4bho92rcd13ifvqh3g","pricing_plan_id":"cebpf4jnsgd1na2vs0mg"},{"bike_id":"ebb28891-6b40-4636-b516-45822f45403f","system_id":"levelo_inurba_marseille","lat":43.2928,"lon":5.40131,"is_reserved":false,"is_disabled":false,"rental_uris":{"android":"levelo://app?vid=ebb28891-6b40-4636-b516-45822f45403f","ios":"levelo://app?vid=ebb28891-6b40-4636-b516-45822f45403f"},"vehicle_type_id":"4","last_reported":1749532278,"current_range_meters":18000,"station_id":"ce4bh312rcd13ifvqdk0","pricing_plan_id":"cebpf4jnsgd1na2vs0mg"},{"bike_id":"0c35a2fd-4cf2-43de-8b7d-8164ab5ae5df","system_id":"levelo_inurba_marseille","lat":43.30184,"lon":5.38078,"is_reserved":false,"is_disabled":false,"rental_uris":{"android":"levelo://app?vid=0c35a2fd-4cf2-43de-8b7d-8164ab5ae5df","ios":"levelo://app?vid=0c35a2fd-4cf2-43de-8b7d-8164ab5ae5df"},"vehicle_type_id":"4","last_reported":1749532278,"current_range_meters":18000,"station_id":"ce4bgjp2rcd13ifvqbh0","pricing_plan_id":"cebpf4jnsgd1na2vs0mg"},{"bike_id":"74e7f01d-e1c7-48d9-b3f1-726dbcb3bacc","system_id":"levelo_inurba_marseille","lat":43.3093,"lon":5.40141,"is_reserved":false,"is_disabled":false,"rental_uris":{"android":"levelo://app?vid=74e7f01d-e1c7-48d9-b3f1-726dbcb3bacc","ios":"levelo://app?vid=74e7f01d-e1c7-48d9-b3f1-726dbcb3bacc"},"vehicle_type_id":"4","last_reported":1749532278,"current_range_meters":18000,"station_id":"ce4bgvp2rcd13ifvqct0","pricing_plan_id":"cebpf4jnsgd1na2vs0mg"},{"bike_id":"ba2a2ed5-8856-4ca4-a27a-aaafc7febda2","system_id":"levelo_inurba_marseille","lat":43.23183,"lon":5.40003,"is_reserved":false,"is_disabled":false,"rental_uris":{"android":"levelo://app?vid=ba2a2ed5-8856-4ca4-a27a-aaafc7febda2","ios":"levelo://app?vid=ba2a2ed5-8856-4ca4-a27a-aaafc7febda2"},"vehicle_type_id":"4","last_reported":1749532278,"current_range_meters":18000,"station_id":"ce4bhn12rcd13ifvqgqg","pricing_plan_id":"cebpf4jnsgd1na2vs0mg"},{"bike_id":"2d99d3e6-e8d3-40d6-9516-cf195e9cc006","system_id":"levelo_inurba_marseille","lat":43.298773,"lon":5.397519,"is_reserved":false,"is_disabled":false,"rental_uris":{"android":"levelo://app?vid=2d99d3e6-e8d3-40d6-9516-cf195e9cc006","ios":"levelo://app?vid=2d99d3e6-e8d3-40d6-9516-cf195e9cc006"},"vehicle_type_id":"4","last_reported":1749532278,"current_range_meters":18800,"station_id":"ce4bh0h2rcd13ifvqd50","pricing_plan_id":"cebpf4jnsgd1na2vs0mg"},{"bike_id":"74270b3d-89a4-4e3c-976c-62373a4ee1b7","system_id":"levelo_inurba_marseille","lat":43.305465,"lon":5.365361,"is_reserved":false,"is_disabled":true,"rental_uris":{"android":"levelo://app?vid=74270b3d-89a4-4e3c-976c-62373a4ee1b7","ios":"levelo://app?vid=74270b3d-89a4-4e3c-976c-62373a4ee1b7"},"vehicle_type_id":"4","last_reported":1749532278,"current_range_meters":18800,"station_id":"ce4bgs12rcd13ifvqcag","pricing_plan_id":"cebpf4jnsgd1na2vs0mg"},{"bike_id":"1c5e2e11-6e41-4bb7-b985-ece6311b40b6","system_id":"levelo_inurba_marseille","lat":43.27498,"lon":5.42452,"is_reserved":false,"is_disabled":false,"rental_uris":{"android":"levelo://app?vid=1c5e2e11-6e41-4bb7-b985-ece6311b40b6","ios":"levelo://app?vid=1c5e2e11-6e41-4bb7-b985-ece6311b40b6"},"vehicle_type_id":"4","last_reported":1749532278,"current_range_meters":18800,"station_id":"ce4bhn92rcd13ifvqgrg","pricing_plan_id":"cebpf4jnsgd1na2vs0mg"},{"bike_id":"33346a69-676e-48b8-a415-bc414816f32e","system_id":"levelo_inurba_marseille","lat":43.28854,"lon":5.39308,"is_reserved":false,"is_disabled":false,"rental_uris":{"android":"levelo://app?vid=33346a69-676e-48b8-a415-bc414816f32e","ios":"levelo://app?vid=33346a69-676e-48b8-a415-bc414816f32e"},"vehicle_type_id":"4","last_reported":1749532278,"current_range_meters":18800,"station_id":"ce4bh2p2rcd13ifvqdi0","pricing_plan_id":"cebpf4jnsgd1na2vs0mg"},{"bike_id":"5d3016e0-312c-4b72-8484-4c5d7ec442ef","system_id":"levelo_inurba_marseille","lat":43.368348,"lon":5.343186,"is_reserved":false,"is_disabled":false,"rental_uris":{"android":"levelo://app?vid=5d3016e0-312c-4b72-8484-4c5d7ec442ef","ios":"levelo://app?vid=5d3016e0-312c-4b72-8484-4c5d7ec442ef"},"vehicle_type_id":"4","last_reported":1749532278,"current_range_meters":18800,"station_id":"","pricing_plan_id":"cebpf4jnsgd1na2vs0mg"},{"bike_id":"66438e09-1ca6-4733-ad61-4d34819f93e3","system_id":"levelo_inurba_marseille","lat":43.309233,"lon":5.40149,"is_reserved":false,"is_disabled":false,"rental_uris":{"android":"levelo://app?vid=66438e09-1ca6-4733-ad61-4d34819f93e3","ios":"levelo://app?vid=66438e09-1ca6-4733-ad61-4d34819f93e3"},"vehicle_type_id":"4","last_reported":1749532278,"current_range_meters":18800,"station_id":"ce4bgvp2rcd13ifvqct0","pricing_plan_id":"cebpf4jnsgd1na2vs0mg"},{"bike_id":"a418f07a-a937-4c58-ab74-70f655f77ed3","system_id":"levelo_inurba_marseille","lat":43.28567,"lon":5.39502,"is_reserved":false,"is_disabled":true,"rental_uris":{"android":"levelo://app?vid=a418f07a-a937-4c58-ab74-70f655f77ed3","ios":"levelo://app?vid=a418f07a-a937-4c58-ab74-70f655f77ed3"},"vehicle_type_id":"4","last_reported":1749532278,"current_range_meters":18800,"station_id":"ce4bh292rcd13ifvqdg0","pricing_plan_id":"cebpf4jnsgd1na2vs0mg"},{"bike_id":"6e5fbc37-0895-46dd-ba78-f3b55603fd08","system_id":"levelo_inurba_marseille","lat":43.23152,"lon":5.3539,"is_reserved":false,"is_disabled":true,"rental_uris":{"android":"levelo://app?vid=6e5fbc37-0895-46dd-ba78-f3b55603fd08","ios":"levelo://app?vid=6e5fbc37-0895-46dd-ba78-f3b55603fd08"},"vehicle_type_id":"4","last_reported":1749532278,"current_range_meters":18800,"station_id":"","pricing_plan_id":"cebpf4jnsgd1na2vs0mg"},{"bike_id":"1acfb620-cad7-48c0-8901-d7a5b74a5b65","system_id":"levelo_inurba_marseille","lat":43.33751,"lon":5.37456,"is_reserved":false,"is_disabled":false,"rental_uris":{"android":"levelo://app?vid=1acfb620-cad7-48c0-8901-d7a5b74a5b65","ios":"levelo://app?vid=1acfb620-cad7-48c0-8901-d7a5b74a5b65"},"vehicle_type_id":"4","last_reported":1749532278,"current_range_meters":18800,"station_id":"","pricing_plan_id":"cebpf4jnsgd1na2vs0mg"},{"bike_id":"336c2633-da53-4f10-8bae-a8346aed5859","system_id":"levelo_inurba_marseille","lat":43.28705,"lon":5.39978,"is_reserved":false,"is_disabled":false,"rental_uris":{"android":"levelo://app?vid=336c2633-da53-4f10-8bae-a8346aed5859","ios":"levelo://app?vid=336c2633-da53-4f10-8bae-a8346aed5859"},"vehicle_type_id":"4","last_reported":1749532278,"current_range_meters":19200,"station_id":"ce4bho92rcd13ifvqh3g","pricing_plan_id":"cebpf4jnsgd1na2vs0mg"},{"bike_id":"07f989b9-32bb-4eab-b567-c58625c6feff","system_id":"levelo_inurba_marseille","lat":43.2707,"lon":5.42274,"is_reserved":false,"is_disabled":false,"rental_uris":{"android":"levelo://app?vid=07f989b9-32bb-4eab-b567-c58625c6feff","ios":"levelo://app?vid=07f989b9-32bb-4eab-b567-c58625c6feff"},"vehicle_type_id":"4","last_reported":1749532278,"current_range_meters":19200,"station_id":"ce4bhk92rcd13ifvqgb0","pricing_plan_id":"cebpf4jnsgd1na2vs0mg"},{"bike_id":"4c744b12-895a-47e9-abb5-a80b97f41a81","system_id":"levelo_inurba_marseille","lat":43.31179,"lon":5.38708,"is_reserved":false,"is_disabled":false,"rental_uris":{"android":"levelo://app?vid=4c744b12-895a-47e9-abb5-a80b97f41a81","ios":"levelo://app?vid=4c744b12-895a-47e9-abb5-a80b97f41a81"},"vehicle_type_id":"4","last_reported":1749532278,"current_range_meters":19200,"station_id":"ce4bgv12rcd13ifvqcp0","pricing_plan_id":"cebpf4jnsgd1na2vs0mg"},{"bike_id":"9e375d07-8100-47a6-9701-00f510cde1eb","system_id":"levelo_inurba_marseille","lat":43.3113,"lon":5.3776,"is_reserved":false,"is_disabled":false,"rental_uris":{"android":"levelo://app?vid=9e375d07-8100-47a6-9701-00f510cde1eb","ios":"levelo://app?vid=9e375d07-8100-47a6-9701-00f510cde1eb"},"vehicle_type_id":"4","last_reported":1749532278,"current_range_meters":19200,"station_id":"ce4bgt92rcd13ifvqcg0","pricing_plan_id":"cebpf4jnsgd1na2vs0mg"},{"bike_id":"ee32de37-b714-401b-9955-e177fd11bf0b","system_id":"levelo_inurba_marseille","lat":43.289874,"lon":5.356463,"is_reserved":false,"is_disabled":true,"rental_uris":{"android":"levelo://app?vid=ee32de37-b714-401b-9955-e177fd11bf0b","ios":"levelo://app?vid=ee32de37-b714-401b-9955-e177fd11bf0b"},"vehicle_type_id":"4","last_reported":1749532278,"current_range_meters":19200,"station_id":"ce4bhb92rcd13ifvqen0","pricing_plan_id":"cebpf4jnsgd1na2vs0mg"},{"bike_id":"ebac909a-a93b-4b12-8ee3-451107ce9368","system_id":"levelo_inurba_marseille","lat":43.31357,"lon":5.38489,"is_reserved":false,"is_disabled":false,"rental_uris":{"android":"levelo://app?vid=ebac909a-a93b-4b12-8ee3-451107ce9368","ios":"levelo://app?vid=ebac909a-a93b-4b12-8ee3-451107ce9368"},"vehicle_type_id":"4","last_reported":1749532278,"current_range_meters":19200,"station_id":"ce4bgt92rcd13ifvqcf0","pricing_plan_id":"cebpf4jnsgd1na2vs0mg"},{"bike_id":"9150832f-1128-4a1f-a7e1-4b6758f62dab","system_id":"levelo_inurba_marseille","lat":43.309236,"lon":5.401431,"is_reserved":false,"is_disabled":false,"rental_uris":{"android":"levelo://app?vid=9150832f-1128-4a1f-a7e1-4b6758f62dab","ios":"levelo://app?vid=9150832f-1128-4a1f-a7e1-4b6758f62dab"},"vehicle_type_id":"4","last_reported":1749532278,"current_range_meters":19200,"station_id":"ce4bgvp2rcd13ifvqct0","pricing_plan_id":"cebpf4jnsgd1na2vs0mg"},{"bike_id":"b605184d-c25a-405a-9254-ae94a647dad1","system_id":"levelo_inurba_marseille","lat":43.2679,"lon":5.39428,"is_reserved":false,"is_disabled":false,"rental_uris":{"android":"levelo://app?vid=b605184d-c25a-405a-9254-ae94a647dad1","ios":"levelo://app?vid=b605184d-c25a-405a-9254-ae94a647dad1"},"vehicle_type_id":"4","last_reported":1749532278,"current_range_meters":19200,"station_id":"ce4bhh12rcd13ifvqfg0","pricing_plan_id":"cebpf4jnsgd1na2vs0mg"},{"bike_id":"53d240b8-360b-4ab2-aef2-29b4644e7bbb","system_id":"levelo_inurba_marseille","lat":43.31364,"lon":5.38465,"is_reserved":false,"is_disabled":false,"rental_uris":{"android":"levelo://app?vid=53d240b8-360b-4ab2-aef2-29b4644e7bbb","ios":"levelo://app?vid=53d240b8-360b-4ab2-aef2-29b4644e7bbb"},"vehicle_type_id":"4","last_reported":1749532278,"current_range_meters":19600,"station_id":"ce4bgt92rcd13ifvqcf0","pricing_plan_id":"cebpf4jnsgd1na2vs0mg"},{"bike_id":"8cccdd4c-8fb1-4d75-b238-90f17786756b","system_id":"levelo_inurba_marseille","lat":43.29534,"lon":5.39397,"is_reserved":false,"is_disabled":false,"rental_uris":{"android":"levelo://app?vid=8cccdd4c-8fb1-4d75-b238-90f17786756b","ios":"levelo://app?vid=8cccdd4c-8fb1-4d75-b238-90f17786756b"},"vehicle_type_id":"4","last_reported":1749532278,"current_range_meters":19600,"station_id":"ce4bh292rcd13ifvqdf0","pricing_plan_id":"cebpf4jnsgd1na2vs0mg"},{"bike_id":"b61f65ab-7e73-4706-bd15-5bdbfb7cbb14","system_id":"levelo_inurba_marseille","lat":43.25601,"lon":5.4127,"is_reserved":false,"is_disabled":false,"rental_uris":{"android":"levelo://app?vid=b61f65ab-7e73-4706-bd15-5bdbfb7cbb14","ios":"levelo://app?vid=b61f65ab-7e73-4706-bd15-5bdbfb7cbb14"},"vehicle_type_id":"4","last_reported":1749532278,"current_range_meters":19600,"station_id":"","pricing_plan_id":"cebpf4jnsgd1na2vs0mg"},{"bike_id":"4895aea3-cb8f-40a0-979c-448b996f13e5","system_id":"levelo_inurba_marseille","lat":43.28997,"lon":5.37614,"is_reserved":false,"is_disabled":false,"rental_uris":{"android":"levelo://app?vid=4895aea3-cb8f-40a0-979c-448b996f13e5","ios":"levelo://app?vid=4895aea3-cb8f-40a0-979c-448b996f13e5"},"vehicle_type_id":"4","last_reported":1749532278,"current_range_meters":19600,"station_id":"","pricing_plan_id":"cebpf4jnsgd1na2vs0mg"},{"bike_id":"3105d078-bc60-4605-8779-ea2136f871f9","system_id":"levelo_inurba_marseille","lat":43.289421,"lon":5.366306,"is_reserved":false,"is_disabled":true,"rental_uris":{"android":"levelo://app?vid=3105d078-bc60-4605-8779-ea2136f871f9","ios":"levelo://app?vid=3105d078-bc60-4605-8779-ea2136f871f9"},"vehicle_type_id":"4","last_reported":1749532278,"current_range_meters":19600,"station_id":"ce4bhap2rcd13ifvqek0","pricing_plan_id":"cebpf4jnsgd1na2vs0mg"},{"bike_id":"72c1ffbe-b6ca-406d-960d-a9616882f308","system_id":"levelo_inurba_marseille","lat":43.24231,"lon":5.3987,"is_reserved":false,"is_disabled":false,"rental_uris":{"android":"levelo://app?vid=72c1ffbe-b6ca-406d-960d-a9616882f308","ios":"levelo://app?vid=72c1ffbe-b6ca-406d-960d-a9616882f308"},"vehicle_type_id":"4","last_reported":1749532278,"current_range_meters":19600,"station_id":"ce4bhn12rcd13ifvqgpg","pricing_plan_id":"cebpf4jnsgd1na2vs0mg"},{"bike_id":"b250ebbd-9a5e-43c9-8fa5-3d6e14c84121","system_id":"levelo_inurba_marseille","lat":43.317136,"lon":5.37781,"is_reserved":false,"is_disabled":true,"rental_uris":{"android":"levelo://app?vid=b250ebbd-9a5e-43c9-8fa5-3d6e14c84121","ios":"levelo://app?vid=b250ebbd-9a5e-43c9-8fa5-3d6e14c84121"},"vehicle_type_id":"4","last_reported":1749532278,"current_range_meters":19600,"station_id":"ce4bgth2rcd13ifvqch0","pricing_plan_id":"cebpf4jnsgd1na2vs0mg"},{"bike_id":"c24128ee-cd14-41fb-849a-bbed2f9cd4b1","system_id":"levelo_inurba_marseille","lat":43.31483,"lon":5.37306,"is_reserved":false,"is_disabled":false,"rental_uris":{"android":"levelo://app?vid=c24128ee-cd14-41fb-849a-bbed2f9cd4b1","ios":"levelo://app?vid=c24128ee-cd14-41fb-849a-bbed2f9cd4b1"},"vehicle_type_id":"4","last_reported":1749532278,"current_range_meters":19600,"station_id":"ce4bgt12rcd13ifvqcd0","pricing_plan_id":"cebpf4jnsgd1na2vs0mg"},{"bike_id":"cff174c6-6ba3-44b0-a9d2-aee572f9c64a","system_id":"levelo_inurba_marseille","lat":43.29719,"lon":5.3612,"is_reserved":false,"is_disabled":false,"rental_uris":{"android":"levelo://app?vid=cff174c6-6ba3-44b0-a9d2-aee572f9c64a","ios":"levelo://app?vid=cff174c6-6ba3-44b0-a9d2-aee572f9c64a"},"vehicle_type_id":"4","last_reported":1749532278,"current_range_meters":19600,"station_id":"","pricing_plan_id":"cebpf4jnsgd1na2vs0mg"},{"bike_id":"1353b2c1-3b82-4cf3-b94e-0b1d61708a81","system_id":"levelo_inurba_marseille","lat":43.30474,"lon":5.37901,"is_reserved":false,"is_disabled":false,"rental_uris":{"android":"levelo://app?vid=1353b2c1-3b82-4cf3-b94e-0b1d61708a81","ios":"levelo://app?vid=1353b2c1-3b82-4cf3-b94e-0b1d61708a81"},"vehicle_type_id":"4","last_reported":1749532278,"current_range_meters":19200,"station_id":"ce4bgup2rcd13ifvqcn0","pricing_plan_id":"cebpf4jnsgd1na2vs0mg"},{"bike_id":"943d5584-43c4-4622-88a1-13322b7c924e","system_id":"levelo_inurba_marseille","lat":43.30887,"lon":5.39627,"is_reserved":false,"is_disabled":false,"rental_uris":{"android":"levelo://app?vid=943d5584-43c4-4622-88a1-13322b7c924e","ios":"levelo://app?vid=943d5584-43c4-4622-88a1-13322b7c924e"},"vehicle_type_id":"4","last_reported":1749532278,"current_range_meters":19600,"station_id":"ce4bh012rcd13ifvqcv0","pricing_plan_id":"cebpf4jnsgd1na2vs0mg"},{"bike_id":"61c3047c-933c-413d-91fb-0a1b2df9ed6e","system_id":"levelo_inurba_marseille","lat":43.29945,"lon":5.36551,"is_reserved":false,"is_disabled":true,"rental_uris":{"android":"levelo://app?vid=61c3047c-933c-413d-91fb-0a1b2df9ed6e","ios":"levelo://app?vid=61c3047c-933c-413d-91fb-0a1b2df9ed6e"},"vehicle_type_id":"4","last_reported":1749532278,"current_range_meters":19600,"station_id":"ce4bgm92rcd13ifvqbr0","pricing_plan_id":"cebpf4jnsgd1na2vs0mg"},{"bike_id":"cc5ec338-8860-46d0-8c03-79ee6f13080b","system_id":"levelo_inurba_marseille","lat":43.302067,"lon":5.389883,"is_reserved":false,"is_disabled":false,"rental_uris":{"android":"levelo://app?vid=cc5ec338-8860-46d0-8c03-79ee6f13080b","ios":"levelo://app?vid=cc5ec338-8860-46d0-8c03-79ee6f13080b"},"vehicle_type_id":"4","last_reported":1749532278,"current_range_meters":20000,"station_id":"","pricing_plan_id":"cebpf4jnsgd1na2vs0mg"},{"bike_id":"0a61a83d-30f6-461d-afb3-c145799620b8","system_id":"levelo_inurba_marseille","lat":43.3248,"lon":5.36564,"is_reserved":false,"is_disabled":false,"rental_uris":{"android":"levelo://app?vid=0a61a83d-30f6-461d-afb3-c145799620b8","ios":"levelo://app?vid=0a61a83d-30f6-461d-afb3-c145799620b8"},"vehicle_type_id":"4","last_reported":1749532278,"current_range_meters":20000,"station_id":"ce4bhs12rcd13ifvqhvg","pricing_plan_id":"cebpf4jnsgd1na2vs0mg"},{"bike_id":"58ec3aed-ce4e-407e-9f67-a8ebcf03f8a9","system_id":"levelo_inurba_marseille","lat":43.24175,"lon":5.39714,"is_reserved":false,"is_disabled":false,"rental_uris":{"android":"levelo://app?vid=58ec3aed-ce4e-407e-9f67-a8ebcf03f8a9","ios":"levelo://app?vid=58ec3aed-ce4e-407e-9f67-a8ebcf03f8a9"},"vehicle_type_id":"4","last_reported":1749532278,"current_range_meters":20000,"station_id":"ce4bhn12rcd13ifvqgpg","pricing_plan_id":"cebpf4jnsgd1na2vs0mg"},{"bike_id":"62ed9f66-38af-49ec-a34e-324f5262e0ee","system_id":"levelo_inurba_marseille","lat":43.23192,"lon":5.39992,"is_reserved":false,"is_disabled":false,"rental_uris":{"android":"levelo://app?vid=62ed9f66-38af-49ec-a34e-324f5262e0ee","ios":"levelo://app?vid=62ed9f66-38af-49ec-a34e-324f5262e0ee"},"vehicle_type_id":"4","last_reported":1749532278,"current_range_meters":19600,"station_id":"ce4bhn12rcd13ifvqgqg","pricing_plan_id":"cebpf4jnsgd1na2vs0mg"},