{"last_updated":1737702533,"ttl":60,"version":"2.2","data":{"bikes":[{"bike_id":"71025e83-daff-40eb-8f70-b8e1fc9300fb","system_id":"levelo_inurba_marseille","lat":43.2293,"lon":5.35394,"is_reserved":false,"is_disabled":false,"rental_uris":{"android":"levelo://app?vid=71025e83-daff-40eb-8f70-b8e1fc9300fb","ios":"levelo://app?vid=71025e83-daff-40eb-8f70-b8e1fc9300fb"},"vehicle_type_id":"4","last_reported":1737702533,"current_range_meters":38000,"station_id":"cpo3532slgdg3j2ikp40","pricing_plan_id":"cebpf4jnsgd1na2vs0mg"},{"bike_id":"8ed5147f-ff24-4b56-b5b5-4ca60e756417","system_id":"levelo_inurba_marseille","lat":43.29049,"lon":5.39979,"is_reserved":false,"is_disabled":false,"rental_uris":{"android":"levelo://app?vid=8ed5147f-ff24-4b56-b5b5-4ca60e756417","ios":"levelo://app?vid=8ed5147f-ff24-4b56-b5b5-4ca60e756417"},"vehicle_type_id":"4","last_reported":1737702533,"current_range_meters":25600,"station_id":"ce4bh392rcd13ifvqdm0","pricing_plan_id":"cebpf4jnsgd1na2vs0mg"},{"bike_id":"9c7eaa63-fad9-42a1-ac6c-648c1755a7f5","system_id":"levelo_inurba_marseille","lat":43.300821,"lon":5.372878,"is_reserved":false,"is_disabled":false,"rental_uris":{"android":"levelo://app?vid=9c7eaa63-fad9-42a1-ac6c-648c1755a7f5","ios":"levelo://app?vid=9c7eaa63-fad9-42a1-ac6c-648c1755a7f5"},"vehicle_type_id":"4","last_reported":1737702533,"current_range_meters":32400,"station_id":"","pricing_plan_id":"cebpf4jnsgd1na2vs0mg"},{"bike_id":"88bc6d52-a61d-497c-9a21-003afc3443d5","system_id":"levelo_inurba_marseille","lat":43.3015,"lon":5.37423,"is_reserved":false,"is_disabled":false,"rental_uris":{"android":"levelo://app?vid=88bc6d52-a61d-497c-9a21-003afc3443d5","ios":"levelo://app?vid=88bc6d52-a61d-497c-9a21-003afc3443d5"},"vehicle_type_id":"4","last_reported":1737702533,"current_range_meters":14400,"station_id":"ce4bgs92rcd13ifvqcc0","pricing_plan_id":"cebpf4jnsgd1na2vs0mg"},{"bike_id":"1469efe9-83df-4dd3-97dc-18ecd622f99a","system_id":"levelo_inurba_marseille","lat":43.2953,"lon":5.38547,"is_reserved":false,"is_disabled":false,"rental_uris":{"android":"levelo://app?vid=1469efe9-83df-4dd3-97dc-18ecd622f99a","ios":"levelo://app?vid=1469efe9-83df-4dd3-97dc-18ecd622f99a"},"vehicle_type_id":"4","last_reported":1737702533,"current_range_meters":10000,"station_id":"ce4bgih2rcd13ifvqba0","pricing_plan_id":"cebpf4jnsgd1na2vs0mg"},{"bike_id":"3ac025a2-df53-4529-8b4d-2a392f680c2c","system_id":"levelo_inurba_marseille","lat":43.26057,"lon":5.39399,"is_reserved":false,"is_disabled":true,"rental_uris":{"android":"levelo://app?vid=3ac025a2-df53-4529-8b4d-2a392f680c2c","ios":"levelo://app?vid=3ac025a2-df53-4529-8b4d-2a392f680c2c"},"vehicle_type_id":"4","last_reported":1737702533,"current_range_meters":1200,"station_id":"ce4bhh92rcd13ifvqfj0","pricing_plan_id":"cebpf4jnsgd1na2vs0mg"},{"bike_id":"d5e872fd-88ad-4d26-bf6b-08aaaf1253ee","system_id":"levelo_inurba_marseille","lat":43.28458,"lon":5.35888,"is_reserved":false,"is_disabled":false,"rental_uris":{"android":"levelo://app?vid=d5e872fd-88ad-4d26-bf6b-08aaaf1253ee","ios":"levelo://app?vid=d5e872fd-88ad-4d26-bf6b-08aaaf1253ee"},"vehicle_type_id":"4","last_reported":1737702533,"current_range_meters":15200,"station_id":"ce4bhah2rcd13ifvqei0","pricing_plan_id":"cebpf4jnsgd1na2vs0mg"},{"bike_id":"7497dcf5-73cc-406e-bab0-a2a6fe692821","system_id":"levelo_inurba_marseille","lat":43.29601,"lon":5.3809,"is_reserved":false,"is_disabled":false,"rental_uris":{"android":"levelo://app?vid=7497dcf5-73cc-406e-bab0-a2a6fe692821","ios":"levelo://app?vid=7497dcf5-73cc-406e-bab0-a2a6fe692821"},"vehicle_type_id":"4","last_reported":1737702533,"current_range_meters":11200,"station_id":"ce4bgl12rcd13ifvqbo0","pricing_plan_id":"cebpf4jnsgd1na2vs0mg"},{"bike_id":"9cc0c7ef-0803-47e3-9731-691efc00014c","system_id":"levelo_inurba_marseille","lat":43.24805,"lon":5.37455,"is_reserved":false,"is_disabled":false,"rental_uris":{"android":"levelo://app?vid=9cc0c7ef-0803-47e3-9731-691efc00014c","ios":"levelo://app?vid=9cc0c7ef-0803-47e3-9731-691efc00014c"},"vehicle_type_id":"4","last_reported":1737702533,"current_range_meters":6400,"station_id":"ce4bhgh2rcd13ifvqfb0","pricing_plan_id":"cebpf4jnsgd1na2vs0mg"},{"bike_id":"b5cb07e6-6ffd-4db4-8954-0084503b2aef","system_id":"levelo_inurba_marseille","lat":43.33023,"lon":5.39041,"is_reserved":false,"is_disabled":false,"rental_uris":{"android":"levelo://app?vid=b5cb07e6-6ffd-4db4-8954-0084503b2aef","ios":"levelo://app?vid=b5cb07e6-6ffd-4db4-8954-0084503b2aef"},"vehicle_type_id":"4","last_reported":1737702533,"current_range_meters":36800,"station_id":"ce4bhr92rcd13ifvqhrg","pricing_plan_id":"cebpf4jnsgd1na2vs0mg"},{"bike_id":"c71bbc0d-9aef-4e5d-8186-791e46cd2b58","system_id":"levelo_inurba_marseille","lat":43.26187,"lon":5.3742,"is_reserved":false,"is_disabled":true,"rental_uris":{"android":"levelo://app?vid=c71bbc0d-9aef-4e5d-8186-791e46cd2b58","ios":"levelo://app?vid=c71bbc0d-9aef-4e5d-8186-791e46cd2b58"},"vehicle_type_id":"4","last_reported":1737702533,"current_range_meters":35200,"station_id":"ce4bhgp2rcd13ifvqfc0","pricing_plan_id":"cebpf4jnsgd1na2vs0mg"},{"bike_id":"fa235921-264c-45fa-9486-36940e44284c","system_id":"levelo_inurba_marseille","lat":43.25577,"lon":5.3823,"is_reserved":false,"is_disabled":false,"rental_uris":{"android":"levelo://app?vid=fa235921-264c-45fa-9486-36940e44284c","ios":"levelo://app?vid=fa235921-264c-45fa-9486-36940e44284c"},"vehicle_type_id":"4","last_reported":1737702533,"current_range_meters":39200,"station_id":"ce4bhih2rcd13ifvqfs0","pricing_plan_id":"cebpf4jnsgd1na2vs0mg"},{"bike_id":"08bb7622-2b11-48f2-b26d-99cb640a6858","system_id":"levelo_inurba_marseille","lat":43.29037,"lon":5.37562,"is_reserved":false,"is_disabled":false,"rental_uris":{"android":"levelo://app?vid=08bb7622-2b11-48f2-b26d-99cb640a6858","ios":"levelo://app?vid=08bb7622-2b11-48f2-b26d-99cb640a6858"},"vehicle_type_id":"4","last_reported":1737702533,"current_range_meters":12400,"station_id":"ce4bh692rcd13ifvqe90","pricing_plan_id":"cebpf4jnsgd1na2vs0mg"},{"bike_id":"1a092bf7-35e4-40a3-a6a3-f4c3e6f23ce6","system_id":"levelo_inurba_marseille","lat":43.28265,"lon":5.35075,"is_reserved":false,"is_disabled":false,"rental_uris":{"android":"levelo://app?vid=1a092bf7-35e4-40a3-a6a3-f4c3e6f23ce6","ios":"levelo://app?vid=1a092bf7-35e4-40a3-a6a3-f4c3e6f23ce6"},"vehicle_type_id":"4","last_reported":1737702533,"current_range_meters":19200,"station_id":"ce4bhbp2rcd13ifvqerg","pricing_plan_id":"cebpf4jnsgd1na2vs0mg"},{"bike_id":"1aec6a7b-dc1b-40f2-9a2e-2132a33ced3a","system_id":"levelo_inurba_marseille","lat":43.28716,"lon":5.37925,"is_reserved":false,"is_disabled":false,"rental_uris":{"android":"levelo://app?vid=1aec6a7b-dc1b-40f2-9a2e-2132a33ced3a","ios":"levelo://app?vid=1aec6a7b-dc1b-40f2-9a2e-2132a33ced3a"},"vehicle_type_id":"4","last_reported":1737702533,"current_range_meters":34800,"station_id":"ce4bh9p2rcd13ifvqec0","pricing_plan_id":"cebpf4jnsgd1na2vs0mg"},{"bike_id":"1472ea52-8fc9-449d-8cdc-fb5de31126e2","system_id":"levelo_inurba_marseille","lat":43.32466,"lon":5.3656,"is_reserved":false,"is_disabled":false,"rental_uris":{"android":"levelo://app?vid=1472ea52-8fc9-449d-8cdc-fb5de31126e2","ios":"levelo://app?vid=1472ea52-8fc9-449d-8cdc-fb5de31126e2"},"vehicle_type_id":"4","last_reported":1737702533,"current_range_meters":27600,"station_id":"ce4bhs12rcd13ifvqhvg","pricing_plan_id":"cebpf4jnsgd1na2vs0mg"},{"bike_id":"a7096c56-ee6c-4caa-8cc5-7bc6b6306671","system_id":"levelo_inurba_marseille","lat":43.313528,"lon":5.36734,"is_reserved":false,"is_disabled":false,"rental_uris":{"android":"levelo://app?vid=a7096c56-ee6c-4caa-8cc5-7bc6b6306671","ios":"levelo://app?vid=a7096c56-ee6c-4caa-8cc5-7bc6b6306671"},"vehicle_type_id":"4","last_reported":1737702533,"current_range_meters":27600,"station_id":"ce4bgr92rcd13ifvqc6g","pricing_plan_id":"cebpf4jnsgd1na2vs0mg"},{"bike_id":"5aa5e00b-558e-4cae-8361-e6e0a7ccd492","system_id":"levelo_inurba_marseille","lat":43.24078,"lon":5.37762,"is_reserved":false,"is_disabled":false,"rental_uris":{"android":"levelo://app?vid=5aa5e00b-558e-4cae-8361-e6e0a7ccd492","ios":"levelo://app?vid=5aa5e00b-558e-4cae-8361-e6e0a7ccd492"},"vehicle_type_id":"4","last_reported":1737702533,"current_range_meters":36400,"station_id":"ce4bhnp2rcd13ifvqgvg","pricing_plan_id":"cebpf4jnsgd1na2vs0mg"},{"bike_id":"056ed343-b9c5-4ee1-9000-c71459c47098","system_id":"levelo_inurba_marseille","lat":43.31685,"lon":5.40476,"is_reserved":false,"is_disabled":false,"rental_uris":{"android":"levelo://app?vid=056ed343-b9c5-4ee1-9000-c71459c47098","ios":"levelo://app?vid=056ed343-b9c5-4ee1-9000-c71459c47098"},"vehicle_type_id":"4","last_reported":1737702533,"current_range_meters":31200,"station_id":"ce4bh012rcd13ifvqd00","pricing_plan_id":"cebpf4jnsgd1na2vs0mg"},{"bike_id":"4f2dad3f-5e7d-43f6-85be-c9c4c6c11dd0","system_id":"levelo_inurba_marseille","lat":43.29032,"lon":5.38645,"is_reserved":false,"is_disabled":false,"rental_uris":{"android":"levelo://app?vid=4f2dad3f-5e7d-43f6-85be-c9c4c6c11dd0","ios":"levelo://app?vid=4f2dad3f-5e7d-43f6-85be-c9c4c6c11dd0"},"vehicle_type_id":"4","last_reported":1737702533,"current_range_meters":15200,"station_id":"ce4bh4p2rcd13ifvqe0g","pricing_plan_id":"cebpf4jnsgd1na2vs0mg"},{"bike_id":"545d0c7e-8955-4a7d-89ad-8eb345691954","system_id":"levelo_inurba_marseille","lat":43.26168,"lon":5.37448,"is_reserved":false,"is_disabled":false,"rental_uris":{"android":"levelo://app?vid=545d0c7e-8955-4a7d-89ad-8eb345691954","ios":"levelo://app?vid=545d0c7e-8955-4a7d-89ad-8eb345691954"},"vehicle_type_id":"4","last_reported":1737702533,"current_range_meters":4000,"station_id":"ce4bhgp2rcd13ifvqfc0","pricing_plan_id":"cebpf4jnsgd1na2vs0mg"},{"bike_id":"d8e8b75f-a794-4d72-85e8-ae788703f778","system_id":"levelo_inurba_marseille","lat":43.30527,"lon":5.36721,"is_reserved":false,"is_disabled":false,"rental_uris":{"android":"levelo://app?vid=d8e8b75f-a794-4d72-85e8-ae788703f778","ios":"levelo://app?vid=d8e8b75f-a794-4d72-85e8-ae788703f778"},"vehicle_type_id":"4","last_reported":1737702533,"current_range_meters":24800,"station_id":"ce4bgrp2rcd13ifvqc9g","pricing_plan_id":"cebpf4jnsgd1na2vs0mg"},{"bike_id":"800072cb-ee31-4842-9e83-7d0a3b152503","system_id":"levelo_inurba_marseille","lat":43.27502,"lon":5.42447,"is_reserved":false,"is_disabled":false,"rental_uris":{"android":"levelo://app?vid=800072cb-ee31-4842-9e83-7d0a3b152503","ios":"levelo://app?vid=800072cb-ee31-4842-9e83-7d0a3b152503"},"vehicle_type_id":"4","last_reported":1737702533,"current_range_meters":22400,"station_id":"ce4bhn92rcd13ifvqgrg","pricing_plan_id":"cebpf4jnsgd1na2vs0mg"},{"bike_id":"0aaa049d-0f24-4e97-8f12-c04bc7a90c66","system_id":"levelo_inurba_marseille","lat":43.30891,"lon":5.39671,"is_reserved":false,"is_disabled":true,"rental_uris":{"android":"levelo://app?vid=0aaa049d-0f24-4e97-8f12-c04bc7a90c66","ios":"levelo://app?vid=0aaa049d-0f24-4e97-8f12-c04bc7a90c66"},"vehicle_type_id":"4","last_reported":1737702533,"current_range_meters":0,"station_id":"ce4bh012rcd13ifvqcv0","pricing_plan_id":"cebpf4jnsgd1na2vs0mg"},{"bike_id":"6b9a489e-02df-4c41-9603-7c0d84fccb8f","system_id":"levelo_inurba_marseille","lat":43.30461,"lon":5.37903,"is_reserved":false,"is_disabled":false,"rental_uris":{"android":"levelo://app?vid=6b9a489e-02df-4c41-9603-7c0d84fccb8f","ios":"levelo://app?vid=6b9a489e-02df-4c41-9603-7c0d84fccb8f"},"vehicle_type_id":"4","last_reported":1737702533,"current_range_meters":32800,"station_id":"ce4bgup2rcd13ifvqcn0","pricing_plan_id":"cebpf4jnsgd1na2vs0mg"},{"bike_id":"1d080c81-be64-45b5-8d33-26eb85c4acc5","system_id":"levelo_inurba_marseille","lat":43.27495,"lon":5.42455,"is_reserved":false,"is_disabled":true,"rental_uris":{"android":"levelo://app?vid=1d080c81-be64-45b5-8d33-26eb85c4acc5","ios":"levelo://app?vid=1d080c81-be64-45b5-8d33-26eb85c4acc5"},"vehicle_type_id":"4","last_reported":1737702533,"current_range_meters":1600,"station_id":"ce4bhn92rcd13ifvqgrg","pricing_plan_id":"cebpf4jnsgd1na2vs0mg"},{"bike_id":"644e1c08-c502-4c85-94d4-d4a064391ff0","system_id":"levelo_inurba_marseille","lat":43.32894,"lon":5.40034,"is_reserved":false,"is_disabled":false,"rental_uris":{"android":"levelo://app?vid=644e1c08-c502-4c85-94d4-d4a064391ff0","ios":"levelo://app?vid=644e1c08-c502-4c85-94d4-d4a064391ff0"},"vehicle_type_id":"4","last_reported":1737702533,"current_range_meters":5600,"station_id":"","pricing_plan_id":"cebpf4jnsgd1na2vs0mg"},{"bike_id":"60d6bd6c-3c1e-4ed7-aea1-57024152bec1","system_id":"levelo_inurba_marseille","lat":43.29825,"lon":5.40431,"is_reserved":false,"is_disabled":false,"rental_uris":{"android":"levelo://app?vid=60d6bd6c-3c1e-4ed7-aea1-57024152bec1","ios":"levelo://app?vid=60d6bd6c-3c1e-4ed7-aea1-57024152bec1"},"vehicle_type_id":"4","last_reported":1737702533,"current_range_meters":38400,"station_id":"ce4bh112rcd13ifvqd90","pricing_plan_id":"cebpf4jnsgd1na2vs0mg"},{"bike_id":"553e4976-b27f-47dc-8e32-f79d8de69447","system_id":"levelo_inurba_marseille","lat":43.28994,"lon":5.35635,"is_reserved":false,"is_disabled":false,"rental_uris":{"android":"levelo://app?vid=553e4976-b27f-47dc-8e32-f79d8de69447","ios":"levelo://app?vid=553e4976-b27f-47dc-8e32-f79d8de69447"},"vehicle_type_id":"4","last_reported":1737702533,"current_range_meters":38800,"station_id":"ce4bhb92rcd13ifvqen0","pricing_plan_id":"cebpf4jnsgd1na2vs0mg"},{"bike_id":"9d48ce81-3b0e-452c-ab70-2037193ccaf1","system_id":"levelo_inurba_marseille","lat":43.26949,"lon":5.38641,"is_reserved":false,"is_disabled":false,"rental_uris":{"android":"levelo://app?vid=9d48ce81-3b0e-452c-ab70-2037193ccaf1","ios":"levelo://app?vid=9d48ce81-3b0e-452c-ab70-2037193ccaf1"},"vehicle_type_id":"4","last_reported":1737702533,"current_range_meters":20800,"station_id":"ce4bhh92rcd13ifvqfh0","pricing_plan_id":"cebpf4jnsgd1na2vs0mg"},{"bike_id":"79d1634a-f611-4b08-8011-de220fa96fe2","system_id":"levelo_inurba_marseille","lat":43.26568,"lon":5.39009,"is_reserved":false,"is_disabled":false,"rental_uris":{"android":"levelo://app?vid=79d1634a-f611-4b08-8011-de220fa96fe2","ios":"levelo://app?vid=79d1634a-f611-4b08-8011-de220fa96fe2"},"vehicle_type_id":"4","last_reported":1737702533,"current_range_meters":27200,"station_id":"ce4bhe12rcd13ifvqf30","pricing_plan_id":"cebpf4jnsgd1na2vs0mg"},{"bike_id":"820d236e-1578-4ddc-b946-1dd3b5ad3eb4","system_id":"levelo_inurba_marseille","lat":43.30888,"lon":5.39649,"is_reserved":false,"is_disabled":false,"rental_uris":{"android":"levelo://app?vid=820d236e-1578-4ddc-b946-1dd3b5ad3eb4","ios":"levelo://app?vid=820d236e-1578-4ddc-b946-1dd3b5ad3eb4"},"vehicle_type_id":"4","last_reported":1737702533,"current_range_meters":38800,"station_id":"ce4bh012rcd13ifvqcv0","pricing_plan_id":"cebpf4jnsgd1na2vs0mg"},{"bike_id":"651de9ba-34f8-4bea-93ad-15a01c05be45","system_id":"levelo_inurba_marseille","lat":43.32094,"lon":5.3678,"is_reserved":false,"is_disabled":false,"rental_uris":{"android":"levelo://app?vid=651de9ba-34f8-4bea-93ad-15a01c05be45","ios":"levelo://app?vid=651de9ba-34f8-4bea-93ad-15a01c05be45"},"vehicle_type_id":"4","last_reported":1737702533,"current_range_meters":32000,"station_id":"ce4bhrh2rcd13ifvqhug","pricing_plan_id":"cebpf4jnsgd1na2vs0mg"},{"bike_id":"2b5f67dd-f0e0-4724-bc4a-a13b0862ca51","system_id":"levelo_inurba_marseille","lat":43.29923,"lon":5.38141,"is_reserved":false,"is_disabled":true,"rental_uris":{"android":"levelo://app?vid=2b5f67dd-f0e0-4724-bc4a-a13b0862ca51","ios":"levelo://app?vid=2b5f67dd-f0e0-4724-bc4a-a13b0862ca51"},"vehicle_type_id":"4","last_reported":1737702533,"current_range_meters":800,"station_id":"ce4bgj12rcd13ifvqbc0","pricing_plan_id":"cebpf4jnsgd1na2vs0mg"},{"bike_id":"df919f89-fed5-4c37-ad82-a346d39144e4","system_id":"levelo_inurba_marseille","lat":43.31331,"lon":5.39696,"is_reserved":false,"is_disabled":true,"rental_uris":{"android":"levelo://app?vid=df919f89-fed5-4c37-ad82-a346d39144e4","ios":"levelo://app?vid=df919f89-fed5-4c37-ad82-a346d39144e4"},"vehicle_type_id":"4","last_reported":1737702533,"current_range_meters":0,"station_id":"ce4bgvp2rcd13ifvqcu0","pricing_plan_id":"cebpf4jnsgd1na2vs0mg"},{"bike_id":"df17b08c-c0a8-4101-b954-a8ea48a23f87","system_id":"levelo_inurba_marseille","lat":43.32537,"lon":5.41424,"is_reserved":false,"is_disabled":false,"rental_uris":{"android":"levelo://app?vid=df17b08c-c0a8-4101-b954-a8ea48a23f87","ios":"levelo://app?vid=df17b08c-c0a8-4101-b954-a8ea48a23f87"},"vehicle_type_id":"4","last_reported":1737702533,"current_range_meters":17600,"station_id":"ce4bhq12rcd13ifvqhhg","pricing_plan_id":"cebpf4jnsgd1na2vs0mg"},{"bike_id":"1fbcfb52-8929-4f0c-a9d8-51ffbe3630c4","system_id":"levelo_inurba_marseille","lat":43.31328,"lon":5.39683,"is_reserved":false,"is_disabled":false,"rental_uris":{"android":"levelo://app?vid=1fbcfb52-8929-4f0c-a9d8-51ffbe3630c4","ios":"levelo://app?vid=1fbcfb52-8929-4f0c-a9d8-51ffbe3630c4"},"vehicle_type_id":"4","last_reported":1737702533,"current_range_meters":30800,"station_id":"ce4bgvp2rcd13ifvqcu0","pricing_plan_id":"cebpf4jnsgd1na2vs0mg"},{"bike_id":"545ed6e3-0d7c-44d7-afc3-19d942ccdead","system_id":"levelo_inurba_marseille","lat":43.28268,"lon":5.35092,"is_reserved":false,"is_disabled":false,"rental_uris":{"android":"levelo://app?vid=545ed6e3-0d7c-44d7-afc3-19d942ccdead","ios":"levelo://app?vid=545ed6e3-0d7c-44d7-afc3-19d942ccdead"},"vehicle_type_id":"4","last_reported":1737702533,"current_range_meters":24400,"station_id":"ce4bhbp2rcd13ifvqerg","pricing_plan_id":"cebpf4jnsgd1na2vs0mg"},{"bike_id":"0af6d497-19c9-433b-9557-19fa7238658c","system_id":"levelo_inurba_marseille","lat":43.27995,"lon":5.38702,"is_reserved":false,"is_disabled":true,"rental_uris":{"android":"levelo://app?vid=0af6d497-19c9-433b-9557-19fa7238658c","ios":"levelo://app?vid=0af6d497-19c9-433b-9557-19fa7238658c"},"vehicle_type_id":"4","last_reported":1737702533,"current_range_meters":36800,"station_id":"ce4bhg12rcd13ifvqf80","pricing_plan_id":"cebpf4jnsgd1na2vs0mg"},{"bike_id":"69abbcdd-97d9-4ecd-bd13-96e1514099da","system_id":"levelo_inurba_marseille","lat":43.30468,"lon":5.37917,"is_reserved":false,"is_disabled":false,"rental_uris":{"android":"levelo://app?vid=69abbcdd-97d9-4ecd-bd13-96e1514099da","ios":"levelo://app?vid=69abbcdd-97d9-4ecd-bd13-96e1514099da"},"vehicle_type_id":"4","last_reported":1737702533,"current_range_meters":30800,"station_id":"ce4bgup2rcd13ifvqcn0","pricing_plan_id":"cebpf4jnsgd1na2vs0mg"},{"bike_id":"781e08dd-496a-4d9a-ad41-4d4f4314f24b","system_id":"levelo_inurba_marseille","lat":43.31711,"lon":5.37737,"is_reserved":false,"is_disabled":false,"rental_uris":{"android":"levelo://app?vid=781e08dd-496a-4d9a-ad41-4d4f4314f24b","ios":"levelo://app?vid=781e08dd-496a-4d9a-ad41-4d4f4314f24b"},"vehicle_type_id":"4","last_reported":1737702533,"current_range_meters":38800,"station_id":"ce4bgth2rcd13ifvqch0","pricing_plan_id":"cebpf4jnsgd1na2vs0mg"},{"bike_id":"ad71516e-a2cc-4e58-881d-c4c81ddbafb7","system_id":"levelo_inurba_marseille","lat":43.2997,"lon":5.385,"is_reserved":false,"is_disabled":false,"rental_uris":{"android":"levelo://app?vid=ad71516e-a2cc-4e58-881d-c4c81ddbafb7","ios":"levelo://app?vid=ad71516e-a2cc-4e58-881d-c4c81ddbafb7"},"vehicle_type_id":"4","last_reported":1737702533,"current_range_meters":6000,"station_id":"ce4bgj92rcd13ifvqbd0","pricing_plan_id":"cebpf4jnsgd1na2vs0mg"},{"bike_id":"cddfddb2-750c-4eb5-81cb-d5e65f4765d7","system_id":"levelo_inurba_marseille","lat":43.24676,"lon":5.424387,"is_reserved":false,"is_disabled":true,"rental_uris":{"android":"levelo://app?vid=cddfddb2-750c-4eb5-81cb-d5e65f4765d7","ios":"levelo://app?vid=cddfddb2-750c-4eb5-81cb-d5e65f4765d7"},"vehicle_type_id":"4","last_reported":1737702533,"current_range_meters":0,"station_id":"","pricing_plan_id":"cebpf4jnsgd1na2vs0mg"},{"bike_id":"d5c0c2cb-98a9-47d2-8872-9a46200ee28b","system_id":"levelo_inurba_marseille","lat":43.29227,"lon":5.36072,"is_reserved":false,"is_disabled":false,"rental_uris":{"android":"levelo://app?vid=d5c0c2cb-98a9-47d2-8872-9a46200ee28b","ios":"levelo://app?vid=d5c0c2cb-98a9-47d2-8872-9a46200ee28b"},"vehicle_type_id":"4","last_reported":1737702533,"current_range_meters":27200,"station_id":"ce4bhbh2rcd13ifvqeqg","pricing_plan_id":"cebpf4jnsgd1na2vs0mg"},{"bike_id":"5e75dd30-ab3b-44d3-8dcb-cb5fd4a0eb65","system_id":"levelo_inurba_marseille","lat":43.24645,"lon":5.38895,"is_reserved":false,"is_disabled":false,"rental_uris":{"android":"levelo://app?vid=5e75dd30-ab3b-44d3-8dcb-cb5fd4a0eb65","ios":"levelo://app?vid=5e75dd30-ab3b-44d3-8dcb-cb5fd4a0eb65"},"vehicle_type_id":"4","last_reported":1737702533,"current_range_meters":36000,"station_id":"ce4bhg12rcd13ifvqf60","pricing_plan_id":"cebpf4jnsgd1na2vs0mg"},{"bike_id":"1f4cc9a1-a6f1-42ee-8f62-d3fd1b2849a6","system_id":"levelo_inurba_marseille","lat":43.23189,"lon":5.39983,"is_reserved":false,"is_disabled":false,"rental_uris":{"android":"levelo://app?vid=1f4cc9a1-a6f1-42ee-8f62-d3fd1b2849a6","ios":"levelo://app?vid=1f4cc9a1-a6f1-42ee-8f62-d3fd1b2849a6"},"vehicle_type_id":"4","last_reported":1737702533,"current_range_meters":5600,"station_id":"ce4bhn12rcd13ifvqgqg","pricing_plan_id":"cebpf4jnsgd1na2vs0mg"},{"bike_id":"92c1a6af-3380-4e04-bec9-7eeb2f93c937","system_id":"levelo_inurba_marseille","lat":43.2749,"lon":5.4246,"is_reserved":false,"is_disabled":false,"rental_uris":{"android":"levelo://app?vid=92c1a6af-3380-4e04-bec9-7eeb2f93c937","ios":"levelo://app?vid=92c1a6af-3380-4e04-bec9-7eeb2f93c937"},"vehicle_type_id":"4","last_reported":1737702533,"current_range_meters":33200,"station_id":"ce4bhn92rcd13ifvqgrg","pricing_plan_id":"cebpf4jnsgd1na2vs0mg"},{"bike_id":"70028081-a6eb-4063-9c3e-108b4f1fc959","system_id":"levelo_inurba_marseille","lat":43.30462,"lon":5.37914,"is_reserved":false,"is_disabled":false,"rental_uris":{"android":"levelo://app?vid=70028081-a6eb-4063-9c3e-108b4f1fc959","ios":"levelo://app?vid=70028081-a6eb-4063-9c3e-108b4f1fc959"},"vehicle_type_id":"4","last_reported":1737702533,"current_range_meters":20400,"station_id":"ce4bgup2rcd13ifvqcn0","pricing_plan_id":"cebpf4jnsgd1na2vs0mg"},{"bike_id":"77a12100-d260-4f7f-997e-94d8d05bfd42","system_id":"levelo_inurba_marseille","lat":43.28037,"lon":5.3694,"is_reserved":false,"is_disabled":false,"rental_uris":{"android":"levelo://app?vid=77a12100-d260-4f7f-997e-94d8d05bfd42","ios":"levelo://app?vid=77a12100-d260-4f7f-997e-94d8d05bfd42"},"vehicle_type_id":"4","last_reported":1737702533,"current_range_meters":9600,"station_id":"ce4bha12rcd13ifvqef0","pricing_plan_id":"cebpf4jnsgd1na2vs0mg"},{"bike_id":"9838cc78-2b53-49d3-ae13-82df62c4fd64","system_id":"levelo_inurba_marseille","lat":43.28444,"lon":5.40936,"is_reserved":false,"is_disabled":true,"rental_uris":{"android":"levelo://app?vid=9838cc78-2b53-49d3-ae13-82df62c4fd64","ios":"levelo://app?vid=9838cc78-2b53-49d3-ae13-82df62c4fd64"},"vehicle_type_id":"4","last_reported":1737702533,"current_range_meters":2000,"station_id":"","pricing_plan_id":"cebpf4jnsgd1na2vs0mg"},{"bike_id":"0a0f4130-dd9c-40e1-a2c7-de25cf0ec651","system_id":"levelo_inurba_marseille","lat":43.3375,"lon":5.37474,"is_reserved":false,"is_disabled":false,"rental_uris":{"android":"levelo://app?vid=0a0f4130-dd9c-40e1-a2c7-de25cf0ec651","ios":"levelo://app?vid=0a0f4130-dd9c-40e1-a2c7-de25cf0ec651"},"vehicle_type_id":"4","last_reported":1737702533,"current_range_meters":38800,"station_id":"","pricing_plan_id":"cebpf4jnsgd1na2vs0mg"},{"bike_id":"d9d67e50-ff60-4024-bb97-06b4cc192a7e","system_id":"levelo_inurba_marseille","lat":43.30213,"lon":5.37519,"is_reserved":false,"is_disabled":true,"rental_uris":{"android":"levelo://app?vid=d9d67e50-ff60-4024-bb97-06b4cc192a7e","ios":"levelo://app?vid=d9d67e50-ff60-4024-bb97-06b4cc192a7e"},"vehicle_type_id":"4","last_reported":1737702533,"current_range_meters":36800,"station_id":"","pricing_plan_id":"cebpf4jnsgd1na2vs0mg"},{"bike_id":"d18ba9c4-301e-4334-ab8c-9102f5285b2b","system_id":"levelo_inurba_marseille","lat":43.2749,"lon":5.42462,"is_reserved":false,"is_disabled":false,"rental_uris":{"android":"levelo://app?vid=d18ba9c4-301e-4334-ab8c-9102f5285b2b","ios":"levelo://app?vid=d18ba9c4-301e-4334-ab8c-9102f5285b2b"},"vehicle_type_id":"4","last_reported":1737702533,"current_range_meters":24400,"station_id":"ce4bhn92rcd13ifvqgrg","pricing_plan_id":"cebpf4jnsgd1na2vs0mg"},{"bike_id":"bf096a89-ee72-4f37-85bd-7b3cf9f0cb41","system_id":"levelo_inurba_marseille","lat":43.31932,"lon":5.37926,"is_reserved":false,"is_disabled":false,"rental_uris":{"android":"levelo://app?vid=bf096a89-ee72-4f37-85bd-7b3cf9f0cb41","ios":"levelo://app?vid=bf096a89-ee72-4f37-85bd-7b3cf9f0cb41"},"vehicle_type_id":"4","last_reported":1737702533,"current_range_meters":36000,"station_id":"","pricing_plan_id":"cebpf4jnsgd1na2vs0mg"},{"bike_id":"7c3bd0e2-676e-4ed4-93b1-815c7a4e0973","system_id":"levelo_inurba_marseille","lat":43.24074,"lon":5.3776,"is_reserved":false,"is_disabled":true,"rental_uris":{"android":"levelo://app?vid=7c3bd0e2-676e-4ed4-93b1-815c7a4e0973","ios":"levelo://app?vid=7c3bd0e2-676e-4ed4-93b1-815c7a4e0973"},"vehicle_type_id":"4","last_reported":1737702533,"current_range_meters":1200,"station_id":"ce4bhnp2rcd13ifvqgvg","pricing_plan_id":"cebpf4jnsgd1na2vs0mg"},{"bike_id":"776fb3e3-f28f-4619-ac36-98ca32e6df3a","system_id":"levelo_inurba_marseille","lat":43.30309,"lon":5.36913,"is_reserved":false,"is_disabled":false,"rental_uris":{"android":"levelo://app?vid=776fb3e3-f28f-4619-ac36-98ca32e6df3a","ios":"levelo://app?vid=776fb3e3-f28f-4619-ac36-98ca32e6df3a"},"vehicle_type_id":"4","last_reported":1737702533,"current_range_meters":34000,"station_id":"ce4bgqh2rcd13ifvqc5g","pricing_plan_id":"cebpf4jnsgd1na2vs0mg"},{"bike_id":"634d56c1-a2c0-4178-97ec-f77ccc52b51c","system_id":"levelo_inurba_marseille","lat":43.23188,"lon":5.39985,"is_reserved":false,"is_disabled":false,"rental_uris":{"android":"levelo://app?vid=634d56c1-a2c0-4178-97ec-f77ccc52b51c","ios":"levelo://app?vid=634d56c1-a2c0-4178-97ec-f77ccc52b51c"},"vehicle_type_id":"4","last_reported":1737702533,"current_range_meters":32400,"station_id":"ce4bhn12rcd13ifvqgqg","pricing_plan_id":"cebpf4jnsgd1na2vs0mg"},{"bike_id":"7da2dc43-ec86-444b-b170-22e5a144ea03","system_id":"levelo_inurba_marseille","lat":43.2857,"lon":5.39495,"is_reserved":false,"is_disabled":false,"rental_uris":{"android":"levelo://app?vid=7da2dc43-ec86-444b-b170-22e5a144ea03","ios":"levelo://app?vid=7da2dc43-ec86-444b-b170-22e5a144ea03"},"vehicle_type_id":"4","last_reported":1737702533,"current_range_meters":38800,"station_id":"ce4bh292rcd13ifvqdg0","pricing_plan_id":"cebpf4jnsgd1na2vs0mg"},{"bike_id":"7a2298db-3181-4dc6-9dc2-6c0b4192a1ea","system_id":"levelo_inurba_marseille","lat":43.31269,"lon":5.40178,"is_reserved":false,"is_disabled":false,"rental_uris":{"android":"levelo://app?vid=7a2298db-3181-4dc6-9dc2-6c0b4192a1ea","ios":"levelo://app?vid=7a2298db-3181-4dc6-9dc2-6c0b4192a1ea"},"vehicle_type_id":"4","last_reported":1737702533,"current_range_meters":3600,"station_id":"ce4bh092rcd13ifvqd30","pricing_plan_id":"cebpf4jnsgd1na2vs0mg"},{"bike_id":"237e1735-32a0-4850-a7d1-c7d378e63926","system_id":"levelo_inurba_marseille","lat":43.24072,"lon":5.37761,"is_reserved":false,"is_disabled":false,"rental_uris":{"android":"levelo://app?vid=237e1735-32a0-4850-a7d1-c7d378e63926","ios":"levelo://app?vid=237e1735-32a0-4850-a7d1-c7d378e63926"},"vehicle_type_id":"4","last_reported":1737702533,"current_range_meters":32800,"station_id":"ce4bhnp2rcd13ifvqgvg","pricing_plan_id":"cebpf4jnsgd1na2vs0mg"},{"bike_id":"ca086e44-bf3e-42cf-9cdd-4fb5146d5c95","system_id":"levelo_inurba_marseille","lat":43.30472,"lon":5.37905,"is_reserved":false,"is_disabled":false,"rental_uris":{"android":"levelo://app?vid=ca086e44-bf3e-42cf-9cdd-4fb5146d5c95","ios":"levelo://app?vid=ca086e44-bf3e-42cf-9cdd-4fb5146d5c95"},"vehicle_type_id":"4","last_reported":1737702533,"current_range_meters":38800,"station_id":"ce4bgup2rcd13ifvqcn0","pricing_plan_id":"cebpf4jnsgd1na2vs0mg"},{"bike_id":"bf232eb6-ff63-4ac8-9eb0-5e3d769ec9cd","system_id":"levelo_inurba_marseille","lat":43.31416,"lon":5.36248,"is_reserved":false,"is_disabled":false,"rental_uris":{"android":"levelo://app?vid=bf232eb6-ff63-4ac8-9eb0-5e3d769ec9cd","ios":"levelo://app?vid=bf232eb6-ff63-4ac8-9eb0-5e3d769ec9cd"},"vehicle_type_id":"4","last_reported":1737702533,"current_range_meters":33600,"station_id":"ce4bgr92rcd13ifvqc6g","pricing_plan_id":"cebpf4jnsgd1na2vs0mg"},{"bike_id":"1f9e9dd7-f28f-4cb0-aff0-74dd18ed4c57","system_id":"levelo_inurba_marseille","lat":43.23957,"lon":5.36641,"is_reserved":false,"is_disabled":false,"rental_uris":{"android":"levelo://app?vid=1f9e9dd7-f28f-4cb0-aff0-74dd18ed4c57","ios":"levelo://app?vid=1f9e9dd7-f28f-4cb0-aff0-74dd18ed4c57"},"vehicle_type_id":"4","last_reported":1737702533,"current_range_meters":9200,"station_id":"ce4bhi12rcd13ifvqfp0","pricing_plan_id":"cebpf4jnsgd1na2vs0mg"},{"bike_id":"58e04e08-346e-461f-85c7-12eadb78d927","system_id":"levelo_inurba_marseille","lat":43.31329,"lon":5.39702,"is_reserved":false,"is_disabled":false,"rental_uris":{"android":"levelo://app?vid=58e04e08-346e-461f-85c7-12eadb78d927","ios":"levelo://app?vid=58e04e08-346e-461f-85c7-12eadb78d927"},"vehicle_type_id":"4","last_reported":1737702533,"current_range_meters":38800,"station_id":"ce4bgvp2rcd13ifvqcu0","pricing_plan_id":"cebpf4jnsgd1na2vs0mg"},{"bike_id":"536484ed-d967-41c5-8f88-22ed70378acb","system_id":"levelo_inurba_marseille","lat":43.274983,"lon":5.397585,"is_reserved":false,"is_disabled":false,"rental_uris":{"android":"levelo://app?vid=536484ed-d967-41c5-8f88-22ed70378acb","ios":"levelo://app?vid=536484ed-d967-41c5-8f88-22ed70378acb"},"vehicle_type_id":"4","last_reported":1737702533,"current_range_meters":6000,"station_id":"","pricing_plan_id":"cebpf4jnsgd1na2vs0mg"},{"bike_id":"8b7c2fe0-1c09-4828-b9f1-f41fd5abc8ad","system_id":"levelo_inurba_marseille","lat":43.29806,"lon":5.38106,"is_reserved":false,"is_disabled":false,"rental_uris":{"android":"levelo://app?vid=8b7c2fe0-1c09-4828-b9f1-f41fd5abc8ad","ios":"levelo://app?vid=8b7c2fe0-1c09-4828-b9f1-f41fd5abc8ad"},"vehicle_type_id":"4","last_reported":1737702533,"current_range_meters":24400,"station_id":"ce4bgip2rcd13ifvqbb0","pricing_plan_id":"cebpf4jnsgd1na2vs0mg"},{"bike_id":"a48a1d35-3f13-45af-a2ef-e29bf30d3d17","system_id":"levelo_inurba_marseille","lat":43.30805,"lon":5.435,"is_reserved":false,"is_disabled":false,"rental_uris":{"android":"levelo://app?vid=a48a1d35-3f13-45af-a2ef-e29bf30d3d17","ios":"levelo://app?vid=a48a1d35-3f13-45af-a2ef-e29bf30d3d17"},"vehicle_type_id":"4","last_reported":1737702533,"current_range_meters":8000,"station_id":"ce4bhph2rcd13ifvqheg","pricing_plan_id":"cebpf4jnsgd1na2vs0mg"},{"bike_id":"050bd42b-0fa4-4ea3-8a02-3c1196960ece","system_id":"levelo_inurba_marseille","lat":43.31648,"lon":5.37423,"is_reserved":false,"is_disabled":false,"rental_uris":{"android":"levelo://app?vid=050bd42b-0fa4-4ea3-8a02-3c1196960ece","ios":"levelo://app?vid=050bd42b-0fa4-4ea3-8a02-3c1196960ece"},"vehicle_type_id":"4","last_reported":1737702533,"current_range_meters":24800,"station_id":"","pricing_plan_id":"cebpf4jnsgd1na2vs0mg"},{"bike_id":"b8e3f34c-b1e0-40d9-833b-11a6b0e6c9c6","system_id":"levelo_inurba_marseille","lat":43.27492,"lon":5.42455,"is_reserved":false,"is_disabled":false,"rental_uris":{"android":"levelo://app?vid=b8e3f34c-b1e0-40d9-833b-11a6b0e6c9c6","ios":"levelo://app?vid=b8e3f34c-b1e0-40d9-833b-11a6b0e6c9c6"},"vehicle_type_id":"4","last_reported":1737702533,"current_range_meters":32400,"station_id":"ce4bhn92rcd13ifvqgrg","pricing_plan_id":"cebpf4jnsgd1na2vs0mg"},{"bike_id":"a86e3ddc-f40c-4132-8858-52acf51c44bd","system_id":"levelo_inurba_marseille","lat":43.30806,"lon":5.38166,"is_reserved":false,"is_disabled":false,"rental_uris":{"android":"levelo://app?vid=a86e3ddc-f40c-4132-8858-52acf51c44bd","ios":"levelo://app?vid=a86e3ddc-f40c-4132-8858-52acf51c44bd"},"vehicle_type_id":"4","last_reported":1737702533,"current_range_meters":35600,"station_id":"ce4bgt12rcd13ifvqce0","pricing_plan_id":"cebpf4jnsgd1na2vs0mg"},{"bike_id":"0ad149d9-6e33-405d-aa3c-5e42e0c0ed7d","system_id":"levelo_inurba_marseille","lat":43.28145,"lon":5.42649,"is_reserved":false,"is_disabled":false,"rental_uris":{"android":"levelo://app?vid=0ad149d9-6e33-405d-aa3c-5e42e0c0ed7d","ios":"levelo://app?vid=0ad149d9-6e33-405d-aa3c-5e42e0c0ed7d"},"vehicle_type_id":"4","last_reported":1737702533,"current_range_meters":33200,"station_id":"ce4bhnh2rcd13ifvqgug","pricing_plan_id":"cebpf4jnsgd1na2vs0mg"},{"bike_id":"2f4fa984-4c44-4974-abb6-1d4b539de1f0","system_id":"levelo_inurba_marseille","lat":43.2867,"lon":5.38659,"is_reserved":false,"is_disabled":true,"rental_uris":{"android":"levelo://app?vid=2f4fa984-4c44-4974-abb6-1d4b539de1f0","ios":"levelo://app?vid=2f4fa984-4c44-4974-abb6-1d4b539de1f0"},"vehicle_type_id":"4","last_reported":1737702533,"current_range_meters":32800,"station_id":"ce4bh492rcd13ifvqdug","pricing_plan_id":"cebpf4jnsgd1na2vs0mg"},{"bike_id":"347dd29e-9a9e-4a37-8ddd-6e2050aaff03","system_id":"levelo_inurba_marseille","lat":43.337341,"lon":5.391964,"is_reserved":false,"is_disabled":false,"rental_uris":{"android":"levelo://app?vid=347dd29e-9a9e-4a37-8ddd-6e2050aaff03","ios":"levelo://app?vid=347dd29e-9a9e-4a37-8ddd-6e2050aaff03"},"vehicle_type_id":"4","last_reported":1737702533,"current_range_meters":38800,"station_id":"ce4bhr92rcd13ifvqhsg","pricing_plan_id":"cebpf4jnsgd1na2vs0mg"},{"bike_id":"e171ea3d-34a7-4bed-9418-eb3dcd6fd5da","system_id":"levelo_inurba_marseille","lat":43.30166,"lon":5.38104,"is_reserved":false,"is_disabled":true,"rental_uris":{"android":"levelo://app?vid=e171ea3d-34a7-4bed-9418-eb3dcd6fd5da","ios":"levelo://app?vid=e171ea3d-34a7-4bed-9418-eb3dcd6fd5da"},"vehicle_type_id":"4","last_reported":1737702533,"current_range_meters":0,"station_id":"ce4bgjp2rcd13ifvqbh0","pricing_plan_id":"cebpf4jnsgd1na2vs0mg"},{"bike_id":"69ae49c8-dae4-483c-a6fa-9d4961c23e96","system_id":"levelo_inurba_marseille","lat":43.25828,"lon":5.39427,"is_reserved":false,"is_disabled":false,"rental_uris":{"android":"levelo://app?vid=69ae49c8-dae4-483c-a6fa-9d4961c23e96","ios":"levelo://app?vid=69ae49c8-dae4-483c-a6fa-9d4961c23e96"},"vehicle_type_id":"4","last_reported":1737702533,"current_range_meters":23200,"station_id":"ce4bhip2rcd13ifvqft0","pricing_plan_id":"cebpf4jnsgd1na2vs0mg"},{"bike_id":"8d629a2a-349e-4f79-9155-46642e1714ff","system_id":"levelo_inurba_marseille","lat":43.28564,"lon":5.39509,"is_reserved":false,"is_disabled":false,"rental_uris":{"android":"levelo://app?vid=8d629a2a-349e-4f79-9155-46642e1714ff","ios":"levelo://app?vid=8d629a2a-349e-4f79-9155-46642e1714ff"},"vehicle_type_id":"4","last_reported":1737702533,"current_range_meters":38800,"station_id":"ce4bh292rcd13ifvqdg0","pricing_plan_id":"cebpf4jnsgd1na2vs0mg"},{"bike_id":"0f29d1f4-f2e5-4e89-bd55-62e38b10dc53","system_id":"levelo_inurba_marseille","lat":43.282761,"lon":5.350568,"is_reserved":false,"is_disabled":false,"rental_uris":{"android":"levelo://app?vid=0f29d1f4-f2e5-4e89-bd55-62e38b10dc53","ios":"levelo://app?vid=0f29d1f4-f2e5-4e89-bd55-62e38b10dc53"},"vehicle_type_id":"4","last_reported":1737702533,"current_range_meters":8400,"station_id":"ce4bhbp2rcd13ifvqerg","pricing_plan_id":"cebpf4jnsgd1na2vs0mg"},{"bike_id":"fc4e4c1b-bfb9-4093-ab86-a90b3b9e08bc","system_id":"levelo_inurba_marseille","lat":43.30469,"lon":5.37905,"is_reserved":false,"is_disabled":false,"rental_uris":{"android":"levelo://app?vid=fc4e4c1b-bfb9-4093-ab86-a90b3b9e08bc","ios":"levelo://app?vid=fc4e4c1b-bfb9-4093-ab86-a90b3b9e08bc"},"vehicle_type_id":"4","last_reported":1737702533,"current_range_meters":25600,"station_id":"ce4bgup2rcd13ifvqcn0","pricing_plan_id":"cebpf4jnsgd1na2vs0mg"},{"bike_id":"90b8a1b1-ad54-458d-9362-f5197bbdf048","system_id":"levelo_inurba_marseille","lat":43.22921,"lon":5.3539,"is_reserved":false,"is_disabled":false,"rental_uris":{"android":"levelo://app?vid=90b8a1b1-ad54-458d-9362-f5197bbdf048","ios":"levelo://app?vid=90b8a1b1-ad54-458d-9362-f5197bbdf048"},"vehicle_type_id":"4","last_reported":1737702533,"current_range_meters":38400,"station_id":"cpo3532slgdg3j2ikp40","pricing_plan_id":"cebpf4jnsgd1na2vs0mg"},{"bike_id":"957c5c39-c969-433b-b7aa-8c4e22652ec2","system_id":"levelo_inurba_marseille","lat":43.26954,"lon":5.38633,"is_reserved":false,"is_disabled":false,"rental_uris":{"android":"levelo://app?vid=957c5c39-c969-433b-b7aa-8c4e22652ec2","ios":"levelo://app?vid=957c5c39-c969-433b-b7aa-8c4e22652ec2"},"vehicle_type_id":"4","last_reported":1737702533,"current_range_meters":38400,"station_id":"ce4bhh92rcd13ifvqfh0","pricing_plan_id":"cebpf4jnsgd1na2vs0mg"},{"bike_id":"c819a682-22bb-4c52-95b4-c01333c32876","system_id":"levelo_inurba_marseille","lat":43.31114,"lon":5.37764,"is_reserved":false,"is_disabled":false,"rental_uris":{"android":"levelo://app?vid=c819a682-22bb-4c52-95b4-c01333c32876","ios":"levelo://app?vid=c819a682-22bb-4c52-95b4-c01333c32876"},"vehicle_type_id":"4","last_reported":1737702533,"current_range_meters":32000,"station_id":"ce4bgt92rcd13ifvqcg0","pricing_plan_id":"cebpf4jnsgd1na2vs0mg"},{"bike_id":"892132d6-6b6c-4d5b-9184-ef22870ce55b","system_id":"levelo_inurba_marseille","lat":43.27491,"lon":5.42458,"is_reserved":false,"is_disabled":false,"rental_uris":{"android":"levelo://app?vid=892132d6-6b6c-4d5b-9184-ef22870ce55b","ios":"levelo://app?vid=892132d6-6b6c-4d5b-9184-ef22870ce55b"},"vehicle_type_id":"4","last_reported":1737702533,"current_range_meters":3600,"station_id":"ce4bhn92rcd13ifvqgrg","pricing_plan_id":"cebpf4jnsgd1na2vs0mg"},{"bike_id":"8ab741be-bc39-4d58-99b5-1e8799530b00","system_id":"levelo_inurba_marseille","lat":43.29795,"lon":5.38092,"is_reserved":false,"is_disabled":false,"rental_uris":{"android":"levelo://app?vid=8ab741be-bc39-4d58-99b5-1e8799530b00","ios":"levelo://app?vid=8ab741be-bc39-4d58-99b5-1e8799530b00"},"vehicle_type_id":"4","last_reported":1737702533,"current_range_meters":37600,"station_id":"ce4bgip2rcd13ifvqbb0","pricing_plan_id":"cebpf4jnsgd1na2vs0mg"},{"bike_id":"a36d67d9-1b22-4bc4-b448-593bdb6036f2","system_id":"levelo_inurba_marseille","lat":43.27807,"lon":5.40709,"is_reserved":false,"is_disabled":false,"rental_uris":{"android":"levelo://app?vid=a36d67d9-1b22-4bc4-b448-593bdb6036f2","ios":"levelo://app?vid=a36d67d9-1b22-4bc4-b448-593bdb6036f2"},"vehicle_type_id":"4","last_reported":1737702533,"current_range_meters":28000,"station_id":"ce4bhnh2rcd13ifvqgtg","pricing_plan_id":"cebpf4jnsgd1na2vs0mg"},{"bike_id":"62069f6c-3dd9-4b79-9f44-941214b1a57f","system_id":"levelo_inurba_marseille","lat":43.29944,"lon":5.36547,"is_reserved":false,"is_disabled":false,"rental_uris":{"android":"levelo://app?vid=62069f6c-3dd9-4b79-9f44-941214b1a57f","ios":"levelo://app?vid=62069f6c-3dd9-4b79-9f44-941214b1a57f"},"vehicle_type_id":"4","last_reported":1737702533,"current_range_meters":38000,"station_id":"ce4bgm92rcd13ifvqbr0","pricing_plan_id":"cebpf4jnsgd1na2vs0mg"},{"bike_id":"2c77bc2f-89f3-46b9-92c6-2417580491e7","system_id":"levelo_inurba_marseille","lat":43.276105,"lon":5.361014,"is_reserved":false,"is_disabled":false,"rental_uris":{"android":"levelo://app?vid=2c77bc2f-89f3-46b9-92c6-2417580491e7","ios":"levelo://app?vid=2c77bc2f-89f3-46b9-92c6-2417580491e7"},"vehicle_type_id":"4","last_reported":1737702533,"current_range_meters":38800,"station_id":"ce4bgj92rcd13ifvqbe0","pricing_plan_id":"cebpf4jnsgd1na2vs0mg"},{"bike_id":"ce90fea6-ff2a-4d0b-bd4f-45ced0acf4c0","system_id":"levelo_inurba_marseille","lat":43.323664,"lon":5.36753,"is_reserved":false,"is_disabled":false,"rental_uris":{"android":"levelo://app?vid=ce90fea6-ff2a-4d0b-bd4f-45ced0acf4c0","ios":"levelo://app?vid=ce90fea6-ff2a-4d0b-bd4f-45ced0acf4c0"},"vehicle_type_id":"4","last_reported":1737702533,"current_range_meters":8400,"station_id":"ce4bhsh2rcd13ifvqi2g","pricing_plan_id":"cebpf4jnsgd1na2vs0mg"},{"bike_id":"17893456-f4cb-4863-80a5-c6ba5b1c5f18","system_id":"levelo_inurba_marseille","lat":43.24073,"lon":5.37765,"is_reserved":false,"is_disabled":false,"rental_uris":{"android":"levelo://app?vid=17893456-f4cb-4863-80a5-c6ba5b1c5f18","ios":"levelo://app?vid=17893456-f4cb-4863-80a5-c6ba5b1c5f18"},"vehicle_type_id":"4","last_reported":1737702533,"current_range_meters":32000,"station_id":"ce4bhnp2rcd13ifvqgvg","pricing_plan_id":"cebpf4jnsgd1na2vs0mg"},{"bike_id":"ab13439f-1c4b-4b83-ac72-9f4e6d1f64cb","system_id":"levelo_inurba_marseille","lat":43.31253,"lon":5.38002,"is_reserved":false,"is_disabled":true,"rental_uris":{"android":"levelo://app?vid=ab13439f-1c4b-4b83-ac72-9f4e6d1f64cb","ios":"levelo://app?vid=ab13439f-1c4b-4b83-ac72-9f4e6d1f64cb"},"vehicle_type_id":"4","last_reported":1737702533,"current_range_meters":8000,"station_id":"","pricing_plan_id":"cebpf4jnsgd1na2vs0mg"},{"bike_id":"431299a0-21ec-4f6a-93fe-0d0fe6e96565","system_id":"levelo_inurba_marseille","lat":43.30305,"lon":5.36908,"is_reserved":false,"is_disabled":false,"rental_uris":{"android":"levelo://app?vid=431299a0-21ec-4f6a-93fe-0d0fe6e96565","ios":"levelo://app?vid=431299a0-21ec-4f6a-93fe-0d0fe6e96565"},"vehicle_type_id":"4","last_reported":1737702533,"current_range_meters":38800,"station_id":"ce4bgqh2rcd13ifvqc5g","pricing_plan_id":"cebpf4jnsgd1na2vs0mg"},{"bike_id":"02394dc5-85af-47df-a8e1-31c154c9e2cc","system_id":"levelo_inurba_marseille","lat":43.23182,"lon":5.39986,"is_reserved":false,"is_disabled":false,"rental_uris":{"android":"levelo://app?vid=02394dc5-85af-47df-a8e1-31c154c9e2cc","ios":"levelo://app?vid=02394dc5-85af-47df-a8e1-31c154c9e2cc"},"vehicle_type_id":"4","last_reported":1737702533,"current_range_meters":37600,"station_id":"ce4bhn12rcd13ifvqgqg","pricing_plan_id":"cebpf4jnsgd1na2vs0mg"},{"bike_id":"48555a19-9927-46f2-ab55-dddb364d57a8","system_id":"levelo_inurba_marseille","lat":43.28713,"lon":5.36094,"is_reserved":false,"is_disabled":false,"rental_uris":{"android":"levelo://app?vid=48555a19-9927-46f2-ab55-dddb364d57a8","ios":"levelo://app?vid=48555a19-9927-46f2-ab55-dddb364d57a8"},"vehicle_type_id":"4","last_reported":1737702533,"current_range_meters":32000,"station_id":"cki0cbj6b192h4jlfktg","pricing_plan_id":"cebpf4jnsgd1na2vs0mg"},{"bike_id":"f727cadd-b012-439d-9f69-5c90e77b0085","system_id":"levelo_inurba_marseille","lat":43.31755,"lon":5.3902,"is_reserved":false,"is_disabled":false,"rental_uris":{"android":"levelo://app?vid=f727cadd-b012-439d-9f69-5c90e77b0085","ios":"levelo://app?vid=f727cadd-b012-439d-9f69-5c90e77b0085"},"vehicle_type_id":"4","last_reported":1737702533,"current_range_meters":9200,"station_id":"ce4bhqp2rcd13ifvqhng","pricing_plan_id":"cebpf4jnsgd1na2vs0mg"},{"bike_id":"f42bc2fa-596f-44fc-97e1-74adb1504b2b","system_id":"levelo_inurba_marseille","lat":43.28358,"lon":5.38105,"is_reserved":false,"is_disabled":false,"rental_uris":{"android":"levelo://app?vid=f42bc2fa-596f-44fc-97e1-74adb1504b2b","ios":"levelo://app?vid=f42bc2fa-596f-44fc-97e1-74adb1504b2b"},"vehicle_type_id":"4","last_reported":1737702533,"current_range_meters":8000,"station_id":"ce4bh412rcd13ifvqdr0","pricing_plan_id":"cebpf4jnsgd1na2vs0mg"},{"bike_id":"78b03264-0c2d-45b5-9b0a-cf7cc454c0c6","system_id":"levelo_inurba_marseille","lat":43.32473,"lon":5.36562,"is_reserved":false,"is_disabled":false,"rental_uris":{"android":"levelo://app?vid=78b03264-0c2d-45b5-9b0a-cf7cc454c0c6","ios":"levelo://app?vid=78b03264-0c2d-45b5-9b0a-cf7cc454c0c6"},"vehicle_type_id":"4","last_reported":1737702533,"current_range_meters":37600,"station_id":"ce4bhs12rcd13ifvqhvg","pricing_plan_id":"cebpf4jnsgd1na2vs0mg"},{"bike_id":"8b8cad2f-0e7c-40af-8c9c-c4805c9fc5c2","system_id":"levelo_inurba_marseille","lat":43.29734,"lon":5.37692,"is_reserved":false,"is_disabled":true,"rental_uris":{"android":"levelo://app?vid=8b8cad2f-0e7c-40af-8c9c-c4805c9fc5c2","ios":"levelo://app?vid=8b8cad2f-0e7c-40af-8c9c-c4805c9fc5c2"},"vehicle_type_id":"4","last_reported":1737702533,"current_range_meters":0,"station_id":"ce4bgkh2rcd13ifvqbl0","pricing_plan_id":"cebpf4jnsgd1na2vs0mg"},{"bike_id":"89bdcf73-8f6d-482b-b788-8e97abd24a1f","system_id":"levelo_inurba_marseille","lat":43.27202,"lon":5.39191,"is_reserved":false,"is_disabled":false,"rental_uris":{"android":"levelo://app?vid=89bdcf73-8f6d-482b-b788-8e97abd24a1f","ios":"levelo://app?vid=89bdcf73-8f6d-482b-b788-8e97abd24a1f"},"vehicle_type_id":"4","last_reported":1737702533,"current_range_meters":12000,"station_id":"ce4bhhp2rcd13ifvqfm0","pricing_plan_id":"cebpf4jnsgd1na2vs0mg"},{"bike_id":"6c4cccf7-41c9-46ed-a849-58513dcefd65","system_id":"levelo_inurba_marseille","lat":43.22924,"lon":5.35396,"is_reserved":false,"is_disabled":false,"rental_uris":{"android":"levelo://app?vid=6c4cccf7-41c9-46ed-a849-58513dcefd65","ios":"levelo://app?vid=6c4cccf7-41c9-46ed-a849-58513dcefd65"},"vehicle_type_id":"4","last_reported":1737702533,"current_range_meters":38800,"station_id":"cpo3532slgdg3j2ikp40","pricing_plan_id":"cebpf4jnsgd1na2vs0mg"},{"bike_id":"dcb53763-c363-4738-9beb-89dbe7656c0d","system_id":"levelo_inurba_marseille","lat":43.30102,"lon":5.39062,"is_reserved":false,"is_disabled":false,"rental_uris":{"android":"levelo://app?vid=dcb53763-c363-4738-9beb-89dbe7656c0d","ios":"levelo://app?vid=dcb53763-c363-4738-9beb-89dbe7656c0d"},"vehicle_type_id":"4","last_reported":1737702533,"current_range_meters":32000,"station_id":"ce4bh192rcd13ifvqdb0","pricing_plan_id":"cebpf4jnsgd1na2vs0mg"},{"bike_id":"d9116d70-9fe4-4bfa-813f-a05c0ef23908","system_id":"levelo_inurba_marseille","lat":43.28568,"lon":5.3949,"is_reserved":false,"is_disabled":false,"rental_uris":{"android":"levelo://app?vid=d9116d70-9fe4-4bfa-813f-a05c0ef23908","ios":"levelo://app?vid=d9116d70-9fe4-4bfa-813f-a05c0ef23908"},"vehicle_type_id":"4","last_reported":1737702533,"current_range_meters":38800,"station_id":"ce4bh292rcd13ifvqdg0","pricing_plan_id":"cebpf4jnsgd1na2vs0mg"},{"bike_id":"ce8f1cb6-0493-4046-a4eb-2ab4d191046d","system_id":"levelo_inurba_marseille","lat":43.32344,"lon":5.38882,"is_reserved":false,"is_disabled":false,"rental_uris":{"android":"levelo://app?vid=ce8f1cb6-0493-4046-a4eb-2ab4d191046d","ios":"levelo://app?vid=ce8f1cb6-0493-4046-a4eb-2ab4d191046d"},"vehicle_type_id":"4","last_reported":1737702533,"current_range_meters":37600,"station_id":"ce4bhqp2rcd13ifvqhog","pricing_plan_id":"cebpf4jnsgd1na2vs0mg"},{"bike_id":"cbb471e3-bbff-4fb4-b20e-b50603922bec","system_id":"levelo_inurba_marseille","lat":43.29017,"lon":5.38136,"is_reserved":false,"is_disabled":false,"rental_uris":{"android":"levelo://app?vid=cbb471e3-bbff-4fb4-b20e-b50603922bec","ios":"levelo://app?vid=cbb471e3-bbff-4fb4-b20e-b50603922bec"},"vehicle_type_id":"4","last_reported":1737702533,"current_range_meters":38800,"station_id":"ce4bh4p2rcd13ifvqe1g","pricing_plan_id":"cebpf4jnsgd1na2vs0mg"},{"bike_id":"d90fa84e-7c68-41a7-ad7b-dfeefc6268f3","system_id":"levelo_inurba_marseille","lat":43.30304,"lon":5.392,"is_reserved":false,"is_disabled":true,"rental_uris":{"android":"levelo://app?vid=d90fa84e-7c68-41a7-ad7b-dfeefc6268f3","ios":"levelo://app?vid=d90fa84e-7c68-41a7-ad7b-dfeefc6268f3"},"vehicle_type_id":"4","last_reported":1737702533,"current_range_meters":0,"station_id":"ce4bgkh2rcd13ifvqbk0","pricing_plan_id":"cebpf4jnsgd1na2vs0mg"},{"bike_id":"91a93a6a-90c2-4b55-8bfa-a5975747e452","system_id":"levelo_inurba_marseille","lat":43.231864,"lon":5.399821,"is_reserved":false,"is_disabled":false,"rental_uris":{"android":"levelo://app?vid=91a93a6a-90c2-4b55-8bfa-a5975747e452","ios":"levelo://app?vid=91a93a6a-90c2-4b55-8bfa-a5975747e452"},"vehicle_type_id":"4","last_reported":1737702533,"current_range_meters":24400,"station_id":"ce4bhn12rcd13ifvqgqg","pricing_plan_id":"cebpf4jnsgd1na2vs0mg"},{"bike_id":"85a3042a-99ef-4a57-92d9-e9fccf7a3989","system_id":"levelo_inurba_marseille","lat":43.30476,"lon":5.37907,"is_reserved":false,"is_disabled":false,"rental_uris":{"android":"levelo://app?vid=85a3042a-99ef-4a57-92d9-e9fccf7a3989","ios":"levelo://app?vid=85a3042a-99ef-4a57-92d9-e9fccf7a3989"},"vehicle_type_id":"4","last_reported":1737702533,"current_range_meters":34800,"station_id":"ce4bgup2rcd13ifvqcn0","pricing_plan_id":"cebpf4jnsgd1na2vs0mg"},{"bike_id":"1cf55402-87c5-435d-85af-2c6c0e9ef152","system_id":"levelo_inurba_marseille","lat":43.324756,"lon":5.365682,"is_reserved":false,"is_disabled":false,"rental_uris":{"android":"levelo://app?vid=1cf55402-87c5-435d-85af-2c6c0e9ef152","ios":"levelo://app?vid=1cf55402-87c5-435d-85af-2c6c0e9ef152"},"vehicle_type_id":"4","last_reported":1737702533,"current_range_meters":38400,"station_id":"ce4bhs12rcd13ifvqhvg","pricing_plan_id":"cebpf4jnsgd1na2vs0mg"},{"bike_id":"85c4b304-0a15-4fc1-b75d-cfc16b5afe60","system_id":"levelo_inurba_marseille","lat":43.22931,"lon":5.3538,"is_reserved":false,"is_disabled":false,"rental_uris":{"android":"levelo://app?vid=85c4b304-0a15-4fc1-b75d-cfc16b5afe60","ios":"levelo://app?vid=85c4b304-0a15-4fc1-b75d-cfc16b5afe60"},"vehicle_type_id":"4","last_reported":1737702533,"current_range_meters":38800,"station_id":"cpo3532slgdg3j2ikp40","pricing_plan_id":"cebpf4jnsgd1na2vs0mg"},{"bike_id":"d9dd5a7a-31e1-406d-8992-41fc2a63e541","system_id":"levelo_inurba_marseille","lat":43.30592,"lon":5.39356,"is_reserved":false,"is_disabled":false,"rental_uris":{"android":"levelo://app?vid=d9dd5a7a-31e1-406d-8992-41fc2a63e541","ios":"levelo://app?vid=d9dd5a7a-31e1-406d-8992-41fc2a63e541"},"vehicle_type_id":"4","last_reported":1737702533,"current_range_meters":4400,"station_id":"ce4bh0p2rcd13ifvqd80","pricing_plan_id":"cebpf4jnsgd1na2vs0mg"},{"bike_id":"f7f20ea8-ac89-40b3-bd17-c73f31722701","system_id":"levelo_inurba_marseille","lat":43.29898,"lon":5.43672,"is_reserved":false,"is_disabled":false,"rental_uris":{"android":"levelo://app?vid=f7f20ea8-ac89-40b3-bd17-c73f31722701","ios":"levelo://app?vid=f7f20ea8-ac89-40b3-bd17-c73f31722701"},"vehicle_type_id":"4","last_reported":1737702533,"current_range_meters":38800,"station_id":"ce4bhpp2rcd13ifvqhfg","pricing_plan_id":"cebpf4jnsgd1na2vs0mg"},{"bike_id":"fb1048b7-e565-4e07-b82a-5f5a5712ce1d","system_id":"levelo_inurba_marseille","lat":43.32104,"lon":5.36768,"is_reserved":false,"is_disabled":false,"rental_uris":{"android":"levelo://app?vid=fb1048b7-e565-4e07-b82a-5f5a5712ce1d","ios":"levelo://app?vid=fb1048b7-e565-4e07-b82a-5f5a5712ce1d"},"vehicle_type_id":"4","last_reported":1737702533,"current_range_meters":38000,"station_id":"ce4bhrh2rcd13ifvqhug","pricing_plan_id":"cebpf4jnsgd1na2vs0mg"},{"bike_id":"2aeb1fe7-2455-4a37-a484-bbbf324c7cf2","system_id":"levelo_inurba_marseille","lat":43.32102,"lon":5.36769,"is_reserved":false,"is_disabled":false,"rental_uris":{"android":"levelo://app?vid=2aeb1fe7-2455-4a37-a484-bbbf324c7cf2","ios":"levelo://app?vid=2aeb1fe7-2455-4a37-a484-bbbf324c7cf2"},"vehicle_type_id":"4","last_reported":1737702533,"current_range_meters":7200,"station_id":"ce4bhrh2rcd13ifvqhug","pricing_plan_id":"cebpf4jnsgd1na2vs0mg"},{"bike_id":"328db5a7-81ca-4512-9a66-fc91e9d79237","system_id":"levelo_inurba_marseille","lat":43.30588,"lon":5.39363,"is_reserved":false,"is_disabled":false,"rental_uris":{"android":"levelo://app?vid=328db5a7-81ca-4512-9a66-fc91e9d79237","ios":"levelo://app?vid=328db5a7-81ca-4512-9a66-fc91e9d79237"},"vehicle_type_id":"4","last_reported":1737702533,"current_range_meters":30400,"station_id":"ce4bh0p2rcd13ifvqd80","pricing_plan_id":"cebpf4jnsgd1na2vs0mg"},{"bike_id":"5cbeeb31-e0c7-4911-9873-3974a5f601e5","system_id":"levelo_inurba_marseille","lat":43.27493,"lon":5.42455,"is_reserved":false,"is_disabled":false,"rental_uris":{"android":"levelo://app?vid=5cbeeb31-e0c7-4911-9873-3974a5f601e5","ios":"levelo://app?vid=5cbeeb31-e0c7-4911-9873-3974a5f601e5"},"vehicle_type_id":"4","last_reported":1737702533,"current_range_meters":28000,"station_id":"ce4bhn92rcd13ifvqgrg","pricing_plan_id":"cebpf4jnsgd1na2vs0mg"},{"bike_id":"2bee5839-72ce-41d2-86cc-c6633236d06e","system_id":"levelo_inurba_marseille","lat":43.27991,"lon":5.4002,"is_reserved":false,"is_disabled":false,"rental_uris":{"android":"levelo://app?vid=2bee5839-72ce-41d2-86cc-c6633236d06e","ios":"levelo://app?vid=2bee5839-72ce-41d2-86cc-c6633236d06e"},"vehicle_type_id":"4","last_reported":1737702533,"current_range_meters":38000,"station_id":"ce4bho92rcd13ifvqh4g","pricing_plan_id":"cebpf4jnsgd1na2vs0mg"},{"bike_id":"4328057e-3d27-4d78-9b16-28e37f2e44c2","system_id":"levelo_inurba_marseille","lat":43.26566,"lon":5.39008,"is_reserved":false,"is_disabled":false,"rental_uris":{"android":"levelo://app?vid=4328057e-3d27-4d78-9b16-28e37f2e44c2","ios":"levelo://app?vid=4328057e-3d27-4d78-9b16-28e37f2e44c2"},"vehicle_type_id":"4","last_reported":1737702533,"current_range_meters":35200,"station_id":"ce4bhe12rcd13ifvqf30","pricing_plan_id":"cebpf4jnsgd1na2vs0mg"},{"bike_id":"60837ace-3f68-4545-be07-1bfdf3443747","system_id":"levelo_inurba_marseille","lat":43.31716,"lon":5.42393,"is_reserved":false,"is_disabled":false,"rental_uris":{"android":"levelo://app?vid=60837ace-3f68-4545-be07-1bfdf3443747","ios":"levelo://app?vid=60837ace-3f68-4545-be07-1bfdf3443747"},"vehicle_type_id":"4","last_reported":1737702533,"current_range_meters":19200,"station_id":"ce4bhp92rcd13ifvqhbg","pricing_plan_id":"cebpf4jnsgd1na2vs0mg"},{"bike_id":"7a55f28a-5a5b-4ca4-9825-dee123c17d08","system_id":"levelo_inurba_marseille","lat":43.32098,"lon":5.36775,"is_reserved":false,"is_disabled":false,"rental_uris":{"android":"levelo://app?vid=7a55f28a-5a5b-4ca4-9825-dee123c17d08","ios":"levelo://app?vid=7a55f28a-5a5b-4ca4-9825-dee123c17d08"},"vehicle_type_id":"4","last_reported":1737702533,"current_range_meters":37600,"station_id":"ce4bhrh2rcd13ifvqhug","pricing_plan_id":"cebpf4jnsgd1na2vs0mg"},{"bike_id":"f724a66b-1250-4401-a00a-2a7cf2111a59","system_id":"levelo_inurba_marseille","lat":43.29047,"lon":5.39965,"is_reserved":false,"is_disabled":false,"rental_uris":{"android":"levelo://app?vid=f724a66b-1250-4401-a00a-2a7cf2111a59","ios":"levelo://app?vid=f724a66b-1250-4401-a00a-2a7cf2111a59"},"vehicle_type_id":"4","last_reported":1737702533,"current_range_meters":36800,"station_id":"ce4bh392rcd13ifvqdm0","pricing_plan_id":"cebpf4jnsgd1na2vs0mg"},{"bike_id":"553fb1e9-2cc4-4af4-b989-6ce7ea1c8a84","system_id":"levelo_inurba_marseille","lat":43.28462,"lon":5.3588,"is_reserved":false,"is_disabled":false,"rental_uris":{"android":"levelo://app?vid=553fb1e9-2cc4-4af4-b989-6ce7ea1c8a84","ios":"levelo://app?vid=553fb1e9-2cc4-4af4-b989-6ce7ea1c8a84"},"vehicle_type_id":"4","last_reported":1737702533,"current_range_meters":38000,"station_id":"ce4bhah2rcd13ifvqei0","pricing_plan_id":"cebpf4jnsgd1na2vs0mg"},{"bike_id":"7ae57d4a-987c-4a94-bf67-7089b41c8d83","system_id":"levelo_inurba_marseille","lat":43.27602,"lon":5.36093,"is_reserved":false,"is_disabled":false,"rental_uris":{"android":"levelo://app?vid=7ae57d4a-987c-4a94-bf67-7089b41c8d83","ios":"levelo://app?vid=7ae57d4a-987c-4a94-bf67-7089b41c8d83"},"vehicle_type_id":"4","last_reported":1737702533,"current_range_meters":38400,"station_id":"ce4bgj92rcd13ifvqbe0","pricing_plan_id":"cebpf4jnsgd1na2vs0mg"},{"bike_id":"30179832-5a65-44ae-a5a5-1af37f487ed1","system_id":"levelo_inurba_marseille","lat":43.31497,"lon":5.37292,"is_reserved":false,"is_disabled":false,"rental_uris":{"android":"levelo://app?vid=30179832-5a65-44ae-a5a5-1af37f487ed1","ios":"levelo://app?vid=30179832-5a65-44ae-a5a5-1af37f487ed1"},"vehicle_type_id":"4","last_reported":1737702533,"current_range_meters":38800,"station_id":"ce4bgt12rcd13ifvqcd0","pricing_plan_id":"cebpf4jnsgd1na2vs0mg"},{"bike_id":"acc9e968-42f2-443f-bb58-cd32856c66f2","system_id":"levelo_inurba_marseille","lat":43.28416,"lon":5.37516,"is_reserved":false,"is_disabled":false,"rental_uris":{"android":"levelo://app?vid=acc9e968-42f2-443f-bb58-cd32856c66f2","ios":"levelo://app?vid=acc9e968-42f2-443f-bb58-cd32856c66f2"},"vehicle_type_id":"4","last_reported":1737702533,"current_range_meters":26000,"station_id":"ce4bh412rcd13ifvqds0","pricing_plan_id":"cebpf4jnsgd1na2vs0mg"},{"bike_id":"a9d5e1db-41a7-4c05-bdc9-54e576288f5a","system_id":"levelo_inurba_marseille","lat":43.3095,"lon":5.39073,"is_reserved":false,"is_disabled":false,"rental_uris":{"android":"levelo://app?vid=a9d5e1db-41a7-4c05-bdc9-54e576288f5a","ios":"levelo://app?vid=a9d5e1db-41a7-4c05-bdc9-54e576288f5a"},"vehicle_type_id":"4","last_reported":1737702533,"current_range_meters":38800,"station_id":"ce4bgup2rcd13ifvqco0","pricing_plan_id":"cebpf4jnsgd1na2vs0mg"},{"bike_id":"df8b68b0-a61c-401e-bc1c-616ed6cec7e0","system_id":"levelo_inurba_marseille","lat":43.26947,"lon":5.38627,"is_reserved":false,"is_disabled":true,"rental_uris":{"android":"levelo://app?vid=df8b68b0-a61c-401e-bc1c-616ed6cec7e0","ios":"levelo://app?vid=df8b68b0-a61c-401e-bc1c-616ed6cec7e0"},"vehicle_type_id":"4","last_reported":1737702533,"current_range_meters":38800,"station_id":"ce4bhh92rcd13ifvqfh0","pricing_plan_id":"cebpf4jnsgd1na2vs0mg"},{"bike_id":"35614ed7-a0df-4792-bca2-a1978fcd9fab","system_id":"levelo_inurba_marseille","lat":43.30802,"lon":5.43527,"is_reserved":false,"is_disabled":false,"rental_uris":{"android":"levelo://app?vid=35614ed7-a0df-4792-bca2-a1978fcd9fab","ios":"levelo://app?vid=35614ed7-a0df-4792-bca2-a1978fcd9fab"},"vehicle_type_id":"4","last_reported":1737702533,"current_range_meters":38800,"station_id":"ce4bhph2rcd13ifvqheg","pricing_plan_id":"cebpf4jnsgd1na2vs0mg"},{"bike_id":"59330309-df9a-48c4-9235-796da7a2782d","system_id":"levelo_inurba_marseille","lat":43.30817,"lon":5.43516,"is_reserved":false,"is_disabled":false,"rental_uris":{"android":"levelo://app?vid=59330309-df9a-48c4-9235-796da7a2782d","ios":"levelo://app?vid=59330309-df9a-48c4-9235-796da7a2782d"},"vehicle_type_id":"4","last_reported":1737702533,"current_range_meters":37600,"station_id":"ce4bhph2rcd13ifvqheg","pricing_plan_id":"cebpf4jnsgd1na2vs0mg"},{"bike_id":"8661b5e3-5c50-41b5-9990-f6cea7332865","system_id":"levelo_inurba_marseille","lat":43.29192,"lon":5.358,"is_reserved":false,"is_disabled":false,"rental_uris":{"android":"levelo://app?vid=8661b5e3-5c50-41b5-9990-f6cea7332865","ios":"levelo://app?vid=8661b5e3-5c50-41b5-9990-f6cea7332865"},"vehicle_type_id":"4","last_reported":1737702533,"current_range_meters":37600,"station_id":"ce4bhb12rcd13ifvqel0","pricing_plan_id":"cebpf4jnsgd1na2vs0mg"},{"bike_id":"606cd53c-253c-44ce-9e11-434290923833","system_id":"levelo_inurba_marseille","lat":43.290283,"lon":5.386489,"is_reserved":false,"is_disabled":false,"rental_uris":{"android":"levelo://app?vid=606cd53c-253c-44ce-9e11-434290923833","ios":"levelo://app?vid=606cd53c-253c-44ce-9e11-434290923833"},"vehicle_type_id":"4","last_reported":1737702533,"current_range_meters":20000,"station_id":"ce4bh4p2rcd13ifvqe0g","pricing_plan_id":"cebpf4jnsgd1na2vs0mg"},{"bike_id":"bf49bae2-9c26-4641-9558-b17e1f3df312","system_id":"levelo_inurba_marseille","lat":43.23181,"lon":5.40005,"is_reserved":false,"is_disabled":false,"rental_uris":{"android":"levelo://app?vid=bf49bae2-9c26-4641-9558-b17e1f3df312","ios":"levelo://app?vid=bf49bae2-9c26-4641-9558-b17e1f3df312"},"vehicle_type_id":"4","last_reported":1737702533,"current_range_meters":38400,"station_id":"ce4bhn12rcd13ifvqgqg","pricing_plan_id":"cebpf4jnsgd1na2vs0mg"},{"bike_id":"96bd9e64-ec79-445f-af92-f8aeeeeb8575","system_id":"levelo_inurba_marseille","lat":43.28405,"lon":5.37513,"is_reserved":false,"is_disabled":false,"rental_uris":{"android":"levelo://app?vid=96bd9e64-ec79-445f-af92-f8aeeeeb8575","ios":"levelo://app?vid=96bd9e64-ec79-445f-af92-f8aeeeeb8575"},"vehicle_type_id":"4","last_reported":1737702533,"current_range_meters":6400,"station_id":"ce4bh412rcd13ifvqds0","pricing_plan_id":"cebpf4jnsgd1na2vs0mg"},{"bike_id":"4bd17963-efe0-46a9-ae21-a28a4d6c2c8e","system_id":"levelo_inurba_marseille","lat":43.30252,"lon":5.4004,"is_reserved":false,"is_disabled":false,"rental_uris":{"android":"levelo://app?vid=4bd17963-efe0-46a9-ae21-a28a4d6c2c8e","ios":"levelo://app?vid=4bd17963-efe0-46a9-ae21-a28a4d6c2c8e"},"vehicle_type_id":"4","last_reported":1737702533,"current_range_meters":8000,"station_id":"ce4bgvh2rcd13ifvqcs0","pricing_plan_id":"cebpf4jnsgd1na2vs0mg"},{"bike_id":"5d6541b6-e1d6-4ea5-ae79-89252b517ba2","system_id":"levelo_inurba_marseille","lat":43.29244,"lon":5.40149,"is_reserved":false,"is_disabled":false,"rental_uris":{"android":"levelo://app?vid=5d6541b6-e1d6-4ea5-ae79-89252b517ba2","ios":"levelo://app?vid=5d6541b6-e1d6-4ea5-ae79-89252b517ba2"},"vehicle_type_id":"4","last_reported":1737702533,"current_range_meters":33600,"station_id":"ce4bh312rcd13ifvqdk0","pricing_plan_id":"cebpf4jnsgd1na2vs0mg"},{"bike_id":"e5e4df67-dd0f-4661-9c3e-b4021a64b458","system_id":"levelo_inurba_marseille","lat":43.26956,"lon":5.38637,"is_reserved":false,"is_disabled":false,"rental_uris":{"android":"levelo://app?vid=e5e4df67-dd0f-4661-9c3e-b4021a64b458","ios":"levelo://app?vid=e5e4df67-dd0f-4661-9c3e-b4021a64b458"},"vehicle_type_id":"4","last_reported":1737702533,"current_range_meters":6800,"station_id":"ce4bhh92rcd13ifvqfh0","pricing_plan_id":"cebpf4jnsgd1na2vs0mg"},{"bike_id":"6c45b451-34fd-4c6c-849a-c3d4c4498316","system_id":"levelo_inurba_marseille","lat":43.31752,"lon":5.39014,"is_reserved":false,"is_disabled":false,"rental_uris":{"android":"levelo://app?vid=6c45b451-34fd-4c6c-849a-c3d4c4498316","ios":"levelo://app?vid=6c45b451-34fd-4c6c-849a-c3d4c4498316"},"vehicle_type_id":"4","last_reported":1737702533,"current_range_meters":39200,"station_id":"ce4bhqp2rcd13ifvqhng","pricing_plan_id":"cebpf4jnsgd1na2vs0mg"},{"bike_id":"f7852742-3e4a-4e8d-a086-6b6a0282c38c","system_id":"levelo_inurba_marseille","lat":43.30465,"lon":5.37906,"is_reserved":false,"is_disabled":false,"rental_uris":{"android":"levelo://app?vid=f7852742-3e4a-4e8d-a086-6b6a0282c38c","ios":"levelo://app?vid=f7852742-3e4a-4e8d-a086-6b6a0282c38c"},"vehicle_type_id":"4","last_reported":1737702533,"current_range_meters":30400,"station_id":"ce4bgup2rcd13ifvqcn0","pricing_plan_id":"cebpf4jnsgd1na2vs0mg"},{"bike_id":"bb7a97b0-84cb-4d8b-9c70-6eff9038fb59","system_id":"levelo_inurba_marseille","lat":43.31892,"lon":5.40728,"is_reserved":false,"is_disabled":false,"rental_uris":{"android":"levelo://app?vid=bb7a97b0-84cb-4d8b-9c70-6eff9038fb59","ios":"levelo://app?vid=bb7a97b0-84cb-4d8b-9c70-6eff9038fb59"},"vehicle_type_id":"4","last_reported":1737702533,"current_range_meters":36000,"station_id":"ce4bhq12rcd13ifvqhig","pricing_plan_id":"cebpf4jnsgd1na2vs0mg"},{"bike_id":"730a19d7-8638-4500-9d66-b33219f24537","system_id":"levelo_inurba_marseille","lat":43.30802,"lon":5.43511,"is_reserved":false,"is_disabled":false,"rental_uris":{"android":"levelo://app?vid=730a19d7-8638-4500-9d66-b33219f24537","ios":"levelo://app?vid=730a19d7-8638-4500-9d66-b33219f24537"},"vehicle_type_id":"4","last_reported":1737702533,"current_range_meters":23200,"station_id":"ce4bhph2rcd13ifvqheg","pricing_plan_id":"cebpf4jnsgd1na2vs0mg"},{"bike_id":"c54405f6-19ca-4898-9c27-b06f2510a17d","system_id":"levelo_inurba_marseille","lat":43.29216,"lon":5.36058,"is_reserved":false,"is_disabled":false,"rental_uris":{"android":"levelo://app?vid=c54405f6-19ca-4898-9c27-b06f2510a17d","ios":"levelo://app?vid=c54405f6-19ca-4898-9c27-b06f2510a17d"},"vehicle_type_id":"4","last_reported":1737702533,"current_range_meters":36000,"station_id":"ce4bhbh2rcd13ifvqeqg","pricing_plan_id":"cebpf4jnsgd1na2vs0mg"},{"bike_id":"eef607cd-c613-4070-becf-3b32d7d6c4a1","system_id":"levelo_inurba_marseille","lat":43.292913,"lon":5.4012,"is_reserved":false,"is_disabled":false,"rental_uris":{"android":"levelo://app?vid=eef607cd-c613-4070-becf-3b32d7d6c4a1","ios":"levelo://app?vid=eef607cd-c613-4070-becf-3b32d7d6c4a1"},"vehicle_type_id":"4","last_reported":1737702533,"current_range_meters":36000,"station_id":"ce4bh312rcd13ifvqdk0","pricing_plan_id":"cebpf4jnsgd1na2vs0mg"},{"bike_id":"90562b19-8802-4e76-a682-f90dad6ec469","system_id":"levelo_inurba_marseille","lat":43.295353,"lon":5.385511,"is_reserved":false,"is_disabled":true,"rental_uris":{"android":"levelo://app?vid=90562b19-8802-4e76-a682-f90dad6ec469","ios":"levelo://app?vid=90562b19-8802-4e76-a682-f90dad6ec469"},"vehicle_type_id":"4","last_reported":1737702533,"current_range_meters":0,"station_id":"ce4bgih2rcd13ifvqba0","pricing_plan_id":"cebpf4jnsgd1na2vs0mg"},{"bike_id":"9863b7f9-4316-4322-9f6c-3cc66b0448e2","system_id":"levelo_inurba_marseille","lat":43.279439,"lon":5.389008,"is_reserved":false,"is_disabled":true,"rental_uris":{"android":"levelo://app?vid=9863b7f9-4316-4322-9f6c-3cc66b0448e2","ios":"levelo://app?vid=9863b7f9-4316-4322-9f6c-3cc66b0448e2"},"vehicle_type_id":"4","last_reported":1737702533,"current_range_meters":21600,"station_id":"","pricing_plan_id":"cebpf4jnsgd1na2vs0mg"},{"bike_id":"91adcfe7-07fa-4198-8c25-f697dd92460c","system_id":"levelo_inurba_marseille","lat":43.23186,"lon":5.39985,"is_reserved":false,"is_disabled":false,"rental_uris":{"android":"levelo://app?vid=91adcfe7-07fa-4198-8c25-f697dd92460c","ios":"levelo://app?vid=91adcfe7-07fa-4198-8c25-f697dd92460c"},"vehicle_type_id":"4","last_reported":1737702533,"current_range_meters":23200,"station_id":"ce4bhn12rcd13ifvqgqg","pricing_plan_id":"cebpf4jnsgd1na2vs0mg"},{"bike_id":"ab927040-bfc3-4782-b1b3-ffbf9d71bc34","system_id":"levelo_inurba_marseille","lat":43.26706,"lon":5.38227,"is_reserved":false,"is_disabled":true,"rental_uris":{"android":"levelo://app?vid=ab927040-bfc3-4782-b1b3-ffbf9d71bc34","ios":"levelo://app?vid=ab927040-bfc3-4782-b1b3-ffbf9d71bc34"},"vehicle_type_id":"4","last_reported":1737702533,"current_range_meters":38000,"station_id":"ce4bhg92rcd13ifvqf90","pricing_plan_id":"cebpf4jnsgd1na2vs0mg"},{"bike_id":"9e2d13b9-d1b0-4762-93f4-a7dd29fa0c55","system_id":"levelo_inurba_marseille","lat":43.2922,"lon":5.36078,"is_reserved":false,"is_disabled":false,"rental_uris":{"android":"levelo://app?vid=9e2d13b9-d1b0-4762-93f4-a7dd29fa0c55","ios":"levelo://app?vid=9e2d13b9-d1b0-4762-93f4-a7dd29fa0c55"},"vehicle_type_id":"4","last_reported":1737702533,"current_range_meters":24400,"station_id":"ce4bhbh2rcd13ifvqeqg","pricing_plan_id":"cebpf4jnsgd1na2vs0mg"},{"bike_id":"e11d5e25-e272-47e7-bd8a-065bf108edeb","system_id":"levelo_inurba_marseille","lat":43.29252,"lon":5.38439,"is_reserved":false,"is_disabled":true,"rental_uris":{"android":"levelo://app?vid=e11d5e25-e272-47e7-bd8a-065bf108edeb","ios":"levelo://app?vid=e11d5e25-e272-47e7-bd8a-065bf108edeb"},"vehicle_type_id":"4","last_reported":1737702533,"current_range_meters":15200,"station_id":"ce4bh692rcd13ifvqea0","pricing_plan_id":"cebpf4jnsgd1na2vs0mg"},{"bike_id":"fbed9e16-0b16-48d6-bdea-151c2ae5c63e","system_id":"levelo_inurba_marseille","lat":43.28356,"lon":5.38104,"is_reserved":false,"is_disabled":false,"rental_uris":{"android":"levelo://app?vid=fbed9e16-0b16-48d6-bdea-151c2ae5c63e","ios":"levelo://app?vid=fbed9e16-0b16-48d6-bdea-151c2ae5c63e"},"vehicle_type_id":"4","last_reported":1737702533,"current_range_meters":15200,"station_id":"ce4bh412rcd13ifvqdr0","pricing_plan_id":"cebpf4jnsgd1na2vs0mg"},{"bike_id":"517b757c-2afe-4890-b44d-04cedf66163c","system_id":"levelo_inurba_marseille","lat":43.24075,"lon":5.37763,"is_reserved":false,"is_disabled":false,"rental_uris":{"android":"levelo://app?vid=517b757c-2afe-4890-b44d-04cedf66163c","ios":"levelo://app?vid=517b757c-2afe-4890-b44d-04cedf66163c"},"vehicle_type_id":"4","last_reported":1737702533,"current_range_meters":4800,"station_id":"ce4bhnp2rcd13ifvqgvg","pricing_plan_id":"cebpf4jnsgd1na2vs0mg"},{"bike_id":"a592067b-fea9-445a-99b2-f269ed42f439","system_id":"levelo_inurba_marseille","lat":43.29014,"lon":5.3754,"is_reserved":false,"is_disabled":false,"rental_uris":{"android":"levelo://app?vid=a592067b-fea9-445a-99b2-f269ed42f439","ios":"levelo://app?vid=a592067b-fea9-445a-99b2-f269ed42f439"},"vehicle_type_id":"4","last_reported":1737702533,"current_range_meters":23200,"station_id":"ce4bh692rcd13ifvqe90","pricing_plan_id":"cebpf4jnsgd1na2vs0mg"},{"bike_id":"cd1f5e55-0fa6-49f6-90a2-da79313bdf51","system_id":"levelo_inurba_marseille","lat":43.30592,"lon":5.39362,"is_reserved":false,"is_disabled":false,"rental_uris":{"android":"levelo://app?vid=cd1f5e55-0fa6-49f6-90a2-da79313bdf51","ios":"levelo://app?vid=cd1f5e55-0fa6-49f6-90a2-da79313bdf51"},"vehicle_type_id":"4","last_reported":1737702533,"current_range_meters":24400,"station_id":"ce4bh0p2rcd13ifvqd80","pricing_plan_id":"cebpf4jnsgd1na2vs0mg"},{"bike_id":"3c2e08d8-61dc-48d1-a5b2-8e18420ecf7c","system_id":"levelo_inurba_marseille","lat":43.30295,"lon":5.37664,"is_reserved":false,"is_disabled":true,"rental_uris":{"android":"levelo://app?vid=3c2e08d8-61dc-48d1-a5b2-8e18420ecf7c","ios":"levelo://app?vid=3c2e08d8-61dc-48d1-a5b2-8e18420ecf7c"},"vehicle_type_id":"4","last_reported":1737702533,"current_range_meters":0,"station_id":"ce4bguh2rcd13ifvqcj0","pricing_plan_id":"cebpf4jnsgd1na2vs0mg"},{"bike_id":"79ba4168-e749-4e85-80bb-fc182e3e051c","system_id":"levelo_inurba_marseille","lat":43.24063,"lon":5.37764,"is_reserved":false,"is_disabled":false,"rental_uris":{"android":"levelo://app?vid=79ba4168-e749-4e85-80bb-fc182e3e051c","ios":"levelo://app?vid=79ba4168-e749-4e85-80bb-fc182e3e051c"},"vehicle_type_id":"4","last_reported":1737702533,"current_range_meters":7200,"station_id":"ce4bhnp2rcd13ifvqgvg","pricing_plan_id":"cebpf4jnsgd1na2vs0mg"},{"bike_id":"ec4ed70b-2720-40bb-8576-6b2cbaeabecb","system_id":"levelo_inurba_marseille","lat":43.29803,"lon":5.38083,"is_reserved":false,"is_disabled":false,"rental_uris":{"android":"levelo://app?vid=ec4ed70b-2720-40bb-8576-6b2cbaeabecb","ios":"levelo://app?vid=ec4ed70b-2720-40bb-8576-6b2cbaeabecb"},"vehicle_type_id":"4","last_reported":1737702533,"current_range_meters":37600,"station_id":"ce4bgip2rcd13ifvqbb0","pricing_plan_id":"cebpf4jnsgd1na2vs0mg"},{"bike_id":"c400706d-11d8-4109-af7f-04e1a2259d9b","system_id":"levelo_inurba_marseille","lat":43.298965,"lon":5.436674,"is_reserved":false,"is_disabled":false,"rental_uris":{"android":"levelo://app?vid=c400706d-11d8-4109-af7f-04e1a2259d9b","ios":"levelo://app?vid=c400706d-11d8-4109-af7f-04e1a2259d9b"},"vehicle_type_id":"4","last_reported":1737702533,"current_range_meters":6800,"station_id":"ce4bhpp2rcd13ifvqhfg","pricing_plan_id":"cebpf4jnsgd1na2vs0mg"},{"bike_id":"c3d3279f-c713-46f9-9957-54e6dc5b01fc","system_id":"levelo_inurba_marseille","lat":43.2408,"lon":5.37751,"is_reserved":false,"is_disabled":false,"rental_uris":{"android":"levelo://app?vid=c3d3279f-c713-46f9-9957-54e6dc5b01fc","ios":"levelo://app?vid=c3d3279f-c713-46f9-9957-54e6dc5b01fc"},"vehicle_type_id":"4","last_reported":1737702533,"current_range_meters":8800,"station_id":"ce4bhnp2rcd13ifvqgvg","pricing_plan_id":"cebpf4jnsgd1na2vs0mg"},{"bike_id":"b1ad8785-7662-4e91-8fb4-75c4cccca7cd","system_id":"levelo_inurba_marseille","lat":43.30788,"lon":5.37646,"is_reserved":false,"is_disabled":false,"rental_uris":{"android":"levelo://app?vid=b1ad8785-7662-4e91-8fb4-75c4cccca7cd","ios":"levelo://app?vid=b1ad8785-7662-4e91-8fb4-75c4cccca7cd"},"vehicle_type_id":"4","last_reported":1737702533,"current_range_meters":38000,"station_id":"ce4bgv92rcd13ifvqcq0","pricing_plan_id":"cebpf4jnsgd1na2vs0mg"},{"bike_id":"e294958b-705b-4df3-b6a6-d3d4f512d203","system_id":"levelo_inurba_marseille","lat":43.24136,"lon":5.37002,"is_reserved":false,"is_disabled":false,"rental_uris":{"android":"levelo://app?vid=e294958b-705b-4df3-b6a6-d3d4f512d203","ios":"levelo://app?vid=e294958b-705b-4df3-b6a6-d3d4f512d203"},"vehicle_type_id":"4","last_reported":1737702533,"current_range_meters":19200,"station_id":"","pricing_plan_id":"cebpf4jnsgd1na2vs0mg"},{"bike_id":"cf77434f-7fc1-4880-a9d8-75a45ce29257","system_id":"levelo_inurba_marseille","lat":43.270618,"lon":5.403556,"is_reserved":false,"is_disabled":false,"rental_uris":{"android":"levelo://app?vid=cf77434f-7fc1-4880-a9d8-75a45ce29257","ios":"levelo://app?vid=cf77434f-7fc1-4880-a9d8-75a45ce29257"},"vehicle_type_id":"4","last_reported":1737702533,"current_range_meters":36400,"station_id":"ce4bhk92rcd13ifvqgc0","pricing_plan_id":"cebpf4jnsgd1na2vs0mg"},{"bike_id":"97f6a575-d7f1-4244-a895-8f4ff54fffa8","system_id":"levelo_inurba_marseille","lat":43.29763,"lon":5.38103,"is_reserved":false,"is_disabled":false,"rental_uris":{"android":"levelo://app?vid=97f6a575-d7f1-4244-a895-8f4ff54fffa8","ios":"levelo://app?vid=97f6a575-d7f1-4244-a895-8f4ff54fffa8"},"vehicle_type_id":"4","last_reported":1737702533,"current_range_meters":9200,"station_id":"ce4bgkh2rcd13ifvqbl0","pricing_plan_id":"cebpf4jnsgd1na2vs0mg"},{"bike_id":"7c78a755-c7f5-4f07-a96b-621451d47948","system_id":"levelo_inurba_marseille","lat":43.29898,"lon":5.43668,"is_reserved":false,"is_disabled":false,"rental_uris":{"android":"levelo://app?vid=7c78a755-c7f5-4f07-a96b-621451d47948","ios":"levelo://app?vid=7c78a755-c7f5-4f07-a96b-621451d47948"},"vehicle_type_id":"4","last_reported":1737702533,"current_range_meters":8400,"station_id":"ce4bhpp2rcd13ifvqhfg","pricing_plan_id":"cebpf4jnsgd1na2vs0mg"},{"bike_id":"2cd9363b-d53d-4fd0-b96a-320709d28218","system_id":"levelo_inurba_marseille","lat":43.30254,"lon":5.4008,"is_reserved":false,"is_disabled":false,"rental_uris":{"android":"levelo://app?vid=2cd9363b-d53d-4fd0-b96a-320709d28218","ios":"levelo://app?vid=2cd9363b-d53d-4fd0-b96a-320709d28218"},"vehicle_type_id":"4","last_reported":1737702533,"current_range_meters":25200,"station_id":"ce4bgvh2rcd13ifvqcs0","pricing_plan_id":"cebpf4jnsgd1na2vs0mg"},{"bike_id":"7610bd40-27eb-48ba-8532-89715990a4fa","system_id":"levelo_inurba_marseille","lat":43.29251,"lon":5.40914,"is_reserved":false,"is_disabled":true,"rental_uris":{"android":"levelo://app?vid=7610bd40-27eb-48ba-8532-89715990a4fa","ios":"levelo://app?vid=7610bd40-27eb-48ba-8532-89715990a4fa"},"vehicle_type_id":"4","last_reported":1737702533,"current_range_meters":1600,"station_id":"ce4bh192rcd13ifvqdc0","pricing_plan_id":"cebpf4jnsgd1na2vs0mg"},{"bike_id":"52e3375d-f2b1-471c-bdfe-8428c026fbdc","system_id":"levelo_inurba_marseille","lat":43.29252,"lon":5.384417,"is_reserved":false,"is_disabled":true,"rental_uris":{"android":"levelo://app?vid=52e3375d-f2b1-471c-bdfe-8428c026fbdc","ios":"levelo://app?vid=52e3375d-f2b1-471c-bdfe-8428c026fbdc"},"vehicle_type_id":"4","last_reported":1737702533,"current_range_meters":38800,"station_id":"ce4bh692rcd13ifvqea0","pricing_plan_id":"cebpf4jnsgd1na2vs0mg"},{"bike_id":"b01fce57-63c8-454c-9252-5518a237155b","system_id":"levelo_inurba_marseille","lat":43.23193,"lon":5.39976,"is_reserved":false,"is_disabled":false,"rental_uris":{"android":"levelo://app?vid=b01fce57-63c8-454c-9252-5518a237155b","ios":"levelo://app?vid=b01fce57-63c8-454c-9252-5518a237155b"},"vehicle_type_id":"4","last_reported":1737702533,"current_range_meters":16400,"station_id":"ce4bhn12rcd13ifvqgqg","pricing_plan_id":"cebpf4jnsgd1na2vs0mg"},{"bike_id":"46a2a8bc-9817-4dc6-833b-4a71727103e0","system_id":"levelo_inurba_marseille","lat":43.29045,"lon":5.39949,"is_reserved":false,"is_disabled":true,"rental_uris":{"android":"levelo://app?vid=46a2a8bc-9817-4dc6-833b-4a71727103e0","ios":"levelo://app?vid=46a2a8bc-9817-4dc6-833b-4a71727103e0"},"vehicle_type_id":"4","last_reported":1737702533,"current_range_meters":2000,"station_id":"ce4bh392rcd13ifvqdm0","pricing_plan_id":"cebpf4jnsgd1na2vs0mg"},{"bike_id":"dc26bfd6-2e91-4d69-9b0c-b8a7c500fb27","system_id":"levelo_inurba_marseille","lat":43.27808,"lon":5.4071,"is_reserved":false,"is_disabled":false,"rental_uris":{"android":"levelo://app?vid=dc26bfd6-2e91-4d69-9b0c-b8a7c500fb27","ios":"levelo://app?vid=dc26bfd6-2e91-4d69-9b0c-b8a7c500fb27"},"vehicle_type_id":"4","last_reported":1737702533,"current_range_meters":28000,"station_id":"ce4bhnh2rcd13ifvqgtg","pricing_plan_id":"cebpf4jnsgd1na2vs0mg"},{"bike_id":"e834d110-9757-4aa5-8921-77cbfa7c7c6e","system_id":"levelo_inurba_marseille","lat":43.28577,"lon":5.39495,"is_reserved":false,"is_disabled":true,"rental_uris":{"android":"levelo://app?vid=e834d110-9757-4aa5-8921-77cbfa7c7c6e","ios":"levelo://app?vid=e834d110-9757-4aa5-8921-77cbfa7c7c6e"},"vehicle_type_id":"4","last_reported":1737702533,"current_range_meters":38800,"station_id":"ce4bh292rcd13ifvqdg0","pricing_plan_id":"cebpf4jnsgd1na2vs0mg"},{"bike_id":"4193fc48-384c-4cc7-8a16-5c5208672efb","system_id":"levelo_inurba_marseille","lat":43.24069,"lon":5.37765,"is_reserved":false,"is_disabled":false,"rental_uris":{"android":"levelo://app?vid=4193fc48-384c-4cc7-8a16-5c5208672efb","ios":"levelo://app?vid=4193fc48-384c-4cc7-8a16-5c5208672efb"},"vehicle_type_id":"4","last_reported":1737702533,"current_range_meters":24800,"station_id":"ce4bhnp2rcd13ifvqgvg","pricing_plan_id":"cebpf4jnsgd1na2vs0mg"},{"bike_id":"fee48bd6-560c-4fad-9d52-53977d899569","system_id":"levelo_inurba_marseille","lat":43.2789,"lon":5.3802,"is_reserved":false,"is_disabled":false,"rental_uris":{"android":"levelo://app?vid=fee48bd6-560c-4fad-9d52-53977d899569","ios":"levelo://app?vid=fee48bd6-560c-4fad-9d52-53977d899569"},"vehicle_type_id":"4","last_reported":1737702533,"current_range_meters":38400,"station_id":"ce4bhf92rcd13ifvqf50","pricing_plan_id":"cebpf4jnsgd1na2vs0mg"},{"bike_id":"b108f56b-b64d-4655-aea2-471b5b8c2a32","system_id":"levelo_inurba_marseille","lat":43.30903,"lon":5.36842,"is_reserved":false,"is_disabled":false,"rental_uris":{"android":"levelo://app?vid=b108f56b-b64d-4655-aea2-471b5b8c2a32","ios":"levelo://app?vid=b108f56b-b64d-4655-aea2-471b5b8c2a32"},"vehicle_type_id":"4","last_reported":1737702533,"current_range_meters":38400,"station_id":"ce4bgn92rcd13ifvqbvg","pricing_plan_id":"cebpf4jnsgd1na2vs0mg"},{"bike_id":"8091da5a-cc04-462d-bb09-ae380ca5e4ce","system_id":"levelo_inurba_marseille","lat":43.23185,"lon":5.39983,"is_reserved":false,"is_disabled":false,"rental_uris":{"android":"levelo://app?vid=8091da5a-cc04-462d-bb09-ae380ca5e4ce","ios":"levelo://app?vid=8091da5a-cc04-462d-bb09-ae380ca5e4ce"},"vehicle_type_id":"4","last_reported":1737702533,"current_range_meters":8400,"station_id":"ce4bhn12rcd13ifvqgqg","pricing_plan_id":"cebpf4jnsgd1na2vs0mg"},{"bike_id":"a33b274c-21ae-4303-b7be-9ae00bb12c0a","system_id":"levelo_inurba_marseille","lat":43.29275,"lon":5.40113,"is_reserved":false,"is_disabled":false,"rental_uris":{"android":"levelo://app?vid=a33b274c-21ae-4303-b7be-9ae00bb12c0a","ios":"levelo://app?vid=a33b274c-21ae-4303-b7be-9ae00bb12c0a"},"vehicle_type_id":"4","last_reported":1737702533,"current_range_meters":7200,"station_id":"ce4bh312rcd13ifvqdk0","pricing_plan_id":"cebpf4jnsgd1na2vs0mg"},{"bike_id":"54b4716f-8d32-4148-831a-041f1bc788ac","system_id":"levelo_inurba_marseille","lat":43.30432,"lon":5.38884,"is_reserved":false,"is_disabled":false,"rental_uris":{"android":"levelo://app?vid=54b4716f-8d32-4148-831a-041f1bc788ac","ios":"levelo://app?vid=54b4716f-8d32-4148-831a-041f1bc788ac"},"vehicle_type_id":"4","last_reported":1737702533,"current_range_meters":38000,"station_id":"ce4bgk12rcd13ifvqbi0","pricing_plan_id":"cebpf4jnsgd1na2vs0mg"},{"bike_id":"eb7bd3dc-8c59-4698-a4c9-f4fd1d0e01f9","system_id":"levelo_inurba_marseille","lat":43.27942,"lon":5.41049,"is_reserved":false,"is_disabled":false,"rental_uris":{"android":"levelo://app?vid=eb7bd3dc-8c59-4698-a4c9-f4fd1d0e01f9","ios":"levelo://app?vid=eb7bd3dc-8c59-4698-a4c9-f4fd1d0e01f9"},"vehicle_type_id":"4","last_reported":1737702533,"current_range_meters":35200,"station_id":"ce4bhnp2rcd13ifvqh0g","pricing_plan_id":"cebpf4jnsgd1na2vs0mg"},{"bike_id":"bd28a8d1-43a3-411b-8e89-e91fc33f5dc5","system_id":"levelo_inurba_marseille","lat":43.25002,"lon":5.38911,"is_reserved":false,"is_disabled":false,"rental_uris":{"android":"levelo://app?vid=bd28a8d1-43a3-411b-8e89-e91fc33f5dc5","ios":"levelo://app?vid=bd28a8d1-43a3-411b-8e89-e91fc33f5dc5"},"vehicle_type_id":"4","last_reported":1737702533,"current_range_meters":30400,"station_id":"ce4bhgp2rcd13ifvqfd0","pricing_plan_id":"cebpf4jnsgd1na2vs0mg"},{"bike_id":"72428ff6-b760-4407-bd52-28cdb9f11441","system_id":"levelo_inurba_marseille","lat":43.27371,"lon":5.36254,"is_reserved":false,"is_disabled":false,"rental_uris":{"android":"levelo://app?vid=72428ff6-b760-4407-bd52-28cdb9f11441","ios":"levelo://app?vid=72428ff6-b760-4407-bd52-28cdb9f11441"},"vehicle_type_id":"4","last_reported":1737702533,"current_range_meters":18800,"station_id":"ce4bhbh2rcd13ifvqeo0","pricing_plan_id":"cebpf4jnsgd1na2vs0mg"},{"bike_id":"51b693ec-6376-489f-b989-9f78de29a1f3","system_id":"levelo_inurba_marseille","lat":43.241654,"lon":5.363969,"is_reserved":false,"is_disabled":false,"rental_uris":{"android":"levelo://app?vid=51b693ec-6376-489f-b989-9f78de29a1f3","ios":"levelo://app?vid=51b693ec-6376-489f-b989-9f78de29a1f3"},"vehicle_type_id":"4","last_reported":1737702533,"current_range_meters":18800,"station_id":"cpo36qri1sfpv3e86is0","pricing_plan_id":"cebpf4jnsgd1na2vs0mg"},{"bike_id":"fa6415c6-150b-448b-9709-3aca739af766","system_id":"levelo_inurba_marseille","lat":43.3047,"lon":5.37896,"is_reserved":false,"is_disabled":false,"rental_uris":{"android":"levelo://app?vid=fa6415c6-150b-448b-9709-3aca739af766","ios":"levelo://app?vid=fa6415c6-150b-448b-9709-3aca739af766"},"vehicle_type_id":"4","last_reported":1737702533,"current_range_meters":33600,"station_id":"ce4bgup2rcd13ifvqcn0","pricing_plan_id":"cebpf4jnsgd1na2vs0mg"},{"bike_id":"de6fd782-7134-4e64-b9c3-cc2cfbe12552","system_id":"levelo_inurba_marseille","lat":43.31116,"lon":5.38825,"is_reserved":false,"is_disabled":false,"rental_uris":{"android":"levelo://app?vid=de6fd782-7134-4e64-b9c3-cc2cfbe12552","ios":"levelo://app?vid=de6fd782-7134-4e64-b9c3-cc2cfbe12552"},"vehicle_type_id":"4","last_reported":1737702533,"current_range_meters":33600,"station_id":"","pricing_plan_id":"cebpf4jnsgd1na2vs0mg"},{"bike_id":"13ff516e-16cf-4543-8540-9030b8b296b4","system_id":"levelo_inurba_marseille","lat":43.23191,"lon":5.35548,"is_reserved":false,"is_disabled":false,"rental_uris":{"android":"levelo://app?vid=13ff516e-16cf-4543-8540-9030b8b296b4","ios":"levelo://app?vid=13ff516e-16cf-4543-8540-9030b8b296b4"},"vehicle_type_id":"4","last_reported":1737702533,"current_range_meters":26000,"station_id":"ce4bhu92rcd13ifvqi70","pricing_plan_id":"cebpf4jnsgd1na2vs0mg"},{"bike_id":"382b1d8c-119f-472b-8efe-763a8ffd1020","system_id":"levelo_inurba_marseille","lat":43.2795,"lon":5.41044,"is_reserved":false,"is_disabled":false,"rental_uris":{"android":"levelo://app?vid=382b1d8c-119f-472b-8efe-763a8ffd1020","ios":"levelo://app?vid=382b1d8c-119f-472b-8efe-763a8ffd1020"},"vehicle_type_id":"4","last_reported":1737702533,"current_range_meters":38400,"station_id":"ce4bhnp2rcd13ifvqh0g","pricing_plan_id":"cebpf4jnsgd1na2vs0mg"},{"bike_id":"66b87d3b-9e6c-4cd6-8c9a-2308c8e47d5a","system_id":"levelo_inurba_marseille","lat":43.28708,"lon":5.39998,"is_reserved":false,"is_disabled":false,"rental_uris":{"android":"levelo://app?vid=66b87d3b-9e6c-4cd6-8c9a-2308c8e47d5a","ios":"levelo://app?vid=66b87d3b-9e6c-4cd6-8c9a-2308c8e47d5a"},"vehicle_type_id":"4","last_reported":1737702533,"current_range_meters":28800,"station_id":"ce4bho92rcd13ifvqh3g","pricing_plan_id":"cebpf4jnsgd1na2vs0mg"},{"bike_id":"8a151ccc-edf6-40ab-a6a3-42b4ac96f698","system_id":"levelo_inurba_marseille","lat":43.28266,"lon":5.35096,"is_reserved":false,"is_disabled":true,"rental_uris":{"android":"levelo://app?vid=8a151ccc-edf6-40ab-a6a3-42b4ac96f698","ios":"levelo://app?vid=8a151ccc-edf6-40ab-a6a3-42b4ac96f698"},"vehicle_type_id":"4","last_reported":1737702533,"current_range_meters":24800,"station_id":"ce4bhbp2rcd13ifvqerg","pricing_plan_id":"cebpf4jnsgd1na2vs0mg"},{"bike_id":"5971ad5e-a484-4d3d-bdf2-2b149d5328ab","system_id":"levelo_inurba_marseille","lat":43.29049,"lon":5.40027,"is_reserved":false,"is_disabled":false,"rental_uris":{"android":"levelo://app?vid=5971ad5e-a484-4d3d-bdf2-2b149d5328ab","ios":"levelo://app?vid=5971ad5e-a484-4d3d-bdf2-2b149d5328ab"},"vehicle_type_id":"4","last_reported":1737702533,"current_range_meters":39200,"station_id":"ce4bh392rcd13ifvqdm0","pricing_plan_id":"cebpf4jnsgd1na2vs0mg"},{"bike_id":"7f0b73c5-af9a-4c10-9ae6-a4a4e527bef1","system_id":"levelo_inurba_marseille","lat":43.25573,"lon":5.38242,"is_reserved":false,"is_disabled":false,"rental_uris":{"android":"levelo://app?vid=7f0b73c5-af9a-4c10-9ae6-a4a4e527bef1","ios":"levelo://app?vid=7f0b73c5-af9a-4c10-9ae6-a4a4e527bef1"},"vehicle_type_id":"4","last_reported":1737702533,"current_range_meters":27200,"station_id":"ce4bhih2rcd13ifvqfs0","pricing_plan_id":"cebpf4jnsgd1na2vs0mg"},{"bike_id":"b1cdb7de-fb8a-4962-9da7-7ce8e9965a8f","system_id":"levelo_inurba_marseille","lat":43.31727,"lon":5.42392,"is_reserved":false,"is_disabled":false,"rental_uris":{"android":"levelo://app?vid=b1cdb7de-fb8a-4962-9da7-7ce8e9965a8f","ios":"levelo://app?vid=b1cdb7de-fb8a-4962-9da7-7ce8e9965a8f"},"vehicle_type_id":"4","last_reported":1737702533,"current_range_meters":2800,"station_id":"ce4bhp92rcd13ifvqhbg","pricing_plan_id":"cebpf4jnsgd1na2vs0mg"},{"bike_id":"024dc768-0bc9-4f63-ba21-bd88cbdd5c94","system_id":"levelo_inurba_marseille","lat":43.27056,"lon":5.40261,"is_reserved":false,"is_disabled":false,"rental_uris":{"android":"levelo://app?vid=024dc768-0bc9-4f63-ba21-bd88cbdd5c94","ios":"levelo://app?vid=024dc768-0bc9-4f63-ba21-bd88cbdd5c94"},"vehicle_type_id":"4","last_reported":1737702533,"current_range_meters":25200,"station_id":"ce4bhk92rcd13ifvqgc0","pricing_plan_id":"cebpf4jnsgd1na2vs0mg"},{"bike_id":"f7644282-3df3-4cf4-a3f8-dafe944f86fb","system_id":"levelo_inurba_marseille","lat":43.30595,"lon":5.39365,"is_reserved":false,"is_disabled":false,"rental_uris":{"android":"levelo://app?vid=f7644282-3df3-4cf4-a3f8-dafe944f86fb","ios":"levelo://app?vid=f7644282-3df3-4cf4-a3f8-dafe944f86fb"},"vehicle_type_id":"4","last_reported":1737702533,"current_range_meters":33200,"station_id":"ce4bh0p2rcd13ifvqd80","pricing_plan_id":"cebpf4jnsgd1na2vs0mg"},{"bike_id":"30153860-c6f7-4378-a851-e71e72d755e5","system_id":"levelo_inurba_marseille","lat":43.29982,"lon":5.37171,"is_reserved":false,"is_disabled":false,"rental_uris":{"android":"levelo://app?vid=30153860-c6f7-4378-a851-e71e72d755e5","ios":"levelo://app?vid=30153860-c6f7-4378-a851-e71e72d755e5"},"vehicle_type_id":"4","last_reported":1737702533,"current_range_meters":38800,"station_id":"ce4bgr92rcd13ifvqc7g","pricing_plan_id":"cebpf4jnsgd1na2vs0mg"},{"bike_id":"a7a5e5ac-a8ef-4955-b1ae-1d314c428a63","system_id":"levelo_inurba_marseille","lat":43.31706,"lon":5.37799,"is_reserved":false,"is_disabled":false,"rental_uris":{"android":"levelo://app?vid=a7a5e5ac-a8ef-4955-b1ae-1d314c428a63","ios":"levelo://app?vid=a7a5e5ac-a8ef-4955-b1ae-1d314c428a63"},"vehicle_type_id":"4","last_reported":1737702533,"current_range_meters":38800,"station_id":"ce4bgth2rcd13ifvqch0","pricing_plan_id":"cebpf4jnsgd1na2vs0mg"},{"bike_id":"5436ef51-1ce0-4baa-a060-c4cccd38005a","system_id":"levelo_inurba_marseille","lat":43.301821,"lon":5.366151,"is_reserved":false,"is_disabled":false,"rental_uris":{"android":"levelo://app?vid=5436ef51-1ce0-4baa-a060-c4cccd38005a","ios":"levelo://app?vid=5436ef51-1ce0-4baa-a060-c4cccd38005a"},"vehicle_type_id":"4","last_reported":1737702533,"current_range_meters":22400,"station_id":"ce4bgrh2rcd13ifvqc8g","pricing_plan_id":"cebpf4jnsgd1na2vs0mg"},{"bike_id":"5e97af20-8afc-41e0-9f59-c3eb3474cd31","system_id":"levelo_inurba_marseille","lat":43.29036,"lon":5.39965,"is_reserved":false,"is_disabled":false,"rental_uris":{"android":"levelo://app?vid=5e97af20-8afc-41e0-9f59-c3eb3474cd31","ios":"levelo://app?vid=5e97af20-8afc-41e0-9f59-c3eb3474cd31"},"vehicle_type_id":"4","last_reported":1737702533,"current_range_meters":38000,"station_id":"ce4bh392rcd13ifvqdm0","pricing_plan_id":"cebpf4jnsgd1na2vs0mg"},{"bike_id":"8cec88b6-5987-4fdd-a71c-a36410e8b4a8","system_id":"levelo_inurba_marseille","lat":43.309312,"lon":5.401525,"is_reserved":false,"is_disabled":false,"rental_uris":{"android":"levelo://app?vid=8cec88b6-5987-4fdd-a71c-a36410e8b4a8","ios":"levelo://app?vid=8cec88b6-5987-4fdd-a71c-a36410e8b4a8"},"vehicle_type_id":"4","last_reported":1737702533,"current_range_meters":10000,"station_id":"ce4bgvp2rcd13ifvqct0","pricing_plan_id":"cebpf4jnsgd1na2vs0mg"},{"bike_id":"421d447e-f137-48f8-b50a-3cef6ba73d00","system_id":"levelo_inurba_marseille","lat":43.32365,"lon":5.36765,"is_reserved":false,"is_disabled":false,"rental_uris":{"android":"levelo://app?vid=421d447e-f137-48f8-b50a-3cef6ba73d00","ios":"levelo://app?vid=421d447e-f137-48f8-b50a-3cef6ba73d00"},"vehicle_type_id":"4","last_reported":1737702533,"current_range_meters":10800,"station_id":"ce4bhsh2rcd13ifvqi2g","pricing_plan_id":"cebpf4jnsgd1na2vs0mg"},{"bike_id":"75208fea-e4c3-48f8-b6e1-d73e822fb61e","system_id":"levelo_inurba_marseille","lat":43.282583,"lon":5.350759,"is_reserved":false,"is_disabled":false,"rental_uris":{"android":"levelo://app?vid=75208fea-e4c3-48f8-b6e1-d73e822fb61e","ios":"levelo://app?vid=75208fea-e4c3-48f8-b6e1-d73e822fb61e"},"vehicle_type_id":"4","last_reported":1737702533,"current_range_meters":7200,"station_id":"ce4bhbp2rcd13ifvqerg","pricing_plan_id":"cebpf4jnsgd1na2vs0mg"},{"bike_id":"4384d240-dc41-4658-97ee-153ff9a044f8","system_id":"levelo_inurba_marseille","lat":43.3089,"lon":5.39648,"is_reserved":false,"is_disabled":false,"rental_uris":{"android":"levelo://app?vid=4384d240-dc41-4658-97ee-153ff9a044f8","ios":"levelo://app?vid=4384d240-dc41-4658-97ee-153ff9a044f8"},"vehicle_type_id":"4","last_reported":1737702533,"current_range_meters":3600,"station_id":"ce4bh012rcd13ifvqcv0","pricing_plan_id":"cebpf4jnsgd1na2vs0mg"},{"bike_id":"f38f63fd-8f6f-4b91-9c49-8b65f256ffe9","system_id":"levelo_inurba_marseille","lat":43.29847,"lon":5.36274,"is_reserved":false,"is_disabled":true,"rental_uris":{"android":"levelo://app?vid=f38f63fd-8f6f-4b91-9c49-8b65f256ffe9","ios":"levelo://app?vid=f38f63fd-8f6f-4b91-9c49-8b65f256ffe9"},"vehicle_type_id":"4","last_reported":1737702533,"current_range_meters":36800,"station_id":"ce4bgpp2rcd13ifvqc3g","pricing_plan_id":"cebpf4jnsgd1na2vs0mg"},{"bike_id":"0ae424ae-384d-438d-b32f-a8cec590e1e0","system_id":"levelo_inurba_marseille","lat":43.28487,"lon":5.38555,"is_reserved":false,"is_disabled":false,"rental_uris":{"android":"levelo://app?vid=0ae424ae-384d-438d-b32f-a8cec590e1e0","ios":"levelo://app?vid=0ae424ae-384d-438d-b32f-a8cec590e1e0"},"vehicle_type_id":"4","last_reported":1737702533,"current_range_meters":23200,"station_id":"ce4bh8p2rcd13ifvqeb0","pricing_plan_id":"cebpf4jnsgd1na2vs0mg"},{"bike_id":"75495e7c-20bd-4569-84c6-35df34ab244d","system_id":"levelo_inurba_marseille","lat":43.298988,"lon":5.436711,"is_reserved":false,"is_disabled":true,"rental_uris":{"android":"levelo://app?vid=75495e7c-20bd-4569-84c6-35df34ab244d","ios":"levelo://app?vid=75495e7c-20bd-4569-84c6-35df34ab244d"},"vehicle_type_id":"4","last_reported":1737702533,"current_range_meters":0,"station_id":"ce4bhpp2rcd13ifvqhfg","pricing_plan_id":"cebpf4jnsgd1na2vs0mg"},{"bike_id":"1d3a7fdf-69b7-458d-b92b-456fad60e182","system_id":"levelo_inurba_marseille","lat":43.29569,"lon":5.37507,"is_reserved":false,"is_disabled":false,"rental_uris":{"android":"levelo://app?vid=1d3a7fdf-69b7-458d-b92b-456fad60e182","ios":"levelo://app?vid=1d3a7fdf-69b7-458d-b92b-456fad60e182"},"vehicle_type_id":"4","last_reported":1737702533,"current_range_meters":33200,"station_id":"ce4bgh92rcd13ifvqb50","pricing_plan_id":"cebpf4jnsgd1na2vs0mg"},{"bike_id":"da15334a-5855-4a85-ab13-a993b58a05d2","system_id":"levelo_inurba_marseille","lat":43.30532,"lon":5.38421,"is_reserved":false,"is_disabled":false,"rental_uris":{"android":"levelo://app?vid=da15334a-5855-4a85-ab13-a993b58a05d2","ios":"levelo://app?vid=da15334a-5855-4a85-ab13-a993b58a05d2"},"vehicle_type_id":"4","last_reported":1737702533,"current_range_meters":38800,"station_id":"ce4bgg92rcd13ifvqb30","pricing_plan_id":"cebpf4jnsgd1na2vs0mg"},{"bike_id":"2693e099-578a-4462-b03c-cb6a658dc0f3","system_id":"levelo_inurba_marseille","lat":43.29895,"lon":5.4366,"is_reserved":false,"is_disabled":false,"rental_uris":{"android":"levelo://app?vid=2693e099-578a-4462-b03c-cb6a658dc0f3","ios":"levelo://app?vid=2693e099-578a-4462-b03c-cb6a658dc0f3"},"vehicle_type_id":"4","last_reported":1737702533,"current_range_meters":39200,"station_id":"ce4bhpp2rcd13ifvqhfg","pricing_plan_id":"cebpf4jnsgd1na2vs0mg"},{"bike_id":"f15a3926-03ea-4c4b-9f1b-6e7324acfe94","system_id":"levelo_inurba_marseille","lat":43.28728,"lon":5.3764,"is_reserved":false,"is_disabled":true,"rental_uris":{"android":"levelo://app?vid=f15a3926-03ea-4c4b-9f1b-6e7324acfe94","ios":"levelo://app?vid=f15a3926-03ea-4c4b-9f1b-6e7324acfe94"},"vehicle_type_id":"4","last_reported":1737702533,"current_range_meters":8000,"station_id":"","pricing_plan_id":"cebpf4jnsgd1na2vs0mg"},{"bike_id":"2b53d9ac-d8ff-4c1b-90b5-d374c044ff66","system_id":"levelo_inurba_marseille","lat":43.271534,"lon":5.390143,"is_reserved":false,"is_disabled":false,"rental_uris":{"android":"levelo://app?vid=2b53d9ac-d8ff-4c1b-90b5-d374c044ff66","ios":"levelo://app?vid=2b53d9ac-d8ff-4c1b-90b5-d374c044ff66"},"vehicle_type_id":"4","last_reported":1737702533,"current_range_meters":24800,"station_id":"ce4bhnp2rcd13ifvqgvg","pricing_plan_id":"cebpf4jnsgd1na2vs0mg"},{"bike_id":"1d75731b-6c1f-4407-9937-059ea999e894","system_id":"levelo_inurba_marseille","lat":43.2827,"lon":5.35078,"is_reserved":false,"is_disabled":false,"rental_uris":{"android":"levelo://app?vid=1d75731b-6c1f-4407-9937-059ea999e894","ios":"levelo://app?vid=1d75731b-6c1f-4407-9937-059ea999e894"},"vehicle_type_id":"4","last_reported":1737702533,"current_range_meters":36400,"station_id":"ce4bhbp2rcd13ifvqerg","pricing_plan_id":"cebpf4jnsgd1na2vs0mg"},{"bike_id":"0683b8fa-bf66-4a85-b23f-305b1ef8e2c5","system_id":"levelo_inurba_marseille","lat":43.29875,"lon":5.4366,"is_reserved":false,"is_disabled":false,"rental_uris":{"android":"levelo://app?vid=0683b8fa-bf66-4a85-b23f-305b1ef8e2c5","ios":"levelo://app?vid=0683b8fa-bf66-4a85-b23f-305b1ef8e2c5"},"vehicle_type_id":"4","last_reported":1737702533,"current_range_meters":5600,"station_id":"ce4bhpp2rcd13ifvqhfg","pricing_plan_id":"cebpf4jnsgd1na2vs0mg"},{"bike_id":"ce9b6775-622a-4006-8fb5-f269869a0dfc","system_id":"levelo_inurba_marseille","lat":43.31359,"lon":5.385,"is_reserved":false,"is_disabled":true,"rental_uris":{"android":"levelo://app?vid=ce9b6775-622a-4006-8fb5-f269869a0dfc","ios":"levelo://app?vid=ce9b6775-622a-4006-8fb5-f269869a0dfc"},"vehicle_type_id":"4","last_reported":1737702533,"current_range_meters":27600,"station_id":"ce4bgt92rcd13ifvqcf0","pricing_plan_id":"cebpf4jnsgd1na2vs0mg"},{"bike_id":"f0faf8b3-ddf6-45e9-9120-31f94b0ba7bd","system_id":"levelo_inurba_marseille","lat":43.29039,"lon":5.37566,"is_reserved":false,"is_disabled":true,"rental_uris":{"android":"levelo://app?vid=f0faf8b3-ddf6-45e9-9120-31f94b0ba7bd","ios":"levelo://app?vid=f0faf8b3-ddf6-45e9-9120-31f94b0ba7bd"},"vehicle_type_id":"4","last_reported":1737702533,"current_range_meters":400,"station_id":"ce4bh692rcd13ifvqe90","pricing_plan_id":"cebpf4jnsgd1na2vs0mg"},{"bike_id":"560c0c5f-4d42-496e-b633-a0eb5f480ca1","system_id":"levelo_inurba_marseille","lat":43.2903,"lon":5.39969,"is_reserved":false,"is_disabled":false,"rental_uris":{"android":"levelo://app?vid=560c0c5f-4d42-496e-b633-a0eb5f480ca1","ios":"levelo://app?vid=560c0c5f-4d42-496e-b633-a0eb5f480ca1"},"vehicle_type_id":"4","last_reported":1737702533,"current_range_meters":30000,"station_id":"ce4bh392rcd13ifvqdm0","pricing_plan_id":"cebpf4jnsgd1na2vs0mg"},{"bike_id":"2b8fe84c-805f-4d51-95bc-76c94e7877b4","system_id":"levelo_inurba_marseille","lat":43.27407,"lon":5.39402,"is_reserved":false,"is_disabled":false,"rental_uris":{"android":"levelo://app?vid=2b8fe84c-805f-4d51-95bc-76c94e7877b4","ios":"levelo://app?vid=2b8fe84c-805f-4d51-95bc-76c94e7877b4"},"vehicle_type_id":"4","last_reported":1737702533,"current_range_meters":8400,"station_id":"ce4bhdp2rcd13ifvqf20","pricing_plan_id":"cebpf4jnsgd1na2vs0mg"},{"bike_id":"11f02af9-3c4f-495a-b669-1bd53df1e332","system_id":"levelo_inurba_marseille","lat":43.29099,"lon":5.3813,"is_reserved":false,"is_disabled":false,"rental_uris":{"android":"levelo://app?vid=11f02af9-3c4f-495a-b669-1bd53df1e332","ios":"levelo://app?vid=11f02af9-3c4f-495a-b669-1bd53df1e332"},"vehicle_type_id":"4","last_reported":1737702533,"current_range_meters":30800,"station_id":"ce4bh512rcd13ifvqe2g","pricing_plan_id":"cebpf4jnsgd1na2vs0mg"},{"bike_id":"90948814-a0db-4455-8709-cd0b6ee4bb48","system_id":"levelo_inurba_marseille","lat":43.33767,"lon":5.37438,"is_reserved":false,"is_disabled":false,"rental_uris":{"android":"levelo://app?vid=90948814-a0db-4455-8709-cd0b6ee4bb48","ios":"levelo://app?vid=90948814-a0db-4455-8709-cd0b6ee4bb48"},"vehicle_type_id":"4","last_reported":1737702533,"current_range_meters":8800,"station_id":"","pricing_plan_id":"cebpf4jnsgd1na2vs0mg"},{"bike_id":"6a8a43a8-6ca9-4ca5-8079-ff2d04c51966","system_id":"levelo_inurba_marseille","lat":43.27495,"lon":5.42452,"is_reserved":false,"is_disabled":false,"rental_uris":{"android":"levelo://app?vid=6a8a43a8-6ca9-4ca5-8079-ff2d04c51966","ios":"levelo://app?vid=6a8a43a8-6ca9-4ca5-8079-ff2d04c51966"},"vehicle_type_id":"4","last_reported":1737702533,"current_range_meters":28400,"station_id":"ce4bhn92rcd13ifvqgrg","pricing_plan_id":"cebpf4jnsgd1na2vs0mg"},{"bike_id":"5aa86e77-68d8-4306-93c9-901087ed7ea3","system_id":"levelo_inurba_marseille","lat":43.29876,"lon":5.38663,"is_reserved":false,"is_disabled":false,"rental_uris":{"android":"levelo://app?vid=5aa86e77-68d8-4306-93c9-901087ed7ea3","ios":"levelo://app?vid=5aa86e77-68d8-4306-93c9-901087ed7ea3"},"vehicle_type_id":"4","last_reported":1737702533,"current_range_meters":29600,"station_id":"ce4bh392rcd13ifvqdl0","pricing_plan_id":"cebpf4jnsgd1na2vs0mg"},{"bike_id":"6a8bf9db-e0a5-474d-bdce-1b2d10b00dac","system_id":"levelo_inurba_marseille","lat":43.30477,"lon":5.37897,"is_reserved":false,"is_disabled":false,"rental_uris":{"android":"levelo://app?vid=6a8bf9db-e0a5-474d-bdce-1b2d10b00dac","ios":"levelo://app?vid=6a8bf9db-e0a5-474d-bdce-1b2d10b00dac"},"vehicle_type_id":"4","last_reported":1737702533,"current_range_meters":38000,"station_id":"ce4bgup2rcd13ifvqcn0","pricing_plan_id":"cebpf4jnsgd1na2vs0mg"},{"bike_id":"bcd1ba24-9adb-4237-a6d8-ef1cf6410d99","system_id":"levelo_inurba_marseille","lat":43.28269,"lon":5.35064,"is_reserved":false,"is_disabled":false,"rental_uris":{"android":"levelo://app?vid=bcd1ba24-9adb-4237-a6d8-ef1cf6410d99","ios":"levelo://app?vid=bcd1ba24-9adb-4237-a6d8-ef1cf6410d99"},"vehicle_type_id":"4","last_reported":1737702533,"current_range_meters":28800,"station_id":"ce4bhbp2rcd13ifvqerg","pricing_plan_id":"cebpf4jnsgd1na2vs0mg"},{"bike_id":"fb9a0ebd-a8cb-456c-aaa4-7d38ec3ab999","system_id":"levelo_inurba_marseille","lat":43.28272,"lon":5.35072,"is_reserved":false,"is_disabled":false,"rental_uris":{"android":"levelo://app?vid=fb9a0ebd-a8cb-456c-aaa4-7d38ec3ab999","ios":"levelo://app?vid=fb9a0ebd-a8cb-456c-aaa4-7d38ec3ab999"},"vehicle_type_id":"4","last_reported":1737702533,"current_range_meters":14400,"station_id":"ce4bhbp2rcd13ifvqerg","pricing_plan_id":"cebpf4jnsgd1na2vs0mg"},{"bike_id":"672ac2db-9a65-4459-b513-eab28cc75d7f","system_id":"levelo_inurba_marseille","lat":43.27492,"lon":5.42454,"is_reserved":false,"is_disabled":false,"rental_uris":{"android":"levelo://app?vid=672ac2db-9a65-4459-b513-eab28cc75d7f","ios":"levelo://app?vid=672ac2db-9a65-4459-b513-eab28cc75d7f"},"vehicle_type_id":"4","last_reported":1737702533,"current_range_meters":12000,"station_id":"ce4bhn92rcd13ifvqgrg","pricing_plan_id":"cebpf4jnsgd1na2vs0mg"},{"bike_id":"be19ac94-1df6-4dcf-a7ce-78e7d06be049","system_id":"levelo_inurba_marseille","lat":43.29026,"lon":5.39966,"is_reserved":false,"is_disabled":false,"rental_uris":{"android":"levelo://app?vid=be19ac94-1df6-4dcf-a7ce-78e7d06be049","ios":"levelo://app?vid=be19ac94-1df6-4dcf-a7ce-78e7d06be049"},"vehicle_type_id":"4","last_reported":1737702533,"current_range_meters":22000,"station_id":"ce4bh392rcd13ifvqdm0","pricing_plan_id":"cebpf4jnsgd1na2vs0mg"},{"bike_id":"46a6f3ea-bf9e-49e8-ba46-58296b2ab5d6","system_id":"levelo_inurba_marseille","lat":43.25818,"lon":5.39428,"is_reserved":false,"is_disabled":false,"rental_uris":{"android":"levelo://app?vid=46a6f3ea-bf9e-49e8-ba46-58296b2ab5d6","ios":"levelo://app?vid=46a6f3ea-bf9e-49e8-ba46-58296b2ab5d6"},"vehicle_type_id":"4","last_reported":1737702533,"current_range_meters":39200,"station_id":"ce4bhip2rcd13ifvqft0","pricing_plan_id":"cebpf4jnsgd1na2vs0mg"},