{"last_updated":1732295279,"ttl":60,"version":"2.2","data":{"bikes":[{"bike_id":"9a2a0461-b1c0-4b47-bee3-cb5b2477b8ba","system_id":"levelo_inurba_marseille","lat":43.30959,"lon":5.37977,"is_reserved":false,"is_disabled":false,"rental_uris":{"android":"levelo://app?vid=9a2a0461-b1c0-4b47-bee3-cb5b2477b8ba","ios":"levelo://app?vid=9a2a0461-b1c0-4b47-bee3-cb5b2477b8ba"},"vehicle_type_id":"4","last_reported":1732295280,"current_range_meters":28400,"station_id":"","pricing_plan_id":"cebpf4jnsgd1na2vs0mg"},{"bike_id":"e23b6c4c-d27e-407e-a72b-e3ea9129fcf8","system_id":"levelo_inurba_marseille","lat":43.32363,"lon":5.38884,"is_reserved":false,"is_disabled":false,"rental_uris":{"android":"levelo://app?vid=e23b6c4c-d27e-407e-a72b-e3ea9129fcf8","ios":"levelo://app?vid=e23b6c4c-d27e-407e-a72b-e3ea9129fcf8"},"vehicle_type_id":"4","last_reported":1732295280,"current_range_meters":33600,"station_id":"ce4bhqp2rcd13ifvqhog","pricing_plan_id":"cebpf4jnsgd1na2vs0mg"},{"bike_id":"21f96af8-6214-4066-a053-a6d3a0825aaa","system_id":"levelo_inurba_marseille","lat":43.25504,"lon":5.37654,"is_reserved":false,"is_disabled":false,"rental_uris":{"android":"levelo://app?vid=21f96af8-6214-4066-a053-a6d3a0825aaa","ios":"levelo://app?vid=21f96af8-6214-4066-a053-a6d3a0825aaa"},"vehicle_type_id":"4","last_reported":1732295280,"current_range_meters":33200,"station_id":"ce4bhh12rcd13ifvqff0","pricing_plan_id":"cebpf4jnsgd1na2vs0mg"},{"bike_id":"08f392b7-fb0b-40fb-b32a-822f164ec237","system_id":"levelo_inurba_marseille","lat":43.2694,"lon":5.40243,"is_reserved":false,"is_disabled":false,"rental_uris":{"android":"levelo://app?vid=08f392b7-fb0b-40fb-b32a-822f164ec237","ios":"levelo://app?vid=08f392b7-fb0b-40fb-b32a-822f164ec237"},"vehicle_type_id":"4","last_reported":1732295280,"current_range_meters":10800,"station_id":"cjm6bp8fraef2m0cb0m0","pricing_plan_id":"cebpf4jnsgd1na2vs0mg"},{"bike_id":"6dd72399-4c36-4f79-acf1-4c5ee36d28ce","system_id":"levelo_inurba_marseille","lat":43.26064,"lon":5.39395,"is_reserved":false,"is_disabled":false,"rental_uris":{"android":"levelo://app?vid=6dd72399-4c36-4f79-acf1-4c5ee36d28ce","ios":"levelo://app?vid=6dd72399-4c36-4f79-acf1-4c5ee36d28ce"},"vehicle_type_id":"4","last_reported":1732295280,"current_range_meters":35200,"station_id":"ce4bhh92rcd13ifvqfj0","pricing_plan_id":"cebpf4jnsgd1na2vs0mg"},{"bike_id":"11114092-3108-4d5a-be35-06e9090d2527","system_id":"levelo_inurba_marseille","lat":43.2682,"lon":5.4111,"is_reserved":false,"is_disabled":false,"rental_uris":{"android":"levelo://app?vid=11114092-3108-4d5a-be35-06e9090d2527","ios":"levelo://app?vid=11114092-3108-4d5a-be35-06e9090d2527"},"vehicle_type_id":"4","last_reported":1732295280,"current_range_meters":27200,"station_id":"","pricing_plan_id":"cebpf4jnsgd1na2vs0mg"},{"bike_id":"bf424558-4d73-497a-8842-477ef3a203b9","system_id":"levelo_inurba_marseille","lat":43.29554,"lon":5.42286,"is_reserved":false,"is_disabled":false,"rental_uris":{"android":"levelo://app?vid=bf424558-4d73-497a-8842-477ef3a203b9","ios":"levelo://app?vid=bf424558-4d73-497a-8842-477ef3a203b9"},"vehicle_type_id":"4","last_reported":1732295280,"current_range_meters":38800,"station_id":"ce4bhph2rcd13ifvqhdg","pricing_plan_id":"cebpf4jnsgd1na2vs0mg"},{"bike_id":"cc45001e-86ba-42cc-9993-ed5261abbfe0","system_id":"levelo_inurba_marseille","lat":43.32363,"lon":5.38887,"is_reserved":false,"is_disabled":false,"rental_uris":{"android":"levelo://app?vid=cc45001e-86ba-42cc-9993-ed5261abbfe0","ios":"levelo://app?vid=cc45001e-86ba-42cc-9993-ed5261abbfe0"},"vehicle_type_id":"4","last_reported":1732295280,"current_range_meters":12800,"station_id":"ce4bhqp2rcd13ifvqhog","pricing_plan_id":"cebpf4jnsgd1na2vs0mg"},{"bike_id":"eb2746ce-8c81-413d-999f-bedd22942363","system_id":"levelo_inurba_marseille","lat":43.29848,"lon":5.36288,"is_reserved":false,"is_disabled":false,"rental_uris":{"android":"levelo://app?vid=eb2746ce-8c81-413d-999f-bedd22942363","ios":"levelo://app?vid=eb2746ce-8c81-413d-999f-bedd22942363"},"vehicle_type_id":"4","last_reported":1732295280,"current_range_meters":31200,"station_id":"ce4bgpp2rcd13ifvqc3g","pricing_plan_id":"cebpf4jnsgd1na2vs0mg"},{"bike_id":"b9276403-dd49-4178-ac3a-8fb925e6526c","system_id":"levelo_inurba_marseille","lat":43.24664,"lon":5.3817,"is_reserved":false,"is_disabled":true,"rental_uris":{"android":"levelo://app?vid=b9276403-dd49-4178-ac3a-8fb925e6526c","ios":"levelo://app?vid=b9276403-dd49-4178-ac3a-8fb925e6526c"},"vehicle_type_id":"4","last_reported":1732295280,"current_range_meters":1200,"station_id":"ce4bhih2rcd13ifvqfr0","pricing_plan_id":"cebpf4jnsgd1na2vs0mg"},{"bike_id":"c0755ad7-8353-40d1-98a4-bba43ca0e3ab","system_id":"levelo_inurba_marseille","lat":43.33729,"lon":5.39191,"is_reserved":false,"is_disabled":false,"rental_uris":{"android":"levelo://app?vid=c0755ad7-8353-40d1-98a4-bba43ca0e3ab","ios":"levelo://app?vid=c0755ad7-8353-40d1-98a4-bba43ca0e3ab"},"vehicle_type_id":"4","last_reported":1732295280,"current_range_meters":11200,"station_id":"ce4bhr92rcd13ifvqhsg","pricing_plan_id":"cebpf4jnsgd1na2vs0mg"},{"bike_id":"88eba2c0-6497-4d44-9139-2e81e8ca0ff2","system_id":"levelo_inurba_marseille","lat":43.258184,"lon":5.394415,"is_reserved":false,"is_disabled":false,"rental_uris":{"android":"levelo://app?vid=88eba2c0-6497-4d44-9139-2e81e8ca0ff2","ios":"levelo://app?vid=88eba2c0-6497-4d44-9139-2e81e8ca0ff2"},"vehicle_type_id":"4","last_reported":1732295280,"current_range_meters":38800,"station_id":"ce4bhip2rcd13ifvqft0","pricing_plan_id":"cebpf4jnsgd1na2vs0mg"},{"bike_id":"39994cb7-72be-4670-9890-a2908e3ae255","system_id":"levelo_inurba_marseille","lat":43.28928,"lon":5.364,"is_reserved":false,"is_disabled":false,"rental_uris":{"android":"levelo://app?vid=39994cb7-72be-4670-9890-a2908e3ae255","ios":"levelo://app?vid=39994cb7-72be-4670-9890-a2908e3ae255"},"vehicle_type_id":"4","last_reported":1732295280,"current_range_meters":24400,"station_id":"ce4bhc92rcd13ifvqetg","pricing_plan_id":"cebpf4jnsgd1na2vs0mg"},{"bike_id":"253d2ce6-caed-4854-89df-bb73cab6c29b","system_id":"levelo_inurba_marseille","lat":43.27673,"lon":5.3892,"is_reserved":false,"is_disabled":true,"rental_uris":{"android":"levelo://app?vid=253d2ce6-caed-4854-89df-bb73cab6c29b","ios":"levelo://app?vid=253d2ce6-caed-4854-89df-bb73cab6c29b"},"vehicle_type_id":"4","last_reported":1732295280,"current_range_meters":0,"station_id":"ce4bhi12rcd13ifvqfo0","pricing_plan_id":"cebpf4jnsgd1na2vs0mg"},{"bike_id":"648fea4c-d15a-4229-9feb-bafe88cbbe70","system_id":"levelo_inurba_marseille","lat":43.2796,"lon":5.4176,"is_reserved":false,"is_disabled":true,"rental_uris":{"android":"levelo://app?vid=648fea4c-d15a-4229-9feb-bafe88cbbe70","ios":"levelo://app?vid=648fea4c-d15a-4229-9feb-bafe88cbbe70"},"vehicle_type_id":"4","last_reported":1732295280,"current_range_meters":0,"station_id":"","pricing_plan_id":"cebpf4jnsgd1na2vs0mg"},{"bike_id":"a3dfa29f-d880-4cbe-b909-b4e217158e03","system_id":"levelo_inurba_marseille","lat":43.27178,"lon":5.40994,"is_reserved":false,"is_disabled":true,"rental_uris":{"android":"levelo://app?vid=a3dfa29f-d880-4cbe-b909-b4e217158e03","ios":"levelo://app?vid=a3dfa29f-d880-4cbe-b909-b4e217158e03"},"vehicle_type_id":"4","last_reported":1732295280,"current_range_meters":34800,"station_id":"ce4bhl12rcd13ifvqgf0","pricing_plan_id":"cebpf4jnsgd1na2vs0mg"},{"bike_id":"d2321b4c-ae3a-4b43-8bcd-12cb7984481d","system_id":"levelo_inurba_marseille","lat":43.30741,"lon":5.37028,"is_reserved":false,"is_disabled":true,"rental_uris":{"android":"levelo://app?vid=d2321b4c-ae3a-4b43-8bcd-12cb7984481d","ios":"levelo://app?vid=d2321b4c-ae3a-4b43-8bcd-12cb7984481d"},"vehicle_type_id":"4","last_reported":1732295280,"current_range_meters":16400,"station_id":"","pricing_plan_id":"cebpf4jnsgd1na2vs0mg"},{"bike_id":"28cab644-6939-410a-baab-c1bdc4224832","system_id":"levelo_inurba_marseille","lat":43.32364,"lon":5.38886,"is_reserved":false,"is_disabled":false,"rental_uris":{"android":"levelo://app?vid=28cab644-6939-410a-baab-c1bdc4224832","ios":"levelo://app?vid=28cab644-6939-410a-baab-c1bdc4224832"},"vehicle_type_id":"4","last_reported":1732295280,"current_range_meters":34000,"station_id":"ce4bhqp2rcd13ifvqhog","pricing_plan_id":"cebpf4jnsgd1na2vs0mg"},{"bike_id":"9be72814-f80c-46a7-b916-ab8ba52deb9f","system_id":"levelo_inurba_marseille","lat":43.26807,"lon":5.40268,"is_reserved":false,"is_disabled":false,"rental_uris":{"android":"levelo://app?vid=9be72814-f80c-46a7-b916-ab8ba52deb9f","ios":"levelo://app?vid=9be72814-f80c-46a7-b916-ab8ba52deb9f"},"vehicle_type_id":"4","last_reported":1732295280,"current_range_meters":30000,"station_id":"ce501612rcd8frsf0b60","pricing_plan_id":"cebpf4jnsgd1na2vs0mg"},{"bike_id":"5c3000a0-a190-4007-a723-aa2707fd1ce3","system_id":"levelo_inurba_marseille","lat":43.22933,"lon":5.35396,"is_reserved":false,"is_disabled":false,"rental_uris":{"android":"levelo://app?vid=5c3000a0-a190-4007-a723-aa2707fd1ce3","ios":"levelo://app?vid=5c3000a0-a190-4007-a723-aa2707fd1ce3"},"vehicle_type_id":"4","last_reported":1732295280,"current_range_meters":38800,"station_id":"cpo3532slgdg3j2ikp40","pricing_plan_id":"cebpf4jnsgd1na2vs0mg"},{"bike_id":"1c5fdcc2-ba84-4c46-bf38-3d224d434b52","system_id":"levelo_inurba_marseille","lat":43.32344,"lon":5.40633,"is_reserved":false,"is_disabled":false,"rental_uris":{"android":"levelo://app?vid=1c5fdcc2-ba84-4c46-bf38-3d224d434b52","ios":"levelo://app?vid=1c5fdcc2-ba84-4c46-bf38-3d224d434b52"},"vehicle_type_id":"4","last_reported":1732295280,"current_range_meters":38800,"station_id":"ce4bhq92rcd13ifvqhjg","pricing_plan_id":"cebpf4jnsgd1na2vs0mg"},{"bike_id":"eb2ff30c-ce81-4a7d-9e0c-6502401b8e26","system_id":"levelo_inurba_marseille","lat":43.25001,"lon":5.38934,"is_reserved":false,"is_disabled":false,"rental_uris":{"android":"levelo://app?vid=eb2ff30c-ce81-4a7d-9e0c-6502401b8e26","ios":"levelo://app?vid=eb2ff30c-ce81-4a7d-9e0c-6502401b8e26"},"vehicle_type_id":"4","last_reported":1732295280,"current_range_meters":8400,"station_id":"ce4bhgp2rcd13ifvqfd0","pricing_plan_id":"cebpf4jnsgd1na2vs0mg"},{"bike_id":"1f71c2f7-653f-46e6-9904-1c2a214963bc","system_id":"levelo_inurba_marseille","lat":43.30496,"lon":5.37306,"is_reserved":false,"is_disabled":false,"rental_uris":{"android":"levelo://app?vid=1f71c2f7-653f-46e6-9904-1c2a214963bc","ios":"levelo://app?vid=1f71c2f7-653f-46e6-9904-1c2a214963bc"},"vehicle_type_id":"4","last_reported":1732295280,"current_range_meters":7200,"station_id":"","pricing_plan_id":"cebpf4jnsgd1na2vs0mg"},{"bike_id":"3f4b586a-f19b-437c-a62a-b21b76562db2","system_id":"levelo_inurba_marseille","lat":43.23187,"lon":5.39986,"is_reserved":false,"is_disabled":false,"rental_uris":{"android":"levelo://app?vid=3f4b586a-f19b-437c-a62a-b21b76562db2","ios":"levelo://app?vid=3f4b586a-f19b-437c-a62a-b21b76562db2"},"vehicle_type_id":"4","last_reported":1732295280,"current_range_meters":2800,"station_id":"ce4bhn12rcd13ifvqgqg","pricing_plan_id":"cebpf4jnsgd1na2vs0mg"},{"bike_id":"acbeb889-5230-478f-abf8-74b66a734967","system_id":"levelo_inurba_marseille","lat":43.24549,"lon":5.3952,"is_reserved":false,"is_disabled":false,"rental_uris":{"android":"levelo://app?vid=acbeb889-5230-478f-abf8-74b66a734967","ios":"levelo://app?vid=acbeb889-5230-478f-abf8-74b66a734967"},"vehicle_type_id":"4","last_reported":1732295280,"current_range_meters":8800,"station_id":"ce4bhlp2rcd13ifvqgjg","pricing_plan_id":"cebpf4jnsgd1na2vs0mg"},{"bike_id":"74b5463a-01d7-428c-a87f-824daf27cde1","system_id":"levelo_inurba_marseille","lat":43.33028,"lon":5.39046,"is_reserved":false,"is_disabled":false,"rental_uris":{"android":"levelo://app?vid=74b5463a-01d7-428c-a87f-824daf27cde1","ios":"levelo://app?vid=74b5463a-01d7-428c-a87f-824daf27cde1"},"vehicle_type_id":"4","last_reported":1732295280,"current_range_meters":22800,"station_id":"ce4bhr92rcd13ifvqhrg","pricing_plan_id":"cebpf4jnsgd1na2vs0mg"},{"bike_id":"4a590ede-9f4e-4a85-a40f-8534d0a44f57","system_id":"levelo_inurba_marseille","lat":43.30912,"lon":5.36856,"is_reserved":false,"is_disabled":false,"rental_uris":{"android":"levelo://app?vid=4a590ede-9f4e-4a85-a40f-8534d0a44f57","ios":"levelo://app?vid=4a590ede-9f4e-4a85-a40f-8534d0a44f57"},"vehicle_type_id":"4","last_reported":1732295280,"current_range_meters":28800,"station_id":"ce4bgn92rcd13ifvqbvg","pricing_plan_id":"cebpf4jnsgd1na2vs0mg"},{"bike_id":"db096ee3-a548-4661-a18a-686fcedc57f8","system_id":"levelo_inurba_marseille","lat":43.32639,"lon":5.41007,"is_reserved":false,"is_disabled":false,"rental_uris":{"android":"levelo://app?vid=db096ee3-a548-4661-a18a-686fcedc57f8","ios":"levelo://app?vid=db096ee3-a548-4661-a18a-686fcedc57f8"},"vehicle_type_id":"4","last_reported":1732295280,"current_range_meters":8000,"station_id":"ce4bhpp2rcd13ifvqhgg","pricing_plan_id":"cebpf4jnsgd1na2vs0mg"},{"bike_id":"1cd0daee-d68a-4e66-9883-fbe67fd8260f","system_id":"levelo_inurba_marseille","lat":43.305794,"lon":5.370686,"is_reserved":false,"is_disabled":true,"rental_uris":{"android":"levelo://app?vid=1cd0daee-d68a-4e66-9883-fbe67fd8260f","ios":"levelo://app?vid=1cd0daee-d68a-4e66-9883-fbe67fd8260f"},"vehicle_type_id":"4","last_reported":1732295280,"current_range_meters":0,"station_id":"","pricing_plan_id":"cebpf4jnsgd1na2vs0mg"},{"bike_id":"3ecd968f-1f7e-4bd4-968d-4e3b4005d51b","system_id":"levelo_inurba_marseille","lat":43.31053,"lon":5.37894,"is_reserved":false,"is_disabled":true,"rental_uris":{"android":"levelo://app?vid=3ecd968f-1f7e-4bd4-968d-4e3b4005d51b","ios":"levelo://app?vid=3ecd968f-1f7e-4bd4-968d-4e3b4005d51b"},"vehicle_type_id":"4","last_reported":1732295280,"current_range_meters":2800,"station_id":"","pricing_plan_id":"cebpf4jnsgd1na2vs0mg"},{"bike_id":"7d002f6e-5cee-40f2-b3e1-2dbbf4171eb7","system_id":"levelo_inurba_marseille","lat":43.28151,"lon":5.42641,"is_reserved":false,"is_disabled":false,"rental_uris":{"android":"levelo://app?vid=7d002f6e-5cee-40f2-b3e1-2dbbf4171eb7","ios":"levelo://app?vid=7d002f6e-5cee-40f2-b3e1-2dbbf4171eb7"},"vehicle_type_id":"4","last_reported":1732295280,"current_range_meters":30800,"station_id":"ce4bhnh2rcd13ifvqgug","pricing_plan_id":"cebpf4jnsgd1na2vs0mg"},{"bike_id":"edfe965f-0e53-4567-827b-550e6339e151","system_id":"levelo_inurba_marseille","lat":43.28931,"lon":5.38388,"is_reserved":false,"is_disabled":false,"rental_uris":{"android":"levelo://app?vid=edfe965f-0e53-4567-827b-550e6339e151","ios":"levelo://app?vid=edfe965f-0e53-4567-827b-550e6339e151"},"vehicle_type_id":"4","last_reported":1732295280,"current_range_meters":38000,"station_id":"ce4bh612rcd13ifvqe6g","pricing_plan_id":"cebpf4jnsgd1na2vs0mg"},{"bike_id":"0ddfa46a-4055-4654-8da1-794fa513a354","system_id":"levelo_inurba_marseille","lat":43.26201,"lon":5.3794,"is_reserved":false,"is_disabled":false,"rental_uris":{"android":"levelo://app?vid=0ddfa46a-4055-4654-8da1-794fa513a354","ios":"levelo://app?vid=0ddfa46a-4055-4654-8da1-794fa513a354"},"vehicle_type_id":"4","last_reported":1732295280,"current_range_meters":10000,"station_id":"ce4bhjp2rcd13ifvqg90","pricing_plan_id":"cebpf4jnsgd1na2vs0mg"},{"bike_id":"3d0508ea-89aa-4ee0-9462-e0dc6b859011","system_id":"levelo_inurba_marseille","lat":43.29846,"lon":5.36278,"is_reserved":false,"is_disabled":false,"rental_uris":{"android":"levelo://app?vid=3d0508ea-89aa-4ee0-9462-e0dc6b859011","ios":"levelo://app?vid=3d0508ea-89aa-4ee0-9462-e0dc6b859011"},"vehicle_type_id":"4","last_reported":1732295280,"current_range_meters":36000,"station_id":"ce4bgpp2rcd13ifvqc3g","pricing_plan_id":"cebpf4jnsgd1na2vs0mg"},{"bike_id":"284d5da0-0d0c-424e-8f1b-26c7d675b496","system_id":"levelo_inurba_marseille","lat":43.27959,"lon":5.38751,"is_reserved":false,"is_disabled":false,"rental_uris":{"android":"levelo://app?vid=284d5da0-0d0c-424e-8f1b-26c7d675b496","ios":"levelo://app?vid=284d5da0-0d0c-424e-8f1b-26c7d675b496"},"vehicle_type_id":"4","last_reported":1732295280,"current_range_meters":7200,"station_id":"ce4bhg12rcd13ifvqf80","pricing_plan_id":"cebpf4jnsgd1na2vs0mg"},{"bike_id":"0a888c1c-922f-4973-9872-7cf0fdfa8c4f","system_id":"levelo_inurba_marseille","lat":43.30123,"lon":5.39867,"is_reserved":false,"is_disabled":false,"rental_uris":{"android":"levelo://app?vid=0a888c1c-922f-4973-9872-7cf0fdfa8c4f","ios":"levelo://app?vid=0a888c1c-922f-4973-9872-7cf0fdfa8c4f"},"vehicle_type_id":"4","last_reported":1732295280,"current_range_meters":36800,"station_id":"ce4bh0h2rcd13ifvqd40","pricing_plan_id":"cebpf4jnsgd1na2vs0mg"},{"bike_id":"e0fd4acf-c8af-4992-81c7-42e6e1cc1168","system_id":"levelo_inurba_marseille","lat":43.28488,"lon":5.38576,"is_reserved":false,"is_disabled":false,"rental_uris":{"android":"levelo://app?vid=e0fd4acf-c8af-4992-81c7-42e6e1cc1168","ios":"levelo://app?vid=e0fd4acf-c8af-4992-81c7-42e6e1cc1168"},"vehicle_type_id":"4","last_reported":1732295280,"current_range_meters":7200,"station_id":"ce4bh8p2rcd13ifvqeb0","pricing_plan_id":"cebpf4jnsgd1na2vs0mg"},{"bike_id":"c8c71d6a-3155-4ee9-ba4f-a4d0d36b4405","system_id":"levelo_inurba_marseille","lat":43.26678,"lon":5.38278,"is_reserved":false,"is_disabled":false,"rental_uris":{"android":"levelo://app?vid=c8c71d6a-3155-4ee9-ba4f-a4d0d36b4405","ios":"levelo://app?vid=c8c71d6a-3155-4ee9-ba4f-a4d0d36b4405"},"vehicle_type_id":"4","last_reported":1732295280,"current_range_meters":39200,"station_id":"ce4bhg92rcd13ifvqf90","pricing_plan_id":"cebpf4jnsgd1na2vs0mg"},{"bike_id":"7a8db3dc-7ed9-4c06-814c-f1b4ad393ca2","system_id":"levelo_inurba_marseille","lat":43.32082,"lon":5.38306,"is_reserved":false,"is_disabled":false,"rental_uris":{"android":"levelo://app?vid=7a8db3dc-7ed9-4c06-814c-f1b4ad393ca2","ios":"levelo://app?vid=7a8db3dc-7ed9-4c06-814c-f1b4ad393ca2"},"vehicle_type_id":"4","last_reported":1732295280,"current_range_meters":32800,"station_id":"","pricing_plan_id":"cebpf4jnsgd1na2vs0mg"},{"bike_id":"ac1b3788-b03a-4376-bf72-320fd033ea51","system_id":"levelo_inurba_marseille","lat":43.27667,"lon":5.38915,"is_reserved":false,"is_disabled":true,"rental_uris":{"android":"levelo://app?vid=ac1b3788-b03a-4376-bf72-320fd033ea51","ios":"levelo://app?vid=ac1b3788-b03a-4376-bf72-320fd033ea51"},"vehicle_type_id":"4","last_reported":1732295280,"current_range_meters":8000,"station_id":"ce4bhi12rcd13ifvqfo0","pricing_plan_id":"cebpf4jnsgd1na2vs0mg"},{"bike_id":"d9daeadf-8773-4027-91eb-b4134ba7ee7d","system_id":"levelo_inurba_marseille","lat":43.29576,"lon":5.36747,"is_reserved":false,"is_disabled":false,"rental_uris":{"android":"levelo://app?vid=d9daeadf-8773-4027-91eb-b4134ba7ee7d","ios":"levelo://app?vid=d9daeadf-8773-4027-91eb-b4134ba7ee7d"},"vehicle_type_id":"4","last_reported":1732295280,"current_range_meters":36800,"station_id":"ce4bgph2rcd13ifvqc2g","pricing_plan_id":"cebpf4jnsgd1na2vs0mg"},{"bike_id":"8c1861af-52da-43c7-8210-2c91f6d28a94","system_id":"levelo_inurba_marseille","lat":43.29067,"lon":5.37175,"is_reserved":false,"is_disabled":false,"rental_uris":{"android":"levelo://app?vid=8c1861af-52da-43c7-8210-2c91f6d28a94","ios":"levelo://app?vid=8c1861af-52da-43c7-8210-2c91f6d28a94"},"vehicle_type_id":"4","last_reported":1732295280,"current_range_meters":18000,"station_id":"ce4bh5p2rcd13ifvqe4g","pricing_plan_id":"cebpf4jnsgd1na2vs0mg"},{"bike_id":"ed44a576-1c92-410d-ba92-7ee65a33f98d","system_id":"levelo_inurba_marseille","lat":43.29556,"lon":5.42292,"is_reserved":false,"is_disabled":false,"rental_uris":{"android":"levelo://app?vid=ed44a576-1c92-410d-ba92-7ee65a33f98d","ios":"levelo://app?vid=ed44a576-1c92-410d-ba92-7ee65a33f98d"},"vehicle_type_id":"4","last_reported":1732295280,"current_range_meters":3600,"station_id":"ce4bhph2rcd13ifvqhdg","pricing_plan_id":"cebpf4jnsgd1na2vs0mg"},{"bike_id":"ebe2b43b-e5bb-4158-835b-e46b2ce0d167","system_id":"levelo_inurba_marseille","lat":43.22928,"lon":5.35372,"is_reserved":false,"is_disabled":false,"rental_uris":{"android":"levelo://app?vid=ebe2b43b-e5bb-4158-835b-e46b2ce0d167","ios":"levelo://app?vid=ebe2b43b-e5bb-4158-835b-e46b2ce0d167"},"vehicle_type_id":"4","last_reported":1732295280,"current_range_meters":33200,"station_id":"cpo3532slgdg3j2ikp40","pricing_plan_id":"cebpf4jnsgd1na2vs0mg"},{"bike_id":"830db305-47e1-4206-8f68-075e00446ad4","system_id":"levelo_inurba_marseille","lat":43.23158,"lon":5.43724,"is_reserved":false,"is_disabled":true,"rental_uris":{"android":"levelo://app?vid=830db305-47e1-4206-8f68-075e00446ad4","ios":"levelo://app?vid=830db305-47e1-4206-8f68-075e00446ad4"},"vehicle_type_id":"4","last_reported":1732295280,"current_range_meters":0,"station_id":"ce4bhmp2rcd13ifvqgog","pricing_plan_id":"cebpf4jnsgd1na2vs0mg"},{"bike_id":"6513b85c-cdad-4cdd-b687-6a79a69ea69d","system_id":"levelo_inurba_marseille","lat":43.31489,"lon":5.37311,"is_reserved":false,"is_disabled":false,"rental_uris":{"android":"levelo://app?vid=6513b85c-cdad-4cdd-b687-6a79a69ea69d","ios":"levelo://app?vid=6513b85c-cdad-4cdd-b687-6a79a69ea69d"},"vehicle_type_id":"4","last_reported":1732295280,"current_range_meters":8400,"station_id":"ce4bgt12rcd13ifvqcd0","pricing_plan_id":"cebpf4jnsgd1na2vs0mg"},{"bike_id":"1a226e76-c365-4371-ad26-0687d5b26075","system_id":"levelo_inurba_marseille","lat":43.30135,"lon":5.3877,"is_reserved":false,"is_disabled":false,"rental_uris":{"android":"levelo://app?vid=1a226e76-c365-4371-ad26-0687d5b26075","ios":"levelo://app?vid=1a226e76-c365-4371-ad26-0687d5b26075"},"vehicle_type_id":"4","last_reported":1732295280,"current_range_meters":33200,"station_id":"ce4bghh2rcd13ifvqb60","pricing_plan_id":"cebpf4jnsgd1na2vs0mg"},{"bike_id":"9ac6a4c9-73c6-43bd-bc2d-7c8e92538ee4","system_id":"levelo_inurba_marseille","lat":43.27176,"lon":5.40997,"is_reserved":false,"is_disabled":false,"rental_uris":{"android":"levelo://app?vid=9ac6a4c9-73c6-43bd-bc2d-7c8e92538ee4","ios":"levelo://app?vid=9ac6a4c9-73c6-43bd-bc2d-7c8e92538ee4"},"vehicle_type_id":"4","last_reported":1732295280,"current_range_meters":28800,"station_id":"ce4bhl12rcd13ifvqgf0","pricing_plan_id":"cebpf4jnsgd1na2vs0mg"},{"bike_id":"ce1f09ad-acbd-43d2-b1e9-fc5753876381","system_id":"levelo_inurba_marseille","lat":43.28617,"lon":5.35108,"is_reserved":false,"is_disabled":false,"rental_uris":{"android":"levelo://app?vid=ce1f09ad-acbd-43d2-b1e9-fc5753876381","ios":"levelo://app?vid=ce1f09ad-acbd-43d2-b1e9-fc5753876381"},"vehicle_type_id":"4","last_reported":1732295280,"current_range_meters":31200,"station_id":"ce4bhch2rcd13ifvqeug","pricing_plan_id":"cebpf4jnsgd1na2vs0mg"},{"bike_id":"ce224dd3-6e01-4dab-8962-28f849f60c70","system_id":"levelo_inurba_marseille","lat":43.23963,"lon":5.36636,"is_reserved":false,"is_disabled":false,"rental_uris":{"android":"levelo://app?vid=ce224dd3-6e01-4dab-8962-28f849f60c70","ios":"levelo://app?vid=ce224dd3-6e01-4dab-8962-28f849f60c70"},"vehicle_type_id":"4","last_reported":1732295280,"current_range_meters":24800,"station_id":"ce4bhi12rcd13ifvqfp0","pricing_plan_id":"cebpf4jnsgd1na2vs0mg"},{"bike_id":"48f44a00-d9f8-40d2-9bba-d844ec7c369a","system_id":"levelo_inurba_marseille","lat":43.29788,"lon":5.39353,"is_reserved":false,"is_disabled":true,"rental_uris":{"android":"levelo://app?vid=48f44a00-d9f8-40d2-9bba-d844ec7c369a","ios":"levelo://app?vid=48f44a00-d9f8-40d2-9bba-d844ec7c369a"},"vehicle_type_id":"4","last_reported":1732295280,"current_range_meters":1200,"station_id":"chh1huq6cuj3fo74tm60","pricing_plan_id":"cebpf4jnsgd1na2vs0mg"},{"bike_id":"58a1d181-7d56-4699-a7f5-69fc7211a25a","system_id":"levelo_inurba_marseille","lat":43.305562,"lon":5.365613,"is_reserved":false,"is_disabled":false,"rental_uris":{"android":"levelo://app?vid=58a1d181-7d56-4699-a7f5-69fc7211a25a","ios":"levelo://app?vid=58a1d181-7d56-4699-a7f5-69fc7211a25a"},"vehicle_type_id":"4","last_reported":1732295280,"current_range_meters":7200,"station_id":"ce4bgs12rcd13ifvqcag","pricing_plan_id":"cebpf4jnsgd1na2vs0mg"},{"bike_id":"86516b1e-3544-4c3e-8975-d29dc11340a0","system_id":"levelo_inurba_marseille","lat":43.322278,"lon":5.382902,"is_reserved":false,"is_disabled":false,"rental_uris":{"android":"levelo://app?vid=86516b1e-3544-4c3e-8975-d29dc11340a0","ios":"levelo://app?vid=86516b1e-3544-4c3e-8975-d29dc11340a0"},"vehicle_type_id":"4","last_reported":1732295280,"current_range_meters":25600,"station_id":"","pricing_plan_id":"cebpf4jnsgd1na2vs0mg"},{"bike_id":"88012871-8b06-4539-ba04-64c3f1d54bec","system_id":"levelo_inurba_marseille","lat":43.27169,"lon":5.40996,"is_reserved":false,"is_disabled":false,"rental_uris":{"android":"levelo://app?vid=88012871-8b06-4539-ba04-64c3f1d54bec","ios":"levelo://app?vid=88012871-8b06-4539-ba04-64c3f1d54bec"},"vehicle_type_id":"4","last_reported":1732295280,"current_range_meters":24000,"station_id":"ce4bhl12rcd13ifvqgf0","pricing_plan_id":"cebpf4jnsgd1na2vs0mg"},{"bike_id":"091cc9eb-8580-435f-ab25-55aa0962542e","system_id":"levelo_inurba_marseille","lat":43.26026,"lon":5.37552,"is_reserved":false,"is_disabled":false,"rental_uris":{"android":"levelo://app?vid=091cc9eb-8580-435f-ab25-55aa0962542e","ios":"levelo://app?vid=091cc9eb-8580-435f-ab25-55aa0962542e"},"vehicle_type_id":"4","last_reported":1732295280,"current_range_meters":30800,"station_id":"ce4bhgh2rcd13ifvqfa0","pricing_plan_id":"cebpf4jnsgd1na2vs0mg"},{"bike_id":"d411d8b8-1d23-470a-8a04-c521b2efc0a4","system_id":"levelo_inurba_marseille","lat":43.2835,"lon":5.38112,"is_reserved":false,"is_disabled":true,"rental_uris":{"android":"levelo://app?vid=d411d8b8-1d23-470a-8a04-c521b2efc0a4","ios":"levelo://app?vid=d411d8b8-1d23-470a-8a04-c521b2efc0a4"},"vehicle_type_id":"4","last_reported":1732295280,"current_range_meters":0,"station_id":"ce4bh412rcd13ifvqdr0","pricing_plan_id":"cebpf4jnsgd1na2vs0mg"},{"bike_id":"38c9b486-00d0-4829-876e-418f2a6304ad","system_id":"levelo_inurba_marseille","lat":43.29267,"lon":5.38444,"is_reserved":false,"is_disabled":false,"rental_uris":{"android":"levelo://app?vid=38c9b486-00d0-4829-876e-418f2a6304ad","ios":"levelo://app?vid=38c9b486-00d0-4829-876e-418f2a6304ad"},"vehicle_type_id":"4","last_reported":1732295280,"current_range_meters":10000,"station_id":"ce4bh692rcd13ifvqea0","pricing_plan_id":"cebpf4jnsgd1na2vs0mg"},{"bike_id":"161929c3-33a6-4b2a-8e1e-43cf8eda5a05","system_id":"levelo_inurba_marseille","lat":43.33028,"lon":5.39045,"is_reserved":false,"is_disabled":false,"rental_uris":{"android":"levelo://app?vid=161929c3-33a6-4b2a-8e1e-43cf8eda5a05","ios":"levelo://app?vid=161929c3-33a6-4b2a-8e1e-43cf8eda5a05"},"vehicle_type_id":"4","last_reported":1732295280,"current_range_meters":16400,"station_id":"ce4bhr92rcd13ifvqhrg","pricing_plan_id":"cebpf4jnsgd1na2vs0mg"},{"bike_id":"2631b55e-1b43-4dcf-ba38-7581d95197d6","system_id":"levelo_inurba_marseille","lat":43.3144,"lon":5.37355,"is_reserved":false,"is_disabled":false,"rental_uris":{"android":"levelo://app?vid=2631b55e-1b43-4dcf-ba38-7581d95197d6","ios":"levelo://app?vid=2631b55e-1b43-4dcf-ba38-7581d95197d6"},"vehicle_type_id":"4","last_reported":1732295280,"current_range_meters":30000,"station_id":"ce4bgt12rcd13ifvqcd0","pricing_plan_id":"cebpf4jnsgd1na2vs0mg"},{"bike_id":"f9e35db8-2f7a-4f43-8c70-83778761d42d","system_id":"levelo_inurba_marseille","lat":43.23198,"lon":5.35565,"is_reserved":false,"is_disabled":true,"rental_uris":{"android":"levelo://app?vid=f9e35db8-2f7a-4f43-8c70-83778761d42d","ios":"levelo://app?vid=f9e35db8-2f7a-4f43-8c70-83778761d42d"},"vehicle_type_id":"4","last_reported":1732295280,"current_range_meters":36400,"station_id":"ce4bhu92rcd13ifvqi70","pricing_plan_id":"cebpf4jnsgd1na2vs0mg"},{"bike_id":"4923c322-eb4a-4095-bc0c-aa6b225ff01a","system_id":"levelo_inurba_marseille","lat":43.31355,"lon":5.38494,"is_reserved":false,"is_disabled":true,"rental_uris":{"android":"levelo://app?vid=4923c322-eb4a-4095-bc0c-aa6b225ff01a","ios":"levelo://app?vid=4923c322-eb4a-4095-bc0c-aa6b225ff01a"},"vehicle_type_id":"4","last_reported":1732295280,"current_range_meters":30000,"station_id":"ce4bgt92rcd13ifvqcf0","pricing_plan_id":"cebpf4jnsgd1na2vs0mg"},{"bike_id":"fc941b80-12cc-4fb2-a0c0-6a50eb7be27e","system_id":"levelo_inurba_marseille","lat":43.28621,"lon":5.35111,"is_reserved":false,"is_disabled":false,"rental_uris":{"android":"levelo://app?vid=fc941b80-12cc-4fb2-a0c0-6a50eb7be27e","ios":"levelo://app?vid=fc941b80-12cc-4fb2-a0c0-6a50eb7be27e"},"vehicle_type_id":"4","last_reported":1732295280,"current_range_meters":36000,"station_id":"ce4bhch2rcd13ifvqeug","pricing_plan_id":"cebpf4jnsgd1na2vs0mg"},{"bike_id":"55119893-6f4f-4029-9a74-dc5803e6535a","system_id":"levelo_inurba_marseille","lat":43.29324,"lon":5.37057,"is_reserved":false,"is_disabled":false,"rental_uris":{"android":"levelo://app?vid=55119893-6f4f-4029-9a74-dc5803e6535a","ios":"levelo://app?vid=55119893-6f4f-4029-9a74-dc5803e6535a"},"vehicle_type_id":"4","last_reported":1732295280,"current_range_meters":16400,"station_id":"ce4bgh92rcd13ifvqb40","pricing_plan_id":"cebpf4jnsgd1na2vs0mg"},{"bike_id":"1108659d-c798-48fb-a758-9ac015354e35","system_id":"levelo_inurba_marseille","lat":43.2621,"lon":5.37935,"is_reserved":false,"is_disabled":false,"rental_uris":{"android":"levelo://app?vid=1108659d-c798-48fb-a758-9ac015354e35","ios":"levelo://app?vid=1108659d-c798-48fb-a758-9ac015354e35"},"vehicle_type_id":"4","last_reported":1732295280,"current_range_meters":26800,"station_id":"ce4bhjp2rcd13ifvqg90","pricing_plan_id":"cebpf4jnsgd1na2vs0mg"},{"bike_id":"17b263e7-11a4-4e49-99f1-347989185c5a","system_id":"levelo_inurba_marseille","lat":43.27185,"lon":5.40998,"is_reserved":false,"is_disabled":false,"rental_uris":{"android":"levelo://app?vid=17b263e7-11a4-4e49-99f1-347989185c5a","ios":"levelo://app?vid=17b263e7-11a4-4e49-99f1-347989185c5a"},"vehicle_type_id":"4","last_reported":1732295280,"current_range_meters":38400,"station_id":"ce4bhl12rcd13ifvqgf0","pricing_plan_id":"cebpf4jnsgd1na2vs0mg"},{"bike_id":"af6570c7-3160-46b3-9a4c-b0a02076a209","system_id":"levelo_inurba_marseille","lat":43.26941,"lon":5.40251,"is_reserved":false,"is_disabled":false,"rental_uris":{"android":"levelo://app?vid=af6570c7-3160-46b3-9a4c-b0a02076a209","ios":"levelo://app?vid=af6570c7-3160-46b3-9a4c-b0a02076a209"},"vehicle_type_id":"4","last_reported":1732295280,"current_range_meters":36800,"station_id":"cjm6bp8fraef2m0cb0m0","pricing_plan_id":"cebpf4jnsgd1na2vs0mg"},{"bike_id":"d40369af-9483-4ac1-b08b-6b276f2165f9","system_id":"levelo_inurba_marseille","lat":43.28932,"lon":5.36641,"is_reserved":false,"is_disabled":false,"rental_uris":{"android":"levelo://app?vid=d40369af-9483-4ac1-b08b-6b276f2165f9","ios":"levelo://app?vid=d40369af-9483-4ac1-b08b-6b276f2165f9"},"vehicle_type_id":"4","last_reported":1732295280,"current_range_meters":12400,"station_id":"ce4bhap2rcd13ifvqek0","pricing_plan_id":"cebpf4jnsgd1na2vs0mg"},{"bike_id":"80123531-64ed-4f1e-8260-4dc3b6cb0c29","system_id":"levelo_inurba_marseille","lat":43.3093,"lon":5.40147,"is_reserved":false,"is_disabled":false,"rental_uris":{"android":"levelo://app?vid=80123531-64ed-4f1e-8260-4dc3b6cb0c29","ios":"levelo://app?vid=80123531-64ed-4f1e-8260-4dc3b6cb0c29"},"vehicle_type_id":"4","last_reported":1732295280,"current_range_meters":32800,"station_id":"ce4bgvp2rcd13ifvqct0","pricing_plan_id":"cebpf4jnsgd1na2vs0mg"},{"bike_id":"5bd9c5f0-4963-49ba-b09e-365a52dadc8b","system_id":"levelo_inurba_marseille","lat":43.29534,"lon":5.3854,"is_reserved":false,"is_disabled":false,"rental_uris":{"android":"levelo://app?vid=5bd9c5f0-4963-49ba-b09e-365a52dadc8b","ios":"levelo://app?vid=5bd9c5f0-4963-49ba-b09e-365a52dadc8b"},"vehicle_type_id":"4","last_reported":1732295280,"current_range_meters":38400,"station_id":"ce4bgih2rcd13ifvqba0","pricing_plan_id":"cebpf4jnsgd1na2vs0mg"},{"bike_id":"70c74594-4963-4ad0-91bf-4f20fe02e74f","system_id":"levelo_inurba_marseille","lat":43.23191,"lon":5.39982,"is_reserved":false,"is_disabled":false,"rental_uris":{"android":"levelo://app?vid=70c74594-4963-4ad0-91bf-4f20fe02e74f","ios":"levelo://app?vid=70c74594-4963-4ad0-91bf-4f20fe02e74f"},"vehicle_type_id":"4","last_reported":1732295280,"current_range_meters":20000,"station_id":"ce4bhn12rcd13ifvqgqg","pricing_plan_id":"cebpf4jnsgd1na2vs0mg"},{"bike_id":"3381e590-9210-45ba-8fa4-337b79707fb6","system_id":"levelo_inurba_marseille","lat":43.2882,"lon":5.3585,"is_reserved":false,"is_disabled":false,"rental_uris":{"android":"levelo://app?vid=3381e590-9210-45ba-8fa4-337b79707fb6","ios":"levelo://app?vid=3381e590-9210-45ba-8fa4-337b79707fb6"},"vehicle_type_id":"4","last_reported":1732295280,"current_range_meters":36400,"station_id":"ce4bhb12rcd13ifvqem0","pricing_plan_id":"cebpf4jnsgd1na2vs0mg"},{"bike_id":"56974976-86ed-4198-bb39-2197077a0292","system_id":"levelo_inurba_marseille","lat":43.2893,"lon":5.36645,"is_reserved":false,"is_disabled":false,"rental_uris":{"android":"levelo://app?vid=56974976-86ed-4198-bb39-2197077a0292","ios":"levelo://app?vid=56974976-86ed-4198-bb39-2197077a0292"},"vehicle_type_id":"4","last_reported":1732295280,"current_range_meters":9600,"station_id":"ce4bhap2rcd13ifvqek0","pricing_plan_id":"cebpf4jnsgd1na2vs0mg"},{"bike_id":"20c90e68-c6af-4e47-81ff-371d93d51ad7","system_id":"levelo_inurba_marseille","lat":43.27326,"lon":5.39067,"is_reserved":false,"is_disabled":true,"rental_uris":{"android":"levelo://app?vid=20c90e68-c6af-4e47-81ff-371d93d51ad7","ios":"levelo://app?vid=20c90e68-c6af-4e47-81ff-371d93d51ad7"},"vehicle_type_id":"4","last_reported":1732295280,"current_range_meters":0,"station_id":"ce4bhgp2rcd13ifvqfe0","pricing_plan_id":"cebpf4jnsgd1na2vs0mg"},{"bike_id":"ff474302-046a-43ab-9883-c30610cb938a","system_id":"levelo_inurba_marseille","lat":43.27992,"lon":5.4002,"is_reserved":false,"is_disabled":false,"rental_uris":{"android":"levelo://app?vid=ff474302-046a-43ab-9883-c30610cb938a","ios":"levelo://app?vid=ff474302-046a-43ab-9883-c30610cb938a"},"vehicle_type_id":"4","last_reported":1732295280,"current_range_meters":11200,"station_id":"ce4bho92rcd13ifvqh4g","pricing_plan_id":"cebpf4jnsgd1na2vs0mg"},{"bike_id":"d6df7bdc-6029-4e79-8342-d7ac4ddc5800","system_id":"levelo_inurba_marseille","lat":43.2621,"lon":5.37445,"is_reserved":false,"is_disabled":false,"rental_uris":{"android":"levelo://app?vid=d6df7bdc-6029-4e79-8342-d7ac4ddc5800","ios":"levelo://app?vid=d6df7bdc-6029-4e79-8342-d7ac4ddc5800"},"vehicle_type_id":"4","last_reported":1732295280,"current_range_meters":28400,"station_id":"ce4bhgp2rcd13ifvqfc0","pricing_plan_id":"cebpf4jnsgd1na2vs0mg"},{"bike_id":"99d5eeb3-6513-46db-81bf-de6e43866527","system_id":"levelo_inurba_marseille","lat":43.32366,"lon":5.38883,"is_reserved":false,"is_disabled":false,"rental_uris":{"android":"levelo://app?vid=99d5eeb3-6513-46db-81bf-de6e43866527","ios":"levelo://app?vid=99d5eeb3-6513-46db-81bf-de6e43866527"},"vehicle_type_id":"4","last_reported":1732295280,"current_range_meters":37600,"station_id":"ce4bhqp2rcd13ifvqhog","pricing_plan_id":"cebpf4jnsgd1na2vs0mg"},{"bike_id":"1c656370-645d-44f9-96d4-b98e82c8a04a","system_id":"levelo_inurba_marseille","lat":43.27935,"lon":5.41047,"is_reserved":false,"is_disabled":false,"rental_uris":{"android":"levelo://app?vid=1c656370-645d-44f9-96d4-b98e82c8a04a","ios":"levelo://app?vid=1c656370-645d-44f9-96d4-b98e82c8a04a"},"vehicle_type_id":"4","last_reported":1732295280,"current_range_meters":26800,"station_id":"ce4bhnp2rcd13ifvqh0g","pricing_plan_id":"cebpf4jnsgd1na2vs0mg"},{"bike_id":"1ef17f0c-9df8-40aa-bad8-8fe504107889","system_id":"levelo_inurba_marseille","lat":43.31514,"lon":5.38703,"is_reserved":false,"is_disabled":false,"rental_uris":{"android":"levelo://app?vid=1ef17f0c-9df8-40aa-bad8-8fe504107889","ios":"levelo://app?vid=1ef17f0c-9df8-40aa-bad8-8fe504107889"},"vehicle_type_id":"4","last_reported":1732295280,"current_range_meters":38800,"station_id":"","pricing_plan_id":"cebpf4jnsgd1na2vs0mg"},{"bike_id":"549c9dc1-25ae-4749-8e58-40e5ab5e568a","system_id":"levelo_inurba_marseille","lat":43.25869,"lon":5.39907,"is_reserved":false,"is_disabled":false,"rental_uris":{"android":"levelo://app?vid=549c9dc1-25ae-4749-8e58-40e5ab5e568a","ios":"levelo://app?vid=549c9dc1-25ae-4749-8e58-40e5ab5e568a"},"vehicle_type_id":"4","last_reported":1732295280,"current_range_meters":30000,"station_id":"ce4bhl92rcd13ifvqghg","pricing_plan_id":"cebpf4jnsgd1na2vs0mg"},{"bike_id":"079f3699-b1ef-4c18-b504-2e02d2270464","system_id":"levelo_inurba_marseille","lat":43.28407,"lon":5.3499,"is_reserved":false,"is_disabled":false,"rental_uris":{"android":"levelo://app?vid=079f3699-b1ef-4c18-b504-2e02d2270464","ios":"levelo://app?vid=079f3699-b1ef-4c18-b504-2e02d2270464"},"vehicle_type_id":"4","last_reported":1732295280,"current_range_meters":38800,"station_id":"ce4bhbh2rcd13ifvqepg","pricing_plan_id":"cebpf4jnsgd1na2vs0mg"},{"bike_id":"4c720a3b-38c8-4d39-9240-263e37546f49","system_id":"levelo_inurba_marseille","lat":43.29777,"lon":5.37111,"is_reserved":false,"is_disabled":false,"rental_uris":{"android":"levelo://app?vid=4c720a3b-38c8-4d39-9240-263e37546f49","ios":"levelo://app?vid=4c720a3b-38c8-4d39-9240-263e37546f49"},"vehicle_type_id":"4","last_reported":1732295280,"current_range_meters":28000,"station_id":"ce4bgop2rcd13ifvqc1g","pricing_plan_id":"cebpf4jnsgd1na2vs0mg"},{"bike_id":"d7b6f087-a4ee-4886-9515-de27c79e1bf9","system_id":"levelo_inurba_marseille","lat":43.29581,"lon":5.36746,"is_reserved":false,"is_disabled":false,"rental_uris":{"android":"levelo://app?vid=d7b6f087-a4ee-4886-9515-de27c79e1bf9","ios":"levelo://app?vid=d7b6f087-a4ee-4886-9515-de27c79e1bf9"},"vehicle_type_id":"4","last_reported":1732295280,"current_range_meters":24400,"station_id":"ce4bgph2rcd13ifvqc2g","pricing_plan_id":"cebpf4jnsgd1na2vs0mg"},{"bike_id":"a76b0499-18a9-4cab-8de9-9364156c12e9","system_id":"levelo_inurba_marseille","lat":43.27995,"lon":5.40014,"is_reserved":false,"is_disabled":false,"rental_uris":{"android":"levelo://app?vid=a76b0499-18a9-4cab-8de9-9364156c12e9","ios":"levelo://app?vid=a76b0499-18a9-4cab-8de9-9364156c12e9"},"vehicle_type_id":"4","last_reported":1732295280,"current_range_meters":38800,"station_id":"ce4bho92rcd13ifvqh4g","pricing_plan_id":"cebpf4jnsgd1na2vs0mg"},{"bike_id":"f950215e-acc6-44ca-ac46-d5ea0b0bfabc","system_id":"levelo_inurba_marseille","lat":43.23188,"lon":5.39989,"is_reserved":false,"is_disabled":true,"rental_uris":{"android":"levelo://app?vid=f950215e-acc6-44ca-ac46-d5ea0b0bfabc","ios":"levelo://app?vid=f950215e-acc6-44ca-ac46-d5ea0b0bfabc"},"vehicle_type_id":"4","last_reported":1732295280,"current_range_meters":0,"station_id":"ce4bhn12rcd13ifvqgqg","pricing_plan_id":"cebpf4jnsgd1na2vs0mg"},{"bike_id":"915bc38b-3c6a-47cd-82ba-2c0cd705cf79","system_id":"levelo_inurba_marseille","lat":43.29423,"lon":5.38617,"is_reserved":false,"is_disabled":false,"rental_uris":{"android":"levelo://app?vid=915bc38b-3c6a-47cd-82ba-2c0cd705cf79","ios":"levelo://app?vid=915bc38b-3c6a-47cd-82ba-2c0cd705cf79"},"vehicle_type_id":"4","last_reported":1732295280,"current_range_meters":32400,"station_id":"ce4bh2h2rcd13ifvqdh0","pricing_plan_id":"cebpf4jnsgd1na2vs0mg"},{"bike_id":"cd78312a-142a-42d0-92e1-dbc654bf8bb4","system_id":"levelo_inurba_marseille","lat":43.24177,"lon":5.39717,"is_reserved":false,"is_disabled":true,"rental_uris":{"android":"levelo://app?vid=cd78312a-142a-42d0-92e1-dbc654bf8bb4","ios":"levelo://app?vid=cd78312a-142a-42d0-92e1-dbc654bf8bb4"},"vehicle_type_id":"4","last_reported":1732295280,"current_range_meters":19600,"station_id":"ce4bhn12rcd13ifvqgpg","pricing_plan_id":"cebpf4jnsgd1na2vs0mg"},{"bike_id":"26dbb135-9d0a-46f2-8550-e99fb4c2e042","system_id":"levelo_inurba_marseille","lat":43.2721,"lon":5.39197,"is_reserved":false,"is_disabled":true,"rental_uris":{"android":"levelo://app?vid=26dbb135-9d0a-46f2-8550-e99fb4c2e042","ios":"levelo://app?vid=26dbb135-9d0a-46f2-8550-e99fb4c2e042"},"vehicle_type_id":"4","last_reported":1732295280,"current_range_meters":400,"station_id":"ce4bhhp2rcd13ifvqfm0","pricing_plan_id":"cebpf4jnsgd1na2vs0mg"},{"bike_id":"11c5ed7c-dad2-4605-8db8-4918d0818190","system_id":"levelo_inurba_marseille","lat":43.31723,"lon":5.4241,"is_reserved":false,"is_disabled":false,"rental_uris":{"android":"levelo://app?vid=11c5ed7c-dad2-4605-8db8-4918d0818190","ios":"levelo://app?vid=11c5ed7c-dad2-4605-8db8-4918d0818190"},"vehicle_type_id":"4","last_reported":1732295280,"current_range_meters":40000,"station_id":"ce4bhp92rcd13ifvqhbg","pricing_plan_id":"cebpf4jnsgd1na2vs0mg"},{"bike_id":"3dedd3a3-3784-47e0-bd52-94265bd44a24","system_id":"levelo_inurba_marseille","lat":43.245493,"lon":5.373323,"is_reserved":false,"is_disabled":true,"rental_uris":{"android":"levelo://app?vid=3dedd3a3-3784-47e0-bd52-94265bd44a24","ios":"levelo://app?vid=3dedd3a3-3784-47e0-bd52-94265bd44a24"},"vehicle_type_id":"4","last_reported":1732295280,"current_range_meters":400,"station_id":"","pricing_plan_id":"cebpf4jnsgd1na2vs0mg"},{"bike_id":"0b8e73b7-ee6a-4234-af3a-7e78dba41912","system_id":"levelo_inurba_marseille","lat":43.24994,"lon":5.38934,"is_reserved":false,"is_disabled":false,"rental_uris":{"android":"levelo://app?vid=0b8e73b7-ee6a-4234-af3a-7e78dba41912","ios":"levelo://app?vid=0b8e73b7-ee6a-4234-af3a-7e78dba41912"},"vehicle_type_id":"4","last_reported":1732295280,"current_range_meters":3200,"station_id":"ce4bhgp2rcd13ifvqfd0","pricing_plan_id":"cebpf4jnsgd1na2vs0mg"},{"bike_id":"2a216e43-16df-4ca9-99c1-b210255240b3","system_id":"levelo_inurba_marseille","lat":43.29196,"lon":5.39329,"is_reserved":false,"is_disabled":false,"rental_uris":{"android":"levelo://app?vid=2a216e43-16df-4ca9-99c1-b210255240b3","ios":"levelo://app?vid=2a216e43-16df-4ca9-99c1-b210255240b3"},"vehicle_type_id":"4","last_reported":1732295280,"current_range_meters":38400,"station_id":"ce4bh192rcd13ifvqdd0","pricing_plan_id":"cebpf4jnsgd1na2vs0mg"},{"bike_id":"4ffba82d-0c6a-4cb6-8f21-d72137291318","system_id":"levelo_inurba_marseille","lat":43.32105,"lon":5.36769,"is_reserved":false,"is_disabled":false,"rental_uris":{"android":"levelo://app?vid=4ffba82d-0c6a-4cb6-8f21-d72137291318","ios":"levelo://app?vid=4ffba82d-0c6a-4cb6-8f21-d72137291318"},"vehicle_type_id":"4","last_reported":1732295280,"current_range_meters":38800,"station_id":"ce4bhrh2rcd13ifvqhug","pricing_plan_id":"cebpf4jnsgd1na2vs0mg"},{"bike_id":"bcf5a7ef-45e7-40a2-a25a-d01db7f9684d","system_id":"levelo_inurba_marseille","lat":43.25308,"lon":5.40216,"is_reserved":false,"is_disabled":true,"rental_uris":{"android":"levelo://app?vid=bcf5a7ef-45e7-40a2-a25a-d01db7f9684d","ios":"levelo://app?vid=bcf5a7ef-45e7-40a2-a25a-d01db7f9684d"},"vehicle_type_id":"4","last_reported":1732295280,"current_range_meters":0,"station_id":"","pricing_plan_id":"cebpf4jnsgd1na2vs0mg"},{"bike_id":"3193222d-584b-4642-a1d8-0c04b2309736","system_id":"levelo_inurba_marseille","lat":43.33728,"lon":5.3919,"is_reserved":false,"is_disabled":false,"rental_uris":{"android":"levelo://app?vid=3193222d-584b-4642-a1d8-0c04b2309736","ios":"levelo://app?vid=3193222d-584b-4642-a1d8-0c04b2309736"},"vehicle_type_id":"4","last_reported":1732295280,"current_range_meters":36800,"station_id":"ce4bhr92rcd13ifvqhsg","pricing_plan_id":"cebpf4jnsgd1na2vs0mg"},{"bike_id":"7c2f19f3-5373-4c2a-87bb-e1fd3ef39822","system_id":"levelo_inurba_marseille","lat":43.26562,"lon":5.39021,"is_reserved":false,"is_disabled":true,"rental_uris":{"android":"levelo://app?vid=7c2f19f3-5373-4c2a-87bb-e1fd3ef39822","ios":"levelo://app?vid=7c2f19f3-5373-4c2a-87bb-e1fd3ef39822"},"vehicle_type_id":"4","last_reported":1732295280,"current_range_meters":30000,"station_id":"ce4bhe12rcd13ifvqf30","pricing_plan_id":"cebpf4jnsgd1na2vs0mg"},{"bike_id":"e0f8e8fe-1c8d-47f7-a953-225632c38715","system_id":"levelo_inurba_marseille","lat":43.33027,"lon":5.39045,"is_reserved":false,"is_disabled":false,"rental_uris":{"android":"levelo://app?vid=e0f8e8fe-1c8d-47f7-a953-225632c38715","ios":"levelo://app?vid=e0f8e8fe-1c8d-47f7-a953-225632c38715"},"vehicle_type_id":"4","last_reported":1732295280,"current_range_meters":38800,"station_id":"ce4bhr92rcd13ifvqhrg","pricing_plan_id":"cebpf4jnsgd1na2vs0mg"},{"bike_id":"576ee50e-c357-4525-bf4e-4a6fe1e60971","system_id":"levelo_inurba_marseille","lat":43.30955,"lon":5.39026,"is_reserved":false,"is_disabled":false,"rental_uris":{"android":"levelo://app?vid=576ee50e-c357-4525-bf4e-4a6fe1e60971","ios":"levelo://app?vid=576ee50e-c357-4525-bf4e-4a6fe1e60971"},"vehicle_type_id":"4","last_reported":1732295280,"current_range_meters":5600,"station_id":"ce4bgup2rcd13ifvqco0","pricing_plan_id":"cebpf4jnsgd1na2vs0mg"},{"bike_id":"c911c09d-becb-40ae-8c91-18ee8ad14ff2","system_id":"levelo_inurba_marseille","lat":43.30535,"lon":5.38428,"is_reserved":false,"is_disabled":false,"rental_uris":{"android":"levelo://app?vid=c911c09d-becb-40ae-8c91-18ee8ad14ff2","ios":"levelo://app?vid=c911c09d-becb-40ae-8c91-18ee8ad14ff2"},"vehicle_type_id":"4","last_reported":1732295280,"current_range_meters":27200,"station_id":"ce4bgg92rcd13ifvqb30","pricing_plan_id":"cebpf4jnsgd1na2vs0mg"},{"bike_id":"1fe36207-a189-42b7-a2ae-a1bed57e3dd0","system_id":"levelo_inurba_marseille","lat":43.26032,"lon":5.37555,"is_reserved":false,"is_disabled":false,"rental_uris":{"android":"levelo://app?vid=1fe36207-a189-42b7-a2ae-a1bed57e3dd0","ios":"levelo://app?vid=1fe36207-a189-42b7-a2ae-a1bed57e3dd0"},"vehicle_type_id":"4","last_reported":1732295280,"current_range_meters":18000,"station_id":"ce4bhgh2rcd13ifvqfa0","pricing_plan_id":"cebpf4jnsgd1na2vs0mg"},{"bike_id":"4ecdaf55-87e7-42ea-ac0e-a41de2a6b49d","system_id":"levelo_inurba_marseille","lat":43.31995,"lon":5.38162,"is_reserved":false,"is_disabled":false,"rental_uris":{"android":"levelo://app?vid=4ecdaf55-87e7-42ea-ac0e-a41de2a6b49d","ios":"levelo://app?vid=4ecdaf55-87e7-42ea-ac0e-a41de2a6b49d"},"vehicle_type_id":"4","last_reported":1732295280,"current_range_meters":27200,"station_id":"ce4bhr12rcd13ifvqhpg","pricing_plan_id":"cebpf4jnsgd1na2vs0mg"},{"bike_id":"51ce6112-ca51-4a26-8335-063dea88ee84","system_id":"levelo_inurba_marseille","lat":43.25993,"lon":5.39408,"is_reserved":false,"is_disabled":false,"rental_uris":{"android":"levelo://app?vid=51ce6112-ca51-4a26-8335-063dea88ee84","ios":"levelo://app?vid=51ce6112-ca51-4a26-8335-063dea88ee84"},"vehicle_type_id":"4","last_reported":1732295280,"current_range_meters":10000,"station_id":"","pricing_plan_id":"cebpf4jnsgd1na2vs0mg"},{"bike_id":"4796339d-55a3-4697-9a8f-f03c37701b05","system_id":"levelo_inurba_marseille","lat":43.30141,"lon":5.39868,"is_reserved":false,"is_disabled":false,"rental_uris":{"android":"levelo://app?vid=4796339d-55a3-4697-9a8f-f03c37701b05","ios":"levelo://app?vid=4796339d-55a3-4697-9a8f-f03c37701b05"},"vehicle_type_id":"4","last_reported":1732295280,"current_range_meters":39200,"station_id":"ce4bh0h2rcd13ifvqd40","pricing_plan_id":"cebpf4jnsgd1na2vs0mg"},{"bike_id":"fc0b1b0c-9a21-495d-be52-0d91f5503bfa","system_id":"levelo_inurba_marseille","lat":43.22928,"lon":5.3538,"is_reserved":false,"is_disabled":false,"rental_uris":{"android":"levelo://app?vid=fc0b1b0c-9a21-495d-be52-0d91f5503bfa","ios":"levelo://app?vid=fc0b1b0c-9a21-495d-be52-0d91f5503bfa"},"vehicle_type_id":"4","last_reported":1732295280,"current_range_meters":25600,"station_id":"cpo3532slgdg3j2ikp40","pricing_plan_id":"cebpf4jnsgd1na2vs0mg"},{"bike_id":"c2213440-5fe9-4139-b848-65a79755d9ec","system_id":"levelo_inurba_marseille","lat":43.24806,"lon":5.37457,"is_reserved":false,"is_disabled":false,"rental_uris":{"android":"levelo://app?vid=c2213440-5fe9-4139-b848-65a79755d9ec","ios":"levelo://app?vid=c2213440-5fe9-4139-b848-65a79755d9ec"},"vehicle_type_id":"4","last_reported":1732295280,"current_range_meters":14000,"station_id":"ce4bhgh2rcd13ifvqfb0","pricing_plan_id":"cebpf4jnsgd1na2vs0mg"},{"bike_id":"ffa3c9fa-b25b-476f-a457-4598667747f1","system_id":"levelo_inurba_marseille","lat":43.29223,"lon":5.36068,"is_reserved":false,"is_disabled":false,"rental_uris":{"android":"levelo://app?vid=ffa3c9fa-b25b-476f-a457-4598667747f1","ios":"levelo://app?vid=ffa3c9fa-b25b-476f-a457-4598667747f1"},"vehicle_type_id":"4","last_reported":1732295280,"current_range_meters":32400,"station_id":"ce4bhbh2rcd13ifvqeqg","pricing_plan_id":"cebpf4jnsgd1na2vs0mg"},{"bike_id":"74659771-bf92-480c-96f9-943323bdc455","system_id":"levelo_inurba_marseille","lat":43.292,"lon":5.39347,"is_reserved":false,"is_disabled":false,"rental_uris":{"android":"levelo://app?vid=74659771-bf92-480c-96f9-943323bdc455","ios":"levelo://app?vid=74659771-bf92-480c-96f9-943323bdc455"},"vehicle_type_id":"4","last_reported":1732295280,"current_range_meters":25600,"station_id":"ce4bh192rcd13ifvqdd0","pricing_plan_id":"cebpf4jnsgd1na2vs0mg"},{"bike_id":"b7c51b70-61e5-4c47-bfcb-dc97b8f54bf2","system_id":"levelo_inurba_marseille","lat":43.32108,"lon":5.36781,"is_reserved":false,"is_disabled":false,"rental_uris":{"android":"levelo://app?vid=b7c51b70-61e5-4c47-bfcb-dc97b8f54bf2","ios":"levelo://app?vid=b7c51b70-61e5-4c47-bfcb-dc97b8f54bf2"},"vehicle_type_id":"4","last_reported":1732295280,"current_range_meters":38800,"station_id":"ce4bhrh2rcd13ifvqhug","pricing_plan_id":"cebpf4jnsgd1na2vs0mg"},{"bike_id":"35799ffd-e120-47ae-ba81-5038ad1d78ad","system_id":"levelo_inurba_marseille","lat":43.26686,"lon":5.38274,"is_reserved":false,"is_disabled":false,"rental_uris":{"android":"levelo://app?vid=35799ffd-e120-47ae-ba81-5038ad1d78ad","ios":"levelo://app?vid=35799ffd-e120-47ae-ba81-5038ad1d78ad"},"vehicle_type_id":"4","last_reported":1732295280,"current_range_meters":38800,"station_id":"ce4bhg92rcd13ifvqf90","pricing_plan_id":"cebpf4jnsgd1na2vs0mg"},{"bike_id":"a51e82b7-997c-467d-8058-02f504d77c87","system_id":"levelo_inurba_marseille","lat":43.25,"lon":5.38934,"is_reserved":false,"is_disabled":false,"rental_uris":{"android":"levelo://app?vid=a51e82b7-997c-467d-8058-02f504d77c87","ios":"levelo://app?vid=a51e82b7-997c-467d-8058-02f504d77c87"},"vehicle_type_id":"4","last_reported":1732295280,"current_range_meters":16400,"station_id":"ce4bhgp2rcd13ifvqfd0","pricing_plan_id":"cebpf4jnsgd1na2vs0mg"},{"bike_id":"7251622e-73a9-419f-947b-70fd7086d2b8","system_id":"levelo_inurba_marseille","lat":43.29614,"lon":5.36277,"is_reserved":false,"is_disabled":false,"rental_uris":{"android":"levelo://app?vid=7251622e-73a9-419f-947b-70fd7086d2b8","ios":"levelo://app?vid=7251622e-73a9-419f-947b-70fd7086d2b8"},"vehicle_type_id":"4","last_reported":1732295280,"current_range_meters":10000,"station_id":"","pricing_plan_id":"cebpf4jnsgd1na2vs0mg"},{"bike_id":"63e9316e-f914-4a17-bb23-112d7dc8678a","system_id":"levelo_inurba_marseille","lat":43.25728,"lon":5.41112,"is_reserved":false,"is_disabled":false,"rental_uris":{"android":"levelo://app?vid=63e9316e-f914-4a17-bb23-112d7dc8678a","ios":"levelo://app?vid=63e9316e-f914-4a17-bb23-112d7dc8678a"},"vehicle_type_id":"4","last_reported":1732295280,"current_range_meters":24000,"station_id":"ce4bhkp2rcd13ifvqgd0","pricing_plan_id":"cebpf4jnsgd1na2vs0mg"},{"bike_id":"e1f049e8-36d3-43b9-999f-55f9939d8a48","system_id":"levelo_inurba_marseille","lat":43.2917,"lon":5.37158,"is_reserved":false,"is_disabled":false,"rental_uris":{"android":"levelo://app?vid=e1f049e8-36d3-43b9-999f-55f9939d8a48","ios":"levelo://app?vid=e1f049e8-36d3-43b9-999f-55f9939d8a48"},"vehicle_type_id":"4","last_reported":1732295280,"current_range_meters":8800,"station_id":"ce4bha92rcd13ifvqeh0","pricing_plan_id":"cebpf4jnsgd1na2vs0mg"},{"bike_id":"dba3cdcf-ac6c-41e3-9dd4-1951ac64f0d2","system_id":"levelo_inurba_marseille","lat":43.2926,"lon":5.40913,"is_reserved":false,"is_disabled":false,"rental_uris":{"android":"levelo://app?vid=dba3cdcf-ac6c-41e3-9dd4-1951ac64f0d2","ios":"levelo://app?vid=dba3cdcf-ac6c-41e3-9dd4-1951ac64f0d2"},"vehicle_type_id":"4","last_reported":1732295280,"current_range_meters":25200,"station_id":"ce4bh192rcd13ifvqdc0","pricing_plan_id":"cebpf4jnsgd1na2vs0mg"},{"bike_id":"d02cc784-6316-47df-81b0-22d82b4a344f","system_id":"levelo_inurba_marseille","lat":43.28004,"lon":5.40022,"is_reserved":false,"is_disabled":false,"rental_uris":{"android":"levelo://app?vid=d02cc784-6316-47df-81b0-22d82b4a344f","ios":"levelo://app?vid=d02cc784-6316-47df-81b0-22d82b4a344f"},"vehicle_type_id":"4","last_reported":1732295280,"current_range_meters":28400,"station_id":"ce4bho92rcd13ifvqh4g","pricing_plan_id":"cebpf4jnsgd1na2vs0mg"},{"bike_id":"2ce56eac-607f-4aee-97f1-1efe9a148076","system_id":"levelo_inurba_marseille","lat":43.22928,"lon":5.35378,"is_reserved":false,"is_disabled":false,"rental_uris":{"android":"levelo://app?vid=2ce56eac-607f-4aee-97f1-1efe9a148076","ios":"levelo://app?vid=2ce56eac-607f-4aee-97f1-1efe9a148076"},"vehicle_type_id":"4","last_reported":1732295280,"current_range_meters":14400,"station_id":"cpo3532slgdg3j2ikp40","pricing_plan_id":"cebpf4jnsgd1na2vs0mg"},{"bike_id":"3c5d0254-2542-44e0-aa08-1a8753e937a8","system_id":"levelo_inurba_marseille","lat":43.2669,"lon":5.38279,"is_reserved":false,"is_disabled":false,"rental_uris":{"android":"levelo://app?vid=3c5d0254-2542-44e0-aa08-1a8753e937a8","ios":"levelo://app?vid=3c5d0254-2542-44e0-aa08-1a8753e937a8"},"vehicle_type_id":"4","last_reported":1732295280,"current_range_meters":38800,"station_id":"ce4bhg92rcd13ifvqf90","pricing_plan_id":"cebpf4jnsgd1na2vs0mg"},{"bike_id":"c74abcec-f83d-46ae-b5a9-0a57cc1c1c41","system_id":"levelo_inurba_marseille","lat":43.23194,"lon":5.35555,"is_reserved":false,"is_disabled":false,"rental_uris":{"android":"levelo://app?vid=c74abcec-f83d-46ae-b5a9-0a57cc1c1c41","ios":"levelo://app?vid=c74abcec-f83d-46ae-b5a9-0a57cc1c1c41"},"vehicle_type_id":"4","last_reported":1732295280,"current_range_meters":37600,"station_id":"ce4bhu92rcd13ifvqi70","pricing_plan_id":"cebpf4jnsgd1na2vs0mg"},{"bike_id":"c9072c18-face-4649-8c00-7d8cfb54bd06","system_id":"levelo_inurba_marseille","lat":43.31068,"lon":5.38365,"is_reserved":false,"is_disabled":false,"rental_uris":{"android":"levelo://app?vid=c9072c18-face-4649-8c00-7d8cfb54bd06","ios":"levelo://app?vid=c9072c18-face-4649-8c00-7d8cfb54bd06"},"vehicle_type_id":"4","last_reported":1732295280,"current_range_meters":32400,"station_id":"ce4bgv92rcd13ifvqcr0","pricing_plan_id":"cebpf4jnsgd1na2vs0mg"},{"bike_id":"a5354c57-9d8e-4614-8a61-2c10922ac0cd","system_id":"levelo_inurba_marseille","lat":43.2903,"lon":5.37565,"is_reserved":false,"is_disabled":false,"rental_uris":{"android":"levelo://app?vid=a5354c57-9d8e-4614-8a61-2c10922ac0cd","ios":"levelo://app?vid=a5354c57-9d8e-4614-8a61-2c10922ac0cd"},"vehicle_type_id":"4","last_reported":1732295280,"current_range_meters":6000,"station_id":"ce4bh692rcd13ifvqe90","pricing_plan_id":"cebpf4jnsgd1na2vs0mg"},{"bike_id":"a496e966-7fbe-4ce0-9318-c7d24e4722c2","system_id":"levelo_inurba_marseille","lat":43.23181,"lon":5.3999,"is_reserved":false,"is_disabled":false,"rental_uris":{"android":"levelo://app?vid=a496e966-7fbe-4ce0-9318-c7d24e4722c2","ios":"levelo://app?vid=a496e966-7fbe-4ce0-9318-c7d24e4722c2"},"vehicle_type_id":"4","last_reported":1732295280,"current_range_meters":16000,"station_id":"ce4bhn12rcd13ifvqgqg","pricing_plan_id":"cebpf4jnsgd1na2vs0mg"},{"bike_id":"1eff5ce5-2d56-4465-a12c-60db9ec2175a","system_id":"levelo_inurba_marseille","lat":43.22926,"lon":5.35375,"is_reserved":false,"is_disabled":false,"rental_uris":{"android":"levelo://app?vid=1eff5ce5-2d56-4465-a12c-60db9ec2175a","ios":"levelo://app?vid=1eff5ce5-2d56-4465-a12c-60db9ec2175a"},"vehicle_type_id":"4","last_reported":1732295280,"current_range_meters":4000,"station_id":"cpo3532slgdg3j2ikp40","pricing_plan_id":"cebpf4jnsgd1na2vs0mg"},{"bike_id":"dc815649-e3e3-48aa-b0fd-022cdb8ac58a","system_id":"levelo_inurba_marseille","lat":43.32366,"lon":5.38891,"is_reserved":false,"is_disabled":false,"rental_uris":{"android":"levelo://app?vid=dc815649-e3e3-48aa-b0fd-022cdb8ac58a","ios":"levelo://app?vid=dc815649-e3e3-48aa-b0fd-022cdb8ac58a"},"vehicle_type_id":"4","last_reported":1732295280,"current_range_meters":36000,"station_id":"ce4bhqp2rcd13ifvqhog","pricing_plan_id":"cebpf4jnsgd1na2vs0mg"},{"bike_id":"234ad942-13ad-43d3-b740-3e9f0bc28c87","system_id":"levelo_inurba_marseille","lat":43.30462,"lon":5.40185,"is_reserved":false,"is_disabled":false,"rental_uris":{"android":"levelo://app?vid=234ad942-13ad-43d3-b740-3e9f0bc28c87","ios":"levelo://app?vid=234ad942-13ad-43d3-b740-3e9f0bc28c87"},"vehicle_type_id":"4","last_reported":1732295280,"current_range_meters":15200,"station_id":"","pricing_plan_id":"cebpf4jnsgd1na2vs0mg"},{"bike_id":"92158089-9b2c-4bce-a127-e34ace0ee794","system_id":"levelo_inurba_marseille","lat":43.27975,"lon":5.3875,"is_reserved":false,"is_disabled":false,"rental_uris":{"android":"levelo://app?vid=92158089-9b2c-4bce-a127-e34ace0ee794","ios":"levelo://app?vid=92158089-9b2c-4bce-a127-e34ace0ee794"},"vehicle_type_id":"4","last_reported":1732295280,"current_range_meters":38800,"station_id":"ce4bhg12rcd13ifvqf80","pricing_plan_id":"cebpf4jnsgd1na2vs0mg"},{"bike_id":"ec3d4681-e519-47ef-8aea-573852db7675","system_id":"levelo_inurba_marseille","lat":43.28003,"lon":5.40015,"is_reserved":false,"is_disabled":false,"rental_uris":{"android":"levelo://app?vid=ec3d4681-e519-47ef-8aea-573852db7675","ios":"levelo://app?vid=ec3d4681-e519-47ef-8aea-573852db7675"},"vehicle_type_id":"4","last_reported":1732295280,"current_range_meters":2000,"station_id":"ce4bho92rcd13ifvqh4g","pricing_plan_id":"cebpf4jnsgd1na2vs0mg"},{"bike_id":"fb46633f-9e00-469c-bbd0-67b423838002","system_id":"levelo_inurba_marseille","lat":43.26807,"lon":5.40276,"is_reserved":false,"is_disabled":false,"rental_uris":{"android":"levelo://app?vid=fb46633f-9e00-469c-bbd0-67b423838002","ios":"levelo://app?vid=fb46633f-9e00-469c-bbd0-67b423838002"},"vehicle_type_id":"4","last_reported":1732295280,"current_range_meters":36400,"station_id":"ce501612rcd8frsf0b60","pricing_plan_id":"cebpf4jnsgd1na2vs0mg"},{"bike_id":"f796b412-9140-415f-9f98-4b489dc2b14e","system_id":"levelo_inurba_marseille","lat":43.26936,"lon":5.40254,"is_reserved":false,"is_disabled":false,"rental_uris":{"android":"levelo://app?vid=f796b412-9140-415f-9f98-4b489dc2b14e","ios":"levelo://app?vid=f796b412-9140-415f-9f98-4b489dc2b14e"},"vehicle_type_id":"4","last_reported":1732295280,"current_range_meters":38800,"station_id":"cjm6bp8fraef2m0cb0m0","pricing_plan_id":"cebpf4jnsgd1na2vs0mg"},{"bike_id":"2171a6ef-7276-4f57-9fda-51980d5c1cd9","system_id":"levelo_inurba_marseille","lat":43.30794,"lon":5.37648,"is_reserved":false,"is_disabled":false,"rental_uris":{"android":"levelo://app?vid=2171a6ef-7276-4f57-9fda-51980d5c1cd9","ios":"levelo://app?vid=2171a6ef-7276-4f57-9fda-51980d5c1cd9"},"vehicle_type_id":"4","last_reported":1732295280,"current_range_meters":33600,"station_id":"ce4bgv92rcd13ifvqcq0","pricing_plan_id":"cebpf4jnsgd1na2vs0mg"},{"bike_id":"75160751-1069-43f1-908c-f8a163732076","system_id":"levelo_inurba_marseille","lat":43.31713,"lon":5.43706,"is_reserved":false,"is_disabled":false,"rental_uris":{"android":"levelo://app?vid=75160751-1069-43f1-908c-f8a163732076","ios":"levelo://app?vid=75160751-1069-43f1-908c-f8a163732076"},"vehicle_type_id":"4","last_reported":1732295280,"current_range_meters":38800,"station_id":"ce4bhp92rcd13ifvqhcg","pricing_plan_id":"cebpf4jnsgd1na2vs0mg"},{"bike_id":"9284dc21-9ba2-4669-b8d7-ae7790be6a09","system_id":"levelo_inurba_marseille","lat":43.29841,"lon":5.36266,"is_reserved":false,"is_disabled":false,"rental_uris":{"android":"levelo://app?vid=9284dc21-9ba2-4669-b8d7-ae7790be6a09","ios":"levelo://app?vid=9284dc21-9ba2-4669-b8d7-ae7790be6a09"},"vehicle_type_id":"4","last_reported":1732295280,"current_range_meters":38800,"station_id":"ce4bgpp2rcd13ifvqc3g","pricing_plan_id":"cebpf4jnsgd1na2vs0mg"},{"bike_id":"448b4be7-3dfe-40e5-b9e4-04aad95d4610","system_id":"levelo_inurba_marseille","lat":43.30135,"lon":5.3742,"is_reserved":false,"is_disabled":false,"rental_uris":{"android":"levelo://app?vid=448b4be7-3dfe-40e5-b9e4-04aad95d4610","ios":"levelo://app?vid=448b4be7-3dfe-40e5-b9e4-04aad95d4610"},"vehicle_type_id":"4","last_reported":1732295280,"current_range_meters":26800,"station_id":"ce4bgs92rcd13ifvqcc0","pricing_plan_id":"cebpf4jnsgd1na2vs0mg"},{"bike_id":"7ce1bc8c-74c4-4d45-bc31-2f9fa4ea507f","system_id":"levelo_inurba_marseille","lat":43.32343,"lon":5.40623,"is_reserved":false,"is_disabled":false,"rental_uris":{"android":"levelo://app?vid=7ce1bc8c-74c4-4d45-bc31-2f9fa4ea507f","ios":"levelo://app?vid=7ce1bc8c-74c4-4d45-bc31-2f9fa4ea507f"},"vehicle_type_id":"4","last_reported":1732295280,"current_range_meters":39200,"station_id":"ce4bhq92rcd13ifvqhjg","pricing_plan_id":"cebpf4jnsgd1na2vs0mg"},{"bike_id":"dd4544df-eb9d-4c40-8b48-01c6ba03ca19","system_id":"levelo_inurba_marseille","lat":43.31995,"lon":5.38151,"is_reserved":false,"is_disabled":false,"rental_uris":{"android":"levelo://app?vid=dd4544df-eb9d-4c40-8b48-01c6ba03ca19","ios":"levelo://app?vid=dd4544df-eb9d-4c40-8b48-01c6ba03ca19"},"vehicle_type_id":"4","last_reported":1732295280,"current_range_meters":38800,"station_id":"ce4bhr12rcd13ifvqhpg","pricing_plan_id":"cebpf4jnsgd1na2vs0mg"},{"bike_id":"8268ca29-cc94-4b05-acb5-36a3938bdc45","system_id":"levelo_inurba_marseille","lat":43.28416,"lon":5.35001,"is_reserved":false,"is_disabled":false,"rental_uris":{"android":"levelo://app?vid=8268ca29-cc94-4b05-acb5-36a3938bdc45","ios":"levelo://app?vid=8268ca29-cc94-4b05-acb5-36a3938bdc45"},"vehicle_type_id":"4","last_reported":1732295280,"current_range_meters":37600,"station_id":"ce4bhbh2rcd13ifvqepg","pricing_plan_id":"cebpf4jnsgd1na2vs0mg"},{"bike_id":"f689ab61-e526-43ba-b443-410e33c02d9e","system_id":"levelo_inurba_marseille","lat":43.25503,"lon":5.37653,"is_reserved":false,"is_disabled":false,"rental_uris":{"android":"levelo://app?vid=f689ab61-e526-43ba-b443-410e33c02d9e","ios":"levelo://app?vid=f689ab61-e526-43ba-b443-410e33c02d9e"},"vehicle_type_id":"4","last_reported":1732295280,"current_range_meters":38800,"station_id":"ce4bhh12rcd13ifvqff0","pricing_plan_id":"cebpf4jnsgd1na2vs0mg"},{"bike_id":"d99d745a-edcb-4d3d-bf9d-7fa79bc2aaf5","system_id":"levelo_inurba_marseille","lat":43.31995,"lon":5.38159,"is_reserved":false,"is_disabled":false,"rental_uris":{"android":"levelo://app?vid=d99d745a-edcb-4d3d-bf9d-7fa79bc2aaf5","ios":"levelo://app?vid=d99d745a-edcb-4d3d-bf9d-7fa79bc2aaf5"},"vehicle_type_id":"4","last_reported":1732295280,"current_range_meters":16800,"station_id":"ce4bhr12rcd13ifvqhpg","pricing_plan_id":"cebpf4jnsgd1na2vs0mg"},{"bike_id":"2f0b83fa-8e18-4ee3-9599-139d9a38bca9","system_id":"levelo_inurba_marseille","lat":43.29569,"lon":5.37509,"is_reserved":false,"is_disabled":false,"rental_uris":{"android":"levelo://app?vid=2f0b83fa-8e18-4ee3-9599-139d9a38bca9","ios":"levelo://app?vid=2f0b83fa-8e18-4ee3-9599-139d9a38bca9"},"vehicle_type_id":"4","last_reported":1732295280,"current_range_meters":34000,"station_id":"ce4bgh92rcd13ifvqb50","pricing_plan_id":"cebpf4jnsgd1na2vs0mg"},{"bike_id":"d815b85d-617a-4fab-8284-23f2a15a7142","system_id":"levelo_inurba_marseille","lat":43.29631,"lon":5.40608,"is_reserved":false,"is_disabled":false,"rental_uris":{"android":"levelo://app?vid=d815b85d-617a-4fab-8284-23f2a15a7142","ios":"levelo://app?vid=d815b85d-617a-4fab-8284-23f2a15a7142"},"vehicle_type_id":"4","last_reported":1732295280,"current_range_meters":37600,"station_id":"ce4bh0h2rcd13ifvqd60","pricing_plan_id":"cebpf4jnsgd1na2vs0mg"},{"bike_id":"8db640b0-0205-49aa-a1c2-12e4b645a9fb","system_id":"levelo_inurba_marseille","lat":43.25094,"lon":5.39525,"is_reserved":false,"is_disabled":false,"rental_uris":{"android":"levelo://app?vid=8db640b0-0205-49aa-a1c2-12e4b645a9fb","ios":"levelo://app?vid=8db640b0-0205-49aa-a1c2-12e4b645a9fb"},"vehicle_type_id":"4","last_reported":1732295280,"current_range_meters":38800,"station_id":"ce4bhm12rcd13ifvqgkg","pricing_plan_id":"cebpf4jnsgd1na2vs0mg"},{"bike_id":"ce9fb9d4-5647-49dc-ab9f-a1547699654d","system_id":"levelo_inurba_marseille","lat":43.3014,"lon":5.37419,"is_reserved":false,"is_disabled":false,"rental_uris":{"android":"levelo://app?vid=ce9fb9d4-5647-49dc-ab9f-a1547699654d","ios":"levelo://app?vid=ce9fb9d4-5647-49dc-ab9f-a1547699654d"},"vehicle_type_id":"4","last_reported":1732295280,"current_range_meters":10800,"station_id":"ce4bgs92rcd13ifvqcc0","pricing_plan_id":"cebpf4jnsgd1na2vs0mg"},{"bike_id":"552ae1f9-34eb-4d70-a19b-3616d3661778","system_id":"levelo_inurba_marseille","lat":43.33718,"lon":5.39186,"is_reserved":false,"is_disabled":false,"rental_uris":{"android":"levelo://app?vid=552ae1f9-34eb-4d70-a19b-3616d3661778","ios":"levelo://app?vid=552ae1f9-34eb-4d70-a19b-3616d3661778"},"vehicle_type_id":"4","last_reported":1732295280,"current_range_meters":24800,"station_id":"ce4bhr92rcd13ifvqhsg","pricing_plan_id":"cebpf4jnsgd1na2vs0mg"},{"bike_id":"070d3908-99c6-40ba-b441-b61fb4af8f3a","system_id":"levelo_inurba_marseille","lat":43.27562,"lon":5.38428,"is_reserved":false,"is_disabled":false,"rental_uris":{"android":"levelo://app?vid=070d3908-99c6-40ba-b441-b61fb4af8f3a","ios":"levelo://app?vid=070d3908-99c6-40ba-b441-b61fb4af8f3a"},"vehicle_type_id":"4","last_reported":1732295280,"current_range_meters":36400,"station_id":"ce4bhh92rcd13ifvqfi0","pricing_plan_id":"cebpf4jnsgd1na2vs0mg"},{"bike_id":"f7f3756c-1ec7-4782-9c87-6273f87b6774","system_id":"levelo_inurba_marseille","lat":43.337444,"lon":5.374475,"is_reserved":false,"is_disabled":false,"rental_uris":{"android":"levelo://app?vid=f7f3756c-1ec7-4782-9c87-6273f87b6774","ios":"levelo://app?vid=f7f3756c-1ec7-4782-9c87-6273f87b6774"},"vehicle_type_id":"4","last_reported":1732295280,"current_range_meters":36400,"station_id":"","pricing_plan_id":"cebpf4jnsgd1na2vs0mg"},{"bike_id":"6a0d2dfa-e9bc-4a87-80b1-9666765cc058","system_id":"levelo_inurba_marseille","lat":43.26926,"lon":5.38634,"is_reserved":false,"is_disabled":false,"rental_uris":{"android":"levelo://app?vid=6a0d2dfa-e9bc-4a87-80b1-9666765cc058","ios":"levelo://app?vid=6a0d2dfa-e9bc-4a87-80b1-9666765cc058"},"vehicle_type_id":"4","last_reported":1732295280,"current_range_meters":38800,"station_id":"ce4bhh92rcd13ifvqfh0","pricing_plan_id":"cebpf4jnsgd1na2vs0mg"},{"bike_id":"3ebdd7b7-14b2-40b2-a10c-63c4abdb5434","system_id":"levelo_inurba_marseille","lat":43.30878,"lon":5.37197,"is_reserved":false,"is_disabled":false,"rental_uris":{"android":"levelo://app?vid=3ebdd7b7-14b2-40b2-a10c-63c4abdb5434","ios":"levelo://app?vid=3ebdd7b7-14b2-40b2-a10c-63c4abdb5434"},"vehicle_type_id":"4","last_reported":1732295280,"current_range_meters":19600,"station_id":"ce4bguh2rcd13ifvqckg","pricing_plan_id":"cebpf4jnsgd1na2vs0mg"},{"bike_id":"028e5427-36e2-49e1-b3db-260058fffb58","system_id":"levelo_inurba_marseille","lat":43.25576,"lon":5.38236,"is_reserved":false,"is_disabled":false,"rental_uris":{"android":"levelo://app?vid=028e5427-36e2-49e1-b3db-260058fffb58","ios":"levelo://app?vid=028e5427-36e2-49e1-b3db-260058fffb58"},"vehicle_type_id":"4","last_reported":1732295280,"current_range_meters":16000,"station_id":"ce4bhih2rcd13ifvqfs0","pricing_plan_id":"cebpf4jnsgd1na2vs0mg"},{"bike_id":"1572014c-9bc2-4922-8058-69d7a722af4a","system_id":"levelo_inurba_marseille","lat":43.27947,"lon":5.41034,"is_reserved":false,"is_disabled":false,"rental_uris":{"android":"levelo://app?vid=1572014c-9bc2-4922-8058-69d7a722af4a","ios":"levelo://app?vid=1572014c-9bc2-4922-8058-69d7a722af4a"},"vehicle_type_id":"4","last_reported":1732295280,"current_range_meters":7200,"station_id":"ce4bhnp2rcd13ifvqh0g","pricing_plan_id":"cebpf4jnsgd1na2vs0mg"},{"bike_id":"a784b263-93a1-4227-95d2-bf22ed044a89","system_id":"levelo_inurba_marseille","lat":43.29895,"lon":5.43672,"is_reserved":false,"is_disabled":false,"rental_uris":{"android":"levelo://app?vid=a784b263-93a1-4227-95d2-bf22ed044a89","ios":"levelo://app?vid=a784b263-93a1-4227-95d2-bf22ed044a89"},"vehicle_type_id":"4","last_reported":1732295280,"current_range_meters":19600,"station_id":"ce4bhpp2rcd13ifvqhfg","pricing_plan_id":"cebpf4jnsgd1na2vs0mg"},{"bike_id":"0d5efe48-32bd-461f-be09-c1d5e2d6ef37","system_id":"levelo_inurba_marseille","lat":43.32364,"lon":5.38888,"is_reserved":false,"is_disabled":false,"rental_uris":{"android":"levelo://app?vid=0d5efe48-32bd-461f-be09-c1d5e2d6ef37","ios":"levelo://app?vid=0d5efe48-32bd-461f-be09-c1d5e2d6ef37"},"vehicle_type_id":"4","last_reported":1732295280,"current_range_meters":32400,"station_id":"ce4bhqp2rcd13ifvqhog","pricing_plan_id":"cebpf4jnsgd1na2vs0mg"},{"bike_id":"fe114368-b08d-4c68-b31b-479111d85aba","system_id":"levelo_inurba_marseille","lat":43.2942,"lon":5.38625,"is_reserved":false,"is_disabled":false,"rental_uris":{"android":"levelo://app?vid=fe114368-b08d-4c68-b31b-479111d85aba","ios":"levelo://app?vid=fe114368-b08d-4c68-b31b-479111d85aba"},"vehicle_type_id":"4","last_reported":1732295280,"current_range_meters":19600,"station_id":"ce4bh2h2rcd13ifvqdh0","pricing_plan_id":"cebpf4jnsgd1na2vs0mg"},{"bike_id":"dc034b65-7f4c-4b53-a292-034928e7866e","system_id":"levelo_inurba_marseille","lat":43.31738,"lon":5.37209,"is_reserved":false,"is_disabled":false,"rental_uris":{"android":"levelo://app?vid=dc034b65-7f4c-4b53-a292-034928e7866e","ios":"levelo://app?vid=dc034b65-7f4c-4b53-a292-034928e7866e"},"vehicle_type_id":"4","last_reported":1732295280,"current_range_meters":9600,"station_id":"","pricing_plan_id":"cebpf4jnsgd1na2vs0mg"},{"bike_id":"a2c58c6c-a2f6-40b4-994d-3b31e7787b44","system_id":"levelo_inurba_marseille","lat":43.2842,"lon":5.35003,"is_reserved":false,"is_disabled":false,"rental_uris":{"android":"levelo://app?vid=a2c58c6c-a2f6-40b4-994d-3b31e7787b44","ios":"levelo://app?vid=a2c58c6c-a2f6-40b4-994d-3b31e7787b44"},"vehicle_type_id":"4","last_reported":1732295280,"current_range_meters":31200,"station_id":"ce4bhbh2rcd13ifvqepg","pricing_plan_id":"cebpf4jnsgd1na2vs0mg"},{"bike_id":"c2a59ab3-d6b8-4918-82c9-bfcce921601e","system_id":"levelo_inurba_marseille","lat":43.32487,"lon":5.36578,"is_reserved":false,"is_disabled":false,"rental_uris":{"android":"levelo://app?vid=c2a59ab3-d6b8-4918-82c9-bfcce921601e","ios":"levelo://app?vid=c2a59ab3-d6b8-4918-82c9-bfcce921601e"},"vehicle_type_id":"4","last_reported":1732295280,"current_range_meters":16800,"station_id":"ce4bhs12rcd13ifvqhvg","pricing_plan_id":"cebpf4jnsgd1na2vs0mg"},{"bike_id":"58c180dc-c06a-46fe-9701-0fd5163c8626","system_id":"levelo_inurba_marseille","lat":43.29584,"lon":5.42308,"is_reserved":false,"is_disabled":true,"rental_uris":{"android":"levelo://app?vid=58c180dc-c06a-46fe-9701-0fd5163c8626","ios":"levelo://app?vid=58c180dc-c06a-46fe-9701-0fd5163c8626"},"vehicle_type_id":"4","last_reported":1732295280,"current_range_meters":0,"station_id":"ce4bhph2rcd13ifvqhdg","pricing_plan_id":"cebpf4jnsgd1na2vs0mg"},{"bike_id":"3fb4cd4a-6b58-43eb-b0a7-212ea542f6bb","system_id":"levelo_inurba_marseille","lat":43.27621,"lon":5.3611,"is_reserved":false,"is_disabled":false,"rental_uris":{"android":"levelo://app?vid=3fb4cd4a-6b58-43eb-b0a7-212ea542f6bb","ios":"levelo://app?vid=3fb4cd4a-6b58-43eb-b0a7-212ea542f6bb"},"vehicle_type_id":"4","last_reported":1732295280,"current_range_meters":19200,"station_id":"ce4bgj92rcd13ifvqbe0","pricing_plan_id":"cebpf4jnsgd1na2vs0mg"},{"bike_id":"4fe80ffc-4df8-4ae3-aa53-bb17cdd54e27","system_id":"levelo_inurba_marseille","lat":43.30137,"lon":5.37419,"is_reserved":false,"is_disabled":false,"rental_uris":{"android":"levelo://app?vid=4fe80ffc-4df8-4ae3-aa53-bb17cdd54e27","ios":"levelo://app?vid=4fe80ffc-4df8-4ae3-aa53-bb17cdd54e27"},"vehicle_type_id":"4","last_reported":1732295280,"current_range_meters":16000,"station_id":"ce4bgs92rcd13ifvqcc0","pricing_plan_id":"cebpf4jnsgd1na2vs0mg"},{"bike_id":"0557ed0e-62e0-48b9-96c7-0fd8d72859a6","system_id":"levelo_inurba_marseille","lat":43.31365,"lon":5.38488,"is_reserved":false,"is_disabled":false,"rental_uris":{"android":"levelo://app?vid=0557ed0e-62e0-48b9-96c7-0fd8d72859a6","ios":"levelo://app?vid=0557ed0e-62e0-48b9-96c7-0fd8d72859a6"},"vehicle_type_id":"4","last_reported":1732295280,"current_range_meters":34000,"station_id":"ce4bgt92rcd13ifvqcf0","pricing_plan_id":"cebpf4jnsgd1na2vs0mg"},{"bike_id":"b60466ef-8514-4f53-ab0a-ebf1071dc205","system_id":"levelo_inurba_marseille","lat":43.32356,"lon":5.38879,"is_reserved":false,"is_disabled":false,"rental_uris":{"android":"levelo://app?vid=b60466ef-8514-4f53-ab0a-ebf1071dc205","ios":"levelo://app?vid=b60466ef-8514-4f53-ab0a-ebf1071dc205"},"vehicle_type_id":"4","last_reported":1732295280,"current_range_meters":34000,"station_id":"ce4bhqp2rcd13ifvqhog","pricing_plan_id":"cebpf4jnsgd1na2vs0mg"},{"bike_id":"6c6f674e-3b17-4210-949c-cb62f61b86de","system_id":"levelo_inurba_marseille","lat":43.26563,"lon":5.39032,"is_reserved":false,"is_disabled":false,"rental_uris":{"android":"levelo://app?vid=6c6f674e-3b17-4210-949c-cb62f61b86de","ios":"levelo://app?vid=6c6f674e-3b17-4210-949c-cb62f61b86de"},"vehicle_type_id":"4","last_reported":1732295280,"current_range_meters":38400,"station_id":"ce4bhe12rcd13ifvqf30","pricing_plan_id":"cebpf4jnsgd1na2vs0mg"},{"bike_id":"20db0e6b-7fc1-4f13-aeb2-811ab390dd13","system_id":"levelo_inurba_marseille","lat":43.32498,"lon":5.36564,"is_reserved":false,"is_disabled":false,"rental_uris":{"android":"levelo://app?vid=20db0e6b-7fc1-4f13-aeb2-811ab390dd13","ios":"levelo://app?vid=20db0e6b-7fc1-4f13-aeb2-811ab390dd13"},"vehicle_type_id":"4","last_reported":1732295280,"current_range_meters":7200,"station_id":"ce4bhs12rcd13ifvqhvg","pricing_plan_id":"cebpf4jnsgd1na2vs0mg"},{"bike_id":"13b751d7-077d-4f29-8350-fc32ddaecb6a","system_id":"levelo_inurba_marseille","lat":43.26549,"lon":5.37289,"is_reserved":false,"is_disabled":false,"rental_uris":{"android":"levelo://app?vid=13b751d7-077d-4f29-8350-fc32ddaecb6a","ios":"levelo://app?vid=13b751d7-077d-4f29-8350-fc32ddaecb6a"},"vehicle_type_id":"4","last_reported":1732295280,"current_range_meters":37600,"station_id":"ce4bhg12rcd13ifvqf70","pricing_plan_id":"cebpf4jnsgd1na2vs0mg"},{"bike_id":"e5951ee3-4a5a-4ebb-b469-096c5188dfa3","system_id":"levelo_inurba_marseille","lat":43.23187,"lon":5.35555,"is_reserved":false,"is_disabled":false,"rental_uris":{"android":"levelo://app?vid=e5951ee3-4a5a-4ebb-b469-096c5188dfa3","ios":"levelo://app?vid=e5951ee3-4a5a-4ebb-b469-096c5188dfa3"},"vehicle_type_id":"4","last_reported":1732295280,"current_range_meters":28000,"station_id":"ce4bhu92rcd13ifvqi70","pricing_plan_id":"cebpf4jnsgd1na2vs0mg"},{"bike_id":"17a47c7e-cabb-487d-a215-0ab261176b47","system_id":"levelo_inurba_marseille","lat":43.28154,"lon":5.42651,"is_reserved":false,"is_disabled":true,"rental_uris":{"android":"levelo://app?vid=17a47c7e-cabb-487d-a215-0ab261176b47","ios":"levelo://app?vid=17a47c7e-cabb-487d-a215-0ab261176b47"},"vehicle_type_id":"4","last_reported":1732295280,"current_range_meters":800,"station_id":"ce4bhnh2rcd13ifvqgug","pricing_plan_id":"cebpf4jnsgd1na2vs0mg"},{"bike_id":"67ba9bd6-ab8b-42f3-971b-87098b05d8ee","system_id":"levelo_inurba_marseille","lat":43.2792,"lon":5.38769,"is_reserved":false,"is_disabled":false,"rental_uris":{"android":"levelo://app?vid=67ba9bd6-ab8b-42f3-971b-87098b05d8ee","ios":"levelo://app?vid=67ba9bd6-ab8b-42f3-971b-87098b05d8ee"},"vehicle_type_id":"4","last_reported":1732295280,"current_range_meters":28800,"station_id":"ce4bhg12rcd13ifvqf80","pricing_plan_id":"cebpf4jnsgd1na2vs0mg"},{"bike_id":"1bfb6ac2-7a11-473a-bfb9-a0b6de83eb02","system_id":"levelo_inurba_marseille","lat":43.25003,"lon":5.38926,"is_reserved":false,"is_disabled":false,"rental_uris":{"android":"levelo://app?vid=1bfb6ac2-7a11-473a-bfb9-a0b6de83eb02","ios":"levelo://app?vid=1bfb6ac2-7a11-473a-bfb9-a0b6de83eb02"},"vehicle_type_id":"4","last_reported":1732295280,"current_range_meters":20000,"station_id":"ce4bhgp2rcd13ifvqfd0","pricing_plan_id":"cebpf4jnsgd1na2vs0mg"},{"bike_id":"598543c3-4504-4ea3-976e-b45e767de5ed","system_id":"levelo_inurba_marseille","lat":43.32364,"lon":5.38887,"is_reserved":false,"is_disabled":false,"rental_uris":{"android":"levelo://app?vid=598543c3-4504-4ea3-976e-b45e767de5ed","ios":"levelo://app?vid=598543c3-4504-4ea3-976e-b45e767de5ed"},"vehicle_type_id":"4","last_reported":1732295280,"current_range_meters":36000,"station_id":"ce4bhqp2rcd13ifvqhog","pricing_plan_id":"cebpf4jnsgd1na2vs0mg"},{"bike_id":"44abef4f-7bb3-417f-9f17-632a234b6e5d","system_id":"levelo_inurba_marseille","lat":43.32109,"lon":5.3678,"is_reserved":false,"is_disabled":false,"rental_uris":{"android":"levelo://app?vid=44abef4f-7bb3-417f-9f17-632a234b6e5d","ios":"levelo://app?vid=44abef4f-7bb3-417f-9f17-632a234b6e5d"},"vehicle_type_id":"4","last_reported":1732295280,"current_range_meters":22000,"station_id":"ce4bhrh2rcd13ifvqhug","pricing_plan_id":"cebpf4jnsgd1na2vs0mg"},{"bike_id":"830ab6f1-9f97-4b81-a374-96032fba99d2","system_id":"levelo_inurba_marseille","lat":43.24476,"lon":5.36924,"is_reserved":false,"is_disabled":true,"rental_uris":{"android":"levelo://app?vid=830ab6f1-9f97-4b81-a374-96032fba99d2","ios":"levelo://app?vid=830ab6f1-9f97-4b81-a374-96032fba99d2"},"vehicle_type_id":"4","last_reported":1732295280,"current_range_meters":25600,"station_id":"","pricing_plan_id":"cebpf4jnsgd1na2vs0mg"},{"bike_id":"6c948e9c-d5b3-4fe5-a918-1bd2f7c83b02","system_id":"levelo_inurba_marseille","lat":43.32113,"lon":5.36777,"is_reserved":false,"is_disabled":false,"rental_uris":{"android":"levelo://app?vid=6c948e9c-d5b3-4fe5-a918-1bd2f7c83b02","ios":"levelo://app?vid=6c948e9c-d5b3-4fe5-a918-1bd2f7c83b02"},"vehicle_type_id":"4","last_reported":1732295280,"current_range_meters":36800,"station_id":"ce4bhrh2rcd13ifvqhug","pricing_plan_id":"cebpf4jnsgd1na2vs0mg"},{"bike_id":"9e620abf-d324-4f99-84fc-d67e71109f2a","system_id":"levelo_inurba_marseille","lat":43.31078,"lon":5.42428,"is_reserved":false,"is_disabled":true,"rental_uris":{"android":"levelo://app?vid=9e620abf-d324-4f99-84fc-d67e71109f2a","ios":"levelo://app?vid=9e620abf-d324-4f99-84fc-d67e71109f2a"},"vehicle_type_id":"4","last_reported":1732295280,"current_range_meters":3600,"station_id":"ce4bhp92rcd13ifvqhag","pricing_plan_id":"cebpf4jnsgd1na2vs0mg"},{"bike_id":"9388a7ff-9c5c-4c26-9899-39b2408cf7e3","system_id":"levelo_inurba_marseille","lat":43.31025,"lon":5.38342,"is_reserved":false,"is_disabled":true,"rental_uris":{"android":"levelo://app?vid=9388a7ff-9c5c-4c26-9899-39b2408cf7e3","ios":"levelo://app?vid=9388a7ff-9c5c-4c26-9899-39b2408cf7e3"},"vehicle_type_id":"4","last_reported":1732295280,"current_range_meters":0,"station_id":"","pricing_plan_id":"cebpf4jnsgd1na2vs0mg"},{"bike_id":"78225a95-33e6-486d-94dc-28a796d43826","system_id":"levelo_inurba_marseille","lat":43.29147,"lon":5.4004,"is_reserved":false,"is_disabled":false,"rental_uris":{"android":"levelo://app?vid=78225a95-33e6-486d-94dc-28a796d43826","ios":"levelo://app?vid=78225a95-33e6-486d-94dc-28a796d43826"},"vehicle_type_id":"4","last_reported":1732295280,"current_range_meters":38400,"station_id":"ce4bhq92rcd13ifvqhjg","pricing_plan_id":"cebpf4jnsgd1na2vs0mg"},{"bike_id":"164d8ecf-9ef9-4eba-a6de-29c17c03ee13","system_id":"levelo_inurba_marseille","lat":43.26026,"lon":5.37557,"is_reserved":false,"is_disabled":false,"rental_uris":{"android":"levelo://app?vid=164d8ecf-9ef9-4eba-a6de-29c17c03ee13","ios":"levelo://app?vid=164d8ecf-9ef9-4eba-a6de-29c17c03ee13"},"vehicle_type_id":"4","last_reported":1732295280,"current_range_meters":15200,"station_id":"ce4bhgh2rcd13ifvqfa0","pricing_plan_id":"cebpf4jnsgd1na2vs0mg"},{"bike_id":"e3a52bb8-0c78-4e40-9881-c1e5937ed3e1","system_id":"levelo_inurba_marseille","lat":43.29861,"lon":5.39747,"is_reserved":false,"is_disabled":false,"rental_uris":{"android":"levelo://app?vid=e3a52bb8-0c78-4e40-9881-c1e5937ed3e1","ios":"levelo://app?vid=e3a52bb8-0c78-4e40-9881-c1e5937ed3e1"},"vehicle_type_id":"4","last_reported":1732295280,"current_range_meters":27600,"station_id":"ce4bh0h2rcd13ifvqd50","pricing_plan_id":"cebpf4jnsgd1na2vs0mg"},{"bike_id":"5c53cfbd-2547-413a-b79a-f8cc3b1ca992","system_id":"levelo_inurba_marseille","lat":43.32109,"lon":5.36781,"is_reserved":false,"is_disabled":false,"rental_uris":{"android":"levelo://app?vid=5c53cfbd-2547-413a-b79a-f8cc3b1ca992","ios":"levelo://app?vid=5c53cfbd-2547-413a-b79a-f8cc3b1ca992"},"vehicle_type_id":"4","last_reported":1732295280,"current_range_meters":16000,"station_id":"ce4bhrh2rcd13ifvqhug","pricing_plan_id":"cebpf4jnsgd1na2vs0mg"},{"bike_id":"f43ef006-165b-42be-af76-a93b1ce98b70","system_id":"levelo_inurba_marseille","lat":43.29883,"lon":5.38904,"is_reserved":false,"is_disabled":false,"rental_uris":{"android":"levelo://app?vid=f43ef006-165b-42be-af76-a93b1ce98b70","ios":"levelo://app?vid=f43ef006-165b-42be-af76-a93b1ce98b70"},"vehicle_type_id":"4","last_reported":1732295280,"current_range_meters":35600,"station_id":"ce4bh392rcd13ifvqdl0","pricing_plan_id":"cebpf4jnsgd1na2vs0mg"},{"bike_id":"85c01c0b-dd5c-4809-bf61-68287b12d903","system_id":"levelo_inurba_marseille","lat":43.32367,"lon":5.3889,"is_reserved":false,"is_disabled":false,"rental_uris":{"android":"levelo://app?vid=85c01c0b-dd5c-4809-bf61-68287b12d903","ios":"levelo://app?vid=85c01c0b-dd5c-4809-bf61-68287b12d903"},"vehicle_type_id":"4","last_reported":1732295280,"current_range_meters":36800,"station_id":"ce4bhqp2rcd13ifvqhog","pricing_plan_id":"cebpf4jnsgd1na2vs0mg"},{"bike_id":"ea188596-8a15-4c67-9fbb-ab7ba9487b25","system_id":"levelo_inurba_marseille","lat":43.27553,"lon":5.38431,"is_reserved":false,"is_disabled":true,"rental_uris":{"android":"levelo://app?vid=ea188596-8a15-4c67-9fbb-ab7ba9487b25","ios":"levelo://app?vid=ea188596-8a15-4c67-9fbb-ab7ba9487b25"},"vehicle_type_id":"4","last_reported":1732295280,"current_range_meters":0,"station_id":"ce4bhh92rcd13ifvqfi0","pricing_plan_id":"cebpf4jnsgd1na2vs0mg"},{"bike_id":"5a56132e-e2a4-4c84-b124-7b9b6aa5031f","system_id":"levelo_inurba_marseille","lat":43.28846,"lon":5.39315,"is_reserved":false,"is_disabled":false,"rental_uris":{"android":"levelo://app?vid=5a56132e-e2a4-4c84-b124-7b9b6aa5031f","ios":"levelo://app?vid=5a56132e-e2a4-4c84-b124-7b9b6aa5031f"},"vehicle_type_id":"4","last_reported":1732295280,"current_range_meters":38800,"station_id":"ce4bh2p2rcd13ifvqdi0","pricing_plan_id":"cebpf4jnsgd1na2vs0mg"},{"bike_id":"c39d2a6b-971a-4102-af38-404b98ad453d","system_id":"levelo_inurba_marseille","lat":43.29309,"lon":5.37185,"is_reserved":false,"is_disabled":false,"rental_uris":{"android":"levelo://app?vid=c39d2a6b-971a-4102-af38-404b98ad453d","ios":"levelo://app?vid=c39d2a6b-971a-4102-af38-404b98ad453d"},"vehicle_type_id":"4","last_reported":1732295280,"current_range_meters":22800,"station_id":"ce4bgh92rcd13ifvqb40","pricing_plan_id":"cebpf4jnsgd1na2vs0mg"},{"bike_id":"d255fe61-6c48-46a5-9a6e-fa0e123db683","system_id":"levelo_inurba_marseille","lat":43.29446,"lon":5.38166,"is_reserved":false,"is_disabled":false,"rental_uris":{"android":"levelo://app?vid=d255fe61-6c48-46a5-9a6e-fa0e123db683","ios":"levelo://app?vid=d255fe61-6c48-46a5-9a6e-fa0e123db683"},"vehicle_type_id":"4","last_reported":1732295280,"current_range_meters":23200,"station_id":"","pricing_plan_id":"cebpf4jnsgd1na2vs0mg"},{"bike_id":"9efab7bb-b9af-4dfb-bd79-748c30966d28","system_id":"levelo_inurba_marseille","lat":43.31753,"lon":5.39015,"is_reserved":false,"is_disabled":false,"rental_uris":{"android":"levelo://app?vid=9efab7bb-b9af-4dfb-bd79-748c30966d28","ios":"levelo://app?vid=9efab7bb-b9af-4dfb-bd79-748c30966d28"},"vehicle_type_id":"4","last_reported":1732295280,"current_range_meters":33200,"station_id":"ce4bhqp2rcd13ifvqhng","pricing_plan_id":"cebpf4jnsgd1na2vs0mg"},{"bike_id":"e295127c-68a9-4d9a-ba7b-6f97b7551f8c","system_id":"levelo_inurba_marseille","lat":43.33722,"lon":5.39191,"is_reserved":false,"is_disabled":false,"rental_uris":{"android":"levelo://app?vid=e295127c-68a9-4d9a-ba7b-6f97b7551f8c","ios":"levelo://app?vid=e295127c-68a9-4d9a-ba7b-6f97b7551f8c"},"vehicle_type_id":"4","last_reported":1732295280,"current_range_meters":13600,"station_id":"ce4bhr92rcd13ifvqhsg","pricing_plan_id":"cebpf4jnsgd1na2vs0mg"},{"bike_id":"b389af88-c419-4869-afbf-0c33ed4fe6c8","system_id":"levelo_inurba_marseille","lat":43.2583,"lon":5.3944,"is_reserved":false,"is_disabled":false,"rental_uris":{"android":"levelo://app?vid=b389af88-c419-4869-afbf-0c33ed4fe6c8","ios":"levelo://app?vid=b389af88-c419-4869-afbf-0c33ed4fe6c8"},"vehicle_type_id":"4","last_reported":1732295280,"current_range_meters":37600,"station_id":"ce4bhip2rcd13ifvqft0","pricing_plan_id":"cebpf4jnsgd1na2vs0mg"},{"bike_id":"7d3e8fd3-1be0-4a00-b2bf-d1423a0733bf","system_id":"levelo_inurba_marseille","lat":43.30558,"lon":5.36552,"is_reserved":false,"is_disabled":false,"rental_uris":{"android":"levelo://app?vid=7d3e8fd3-1be0-4a00-b2bf-d1423a0733bf","ios":"levelo://app?vid=7d3e8fd3-1be0-4a00-b2bf-d1423a0733bf"},"vehicle_type_id":"4","last_reported":1732295280,"current_range_meters":11600,"station_id":"ce4bgs12rcd13ifvqcag","pricing_plan_id":"cebpf4jnsgd1na2vs0mg"},{"bike_id":"5a9b2b0f-a7ac-4348-95cf-efc443a0a226","system_id":"levelo_inurba_marseille","lat":43.30892,"lon":5.3719,"is_reserved":false,"is_disabled":false,"rental_uris":{"android":"levelo://app?vid=5a9b2b0f-a7ac-4348-95cf-efc443a0a226","ios":"levelo://app?vid=5a9b2b0f-a7ac-4348-95cf-efc443a0a226"},"vehicle_type_id":"4","last_reported":1732295280,"current_range_meters":23200,"station_id":"ce4bguh2rcd13ifvqckg","pricing_plan_id":"cebpf4jnsgd1na2vs0mg"},{"bike_id":"824a374e-5132-4b67-b192-0b61135b3659","system_id":"levelo_inurba_marseille","lat":43.30144,"lon":5.3742,"is_reserved":false,"is_disabled":false,"rental_uris":{"android":"levelo://app?vid=824a374e-5132-4b67-b192-0b61135b3659","ios":"levelo://app?vid=824a374e-5132-4b67-b192-0b61135b3659"},"vehicle_type_id":"4","last_reported":1732295280,"current_range_meters":27200,"station_id":"ce4bgs92rcd13ifvqcc0","pricing_plan_id":"cebpf4jnsgd1na2vs0mg"},{"bike_id":"89429ed2-f839-4749-bcb9-3e5230fe3bfb","system_id":"levelo_inurba_marseille","lat":43.3373,"lon":5.39186,"is_reserved":false,"is_disabled":false,"rental_uris":{"android":"levelo://app?vid=89429ed2-f839-4749-bcb9-3e5230fe3bfb","ios":"levelo://app?vid=89429ed2-f839-4749-bcb9-3e5230fe3bfb"},"vehicle_type_id":"4","last_reported":1732295280,"current_range_meters":37600,"station_id":"ce4bhr92rcd13ifvqhsg","pricing_plan_id":"cebpf4jnsgd1na2vs0mg"},{"bike_id":"927005f5-b200-4e92-9d36-9f94c76ba2dd","system_id":"levelo_inurba_marseille","lat":43.30796,"lon":5.4353,"is_reserved":false,"is_disabled":true,"rental_uris":{"android":"levelo://app?vid=927005f5-b200-4e92-9d36-9f94c76ba2dd","ios":"levelo://app?vid=927005f5-b200-4e92-9d36-9f94c76ba2dd"},"vehicle_type_id":"4","last_reported":1732295280,"current_range_meters":0,"station_id":"ce4bhph2rcd13ifvqheg","pricing_plan_id":"cebpf4jnsgd1na2vs0mg"},{"bike_id":"453e778d-160c-45f5-ab01-4fbecb21142c","system_id":"levelo_inurba_marseille","lat":43.294128,"lon":5.386399,"is_reserved":false,"is_disabled":false,"rental_uris":{"android":"levelo://app?vid=453e778d-160c-45f5-ab01-4fbecb21142c","ios":"levelo://app?vid=453e778d-160c-45f5-ab01-4fbecb21142c"},"vehicle_type_id":"4","last_reported":1732295280,"current_range_meters":4000,"station_id":"ce4bh2h2rcd13ifvqdh0","pricing_plan_id":"cebpf4jnsgd1na2vs0mg"},{"bike_id":"1d1ffa45-bcac-46c6-894f-067ca0b705a8","system_id":"levelo_inurba_marseille","lat":43.28972,"lon":5.3665,"is_reserved":false,"is_disabled":false,"rental_uris":{"android":"levelo://app?vid=1d1ffa45-bcac-46c6-894f-067ca0b705a8","ios":"levelo://app?vid=1d1ffa45-bcac-46c6-894f-067ca0b705a8"},"vehicle_type_id":"4","last_reported":1732295280,"current_range_meters":36000,"station_id":"","pricing_plan_id":"cebpf4jnsgd1na2vs0mg"},{"bike_id":"fd04da2b-8ada-44da-8c38-3aff33e498b5","system_id":"levelo_inurba_marseille","lat":43.23181,"lon":5.39989,"is_reserved":false,"is_disabled":false,"rental_uris":{"android":"levelo://app?vid=fd04da2b-8ada-44da-8c38-3aff33e498b5","ios":"levelo://app?vid=fd04da2b-8ada-44da-8c38-3aff33e498b5"},"vehicle_type_id":"4","last_reported":1732295280,"current_range_meters":35600,"station_id":"ce4bhn12rcd13ifvqgqg","pricing_plan_id":"cebpf4jnsgd1na2vs0mg"},{"bike_id":"d025ef5c-f65f-45fe-af01-50b18a9fe250","system_id":"levelo_inurba_marseille","lat":43.26944,"lon":5.40252,"is_reserved":false,"is_disabled":false,"rental_uris":{"android":"levelo://app?vid=d025ef5c-f65f-45fe-af01-50b18a9fe250","ios":"levelo://app?vid=d025ef5c-f65f-45fe-af01-50b18a9fe250"},"vehicle_type_id":"4","last_reported":1732295280,"current_range_meters":4800,"station_id":"cjm6bp8fraef2m0cb0m0","pricing_plan_id":"cebpf4jnsgd1na2vs0mg"},{"bike_id":"050ff910-f189-4012-80f4-5bdec5f34eb2","system_id":"levelo_inurba_marseille","lat":43.29805,"lon":5.42663,"is_reserved":false,"is_disabled":true,"rental_uris":{"android":"levelo://app?vid=050ff910-f189-4012-80f4-5bdec5f34eb2","ios":"levelo://app?vid=050ff910-f189-4012-80f4-5bdec5f34eb2"},"vehicle_type_id":"4","last_reported":1732295280,"current_range_meters":1200,"station_id":"","pricing_plan_id":"cebpf4jnsgd1na2vs0mg"},{"bike_id":"30947aab-ef50-4d10-879c-4c4fd217f14f","system_id":"levelo_inurba_marseille","lat":43.26197,"lon":5.37449,"is_reserved":false,"is_disabled":false,"rental_uris":{"android":"levelo://app?vid=30947aab-ef50-4d10-879c-4c4fd217f14f","ios":"levelo://app?vid=30947aab-ef50-4d10-879c-4c4fd217f14f"},"vehicle_type_id":"4","last_reported":1732295280,"current_range_meters":24400,"station_id":"ce4bhgp2rcd13ifvqfc0","pricing_plan_id":"cebpf4jnsgd1na2vs0mg"},{"bike_id":"f9edd813-8ade-4e8c-be5a-7737c50aeec0","system_id":"levelo_inurba_marseille","lat":43.31364,"lon":5.38494,"is_reserved":false,"is_disabled":false,"rental_uris":{"android":"levelo://app?vid=f9edd813-8ade-4e8c-be5a-7737c50aeec0","ios":"levelo://app?vid=f9edd813-8ade-4e8c-be5a-7737c50aeec0"},"vehicle_type_id":"4","last_reported":1732295280,"current_range_meters":28000,"station_id":"ce4bgt92rcd13ifvqcf0","pricing_plan_id":"cebpf4jnsgd1na2vs0mg"},{"bike_id":"7770b1cc-2a54-4d08-8255-6bed2fc397aa","system_id":"levelo_inurba_marseille","lat":43.23196,"lon":5.35548,"is_reserved":false,"is_disabled":false,"rental_uris":{"android":"levelo://app?vid=7770b1cc-2a54-4d08-8255-6bed2fc397aa","ios":"levelo://app?vid=7770b1cc-2a54-4d08-8255-6bed2fc397aa"},"vehicle_type_id":"4","last_reported":1732295280,"current_range_meters":9600,"station_id":"ce4bhu92rcd13ifvqi70","pricing_plan_id":"cebpf4jnsgd1na2vs0mg"},{"bike_id":"05f72a09-f649-4e5d-995b-09662bc353ee","system_id":"levelo_inurba_marseille","lat":43.29305,"lon":5.37462,"is_reserved":false,"is_disabled":false,"rental_uris":{"android":"levelo://app?vid=05f72a09-f649-4e5d-995b-09662bc353ee","ios":"levelo://app?vid=05f72a09-f649-4e5d-995b-09662bc353ee"},"vehicle_type_id":"4","last_reported":1732295280,"current_range_meters":29600,"station_id":"ce4bgi12rcd13ifvqb70","pricing_plan_id":"cebpf4jnsgd1na2vs0mg"},{"bike_id":"832e4346-5181-4bbd-9941-7a45a180a4c4","system_id":"levelo_inurba_marseille","lat":43.24543,"lon":5.39527,"is_reserved":false,"is_disabled":true,"rental_uris":{"android":"levelo://app?vid=832e4346-5181-4bbd-9941-7a45a180a4c4","ios":"levelo://app?vid=832e4346-5181-4bbd-9941-7a45a180a4c4"},"vehicle_type_id":"4","last_reported":1732295280,"current_range_meters":800,"station_id":"ce4bhlp2rcd13ifvqgjg","pricing_plan_id":"cebpf4jnsgd1na2vs0mg"},{"bike_id":"8b05fe49-793f-443b-8a3d-a56038c243f0","system_id":"levelo_inurba_marseille","lat":43.3013,"lon":5.3986,"is_reserved":false,"is_disabled":false,"rental_uris":{"android":"levelo://app?vid=8b05fe49-793f-443b-8a3d-a56038c243f0","ios":"levelo://app?vid=8b05fe49-793f-443b-8a3d-a56038c243f0"},"vehicle_type_id":"4","last_reported":1732295280,"current_range_meters":38400,"station_id":"ce4bh0h2rcd13ifvqd40","pricing_plan_id":"cebpf4jnsgd1na2vs0mg"},{"bike_id":"fdaf890b-328d-4c6c-b370-bc14721c2873","system_id":"levelo_inurba_marseille","lat":43.25825,"lon":5.39426,"is_reserved":false,"is_disabled":true,"rental_uris":{"android":"levelo://app?vid=fdaf890b-328d-4c6c-b370-bc14721c2873","ios":"levelo://app?vid=fdaf890b-328d-4c6c-b370-bc14721c2873"},"vehicle_type_id":"4","last_reported":1732295280,"current_range_meters":0,"station_id":"ce4bhip2rcd13ifvqft0","pricing_plan_id":"cebpf4jnsgd1na2vs0mg"},{"bike_id":"1ab4519b-c1c8-47d5-bca5-e407b78cd414","system_id":"levelo_inurba_marseille","lat":43.31997,"lon":5.38161,"is_reserved":false,"is_disabled":false,"rental_uris":{"android":"levelo://app?vid=1ab4519b-c1c8-47d5-bca5-e407b78cd414","ios":"levelo://app?vid=1ab4519b-c1c8-47d5-bca5-e407b78cd414"},"vehicle_type_id":"4","last_reported":1732295280,"current_range_meters":20800,"station_id":"ce4bhr12rcd13ifvqhpg","pricing_plan_id":"cebpf4jnsgd1na2vs0mg"},{"bike_id":"96b2bed9-1689-46f5-a1b5-49ee6427aea3","system_id":"levelo_inurba_marseille","lat":43.32096,"lon":5.41551,"is_reserved":false,"is_disabled":false,"rental_uris":{"android":"levelo://app?vid=96b2bed9-1689-46f5-a1b5-49ee6427aea3","ios":"levelo://app?vid=96b2bed9-1689-46f5-a1b5-49ee6427aea3"},"vehicle_type_id":"4","last_reported":1732295280,"current_range_meters":18000,"station_id":"ce4bhq92rcd13ifvqhkg","pricing_plan_id":"cebpf4jnsgd1na2vs0mg"},{"bike_id":"ff03e370-905d-4e46-933c-318b61b8991e","system_id":"levelo_inurba_marseille","lat":43.29569,"lon":5.37518,"is_reserved":false,"is_disabled":true,"rental_uris":{"android":"levelo://app?vid=ff03e370-905d-4e46-933c-318b61b8991e","ios":"levelo://app?vid=ff03e370-905d-4e46-933c-318b61b8991e"},"vehicle_type_id":"4","last_reported":1732295280,"current_range_meters":1600,"station_id":"ce4bgh92rcd13ifvqb50","pricing_plan_id":"cebpf4jnsgd1na2vs0mg"},{"bike_id":"98972151-75f5-469b-a2af-639c8766f784","system_id":"levelo_inurba_marseille","lat":43.27376,"lon":5.36264,"is_reserved":false,"is_disabled":false,"rental_uris":{"android":"levelo://app?vid=98972151-75f5-469b-a2af-639c8766f784","ios":"levelo://app?vid=98972151-75f5-469b-a2af-639c8766f784"},"vehicle_type_id":"4","last_reported":1732295280,"current_range_meters":38000,"station_id":"ce4bhbh2rcd13ifvqeo0","pricing_plan_id":"cebpf4jnsgd1na2vs0mg"},{"bike_id":"22546be2-2a29-4065-b56c-2a6087515972","system_id":"levelo_inurba_marseille","lat":43.30298,"lon":5.39217,"is_reserved":false,"is_disabled":true,"rental_uris":{"android":"levelo://app?vid=22546be2-2a29-4065-b56c-2a6087515972","ios":"levelo://app?vid=22546be2-2a29-4065-b56c-2a6087515972"},"vehicle_type_id":"4","last_reported":1732295280,"current_range_meters":0,"station_id":"ce4bgkh2rcd13ifvqbk0","pricing_plan_id":"cebpf4jnsgd1na2vs0mg"},{"bike_id":"3eed7500-f326-4392-bb14-db80b5879111","system_id":"levelo_inurba_marseille","lat":43.28697,"lon":5.38671,"is_reserved":false,"is_disabled":false,"rental_uris":{"android":"levelo://app?vid=3eed7500-f326-4392-bb14-db80b5879111","ios":"levelo://app?vid=3eed7500-f326-4392-bb14-db80b5879111"},"vehicle_type_id":"4","last_reported":1732295280,"current_range_meters":38000,"station_id":"ce4bh492rcd13ifvqdug","pricing_plan_id":"cebpf4jnsgd1na2vs0mg"},{"bike_id":"14d8cc12-5bb8-4b14-9b13-e9b5e15df83b","system_id":"levelo_inurba_marseille","lat":43.31758,"lon":5.39022,"is_reserved":false,"is_disabled":false,"rental_uris":{"android":"levelo://app?vid=14d8cc12-5bb8-4b14-9b13-e9b5e15df83b","ios":"levelo://app?vid=14d8cc12-5bb8-4b14-9b13-e9b5e15df83b"},"vehicle_type_id":"4","last_reported":1732295280,"current_range_meters":24800,"station_id":"ce4bhqp2rcd13ifvqhng","pricing_plan_id":"cebpf4jnsgd1na2vs0mg"},{"bike_id":"0df6475d-bd4b-4f56-be37-9dd5d17751fe","system_id":"levelo_inurba_marseille","lat":43.29171,"lon":5.39323,"is_reserved":false,"is_disabled":false,"rental_uris":{"android":"levelo://app?vid=0df6475d-bd4b-4f56-be37-9dd5d17751fe","ios":"levelo://app?vid=0df6475d-bd4b-4f56-be37-9dd5d17751fe"},"vehicle_type_id":"4","last_reported":1732295280,"current_range_meters":38400,"station_id":"ce4bh192rcd13ifvqdd0","pricing_plan_id":"cebpf4jnsgd1na2vs0mg"},{"bike_id":"ae89fa91-47cb-48a3-a6e2-358ac1009ba6","system_id":"levelo_inurba_marseille","lat":43.25834,"lon":5.39434,"is_reserved":false,"is_disabled":false,"rental_uris":{"android":"levelo://app?vid=ae89fa91-47cb-48a3-a6e2-358ac1009ba6","ios":"levelo://app?vid=ae89fa91-47cb-48a3-a6e2-358ac1009ba6"},"vehicle_type_id":"4","last_reported":1732295280,"current_range_meters":8400,"station_id":"ce4bhip2rcd13ifvqft0","pricing_plan_id":"cebpf4jnsgd1na2vs0mg"},{"bike_id":"9450e3c0-b4ee-4aee-9a2b-95d9b2d7eed6","system_id":"levelo_inurba_marseille","lat":43.28426,"lon":5.35005,"is_reserved":false,"is_disabled":false,"rental_uris":{"android":"levelo://app?vid=9450e3c0-b4ee-4aee-9a2b-95d9b2d7eed6","ios":"levelo://app?vid=9450e3c0-b4ee-4aee-9a2b-95d9b2d7eed6"},"vehicle_type_id":"4","last_reported":1732295280,"current_range_meters":22800,"station_id":"ce4bhbh2rcd13ifvqepg","pricing_plan_id":"cebpf4jnsgd1na2vs0mg"},{"bike_id":"a66b9829-7186-4f9f-ab92-dffa2c2f162f","system_id":"levelo_inurba_marseille","lat":43.31755,"lon":5.3902,"is_reserved":false,"is_disabled":true,"rental_uris":{"android":"levelo://app?vid=a66b9829-7186-4f9f-ab92-dffa2c2f162f","ios":"levelo://app?vid=a66b9829-7186-4f9f-ab92-dffa2c2f162f"},"vehicle_type_id":"4","last_reported":1732295280,"current_range_meters":0,"station_id":"ce4bhqp2rcd13ifvqhng","pricing_plan_id":"cebpf4jnsgd1na2vs0mg"},{"bike_id":"f8df1b34-e808-4351-addd-a649ac1cc1d5","system_id":"levelo_inurba_marseille","lat":43.31169,"lon":5.38734,"is_reserved":false,"is_disabled":true,"rental_uris":{"android":"levelo://app?vid=f8df1b34-e808-4351-addd-a649ac1cc1d5","ios":"levelo://app?vid=f8df1b34-e808-4351-addd-a649ac1cc1d5"},"vehicle_type_id":"4","last_reported":1732295280,"current_range_meters":3200,"station_id":"ce4bgv12rcd13ifvqcp0","pricing_plan_id":"cebpf4jnsgd1na2vs0mg"},{"bike_id":"2b806095-dd5d-4c98-bf23-a2fda8dd3be6","system_id":"levelo_inurba_marseille","lat":43.25006,"lon":5.38934,"is_reserved":false,"is_disabled":false,"rental_uris":{"android":"levelo://app?vid=2b806095-dd5d-4c98-bf23-a2fda8dd3be6","ios":"levelo://app?vid=2b806095-dd5d-4c98-bf23-a2fda8dd3be6"},"vehicle_type_id":"4","last_reported":1732295280,"current_range_meters":38800,"station_id":"ce4bhgp2rcd13ifvqfd0","pricing_plan_id":"cebpf4jnsgd1na2vs0mg"},{"bike_id":"e2250792-03ed-4dd8-abff-7ce782e1cc6e","system_id":"levelo_inurba_marseille","lat":43.33755,"lon":5.37446,"is_reserved":false,"is_disabled":false,"rental_uris":{"android":"levelo://app?vid=e2250792-03ed-4dd8-abff-7ce782e1cc6e","ios":"levelo://app?vid=e2250792-03ed-4dd8-abff-7ce782e1cc6e"},"vehicle_type_id":"4","last_reported":1732295280,"current_range_meters":24400,"station_id":"","pricing_plan_id":"cebpf4jnsgd1na2vs0mg"},{"bike_id":"9044f75c-15b5-4f34-bbd2-226c9f41adac","system_id":"levelo_inurba_marseille","lat":43.27612,"lon":5.36104,"is_reserved":false,"is_disabled":true,"rental_uris":{"android":"levelo://app?vid=9044f75c-15b5-4f34-bbd2-226c9f41adac","ios":"levelo://app?vid=9044f75c-15b5-4f34-bbd2-226c9f41adac"},"vehicle_type_id":"4","last_reported":1732295280,"current_range_meters":16800,"station_id":"ce4bgj92rcd13ifvqbe0","pricing_plan_id":"cebpf4jnsgd1na2vs0mg"},{"bike_id":"8b7085b6-bc41-4a45-a35d-444d2169c7cd","system_id":"levelo_inurba_marseille","lat":43.33758,"lon":5.37454,"is_reserved":false,"is_disabled":false,"rental_uris":{"android":"levelo://app?vid=8b7085b6-bc41-4a45-a35d-444d2169c7cd","ios":"levelo://app?vid=8b7085b6-bc41-4a45-a35d-444d2169c7cd"},"vehicle_type_id":"4","last_reported":1732295280,"current_range_meters":19600,"station_id":"","pricing_plan_id":"cebpf4jnsgd1na2vs0mg"},{"bike_id":"7318bd25-2940-4148-ac76-3c9bd5121c1b","system_id":"levelo_inurba_marseille","lat":43.31328,"lon":5.39693,"is_reserved":false,"is_disabled":false,"rental_uris":{"android":"levelo://app?vid=7318bd25-2940-4148-ac76-3c9bd5121c1b","ios":"levelo://app?vid=7318bd25-2940-4148-ac76-3c9bd5121c1b"},"vehicle_type_id":"4","last_reported":1732295280,"current_range_meters":25200,"station_id":"ce4bgvp2rcd13ifvqcu0","pricing_plan_id":"cebpf4jnsgd1na2vs0mg"},{"bike_id":"df102bd5-1456-468c-8384-45c136a16149","system_id":"levelo_inurba_marseille","lat":43.32656,"lon":5.40995,"is_reserved":false,"is_disabled":false,"rental_uris":{"android":"levelo://app?vid=df102bd5-1456-468c-8384-45c136a16149","ios":"levelo://app?vid=df102bd5-1456-468c-8384-45c136a16149"},"vehicle_type_id":"4","last_reported":1732295280,"current_range_meters":17200,"station_id":"ce4bhpp2rcd13ifvqhgg","pricing_plan_id":"cebpf4jnsgd1na2vs0mg"},{"bike_id":"7eceb9cd-dc2f-456f-9686-54eeb1e12b26","system_id":"levelo_inurba_marseille","lat":43.26945,"lon":5.40263,"is_reserved":false,"is_disabled":false,"rental_uris":{"android":"levelo://app?vid=7eceb9cd-dc2f-456f-9686-54eeb1e12b26","ios":"levelo://app?vid=7eceb9cd-dc2f-456f-9686-54eeb1e12b26"},"vehicle_type_id":"4","last_reported":1732295280,"current_range_meters":4400,"station_id":"cjm6bp8fraef2m0cb0m0","pricing_plan_id":"cebpf4jnsgd1na2vs0mg"},