{"last_updated":1774690023,"ttl":60,"version":"2.2","data":{"bikes":[{"bike_id":"ccc7d27e-afb1-409e-bda9-8359e813cda7","system_id":"levelo_inurba_marseille","lat":43.29304,"lon":5.40121,"is_reserved":false,"is_disabled":false,"rental_uris":{"android":"levelo://app?vid=ccc7d27e-afb1-409e-bda9-8359e813cda7","ios":"levelo://app?vid=ccc7d27e-afb1-409e-bda9-8359e813cda7"},"vehicle_type_id":"4","last_reported":1774690024,"current_range_meters":2800,"station_id":"ce4bh312rcd13ifvqdk0","pricing_plan_id":"cebpf4jnsgd1na2vs0mg"},{"bike_id":"bfd7cb66-3073-4920-8151-129c410ea860","system_id":"levelo_inurba_marseille","lat":43.3354,"lon":5.37464,"is_reserved":false,"is_disabled":false,"rental_uris":{"android":"levelo://app?vid=bfd7cb66-3073-4920-8151-129c410ea860","ios":"levelo://app?vid=bfd7cb66-3073-4920-8151-129c410ea860"},"vehicle_type_id":"4","last_reported":1774690024,"current_range_meters":2800,"station_id":"st_d46tts09ee8s73dlu43g","pricing_plan_id":"cebpf4jnsgd1na2vs0mg"},{"bike_id":"69ac7fb5-cf13-411f-80ff-d72b0adaf8f9","system_id":"levelo_inurba_marseille","lat":43.21178,"lon":5.35074,"is_reserved":false,"is_disabled":false,"rental_uris":{"android":"levelo://app?vid=69ac7fb5-cf13-411f-80ff-d72b0adaf8f9","ios":"levelo://app?vid=69ac7fb5-cf13-411f-80ff-d72b0adaf8f9"},"vehicle_type_id":"4","last_reported":1774690024,"current_range_meters":2800,"station_id":"st_cvj6sg6p6f1abm77japg","pricing_plan_id":"cebpf4jnsgd1na2vs0mg"},{"bike_id":"19488896-6834-47f6-be9b-c7e289cb4f1c","system_id":"levelo_inurba_marseille","lat":43.33538,"lon":5.37441,"is_reserved":false,"is_disabled":false,"rental_uris":{"android":"levelo://app?vid=19488896-6834-47f6-be9b-c7e289cb4f1c","ios":"levelo://app?vid=19488896-6834-47f6-be9b-c7e289cb4f1c"},"vehicle_type_id":"4","last_reported":1774690024,"current_range_meters":2800,"station_id":"st_d46tts09ee8s73dlu43g","pricing_plan_id":"cebpf4jnsgd1na2vs0mg"},{"bike_id":"4c2268e3-8ac5-4b0b-a1d6-6ef11fc956f3","system_id":"levelo_inurba_marseille","lat":43.28614,"lon":5.37056,"is_reserved":false,"is_disabled":false,"rental_uris":{"android":"levelo://app?vid=4c2268e3-8ac5-4b0b-a1d6-6ef11fc956f3","ios":"levelo://app?vid=4c2268e3-8ac5-4b0b-a1d6-6ef11fc956f3"},"vehicle_type_id":"4","last_reported":1774690024,"current_range_meters":2800,"station_id":"ce4bht12rcd13ifvqi60","pricing_plan_id":"cebpf4jnsgd1na2vs0mg"},{"bike_id":"d08c1acb-405b-444c-91fe-1553fbf30846","system_id":"levelo_inurba_marseille","lat":43.2593,"lon":5.4163,"is_reserved":false,"is_disabled":false,"rental_uris":{"android":"levelo://app?vid=d08c1acb-405b-444c-91fe-1553fbf30846","ios":"levelo://app?vid=d08c1acb-405b-444c-91fe-1553fbf30846"},"vehicle_type_id":"4","last_reported":1774690024,"current_range_meters":2800,"station_id":"","pricing_plan_id":"cebpf4jnsgd1na2vs0mg"},{"bike_id":"a8d11488-67ea-4224-a78d-f94774516fb0","system_id":"levelo_inurba_marseille","lat":43.2871,"lon":5.39984,"is_reserved":false,"is_disabled":false,"rental_uris":{"android":"levelo://app?vid=a8d11488-67ea-4224-a78d-f94774516fb0","ios":"levelo://app?vid=a8d11488-67ea-4224-a78d-f94774516fb0"},"vehicle_type_id":"4","last_reported":1774690024,"current_range_meters":3200,"station_id":"ce4bho92rcd13ifvqh3g","pricing_plan_id":"cebpf4jnsgd1na2vs0mg"},{"bike_id":"687f743b-96ab-4b3e-8fbd-b7a59036f888","system_id":"levelo_inurba_marseille","lat":43.28695,"lon":5.46683,"is_reserved":false,"is_disabled":false,"rental_uris":{"android":"levelo://app?vid=687f743b-96ab-4b3e-8fbd-b7a59036f888","ios":"levelo://app?vid=687f743b-96ab-4b3e-8fbd-b7a59036f888"},"vehicle_type_id":"4","last_reported":1774690024,"current_range_meters":3200,"station_id":"st_d6tc3vkotcvc738tfjhg","pricing_plan_id":"cebpf4jnsgd1na2vs0mg"},{"bike_id":"2168fd10-874c-476f-97d1-11a52fc14733","system_id":"levelo_inurba_marseille","lat":43.27907,"lon":5.38009,"is_reserved":false,"is_disabled":false,"rental_uris":{"android":"levelo://app?vid=2168fd10-874c-476f-97d1-11a52fc14733","ios":"levelo://app?vid=2168fd10-874c-476f-97d1-11a52fc14733"},"vehicle_type_id":"4","last_reported":1774690024,"current_range_meters":3200,"station_id":"ce4bhf92rcd13ifvqf50","pricing_plan_id":"cebpf4jnsgd1na2vs0mg"},{"bike_id":"9c32353a-4679-4b13-83d4-9c050428c6f8","system_id":"levelo_inurba_marseille","lat":43.24678,"lon":5.38153,"is_reserved":false,"is_disabled":false,"rental_uris":{"android":"levelo://app?vid=9c32353a-4679-4b13-83d4-9c050428c6f8","ios":"levelo://app?vid=9c32353a-4679-4b13-83d4-9c050428c6f8"},"vehicle_type_id":"4","last_reported":1774690024,"current_range_meters":3200,"station_id":"ce4bhih2rcd13ifvqfr0","pricing_plan_id":"cebpf4jnsgd1na2vs0mg"},{"bike_id":"7b439088-0cbe-430e-951d-3211fccfb127","system_id":"levelo_inurba_marseille","lat":43.26049,"lon":5.37549,"is_reserved":false,"is_disabled":false,"rental_uris":{"android":"levelo://app?vid=7b439088-0cbe-430e-951d-3211fccfb127","ios":"levelo://app?vid=7b439088-0cbe-430e-951d-3211fccfb127"},"vehicle_type_id":"4","last_reported":1774690024,"current_range_meters":3200,"station_id":"ce4bhgh2rcd13ifvqfa0","pricing_plan_id":"cebpf4jnsgd1na2vs0mg"},{"bike_id":"ed9b8903-fd7a-4bcd-a2f1-b692211d5c75","system_id":"levelo_inurba_marseille","lat":43.29817,"lon":5.44067,"is_reserved":false,"is_disabled":false,"rental_uris":{"android":"levelo://app?vid=ed9b8903-fd7a-4bcd-a2f1-b692211d5c75","ios":"levelo://app?vid=ed9b8903-fd7a-4bcd-a2f1-b692211d5c75"},"vehicle_type_id":"4","last_reported":1774690024,"current_range_meters":3200,"station_id":"st_d3jp68qikq2c7381ktn0","pricing_plan_id":"cebpf4jnsgd1na2vs0mg"},{"bike_id":"0b89b4f7-d6e3-4c7a-9453-2d192471bae5","system_id":"levelo_inurba_marseille","lat":43.337444,"lon":5.374475,"is_reserved":false,"is_disabled":false,"rental_uris":{"android":"levelo://app?vid=0b89b4f7-d6e3-4c7a-9453-2d192471bae5","ios":"levelo://app?vid=0b89b4f7-d6e3-4c7a-9453-2d192471bae5"},"vehicle_type_id":"4","last_reported":1774690024,"current_range_meters":3200,"station_id":"","pricing_plan_id":"cebpf4jnsgd1na2vs0mg"},{"bike_id":"01c8f8c8-f2cf-4759-8a7a-5c0d7b034a8b","system_id":"levelo_inurba_marseille","lat":43.27748,"lon":5.4078,"is_reserved":false,"is_disabled":false,"rental_uris":{"android":"levelo://app?vid=01c8f8c8-f2cf-4759-8a7a-5c0d7b034a8b","ios":"levelo://app?vid=01c8f8c8-f2cf-4759-8a7a-5c0d7b034a8b"},"vehicle_type_id":"4","last_reported":1774690024,"current_range_meters":3200,"station_id":"","pricing_plan_id":"cebpf4jnsgd1na2vs0mg"},{"bike_id":"4125cc9c-acc4-4f82-94dc-47fe3ed0bd40","system_id":"levelo_inurba_marseille","lat":43.29628,"lon":5.37173,"is_reserved":false,"is_disabled":true,"rental_uris":{"android":"levelo://app?vid=4125cc9c-acc4-4f82-94dc-47fe3ed0bd40","ios":"levelo://app?vid=4125cc9c-acc4-4f82-94dc-47fe3ed0bd40"},"vehicle_type_id":"4","last_reported":1774690024,"current_range_meters":3600,"station_id":"","pricing_plan_id":"cebpf4jnsgd1na2vs0mg"},{"bike_id":"91bd31f2-be9b-436a-b78a-8cf5541031ec","system_id":"levelo_inurba_marseille","lat":43.33764,"lon":5.37482,"is_reserved":false,"is_disabled":false,"rental_uris":{"android":"levelo://app?vid=91bd31f2-be9b-436a-b78a-8cf5541031ec","ios":"levelo://app?vid=91bd31f2-be9b-436a-b78a-8cf5541031ec"},"vehicle_type_id":"4","last_reported":1774690024,"current_range_meters":3600,"station_id":"","pricing_plan_id":"cebpf4jnsgd1na2vs0mg"},{"bike_id":"5d4a26b1-1943-49a3-80c7-3057b3d264ec","system_id":"levelo_inurba_marseille","lat":43.27349,"lon":5.39091,"is_reserved":false,"is_disabled":false,"rental_uris":{"android":"levelo://app?vid=5d4a26b1-1943-49a3-80c7-3057b3d264ec","ios":"levelo://app?vid=5d4a26b1-1943-49a3-80c7-3057b3d264ec"},"vehicle_type_id":"4","last_reported":1774690024,"current_range_meters":3600,"station_id":"ce4bhgp2rcd13ifvqfe0","pricing_plan_id":"cebpf4jnsgd1na2vs0mg"},{"bike_id":"41215aec-5f35-41c4-8875-01313ebb4475","system_id":"levelo_inurba_marseille","lat":43.28884,"lon":5.43769,"is_reserved":false,"is_disabled":false,"rental_uris":{"android":"levelo://app?vid=41215aec-5f35-41c4-8875-01313ebb4475","ios":"levelo://app?vid=41215aec-5f35-41c4-8875-01313ebb4475"},"vehicle_type_id":"4","last_reported":1774690024,"current_range_meters":3600,"station_id":"","pricing_plan_id":"cebpf4jnsgd1na2vs0mg"},{"bike_id":"9bc0b937-b0d9-43c5-9555-6ff47bb13b73","system_id":"levelo_inurba_marseille","lat":43.33157,"lon":5.37702,"is_reserved":false,"is_disabled":false,"rental_uris":{"android":"levelo://app?vid=9bc0b937-b0d9-43c5-9555-6ff47bb13b73","ios":"levelo://app?vid=9bc0b937-b0d9-43c5-9555-6ff47bb13b73"},"vehicle_type_id":"4","last_reported":1774690024,"current_range_meters":3600,"station_id":"st_d46cu089ee8s73dldbu0","pricing_plan_id":"cebpf4jnsgd1na2vs0mg"},{"bike_id":"c019c66c-4208-417e-890a-4b17233d89f2","system_id":"levelo_inurba_marseille","lat":43.28671,"lon":5.38659,"is_reserved":false,"is_disabled":false,"rental_uris":{"android":"levelo://app?vid=c019c66c-4208-417e-890a-4b17233d89f2","ios":"levelo://app?vid=c019c66c-4208-417e-890a-4b17233d89f2"},"vehicle_type_id":"4","last_reported":1774690024,"current_range_meters":3600,"station_id":"ce4bh492rcd13ifvqdug","pricing_plan_id":"cebpf4jnsgd1na2vs0mg"},{"bike_id":"80db360c-7472-4e5e-a72d-ff0ab9900c5d","system_id":"levelo_inurba_marseille","lat":43.29201,"lon":5.42611,"is_reserved":false,"is_disabled":false,"rental_uris":{"android":"levelo://app?vid=80db360c-7472-4e5e-a72d-ff0ab9900c5d","ios":"levelo://app?vid=80db360c-7472-4e5e-a72d-ff0ab9900c5d"},"vehicle_type_id":"4","last_reported":1774690024,"current_range_meters":3600,"station_id":"","pricing_plan_id":"cebpf4jnsgd1na2vs0mg"},{"bike_id":"d6d88029-64b8-4411-919c-483ad9a8dd34","system_id":"levelo_inurba_marseille","lat":43.21176,"lon":5.35051,"is_reserved":false,"is_disabled":false,"rental_uris":{"android":"levelo://app?vid=d6d88029-64b8-4411-919c-483ad9a8dd34","ios":"levelo://app?vid=d6d88029-64b8-4411-919c-483ad9a8dd34"},"vehicle_type_id":"4","last_reported":1774690024,"current_range_meters":4000,"station_id":"st_cvj6sg6p6f1abm77japg","pricing_plan_id":"cebpf4jnsgd1na2vs0mg"},{"bike_id":"a686eca5-c77b-4a5b-a790-dbabd96e4302","system_id":"levelo_inurba_marseille","lat":43.31679,"lon":5.40476,"is_reserved":false,"is_disabled":false,"rental_uris":{"android":"levelo://app?vid=a686eca5-c77b-4a5b-a790-dbabd96e4302","ios":"levelo://app?vid=a686eca5-c77b-4a5b-a790-dbabd96e4302"},"vehicle_type_id":"4","last_reported":1774690024,"current_range_meters":4000,"station_id":"ce4bh012rcd13ifvqd00","pricing_plan_id":"cebpf4jnsgd1na2vs0mg"},{"bike_id":"6eec374a-39cb-4216-883b-f6034005b545","system_id":"levelo_inurba_marseille","lat":43.30774,"lon":5.37645,"is_reserved":false,"is_disabled":false,"rental_uris":{"android":"levelo://app?vid=6eec374a-39cb-4216-883b-f6034005b545","ios":"levelo://app?vid=6eec374a-39cb-4216-883b-f6034005b545"},"vehicle_type_id":"4","last_reported":1774690024,"current_range_meters":4000,"station_id":"ce4bgv92rcd13ifvqcq0","pricing_plan_id":"cebpf4jnsgd1na2vs0mg"},{"bike_id":"8bd5e2e8-c235-4d97-b6f0-b9271a1b5b25","system_id":"levelo_inurba_marseille","lat":43.30284,"lon":5.40085,"is_reserved":false,"is_disabled":false,"rental_uris":{"android":"levelo://app?vid=8bd5e2e8-c235-4d97-b6f0-b9271a1b5b25","ios":"levelo://app?vid=8bd5e2e8-c235-4d97-b6f0-b9271a1b5b25"},"vehicle_type_id":"4","last_reported":1774690024,"current_range_meters":4000,"station_id":"ce4bgvh2rcd13ifvqcs0","pricing_plan_id":"cebpf4jnsgd1na2vs0mg"},{"bike_id":"74fb782a-19b0-4231-98b9-83ac4118f09e","system_id":"levelo_inurba_marseille","lat":43.28396,"lon":5.37511,"is_reserved":false,"is_disabled":true,"rental_uris":{"android":"levelo://app?vid=74fb782a-19b0-4231-98b9-83ac4118f09e","ios":"levelo://app?vid=74fb782a-19b0-4231-98b9-83ac4118f09e"},"vehicle_type_id":"4","last_reported":1774690024,"current_range_meters":4000,"station_id":"ce4bh412rcd13ifvqds0","pricing_plan_id":"cebpf4jnsgd1na2vs0mg"},{"bike_id":"ae758492-79f2-476f-b0b6-5b6613e02dd5","system_id":"levelo_inurba_marseille","lat":43.21224,"lon":5.35058,"is_reserved":false,"is_disabled":false,"rental_uris":{"android":"levelo://app?vid=ae758492-79f2-476f-b0b6-5b6613e02dd5","ios":"levelo://app?vid=ae758492-79f2-476f-b0b6-5b6613e02dd5"},"vehicle_type_id":"4","last_reported":1774690024,"current_range_meters":4000,"station_id":"","pricing_plan_id":"cebpf4jnsgd1na2vs0mg"},{"bike_id":"33c4c740-db80-485d-9c0e-f3083e547def","system_id":"levelo_inurba_marseille","lat":43.22579,"lon":5.4163,"is_reserved":false,"is_disabled":false,"rental_uris":{"android":"levelo://app?vid=33c4c740-db80-485d-9c0e-f3083e547def","ios":"levelo://app?vid=33c4c740-db80-485d-9c0e-f3083e547def"},"vehicle_type_id":"4","last_reported":1774690024,"current_range_meters":4000,"station_id":"st_d2o4gvlbi1j2169b742g","pricing_plan_id":"cebpf4jnsgd1na2vs0mg"},{"bike_id":"458e1c48-7d3d-4d80-92bd-ab71f6e61068","system_id":"levelo_inurba_marseille","lat":43.26676,"lon":5.38266,"is_reserved":false,"is_disabled":false,"rental_uris":{"android":"levelo://app?vid=458e1c48-7d3d-4d80-92bd-ab71f6e61068","ios":"levelo://app?vid=458e1c48-7d3d-4d80-92bd-ab71f6e61068"},"vehicle_type_id":"4","last_reported":1774690024,"current_range_meters":4000,"station_id":"ce4bhg92rcd13ifvqf90","pricing_plan_id":"cebpf4jnsgd1na2vs0mg"},{"bike_id":"7577d704-4358-4b6d-bf28-c0c3843fa2c6","system_id":"levelo_inurba_marseille","lat":43.2467,"lon":5.38164,"is_reserved":false,"is_disabled":false,"rental_uris":{"android":"levelo://app?vid=7577d704-4358-4b6d-bf28-c0c3843fa2c6","ios":"levelo://app?vid=7577d704-4358-4b6d-bf28-c0c3843fa2c6"},"vehicle_type_id":"4","last_reported":1774690024,"current_range_meters":4000,"station_id":"ce4bhih2rcd13ifvqfr0","pricing_plan_id":"cebpf4jnsgd1na2vs0mg"},{"bike_id":"653c1697-ecc4-4927-882c-de4e9516a458","system_id":"levelo_inurba_marseille","lat":43.26058,"lon":5.39395,"is_reserved":false,"is_disabled":false,"rental_uris":{"android":"levelo://app?vid=653c1697-ecc4-4927-882c-de4e9516a458","ios":"levelo://app?vid=653c1697-ecc4-4927-882c-de4e9516a458"},"vehicle_type_id":"4","last_reported":1774690024,"current_range_meters":4000,"station_id":"ce4bhh92rcd13ifvqfj0","pricing_plan_id":"cebpf4jnsgd1na2vs0mg"},{"bike_id":"85da7e3d-ccb4-46fb-8e1b-534ba6e60918","system_id":"levelo_inurba_marseille","lat":43.29042,"lon":5.39938,"is_reserved":false,"is_disabled":false,"rental_uris":{"android":"levelo://app?vid=85da7e3d-ccb4-46fb-8e1b-534ba6e60918","ios":"levelo://app?vid=85da7e3d-ccb4-46fb-8e1b-534ba6e60918"},"vehicle_type_id":"4","last_reported":1774690024,"current_range_meters":4400,"station_id":"ce4bh392rcd13ifvqdm0","pricing_plan_id":"cebpf4jnsgd1na2vs0mg"},{"bike_id":"4d2c428a-06db-49bc-a222-2cbc52db76c0","system_id":"levelo_inurba_marseille","lat":43.2418,"lon":5.39744,"is_reserved":false,"is_disabled":false,"rental_uris":{"android":"levelo://app?vid=4d2c428a-06db-49bc-a222-2cbc52db76c0","ios":"levelo://app?vid=4d2c428a-06db-49bc-a222-2cbc52db76c0"},"vehicle_type_id":"4","last_reported":1774690024,"current_range_meters":4400,"station_id":"ce4bhn12rcd13ifvqgpg","pricing_plan_id":"cebpf4jnsgd1na2vs0mg"},{"bike_id":"4bf5ee1a-db28-4d49-a9e5-e023cbb5efa9","system_id":"levelo_inurba_marseille","lat":43.26476,"lon":5.37969,"is_reserved":false,"is_disabled":false,"rental_uris":{"android":"levelo://app?vid=4bf5ee1a-db28-4d49-a9e5-e023cbb5efa9","ios":"levelo://app?vid=4bf5ee1a-db28-4d49-a9e5-e023cbb5efa9"},"vehicle_type_id":"4","last_reported":1774690024,"current_range_meters":4400,"station_id":"","pricing_plan_id":"cebpf4jnsgd1na2vs0mg"},{"bike_id":"e9dc9846-a1fb-4f3a-a8d5-dbd68cc5808d","system_id":"levelo_inurba_marseille","lat":43.30816,"lon":5.39986,"is_reserved":false,"is_disabled":false,"rental_uris":{"android":"levelo://app?vid=e9dc9846-a1fb-4f3a-a8d5-dbd68cc5808d","ios":"levelo://app?vid=e9dc9846-a1fb-4f3a-a8d5-dbd68cc5808d"},"vehicle_type_id":"4","last_reported":1774690024,"current_range_meters":4400,"station_id":"","pricing_plan_id":"cebpf4jnsgd1na2vs0mg"},{"bike_id":"27f65587-f91a-41b1-aacf-8da5e702b79e","system_id":"levelo_inurba_marseille","lat":43.2974,"lon":5.42783,"is_reserved":false,"is_disabled":false,"rental_uris":{"android":"levelo://app?vid=27f65587-f91a-41b1-aacf-8da5e702b79e","ios":"levelo://app?vid=27f65587-f91a-41b1-aacf-8da5e702b79e"},"vehicle_type_id":"4","last_reported":1774690024,"current_range_meters":4400,"station_id":"st_d3md5207bmas73dh9klg","pricing_plan_id":"cebpf4jnsgd1na2vs0mg"},{"bike_id":"299c1db8-8b1c-4e76-8016-cf4f1472636c","system_id":"levelo_inurba_marseille","lat":43.30943,"lon":5.39961,"is_reserved":false,"is_disabled":false,"rental_uris":{"android":"levelo://app?vid=299c1db8-8b1c-4e76-8016-cf4f1472636c","ios":"levelo://app?vid=299c1db8-8b1c-4e76-8016-cf4f1472636c"},"vehicle_type_id":"4","last_reported":1774690024,"current_range_meters":4400,"station_id":"","pricing_plan_id":"cebpf4jnsgd1na2vs0mg"},{"bike_id":"29b8f791-7789-4e9b-8e39-c750aefccf04","system_id":"levelo_inurba_marseille","lat":43.23786,"lon":5.36633,"is_reserved":false,"is_disabled":false,"rental_uris":{"android":"levelo://app?vid=29b8f791-7789-4e9b-8e39-c750aefccf04","ios":"levelo://app?vid=29b8f791-7789-4e9b-8e39-c750aefccf04"},"vehicle_type_id":"4","last_reported":1774690024,"current_range_meters":4400,"station_id":"st_d3nk18o9ro0c73en2l3g","pricing_plan_id":"cebpf4jnsgd1na2vs0mg"},{"bike_id":"18a91529-06e5-4b51-b178-940cb96e7217","system_id":"levelo_inurba_marseille","lat":43.23791,"lon":5.36609,"is_reserved":false,"is_disabled":false,"rental_uris":{"android":"levelo://app?vid=18a91529-06e5-4b51-b178-940cb96e7217","ios":"levelo://app?vid=18a91529-06e5-4b51-b178-940cb96e7217"},"vehicle_type_id":"4","last_reported":1774690024,"current_range_meters":4800,"station_id":"st_d3nk18o9ro0c73en2l3g","pricing_plan_id":"cebpf4jnsgd1na2vs0mg"},{"bike_id":"01f2a465-43e6-485b-97ee-c26e7162ae13","system_id":"levelo_inurba_marseille","lat":43.30798,"lon":5.37649,"is_reserved":false,"is_disabled":false,"rental_uris":{"android":"levelo://app?vid=01f2a465-43e6-485b-97ee-c26e7162ae13","ios":"levelo://app?vid=01f2a465-43e6-485b-97ee-c26e7162ae13"},"vehicle_type_id":"4","last_reported":1774690024,"current_range_meters":4800,"station_id":"ce4bgv92rcd13ifvqcq0","pricing_plan_id":"cebpf4jnsgd1na2vs0mg"},{"bike_id":"1f997d70-3967-44e8-be82-11696b4f1c66","system_id":"levelo_inurba_marseille","lat":43.30322,"lon":5.36901,"is_reserved":false,"is_disabled":false,"rental_uris":{"android":"levelo://app?vid=1f997d70-3967-44e8-be82-11696b4f1c66","ios":"levelo://app?vid=1f997d70-3967-44e8-be82-11696b4f1c66"},"vehicle_type_id":"4","last_reported":1774690024,"current_range_meters":4800,"station_id":"ce4bgqh2rcd13ifvqc5g","pricing_plan_id":"cebpf4jnsgd1na2vs0mg"},{"bike_id":"e4b97950-5826-475e-8558-d2e5bcc219f8","system_id":"levelo_inurba_marseille","lat":43.29804,"lon":5.36523,"is_reserved":false,"is_disabled":false,"rental_uris":{"android":"levelo://app?vid=e4b97950-5826-475e-8558-d2e5bcc219f8","ios":"levelo://app?vid=e4b97950-5826-475e-8558-d2e5bcc219f8"},"vehicle_type_id":"4","last_reported":1774690024,"current_range_meters":4800,"station_id":"","pricing_plan_id":"cebpf4jnsgd1na2vs0mg"},{"bike_id":"8a927669-3c1a-4573-98bd-585f9b534d2d","system_id":"levelo_inurba_marseille","lat":43.24449,"lon":5.42519,"is_reserved":false,"is_disabled":false,"rental_uris":{"android":"levelo://app?vid=8a927669-3c1a-4573-98bd-585f9b534d2d","ios":"levelo://app?vid=8a927669-3c1a-4573-98bd-585f9b534d2d"},"vehicle_type_id":"4","last_reported":1774690024,"current_range_meters":4800,"station_id":"st_d4a3vfp97mjs738cd8kg","pricing_plan_id":"cebpf4jnsgd1na2vs0mg"},{"bike_id":"8dea705b-4960-4a9a-bfb5-97aff5004143","system_id":"levelo_inurba_marseille","lat":43.30649,"lon":5.40076,"is_reserved":false,"is_disabled":false,"rental_uris":{"android":"levelo://app?vid=8dea705b-4960-4a9a-bfb5-97aff5004143","ios":"levelo://app?vid=8dea705b-4960-4a9a-bfb5-97aff5004143"},"vehicle_type_id":"4","last_reported":1774690024,"current_range_meters":4800,"station_id":"ce4bh112rcd13ifvqda0","pricing_plan_id":"cebpf4jnsgd1na2vs0mg"},{"bike_id":"53349f23-1850-48cf-8057-6c978f190eed","system_id":"levelo_inurba_marseille","lat":43.24644,"lon":5.38893,"is_reserved":false,"is_disabled":false,"rental_uris":{"android":"levelo://app?vid=53349f23-1850-48cf-8057-6c978f190eed","ios":"levelo://app?vid=53349f23-1850-48cf-8057-6c978f190eed"},"vehicle_type_id":"4","last_reported":1774690024,"current_range_meters":4800,"station_id":"ce4bhg12rcd13ifvqf60","pricing_plan_id":"cebpf4jnsgd1na2vs0mg"},{"bike_id":"e9afbc23-9f17-4b01-a186-cced5e7dff26","system_id":"levelo_inurba_marseille","lat":43.27085,"lon":5.42259,"is_reserved":false,"is_disabled":false,"rental_uris":{"android":"levelo://app?vid=e9afbc23-9f17-4b01-a186-cced5e7dff26","ios":"levelo://app?vid=e9afbc23-9f17-4b01-a186-cced5e7dff26"},"vehicle_type_id":"4","last_reported":1774690024,"current_range_meters":4800,"station_id":"ce4bhk92rcd13ifvqgb0","pricing_plan_id":"cebpf4jnsgd1na2vs0mg"},{"bike_id":"bfa726d7-68a6-45e1-9f2a-9a3423de3356","system_id":"levelo_inurba_marseille","lat":43.2991,"lon":5.38903,"is_reserved":false,"is_disabled":false,"rental_uris":{"android":"levelo://app?vid=bfa726d7-68a6-45e1-9f2a-9a3423de3356","ios":"levelo://app?vid=bfa726d7-68a6-45e1-9f2a-9a3423de3356"},"vehicle_type_id":"4","last_reported":1774690024,"current_range_meters":4800,"station_id":"ce4bh392rcd13ifvqdl0","pricing_plan_id":"cebpf4jnsgd1na2vs0mg"},{"bike_id":"1d7503c3-20ca-4fb6-92d0-5b5a5f6d18ec","system_id":"levelo_inurba_marseille","lat":43.22936,"lon":5.35386,"is_reserved":false,"is_disabled":false,"rental_uris":{"android":"levelo://app?vid=1d7503c3-20ca-4fb6-92d0-5b5a5f6d18ec","ios":"levelo://app?vid=1d7503c3-20ca-4fb6-92d0-5b5a5f6d18ec"},"vehicle_type_id":"4","last_reported":1774690024,"current_range_meters":5600,"station_id":"cpo3532slgdg3j2ikp40","pricing_plan_id":"cebpf4jnsgd1na2vs0mg"},{"bike_id":"16a65088-9cde-44d5-aa5a-ec9990314d70","system_id":"levelo_inurba_marseille","lat":43.30369,"lon":5.42509,"is_reserved":false,"is_disabled":false,"rental_uris":{"android":"levelo://app?vid=16a65088-9cde-44d5-aa5a-ec9990314d70","ios":"levelo://app?vid=16a65088-9cde-44d5-aa5a-ec9990314d70"},"vehicle_type_id":"4","last_reported":1774690024,"current_range_meters":5600,"station_id":"ce4bhoh2rcd13ifvqh6g","pricing_plan_id":"cebpf4jnsgd1na2vs0mg"},{"bike_id":"6a7fd2aa-a90b-461a-8118-a8f8d903c462","system_id":"levelo_inurba_marseille","lat":43.28498,"lon":5.48417,"is_reserved":false,"is_disabled":false,"rental_uris":{"android":"levelo://app?vid=6a7fd2aa-a90b-461a-8118-a8f8d903c462","ios":"levelo://app?vid=6a7fd2aa-a90b-461a-8118-a8f8d903c462"},"vehicle_type_id":"4","last_reported":1774690024,"current_range_meters":5600,"station_id":"","pricing_plan_id":"cebpf4jnsgd1na2vs0mg"},{"bike_id":"2873a201-01ad-44f0-a3f4-1c2939d32934","system_id":"levelo_inurba_marseille","lat":43.31544,"lon":5.38011,"is_reserved":false,"is_disabled":false,"rental_uris":{"android":"levelo://app?vid=2873a201-01ad-44f0-a3f4-1c2939d32934","ios":"levelo://app?vid=2873a201-01ad-44f0-a3f4-1c2939d32934"},"vehicle_type_id":"4","last_reported":1774690024,"current_range_meters":5600,"station_id":"ce4bhsp2rcd13ifvqi50","pricing_plan_id":"cebpf4jnsgd1na2vs0mg"},{"bike_id":"93acb272-5b4a-4b45-b3b7-ef764ba98e93","system_id":"levelo_inurba_marseille","lat":43.26686,"lon":5.38274,"is_reserved":false,"is_disabled":false,"rental_uris":{"android":"levelo://app?vid=93acb272-5b4a-4b45-b3b7-ef764ba98e93","ios":"levelo://app?vid=93acb272-5b4a-4b45-b3b7-ef764ba98e93"},"vehicle_type_id":"4","last_reported":1774690024,"current_range_meters":5600,"station_id":"ce4bhg92rcd13ifvqf90","pricing_plan_id":"cebpf4jnsgd1na2vs0mg"},{"bike_id":"7d38c45a-0011-4d05-9bbf-54b7323ff394","system_id":"levelo_inurba_marseille","lat":43.26401,"lon":5.41001,"is_reserved":false,"is_disabled":false,"rental_uris":{"android":"levelo://app?vid=7d38c45a-0011-4d05-9bbf-54b7323ff394","ios":"levelo://app?vid=7d38c45a-0011-4d05-9bbf-54b7323ff394"},"vehicle_type_id":"4","last_reported":1774690024,"current_range_meters":5600,"station_id":"st_d4e5ca6na9uc73bfl5fg","pricing_plan_id":"cebpf4jnsgd1na2vs0mg"},{"bike_id":"ace30790-d9f4-4362-b049-53b5308efc6b","system_id":"levelo_inurba_marseille","lat":43.32001,"lon":5.38148,"is_reserved":false,"is_disabled":false,"rental_uris":{"android":"levelo://app?vid=ace30790-d9f4-4362-b049-53b5308efc6b","ios":"levelo://app?vid=ace30790-d9f4-4362-b049-53b5308efc6b"},"vehicle_type_id":"4","last_reported":1774690024,"current_range_meters":5600,"station_id":"ce4bhr12rcd13ifvqhpg","pricing_plan_id":"cebpf4jnsgd1na2vs0mg"},{"bike_id":"b2b004c4-6001-471a-b0d4-609b8dd256cf","system_id":"levelo_inurba_marseille","lat":43.29796,"lon":5.38104,"is_reserved":false,"is_disabled":false,"rental_uris":{"android":"levelo://app?vid=b2b004c4-6001-471a-b0d4-609b8dd256cf","ios":"levelo://app?vid=b2b004c4-6001-471a-b0d4-609b8dd256cf"},"vehicle_type_id":"4","last_reported":1774690024,"current_range_meters":5600,"station_id":"ce4bgip2rcd13ifvqbb0","pricing_plan_id":"cebpf4jnsgd1na2vs0mg"},{"bike_id":"248e7202-bf14-41af-ab35-7275ee6c4d6f","system_id":"levelo_inurba_marseille","lat":43.23381,"lon":5.41231,"is_reserved":false,"is_disabled":false,"rental_uris":{"android":"levelo://app?vid=248e7202-bf14-41af-ab35-7275ee6c4d6f","ios":"levelo://app?vid=248e7202-bf14-41af-ab35-7275ee6c4d6f"},"vehicle_type_id":"4","last_reported":1774690024,"current_range_meters":5600,"station_id":"","pricing_plan_id":"cebpf4jnsgd1na2vs0mg"},{"bike_id":"6671c61a-045c-4d83-b5a9-69cb797098b8","system_id":"levelo_inurba_marseille","lat":43.34353,"lon":5.35969,"is_reserved":false,"is_disabled":false,"rental_uris":{"android":"levelo://app?vid=6671c61a-045c-4d83-b5a9-69cb797098b8","ios":"levelo://app?vid=6671c61a-045c-4d83-b5a9-69cb797098b8"},"vehicle_type_id":"4","last_reported":1774690024,"current_range_meters":5600,"station_id":"","pricing_plan_id":"cebpf4jnsgd1na2vs0mg"},{"bike_id":"fde3e4fc-ddfc-48fe-9ea4-99d58e21468f","system_id":"levelo_inurba_marseille","lat":43.2655,"lon":5.37285,"is_reserved":false,"is_disabled":false,"rental_uris":{"android":"levelo://app?vid=fde3e4fc-ddfc-48fe-9ea4-99d58e21468f","ios":"levelo://app?vid=fde3e4fc-ddfc-48fe-9ea4-99d58e21468f"},"vehicle_type_id":"4","last_reported":1774690024,"current_range_meters":6000,"station_id":"ce4bhg12rcd13ifvqf70","pricing_plan_id":"cebpf4jnsgd1na2vs0mg"},{"bike_id":"2b45435a-e518-465e-83cb-7b8d89daef54","system_id":"levelo_inurba_marseille","lat":43.27972,"lon":5.38702,"is_reserved":false,"is_disabled":false,"rental_uris":{"android":"levelo://app?vid=2b45435a-e518-465e-83cb-7b8d89daef54","ios":"levelo://app?vid=2b45435a-e518-465e-83cb-7b8d89daef54"},"vehicle_type_id":"4","last_reported":1774690024,"current_range_meters":6000,"station_id":"ce4bhg12rcd13ifvqf80","pricing_plan_id":"cebpf4jnsgd1na2vs0mg"},{"bike_id":"98e6abd1-dc33-4e4b-982f-7f3eb9961609","system_id":"levelo_inurba_marseille","lat":43.30361,"lon":5.41884,"is_reserved":false,"is_disabled":false,"rental_uris":{"android":"levelo://app?vid=98e6abd1-dc33-4e4b-982f-7f3eb9961609","ios":"levelo://app?vid=98e6abd1-dc33-4e4b-982f-7f3eb9961609"},"vehicle_type_id":"4","last_reported":1774690024,"current_range_meters":6000,"station_id":"ce4bhop2rcd13ifvqh7g","pricing_plan_id":"cebpf4jnsgd1na2vs0mg"},{"bike_id":"b51d43d0-b538-4b30-b0d5-e5c1be881443","system_id":"levelo_inurba_marseille","lat":43.28717,"lon":5.46733,"is_reserved":false,"is_disabled":false,"rental_uris":{"android":"levelo://app?vid=b51d43d0-b538-4b30-b0d5-e5c1be881443","ios":"levelo://app?vid=b51d43d0-b538-4b30-b0d5-e5c1be881443"},"vehicle_type_id":"4","last_reported":1774690024,"current_range_meters":6000,"station_id":"st_d6tc3vkotcvc738tfjhg","pricing_plan_id":"cebpf4jnsgd1na2vs0mg"},{"bike_id":"f967aac8-bff7-4d61-9c8d-307b8d7b6ffd","system_id":"levelo_inurba_marseille","lat":43.25338,"lon":5.42178,"is_reserved":false,"is_disabled":false,"rental_uris":{"android":"levelo://app?vid=f967aac8-bff7-4d61-9c8d-307b8d7b6ffd","ios":"levelo://app?vid=f967aac8-bff7-4d61-9c8d-307b8d7b6ffd"},"vehicle_type_id":"4","last_reported":1774690024,"current_range_meters":6400,"station_id":"st_d2m65c5bi1j21697t3ng","pricing_plan_id":"cebpf4jnsgd1na2vs0mg"},{"bike_id":"d90a3854-1d07-4a6a-91ba-1adecae8695d","system_id":"levelo_inurba_marseille","lat":43.30153,"lon":5.3809,"is_reserved":false,"is_disabled":false,"rental_uris":{"android":"levelo://app?vid=d90a3854-1d07-4a6a-91ba-1adecae8695d","ios":"levelo://app?vid=d90a3854-1d07-4a6a-91ba-1adecae8695d"},"vehicle_type_id":"4","last_reported":1774690024,"current_range_meters":6400,"station_id":"ce4bgjp2rcd13ifvqbh0","pricing_plan_id":"cebpf4jnsgd1na2vs0mg"},{"bike_id":"296b697a-2efa-4947-b44d-39f64a06b020","system_id":"levelo_inurba_marseille","lat":43.29934,"lon":5.36537,"is_reserved":false,"is_disabled":false,"rental_uris":{"android":"levelo://app?vid=296b697a-2efa-4947-b44d-39f64a06b020","ios":"levelo://app?vid=296b697a-2efa-4947-b44d-39f64a06b020"},"vehicle_type_id":"4","last_reported":1774690024,"current_range_meters":6400,"station_id":"ce4bgm92rcd13ifvqbr0","pricing_plan_id":"cebpf4jnsgd1na2vs0mg"},{"bike_id":"b32abf92-34d2-44a0-8754-9ed7ce20c3c3","system_id":"levelo_inurba_marseille","lat":43.29723,"lon":5.37714,"is_reserved":false,"is_disabled":false,"rental_uris":{"android":"levelo://app?vid=b32abf92-34d2-44a0-8754-9ed7ce20c3c3","ios":"levelo://app?vid=b32abf92-34d2-44a0-8754-9ed7ce20c3c3"},"vehicle_type_id":"4","last_reported":1774690024,"current_range_meters":6400,"station_id":"ce4bgkh2rcd13ifvqbl0","pricing_plan_id":"cebpf4jnsgd1na2vs0mg"},{"bike_id":"fde7c990-ea71-4125-9b7f-4cda0f7e1677","system_id":"levelo_inurba_marseille","lat":43.23786,"lon":5.36634,"is_reserved":false,"is_disabled":false,"rental_uris":{"android":"levelo://app?vid=fde7c990-ea71-4125-9b7f-4cda0f7e1677","ios":"levelo://app?vid=fde7c990-ea71-4125-9b7f-4cda0f7e1677"},"vehicle_type_id":"4","last_reported":1774690024,"current_range_meters":6400,"station_id":"st_d3nk18o9ro0c73en2l3g","pricing_plan_id":"cebpf4jnsgd1na2vs0mg"},{"bike_id":"5969c3f9-bb5c-48df-9b54-f62d28d08c6a","system_id":"levelo_inurba_marseille","lat":43.26067,"lon":5.39398,"is_reserved":false,"is_disabled":false,"rental_uris":{"android":"levelo://app?vid=5969c3f9-bb5c-48df-9b54-f62d28d08c6a","ios":"levelo://app?vid=5969c3f9-bb5c-48df-9b54-f62d28d08c6a"},"vehicle_type_id":"4","last_reported":1774690024,"current_range_meters":6400,"station_id":"ce4bhh92rcd13ifvqfj0","pricing_plan_id":"cebpf4jnsgd1na2vs0mg"},{"bike_id":"05ccd438-26e7-4a38-9276-2d0d86dc7956","system_id":"levelo_inurba_marseille","lat":43.24388,"lon":5.37046,"is_reserved":false,"is_disabled":false,"rental_uris":{"android":"levelo://app?vid=05ccd438-26e7-4a38-9276-2d0d86dc7956","ios":"levelo://app?vid=05ccd438-26e7-4a38-9276-2d0d86dc7956"},"vehicle_type_id":"4","last_reported":1774690024,"current_range_meters":6400,"station_id":"ce4bhhh2rcd13ifvqfk0","pricing_plan_id":"cebpf4jnsgd1na2vs0mg"},{"bike_id":"75d31b80-4e21-477c-9e82-c4a19e384887","system_id":"levelo_inurba_marseille","lat":43.30629,"lon":5.37191,"is_reserved":false,"is_disabled":true,"rental_uris":{"android":"levelo://app?vid=75d31b80-4e21-477c-9e82-c4a19e384887","ios":"levelo://app?vid=75d31b80-4e21-477c-9e82-c4a19e384887"},"vehicle_type_id":"4","last_reported":1774690024,"current_range_meters":6400,"station_id":"ce4bgqh2rcd13ifvqc4g","pricing_plan_id":"cebpf4jnsgd1na2vs0mg"},{"bike_id":"511ccff2-e43d-4611-8467-af3d3f13eeaa","system_id":"levelo_inurba_marseille","lat":43.284098,"lon":5.375023,"is_reserved":false,"is_disabled":false,"rental_uris":{"android":"levelo://app?vid=511ccff2-e43d-4611-8467-af3d3f13eeaa","ios":"levelo://app?vid=511ccff2-e43d-4611-8467-af3d3f13eeaa"},"vehicle_type_id":"4","last_reported":1774690024,"current_range_meters":6400,"station_id":"ce4bh412rcd13ifvqds0","pricing_plan_id":"cebpf4jnsgd1na2vs0mg"},{"bike_id":"30e88e0e-470b-46c9-8ebc-1994865cdbf4","system_id":"levelo_inurba_marseille","lat":43.26227,"lon":5.40433,"is_reserved":false,"is_disabled":false,"rental_uris":{"android":"levelo://app?vid=30e88e0e-470b-46c9-8ebc-1994865cdbf4","ios":"levelo://app?vid=30e88e0e-470b-46c9-8ebc-1994865cdbf4"},"vehicle_type_id":"4","last_reported":1774690024,"current_range_meters":6400,"station_id":"ce4bhmh2rcd13ifvqgmg","pricing_plan_id":"cebpf4jnsgd1na2vs0mg"},{"bike_id":"9c448445-1c60-4520-a1cb-98a7a7992b90","system_id":"levelo_inurba_marseille","lat":43.28486,"lon":5.48414,"is_reserved":false,"is_disabled":false,"rental_uris":{"android":"levelo://app?vid=9c448445-1c60-4520-a1cb-98a7a7992b90","ios":"levelo://app?vid=9c448445-1c60-4520-a1cb-98a7a7992b90"},"vehicle_type_id":"4","last_reported":1774690024,"current_range_meters":6400,"station_id":"","pricing_plan_id":"cebpf4jnsgd1na2vs0mg"},{"bike_id":"38a0e605-e352-4916-9b77-35865357e619","system_id":"levelo_inurba_marseille","lat":43.24172,"lon":5.39726,"is_reserved":false,"is_disabled":false,"rental_uris":{"android":"levelo://app?vid=38a0e605-e352-4916-9b77-35865357e619","ios":"levelo://app?vid=38a0e605-e352-4916-9b77-35865357e619"},"vehicle_type_id":"4","last_reported":1774690024,"current_range_meters":6400,"station_id":"ce4bhn12rcd13ifvqgpg","pricing_plan_id":"cebpf4jnsgd1na2vs0mg"},{"bike_id":"2f019591-3087-43f0-affb-e2eede13213e","system_id":"levelo_inurba_marseille","lat":43.24211,"lon":5.36636,"is_reserved":false,"is_disabled":false,"rental_uris":{"android":"levelo://app?vid=2f019591-3087-43f0-affb-e2eede13213e","ios":"levelo://app?vid=2f019591-3087-43f0-affb-e2eede13213e"},"vehicle_type_id":"4","last_reported":1774690024,"current_range_meters":6800,"station_id":"","pricing_plan_id":"cebpf4jnsgd1na2vs0mg"},{"bike_id":"6d1dd35d-1ce3-4297-9706-721b82716928","system_id":"levelo_inurba_marseille","lat":43.23792,"lon":5.36641,"is_reserved":false,"is_disabled":false,"rental_uris":{"android":"levelo://app?vid=6d1dd35d-1ce3-4297-9706-721b82716928","ios":"levelo://app?vid=6d1dd35d-1ce3-4297-9706-721b82716928"},"vehicle_type_id":"4","last_reported":1774690024,"current_range_meters":6800,"station_id":"st_d3nk18o9ro0c73en2l3g","pricing_plan_id":"cebpf4jnsgd1na2vs0mg"},{"bike_id":"e4b8931c-03ca-41c7-bb73-d8e8fdaf8d69","system_id":"levelo_inurba_marseille","lat":43.25572,"lon":5.38243,"is_reserved":false,"is_disabled":false,"rental_uris":{"android":"levelo://app?vid=e4b8931c-03ca-41c7-bb73-d8e8fdaf8d69","ios":"levelo://app?vid=e4b8931c-03ca-41c7-bb73-d8e8fdaf8d69"},"vehicle_type_id":"4","last_reported":1774690024,"current_range_meters":6800,"station_id":"ce4bhih2rcd13ifvqfs0","pricing_plan_id":"cebpf4jnsgd1na2vs0mg"},{"bike_id":"4efec0da-f1be-4147-8937-c5fc1bfeb5fb","system_id":"levelo_inurba_marseille","lat":43.30163,"lon":5.38089,"is_reserved":false,"is_disabled":false,"rental_uris":{"android":"levelo://app?vid=4efec0da-f1be-4147-8937-c5fc1bfeb5fb","ios":"levelo://app?vid=4efec0da-f1be-4147-8937-c5fc1bfeb5fb"},"vehicle_type_id":"4","last_reported":1774690024,"current_range_meters":6800,"station_id":"ce4bgjp2rcd13ifvqbh0","pricing_plan_id":"cebpf4jnsgd1na2vs0mg"},{"bike_id":"4b1f9bea-2381-4561-9a13-bead8a1cc7e5","system_id":"levelo_inurba_marseille","lat":43.28727,"lon":5.40003,"is_reserved":false,"is_disabled":false,"rental_uris":{"android":"levelo://app?vid=4b1f9bea-2381-4561-9a13-bead8a1cc7e5","ios":"levelo://app?vid=4b1f9bea-2381-4561-9a13-bead8a1cc7e5"},"vehicle_type_id":"4","last_reported":1774690024,"current_range_meters":6800,"station_id":"ce4bho92rcd13ifvqh3g","pricing_plan_id":"cebpf4jnsgd1na2vs0mg"},{"bike_id":"0eac7103-fa91-4cc3-9de1-b4f74d7ff4a0","system_id":"levelo_inurba_marseille","lat":43.2319,"lon":5.39945,"is_reserved":false,"is_disabled":false,"rental_uris":{"android":"levelo://app?vid=0eac7103-fa91-4cc3-9de1-b4f74d7ff4a0","ios":"levelo://app?vid=0eac7103-fa91-4cc3-9de1-b4f74d7ff4a0"},"vehicle_type_id":"4","last_reported":1774690024,"current_range_meters":6800,"station_id":"ce4bhn12rcd13ifvqgqg","pricing_plan_id":"cebpf4jnsgd1na2vs0mg"},{"bike_id":"2cb0ae82-1cb6-4c7f-add6-a204988a4fab","system_id":"levelo_inurba_marseille","lat":43.27991,"lon":5.41667,"is_reserved":false,"is_disabled":false,"rental_uris":{"android":"levelo://app?vid=2cb0ae82-1cb6-4c7f-add6-a204988a4fab","ios":"levelo://app?vid=2cb0ae82-1cb6-4c7f-add6-a204988a4fab"},"vehicle_type_id":"4","last_reported":1774690024,"current_range_meters":6800,"station_id":"ce4bho12rcd13ifvqh1g","pricing_plan_id":"cebpf4jnsgd1na2vs0mg"},{"bike_id":"7f5f4a35-fda4-4a33-b7ae-332aa08e4387","system_id":"levelo_inurba_marseille","lat":43.29745,"lon":5.42769,"is_reserved":false,"is_disabled":false,"rental_uris":{"android":"levelo://app?vid=7f5f4a35-fda4-4a33-b7ae-332aa08e4387","ios":"levelo://app?vid=7f5f4a35-fda4-4a33-b7ae-332aa08e4387"},"vehicle_type_id":"4","last_reported":1774690024,"current_range_meters":6800,"station_id":"st_d3md5207bmas73dh9klg","pricing_plan_id":"cebpf4jnsgd1na2vs0mg"},{"bike_id":"f06c9d92-ab59-4133-a097-5ad3d933db5d","system_id":"levelo_inurba_marseille","lat":43.3138,"lon":5.38498,"is_reserved":false,"is_disabled":false,"rental_uris":{"android":"levelo://app?vid=f06c9d92-ab59-4133-a097-5ad3d933db5d","ios":"levelo://app?vid=f06c9d92-ab59-4133-a097-5ad3d933db5d"},"vehicle_type_id":"4","last_reported":1774690024,"current_range_meters":6800,"station_id":"ce4bgt92rcd13ifvqcf0","pricing_plan_id":"cebpf4jnsgd1na2vs0mg"},{"bike_id":"10da809c-12be-45da-8e9e-104e5b96a48d","system_id":"levelo_inurba_marseille","lat":43.23786,"lon":5.36638,"is_reserved":false,"is_disabled":false,"rental_uris":{"android":"levelo://app?vid=10da809c-12be-45da-8e9e-104e5b96a48d","ios":"levelo://app?vid=10da809c-12be-45da-8e9e-104e5b96a48d"},"vehicle_type_id":"4","last_reported":1774690024,"current_range_meters":6800,"station_id":"st_d3nk18o9ro0c73en2l3g","pricing_plan_id":"cebpf4jnsgd1na2vs0mg"},{"bike_id":"3629b600-0973-43f7-911e-b3eb2f49b025","system_id":"levelo_inurba_marseille","lat":43.33537,"lon":5.37459,"is_reserved":false,"is_disabled":false,"rental_uris":{"android":"levelo://app?vid=3629b600-0973-43f7-911e-b3eb2f49b025","ios":"levelo://app?vid=3629b600-0973-43f7-911e-b3eb2f49b025"},"vehicle_type_id":"4","last_reported":1774690024,"current_range_meters":7200,"station_id":"st_d46tts09ee8s73dlu43g","pricing_plan_id":"cebpf4jnsgd1na2vs0mg"},{"bike_id":"6d55693b-f207-45a6-8bc4-a39ad3c9ba7a","system_id":"levelo_inurba_marseille","lat":43.26783,"lon":5.38936,"is_reserved":false,"is_disabled":false,"rental_uris":{"android":"levelo://app?vid=6d55693b-f207-45a6-8bc4-a39ad3c9ba7a","ios":"levelo://app?vid=6d55693b-f207-45a6-8bc4-a39ad3c9ba7a"},"vehicle_type_id":"4","last_reported":1774690024,"current_range_meters":7200,"station_id":"","pricing_plan_id":"cebpf4jnsgd1na2vs0mg"},{"bike_id":"2457fc1b-679d-4a71-90e9-ad408ab6ed9d","system_id":"levelo_inurba_marseille","lat":43.33361,"lon":5.37991,"is_reserved":false,"is_disabled":false,"rental_uris":{"android":"levelo://app?vid=2457fc1b-679d-4a71-90e9-ad408ab6ed9d","ios":"levelo://app?vid=2457fc1b-679d-4a71-90e9-ad408ab6ed9d"},"vehicle_type_id":"4","last_reported":1774690024,"current_range_meters":7200,"station_id":"","pricing_plan_id":"cebpf4jnsgd1na2vs0mg"},{"bike_id":"e0752984-472a-45a5-a264-43330039bd03","system_id":"levelo_inurba_marseille","lat":43.30633,"lon":5.40078,"is_reserved":false,"is_disabled":false,"rental_uris":{"android":"levelo://app?vid=e0752984-472a-45a5-a264-43330039bd03","ios":"levelo://app?vid=e0752984-472a-45a5-a264-43330039bd03"},"vehicle_type_id":"4","last_reported":1774690024,"current_range_meters":7200,"station_id":"ce4bh112rcd13ifvqda0","pricing_plan_id":"cebpf4jnsgd1na2vs0mg"},{"bike_id":"5ac1fedf-4726-4775-a12e-aac10be27f99","system_id":"levelo_inurba_marseille","lat":43.30927,"lon":5.40153,"is_reserved":false,"is_disabled":false,"rental_uris":{"android":"levelo://app?vid=5ac1fedf-4726-4775-a12e-aac10be27f99","ios":"levelo://app?vid=5ac1fedf-4726-4775-a12e-aac10be27f99"},"vehicle_type_id":"4","last_reported":1774690024,"current_range_meters":7200,"station_id":"ce4bgvp2rcd13ifvqct0","pricing_plan_id":"cebpf4jnsgd1na2vs0mg"},{"bike_id":"a5c99d1e-2fca-4c14-bfd2-40e81dbd36ec","system_id":"levelo_inurba_marseille","lat":43.29861,"lon":5.39731,"is_reserved":false,"is_disabled":false,"rental_uris":{"android":"levelo://app?vid=a5c99d1e-2fca-4c14-bfd2-40e81dbd36ec","ios":"levelo://app?vid=a5c99d1e-2fca-4c14-bfd2-40e81dbd36ec"},"vehicle_type_id":"4","last_reported":1774690024,"current_range_meters":7200,"station_id":"ce4bh0h2rcd13ifvqd50","pricing_plan_id":"cebpf4jnsgd1na2vs0mg"},{"bike_id":"f3d47af6-5b42-4057-b9f6-c501bdc25d75","system_id":"levelo_inurba_marseille","lat":43.23387,"lon":5.41235,"is_reserved":false,"is_disabled":false,"rental_uris":{"android":"levelo://app?vid=f3d47af6-5b42-4057-b9f6-c501bdc25d75","ios":"levelo://app?vid=f3d47af6-5b42-4057-b9f6-c501bdc25d75"},"vehicle_type_id":"4","last_reported":1774690024,"current_range_meters":7200,"station_id":"","pricing_plan_id":"cebpf4jnsgd1na2vs0mg"},{"bike_id":"fbd013e2-8567-4cc4-a7c6-24dd8fd5e924","system_id":"levelo_inurba_marseille","lat":43.29018,"lon":5.35635,"is_reserved":false,"is_disabled":false,"rental_uris":{"android":"levelo://app?vid=fbd013e2-8567-4cc4-a7c6-24dd8fd5e924","ios":"levelo://app?vid=fbd013e2-8567-4cc4-a7c6-24dd8fd5e924"},"vehicle_type_id":"4","last_reported":1774690024,"current_range_meters":7200,"station_id":"ce4bhb92rcd13ifvqen0","pricing_plan_id":"cebpf4jnsgd1na2vs0mg"},{"bike_id":"de71d590-5caa-4142-808b-540be0012969","system_id":"levelo_inurba_marseille","lat":43.284723,"lon":5.384175,"is_reserved":false,"is_disabled":false,"rental_uris":{"android":"levelo://app?vid=de71d590-5caa-4142-808b-540be0012969","ios":"levelo://app?vid=de71d590-5caa-4142-808b-540be0012969"},"vehicle_type_id":"4","last_reported":1774690024,"current_range_meters":8000,"station_id":"ce4bh512rcd13ifvqe3g","pricing_plan_id":"cebpf4jnsgd1na2vs0mg"},{"bike_id":"03d06d3d-0cd6-4319-a19c-fc2f1b026a0c","system_id":"levelo_inurba_marseille","lat":43.26563,"lon":5.37277,"is_reserved":false,"is_disabled":false,"rental_uris":{"android":"levelo://app?vid=03d06d3d-0cd6-4319-a19c-fc2f1b026a0c","ios":"levelo://app?vid=03d06d3d-0cd6-4319-a19c-fc2f1b026a0c"},"vehicle_type_id":"4","last_reported":1774690024,"current_range_meters":8000,"station_id":"ce4bhg12rcd13ifvqf70","pricing_plan_id":"cebpf4jnsgd1na2vs0mg"},{"bike_id":"ac1a9d6c-17a0-4e01-9607-d886e691e83d","system_id":"levelo_inurba_marseille","lat":43.24377,"lon":5.37017,"is_reserved":false,"is_disabled":false,"rental_uris":{"android":"levelo://app?vid=ac1a9d6c-17a0-4e01-9607-d886e691e83d","ios":"levelo://app?vid=ac1a9d6c-17a0-4e01-9607-d886e691e83d"},"vehicle_type_id":"4","last_reported":1774690024,"current_range_meters":8000,"station_id":"ce4bhhh2rcd13ifvqfk0","pricing_plan_id":"cebpf4jnsgd1na2vs0mg"},{"bike_id":"edac6523-df16-47dc-adeb-975cdf805ce1","system_id":"levelo_inurba_marseille","lat":43.26585,"lon":5.39041,"is_reserved":false,"is_disabled":false,"rental_uris":{"android":"levelo://app?vid=edac6523-df16-47dc-adeb-975cdf805ce1","ios":"levelo://app?vid=edac6523-df16-47dc-adeb-975cdf805ce1"},"vehicle_type_id":"4","last_reported":1774690024,"current_range_meters":8000,"station_id":"ce4bhe12rcd13ifvqf30","pricing_plan_id":"cebpf4jnsgd1na2vs0mg"},{"bike_id":"ee5771c4-cc69-47ee-854b-5d3d3abfb89c","system_id":"levelo_inurba_marseille","lat":43.23898,"lon":5.37459,"is_reserved":false,"is_disabled":false,"rental_uris":{"android":"levelo://app?vid=ee5771c4-cc69-47ee-854b-5d3d3abfb89c","ios":"levelo://app?vid=ee5771c4-cc69-47ee-854b-5d3d3abfb89c"},"vehicle_type_id":"4","last_reported":1774690024,"current_range_meters":8000,"station_id":"st_d6sm7csbq4hs73f8fpjg","pricing_plan_id":"cebpf4jnsgd1na2vs0mg"},{"bike_id":"ccae95a5-965a-472f-8138-32ecadf6ef35","system_id":"levelo_inurba_marseille","lat":43.25341,"lon":5.42165,"is_reserved":false,"is_disabled":false,"rental_uris":{"android":"levelo://app?vid=ccae95a5-965a-472f-8138-32ecadf6ef35","ios":"levelo://app?vid=ccae95a5-965a-472f-8138-32ecadf6ef35"},"vehicle_type_id":"4","last_reported":1774690024,"current_range_meters":8000,"station_id":"st_d2m65c5bi1j21697t3ng","pricing_plan_id":"cebpf4jnsgd1na2vs0mg"},{"bike_id":"b74978cb-5b51-4041-8c1c-97c8f4ca71d2","system_id":"levelo_inurba_marseille","lat":43.3118,"lon":5.4063,"is_reserved":false,"is_disabled":false,"rental_uris":{"android":"levelo://app?vid=b74978cb-5b51-4041-8c1c-97c8f4ca71d2","ios":"levelo://app?vid=b74978cb-5b51-4041-8c1c-97c8f4ca71d2"},"vehicle_type_id":"4","last_reported":1774690024,"current_range_meters":8000,"station_id":"","pricing_plan_id":"cebpf4jnsgd1na2vs0mg"},{"bike_id":"3cf37742-558c-4f25-9c21-256b80b90180","system_id":"levelo_inurba_marseille","lat":43.29245,"lon":5.36041,"is_reserved":false,"is_disabled":false,"rental_uris":{"android":"levelo://app?vid=3cf37742-558c-4f25-9c21-256b80b90180","ios":"levelo://app?vid=3cf37742-558c-4f25-9c21-256b80b90180"},"vehicle_type_id":"4","last_reported":1774690024,"current_range_meters":8000,"station_id":"ce4bhbh2rcd13ifvqeqg","pricing_plan_id":"cebpf4jnsgd1na2vs0mg"},{"bike_id":"2d5262be-582c-4d87-a7a2-b4c3f4ed4d38","system_id":"levelo_inurba_marseille","lat":43.22565,"lon":5.4162,"is_reserved":false,"is_disabled":false,"rental_uris":{"android":"levelo://app?vid=2d5262be-582c-4d87-a7a2-b4c3f4ed4d38","ios":"levelo://app?vid=2d5262be-582c-4d87-a7a2-b4c3f4ed4d38"},"vehicle_type_id":"4","last_reported":1774690024,"current_range_meters":8000,"station_id":"st_d2o4gvlbi1j2169b742g","pricing_plan_id":"cebpf4jnsgd1na2vs0mg"},{"bike_id":"bd0579b3-0f92-41c4-8da4-1fcb343d9a87","system_id":"levelo_inurba_marseille","lat":43.28409,"lon":5.37511,"is_reserved":false,"is_disabled":false,"rental_uris":{"android":"levelo://app?vid=bd0579b3-0f92-41c4-8da4-1fcb343d9a87","ios":"levelo://app?vid=bd0579b3-0f92-41c4-8da4-1fcb343d9a87"},"vehicle_type_id":"4","last_reported":1774690024,"current_range_meters":8000,"station_id":"ce4bh412rcd13ifvqds0","pricing_plan_id":"cebpf4jnsgd1na2vs0mg"},{"bike_id":"3e80a70b-d902-4f38-bb78-001cfd129e63","system_id":"levelo_inurba_marseille","lat":43.2841,"lon":5.34976,"is_reserved":false,"is_disabled":false,"rental_uris":{"android":"levelo://app?vid=3e80a70b-d902-4f38-bb78-001cfd129e63","ios":"levelo://app?vid=3e80a70b-d902-4f38-bb78-001cfd129e63"},"vehicle_type_id":"4","last_reported":1774690024,"current_range_meters":8000,"station_id":"ce4bhbh2rcd13ifvqepg","pricing_plan_id":"cebpf4jnsgd1na2vs0mg"},{"bike_id":"c7af05b3-4ddb-499c-ae8b-c6fd8683ba94","system_id":"levelo_inurba_marseille","lat":43.29553,"lon":5.38356,"is_reserved":false,"is_disabled":false,"rental_uris":{"android":"levelo://app?vid=c7af05b3-4ddb-499c-ae8b-c6fd8683ba94","ios":"levelo://app?vid=c7af05b3-4ddb-499c-ae8b-c6fd8683ba94"},"vehicle_type_id":"4","last_reported":1774690024,"current_range_meters":8000,"station_id":"","pricing_plan_id":"cebpf4jnsgd1na2vs0mg"},{"bike_id":"5be616c9-ebbb-4de5-a513-cba194a4c0f4","system_id":"levelo_inurba_marseille","lat":43.28444,"lon":5.392,"is_reserved":false,"is_disabled":false,"rental_uris":{"android":"levelo://app?vid=5be616c9-ebbb-4de5-a513-cba194a4c0f4","ios":"levelo://app?vid=5be616c9-ebbb-4de5-a513-cba194a4c0f4"},"vehicle_type_id":"4","last_reported":1774690024,"current_range_meters":8000,"station_id":"ce4bhoh2rcd13ifvqh5g","pricing_plan_id":"cebpf4jnsgd1na2vs0mg"},{"bike_id":"1eb78b82-00bd-4629-8a73-42b2982dc32a","system_id":"levelo_inurba_marseille","lat":43.29847,"lon":5.36285,"is_reserved":false,"is_disabled":false,"rental_uris":{"android":"levelo://app?vid=1eb78b82-00bd-4629-8a73-42b2982dc32a","ios":"levelo://app?vid=1eb78b82-00bd-4629-8a73-42b2982dc32a"},"vehicle_type_id":"4","last_reported":1774690024,"current_range_meters":8000,"station_id":"ce4bgpp2rcd13ifvqc3g","pricing_plan_id":"cebpf4jnsgd1na2vs0mg"},{"bike_id":"5a56c9b3-03a1-4a99-bda0-4c024f128176","system_id":"levelo_inurba_marseille","lat":43.3112,"lon":5.37765,"is_reserved":false,"is_disabled":false,"rental_uris":{"android":"levelo://app?vid=5a56c9b3-03a1-4a99-bda0-4c024f128176","ios":"levelo://app?vid=5a56c9b3-03a1-4a99-bda0-4c024f128176"},"vehicle_type_id":"4","last_reported":1774690024,"current_range_meters":8400,"station_id":"ce4bgt92rcd13ifvqcg0","pricing_plan_id":"cebpf4jnsgd1na2vs0mg"},{"bike_id":"a0e1fe6f-1b0c-4b69-b699-3f3295a2fce0","system_id":"levelo_inurba_marseille","lat":43.28416,"lon":5.34999,"is_reserved":false,"is_disabled":false,"rental_uris":{"android":"levelo://app?vid=a0e1fe6f-1b0c-4b69-b699-3f3295a2fce0","ios":"levelo://app?vid=a0e1fe6f-1b0c-4b69-b699-3f3295a2fce0"},"vehicle_type_id":"4","last_reported":1774690024,"current_range_meters":8400,"station_id":"ce4bhbh2rcd13ifvqepg","pricing_plan_id":"cebpf4jnsgd1na2vs0mg"},{"bike_id":"08ec576b-f8b2-4dc3-9428-e6d6eb14420f","system_id":"levelo_inurba_marseille","lat":43.28935,"lon":5.36626,"is_reserved":false,"is_disabled":true,"rental_uris":{"android":"levelo://app?vid=08ec576b-f8b2-4dc3-9428-e6d6eb14420f","ios":"levelo://app?vid=08ec576b-f8b2-4dc3-9428-e6d6eb14420f"},"vehicle_type_id":"4","last_reported":1774690024,"current_range_meters":8400,"station_id":"ce4bhap2rcd13ifvqek0","pricing_plan_id":"cebpf4jnsgd1na2vs0mg"},{"bike_id":"899c9f36-9b83-4ce9-bd7d-0f95dd541b6a","system_id":"levelo_inurba_marseille","lat":43.32337,"lon":5.36719,"is_reserved":false,"is_disabled":false,"rental_uris":{"android":"levelo://app?vid=899c9f36-9b83-4ce9-bd7d-0f95dd541b6a","ios":"levelo://app?vid=899c9f36-9b83-4ce9-bd7d-0f95dd541b6a"},"vehicle_type_id":"4","last_reported":1774690024,"current_range_meters":8400,"station_id":"ce4bhsh2rcd13ifvqi2g","pricing_plan_id":"cebpf4jnsgd1na2vs0mg"},{"bike_id":"71eaba20-406e-4495-af11-135e5f99b88c","system_id":"levelo_inurba_marseille","lat":43.27968,"lon":5.38724,"is_reserved":false,"is_disabled":false,"rental_uris":{"android":"levelo://app?vid=71eaba20-406e-4495-af11-135e5f99b88c","ios":"levelo://app?vid=71eaba20-406e-4495-af11-135e5f99b88c"},"vehicle_type_id":"4","last_reported":1774690024,"current_range_meters":8400,"station_id":"ce4bhg12rcd13ifvqf80","pricing_plan_id":"cebpf4jnsgd1na2vs0mg"},{"bike_id":"28483bf5-dea0-476c-af06-fd95f4e48f8f","system_id":"levelo_inurba_marseille","lat":43.3349,"lon":5.36378,"is_reserved":false,"is_disabled":false,"rental_uris":{"android":"levelo://app?vid=28483bf5-dea0-476c-af06-fd95f4e48f8f","ios":"levelo://app?vid=28483bf5-dea0-476c-af06-fd95f4e48f8f"},"vehicle_type_id":"4","last_reported":1774690024,"current_range_meters":8400,"station_id":"","pricing_plan_id":"cebpf4jnsgd1na2vs0mg"},{"bike_id":"c420f719-a4cc-4702-b6da-68e6d0f37e6c","system_id":"levelo_inurba_marseille","lat":43.28533,"lon":5.44092,"is_reserved":false,"is_disabled":false,"rental_uris":{"android":"levelo://app?vid=c420f719-a4cc-4702-b6da-68e6d0f37e6c","ios":"levelo://app?vid=c420f719-a4cc-4702-b6da-68e6d0f37e6c"},"vehicle_type_id":"4","last_reported":1774690024,"current_range_meters":8400,"station_id":"st_d3j3df2ikq2c7380ej80","pricing_plan_id":"cebpf4jnsgd1na2vs0mg"},{"bike_id":"5afc8403-6d30-4cf0-9969-def159c6d031","system_id":"levelo_inurba_marseille","lat":43.24379,"lon":5.37058,"is_reserved":false,"is_disabled":false,"rental_uris":{"android":"levelo://app?vid=5afc8403-6d30-4cf0-9969-def159c6d031","ios":"levelo://app?vid=5afc8403-6d30-4cf0-9969-def159c6d031"},"vehicle_type_id":"4","last_reported":1774690024,"current_range_meters":8400,"station_id":"ce4bhhh2rcd13ifvqfk0","pricing_plan_id":"cebpf4jnsgd1na2vs0mg"},{"bike_id":"5e64853c-8604-4bf3-8ba7-e6a44f5c4468","system_id":"levelo_inurba_marseille","lat":43.27997,"lon":5.40011,"is_reserved":false,"is_disabled":false,"rental_uris":{"android":"levelo://app?vid=5e64853c-8604-4bf3-8ba7-e6a44f5c4468","ios":"levelo://app?vid=5e64853c-8604-4bf3-8ba7-e6a44f5c4468"},"vehicle_type_id":"4","last_reported":1774690024,"current_range_meters":8400,"station_id":"ce4bho92rcd13ifvqh4g","pricing_plan_id":"cebpf4jnsgd1na2vs0mg"},{"bike_id":"553f5fc6-85e2-4efe-ace7-80236f5c0df1","system_id":"levelo_inurba_marseille","lat":43.28947,"lon":5.36395,"is_reserved":false,"is_disabled":false,"rental_uris":{"android":"levelo://app?vid=553f5fc6-85e2-4efe-ace7-80236f5c0df1","ios":"levelo://app?vid=553f5fc6-85e2-4efe-ace7-80236f5c0df1"},"vehicle_type_id":"4","last_reported":1774690024,"current_range_meters":8400,"station_id":"ce4bhc92rcd13ifvqetg","pricing_plan_id":"cebpf4jnsgd1na2vs0mg"},{"bike_id":"0c2c994c-f14a-4957-8502-3656740281f4","system_id":"levelo_inurba_marseille","lat":43.24673,"lon":5.38149,"is_reserved":false,"is_disabled":false,"rental_uris":{"android":"levelo://app?vid=0c2c994c-f14a-4957-8502-3656740281f4","ios":"levelo://app?vid=0c2c994c-f14a-4957-8502-3656740281f4"},"vehicle_type_id":"4","last_reported":1774690024,"current_range_meters":8400,"station_id":"ce4bhih2rcd13ifvqfr0","pricing_plan_id":"cebpf4jnsgd1na2vs0mg"},{"bike_id":"e9b8ad5b-1d5b-4488-b88b-9400678d2ccf","system_id":"levelo_inurba_marseille","lat":43.27533,"lon":5.38418,"is_reserved":false,"is_disabled":false,"rental_uris":{"android":"levelo://app?vid=e9b8ad5b-1d5b-4488-b88b-9400678d2ccf","ios":"levelo://app?vid=e9b8ad5b-1d5b-4488-b88b-9400678d2ccf"},"vehicle_type_id":"4","last_reported":1774690024,"current_range_meters":8400,"station_id":"ce4bhh92rcd13ifvqfi0","pricing_plan_id":"cebpf4jnsgd1na2vs0mg"},{"bike_id":"915ccf51-81c4-4a81-94b6-b9522edf5a8e","system_id":"levelo_inurba_marseille","lat":43.32664,"lon":5.40932,"is_reserved":false,"is_disabled":false,"rental_uris":{"android":"levelo://app?vid=915ccf51-81c4-4a81-94b6-b9522edf5a8e","ios":"levelo://app?vid=915ccf51-81c4-4a81-94b6-b9522edf5a8e"},"vehicle_type_id":"4","last_reported":1774690024,"current_range_meters":8400,"station_id":"ce4bhpp2rcd13ifvqhgg","pricing_plan_id":"cebpf4jnsgd1na2vs0mg"},{"bike_id":"073caac0-7818-4f5c-8d2f-2564c47cf9e2","system_id":"levelo_inurba_marseille","lat":43.26683,"lon":5.38265,"is_reserved":false,"is_disabled":false,"rental_uris":{"android":"levelo://app?vid=073caac0-7818-4f5c-8d2f-2564c47cf9e2","ios":"levelo://app?vid=073caac0-7818-4f5c-8d2f-2564c47cf9e2"},"vehicle_type_id":"4","last_reported":1774690024,"current_range_meters":8400,"station_id":"ce4bhg92rcd13ifvqf90","pricing_plan_id":"cebpf4jnsgd1na2vs0mg"},{"bike_id":"e8df83cf-6381-4e7e-9379-074a8e881801","system_id":"levelo_inurba_marseille","lat":43.31896,"lon":5.36822,"is_reserved":false,"is_disabled":false,"rental_uris":{"android":"levelo://app?vid=e8df83cf-6381-4e7e-9379-074a8e881801","ios":"levelo://app?vid=e8df83cf-6381-4e7e-9379-074a8e881801"},"vehicle_type_id":"4","last_reported":1774690024,"current_range_meters":8400,"station_id":"ce4bhrh2rcd13ifvqhug","pricing_plan_id":"cebpf4jnsgd1na2vs0mg"},{"bike_id":"13735fc1-0a7f-42b2-b845-63ef8bf27e2a","system_id":"levelo_inurba_marseille","lat":43.24651,"lon":5.38158,"is_reserved":false,"is_disabled":false,"rental_uris":{"android":"levelo://app?vid=13735fc1-0a7f-42b2-b845-63ef8bf27e2a","ios":"levelo://app?vid=13735fc1-0a7f-42b2-b845-63ef8bf27e2a"},"vehicle_type_id":"4","last_reported":1774690024,"current_range_meters":8400,"station_id":"ce4bhih2rcd13ifvqfr0","pricing_plan_id":"cebpf4jnsgd1na2vs0mg"},{"bike_id":"ccd64e49-79f3-4219-a96e-d5e4330d2c2d","system_id":"levelo_inurba_marseille","lat":43.24391,"lon":5.37063,"is_reserved":false,"is_disabled":false,"rental_uris":{"android":"levelo://app?vid=ccd64e49-79f3-4219-a96e-d5e4330d2c2d","ios":"levelo://app?vid=ccd64e49-79f3-4219-a96e-d5e4330d2c2d"},"vehicle_type_id":"4","last_reported":1774690024,"current_range_meters":8400,"station_id":"ce4bhhh2rcd13ifvqfk0","pricing_plan_id":"cebpf4jnsgd1na2vs0mg"},{"bike_id":"4f5cf7ef-ddb5-4d25-9c0b-bec33f5f4447","system_id":"levelo_inurba_marseille","lat":43.31029,"lon":5.36876,"is_reserved":false,"is_disabled":false,"rental_uris":{"android":"levelo://app?vid=4f5cf7ef-ddb5-4d25-9c0b-bec33f5f4447","ios":"levelo://app?vid=4f5cf7ef-ddb5-4d25-9c0b-bec33f5f4447"},"vehicle_type_id":"4","last_reported":1774690024,"current_range_meters":8400,"station_id":"","pricing_plan_id":"cebpf4jnsgd1na2vs0mg"},{"bike_id":"2c789c69-3ee4-4c0b-a511-45805abb3ff4","system_id":"levelo_inurba_marseille","lat":43.26072,"lon":5.39394,"is_reserved":false,"is_disabled":false,"rental_uris":{"android":"levelo://app?vid=2c789c69-3ee4-4c0b-a511-45805abb3ff4","ios":"levelo://app?vid=2c789c69-3ee4-4c0b-a511-45805abb3ff4"},"vehicle_type_id":"4","last_reported":1774690024,"current_range_meters":8400,"station_id":"ce4bhh92rcd13ifvqfj0","pricing_plan_id":"cebpf4jnsgd1na2vs0mg"},{"bike_id":"f5ee3d25-1779-45eb-9c1d-a6a215a1813d","system_id":"levelo_inurba_marseille","lat":43.28925,"lon":5.3638,"is_reserved":false,"is_disabled":false,"rental_uris":{"android":"levelo://app?vid=f5ee3d25-1779-45eb-9c1d-a6a215a1813d","ios":"levelo://app?vid=f5ee3d25-1779-45eb-9c1d-a6a215a1813d"},"vehicle_type_id":"4","last_reported":1774690024,"current_range_meters":8400,"station_id":"ce4bhc92rcd13ifvqetg","pricing_plan_id":"cebpf4jnsgd1na2vs0mg"},{"bike_id":"c5ffcb6e-94c8-46bc-bcbe-82a7f99bb502","system_id":"levelo_inurba_marseille","lat":43.27838,"lon":5.39189,"is_reserved":false,"is_disabled":true,"rental_uris":{"android":"levelo://app?vid=c5ffcb6e-94c8-46bc-bcbe-82a7f99bb502","ios":"levelo://app?vid=c5ffcb6e-94c8-46bc-bcbe-82a7f99bb502"},"vehicle_type_id":"4","last_reported":1774690024,"current_range_meters":8800,"station_id":"ce4bhjp2rcd13ifvqga0","pricing_plan_id":"cebpf4jnsgd1na2vs0mg"},{"bike_id":"c82691aa-ba67-49e2-8ab8-9f87a1546b96","system_id":"levelo_inurba_marseille","lat":43.232,"lon":5.35563,"is_reserved":false,"is_disabled":false,"rental_uris":{"android":"levelo://app?vid=c82691aa-ba67-49e2-8ab8-9f87a1546b96","ios":"levelo://app?vid=c82691aa-ba67-49e2-8ab8-9f87a1546b96"},"vehicle_type_id":"4","last_reported":1774690024,"current_range_meters":8800,"station_id":"ce4bhu92rcd13ifvqi70","pricing_plan_id":"cebpf4jnsgd1na2vs0mg"},{"bike_id":"ee81152f-f51d-4023-8048-331cef0cd43a","system_id":"levelo_inurba_marseille","lat":43.28852,"lon":5.35842,"is_reserved":false,"is_disabled":false,"rental_uris":{"android":"levelo://app?vid=ee81152f-f51d-4023-8048-331cef0cd43a","ios":"levelo://app?vid=ee81152f-f51d-4023-8048-331cef0cd43a"},"vehicle_type_id":"4","last_reported":1774690024,"current_range_meters":8800,"station_id":"ce4bhb12rcd13ifvqem0","pricing_plan_id":"cebpf4jnsgd1na2vs0mg"},{"bike_id":"92cb4986-12bc-44d4-ad49-496427bf2b45","system_id":"levelo_inurba_marseille","lat":43.28528,"lon":5.44107,"is_reserved":false,"is_disabled":false,"rental_uris":{"android":"levelo://app?vid=92cb4986-12bc-44d4-ad49-496427bf2b45","ios":"levelo://app?vid=92cb4986-12bc-44d4-ad49-496427bf2b45"},"vehicle_type_id":"4","last_reported":1774690024,"current_range_meters":8800,"station_id":"st_d3j3df2ikq2c7380ej80","pricing_plan_id":"cebpf4jnsgd1na2vs0mg"},{"bike_id":"6627d87e-d8cc-4315-9870-c98a872f12b5","system_id":"levelo_inurba_marseille","lat":43.24674,"lon":5.38152,"is_reserved":false,"is_disabled":false,"rental_uris":{"android":"levelo://app?vid=6627d87e-d8cc-4315-9870-c98a872f12b5","ios":"levelo://app?vid=6627d87e-d8cc-4315-9870-c98a872f12b5"},"vehicle_type_id":"4","last_reported":1774690024,"current_range_meters":8800,"station_id":"ce4bhih2rcd13ifvqfr0","pricing_plan_id":"cebpf4jnsgd1na2vs0mg"},{"bike_id":"1fce7f1d-4e59-45d5-ad05-440b881821b7","system_id":"levelo_inurba_marseille","lat":43.23792,"lon":5.36629,"is_reserved":false,"is_disabled":false,"rental_uris":{"android":"levelo://app?vid=1fce7f1d-4e59-45d5-ad05-440b881821b7","ios":"levelo://app?vid=1fce7f1d-4e59-45d5-ad05-440b881821b7"},"vehicle_type_id":"4","last_reported":1774690024,"current_range_meters":8800,"station_id":"st_d3nk18o9ro0c73en2l3g","pricing_plan_id":"cebpf4jnsgd1na2vs0mg"},{"bike_id":"dc3c139b-2048-4132-970d-c419a9a3c7a3","system_id":"levelo_inurba_marseille","lat":43.2871,"lon":5.39975,"is_reserved":false,"is_disabled":false,"rental_uris":{"android":"levelo://app?vid=dc3c139b-2048-4132-970d-c419a9a3c7a3","ios":"levelo://app?vid=dc3c139b-2048-4132-970d-c419a9a3c7a3"},"vehicle_type_id":"4","last_reported":1774690024,"current_range_meters":8800,"station_id":"ce4bho92rcd13ifvqh3g","pricing_plan_id":"cebpf4jnsgd1na2vs0mg"},{"bike_id":"ceafad9d-a500-41ad-9e31-0938466572d1","system_id":"levelo_inurba_marseille","lat":43.32345,"lon":5.38889,"is_reserved":false,"is_disabled":false,"rental_uris":{"android":"levelo://app?vid=ceafad9d-a500-41ad-9e31-0938466572d1","ios":"levelo://app?vid=ceafad9d-a500-41ad-9e31-0938466572d1"},"vehicle_type_id":"4","last_reported":1774690024,"current_range_meters":8800,"station_id":"ce4bhqp2rcd13ifvqhog","pricing_plan_id":"cebpf4jnsgd1na2vs0mg"},{"bike_id":"729a6da4-6f27-4d44-8d7d-deea038f283e","system_id":"levelo_inurba_marseille","lat":43.33539,"lon":5.3745,"is_reserved":false,"is_disabled":false,"rental_uris":{"android":"levelo://app?vid=729a6da4-6f27-4d44-8d7d-deea038f283e","ios":"levelo://app?vid=729a6da4-6f27-4d44-8d7d-deea038f283e"},"vehicle_type_id":"4","last_reported":1774690024,"current_range_meters":8800,"station_id":"st_d46tts09ee8s73dlu43g","pricing_plan_id":"cebpf4jnsgd1na2vs0mg"},{"bike_id":"7694298c-2292-44dc-9958-896e83a49e9b","system_id":"levelo_inurba_marseille","lat":43.24161,"lon":5.39057,"is_reserved":false,"is_disabled":false,"rental_uris":{"android":"levelo://app?vid=7694298c-2292-44dc-9958-896e83a49e9b","ios":"levelo://app?vid=7694298c-2292-44dc-9958-896e83a49e9b"},"vehicle_type_id":"4","last_reported":1774690024,"current_range_meters":8800,"station_id":"","pricing_plan_id":"cebpf4jnsgd1na2vs0mg"},{"bike_id":"756aac0a-50b4-421f-8fcb-5d7076a18920","system_id":"levelo_inurba_marseille","lat":43.28315,"lon":5.35241,"is_reserved":false,"is_disabled":false,"rental_uris":{"android":"levelo://app?vid=756aac0a-50b4-421f-8fcb-5d7076a18920","ios":"levelo://app?vid=756aac0a-50b4-421f-8fcb-5d7076a18920"},"vehicle_type_id":"4","last_reported":1774690024,"current_range_meters":8800,"station_id":"","pricing_plan_id":"cebpf4jnsgd1na2vs0mg"},{"bike_id":"a6629853-4401-41ed-b4ef-0984124fa193","system_id":"levelo_inurba_marseille","lat":43.30155,"lon":5.38084,"is_reserved":false,"is_disabled":false,"rental_uris":{"android":"levelo://app?vid=a6629853-4401-41ed-b4ef-0984124fa193","ios":"levelo://app?vid=a6629853-4401-41ed-b4ef-0984124fa193"},"vehicle_type_id":"4","last_reported":1774690024,"current_range_meters":8800,"station_id":"ce4bgjp2rcd13ifvqbh0","pricing_plan_id":"cebpf4jnsgd1na2vs0mg"},{"bike_id":"204b948f-70fe-4193-81e9-e85160b5b49d","system_id":"levelo_inurba_marseille","lat":43.32501,"lon":5.383,"is_reserved":false,"is_disabled":false,"rental_uris":{"android":"levelo://app?vid=204b948f-70fe-4193-81e9-e85160b5b49d","ios":"levelo://app?vid=204b948f-70fe-4193-81e9-e85160b5b49d"},"vehicle_type_id":"4","last_reported":1774690024,"current_range_meters":8800,"station_id":"st_d4asgbiv49dc73anf9m0","pricing_plan_id":"cebpf4jnsgd1na2vs0mg"},{"bike_id":"ffcc8c3f-36dc-4229-8354-ca58a927c0fa","system_id":"levelo_inurba_marseille","lat":43.25489,"lon":5.37653,"is_reserved":false,"is_disabled":false,"rental_uris":{"android":"levelo://app?vid=ffcc8c3f-36dc-4229-8354-ca58a927c0fa","ios":"levelo://app?vid=ffcc8c3f-36dc-4229-8354-ca58a927c0fa"},"vehicle_type_id":"4","last_reported":1774690024,"current_range_meters":8800,"station_id":"ce4bhh12rcd13ifvqff0","pricing_plan_id":"cebpf4jnsgd1na2vs0mg"},{"bike_id":"ef3d2908-5f04-46b3-8950-985b7bd33bee","system_id":"levelo_inurba_marseille","lat":43.28623,"lon":5.35091,"is_reserved":false,"is_disabled":false,"rental_uris":{"android":"levelo://app?vid=ef3d2908-5f04-46b3-8950-985b7bd33bee","ios":"levelo://app?vid=ef3d2908-5f04-46b3-8950-985b7bd33bee"},"vehicle_type_id":"4","last_reported":1774690024,"current_range_meters":8800,"station_id":"ce4bhch2rcd13ifvqeug","pricing_plan_id":"cebpf4jnsgd1na2vs0mg"},{"bike_id":"520303ea-3d98-4cf2-b3e4-219d6bfc14f1","system_id":"levelo_inurba_marseille","lat":43.248,"lon":5.37457,"is_reserved":false,"is_disabled":false,"rental_uris":{"android":"levelo://app?vid=520303ea-3d98-4cf2-b3e4-219d6bfc14f1","ios":"levelo://app?vid=520303ea-3d98-4cf2-b3e4-219d6bfc14f1"},"vehicle_type_id":"4","last_reported":1774690024,"current_range_meters":8800,"station_id":"ce4bhgh2rcd13ifvqfb0","pricing_plan_id":"cebpf4jnsgd1na2vs0mg"},{"bike_id":"7df60a87-2a7d-4361-b0c6-9e03028d7a7f","system_id":"levelo_inurba_marseille","lat":43.2994,"lon":5.36484,"is_reserved":false,"is_disabled":false,"rental_uris":{"android":"levelo://app?vid=7df60a87-2a7d-4361-b0c6-9e03028d7a7f","ios":"levelo://app?vid=7df60a87-2a7d-4361-b0c6-9e03028d7a7f"},"vehicle_type_id":"4","last_reported":1774690024,"current_range_meters":8800,"station_id":"ce4bgm92rcd13ifvqbr0","pricing_plan_id":"cebpf4jnsgd1na2vs0mg"},{"bike_id":"67c1c6e6-4211-4250-be02-a52880e1c23a","system_id":"levelo_inurba_marseille","lat":43.26489,"lon":5.40704,"is_reserved":false,"is_disabled":false,"rental_uris":{"android":"levelo://app?vid=67c1c6e6-4211-4250-be02-a52880e1c23a","ios":"levelo://app?vid=67c1c6e6-4211-4250-be02-a52880e1c23a"},"vehicle_type_id":"4","last_reported":1774690024,"current_range_meters":8800,"station_id":"","pricing_plan_id":"cebpf4jnsgd1na2vs0mg"},{"bike_id":"c51def6a-9b1f-4d45-8706-9af28000d1f6","system_id":"levelo_inurba_marseille","lat":43.27942,"lon":5.41055,"is_reserved":false,"is_disabled":false,"rental_uris":{"android":"levelo://app?vid=c51def6a-9b1f-4d45-8706-9af28000d1f6","ios":"levelo://app?vid=c51def6a-9b1f-4d45-8706-9af28000d1f6"},"vehicle_type_id":"4","last_reported":1774690024,"current_range_meters":8800,"station_id":"ce4bhnp2rcd13ifvqh0g","pricing_plan_id":"cebpf4jnsgd1na2vs0mg"},{"bike_id":"881d51ea-97e5-4be3-b34b-c6d6c88daf44","system_id":"levelo_inurba_marseille","lat":43.337456,"lon":5.374858,"is_reserved":false,"is_disabled":true,"rental_uris":{"android":"levelo://app?vid=881d51ea-97e5-4be3-b34b-c6d6c88daf44","ios":"levelo://app?vid=881d51ea-97e5-4be3-b34b-c6d6c88daf44"},"vehicle_type_id":"4","last_reported":1774690024,"current_range_meters":9200,"station_id":"","pricing_plan_id":"cebpf4jnsgd1na2vs0mg"},{"bike_id":"5c48d087-1bd3-40d5-85b4-48c08850f162","system_id":"levelo_inurba_marseille","lat":43.2621,"lon":5.37447,"is_reserved":false,"is_disabled":false,"rental_uris":{"android":"levelo://app?vid=5c48d087-1bd3-40d5-85b4-48c08850f162","ios":"levelo://app?vid=5c48d087-1bd3-40d5-85b4-48c08850f162"},"vehicle_type_id":"4","last_reported":1774690024,"current_range_meters":9200,"station_id":"ce4bhgp2rcd13ifvqfc0","pricing_plan_id":"cebpf4jnsgd1na2vs0mg"},{"bike_id":"36141db5-b3a5-4009-8266-2dd4f38320ae","system_id":"levelo_inurba_marseille","lat":43.23778,"lon":5.36622,"is_reserved":false,"is_disabled":false,"rental_uris":{"android":"levelo://app?vid=36141db5-b3a5-4009-8266-2dd4f38320ae","ios":"levelo://app?vid=36141db5-b3a5-4009-8266-2dd4f38320ae"},"vehicle_type_id":"4","last_reported":1774690024,"current_range_meters":9200,"station_id":"st_d3nk18o9ro0c73en2l3g","pricing_plan_id":"cebpf4jnsgd1na2vs0mg"},{"bike_id":"b1e731c5-a019-40fb-b94c-b458e0eddb64","system_id":"levelo_inurba_marseille","lat":43.23808,"lon":5.38639,"is_reserved":false,"is_disabled":false,"rental_uris":{"android":"levelo://app?vid=b1e731c5-a019-40fb-b94c-b458e0eddb64","ios":"levelo://app?vid=b1e731c5-a019-40fb-b94c-b458e0eddb64"},"vehicle_type_id":"4","last_reported":1774690024,"current_range_meters":9200,"station_id":"","pricing_plan_id":"cebpf4jnsgd1na2vs0mg"},{"bike_id":"02514c67-3aec-425d-99d5-2c8e7aeb44c5","system_id":"levelo_inurba_marseille","lat":43.26493,"lon":5.39562,"is_reserved":false,"is_disabled":false,"rental_uris":{"android":"levelo://app?vid=02514c67-3aec-425d-99d5-2c8e7aeb44c5","ios":"levelo://app?vid=02514c67-3aec-425d-99d5-2c8e7aeb44c5"},"vehicle_type_id":"4","last_reported":1774690024,"current_range_meters":9200,"station_id":"ce4bhi12rcd13ifvqfq0","pricing_plan_id":"cebpf4jnsgd1na2vs0mg"},{"bike_id":"883dc76f-ea39-4856-ad3f-83646c0ba349","system_id":"levelo_inurba_marseille","lat":43.30291,"lon":5.37778,"is_reserved":false,"is_disabled":false,"rental_uris":{"android":"levelo://app?vid=883dc76f-ea39-4856-ad3f-83646c0ba349","ios":"levelo://app?vid=883dc76f-ea39-4856-ad3f-83646c0ba349"},"vehicle_type_id":"4","last_reported":1774690024,"current_range_meters":9200,"station_id":"","pricing_plan_id":"cebpf4jnsgd1na2vs0mg"},{"bike_id":"c09263af-5f3c-4487-9b20-dca4afc4c1ed","system_id":"levelo_inurba_marseille","lat":43.28648,"lon":5.35073,"is_reserved":false,"is_disabled":false,"rental_uris":{"android":"levelo://app?vid=c09263af-5f3c-4487-9b20-dca4afc4c1ed","ios":"levelo://app?vid=c09263af-5f3c-4487-9b20-dca4afc4c1ed"},"vehicle_type_id":"4","last_reported":1774690024,"current_range_meters":9200,"station_id":"ce4bhch2rcd13ifvqeug","pricing_plan_id":"cebpf4jnsgd1na2vs0mg"},{"bike_id":"5634b4ec-4a3d-4a2b-9dbc-7b0217a3d2ee","system_id":"levelo_inurba_marseille","lat":43.27502,"lon":5.42465,"is_reserved":false,"is_disabled":false,"rental_uris":{"android":"levelo://app?vid=5634b4ec-4a3d-4a2b-9dbc-7b0217a3d2ee","ios":"levelo://app?vid=5634b4ec-4a3d-4a2b-9dbc-7b0217a3d2ee"},"vehicle_type_id":"4","last_reported":1774690024,"current_range_meters":9200,"station_id":"ce4bhn92rcd13ifvqgrg","pricing_plan_id":"cebpf4jnsgd1na2vs0mg"},{"bike_id":"a9e1baa6-b19c-4b6b-a195-18078ed91f56","system_id":"levelo_inurba_marseille","lat":43.31053,"lon":5.3714,"is_reserved":false,"is_disabled":false,"rental_uris":{"android":"levelo://app?vid=a9e1baa6-b19c-4b6b-a195-18078ed91f56","ios":"levelo://app?vid=a9e1baa6-b19c-4b6b-a195-18078ed91f56"},"vehicle_type_id":"4","last_reported":1774690024,"current_range_meters":9200,"station_id":"st_d4kl2rp97mjs73e7tdfg","pricing_plan_id":"cebpf4jnsgd1na2vs0mg"},{"bike_id":"12488bcd-f657-4fc9-87f8-f43882934515","system_id":"levelo_inurba_marseille","lat":43.28488,"lon":5.35893,"is_reserved":false,"is_disabled":false,"rental_uris":{"android":"levelo://app?vid=12488bcd-f657-4fc9-87f8-f43882934515","ios":"levelo://app?vid=12488bcd-f657-4fc9-87f8-f43882934515"},"vehicle_type_id":"4","last_reported":1774690024,"current_range_meters":9200,"station_id":"ce4bhah2rcd13ifvqei0","pricing_plan_id":"cebpf4jnsgd1na2vs0mg"},{"bike_id":"65805b76-29ee-4b98-9001-7ad3e3e4ce66","system_id":"levelo_inurba_marseille","lat":43.31277,"lon":5.4017,"is_reserved":false,"is_disabled":false,"rental_uris":{"android":"levelo://app?vid=65805b76-29ee-4b98-9001-7ad3e3e4ce66","ios":"levelo://app?vid=65805b76-29ee-4b98-9001-7ad3e3e4ce66"},"vehicle_type_id":"4","last_reported":1774690024,"current_range_meters":9200,"station_id":"ce4bh092rcd13ifvqd30","pricing_plan_id":"cebpf4jnsgd1na2vs0mg"},{"bike_id":"659ccfdf-569f-4f01-84dd-6c9bbfa33ac4","system_id":"levelo_inurba_marseille","lat":43.23788,"lon":5.36644,"is_reserved":false,"is_disabled":false,"rental_uris":{"android":"levelo://app?vid=659ccfdf-569f-4f01-84dd-6c9bbfa33ac4","ios":"levelo://app?vid=659ccfdf-569f-4f01-84dd-6c9bbfa33ac4"},"vehicle_type_id":"4","last_reported":1774690024,"current_range_meters":9200,"station_id":"st_d3nk18o9ro0c73en2l3g","pricing_plan_id":"cebpf4jnsgd1na2vs0mg"},{"bike_id":"a9176eb7-c188-4ff4-912f-d4e94b60be86","system_id":"levelo_inurba_marseille","lat":43.23779,"lon":5.36643,"is_reserved":false,"is_disabled":false,"rental_uris":{"android":"levelo://app?vid=a9176eb7-c188-4ff4-912f-d4e94b60be86","ios":"levelo://app?vid=a9176eb7-c188-4ff4-912f-d4e94b60be86"},"vehicle_type_id":"4","last_reported":1774690024,"current_range_meters":9600,"station_id":"st_d3nk18o9ro0c73en2l3g","pricing_plan_id":"cebpf4jnsgd1na2vs0mg"},{"bike_id":"2c76498e-1409-4d1d-aa11-912dd68ff926","system_id":"levelo_inurba_marseille","lat":43.28557,"lon":5.44128,"is_reserved":false,"is_disabled":false,"rental_uris":{"android":"levelo://app?vid=2c76498e-1409-4d1d-aa11-912dd68ff926","ios":"levelo://app?vid=2c76498e-1409-4d1d-aa11-912dd68ff926"},"vehicle_type_id":"4","last_reported":1774690024,"current_range_meters":9600,"station_id":"st_d3j3df2ikq2c7380ej80","pricing_plan_id":"cebpf4jnsgd1na2vs0mg"},{"bike_id":"1ee7715b-73b9-4e2e-aa2b-b18556ee2189","system_id":"levelo_inurba_marseille","lat":43.24383,"lon":5.37055,"is_reserved":false,"is_disabled":false,"rental_uris":{"android":"levelo://app?vid=1ee7715b-73b9-4e2e-aa2b-b18556ee2189","ios":"levelo://app?vid=1ee7715b-73b9-4e2e-aa2b-b18556ee2189"},"vehicle_type_id":"4","last_reported":1774690024,"current_range_meters":9600,"station_id":"ce4bhhh2rcd13ifvqfk0","pricing_plan_id":"cebpf4jnsgd1na2vs0mg"},{"bike_id":"3e138756-aff6-47d8-836d-fb1e49de29e4","system_id":"levelo_inurba_marseille","lat":43.27998,"lon":5.39295,"is_reserved":false,"is_disabled":false,"rental_uris":{"android":"levelo://app?vid=3e138756-aff6-47d8-836d-fb1e49de29e4","ios":"levelo://app?vid=3e138756-aff6-47d8-836d-fb1e49de29e4"},"vehicle_type_id":"4","last_reported":1774690024,"current_range_meters":9600,"station_id":"","pricing_plan_id":"cebpf4jnsgd1na2vs0mg"},{"bike_id":"d9275995-6199-47cd-9641-416f87712e15","system_id":"levelo_inurba_marseille","lat":43.23778,"lon":5.3662,"is_reserved":false,"is_disabled":false,"rental_uris":{"android":"levelo://app?vid=d9275995-6199-47cd-9641-416f87712e15","ios":"levelo://app?vid=d9275995-6199-47cd-9641-416f87712e15"},"vehicle_type_id":"4","last_reported":1774690024,"current_range_meters":9600,"station_id":"st_d3nk18o9ro0c73en2l3g","pricing_plan_id":"cebpf4jnsgd1na2vs0mg"},{"bike_id":"83b3a903-5feb-4b7c-a963-ae1f5a63239d","system_id":"levelo_inurba_marseille","lat":43.30157,"lon":5.39886,"is_reserved":false,"is_disabled":false,"rental_uris":{"android":"levelo://app?vid=83b3a903-5feb-4b7c-a963-ae1f5a63239d","ios":"levelo://app?vid=83b3a903-5feb-4b7c-a963-ae1f5a63239d"},"vehicle_type_id":"4","last_reported":1774690024,"current_range_meters":9600,"station_id":"ce4bh0h2rcd13ifvqd40","pricing_plan_id":"cebpf4jnsgd1na2vs0mg"},{"bike_id":"569432a5-5cde-4b94-8e33-2024cc91be78","system_id":"levelo_inurba_marseille","lat":43.267,"lon":5.38268,"is_reserved":false,"is_disabled":false,"rental_uris":{"android":"levelo://app?vid=569432a5-5cde-4b94-8e33-2024cc91be78","ios":"levelo://app?vid=569432a5-5cde-4b94-8e33-2024cc91be78"},"vehicle_type_id":"4","last_reported":1774690024,"current_range_meters":9600,"station_id":"ce4bhg92rcd13ifvqf90","pricing_plan_id":"cebpf4jnsgd1na2vs0mg"},{"bike_id":"56603236-0b6d-44e6-924a-3489e7c8fead","system_id":"levelo_inurba_marseille","lat":43.25741,"lon":5.38692,"is_reserved":false,"is_disabled":false,"rental_uris":{"android":"levelo://app?vid=56603236-0b6d-44e6-924a-3489e7c8fead","ios":"levelo://app?vid=56603236-0b6d-44e6-924a-3489e7c8fead"},"vehicle_type_id":"4","last_reported":1774690024,"current_range_meters":9600,"station_id":"","pricing_plan_id":"cebpf4jnsgd1na2vs0mg"},{"bike_id":"5ecab434-8e19-46ce-9cce-324a319f3a65","system_id":"levelo_inurba_marseille","lat":43.27306,"lon":5.39065,"is_reserved":false,"is_disabled":false,"rental_uris":{"android":"levelo://app?vid=5ecab434-8e19-46ce-9cce-324a319f3a65","ios":"levelo://app?vid=5ecab434-8e19-46ce-9cce-324a319f3a65"},"vehicle_type_id":"4","last_reported":1774690024,"current_range_meters":9600,"station_id":"ce4bhgp2rcd13ifvqfe0","pricing_plan_id":"cebpf4jnsgd1na2vs0mg"},{"bike_id":"efaa566c-b49e-41af-8cbe-3a0e00f5ff4f","system_id":"levelo_inurba_marseille","lat":43.27971,"lon":5.38714,"is_reserved":false,"is_disabled":false,"rental_uris":{"android":"levelo://app?vid=efaa566c-b49e-41af-8cbe-3a0e00f5ff4f","ios":"levelo://app?vid=efaa566c-b49e-41af-8cbe-3a0e00f5ff4f"},"vehicle_type_id":"4","last_reported":1774690024,"current_range_meters":9600,"station_id":"ce4bhg12rcd13ifvqf80","pricing_plan_id":"cebpf4jnsgd1na2vs0mg"},{"bike_id":"e3261f61-4629-470c-b4b8-3cbd6234fb0f","system_id":"levelo_inurba_marseille","lat":43.21741,"lon":5.34567,"is_reserved":false,"is_disabled":false,"rental_uris":{"android":"levelo://app?vid=e3261f61-4629-470c-b4b8-3cbd6234fb0f","ios":"levelo://app?vid=e3261f61-4629-470c-b4b8-3cbd6234fb0f"},"vehicle_type_id":"4","last_reported":1774690024,"current_range_meters":9600,"station_id":"st_cvj6r9ubvosntc0bgbag","pricing_plan_id":"cebpf4jnsgd1na2vs0mg"},{"bike_id":"bbd3f559-746b-40c2-866e-faf4351c115d","system_id":"levelo_inurba_marseille","lat":43.2446,"lon":5.37105,"is_reserved":false,"is_disabled":false,"rental_uris":{"android":"levelo://app?vid=bbd3f559-746b-40c2-866e-faf4351c115d","ios":"levelo://app?vid=bbd3f559-746b-40c2-866e-faf4351c115d"},"vehicle_type_id":"4","last_reported":1774690024,"current_range_meters":9600,"station_id":"ce4bhhh2rcd13ifvqfk0","pricing_plan_id":"cebpf4jnsgd1na2vs0mg"},{"bike_id":"2d66df27-f724-47e0-8997-7c4b2d275045","system_id":"levelo_inurba_marseille","lat":43.25093,"lon":5.39543,"is_reserved":false,"is_disabled":false,"rental_uris":{"android":"levelo://app?vid=2d66df27-f724-47e0-8997-7c4b2d275045","ios":"levelo://app?vid=2d66df27-f724-47e0-8997-7c4b2d275045"},"vehicle_type_id":"4","last_reported":1774690024,"current_range_meters":10000,"station_id":"ce4bhm12rcd13ifvqgkg","pricing_plan_id":"cebpf4jnsgd1na2vs0mg"},{"bike_id":"3137e3ea-7797-4cae-a237-2a996dd9ad4a","system_id":"levelo_inurba_marseille","lat":43.28481,"lon":5.48393,"is_reserved":false,"is_disabled":false,"rental_uris":{"android":"levelo://app?vid=3137e3ea-7797-4cae-a237-2a996dd9ad4a","ios":"levelo://app?vid=3137e3ea-7797-4cae-a237-2a996dd9ad4a"},"vehicle_type_id":"4","last_reported":1774690024,"current_range_meters":10000,"station_id":"","pricing_plan_id":"cebpf4jnsgd1na2vs0mg"},{"bike_id":"90e3b8ef-ae5b-4703-8e17-1bf3ba126212","system_id":"levelo_inurba_marseille","lat":43.30597,"lon":5.36714,"is_reserved":false,"is_disabled":true,"rental_uris":{"android":"levelo://app?vid=90e3b8ef-ae5b-4703-8e17-1bf3ba126212","ios":"levelo://app?vid=90e3b8ef-ae5b-4703-8e17-1bf3ba126212"},"vehicle_type_id":"4","last_reported":1774690024,"current_range_meters":10000,"station_id":"","pricing_plan_id":"cebpf4jnsgd1na2vs0mg"},{"bike_id":"4247c776-2951-4741-b1a8-85d5eef00372","system_id":"levelo_inurba_marseille","lat":43.27377,"lon":5.36266,"is_reserved":false,"is_disabled":false,"rental_uris":{"android":"levelo://app?vid=4247c776-2951-4741-b1a8-85d5eef00372","ios":"levelo://app?vid=4247c776-2951-4741-b1a8-85d5eef00372"},"vehicle_type_id":"4","last_reported":1774690024,"current_range_meters":10000,"station_id":"ce4bhbh2rcd13ifvqeo0","pricing_plan_id":"cebpf4jnsgd1na2vs0mg"},{"bike_id":"0f430097-8d5e-4a5a-9147-4fc5e40a362e","system_id":"levelo_inurba_marseille","lat":43.33546,"lon":5.37458,"is_reserved":false,"is_disabled":false,"rental_uris":{"android":"levelo://app?vid=0f430097-8d5e-4a5a-9147-4fc5e40a362e","ios":"levelo://app?vid=0f430097-8d5e-4a5a-9147-4fc5e40a362e"},"vehicle_type_id":"4","last_reported":1774690024,"current_range_meters":10000,"station_id":"st_d46tts09ee8s73dlu43g","pricing_plan_id":"cebpf4jnsgd1na2vs0mg"},{"bike_id":"17cb1fbf-e34f-4444-a40a-b87c388a4496","system_id":"levelo_inurba_marseille","lat":43.2929,"lon":5.40113,"is_reserved":false,"is_disabled":false,"rental_uris":{"android":"levelo://app?vid=17cb1fbf-e34f-4444-a40a-b87c388a4496","ios":"levelo://app?vid=17cb1fbf-e34f-4444-a40a-b87c388a4496"},"vehicle_type_id":"4","last_reported":1774690024,"current_range_meters":10000,"station_id":"ce4bh312rcd13ifvqdk0","pricing_plan_id":"cebpf4jnsgd1na2vs0mg"},{"bike_id":"54ea3d34-d79a-4ab1-886f-1335ba6b438a","system_id":"levelo_inurba_marseille","lat":43.30158,"lon":5.38097,"is_reserved":false,"is_disabled":true,"rental_uris":{"android":"levelo://app?vid=54ea3d34-d79a-4ab1-886f-1335ba6b438a","ios":"levelo://app?vid=54ea3d34-d79a-4ab1-886f-1335ba6b438a"},"vehicle_type_id":"4","last_reported":1774690024,"current_range_meters":10000,"station_id":"ce4bgjp2rcd13ifvqbh0","pricing_plan_id":"cebpf4jnsgd1na2vs0mg"},{"bike_id":"951ccfa0-2bbb-441f-98aa-0e6f6567daed","system_id":"levelo_inurba_marseille","lat":43.28704,"lon":5.37324,"is_reserved":false,"is_disabled":false,"rental_uris":{"android":"levelo://app?vid=951ccfa0-2bbb-441f-98aa-0e6f6567daed","ios":"levelo://app?vid=951ccfa0-2bbb-441f-98aa-0e6f6567daed"},"vehicle_type_id":"4","last_reported":1774690024,"current_range_meters":10000,"station_id":"ce4bh3p2rcd13ifvqdq0","pricing_plan_id":"cebpf4jnsgd1na2vs0mg"},{"bike_id":"59d87d96-b71d-4331-8ff0-128777265713","system_id":"levelo_inurba_marseille","lat":43.31098,"lon":5.37199,"is_reserved":false,"is_disabled":false,"rental_uris":{"android":"levelo://app?vid=59d87d96-b71d-4331-8ff0-128777265713","ios":"levelo://app?vid=59d87d96-b71d-4331-8ff0-128777265713"},"vehicle_type_id":"4","last_reported":1774690024,"current_range_meters":10000,"station_id":"","pricing_plan_id":"cebpf4jnsgd1na2vs0mg"},{"bike_id":"76201515-ae70-408c-82ba-b2d7c39b0327","system_id":"levelo_inurba_marseille","lat":43.25113,"lon":5.4036,"is_reserved":false,"is_disabled":false,"rental_uris":{"android":"levelo://app?vid=76201515-ae70-408c-82ba-b2d7c39b0327","ios":"levelo://app?vid=76201515-ae70-408c-82ba-b2d7c39b0327"},"vehicle_type_id":"4","last_reported":1774690024,"current_range_meters":10000,"station_id":"ce4bhlh2rcd13ifvqgig","pricing_plan_id":"cebpf4jnsgd1na2vs0mg"},{"bike_id":"2d0fdc3d-338a-4727-826c-caea44a0cbfa","system_id":"levelo_inurba_marseille","lat":43.29818,"lon":5.44067,"is_reserved":false,"is_disabled":false,"rental_uris":{"android":"levelo://app?vid=2d0fdc3d-338a-4727-826c-caea44a0cbfa","ios":"levelo://app?vid=2d0fdc3d-338a-4727-826c-caea44a0cbfa"},"vehicle_type_id":"4","last_reported":1774690024,"current_range_meters":10000,"station_id":"st_d3jp68qikq2c7381ktn0","pricing_plan_id":"cebpf4jnsgd1na2vs0mg"},{"bike_id":"eafa20c2-7226-49ab-bb69-ffecd53c4490","system_id":"levelo_inurba_marseille","lat":43.30877,"lon":5.37439,"is_reserved":false,"is_disabled":false,"rental_uris":{"android":"levelo://app?vid=eafa20c2-7226-49ab-bb69-ffecd53c4490","ios":"levelo://app?vid=eafa20c2-7226-49ab-bb69-ffecd53c4490"},"vehicle_type_id":"4","last_reported":1774690024,"current_range_meters":10000,"station_id":"","pricing_plan_id":"cebpf4jnsgd1na2vs0mg"},{"bike_id":"fee1fa78-99e1-418b-a173-a71cf30704c4","system_id":"levelo_inurba_marseille","lat":43.32356,"lon":5.38884,"is_reserved":false,"is_disabled":false,"rental_uris":{"android":"levelo://app?vid=fee1fa78-99e1-418b-a173-a71cf30704c4","ios":"levelo://app?vid=fee1fa78-99e1-418b-a173-a71cf30704c4"},"vehicle_type_id":"4","last_reported":1774690024,"current_range_meters":10000,"station_id":"ce4bhqp2rcd13ifvqhog","pricing_plan_id":"cebpf4jnsgd1na2vs0mg"},{"bike_id":"87170530-9799-4a30-9b3e-bf298fdd0529","system_id":"levelo_inurba_marseille","lat":43.25504,"lon":5.37624,"is_reserved":false,"is_disabled":false,"rental_uris":{"android":"levelo://app?vid=87170530-9799-4a30-9b3e-bf298fdd0529","ios":"levelo://app?vid=87170530-9799-4a30-9b3e-bf298fdd0529"},"vehicle_type_id":"4","last_reported":1774690024,"current_range_meters":10000,"station_id":"ce4bhh12rcd13ifvqff0","pricing_plan_id":"cebpf4jnsgd1na2vs0mg"},{"bike_id":"cf673de1-1d26-41b5-a98d-b09af0bc4834","system_id":"levelo_inurba_marseille","lat":43.2621,"lon":5.37449,"is_reserved":false,"is_disabled":false,"rental_uris":{"android":"levelo://app?vid=cf673de1-1d26-41b5-a98d-b09af0bc4834","ios":"levelo://app?vid=cf673de1-1d26-41b5-a98d-b09af0bc4834"},"vehicle_type_id":"4","last_reported":1774690024,"current_range_meters":10000,"station_id":"ce4bhgp2rcd13ifvqfc0","pricing_plan_id":"cebpf4jnsgd1na2vs0mg"},{"bike_id":"5dc7a0c1-467a-4151-97ef-a8a655c4f7a5","system_id":"levelo_inurba_marseille","lat":43.28509,"lon":5.48416,"is_reserved":false,"is_disabled":false,"rental_uris":{"android":"levelo://app?vid=5dc7a0c1-467a-4151-97ef-a8a655c4f7a5","ios":"levelo://app?vid=5dc7a0c1-467a-4151-97ef-a8a655c4f7a5"},"vehicle_type_id":"4","last_reported":1774690024,"current_range_meters":10000,"station_id":"","pricing_plan_id":"cebpf4jnsgd1na2vs0mg"},{"bike_id":"d29d0f21-b9be-447c-9d7b-ef2b0ae4109c","system_id":"levelo_inurba_marseille","lat":43.24843,"lon":5.37454,"is_reserved":false,"is_disabled":false,"rental_uris":{"android":"levelo://app?vid=d29d0f21-b9be-447c-9d7b-ef2b0ae4109c","ios":"levelo://app?vid=d29d0f21-b9be-447c-9d7b-ef2b0ae4109c"},"vehicle_type_id":"4","last_reported":1774690024,"current_range_meters":10000,"station_id":"","pricing_plan_id":"cebpf4jnsgd1na2vs0mg"},{"bike_id":"1bca506e-2c43-43d5-9cab-3f814da8f5fe","system_id":"levelo_inurba_marseille","lat":43.22582,"lon":5.4164,"is_reserved":false,"is_disabled":false,"rental_uris":{"android":"levelo://app?vid=1bca506e-2c43-43d5-9cab-3f814da8f5fe","ios":"levelo://app?vid=1bca506e-2c43-43d5-9cab-3f814da8f5fe"},"vehicle_type_id":"4","last_reported":1774690024,"current_range_meters":10000,"station_id":"st_d2o4gvlbi1j2169b742g","pricing_plan_id":"cebpf4jnsgd1na2vs0mg"},{"bike_id":"6cd08817-61b4-4fc1-aeda-8267dd2c4320","system_id":"levelo_inurba_marseille","lat":43.28534,"lon":5.44118,"is_reserved":false,"is_disabled":false,"rental_uris":{"android":"levelo://app?vid=6cd08817-61b4-4fc1-aeda-8267dd2c4320","ios":"levelo://app?vid=6cd08817-61b4-4fc1-aeda-8267dd2c4320"},"vehicle_type_id":"4","last_reported":1774690024,"current_range_meters":10000,"station_id":"st_d3j3df2ikq2c7380ej80","pricing_plan_id":"cebpf4jnsgd1na2vs0mg"},{"bike_id":"28169216-3d0b-4a30-ba65-3a37ea4153c8","system_id":"levelo_inurba_marseille","lat":43.29514,"lon":5.39398,"is_reserved":false,"is_disabled":false,"rental_uris":{"android":"levelo://app?vid=28169216-3d0b-4a30-ba65-3a37ea4153c8","ios":"levelo://app?vid=28169216-3d0b-4a30-ba65-3a37ea4153c8"},"vehicle_type_id":"4","last_reported":1774690024,"current_range_meters":10000,"station_id":"ce4bh292rcd13ifvqdf0","pricing_plan_id":"cebpf4jnsgd1na2vs0mg"},{"bike_id":"36151535-1ff4-49e4-ba51-cea35ca8aa56","system_id":"levelo_inurba_marseille","lat":43.29278,"lon":5.36856,"is_reserved":false,"is_disabled":false,"rental_uris":{"android":"levelo://app?vid=36151535-1ff4-49e4-ba51-cea35ca8aa56","ios":"levelo://app?vid=36151535-1ff4-49e4-ba51-cea35ca8aa56"},"vehicle_type_id":"4","last_reported":1774690024,"current_range_meters":10000,"station_id":"ce4bhbp2rcd13ifvqesg","pricing_plan_id":"cebpf4jnsgd1na2vs0mg"},{"bike_id":"bb9f5d06-809f-4fed-8307-f7c133f13b91","system_id":"levelo_inurba_marseille","lat":43.23788,"lon":5.3664,"is_reserved":false,"is_disabled":false,"rental_uris":{"android":"levelo://app?vid=bb9f5d06-809f-4fed-8307-f7c133f13b91","ios":"levelo://app?vid=bb9f5d06-809f-4fed-8307-f7c133f13b91"},"vehicle_type_id":"4","last_reported":1774690024,"current_range_meters":10000,"station_id":"st_d3nk18o9ro0c73en2l3g","pricing_plan_id":"cebpf4jnsgd1na2vs0mg"},{"bike_id":"3d10a6dc-5b60-415d-a695-11f58537a955","system_id":"levelo_inurba_marseille","lat":43.24553,"lon":5.39533,"is_reserved":false,"is_disabled":false,"rental_uris":{"android":"levelo://app?vid=3d10a6dc-5b60-415d-a695-11f58537a955","ios":"levelo://app?vid=3d10a6dc-5b60-415d-a695-11f58537a955"},"vehicle_type_id":"4","last_reported":1774690024,"current_range_meters":10000,"station_id":"ce4bhlp2rcd13ifvqgjg","pricing_plan_id":"cebpf4jnsgd1na2vs0mg"},{"bike_id":"4d3dec46-82cf-4e15-990a-2b33630d5d35","system_id":"levelo_inurba_marseille","lat":43.28673,"lon":5.38653,"is_reserved":false,"is_disabled":false,"rental_uris":{"android":"levelo://app?vid=4d3dec46-82cf-4e15-990a-2b33630d5d35","ios":"levelo://app?vid=4d3dec46-82cf-4e15-990a-2b33630d5d35"},"vehicle_type_id":"4","last_reported":1774690024,"current_range_meters":10000,"station_id":"ce4bh492rcd13ifvqdug","pricing_plan_id":"cebpf4jnsgd1na2vs0mg"},{"bike_id":"4c9a3293-f2c3-4e99-b5e1-94195ca699a4","system_id":"levelo_inurba_marseille","lat":43.28547,"lon":5.44113,"is_reserved":false,"is_disabled":false,"rental_uris":{"android":"levelo://app?vid=4c9a3293-f2c3-4e99-b5e1-94195ca699a4","ios":"levelo://app?vid=4c9a3293-f2c3-4e99-b5e1-94195ca699a4"},"vehicle_type_id":"4","last_reported":1774690024,"current_range_meters":10000,"station_id":"st_d3j3df2ikq2c7380ej80","pricing_plan_id":"cebpf4jnsgd1na2vs0mg"},{"bike_id":"0ed2d725-673b-43dd-a6ea-74f591570983","system_id":"levelo_inurba_marseille","lat":43.29229,"lon":5.36084,"is_reserved":false,"is_disabled":false,"rental_uris":{"android":"levelo://app?vid=0ed2d725-673b-43dd-a6ea-74f591570983","ios":"levelo://app?vid=0ed2d725-673b-43dd-a6ea-74f591570983"},"vehicle_type_id":"4","last_reported":1774690024,"current_range_meters":10000,"station_id":"ce4bhbh2rcd13ifvqeqg","pricing_plan_id":"cebpf4jnsgd1na2vs0mg"},{"bike_id":"a08064b0-a78c-4cdd-9372-43edbf696f68","system_id":"levelo_inurba_marseille","lat":43.24395,"lon":5.37072,"is_reserved":false,"is_disabled":false,"rental_uris":{"android":"levelo://app?vid=a08064b0-a78c-4cdd-9372-43edbf696f68","ios":"levelo://app?vid=a08064b0-a78c-4cdd-9372-43edbf696f68"},"vehicle_type_id":"4","last_reported":1774690024,"current_range_meters":10000,"station_id":"ce4bhhh2rcd13ifvqfk0","pricing_plan_id":"cebpf4jnsgd1na2vs0mg"},{"bike_id":"fe9a38b6-cbaa-4888-bd1a-9b15a5e669db","system_id":"levelo_inurba_marseille","lat":43.2894,"lon":5.36407,"is_reserved":false,"is_disabled":false,"rental_uris":{"android":"levelo://app?vid=fe9a38b6-cbaa-4888-bd1a-9b15a5e669db","ios":"levelo://app?vid=fe9a38b6-cbaa-4888-bd1a-9b15a5e669db"},"vehicle_type_id":"4","last_reported":1774690024,"current_range_meters":10000,"station_id":"ce4bhc92rcd13ifvqetg","pricing_plan_id":"cebpf4jnsgd1na2vs0mg"},{"bike_id":"ad2a7325-f4cd-4376-af91-acc9a9d762fc","system_id":"levelo_inurba_marseille","lat":43.22561,"lon":5.41627,"is_reserved":false,"is_disabled":false,"rental_uris":{"android":"levelo://app?vid=ad2a7325-f4cd-4376-af91-acc9a9d762fc","ios":"levelo://app?vid=ad2a7325-f4cd-4376-af91-acc9a9d762fc"},"vehicle_type_id":"4","last_reported":1774690024,"current_range_meters":10800,"station_id":"st_d2o4gvlbi1j2169b742g","pricing_plan_id":"cebpf4jnsgd1na2vs0mg"},{"bike_id":"a2a2ad88-0315-4b91-8556-c96d33780371","system_id":"levelo_inurba_marseille","lat":43.29264,"lon":5.3762,"is_reserved":false,"is_disabled":false,"rental_uris":{"android":"levelo://app?vid=a2a2ad88-0315-4b91-8556-c96d33780371","ios":"levelo://app?vid=a2a2ad88-0315-4b91-8556-c96d33780371"},"vehicle_type_id":"4","last_reported":1774690024,"current_range_meters":10800,"station_id":"ce4bgi12rcd13ifvqb80","pricing_plan_id":"cebpf4jnsgd1na2vs0mg"},{"bike_id":"970c0018-efd3-4265-ba0d-669fd24b3e90","system_id":"levelo_inurba_marseille","lat":43.30959,"lon":5.3903,"is_reserved":false,"is_disabled":true,"rental_uris":{"android":"levelo://app?vid=970c0018-efd3-4265-ba0d-669fd24b3e90","ios":"levelo://app?vid=970c0018-efd3-4265-ba0d-669fd24b3e90"},"vehicle_type_id":"4","last_reported":1774690024,"current_range_meters":10800,"station_id":"ce4bgup2rcd13ifvqco0","pricing_plan_id":"cebpf4jnsgd1na2vs0mg"},{"bike_id":"2934d88c-6221-44dd-bee3-989a0775ea80","system_id":"levelo_inurba_marseille","lat":43.31043,"lon":5.37154,"is_reserved":false,"is_disabled":false,"rental_uris":{"android":"levelo://app?vid=2934d88c-6221-44dd-bee3-989a0775ea80","ios":"levelo://app?vid=2934d88c-6221-44dd-bee3-989a0775ea80"},"vehicle_type_id":"4","last_reported":1774690024,"current_range_meters":10800,"station_id":"st_d4kl2rp97mjs73e7tdfg","pricing_plan_id":"cebpf4jnsgd1na2vs0mg"},{"bike_id":"f09e609e-75e6-4f5e-80b5-321c56203fc0","system_id":"levelo_inurba_marseille","lat":43.29546,"lon":5.36523,"is_reserved":false,"is_disabled":false,"rental_uris":{"android":"levelo://app?vid=f09e609e-75e6-4f5e-80b5-321c56203fc0","ios":"levelo://app?vid=f09e609e-75e6-4f5e-80b5-321c56203fc0"},"vehicle_type_id":"4","last_reported":1774690024,"current_range_meters":10800,"station_id":"","pricing_plan_id":"cebpf4jnsgd1na2vs0mg"},{"bike_id":"8f2036f2-3cbb-4125-b20c-f04e5c7ad65b","system_id":"levelo_inurba_marseille","lat":43.30147,"lon":5.38079,"is_reserved":false,"is_disabled":false,"rental_uris":{"android":"levelo://app?vid=8f2036f2-3cbb-4125-b20c-f04e5c7ad65b","ios":"levelo://app?vid=8f2036f2-3cbb-4125-b20c-f04e5c7ad65b"},"vehicle_type_id":"4","last_reported":1774690024,"current_range_meters":10800,"station_id":"ce4bgjp2rcd13ifvqbh0","pricing_plan_id":"cebpf4jnsgd1na2vs0mg"},{"bike_id":"e999a6a6-d09b-4968-8512-64c2383e1a59","system_id":"levelo_inurba_marseille","lat":43.28471,"lon":5.38404,"is_reserved":false,"is_disabled":false,"rental_uris":{"android":"levelo://app?vid=e999a6a6-d09b-4968-8512-64c2383e1a59","ios":"levelo://app?vid=e999a6a6-d09b-4968-8512-64c2383e1a59"},"vehicle_type_id":"4","last_reported":1774690024,"current_range_meters":10800,"station_id":"ce4bh512rcd13ifvqe3g","pricing_plan_id":"cebpf4jnsgd1na2vs0mg"},{"bike_id":"18ec0625-d38d-48d7-9164-8c699eec9e85","system_id":"levelo_inurba_marseille","lat":43.30142,"lon":5.39873,"is_reserved":false,"is_disabled":false,"rental_uris":{"android":"levelo://app?vid=18ec0625-d38d-48d7-9164-8c699eec9e85","ios":"levelo://app?vid=18ec0625-d38d-48d7-9164-8c699eec9e85"},"vehicle_type_id":"4","last_reported":1774690024,"current_range_meters":10800,"station_id":"ce4bh0h2rcd13ifvqd40","pricing_plan_id":"cebpf4jnsgd1na2vs0mg"},{"bike_id":"01dcc41e-b224-46dd-9978-f03710dacd8a","system_id":"levelo_inurba_marseille","lat":43.22934,"lon":5.35381,"is_reserved":false,"is_disabled":false,"rental_uris":{"android":"levelo://app?vid=01dcc41e-b224-46dd-9978-f03710dacd8a","ios":"levelo://app?vid=01dcc41e-b224-46dd-9978-f03710dacd8a"},"vehicle_type_id":"4","last_reported":1774690024,"current_range_meters":10800,"station_id":"cpo3532slgdg3j2ikp40","pricing_plan_id":"cebpf4jnsgd1na2vs0mg"},{"bike_id":"54d59b78-7956-4409-9fb8-cb1bd7cba00e","system_id":"levelo_inurba_marseille","lat":43.2923,"lon":5.39345,"is_reserved":false,"is_disabled":false,"rental_uris":{"android":"levelo://app?vid=54d59b78-7956-4409-9fb8-cb1bd7cba00e","ios":"levelo://app?vid=54d59b78-7956-4409-9fb8-cb1bd7cba00e"},"vehicle_type_id":"4","last_reported":1774690024,"current_range_meters":10800,"station_id":"","pricing_plan_id":"cebpf4jnsgd1na2vs0mg"},{"bike_id":"520636f1-9254-48fe-93cc-9a8d202240e5","system_id":"levelo_inurba_marseille","lat":43.26932,"lon":5.40279,"is_reserved":false,"is_disabled":false,"rental_uris":{"android":"levelo://app?vid=520636f1-9254-48fe-93cc-9a8d202240e5","ios":"levelo://app?vid=520636f1-9254-48fe-93cc-9a8d202240e5"},"vehicle_type_id":"4","last_reported":1774690024,"current_range_meters":10800,"station_id":"cjm6bp8fraef2m0cb0m0","pricing_plan_id":"cebpf4jnsgd1na2vs0mg"},{"bike_id":"35747b8b-fdfa-4f37-8571-bb4eabaeb8d1","system_id":"levelo_inurba_marseille","lat":43.26208,"lon":5.37458,"is_reserved":false,"is_disabled":false,"rental_uris":{"android":"levelo://app?vid=35747b8b-fdfa-4f37-8571-bb4eabaeb8d1","ios":"levelo://app?vid=35747b8b-fdfa-4f37-8571-bb4eabaeb8d1"},"vehicle_type_id":"4","last_reported":1774690024,"current_range_meters":10800,"station_id":"ce4bhgp2rcd13ifvqfc0","pricing_plan_id":"cebpf4jnsgd1na2vs0mg"},{"bike_id":"11fdd377-5b7d-4312-a8a0-25099c42fcc9","system_id":"levelo_inurba_marseille","lat":43.24816,"lon":5.37455,"is_reserved":false,"is_disabled":false,"rental_uris":{"android":"levelo://app?vid=11fdd377-5b7d-4312-a8a0-25099c42fcc9","ios":"levelo://app?vid=11fdd377-5b7d-4312-a8a0-25099c42fcc9"},"vehicle_type_id":"4","last_reported":1774690024,"current_range_meters":10800,"station_id":"ce4bhgh2rcd13ifvqfb0","pricing_plan_id":"cebpf4jnsgd1na2vs0mg"},{"bike_id":"25a215c0-6185-4988-a946-459e463e94c2","system_id":"levelo_inurba_marseille","lat":43.28598,"lon":5.35036,"is_reserved":false,"is_disabled":false,"rental_uris":{"android":"levelo://app?vid=25a215c0-6185-4988-a946-459e463e94c2","ios":"levelo://app?vid=25a215c0-6185-4988-a946-459e463e94c2"},"vehicle_type_id":"4","last_reported":1774690024,"current_range_meters":10800,"station_id":"ce4bhch2rcd13ifvqeug","pricing_plan_id":"cebpf4jnsgd1na2vs0mg"},{"bike_id":"58acc0d2-0554-4fcd-87a6-086f9414e8d7","system_id":"levelo_inurba_marseille","lat":43.27986,"lon":5.41662,"is_reserved":false,"is_disabled":false,"rental_uris":{"android":"levelo://app?vid=58acc0d2-0554-4fcd-87a6-086f9414e8d7","ios":"levelo://app?vid=58acc0d2-0554-4fcd-87a6-086f9414e8d7"},"vehicle_type_id":"4","last_reported":1774690024,"current_range_meters":10800,"station_id":"ce4bho12rcd13ifvqh1g","pricing_plan_id":"cebpf4jnsgd1na2vs0mg"},{"bike_id":"dcddd6f4-f750-4f90-ae83-25c178716cb7","system_id":"levelo_inurba_marseille","lat":43.28865,"lon":5.42518,"is_reserved":false,"is_disabled":false,"rental_uris":{"android":"levelo://app?vid=dcddd6f4-f750-4f90-ae83-25c178716cb7","ios":"levelo://app?vid=dcddd6f4-f750-4f90-ae83-25c178716cb7"},"vehicle_type_id":"4","last_reported":1774690024,"current_range_meters":10800,"station_id":"st_d3b462108ojc7389ooeg","pricing_plan_id":"cebpf4jnsgd1na2vs0mg"},{"bike_id":"831afe97-5b46-40a3-b3a8-9267430cd93d","system_id":"levelo_inurba_marseille","lat":43.22942,"lon":5.35386,"is_reserved":false,"is_disabled":false,"rental_uris":{"android":"levelo://app?vid=831afe97-5b46-40a3-b3a8-9267430cd93d","ios":"levelo://app?vid=831afe97-5b46-40a3-b3a8-9267430cd93d"},"vehicle_type_id":"4","last_reported":1774690024,"current_range_meters":10800,"station_id":"cpo3532slgdg3j2ikp40","pricing_plan_id":"cebpf4jnsgd1na2vs0mg"},{"bike_id":"fc16f43c-cec5-468e-9b08-d26e110789e4","system_id":"levelo_inurba_marseille","lat":43.30058,"lon":5.40336,"is_reserved":false,"is_disabled":false,"rental_uris":{"android":"levelo://app?vid=fc16f43c-cec5-468e-9b08-d26e110789e4","ios":"levelo://app?vid=fc16f43c-cec5-468e-9b08-d26e110789e4"},"vehicle_type_id":"4","last_reported":1774690024,"current_range_meters":10800,"station_id":"","pricing_plan_id":"cebpf4jnsgd1na2vs0mg"},{"bike_id":"11c5ecd7-6a3f-47a0-8af7-8ee5dc95659b","system_id":"levelo_inurba_marseille","lat":43.29515,"lon":5.43304,"is_reserved":false,"is_disabled":false,"rental_uris":{"android":"levelo://app?vid=11c5ecd7-6a3f-47a0-8af7-8ee5dc95659b","ios":"levelo://app?vid=11c5ecd7-6a3f-47a0-8af7-8ee5dc95659b"},"vehicle_type_id":"4","last_reported":1774690024,"current_range_meters":11200,"station_id":"st_d3j5ugp08ojc73fj9d10","pricing_plan_id":"cebpf4jnsgd1na2vs0mg"},{"bike_id":"253bfbd1-c3f6-4b72-a716-55890f3b4db7","system_id":"levelo_inurba_marseille","lat":43.28482,"lon":5.4842,"is_reserved":false,"is_disabled":false,"rental_uris":{"android":"levelo://app?vid=253bfbd1-c3f6-4b72-a716-55890f3b4db7","ios":"levelo://app?vid=253bfbd1-c3f6-4b72-a716-55890f3b4db7"},"vehicle_type_id":"4","last_reported":1774690024,"current_range_meters":11200,"station_id":"","pricing_plan_id":"cebpf4jnsgd1na2vs0mg"},{"bike_id":"aeca9453-ce08-40c1-8c68-c50a96f12fa4","system_id":"levelo_inurba_marseille","lat":43.28598,"lon":5.35067,"is_reserved":false,"is_disabled":false,"rental_uris":{"android":"levelo://app?vid=aeca9453-ce08-40c1-8c68-c50a96f12fa4","ios":"levelo://app?vid=aeca9453-ce08-40c1-8c68-c50a96f12fa4"},"vehicle_type_id":"4","last_reported":1774690024,"current_range_meters":11200,"station_id":"ce4bhch2rcd13ifvqeug","pricing_plan_id":"cebpf4jnsgd1na2vs0mg"},{"bike_id":"1788e0ee-de39-4f42-a4d1-33cff7619605","system_id":"levelo_inurba_marseille","lat":43.2847,"lon":5.35881,"is_reserved":false,"is_disabled":false,"rental_uris":{"android":"levelo://app?vid=1788e0ee-de39-4f42-a4d1-33cff7619605","ios":"levelo://app?vid=1788e0ee-de39-4f42-a4d1-33cff7619605"},"vehicle_type_id":"4","last_reported":1774690024,"current_range_meters":11200,"station_id":"ce4bhah2rcd13ifvqei0","pricing_plan_id":"cebpf4jnsgd1na2vs0mg"},{"bike_id":"3e9021df-61c3-4574-8758-b3eb84370bd2","system_id":"levelo_inurba_marseille","lat":43.2438,"lon":5.37045,"is_reserved":false,"is_disabled":false,"rental_uris":{"android":"levelo://app?vid=3e9021df-61c3-4574-8758-b3eb84370bd2","ios":"levelo://app?vid=3e9021df-61c3-4574-8758-b3eb84370bd2"},"vehicle_type_id":"4","last_reported":1774690024,"current_range_meters":11200,"station_id":"ce4bhhh2rcd13ifvqfk0","pricing_plan_id":"cebpf4jnsgd1na2vs0mg"},{"bike_id":"9ac5ac09-4dcd-43d1-ac91-8b63c353f5d3","system_id":"levelo_inurba_marseille","lat":43.2792,"lon":5.41028,"is_reserved":false,"is_disabled":false,"rental_uris":{"android":"levelo://app?vid=9ac5ac09-4dcd-43d1-ac91-8b63c353f5d3","ios":"levelo://app?vid=9ac5ac09-4dcd-43d1-ac91-8b63c353f5d3"},"vehicle_type_id":"4","last_reported":1774690024,"current_range_meters":11200,"station_id":"ce4bhnp2rcd13ifvqh0g","pricing_plan_id":"cebpf4jnsgd1na2vs0mg"},{"bike_id":"b236f643-53ba-43fa-b29d-c90773116eb2","system_id":"levelo_inurba_marseille","lat":43.24477,"lon":5.42547,"is_reserved":false,"is_disabled":false,"rental_uris":{"android":"levelo://app?vid=b236f643-53ba-43fa-b29d-c90773116eb2","ios":"levelo://app?vid=b236f643-53ba-43fa-b29d-c90773116eb2"},