{"last_updated":1738793308,"ttl":60,"version":"2.2","data":{"bikes":[{"bike_id":"f2b9350d-5244-4ead-9684-289d3a400861","system_id":"levelo_inurba_marseille","lat":43.28734,"lon":5.36111,"is_reserved":false,"is_disabled":false,"rental_uris":{"android":"levelo://app?vid=f2b9350d-5244-4ead-9684-289d3a400861","ios":"levelo://app?vid=f2b9350d-5244-4ead-9684-289d3a400861"},"vehicle_type_id":"4","last_reported":1738793309,"current_range_meters":34000,"station_id":"cki0cbj6b192h4jlfktg","pricing_plan_id":"cebpf4jnsgd1na2vs0mg"},{"bike_id":"5c30c709-e546-4a60-a782-8ef25eddc77e","system_id":"levelo_inurba_marseille","lat":43.30411,"lon":5.41304,"is_reserved":false,"is_disabled":false,"rental_uris":{"android":"levelo://app?vid=5c30c709-e546-4a60-a782-8ef25eddc77e","ios":"levelo://app?vid=5c30c709-e546-4a60-a782-8ef25eddc77e"},"vehicle_type_id":"4","last_reported":1738793309,"current_range_meters":38800,"station_id":"ce4bhop2rcd13ifvqh8g","pricing_plan_id":"cebpf4jnsgd1na2vs0mg"},{"bike_id":"4927017d-00a4-41ad-adcc-553dace88671","system_id":"levelo_inurba_marseille","lat":43.33613,"lon":5.40973,"is_reserved":false,"is_disabled":true,"rental_uris":{"android":"levelo://app?vid=4927017d-00a4-41ad-adcc-553dace88671","ios":"levelo://app?vid=4927017d-00a4-41ad-adcc-553dace88671"},"vehicle_type_id":"4","last_reported":1738793309,"current_range_meters":39200,"station_id":"ce4bhqh2rcd13ifvqhmg","pricing_plan_id":"cebpf4jnsgd1na2vs0mg"},{"bike_id":"eaaf8654-8746-4687-b134-6cab9927ea37","system_id":"levelo_inurba_marseille","lat":43.29034,"lon":5.38641,"is_reserved":false,"is_disabled":false,"rental_uris":{"android":"levelo://app?vid=eaaf8654-8746-4687-b134-6cab9927ea37","ios":"levelo://app?vid=eaaf8654-8746-4687-b134-6cab9927ea37"},"vehicle_type_id":"4","last_reported":1738793309,"current_range_meters":24000,"station_id":"ce4bh4p2rcd13ifvqe0g","pricing_plan_id":"cebpf4jnsgd1na2vs0mg"},{"bike_id":"8c944e44-bfd5-44d6-ac5c-2b2bd433c5b2","system_id":"levelo_inurba_marseille","lat":43.24666,"lon":5.38169,"is_reserved":false,"is_disabled":false,"rental_uris":{"android":"levelo://app?vid=8c944e44-bfd5-44d6-ac5c-2b2bd433c5b2","ios":"levelo://app?vid=8c944e44-bfd5-44d6-ac5c-2b2bd433c5b2"},"vehicle_type_id":"4","last_reported":1738793309,"current_range_meters":6800,"station_id":"ce4bhih2rcd13ifvqfr0","pricing_plan_id":"cebpf4jnsgd1na2vs0mg"},{"bike_id":"352a5d6f-9d2f-4964-a85f-6446cb06a6af","system_id":"levelo_inurba_marseille","lat":43.29007,"lon":5.35621,"is_reserved":false,"is_disabled":false,"rental_uris":{"android":"levelo://app?vid=352a5d6f-9d2f-4964-a85f-6446cb06a6af","ios":"levelo://app?vid=352a5d6f-9d2f-4964-a85f-6446cb06a6af"},"vehicle_type_id":"4","last_reported":1738793309,"current_range_meters":38000,"station_id":"ce4bhb92rcd13ifvqen0","pricing_plan_id":"cebpf4jnsgd1na2vs0mg"},{"bike_id":"22072124-3fc8-4458-8fd2-fef60edb4e69","system_id":"levelo_inurba_marseille","lat":43.29558,"lon":5.38553,"is_reserved":false,"is_disabled":false,"rental_uris":{"android":"levelo://app?vid=22072124-3fc8-4458-8fd2-fef60edb4e69","ios":"levelo://app?vid=22072124-3fc8-4458-8fd2-fef60edb4e69"},"vehicle_type_id":"4","last_reported":1738793309,"current_range_meters":24800,"station_id":"ce4bgih2rcd13ifvqba0","pricing_plan_id":"cebpf4jnsgd1na2vs0mg"},{"bike_id":"484fc54b-5bc7-4c63-8298-15c602b55c98","system_id":"levelo_inurba_marseille","lat":43.31166,"lon":5.38726,"is_reserved":false,"is_disabled":false,"rental_uris":{"android":"levelo://app?vid=484fc54b-5bc7-4c63-8298-15c602b55c98","ios":"levelo://app?vid=484fc54b-5bc7-4c63-8298-15c602b55c98"},"vehicle_type_id":"4","last_reported":1738793309,"current_range_meters":17200,"station_id":"ce4bgv12rcd13ifvqcp0","pricing_plan_id":"cebpf4jnsgd1na2vs0mg"},{"bike_id":"621c36c0-c19f-40c3-94c0-fd010ec31edc","system_id":"levelo_inurba_marseille","lat":43.29281,"lon":5.40156,"is_reserved":false,"is_disabled":false,"rental_uris":{"android":"levelo://app?vid=621c36c0-c19f-40c3-94c0-fd010ec31edc","ios":"levelo://app?vid=621c36c0-c19f-40c3-94c0-fd010ec31edc"},"vehicle_type_id":"4","last_reported":1738793309,"current_range_meters":19200,"station_id":"ce4bh312rcd13ifvqdk0","pricing_plan_id":"cebpf4jnsgd1na2vs0mg"},{"bike_id":"de77c34e-57b0-44c6-b9ab-20e40d988908","system_id":"levelo_inurba_marseille","lat":43.29042,"lon":5.3861,"is_reserved":false,"is_disabled":false,"rental_uris":{"android":"levelo://app?vid=de77c34e-57b0-44c6-b9ab-20e40d988908","ios":"levelo://app?vid=de77c34e-57b0-44c6-b9ab-20e40d988908"},"vehicle_type_id":"4","last_reported":1738793309,"current_range_meters":30000,"station_id":"ce4bh4p2rcd13ifvqe0g","pricing_plan_id":"cebpf4jnsgd1na2vs0mg"},{"bike_id":"695c8903-2a1f-4f36-ae79-da101aaac2a2","system_id":"levelo_inurba_marseille","lat":43.23189,"lon":5.39994,"is_reserved":false,"is_disabled":false,"rental_uris":{"android":"levelo://app?vid=695c8903-2a1f-4f36-ae79-da101aaac2a2","ios":"levelo://app?vid=695c8903-2a1f-4f36-ae79-da101aaac2a2"},"vehicle_type_id":"4","last_reported":1738793309,"current_range_meters":19600,"station_id":"ce4bhn12rcd13ifvqgqg","pricing_plan_id":"cebpf4jnsgd1na2vs0mg"},{"bike_id":"60efba71-1f79-4331-8e03-d1cbb62a05fd","system_id":"levelo_inurba_marseille","lat":43.23189,"lon":5.39994,"is_reserved":false,"is_disabled":false,"rental_uris":{"android":"levelo://app?vid=60efba71-1f79-4331-8e03-d1cbb62a05fd","ios":"levelo://app?vid=60efba71-1f79-4331-8e03-d1cbb62a05fd"},"vehicle_type_id":"4","last_reported":1738793309,"current_range_meters":20400,"station_id":"ce4bhn12rcd13ifvqgqg","pricing_plan_id":"cebpf4jnsgd1na2vs0mg"},{"bike_id":"6a23f797-11a4-4294-9e28-4b97788b1eff","system_id":"levelo_inurba_marseille","lat":43.29787,"lon":5.39343,"is_reserved":false,"is_disabled":false,"rental_uris":{"android":"levelo://app?vid=6a23f797-11a4-4294-9e28-4b97788b1eff","ios":"levelo://app?vid=6a23f797-11a4-4294-9e28-4b97788b1eff"},"vehicle_type_id":"4","last_reported":1738793309,"current_range_meters":29600,"station_id":"chh1huq6cuj3fo74tm60","pricing_plan_id":"cebpf4jnsgd1na2vs0mg"},{"bike_id":"57063e1f-c82d-4dec-a47a-2d22341b0a6c","system_id":"levelo_inurba_marseille","lat":43.30787,"lon":5.37649,"is_reserved":false,"is_disabled":false,"rental_uris":{"android":"levelo://app?vid=57063e1f-c82d-4dec-a47a-2d22341b0a6c","ios":"levelo://app?vid=57063e1f-c82d-4dec-a47a-2d22341b0a6c"},"vehicle_type_id":"4","last_reported":1738793309,"current_range_meters":36400,"station_id":"ce4bgv92rcd13ifvqcq0","pricing_plan_id":"cebpf4jnsgd1na2vs0mg"},{"bike_id":"991c7de2-eee4-4288-bb1b-b211acf198b1","system_id":"levelo_inurba_marseille","lat":43.29557,"lon":5.38561,"is_reserved":false,"is_disabled":false,"rental_uris":{"android":"levelo://app?vid=991c7de2-eee4-4288-bb1b-b211acf198b1","ios":"levelo://app?vid=991c7de2-eee4-4288-bb1b-b211acf198b1"},"vehicle_type_id":"4","last_reported":1738793309,"current_range_meters":10000,"station_id":"ce4bgih2rcd13ifvqba0","pricing_plan_id":"cebpf4jnsgd1na2vs0mg"},{"bike_id":"a8544cd9-a18d-422a-9580-7b05d2524da6","system_id":"levelo_inurba_marseille","lat":43.28775,"lon":5.37994,"is_reserved":false,"is_disabled":false,"rental_uris":{"android":"levelo://app?vid=a8544cd9-a18d-422a-9580-7b05d2524da6","ios":"levelo://app?vid=a8544cd9-a18d-422a-9580-7b05d2524da6"},"vehicle_type_id":"4","last_reported":1738793309,"current_range_meters":17200,"station_id":"ce4bh9p2rcd13ifvqec0","pricing_plan_id":"cebpf4jnsgd1na2vs0mg"},{"bike_id":"ff728d37-644f-4748-ac0f-45f4126bf085","system_id":"levelo_inurba_marseille","lat":43.29254,"lon":5.38443,"is_reserved":false,"is_disabled":false,"rental_uris":{"android":"levelo://app?vid=ff728d37-644f-4748-ac0f-45f4126bf085","ios":"levelo://app?vid=ff728d37-644f-4748-ac0f-45f4126bf085"},"vehicle_type_id":"4","last_reported":1738793309,"current_range_meters":24000,"station_id":"ce4bh692rcd13ifvqea0","pricing_plan_id":"cebpf4jnsgd1na2vs0mg"},{"bike_id":"96559f85-f0b0-4a89-9803-99a731c200eb","system_id":"levelo_inurba_marseille","lat":43.31321,"lon":5.38529,"is_reserved":false,"is_disabled":false,"rental_uris":{"android":"levelo://app?vid=96559f85-f0b0-4a89-9803-99a731c200eb","ios":"levelo://app?vid=96559f85-f0b0-4a89-9803-99a731c200eb"},"vehicle_type_id":"4","last_reported":1738793309,"current_range_meters":36800,"station_id":"","pricing_plan_id":"cebpf4jnsgd1na2vs0mg"},{"bike_id":"c47151b7-6300-4d10-af3b-e7f427fdce45","system_id":"levelo_inurba_marseille","lat":43.29753,"lon":5.37661,"is_reserved":false,"is_disabled":true,"rental_uris":{"android":"levelo://app?vid=c47151b7-6300-4d10-af3b-e7f427fdce45","ios":"levelo://app?vid=c47151b7-6300-4d10-af3b-e7f427fdce45"},"vehicle_type_id":"4","last_reported":1738793309,"current_range_meters":24000,"station_id":"","pricing_plan_id":"cebpf4jnsgd1na2vs0mg"},{"bike_id":"5096573c-91b5-4931-902e-4b97b22bd12d","system_id":"levelo_inurba_marseille","lat":43.2514,"lon":5.40316,"is_reserved":false,"is_disabled":false,"rental_uris":{"android":"levelo://app?vid=5096573c-91b5-4931-902e-4b97b22bd12d","ios":"levelo://app?vid=5096573c-91b5-4931-902e-4b97b22bd12d"},"vehicle_type_id":"4","last_reported":1738793309,"current_range_meters":20400,"station_id":"ce4bhlh2rcd13ifvqgig","pricing_plan_id":"cebpf4jnsgd1na2vs0mg"},{"bike_id":"af7d62a3-9dd4-4a14-8ce3-460ca17c81d5","system_id":"levelo_inurba_marseille","lat":43.33048,"lon":5.39049,"is_reserved":false,"is_disabled":false,"rental_uris":{"android":"levelo://app?vid=af7d62a3-9dd4-4a14-8ce3-460ca17c81d5","ios":"levelo://app?vid=af7d62a3-9dd4-4a14-8ce3-460ca17c81d5"},"vehicle_type_id":"4","last_reported":1738793309,"current_range_meters":28000,"station_id":"ce4bhr92rcd13ifvqhrg","pricing_plan_id":"cebpf4jnsgd1na2vs0mg"},{"bike_id":"2f550d07-de2f-46b0-a476-aa83e785bf8a","system_id":"levelo_inurba_marseille","lat":43.300201,"lon":5.400731,"is_reserved":false,"is_disabled":false,"rental_uris":{"android":"levelo://app?vid=2f550d07-de2f-46b0-a476-aa83e785bf8a","ios":"levelo://app?vid=2f550d07-de2f-46b0-a476-aa83e785bf8a"},"vehicle_type_id":"4","last_reported":1738793309,"current_range_meters":19600,"station_id":"ce4bh0p2rcd13ifvqd70","pricing_plan_id":"cebpf4jnsgd1na2vs0mg"},{"bike_id":"7eaacd34-10f9-4246-8aa1-4a22e07a7c06","system_id":"levelo_inurba_marseille","lat":43.31657,"lon":5.3742,"is_reserved":false,"is_disabled":false,"rental_uris":{"android":"levelo://app?vid=7eaacd34-10f9-4246-8aa1-4a22e07a7c06","ios":"levelo://app?vid=7eaacd34-10f9-4246-8aa1-4a22e07a7c06"},"vehicle_type_id":"4","last_reported":1738793309,"current_range_meters":25200,"station_id":"","pricing_plan_id":"cebpf4jnsgd1na2vs0mg"},{"bike_id":"b85d0f36-4ceb-47ae-b932-72d8372ef081","system_id":"levelo_inurba_marseille","lat":43.23187,"lon":5.3999,"is_reserved":false,"is_disabled":false,"rental_uris":{"android":"levelo://app?vid=b85d0f36-4ceb-47ae-b932-72d8372ef081","ios":"levelo://app?vid=b85d0f36-4ceb-47ae-b932-72d8372ef081"},"vehicle_type_id":"4","last_reported":1738793309,"current_range_meters":38800,"station_id":"ce4bhn12rcd13ifvqgqg","pricing_plan_id":"cebpf4jnsgd1na2vs0mg"},{"bike_id":"695c8159-ac4a-408d-a3d5-26e203af1693","system_id":"levelo_inurba_marseille","lat":43.33047,"lon":5.39049,"is_reserved":false,"is_disabled":false,"rental_uris":{"android":"levelo://app?vid=695c8159-ac4a-408d-a3d5-26e203af1693","ios":"levelo://app?vid=695c8159-ac4a-408d-a3d5-26e203af1693"},"vehicle_type_id":"4","last_reported":1738793309,"current_range_meters":36400,"station_id":"ce4bhr92rcd13ifvqhrg","pricing_plan_id":"cebpf4jnsgd1na2vs0mg"},{"bike_id":"19cfb078-9854-4658-91b7-e1746e55420c","system_id":"levelo_inurba_marseille","lat":43.31533,"lon":5.38041,"is_reserved":false,"is_disabled":false,"rental_uris":{"android":"levelo://app?vid=19cfb078-9854-4658-91b7-e1746e55420c","ios":"levelo://app?vid=19cfb078-9854-4658-91b7-e1746e55420c"},"vehicle_type_id":"4","last_reported":1738793309,"current_range_meters":38800,"station_id":"ce4bhsp2rcd13ifvqi50","pricing_plan_id":"cebpf4jnsgd1na2vs0mg"},{"bike_id":"321a7fe4-6953-4c8f-9479-aca227879548","system_id":"levelo_inurba_marseille","lat":43.23964,"lon":5.36642,"is_reserved":false,"is_disabled":false,"rental_uris":{"android":"levelo://app?vid=321a7fe4-6953-4c8f-9479-aca227879548","ios":"levelo://app?vid=321a7fe4-6953-4c8f-9479-aca227879548"},"vehicle_type_id":"4","last_reported":1738793309,"current_range_meters":37600,"station_id":"ce4bhi12rcd13ifvqfp0","pricing_plan_id":"cebpf4jnsgd1na2vs0mg"},{"bike_id":"11c556d6-c6b7-4156-aeb0-e99ce30fdcd7","system_id":"levelo_inurba_marseille","lat":43.24854,"lon":5.37478,"is_reserved":false,"is_disabled":false,"rental_uris":{"android":"levelo://app?vid=11c556d6-c6b7-4156-aeb0-e99ce30fdcd7","ios":"levelo://app?vid=11c556d6-c6b7-4156-aeb0-e99ce30fdcd7"},"vehicle_type_id":"4","last_reported":1738793309,"current_range_meters":22000,"station_id":"ce4bhgh2rcd13ifvqfb0","pricing_plan_id":"cebpf4jnsgd1na2vs0mg"},{"bike_id":"bd42563d-6ded-4a27-8446-f13fff32889d","system_id":"levelo_inurba_marseille","lat":43.31767,"lon":5.38999,"is_reserved":false,"is_disabled":false,"rental_uris":{"android":"levelo://app?vid=bd42563d-6ded-4a27-8446-f13fff32889d","ios":"levelo://app?vid=bd42563d-6ded-4a27-8446-f13fff32889d"},"vehicle_type_id":"4","last_reported":1738793309,"current_range_meters":38800,"station_id":"ce4bhqp2rcd13ifvqhng","pricing_plan_id":"cebpf4jnsgd1na2vs0mg"},{"bike_id":"85506d97-0f87-4df9-ad07-8dd2dedad0b3","system_id":"levelo_inurba_marseille","lat":43.27244,"lon":5.39221,"is_reserved":false,"is_disabled":true,"rental_uris":{"android":"levelo://app?vid=85506d97-0f87-4df9-ad07-8dd2dedad0b3","ios":"levelo://app?vid=85506d97-0f87-4df9-ad07-8dd2dedad0b3"},"vehicle_type_id":"4","last_reported":1738793309,"current_range_meters":36400,"station_id":"","pricing_plan_id":"cebpf4jnsgd1na2vs0mg"},{"bike_id":"a1a7079b-68b5-45ca-9af8-b6bc9f7cd559","system_id":"levelo_inurba_marseille","lat":43.22923,"lon":5.35378,"is_reserved":false,"is_disabled":false,"rental_uris":{"android":"levelo://app?vid=a1a7079b-68b5-45ca-9af8-b6bc9f7cd559","ios":"levelo://app?vid=a1a7079b-68b5-45ca-9af8-b6bc9f7cd559"},"vehicle_type_id":"4","last_reported":1738793309,"current_range_meters":39200,"station_id":"cpo3532slgdg3j2ikp40","pricing_plan_id":"cebpf4jnsgd1na2vs0mg"},{"bike_id":"e76be20c-9015-465c-9eee-e0b85ab2de66","system_id":"levelo_inurba_marseille","lat":43.30294,"lon":5.39223,"is_reserved":false,"is_disabled":false,"rental_uris":{"android":"levelo://app?vid=e76be20c-9015-465c-9eee-e0b85ab2de66","ios":"levelo://app?vid=e76be20c-9015-465c-9eee-e0b85ab2de66"},"vehicle_type_id":"4","last_reported":1738793309,"current_range_meters":38800,"station_id":"ce4bgkh2rcd13ifvqbk0","pricing_plan_id":"cebpf4jnsgd1na2vs0mg"},{"bike_id":"b2660fa8-4e11-4fe9-a0db-a5dbdd15312e","system_id":"levelo_inurba_marseille","lat":43.24396,"lon":5.37053,"is_reserved":false,"is_disabled":false,"rental_uris":{"android":"levelo://app?vid=b2660fa8-4e11-4fe9-a0db-a5dbdd15312e","ios":"levelo://app?vid=b2660fa8-4e11-4fe9-a0db-a5dbdd15312e"},"vehicle_type_id":"4","last_reported":1738793309,"current_range_meters":8000,"station_id":"ce4bhhh2rcd13ifvqfk0","pricing_plan_id":"cebpf4jnsgd1na2vs0mg"},{"bike_id":"0ff55150-1571-48bf-885d-43ab8ce24fcb","system_id":"levelo_inurba_marseille","lat":43.27422,"lon":5.39424,"is_reserved":false,"is_disabled":false,"rental_uris":{"android":"levelo://app?vid=0ff55150-1571-48bf-885d-43ab8ce24fcb","ios":"levelo://app?vid=0ff55150-1571-48bf-885d-43ab8ce24fcb"},"vehicle_type_id":"4","last_reported":1738793309,"current_range_meters":14400,"station_id":"ce4bhdp2rcd13ifvqf20","pricing_plan_id":"cebpf4jnsgd1na2vs0mg"},{"bike_id":"9bed730f-1adf-4444-a5ac-fa2d282ef048","system_id":"levelo_inurba_marseille","lat":43.30792,"lon":5.43521,"is_reserved":false,"is_disabled":false,"rental_uris":{"android":"levelo://app?vid=9bed730f-1adf-4444-a5ac-fa2d282ef048","ios":"levelo://app?vid=9bed730f-1adf-4444-a5ac-fa2d282ef048"},"vehicle_type_id":"4","last_reported":1738793309,"current_range_meters":38800,"station_id":"ce4bhph2rcd13ifvqheg","pricing_plan_id":"cebpf4jnsgd1na2vs0mg"},{"bike_id":"90c4c78b-e4a7-4853-a5ee-228a6bb5a7ce","system_id":"levelo_inurba_marseille","lat":43.29077,"lon":5.37573,"is_reserved":false,"is_disabled":true,"rental_uris":{"android":"levelo://app?vid=90c4c78b-e4a7-4853-a5ee-228a6bb5a7ce","ios":"levelo://app?vid=90c4c78b-e4a7-4853-a5ee-228a6bb5a7ce"},"vehicle_type_id":"4","last_reported":1738793309,"current_range_meters":36000,"station_id":"ce4bh692rcd13ifvqe90","pricing_plan_id":"cebpf4jnsgd1na2vs0mg"},{"bike_id":"b0b70dbd-bdde-4326-96ee-f00c6aa1d2d8","system_id":"levelo_inurba_marseille","lat":43.3361,"lon":5.41024,"is_reserved":false,"is_disabled":false,"rental_uris":{"android":"levelo://app?vid=b0b70dbd-bdde-4326-96ee-f00c6aa1d2d8","ios":"levelo://app?vid=b0b70dbd-bdde-4326-96ee-f00c6aa1d2d8"},"vehicle_type_id":"4","last_reported":1738793309,"current_range_meters":27200,"station_id":"ce4bhqh2rcd13ifvqhmg","pricing_plan_id":"cebpf4jnsgd1na2vs0mg"},{"bike_id":"f423adf0-93aa-4c47-9d8a-b1e2e7e85005","system_id":"levelo_inurba_marseille","lat":43.284228,"lon":5.349908,"is_reserved":false,"is_disabled":true,"rental_uris":{"android":"levelo://app?vid=f423adf0-93aa-4c47-9d8a-b1e2e7e85005","ios":"levelo://app?vid=f423adf0-93aa-4c47-9d8a-b1e2e7e85005"},"vehicle_type_id":"4","last_reported":1738793309,"current_range_meters":9200,"station_id":"ce4bhbh2rcd13ifvqepg","pricing_plan_id":"cebpf4jnsgd1na2vs0mg"},{"bike_id":"770db6e9-cd74-4bd2-9d00-237aaff5d805","system_id":"levelo_inurba_marseille","lat":43.31172,"lon":5.38666,"is_reserved":false,"is_disabled":false,"rental_uris":{"android":"levelo://app?vid=770db6e9-cd74-4bd2-9d00-237aaff5d805","ios":"levelo://app?vid=770db6e9-cd74-4bd2-9d00-237aaff5d805"},"vehicle_type_id":"4","last_reported":1738793309,"current_range_meters":28400,"station_id":"ce4bgv12rcd13ifvqcp0","pricing_plan_id":"cebpf4jnsgd1na2vs0mg"},{"bike_id":"28e814d5-4407-4077-a3f3-b04d77aefc7f","system_id":"levelo_inurba_marseille","lat":43.28609,"lon":5.35105,"is_reserved":false,"is_disabled":false,"rental_uris":{"android":"levelo://app?vid=28e814d5-4407-4077-a3f3-b04d77aefc7f","ios":"levelo://app?vid=28e814d5-4407-4077-a3f3-b04d77aefc7f"},"vehicle_type_id":"4","last_reported":1738793309,"current_range_meters":14800,"station_id":"ce4bhch2rcd13ifvqeug","pricing_plan_id":"cebpf4jnsgd1na2vs0mg"},{"bike_id":"31da273c-2d88-464d-8eff-b87d306a408c","system_id":"levelo_inurba_marseille","lat":43.29957,"lon":5.41315,"is_reserved":false,"is_disabled":false,"rental_uris":{"android":"levelo://app?vid=31da273c-2d88-464d-8eff-b87d306a408c","ios":"levelo://app?vid=31da273c-2d88-464d-8eff-b87d306a408c"},"vehicle_type_id":"4","last_reported":1738793309,"current_range_meters":38000,"station_id":"ce4bhp12rcd13ifvqh9g","pricing_plan_id":"cebpf4jnsgd1na2vs0mg"},{"bike_id":"92cb1359-6ba2-4a7e-87ab-429c4cdcfede","system_id":"levelo_inurba_marseille","lat":43.29519,"lon":5.390355,"is_reserved":false,"is_disabled":false,"rental_uris":{"android":"levelo://app?vid=92cb1359-6ba2-4a7e-87ab-429c4cdcfede","ios":"levelo://app?vid=92cb1359-6ba2-4a7e-87ab-429c4cdcfede"},"vehicle_type_id":"4","last_reported":1738793309,"current_range_meters":33600,"station_id":"ce4bh3p2rcd13ifvqdp0","pricing_plan_id":"cebpf4jnsgd1na2vs0mg"},{"bike_id":"0e28d866-e509-43b0-8b1e-0fd6790842dc","system_id":"levelo_inurba_marseille","lat":43.29715,"lon":5.36589,"is_reserved":false,"is_disabled":false,"rental_uris":{"android":"levelo://app?vid=0e28d866-e509-43b0-8b1e-0fd6790842dc","ios":"levelo://app?vid=0e28d866-e509-43b0-8b1e-0fd6790842dc"},"vehicle_type_id":"4","last_reported":1738793309,"current_range_meters":36000,"station_id":"ce4bgn12rcd13ifvqbt0","pricing_plan_id":"cebpf4jnsgd1na2vs0mg"},{"bike_id":"32155d92-6a5d-4149-bd83-b23de380e002","system_id":"levelo_inurba_marseille","lat":43.2991,"lon":5.38534,"is_reserved":false,"is_disabled":false,"rental_uris":{"android":"levelo://app?vid=32155d92-6a5d-4149-bd83-b23de380e002","ios":"levelo://app?vid=32155d92-6a5d-4149-bd83-b23de380e002"},"vehicle_type_id":"4","last_reported":1738793309,"current_range_meters":25200,"station_id":"ce4bh492rcd13ifvqdug","pricing_plan_id":"cebpf4jnsgd1na2vs0mg"},{"bike_id":"22d7d5c8-23b1-4a29-9d97-2595194d451f","system_id":"levelo_inurba_marseille","lat":43.28174,"lon":5.37877,"is_reserved":false,"is_disabled":false,"rental_uris":{"android":"levelo://app?vid=22d7d5c8-23b1-4a29-9d97-2595194d451f","ios":"levelo://app?vid=22d7d5c8-23b1-4a29-9d97-2595194d451f"},"vehicle_type_id":"4","last_reported":1738793309,"current_range_meters":38800,"station_id":"ce4bha12rcd13ifvqee0","pricing_plan_id":"cebpf4jnsgd1na2vs0mg"},{"bike_id":"6bba36c7-75a6-4b1b-96cb-c03d219a6faa","system_id":"levelo_inurba_marseille","lat":43.3293,"lon":5.38987,"is_reserved":false,"is_disabled":false,"rental_uris":{"android":"levelo://app?vid=6bba36c7-75a6-4b1b-96cb-c03d219a6faa","ios":"levelo://app?vid=6bba36c7-75a6-4b1b-96cb-c03d219a6faa"},"vehicle_type_id":"4","last_reported":1738793309,"current_range_meters":36400,"station_id":"","pricing_plan_id":"cebpf4jnsgd1na2vs0mg"},{"bike_id":"6584c9b6-002d-4e04-8e77-7c80cb49906b","system_id":"levelo_inurba_marseille","lat":43.24676,"lon":5.38181,"is_reserved":false,"is_disabled":false,"rental_uris":{"android":"levelo://app?vid=6584c9b6-002d-4e04-8e77-7c80cb49906b","ios":"levelo://app?vid=6584c9b6-002d-4e04-8e77-7c80cb49906b"},"vehicle_type_id":"4","last_reported":1738793309,"current_range_meters":34800,"station_id":"ce4bhih2rcd13ifvqfr0","pricing_plan_id":"cebpf4jnsgd1na2vs0mg"},{"bike_id":"1af63a99-36b1-4f29-8c78-2e71539c52b6","system_id":"levelo_inurba_marseille","lat":43.28101,"lon":5.3786,"is_reserved":false,"is_disabled":false,"rental_uris":{"android":"levelo://app?vid=1af63a99-36b1-4f29-8c78-2e71539c52b6","ios":"levelo://app?vid=1af63a99-36b1-4f29-8c78-2e71539c52b6"},"vehicle_type_id":"4","last_reported":1738793309,"current_range_meters":35200,"station_id":"ce4bha12rcd13ifvqee0","pricing_plan_id":"cebpf4jnsgd1na2vs0mg"},{"bike_id":"72f7305e-164a-4aee-aee4-d2f7ba187038","system_id":"levelo_inurba_marseille","lat":43.25869,"lon":5.39888,"is_reserved":false,"is_disabled":false,"rental_uris":{"android":"levelo://app?vid=72f7305e-164a-4aee-aee4-d2f7ba187038","ios":"levelo://app?vid=72f7305e-164a-4aee-aee4-d2f7ba187038"},"vehicle_type_id":"4","last_reported":1738793309,"current_range_meters":22800,"station_id":"ce4bhl92rcd13ifvqghg","pricing_plan_id":"cebpf4jnsgd1na2vs0mg"},{"bike_id":"fd7df63b-a22c-4266-ac74-36048b4286e2","system_id":"levelo_inurba_marseille","lat":43.28854,"lon":5.39305,"is_reserved":false,"is_disabled":false,"rental_uris":{"android":"levelo://app?vid=fd7df63b-a22c-4266-ac74-36048b4286e2","ios":"levelo://app?vid=fd7df63b-a22c-4266-ac74-36048b4286e2"},"vehicle_type_id":"4","last_reported":1738793309,"current_range_meters":28800,"station_id":"ce4bh2p2rcd13ifvqdi0","pricing_plan_id":"cebpf4jnsgd1na2vs0mg"},{"bike_id":"c90bee22-93e6-4769-a402-7c2dd626c38f","system_id":"levelo_inurba_marseille","lat":43.27613,"lon":5.36104,"is_reserved":false,"is_disabled":false,"rental_uris":{"android":"levelo://app?vid=c90bee22-93e6-4769-a402-7c2dd626c38f","ios":"levelo://app?vid=c90bee22-93e6-4769-a402-7c2dd626c38f"},"vehicle_type_id":"4","last_reported":1738793309,"current_range_meters":36400,"station_id":"ce4bgj92rcd13ifvqbe0","pricing_plan_id":"cebpf4jnsgd1na2vs0mg"},{"bike_id":"56ec3037-73f2-4dea-95b9-0161b73a13cd","system_id":"levelo_inurba_marseille","lat":43.28154,"lon":5.42642,"is_reserved":false,"is_disabled":false,"rental_uris":{"android":"levelo://app?vid=56ec3037-73f2-4dea-95b9-0161b73a13cd","ios":"levelo://app?vid=56ec3037-73f2-4dea-95b9-0161b73a13cd"},"vehicle_type_id":"4","last_reported":1738793309,"current_range_meters":16000,"station_id":"ce4bhnh2rcd13ifvqgug","pricing_plan_id":"cebpf4jnsgd1na2vs0mg"},{"bike_id":"865da38e-7662-4cd0-8259-ddab14436918","system_id":"levelo_inurba_marseille","lat":43.28447,"lon":5.39182,"is_reserved":false,"is_disabled":false,"rental_uris":{"android":"levelo://app?vid=865da38e-7662-4cd0-8259-ddab14436918","ios":"levelo://app?vid=865da38e-7662-4cd0-8259-ddab14436918"},"vehicle_type_id":"4","last_reported":1738793309,"current_range_meters":38800,"station_id":"ce4bhoh2rcd13ifvqh5g","pricing_plan_id":"cebpf4jnsgd1na2vs0mg"},{"bike_id":"2296cbfa-8f8f-453e-a84f-b98511aad854","system_id":"levelo_inurba_marseille","lat":43.3043,"lon":5.39743,"is_reserved":false,"is_disabled":false,"rental_uris":{"android":"levelo://app?vid=2296cbfa-8f8f-453e-a84f-b98511aad854","ios":"levelo://app?vid=2296cbfa-8f8f-453e-a84f-b98511aad854"},"vehicle_type_id":"4","last_reported":1738793309,"current_range_meters":38800,"station_id":"ce4bh092rcd13ifvqd20","pricing_plan_id":"cebpf4jnsgd1na2vs0mg"},{"bike_id":"7f657d43-65c7-468d-ad0e-f606466b52ae","system_id":"levelo_inurba_marseille","lat":43.32487,"lon":5.36584,"is_reserved":false,"is_disabled":false,"rental_uris":{"android":"levelo://app?vid=7f657d43-65c7-468d-ad0e-f606466b52ae","ios":"levelo://app?vid=7f657d43-65c7-468d-ad0e-f606466b52ae"},"vehicle_type_id":"4","last_reported":1738793309,"current_range_meters":13600,"station_id":"ce4bhs12rcd13ifvqhvg","pricing_plan_id":"cebpf4jnsgd1na2vs0mg"},{"bike_id":"585829b3-6401-45a0-8835-1ef0bbd3a57c","system_id":"levelo_inurba_marseille","lat":43.28181,"lon":5.42636,"is_reserved":false,"is_disabled":false,"rental_uris":{"android":"levelo://app?vid=585829b3-6401-45a0-8835-1ef0bbd3a57c","ios":"levelo://app?vid=585829b3-6401-45a0-8835-1ef0bbd3a57c"},"vehicle_type_id":"4","last_reported":1738793309,"current_range_meters":27200,"station_id":"ce4bhnh2rcd13ifvqgug","pricing_plan_id":"cebpf4jnsgd1na2vs0mg"},{"bike_id":"29b6daac-7660-47ba-b54c-6f126fb3638f","system_id":"levelo_inurba_marseille","lat":43.29931,"lon":5.38151,"is_reserved":false,"is_disabled":false,"rental_uris":{"android":"levelo://app?vid=29b6daac-7660-47ba-b54c-6f126fb3638f","ios":"levelo://app?vid=29b6daac-7660-47ba-b54c-6f126fb3638f"},"vehicle_type_id":"4","last_reported":1738793309,"current_range_meters":36400,"station_id":"ce4bgj12rcd13ifvqbc0","pricing_plan_id":"cebpf4jnsgd1na2vs0mg"},{"bike_id":"4a71a176-eb41-4410-abfa-fed6dcd64cff","system_id":"levelo_inurba_marseille","lat":43.31181,"lon":5.38715,"is_reserved":false,"is_disabled":false,"rental_uris":{"android":"levelo://app?vid=4a71a176-eb41-4410-abfa-fed6dcd64cff","ios":"levelo://app?vid=4a71a176-eb41-4410-abfa-fed6dcd64cff"},"vehicle_type_id":"4","last_reported":1738793309,"current_range_meters":34800,"station_id":"ce4bgv12rcd13ifvqcp0","pricing_plan_id":"cebpf4jnsgd1na2vs0mg"},{"bike_id":"456c2483-451e-4b48-9b76-5c5ac4c47346","system_id":"levelo_inurba_marseille","lat":43.28105,"lon":5.39658,"is_reserved":false,"is_disabled":false,"rental_uris":{"android":"levelo://app?vid=456c2483-451e-4b48-9b76-5c5ac4c47346","ios":"levelo://app?vid=456c2483-451e-4b48-9b76-5c5ac4c47346"},"vehicle_type_id":"4","last_reported":1738793309,"current_range_meters":11600,"station_id":"ce4bho12rcd13ifvqh2g","pricing_plan_id":"cebpf4jnsgd1na2vs0mg"},{"bike_id":"26224e4b-c230-413d-a160-7493a0237940","system_id":"levelo_inurba_marseille","lat":43.29423,"lon":5.38622,"is_reserved":false,"is_disabled":false,"rental_uris":{"android":"levelo://app?vid=26224e4b-c230-413d-a160-7493a0237940","ios":"levelo://app?vid=26224e4b-c230-413d-a160-7493a0237940"},"vehicle_type_id":"4","last_reported":1738793309,"current_range_meters":38400,"station_id":"ce4bh2h2rcd13ifvqdh0","pricing_plan_id":"cebpf4jnsgd1na2vs0mg"},{"bike_id":"5beba67c-ea4a-4d78-a82b-da804eb7867e","system_id":"levelo_inurba_marseille","lat":43.306553,"lon":5.400993,"is_reserved":false,"is_disabled":false,"rental_uris":{"android":"levelo://app?vid=5beba67c-ea4a-4d78-a82b-da804eb7867e","ios":"levelo://app?vid=5beba67c-ea4a-4d78-a82b-da804eb7867e"},"vehicle_type_id":"4","last_reported":1738793309,"current_range_meters":8800,"station_id":"ce4bh112rcd13ifvqda0","pricing_plan_id":"cebpf4jnsgd1na2vs0mg"},{"bike_id":"c67d8e59-7626-453e-9b14-a4daf41b2b5f","system_id":"levelo_inurba_marseille","lat":43.28563,"lon":5.39521,"is_reserved":false,"is_disabled":false,"rental_uris":{"android":"levelo://app?vid=c67d8e59-7626-453e-9b14-a4daf41b2b5f","ios":"levelo://app?vid=c67d8e59-7626-453e-9b14-a4daf41b2b5f"},"vehicle_type_id":"4","last_reported":1738793309,"current_range_meters":38800,"station_id":"ce4bh292rcd13ifvqdg0","pricing_plan_id":"cebpf4jnsgd1na2vs0mg"},{"bike_id":"6712f04b-f35d-4e3a-a70d-c89aec85d9b2","system_id":"levelo_inurba_marseille","lat":43.22933,"lon":5.35378,"is_reserved":false,"is_disabled":false,"rental_uris":{"android":"levelo://app?vid=6712f04b-f35d-4e3a-a70d-c89aec85d9b2","ios":"levelo://app?vid=6712f04b-f35d-4e3a-a70d-c89aec85d9b2"},"vehicle_type_id":"4","last_reported":1738793309,"current_range_meters":38800,"station_id":"cpo3532slgdg3j2ikp40","pricing_plan_id":"cebpf4jnsgd1na2vs0mg"},{"bike_id":"7db43954-496b-4924-89e8-8ce217c559c1","system_id":"levelo_inurba_marseille","lat":43.2963,"lon":5.40602,"is_reserved":false,"is_disabled":false,"rental_uris":{"android":"levelo://app?vid=7db43954-496b-4924-89e8-8ce217c559c1","ios":"levelo://app?vid=7db43954-496b-4924-89e8-8ce217c559c1"},"vehicle_type_id":"4","last_reported":1738793309,"current_range_meters":37600,"station_id":"ce4bh0h2rcd13ifvqd60","pricing_plan_id":"cebpf4jnsgd1na2vs0mg"},{"bike_id":"9470dd73-7393-47ca-8f05-fd76cdac2879","system_id":"levelo_inurba_marseille","lat":43.24101,"lon":5.37767,"is_reserved":false,"is_disabled":false,"rental_uris":{"android":"levelo://app?vid=9470dd73-7393-47ca-8f05-fd76cdac2879","ios":"levelo://app?vid=9470dd73-7393-47ca-8f05-fd76cdac2879"},"vehicle_type_id":"4","last_reported":1738793309,"current_range_meters":39200,"station_id":"ce4bhnp2rcd13ifvqgvg","pricing_plan_id":"cebpf4jnsgd1na2vs0mg"},{"bike_id":"5ba42750-04bc-4475-9e34-f18a6dfa2471","system_id":"levelo_inurba_marseille","lat":43.31385,"lon":5.36676,"is_reserved":false,"is_disabled":false,"rental_uris":{"android":"levelo://app?vid=5ba42750-04bc-4475-9e34-f18a6dfa2471","ios":"levelo://app?vid=5ba42750-04bc-4475-9e34-f18a6dfa2471"},"vehicle_type_id":"4","last_reported":1738793309,"current_range_meters":38800,"station_id":"ce4bgr92rcd13ifvqc6g","pricing_plan_id":"cebpf4jnsgd1na2vs0mg"},{"bike_id":"2630754e-b9e6-457b-bf47-234f3bba53a1","system_id":"levelo_inurba_marseille","lat":43.29037,"lon":5.35926,"is_reserved":false,"is_disabled":false,"rental_uris":{"android":"levelo://app?vid=2630754e-b9e6-457b-bf47-234f3bba53a1","ios":"levelo://app?vid=2630754e-b9e6-457b-bf47-234f3bba53a1"},"vehicle_type_id":"4","last_reported":1738793309,"current_range_meters":31200,"station_id":"ce4bha92rcd13ifvqeg0","pricing_plan_id":"cebpf4jnsgd1na2vs0mg"},{"bike_id":"cb2e142b-8956-4e08-816f-7dc7ab66ecae","system_id":"levelo_inurba_marseille","lat":43.31708,"lon":5.37779,"is_reserved":false,"is_disabled":false,"rental_uris":{"android":"levelo://app?vid=cb2e142b-8956-4e08-816f-7dc7ab66ecae","ios":"levelo://app?vid=cb2e142b-8956-4e08-816f-7dc7ab66ecae"},"vehicle_type_id":"4","last_reported":1738793309,"current_range_meters":38800,"station_id":"ce4bgth2rcd13ifvqch0","pricing_plan_id":"cebpf4jnsgd1na2vs0mg"},{"bike_id":"2c0e26dd-9e66-407f-9384-efd866399aa3","system_id":"levelo_inurba_marseille","lat":43.2917,"lon":5.37151,"is_reserved":false,"is_disabled":true,"rental_uris":{"android":"levelo://app?vid=2c0e26dd-9e66-407f-9384-efd866399aa3","ios":"levelo://app?vid=2c0e26dd-9e66-407f-9384-efd866399aa3"},"vehicle_type_id":"4","last_reported":1738793309,"current_range_meters":38800,"station_id":"ce4bha92rcd13ifvqeh0","pricing_plan_id":"cebpf4jnsgd1na2vs0mg"},{"bike_id":"65ba0a5d-7185-49a0-ac1c-710fa5b31319","system_id":"levelo_inurba_marseille","lat":43.29225,"lon":5.36066,"is_reserved":false,"is_disabled":false,"rental_uris":{"android":"levelo://app?vid=65ba0a5d-7185-49a0-ac1c-710fa5b31319","ios":"levelo://app?vid=65ba0a5d-7185-49a0-ac1c-710fa5b31319"},"vehicle_type_id":"4","last_reported":1738793309,"current_range_meters":38000,"station_id":"ce4bhbh2rcd13ifvqeqg","pricing_plan_id":"cebpf4jnsgd1na2vs0mg"},{"bike_id":"17408b91-bb12-4be2-bc81-c1dade07fdce","system_id":"levelo_inurba_marseille","lat":43.29954,"lon":5.36514,"is_reserved":false,"is_disabled":false,"rental_uris":{"android":"levelo://app?vid=17408b91-bb12-4be2-bc81-c1dade07fdce","ios":"levelo://app?vid=17408b91-bb12-4be2-bc81-c1dade07fdce"},"vehicle_type_id":"4","last_reported":1738793309,"current_range_meters":25200,"station_id":"ce4bgm92rcd13ifvqbr0","pricing_plan_id":"cebpf4jnsgd1na2vs0mg"},{"bike_id":"d2883f5c-c74b-4794-a67e-fcb675612689","system_id":"levelo_inurba_marseille","lat":43.29903,"lon":5.39759,"is_reserved":false,"is_disabled":false,"rental_uris":{"android":"levelo://app?vid=d2883f5c-c74b-4794-a67e-fcb675612689","ios":"levelo://app?vid=d2883f5c-c74b-4794-a67e-fcb675612689"},"vehicle_type_id":"4","last_reported":1738793309,"current_range_meters":36800,"station_id":"ce4bh0h2rcd13ifvqd50","pricing_plan_id":"cebpf4jnsgd1na2vs0mg"},{"bike_id":"96283d00-ede9-46ed-a906-e47bd3a98cc9","system_id":"levelo_inurba_marseille","lat":43.27907,"lon":5.39588,"is_reserved":false,"is_disabled":false,"rental_uris":{"android":"levelo://app?vid=96283d00-ede9-46ed-a906-e47bd3a98cc9","ios":"levelo://app?vid=96283d00-ede9-46ed-a906-e47bd3a98cc9"},"vehicle_type_id":"4","last_reported":1738793309,"current_range_meters":36000,"station_id":"ce4bhf92rcd13ifvqf40","pricing_plan_id":"cebpf4jnsgd1na2vs0mg"},{"bike_id":"12be4a65-e7b3-4220-9442-37e04da9989a","system_id":"levelo_inurba_marseille","lat":43.2719,"lon":5.40969,"is_reserved":false,"is_disabled":false,"rental_uris":{"android":"levelo://app?vid=12be4a65-e7b3-4220-9442-37e04da9989a","ios":"levelo://app?vid=12be4a65-e7b3-4220-9442-37e04da9989a"},"vehicle_type_id":"4","last_reported":1738793309,"current_range_meters":37600,"station_id":"ce4bhl12rcd13ifvqgf0","pricing_plan_id":"cebpf4jnsgd1na2vs0mg"},{"bike_id":"091d41d7-c1d3-4cdf-9b5c-052439e6b669","system_id":"levelo_inurba_marseille","lat":43.30495,"lon":5.36589,"is_reserved":false,"is_disabled":true,"rental_uris":{"android":"levelo://app?vid=091d41d7-c1d3-4cdf-9b5c-052439e6b669","ios":"levelo://app?vid=091d41d7-c1d3-4cdf-9b5c-052439e6b669"},"vehicle_type_id":"4","last_reported":1738793309,"current_range_meters":25200,"station_id":"","pricing_plan_id":"cebpf4jnsgd1na2vs0mg"},{"bike_id":"205283b2-a0b9-4a6f-b278-0f0a01187f2c","system_id":"levelo_inurba_marseille","lat":43.30897,"lon":5.3965,"is_reserved":false,"is_disabled":false,"rental_uris":{"android":"levelo://app?vid=205283b2-a0b9-4a6f-b278-0f0a01187f2c","ios":"levelo://app?vid=205283b2-a0b9-4a6f-b278-0f0a01187f2c"},"vehicle_type_id":"4","last_reported":1738793309,"current_range_meters":38800,"station_id":"ce4bh012rcd13ifvqcv0","pricing_plan_id":"cebpf4jnsgd1na2vs0mg"},{"bike_id":"44dde5cf-c2f0-4ca3-a927-e2c7152ee089","system_id":"levelo_inurba_marseille","lat":43.27814,"lon":5.40724,"is_reserved":false,"is_disabled":false,"rental_uris":{"android":"levelo://app?vid=44dde5cf-c2f0-4ca3-a927-e2c7152ee089","ios":"levelo://app?vid=44dde5cf-c2f0-4ca3-a927-e2c7152ee089"},"vehicle_type_id":"4","last_reported":1738793309,"current_range_meters":38800,"station_id":"ce4bhnh2rcd13ifvqgtg","pricing_plan_id":"cebpf4jnsgd1na2vs0mg"},{"bike_id":"015782d1-9091-4e98-bdb6-e10f48d06bd0","system_id":"levelo_inurba_marseille","lat":43.29529,"lon":5.39034,"is_reserved":false,"is_disabled":false,"rental_uris":{"android":"levelo://app?vid=015782d1-9091-4e98-bdb6-e10f48d06bd0","ios":"levelo://app?vid=015782d1-9091-4e98-bdb6-e10f48d06bd0"},"vehicle_type_id":"4","last_reported":1738793309,"current_range_meters":34800,"station_id":"ce4bh3p2rcd13ifvqdp0","pricing_plan_id":"cebpf4jnsgd1na2vs0mg"},{"bike_id":"a6b2428a-7d23-4892-a3bf-86cc25978b7a","system_id":"levelo_inurba_marseille","lat":43.25496,"lon":5.37668,"is_reserved":false,"is_disabled":true,"rental_uris":{"android":"levelo://app?vid=a6b2428a-7d23-4892-a3bf-86cc25978b7a","ios":"levelo://app?vid=a6b2428a-7d23-4892-a3bf-86cc25978b7a"},"vehicle_type_id":"4","last_reported":1738793309,"current_range_meters":24800,"station_id":"ce4bhh12rcd13ifvqff0","pricing_plan_id":"cebpf4jnsgd1na2vs0mg"},{"bike_id":"8f55a9a2-e3bf-4734-b1cd-752d8460ce0f","system_id":"levelo_inurba_marseille","lat":43.2951,"lon":5.3939,"is_reserved":false,"is_disabled":false,"rental_uris":{"android":"levelo://app?vid=8f55a9a2-e3bf-4734-b1cd-752d8460ce0f","ios":"levelo://app?vid=8f55a9a2-e3bf-4734-b1cd-752d8460ce0f"},"vehicle_type_id":"4","last_reported":1738793309,"current_range_meters":38800,"station_id":"ce4bh292rcd13ifvqdf0","pricing_plan_id":"cebpf4jnsgd1na2vs0mg"},{"bike_id":"9e069c3b-a78d-4060-b3a9-a269e57bf4ef","system_id":"levelo_inurba_marseille","lat":43.29873,"lon":5.39731,"is_reserved":false,"is_disabled":false,"rental_uris":{"android":"levelo://app?vid=9e069c3b-a78d-4060-b3a9-a269e57bf4ef","ios":"levelo://app?vid=9e069c3b-a78d-4060-b3a9-a269e57bf4ef"},"vehicle_type_id":"4","last_reported":1738793309,"current_range_meters":32800,"station_id":"ce4bh0h2rcd13ifvqd50","pricing_plan_id":"cebpf4jnsgd1na2vs0mg"},{"bike_id":"8dfcc3bb-fd66-46ab-888d-bac268b93ab6","system_id":"levelo_inurba_marseille","lat":43.26943,"lon":5.40258,"is_reserved":false,"is_disabled":false,"rental_uris":{"android":"levelo://app?vid=8dfcc3bb-fd66-46ab-888d-bac268b93ab6","ios":"levelo://app?vid=8dfcc3bb-fd66-46ab-888d-bac268b93ab6"},"vehicle_type_id":"4","last_reported":1738793309,"current_range_meters":38800,"station_id":"cjm6bp8fraef2m0cb0m0","pricing_plan_id":"cebpf4jnsgd1na2vs0mg"},{"bike_id":"c85a26e1-f53e-4ec1-b1ea-8b32d23f1f4d","system_id":"levelo_inurba_marseille","lat":43.21056,"lon":5.44577,"is_reserved":false,"is_disabled":false,"rental_uris":{"android":"levelo://app?vid=c85a26e1-f53e-4ec1-b1ea-8b32d23f1f4d","ios":"levelo://app?vid=c85a26e1-f53e-4ec1-b1ea-8b32d23f1f4d"},"vehicle_type_id":"4","last_reported":1738793309,"current_range_meters":20400,"station_id":"cpo3342slgdg3j2ifvpg","pricing_plan_id":"cebpf4jnsgd1na2vs0mg"},{"bike_id":"1368b82d-e5b6-4c03-95ce-b6cc44f0d8ef","system_id":"levelo_inurba_marseille","lat":43.28031,"lon":5.36952,"is_reserved":false,"is_disabled":false,"rental_uris":{"android":"levelo://app?vid=1368b82d-e5b6-4c03-95ce-b6cc44f0d8ef","ios":"levelo://app?vid=1368b82d-e5b6-4c03-95ce-b6cc44f0d8ef"},"vehicle_type_id":"4","last_reported":1738793309,"current_range_meters":38800,"station_id":"ce4bha12rcd13ifvqef0","pricing_plan_id":"cebpf4jnsgd1na2vs0mg"},{"bike_id":"c44714d4-d1ec-4f71-b2c6-cd30bee8b564","system_id":"levelo_inurba_marseille","lat":43.28723,"lon":5.39977,"is_reserved":false,"is_disabled":false,"rental_uris":{"android":"levelo://app?vid=c44714d4-d1ec-4f71-b2c6-cd30bee8b564","ios":"levelo://app?vid=c44714d4-d1ec-4f71-b2c6-cd30bee8b564"},"vehicle_type_id":"4","last_reported":1738793309,"current_range_meters":16000,"station_id":"ce4bho92rcd13ifvqh3g","pricing_plan_id":"cebpf4jnsgd1na2vs0mg"},{"bike_id":"18346df9-43f2-4a93-8925-96a12828428d","system_id":"levelo_inurba_marseille","lat":43.29508,"lon":5.39409,"is_reserved":false,"is_disabled":false,"rental_uris":{"android":"levelo://app?vid=18346df9-43f2-4a93-8925-96a12828428d","ios":"levelo://app?vid=18346df9-43f2-4a93-8925-96a12828428d"},"vehicle_type_id":"4","last_reported":1738793309,"current_range_meters":22400,"station_id":"ce4bh292rcd13ifvqdf0","pricing_plan_id":"cebpf4jnsgd1na2vs0mg"},{"bike_id":"d514230b-01d1-4e6e-b07b-dd83ae518c95","system_id":"levelo_inurba_marseille","lat":43.2511,"lon":5.39505,"is_reserved":false,"is_disabled":false,"rental_uris":{"android":"levelo://app?vid=d514230b-01d1-4e6e-b07b-dd83ae518c95","ios":"levelo://app?vid=d514230b-01d1-4e6e-b07b-dd83ae518c95"},"vehicle_type_id":"4","last_reported":1738793309,"current_range_meters":38800,"station_id":"ce4bhm12rcd13ifvqgkg","pricing_plan_id":"cebpf4jnsgd1na2vs0mg"},{"bike_id":"9c207c45-ddb2-4217-8d34-079a5658cd14","system_id":"levelo_inurba_marseille","lat":43.32299,"lon":5.38279,"is_reserved":false,"is_disabled":false,"rental_uris":{"android":"levelo://app?vid=9c207c45-ddb2-4217-8d34-079a5658cd14","ios":"levelo://app?vid=9c207c45-ddb2-4217-8d34-079a5658cd14"},"vehicle_type_id":"4","last_reported":1738793309,"current_range_meters":36800,"station_id":"ce4bhr12rcd13ifvqhqg","pricing_plan_id":"cebpf4jnsgd1na2vs0mg"},{"bike_id":"565d6fca-10b7-4b88-8101-89e4cbc6df92","system_id":"levelo_inurba_marseille","lat":43.288693,"lon":5.358427,"is_reserved":false,"is_disabled":false,"rental_uris":{"android":"levelo://app?vid=565d6fca-10b7-4b88-8101-89e4cbc6df92","ios":"levelo://app?vid=565d6fca-10b7-4b88-8101-89e4cbc6df92"},"vehicle_type_id":"4","last_reported":1738793309,"current_range_meters":37600,"station_id":"ce4bhb12rcd13ifvqem0","pricing_plan_id":"cebpf4jnsgd1na2vs0mg"},{"bike_id":"969c5b62-9428-4d6f-938f-e63db2f5c261","system_id":"levelo_inurba_marseille","lat":43.28358,"lon":5.38061,"is_reserved":false,"is_disabled":false,"rental_uris":{"android":"levelo://app?vid=969c5b62-9428-4d6f-938f-e63db2f5c261","ios":"levelo://app?vid=969c5b62-9428-4d6f-938f-e63db2f5c261"},"vehicle_type_id":"4","last_reported":1738793309,"current_range_meters":35200,"station_id":"ce4bh412rcd13ifvqdr0","pricing_plan_id":"cebpf4jnsgd1na2vs0mg"},{"bike_id":"bbbd69d8-d3f1-437c-b6e8-d196f9f3cec2","system_id":"levelo_inurba_marseille","lat":43.28957,"lon":5.36388,"is_reserved":false,"is_disabled":false,"rental_uris":{"android":"levelo://app?vid=bbbd69d8-d3f1-437c-b6e8-d196f9f3cec2","ios":"levelo://app?vid=bbbd69d8-d3f1-437c-b6e8-d196f9f3cec2"},"vehicle_type_id":"4","last_reported":1738793309,"current_range_meters":32000,"station_id":"ce4bhc92rcd13ifvqetg","pricing_plan_id":"cebpf4jnsgd1na2vs0mg"},{"bike_id":"0733fe88-235c-49f7-86b9-25f764c14154","system_id":"levelo_inurba_marseille","lat":43.29555,"lon":5.38552,"is_reserved":false,"is_disabled":false,"rental_uris":{"android":"levelo://app?vid=0733fe88-235c-49f7-86b9-25f764c14154","ios":"levelo://app?vid=0733fe88-235c-49f7-86b9-25f764c14154"},"vehicle_type_id":"4","last_reported":1738793309,"current_range_meters":30000,"station_id":"ce4bgih2rcd13ifvqba0","pricing_plan_id":"cebpf4jnsgd1na2vs0mg"},{"bike_id":"3a8ef878-6a93-4477-a237-a2a126b865fa","system_id":"levelo_inurba_marseille","lat":43.30545,"lon":5.38454,"is_reserved":false,"is_disabled":false,"rental_uris":{"android":"levelo://app?vid=3a8ef878-6a93-4477-a237-a2a126b865fa","ios":"levelo://app?vid=3a8ef878-6a93-4477-a237-a2a126b865fa"},"vehicle_type_id":"4","last_reported":1738793309,"current_range_meters":38000,"station_id":"ce4bgg92rcd13ifvqb30","pricing_plan_id":"cebpf4jnsgd1na2vs0mg"},{"bike_id":"c27d8cef-128f-467e-8ca2-b33835376bb2","system_id":"levelo_inurba_marseille","lat":43.3067,"lon":5.40095,"is_reserved":false,"is_disabled":false,"rental_uris":{"android":"levelo://app?vid=c27d8cef-128f-467e-8ca2-b33835376bb2","ios":"levelo://app?vid=c27d8cef-128f-467e-8ca2-b33835376bb2"},"vehicle_type_id":"4","last_reported":1738793309,"current_range_meters":36400,"station_id":"ce4bh112rcd13ifvqda0","pricing_plan_id":"cebpf4jnsgd1na2vs0mg"},{"bike_id":"78f4c34c-e935-4821-bc3b-aef9f51050f9","system_id":"levelo_inurba_marseille","lat":43.27948,"lon":5.41036,"is_reserved":false,"is_disabled":false,"rental_uris":{"android":"levelo://app?vid=78f4c34c-e935-4821-bc3b-aef9f51050f9","ios":"levelo://app?vid=78f4c34c-e935-4821-bc3b-aef9f51050f9"},"vehicle_type_id":"4","last_reported":1738793309,"current_range_meters":24800,"station_id":"ce4bhnp2rcd13ifvqh0g","pricing_plan_id":"cebpf4jnsgd1na2vs0mg"},{"bike_id":"1f60af65-67e4-4506-92ce-b099d71368bc","system_id":"levelo_inurba_marseille","lat":43.2737,"lon":5.36259,"is_reserved":false,"is_disabled":false,"rental_uris":{"android":"levelo://app?vid=1f60af65-67e4-4506-92ce-b099d71368bc","ios":"levelo://app?vid=1f60af65-67e4-4506-92ce-b099d71368bc"},"vehicle_type_id":"4","last_reported":1738793309,"current_range_meters":38800,"station_id":"ce4bhbh2rcd13ifvqeo0","pricing_plan_id":"cebpf4jnsgd1na2vs0mg"},{"bike_id":"4f81abf1-d5fa-41cf-aabd-458a56d988c7","system_id":"levelo_inurba_marseille","lat":43.2903,"lon":5.3862,"is_reserved":false,"is_disabled":false,"rental_uris":{"android":"levelo://app?vid=4f81abf1-d5fa-41cf-aabd-458a56d988c7","ios":"levelo://app?vid=4f81abf1-d5fa-41cf-aabd-458a56d988c7"},"vehicle_type_id":"4","last_reported":1738793309,"current_range_meters":27600,"station_id":"ce4bh4p2rcd13ifvqe0g","pricing_plan_id":"cebpf4jnsgd1na2vs0mg"},{"bike_id":"24014241-5b95-4a31-94b3-518cf14b5577","system_id":"levelo_inurba_marseille","lat":43.30772,"lon":5.3764,"is_reserved":false,"is_disabled":true,"rental_uris":{"android":"levelo://app?vid=24014241-5b95-4a31-94b3-518cf14b5577","ios":"levelo://app?vid=24014241-5b95-4a31-94b3-518cf14b5577"},"vehicle_type_id":"4","last_reported":1738793309,"current_range_meters":28000,"station_id":"ce4bgv92rcd13ifvqcq0","pricing_plan_id":"cebpf4jnsgd1na2vs0mg"},{"bike_id":"a9d2cdd8-e8cc-40c9-87d7-d5a1d12197b1","system_id":"levelo_inurba_marseille","lat":43.27484,"lon":5.42455,"is_reserved":false,"is_disabled":false,"rental_uris":{"android":"levelo://app?vid=a9d2cdd8-e8cc-40c9-87d7-d5a1d12197b1","ios":"levelo://app?vid=a9d2cdd8-e8cc-40c9-87d7-d5a1d12197b1"},"vehicle_type_id":"4","last_reported":1738793309,"current_range_meters":38800,"station_id":"ce4bhn92rcd13ifvqgrg","pricing_plan_id":"cebpf4jnsgd1na2vs0mg"},{"bike_id":"053fe29b-8a6c-40a9-966e-365491a47db8","system_id":"levelo_inurba_marseille","lat":43.25828,"lon":5.39453,"is_reserved":false,"is_disabled":false,"rental_uris":{"android":"levelo://app?vid=053fe29b-8a6c-40a9-966e-365491a47db8","ios":"levelo://app?vid=053fe29b-8a6c-40a9-966e-365491a47db8"},"vehicle_type_id":"4","last_reported":1738793309,"current_range_meters":39200,"station_id":"ce4bhip2rcd13ifvqft0","pricing_plan_id":"cebpf4jnsgd1na2vs0mg"},{"bike_id":"776ae552-1ad6-4a89-85d3-32bafac966c7","system_id":"levelo_inurba_marseille","lat":43.29031,"lon":5.38654,"is_reserved":false,"is_disabled":false,"rental_uris":{"android":"levelo://app?vid=776ae552-1ad6-4a89-85d3-32bafac966c7","ios":"levelo://app?vid=776ae552-1ad6-4a89-85d3-32bafac966c7"},"vehicle_type_id":"4","last_reported":1738793309,"current_range_meters":31200,"station_id":"ce4bh4p2rcd13ifvqe0g","pricing_plan_id":"cebpf4jnsgd1na2vs0mg"},{"bike_id":"405a9b8c-5cf1-485c-b2f3-8353ace33ecd","system_id":"levelo_inurba_marseille","lat":43.29903,"lon":5.43666,"is_reserved":false,"is_disabled":false,"rental_uris":{"android":"levelo://app?vid=405a9b8c-5cf1-485c-b2f3-8353ace33ecd","ios":"levelo://app?vid=405a9b8c-5cf1-485c-b2f3-8353ace33ecd"},"vehicle_type_id":"4","last_reported":1738793309,"current_range_meters":36000,"station_id":"ce4bhpp2rcd13ifvqhfg","pricing_plan_id":"cebpf4jnsgd1na2vs0mg"},{"bike_id":"35b0fbe6-22db-46fb-a54a-76af362a8729","system_id":"levelo_inurba_marseille","lat":43.2997,"lon":5.41339,"is_reserved":false,"is_disabled":false,"rental_uris":{"android":"levelo://app?vid=35b0fbe6-22db-46fb-a54a-76af362a8729","ios":"levelo://app?vid=35b0fbe6-22db-46fb-a54a-76af362a8729"},"vehicle_type_id":"4","last_reported":1738793309,"current_range_meters":36400,"station_id":"ce4bhp12rcd13ifvqh9g","pricing_plan_id":"cebpf4jnsgd1na2vs0mg"},{"bike_id":"88ce7e1b-d6f8-4620-beef-be982f304f3e","system_id":"levelo_inurba_marseille","lat":43.32106,"lon":5.36794,"is_reserved":false,"is_disabled":false,"rental_uris":{"android":"levelo://app?vid=88ce7e1b-d6f8-4620-beef-be982f304f3e","ios":"levelo://app?vid=88ce7e1b-d6f8-4620-beef-be982f304f3e"},"vehicle_type_id":"4","last_reported":1738793309,"current_range_meters":38800,"station_id":"ce4bhrh2rcd13ifvqhug","pricing_plan_id":"cebpf4jnsgd1na2vs0mg"},{"bike_id":"eabb9936-397f-4ce6-8690-89ca8b14d83e","system_id":"levelo_inurba_marseille","lat":43.23963,"lon":5.36644,"is_reserved":false,"is_disabled":false,"rental_uris":{"android":"levelo://app?vid=eabb9936-397f-4ce6-8690-89ca8b14d83e","ios":"levelo://app?vid=eabb9936-397f-4ce6-8690-89ca8b14d83e"},"vehicle_type_id":"4","last_reported":1738793309,"current_range_meters":38800,"station_id":"ce4bhi12rcd13ifvqfp0","pricing_plan_id":"cebpf4jnsgd1na2vs0mg"},{"bike_id":"708f8f9e-18a1-4802-893a-04d77b904ada","system_id":"levelo_inurba_marseille","lat":43.28655,"lon":5.36371,"is_reserved":false,"is_disabled":false,"rental_uris":{"android":"levelo://app?vid=708f8f9e-18a1-4802-893a-04d77b904ada","ios":"levelo://app?vid=708f8f9e-18a1-4802-893a-04d77b904ada"},"vehicle_type_id":"4","last_reported":1738793309,"current_range_meters":38400,"station_id":"ce4bhah2rcd13ifvqej0","pricing_plan_id":"cebpf4jnsgd1na2vs0mg"},{"bike_id":"2f9a6647-bfb0-4c5f-b2d5-6b23d0794b76","system_id":"levelo_inurba_marseille","lat":43.255763,"lon":5.382331,"is_reserved":false,"is_disabled":true,"rental_uris":{"android":"levelo://app?vid=2f9a6647-bfb0-4c5f-b2d5-6b23d0794b76","ios":"levelo://app?vid=2f9a6647-bfb0-4c5f-b2d5-6b23d0794b76"},"vehicle_type_id":"4","last_reported":1738793309,"current_range_meters":36800,"station_id":"ce4bhih2rcd13ifvqfs0","pricing_plan_id":"cebpf4jnsgd1na2vs0mg"},{"bike_id":"d25a4504-17d4-4308-88f8-6085b6b06f28","system_id":"levelo_inurba_marseille","lat":43.28942,"lon":5.36397,"is_reserved":false,"is_disabled":false,"rental_uris":{"android":"levelo://app?vid=d25a4504-17d4-4308-88f8-6085b6b06f28","ios":"levelo://app?vid=d25a4504-17d4-4308-88f8-6085b6b06f28"},"vehicle_type_id":"4","last_reported":1738793309,"current_range_meters":19600,"station_id":"ce4bhc92rcd13ifvqetg","pricing_plan_id":"cebpf4jnsgd1na2vs0mg"},{"bike_id":"8da43562-4f8d-4611-9168-8a0327349c39","system_id":"levelo_inurba_marseille","lat":43.28169,"lon":5.42643,"is_reserved":false,"is_disabled":false,"rental_uris":{"android":"levelo://app?vid=8da43562-4f8d-4611-9168-8a0327349c39","ios":"levelo://app?vid=8da43562-4f8d-4611-9168-8a0327349c39"},"vehicle_type_id":"4","last_reported":1738793309,"current_range_meters":9200,"station_id":"ce4bhnh2rcd13ifvqgug","pricing_plan_id":"cebpf4jnsgd1na2vs0mg"},{"bike_id":"786af5a6-7181-4746-8e7c-5055a97f6274","system_id":"levelo_inurba_marseille","lat":43.28172,"lon":5.42636,"is_reserved":false,"is_disabled":true,"rental_uris":{"android":"levelo://app?vid=786af5a6-7181-4746-8e7c-5055a97f6274","ios":"levelo://app?vid=786af5a6-7181-4746-8e7c-5055a97f6274"},"vehicle_type_id":"4","last_reported":1738793309,"current_range_meters":30800,"station_id":"ce4bhnh2rcd13ifvqgug","pricing_plan_id":"cebpf4jnsgd1na2vs0mg"},{"bike_id":"81f0c490-0f0d-416d-91c0-4701a6d91680","system_id":"levelo_inurba_marseille","lat":43.27944,"lon":5.41053,"is_reserved":false,"is_disabled":false,"rental_uris":{"android":"levelo://app?vid=81f0c490-0f0d-416d-91c0-4701a6d91680","ios":"levelo://app?vid=81f0c490-0f0d-416d-91c0-4701a6d91680"},"vehicle_type_id":"4","last_reported":1738793309,"current_range_meters":36400,"station_id":"ce4bhnp2rcd13ifvqh0g","pricing_plan_id":"cebpf4jnsgd1na2vs0mg"},{"bike_id":"79c89328-e1e7-41f2-8e59-11b00da11202","system_id":"levelo_inurba_marseille","lat":43.29022,"lon":5.38139,"is_reserved":false,"is_disabled":false,"rental_uris":{"android":"levelo://app?vid=79c89328-e1e7-41f2-8e59-11b00da11202","ios":"levelo://app?vid=79c89328-e1e7-41f2-8e59-11b00da11202"},"vehicle_type_id":"4","last_reported":1738793309,"current_range_meters":38000,"station_id":"ce4bh4p2rcd13ifvqe1g","pricing_plan_id":"cebpf4jnsgd1na2vs0mg"},{"bike_id":"50b15991-9296-4df6-b1a6-725aba7e366c","system_id":"levelo_inurba_marseille","lat":43.25866,"lon":5.39903,"is_reserved":false,"is_disabled":false,"rental_uris":{"android":"levelo://app?vid=50b15991-9296-4df6-b1a6-725aba7e366c","ios":"levelo://app?vid=50b15991-9296-4df6-b1a6-725aba7e366c"},"vehicle_type_id":"4","last_reported":1738793309,"current_range_meters":38800,"station_id":"ce4bhl92rcd13ifvqghg","pricing_plan_id":"cebpf4jnsgd1na2vs0mg"},{"bike_id":"43dbcacd-347c-4beb-a600-5c3d96b4b244","system_id":"levelo_inurba_marseille","lat":43.23211,"lon":5.39989,"is_reserved":false,"is_disabled":false,"rental_uris":{"android":"levelo://app?vid=43dbcacd-347c-4beb-a600-5c3d96b4b244","ios":"levelo://app?vid=43dbcacd-347c-4beb-a600-5c3d96b4b244"},"vehicle_type_id":"4","last_reported":1738793309,"current_range_meters":39200,"station_id":"ce4bhn12rcd13ifvqgqg","pricing_plan_id":"cebpf4jnsgd1na2vs0mg"},{"bike_id":"f5fe99b2-e419-4e02-93e0-0d8550db63d7","system_id":"levelo_inurba_marseille","lat":43.28036,"lon":5.36956,"is_reserved":false,"is_disabled":false,"rental_uris":{"android":"levelo://app?vid=f5fe99b2-e419-4e02-93e0-0d8550db63d7","ios":"levelo://app?vid=f5fe99b2-e419-4e02-93e0-0d8550db63d7"},"vehicle_type_id":"4","last_reported":1738793309,"current_range_meters":38800,"station_id":"ce4bha12rcd13ifvqef0","pricing_plan_id":"cebpf4jnsgd1na2vs0mg"},{"bike_id":"9b7355dc-7165-40f0-8cd2-81f22484ab5d","system_id":"levelo_inurba_marseille","lat":43.2397,"lon":5.3663,"is_reserved":false,"is_disabled":false,"rental_uris":{"android":"levelo://app?vid=9b7355dc-7165-40f0-8cd2-81f22484ab5d","ios":"levelo://app?vid=9b7355dc-7165-40f0-8cd2-81f22484ab5d"},"vehicle_type_id":"4","last_reported":1738793309,"current_range_meters":35200,"station_id":"ce4bhi12rcd13ifvqfp0","pricing_plan_id":"cebpf4jnsgd1na2vs0mg"},{"bike_id":"54c388f1-da5e-41c0-a224-46f29db2acb3","system_id":"levelo_inurba_marseille","lat":43.28948,"lon":5.36407,"is_reserved":false,"is_disabled":false,"rental_uris":{"android":"levelo://app?vid=54c388f1-da5e-41c0-a224-46f29db2acb3","ios":"levelo://app?vid=54c388f1-da5e-41c0-a224-46f29db2acb3"},"vehicle_type_id":"4","last_reported":1738793309,"current_range_meters":38800,"station_id":"ce4bhc92rcd13ifvqetg","pricing_plan_id":"cebpf4jnsgd1na2vs0mg"},{"bike_id":"ba5a1e88-67dd-48bc-8796-583b26ff8fdc","system_id":"levelo_inurba_marseille","lat":43.29277,"lon":5.3842,"is_reserved":false,"is_disabled":false,"rental_uris":{"android":"levelo://app?vid=ba5a1e88-67dd-48bc-8796-583b26ff8fdc","ios":"levelo://app?vid=ba5a1e88-67dd-48bc-8796-583b26ff8fdc"},"vehicle_type_id":"4","last_reported":1738793309,"current_range_meters":29600,"station_id":"ce4bh692rcd13ifvqea0","pricing_plan_id":"cebpf4jnsgd1na2vs0mg"},{"bike_id":"67661f07-352c-4583-baef-f494f9de33b1","system_id":"levelo_inurba_marseille","lat":43.282653,"lon":5.350558,"is_reserved":false,"is_disabled":false,"rental_uris":{"android":"levelo://app?vid=67661f07-352c-4583-baef-f494f9de33b1","ios":"levelo://app?vid=67661f07-352c-4583-baef-f494f9de33b1"},"vehicle_type_id":"4","last_reported":1738793309,"current_range_meters":34000,"station_id":"ce4bhbp2rcd13ifvqerg","pricing_plan_id":"cebpf4jnsgd1na2vs0mg"},{"bike_id":"931c3b97-cce1-4ebe-a291-6c50a6f2810e","system_id":"levelo_inurba_marseille","lat":43.31798,"lon":5.37411,"is_reserved":false,"is_disabled":false,"rental_uris":{"android":"levelo://app?vid=931c3b97-cce1-4ebe-a291-6c50a6f2810e","ios":"levelo://app?vid=931c3b97-cce1-4ebe-a291-6c50a6f2810e"},"vehicle_type_id":"4","last_reported":1738793309,"current_range_meters":4800,"station_id":"","pricing_plan_id":"cebpf4jnsgd1na2vs0mg"},{"bike_id":"b9452b32-8f5d-4c98-bc11-fee58cf523e3","system_id":"levelo_inurba_marseille","lat":43.29913,"lon":5.43652,"is_reserved":false,"is_disabled":false,"rental_uris":{"android":"levelo://app?vid=b9452b32-8f5d-4c98-bc11-fee58cf523e3","ios":"levelo://app?vid=b9452b32-8f5d-4c98-bc11-fee58cf523e3"},"vehicle_type_id":"4","last_reported":1738793309,"current_range_meters":22800,"station_id":"ce4bhpp2rcd13ifvqhfg","pricing_plan_id":"cebpf4jnsgd1na2vs0mg"},{"bike_id":"d1d51ec2-e1ab-4b92-9a4b-f935b04ef436","system_id":"levelo_inurba_marseille","lat":43.25004,"lon":5.38934,"is_reserved":false,"is_disabled":false,"rental_uris":{"android":"levelo://app?vid=d1d51ec2-e1ab-4b92-9a4b-f935b04ef436","ios":"levelo://app?vid=d1d51ec2-e1ab-4b92-9a4b-f935b04ef436"},"vehicle_type_id":"4","last_reported":1738793309,"current_range_meters":22800,"station_id":"ce4bhgp2rcd13ifvqfd0","pricing_plan_id":"cebpf4jnsgd1na2vs0mg"},{"bike_id":"13b3b6a1-f920-47ec-ad77-f4e3fb2eb0d2","system_id":"levelo_inurba_marseille","lat":43.25828,"lon":5.39442,"is_reserved":false,"is_disabled":false,"rental_uris":{"android":"levelo://app?vid=13b3b6a1-f920-47ec-ad77-f4e3fb2eb0d2","ios":"levelo://app?vid=13b3b6a1-f920-47ec-ad77-f4e3fb2eb0d2"},"vehicle_type_id":"4","last_reported":1738793309,"current_range_meters":38800,"station_id":"ce4bhip2rcd13ifvqft0","pricing_plan_id":"cebpf4jnsgd1na2vs0mg"},{"bike_id":"2e1cdcd6-ea11-4ecc-b342-0e98ae0d40a4","system_id":"levelo_inurba_marseille","lat":43.2838,"lon":5.38645,"is_reserved":false,"is_disabled":false,"rental_uris":{"android":"levelo://app?vid=2e1cdcd6-ea11-4ecc-b342-0e98ae0d40a4","ios":"levelo://app?vid=2e1cdcd6-ea11-4ecc-b342-0e98ae0d40a4"},"vehicle_type_id":"4","last_reported":1738793309,"current_range_meters":38400,"station_id":"ce4bh492rcd13ifvqdvg","pricing_plan_id":"cebpf4jnsgd1na2vs0mg"},{"bike_id":"242b2efc-1bca-43dd-8585-8df4a5bbbf5b","system_id":"levelo_inurba_marseille","lat":43.30323,"lon":5.39202,"is_reserved":false,"is_disabled":false,"rental_uris":{"android":"levelo://app?vid=242b2efc-1bca-43dd-8585-8df4a5bbbf5b","ios":"levelo://app?vid=242b2efc-1bca-43dd-8585-8df4a5bbbf5b"},"vehicle_type_id":"4","last_reported":1738793309,"current_range_meters":18000,"station_id":"ce4bgkh2rcd13ifvqbk0","pricing_plan_id":"cebpf4jnsgd1na2vs0mg"},{"bike_id":"910b1e33-531c-44b7-b584-1fde45af6212","system_id":"levelo_inurba_marseille","lat":43.29058,"lon":5.38611,"is_reserved":false,"is_disabled":false,"rental_uris":{"android":"levelo://app?vid=910b1e33-531c-44b7-b584-1fde45af6212","ios":"levelo://app?vid=910b1e33-531c-44b7-b584-1fde45af6212"},"vehicle_type_id":"4","last_reported":1738793309,"current_range_meters":38800,"station_id":"ce4bh4p2rcd13ifvqe0g","pricing_plan_id":"cebpf4jnsgd1na2vs0mg"},{"bike_id":"6100990f-c4b7-4419-ab12-3d9c2a9f7c81","system_id":"levelo_inurba_marseille","lat":43.28278,"lon":5.35068,"is_reserved":false,"is_disabled":false,"rental_uris":{"android":"levelo://app?vid=6100990f-c4b7-4419-ab12-3d9c2a9f7c81","ios":"levelo://app?vid=6100990f-c4b7-4419-ab12-3d9c2a9f7c81"},"vehicle_type_id":"4","last_reported":1738793309,"current_range_meters":36800,"station_id":"ce4bhbp2rcd13ifvqerg","pricing_plan_id":"cebpf4jnsgd1na2vs0mg"},{"bike_id":"d812acb3-8bc1-471a-a24b-c9be9ba671b3","system_id":"levelo_inurba_marseille","lat":43.29889,"lon":5.38898,"is_reserved":false,"is_disabled":false,"rental_uris":{"android":"levelo://app?vid=d812acb3-8bc1-471a-a24b-c9be9ba671b3","ios":"levelo://app?vid=d812acb3-8bc1-471a-a24b-c9be9ba671b3"},"vehicle_type_id":"4","last_reported":1738793309,"current_range_meters":32400,"station_id":"ce4bh392rcd13ifvqdl0","pricing_plan_id":"cebpf4jnsgd1na2vs0mg"},{"bike_id":"b4dd11d9-f5c3-4a76-8fd4-886358e2197a","system_id":"levelo_inurba_marseille","lat":43.28464,"lon":5.39177,"is_reserved":false,"is_disabled":false,"rental_uris":{"android":"levelo://app?vid=b4dd11d9-f5c3-4a76-8fd4-886358e2197a","ios":"levelo://app?vid=b4dd11d9-f5c3-4a76-8fd4-886358e2197a"},"vehicle_type_id":"4","last_reported":1738793309,"current_range_meters":38800,"station_id":"ce4bhoh2rcd13ifvqh5g","pricing_plan_id":"cebpf4jnsgd1na2vs0mg"},{"bike_id":"4632f171-cf04-4c40-bf57-85014fbe394d","system_id":"levelo_inurba_marseille","lat":43.28851,"lon":5.39292,"is_reserved":false,"is_disabled":false,"rental_uris":{"android":"levelo://app?vid=4632f171-cf04-4c40-bf57-85014fbe394d","ios":"levelo://app?vid=4632f171-cf04-4c40-bf57-85014fbe394d"},"vehicle_type_id":"4","last_reported":1738793309,"current_range_meters":31200,"station_id":"ce4bh2p2rcd13ifvqdi0","pricing_plan_id":"cebpf4jnsgd1na2vs0mg"},{"bike_id":"9e7ed56e-6161-417b-903e-3c3d0dd4efa8","system_id":"levelo_inurba_marseille","lat":43.27887,"lon":5.3798,"is_reserved":false,"is_disabled":false,"rental_uris":{"android":"levelo://app?vid=9e7ed56e-6161-417b-903e-3c3d0dd4efa8","ios":"levelo://app?vid=9e7ed56e-6161-417b-903e-3c3d0dd4efa8"},"vehicle_type_id":"4","last_reported":1738793309,"current_range_meters":38000,"station_id":"ce4bhf92rcd13ifvqf50","pricing_plan_id":"cebpf4jnsgd1na2vs0mg"},{"bike_id":"753baeb7-2e77-4b96-96f4-de8ace8429a8","system_id":"levelo_inurba_marseille","lat":43.24693,"lon":5.3811,"is_reserved":false,"is_disabled":false,"rental_uris":{"android":"levelo://app?vid=753baeb7-2e77-4b96-96f4-de8ace8429a8","ios":"levelo://app?vid=753baeb7-2e77-4b96-96f4-de8ace8429a8"},"vehicle_type_id":"4","last_reported":1738793309,"current_range_meters":38400,"station_id":"","pricing_plan_id":"cebpf4jnsgd1na2vs0mg"},{"bike_id":"996e7d18-949b-415c-b2eb-96663b1c0c3c","system_id":"levelo_inurba_marseille","lat":43.30808,"lon":5.38146,"is_reserved":false,"is_disabled":false,"rental_uris":{"android":"levelo://app?vid=996e7d18-949b-415c-b2eb-96663b1c0c3c","ios":"levelo://app?vid=996e7d18-949b-415c-b2eb-96663b1c0c3c"},"vehicle_type_id":"4","last_reported":1738793309,"current_range_meters":38800,"station_id":"ce4bgt12rcd13ifvqce0","pricing_plan_id":"cebpf4jnsgd1na2vs0mg"},{"bike_id":"3112f45f-0119-4c79-97f5-b10928fae186","system_id":"levelo_inurba_marseille","lat":43.2861,"lon":5.37083,"is_reserved":false,"is_disabled":false,"rental_uris":{"android":"levelo://app?vid=3112f45f-0119-4c79-97f5-b10928fae186","ios":"levelo://app?vid=3112f45f-0119-4c79-97f5-b10928fae186"},"vehicle_type_id":"4","last_reported":1738793309,"current_range_meters":28000,"station_id":"ce4bht12rcd13ifvqi60","pricing_plan_id":"cebpf4jnsgd1na2vs0mg"},{"bike_id":"f0905a6d-679c-4b82-9981-9a5a6f538c14","system_id":"levelo_inurba_marseille","lat":43.29865,"lon":5.39753,"is_reserved":false,"is_disabled":false,"rental_uris":{"android":"levelo://app?vid=f0905a6d-679c-4b82-9981-9a5a6f538c14","ios":"levelo://app?vid=f0905a6d-679c-4b82-9981-9a5a6f538c14"},"vehicle_type_id":"4","last_reported":1738793309,"current_range_meters":25600,"station_id":"ce4bh0h2rcd13ifvqd50","pricing_plan_id":"cebpf4jnsgd1na2vs0mg"},{"bike_id":"585fe3f6-a722-4f6f-b2a6-5f7617e3a74b","system_id":"levelo_inurba_marseille","lat":43.251252,"lon":5.403215,"is_reserved":false,"is_disabled":false,"rental_uris":{"android":"levelo://app?vid=585fe3f6-a722-4f6f-b2a6-5f7617e3a74b","ios":"levelo://app?vid=585fe3f6-a722-4f6f-b2a6-5f7617e3a74b"},"vehicle_type_id":"4","last_reported":1738793309,"current_range_meters":39200,"station_id":"ce4bhlh2rcd13ifvqgig","pricing_plan_id":"cebpf4jnsgd1na2vs0mg"},{"bike_id":"bc4186b3-1073-492b-ab95-0326a7b12d0e","system_id":"levelo_inurba_marseille","lat":43.28412,"lon":5.3501,"is_reserved":false,"is_disabled":false,"rental_uris":{"android":"levelo://app?vid=bc4186b3-1073-492b-ab95-0326a7b12d0e","ios":"levelo://app?vid=bc4186b3-1073-492b-ab95-0326a7b12d0e"},"vehicle_type_id":"4","last_reported":1738793309,"current_range_meters":34800,"station_id":"ce4bhbh2rcd13ifvqepg","pricing_plan_id":"cebpf4jnsgd1na2vs0mg"},{"bike_id":"70fbe035-321d-404d-abb5-90c57c24fee3","system_id":"levelo_inurba_marseille","lat":43.29904,"lon":5.38156,"is_reserved":false,"is_disabled":true,"rental_uris":{"android":"levelo://app?vid=70fbe035-321d-404d-abb5-90c57c24fee3","ios":"levelo://app?vid=70fbe035-321d-404d-abb5-90c57c24fee3"},"vehicle_type_id":"4","last_reported":1738793309,"current_range_meters":2000,"station_id":"ce4bgj12rcd13ifvqbc0","pricing_plan_id":"cebpf4jnsgd1na2vs0mg"},{"bike_id":"715f9245-91da-4a7e-a344-95d8ba7af07c","system_id":"levelo_inurba_marseille","lat":43.29031,"lon":5.38635,"is_reserved":false,"is_disabled":true,"rental_uris":{"android":"levelo://app?vid=715f9245-91da-4a7e-a344-95d8ba7af07c","ios":"levelo://app?vid=715f9245-91da-4a7e-a344-95d8ba7af07c"},"vehicle_type_id":"4","last_reported":1738793309,"current_range_meters":12400,"station_id":"ce4bh4p2rcd13ifvqe0g","pricing_plan_id":"cebpf4jnsgd1na2vs0mg"},{"bike_id":"ca548841-038a-498c-a964-8af9b79f0f47","system_id":"levelo_inurba_marseille","lat":43.28039,"lon":5.36953,"is_reserved":false,"is_disabled":false,"rental_uris":{"android":"levelo://app?vid=ca548841-038a-498c-a964-8af9b79f0f47","ios":"levelo://app?vid=ca548841-038a-498c-a964-8af9b79f0f47"},"vehicle_type_id":"4","last_reported":1738793309,"current_range_meters":38800,"station_id":"ce4bha12rcd13ifvqef0","pricing_plan_id":"cebpf4jnsgd1na2vs0mg"},{"bike_id":"3661fddd-6ed0-468f-bb35-163231e8bd01","system_id":"levelo_inurba_marseille","lat":43.32664,"lon":5.40987,"is_reserved":false,"is_disabled":false,"rental_uris":{"android":"levelo://app?vid=3661fddd-6ed0-468f-bb35-163231e8bd01","ios":"levelo://app?vid=3661fddd-6ed0-468f-bb35-163231e8bd01"},"vehicle_type_id":"4","last_reported":1738793309,"current_range_meters":29600,"station_id":"ce4bhpp2rcd13ifvqhgg","pricing_plan_id":"cebpf4jnsgd1na2vs0mg"},{"bike_id":"62a96058-c596-4a79-81e0-c6503f2f8972","system_id":"levelo_inurba_marseille","lat":43.24807,"lon":5.37452,"is_reserved":false,"is_disabled":false,"rental_uris":{"android":"levelo://app?vid=62a96058-c596-4a79-81e0-c6503f2f8972","ios":"levelo://app?vid=62a96058-c596-4a79-81e0-c6503f2f8972"},"vehicle_type_id":"4","last_reported":1738793309,"current_range_meters":29600,"station_id":"ce4bhgh2rcd13ifvqfb0","pricing_plan_id":"cebpf4jnsgd1na2vs0mg"},{"bike_id":"eb811323-2198-4dbe-a514-e507b1502b82","system_id":"levelo_inurba_marseille","lat":43.29218,"lon":5.39293,"is_reserved":false,"is_disabled":false,"rental_uris":{"android":"levelo://app?vid=eb811323-2198-4dbe-a514-e507b1502b82","ios":"levelo://app?vid=eb811323-2198-4dbe-a514-e507b1502b82"},"vehicle_type_id":"4","last_reported":1738793309,"current_range_meters":22000,"station_id":"ce4bh192rcd13ifvqdd0","pricing_plan_id":"cebpf4jnsgd1na2vs0mg"},{"bike_id":"2b52254f-933d-4903-ac07-21eb27a1e798","system_id":"levelo_inurba_marseille","lat":43.27183,"lon":5.40992,"is_reserved":false,"is_disabled":false,"rental_uris":{"android":"levelo://app?vid=2b52254f-933d-4903-ac07-21eb27a1e798","ios":"levelo://app?vid=2b52254f-933d-4903-ac07-21eb27a1e798"},"vehicle_type_id":"4","last_reported":1738793309,"current_range_meters":38400,"station_id":"ce4bhl12rcd13ifvqgf0","pricing_plan_id":"cebpf4jnsgd1na2vs0mg"},{"bike_id":"b71f26a8-aea0-400c-9e0b-6d17400b4960","system_id":"levelo_inurba_marseille","lat":43.31491,"lon":5.3731,"is_reserved":false,"is_disabled":false,"rental_uris":{"android":"levelo://app?vid=b71f26a8-aea0-400c-9e0b-6d17400b4960","ios":"levelo://app?vid=b71f26a8-aea0-400c-9e0b-6d17400b4960"},"vehicle_type_id":"4","last_reported":1738793309,"current_range_meters":34800,"station_id":"ce4bgt12rcd13ifvqcd0","pricing_plan_id":"cebpf4jnsgd1na2vs0mg"},{"bike_id":"0bbb4e04-c71f-4c3c-a6b2-8a7e9b07e32b","system_id":"levelo_inurba_marseille","lat":43.28564,"lon":5.39505,"is_reserved":false,"is_disabled":false,"rental_uris":{"android":"levelo://app?vid=0bbb4e04-c71f-4c3c-a6b2-8a7e9b07e32b","ios":"levelo://app?vid=0bbb4e04-c71f-4c3c-a6b2-8a7e9b07e32b"},"vehicle_type_id":"4","last_reported":1738793309,"current_range_meters":26000,"station_id":"ce4bh292rcd13ifvqdg0","pricing_plan_id":"cebpf4jnsgd1na2vs0mg"},{"bike_id":"0bac15cc-6a2a-4ca7-9838-b4765dbc3f15","system_id":"levelo_inurba_marseille","lat":43.28726,"lon":5.39977,"is_reserved":false,"is_disabled":false,"rental_uris":{"android":"levelo://app?vid=0bac15cc-6a2a-4ca7-9838-b4765dbc3f15","ios":"levelo://app?vid=0bac15cc-6a2a-4ca7-9838-b4765dbc3f15"},"vehicle_type_id":"4","last_reported":1738793309,"current_range_meters":14800,"station_id":"ce4bho92rcd13ifvqh3g","pricing_plan_id":"cebpf4jnsgd1na2vs0mg"},{"bike_id":"52990ad3-a46b-4f6e-b6b0-37c9c50197a1","system_id":"levelo_inurba_marseille","lat":43.31755,"lon":5.3905,"is_reserved":false,"is_disabled":false,"rental_uris":{"android":"levelo://app?vid=52990ad3-a46b-4f6e-b6b0-37c9c50197a1","ios":"levelo://app?vid=52990ad3-a46b-4f6e-b6b0-37c9c50197a1"},"vehicle_type_id":"4","last_reported":1738793309,"current_range_meters":39200,"station_id":"ce4bhqp2rcd13ifvqhng","pricing_plan_id":"cebpf4jnsgd1na2vs0mg"},{"bike_id":"61c83f02-b8b4-497c-a822-a07e72cb75d7","system_id":"levelo_inurba_marseille","lat":43.23157,"lon":5.43707,"is_reserved":false,"is_disabled":false,"rental_uris":{"android":"levelo://app?vid=61c83f02-b8b4-497c-a822-a07e72cb75d7","ios":"levelo://app?vid=61c83f02-b8b4-497c-a822-a07e72cb75d7"},"vehicle_type_id":"4","last_reported":1738793309,"current_range_meters":38800,"station_id":"ce4bhmp2rcd13ifvqgog","pricing_plan_id":"cebpf4jnsgd1na2vs0mg"},{"bike_id":"b0835b4d-5d4e-4b83-8d65-c34141a6bbbb","system_id":"levelo_inurba_marseille","lat":43.29037,"lon":5.35902,"is_reserved":false,"is_disabled":false,"rental_uris":{"android":"levelo://app?vid=b0835b4d-5d4e-4b83-8d65-c34141a6bbbb","ios":"levelo://app?vid=b0835b4d-5d4e-4b83-8d65-c34141a6bbbb"},"vehicle_type_id":"4","last_reported":1738793309,"current_range_meters":38800,"station_id":"ce4bha92rcd13ifvqeg0","pricing_plan_id":"cebpf4jnsgd1na2vs0mg"},{"bike_id":"17bc3afb-aa13-4bd1-bd66-4686c27bdaac","system_id":"levelo_inurba_marseille","lat":43.28041,"lon":5.3694,"is_reserved":false,"is_disabled":false,"rental_uris":{"android":"levelo://app?vid=17bc3afb-aa13-4bd1-bd66-4686c27bdaac","ios":"levelo://app?vid=17bc3afb-aa13-4bd1-bd66-4686c27bdaac"},"vehicle_type_id":"4","last_reported":1738793309,"current_range_meters":32000,"station_id":"ce4bha12rcd13ifvqef0","pricing_plan_id":"cebpf4jnsgd1na2vs0mg"},{"bike_id":"bc3a20aa-daf6-4c5e-ac1c-17a251997803","system_id":"levelo_inurba_marseille","lat":43.245496,"lon":5.395246,"is_reserved":false,"is_disabled":false,"rental_uris":{"android":"levelo://app?vid=bc3a20aa-daf6-4c5e-ac1c-17a251997803","ios":"levelo://app?vid=bc3a20aa-daf6-4c5e-ac1c-17a251997803"},"vehicle_type_id":"4","last_reported":1738793309,"current_range_meters":24400,"station_id":"ce4bhlp2rcd13ifvqgjg","pricing_plan_id":"cebpf4jnsgd1na2vs0mg"},{"bike_id":"391cbd43-416f-41a7-b214-1fd2af19b155","system_id":"levelo_inurba_marseille","lat":43.2926,"lon":5.40902,"is_reserved":false,"is_disabled":false,"rental_uris":{"android":"levelo://app?vid=391cbd43-416f-41a7-b214-1fd2af19b155","ios":"levelo://app?vid=391cbd43-416f-41a7-b214-1fd2af19b155"},"vehicle_type_id":"4","last_reported":1738793309,"current_range_meters":38000,"station_id":"ce4bh192rcd13ifvqdc0","pricing_plan_id":"cebpf4jnsgd1na2vs0mg"},{"bike_id":"fd47bc4a-c937-4fed-ba34-94ecbf245159","system_id":"levelo_inurba_marseille","lat":43.29432,"lon":5.39738,"is_reserved":false,"is_disabled":false,"rental_uris":{"android":"levelo://app?vid=fd47bc4a-c937-4fed-ba34-94ecbf245159","ios":"levelo://app?vid=fd47bc4a-c937-4fed-ba34-94ecbf245159"},"vehicle_type_id":"4","last_reported":1738793309,"current_range_meters":38000,"station_id":"ce4bh3h2rcd13ifvqdo0","pricing_plan_id":"cebpf4jnsgd1na2vs0mg"},{"bike_id":"7471178a-2d1e-43bd-a067-16f6488ad7a0","system_id":"levelo_inurba_marseille","lat":43.285706,"lon":5.394927,"is_reserved":false,"is_disabled":false,"rental_uris":{"android":"levelo://app?vid=7471178a-2d1e-43bd-a067-16f6488ad7a0","ios":"levelo://app?vid=7471178a-2d1e-43bd-a067-16f6488ad7a0"},"vehicle_type_id":"4","last_reported":1738793309,"current_range_meters":38800,"station_id":"ce4bh292rcd13ifvqdg0","pricing_plan_id":"cebpf4jnsgd1na2vs0mg"},{"bike_id":"03253d8c-4097-49f1-9a00-b8ccecf3b429","system_id":"levelo_inurba_marseille","lat":43.28684,"lon":5.36355,"is_reserved":false,"is_disabled":false,"rental_uris":{"android":"levelo://app?vid=03253d8c-4097-49f1-9a00-b8ccecf3b429","ios":"levelo://app?vid=03253d8c-4097-49f1-9a00-b8ccecf3b429"},"vehicle_type_id":"4","last_reported":1738793309,"current_range_meters":36800,"station_id":"ce4bhah2rcd13ifvqej0","pricing_plan_id":"cebpf4jnsgd1na2vs0mg"},{"bike_id":"09963baf-f270-43fd-8845-1d0fc8b80973","system_id":"levelo_inurba_marseille","lat":43.29098,"lon":5.38145,"is_reserved":false,"is_disabled":true,"rental_uris":{"android":"levelo://app?vid=09963baf-f270-43fd-8845-1d0fc8b80973","ios":"levelo://app?vid=09963baf-f270-43fd-8845-1d0fc8b80973"},"vehicle_type_id":"4","last_reported":1738793309,"current_range_meters":2000,"station_id":"ce4bh512rcd13ifvqe2g","pricing_plan_id":"cebpf4jnsgd1na2vs0mg"},{"bike_id":"f43b8c84-0353-4e13-a527-2245aba3e91f","system_id":"levelo_inurba_marseille","lat":43.24543,"lon":5.39536,"is_reserved":false,"is_disabled":false,"rental_uris":{"android":"levelo://app?vid=f43b8c84-0353-4e13-a527-2245aba3e91f","ios":"levelo://app?vid=f43b8c84-0353-4e13-a527-2245aba3e91f"},"vehicle_type_id":"4","last_reported":1738793309,"current_range_meters":38800,"station_id":"ce4bhlp2rcd13ifvqgjg","pricing_plan_id":"cebpf4jnsgd1na2vs0mg"},{"bike_id":"c63f89fe-6e68-417d-b85b-f0e646548dc9","system_id":"levelo_inurba_marseille","lat":43.27797,"lon":5.39958,"is_reserved":false,"is_disabled":false,"rental_uris":{"android":"levelo://app?vid=c63f89fe-6e68-417d-b85b-f0e646548dc9","ios":"levelo://app?vid=c63f89fe-6e68-417d-b85b-f0e646548dc9"},"vehicle_type_id":"4","last_reported":1738793309,"current_range_meters":24800,"station_id":"","pricing_plan_id":"cebpf4jnsgd1na2vs0mg"},{"bike_id":"e4166247-c0cb-44bd-86de-c16fa3f40ccd","system_id":"levelo_inurba_marseille","lat":43.31077,"lon":5.38344,"is_reserved":false,"is_disabled":false,"rental_uris":{"android":"levelo://app?vid=e4166247-c0cb-44bd-86de-c16fa3f40ccd","ios":"levelo://app?vid=e4166247-c0cb-44bd-86de-c16fa3f40ccd"},"vehicle_type_id":"4","last_reported":1738793309,"current_range_meters":38800,"station_id":"ce4bgv92rcd13ifvqcr0","pricing_plan_id":"cebpf4jnsgd1na2vs0mg"},{"bike_id":"a9ee38d0-21e8-4d99-8e3f-cc643e32473e","system_id":"levelo_inurba_marseille","lat":43.27811,"lon":5.40717,"is_reserved":false,"is_disabled":false,"rental_uris":{"android":"levelo://app?vid=a9ee38d0-21e8-4d99-8e3f-cc643e32473e","ios":"levelo://app?vid=a9ee38d0-21e8-4d99-8e3f-cc643e32473e"},"vehicle_type_id":"4","last_reported":1738793309,"current_range_meters":36800,"station_id":"ce4bhnh2rcd13ifvqgtg","pricing_plan_id":"cebpf4jnsgd1na2vs0mg"},{"bike_id":"16c08f4f-5078-4227-884d-a77ebbaaee0c","system_id":"levelo_inurba_marseille","lat":43.28164,"lon":5.42645,"is_reserved":false,"is_disabled":false,"rental_uris":{"android":"levelo://app?vid=16c08f4f-5078-4227-884d-a77ebbaaee0c","ios":"levelo://app?vid=16c08f4f-5078-4227-884d-a77ebbaaee0c"},"vehicle_type_id":"4","last_reported":1738793309,"current_range_meters":5600,"station_id":"ce4bhnh2rcd13ifvqgug","pricing_plan_id":"cebpf4jnsgd1na2vs0mg"},{"bike_id":"9c81c1b8-1b89-413e-855b-6a07871bc1e0","system_id":"levelo_inurba_marseille","lat":43.23964,"lon":5.36636,"is_reserved":false,"is_disabled":false,"rental_uris":{"android":"levelo://app?vid=9c81c1b8-1b89-413e-855b-6a07871bc1e0","ios":"levelo://app?vid=9c81c1b8-1b89-413e-855b-6a07871bc1e0"},"vehicle_type_id":"4","last_reported":1738793309,"current_range_meters":24000,"station_id":"ce4bhi12rcd13ifvqfp0","pricing_plan_id":"cebpf4jnsgd1na2vs0mg"},{"bike_id":"dd44b27e-5cdd-40ef-9581-50edd772f436","system_id":"levelo_inurba_marseille","lat":43.3093,"lon":5.39668,"is_reserved":false,"is_disabled":false,"rental_uris":{"android":"levelo://app?vid=dd44b27e-5cdd-40ef-9581-50edd772f436","ios":"levelo://app?vid=dd44b27e-5cdd-40ef-9581-50edd772f436"},"vehicle_type_id":"4","last_reported":1738793309,"current_range_meters":11600,"station_id":"ce4bh012rcd13ifvqcv0","pricing_plan_id":"cebpf4jnsgd1na2vs0mg"},{"bike_id":"66c91f0e-d404-4399-99c9-77276ceb134d","system_id":"levelo_inurba_marseille","lat":43.30558,"lon":5.36514,"is_reserved":false,"is_disabled":true,"rental_uris":{"android":"levelo://app?vid=66c91f0e-d404-4399-99c9-77276ceb134d","ios":"levelo://app?vid=66c91f0e-d404-4399-99c9-77276ceb134d"},"vehicle_type_id":"4","last_reported":1738793309,"current_range_meters":37600,"station_id":"ce4bgs12rcd13ifvqcag","pricing_plan_id":"cebpf4jnsgd1na2vs0mg"},{"bike_id":"3d1d38d7-e37e-41a9-9885-0f5e96cdb53e","system_id":"levelo_inurba_marseille","lat":43.28455,"lon":5.35902,"is_reserved":false,"is_disabled":false,"rental_uris":{"android":"levelo://app?vid=3d1d38d7-e37e-41a9-9885-0f5e96cdb53e","ios":"levelo://app?vid=3d1d38d7-e37e-41a9-9885-0f5e96cdb53e"},"vehicle_type_id":"4","last_reported":1738793309,"current_range_meters":16000,"station_id":"ce4bhah2rcd13ifvqei0","pricing_plan_id":"cebpf4jnsgd1na2vs0mg"},{"bike_id":"bab07d03-5352-4a1b-80e4-e1f9df8edacd","system_id":"levelo_inurba_marseille","lat":43.23207,"lon":5.35556,"is_reserved":false,"is_disabled":false,"rental_uris":{"android":"levelo://app?vid=bab07d03-5352-4a1b-80e4-e1f9df8edacd","ios":"levelo://app?vid=bab07d03-5352-4a1b-80e4-e1f9df8edacd"},"vehicle_type_id":"4","last_reported":1738793309,"current_range_meters":36400,"station_id":"ce4bhu92rcd13ifvqi70","pricing_plan_id":"cebpf4jnsgd1na2vs0mg"},{"bike_id":"d6b02ddb-972e-4e31-a154-3f284d3774cf","system_id":"levelo_inurba_marseille","lat":43.28736,"lon":5.39988,"is_reserved":false,"is_disabled":false,"rental_uris":{"android":"levelo://app?vid=d6b02ddb-972e-4e31-a154-3f284d3774cf","ios":"levelo://app?vid=d6b02ddb-972e-4e31-a154-3f284d3774cf"},"vehicle_type_id":"4","last_reported":1738793309,"current_range_meters":38800,"station_id":"ce4bho92rcd13ifvqh3g","pricing_plan_id":"cebpf4jnsgd1na2vs0mg"},{"bike_id":"d440eaf8-2e67-42b1-8db6-a79d39e4e8e5","system_id":"levelo_inurba_marseille","lat":43.27966,"lon":5.38747,"is_reserved":false,"is_disabled":false,"rental_uris":{"android":"levelo://app?vid=d440eaf8-2e67-42b1-8db6-a79d39e4e8e5","ios":"levelo://app?vid=d440eaf8-2e67-42b1-8db6-a79d39e4e8e5"},"vehicle_type_id":"4","last_reported":1738793309,"current_range_meters":27200,"station_id":"ce4bhg12rcd13ifvqf80","pricing_plan_id":"cebpf4jnsgd1na2vs0mg"},{"bike_id":"9ebcbce8-964a-4689-9667-09d1b3c783c6","system_id":"levelo_inurba_marseille","lat":43.30262,"lon":5.40081,"is_reserved":false,"is_disabled":false,"rental_uris":{"android":"levelo://app?vid=9ebcbce8-964a-4689-9667-09d1b3c783c6","ios":"levelo://app?vid=9ebcbce8-964a-4689-9667-09d1b3c783c6"},"vehicle_type_id":"4","last_reported":1738793309,"current_range_meters":39200,"station_id":"ce4bgvh2rcd13ifvqcs0","pricing_plan_id":"cebpf4jnsgd1na2vs0mg"},{"bike_id":"7a403815-4564-4bf5-91d5-f589fdaa975e","system_id":"levelo_inurba_marseille","lat":43.28619,"lon":5.35101,"is_reserved":false,"is_disabled":false,"rental_uris":{"android":"levelo://app?vid=7a403815-4564-4bf5-91d5-f589fdaa975e","ios":"levelo://app?vid=7a403815-4564-4bf5-91d5-f589fdaa975e"},"vehicle_type_id":"4","last_reported":1738793309,"current_range_meters":14400,"station_id":"ce4bhch2rcd13ifvqeug","pricing_plan_id":"cebpf4jnsgd1na2vs0mg"},{"bike_id":"fe6af45d-16c8-46c2-8c40-0e7d876a3309","system_id":"levelo_inurba_marseille","lat":43.29046,"lon":5.40007,"is_reserved":false,"is_disabled":true,"rental_uris":{"android":"levelo://app?vid=fe6af45d-16c8-46c2-8c40-0e7d876a3309","ios":"levelo://app?vid=fe6af45d-16c8-46c2-8c40-0e7d876a3309"},"vehicle_type_id":"4","last_reported":1738793309,"current_range_meters":0,"station_id":"ce4bh392rcd13ifvqdm0","pricing_plan_id":"cebpf4jnsgd1na2vs0mg"},{"bike_id":"56915f38-ec53-48db-9554-671348a1f6cb","system_id":"levelo_inurba_marseille","lat":43.33025,"lon":5.39048,"is_reserved":false,"is_disabled":false,"rental_uris":{"android":"levelo://app?vid=56915f38-ec53-48db-9554-671348a1f6cb","ios":"levelo://app?vid=56915f38-ec53-48db-9554-671348a1f6cb"},"vehicle_type_id":"4","last_reported":1738793309,"current_range_meters":37600,"station_id":"ce4bhr92rcd13ifvqhrg","pricing_plan_id":"cebpf4jnsgd1na2vs0mg"},{"bike_id":"c72720ae-dda9-429a-801b-d6af68e5e6c6","system_id":"levelo_inurba_marseille","lat":43.28663,"lon":5.36368,"is_reserved":false,"is_disabled":false,"rental_uris":{"android":"levelo://app?vid=c72720ae-dda9-429a-801b-d6af68e5e6c6","ios":"levelo://app?vid=c72720ae-dda9-429a-801b-d6af68e5e6c6"},"vehicle_type_id":"4","last_reported":1738793309,"current_range_meters":25200,"station_id":"ce4bho92rcd13ifvqh3g","pricing_plan_id":"cebpf4jnsgd1na2vs0mg"},{"bike_id":"ddb48a2e-0e7a-4db9-bb08-d15c6b7ecf4a","system_id":"levelo_inurba_marseille","lat":43.27626,"lon":5.36122,"is_reserved":false,"is_disabled":false,"rental_uris":{"android":"levelo://app?vid=ddb48a2e-0e7a-4db9-bb08-d15c6b7ecf4a","ios":"levelo://app?vid=ddb48a2e-0e7a-4db9-bb08-d15c6b7ecf4a"},"vehicle_type_id":"4","last_reported":1738793309,"current_range_meters":38400,"station_id":"ce4bgj92rcd13ifvqbe0","pricing_plan_id":"cebpf4jnsgd1na2vs0mg"},{"bike_id":"039d6344-780f-4135-a3ba-fc6df29ecbb3","system_id":"levelo_inurba_marseille","lat":43.27372,"lon":5.36258,"is_reserved":false,"is_disabled":false,"rental_uris":{"android":"levelo://app?vid=039d6344-780f-4135-a3ba-fc6df29ecbb3","ios":"levelo://app?vid=039d6344-780f-4135-a3ba-fc6df29ecbb3"},"vehicle_type_id":"4","last_reported":1738793309,"current_range_meters":38800,"station_id":"ce4bhbh2rcd13ifvqeo0","pricing_plan_id":"cebpf4jnsgd1na2vs0mg"},{"bike_id":"e7d31327-323a-443c-bb67-39186722e63f","system_id":"levelo_inurba_marseille","lat":43.33766,"lon":5.37418,"is_reserved":false,"is_disabled":false,"rental_uris":{"android":"levelo://app?vid=e7d31327-323a-443c-bb67-39186722e63f","ios":"levelo://app?vid=e7d31327-323a-443c-bb67-39186722e63f"},"vehicle_type_id":"4","last_reported":1738793309,"current_range_meters":9600,"station_id":"","pricing_plan_id":"cebpf4jnsgd1na2vs0mg"},{"bike_id":"fc9b84c8-af70-404f-966e-54be7fdd3f8f","system_id":"levelo_inurba_marseille","lat":43.29917,"lon":5.37473,"is_reserved":false,"is_disabled":false,"rental_uris":{"android":"levelo://app?vid=fc9b84c8-af70-404f-966e-54be7fdd3f8f","ios":"levelo://app?vid=fc9b84c8-af70-404f-966e-54be7fdd3f8f"},"vehicle_type_id":"4","last_reported":1738793309,"current_range_meters":35600,"station_id":"ce4bgjh2rcd13ifvqbg0","pricing_plan_id":"cebpf4jnsgd1na2vs0mg"},{"bike_id":"2572fdac-e7f3-4485-9667-c97086ae89fa","system_id":"levelo_inurba_marseille","lat":43.28728,"lon":5.36089,"is_reserved":false,"is_disabled":false,"rental_uris":{"android":"levelo://app?vid=2572fdac-e7f3-4485-9667-c97086ae89fa","ios":"levelo://app?vid=2572fdac-e7f3-4485-9667-c97086ae89fa"},"vehicle_type_id":"4","last_reported":1738793309,"current_range_meters":27200,"station_id":"cki0cbj6b192h4jlfktg","pricing_plan_id":"cebpf4jnsgd1na2vs0mg"},{"bike_id":"9f662178-8e13-4fbd-b72e-d4c1be152a5e","system_id":"levelo_inurba_marseille","lat":43.29264,"lon":5.38435,"is_reserved":false,"is_disabled":false,"rental_uris":{"android":"levelo://app?vid=9f662178-8e13-4fbd-b72e-d4c1be152a5e","ios":"levelo://app?vid=9f662178-8e13-4fbd-b72e-d4c1be152a5e"},"vehicle_type_id":"4","last_reported":1738793309,"current_range_meters":26000,"station_id":"ce4bh692rcd13ifvqea0","pricing_plan_id":"cebpf4jnsgd1na2vs0mg"},{"bike_id":"3cfb7099-62ec-4f80-a90a-a4428295d8b8","system_id":"levelo_inurba_marseille","lat":43.28081,"lon":5.39642,"is_reserved":false,"is_disabled":false,"rental_uris":{"android":"levelo://app?vid=3cfb7099-62ec-4f80-a90a-a4428295d8b8","ios":"levelo://app?vid=3cfb7099-62ec-4f80-a90a-a4428295d8b8"},"vehicle_type_id":"4","last_reported":1738793309,"current_range_meters":36400,"station_id":"ce4bho12rcd13ifvqh2g","pricing_plan_id":"cebpf4jnsgd1na2vs0mg"},{"bike_id":"f22c00d6-3566-4ae5-aa94-b50316485663","system_id":"levelo_inurba_marseille","lat":43.27945,"lon":5.4105,"is_reserved":false,"is_disabled":false,"rental_uris":{"android":"levelo://app?vid=f22c00d6-3566-4ae5-aa94-b50316485663","ios":"levelo://app?vid=f22c00d6-3566-4ae5-aa94-b50316485663"},"vehicle_type_id":"4","last_reported":1738793309,"current_range_meters":7200,"station_id":"ce4bhnp2rcd13ifvqh0g","pricing_plan_id":"cebpf4jnsgd1na2vs0mg"},{"bike_id":"6522239a-3688-4f94-bb02-adaf4a055ea5","system_id":"levelo_inurba_marseille","lat":43.23203,"lon":5.35554,"is_reserved":false,"is_disabled":false,"rental_uris":{"android":"levelo://app?vid=6522239a-3688-4f94-bb02-adaf4a055ea5","ios":"levelo://app?vid=6522239a-3688-4f94-bb02-adaf4a055ea5"},"vehicle_type_id":"4","last_reported":1738793309,"current_range_meters":38000,"station_id":"ce4bhu92rcd13ifvqi70","pricing_plan_id":"cebpf4jnsgd1na2vs0mg"},{"bike_id":"aee3719b-ff75-435e-aa1c-24b4bddf333e","system_id":"levelo_inurba_marseille","lat":43.24095,"lon":5.37766,"is_reserved":false,"is_disabled":false,"rental_uris":{"android":"levelo://app?vid=aee3719b-ff75-435e-aa1c-24b4bddf333e","ios":"levelo://app?vid=aee3719b-ff75-435e-aa1c-24b4bddf333e"},"vehicle_type_id":"4","last_reported":1738793309,"current_range_meters":22400,"station_id":"ce4bhnp2rcd13ifvqgvg","pricing_plan_id":"cebpf4jnsgd1na2vs0mg"},{"bike_id":"218c6780-4913-4816-a406-0f459333ae5d","system_id":"levelo_inurba_marseille","lat":43.28455,"lon":5.35889,"is_reserved":false,"is_disabled":false,"rental_uris":{"android":"levelo://app?vid=218c6780-4913-4816-a406-0f459333ae5d","ios":"levelo://app?vid=218c6780-4913-4816-a406-0f459333ae5d"},"vehicle_type_id":"4","last_reported":1738793309,"current_range_meters":30000,"station_id":"ce4bhah2rcd13ifvqei0","pricing_plan_id":"cebpf4jnsgd1na2vs0mg"},{"bike_id":"d97d59e1-9580-48c7-9ee3-34b0cdc67193","system_id":"levelo_inurba_marseille","lat":43.28094,"lon":5.37855,"is_reserved":false,"is_disabled":false,"rental_uris":{"android":"levelo://app?vid=d97d59e1-9580-48c7-9ee3-34b0cdc67193","ios":"levelo://app?vid=d97d59e1-9580-48c7-9ee3-34b0cdc67193"},"vehicle_type_id":"4","last_reported":1738793309,"current_range_meters":7200,"station_id":"ce4bha12rcd13ifvqee0","pricing_plan_id":"cebpf4jnsgd1na2vs0mg"},{"bike_id":"61857cc0-1da3-4716-a1df-4b82d2ea552c","system_id":"levelo_inurba_marseille","lat":43.25109,"lon":5.40323,"is_reserved":false,"is_disabled":false,"rental_uris":{"android":"levelo://app?vid=61857cc0-1da3-4716-a1df-4b82d2ea552c","ios":"levelo://app?vid=61857cc0-1da3-4716-a1df-4b82d2ea552c"},"vehicle_type_id":"4","last_reported":1738793309,"current_range_meters":28400,"station_id":"ce4bhlh2rcd13ifvqgig","pricing_plan_id":"cebpf4jnsgd1na2vs0mg"},{"bike_id":"cd07e062-2af1-406e-bcb9-5f1ec4730937","system_id":"levelo_inurba_marseille","lat":43.23066,"lon":5.35493,"is_reserved":false,"is_disabled":false,"rental_uris":{"android":"levelo://app?vid=cd07e062-2af1-406e-bcb9-5f1ec4730937","ios":"levelo://app?vid=cd07e062-2af1-406e-bcb9-5f1ec4730937"},"vehicle_type_id":"4","last_reported":1738793309,"current_range_meters":37600,"station_id":"cpo3342slgdg3j2ifvpg","pricing_plan_id":"cebpf4jnsgd1na2vs0mg"},{"bike_id":"c3644d12-8427-4602-9945-9ef42c46feca","system_id":"levelo_inurba_marseille","lat":43.24168,"lon":5.36406,"is_reserved":false,"is_disabled":false,"rental_uris":{"android":"levelo://app?vid=c3644d12-8427-4602-9945-9ef42c46feca","ios":"levelo://app?vid=c3644d12-8427-4602-9945-9ef42c46feca"},"vehicle_type_id":"4","last_reported":1738793309,"current_range_meters":37600,"station_id":"cpo36qri1sfpv3e86is0","pricing_plan_id":"cebpf4jnsgd1na2vs0mg"},{"bike_id":"6b38d43d-337c-4149-9167-ccfdd61c33a4","system_id":"levelo_inurba_marseille","lat":43.292199,"lon":5.360738,"is_reserved":false,"is_disabled":false,"rental_uris":{"android":"levelo://app?vid=6b38d43d-337c-4149-9167-ccfdd61c33a4","ios":"levelo://app?vid=6b38d43d-337c-4149-9167-ccfdd61c33a4"},"vehicle_type_id":"4","last_reported":1738793309,"current_range_meters":34800,"station_id":"ce4bhbh2rcd13ifvqeqg","pricing_plan_id":"cebpf4jnsgd1na2vs0mg"},{"bike_id":"274186d6-fcd1-4040-98ea-21465f7f35af","system_id":"levelo_inurba_marseille","lat":43.25039,"lon":5.38926,"is_reserved":false,"is_disabled":false,"rental_uris":{"android":"levelo://app?vid=274186d6-fcd1-4040-98ea-21465f7f35af","ios":"levelo://app?vid=274186d6-fcd1-4040-98ea-21465f7f35af"},"vehicle_type_id":"4","last_reported":1738793309,"current_range_meters":38800,"station_id":"ce4bhgp2rcd13ifvqfd0","pricing_plan_id":"cebpf4jnsgd1na2vs0mg"},{"bike_id":"1e7bde43-ab8f-4755-b59a-acd0a53ae759","system_id":"levelo_inurba_marseille","lat":43.31721,"lon":5.42403,"is_reserved":false,"is_disabled":true,"rental_uris":{"android":"levelo://app?vid=1e7bde43-ab8f-4755-b59a-acd0a53ae759","ios":"levelo://app?vid=1e7bde43-ab8f-4755-b59a-acd0a53ae759"},"vehicle_type_id":"4","last_reported":1738793309,"current_range_meters":0,"station_id":"ce4bhp92rcd13ifvqhbg","pricing_plan_id":"cebpf4jnsgd1na2vs0mg"},{"bike_id":"59b73468-fd33-4932-88a3-798abaf357eb","system_id":"levelo_inurba_marseille","lat":43.3361,"lon":5.41025,"is_reserved":false,"is_disabled":false,"rental_uris":{"android":"levelo://app?vid=59b73468-fd33-4932-88a3-798abaf357eb","ios":"levelo://app?vid=59b73468-fd33-4932-88a3-798abaf357eb"},"vehicle_type_id":"4","last_reported":1738793309,"current_range_meters":39200,"station_id":"ce4bhqh2rcd13ifvqhmg","pricing_plan_id":"cebpf4jnsgd1na2vs0mg"},{"bike_id":"2b5bb722-8b5c-41b5-9116-270f2b5ff6fa","system_id":"levelo_inurba_marseille","lat":43.28681,"lon":5.38666,"is_reserved":false,"is_disabled":false,"rental_uris":{"android":"levelo://app?vid=2b5bb722-8b5c-41b5-9116-270f2b5ff6fa","ios":"levelo://app?vid=2b5bb722-8b5c-41b5-9116-270f2b5ff6fa"},"vehicle_type_id":"4","last_reported":1738793309,"current_range_meters":33600,"station_id":"ce4bh492rcd13ifvqdug","pricing_plan_id":"cebpf4jnsgd1na2vs0mg"},{"bike_id":"bd944b22-bdc4-45a8-9a31-0c38734abd7e","system_id":"levelo_inurba_marseille","lat":43.28948,"lon":5.36387,"is_reserved":false,"is_disabled":true,"rental_uris":{"android":"levelo://app?vid=bd944b22-bdc4-45a8-9a31-0c38734abd7e","ios":"levelo://app?vid=bd944b22-bdc4-45a8-9a31-0c38734abd7e"},"vehicle_type_id":"4","last_reported":1738793309,"current_range_meters":3600,"station_id":"ce4bhc92rcd13ifvqetg","pricing_plan_id":"cebpf4jnsgd1na2vs0mg"},{"bike_id":"dea8f2dd-d434-48f4-9202-71ab3e361aaa","system_id":"levelo_inurba_marseille","lat":43.28884,"lon":5.3586,"is_reserved":false,"is_disabled":false,"rental_uris":{"android":"levelo://app?vid=dea8f2dd-d434-48f4-9202-71ab3e361aaa","ios":"levelo://app?vid=dea8f2dd-d434-48f4-9202-71ab3e361aaa"},"vehicle_type_id":"4","last_reported":1738793309,"current_range_meters":39200,"station_id":"ce4bhb12rcd13ifvqem0","pricing_plan_id":"cebpf4jnsgd1na2vs0mg"},{"bike_id":"78a4c83f-4d73-437d-9527-15d2cb2bd443","system_id":"levelo_inurba_marseille","lat":43.28141,"lon":5.42682,"is_reserved":false,"is_disabled":false,"rental_uris":{"android":"levelo://app?vid=78a4c83f-4d73-437d-9527-15d2cb2bd443","ios":"levelo://app?vid=78a4c83f-4d73-437d-9527-15d2cb2bd443"},"vehicle_type_id":"4","last_reported":1738793309,"current_range_meters":23200,"station_id":"ce4bhnh2rcd13ifvqgug","pricing_plan_id":"cebpf4jnsgd1na2vs0mg"},{"bike_id":"9b65bab4-c48c-4080-b355-dc458d2b62bb","system_id":"levelo_inurba_marseille","lat":43.30948,"lon":5.40151,"is_reserved":false,"is_disabled":false,"rental_uris":{"android":"levelo://app?vid=9b65bab4-c48c-4080-b355-dc458d2b62bb","ios":"levelo://app?vid=9b65bab4-c48c-4080-b355-dc458d2b62bb"},"vehicle_type_id":"4","last_reported":1738793309,"current_range_meters":32800,"station_id":"ce4bgvp2rcd13ifvqct0","pricing_plan_id":"cebpf4jnsgd1na2vs0mg"},{"bike_id":"45a7daa2-2a2e-4454-90c3-1009aaecc5bd","system_id":"levelo_inurba_marseille","lat":43.23232,"lon":5.35519,"is_reserved":false,"is_disabled":false,"rental_uris":{"android":"levelo://app?vid=45a7daa2-2a2e-4454-90c3-1009aaecc5bd","ios":"levelo://app?vid=45a7daa2-2a2e-4454-90c3-1009aaecc5bd"},"vehicle_type_id":"4","last_reported":1738793309,"current_range_meters":38800,"station_id":"ce4bhu92rcd13ifvqi70","pricing_plan_id":"cebpf4jnsgd1na2vs0mg"},{"bike_id":"ee005bae-497c-4312-9b03-99403b18d5fb","system_id":"levelo_inurba_marseille","lat":43.26039,"lon":5.3755,"is_reserved":false,"is_disabled":false,"rental_uris":{"android":"levelo://app?vid=ee005bae-497c-4312-9b03-99403b18d5fb","ios":"levelo://app?vid=ee005bae-497c-4312-9b03-99403b18d5fb"},"vehicle_type_id":"4","last_reported":1738793309,"current_range_meters":14400,"station_id":"ce4bhgh2rcd13ifvqfa0","pricing_plan_id":"cebpf4jnsgd1na2vs0mg"},{"bike_id":"aece1634-918f-4f68-8bc7-9a7b7abafc1f","system_id":"levelo_inurba_marseille","lat":43.28153,"lon":5.42638,"is_reserved":false,"is_disabled":true,"rental_uris":{"android":"levelo://app?vid=aece1634-918f-4f68-8bc7-9a7b7abafc1f","ios":"levelo://app?vid=aece1634-918f-4f68-8bc7-9a7b7abafc1f"},"vehicle_type_id":"4","last_reported":1738793309,"current_range_meters":28400,"station_id":"ce4bhnh2rcd13ifvqgug","pricing_plan_id":"cebpf4jnsgd1na2vs0mg"},{"bike_id":"72e458a9-2a04-4d7d-a6ed-4033588f5b60","system_id":"levelo_inurba_marseille","lat":43.32371,"lon":5.38894,"is_reserved":false,"is_disabled":false,"rental_uris":{"android":"levelo://app?vid=72e458a9-2a04-4d7d-a6ed-4033588f5b60","ios":"levelo://app?vid=72e458a9-2a04-4d7d-a6ed-4033588f5b60"},"vehicle_type_id":"4","last_reported":1738793309,"current_range_meters":24000,"station_id":"ce4bhqp2rcd13ifvqhog","pricing_plan_id":"cebpf4jnsgd1na2vs0mg"},{"bike_id":"e4fbacd2-2c44-4b78-b9fc-d346dc2a77d1","system_id":"levelo_inurba_marseille","lat":43.32374,"lon":5.38882,"is_reserved":false,"is_disabled":false,"rental_uris":{"android":"levelo://app?vid=e4fbacd2-2c44-4b78-b9fc-d346dc2a77d1","ios":"levelo://app?vid=e4fbacd2-2c44-4b78-b9fc-d346dc2a77d1"},"vehicle_type_id":"4","last_reported":1738793309,"current_range_meters":36800,"station_id":"ce4bhqp2rcd13ifvqhog","pricing_plan_id":"cebpf4jnsgd1na2vs0mg"},{"bike_id":"3b1d5f28-8e2f-4cd2-84ee-32e60c8bc1d4","system_id":"levelo_inurba_marseille","lat":43.27969,"lon":5.3868,"is_reserved":false,"is_disabled":true,"rental_uris":{"android":"levelo://app?vid=3b1d5f28-8e2f-4cd2-84ee-32e60c8bc1d4","ios":"levelo://app?vid=3b1d5f28-8e2f-4cd2-84ee-32e60c8bc1d4"},"vehicle_type_id":"4","last_reported":1738793309,"current_range_meters":0,"station_id":"","pricing_plan_id":"cebpf4jnsgd1na2vs0mg"},{"bike_id":"dd71d97f-8b4b-4a1b-a8d7-a09a3041be67","system_id":"levelo_inurba_marseille","lat":43.28164,"lon":5.42639,"is_reserved":false,"is_disabled":false,"rental_uris":{"android":"levelo://app?vid=dd71d97f-8b4b-4a1b-a8d7-a09a3041be67","ios":"levelo://app?vid=dd71d97f-8b4b-4a1b-a8d7-a09a3041be67"},"vehicle_type_id":"4","last_reported":1738793309,"current_range_meters":38800,"station_id":"ce4bhnh2rcd13ifvqgug","pricing_plan_id":"cebpf4jnsgd1na2vs0mg"},{"bike_id":"a17b902b-bafc-49d0-9389-2ce74253b3a1","system_id":"levelo_inurba_marseille","lat":43.27182,"lon":5.40989,"is_reserved":false,"is_disabled":true,"rental_uris":{"android":"levelo://app?vid=a17b902b-bafc-49d0-9389-2ce74253b3a1","ios":"levelo://app?vid=a17b902b-bafc-49d0-9389-2ce74253b3a1"},"vehicle_type_id":"4","last_reported":1738793309,"current_range_meters":39200,"station_id":"ce4bhl12rcd13ifvqgf0","pricing_plan_id":"cebpf4jnsgd1na2vs0mg"},{"bike_id":"82928581-7cae-4db3-9a68-a5b9ec34a9ee","system_id":"levelo_inurba_marseille","lat":43.31883,"lon":5.43385,"is_reserved":false,"is_disabled":true,"rental_uris":{"android":"levelo://app?vid=82928581-7cae-4db3-9a68-a5b9ec34a9ee","ios":"levelo://app?vid=82928581-7cae-4db3-9a68-a5b9ec34a9ee"},"vehicle_type_id":"4","last_reported":1738793309,"current_range_meters":0,"station_id":"","pricing_plan_id":"cebpf4jnsgd1na2vs0mg"},{"bike_id":"9d71d304-2002-4ef9-bd23-de48bc17ac77","system_id":"levelo_inurba_marseille","lat":43.24091,"lon":5.37676,"is_reserved":false,"is_disabled":false,"rental_uris":{"android":"levelo://app?vid=9d71d304-2002-4ef9-bd23-de48bc17ac77","ios":"levelo://app?vid=9d71d304-2002-4ef9-bd23-de48bc17ac77"},"vehicle_type_id":"4","last_reported":1738793309,"current_range_meters":38800,"station_id":"ce4bhnp2rcd13ifvqgvg","pricing_plan_id":"cebpf4jnsgd1na2vs0mg"},{"bike_id":"ec2cdfb0-cfd0-4830-9e84-a7e02fd3873a","system_id":"levelo_inurba_marseille","lat":43.27176,"lon":5.40998,"is_reserved":false,"is_disabled":true,"rental_uris":{"android":"levelo://app?vid=ec2cdfb0-cfd0-4830-9e84-a7e02fd3873a","ios":"levelo://app?vid=ec2cdfb0-cfd0-4830-9e84-a7e02fd3873a"},"vehicle_type_id":"4","last_reported":1738793309,"current_range_meters":0,"station_id":"ce4bhl12rcd13ifvqgf0","pricing_plan_id":"cebpf4jnsgd1na2vs0mg"},{"bike_id":"4a0f6893-fde6-49c6-a1ca-e86134e00597","system_id":"levelo_inurba_marseille","lat":43.28954,"lon":5.36627,"is_reserved":false,"is_disabled":false,"rental_uris":{"android":"levelo://app?vid=4a0f6893-fde6-49c6-a1ca-e86134e00597","ios":"levelo://app?vid=4a0f6893-fde6-49c6-a1ca-e86134e00597"},"vehicle_type_id":"4","last_reported":1738793309,"current_range_meters":38800,"station_id":"ce4bhap2rcd13ifvqek0","pricing_plan_id":"cebpf4jnsgd1na2vs0mg"},{"bike_id":"39e48cdd-1e81-47f1-8caa-7197be9aaab1","system_id":"levelo_inurba_marseille","lat":43.31743,"lon":5.39023,"is_reserved":false,"is_disabled":false,"rental_uris":{"android":"levelo://app?vid=39e48cdd-1e81-47f1-8caa-7197be9aaab1","ios":"levelo://app?vid=39e48cdd-1e81-47f1-8caa-7197be9aaab1"},"vehicle_type_id":"4","last_reported":1738793309,"current_range_meters":38800,"station_id":"ce4bhqp2rcd13ifvqhng","pricing_plan_id":"cebpf4jnsgd1na2vs0mg"},{"bike_id":"e7c1e588-17f4-4a84-9179-50c6166feadc","system_id":"levelo_inurba_marseille","lat":43.29436,"lon":5.38628,"is_reserved":false,"is_disabled":false,"rental_uris":{"android":"levelo://app?vid=e7c1e588-17f4-4a84-9179-50c6166feadc","ios":"levelo://app?vid=e7c1e588-17f4-4a84-9179-50c6166feadc"},"vehicle_type_id":"4","last_reported":1738793309,"current_range_meters":30800,"station_id":"ce4bh2h2rcd13ifvqdh0","pricing_plan_id":"cebpf4jnsgd1na2vs0mg"},{"bike_id":"413ee783-fa0f-4eb3-80d3-5262aac8c9db","system_id":"levelo_inurba_marseille","lat":43.28936,"lon":5.3663,"is_reserved":false,"is_disabled":false,"rental_uris":{"android":"levelo://app?vid=413ee783-fa0f-4eb3-80d3-5262aac8c9db","ios":"levelo://app?vid=413ee783-fa0f-4eb3-80d3-5262aac8c9db"},"vehicle_type_id":"4","last_reported":1738793309,"current_range_meters":5600,"station_id":"ce4bhap2rcd13ifvqek0","pricing_plan_id":"cebpf4jnsgd1na2vs0mg"},{"bike_id":"93f89aed-45dc-4731-909b-005a8cc9c9bd","system_id":"levelo_inurba_marseille","lat":43.28612,"lon":5.37067,"is_reserved":false,"is_disabled":false,"rental_uris":{"android":"levelo://app?vid=93f89aed-45dc-4731-909b-005a8cc9c9bd","ios":"levelo://app?vid=93f89aed-45dc-4731-909b-005a8cc9c9bd"},"vehicle_type_id":"4","last_reported":1738793309,"current_range_meters":38800,"station_id":"ce4bht12rcd13ifvqi60","pricing_plan_id":"cebpf4jnsgd1na2vs0mg"},{"bike_id":"554e5e02-8015-4d2a-aeb7-01f85173ce07","system_id":"levelo_inurba_marseille","lat":43.29037,"lon":5.35902,"is_reserved":false,"is_disabled":false,"rental_uris":{"android":"levelo://app?vid=554e5e02-8015-4d2a-aeb7-01f85173ce07","ios":"levelo://app?vid=554e5e02-8015-4d2a-aeb7-01f85173ce07"},"vehicle_type_id":"4","last_reported":1738793309,"current_range_meters":38800,"station_id":"ce4bha92rcd13ifvqeg0","pricing_plan_id":"cebpf4jnsgd1na2vs0mg"},{"bike_id":"2118c82d-0143-415d-aaf1-22408e5c55b9","system_id":"levelo_inurba_marseille","lat":43.28451,"lon":5.39153,"is_reserved":false,"is_disabled":false,"rental_uris":{"android":"levelo://app?vid=2118c82d-0143-415d-aaf1-22408e5c55b9","ios":"levelo://app?vid=2118c82d-0143-415d-aaf1-22408e5c55b9"},"vehicle_type_id":"4","last_reported":1738793309,"current_range_meters":36800,"station_id":"ce4bhoh2rcd13ifvqh5g","pricing_plan_id":"cebpf4jnsgd1na2vs0mg"},{"bike_id":"0a1d80a5-8567-473e-862c-e2d2e710157a","system_id":"levelo_inurba_marseille","lat":43.28428,"lon":5.34996,"is_reserved":false,"is_disabled":false,"rental_uris":{"android":"levelo://app?vid=0a1d80a5-8567-473e-862c-e2d2e710157a","ios":"levelo://app?vid=0a1d80a5-8567-473e-862c-e2d2e710157a"},"vehicle_type_id":"4","last_reported":1738793309,"current_range_meters":32400,"station_id":"ce4bhbh2rcd13ifvqepg","pricing_plan_id":"cebpf4jnsgd1na2vs0mg"},{"bike_id":"7f64bf93-c7ff-40e1-9599-cff0e491a7ae","system_id":"levelo_inurba_marseille","lat":43.29193,"lon":5.35817,"is_reserved":false,"is_disabled":false,"rental_uris":{"android":"levelo://app?vid=7f64bf93-c7ff-40e1-9599-cff0e491a7ae","ios":"levelo://app?vid=7f64bf93-c7ff-40e1-9599-cff0e491a7ae"},"vehicle_type_id":"4","last_reported":1738793309,"current_range_meters":23200,"station_id":"ce4bhb12rcd13ifvqel0","pricing_plan_id":"cebpf4jnsgd1na2vs0mg"},{"bike_id":"dc500216-338e-48ed-8e31-8e4a1f96f78e","system_id":"levelo_inurba_marseille","lat":43.27174,"lon":5.40996,"is_reserved":false,"is_disabled":false,"rental_uris":{"android":"levelo://app?vid=dc500216-338e-48ed-8e31-8e4a1f96f78e","ios":"levelo://app?vid=dc500216-338e-48ed-8e31-8e4a1f96f78e"},"vehicle_type_id":"4","last_reported":1738793309,"current_range_meters":27600,"station_id":"ce4bhl12rcd13ifvqgf0","pricing_plan_id":"cebpf4jnsgd1na2vs0mg"},