{"last_updated":1700662041,"ttl":30,"version":"2.2","data":{"bikes":[{"bike_id":"9bbb70a8-fa30-45ce-a73d-1c317ca21259","system_id":"levelo_inurba_marseille","lat":43.313436,"lon":5.367153,"is_reserved":false,"is_disabled":false,"rental_uris":{"android":"levelo://app?vid=9bbb70a8-fa30-45ce-a73d-1c317ca21259","ios":"levelo://app?vid=9bbb70a8-fa30-45ce-a73d-1c317ca21259"},"vehicle_type_id":"4","last_reported":1700662041,"current_range_meters":31200,"station_id":"ce4bgr92rcd13ifvqc6g","pricing_plan_id":"free"},{"bike_id":"e39ff721-fcdc-4ca2-85d5-e0c00362456e","system_id":"levelo_inurba_marseille","lat":43.313518,"lon":5.36712,"is_reserved":false,"is_disabled":false,"rental_uris":{"android":"levelo://app?vid=e39ff721-fcdc-4ca2-85d5-e0c00362456e","ios":"levelo://app?vid=e39ff721-fcdc-4ca2-85d5-e0c00362456e"},"vehicle_type_id":"4","last_reported":1700662041,"current_range_meters":24800,"station_id":"ce4bgr92rcd13ifvqc6g","pricing_plan_id":"free"},{"bike_id":"3ed95cf9-91c6-4120-b3f4-13c943ca18b3","system_id":"levelo_inurba_marseille","lat":43.313522,"lon":5.367117,"is_reserved":false,"is_disabled":false,"rental_uris":{"android":"levelo://app?vid=3ed95cf9-91c6-4120-b3f4-13c943ca18b3","ios":"levelo://app?vid=3ed95cf9-91c6-4120-b3f4-13c943ca18b3"},"vehicle_type_id":"4","last_reported":1700662041,"current_range_meters":31200,"station_id":"ce4bgr92rcd13ifvqc6g","pricing_plan_id":"free"},{"bike_id":"8974ce4e-7f04-4412-83c6-8e8fdf4b4239","system_id":"levelo_inurba_marseille","lat":43.312239,"lon":5.368562,"is_reserved":false,"is_disabled":false,"rental_uris":{"android":"levelo://app?vid=8974ce4e-7f04-4412-83c6-8e8fdf4b4239","ios":"levelo://app?vid=8974ce4e-7f04-4412-83c6-8e8fdf4b4239"},"vehicle_type_id":"4","last_reported":1700662041,"current_range_meters":28400,"station_id":"ce4bgl92rcd13ifvqbq0","pricing_plan_id":"free"},{"bike_id":"892e3572-13f2-4526-a888-fd92206d8abb","system_id":"levelo_inurba_marseille","lat":43.312239,"lon":5.368562,"is_reserved":false,"is_disabled":false,"rental_uris":{"android":"levelo://app?vid=892e3572-13f2-4526-a888-fd92206d8abb","ios":"levelo://app?vid=892e3572-13f2-4526-a888-fd92206d8abb"},"vehicle_type_id":"4","last_reported":1700662041,"current_range_meters":20000,"station_id":"ce4bgl92rcd13ifvqbq0","pricing_plan_id":"free"},{"bike_id":"a29125bf-2348-4167-bfec-ffb53a18c2b5","system_id":"levelo_inurba_marseille","lat":43.312239,"lon":5.368562,"is_reserved":false,"is_disabled":false,"rental_uris":{"android":"levelo://app?vid=a29125bf-2348-4167-bfec-ffb53a18c2b5","ios":"levelo://app?vid=a29125bf-2348-4167-bfec-ffb53a18c2b5"},"vehicle_type_id":"4","last_reported":1700662041,"current_range_meters":9600,"station_id":"ce4bgl92rcd13ifvqbq0","pricing_plan_id":"free"},{"bike_id":"9572f975-baf7-4d01-a576-e749ec8e5562","system_id":"levelo_inurba_marseille","lat":43.31235,"lon":5.36882,"is_reserved":false,"is_disabled":false,"rental_uris":{"android":"levelo://app?vid=9572f975-baf7-4d01-a576-e749ec8e5562","ios":"levelo://app?vid=9572f975-baf7-4d01-a576-e749ec8e5562"},"vehicle_type_id":"4","last_reported":1700662041,"current_range_meters":25200,"station_id":"ce4bgl92rcd13ifvqbq0","pricing_plan_id":"free"},{"bike_id":"eeef4dbc-7602-4f26-b2c1-c3771c9b5dae","system_id":"levelo_inurba_marseille","lat":43.31159,"lon":5.36883,"is_reserved":false,"is_disabled":false,"rental_uris":{"android":"levelo://app?vid=eeef4dbc-7602-4f26-b2c1-c3771c9b5dae","ios":"levelo://app?vid=eeef4dbc-7602-4f26-b2c1-c3771c9b5dae"},"vehicle_type_id":"4","last_reported":1700662041,"current_range_meters":0,"station_id":"","pricing_plan_id":"free"},{"bike_id":"4b67848c-ec5c-488c-a5ec-8711e70e017f","system_id":"levelo_inurba_marseille","lat":43.309076,"lon":5.368465,"is_reserved":false,"is_disabled":false,"rental_uris":{"android":"levelo://app?vid=4b67848c-ec5c-488c-a5ec-8711e70e017f","ios":"levelo://app?vid=4b67848c-ec5c-488c-a5ec-8711e70e017f"},"vehicle_type_id":"4","last_reported":1700662041,"current_range_meters":24400,"station_id":"ce4bgn92rcd13ifvqbvg","pricing_plan_id":"free"},{"bike_id":"4e638908-efda-433b-b3d4-17666336c660","system_id":"levelo_inurba_marseille","lat":43.3091,"lon":5.3685,"is_reserved":false,"is_disabled":false,"rental_uris":{"android":"levelo://app?vid=4e638908-efda-433b-b3d4-17666336c660","ios":"levelo://app?vid=4e638908-efda-433b-b3d4-17666336c660"},"vehicle_type_id":"4","last_reported":1700662041,"current_range_meters":21600,"station_id":"ce4bgn92rcd13ifvqbvg","pricing_plan_id":"free"},{"bike_id":"ebbb4a28-9cbf-4a03-94bf-79b07f000e95","system_id":"levelo_inurba_marseille","lat":43.309076,"lon":5.368465,"is_reserved":false,"is_disabled":false,"rental_uris":{"android":"levelo://app?vid=ebbb4a28-9cbf-4a03-94bf-79b07f000e95","ios":"levelo://app?vid=ebbb4a28-9cbf-4a03-94bf-79b07f000e95"},"vehicle_type_id":"4","last_reported":1700662041,"current_range_meters":30400,"station_id":"ce4bgn92rcd13ifvqbvg","pricing_plan_id":"free"},{"bike_id":"7cfabaf6-128a-46fd-9e61-afc8efd3170c","system_id":"levelo_inurba_marseille","lat":43.314811,"lon":5.373104,"is_reserved":false,"is_disabled":false,"rental_uris":{"android":"levelo://app?vid=7cfabaf6-128a-46fd-9e61-afc8efd3170c","ios":"levelo://app?vid=7cfabaf6-128a-46fd-9e61-afc8efd3170c"},"vehicle_type_id":"4","last_reported":1700662041,"current_range_meters":31200,"station_id":"ce4bgt12rcd13ifvqcd0","pricing_plan_id":"free"},{"bike_id":"76ac1e79-2b7c-4fd2-abd3-4a804c5a7334","system_id":"levelo_inurba_marseille","lat":43.314811,"lon":5.373104,"is_reserved":false,"is_disabled":false,"rental_uris":{"android":"levelo://app?vid=76ac1e79-2b7c-4fd2-abd3-4a804c5a7334","ios":"levelo://app?vid=76ac1e79-2b7c-4fd2-abd3-4a804c5a7334"},"vehicle_type_id":"4","last_reported":1700662041,"current_range_meters":19600,"station_id":"ce4bgt12rcd13ifvqcd0","pricing_plan_id":"free"},{"bike_id":"db478260-4aae-4bb0-8197-a5772d4252b3","system_id":"levelo_inurba_marseille","lat":43.314811,"lon":5.373104,"is_reserved":false,"is_disabled":false,"rental_uris":{"android":"levelo://app?vid=db478260-4aae-4bb0-8197-a5772d4252b3","ios":"levelo://app?vid=db478260-4aae-4bb0-8197-a5772d4252b3"},"vehicle_type_id":"4","last_reported":1700662041,"current_range_meters":27600,"station_id":"ce4bgt12rcd13ifvqcd0","pricing_plan_id":"free"},{"bike_id":"e4458588-159f-4395-83da-cceea9da5e6d","system_id":"levelo_inurba_marseille","lat":43.309039,"lon":5.371797,"is_reserved":false,"is_disabled":false,"rental_uris":{"android":"levelo://app?vid=e4458588-159f-4395-83da-cceea9da5e6d","ios":"levelo://app?vid=e4458588-159f-4395-83da-cceea9da5e6d"},"vehicle_type_id":"4","last_reported":1700662041,"current_range_meters":2800,"station_id":"ce4bguh2rcd13ifvqckg","pricing_plan_id":"free"},{"bike_id":"123018e0-ec4f-46d4-b08a-358389d2c12b","system_id":"levelo_inurba_marseille","lat":43.309039,"lon":5.371797,"is_reserved":false,"is_disabled":false,"rental_uris":{"android":"levelo://app?vid=123018e0-ec4f-46d4-b08a-358389d2c12b","ios":"levelo://app?vid=123018e0-ec4f-46d4-b08a-358389d2c12b"},"vehicle_type_id":"4","last_reported":1700662041,"current_range_meters":6800,"station_id":"ce4bguh2rcd13ifvqckg","pricing_plan_id":"free"},{"bike_id":"86ee0a59-11dc-433b-ab53-dedf15bca600","system_id":"levelo_inurba_marseille","lat":43.309039,"lon":5.371797,"is_reserved":false,"is_disabled":false,"rental_uris":{"android":"levelo://app?vid=86ee0a59-11dc-433b-ab53-dedf15bca600","ios":"levelo://app?vid=86ee0a59-11dc-433b-ab53-dedf15bca600"},"vehicle_type_id":"4","last_reported":1700662041,"current_range_meters":400,"station_id":"ce4bguh2rcd13ifvqckg","pricing_plan_id":"free"},{"bike_id":"2bc311dc-da0b-403e-8cae-84f8764bc67c","system_id":"levelo_inurba_marseille","lat":43.30679,"lon":5.3679,"is_reserved":false,"is_disabled":false,"rental_uris":{"android":"levelo://app?vid=2bc311dc-da0b-403e-8cae-84f8764bc67c","ios":"levelo://app?vid=2bc311dc-da0b-403e-8cae-84f8764bc67c"},"vehicle_type_id":"4","last_reported":1700662041,"current_range_meters":0,"station_id":"","pricing_plan_id":"free"},{"bike_id":"23cee2e9-46e9-4e52-b0ee-42ca53f742f8","system_id":"levelo_inurba_marseille","lat":43.305706,"lon":5.365654,"is_reserved":false,"is_disabled":false,"rental_uris":{"android":"levelo://app?vid=23cee2e9-46e9-4e52-b0ee-42ca53f742f8","ios":"levelo://app?vid=23cee2e9-46e9-4e52-b0ee-42ca53f742f8"},"vehicle_type_id":"4","last_reported":1700662041,"current_range_meters":12400,"station_id":"ce4bgs12rcd13ifvqcag","pricing_plan_id":"free"},{"bike_id":"95583d67-b9fc-4ff1-93fd-5e2fbf3996b7","system_id":"levelo_inurba_marseille","lat":43.31961,"lon":5.3706,"is_reserved":false,"is_disabled":false,"rental_uris":{"android":"levelo://app?vid=95583d67-b9fc-4ff1-93fd-5e2fbf3996b7","ios":"levelo://app?vid=95583d67-b9fc-4ff1-93fd-5e2fbf3996b7"},"vehicle_type_id":"4","last_reported":1700662041,"current_range_meters":0,"station_id":"","pricing_plan_id":"free"},{"bike_id":"5b214d39-61e5-4a76-a269-8d75391505fb","system_id":"levelo_inurba_marseille","lat":43.30526,"lon":5.36707,"is_reserved":false,"is_disabled":false,"rental_uris":{"android":"levelo://app?vid=5b214d39-61e5-4a76-a269-8d75391505fb","ios":"levelo://app?vid=5b214d39-61e5-4a76-a269-8d75391505fb"},"vehicle_type_id":"4","last_reported":1700662041,"current_range_meters":30800,"station_id":"ce4bgrp2rcd13ifvqc9g","pricing_plan_id":"free"},{"bike_id":"b473e0f2-7069-40ee-88ce-a7fe78de7ffe","system_id":"levelo_inurba_marseille","lat":43.305989,"lon":5.37225,"is_reserved":false,"is_disabled":false,"rental_uris":{"android":"levelo://app?vid=b473e0f2-7069-40ee-88ce-a7fe78de7ffe","ios":"levelo://app?vid=b473e0f2-7069-40ee-88ce-a7fe78de7ffe"},"vehicle_type_id":"4","last_reported":1700662041,"current_range_meters":0,"station_id":"ce4bgqh2rcd13ifvqc4g","pricing_plan_id":"free"},{"bike_id":"6a5b07af-8082-434a-b32d-e6d933a4a826","system_id":"levelo_inurba_marseille","lat":43.305989,"lon":5.37225,"is_reserved":false,"is_disabled":false,"rental_uris":{"android":"levelo://app?vid=6a5b07af-8082-434a-b32d-e6d933a4a826","ios":"levelo://app?vid=6a5b07af-8082-434a-b32d-e6d933a4a826"},"vehicle_type_id":"4","last_reported":1700662041,"current_range_meters":15600,"station_id":"ce4bgqh2rcd13ifvqc4g","pricing_plan_id":"free"},{"bike_id":"9d7ccb00-57c1-454c-b5bd-5097280fd2cb","system_id":"levelo_inurba_marseille","lat":43.305989,"lon":5.37225,"is_reserved":false,"is_disabled":false,"rental_uris":{"android":"levelo://app?vid=9d7ccb00-57c1-454c-b5bd-5097280fd2cb","ios":"levelo://app?vid=9d7ccb00-57c1-454c-b5bd-5097280fd2cb"},"vehicle_type_id":"4","last_reported":1700662041,"current_range_meters":0,"station_id":"ce4bgqh2rcd13ifvqc4g","pricing_plan_id":"free"},{"bike_id":"c696a59b-6e8e-42f2-852f-fcf98c046753","system_id":"levelo_inurba_marseille","lat":43.311131,"lon":5.377651,"is_reserved":false,"is_disabled":false,"rental_uris":{"android":"levelo://app?vid=c696a59b-6e8e-42f2-852f-fcf98c046753","ios":"levelo://app?vid=c696a59b-6e8e-42f2-852f-fcf98c046753"},"vehicle_type_id":"4","last_reported":1700662041,"current_range_meters":30000,"station_id":"ce4bgt92rcd13ifvqcg0","pricing_plan_id":"free"},{"bike_id":"13bf69b0-48e8-40fa-a557-8ebf029afc71","system_id":"levelo_inurba_marseille","lat":43.311131,"lon":5.377651,"is_reserved":false,"is_disabled":false,"rental_uris":{"android":"levelo://app?vid=13bf69b0-48e8-40fa-a557-8ebf029afc71","ios":"levelo://app?vid=13bf69b0-48e8-40fa-a557-8ebf029afc71"},"vehicle_type_id":"4","last_reported":1700662041,"current_range_meters":28800,"station_id":"ce4bgt92rcd13ifvqcg0","pricing_plan_id":"free"},{"bike_id":"a27dce1d-d93b-4f9b-8ba9-7f4ff37b23d9","system_id":"levelo_inurba_marseille","lat":43.31114,"lon":5.37779,"is_reserved":false,"is_disabled":false,"rental_uris":{"android":"levelo://app?vid=a27dce1d-d93b-4f9b-8ba9-7f4ff37b23d9","ios":"levelo://app?vid=a27dce1d-d93b-4f9b-8ba9-7f4ff37b23d9"},"vehicle_type_id":"4","last_reported":1700662041,"current_range_meters":18400,"station_id":"ce4bgt92rcd13ifvqcg0","pricing_plan_id":"free"},{"bike_id":"51b0c979-18cb-4f54-875c-87272bea9603","system_id":"levelo_inurba_marseille","lat":43.317075,"lon":5.377367,"is_reserved":false,"is_disabled":false,"rental_uris":{"android":"levelo://app?vid=51b0c979-18cb-4f54-875c-87272bea9603","ios":"levelo://app?vid=51b0c979-18cb-4f54-875c-87272bea9603"},"vehicle_type_id":"4","last_reported":1700662041,"current_range_meters":18400,"station_id":"ce4bgth2rcd13ifvqch0","pricing_plan_id":"free"},{"bike_id":"98c7b2e2-f631-43e2-bbf0-a02a8c3c8b59","system_id":"levelo_inurba_marseille","lat":43.317075,"lon":5.377367,"is_reserved":false,"is_disabled":false,"rental_uris":{"android":"levelo://app?vid=98c7b2e2-f631-43e2-bbf0-a02a8c3c8b59","ios":"levelo://app?vid=98c7b2e2-f631-43e2-bbf0-a02a8c3c8b59"},"vehicle_type_id":"4","last_reported":1700662041,"current_range_meters":29600,"station_id":"ce4bgth2rcd13ifvqch0","pricing_plan_id":"free"},{"bike_id":"a01947ce-d3f1-4178-a24b-0cddef23cdbe","system_id":"levelo_inurba_marseille","lat":43.303208,"lon":5.366182,"is_reserved":false,"is_disabled":false,"rental_uris":{"android":"levelo://app?vid=a01947ce-d3f1-4178-a24b-0cddef23cdbe","ios":"levelo://app?vid=a01947ce-d3f1-4178-a24b-0cddef23cdbe"},"vehicle_type_id":"4","last_reported":1700662041,"current_range_meters":0,"station_id":"","pricing_plan_id":"free"},{"bike_id":"526609d7-f7a2-433f-a683-2fe9efa2e19b","system_id":"levelo_inurba_marseille","lat":43.312239,"lon":5.368562,"is_reserved":false,"is_disabled":false,"rental_uris":{"android":"levelo://app?vid=526609d7-f7a2-433f-a683-2fe9efa2e19b","ios":"levelo://app?vid=526609d7-f7a2-433f-a683-2fe9efa2e19b"},"vehicle_type_id":"4","last_reported":1700662041,"current_range_meters":3600,"station_id":"ce4bgl92rcd13ifvqbq0","pricing_plan_id":"free"},{"bike_id":"02fb126b-927b-4a33-91aa-8d91b7df90a8","system_id":"levelo_inurba_marseille","lat":43.303046,"lon":5.368981,"is_reserved":false,"is_disabled":false,"rental_uris":{"android":"levelo://app?vid=02fb126b-927b-4a33-91aa-8d91b7df90a8","ios":"levelo://app?vid=02fb126b-927b-4a33-91aa-8d91b7df90a8"},"vehicle_type_id":"4","last_reported":1700662041,"current_range_meters":18800,"station_id":"ce4bgqh2rcd13ifvqc5g","pricing_plan_id":"free"},{"bike_id":"a5400413-db9a-43cb-aeb0-e476734d171a","system_id":"levelo_inurba_marseille","lat":43.30315,"lon":5.3692,"is_reserved":false,"is_disabled":false,"rental_uris":{"android":"levelo://app?vid=a5400413-db9a-43cb-aeb0-e476734d171a","ios":"levelo://app?vid=a5400413-db9a-43cb-aeb0-e476734d171a"},"vehicle_type_id":"4","last_reported":1700662041,"current_range_meters":31200,"station_id":"ce4bgqh2rcd13ifvqc5g","pricing_plan_id":"free"},{"bike_id":"38caf96d-c5c9-4d09-a1e4-28e8ec72026f","system_id":"levelo_inurba_marseille","lat":43.30304,"lon":5.368987,"is_reserved":false,"is_disabled":false,"rental_uris":{"android":"levelo://app?vid=38caf96d-c5c9-4d09-a1e4-28e8ec72026f","ios":"levelo://app?vid=38caf96d-c5c9-4d09-a1e4-28e8ec72026f"},"vehicle_type_id":"4","last_reported":1700662041,"current_range_meters":29600,"station_id":"ce4bgqh2rcd13ifvqc5g","pricing_plan_id":"free"},{"bike_id":"ef29d72b-32a0-4a94-8106-4029aa515232","system_id":"levelo_inurba_marseille","lat":43.303046,"lon":5.368981,"is_reserved":false,"is_disabled":false,"rental_uris":{"android":"levelo://app?vid=ef29d72b-32a0-4a94-8106-4029aa515232","ios":"levelo://app?vid=ef29d72b-32a0-4a94-8106-4029aa515232"},"vehicle_type_id":"4","last_reported":1700662041,"current_range_meters":30800,"station_id":"ce4bgqh2rcd13ifvqc5g","pricing_plan_id":"free"},{"bike_id":"9f774145-1c9a-4ad0-b8c6-0806a86654d0","system_id":"levelo_inurba_marseille","lat":43.303046,"lon":5.368981,"is_reserved":false,"is_disabled":false,"rental_uris":{"android":"levelo://app?vid=9f774145-1c9a-4ad0-b8c6-0806a86654d0","ios":"levelo://app?vid=9f774145-1c9a-4ad0-b8c6-0806a86654d0"},"vehicle_type_id":"4","last_reported":1700662041,"current_range_meters":1600,"station_id":"ce4bgqh2rcd13ifvqc5g","pricing_plan_id":"free"},{"bike_id":"ca231cc4-2eac-408b-bdbd-770c0e186b3a","system_id":"levelo_inurba_marseille","lat":43.303046,"lon":5.368981,"is_reserved":false,"is_disabled":false,"rental_uris":{"android":"levelo://app?vid=ca231cc4-2eac-408b-bdbd-770c0e186b3a","ios":"levelo://app?vid=ca231cc4-2eac-408b-bdbd-770c0e186b3a"},"vehicle_type_id":"4","last_reported":1700662041,"current_range_meters":4400,"station_id":"ce4bgqh2rcd13ifvqc5g","pricing_plan_id":"free"},{"bike_id":"e09d0bd4-96ac-44ba-96a7-8298f55b5927","system_id":"levelo_inurba_marseille","lat":43.31369,"lon":5.38046,"is_reserved":false,"is_disabled":false,"rental_uris":{"android":"levelo://app?vid=e09d0bd4-96ac-44ba-96a7-8298f55b5927","ios":"levelo://app?vid=e09d0bd4-96ac-44ba-96a7-8298f55b5927"},"vehicle_type_id":"4","last_reported":1700662041,"current_range_meters":24800,"station_id":"","pricing_plan_id":"free"},{"bike_id":"0327687b-f51e-4077-bf49-2ec73a6de092","system_id":"levelo_inurba_marseille","lat":43.32233,"lon":5.37561,"is_reserved":false,"is_disabled":false,"rental_uris":{"android":"levelo://app?vid=0327687b-f51e-4077-bf49-2ec73a6de092","ios":"levelo://app?vid=0327687b-f51e-4077-bf49-2ec73a6de092"},"vehicle_type_id":"4","last_reported":1700662041,"current_range_meters":16000,"station_id":"","pricing_plan_id":"free"},{"bike_id":"c9a43a87-4d67-4fef-a7da-eab0efd6b916","system_id":"levelo_inurba_marseille","lat":43.32233,"lon":5.37576,"is_reserved":false,"is_disabled":false,"rental_uris":{"android":"levelo://app?vid=c9a43a87-4d67-4fef-a7da-eab0efd6b916","ios":"levelo://app?vid=c9a43a87-4d67-4fef-a7da-eab0efd6b916"},"vehicle_type_id":"4","last_reported":1700662041,"current_range_meters":21600,"station_id":"","pricing_plan_id":"free"},{"bike_id":"a037806c-504f-410e-8380-5102d23eea79","system_id":"levelo_inurba_marseille","lat":43.324771,"lon":5.36557,"is_reserved":false,"is_disabled":false,"rental_uris":{"android":"levelo://app?vid=a037806c-504f-410e-8380-5102d23eea79","ios":"levelo://app?vid=a037806c-504f-410e-8380-5102d23eea79"},"vehicle_type_id":"4","last_reported":1700662041,"current_range_meters":26400,"station_id":"ce4bhs12rcd13ifvqhvg","pricing_plan_id":"free"},{"bike_id":"afa921fc-ca50-4532-aeb1-1de14ee2fe50","system_id":"levelo_inurba_marseille","lat":43.324801,"lon":5.36559,"is_reserved":false,"is_disabled":false,"rental_uris":{"android":"levelo://app?vid=afa921fc-ca50-4532-aeb1-1de14ee2fe50","ios":"levelo://app?vid=afa921fc-ca50-4532-aeb1-1de14ee2fe50"},"vehicle_type_id":"4","last_reported":1700662041,"current_range_meters":21200,"station_id":"ce4bhs12rcd13ifvqhvg","pricing_plan_id":"free"},{"bike_id":"f5fe4469-8f9b-4267-bd0e-fa801215c25a","system_id":"levelo_inurba_marseille","lat":43.301429,"lon":5.37413,"is_reserved":false,"is_disabled":false,"rental_uris":{"android":"levelo://app?vid=f5fe4469-8f9b-4267-bd0e-fa801215c25a","ios":"levelo://app?vid=f5fe4469-8f9b-4267-bd0e-fa801215c25a"},"vehicle_type_id":"4","last_reported":1700662041,"current_range_meters":8800,"station_id":"ce4bgs92rcd13ifvqcc0","pricing_plan_id":"free"},{"bike_id":"a9305db9-64ab-40ad-a348-bc26fb837fb4","system_id":"levelo_inurba_marseille","lat":43.301429,"lon":5.37413,"is_reserved":false,"is_disabled":false,"rental_uris":{"android":"levelo://app?vid=a9305db9-64ab-40ad-a348-bc26fb837fb4","ios":"levelo://app?vid=a9305db9-64ab-40ad-a348-bc26fb837fb4"},"vehicle_type_id":"4","last_reported":1700662041,"current_range_meters":14000,"station_id":"ce4bgs92rcd13ifvqcc0","pricing_plan_id":"free"},{"bike_id":"e93bd933-400d-4aaf-8b10-c9a0ef9e2dd1","system_id":"levelo_inurba_marseille","lat":43.2998,"lon":5.371807,"is_reserved":false,"is_disabled":false,"rental_uris":{"android":"levelo://app?vid=e93bd933-400d-4aaf-8b10-c9a0ef9e2dd1","ios":"levelo://app?vid=e93bd933-400d-4aaf-8b10-c9a0ef9e2dd1"},"vehicle_type_id":"4","last_reported":1700662041,"current_range_meters":29600,"station_id":"ce4bgr92rcd13ifvqc7g","pricing_plan_id":"free"},{"bike_id":"6b90c766-1ac3-4cb6-9fd0-77fb0a393680","system_id":"levelo_inurba_marseille","lat":43.299724,"lon":5.371829,"is_reserved":false,"is_disabled":false,"rental_uris":{"android":"levelo://app?vid=6b90c766-1ac3-4cb6-9fd0-77fb0a393680","ios":"levelo://app?vid=6b90c766-1ac3-4cb6-9fd0-77fb0a393680"},"vehicle_type_id":"4","last_reported":1700662041,"current_range_meters":26800,"station_id":"ce4bgr92rcd13ifvqc7g","pricing_plan_id":"free"},{"bike_id":"76ff126c-6b89-45db-a8f4-6a7046a190b7","system_id":"levelo_inurba_marseille","lat":43.299724,"lon":5.371829,"is_reserved":false,"is_disabled":false,"rental_uris":{"android":"levelo://app?vid=76ff126c-6b89-45db-a8f4-6a7046a190b7","ios":"levelo://app?vid=76ff126c-6b89-45db-a8f4-6a7046a190b7"},"vehicle_type_id":"4","last_reported":1700662041,"current_range_meters":27200,"station_id":"ce4bgr92rcd13ifvqc7g","pricing_plan_id":"free"},{"bike_id":"cbdd2d9c-0e1c-4d76-89d2-23a0289ad7d6","system_id":"levelo_inurba_marseille","lat":43.305364,"lon":5.384119,"is_reserved":false,"is_disabled":false,"rental_uris":{"android":"levelo://app?vid=cbdd2d9c-0e1c-4d76-89d2-23a0289ad7d6","ios":"levelo://app?vid=cbdd2d9c-0e1c-4d76-89d2-23a0289ad7d6"},"vehicle_type_id":"4","last_reported":1700662041,"current_range_meters":17600,"station_id":"ce4bgg92rcd13ifvqb30","pricing_plan_id":"free"},{"bike_id":"9f75cc26-0f89-4d04-9c2c-6dcbfbf176f8","system_id":"levelo_inurba_marseille","lat":43.305364,"lon":5.384119,"is_reserved":false,"is_disabled":false,"rental_uris":{"android":"levelo://app?vid=9f75cc26-0f89-4d04-9c2c-6dcbfbf176f8","ios":"levelo://app?vid=9f75cc26-0f89-4d04-9c2c-6dcbfbf176f8"},"vehicle_type_id":"4","last_reported":1700662041,"current_range_meters":12000,"station_id":"ce4bgg92rcd13ifvqb30","pricing_plan_id":"free"},{"bike_id":"72b5477b-374d-4429-b7bc-473c3b713639","system_id":"levelo_inurba_marseille","lat":43.299243,"lon":5.37481,"is_reserved":false,"is_disabled":false,"rental_uris":{"android":"levelo://app?vid=72b5477b-374d-4429-b7bc-473c3b713639","ios":"levelo://app?vid=72b5477b-374d-4429-b7bc-473c3b713639"},"vehicle_type_id":"4","last_reported":1700662041,"current_range_meters":16800,"station_id":"ce4bgjh2rcd13ifvqbg0","pricing_plan_id":"free"},{"bike_id":"0fd46635-aae0-4c9b-b0ca-8a9e4f572dde","system_id":"levelo_inurba_marseille","lat":43.297794,"lon":5.370888,"is_reserved":false,"is_disabled":false,"rental_uris":{"android":"levelo://app?vid=0fd46635-aae0-4c9b-b0ca-8a9e4f572dde","ios":"levelo://app?vid=0fd46635-aae0-4c9b-b0ca-8a9e4f572dde"},"vehicle_type_id":"4","last_reported":1700662041,"current_range_meters":21200,"station_id":"ce4bgop2rcd13ifvqc1g","pricing_plan_id":"free"},{"bike_id":"6ac6e830-2f8c-4ea2-89a9-8f09499f0cfa","system_id":"levelo_inurba_marseille","lat":43.297794,"lon":5.370888,"is_reserved":false,"is_disabled":false,"rental_uris":{"android":"levelo://app?vid=6ac6e830-2f8c-4ea2-89a9-8f09499f0cfa","ios":"levelo://app?vid=6ac6e830-2f8c-4ea2-89a9-8f09499f0cfa"},"vehicle_type_id":"4","last_reported":1700662041,"current_range_meters":800,"station_id":"ce4bgop2rcd13ifvqc1g","pricing_plan_id":"free"},{"bike_id":"4782759a-a81f-4de6-ac62-b6640fbc5935","system_id":"levelo_inurba_marseille","lat":43.322872,"lon":5.382756,"is_reserved":false,"is_disabled":false,"rental_uris":{"android":"levelo://app?vid=4782759a-a81f-4de6-ac62-b6640fbc5935","ios":"levelo://app?vid=4782759a-a81f-4de6-ac62-b6640fbc5935"},"vehicle_type_id":"4","last_reported":1700662041,"current_range_meters":26000,"station_id":"ce4bhr12rcd13ifvqhqg","pricing_plan_id":"free"},{"bike_id":"92e10922-a430-4783-af90-54913b915e80","system_id":"levelo_inurba_marseille","lat":43.322872,"lon":5.382756,"is_reserved":false,"is_disabled":false,"rental_uris":{"android":"levelo://app?vid=92e10922-a430-4783-af90-54913b915e80","ios":"levelo://app?vid=92e10922-a430-4783-af90-54913b915e80"},"vehicle_type_id":"4","last_reported":1700662041,"current_range_meters":21200,"station_id":"ce4bhr12rcd13ifvqhqg","pricing_plan_id":"free"},{"bike_id":"f526b4fd-10e5-403c-9185-e3a6b9eafb9f","system_id":"levelo_inurba_marseille","lat":43.328371,"lon":5.366912,"is_reserved":false,"is_disabled":false,"rental_uris":{"android":"levelo://app?vid=f526b4fd-10e5-403c-9185-e3a6b9eafb9f","ios":"levelo://app?vid=f526b4fd-10e5-403c-9185-e3a6b9eafb9f"},"vehicle_type_id":"4","last_reported":1700662041,"current_range_meters":9600,"station_id":"ce4bhs92rcd13ifvqi0g","pricing_plan_id":"free"},{"bike_id":"97542179-68cc-427b-a253-d386d88a1d61","system_id":"levelo_inurba_marseille","lat":43.29814,"lon":5.37675,"is_reserved":false,"is_disabled":false,"rental_uris":{"android":"levelo://app?vid=97542179-68cc-427b-a253-d386d88a1d61","ios":"levelo://app?vid=97542179-68cc-427b-a253-d386d88a1d61"},"vehicle_type_id":"4","last_reported":1700662041,"current_range_meters":23200,"station_id":"","pricing_plan_id":"free"},{"bike_id":"4713b0c3-75cc-4e18-b807-666574a923ea","system_id":"levelo_inurba_marseille","lat":43.2968,"lon":5.37291,"is_reserved":false,"is_disabled":false,"rental_uris":{"android":"levelo://app?vid=4713b0c3-75cc-4e18-b807-666574a923ea","ios":"levelo://app?vid=4713b0c3-75cc-4e18-b807-666574a923ea"},"vehicle_type_id":"4","last_reported":1700662041,"current_range_meters":22800,"station_id":"ce4bgk12rcd13ifvqbj0","pricing_plan_id":"free"},{"bike_id":"b6402628-4ac4-46d8-b896-12639272f9ba","system_id":"levelo_inurba_marseille","lat":43.29573,"lon":5.367355,"is_reserved":false,"is_disabled":false,"rental_uris":{"android":"levelo://app?vid=b6402628-4ac4-46d8-b896-12639272f9ba","ios":"levelo://app?vid=b6402628-4ac4-46d8-b896-12639272f9ba"},"vehicle_type_id":"4","last_reported":1700662041,"current_range_meters":27200,"station_id":"ce4bgph2rcd13ifvqc2g","pricing_plan_id":"free"},{"bike_id":"e4252b32-ba0f-472f-b294-ef4e601ab582","system_id":"levelo_inurba_marseille","lat":43.29573,"lon":5.367355,"is_reserved":false,"is_disabled":false,"rental_uris":{"android":"levelo://app?vid=e4252b32-ba0f-472f-b294-ef4e601ab582","ios":"levelo://app?vid=e4252b32-ba0f-472f-b294-ef4e601ab582"},"vehicle_type_id":"4","last_reported":1700662041,"current_range_meters":25200,"station_id":"ce4bgph2rcd13ifvqc2g","pricing_plan_id":"free"},{"bike_id":"6c8cefc8-759d-45b3-b867-ad7d6ee708b7","system_id":"levelo_inurba_marseille","lat":43.299028,"lon":5.381509,"is_reserved":false,"is_disabled":false,"rental_uris":{"android":"levelo://app?vid=6c8cefc8-759d-45b3-b867-ad7d6ee708b7","ios":"levelo://app?vid=6c8cefc8-759d-45b3-b867-ad7d6ee708b7"},"vehicle_type_id":"4","last_reported":1700662041,"current_range_meters":26000,"station_id":"ce4bgj12rcd13ifvqbc0","pricing_plan_id":"free"},{"bike_id":"98055b25-d1fb-41d7-acec-34dd460c09c3","system_id":"levelo_inurba_marseille","lat":43.299028,"lon":5.381509,"is_reserved":false,"is_disabled":false,"rental_uris":{"android":"levelo://app?vid=98055b25-d1fb-41d7-acec-34dd460c09c3","ios":"levelo://app?vid=98055b25-d1fb-41d7-acec-34dd460c09c3"},"vehicle_type_id":"4","last_reported":1700662041,"current_range_meters":26800,"station_id":"ce4bgj12rcd13ifvqbc0","pricing_plan_id":"free"},{"bike_id":"9fb402a7-7a41-4473-81d2-1fec663a6035","system_id":"levelo_inurba_marseille","lat":43.305608,"lon":5.388659,"is_reserved":false,"is_disabled":false,"rental_uris":{"android":"levelo://app?vid=9fb402a7-7a41-4473-81d2-1fec663a6035","ios":"levelo://app?vid=9fb402a7-7a41-4473-81d2-1fec663a6035"},"vehicle_type_id":"4","last_reported":1700662041,"current_range_meters":24800,"station_id":"","pricing_plan_id":"free"},{"bike_id":"f1853493-fba1-4e02-bebf-49514211d57b","system_id":"levelo_inurba_marseille","lat":43.31759,"lon":5.39022,"is_reserved":false,"is_disabled":false,"rental_uris":{"android":"levelo://app?vid=f1853493-fba1-4e02-bebf-49514211d57b","ios":"levelo://app?vid=f1853493-fba1-4e02-bebf-49514211d57b"},"vehicle_type_id":"4","last_reported":1700662041,"current_range_meters":27600,"station_id":"ce4bhqp2rcd13ifvqhng","pricing_plan_id":"free"},{"bike_id":"8dd0cec6-f614-4b13-b8d4-0ceccb5b94c6","system_id":"levelo_inurba_marseille","lat":43.295748,"lon":5.37522,"is_reserved":false,"is_disabled":false,"rental_uris":{"android":"levelo://app?vid=8dd0cec6-f614-4b13-b8d4-0ceccb5b94c6","ios":"levelo://app?vid=8dd0cec6-f614-4b13-b8d4-0ceccb5b94c6"},"vehicle_type_id":"4","last_reported":1700662041,"current_range_meters":14800,"station_id":"ce4bgh92rcd13ifvqb50","pricing_plan_id":"free"},{"bike_id":"3059d4c1-3d42-4321-a339-0fea9a03ef82","system_id":"levelo_inurba_marseille","lat":43.328154,"lon":5.380034,"is_reserved":false,"is_disabled":false,"rental_uris":{"android":"levelo://app?vid=3059d4c1-3d42-4321-a339-0fea9a03ef82","ios":"levelo://app?vid=3059d4c1-3d42-4321-a339-0fea9a03ef82"},"vehicle_type_id":"4","last_reported":1700662041,"current_range_meters":0,"station_id":"","pricing_plan_id":"free"},{"bike_id":"6b621983-5e9e-42f7-990d-ad5a093820d2","system_id":"levelo_inurba_marseille","lat":43.293801,"lon":5.363066,"is_reserved":false,"is_disabled":false,"rental_uris":{"android":"levelo://app?vid=6b621983-5e9e-42f7-990d-ad5a093820d2","ios":"levelo://app?vid=6b621983-5e9e-42f7-990d-ad5a093820d2"},"vehicle_type_id":"4","last_reported":1700662041,"current_range_meters":12000,"station_id":"","pricing_plan_id":"free"},{"bike_id":"7cadf773-38dd-46eb-88b8-cce10f22833e","system_id":"levelo_inurba_marseille","lat":43.32367,"lon":5.388836,"is_reserved":false,"is_disabled":false,"rental_uris":{"android":"levelo://app?vid=7cadf773-38dd-46eb-88b8-cce10f22833e","ios":"levelo://app?vid=7cadf773-38dd-46eb-88b8-cce10f22833e"},"vehicle_type_id":"4","last_reported":1700662041,"current_range_meters":11200,"station_id":"ce4bhqp2rcd13ifvqhog","pricing_plan_id":"free"},{"bike_id":"80b64143-9c4e-488f-a585-235570444789","system_id":"levelo_inurba_marseille","lat":43.32366,"lon":5.38887,"is_reserved":false,"is_disabled":false,"rental_uris":{"android":"levelo://app?vid=80b64143-9c4e-488f-a585-235570444789","ios":"levelo://app?vid=80b64143-9c4e-488f-a585-235570444789"},"vehicle_type_id":"4","last_reported":1700662041,"current_range_meters":22800,"station_id":"ce4bhqp2rcd13ifvqhog","pricing_plan_id":"free"},{"bike_id":"ab129f43-7156-4d3c-a3b8-e63a5344b330","system_id":"levelo_inurba_marseille","lat":43.29602,"lon":5.381084,"is_reserved":false,"is_disabled":false,"rental_uris":{"android":"levelo://app?vid=ab129f43-7156-4d3c-a3b8-e63a5344b330","ios":"levelo://app?vid=ab129f43-7156-4d3c-a3b8-e63a5344b330"},"vehicle_type_id":"4","last_reported":1700662041,"current_range_meters":0,"station_id":"ce4bgl12rcd13ifvqbo0","pricing_plan_id":"free"},{"bike_id":"d08f04bf-d1cb-49fb-9aa7-04e7f7676b3c","system_id":"levelo_inurba_marseille","lat":43.323405,"lon":5.389588,"is_reserved":false,"is_disabled":false,"rental_uris":{"android":"levelo://app?vid=d08f04bf-d1cb-49fb-9aa7-04e7f7676b3c","ios":"levelo://app?vid=d08f04bf-d1cb-49fb-9aa7-04e7f7676b3c"},"vehicle_type_id":"4","last_reported":1700662041,"current_range_meters":0,"station_id":"","pricing_plan_id":"free"},{"bike_id":"9471a0ea-0afd-4031-80b4-a9ed74363bfb","system_id":"levelo_inurba_marseille","lat":43.29602,"lon":5.381084,"is_reserved":false,"is_disabled":false,"rental_uris":{"android":"levelo://app?vid=9471a0ea-0afd-4031-80b4-a9ed74363bfb","ios":"levelo://app?vid=9471a0ea-0afd-4031-80b4-a9ed74363bfb"},"vehicle_type_id":"4","last_reported":1700662041,"current_range_meters":26000,"station_id":"ce4bgl12rcd13ifvqbo0","pricing_plan_id":"free"},{"bike_id":"36f53b23-ff63-4980-aafb-957bb8316a4e","system_id":"levelo_inurba_marseille","lat":43.303002,"lon":5.392142,"is_reserved":false,"is_disabled":false,"rental_uris":{"android":"levelo://app?vid=36f53b23-ff63-4980-aafb-957bb8316a4e","ios":"levelo://app?vid=36f53b23-ff63-4980-aafb-957bb8316a4e"},"vehicle_type_id":"4","last_reported":1700662041,"current_range_meters":8800,"station_id":"ce4bgkh2rcd13ifvqbk0","pricing_plan_id":"free"},{"bike_id":"abea4e53-9341-495f-95dc-f15948f8470c","system_id":"levelo_inurba_marseille","lat":43.302992,"lon":5.392136,"is_reserved":false,"is_disabled":false,"rental_uris":{"android":"levelo://app?vid=abea4e53-9341-495f-95dc-f15948f8470c","ios":"levelo://app?vid=abea4e53-9341-495f-95dc-f15948f8470c"},"vehicle_type_id":"4","last_reported":1700662041,"current_range_meters":28000,"station_id":"ce4bgkh2rcd13ifvqbk0","pricing_plan_id":"free"},{"bike_id":"bc6451fc-d51e-4b33-aa9b-d5f962d91764","system_id":"levelo_inurba_marseille","lat":43.302992,"lon":5.392136,"is_reserved":false,"is_disabled":false,"rental_uris":{"android":"levelo://app?vid=bc6451fc-d51e-4b33-aa9b-d5f962d91764","ios":"levelo://app?vid=bc6451fc-d51e-4b33-aa9b-d5f962d91764"},"vehicle_type_id":"4","last_reported":1700662041,"current_range_meters":23600,"station_id":"ce4bgkh2rcd13ifvqbk0","pricing_plan_id":"free"},{"bike_id":"95f6cb9b-34e3-4bd3-90df-85a57009872d","system_id":"levelo_inurba_marseille","lat":43.300852,"lon":5.390859,"is_reserved":false,"is_disabled":false,"rental_uris":{"android":"levelo://app?vid=95f6cb9b-34e3-4bd3-90df-85a57009872d","ios":"levelo://app?vid=95f6cb9b-34e3-4bd3-90df-85a57009872d"},"vehicle_type_id":"4","last_reported":1700662041,"current_range_meters":26800,"station_id":"ce4bh192rcd13ifvqdb0","pricing_plan_id":"free"},{"bike_id":"6becd83a-5bf0-4bb6-b0d4-053b06e2d89e","system_id":"levelo_inurba_marseille","lat":43.29266,"lon":5.37618,"is_reserved":false,"is_disabled":false,"rental_uris":{"android":"levelo://app?vid=6becd83a-5bf0-4bb6-b0d4-053b06e2d89e","ios":"levelo://app?vid=6becd83a-5bf0-4bb6-b0d4-053b06e2d89e"},"vehicle_type_id":"4","last_reported":1700662041,"current_range_meters":0,"station_id":"ce4bgi12rcd13ifvqb80","pricing_plan_id":"free"},{"bike_id":"445cf87e-6792-4dbf-b9a5-d233f660eb9f","system_id":"levelo_inurba_marseille","lat":43.298764,"lon":5.388973,"is_reserved":false,"is_disabled":false,"rental_uris":{"android":"levelo://app?vid=445cf87e-6792-4dbf-b9a5-d233f660eb9f","ios":"levelo://app?vid=445cf87e-6792-4dbf-b9a5-d233f660eb9f"},"vehicle_type_id":"4","last_reported":1700662041,"current_range_meters":14000,"station_id":"ce4bh392rcd13ifvqdl0","pricing_plan_id":"free"},{"bike_id":"c875aa7a-f4b7-451b-9fd7-480a49d92395","system_id":"levelo_inurba_marseille","lat":43.298764,"lon":5.388973,"is_reserved":false,"is_disabled":false,"rental_uris":{"android":"levelo://app?vid=c875aa7a-f4b7-451b-9fd7-480a49d92395","ios":"levelo://app?vid=c875aa7a-f4b7-451b-9fd7-480a49d92395"},"vehicle_type_id":"4","last_reported":1700662041,"current_range_meters":31200,"station_id":"ce4bh392rcd13ifvqdl0","pricing_plan_id":"free"},{"bike_id":"8865d0a3-802f-4181-afbf-1f6f0e6b2e54","system_id":"levelo_inurba_marseille","lat":43.29188,"lon":5.35807,"is_reserved":false,"is_disabled":false,"rental_uris":{"android":"levelo://app?vid=8865d0a3-802f-4181-afbf-1f6f0e6b2e54","ios":"levelo://app?vid=8865d0a3-802f-4181-afbf-1f6f0e6b2e54"},"vehicle_type_id":"4","last_reported":1700662041,"current_range_meters":0,"station_id":"ce4bhb12rcd13ifvqel0","pricing_plan_id":"free"},{"bike_id":"3c414029-9329-4080-a984-b045861f32c9","system_id":"levelo_inurba_marseille","lat":43.29188,"lon":5.35803,"is_reserved":false,"is_disabled":false,"rental_uris":{"android":"levelo://app?vid=3c414029-9329-4080-a984-b045861f32c9","ios":"levelo://app?vid=3c414029-9329-4080-a984-b045861f32c9"},"vehicle_type_id":"4","last_reported":1700662041,"current_range_meters":28000,"station_id":"ce4bhb12rcd13ifvqel0","pricing_plan_id":"free"},{"bike_id":"b2facc2a-878e-4440-8c4d-4d1e733c028a","system_id":"levelo_inurba_marseille","lat":43.3133,"lon":5.39696,"is_reserved":false,"is_disabled":false,"rental_uris":{"android":"levelo://app?vid=b2facc2a-878e-4440-8c4d-4d1e733c028a","ios":"levelo://app?vid=b2facc2a-878e-4440-8c4d-4d1e733c028a"},"vehicle_type_id":"4","last_reported":1700662041,"current_range_meters":27600,"station_id":"ce4bgvp2rcd13ifvqcu0","pricing_plan_id":"free"},{"bike_id":"2c62d54a-7188-42a0-8966-5f712e3d057c","system_id":"levelo_inurba_marseille","lat":43.309038,"lon":5.396546,"is_reserved":false,"is_disabled":false,"rental_uris":{"android":"levelo://app?vid=2c62d54a-7188-42a0-8966-5f712e3d057c","ios":"levelo://app?vid=2c62d54a-7188-42a0-8966-5f712e3d057c"},"vehicle_type_id":"4","last_reported":1700662041,"current_range_meters":12800,"station_id":"ce4bh012rcd13ifvqcv0","pricing_plan_id":"free"},{"bike_id":"1d10a1b1-d55f-4279-928a-9c6858f32ca9","system_id":"levelo_inurba_marseille","lat":43.33211,"lon":5.38112,"is_reserved":false,"is_disabled":false,"rental_uris":{"android":"levelo://app?vid=1d10a1b1-d55f-4279-928a-9c6858f32ca9","ios":"levelo://app?vid=1d10a1b1-d55f-4279-928a-9c6858f32ca9"},"vehicle_type_id":"4","last_reported":1700662041,"current_range_meters":3600,"station_id":"","pricing_plan_id":"free"},{"bike_id":"22b995a5-bad8-4252-bdea-af4d38d1ef0f","system_id":"levelo_inurba_marseille","lat":43.29602,"lon":5.381084,"is_reserved":false,"is_disabled":false,"rental_uris":{"android":"levelo://app?vid=22b995a5-bad8-4252-bdea-af4d38d1ef0f","ios":"levelo://app?vid=22b995a5-bad8-4252-bdea-af4d38d1ef0f"},"vehicle_type_id":"4","last_reported":1700662041,"current_range_meters":6400,"station_id":"ce4bgl12rcd13ifvqbo0","pricing_plan_id":"free"},{"bike_id":"8e9548a8-f3cf-4008-a05b-b4a701663252","system_id":"levelo_inurba_marseille","lat":43.29532,"lon":5.38539,"is_reserved":false,"is_disabled":false,"rental_uris":{"android":"levelo://app?vid=8e9548a8-f3cf-4008-a05b-b4a701663252","ios":"levelo://app?vid=8e9548a8-f3cf-4008-a05b-b4a701663252"},"vehicle_type_id":"4","last_reported":1700662041,"current_range_meters":31200,"station_id":"ce4bgih2rcd13ifvqba0","pricing_plan_id":"free"},{"bike_id":"8fff93b3-99ad-4e16-98b0-d53ce5fdbdab","system_id":"levelo_inurba_marseille","lat":43.29536,"lon":5.38548,"is_reserved":false,"is_disabled":false,"rental_uris":{"android":"levelo://app?vid=8fff93b3-99ad-4e16-98b0-d53ce5fdbdab","ios":"levelo://app?vid=8fff93b3-99ad-4e16-98b0-d53ce5fdbdab"},"vehicle_type_id":"4","last_reported":1700662041,"current_range_meters":0,"station_id":"ce4bgih2rcd13ifvqba0","pricing_plan_id":"free"},{"bike_id":"bf57098a-df79-4fbc-bf7d-6b354cfefb3a","system_id":"levelo_inurba_marseille","lat":43.29529,"lon":5.385581,"is_reserved":false,"is_disabled":false,"rental_uris":{"android":"levelo://app?vid=bf57098a-df79-4fbc-bf7d-6b354cfefb3a","ios":"levelo://app?vid=bf57098a-df79-4fbc-bf7d-6b354cfefb3a"},"vehicle_type_id":"4","last_reported":1700662041,"current_range_meters":17200,"station_id":"ce4bgih2rcd13ifvqba0","pricing_plan_id":"free"},{"bike_id":"fe3a56b6-5cea-405b-a457-2e95be771bb0","system_id":"levelo_inurba_marseille","lat":43.289184,"lon":5.366408,"is_reserved":false,"is_disabled":false,"rental_uris":{"android":"levelo://app?vid=fe3a56b6-5cea-405b-a457-2e95be771bb0","ios":"levelo://app?vid=fe3a56b6-5cea-405b-a457-2e95be771bb0"},"vehicle_type_id":"4","last_reported":1700662041,"current_range_meters":29200,"station_id":"ce4bhap2rcd13ifvqek0","pricing_plan_id":"free"},{"bike_id":"cecabd0b-20bc-4f8e-88e1-8269c6ce5ee2","system_id":"levelo_inurba_marseille","lat":43.289448,"lon":5.36396,"is_reserved":false,"is_disabled":false,"rental_uris":{"android":"levelo://app?vid=cecabd0b-20bc-4f8e-88e1-8269c6ce5ee2","ios":"levelo://app?vid=cecabd0b-20bc-4f8e-88e1-8269c6ce5ee2"},"vehicle_type_id":"4","last_reported":1700662041,"current_range_meters":27200,"station_id":"ce4bhc92rcd13ifvqetg","pricing_plan_id":"free"},{"bike_id":"fc8cf439-fa5d-4046-8cf6-26382f32c40f","system_id":"levelo_inurba_marseille","lat":43.292642,"lon":5.384254,"is_reserved":false,"is_disabled":false,"rental_uris":{"android":"levelo://app?vid=fc8cf439-fa5d-4046-8cf6-26382f32c40f","ios":"levelo://app?vid=fc8cf439-fa5d-4046-8cf6-26382f32c40f"},"vehicle_type_id":"4","last_reported":1700662041,"current_range_meters":30000,"station_id":"ce4bh692rcd13ifvqea0","pricing_plan_id":"free"},{"bike_id":"5b43311a-b6e3-40ed-a3f7-80c05f3a0282","system_id":"levelo_inurba_marseille","lat":43.290104,"lon":5.356111,"is_reserved":false,"is_disabled":false,"rental_uris":{"android":"levelo://app?vid=5b43311a-b6e3-40ed-a3f7-80c05f3a0282","ios":"levelo://app?vid=5b43311a-b6e3-40ed-a3f7-80c05f3a0282"},"vehicle_type_id":"4","last_reported":1700662041,"current_range_meters":26800,"station_id":"ce4bhb92rcd13ifvqen0","pricing_plan_id":"free"},{"bike_id":"38e0d215-c45b-4304-b95b-760eeac7bb83","system_id":"levelo_inurba_marseille","lat":43.290104,"lon":5.356111,"is_reserved":false,"is_disabled":false,"rental_uris":{"android":"levelo://app?vid=38e0d215-c45b-4304-b95b-760eeac7bb83","ios":"levelo://app?vid=38e0d215-c45b-4304-b95b-760eeac7bb83"},"vehicle_type_id":"4","last_reported":1700662041,"current_range_meters":25600,"station_id":"ce4bhb92rcd13ifvqen0","pricing_plan_id":"free"},{"bike_id":"0711caca-ba15-437a-86ef-80c25e03fa57","system_id":"levelo_inurba_marseille","lat":43.29006,"lon":5.35615,"is_reserved":false,"is_disabled":false,"rental_uris":{"android":"levelo://app?vid=0711caca-ba15-437a-86ef-80c25e03fa57","ios":"levelo://app?vid=0711caca-ba15-437a-86ef-80c25e03fa57"},"vehicle_type_id":"4","last_reported":1700662041,"current_range_meters":22400,"station_id":"ce4bhb92rcd13ifvqen0","pricing_plan_id":"free"},{"bike_id":"22e4e294-fe52-4e09-944f-439fc842befa","system_id":"levelo_inurba_marseille","lat":43.29006,"lon":5.35612,"is_reserved":false,"is_disabled":false,"rental_uris":{"android":"levelo://app?vid=22e4e294-fe52-4e09-944f-439fc842befa","ios":"levelo://app?vid=22e4e294-fe52-4e09-944f-439fc842befa"},"vehicle_type_id":"4","last_reported":1700662041,"current_range_meters":12400,"station_id":"ce4bhb92rcd13ifvqen0","pricing_plan_id":"free"},{"bike_id":"07008a5f-101b-49da-8299-e28b30c02bdc","system_id":"levelo_inurba_marseille","lat":43.290103,"lon":5.356114,"is_reserved":false,"is_disabled":false,"rental_uris":{"android":"levelo://app?vid=07008a5f-101b-49da-8299-e28b30c02bdc","ios":"levelo://app?vid=07008a5f-101b-49da-8299-e28b30c02bdc"},"vehicle_type_id":"4","last_reported":1700662041,"current_range_meters":26000,"station_id":"ce4bhb92rcd13ifvqen0","pricing_plan_id":"free"},{"bike_id":"434a90b1-bc2e-4973-96fd-0a80fd0650e3","system_id":"levelo_inurba_marseille","lat":43.29004,"lon":5.35612,"is_reserved":false,"is_disabled":false,"rental_uris":{"android":"levelo://app?vid=434a90b1-bc2e-4973-96fd-0a80fd0650e3","ios":"levelo://app?vid=434a90b1-bc2e-4973-96fd-0a80fd0650e3"},"vehicle_type_id":"4","last_reported":1700662041,"current_range_meters":20800,"station_id":"ce4bhb92rcd13ifvqen0","pricing_plan_id":"free"},{"bike_id":"937a21f0-4086-4e26-ba29-d07da44ba8fd","system_id":"levelo_inurba_marseille","lat":43.29004,"lon":5.35612,"is_reserved":false,"is_disabled":false,"rental_uris":{"android":"levelo://app?vid=937a21f0-4086-4e26-ba29-d07da44ba8fd","ios":"levelo://app?vid=937a21f0-4086-4e26-ba29-d07da44ba8fd"},"vehicle_type_id":"4","last_reported":1700662041,"current_range_meters":18000,"station_id":"ce4bhb92rcd13ifvqen0","pricing_plan_id":"free"},{"bike_id":"3c0e9018-b021-45c6-8fb2-4651973e1ff9","system_id":"levelo_inurba_marseille","lat":43.29001,"lon":5.35604,"is_reserved":false,"is_disabled":false,"rental_uris":{"android":"levelo://app?vid=3c0e9018-b021-45c6-8fb2-4651973e1ff9","ios":"levelo://app?vid=3c0e9018-b021-45c6-8fb2-4651973e1ff9"},"vehicle_type_id":"4","last_reported":1700662041,"current_range_meters":30400,"station_id":"ce4bhb92rcd13ifvqen0","pricing_plan_id":"free"},{"bike_id":"ddc9fa4f-24d1-4341-a857-8ca55aace862","system_id":"levelo_inurba_marseille","lat":43.28856,"lon":5.358371,"is_reserved":false,"is_disabled":false,"rental_uris":{"android":"levelo://app?vid=ddc9fa4f-24d1-4341-a857-8ca55aace862","ios":"levelo://app?vid=ddc9fa4f-24d1-4341-a857-8ca55aace862"},"vehicle_type_id":"4","last_reported":1700662041,"current_range_meters":2400,"station_id":"ce4bhb12rcd13ifvqem0","pricing_plan_id":"free"},{"bike_id":"7bca52e4-28b2-41dc-9c0e-c24cfcb6cd20","system_id":"levelo_inurba_marseille","lat":43.2886,"lon":5.35848,"is_reserved":false,"is_disabled":false,"rental_uris":{"android":"levelo://app?vid=7bca52e4-28b2-41dc-9c0e-c24cfcb6cd20","ios":"levelo://app?vid=7bca52e4-28b2-41dc-9c0e-c24cfcb6cd20"},"vehicle_type_id":"4","last_reported":1700662041,"current_range_meters":21200,"station_id":"ce4bhb12rcd13ifvqem0","pricing_plan_id":"free"},{"bike_id":"850fee67-a598-4843-b776-22935d29526d","system_id":"levelo_inurba_marseille","lat":43.28856,"lon":5.358371,"is_reserved":false,"is_disabled":false,"rental_uris":{"android":"levelo://app?vid=850fee67-a598-4843-b776-22935d29526d","ios":"levelo://app?vid=850fee67-a598-4843-b776-22935d29526d"},"vehicle_type_id":"4","last_reported":1700662041,"current_range_meters":12800,"station_id":"ce4bhb12rcd13ifvqem0","pricing_plan_id":"free"},{"bike_id":"872c2043-0453-4ccd-bf1f-ccc9ca0e1a1a","system_id":"levelo_inurba_marseille","lat":43.301117,"lon":5.398795,"is_reserved":false,"is_disabled":false,"rental_uris":{"android":"levelo://app?vid=872c2043-0453-4ccd-bf1f-ccc9ca0e1a1a","ios":"levelo://app?vid=872c2043-0453-4ccd-bf1f-ccc9ca0e1a1a"},"vehicle_type_id":"4","last_reported":1700662041,"current_range_meters":22400,"station_id":"ce4bh0h2rcd13ifvqd40","pricing_plan_id":"free"},{"bike_id":"aad9a792-6976-4183-919a-aef819ff2e25","system_id":"levelo_inurba_marseille","lat":43.31251,"lon":5.40162,"is_reserved":false,"is_disabled":false,"rental_uris":{"android":"levelo://app?vid=aad9a792-6976-4183-919a-aef819ff2e25","ios":"levelo://app?vid=aad9a792-6976-4183-919a-aef819ff2e25"},"vehicle_type_id":"4","last_reported":1700662041,"current_range_meters":0,"station_id":"","pricing_plan_id":"free"},{"bike_id":"25ee5b3a-cc3c-4fea-97c8-44c14f3b26e9","system_id":"levelo_inurba_marseille","lat":43.33751,"lon":5.3746,"is_reserved":false,"is_disabled":false,"rental_uris":{"android":"levelo://app?vid=25ee5b3a-cc3c-4fea-97c8-44c14f3b26e9","ios":"levelo://app?vid=25ee5b3a-cc3c-4fea-97c8-44c14f3b26e9"},"vehicle_type_id":"4","last_reported":1700662041,"current_range_meters":26000,"station_id":"","pricing_plan_id":"free"},{"bike_id":"45c50b00-798d-4d73-a32e-8aa52fed9e79","system_id":"levelo_inurba_marseille","lat":43.33755,"lon":5.37439,"is_reserved":false,"is_disabled":false,"rental_uris":{"android":"levelo://app?vid=45c50b00-798d-4d73-a32e-8aa52fed9e79","ios":"levelo://app?vid=45c50b00-798d-4d73-a32e-8aa52fed9e79"},"vehicle_type_id":"4","last_reported":1700662041,"current_range_meters":30400,"station_id":"","pricing_plan_id":"free"},{"bike_id":"d42732ee-3d1a-47b1-9598-db3afd7b4663","system_id":"levelo_inurba_marseille","lat":43.33752,"lon":5.37472,"is_reserved":false,"is_disabled":false,"rental_uris":{"android":"levelo://app?vid=d42732ee-3d1a-47b1-9598-db3afd7b4663","ios":"levelo://app?vid=d42732ee-3d1a-47b1-9598-db3afd7b4663"},"vehicle_type_id":"4","last_reported":1700662041,"current_range_meters":2400,"station_id":"","pricing_plan_id":"free"},{"bike_id":"a64e2e92-e9f4-47f5-a45e-85e68b98a86a","system_id":"levelo_inurba_marseille","lat":43.337566,"lon":5.374498,"is_reserved":false,"is_disabled":false,"rental_uris":{"android":"levelo://app?vid=a64e2e92-e9f4-47f5-a45e-85e68b98a86a","ios":"levelo://app?vid=a64e2e92-e9f4-47f5-a45e-85e68b98a86a"},"vehicle_type_id":"4","last_reported":1700662041,"current_range_meters":30000,"station_id":"","pricing_plan_id":"free"},{"bike_id":"5ca1769b-9d48-478e-b544-da316599e94d","system_id":"levelo_inurba_marseille","lat":43.33757,"lon":5.3746,"is_reserved":false,"is_disabled":false,"rental_uris":{"android":"levelo://app?vid=5ca1769b-9d48-478e-b544-da316599e94d","ios":"levelo://app?vid=5ca1769b-9d48-478e-b544-da316599e94d"},"vehicle_type_id":"4","last_reported":1700662041,"current_range_meters":24000,"station_id":"","pricing_plan_id":"free"},{"bike_id":"6b64ffb3-5882-4c04-ac6b-c6a9baa631c2","system_id":"levelo_inurba_marseille","lat":43.337631,"lon":5.374538,"is_reserved":false,"is_disabled":false,"rental_uris":{"android":"levelo://app?vid=6b64ffb3-5882-4c04-ac6b-c6a9baa631c2","ios":"levelo://app?vid=6b64ffb3-5882-4c04-ac6b-c6a9baa631c2"},"vehicle_type_id":"4","last_reported":1700662041,"current_range_meters":25200,"station_id":"","pricing_plan_id":"free"},{"bike_id":"af397e96-c185-4a80-b6b2-cf562331bb25","system_id":"levelo_inurba_marseille","lat":43.30642,"lon":5.401031,"is_reserved":false,"is_disabled":false,"rental_uris":{"android":"levelo://app?vid=af397e96-c185-4a80-b6b2-cf562331bb25","ios":"levelo://app?vid=af397e96-c185-4a80-b6b2-cf562331bb25"},"vehicle_type_id":"4","last_reported":1700662041,"current_range_meters":16000,"station_id":"ce4bh112rcd13ifvqda0","pricing_plan_id":"free"},{"bike_id":"29a6fb00-a2e5-446b-8687-c97e0dd29676","system_id":"levelo_inurba_marseille","lat":43.298683,"lon":5.397287,"is_reserved":false,"is_disabled":false,"rental_uris":{"android":"levelo://app?vid=29a6fb00-a2e5-446b-8687-c97e0dd29676","ios":"levelo://app?vid=29a6fb00-a2e5-446b-8687-c97e0dd29676"},"vehicle_type_id":"4","last_reported":1700662041,"current_range_meters":30000,"station_id":"ce4bh0h2rcd13ifvqd50","pricing_plan_id":"free"},{"bike_id":"42552512-1bfc-408d-b331-83de2344cdca","system_id":"levelo_inurba_marseille","lat":43.286593,"lon":5.363346,"is_reserved":false,"is_disabled":false,"rental_uris":{"android":"levelo://app?vid=42552512-1bfc-408d-b331-83de2344cdca","ios":"levelo://app?vid=42552512-1bfc-408d-b331-83de2344cdca"},"vehicle_type_id":"4","last_reported":1700662041,"current_range_meters":27200,"station_id":"ce4bhah2rcd13ifvqej0","pricing_plan_id":"free"},{"bike_id":"58737764-2b84-4163-858c-aeefe7ee28ab","system_id":"levelo_inurba_marseille","lat":43.29876,"lon":5.39737,"is_reserved":false,"is_disabled":false,"rental_uris":{"android":"levelo://app?vid=58737764-2b84-4163-858c-aeefe7ee28ab","ios":"levelo://app?vid=58737764-2b84-4163-858c-aeefe7ee28ab"},"vehicle_type_id":"4","last_reported":1700662041,"current_range_meters":31200,"station_id":"ce4bh0h2rcd13ifvqd50","pricing_plan_id":"free"},{"bike_id":"297a66d2-937c-4834-9d83-4a9cf85cdfdd","system_id":"levelo_inurba_marseille","lat":43.286593,"lon":5.363346,"is_reserved":false,"is_disabled":false,"rental_uris":{"android":"levelo://app?vid=297a66d2-937c-4834-9d83-4a9cf85cdfdd","ios":"levelo://app?vid=297a66d2-937c-4834-9d83-4a9cf85cdfdd"},"vehicle_type_id":"4","last_reported":1700662041,"current_range_meters":11600,"station_id":"ce4bhah2rcd13ifvqej0","pricing_plan_id":"free"},{"bike_id":"d806c196-1149-485c-a12f-c7506ef69066","system_id":"levelo_inurba_marseille","lat":43.298681,"lon":5.397225,"is_reserved":false,"is_disabled":false,"rental_uris":{"android":"levelo://app?vid=d806c196-1149-485c-a12f-c7506ef69066","ios":"levelo://app?vid=d806c196-1149-485c-a12f-c7506ef69066"},"vehicle_type_id":"4","last_reported":1700662041,"current_range_meters":27600,"station_id":"ce4bh0h2rcd13ifvqd50","pricing_plan_id":"free"},{"bike_id":"f8d28cb3-5c28-4ab6-ba7f-9831c497983d","system_id":"levelo_inurba_marseille","lat":43.286591,"lon":5.363346,"is_reserved":false,"is_disabled":false,"rental_uris":{"android":"levelo://app?vid=f8d28cb3-5c28-4ab6-ba7f-9831c497983d","ios":"levelo://app?vid=f8d28cb3-5c28-4ab6-ba7f-9831c497983d"},"vehicle_type_id":"4","last_reported":1700662041,"current_range_meters":3200,"station_id":"ce4bhah2rcd13ifvqej0","pricing_plan_id":"free"},{"bike_id":"bf6e928f-7180-417d-92e4-3b8e485bed11","system_id":"levelo_inurba_marseille","lat":43.28921,"lon":5.38384,"is_reserved":false,"is_disabled":false,"rental_uris":{"android":"levelo://app?vid=bf6e928f-7180-417d-92e4-3b8e485bed11","ios":"levelo://app?vid=bf6e928f-7180-417d-92e4-3b8e485bed11"},"vehicle_type_id":"4","last_reported":1700662041,"current_range_meters":22400,"station_id":"ce4bh612rcd13ifvqe6g","pricing_plan_id":"free"},{"bike_id":"d79b324c-d1be-4edc-b2d5-4b0fd5af9227","system_id":"levelo_inurba_marseille","lat":43.287185,"lon":5.379373,"is_reserved":false,"is_disabled":false,"rental_uris":{"android":"levelo://app?vid=d79b324c-d1be-4edc-b2d5-4b0fd5af9227","ios":"levelo://app?vid=d79b324c-d1be-4edc-b2d5-4b0fd5af9227"},"vehicle_type_id":"4","last_reported":1700662041,"current_range_meters":10000,"station_id":"ce4bh9p2rcd13ifvqec0","pricing_plan_id":"free"},{"bike_id":"aa04c2b0-c743-4549-962c-e71f8ea12587","system_id":"levelo_inurba_marseille","lat":43.29201,"lon":5.39318,"is_reserved":false,"is_disabled":false,"rental_uris":{"android":"levelo://app?vid=aa04c2b0-c743-4549-962c-e71f8ea12587","ios":"levelo://app?vid=aa04c2b0-c743-4549-962c-e71f8ea12587"},"vehicle_type_id":"4","last_reported":1700662041,"current_range_meters":5200,"station_id":"ce4bh192rcd13ifvqdd0","pricing_plan_id":"free"},{"bike_id":"0a495814-de93-426c-a85b-453972305404","system_id":"levelo_inurba_marseille","lat":43.28468,"lon":5.35889,"is_reserved":false,"is_disabled":false,"rental_uris":{"android":"levelo://app?vid=0a495814-de93-426c-a85b-453972305404","ios":"levelo://app?vid=0a495814-de93-426c-a85b-453972305404"},"vehicle_type_id":"4","last_reported":1700662041,"current_range_meters":17600,"station_id":"ce4bhah2rcd13ifvqei0","pricing_plan_id":"free"},{"bike_id":"5e4de417-8e03-4960-9a53-73590cd568da","system_id":"levelo_inurba_marseille","lat":43.28466,"lon":5.35901,"is_reserved":false,"is_disabled":false,"rental_uris":{"android":"levelo://app?vid=5e4de417-8e03-4960-9a53-73590cd568da","ios":"levelo://app?vid=5e4de417-8e03-4960-9a53-73590cd568da"},"vehicle_type_id":"4","last_reported":1700662041,"current_range_meters":23200,"station_id":"ce4bhah2rcd13ifvqei0","pricing_plan_id":"free"},{"bike_id":"29749414-ca53-437f-a24a-10ab90128bb5","system_id":"levelo_inurba_marseille","lat":43.284534,"lon":5.358662,"is_reserved":false,"is_disabled":false,"rental_uris":{"android":"levelo://app?vid=29749414-ca53-437f-a24a-10ab90128bb5","ios":"levelo://app?vid=29749414-ca53-437f-a24a-10ab90128bb5"},"vehicle_type_id":"4","last_reported":1700662041,"current_range_meters":31200,"station_id":"ce4bhah2rcd13ifvqei0","pricing_plan_id":"free"},{"bike_id":"d7a8bef3-a0b1-4d76-bec4-d339f1c0d17a","system_id":"levelo_inurba_marseille","lat":43.28461,"lon":5.35894,"is_reserved":false,"is_disabled":false,"rental_uris":{"android":"levelo://app?vid=d7a8bef3-a0b1-4d76-bec4-d339f1c0d17a","ios":"levelo://app?vid=d7a8bef3-a0b1-4d76-bec4-d339f1c0d17a"},"vehicle_type_id":"4","last_reported":1700662041,"current_range_meters":2800,"station_id":"ce4bhah2rcd13ifvqei0","pricing_plan_id":"free"},{"bike_id":"e9c96222-5d36-4bab-a762-3b41654b91d5","system_id":"levelo_inurba_marseille","lat":43.284534,"lon":5.358662,"is_reserved":false,"is_disabled":false,"rental_uris":{"android":"levelo://app?vid=e9c96222-5d36-4bab-a762-3b41654b91d5","ios":"levelo://app?vid=e9c96222-5d36-4bab-a762-3b41654b91d5"},"vehicle_type_id":"4","last_reported":1700662041,"current_range_meters":28000,"station_id":"ce4bhah2rcd13ifvqei0","pricing_plan_id":"free"},{"bike_id":"e2284003-4e46-4e0a-93e7-73d05c3666d9","system_id":"levelo_inurba_marseille","lat":43.332076,"lon":5.396581,"is_reserved":false,"is_disabled":false,"rental_uris":{"android":"levelo://app?vid=e2284003-4e46-4e0a-93e7-73d05c3666d9","ios":"levelo://app?vid=e2284003-4e46-4e0a-93e7-73d05c3666d9"},"vehicle_type_id":"4","last_reported":1700662041,"current_range_meters":26400,"station_id":"","pricing_plan_id":"free"},{"bike_id":"6846d556-3355-470f-ad7f-5864ce28b68e","system_id":"levelo_inurba_marseille","lat":43.286146,"lon":5.351083,"is_reserved":false,"is_disabled":false,"rental_uris":{"android":"levelo://app?vid=6846d556-3355-470f-ad7f-5864ce28b68e","ios":"levelo://app?vid=6846d556-3355-470f-ad7f-5864ce28b68e"},"vehicle_type_id":"4","last_reported":1700662041,"current_range_meters":22800,"station_id":"ce4bhch2rcd13ifvqeug","pricing_plan_id":"free"},{"bike_id":"a83cf8f6-90d3-4677-ad74-ed52665c0456","system_id":"levelo_inurba_marseille","lat":43.283998,"lon":5.375062,"is_reserved":false,"is_disabled":false,"rental_uris":{"android":"levelo://app?vid=a83cf8f6-90d3-4677-ad74-ed52665c0456","ios":"levelo://app?vid=a83cf8f6-90d3-4677-ad74-ed52665c0456"},"vehicle_type_id":"4","last_reported":1700662041,"current_range_meters":0,"station_id":"ce4bh412rcd13ifvqds0","pricing_plan_id":"free"},{"bike_id":"9cbeca47-6cf9-4a5a-ba27-8eae676439b6","system_id":"levelo_inurba_marseille","lat":43.286595,"lon":5.386795,"is_reserved":false,"is_disabled":false,"rental_uris":{"android":"levelo://app?vid=9cbeca47-6cf9-4a5a-ba27-8eae676439b6","ios":"levelo://app?vid=9cbeca47-6cf9-4a5a-ba27-8eae676439b6"},"vehicle_type_id":"4","last_reported":1700662041,"current_range_meters":3200,"station_id":"ce4bh492rcd13ifvqdug","pricing_plan_id":"free"},{"bike_id":"eb689d1e-df1f-4f98-a727-2d7f49750bcc","system_id":"levelo_inurba_marseille","lat":43.286731,"lon":5.386689,"is_reserved":false,"is_disabled":false,"rental_uris":{"android":"levelo://app?vid=eb689d1e-df1f-4f98-a727-2d7f49750bcc","ios":"levelo://app?vid=eb689d1e-df1f-4f98-a727-2d7f49750bcc"},"vehicle_type_id":"4","last_reported":1700662041,"current_range_meters":4800,"station_id":"ce4bh492rcd13ifvqdug","pricing_plan_id":"free"},{"bike_id":"adbd441f-44c4-4168-877a-9278b4bd7ceb","system_id":"levelo_inurba_marseille","lat":43.332397,"lon":5.398523,"is_reserved":false,"is_disabled":false,"rental_uris":{"android":"levelo://app?vid=adbd441f-44c4-4168-877a-9278b4bd7ceb","ios":"levelo://app?vid=adbd441f-44c4-4168-877a-9278b4bd7ceb"},"vehicle_type_id":"4","last_reported":1700662041,"current_range_meters":18800,"station_id":"","pricing_plan_id":"free"},{"bike_id":"6b6bc7b4-ec8b-4945-b8ab-900398ecbb37","system_id":"levelo_inurba_marseille","lat":43.33717,"lon":5.391857,"is_reserved":false,"is_disabled":false,"rental_uris":{"android":"levelo://app?vid=6b6bc7b4-ec8b-4945-b8ab-900398ecbb37","ios":"levelo://app?vid=6b6bc7b4-ec8b-4945-b8ab-900398ecbb37"},"vehicle_type_id":"4","last_reported":1700662041,"current_range_meters":21600,"station_id":"ce4bhr92rcd13ifvqhsg","pricing_plan_id":"free"},{"bike_id":"81ddb4fe-9ac3-41fe-bac3-15a00f5820a5","system_id":"levelo_inurba_marseille","lat":43.323464,"lon":5.406297,"is_reserved":false,"is_disabled":false,"rental_uris":{"android":"levelo://app?vid=81ddb4fe-9ac3-41fe-bac3-15a00f5820a5","ios":"levelo://app?vid=81ddb4fe-9ac3-41fe-bac3-15a00f5820a5"},"vehicle_type_id":"4","last_reported":1700662041,"current_range_meters":18000,"station_id":"ce4bhq92rcd13ifvqhjg","pricing_plan_id":"free"},{"bike_id":"402b4dc4-af99-44cb-8490-1ba1fe8b2067","system_id":"levelo_inurba_marseille","lat":43.323464,"lon":5.406297,"is_reserved":false,"is_disabled":false,"rental_uris":{"android":"levelo://app?vid=402b4dc4-af99-44cb-8490-1ba1fe8b2067","ios":"levelo://app?vid=402b4dc4-af99-44cb-8490-1ba1fe8b2067"},"vehicle_type_id":"4","last_reported":1700662041,"current_range_meters":7200,"station_id":"ce4bhq92rcd13ifvqhjg","pricing_plan_id":"free"},{"bike_id":"5600a809-72b0-4343-ac55-035ec63b2879","system_id":"levelo_inurba_marseille","lat":43.284217,"lon":5.349697,"is_reserved":false,"is_disabled":false,"rental_uris":{"android":"levelo://app?vid=5600a809-72b0-4343-ac55-035ec63b2879","ios":"levelo://app?vid=5600a809-72b0-4343-ac55-035ec63b2879"},"vehicle_type_id":"4","last_reported":1700662041,"current_range_meters":27200,"station_id":"ce4bhbh2rcd13ifvqepg","pricing_plan_id":"free"},{"bike_id":"8eca78cd-ba00-44ef-afd6-710aefffb2a1","system_id":"levelo_inurba_marseille","lat":43.284217,"lon":5.349697,"is_reserved":false,"is_disabled":false,"rental_uris":{"android":"levelo://app?vid=8eca78cd-ba00-44ef-afd6-710aefffb2a1","ios":"levelo://app?vid=8eca78cd-ba00-44ef-afd6-710aefffb2a1"},"vehicle_type_id":"4","last_reported":1700662041,"current_range_meters":4000,"station_id":"ce4bhbh2rcd13ifvqepg","pricing_plan_id":"free"},{"bike_id":"ea24f69d-2ddc-490c-96db-6dfa64fd44eb","system_id":"levelo_inurba_marseille","lat":43.28422,"lon":5.34983,"is_reserved":false,"is_disabled":false,"rental_uris":{"android":"levelo://app?vid=ea24f69d-2ddc-490c-96db-6dfa64fd44eb","ios":"levelo://app?vid=ea24f69d-2ddc-490c-96db-6dfa64fd44eb"},"vehicle_type_id":"4","last_reported":1700662041,"current_range_meters":2800,"station_id":"ce4bhbh2rcd13ifvqepg","pricing_plan_id":"free"},{"bike_id":"86645bc7-02c9-42c2-8d9b-7862f59ee7fb","system_id":"levelo_inurba_marseille","lat":43.289363,"lon":5.396322,"is_reserved":false,"is_disabled":false,"rental_uris":{"android":"levelo://app?vid=86645bc7-02c9-42c2-8d9b-7862f59ee7fb","ios":"levelo://app?vid=86645bc7-02c9-42c2-8d9b-7862f59ee7fb"},"vehicle_type_id":"4","last_reported":1700662041,"current_range_meters":31200,"station_id":"ce4bh3h2rcd13ifvqdn0","pricing_plan_id":"free"},{"bike_id":"67199343-3884-4da5-8c3d-607f953fda44","system_id":"levelo_inurba_marseille","lat":43.292724,"lon":5.401131,"is_reserved":false,"is_disabled":false,"rental_uris":{"android":"levelo://app?vid=67199343-3884-4da5-8c3d-607f953fda44","ios":"levelo://app?vid=67199343-3884-4da5-8c3d-607f953fda44"},"vehicle_type_id":"4","last_reported":1700662041,"current_range_meters":9600,"station_id":"ce4bh312rcd13ifvqdk0","pricing_plan_id":"free"},{"bike_id":"4d2177b3-6ea9-4e44-b9d4-2c5aa2d18fcb","system_id":"levelo_inurba_marseille","lat":43.282744,"lon":5.350533,"is_reserved":false,"is_disabled":false,"rental_uris":{"android":"levelo://app?vid=4d2177b3-6ea9-4e44-b9d4-2c5aa2d18fcb","ios":"levelo://app?vid=4d2177b3-6ea9-4e44-b9d4-2c5aa2d18fcb"},"vehicle_type_id":"4","last_reported":1700662041,"current_range_meters":22400,"station_id":"ce4bhbp2rcd13ifvqerg","pricing_plan_id":"free"},{"bike_id":"49796996-5cb5-4c88-831f-45f7d05836b9","system_id":"levelo_inurba_marseille","lat":43.284462,"lon":5.392121,"is_reserved":false,"is_disabled":false,"rental_uris":{"android":"levelo://app?vid=49796996-5cb5-4c88-831f-45f7d05836b9","ios":"levelo://app?vid=49796996-5cb5-4c88-831f-45f7d05836b9"},"vehicle_type_id":"4","last_reported":1700662041,"current_range_meters":28000,"station_id":"ce4bhoh2rcd13ifvqh5g","pricing_plan_id":"free"},{"bike_id":"ba8d63f8-dd3d-4f53-9d55-fe0c547211e5","system_id":"levelo_inurba_marseille","lat":43.27979,"lon":5.38741,"is_reserved":false,"is_disabled":false,"rental_uris":{"android":"levelo://app?vid=ba8d63f8-dd3d-4f53-9d55-fe0c547211e5","ios":"levelo://app?vid=ba8d63f8-dd3d-4f53-9d55-fe0c547211e5"},"vehicle_type_id":"4","last_reported":1700662041,"current_range_meters":0,"station_id":"ce4bhg12rcd13ifvqf80","pricing_plan_id":"free"},{"bike_id":"cf7c6503-d761-4e4a-b826-f55f74848caf","system_id":"levelo_inurba_marseille","lat":43.34879,"lon":5.3751,"is_reserved":false,"is_disabled":false,"rental_uris":{"android":"levelo://app?vid=cf7c6503-d761-4e4a-b826-f55f74848caf","ios":"levelo://app?vid=cf7c6503-d761-4e4a-b826-f55f74848caf"},"vehicle_type_id":"4","last_reported":1700662041,"current_range_meters":5200,"station_id":"","pricing_plan_id":"free"},{"bike_id":"d30d7b47-f6f7-4997-a5f0-82a3728884ed","system_id":"levelo_inurba_marseille","lat":43.325233,"lon":5.414318,"is_reserved":false,"is_disabled":false,"rental_uris":{"android":"levelo://app?vid=d30d7b47-f6f7-4997-a5f0-82a3728884ed","ios":"levelo://app?vid=d30d7b47-f6f7-4997-a5f0-82a3728884ed"},"vehicle_type_id":"4","last_reported":1700662041,"current_range_meters":11600,"station_id":"ce4bhq12rcd13ifvqhhg","pricing_plan_id":"free"},{"bike_id":"99b7b3e2-fb47-4e03-b5b8-5bf5b8fd0d6c","system_id":"levelo_inurba_marseille","lat":43.2937,"lon":5.4128,"is_reserved":false,"is_disabled":false,"rental_uris":{"android":"levelo://app?vid=99b7b3e2-fb47-4e03-b5b8-5bf5b8fd0d6c","ios":"levelo://app?vid=99b7b3e2-fb47-4e03-b5b8-5bf5b8fd0d6c"},"vehicle_type_id":"4","last_reported":1700662041,"current_range_meters":0,"station_id":"","pricing_plan_id":"free"},{"bike_id":"1d24aa0f-7e33-4baf-aa56-01fbbec987e2","system_id":"levelo_inurba_marseille","lat":43.280784,"lon":5.396622,"is_reserved":false,"is_disabled":false,"rental_uris":{"android":"levelo://app?vid=1d24aa0f-7e33-4baf-aa56-01fbbec987e2","ios":"levelo://app?vid=1d24aa0f-7e33-4baf-aa56-01fbbec987e2"},"vehicle_type_id":"4","last_reported":1700662041,"current_range_meters":13600,"station_id":"ce4bho12rcd13ifvqh2g","pricing_plan_id":"free"},{"bike_id":"5f9ca18f-bcee-4b71-a2f7-652c35916e6f","system_id":"levelo_inurba_marseille","lat":43.303837,"lon":5.418724,"is_reserved":false,"is_disabled":false,"rental_uris":{"android":"levelo://app?vid=5f9ca18f-bcee-4b71-a2f7-652c35916e6f","ios":"levelo://app?vid=5f9ca18f-bcee-4b71-a2f7-652c35916e6f"},"vehicle_type_id":"4","last_reported":1700662041,"current_range_meters":17200,"station_id":"ce4bhop2rcd13ifvqh7g","pricing_plan_id":"free"},{"bike_id":"31e3d351-a050-499e-b8c9-47771f7e6c19","system_id":"levelo_inurba_marseille","lat":43.273613,"lon":5.362705,"is_reserved":false,"is_disabled":false,"rental_uris":{"android":"levelo://app?vid=31e3d351-a050-499e-b8c9-47771f7e6c19","ios":"levelo://app?vid=31e3d351-a050-499e-b8c9-47771f7e6c19"},"vehicle_type_id":"4","last_reported":1700662041,"current_range_meters":31600,"station_id":"ce4bhbh2rcd13ifvqeo0","pricing_plan_id":"free"},{"bike_id":"0bc3d65f-95b8-42ee-a534-97e896917ba0","system_id":"levelo_inurba_marseille","lat":43.273613,"lon":5.362705,"is_reserved":false,"is_disabled":false,"rental_uris":{"android":"levelo://app?vid=0bc3d65f-95b8-42ee-a534-97e896917ba0","ios":"levelo://app?vid=0bc3d65f-95b8-42ee-a534-97e896917ba0"},"vehicle_type_id":"4","last_reported":1700662041,"current_range_meters":0,"station_id":"ce4bhbh2rcd13ifvqeo0","pricing_plan_id":"free"},{"bike_id":"4c0e0844-75b0-4acb-bab9-b1dfde7666c2","system_id":"levelo_inurba_marseille","lat":43.273613,"lon":5.362705,"is_reserved":false,"is_disabled":false,"rental_uris":{"android":"levelo://app?vid=4c0e0844-75b0-4acb-bab9-b1dfde7666c2","ios":"levelo://app?vid=4c0e0844-75b0-4acb-bab9-b1dfde7666c2"},"vehicle_type_id":"4","last_reported":1700662041,"current_range_meters":5200,"station_id":"ce4bhbh2rcd13ifvqeo0","pricing_plan_id":"free"},{"bike_id":"71101d87-94cd-43c7-9e5e-2273cfc39853","system_id":"levelo_inurba_marseille","lat":43.273609,"lon":5.362708,"is_reserved":false,"is_disabled":false,"rental_uris":{"android":"levelo://app?vid=71101d87-94cd-43c7-9e5e-2273cfc39853","ios":"levelo://app?vid=71101d87-94cd-43c7-9e5e-2273cfc39853"},"vehicle_type_id":"4","last_reported":1700662041,"current_range_meters":13600,"station_id":"ce4bhbh2rcd13ifvqeo0","pricing_plan_id":"free"},{"bike_id":"6e5f3801-6b88-4e59-b20e-4254ee05dec2","system_id":"levelo_inurba_marseille","lat":43.275625,"lon":5.384392,"is_reserved":false,"is_disabled":false,"rental_uris":{"android":"levelo://app?vid=6e5f3801-6b88-4e59-b20e-4254ee05dec2","ios":"levelo://app?vid=6e5f3801-6b88-4e59-b20e-4254ee05dec2"},"vehicle_type_id":"4","last_reported":1700662041,"current_range_meters":23600,"station_id":"ce4bhh92rcd13ifvqfi0","pricing_plan_id":"free"},{"bike_id":"3ed8c182-efd3-48b0-bdf6-4d1670d1330a","system_id":"levelo_inurba_marseille","lat":43.275625,"lon":5.384392,"is_reserved":false,"is_disabled":false,"rental_uris":{"android":"levelo://app?vid=3ed8c182-efd3-48b0-bdf6-4d1670d1330a","ios":"levelo://app?vid=3ed8c182-efd3-48b0-bdf6-4d1670d1330a"},"vehicle_type_id":"4","last_reported":1700662041,"current_range_meters":28400,"station_id":"ce4bhh92rcd13ifvqfi0","pricing_plan_id":"free"},{"bike_id":"40b245cd-5698-4448-adbf-8da5e9a66211","system_id":"levelo_inurba_marseille","lat":43.27672,"lon":5.38893,"is_reserved":false,"is_disabled":false,"rental_uris":{"android":"levelo://app?vid=40b245cd-5698-4448-adbf-8da5e9a66211","ios":"levelo://app?vid=40b245cd-5698-4448-adbf-8da5e9a66211"},"vehicle_type_id":"4","last_reported":1700662041,"current_range_meters":5200,"station_id":"ce4bhi12rcd13ifvqfo0","pricing_plan_id":"free"},{"bike_id":"f8f9a42b-0bfa-45cb-a3e0-92846157e7dc","system_id":"levelo_inurba_marseille","lat":43.279952,"lon":5.400085,"is_reserved":false,"is_disabled":false,"rental_uris":{"android":"levelo://app?vid=f8f9a42b-0bfa-45cb-a3e0-92846157e7dc","ios":"levelo://app?vid=f8f9a42b-0bfa-45cb-a3e0-92846157e7dc"},"vehicle_type_id":"4","last_reported":1700662041,"current_range_meters":17200,"station_id":"ce4bho92rcd13ifvqh4g","pricing_plan_id":"free"},{"bike_id":"6ba38caf-f67b-4f77-9500-1252b8f10ca3","system_id":"levelo_inurba_marseille","lat":43.317121,"lon":5.423936,"is_reserved":false,"is_disabled":false,"rental_uris":{"android":"levelo://app?vid=6ba38caf-f67b-4f77-9500-1252b8f10ca3","ios":"levelo://app?vid=6ba38caf-f67b-4f77-9500-1252b8f10ca3"},"vehicle_type_id":"4","last_reported":1700662041,"current_range_meters":28000,"station_id":"ce4bhp92rcd13ifvqhbg","pricing_plan_id":"free"},{"bike_id":"1e8af89d-544b-4330-9099-1a0fc0b5775b","system_id":"levelo_inurba_marseille","lat":43.340804,"lon":5.410219,"is_reserved":false,"is_disabled":false,"rental_uris":{"android":"levelo://app?vid=1e8af89d-544b-4330-9099-1a0fc0b5775b","ios":"levelo://app?vid=1e8af89d-544b-4330-9099-1a0fc0b5775b"},"vehicle_type_id":"4","last_reported":1700662041,"current_range_meters":27600,"station_id":"ce4bhqh2rcd13ifvqhlg","pricing_plan_id":"free"},{"bike_id":"b0ccd6a8-8e66-40e0-8fe9-27aed4b15dd9","system_id":"levelo_inurba_marseille","lat":43.295511,"lon":5.422926,"is_reserved":false,"is_disabled":false,"rental_uris":{"android":"levelo://app?vid=b0ccd6a8-8e66-40e0-8fe9-27aed4b15dd9","ios":"levelo://app?vid=b0ccd6a8-8e66-40e0-8fe9-27aed4b15dd9"},"vehicle_type_id":"4","last_reported":1700662041,"current_range_meters":14000,"station_id":"ce4bhph2rcd13ifvqhdg","pricing_plan_id":"free"},{"bike_id":"06fcebe1-f595-4c4b-9e45-73cb826a5167","system_id":"levelo_inurba_marseille","lat":43.295511,"lon":5.422926,"is_reserved":false,"is_disabled":false,"rental_uris":{"android":"levelo://app?vid=06fcebe1-f595-4c4b-9e45-73cb826a5167","ios":"levelo://app?vid=06fcebe1-f595-4c4b-9e45-73cb826a5167"},"vehicle_type_id":"4","last_reported":1700662041,"current_range_meters":31200,"station_id":"ce4bhph2rcd13ifvqhdg","pricing_plan_id":"free"},{"bike_id":"5e8d72b7-01c7-4e2c-aa91-ede33736036c","system_id":"levelo_inurba_marseille","lat":43.29518,"lon":5.423023,"is_reserved":false,"is_disabled":false,"rental_uris":{"android":"levelo://app?vid=5e8d72b7-01c7-4e2c-aa91-ede33736036c","ios":"levelo://app?vid=5e8d72b7-01c7-4e2c-aa91-ede33736036c"},"vehicle_type_id":"4","last_reported":1700662041,"current_range_meters":17200,"station_id":"ce4bhph2rcd13ifvqhdg","pricing_plan_id":"free"},{"bike_id":"d63f0213-db4d-4ade-9fb5-b0161bcbc51a","system_id":"levelo_inurba_marseille","lat":43.272138,"lon":5.392602,"is_reserved":false,"is_disabled":false,"rental_uris":{"android":"levelo://app?vid=d63f0213-db4d-4ade-9fb5-b0161bcbc51a","ios":"levelo://app?vid=d63f0213-db4d-4ade-9fb5-b0161bcbc51a"},"vehicle_type_id":"4","last_reported":1700662041,"current_range_meters":0,"station_id":"","pricing_plan_id":"free"},{"bike_id":"d0bb53f7-f1b8-4609-a668-27efdac67f66","system_id":"levelo_inurba_marseille","lat":43.27195,"lon":5.39248,"is_reserved":false,"is_disabled":false,"rental_uris":{"android":"levelo://app?vid=d0bb53f7-f1b8-4609-a668-27efdac67f66","ios":"levelo://app?vid=d0bb53f7-f1b8-4609-a668-27efdac67f66"},"vehicle_type_id":"4","last_reported":1700662041,"current_range_meters":0,"station_id":"","pricing_plan_id":"free"},{"bike_id":"e27fd27a-3bd8-4e47-9516-24ed8bffabcb","system_id":"levelo_inurba_marseille","lat":43.27946,"lon":5.41046,"is_reserved":false,"is_disabled":false,"rental_uris":{"android":"levelo://app?vid=e27fd27a-3bd8-4e47-9516-24ed8bffabcb","ios":"levelo://app?vid=e27fd27a-3bd8-4e47-9516-24ed8bffabcb"},"vehicle_type_id":"4","last_reported":1700662041,"current_range_meters":0,"station_id":"ce4bhnp2rcd13ifvqh0g","pricing_plan_id":"free"},{"bike_id":"1dd80564-6f9c-4aff-acda-4e61e0eaa5e4","system_id":"levelo_inurba_marseille","lat":43.26681,"lon":5.382694,"is_reserved":false,"is_disabled":false,"rental_uris":{"android":"levelo://app?vid=1dd80564-6f9c-4aff-acda-4e61e0eaa5e4","ios":"levelo://app?vid=1dd80564-6f9c-4aff-acda-4e61e0eaa5e4"},"vehicle_type_id":"4","last_reported":1700662041,"current_range_meters":0,"station_id":"ce4bhg92rcd13ifvqf90","pricing_plan_id":"free"},{"bike_id":"28e8ce00-6b21-4e06-9930-c7c4408cc650","system_id":"levelo_inurba_marseille","lat":43.326174,"lon":5.430584,"is_reserved":false,"is_disabled":false,"rental_uris":{"android":"levelo://app?vid=28e8ce00-6b21-4e06-9930-c7c4408cc650","ios":"levelo://app?vid=28e8ce00-6b21-4e06-9930-c7c4408cc650"},"vehicle_type_id":"4","last_reported":1700662041,"current_range_meters":6400,"station_id":"","pricing_plan_id":"free"},{"bike_id":"82709b43-5bfb-478b-a3c9-847b0f5fac72","system_id":"levelo_inurba_marseille","lat":43.275437,"lon":5.409033,"is_reserved":false,"is_disabled":false,"rental_uris":{"android":"levelo://app?vid=82709b43-5bfb-478b-a3c9-847b0f5fac72","ios":"levelo://app?vid=82709b43-5bfb-478b-a3c9-847b0f5fac72"},"vehicle_type_id":"4","last_reported":1700662041,"current_range_meters":0,"station_id":"","pricing_plan_id":"free"},{"bike_id":"2a85dd6c-8954-47fc-8bc0-be2e74364c1a","system_id":"levelo_inurba_marseille","lat":43.267966,"lon":5.393976,"is_reserved":false,"is_disabled":false,"rental_uris":{"android":"levelo://app?vid=2a85dd6c-8954-47fc-8bc0-be2e74364c1a","ios":"levelo://app?vid=2a85dd6c-8954-47fc-8bc0-be2e74364c1a"},"vehicle_type_id":"4","last_reported":1700662041,"current_range_meters":21600,"station_id":"ce4bhh12rcd13ifvqfg0","pricing_plan_id":"free"},{"bike_id":"2b5f0b27-ae58-4e9e-bd76-c585f78e8a73","system_id":"levelo_inurba_marseille","lat":43.26386,"lon":5.37454,"is_reserved":false,"is_disabled":false,"rental_uris":{"android":"levelo://app?vid=2b5f0b27-ae58-4e9e-bd76-c585f78e8a73","ios":"levelo://app?vid=2b5f0b27-ae58-4e9e-bd76-c585f78e8a73"},"vehicle_type_id":"4","last_reported":1700662041,"current_range_meters":22000,"station_id":"","pricing_plan_id":"free"},{"bike_id":"797d93a0-7a5d-4ccb-be72-9c8d271aafa6","system_id":"levelo_inurba_marseille","lat":43.308051,"lon":5.43527,"is_reserved":false,"is_disabled":false,"rental_uris":{"android":"levelo://app?vid=797d93a0-7a5d-4ccb-be72-9c8d271aafa6","ios":"levelo://app?vid=797d93a0-7a5d-4ccb-be72-9c8d271aafa6"},"vehicle_type_id":"4","last_reported":1700662041,"current_range_meters":28000,"station_id":"ce4bhph2rcd13ifvqheg","pricing_plan_id":"free"},{"bike_id":"4c1e0277-ce6e-4d4c-a4b0-c0645b9210da","system_id":"levelo_inurba_marseille","lat":43.26949,"lon":5.40262,"is_reserved":false,"is_disabled":false,"rental_uris":{"android":"levelo://app?vid=4c1e0277-ce6e-4d4c-a4b0-c0645b9210da","ios":"levelo://app?vid=4c1e0277-ce6e-4d4c-a4b0-c0645b9210da"},"vehicle_type_id":"4","last_reported":1700662041,"current_range_meters":3600,"station_id":"cjm6bp8fraef2m0cb0m0","pricing_plan_id":"free"},{"bike_id":"af727711-a01b-40e5-8a7c-b755acc224a6","system_id":"levelo_inurba_marseille","lat":43.26949,"lon":5.40262,"is_reserved":false,"is_disabled":false,"rental_uris":{"android":"levelo://app?vid=af727711-a01b-40e5-8a7c-b755acc224a6","ios":"levelo://app?vid=af727711-a01b-40e5-8a7c-b755acc224a6"},"vehicle_type_id":"4","last_reported":1700662041,"current_range_meters":11200,"station_id":"cjm6bp8fraef2m0cb0m0","pricing_plan_id":"free"},{"bike_id":"d4a5a000-52e8-48fc-b527-56120dc5e1ed","system_id":"levelo_inurba_marseille","lat":43.26949,"lon":5.40262,"is_reserved":false,"is_disabled":false,"rental_uris":{"android":"levelo://app?vid=d4a5a000-52e8-48fc-b527-56120dc5e1ed","ios":"levelo://app?vid=d4a5a000-52e8-48fc-b527-56120dc5e1ed"},"vehicle_type_id":"4","last_reported":1700662041,"current_range_meters":26000,"station_id":"cjm6bp8fraef2m0cb0m0","pricing_plan_id":"free"},{"bike_id":"0a38ae67-2074-49af-b47a-63152d20c11f","system_id":"levelo_inurba_marseille","lat":43.317104,"lon":5.436818,"is_reserved":false,"is_disabled":false,"rental_uris":{"android":"levelo://app?vid=0a38ae67-2074-49af-b47a-63152d20c11f","ios":"levelo://app?vid=0a38ae67-2074-49af-b47a-63152d20c11f"},"vehicle_type_id":"4","last_reported":1700662041,"current_range_meters":30000,"station_id":"ce4bhp92rcd13ifvqhcg","pricing_plan_id":"free"},{"bike_id":"f4dc3bbf-58ad-405c-b019-7c8d8dea8f0f","system_id":"levelo_inurba_marseille","lat":43.27181,"lon":5.40986,"is_reserved":false,"is_disabled":false,"rental_uris":{"android":"levelo://app?vid=f4dc3bbf-58ad-405c-b019-7c8d8dea8f0f","ios":"levelo://app?vid=f4dc3bbf-58ad-405c-b019-7c8d8dea8f0f"},"vehicle_type_id":"4","last_reported":1700662041,"current_range_meters":27200,"station_id":"ce4bhl12rcd13ifvqgf0","pricing_plan_id":"free"},{"bike_id":"13bc16c3-bee6-4f15-bc06-e2fa5d131a49","system_id":"levelo_inurba_marseille","lat":43.262012,"lon":5.379307,"is_reserved":false,"is_disabled":false,"rental_uris":{"android":"levelo://app?vid=13bc16c3-bee6-4f15-bc06-e2fa5d131a49","ios":"levelo://app?vid=13bc16c3-bee6-4f15-bc06-e2fa5d131a49"},"vehicle_type_id":"4","last_reported":1700662041,"current_range_meters":7600,"station_id":"ce4bhjp2rcd13ifvqg90","pricing_plan_id":"free"},{"bike_id":"bb7b8ca5-4fe9-4891-92ec-47e91fdfd99c","system_id":"levelo_inurba_marseille","lat":43.271388,"lon":5.409269,"is_reserved":false,"is_disabled":false,"rental_uris":{"android":"levelo://app?vid=bb7b8ca5-4fe9-4891-92ec-47e91fdfd99c","ios":"levelo://app?vid=bb7b8ca5-4fe9-4891-92ec-47e91fdfd99c"},"vehicle_type_id":"4","last_reported":1700662041,"current_range_meters":24400,"station_id":"ce4bhl12rcd13ifvqgf0","pricing_plan_id":"free"},{"bike_id":"fa422122-0c77-4f4e-ad32-6f779e1606bc","system_id":"levelo_inurba_marseille","lat":43.26804,"lon":5.40273,"is_reserved":false,"is_disabled":false,"rental_uris":{"android":"levelo://app?vid=fa422122-0c77-4f4e-ad32-6f779e1606bc","ios":"levelo://app?vid=fa422122-0c77-4f4e-ad32-6f779e1606bc"},"vehicle_type_id":"4","last_reported":1700662041,"current_range_meters":4000,"station_id":"ce501612rcd8frsf0b60","pricing_plan_id":"free"},{"bike_id":"cb16d7ee-4d8d-44c4-bc7a-142b1234ab63","system_id":"levelo_inurba_marseille","lat":43.31725,"lon":5.43786,"is_reserved":false,"is_disabled":false,"rental_uris":{"android":"levelo://app?vid=cb16d7ee-4d8d-44c4-bc7a-142b1234ab63","ios":"levelo://app?vid=cb16d7ee-4d8d-44c4-bc7a-142b1234ab63"},"vehicle_type_id":"4","last_reported":1700662041,"current_range_meters":2800,"station_id":"","pricing_plan_id":"free"},{"bike_id":"cb70a0a7-a3ba-40be-8f5b-54253a525851","system_id":"levelo_inurba_marseille","lat":43.299006,"lon":5.436851,"is_reserved":false,"is_disabled":false,"rental_uris":{"android":"levelo://app?vid=cb70a0a7-a3ba-40be-8f5b-54253a525851","ios":"levelo://app?vid=cb70a0a7-a3ba-40be-8f5b-54253a525851"},"vehicle_type_id":"4","last_reported":1700662041,"current_range_meters":0,"station_id":"ce4bhpp2rcd13ifvqhfg","pricing_plan_id":"free"},{"bike_id":"562c041a-62db-45e6-9d19-e3fdd7f2d974","system_id":"levelo_inurba_marseille","lat":43.260225,"lon":5.375455,"is_reserved":false,"is_disabled":false,"rental_uris":{"android":"levelo://app?vid=562c041a-62db-45e6-9d19-e3fdd7f2d974","ios":"levelo://app?vid=562c041a-62db-45e6-9d19-e3fdd7f2d974"},"vehicle_type_id":"4","last_reported":1700662041,"current_range_meters":13600,"station_id":"ce4bhgh2rcd13ifvqfa0","pricing_plan_id":"free"},{"bike_id":"fa08277e-0c53-43d6-83c1-a11b2d4dcd4e","system_id":"levelo_inurba_marseille","lat":43.281548,"lon":5.42643,"is_reserved":false,"is_disabled":false,"rental_uris":{"android":"levelo://app?vid=fa08277e-0c53-43d6-83c1-a11b2d4dcd4e","ios":"levelo://app?vid=fa08277e-0c53-43d6-83c1-a11b2d4dcd4e"},"vehicle_type_id":"4","last_reported":1700662041,"current_range_meters":15200,"station_id":"ce4bhnh2rcd13ifvqgug","pricing_plan_id":"free"},{"bike_id":"6b188708-9907-4cc6-a7fa-bcdecbd5a74b","system_id":"levelo_inurba_marseille","lat":43.27495,"lon":5.42454,"is_reserved":false,"is_disabled":false,"rental_uris":{"android":"levelo://app?vid=6b188708-9907-4cc6-a7fa-bcdecbd5a74b","ios":"levelo://app?vid=6b188708-9907-4cc6-a7fa-bcdecbd5a74b"},"vehicle_type_id":"4","last_reported":1700662041,"current_range_meters":1600,"station_id":"ce4bhn92rcd13ifvqgrg","pricing_plan_id":"free"},{"bike_id":"250216da-c09f-4985-8b17-22b8293e36df","system_id":"levelo_inurba_marseille","lat":43.25826,"lon":5.39438,"is_reserved":false,"is_disabled":false,"rental_uris":{"android":"levelo://app?vid=250216da-c09f-4985-8b17-22b8293e36df","ios":"levelo://app?vid=250216da-c09f-4985-8b17-22b8293e36df"},"vehicle_type_id":"4","last_reported":1700662041,"current_range_meters":21600,"station_id":"ce4bhip2rcd13ifvqft0","pricing_plan_id":"free"},{"bike_id":"60f243bd-1eed-4c9d-b9b5-438db2109069","system_id":"levelo_inurba_marseille","lat":43.2558,"lon":5.38232,"is_reserved":false,"is_disabled":false,"rental_uris":{"android":"levelo://app?vid=60f243bd-1eed-4c9d-b9b5-438db2109069","ios":"levelo://app?vid=60f243bd-1eed-4c9d-b9b5-438db2109069"},"vehicle_type_id":"4","last_reported":1700662041,"current_range_meters":10400,"station_id":"ce4bhih2rcd13ifvqfs0","pricing_plan_id":"free"},{"bike_id":"38061f39-e256-4c22-9288-a433a3d0307e","system_id":"levelo_inurba_marseille","lat":43.254947,"lon":5.376454,"is_reserved":false,"is_disabled":false,"rental_uris":{"android":"levelo://app?vid=38061f39-e256-4c22-9288-a433a3d0307e","ios":"levelo://app?vid=38061f39-e256-4c22-9288-a433a3d0307e"},"vehicle_type_id":"4","last_reported":1700662041,"current_range_meters":20000,"station_id":"ce4bhh12rcd13ifvqff0","pricing_plan_id":"free"},{"bike_id":"d80ade70-d274-422e-a88d-5babacce876d","system_id":"levelo_inurba_marseille","lat":43.25491,"lon":5.37651,"is_reserved":false,"is_disabled":false,"rental_uris":{"android":"levelo://app?vid=d80ade70-d274-422e-a88d-5babacce876d","ios":"levelo://app?vid=d80ade70-d274-422e-a88d-5babacce876d"},"vehicle_type_id":"4","last_reported":1700662041,"current_range_meters":4000,"station_id":"ce4bhh12rcd13ifvqff0","pricing_plan_id":"free"},{"bike_id":"c5d3a005-236a-454f-9da2-42ef48164876","system_id":"levelo_inurba_marseille","lat":43.254945,"lon":5.376454,"is_reserved":false,"is_disabled":false,"rental_uris":{"android":"levelo://app?vid=c5d3a005-236a-454f-9da2-42ef48164876","ios":"levelo://app?vid=c5d3a005-236a-454f-9da2-42ef48164876"},"vehicle_type_id":"4","last_reported":1700662041,"current_range_meters":23600,"station_id":"ce4bhh12rcd13ifvqff0","pricing_plan_id":"free"},{"bike_id":"50290bb8-efd3-482d-b021-7495607ee03f","system_id":"levelo_inurba_marseille","lat":43.25858,"lon":5.39906,"is_reserved":false,"is_disabled":false,"rental_uris":{"android":"levelo://app?vid=50290bb8-efd3-482d-b021-7495607ee03f","ios":"levelo://app?vid=50290bb8-efd3-482d-b021-7495607ee03f"},"vehicle_type_id":"4","last_reported":1700662041,"current_range_meters":0,"station_id":"ce4bhl92rcd13ifvqghg","pricing_plan_id":"free"},{"bike_id":"ce1dd411-4d96-4c05-984b-40253993a13a","system_id":"levelo_inurba_marseille","lat":43.259009,"lon":5.40929,"is_reserved":false,"is_disabled":false,"rental_uris":{"android":"levelo://app?vid=ce1dd411-4d96-4c05-984b-40253993a13a","ios":"levelo://app?vid=ce1dd411-4d96-4c05-984b-40253993a13a"},"vehicle_type_id":"4","last_reported":1700662041,"current_range_meters":3200,"station_id":"ce4bhm92rcd13ifvqglg","pricing_plan_id":"free"},{"bike_id":"eedf2e51-beb6-448c-9be8-f02e29717301","system_id":"levelo_inurba_marseille","lat":43.257079,"lon":5.411051,"is_reserved":false,"is_disabled":false,"rental_uris":{"android":"levelo://app?vid=eedf2e51-beb6-448c-9be8-f02e29717301","ios":"levelo://app?vid=eedf2e51-beb6-448c-9be8-f02e29717301"},"vehicle_type_id":"4","last_reported":1700662041,"current_range_meters":31200,"station_id":"ce4bhkp2rcd13ifvqgd0","pricing_plan_id":"free"},{"bike_id":"6037c9ec-bf56-4c91-a6c9-8c3b7d0be3a4","system_id":"levelo_inurba_marseille","lat":43.257079,"lon":5.411051,"is_reserved":false,"is_disabled":false,"rental_uris":{"android":"levelo://app?vid=6037c9ec-bf56-4c91-a6c9-8c3b7d0be3a4","ios":"levelo://app?vid=6037c9ec-bf56-4c91-a6c9-8c3b7d0be3a4"},"vehicle_type_id":"4","last_reported":1700662041,"current_range_meters":31200,"station_id":"ce4bhkp2rcd13ifvqgd0","pricing_plan_id":"free"},{"bike_id":"02ce060b-c852-447b-94c7-37c0b2f32f99","system_id":"levelo_inurba_marseille","lat":43.250023,"lon":5.38919,"is_reserved":false,"is_disabled":false,"rental_uris":{"android":"levelo://app?vid=02ce060b-c852-447b-94c7-37c0b2f32f99","ios":"levelo://app?vid=02ce060b-c852-447b-94c7-37c0b2f32f99"},"vehicle_type_id":"4","last_reported":1700662041,"current_range_meters":6800,"station_id":"ce4bhgp2rcd13ifvqfd0","pricing_plan_id":"free"},{"bike_id":"ed043d4e-7401-4914-9933-27d92c3f649c","system_id":"levelo_inurba_marseille","lat":43.250023,"lon":5.38919,"is_reserved":false,"is_disabled":false,"rental_uris":{"android":"levelo://app?vid=ed043d4e-7401-4914-9933-27d92c3f649c","ios":"levelo://app?vid=ed043d4e-7401-4914-9933-27d92c3f649c"},"vehicle_type_id":"4","last_reported":1700662041,"current_range_meters":4000,"station_id":"ce4bhgp2rcd13ifvqfd0","pricing_plan_id":"free"},{"bike_id":"debcf4bf-ea67-4975-8b6d-2cd238944ab1","system_id":"levelo_inurba_marseille","lat":43.250966,"lon":5.395186,"is_reserved":false,"is_disabled":false,"rental_uris":{"android":"levelo://app?vid=debcf4bf-ea67-4975-8b6d-2cd238944ab1","ios":"levelo://app?vid=debcf4bf-ea67-4975-8b6d-2cd238944ab1"},"vehicle_type_id":"4","last_reported":1700662041,"current_range_meters":0,"station_id":"ce4bhm12rcd13ifvqgkg","pricing_plan_id":"free"},{"bike_id":"870eff54-1632-4b75-899d-de5d63c2b7ee","system_id":"levelo_inurba_marseille","lat":43.24693,"lon":5.382096,"is_reserved":false,"is_disabled":false,"rental_uris":{"android":"levelo://app?vid=870eff54-1632-4b75-899d-de5d63c2b7ee","ios":"levelo://app?vid=870eff54-1632-4b75-899d-de5d63c2b7ee"},"vehicle_type_id":"4","last_reported":1700662041,"current_range_meters":23600,"station_id":"ce4bhih2rcd13ifvqfr0","pricing_plan_id":"free"},{"bike_id":"4a928deb-95ee-4e4f-a4b3-babf765ae0f6","system_id":"levelo_inurba_marseille","lat":43.25102,"lon":5.403214,"is_reserved":false,"is_disabled":false,"rental_uris":{"android":"levelo://app?vid=4a928deb-95ee-4e4f-a4b3-babf765ae0f6","ios":"levelo://app?vid=4a928deb-95ee-4e4f-a4b3-babf765ae0f6"},"vehicle_type_id":"4","last_reported":1700662041,"current_range_meters":16400,"station_id":"ce4bhlh2rcd13ifvqgig","pricing_plan_id":"free"},{"bike_id":"545a221f-d91e-478d-87a3-44c05deff1e4","system_id":"levelo_inurba_marseille","lat":43.251085,"lon":5.40327,"is_reserved":false,"is_disabled":false,"rental_uris":{"android":"levelo://app?vid=545a221f-d91e-478d-87a3-44c05deff1e4","ios":"levelo://app?vid=545a221f-d91e-478d-87a3-44c05deff1e4"},"vehicle_type_id":"4","last_reported":1700662041,"current_range_meters":0,"station_id":"ce4bhlh2rcd13ifvqgig","pricing_plan_id":"free"},{"bike_id":"54acb913-146c-4883-bed8-2c5edb0a2816","system_id":"levelo_inurba_marseille","lat":43.243884,"lon":5.370737,"is_reserved":false,"is_disabled":false,"rental_uris":{"android":"levelo://app?vid=54acb913-146c-4883-bed8-2c5edb0a2816","ios":"levelo://app?vid=54acb913-146c-4883-bed8-2c5edb0a2816"},"vehicle_type_id":"4","last_reported":1700662041,"current_range_meters":14400,"station_id":"ce4bhhh2rcd13ifvqfk0","pricing_plan_id":"free"},{"bike_id":"5cf607be-b709-4054-8bcf-a63a8fb38521","system_id":"levelo_inurba_marseille","lat":43.24075,"lon":5.37754,"is_reserved":false,"is_disabled":false,"rental_uris":{"android":"levelo://app?vid=5cf607be-b709-4054-8bcf-a63a8fb38521","ios":"levelo://app?vid=5cf607be-b709-4054-8bcf-a63a8fb38521"},"vehicle_type_id":"4","last_reported":1700662041,"current_range_meters":0,"station_id":"ce4bhnp2rcd13ifvqgvg","pricing_plan_id":"free"},{"bike_id":"6407d4f6-82a9-4643-81ed-f7f79d04ea4f","system_id":"levelo_inurba_marseille","lat":43.24073,"lon":5.37761,"is_reserved":false,"is_disabled":false,"rental_uris":{"android":"levelo://app?vid=6407d4f6-82a9-4643-81ed-f7f79d04ea4f","ios":"levelo://app?vid=6407d4f6-82a9-4643-81ed-f7f79d04ea4f"},"vehicle_type_id":"4","last_reported":1700662041,"current_range_meters":5200,"station_id":"ce4bhnp2rcd13ifvqgvg","pricing_plan_id":"free"},{"bike_id":"56cd4150-fa31-47c9-b76d-52f05a098e5e","system_id":"levelo_inurba_marseille","lat":43.240623,"lon":5.377642,"is_reserved":false,"is_disabled":false,"rental_uris":{"android":"levelo://app?vid=56cd4150-fa31-47c9-b76d-52f05a098e5e","ios":"levelo://app?vid=56cd4150-fa31-47c9-b76d-52f05a098e5e"},"vehicle_type_id":"4","last_reported":1700662041,"current_range_meters":11600,"station_id":"ce4bhnp2rcd13ifvqgvg","pricing_plan_id":"free"},{"bike_id":"c765b4f3-419f-48d5-b599-5b16452bbf94","system_id":"levelo_inurba_marseille","lat":43.240623,"lon":5.377642,"is_reserved":false,"is_disabled":false,"rental_uris":{"android":"levelo://app?vid=c765b4f3-419f-48d5-b599-5b16452bbf94","ios":"levelo://app?vid=c765b4f3-419f-48d5-b599-5b16452bbf94"},"vehicle_type_id":"4","last_reported":1700662041,"current_range_meters":11200,"station_id":"ce4bhnp2rcd13ifvqgvg","pricing_plan_id":"free"},{"bike_id":"9652320c-2bff-4c9a-8f65-38b6f96922d5","system_id":"levelo_inurba_marseille","lat":43.240623,"lon":5.377642,"is_reserved":false,"is_disabled":false,"rental_uris":{"android":"levelo://app?vid=9652320c-2bff-4c9a-8f65-38b6f96922d5","ios":"levelo://app?vid=9652320c-2bff-4c9a-8f65-38b6f96922d5"},"vehicle_type_id":"4","last_reported":1700662041,"current_range_meters":22000,"station_id":"ce4bhnp2rcd13ifvqgvg","pricing_plan_id":"free"},{"bike_id":"5a1ba83b-8198-4f26-837c-2fad3ab381eb","system_id":"levelo_inurba_marseille","lat":43.25265,"lon":5.42284,"is_reserved":false,"is_disabled":false,"rental_uris":{"android":"levelo://app?vid=5a1ba83b-8198-4f26-837c-2fad3ab381eb","ios":"levelo://app?vid=5a1ba83b-8198-4f26-837c-2fad3ab381eb"},"vehicle_type_id":"4","last_reported":1700662041,"current_range_meters":5600,"station_id":"","pricing_plan_id":"free"},{"bike_id":"dd48c282-bbef-4cc1-abbf-c9653dc800fe","system_id":"levelo_inurba_marseille","lat":43.239588,"lon":5.366238,"is_reserved":false,"is_disabled":false,"rental_uris":{"android":"levelo://app?vid=dd48c282-bbef-4cc1-abbf-c9653dc800fe","ios":"levelo://app?vid=dd48c282-bbef-4cc1-abbf-c9653dc800fe"},"vehicle_type_id":"4","last_reported":1700662041,"current_range_meters":27200,"station_id":"ce4bhi12rcd13ifvqfp0","pricing_plan_id":"free"},{"bike_id":"44179302-ba69-43d9-a22d-142ac6bb91e8","system_id":"levelo_inurba_marseille","lat":43.239588,"lon":5.366238,"is_reserved":false,"is_disabled":false,"rental_uris":{"android":"levelo://app?vid=44179302-ba69-43d9-a22d-142ac6bb91e8","ios":"levelo://app?vid=44179302-ba69-43d9-a22d-142ac6bb91e8"},"vehicle_type_id":"4","last_reported":1700662041,"current_range_meters":28800,"station_id":"ce4bhi12rcd13ifvqfp0","pricing_plan_id":"free"},{"bike_id":"cafd1929-e43a-4097-ae7a-9b99bd7c9fc8","system_id":"levelo_inurba_marseille","lat":43.239588,"lon":5.366238,"is_reserved":false,"is_disabled":false,"rental_uris":{"android":"levelo://app?vid=cafd1929-e43a-4097-ae7a-9b99bd7c9fc8","ios":"levelo://app?vid=cafd1929-e43a-4097-ae7a-9b99bd7c9fc8"},"vehicle_type_id":"4","last_reported":1700662041,"current_range_meters":31600,"station_id":"ce4bhi12rcd13ifvqfp0","pricing_plan_id":"free"},{"bike_id":"a0ad8b12-a4ca-4e53-abe1-af8d49fd9c0a","system_id":"levelo_inurba_marseille","lat":43.239588,"lon":5.366238,"is_reserved":false,"is_disabled":false,"rental_uris":{"android":"levelo://app?vid=a0ad8b12-a4ca-4e53-abe1-af8d49fd9c0a","ios":"levelo://app?vid=a0ad8b12-a4ca-4e53-abe1-af8d49fd9c0a"},"vehicle_type_id":"4","last_reported":1700662041,"current_range_meters":28800,"station_id":"ce4bhi12rcd13ifvqfp0","pricing_plan_id":"free"},{"bike_id":"548d2fd0-a1eb-4fdd-96ec-ed015e1b8820","system_id":"levelo_inurba_marseille","lat":43.239588,"lon":5.366238,"is_reserved":false,"is_disabled":false,"rental_uris":{"android":"levelo://app?vid=548d2fd0-a1eb-4fdd-96ec-ed015e1b8820","ios":"levelo://app?vid=548d2fd0-a1eb-4fdd-96ec-ed015e1b8820"},"vehicle_type_id":"4","last_reported":1700662041,"current_range_meters":7200,"station_id":"ce4bhi12rcd13ifvqfp0","pricing_plan_id":"free"},{"bike_id":"18de5b84-11a1-42ad-bf5c-85bc97d648bf","system_id":"levelo_inurba_marseille","lat":43.24182,"lon":5.39726,"is_reserved":false,"is_disabled":false,"rental_uris":{"android":"levelo://app?vid=18de5b84-11a1-42ad-bf5c-85bc97d648bf","ios":"levelo://app?vid=18de5b84-11a1-42ad-bf5c-85bc97d648bf"},"vehicle_type_id":"4","last_reported":1700662041,"current_range_meters":5200,"station_id":"ce4bhn12rcd13ifvqgpg","pricing_plan_id":"free"},{"bike_id":"03510ac4-47fa-408f-8a51-bec4b93cac90","system_id":"levelo_inurba_marseille","lat":43.231923,"lon":5.355545,"is_reserved":false,"is_disabled":false,"rental_uris":{"android":"levelo://app?vid=03510ac4-47fa-408f-8a51-bec4b93cac90","ios":"levelo://app?vid=03510ac4-47fa-408f-8a51-bec4b93cac90"},"vehicle_type_id":"4","last_reported":1700662041,"current_range_meters":12000,"station_id":"ce4bhu92rcd13ifvqi70","pricing_plan_id":"free"},{"bike_id":"9a7b7e85-a793-4508-92be-696f872af28f","system_id":"levelo_inurba_marseille","lat":43.23195,"lon":5.35557,"is_reserved":false,"is_disabled":false,"rental_uris":{"android":"levelo://app?vid=9a7b7e85-a793-4508-92be-696f872af28f","ios":"levelo://app?vid=9a7b7e85-a793-4508-92be-696f872af28f"},"vehicle_type_id":"4","last_reported":1700662041,"current_range_meters":7600,"station_id":"ce4bhu92rcd13ifvqi70","pricing_plan_id":"free"},{"bike_id":"629cdd66-158d-4c28-849c-447b83f6ce32","system_id":"levelo_inurba_marseille","lat":43.231923,"lon":5.355545,"is_reserved":false,"is_disabled":false,"rental_uris":{"android":"levelo://app?vid=629cdd66-158d-4c28-849c-447b83f6ce32","ios":"levelo://app?vid=629cdd66-158d-4c28-849c-447b83f6ce32"},"vehicle_type_id":"4","last_reported":1700662041,"current_range_meters":31200,"station_id":"ce4bhu92rcd13ifvqi70","pricing_plan_id":"free"},{"bike_id":"76f48143-0fd7-42d0-85b8-80e7fcf987a7","system_id":"levelo_inurba_marseille","lat":43.231919,"lon":5.355532,"is_reserved":false,"is_disabled":false,"rental_uris":{"android":"levelo://app?vid=76f48143-0fd7-42d0-85b8-80e7fcf987a7","ios":"levelo://app?vid=76f48143-0fd7-42d0-85b8-80e7fcf987a7"},"vehicle_type_id":"4","last_reported":1700662041,"current_range_meters":18400,"station_id":"ce4bhu92rcd13ifvqi70","pricing_plan_id":"free"},{"bike_id":"78da43ad-1f3b-4e4a-8315-18212c37d7bb","system_id":"levelo_inurba_marseille","lat":43.231919,"lon":5.355532,"is_reserved":false,"is_disabled":false,"rental_uris":{"android":"levelo://app?vid=78da43ad-1f3b-4e4a-8315-18212c37d7bb","ios":"levelo://app?vid=78da43ad-1f3b-4e4a-8315-18212c37d7bb"},"vehicle_type_id":"4","last_reported":1700662041,"current_range_meters":16000,"station_id":"ce4bhu92rcd13ifvqi70","pricing_plan_id":"free"},{"bike_id":"5ba30ed2-a488-4ec4-b826-6c3802a68950","system_id":"levelo_inurba_marseille","lat":43.23193,"lon":5.35554,"is_reserved":false,"is_disabled":false,"rental_uris":{"android":"levelo://app?vid=5ba30ed2-a488-4ec4-b826-6c3802a68950","ios":"levelo://app?vid=5ba30ed2-a488-4ec4-b826-6c3802a68950"},"vehicle_type_id":"4","last_reported":1700662041,"current_range_meters":22800,"station_id":"ce4bhu92rcd13ifvqi70","pricing_plan_id":"free"},{"bike_id":"a2de7bbb-1b41-441f-a8d5-3f3e61ace3c7","system_id":"levelo_inurba_marseille","lat":43.231919,"lon":5.355532,"is_reserved":false,"is_disabled":false,"rental_uris":{"android":"levelo://app?vid=a2de7bbb-1b41-441f-a8d5-3f3e61ace3c7","ios":"levelo://app?vid=a2de7bbb-1b41-441f-a8d5-3f3e61ace3c7"},"vehicle_type_id":"4","last_reported":1700662041,"current_range_meters":2000,"station_id":"ce4bhu92rcd13ifvqi70","pricing_plan_id":"free"},{"bike_id":"071837c4-f80c-491c-97d6-e86cba736f07","system_id":"levelo_inurba_marseille","lat":43.231794,"lon":5.400052,"is_reserved":false,"is_disabled":false,"rental_uris":{"android":"levelo://app?vid=071837c4-f80c-491c-97d6-e86cba736f07","ios":"levelo://app?vid=071837c4-f80c-491c-97d6-e86cba736f07"},"vehicle_type_id":"4","last_reported":1700662041,"current_range_meters":18400,"station_id":"ce4bhn12rcd13ifvqgqg","pricing_plan_id":"free"},{"bike_id":"faa0ca6f-091a-44f2-aa9f-8113f3d96335","system_id":"levelo_inurba_marseille","lat":43.231793,"lon":5.400044,"is_reserved":false,"is_disabled":false,"rental_uris":{"android":"levelo://app?vid=faa0ca6f-091a-44f2-aa9f-8113f3d96335","ios":"levelo://app?vid=faa0ca6f-091a-44f2-aa9f-8113f3d96335"},"vehicle_type_id":"4","last_reported":1700662041,"current_range_meters":8800,"station_id":"ce4bhn12rcd13ifvqgqg","pricing_plan_id":"free"},{"bike_id":"4eced531-2e43-46c4-9756-1f6b6092445d","system_id":"levelo_inurba_marseille","lat":43.23153,"lon":5.43711,"is_reserved":false,"is_disabled":false,"rental_uris":{"android":"levelo://app?vid=4eced531-2e43-46c4-9756-1f6b6092445d","ios":"levelo://app?vid=4eced531-2e43-46c4-9756-1f6b6092445d"},"vehicle_type_id":"4","last_reported":1700662041,"current_range_meters":31200,"station_id":"ce4bhmp2rcd13ifvqgog","pricing_plan_id":"free"},{"bike_id":"4ae4dadd-c52c-462a-b047-f61a600aca9a","system_id":"levelo_inurba_marseille","lat":43.23149,"lon":5.43718,"is_reserved":false,"is_disabled":false,"rental_uris":{"android":"levelo://app?vid=4ae4dadd-c52c-462a-b047-f61a600aca9a","ios":"levelo://app?vid=4ae4dadd-c52c-462a-b047-f61a600aca9a"},"vehicle_type_id":"4","last_reported":1700662041,"current_range_meters":7600,"station_id":"ce4bhmp2rcd13ifvqgog","pricing_plan_id":"free"},{"bike_id":"fbd8c7d9-e437-4a7d-9d14-30cd6c7d351e","system_id":"levelo_inurba_marseille","lat":43.231562,"lon":5.436933,"is_reserved":false,"is_disabled":false,"rental_uris":{"android":"levelo://app?vid=fbd8c7d9-e437-4a7d-9d14-30cd6c7d351e","ios":"levelo://app?vid=fbd8c7d9-e437-4a7d-9d14-30cd6c7d351e"},"vehicle_type_id":"4","last_reported":1700662041,"current_range_meters":31200,"station_id":"ce4bhmp2rcd13ifvqgog","pricing_plan_id":"free"},{"bike_id":"6c13008a-96a2-4791-bd74-b608ab828ff5","system_id":"levelo_inurba_marseille","lat":43.231562,"lon":5.436933,"is_reserved":false,"is_disabled":false,"rental_uris":{"android":"levelo://app?vid=6c13008a-96a2-4791-bd74-b608ab828ff5","ios":"levelo://app?vid=6c13008a-96a2-4791-bd74-b608ab828ff5"},"vehicle_type_id":"4","last_reported":1700662041,"current_range_meters":31600,"station_id":"ce4bhmp2rcd13ifvqgog","pricing_plan_id":"free"},{"bike_id":"85512dec-c427-4673-bdba-e25bcbbceda4","system_id":"levelo_inurba_marseille","lat":43.231562,"lon":5.436933,"is_reserved":false,"is_disabled":false,"rental_uris":{"android":"levelo://app?vid=85512dec-c427-4673-bdba-e25bcbbceda4","ios":"levelo://app?vid=85512dec-c427-4673-bdba-e25bcbbceda4"},"vehicle_type_id":"4","last_reported":1700662041,"current_range_meters":2400,"station_id":"ce4bhmp2rcd13ifvqgog","pricing_plan_id":"free"}]}}