{"last_updated":1749823812,"ttl":60,"version":"2.2","data":{"bikes":[{"bike_id":"b31f0139-170f-4194-984f-4386218a1e9d","system_id":"levelo_inurba_marseille","lat":43.33771,"lon":5.37424,"is_reserved":false,"is_disabled":true,"rental_uris":{"android":"levelo://app?vid=b31f0139-170f-4194-984f-4386218a1e9d","ios":"levelo://app?vid=b31f0139-170f-4194-984f-4386218a1e9d"},"vehicle_type_id":"4","last_reported":1749823812,"current_range_meters":0,"station_id":"","pricing_plan_id":"cebpf4jnsgd1na2vs0mg"},{"bike_id":"1acfb620-cad7-48c0-8901-d7a5b74a5b65","system_id":"levelo_inurba_marseille","lat":43.33751,"lon":5.37456,"is_reserved":false,"is_disabled":false,"rental_uris":{"android":"levelo://app?vid=1acfb620-cad7-48c0-8901-d7a5b74a5b65","ios":"levelo://app?vid=1acfb620-cad7-48c0-8901-d7a5b74a5b65"},"vehicle_type_id":"4","last_reported":1749823812,"current_range_meters":3600,"station_id":"","pricing_plan_id":"cebpf4jnsgd1na2vs0mg"},{"bike_id":"bf89d78c-eb96-40d5-beb0-f402ef102cc1","system_id":"levelo_inurba_marseille","lat":43.337444,"lon":5.374475,"is_reserved":false,"is_disabled":true,"rental_uris":{"android":"levelo://app?vid=bf89d78c-eb96-40d5-beb0-f402ef102cc1","ios":"levelo://app?vid=bf89d78c-eb96-40d5-beb0-f402ef102cc1"},"vehicle_type_id":"4","last_reported":1749823812,"current_range_meters":0,"station_id":"","pricing_plan_id":"cebpf4jnsgd1na2vs0mg"},{"bike_id":"5077581b-cebb-46fc-ba69-4fa8272d4810","system_id":"levelo_inurba_marseille","lat":43.21381,"lon":5.35548,"is_reserved":false,"is_disabled":true,"rental_uris":{"android":"levelo://app?vid=5077581b-cebb-46fc-ba69-4fa8272d4810","ios":"levelo://app?vid=5077581b-cebb-46fc-ba69-4fa8272d4810"},"vehicle_type_id":"4","last_reported":1749823812,"current_range_meters":0,"station_id":"","pricing_plan_id":"cebpf4jnsgd1na2vs0mg"},{"bike_id":"ff34c0f3-8c25-4dfe-a1c9-11838519013d","system_id":"levelo_inurba_marseille","lat":43.24345,"lon":5.40163,"is_reserved":false,"is_disabled":true,"rental_uris":{"android":"levelo://app?vid=ff34c0f3-8c25-4dfe-a1c9-11838519013d","ios":"levelo://app?vid=ff34c0f3-8c25-4dfe-a1c9-11838519013d"},"vehicle_type_id":"4","last_reported":1749823812,"current_range_meters":0,"station_id":"","pricing_plan_id":"cebpf4jnsgd1na2vs0mg"},{"bike_id":"7c6a9c32-3bbe-4d4c-8294-1969d0688a87","system_id":"levelo_inurba_marseille","lat":43.2846,"lon":5.42065,"is_reserved":false,"is_disabled":true,"rental_uris":{"android":"levelo://app?vid=7c6a9c32-3bbe-4d4c-8294-1969d0688a87","ios":"levelo://app?vid=7c6a9c32-3bbe-4d4c-8294-1969d0688a87"},"vehicle_type_id":"4","last_reported":1749823812,"current_range_meters":0,"station_id":"","pricing_plan_id":"cebpf4jnsgd1na2vs0mg"},{"bike_id":"e258e5e3-043f-4aca-bbde-8ebbb8d5ab5e","system_id":"levelo_inurba_marseille","lat":43.26591,"lon":5.39048,"is_reserved":false,"is_disabled":true,"rental_uris":{"android":"levelo://app?vid=e258e5e3-043f-4aca-bbde-8ebbb8d5ab5e","ios":"levelo://app?vid=e258e5e3-043f-4aca-bbde-8ebbb8d5ab5e"},"vehicle_type_id":"4","last_reported":1749823812,"current_range_meters":0,"station_id":"","pricing_plan_id":"cebpf4jnsgd1na2vs0mg"},{"bike_id":"66b1cbfb-c132-4ef4-922c-0beab9b5a350","system_id":"levelo_inurba_marseille","lat":43.29753,"lon":5.46041,"is_reserved":false,"is_disabled":true,"rental_uris":{"android":"levelo://app?vid=66b1cbfb-c132-4ef4-922c-0beab9b5a350","ios":"levelo://app?vid=66b1cbfb-c132-4ef4-922c-0beab9b5a350"},"vehicle_type_id":"4","last_reported":1749823812,"current_range_meters":0,"station_id":"","pricing_plan_id":"cebpf4jnsgd1na2vs0mg"},{"bike_id":"492f4bbd-1190-4ef2-b66a-479ffe91b09b","system_id":"levelo_inurba_marseille","lat":43.337444,"lon":5.374475,"is_reserved":false,"is_disabled":true,"rental_uris":{"android":"levelo://app?vid=492f4bbd-1190-4ef2-b66a-479ffe91b09b","ios":"levelo://app?vid=492f4bbd-1190-4ef2-b66a-479ffe91b09b"},"vehicle_type_id":"4","last_reported":1749823812,"current_range_meters":0,"station_id":"","pricing_plan_id":"cebpf4jnsgd1na2vs0mg"},{"bike_id":"a9b6bf99-4070-4437-bb20-72962ae30b90","system_id":"levelo_inurba_marseille","lat":43.27458,"lon":5.36386,"is_reserved":false,"is_disabled":true,"rental_uris":{"android":"levelo://app?vid=a9b6bf99-4070-4437-bb20-72962ae30b90","ios":"levelo://app?vid=a9b6bf99-4070-4437-bb20-72962ae30b90"},"vehicle_type_id":"4","last_reported":1749823812,"current_range_meters":0,"station_id":"","pricing_plan_id":"cebpf4jnsgd1na2vs0mg"},{"bike_id":"efff48a7-32ed-46fb-82ff-1ab8d24c4707","system_id":"levelo_inurba_marseille","lat":43.30912,"lon":5.36905,"is_reserved":false,"is_disabled":true,"rental_uris":{"android":"levelo://app?vid=efff48a7-32ed-46fb-82ff-1ab8d24c4707","ios":"levelo://app?vid=efff48a7-32ed-46fb-82ff-1ab8d24c4707"},"vehicle_type_id":"4","last_reported":1749823812,"current_range_meters":0,"station_id":"ce4bgn92rcd13ifvqbvg","pricing_plan_id":"cebpf4jnsgd1na2vs0mg"},{"bike_id":"6c2b2318-58f7-49b5-bf5f-9f8093002616","system_id":"levelo_inurba_marseille","lat":43.30596,"lon":5.3722,"is_reserved":false,"is_disabled":true,"rental_uris":{"android":"levelo://app?vid=6c2b2318-58f7-49b5-bf5f-9f8093002616","ios":"levelo://app?vid=6c2b2318-58f7-49b5-bf5f-9f8093002616"},"vehicle_type_id":"4","last_reported":1749823812,"current_range_meters":0,"station_id":"ce4bgqh2rcd13ifvqc4g","pricing_plan_id":"cebpf4jnsgd1na2vs0mg"},{"bike_id":"eb87d23f-4391-4b32-90e6-a47a6513ba27","system_id":"levelo_inurba_marseille","lat":43.30211,"lon":5.39471,"is_reserved":false,"is_disabled":true,"rental_uris":{"android":"levelo://app?vid=eb87d23f-4391-4b32-90e6-a47a6513ba27","ios":"levelo://app?vid=eb87d23f-4391-4b32-90e6-a47a6513ba27"},"vehicle_type_id":"4","last_reported":1749823812,"current_range_meters":0,"station_id":"ce4bh0p2rcd13ifvqd70","pricing_plan_id":"cebpf4jnsgd1na2vs0mg"},{"bike_id":"6e4f8026-c4e3-4df7-80a4-8e065ad35a0c","system_id":"levelo_inurba_marseille","lat":43.30596,"lon":5.39361,"is_reserved":false,"is_disabled":false,"rental_uris":{"android":"levelo://app?vid=6e4f8026-c4e3-4df7-80a4-8e065ad35a0c","ios":"levelo://app?vid=6e4f8026-c4e3-4df7-80a4-8e065ad35a0c"},"vehicle_type_id":"4","last_reported":1749823812,"current_range_meters":0,"station_id":"ce4bh0p2rcd13ifvqd80","pricing_plan_id":"cebpf4jnsgd1na2vs0mg"},{"bike_id":"70db2aad-e959-4c56-87dd-2a863ba53139","system_id":"levelo_inurba_marseille","lat":43.29044,"lon":5.40001,"is_reserved":false,"is_disabled":true,"rental_uris":{"android":"levelo://app?vid=70db2aad-e959-4c56-87dd-2a863ba53139","ios":"levelo://app?vid=70db2aad-e959-4c56-87dd-2a863ba53139"},"vehicle_type_id":"4","last_reported":1749823812,"current_range_meters":0,"station_id":"ce4bh392rcd13ifvqdm0","pricing_plan_id":"cebpf4jnsgd1na2vs0mg"},{"bike_id":"f4046565-35e9-468a-8234-9fe038100138","system_id":"levelo_inurba_marseille","lat":43.28482,"lon":5.38425,"is_reserved":false,"is_disabled":true,"rental_uris":{"android":"levelo://app?vid=f4046565-35e9-468a-8234-9fe038100138","ios":"levelo://app?vid=f4046565-35e9-468a-8234-9fe038100138"},"vehicle_type_id":"4","last_reported":1749823812,"current_range_meters":0,"station_id":"ce4bh512rcd13ifvqe3g","pricing_plan_id":"cebpf4jnsgd1na2vs0mg"},{"bike_id":"1b78f4d3-7b39-4db6-be5b-edf227871e79","system_id":"levelo_inurba_marseille","lat":43.28036,"lon":5.36954,"is_reserved":false,"is_disabled":true,"rental_uris":{"android":"levelo://app?vid=1b78f4d3-7b39-4db6-be5b-edf227871e79","ios":"levelo://app?vid=1b78f4d3-7b39-4db6-be5b-edf227871e79"},"vehicle_type_id":"4","last_reported":1749823812,"current_range_meters":0,"station_id":"ce4bha12rcd13ifvqef0","pricing_plan_id":"cebpf4jnsgd1na2vs0mg"},{"bike_id":"29b1cbac-5ffb-4ec6-92fc-c8c23576efd6","system_id":"levelo_inurba_marseille","lat":43.2738,"lon":5.36257,"is_reserved":false,"is_disabled":true,"rental_uris":{"android":"levelo://app?vid=29b1cbac-5ffb-4ec6-92fc-c8c23576efd6","ios":"levelo://app?vid=29b1cbac-5ffb-4ec6-92fc-c8c23576efd6"},"vehicle_type_id":"4","last_reported":1749823812,"current_range_meters":0,"station_id":"ce4bhbh2rcd13ifvqeo0","pricing_plan_id":"cebpf4jnsgd1na2vs0mg"},{"bike_id":"9a4e9b3e-1b38-4943-ba7d-f49f02d0aa68","system_id":"levelo_inurba_marseille","lat":43.292293,"lon":5.360651,"is_reserved":false,"is_disabled":true,"rental_uris":{"android":"levelo://app?vid=9a4e9b3e-1b38-4943-ba7d-f49f02d0aa68","ios":"levelo://app?vid=9a4e9b3e-1b38-4943-ba7d-f49f02d0aa68"},"vehicle_type_id":"4","last_reported":1749823812,"current_range_meters":0,"station_id":"ce4bhbh2rcd13ifvqeqg","pricing_plan_id":"cebpf4jnsgd1na2vs0mg"},{"bike_id":"446bacf6-c08b-4261-88b0-8afe592834a9","system_id":"levelo_inurba_marseille","lat":43.28271,"lon":5.35076,"is_reserved":false,"is_disabled":true,"rental_uris":{"android":"levelo://app?vid=446bacf6-c08b-4261-88b0-8afe592834a9","ios":"levelo://app?vid=446bacf6-c08b-4261-88b0-8afe592834a9"},"vehicle_type_id":"4","last_reported":1749823812,"current_range_meters":0,"station_id":"ce4bhbp2rcd13ifvqerg","pricing_plan_id":"cebpf4jnsgd1na2vs0mg"},{"bike_id":"fe0c655c-6c03-466e-b711-f2bbf55e5372","system_id":"levelo_inurba_marseille","lat":43.28269,"lon":5.35073,"is_reserved":false,"is_disabled":true,"rental_uris":{"android":"levelo://app?vid=fe0c655c-6c03-466e-b711-f2bbf55e5372","ios":"levelo://app?vid=fe0c655c-6c03-466e-b711-f2bbf55e5372"},"vehicle_type_id":"4","last_reported":1749823812,"current_range_meters":0,"station_id":"ce4bhbp2rcd13ifvqerg","pricing_plan_id":"cebpf4jnsgd1na2vs0mg"},{"bike_id":"dc60fcdb-c865-4aa7-be8b-a321e42b6d9f","system_id":"levelo_inurba_marseille","lat":43.27984,"lon":5.38758,"is_reserved":false,"is_disabled":true,"rental_uris":{"android":"levelo://app?vid=dc60fcdb-c865-4aa7-be8b-a321e42b6d9f","ios":"levelo://app?vid=dc60fcdb-c865-4aa7-be8b-a321e42b6d9f"},"vehicle_type_id":"4","last_reported":1749823812,"current_range_meters":0,"station_id":"ce4bhg12rcd13ifvqf80","pricing_plan_id":"cebpf4jnsgd1na2vs0mg"},{"bike_id":"bdd09909-fb57-49bc-8fc1-010cff6f7130","system_id":"levelo_inurba_marseille","lat":43.25619,"lon":5.38218,"is_reserved":false,"is_disabled":true,"rental_uris":{"android":"levelo://app?vid=bdd09909-fb57-49bc-8fc1-010cff6f7130","ios":"levelo://app?vid=bdd09909-fb57-49bc-8fc1-010cff6f7130"},"vehicle_type_id":"4","last_reported":1749823812,"current_range_meters":0,"station_id":"ce4bhih2rcd13ifvqfs0","pricing_plan_id":"cebpf4jnsgd1na2vs0mg"},{"bike_id":"c7ed29cf-1d0b-4b1f-8db7-a985499fe63e","system_id":"levelo_inurba_marseille","lat":43.32547,"lon":5.41429,"is_reserved":false,"is_disabled":true,"rental_uris":{"android":"levelo://app?vid=c7ed29cf-1d0b-4b1f-8db7-a985499fe63e","ios":"levelo://app?vid=c7ed29cf-1d0b-4b1f-8db7-a985499fe63e"},"vehicle_type_id":"4","last_reported":1749823812,"current_range_meters":0,"station_id":"ce4bhq12rcd13ifvqhhg","pricing_plan_id":"cebpf4jnsgd1na2vs0mg"},{"bike_id":"a5652db6-c4dd-41f1-afe5-06a93e19d8ff","system_id":"levelo_inurba_marseille","lat":43.24625,"lon":5.39356,"is_reserved":false,"is_disabled":true,"rental_uris":{"android":"levelo://app?vid=a5652db6-c4dd-41f1-afe5-06a93e19d8ff","ios":"levelo://app?vid=a5652db6-c4dd-41f1-afe5-06a93e19d8ff"},"vehicle_type_id":"4","last_reported":1749823812,"current_range_meters":400,"station_id":"","pricing_plan_id":"cebpf4jnsgd1na2vs0mg"},{"bike_id":"907137d4-2011-49ee-8c25-19348351f89b","system_id":"levelo_inurba_marseille","lat":43.30894,"lon":5.37195,"is_reserved":false,"is_disabled":true,"rental_uris":{"android":"levelo://app?vid=907137d4-2011-49ee-8c25-19348351f89b","ios":"levelo://app?vid=907137d4-2011-49ee-8c25-19348351f89b"},"vehicle_type_id":"4","last_reported":1749823812,"current_range_meters":400,"station_id":"ce4bguh2rcd13ifvqckg","pricing_plan_id":"cebpf4jnsgd1na2vs0mg"},{"bike_id":"5c219ba0-bd6f-4ec1-8199-9fc28d07f25c","system_id":"levelo_inurba_marseille","lat":43.32326,"lon":5.44678,"is_reserved":false,"is_disabled":true,"rental_uris":{"android":"levelo://app?vid=5c219ba0-bd6f-4ec1-8199-9fc28d07f25c","ios":"levelo://app?vid=5c219ba0-bd6f-4ec1-8199-9fc28d07f25c"},"vehicle_type_id":"4","last_reported":1749823812,"current_range_meters":800,"station_id":"","pricing_plan_id":"cebpf4jnsgd1na2vs0mg"},{"bike_id":"2733abf5-568d-44d2-a71c-51bb60ae11a0","system_id":"levelo_inurba_marseille","lat":43.29309,"lon":5.37171,"is_reserved":false,"is_disabled":true,"rental_uris":{"android":"levelo://app?vid=2733abf5-568d-44d2-a71c-51bb60ae11a0","ios":"levelo://app?vid=2733abf5-568d-44d2-a71c-51bb60ae11a0"},"vehicle_type_id":"4","last_reported":1749823812,"current_range_meters":800,"station_id":"ce4bgh92rcd13ifvqb40","pricing_plan_id":"cebpf4jnsgd1na2vs0mg"},{"bike_id":"df7fc51b-1bb3-485e-a650-764f2e77cb6d","system_id":"levelo_inurba_marseille","lat":43.283621,"lon":5.386416,"is_reserved":false,"is_disabled":true,"rental_uris":{"android":"levelo://app?vid=df7fc51b-1bb3-485e-a650-764f2e77cb6d","ios":"levelo://app?vid=df7fc51b-1bb3-485e-a650-764f2e77cb6d"},"vehicle_type_id":"4","last_reported":1749823812,"current_range_meters":800,"station_id":"ce4bh492rcd13ifvqdvg","pricing_plan_id":"cebpf4jnsgd1na2vs0mg"},{"bike_id":"a7e55f0c-6dfd-4314-8cfd-bc45cc10eee5","system_id":"levelo_inurba_marseille","lat":43.28485,"lon":5.3846,"is_reserved":false,"is_disabled":true,"rental_uris":{"android":"levelo://app?vid=a7e55f0c-6dfd-4314-8cfd-bc45cc10eee5","ios":"levelo://app?vid=a7e55f0c-6dfd-4314-8cfd-bc45cc10eee5"},"vehicle_type_id":"4","last_reported":1749823812,"current_range_meters":800,"station_id":"ce4bh512rcd13ifvqe3g","pricing_plan_id":"cebpf4jnsgd1na2vs0mg"},{"bike_id":"08928679-4896-4b4e-90b7-f27fb7e711bb","system_id":"levelo_inurba_marseille","lat":43.25105,"lon":5.40322,"is_reserved":false,"is_disabled":true,"rental_uris":{"android":"levelo://app?vid=08928679-4896-4b4e-90b7-f27fb7e711bb","ios":"levelo://app?vid=08928679-4896-4b4e-90b7-f27fb7e711bb"},"vehicle_type_id":"4","last_reported":1749823812,"current_range_meters":800,"station_id":"ce4bhlh2rcd13ifvqgig","pricing_plan_id":"cebpf4jnsgd1na2vs0mg"},{"bike_id":"8411d155-d94c-4afa-ab87-9dd801e6712a","system_id":"levelo_inurba_marseille","lat":43.27376,"lon":5.3628,"is_reserved":false,"is_disabled":true,"rental_uris":{"android":"levelo://app?vid=8411d155-d94c-4afa-ab87-9dd801e6712a","ios":"levelo://app?vid=8411d155-d94c-4afa-ab87-9dd801e6712a"},"vehicle_type_id":"4","last_reported":1749823812,"current_range_meters":1200,"station_id":"ce4bhbh2rcd13ifvqeo0","pricing_plan_id":"cebpf4jnsgd1na2vs0mg"},{"bike_id":"1d23078f-1379-469b-9023-3f88eeb94e93","system_id":"levelo_inurba_marseille","lat":43.28264,"lon":5.35082,"is_reserved":false,"is_disabled":true,"rental_uris":{"android":"levelo://app?vid=1d23078f-1379-469b-9023-3f88eeb94e93","ios":"levelo://app?vid=1d23078f-1379-469b-9023-3f88eeb94e93"},"vehicle_type_id":"4","last_reported":1749823812,"current_range_meters":1200,"station_id":"ce4bhbp2rcd13ifvqerg","pricing_plan_id":"cebpf4jnsgd1na2vs0mg"},{"bike_id":"9666c5ac-9351-4cfe-869b-481580cbb9a9","system_id":"levelo_inurba_marseille","lat":43.27285,"lon":5.39077,"is_reserved":false,"is_disabled":true,"rental_uris":{"android":"levelo://app?vid=9666c5ac-9351-4cfe-869b-481580cbb9a9","ios":"levelo://app?vid=9666c5ac-9351-4cfe-869b-481580cbb9a9"},"vehicle_type_id":"4","last_reported":1749823812,"current_range_meters":1200,"station_id":"ce4bhgp2rcd13ifvqfe0","pricing_plan_id":"cebpf4jnsgd1na2vs0mg"},{"bike_id":"3a07095c-5f61-4d42-8193-6ae90e5033cc","system_id":"levelo_inurba_marseille","lat":43.29193,"lon":5.3932,"is_reserved":false,"is_disabled":true,"rental_uris":{"android":"levelo://app?vid=3a07095c-5f61-4d42-8193-6ae90e5033cc","ios":"levelo://app?vid=3a07095c-5f61-4d42-8193-6ae90e5033cc"},"vehicle_type_id":"4","last_reported":1749823812,"current_range_meters":1600,"station_id":"ce4bh192rcd13ifvqdd0","pricing_plan_id":"cebpf4jnsgd1na2vs0mg"},{"bike_id":"f332c075-532f-4ac0-a438-d428cb1d9746","system_id":"levelo_inurba_marseille","lat":43.28484,"lon":5.38425,"is_reserved":false,"is_disabled":true,"rental_uris":{"android":"levelo://app?vid=f332c075-532f-4ac0-a438-d428cb1d9746","ios":"levelo://app?vid=f332c075-532f-4ac0-a438-d428cb1d9746"},"vehicle_type_id":"4","last_reported":1749823812,"current_range_meters":1600,"station_id":"ce4bh512rcd13ifvqe3g","pricing_plan_id":"cebpf4jnsgd1na2vs0mg"},{"bike_id":"a19e9504-53c0-4642-9e2c-9d8ccfa29e28","system_id":"levelo_inurba_marseille","lat":43.28274,"lon":5.35071,"is_reserved":false,"is_disabled":true,"rental_uris":{"android":"levelo://app?vid=a19e9504-53c0-4642-9e2c-9d8ccfa29e28","ios":"levelo://app?vid=a19e9504-53c0-4642-9e2c-9d8ccfa29e28"},"vehicle_type_id":"4","last_reported":1749823812,"current_range_meters":1600,"station_id":"ce4bhbp2rcd13ifvqerg","pricing_plan_id":"cebpf4jnsgd1na2vs0mg"},{"bike_id":"79a6f7ef-d7af-44bf-9d4d-0ac11afd9d0f","system_id":"levelo_inurba_marseille","lat":43.29274,"lon":5.36849,"is_reserved":false,"is_disabled":true,"rental_uris":{"android":"levelo://app?vid=79a6f7ef-d7af-44bf-9d4d-0ac11afd9d0f","ios":"levelo://app?vid=79a6f7ef-d7af-44bf-9d4d-0ac11afd9d0f"},"vehicle_type_id":"4","last_reported":1749823812,"current_range_meters":1600,"station_id":"ce4bhbp2rcd13ifvqesg","pricing_plan_id":"cebpf4jnsgd1na2vs0mg"},{"bike_id":"b1e70b92-2f7f-4be6-9e7e-dadef46e5830","system_id":"levelo_inurba_marseille","lat":43.30603,"lon":5.37222,"is_reserved":false,"is_disabled":true,"rental_uris":{"android":"levelo://app?vid=b1e70b92-2f7f-4be6-9e7e-dadef46e5830","ios":"levelo://app?vid=b1e70b92-2f7f-4be6-9e7e-dadef46e5830"},"vehicle_type_id":"4","last_reported":1749823812,"current_range_meters":2000,"station_id":"ce4bgqh2rcd13ifvqc4g","pricing_plan_id":"cebpf4jnsgd1na2vs0mg"},{"bike_id":"e90c9d0a-5dfe-448e-9a15-161729e8f1a2","system_id":"levelo_inurba_marseille","lat":43.28267,"lon":5.35063,"is_reserved":false,"is_disabled":true,"rental_uris":{"android":"levelo://app?vid=e90c9d0a-5dfe-448e-9a15-161729e8f1a2","ios":"levelo://app?vid=e90c9d0a-5dfe-448e-9a15-161729e8f1a2"},"vehicle_type_id":"4","last_reported":1749823812,"current_range_meters":2000,"station_id":"ce4bhbp2rcd13ifvqerg","pricing_plan_id":"cebpf4jnsgd1na2vs0mg"},{"bike_id":"565d11d9-b5f9-4192-8183-57a4606f242e","system_id":"levelo_inurba_marseille","lat":43.25826,"lon":5.3944,"is_reserved":false,"is_disabled":true,"rental_uris":{"android":"levelo://app?vid=565d11d9-b5f9-4192-8183-57a4606f242e","ios":"levelo://app?vid=565d11d9-b5f9-4192-8183-57a4606f242e"},"vehicle_type_id":"4","last_reported":1749823812,"current_range_meters":2000,"station_id":"ce4bhip2rcd13ifvqft0","pricing_plan_id":"cebpf4jnsgd1na2vs0mg"},{"bike_id":"8e108a83-e2bf-43e0-9b41-3765b051abd1","system_id":"levelo_inurba_marseille","lat":43.28072,"lon":5.34971,"is_reserved":false,"is_disabled":false,"rental_uris":{"android":"levelo://app?vid=8e108a83-e2bf-43e0-9b41-3765b051abd1","ios":"levelo://app?vid=8e108a83-e2bf-43e0-9b41-3765b051abd1"},"vehicle_type_id":"4","last_reported":1749823812,"current_range_meters":2800,"station_id":"","pricing_plan_id":"cebpf4jnsgd1na2vs0mg"},{"bike_id":"c54f1077-dd55-4935-b67e-f26cddaf55a6","system_id":"levelo_inurba_marseille","lat":43.29963,"lon":5.38501,"is_reserved":false,"is_disabled":false,"rental_uris":{"android":"levelo://app?vid=c54f1077-dd55-4935-b67e-f26cddaf55a6","ios":"levelo://app?vid=c54f1077-dd55-4935-b67e-f26cddaf55a6"},"vehicle_type_id":"4","last_reported":1749823812,"current_range_meters":3200,"station_id":"ce4bgj92rcd13ifvqbd0","pricing_plan_id":"cebpf4jnsgd1na2vs0mg"},{"bike_id":"9d555611-e81c-4acf-b613-3c6c65c41fe2","system_id":"levelo_inurba_marseille","lat":43.29555,"lon":5.42286,"is_reserved":false,"is_disabled":false,"rental_uris":{"android":"levelo://app?vid=9d555611-e81c-4acf-b613-3c6c65c41fe2","ios":"levelo://app?vid=9d555611-e81c-4acf-b613-3c6c65c41fe2"},"vehicle_type_id":"4","last_reported":1749823812,"current_range_meters":3200,"station_id":"ce4bhph2rcd13ifvqhdg","pricing_plan_id":"cebpf4jnsgd1na2vs0mg"},{"bike_id":"3cc26cd8-699d-45ec-a738-322348d31ee3","system_id":"levelo_inurba_marseille","lat":43.32484,"lon":5.36583,"is_reserved":false,"is_disabled":false,"rental_uris":{"android":"levelo://app?vid=3cc26cd8-699d-45ec-a738-322348d31ee3","ios":"levelo://app?vid=3cc26cd8-699d-45ec-a738-322348d31ee3"},"vehicle_type_id":"4","last_reported":1749823812,"current_range_meters":3200,"station_id":"ce4bhs12rcd13ifvqhvg","pricing_plan_id":"cebpf4jnsgd1na2vs0mg"},{"bike_id":"61407dc7-f4ce-4e44-9110-8eb47115e4b2","system_id":"levelo_inurba_marseille","lat":43.3154,"lon":5.38037,"is_reserved":false,"is_disabled":false,"rental_uris":{"android":"levelo://app?vid=61407dc7-f4ce-4e44-9110-8eb47115e4b2","ios":"levelo://app?vid=61407dc7-f4ce-4e44-9110-8eb47115e4b2"},"vehicle_type_id":"4","last_reported":1749823812,"current_range_meters":3200,"station_id":"ce4bhsp2rcd13ifvqi50","pricing_plan_id":"cebpf4jnsgd1na2vs0mg"},{"bike_id":"dfbb8baa-43e8-46ff-932b-9f6e9821dce3","system_id":"levelo_inurba_marseille","lat":43.28436,"lon":5.35031,"is_reserved":false,"is_disabled":false,"rental_uris":{"android":"levelo://app?vid=dfbb8baa-43e8-46ff-932b-9f6e9821dce3","ios":"levelo://app?vid=dfbb8baa-43e8-46ff-932b-9f6e9821dce3"},"vehicle_type_id":"4","last_reported":1749823812,"current_range_meters":3600,"station_id":"","pricing_plan_id":"cebpf4jnsgd1na2vs0mg"},{"bike_id":"db996ecc-ea2e-42b6-b1e6-33b36e731867","system_id":"levelo_inurba_marseille","lat":43.261932,"lon":5.374494,"is_reserved":false,"is_disabled":false,"rental_uris":{"android":"levelo://app?vid=db996ecc-ea2e-42b6-b1e6-33b36e731867","ios":"levelo://app?vid=db996ecc-ea2e-42b6-b1e6-33b36e731867"},"vehicle_type_id":"4","last_reported":1749823812,"current_range_meters":3600,"station_id":"","pricing_plan_id":"cebpf4jnsgd1na2vs0mg"},{"bike_id":"a7b026ab-7e1a-436f-a6ba-fdca1bd5cb67","system_id":"levelo_inurba_marseille","lat":43.2797,"lon":5.38744,"is_reserved":false,"is_disabled":false,"rental_uris":{"android":"levelo://app?vid=a7b026ab-7e1a-436f-a6ba-fdca1bd5cb67","ios":"levelo://app?vid=a7b026ab-7e1a-436f-a6ba-fdca1bd5cb67"},"vehicle_type_id":"4","last_reported":1749823812,"current_range_meters":4000,"station_id":"ce4bhg12rcd13ifvqf80","pricing_plan_id":"cebpf4jnsgd1na2vs0mg"},{"bike_id":"36bb6181-813c-45d6-b75b-69b665d97c99","system_id":"levelo_inurba_marseille","lat":43.28669,"lon":5.35129,"is_reserved":false,"is_disabled":false,"rental_uris":{"android":"levelo://app?vid=36bb6181-813c-45d6-b75b-69b665d97c99","ios":"levelo://app?vid=36bb6181-813c-45d6-b75b-69b665d97c99"},"vehicle_type_id":"4","last_reported":1749823812,"current_range_meters":4400,"station_id":"","pricing_plan_id":"cebpf4jnsgd1na2vs0mg"},{"bike_id":"c8e3485f-7da0-48fe-b694-93b79fb0ff16","system_id":"levelo_inurba_marseille","lat":43.3015,"lon":5.38097,"is_reserved":false,"is_disabled":false,"rental_uris":{"android":"levelo://app?vid=c8e3485f-7da0-48fe-b694-93b79fb0ff16","ios":"levelo://app?vid=c8e3485f-7da0-48fe-b694-93b79fb0ff16"},"vehicle_type_id":"4","last_reported":1749823812,"current_range_meters":4400,"station_id":"ce4bgjp2rcd13ifvqbh0","pricing_plan_id":"cebpf4jnsgd1na2vs0mg"},{"bike_id":"f9f67fcf-ddb3-4603-b719-6303b1601b91","system_id":"levelo_inurba_marseille","lat":43.29264,"lon":5.38435,"is_reserved":false,"is_disabled":false,"rental_uris":{"android":"levelo://app?vid=f9f67fcf-ddb3-4603-b719-6303b1601b91","ios":"levelo://app?vid=f9f67fcf-ddb3-4603-b719-6303b1601b91"},"vehicle_type_id":"4","last_reported":1749823812,"current_range_meters":4400,"station_id":"ce4bh692rcd13ifvqea0","pricing_plan_id":"cebpf4jnsgd1na2vs0mg"},{"bike_id":"afafb91c-8ceb-4f74-b355-8f5397a1b14c","system_id":"levelo_inurba_marseille","lat":43.26209,"lon":5.37444,"is_reserved":false,"is_disabled":false,"rental_uris":{"android":"levelo://app?vid=afafb91c-8ceb-4f74-b355-8f5397a1b14c","ios":"levelo://app?vid=afafb91c-8ceb-4f74-b355-8f5397a1b14c"},"vehicle_type_id":"4","last_reported":1749823812,"current_range_meters":4400,"station_id":"ce4bhgp2rcd13ifvqfc0","pricing_plan_id":"cebpf4jnsgd1na2vs0mg"},{"bike_id":"a5fe37f5-2ebd-4c1d-867d-4111d9f43de4","system_id":"levelo_inurba_marseille","lat":43.29314,"lon":5.37175,"is_reserved":false,"is_disabled":false,"rental_uris":{"android":"levelo://app?vid=a5fe37f5-2ebd-4c1d-867d-4111d9f43de4","ios":"levelo://app?vid=a5fe37f5-2ebd-4c1d-867d-4111d9f43de4"},"vehicle_type_id":"4","last_reported":1749823812,"current_range_meters":4800,"station_id":"ce4bgh92rcd13ifvqb40","pricing_plan_id":"cebpf4jnsgd1na2vs0mg"},{"bike_id":"c03ae31a-686c-4c42-85bd-d5cf2dbb2a5c","system_id":"levelo_inurba_marseille","lat":43.25002,"lon":5.38927,"is_reserved":false,"is_disabled":false,"rental_uris":{"android":"levelo://app?vid=c03ae31a-686c-4c42-85bd-d5cf2dbb2a5c","ios":"levelo://app?vid=c03ae31a-686c-4c42-85bd-d5cf2dbb2a5c"},"vehicle_type_id":"4","last_reported":1749823812,"current_range_meters":4800,"station_id":"ce4bhgp2rcd13ifvqfd0","pricing_plan_id":"cebpf4jnsgd1na2vs0mg"},{"bike_id":"6172c79c-4b42-4544-bd72-aabb33ab80c9","system_id":"levelo_inurba_marseille","lat":43.250395,"lon":5.396904,"is_reserved":false,"is_disabled":false,"rental_uris":{"android":"levelo://app?vid=6172c79c-4b42-4544-bd72-aabb33ab80c9","ios":"levelo://app?vid=6172c79c-4b42-4544-bd72-aabb33ab80c9"},"vehicle_type_id":"4","last_reported":1749823812,"current_range_meters":4800,"station_id":"ce4bhlp2rcd13ifvqgjg","pricing_plan_id":"cebpf4jnsgd1na2vs0mg"},{"bike_id":"2c4fd225-3b2f-42b1-b6dd-bbbec4e87a05","system_id":"levelo_inurba_marseille","lat":43.27622,"lon":5.36109,"is_reserved":false,"is_disabled":false,"rental_uris":{"android":"levelo://app?vid=2c4fd225-3b2f-42b1-b6dd-bbbec4e87a05","ios":"levelo://app?vid=2c4fd225-3b2f-42b1-b6dd-bbbec4e87a05"},"vehicle_type_id":"4","last_reported":1749823812,"current_range_meters":5600,"station_id":"ce4bgj92rcd13ifvqbe0","pricing_plan_id":"cebpf4jnsgd1na2vs0mg"},{"bike_id":"7d50222c-10df-4ace-bc6b-550f015f5aec","system_id":"levelo_inurba_marseille","lat":43.30893,"lon":5.3688,"is_reserved":false,"is_disabled":false,"rental_uris":{"android":"levelo://app?vid=7d50222c-10df-4ace-bc6b-550f015f5aec","ios":"levelo://app?vid=7d50222c-10df-4ace-bc6b-550f015f5aec"},"vehicle_type_id":"4","last_reported":1749823812,"current_range_meters":5600,"station_id":"ce4bgn92rcd13ifvqbvg","pricing_plan_id":"cebpf4jnsgd1na2vs0mg"},{"bike_id":"1d33fb63-f9c3-4a4d-afe9-73c66127c7ed","system_id":"levelo_inurba_marseille","lat":43.305939,"lon":5.393675,"is_reserved":false,"is_disabled":false,"rental_uris":{"android":"levelo://app?vid=1d33fb63-f9c3-4a4d-afe9-73c66127c7ed","ios":"levelo://app?vid=1d33fb63-f9c3-4a4d-afe9-73c66127c7ed"},"vehicle_type_id":"4","last_reported":1749823812,"current_range_meters":5600,"station_id":"ce4bh0p2rcd13ifvqd80","pricing_plan_id":"cebpf4jnsgd1na2vs0mg"},{"bike_id":"6a581e90-3c90-4891-9bfc-472357abbbc9","system_id":"levelo_inurba_marseille","lat":43.27315,"lon":5.39118,"is_reserved":false,"is_disabled":false,"rental_uris":{"android":"levelo://app?vid=6a581e90-3c90-4891-9bfc-472357abbbc9","ios":"levelo://app?vid=6a581e90-3c90-4891-9bfc-472357abbbc9"},"vehicle_type_id":"4","last_reported":1749823812,"current_range_meters":5600,"station_id":"ce4bhgp2rcd13ifvqfe0","pricing_plan_id":"cebpf4jnsgd1na2vs0mg"},{"bike_id":"bcac684a-2822-44c8-99ff-9ca8038f3016","system_id":"levelo_inurba_marseille","lat":43.29582,"lon":5.36747,"is_reserved":false,"is_disabled":false,"rental_uris":{"android":"levelo://app?vid=bcac684a-2822-44c8-99ff-9ca8038f3016","ios":"levelo://app?vid=bcac684a-2822-44c8-99ff-9ca8038f3016"},"vehicle_type_id":"4","last_reported":1749823812,"current_range_meters":6000,"station_id":"ce4bgph2rcd13ifvqc2g","pricing_plan_id":"cebpf4jnsgd1na2vs0mg"},{"bike_id":"346fa98d-bd89-4bc7-a829-6fbcf4ccf15d","system_id":"levelo_inurba_marseille","lat":43.288584,"lon":5.358514,"is_reserved":false,"is_disabled":false,"rental_uris":{"android":"levelo://app?vid=346fa98d-bd89-4bc7-a829-6fbcf4ccf15d","ios":"levelo://app?vid=346fa98d-bd89-4bc7-a829-6fbcf4ccf15d"},"vehicle_type_id":"4","last_reported":1749823812,"current_range_meters":6000,"station_id":"ce4bhb12rcd13ifvqem0","pricing_plan_id":"cebpf4jnsgd1na2vs0mg"},{"bike_id":"dededd67-cdbb-4d0d-9dca-faa6db8b2092","system_id":"levelo_inurba_marseille","lat":43.28416,"lon":5.34986,"is_reserved":false,"is_disabled":false,"rental_uris":{"android":"levelo://app?vid=dededd67-cdbb-4d0d-9dca-faa6db8b2092","ios":"levelo://app?vid=dededd67-cdbb-4d0d-9dca-faa6db8b2092"},"vehicle_type_id":"4","last_reported":1749823812,"current_range_meters":6400,"station_id":"ce4bhbh2rcd13ifvqepg","pricing_plan_id":"cebpf4jnsgd1na2vs0mg"},{"bike_id":"a426bcb6-9733-433a-b425-ccc13f254a65","system_id":"levelo_inurba_marseille","lat":43.29576,"lon":5.44256,"is_reserved":false,"is_disabled":false,"rental_uris":{"android":"levelo://app?vid=a426bcb6-9733-433a-b425-ccc13f254a65","ios":"levelo://app?vid=a426bcb6-9733-433a-b425-ccc13f254a65"},"vehicle_type_id":"4","last_reported":1749823812,"current_range_meters":6800,"station_id":"","pricing_plan_id":"cebpf4jnsgd1na2vs0mg"},{"bike_id":"501fe5cc-ec9f-4031-8e12-9c9a87dfd25d","system_id":"levelo_inurba_marseille","lat":43.31796,"lon":5.40621,"is_reserved":false,"is_disabled":false,"rental_uris":{"android":"levelo://app?vid=501fe5cc-ec9f-4031-8e12-9c9a87dfd25d","ios":"levelo://app?vid=501fe5cc-ec9f-4031-8e12-9c9a87dfd25d"},"vehicle_type_id":"4","last_reported":1749823812,"current_range_meters":7200,"station_id":"","pricing_plan_id":"cebpf4jnsgd1na2vs0mg"},{"bike_id":"a25b84b4-c252-4eda-97fb-1a1f22303c5d","system_id":"levelo_inurba_marseille","lat":43.31375,"lon":5.3745,"is_reserved":false,"is_disabled":false,"rental_uris":{"android":"levelo://app?vid=a25b84b4-c252-4eda-97fb-1a1f22303c5d","ios":"levelo://app?vid=a25b84b4-c252-4eda-97fb-1a1f22303c5d"},"vehicle_type_id":"4","last_reported":1749823812,"current_range_meters":7200,"station_id":"","pricing_plan_id":"cebpf4jnsgd1na2vs0mg"},{"bike_id":"e8812f57-5705-4a76-8565-3d1199582799","system_id":"levelo_inurba_marseille","lat":43.30787,"lon":5.3765,"is_reserved":false,"is_disabled":false,"rental_uris":{"android":"levelo://app?vid=e8812f57-5705-4a76-8565-3d1199582799","ios":"levelo://app?vid=e8812f57-5705-4a76-8565-3d1199582799"},"vehicle_type_id":"4","last_reported":1749823812,"current_range_meters":7200,"station_id":"ce4bgv92rcd13ifvqcq0","pricing_plan_id":"cebpf4jnsgd1na2vs0mg"},{"bike_id":"3483d63c-4932-4bd2-b21a-4671bab6ca1b","system_id":"levelo_inurba_marseille","lat":43.30329,"lon":5.40436,"is_reserved":false,"is_disabled":false,"rental_uris":{"android":"levelo://app?vid=3483d63c-4932-4bd2-b21a-4671bab6ca1b","ios":"levelo://app?vid=3483d63c-4932-4bd2-b21a-4671bab6ca1b"},"vehicle_type_id":"4","last_reported":1749823812,"current_range_meters":8000,"station_id":"ce4bh012rcd13ifvqd10","pricing_plan_id":"cebpf4jnsgd1na2vs0mg"},{"bike_id":"97421c04-2630-4fc1-9da9-b17d88602c5f","system_id":"levelo_inurba_marseille","lat":43.337682,"lon":5.374519,"is_reserved":false,"is_disabled":false,"rental_uris":{"android":"levelo://app?vid=97421c04-2630-4fc1-9da9-b17d88602c5f","ios":"levelo://app?vid=97421c04-2630-4fc1-9da9-b17d88602c5f"},"vehicle_type_id":"4","last_reported":1749823812,"current_range_meters":8400,"station_id":"","pricing_plan_id":"cebpf4jnsgd1na2vs0mg"},{"bike_id":"8d60347d-541c-40fb-90ca-203bf6bd520a","system_id":"levelo_inurba_marseille","lat":43.271214,"lon":5.363942,"is_reserved":false,"is_disabled":false,"rental_uris":{"android":"levelo://app?vid=8d60347d-541c-40fb-90ca-203bf6bd520a","ios":"levelo://app?vid=8d60347d-541c-40fb-90ca-203bf6bd520a"},"vehicle_type_id":"4","last_reported":1749823812,"current_range_meters":8400,"station_id":"","pricing_plan_id":"cebpf4jnsgd1na2vs0mg"},{"bike_id":"1105a54b-bd42-4127-9a9f-9301ec3f55d4","system_id":"levelo_inurba_marseille","lat":43.25578,"lon":5.38242,"is_reserved":false,"is_disabled":false,"rental_uris":{"android":"levelo://app?vid=1105a54b-bd42-4127-9a9f-9301ec3f55d4","ios":"levelo://app?vid=1105a54b-bd42-4127-9a9f-9301ec3f55d4"},"vehicle_type_id":"4","last_reported":1749823812,"current_range_meters":8400,"station_id":"ce4bhih2rcd13ifvqfs0","pricing_plan_id":"cebpf4jnsgd1na2vs0mg"},{"bike_id":"1268e070-f02d-4537-93df-0bfd5c4daa05","system_id":"levelo_inurba_marseille","lat":43.32713,"lon":5.37668,"is_reserved":false,"is_disabled":false,"rental_uris":{"android":"levelo://app?vid=1268e070-f02d-4537-93df-0bfd5c4daa05","ios":"levelo://app?vid=1268e070-f02d-4537-93df-0bfd5c4daa05"},"vehicle_type_id":"4","last_reported":1749823812,"current_range_meters":8800,"station_id":"","pricing_plan_id":"cebpf4jnsgd1na2vs0mg"},{"bike_id":"60344006-fc62-4dd5-aad6-59ca602a1ff9","system_id":"levelo_inurba_marseille","lat":43.29168,"lon":5.37154,"is_reserved":false,"is_disabled":false,"rental_uris":{"android":"levelo://app?vid=60344006-fc62-4dd5-aad6-59ca602a1ff9","ios":"levelo://app?vid=60344006-fc62-4dd5-aad6-59ca602a1ff9"},"vehicle_type_id":"4","last_reported":1749823812,"current_range_meters":8800,"station_id":"ce4bha92rcd13ifvqeh0","pricing_plan_id":"cebpf4jnsgd1na2vs0mg"},{"bike_id":"9b48c177-b4ea-48aa-a8cc-3f63e3324bc9","system_id":"levelo_inurba_marseille","lat":43.28853,"lon":5.35894,"is_reserved":false,"is_disabled":false,"rental_uris":{"android":"levelo://app?vid=9b48c177-b4ea-48aa-a8cc-3f63e3324bc9","ios":"levelo://app?vid=9b48c177-b4ea-48aa-a8cc-3f63e3324bc9"},"vehicle_type_id":"4","last_reported":1749823812,"current_range_meters":8800,"station_id":"ce4bhb12rcd13ifvqem0","pricing_plan_id":"cebpf4jnsgd1na2vs0mg"},{"bike_id":"47edbaeb-9df8-4054-8ec4-4fc54eaf9a29","system_id":"levelo_inurba_marseille","lat":43.28283,"lon":5.35078,"is_reserved":false,"is_disabled":false,"rental_uris":{"android":"levelo://app?vid=47edbaeb-9df8-4054-8ec4-4fc54eaf9a29","ios":"levelo://app?vid=47edbaeb-9df8-4054-8ec4-4fc54eaf9a29"},"vehicle_type_id":"4","last_reported":1749823812,"current_range_meters":8800,"station_id":"ce4bhbp2rcd13ifvqerg","pricing_plan_id":"cebpf4jnsgd1na2vs0mg"},{"bike_id":"6ee33a5b-7a23-42ec-9bdf-00a2e2034ace","system_id":"levelo_inurba_marseille","lat":43.254931,"lon":5.376463,"is_reserved":false,"is_disabled":false,"rental_uris":{"android":"levelo://app?vid=6ee33a5b-7a23-42ec-9bdf-00a2e2034ace","ios":"levelo://app?vid=6ee33a5b-7a23-42ec-9bdf-00a2e2034ace"},"vehicle_type_id":"4","last_reported":1749823812,"current_range_meters":8800,"station_id":"ce4bhh12rcd13ifvqff0","pricing_plan_id":"cebpf4jnsgd1na2vs0mg"},{"bike_id":"be1e76ca-0947-47c4-8dca-c1325f26be21","system_id":"levelo_inurba_marseille","lat":43.27173,"lon":5.40995,"is_reserved":false,"is_disabled":false,"rental_uris":{"android":"levelo://app?vid=be1e76ca-0947-47c4-8dca-c1325f26be21","ios":"levelo://app?vid=be1e76ca-0947-47c4-8dca-c1325f26be21"},"vehicle_type_id":"4","last_reported":1749823812,"current_range_meters":9200,"station_id":"ce4bhl12rcd13ifvqgf0","pricing_plan_id":"cebpf4jnsgd1na2vs0mg"},{"bike_id":"6cc7c9f3-4ac0-45c6-83d9-b089c24e7669","system_id":"levelo_inurba_marseille","lat":43.2316,"lon":5.43715,"is_reserved":false,"is_disabled":false,"rental_uris":{"android":"levelo://app?vid=6cc7c9f3-4ac0-45c6-83d9-b089c24e7669","ios":"levelo://app?vid=6cc7c9f3-4ac0-45c6-83d9-b089c24e7669"},"vehicle_type_id":"4","last_reported":1749823812,"current_range_meters":9200,"station_id":"ce4bhmp2rcd13ifvqgog","pricing_plan_id":"cebpf4jnsgd1na2vs0mg"},{"bike_id":"e5ef7447-82af-477b-846f-d44631249354","system_id":"levelo_inurba_marseille","lat":43.32489,"lon":5.38812,"is_reserved":false,"is_disabled":false,"rental_uris":{"android":"levelo://app?vid=e5ef7447-82af-477b-846f-d44631249354","ios":"levelo://app?vid=e5ef7447-82af-477b-846f-d44631249354"},"vehicle_type_id":"4","last_reported":1749823812,"current_range_meters":9600,"station_id":"","pricing_plan_id":"cebpf4jnsgd1na2vs0mg"},{"bike_id":"cc9dae19-5458-4b2e-b930-a9660741a2d1","system_id":"levelo_inurba_marseille","lat":43.29183,"lon":5.35808,"is_reserved":false,"is_disabled":false,"rental_uris":{"android":"levelo://app?vid=cc9dae19-5458-4b2e-b930-a9660741a2d1","ios":"levelo://app?vid=cc9dae19-5458-4b2e-b930-a9660741a2d1"},"vehicle_type_id":"4","last_reported":1749823812,"current_range_meters":9600,"station_id":"ce4bhb12rcd13ifvqel0","pricing_plan_id":"cebpf4jnsgd1na2vs0mg"},{"bike_id":"609568e4-7171-4195-a642-493ec43be725","system_id":"levelo_inurba_marseille","lat":43.28855,"lon":5.35865,"is_reserved":false,"is_disabled":false,"rental_uris":{"android":"levelo://app?vid=609568e4-7171-4195-a642-493ec43be725","ios":"levelo://app?vid=609568e4-7171-4195-a642-493ec43be725"},"vehicle_type_id":"4","last_reported":1749823812,"current_range_meters":9600,"station_id":"ce4bhb12rcd13ifvqem0","pricing_plan_id":"cebpf4jnsgd1na2vs0mg"},{"bike_id":"c34bbb0b-dbee-4ba1-afcd-fd1087748bfe","system_id":"levelo_inurba_marseille","lat":43.2549,"lon":5.37697,"is_reserved":false,"is_disabled":false,"rental_uris":{"android":"levelo://app?vid=c34bbb0b-dbee-4ba1-afcd-fd1087748bfe","ios":"levelo://app?vid=c34bbb0b-dbee-4ba1-afcd-fd1087748bfe"},"vehicle_type_id":"4","last_reported":1749823812,"current_range_meters":9600,"station_id":"ce4bhh12rcd13ifvqff0","pricing_plan_id":"cebpf4jnsgd1na2vs0mg"},{"bike_id":"bf72e101-c793-45cb-9843-4d3f5764ab46","system_id":"levelo_inurba_marseille","lat":43.252136,"lon":5.394601,"is_reserved":false,"is_disabled":false,"rental_uris":{"android":"levelo://app?vid=bf72e101-c793-45cb-9843-4d3f5764ab46","ios":"levelo://app?vid=bf72e101-c793-45cb-9843-4d3f5764ab46"},"vehicle_type_id":"4","last_reported":1749823812,"current_range_meters":9600,"station_id":"ce4bhm12rcd13ifvqgkg","pricing_plan_id":"cebpf4jnsgd1na2vs0mg"},{"bike_id":"3a11c5a8-e636-4a8e-97c5-5f95a0b7cfbb","system_id":"levelo_inurba_marseille","lat":43.33752,"lon":5.3921,"is_reserved":false,"is_disabled":false,"rental_uris":{"android":"levelo://app?vid=3a11c5a8-e636-4a8e-97c5-5f95a0b7cfbb","ios":"levelo://app?vid=3a11c5a8-e636-4a8e-97c5-5f95a0b7cfbb"},"vehicle_type_id":"4","last_reported":1749823812,"current_range_meters":9600,"station_id":"ce4bhr92rcd13ifvqhsg","pricing_plan_id":"cebpf4jnsgd1na2vs0mg"},{"bike_id":"063eff84-b62e-4128-85ed-5896eed2f5f4","system_id":"levelo_inurba_marseille","lat":43.31336,"lon":5.37527,"is_reserved":false,"is_disabled":false,"rental_uris":{"android":"levelo://app?vid=063eff84-b62e-4128-85ed-5896eed2f5f4","ios":"levelo://app?vid=063eff84-b62e-4128-85ed-5896eed2f5f4"},"vehicle_type_id":"4","last_reported":1749823812,"current_range_meters":10000,"station_id":"","pricing_plan_id":"cebpf4jnsgd1na2vs0mg"},{"bike_id":"efef7ea9-dfe7-4a71-9a42-eb2cee9bc37e","system_id":"levelo_inurba_marseille","lat":43.31184,"lon":5.37211,"is_reserved":false,"is_disabled":false,"rental_uris":{"android":"levelo://app?vid=efef7ea9-dfe7-4a71-9a42-eb2cee9bc37e","ios":"levelo://app?vid=efef7ea9-dfe7-4a71-9a42-eb2cee9bc37e"},"vehicle_type_id":"4","last_reported":1749823812,"current_range_meters":10000,"station_id":"","pricing_plan_id":"cebpf4jnsgd1na2vs0mg"},{"bike_id":"d7a55b9b-8d75-4125-ac4d-c40777030d57","system_id":"levelo_inurba_marseille","lat":43.30122,"lon":5.39867,"is_reserved":false,"is_disabled":false,"rental_uris":{"android":"levelo://app?vid=d7a55b9b-8d75-4125-ac4d-c40777030d57","ios":"levelo://app?vid=d7a55b9b-8d75-4125-ac4d-c40777030d57"},"vehicle_type_id":"4","last_reported":1749823812,"current_range_meters":10000,"station_id":"ce4bh0h2rcd13ifvqd40","pricing_plan_id":"cebpf4jnsgd1na2vs0mg"},{"bike_id":"afb891a5-d775-4ff3-9c64-6423fc10a634","system_id":"levelo_inurba_marseille","lat":43.26493,"lon":5.39548,"is_reserved":false,"is_disabled":false,"rental_uris":{"android":"levelo://app?vid=afb891a5-d775-4ff3-9c64-6423fc10a634","ios":"levelo://app?vid=afb891a5-d775-4ff3-9c64-6423fc10a634"},"vehicle_type_id":"4","last_reported":1749823812,"current_range_meters":10000,"station_id":"ce4bhi12rcd13ifvqfq0","pricing_plan_id":"cebpf4jnsgd1na2vs0mg"},{"bike_id":"5cc1dae7-e72f-4ecc-a2aa-88d86d3c028a","system_id":"levelo_inurba_marseille","lat":43.32481,"lon":5.36573,"is_reserved":false,"is_disabled":false,"rental_uris":{"android":"levelo://app?vid=5cc1dae7-e72f-4ecc-a2aa-88d86d3c028a","ios":"levelo://app?vid=5cc1dae7-e72f-4ecc-a2aa-88d86d3c028a"},"vehicle_type_id":"4","last_reported":1749823812,"current_range_meters":10000,"station_id":"ce4bhs12rcd13ifvqhvg","pricing_plan_id":"cebpf4jnsgd1na2vs0mg"},{"bike_id":"4cdfda10-725c-4f08-a8c4-10884b2b4525","system_id":"levelo_inurba_marseille","lat":43.26806,"lon":5.40274,"is_reserved":false,"is_disabled":false,"rental_uris":{"android":"levelo://app?vid=4cdfda10-725c-4f08-a8c4-10884b2b4525","ios":"levelo://app?vid=4cdfda10-725c-4f08-a8c4-10884b2b4525"},"vehicle_type_id":"4","last_reported":1749823812,"current_range_meters":10000,"station_id":"ce501612rcd8frsf0b60","pricing_plan_id":"cebpf4jnsgd1na2vs0mg"},{"bike_id":"b2ba9c76-d1a9-410b-a821-2d02a0c29a86","system_id":"levelo_inurba_marseille","lat":43.29256,"lon":5.40909,"is_reserved":false,"is_disabled":false,"rental_uris":{"android":"levelo://app?vid=b2ba9c76-d1a9-410b-a821-2d02a0c29a86","ios":"levelo://app?vid=b2ba9c76-d1a9-410b-a821-2d02a0c29a86"},"vehicle_type_id":"4","last_reported":1749823812,"current_range_meters":10800,"station_id":"ce4bh192rcd13ifvqdc0","pricing_plan_id":"cebpf4jnsgd1na2vs0mg"},{"bike_id":"22d8130f-b09f-4f7a-a51d-627fa2978db2","system_id":"levelo_inurba_marseille","lat":43.29276,"lon":5.38462,"is_reserved":false,"is_disabled":false,"rental_uris":{"android":"levelo://app?vid=22d8130f-b09f-4f7a-a51d-627fa2978db2","ios":"levelo://app?vid=22d8130f-b09f-4f7a-a51d-627fa2978db2"},"vehicle_type_id":"4","last_reported":1749823812,"current_range_meters":10800,"station_id":"ce4bh692rcd13ifvqea0","pricing_plan_id":"cebpf4jnsgd1na2vs0mg"},{"bike_id":"7f67be02-5737-4201-b268-9d588c3f4e05","system_id":"levelo_inurba_marseille","lat":43.26555,"lon":5.37287,"is_reserved":false,"is_disabled":false,"rental_uris":{"android":"levelo://app?vid=7f67be02-5737-4201-b268-9d588c3f4e05","ios":"levelo://app?vid=7f67be02-5737-4201-b268-9d588c3f4e05"},"vehicle_type_id":"4","last_reported":1749823812,"current_range_meters":10800,"station_id":"ce4bhg12rcd13ifvqf70","pricing_plan_id":"cebpf4jnsgd1na2vs0mg"},{"bike_id":"1a5bde47-bf3b-4cd4-b091-da658f66aa67","system_id":"levelo_inurba_marseille","lat":43.32545,"lon":5.41445,"is_reserved":false,"is_disabled":false,"rental_uris":{"android":"levelo://app?vid=1a5bde47-bf3b-4cd4-b091-da658f66aa67","ios":"levelo://app?vid=1a5bde47-bf3b-4cd4-b091-da658f66aa67"},"vehicle_type_id":"4","last_reported":1749823812,"current_range_meters":10800,"station_id":"ce4bhq12rcd13ifvqhhg","pricing_plan_id":"cebpf4jnsgd1na2vs0mg"},{"bike_id":"78e4331f-c67f-4812-a1cf-4af0acc5e2d6","system_id":"levelo_inurba_marseille","lat":43.32357,"lon":5.36744,"is_reserved":false,"is_disabled":false,"rental_uris":{"android":"levelo://app?vid=78e4331f-c67f-4812-a1cf-4af0acc5e2d6","ios":"levelo://app?vid=78e4331f-c67f-4812-a1cf-4af0acc5e2d6"},"vehicle_type_id":"4","last_reported":1749823812,"current_range_meters":10800,"station_id":"ce4bhsh2rcd13ifvqi2g","pricing_plan_id":"cebpf4jnsgd1na2vs0mg"},{"bike_id":"41902e46-3363-402b-89a9-77321257c96b","system_id":"levelo_inurba_marseille","lat":43.32362,"lon":5.3663,"is_reserved":false,"is_disabled":false,"rental_uris":{"android":"levelo://app?vid=41902e46-3363-402b-89a9-77321257c96b","ios":"levelo://app?vid=41902e46-3363-402b-89a9-77321257c96b"},"vehicle_type_id":"4","last_reported":1749823812,"current_range_meters":11200,"station_id":"","pricing_plan_id":"cebpf4jnsgd1na2vs0mg"},{"bike_id":"560f0e6e-b667-42d0-bd9a-aea6c7a0faca","system_id":"levelo_inurba_marseille","lat":43.29532,"lon":5.39043,"is_reserved":false,"is_disabled":false,"rental_uris":{"android":"levelo://app?vid=560f0e6e-b667-42d0-bd9a-aea6c7a0faca","ios":"levelo://app?vid=560f0e6e-b667-42d0-bd9a-aea6c7a0faca"},"vehicle_type_id":"4","last_reported":1749823812,"current_range_meters":11200,"station_id":"ce4bh3p2rcd13ifvqdp0","pricing_plan_id":"cebpf4jnsgd1na2vs0mg"},{"bike_id":"c2886b91-f063-4e46-bc42-9e3022ac01e4","system_id":"levelo_inurba_marseille","lat":43.29002,"lon":5.35618,"is_reserved":false,"is_disabled":false,"rental_uris":{"android":"levelo://app?vid=c2886b91-f063-4e46-bc42-9e3022ac01e4","ios":"levelo://app?vid=c2886b91-f063-4e46-bc42-9e3022ac01e4"},"vehicle_type_id":"4","last_reported":1749823812,"current_range_meters":11200,"station_id":"ce4bhb92rcd13ifvqen0","pricing_plan_id":"cebpf4jnsgd1na2vs0mg"},{"bike_id":"346f3f80-6b15-4406-b905-bb78596f5bac","system_id":"levelo_inurba_marseille","lat":43.32378,"lon":5.36749,"is_reserved":false,"is_disabled":false,"rental_uris":{"android":"levelo://app?vid=346f3f80-6b15-4406-b905-bb78596f5bac","ios":"levelo://app?vid=346f3f80-6b15-4406-b905-bb78596f5bac"},"vehicle_type_id":"4","last_reported":1749823812,"current_range_meters":11200,"station_id":"ce4bhsh2rcd13ifvqi2g","pricing_plan_id":"cebpf4jnsgd1na2vs0mg"},{"bike_id":"cc4b28ba-35ca-44c6-b0f6-b018989c24e2","system_id":"levelo_inurba_marseille","lat":43.26028,"lon":5.41742,"is_reserved":false,"is_disabled":false,"rental_uris":{"android":"levelo://app?vid=cc4b28ba-35ca-44c6-b0f6-b018989c24e2","ios":"levelo://app?vid=cc4b28ba-35ca-44c6-b0f6-b018989c24e2"},"vehicle_type_id":"4","last_reported":1749823812,"current_range_meters":11600,"station_id":"","pricing_plan_id":"cebpf4jnsgd1na2vs0mg"},{"bike_id":"7473ed29-bda0-4f4a-a44b-dda29cbae483","system_id":"levelo_inurba_marseille","lat":43.30787,"lon":5.37647,"is_reserved":false,"is_disabled":false,"rental_uris":{"android":"levelo://app?vid=7473ed29-bda0-4f4a-a44b-dda29cbae483","ios":"levelo://app?vid=7473ed29-bda0-4f4a-a44b-dda29cbae483"},"vehicle_type_id":"4","last_reported":1749823812,"current_range_meters":11600,"station_id":"ce4bgv92rcd13ifvqcq0","pricing_plan_id":"cebpf4jnsgd1na2vs0mg"},{"bike_id":"70222000-7b85-45c0-b8fc-933440d3fe57","system_id":"levelo_inurba_marseille","lat":43.25502,"lon":5.37653,"is_reserved":false,"is_disabled":false,"rental_uris":{"android":"levelo://app?vid=70222000-7b85-45c0-b8fc-933440d3fe57","ios":"levelo://app?vid=70222000-7b85-45c0-b8fc-933440d3fe57"},"vehicle_type_id":"4","last_reported":1749823812,"current_range_meters":11600,"station_id":"ce4bhh12rcd13ifvqff0","pricing_plan_id":"cebpf4jnsgd1na2vs0mg"},{"bike_id":"890877e9-2b2f-4874-b40f-a4f1f4504057","system_id":"levelo_inurba_marseille","lat":43.25581,"lon":5.38237,"is_reserved":false,"is_disabled":false,"rental_uris":{"android":"levelo://app?vid=890877e9-2b2f-4874-b40f-a4f1f4504057","ios":"levelo://app?vid=890877e9-2b2f-4874-b40f-a4f1f4504057"},"vehicle_type_id":"4","last_reported":1749823812,"current_range_meters":11600,"station_id":"ce4bhih2rcd13ifvqfs0","pricing_plan_id":"cebpf4jnsgd1na2vs0mg"},{"bike_id":"5b0c3ff8-247c-4928-97e1-b79badce49c8","system_id":"levelo_inurba_marseille","lat":43.326637,"lon":5.409892,"is_reserved":false,"is_disabled":false,"rental_uris":{"android":"levelo://app?vid=5b0c3ff8-247c-4928-97e1-b79badce49c8","ios":"levelo://app?vid=5b0c3ff8-247c-4928-97e1-b79badce49c8"},"vehicle_type_id":"4","last_reported":1749823812,"current_range_meters":11600,"station_id":"ce4bhpp2rcd13ifvqhgg","pricing_plan_id":"cebpf4jnsgd1na2vs0mg"},{"bike_id":"8bca9568-3ad8-4b04-a52d-0210c5555d25","system_id":"levelo_inurba_marseille","lat":43.32122,"lon":5.36797,"is_reserved":false,"is_disabled":false,"rental_uris":{"android":"levelo://app?vid=8bca9568-3ad8-4b04-a52d-0210c5555d25","ios":"levelo://app?vid=8bca9568-3ad8-4b04-a52d-0210c5555d25"},"vehicle_type_id":"4","last_reported":1749823812,"current_range_meters":11600,"station_id":"ce4bhrh2rcd13ifvqhug","pricing_plan_id":"cebpf4jnsgd1na2vs0mg"},{"bike_id":"f9d4a295-43ba-4f28-aa29-e7b993e36d31","system_id":"levelo_inurba_marseille","lat":43.31368,"lon":5.38502,"is_reserved":false,"is_disabled":false,"rental_uris":{"android":"levelo://app?vid=f9d4a295-43ba-4f28-aa29-e7b993e36d31","ios":"levelo://app?vid=f9d4a295-43ba-4f28-aa29-e7b993e36d31"},"vehicle_type_id":"4","last_reported":1749823812,"current_range_meters":12000,"station_id":"ce4bgt92rcd13ifvqcf0","pricing_plan_id":"cebpf4jnsgd1na2vs0mg"},{"bike_id":"cfe82967-f53f-426d-b0bb-6dd79a58a5cf","system_id":"levelo_inurba_marseille","lat":43.29264,"lon":5.38468,"is_reserved":false,"is_disabled":false,"rental_uris":{"android":"levelo://app?vid=cfe82967-f53f-426d-b0bb-6dd79a58a5cf","ios":"levelo://app?vid=cfe82967-f53f-426d-b0bb-6dd79a58a5cf"},"vehicle_type_id":"4","last_reported":1749823812,"current_range_meters":12000,"station_id":"ce4bh692rcd13ifvqea0","pricing_plan_id":"cebpf4jnsgd1na2vs0mg"},{"bike_id":"c048e9aa-54eb-4aeb-98ed-0a372f597676","system_id":"levelo_inurba_marseille","lat":43.28418,"lon":5.34989,"is_reserved":false,"is_disabled":false,"rental_uris":{"android":"levelo://app?vid=c048e9aa-54eb-4aeb-98ed-0a372f597676","ios":"levelo://app?vid=c048e9aa-54eb-4aeb-98ed-0a372f597676"},"vehicle_type_id":"4","last_reported":1749823812,"current_range_meters":12000,"station_id":"ce4bhbh2rcd13ifvqepg","pricing_plan_id":"cebpf4jnsgd1na2vs0mg"},{"bike_id":"45486ddc-c54d-4c69-8966-ba8525bdae12","system_id":"levelo_inurba_marseille","lat":43.27994,"lon":5.38734,"is_reserved":false,"is_disabled":false,"rental_uris":{"android":"levelo://app?vid=45486ddc-c54d-4c69-8966-ba8525bdae12","ios":"levelo://app?vid=45486ddc-c54d-4c69-8966-ba8525bdae12"},"vehicle_type_id":"4","last_reported":1749823812,"current_range_meters":12000,"station_id":"ce4bhg12rcd13ifvqf80","pricing_plan_id":"cebpf4jnsgd1na2vs0mg"},{"bike_id":"04dc7e6c-32c7-459b-9049-fc84be69f223","system_id":"levelo_inurba_marseille","lat":43.25504,"lon":5.37654,"is_reserved":false,"is_disabled":false,"rental_uris":{"android":"levelo://app?vid=04dc7e6c-32c7-459b-9049-fc84be69f223","ios":"levelo://app?vid=04dc7e6c-32c7-459b-9049-fc84be69f223"},"vehicle_type_id":"4","last_reported":1749823812,"current_range_meters":12000,"station_id":"ce4bhh12rcd13ifvqff0","pricing_plan_id":"cebpf4jnsgd1na2vs0mg"},{"bike_id":"4e57300e-00a8-4cbe-b4a1-43f74148b484","system_id":"levelo_inurba_marseille","lat":43.2572,"lon":5.41115,"is_reserved":false,"is_disabled":false,"rental_uris":{"android":"levelo://app?vid=4e57300e-00a8-4cbe-b4a1-43f74148b484","ios":"levelo://app?vid=4e57300e-00a8-4cbe-b4a1-43f74148b484"},"vehicle_type_id":"4","last_reported":1749823812,"current_range_meters":12400,"station_id":"ce4bhkp2rcd13ifvqgd0","pricing_plan_id":"cebpf4jnsgd1na2vs0mg"},{"bike_id":"5f977929-ccb4-449a-8fdc-f2bf323c78e2","system_id":"levelo_inurba_marseille","lat":43.337444,"lon":5.374475,"is_reserved":false,"is_disabled":false,"rental_uris":{"android":"levelo://app?vid=5f977929-ccb4-449a-8fdc-f2bf323c78e2","ios":"levelo://app?vid=5f977929-ccb4-449a-8fdc-f2bf323c78e2"},"vehicle_type_id":"4","last_reported":1749823812,"current_range_meters":12800,"station_id":"","pricing_plan_id":"cebpf4jnsgd1na2vs0mg"},{"bike_id":"cf597580-1737-42cb-bb5f-a5e2667b01a3","system_id":"levelo_inurba_marseille","lat":43.29058,"lon":5.35923,"is_reserved":false,"is_disabled":false,"rental_uris":{"android":"levelo://app?vid=cf597580-1737-42cb-bb5f-a5e2667b01a3","ios":"levelo://app?vid=cf597580-1737-42cb-bb5f-a5e2667b01a3"},"vehicle_type_id":"4","last_reported":1749823812,"current_range_meters":12800,"station_id":"ce4bha92rcd13ifvqeg0","pricing_plan_id":"cebpf4jnsgd1na2vs0mg"},{"bike_id":"5cd21a86-9771-4239-b0eb-e2e87015a5e0","system_id":"levelo_inurba_marseille","lat":43.284626,"lon":5.358885,"is_reserved":false,"is_disabled":false,"rental_uris":{"android":"levelo://app?vid=5cd21a86-9771-4239-b0eb-e2e87015a5e0","ios":"levelo://app?vid=5cd21a86-9771-4239-b0eb-e2e87015a5e0"},"vehicle_type_id":"4","last_reported":1749823812,"current_range_meters":12800,"station_id":"ce4bhah2rcd13ifvqei0","pricing_plan_id":"cebpf4jnsgd1na2vs0mg"},{"bike_id":"701cf4a4-4c9a-41df-bbb5-57d2d82b289e","system_id":"levelo_inurba_marseille","lat":43.29006,"lon":5.35611,"is_reserved":false,"is_disabled":false,"rental_uris":{"android":"levelo://app?vid=701cf4a4-4c9a-41df-bbb5-57d2d82b289e","ios":"levelo://app?vid=701cf4a4-4c9a-41df-bbb5-57d2d82b289e"},"vehicle_type_id":"4","last_reported":1749823812,"current_range_meters":12800,"station_id":"ce4bhb92rcd13ifvqen0","pricing_plan_id":"cebpf4jnsgd1na2vs0mg"},{"bike_id":"10edcc86-2f37-44b5-8038-6012b393b448","system_id":"levelo_inurba_marseille","lat":43.28271,"lon":5.35077,"is_reserved":false,"is_disabled":false,"rental_uris":{"android":"levelo://app?vid=10edcc86-2f37-44b5-8038-6012b393b448","ios":"levelo://app?vid=10edcc86-2f37-44b5-8038-6012b393b448"},"vehicle_type_id":"4","last_reported":1749823812,"current_range_meters":12800,"station_id":"ce4bhbp2rcd13ifvqerg","pricing_plan_id":"cebpf4jnsgd1na2vs0mg"},{"bike_id":"584a1435-8ec1-48e1-b795-47a4db8844ae","system_id":"levelo_inurba_marseille","lat":43.26555,"lon":5.3727,"is_reserved":false,"is_disabled":false,"rental_uris":{"android":"levelo://app?vid=584a1435-8ec1-48e1-b795-47a4db8844ae","ios":"levelo://app?vid=584a1435-8ec1-48e1-b795-47a4db8844ae"},"vehicle_type_id":"4","last_reported":1749823812,"current_range_meters":12800,"station_id":"ce4bhg12rcd13ifvqf70","pricing_plan_id":"cebpf4jnsgd1na2vs0mg"},{"bike_id":"724726ce-9123-4234-937a-f9739fec3740","system_id":"levelo_inurba_marseille","lat":43.23199,"lon":5.35562,"is_reserved":false,"is_disabled":false,"rental_uris":{"android":"levelo://app?vid=724726ce-9123-4234-937a-f9739fec3740","ios":"levelo://app?vid=724726ce-9123-4234-937a-f9739fec3740"},"vehicle_type_id":"4","last_reported":1749823812,"current_range_meters":12800,"station_id":"ce4bhu92rcd13ifvqi70","pricing_plan_id":"cebpf4jnsgd1na2vs0mg"},{"bike_id":"2ad533c2-0da6-44c3-8c0a-c2bc6767e485","system_id":"levelo_inurba_marseille","lat":43.241128,"lon":5.378413,"is_reserved":false,"is_disabled":false,"rental_uris":{"android":"levelo://app?vid=2ad533c2-0da6-44c3-8c0a-c2bc6767e485","ios":"levelo://app?vid=2ad533c2-0da6-44c3-8c0a-c2bc6767e485"},"vehicle_type_id":"4","last_reported":1749823812,"current_range_meters":13600,"station_id":"","pricing_plan_id":"cebpf4jnsgd1na2vs0mg"},{"bike_id":"6facbc0d-f1b5-4dc3-86d4-5c1204834925","system_id":"levelo_inurba_marseille","lat":43.28046,"lon":5.34815,"is_reserved":false,"is_disabled":false,"rental_uris":{"android":"levelo://app?vid=6facbc0d-f1b5-4dc3-86d4-5c1204834925","ios":"levelo://app?vid=6facbc0d-f1b5-4dc3-86d4-5c1204834925"},"vehicle_type_id":"4","last_reported":1749823812,"current_range_meters":13600,"station_id":"","pricing_plan_id":"cebpf4jnsgd1na2vs0mg"},{"bike_id":"5aa7b296-8f98-4074-a9e2-b255f23efe01","system_id":"levelo_inurba_marseille","lat":43.28857,"lon":5.35842,"is_reserved":false,"is_disabled":false,"rental_uris":{"android":"levelo://app?vid=5aa7b296-8f98-4074-a9e2-b255f23efe01","ios":"levelo://app?vid=5aa7b296-8f98-4074-a9e2-b255f23efe01"},"vehicle_type_id":"4","last_reported":1749823812,"current_range_meters":13600,"station_id":"ce4bhb12rcd13ifvqem0","pricing_plan_id":"cebpf4jnsgd1na2vs0mg"},{"bike_id":"734fc4dc-a6d7-470c-a36c-68b55bcf4389","system_id":"levelo_inurba_marseille","lat":43.27055,"lon":5.40265,"is_reserved":false,"is_disabled":false,"rental_uris":{"android":"levelo://app?vid=734fc4dc-a6d7-470c-a36c-68b55bcf4389","ios":"levelo://app?vid=734fc4dc-a6d7-470c-a36c-68b55bcf4389"},"vehicle_type_id":"4","last_reported":1749823812,"current_range_meters":13600,"station_id":"ce4bhk92rcd13ifvqgc0","pricing_plan_id":"cebpf4jnsgd1na2vs0mg"},{"bike_id":"326cc913-bdbc-48c2-9a88-414846f09512","system_id":"levelo_inurba_marseille","lat":43.3236,"lon":5.36757,"is_reserved":false,"is_disabled":false,"rental_uris":{"android":"levelo://app?vid=326cc913-bdbc-48c2-9a88-414846f09512","ios":"levelo://app?vid=326cc913-bdbc-48c2-9a88-414846f09512"},"vehicle_type_id":"4","last_reported":1749823812,"current_range_meters":13600,"station_id":"ce4bhsh2rcd13ifvqi2g","pricing_plan_id":"cebpf4jnsgd1na2vs0mg"},{"bike_id":"635076ef-6a70-4f05-986a-396f6c0ebead","system_id":"levelo_inurba_marseille","lat":43.30047,"lon":5.4019,"is_reserved":false,"is_disabled":false,"rental_uris":{"android":"levelo://app?vid=635076ef-6a70-4f05-986a-396f6c0ebead","ios":"levelo://app?vid=635076ef-6a70-4f05-986a-396f6c0ebead"},"vehicle_type_id":"4","last_reported":1749823812,"current_range_meters":14000,"station_id":"","pricing_plan_id":"cebpf4jnsgd1na2vs0mg"},{"bike_id":"46ce6c60-9574-4735-8d78-f300df4e5ef8","system_id":"levelo_inurba_marseille","lat":43.30656,"lon":5.4009,"is_reserved":false,"is_disabled":false,"rental_uris":{"android":"levelo://app?vid=46ce6c60-9574-4735-8d78-f300df4e5ef8","ios":"levelo://app?vid=46ce6c60-9574-4735-8d78-f300df4e5ef8"},"vehicle_type_id":"4","last_reported":1749823812,"current_range_meters":14000,"station_id":"ce4bh112rcd13ifvqda0","pricing_plan_id":"cebpf4jnsgd1na2vs0mg"},{"bike_id":"984e4174-694c-4248-9365-dbfa1aaa0c75","system_id":"levelo_inurba_marseille","lat":43.29564,"lon":5.3996,"is_reserved":false,"is_disabled":false,"rental_uris":{"android":"levelo://app?vid=984e4174-694c-4248-9365-dbfa1aaa0c75","ios":"levelo://app?vid=984e4174-694c-4248-9365-dbfa1aaa0c75"},"vehicle_type_id":"4","last_reported":1749823812,"current_range_meters":14000,"station_id":"ce4bh312rcd13ifvqdj0","pricing_plan_id":"cebpf4jnsgd1na2vs0mg"},{"bike_id":"4b15a2c0-e04a-461e-921d-0d6a428da66f","system_id":"levelo_inurba_marseille","lat":43.26549,"lon":5.37315,"is_reserved":false,"is_disabled":false,"rental_uris":{"android":"levelo://app?vid=4b15a2c0-e04a-461e-921d-0d6a428da66f","ios":"levelo://app?vid=4b15a2c0-e04a-461e-921d-0d6a428da66f"},"vehicle_type_id":"4","last_reported":1749823812,"current_range_meters":14000,"station_id":"ce4bhg12rcd13ifvqf70","pricing_plan_id":"cebpf4jnsgd1na2vs0mg"},{"bike_id":"7f0d5f38-95e6-4662-8522-48c006dbc00f","system_id":"levelo_inurba_marseille","lat":43.25002,"lon":5.38925,"is_reserved":false,"is_disabled":false,"rental_uris":{"android":"levelo://app?vid=7f0d5f38-95e6-4662-8522-48c006dbc00f","ios":"levelo://app?vid=7f0d5f38-95e6-4662-8522-48c006dbc00f"},"vehicle_type_id":"4","last_reported":1749823812,"current_range_meters":14000,"station_id":"ce4bhgp2rcd13ifvqfd0","pricing_plan_id":"cebpf4jnsgd1na2vs0mg"},{"bike_id":"6fdeb730-fdbc-47cd-bd24-e8dbe003b234","system_id":"levelo_inurba_marseille","lat":43.24544,"lon":5.39518,"is_reserved":false,"is_disabled":false,"rental_uris":{"android":"levelo://app?vid=6fdeb730-fdbc-47cd-bd24-e8dbe003b234","ios":"levelo://app?vid=6fdeb730-fdbc-47cd-bd24-e8dbe003b234"},"vehicle_type_id":"4","last_reported":1749823812,"current_range_meters":14000,"station_id":"ce4bhlp2rcd13ifvqgjg","pricing_plan_id":"cebpf4jnsgd1na2vs0mg"},{"bike_id":"ae71096f-992e-4d8b-8f13-8df48887e36e","system_id":"levelo_inurba_marseille","lat":43.30547,"lon":5.36566,"is_reserved":false,"is_disabled":false,"rental_uris":{"android":"levelo://app?vid=ae71096f-992e-4d8b-8f13-8df48887e36e","ios":"levelo://app?vid=ae71096f-992e-4d8b-8f13-8df48887e36e"},"vehicle_type_id":"4","last_reported":1749823812,"current_range_meters":14400,"station_id":"ce4bgs12rcd13ifvqcag","pricing_plan_id":"cebpf4jnsgd1na2vs0mg"},{"bike_id":"c037ae8b-da07-4c8b-997e-e702f75903ab","system_id":"levelo_inurba_marseille","lat":43.23152,"lon":5.43714,"is_reserved":false,"is_disabled":false,"rental_uris":{"android":"levelo://app?vid=c037ae8b-da07-4c8b-997e-e702f75903ab","ios":"levelo://app?vid=c037ae8b-da07-4c8b-997e-e702f75903ab"},"vehicle_type_id":"4","last_reported":1749823812,"current_range_meters":14400,"station_id":"ce4bhmp2rcd13ifvqgog","pricing_plan_id":"cebpf4jnsgd1na2vs0mg"},{"bike_id":"c0bd4251-d527-48a7-9378-e4e80c1c274f","system_id":"levelo_inurba_marseille","lat":43.31877,"lon":5.37397,"is_reserved":false,"is_disabled":false,"rental_uris":{"android":"levelo://app?vid=c0bd4251-d527-48a7-9378-e4e80c1c274f","ios":"levelo://app?vid=c0bd4251-d527-48a7-9378-e4e80c1c274f"},"vehicle_type_id":"4","last_reported":1749823812,"current_range_meters":14800,"station_id":"","pricing_plan_id":"cebpf4jnsgd1na2vs0mg"},{"bike_id":"14c9c630-d6b4-4315-bab5-4535a58ebc81","system_id":"levelo_inurba_marseille","lat":43.29534,"lon":5.3855,"is_reserved":false,"is_disabled":false,"rental_uris":{"android":"levelo://app?vid=14c9c630-d6b4-4315-bab5-4535a58ebc81","ios":"levelo://app?vid=14c9c630-d6b4-4315-bab5-4535a58ebc81"},"vehicle_type_id":"4","last_reported":1749823812,"current_range_meters":14800,"station_id":"ce4bgih2rcd13ifvqba0","pricing_plan_id":"cebpf4jnsgd1na2vs0mg"},{"bike_id":"2a99a060-6d2c-4014-9806-cc0eb0971c46","system_id":"levelo_inurba_marseille","lat":43.291404,"lon":5.385285,"is_reserved":false,"is_disabled":false,"rental_uris":{"android":"levelo://app?vid=2a99a060-6d2c-4014-9806-cc0eb0971c46","ios":"levelo://app?vid=2a99a060-6d2c-4014-9806-cc0eb0971c46"},"vehicle_type_id":"4","last_reported":1749823812,"current_range_meters":14800,"station_id":"ce4bh4p2rcd13ifvqe0g","pricing_plan_id":"cebpf4jnsgd1na2vs0mg"},{"bike_id":"bfd037dc-c935-4191-9291-0563bdc87437","system_id":"levelo_inurba_marseille","lat":43.28615,"lon":5.35109,"is_reserved":false,"is_disabled":false,"rental_uris":{"android":"levelo://app?vid=bfd037dc-c935-4191-9291-0563bdc87437","ios":"levelo://app?vid=bfd037dc-c935-4191-9291-0563bdc87437"},"vehicle_type_id":"4","last_reported":1749823812,"current_range_meters":14800,"station_id":"ce4bhch2rcd13ifvqeug","pricing_plan_id":"cebpf4jnsgd1na2vs0mg"},{"bike_id":"59c2c566-8852-4ada-98a8-f7367d802048","system_id":"levelo_inurba_marseille","lat":43.268183,"lon":5.402592,"is_reserved":false,"is_disabled":false,"rental_uris":{"android":"levelo://app?vid=59c2c566-8852-4ada-98a8-f7367d802048","ios":"levelo://app?vid=59c2c566-8852-4ada-98a8-f7367d802048"},"vehicle_type_id":"4","last_reported":1749823812,"current_range_meters":14800,"station_id":"ce501612rcd8frsf0b60","pricing_plan_id":"cebpf4jnsgd1na2vs0mg"},{"bike_id":"a5228484-44cb-41b9-8f35-bf1ed5459882","system_id":"levelo_inurba_marseille","lat":43.211863,"lon":5.35075,"is_reserved":false,"is_disabled":false,"rental_uris":{"android":"levelo://app?vid=a5228484-44cb-41b9-8f35-bf1ed5459882","ios":"levelo://app?vid=a5228484-44cb-41b9-8f35-bf1ed5459882"},"vehicle_type_id":"4","last_reported":1749823812,"current_range_meters":14800,"station_id":"st_cvj6sg6p6f1abm77japg","pricing_plan_id":"cebpf4jnsgd1na2vs0mg"},{"bike_id":"8cdc113c-7c66-4e9a-92cb-e1e026c4849e","system_id":"levelo_inurba_marseille","lat":43.25909,"lon":5.3987,"is_reserved":false,"is_disabled":false,"rental_uris":{"android":"levelo://app?vid=8cdc113c-7c66-4e9a-92cb-e1e026c4849e","ios":"levelo://app?vid=8cdc113c-7c66-4e9a-92cb-e1e026c4849e"},"vehicle_type_id":"4","last_reported":1749823812,"current_range_meters":15200,"station_id":"","pricing_plan_id":"cebpf4jnsgd1na2vs0mg"},{"bike_id":"3b2851dc-cdc3-4c74-bb7a-6b50ea5674bc","system_id":"levelo_inurba_marseille","lat":43.30177,"lon":5.38071,"is_reserved":false,"is_disabled":false,"rental_uris":{"android":"levelo://app?vid=3b2851dc-cdc3-4c74-bb7a-6b50ea5674bc","ios":"levelo://app?vid=3b2851dc-cdc3-4c74-bb7a-6b50ea5674bc"},"vehicle_type_id":"4","last_reported":1749823812,"current_range_meters":15200,"station_id":"ce4bgjp2rcd13ifvqbh0","pricing_plan_id":"cebpf4jnsgd1na2vs0mg"},{"bike_id":"5b643638-d776-46a7-8b45-b40108c3a94a","system_id":"levelo_inurba_marseille","lat":43.31329,"lon":5.39695,"is_reserved":false,"is_disabled":false,"rental_uris":{"android":"levelo://app?vid=5b643638-d776-46a7-8b45-b40108c3a94a","ios":"levelo://app?vid=5b643638-d776-46a7-8b45-b40108c3a94a"},"vehicle_type_id":"4","last_reported":1749823812,"current_range_meters":15200,"station_id":"ce4bgvp2rcd13ifvqcu0","pricing_plan_id":"cebpf4jnsgd1na2vs0mg"},{"bike_id":"94502b14-ff48-4cde-b2d3-edd6d6e7a52e","system_id":"levelo_inurba_marseille","lat":43.28426,"lon":5.35031,"is_reserved":false,"is_disabled":false,"rental_uris":{"android":"levelo://app?vid=94502b14-ff48-4cde-b2d3-edd6d6e7a52e","ios":"levelo://app?vid=94502b14-ff48-4cde-b2d3-edd6d6e7a52e"},"vehicle_type_id":"4","last_reported":1749823812,"current_range_meters":15200,"station_id":"ce4bhbh2rcd13ifvqepg","pricing_plan_id":"cebpf4jnsgd1na2vs0mg"},{"bike_id":"88d21d4c-3a48-4264-8e26-69f63d5d0355","system_id":"levelo_inurba_marseille","lat":43.2827,"lon":5.35074,"is_reserved":false,"is_disabled":false,"rental_uris":{"android":"levelo://app?vid=88d21d4c-3a48-4264-8e26-69f63d5d0355","ios":"levelo://app?vid=88d21d4c-3a48-4264-8e26-69f63d5d0355"},"vehicle_type_id":"4","last_reported":1749823812,"current_range_meters":15200,"station_id":"ce4bhbp2rcd13ifvqerg","pricing_plan_id":"cebpf4jnsgd1na2vs0mg"},{"bike_id":"a2745ebb-65b3-4b6d-a9f0-a47533349f5d","system_id":"levelo_inurba_marseille","lat":43.26211,"lon":5.37446,"is_reserved":false,"is_disabled":false,"rental_uris":{"android":"levelo://app?vid=a2745ebb-65b3-4b6d-a9f0-a47533349f5d","ios":"levelo://app?vid=a2745ebb-65b3-4b6d-a9f0-a47533349f5d"},"vehicle_type_id":"4","last_reported":1749823812,"current_range_meters":15200,"station_id":"ce4bhgp2rcd13ifvqfc0","pricing_plan_id":"cebpf4jnsgd1na2vs0mg"},{"bike_id":"3956db86-1e5a-45ce-a380-33d86d9f3b67","system_id":"levelo_inurba_marseille","lat":43.21747,"lon":5.34606,"is_reserved":false,"is_disabled":false,"rental_uris":{"android":"levelo://app?vid=3956db86-1e5a-45ce-a380-33d86d9f3b67","ios":"levelo://app?vid=3956db86-1e5a-45ce-a380-33d86d9f3b67"},"vehicle_type_id":"4","last_reported":1749823812,"current_range_meters":15200,"station_id":"st_cvj6r9ubvosntc0bgbag","pricing_plan_id":"cebpf4jnsgd1na2vs0mg"},{"bike_id":"ea240295-4df4-4354-bf99-e90770468404","system_id":"levelo_inurba_marseille","lat":43.29011,"lon":5.35612,"is_reserved":false,"is_disabled":false,"rental_uris":{"android":"levelo://app?vid=ea240295-4df4-4354-bf99-e90770468404","ios":"levelo://app?vid=ea240295-4df4-4354-bf99-e90770468404"},"vehicle_type_id":"4","last_reported":1749823812,"current_range_meters":16000,"station_id":"ce4bhb92rcd13ifvqen0","pricing_plan_id":"cebpf4jnsgd1na2vs0mg"},{"bike_id":"40bfae74-731f-4dba-aae5-084b4439860d","system_id":"levelo_inurba_marseille","lat":43.28424,"lon":5.34979,"is_reserved":false,"is_disabled":false,"rental_uris":{"android":"levelo://app?vid=40bfae74-731f-4dba-aae5-084b4439860d","ios":"levelo://app?vid=40bfae74-731f-4dba-aae5-084b4439860d"},"vehicle_type_id":"4","last_reported":1749823812,"current_range_meters":16000,"station_id":"ce4bhbh2rcd13ifvqepg","pricing_plan_id":"cebpf4jnsgd1na2vs0mg"},{"bike_id":"fd68312a-e9f8-4f70-8e75-2c4a23b88cb4","system_id":"levelo_inurba_marseille","lat":43.28279,"lon":5.35074,"is_reserved":false,"is_disabled":false,"rental_uris":{"android":"levelo://app?vid=fd68312a-e9f8-4f70-8e75-2c4a23b88cb4","ios":"levelo://app?vid=fd68312a-e9f8-4f70-8e75-2c4a23b88cb4"},"vehicle_type_id":"4","last_reported":1749823812,"current_range_meters":16000,"station_id":"ce4bhbp2rcd13ifvqerg","pricing_plan_id":"cebpf4jnsgd1na2vs0mg"},{"bike_id":"7b4b91ba-b664-47ac-8822-2de6bb5c357d","system_id":"levelo_inurba_marseille","lat":43.284119,"lon":5.349831,"is_reserved":false,"is_disabled":false,"rental_uris":{"android":"levelo://app?vid=7b4b91ba-b664-47ac-8822-2de6bb5c357d","ios":"levelo://app?vid=7b4b91ba-b664-47ac-8822-2de6bb5c357d"},"vehicle_type_id":"4","last_reported":1749823812,"current_range_meters":16400,"station_id":"ce4bhbh2rcd13ifvqepg","pricing_plan_id":"cebpf4jnsgd1na2vs0mg"},{"bike_id":"2bbed242-3d5f-4c43-a4d4-36390aeaf22d","system_id":"levelo_inurba_marseille","lat":43.28421,"lon":5.35004,"is_reserved":false,"is_disabled":false,"rental_uris":{"android":"levelo://app?vid=2bbed242-3d5f-4c43-a4d4-36390aeaf22d","ios":"levelo://app?vid=2bbed242-3d5f-4c43-a4d4-36390aeaf22d"},"vehicle_type_id":"4","last_reported":1749823812,"current_range_meters":16400,"station_id":"ce4bhbh2rcd13ifvqepg","pricing_plan_id":"cebpf4jnsgd1na2vs0mg"},{"bike_id":"5838fa56-acfd-4f90-bff3-fe13b5d2855e","system_id":"levelo_inurba_marseille","lat":43.26563,"lon":5.39021,"is_reserved":false,"is_disabled":false,"rental_uris":{"android":"levelo://app?vid=5838fa56-acfd-4f90-bff3-fe13b5d2855e","ios":"levelo://app?vid=5838fa56-acfd-4f90-bff3-fe13b5d2855e"},"vehicle_type_id":"4","last_reported":1749823812,"current_range_meters":16400,"station_id":"ce4bhe12rcd13ifvqf30","pricing_plan_id":"cebpf4jnsgd1na2vs0mg"},{"bike_id":"9a6ae2e5-348f-4785-ac14-593300bd7a57","system_id":"levelo_inurba_marseille","lat":43.26199,"lon":5.37465,"is_reserved":false,"is_disabled":false,"rental_uris":{"android":"levelo://app?vid=9a6ae2e5-348f-4785-ac14-593300bd7a57","ios":"levelo://app?vid=9a6ae2e5-348f-4785-ac14-593300bd7a57"},"vehicle_type_id":"4","last_reported":1749823812,"current_range_meters":16400,"station_id":"ce4bhgp2rcd13ifvqfc0","pricing_plan_id":"cebpf4jnsgd1na2vs0mg"},{"bike_id":"4c018b63-8d56-476a-94aa-f686ffb66f63","system_id":"levelo_inurba_marseille","lat":43.26204,"lon":5.37452,"is_reserved":false,"is_disabled":false,"rental_uris":{"android":"levelo://app?vid=4c018b63-8d56-476a-94aa-f686ffb66f63","ios":"levelo://app?vid=4c018b63-8d56-476a-94aa-f686ffb66f63"},"vehicle_type_id":"4","last_reported":1749823812,"current_range_meters":16400,"station_id":"ce4bhgp2rcd13ifvqfc0","pricing_plan_id":"cebpf4jnsgd1na2vs0mg"},{"bike_id":"c26029f6-7641-44eb-9cea-8d890b1897a9","system_id":"levelo_inurba_marseille","lat":43.25818,"lon":5.39421,"is_reserved":false,"is_disabled":false,"rental_uris":{"android":"levelo://app?vid=c26029f6-7641-44eb-9cea-8d890b1897a9","ios":"levelo://app?vid=c26029f6-7641-44eb-9cea-8d890b1897a9"},"vehicle_type_id":"4","last_reported":1749823812,"current_range_meters":16400,"station_id":"ce4bhip2rcd13ifvqft0","pricing_plan_id":"cebpf4jnsgd1na2vs0mg"},{"bike_id":"84ce4dc4-ec2c-40c5-bf98-175c10131af6","system_id":"levelo_inurba_marseille","lat":43.27071,"lon":5.42278,"is_reserved":false,"is_disabled":false,"rental_uris":{"android":"levelo://app?vid=84ce4dc4-ec2c-40c5-bf98-175c10131af6","ios":"levelo://app?vid=84ce4dc4-ec2c-40c5-bf98-175c10131af6"},"vehicle_type_id":"4","last_reported":1749823812,"current_range_meters":16400,"station_id":"ce4bhk92rcd13ifvqgb0","pricing_plan_id":"cebpf4jnsgd1na2vs0mg"},{"bike_id":"953d3a69-edfe-4227-87fa-3b6cd06c3658","system_id":"levelo_inurba_marseille","lat":43.22933,"lon":5.35379,"is_reserved":false,"is_disabled":false,"rental_uris":{"android":"levelo://app?vid=953d3a69-edfe-4227-87fa-3b6cd06c3658","ios":"levelo://app?vid=953d3a69-edfe-4227-87fa-3b6cd06c3658"},"vehicle_type_id":"4","last_reported":1749823812,"current_range_meters":16400,"station_id":"cpo3532slgdg3j2ikp40","pricing_plan_id":"cebpf4jnsgd1na2vs0mg"},{"bike_id":"2ab31527-f915-4286-b3a0-0beafd2cdd50","system_id":"levelo_inurba_marseille","lat":43.29981,"lon":5.37013,"is_reserved":false,"is_disabled":false,"rental_uris":{"android":"levelo://app?vid=2ab31527-f915-4286-b3a0-0beafd2cdd50","ios":"levelo://app?vid=2ab31527-f915-4286-b3a0-0beafd2cdd50"},"vehicle_type_id":"4","last_reported":1749823812,"current_range_meters":16800,"station_id":"","pricing_plan_id":"cebpf4jnsgd1na2vs0mg"},{"bike_id":"f6e917e3-1d7c-4540-a1ff-d522be54d5b2","system_id":"levelo_inurba_marseille","lat":43.29268,"lon":5.38436,"is_reserved":false,"is_disabled":false,"rental_uris":{"android":"levelo://app?vid=f6e917e3-1d7c-4540-a1ff-d522be54d5b2","ios":"levelo://app?vid=f6e917e3-1d7c-4540-a1ff-d522be54d5b2"},"vehicle_type_id":"4","last_reported":1749823812,"current_range_meters":16800,"station_id":"ce4bh692rcd13ifvqea0","pricing_plan_id":"cebpf4jnsgd1na2vs0mg"},{"bike_id":"134173f2-e1c0-48a3-b21e-4f5766509157","system_id":"levelo_inurba_marseille","lat":43.28417,"lon":5.34997,"is_reserved":false,"is_disabled":false,"rental_uris":{"android":"levelo://app?vid=134173f2-e1c0-48a3-b21e-4f5766509157","ios":"levelo://app?vid=134173f2-e1c0-48a3-b21e-4f5766509157"},"vehicle_type_id":"4","last_reported":1749823812,"current_range_meters":16800,"station_id":"ce4bhbh2rcd13ifvqepg","pricing_plan_id":"cebpf4jnsgd1na2vs0mg"},{"bike_id":"80f019d5-2f82-45f2-9396-8e774bf21f94","system_id":"levelo_inurba_marseille","lat":43.28275,"lon":5.3508,"is_reserved":false,"is_disabled":false,"rental_uris":{"android":"levelo://app?vid=80f019d5-2f82-45f2-9396-8e774bf21f94","ios":"levelo://app?vid=80f019d5-2f82-45f2-9396-8e774bf21f94"},"vehicle_type_id":"4","last_reported":1749823812,"current_range_meters":16800,"station_id":"ce4bhbp2rcd13ifvqerg","pricing_plan_id":"cebpf4jnsgd1na2vs0mg"},{"bike_id":"715478fd-76c6-4ef8-b993-75b351929d64","system_id":"levelo_inurba_marseille","lat":43.2827,"lon":5.35077,"is_reserved":false,"is_disabled":false,"rental_uris":{"android":"levelo://app?vid=715478fd-76c6-4ef8-b993-75b351929d64","ios":"levelo://app?vid=715478fd-76c6-4ef8-b993-75b351929d64"},"vehicle_type_id":"4","last_reported":1749823812,"current_range_meters":16800,"station_id":"ce4bhbp2rcd13ifvqerg","pricing_plan_id":"cebpf4jnsgd1na2vs0mg"},{"bike_id":"5251a275-687b-416a-9551-99f67c28b5c6","system_id":"levelo_inurba_marseille","lat":43.24387,"lon":5.37064,"is_reserved":false,"is_disabled":false,"rental_uris":{"android":"levelo://app?vid=5251a275-687b-416a-9551-99f67c28b5c6","ios":"levelo://app?vid=5251a275-687b-416a-9551-99f67c28b5c6"},"vehicle_type_id":"4","last_reported":1749823812,"current_range_meters":16800,"station_id":"ce4bhhh2rcd13ifvqfk0","pricing_plan_id":"cebpf4jnsgd1na2vs0mg"},{"bike_id":"f3ec16b2-8afd-4ecb-8d58-15a6a90ff603","system_id":"levelo_inurba_marseille","lat":43.323614,"lon":5.367631,"is_reserved":false,"is_disabled":false,"rental_uris":{"android":"levelo://app?vid=f3ec16b2-8afd-4ecb-8d58-15a6a90ff603","ios":"levelo://app?vid=f3ec16b2-8afd-4ecb-8d58-15a6a90ff603"},"vehicle_type_id":"4","last_reported":1749823812,"current_range_meters":16800,"station_id":"ce4bhsh2rcd13ifvqi2g","pricing_plan_id":"cebpf4jnsgd1na2vs0mg"},{"bike_id":"250cb1db-9b0a-4a16-bbea-f0bf6e1a394a","system_id":"levelo_inurba_marseille","lat":43.231786,"lon":5.355559,"is_reserved":false,"is_disabled":false,"rental_uris":{"android":"levelo://app?vid=250cb1db-9b0a-4a16-bbea-f0bf6e1a394a","ios":"levelo://app?vid=250cb1db-9b0a-4a16-bbea-f0bf6e1a394a"},"vehicle_type_id":"4","last_reported":1749823812,"current_range_meters":16800,"station_id":"ce4bhu92rcd13ifvqi70","pricing_plan_id":"cebpf4jnsgd1na2vs0mg"},{"bike_id":"a3d8ed61-ad96-4794-9377-3745ebafc863","system_id":"levelo_inurba_marseille","lat":43.29105,"lon":5.38069,"is_reserved":false,"is_disabled":false,"rental_uris":{"android":"levelo://app?vid=a3d8ed61-ad96-4794-9377-3745ebafc863","ios":"levelo://app?vid=a3d8ed61-ad96-4794-9377-3745ebafc863"},"vehicle_type_id":"4","last_reported":1749823812,"current_range_meters":17200,"station_id":"","pricing_plan_id":"cebpf4jnsgd1na2vs0mg"},{"bike_id":"06bf27ad-51b7-4614-a301-cce254ebd4a9","system_id":"levelo_inurba_marseille","lat":43.24179,"lon":5.3974,"is_reserved":false,"is_disabled":false,"rental_uris":{"android":"levelo://app?vid=06bf27ad-51b7-4614-a301-cce254ebd4a9","ios":"levelo://app?vid=06bf27ad-51b7-4614-a301-cce254ebd4a9"},"vehicle_type_id":"4","last_reported":1749823812,"current_range_meters":17200,"station_id":"ce4bhn12rcd13ifvqgpg","pricing_plan_id":"cebpf4jnsgd1na2vs0mg"},{"bike_id":"be09a8fa-b149-4153-97a9-be37d10481c8","system_id":"levelo_inurba_marseille","lat":43.24166,"lon":5.39738,"is_reserved":false,"is_disabled":false,"rental_uris":{"android":"levelo://app?vid=be09a8fa-b149-4153-97a9-be37d10481c8","ios":"levelo://app?vid=be09a8fa-b149-4153-97a9-be37d10481c8"},"vehicle_type_id":"4","last_reported":1749823812,"current_range_meters":17200,"station_id":"ce4bhn12rcd13ifvqgpg","pricing_plan_id":"cebpf4jnsgd1na2vs0mg"},{"bike_id":"4ee97cf1-7f69-4ef0-81f5-7b013aa88d5c","system_id":"levelo_inurba_marseille","lat":43.23191,"lon":5.35556,"is_reserved":false,"is_disabled":false,"rental_uris":{"android":"levelo://app?vid=4ee97cf1-7f69-4ef0-81f5-7b013aa88d5c","ios":"levelo://app?vid=4ee97cf1-7f69-4ef0-81f5-7b013aa88d5c"},"vehicle_type_id":"4","last_reported":1749823812,"current_range_meters":17200,"station_id":"ce4bhu92rcd13ifvqi70","pricing_plan_id":"cebpf4jnsgd1na2vs0mg"},{"bike_id":"c9221519-de10-4034-995b-5e54c06461f8","system_id":"levelo_inurba_marseille","lat":43.29512,"lon":5.37525,"is_reserved":false,"is_disabled":false,"rental_uris":{"android":"levelo://app?vid=c9221519-de10-4034-995b-5e54c06461f8","ios":"levelo://app?vid=c9221519-de10-4034-995b-5e54c06461f8"},"vehicle_type_id":"4","last_reported":1749823812,"current_range_meters":17600,"station_id":"ce4bgkp2rcd13ifvqbmg","pricing_plan_id":"cebpf4jnsgd1na2vs0mg"},{"bike_id":"4c4c7fdd-35c3-4fa5-b7e4-3f0f4324d0c2","system_id":"levelo_inurba_marseille","lat":43.282718,"lon":5.350526,"is_reserved":false,"is_disabled":false,"rental_uris":{"android":"levelo://app?vid=4c4c7fdd-35c3-4fa5-b7e4-3f0f4324d0c2","ios":"levelo://app?vid=4c4c7fdd-35c3-4fa5-b7e4-3f0f4324d0c2"},"vehicle_type_id":"4","last_reported":1749823812,"current_range_meters":17600,"station_id":"ce4bhbp2rcd13ifvqerg","pricing_plan_id":"cebpf4jnsgd1na2vs0mg"},{"bike_id":"a9116edf-419e-4982-94c3-846491b51bba","system_id":"levelo_inurba_marseille","lat":43.25501,"lon":5.37699,"is_reserved":false,"is_disabled":false,"rental_uris":{"android":"levelo://app?vid=a9116edf-419e-4982-94c3-846491b51bba","ios":"levelo://app?vid=a9116edf-419e-4982-94c3-846491b51bba"},"vehicle_type_id":"4","last_reported":1749823812,"current_range_meters":17600,"station_id":"ce4bhh12rcd13ifvqff0","pricing_plan_id":"cebpf4jnsgd1na2vs0mg"},{"bike_id":"033f15e1-5ed0-4098-a7ec-2a49aba179ae","system_id":"levelo_inurba_marseille","lat":43.28511,"lon":5.35357,"is_reserved":false,"is_disabled":false,"rental_uris":{"android":"levelo://app?vid=033f15e1-5ed0-4098-a7ec-2a49aba179ae","ios":"levelo://app?vid=033f15e1-5ed0-4098-a7ec-2a49aba179ae"},"vehicle_type_id":"4","last_reported":1749823812,"current_range_meters":18000,"station_id":"","pricing_plan_id":"cebpf4jnsgd1na2vs0mg"},{"bike_id":"c315bb6f-76c5-46ed-86f3-b3ab2da3d70d","system_id":"levelo_inurba_marseille","lat":43.30464,"lon":5.379,"is_reserved":false,"is_disabled":false,"rental_uris":{"android":"levelo://app?vid=c315bb6f-76c5-46ed-86f3-b3ab2da3d70d","ios":"levelo://app?vid=c315bb6f-76c5-46ed-86f3-b3ab2da3d70d"},"vehicle_type_id":"4","last_reported":1749823812,"current_range_meters":18000,"station_id":"ce4bgup2rcd13ifvqcn0","pricing_plan_id":"cebpf4jnsgd1na2vs0mg"},{"bike_id":"fd3bdc03-dfac-4aa8-9107-75aee4f97e4f","system_id":"levelo_inurba_marseille","lat":43.282646,"lon":5.350608,"is_reserved":false,"is_disabled":false,"rental_uris":{"android":"levelo://app?vid=fd3bdc03-dfac-4aa8-9107-75aee4f97e4f","ios":"levelo://app?vid=fd3bdc03-dfac-4aa8-9107-75aee4f97e4f"},"vehicle_type_id":"4","last_reported":1749823812,"current_range_meters":18000,"station_id":"ce4bhbp2rcd13ifvqerg","pricing_plan_id":"cebpf4jnsgd1na2vs0mg"},{"bike_id":"28c69188-821e-4d21-b20f-ad352a3cb410","system_id":"levelo_inurba_marseille","lat":43.28646,"lon":5.35102,"is_reserved":false,"is_disabled":false,"rental_uris":{"android":"levelo://app?vid=28c69188-821e-4d21-b20f-ad352a3cb410","ios":"levelo://app?vid=28c69188-821e-4d21-b20f-ad352a3cb410"},"vehicle_type_id":"4","last_reported":1749823812,"current_range_meters":18000,"station_id":"ce4bhch2rcd13ifvqeug","pricing_plan_id":"cebpf4jnsgd1na2vs0mg"},{"bike_id":"b4eaa219-6eb5-4a58-b0c7-04e029cac587","system_id":"levelo_inurba_marseille","lat":43.28612,"lon":5.35108,"is_reserved":false,"is_disabled":false,"rental_uris":{"android":"levelo://app?vid=b4eaa219-6eb5-4a58-b0c7-04e029cac587","ios":"levelo://app?vid=b4eaa219-6eb5-4a58-b0c7-04e029cac587"},"vehicle_type_id":"4","last_reported":1749823812,"current_range_meters":18000,"station_id":"ce4bhch2rcd13ifvqeug","pricing_plan_id":"cebpf4jnsgd1na2vs0mg"},{"bike_id":"007b2594-1e13-4559-aa83-2d7e6530d5c5","system_id":"levelo_inurba_marseille","lat":43.23958,"lon":5.36635,"is_reserved":false,"is_disabled":false,"rental_uris":{"android":"levelo://app?vid=007b2594-1e13-4559-aa83-2d7e6530d5c5","ios":"levelo://app?vid=007b2594-1e13-4559-aa83-2d7e6530d5c5"},"vehicle_type_id":"4","last_reported":1749823812,"current_range_meters":18000,"station_id":"ce4bhi12rcd13ifvqfp0","pricing_plan_id":"cebpf4jnsgd1na2vs0mg"},{"bike_id":"d0e0617d-5016-40ba-b4c5-1a83d3add731","system_id":"levelo_inurba_marseille","lat":43.32371,"lon":5.36767,"is_reserved":false,"is_disabled":false,"rental_uris":{"android":"levelo://app?vid=d0e0617d-5016-40ba-b4c5-1a83d3add731","ios":"levelo://app?vid=d0e0617d-5016-40ba-b4c5-1a83d3add731"},"vehicle_type_id":"4","last_reported":1749823812,"current_range_meters":18000,"station_id":"ce4bhsh2rcd13ifvqi2g","pricing_plan_id":"cebpf4jnsgd1na2vs0mg"},{"bike_id":"6e975c7c-d7e9-432d-b63e-f3432a86b85a","system_id":"levelo_inurba_marseille","lat":43.28404,"lon":5.37514,"is_reserved":false,"is_disabled":false,"rental_uris":{"android":"levelo://app?vid=6e975c7c-d7e9-432d-b63e-f3432a86b85a","ios":"levelo://app?vid=6e975c7c-d7e9-432d-b63e-f3432a86b85a"},"vehicle_type_id":"4","last_reported":1749823812,"current_range_meters":18800,"station_id":"ce4bh412rcd13ifvqds0","pricing_plan_id":"cebpf4jnsgd1na2vs0mg"},{"bike_id":"2120e697-3cde-4d1e-9543-c3d0e5ed3804","system_id":"levelo_inurba_marseille","lat":43.29199,"lon":5.35813,"is_reserved":false,"is_disabled":false,"rental_uris":{"android":"levelo://app?vid=2120e697-3cde-4d1e-9543-c3d0e5ed3804","ios":"levelo://app?vid=2120e697-3cde-4d1e-9543-c3d0e5ed3804"},"vehicle_type_id":"4","last_reported":1749823812,"current_range_meters":18800,"station_id":"ce4bhb12rcd13ifvqel0","pricing_plan_id":"cebpf4jnsgd1na2vs0mg"},{"bike_id":"b6b00f3d-b6dd-4a00-a49a-c700818d248b","system_id":"levelo_inurba_marseille","lat":43.28643,"lon":5.35098,"is_reserved":false,"is_disabled":false,"rental_uris":{"android":"levelo://app?vid=b6b00f3d-b6dd-4a00-a49a-c700818d248b","ios":"levelo://app?vid=b6b00f3d-b6dd-4a00-a49a-c700818d248b"},"vehicle_type_id":"4","last_reported":1749823812,"current_range_meters":18800,"station_id":"ce4bhch2rcd13ifvqeug","pricing_plan_id":"cebpf4jnsgd1na2vs0mg"},{"bike_id":"b7873672-41e8-4f28-aedb-0309ab31b5eb","system_id":"levelo_inurba_marseille","lat":43.262096,"lon":5.374524,"is_reserved":false,"is_disabled":false,"rental_uris":{"android":"levelo://app?vid=b7873672-41e8-4f28-aedb-0309ab31b5eb","ios":"levelo://app?vid=b7873672-41e8-4f28-aedb-0309ab31b5eb"},"vehicle_type_id":"4","last_reported":1749823812,"current_range_meters":18800,"station_id":"ce4bhgp2rcd13ifvqfc0","pricing_plan_id":"cebpf4jnsgd1na2vs0mg"},{"bike_id":"b253d47f-e049-47f5-8c54-6b6b20fa0d7b","system_id":"levelo_inurba_marseille","lat":43.26955,"lon":5.38921,"is_reserved":false,"is_disabled":false,"rental_uris":{"android":"levelo://app?vid=b253d47f-e049-47f5-8c54-6b6b20fa0d7b","ios":"levelo://app?vid=b253d47f-e049-47f5-8c54-6b6b20fa0d7b"},"vehicle_type_id":"4","last_reported":1749823812,"current_range_meters":18800,"station_id":"ce4bhhh2rcd13ifvqfl0","pricing_plan_id":"cebpf4jnsgd1na2vs0mg"},{"bike_id":"ccb9975b-34a8-47da-b755-e17344ae18d3","system_id":"levelo_inurba_marseille","lat":43.23201,"lon":5.35506,"is_reserved":false,"is_disabled":false,"rental_uris":{"android":"levelo://app?vid=ccb9975b-34a8-47da-b755-e17344ae18d3","ios":"levelo://app?vid=ccb9975b-34a8-47da-b755-e17344ae18d3"},"vehicle_type_id":"4","last_reported":1749823812,"current_range_meters":18800,"station_id":"ce4bhu92rcd13ifvqi70","pricing_plan_id":"cebpf4jnsgd1na2vs0mg"},{"bike_id":"14f70c0f-d252-4eee-8f53-1a9a55411c6a","system_id":"levelo_inurba_marseille","lat":43.2293,"lon":5.35378,"is_reserved":false,"is_disabled":false,"rental_uris":{"android":"levelo://app?vid=14f70c0f-d252-4eee-8f53-1a9a55411c6a","ios":"levelo://app?vid=14f70c0f-d252-4eee-8f53-1a9a55411c6a"},"vehicle_type_id":"4","last_reported":1749823812,"current_range_meters":18800,"station_id":"cpo3532slgdg3j2ikp40","pricing_plan_id":"cebpf4jnsgd1na2vs0mg"},{"bike_id":"38801550-04a3-4e56-b4c0-6e717f52d1a3","system_id":"levelo_inurba_marseille","lat":43.2178,"lon":5.34608,"is_reserved":false,"is_disabled":false,"rental_uris":{"android":"levelo://app?vid=38801550-04a3-4e56-b4c0-6e717f52d1a3","ios":"levelo://app?vid=38801550-04a3-4e56-b4c0-6e717f52d1a3"},"vehicle_type_id":"4","last_reported":1749823812,"current_range_meters":18800,"station_id":"st_cvj6r9ubvosntc0bgbag","pricing_plan_id":"cebpf4jnsgd1na2vs0mg"},{"bike_id":"1c4199e0-5bcd-409e-9cf0-35284941d2c5","system_id":"levelo_inurba_marseille","lat":43.2984,"lon":5.36301,"is_reserved":false,"is_disabled":false,"rental_uris":{"android":"levelo://app?vid=1c4199e0-5bcd-409e-9cf0-35284941d2c5","ios":"levelo://app?vid=1c4199e0-5bcd-409e-9cf0-35284941d2c5"},"vehicle_type_id":"4","last_reported":1749823812,"current_range_meters":19200,"station_id":"ce4bgpp2rcd13ifvqc3g","pricing_plan_id":"cebpf4jnsgd1na2vs0mg"},{"bike_id":"a025437d-d905-4581-a812-0c2f72b00469","system_id":"levelo_inurba_marseille","lat":43.3267,"lon":5.40996,"is_reserved":false,"is_disabled":false,"rental_uris":{"android":"levelo://app?vid=a025437d-d905-4581-a812-0c2f72b00469","ios":"levelo://app?vid=a025437d-d905-4581-a812-0c2f72b00469"},"vehicle_type_id":"4","last_reported":1749823812,"current_range_meters":19200,"station_id":"ce4bhpp2rcd13ifvqhgg","pricing_plan_id":"cebpf4jnsgd1na2vs0mg"},{"bike_id":"a89cb948-989f-4863-a75b-e1ca319e412e","system_id":"levelo_inurba_marseille","lat":43.22933,"lon":5.35381,"is_reserved":false,"is_disabled":false,"rental_uris":{"android":"levelo://app?vid=a89cb948-989f-4863-a75b-e1ca319e412e","ios":"levelo://app?vid=a89cb948-989f-4863-a75b-e1ca319e412e"},"vehicle_type_id":"4","last_reported":1749823812,"current_range_meters":19200,"station_id":"cpo3532slgdg3j2ikp40","pricing_plan_id":"cebpf4jnsgd1na2vs0mg"},{"bike_id":"a2ed17d8-ea70-4dd9-896f-ad99fc045207","system_id":"levelo_inurba_marseille","lat":43.217493,"lon":5.346009,"is_reserved":false,"is_disabled":false,"rental_uris":{"android":"levelo://app?vid=a2ed17d8-ea70-4dd9-896f-ad99fc045207","ios":"levelo://app?vid=a2ed17d8-ea70-4dd9-896f-ad99fc045207"},"vehicle_type_id":"4","last_reported":1749823812,"current_range_meters":19200,"station_id":"st_cvj6r9ubvosntc0bgbag","pricing_plan_id":"cebpf4jnsgd1na2vs0mg"},{"bike_id":"dc358d54-cf2d-4fba-8aa2-5d607fa8ec26","system_id":"levelo_inurba_marseille","lat":43.28346,"lon":5.35007,"is_reserved":false,"is_disabled":false,"rental_uris":{"android":"levelo://app?vid=dc358d54-cf2d-4fba-8aa2-5d607fa8ec26","ios":"levelo://app?vid=dc358d54-cf2d-4fba-8aa2-5d607fa8ec26"},"vehicle_type_id":"4","last_reported":1749823812,"current_range_meters":19600,"station_id":"","pricing_plan_id":"cebpf4jnsgd1na2vs0mg"},{"bike_id":"1fc069ee-270e-4d56-bb56-e38e021f19eb","system_id":"levelo_inurba_marseille","lat":43.30887,"lon":5.371927,"is_reserved":false,"is_disabled":false,"rental_uris":{"android":"levelo://app?vid=1fc069ee-270e-4d56-bb56-e38e021f19eb","ios":"levelo://app?vid=1fc069ee-270e-4d56-bb56-e38e021f19eb"},"vehicle_type_id":"4","last_reported":1749823812,"current_range_meters":19600,"station_id":"ce4bguh2rcd13ifvqckg","pricing_plan_id":"cebpf4jnsgd1na2vs0mg"},{"bike_id":"50612579-e524-4865-87d2-e9f48e273f1f","system_id":"levelo_inurba_marseille","lat":43.28483,"lon":5.38415,"is_reserved":false,"is_disabled":false,"rental_uris":{"android":"levelo://app?vid=50612579-e524-4865-87d2-e9f48e273f1f","ios":"levelo://app?vid=50612579-e524-4865-87d2-e9f48e273f1f"},"vehicle_type_id":"4","last_reported":1749823812,"current_range_meters":19600,"station_id":"ce4bh512rcd13ifvqe3g","pricing_plan_id":"cebpf4jnsgd1na2vs0mg"},{"bike_id":"e02e061e-2179-4f7d-8a83-374bc2f73dd9","system_id":"levelo_inurba_marseille","lat":43.291901,"lon":5.358079,"is_reserved":false,"is_disabled":false,"rental_uris":{"android":"levelo://app?vid=e02e061e-2179-4f7d-8a83-374bc2f73dd9","ios":"levelo://app?vid=e02e061e-2179-4f7d-8a83-374bc2f73dd9"},"vehicle_type_id":"4","last_reported":1749823812,"current_range_meters":19600,"station_id":"ce4bhb12rcd13ifvqel0","pricing_plan_id":"cebpf4jnsgd1na2vs0mg"},{"bike_id":"fde5d727-d1b4-4859-8d52-424400ca0ed9","system_id":"levelo_inurba_marseille","lat":43.23192,"lon":5.35557,"is_reserved":false,"is_disabled":false,"rental_uris":{"android":"levelo://app?vid=fde5d727-d1b4-4859-8d52-424400ca0ed9","ios":"levelo://app?vid=fde5d727-d1b4-4859-8d52-424400ca0ed9"},"vehicle_type_id":"4","last_reported":1749823812,"current_range_meters":19600,"station_id":"ce4bhu92rcd13ifvqi70","pricing_plan_id":"cebpf4jnsgd1na2vs0mg"},{"bike_id":"b9eb24d0-62cf-40ae-9ec5-2dd11204861a","system_id":"levelo_inurba_marseille","lat":43.30539,"lon":5.36569,"is_reserved":false,"is_disabled":false,"rental_uris":{"android":"levelo://app?vid=b9eb24d0-62cf-40ae-9ec5-2dd11204861a","ios":"levelo://app?vid=b9eb24d0-62cf-40ae-9ec5-2dd11204861a"},"vehicle_type_id":"4","last_reported":1749823812,"current_range_meters":20000,"station_id":"ce4bgs12rcd13ifvqcag","pricing_plan_id":"cebpf4jnsgd1na2vs0mg"},{"bike_id":"10f66477-76c3-45db-ad71-d4a9c35a2189","system_id":"levelo_inurba_marseille","lat":43.28414,"lon":5.34997,"is_reserved":false,"is_disabled":false,"rental_uris":{"android":"levelo://app?vid=10f66477-76c3-45db-ad71-d4a9c35a2189","ios":"levelo://app?vid=10f66477-76c3-45db-ad71-d4a9c35a2189"},"vehicle_type_id":"4","last_reported":1749823812,"current_range_meters":20000,"station_id":"ce4bhbh2rcd13ifvqepg","pricing_plan_id":"cebpf4jnsgd1na2vs0mg"},{"bike_id":"51204135-fe1e-4ebc-8ed0-332020267afb","system_id":"levelo_inurba_marseille","lat":43.28427,"lon":5.34999,"is_reserved":false,"is_disabled":false,"rental_uris":{"android":"levelo://app?vid=51204135-fe1e-4ebc-8ed0-332020267afb","ios":"levelo://app?vid=51204135-fe1e-4ebc-8ed0-332020267afb"},"vehicle_type_id":"4","last_reported":1749823812,"current_range_meters":20000,"station_id":"ce4bhbh2rcd13ifvqepg","pricing_plan_id":"cebpf4jnsgd1na2vs0mg"},{"bike_id":"c965e18b-fd69-482d-ad33-a36ea65654f6","system_id":"levelo_inurba_marseille","lat":43.26055,"lon":5.39399,"is_reserved":false,"is_disabled":false,"rental_uris":{"android":"levelo://app?vid=c965e18b-fd69-482d-ad33-a36ea65654f6","ios":"levelo://app?vid=c965e18b-fd69-482d-ad33-a36ea65654f6"},"vehicle_type_id":"4","last_reported":1749823812,"current_range_meters":20000,"station_id":"ce4bhh92rcd13ifvqfj0","pricing_plan_id":"cebpf4jnsgd1na2vs0mg"},{"bike_id":"679d881d-2dfe-4ec2-babb-8b09d0832382","system_id":"levelo_inurba_marseille","lat":43.32779,"lon":5.39151,"is_reserved":false,"is_disabled":false,"rental_uris":{"android":"levelo://app?vid=679d881d-2dfe-4ec2-babb-8b09d0832382","ios":"levelo://app?vid=679d881d-2dfe-4ec2-babb-8b09d0832382"},"vehicle_type_id":"4","last_reported":1749823812,"current_range_meters":20400,"station_id":"","pricing_plan_id":"cebpf4jnsgd1na2vs0mg"},{"bike_id":"ee64b713-cc1d-4d4d-97e1-44efb4884fa6","system_id":"levelo_inurba_marseille","lat":43.28623,"lon":5.35105,"is_reserved":false,"is_disabled":false,"rental_uris":{"android":"levelo://app?vid=ee64b713-cc1d-4d4d-97e1-44efb4884fa6","ios":"levelo://app?vid=ee64b713-cc1d-4d4d-97e1-44efb4884fa6"},"vehicle_type_id":"4","last_reported":1749823812,"current_range_meters":20400,"station_id":"ce4bhch2rcd13ifvqeug","pricing_plan_id":"cebpf4jnsgd1na2vs0mg"},{"bike_id":"f89563c0-707f-496c-8949-aa9d8bc90895","system_id":"levelo_inurba_marseille","lat":43.25515,"lon":5.37693,"is_reserved":false,"is_disabled":false,"rental_uris":{"android":"levelo://app?vid=f89563c0-707f-496c-8949-aa9d8bc90895","ios":"levelo://app?vid=f89563c0-707f-496c-8949-aa9d8bc90895"},"vehicle_type_id":"4","last_reported":1749823812,"current_range_meters":20400,"station_id":"ce4bhh12rcd13ifvqff0","pricing_plan_id":"cebpf4jnsgd1na2vs0mg"},{"bike_id":"356562cc-77ef-43be-b075-73ad227e3c05","system_id":"levelo_inurba_marseille","lat":43.27488,"lon":5.42459,"is_reserved":false,"is_disabled":false,"rental_uris":{"android":"levelo://app?vid=356562cc-77ef-43be-b075-73ad227e3c05","ios":"levelo://app?vid=356562cc-77ef-43be-b075-73ad227e3c05"},"vehicle_type_id":"4","last_reported":1749823812,"current_range_meters":20400,"station_id":"ce4bhn92rcd13ifvqgrg","pricing_plan_id":"cebpf4jnsgd1na2vs0mg"},{"bike_id":"94d0b86a-89f4-44d8-a42c-bf582da5a945","system_id":"levelo_inurba_marseille","lat":43.21745,"lon":5.34604,"is_reserved":false,"is_disabled":false,"rental_uris":{"android":"levelo://app?vid=94d0b86a-89f4-44d8-a42c-bf582da5a945","ios":"levelo://app?vid=94d0b86a-89f4-44d8-a42c-bf582da5a945"},"vehicle_type_id":"4","last_reported":1749823812,"current_range_meters":20400,"station_id":"st_cvj6r9ubvosntc0bgbag","pricing_plan_id":"cebpf4jnsgd1na2vs0mg"},{"bike_id":"7240a984-bb6d-4c3b-ab8d-aef55ac0bce8","system_id":"levelo_inurba_marseille","lat":43.21207,"lon":5.35107,"is_reserved":false,"is_disabled":false,"rental_uris":{"android":"levelo://app?vid=7240a984-bb6d-4c3b-ab8d-aef55ac0bce8","ios":"levelo://app?vid=7240a984-bb6d-4c3b-ab8d-aef55ac0bce8"},"vehicle_type_id":"4","last_reported":1749823812,"current_range_meters":20400,"station_id":"st_cvj6sg6p6f1abm77japg","pricing_plan_id":"cebpf4jnsgd1na2vs0mg"},{"bike_id":"c82f75f2-635c-40da-9f67-77d82cb74c97","system_id":"levelo_inurba_marseille","lat":43.2122,"lon":5.35106,"is_reserved":false,"is_disabled":false,"rental_uris":{"android":"levelo://app?vid=c82f75f2-635c-40da-9f67-77d82cb74c97","ios":"levelo://app?vid=c82f75f2-635c-40da-9f67-77d82cb74c97"},"vehicle_type_id":"4","last_reported":1749823812,"current_range_meters":20400,"station_id":"st_cvj6sg6p6f1abm77japg","pricing_plan_id":"cebpf4jnsgd1na2vs0mg"},{"bike_id":"c08a4e60-4de0-497c-b9cd-8ac734283f03","system_id":"levelo_inurba_marseille","lat":43.28035,"lon":5.36961,"is_reserved":false,"is_disabled":false,"rental_uris":{"android":"levelo://app?vid=c08a4e60-4de0-497c-b9cd-8ac734283f03","ios":"levelo://app?vid=c08a4e60-4de0-497c-b9cd-8ac734283f03"},"vehicle_type_id":"4","last_reported":1749823812,"current_range_meters":20800,"station_id":"ce4bha12rcd13ifvqef0","pricing_plan_id":"cebpf4jnsgd1na2vs0mg"},{"bike_id":"d9e5b071-d2b3-4b4d-ab1f-be964c3d4309","system_id":"levelo_inurba_marseille","lat":43.273712,"lon":5.362629,"is_reserved":false,"is_disabled":false,"rental_uris":{"android":"levelo://app?vid=d9e5b071-d2b3-4b4d-ab1f-be964c3d4309","ios":"levelo://app?vid=d9e5b071-d2b3-4b4d-ab1f-be964c3d4309"},"vehicle_type_id":"4","last_reported":1749823812,"current_range_meters":20800,"station_id":"ce4bhbh2rcd13ifvqeo0","pricing_plan_id":"cebpf4jnsgd1na2vs0mg"},{"bike_id":"e7b3ee3c-48ef-4917-8138-4614684b03e1","system_id":"levelo_inurba_marseille","lat":43.28413,"lon":5.34983,"is_reserved":false,"is_disabled":false,"rental_uris":{"android":"levelo://app?vid=e7b3ee3c-48ef-4917-8138-4614684b03e1","ios":"levelo://app?vid=e7b3ee3c-48ef-4917-8138-4614684b03e1"},"vehicle_type_id":"4","last_reported":1749823812,"current_range_meters":20800,"station_id":"ce4bhbh2rcd13ifvqepg","pricing_plan_id":"cebpf4jnsgd1na2vs0mg"},{"bike_id":"b61dedd8-a41e-4d70-bc9e-b1114fd62b91","system_id":"levelo_inurba_marseille","lat":43.26062,"lon":5.39401,"is_reserved":false,"is_disabled":false,"rental_uris":{"android":"levelo://app?vid=b61dedd8-a41e-4d70-bc9e-b1114fd62b91","ios":"levelo://app?vid=b61dedd8-a41e-4d70-bc9e-b1114fd62b91"},"vehicle_type_id":"4","last_reported":1749823812,"current_range_meters":20800,"station_id":"ce4bhh92rcd13ifvqfj0","pricing_plan_id":"cebpf4jnsgd1na2vs0mg"},{"bike_id":"810b6267-0dc6-4cdf-ba87-f72fc9f3bd3c","system_id":"levelo_inurba_marseille","lat":43.21769,"lon":5.34599,"is_reserved":false,"is_disabled":false,"rental_uris":{"android":"levelo://app?vid=810b6267-0dc6-4cdf-ba87-f72fc9f3bd3c","ios":"levelo://app?vid=810b6267-0dc6-4cdf-ba87-f72fc9f3bd3c"},"vehicle_type_id":"4","last_reported":1749823812,"current_range_meters":20800,"station_id":"st_cvj6r9ubvosntc0bgbag","pricing_plan_id":"cebpf4jnsgd1na2vs0mg"},{"bike_id":"f2c9af96-1c1f-4ce9-b7e8-1282fcb6fec2","system_id":"levelo_inurba_marseille","lat":43.24382,"lon":5.41147,"is_reserved":false,"is_disabled":false,"rental_uris":{"android":"levelo://app?vid=f2c9af96-1c1f-4ce9-b7e8-1282fcb6fec2","ios":"levelo://app?vid=f2c9af96-1c1f-4ce9-b7e8-1282fcb6fec2"},"vehicle_type_id":"4","last_reported":1749823812,"current_range_meters":21600,"station_id":"","pricing_plan_id":"cebpf4jnsgd1na2vs0mg"},{"bike_id":"67aeb570-d5d3-4dfd-b2fe-5371cbf739f5","system_id":"levelo_inurba_marseille","lat":43.28426,"lon":5.34978,"is_reserved":false,"is_disabled":false,"rental_uris":{"android":"levelo://app?vid=67aeb570-d5d3-4dfd-b2fe-5371cbf739f5","ios":"levelo://app?vid=67aeb570-d5d3-4dfd-b2fe-5371cbf739f5"},"vehicle_type_id":"4","last_reported":1749823812,"current_range_meters":21600,"station_id":"ce4bhbh2rcd13ifvqepg","pricing_plan_id":"cebpf4jnsgd1na2vs0mg"},{"bike_id":"9145c2a5-8440-4fb2-a044-a388068ff0bc","system_id":"levelo_inurba_marseille","lat":43.28609,"lon":5.35084,"is_reserved":false,"is_disabled":false,"rental_uris":{"android":"levelo://app?vid=9145c2a5-8440-4fb2-a044-a388068ff0bc","ios":"levelo://app?vid=9145c2a5-8440-4fb2-a044-a388068ff0bc"},"vehicle_type_id":"4","last_reported":1749823812,"current_range_meters":21600,"station_id":"ce4bhch2rcd13ifvqeug","pricing_plan_id":"cebpf4jnsgd1na2vs0mg"},{"bike_id":"b331b2ca-ea60-49d9-932d-dd7fbd24db37","system_id":"levelo_inurba_marseille","lat":43.254954,"lon":5.376448,"is_reserved":false,"is_disabled":false,"rental_uris":{"android":"levelo://app?vid=b331b2ca-ea60-49d9-932d-dd7fbd24db37","ios":"levelo://app?vid=b331b2ca-ea60-49d9-932d-dd7fbd24db37"},"vehicle_type_id":"4","last_reported":1749823812,"current_range_meters":21600,"station_id":"ce4bhh12rcd13ifvqff0","pricing_plan_id":"cebpf4jnsgd1na2vs0mg"},{"bike_id":"81c9bff5-64c7-43d7-bc18-e1200922c951","system_id":"levelo_inurba_marseille","lat":43.2678,"lon":5.39415,"is_reserved":false,"is_disabled":false,"rental_uris":{"android":"levelo://app?vid=81c9bff5-64c7-43d7-bc18-e1200922c951","ios":"levelo://app?vid=81c9bff5-64c7-43d7-bc18-e1200922c951"},"vehicle_type_id":"4","last_reported":1749823812,"current_range_meters":21600,"station_id":"ce4bhh12rcd13ifvqfg0","pricing_plan_id":"cebpf4jnsgd1na2vs0mg"},{"bike_id":"e07237e1-21e1-4c8e-89ec-d69e5cd00949","system_id":"levelo_inurba_marseille","lat":43.21752,"lon":5.3461,"is_reserved":false,"is_disabled":false,"rental_uris":{"android":"levelo://app?vid=e07237e1-21e1-4c8e-89ec-d69e5cd00949","ios":"levelo://app?vid=e07237e1-21e1-4c8e-89ec-d69e5cd00949"},"vehicle_type_id":"4","last_reported":1749823812,"current_range_meters":21600,"station_id":"st_cvj6r9ubvosntc0bgbag","pricing_plan_id":"cebpf4jnsgd1na2vs0mg"},{"bike_id":"d81ebef1-def3-4b3b-8a2c-e915262efa10","system_id":"levelo_inurba_marseille","lat":43.32898,"lon":5.39189,"is_reserved":false,"is_disabled":false,"rental_uris":{"android":"levelo://app?vid=d81ebef1-def3-4b3b-8a2c-e915262efa10","ios":"levelo://app?vid=d81ebef1-def3-4b3b-8a2c-e915262efa10"},"vehicle_type_id":"4","last_reported":1749823812,"current_range_meters":22000,"station_id":"","pricing_plan_id":"cebpf4jnsgd1na2vs0mg"},{"bike_id":"7e40749c-56e5-4e19-9d0d-7fb1b6d4cbcc","system_id":"levelo_inurba_marseille","lat":43.292,"lon":5.39333,"is_reserved":false,"is_disabled":false,"rental_uris":{"android":"levelo://app?vid=7e40749c-56e5-4e19-9d0d-7fb1b6d4cbcc","ios":"levelo://app?vid=7e40749c-56e5-4e19-9d0d-7fb1b6d4cbcc"},"vehicle_type_id":"4","last_reported":1749823812,"current_range_meters":22000,"station_id":"ce4bh192rcd13ifvqdd0","pricing_plan_id":"cebpf4jnsgd1na2vs0mg"},{"bike_id":"87d28086-a88f-4261-9b9f-6d2bd6e282f9","system_id":"levelo_inurba_marseille","lat":43.24998,"lon":5.38925,"is_reserved":false,"is_disabled":false,"rental_uris":{"android":"levelo://app?vid=87d28086-a88f-4261-9b9f-6d2bd6e282f9","ios":"levelo://app?vid=87d28086-a88f-4261-9b9f-6d2bd6e282f9"},"vehicle_type_id":"4","last_reported":1749823812,"current_range_meters":22000,"station_id":"ce4bhgp2rcd13ifvqfd0","pricing_plan_id":"cebpf4jnsgd1na2vs0mg"},{"bike_id":"606d7f56-dc0c-44b1-aa4f-4c938cf5c98d","system_id":"levelo_inurba_marseille","lat":43.27054,"lon":5.40271,"is_reserved":false,"is_disabled":false,"rental_uris":{"android":"levelo://app?vid=606d7f56-dc0c-44b1-aa4f-4c938cf5c98d","ios":"levelo://app?vid=606d7f56-dc0c-44b1-aa4f-4c938cf5c98d"},"vehicle_type_id":"4","last_reported":1749823812,"current_range_meters":22000,"station_id":"ce4bhk92rcd13ifvqgc0","pricing_plan_id":"cebpf4jnsgd1na2vs0mg"},{"bike_id":"01da230a-3793-4a05-8f9b-c78e608bb483","system_id":"levelo_inurba_marseille","lat":43.241729,"lon":5.397033,"is_reserved":false,"is_disabled":false,"rental_uris":{"android":"levelo://app?vid=01da230a-3793-4a05-8f9b-c78e608bb483","ios":"levelo://app?vid=01da230a-3793-4a05-8f9b-c78e608bb483"},