{"last_updated":1759241451,"ttl":60,"version":"2.2","data":{"bikes":[{"bike_id":"efd46014-b884-4536-b3b3-96bf1b196cc0","system_id":"levelo_inurba_marseille","lat":43.23149,"lon":5.43719,"is_reserved":false,"is_disabled":false,"rental_uris":{"android":"levelo://app?vid=efd46014-b884-4536-b3b3-96bf1b196cc0","ios":"levelo://app?vid=efd46014-b884-4536-b3b3-96bf1b196cc0"},"vehicle_type_id":"4","last_reported":1759241451,"current_range_meters":2800,"station_id":"ce4bhmp2rcd13ifvqgog","pricing_plan_id":"cebpf4jnsgd1na2vs0mg"},{"bike_id":"be7dae0d-94d7-4a0d-89d8-07c528e32b57","system_id":"levelo_inurba_marseille","lat":43.32589,"lon":5.39071,"is_reserved":false,"is_disabled":false,"rental_uris":{"android":"levelo://app?vid=be7dae0d-94d7-4a0d-89d8-07c528e32b57","ios":"levelo://app?vid=be7dae0d-94d7-4a0d-89d8-07c528e32b57"},"vehicle_type_id":"4","last_reported":1759241451,"current_range_meters":2800,"station_id":"","pricing_plan_id":"cebpf4jnsgd1na2vs0mg"},{"bike_id":"1d43f32d-2ffc-4bc1-b6d6-e6f275b35d67","system_id":"levelo_inurba_marseille","lat":43.2621,"lon":5.37438,"is_reserved":false,"is_disabled":false,"rental_uris":{"android":"levelo://app?vid=1d43f32d-2ffc-4bc1-b6d6-e6f275b35d67","ios":"levelo://app?vid=1d43f32d-2ffc-4bc1-b6d6-e6f275b35d67"},"vehicle_type_id":"4","last_reported":1759241451,"current_range_meters":3200,"station_id":"ce4bhgp2rcd13ifvqfc0","pricing_plan_id":"cebpf4jnsgd1na2vs0mg"},{"bike_id":"eb418ea3-c7ef-4955-98f6-69d9d35f5401","system_id":"levelo_inurba_marseille","lat":43.29604,"lon":5.38099,"is_reserved":false,"is_disabled":false,"rental_uris":{"android":"levelo://app?vid=eb418ea3-c7ef-4955-98f6-69d9d35f5401","ios":"levelo://app?vid=eb418ea3-c7ef-4955-98f6-69d9d35f5401"},"vehicle_type_id":"4","last_reported":1759241451,"current_range_meters":3200,"station_id":"ce4bgl12rcd13ifvqbo0","pricing_plan_id":"cebpf4jnsgd1na2vs0mg"},{"bike_id":"8a4a8404-2223-404b-b9d6-fda388efd3eb","system_id":"levelo_inurba_marseille","lat":43.225399,"lon":5.348524,"is_reserved":false,"is_disabled":false,"rental_uris":{"android":"levelo://app?vid=8a4a8404-2223-404b-b9d6-fda388efd3eb","ios":"levelo://app?vid=8a4a8404-2223-404b-b9d6-fda388efd3eb"},"vehicle_type_id":"4","last_reported":1759241451,"current_range_meters":3200,"station_id":"","pricing_plan_id":"cebpf4jnsgd1na2vs0mg"},{"bike_id":"8563df36-845c-4d2f-b1b0-f9c0f54f4ecf","system_id":"levelo_inurba_marseille","lat":43.28456,"lon":5.35885,"is_reserved":false,"is_disabled":false,"rental_uris":{"android":"levelo://app?vid=8563df36-845c-4d2f-b1b0-f9c0f54f4ecf","ios":"levelo://app?vid=8563df36-845c-4d2f-b1b0-f9c0f54f4ecf"},"vehicle_type_id":"4","last_reported":1759241451,"current_range_meters":3200,"station_id":"ce4bhah2rcd13ifvqei0","pricing_plan_id":"cebpf4jnsgd1na2vs0mg"},{"bike_id":"258ab053-1083-4ca9-a32a-1e85f085fc22","system_id":"levelo_inurba_marseille","lat":43.337444,"lon":5.374475,"is_reserved":false,"is_disabled":false,"rental_uris":{"android":"levelo://app?vid=258ab053-1083-4ca9-a32a-1e85f085fc22","ios":"levelo://app?vid=258ab053-1083-4ca9-a32a-1e85f085fc22"},"vehicle_type_id":"4","last_reported":1759241451,"current_range_meters":3200,"station_id":"","pricing_plan_id":"cebpf4jnsgd1na2vs0mg"},{"bike_id":"aa215aeb-b938-4ba0-abc6-d277dc1b1387","system_id":"levelo_inurba_marseille","lat":43.31356,"lon":5.38492,"is_reserved":false,"is_disabled":false,"rental_uris":{"android":"levelo://app?vid=aa215aeb-b938-4ba0-abc6-d277dc1b1387","ios":"levelo://app?vid=aa215aeb-b938-4ba0-abc6-d277dc1b1387"},"vehicle_type_id":"4","last_reported":1759241451,"current_range_meters":3600,"station_id":"ce4bgt92rcd13ifvqcf0","pricing_plan_id":"cebpf4jnsgd1na2vs0mg"},{"bike_id":"46d6975c-a1b8-4f68-8170-e0d89721c0c7","system_id":"levelo_inurba_marseille","lat":43.286156,"lon":5.351039,"is_reserved":false,"is_disabled":false,"rental_uris":{"android":"levelo://app?vid=46d6975c-a1b8-4f68-8170-e0d89721c0c7","ios":"levelo://app?vid=46d6975c-a1b8-4f68-8170-e0d89721c0c7"},"vehicle_type_id":"4","last_reported":1759241451,"current_range_meters":3600,"station_id":"ce4bhch2rcd13ifvqeug","pricing_plan_id":"cebpf4jnsgd1na2vs0mg"},{"bike_id":"48cdd1d6-8f2e-4a3c-827b-872765dca08c","system_id":"levelo_inurba_marseille","lat":43.28156,"lon":5.42646,"is_reserved":false,"is_disabled":false,"rental_uris":{"android":"levelo://app?vid=48cdd1d6-8f2e-4a3c-827b-872765dca08c","ios":"levelo://app?vid=48cdd1d6-8f2e-4a3c-827b-872765dca08c"},"vehicle_type_id":"4","last_reported":1759241451,"current_range_meters":3600,"station_id":"ce4bhnh2rcd13ifvqgug","pricing_plan_id":"cebpf4jnsgd1na2vs0mg"},{"bike_id":"35fc2e95-592b-4856-a89f-5eb59eddaa6f","system_id":"levelo_inurba_marseille","lat":43.28854,"lon":5.39309,"is_reserved":false,"is_disabled":false,"rental_uris":{"android":"levelo://app?vid=35fc2e95-592b-4856-a89f-5eb59eddaa6f","ios":"levelo://app?vid=35fc2e95-592b-4856-a89f-5eb59eddaa6f"},"vehicle_type_id":"4","last_reported":1759241451,"current_range_meters":3600,"station_id":"ce4bh2p2rcd13ifvqdi0","pricing_plan_id":"cebpf4jnsgd1na2vs0mg"},{"bike_id":"8b353c9e-13c5-42ee-a76f-ccbd6269a3dc","system_id":"levelo_inurba_marseille","lat":43.30444,"lon":5.36689,"is_reserved":false,"is_disabled":false,"rental_uris":{"android":"levelo://app?vid=8b353c9e-13c5-42ee-a76f-ccbd6269a3dc","ios":"levelo://app?vid=8b353c9e-13c5-42ee-a76f-ccbd6269a3dc"},"vehicle_type_id":"4","last_reported":1759241451,"current_range_meters":4000,"station_id":"","pricing_plan_id":"cebpf4jnsgd1na2vs0mg"},{"bike_id":"1d74aeed-ddb0-4497-a418-cd857399764f","system_id":"levelo_inurba_marseille","lat":43.2919,"lon":5.39312,"is_reserved":false,"is_disabled":false,"rental_uris":{"android":"levelo://app?vid=1d74aeed-ddb0-4497-a418-cd857399764f","ios":"levelo://app?vid=1d74aeed-ddb0-4497-a418-cd857399764f"},"vehicle_type_id":"4","last_reported":1759241451,"current_range_meters":4000,"station_id":"ce4bh192rcd13ifvqdd0","pricing_plan_id":"cebpf4jnsgd1na2vs0mg"},{"bike_id":"a599d1b2-b269-4a47-a41b-8fef4d790dea","system_id":"levelo_inurba_marseille","lat":43.29416,"lon":5.43237,"is_reserved":false,"is_disabled":false,"rental_uris":{"android":"levelo://app?vid=a599d1b2-b269-4a47-a41b-8fef4d790dea","ios":"levelo://app?vid=a599d1b2-b269-4a47-a41b-8fef4d790dea"},"vehicle_type_id":"4","last_reported":1759241451,"current_range_meters":4000,"station_id":"","pricing_plan_id":"cebpf4jnsgd1na2vs0mg"},{"bike_id":"e037e1b4-74b4-4528-b789-42e560f6d2d2","system_id":"levelo_inurba_marseille","lat":43.31708,"lon":5.37732,"is_reserved":false,"is_disabled":false,"rental_uris":{"android":"levelo://app?vid=e037e1b4-74b4-4528-b789-42e560f6d2d2","ios":"levelo://app?vid=e037e1b4-74b4-4528-b789-42e560f6d2d2"},"vehicle_type_id":"4","last_reported":1759241451,"current_range_meters":4000,"station_id":"ce4bgth2rcd13ifvqch0","pricing_plan_id":"cebpf4jnsgd1na2vs0mg"},{"bike_id":"1dad2113-89e2-44fc-a0b6-ddd6a09baff1","system_id":"levelo_inurba_marseille","lat":43.337444,"lon":5.374475,"is_reserved":false,"is_disabled":false,"rental_uris":{"android":"levelo://app?vid=1dad2113-89e2-44fc-a0b6-ddd6a09baff1","ios":"levelo://app?vid=1dad2113-89e2-44fc-a0b6-ddd6a09baff1"},"vehicle_type_id":"4","last_reported":1759241451,"current_range_meters":4000,"station_id":"","pricing_plan_id":"cebpf4jnsgd1na2vs0mg"},{"bike_id":"1365b399-d914-4bfe-8bf5-fffe54e50eca","system_id":"levelo_inurba_marseille","lat":43.313602,"lon":5.384889,"is_reserved":false,"is_disabled":false,"rental_uris":{"android":"levelo://app?vid=1365b399-d914-4bfe-8bf5-fffe54e50eca","ios":"levelo://app?vid=1365b399-d914-4bfe-8bf5-fffe54e50eca"},"vehicle_type_id":"4","last_reported":1759241451,"current_range_meters":4000,"station_id":"ce4bgt92rcd13ifvqcf0","pricing_plan_id":"cebpf4jnsgd1na2vs0mg"},{"bike_id":"2c6518be-b3f0-42d2-93c9-c1de9e54885f","system_id":"levelo_inurba_marseille","lat":43.29227,"lon":5.38219,"is_reserved":false,"is_disabled":false,"rental_uris":{"android":"levelo://app?vid=2c6518be-b3f0-42d2-93c9-c1de9e54885f","ios":"levelo://app?vid=2c6518be-b3f0-42d2-93c9-c1de9e54885f"},"vehicle_type_id":"4","last_reported":1759241451,"current_range_meters":4400,"station_id":"","pricing_plan_id":"cebpf4jnsgd1na2vs0mg"},{"bike_id":"82f66c61-f272-4921-a1b4-4f3a26460039","system_id":"levelo_inurba_marseille","lat":43.286336,"lon":5.379651,"is_reserved":false,"is_disabled":false,"rental_uris":{"android":"levelo://app?vid=82f66c61-f272-4921-a1b4-4f3a26460039","ios":"levelo://app?vid=82f66c61-f272-4921-a1b4-4f3a26460039"},"vehicle_type_id":"4","last_reported":1759241451,"current_range_meters":4400,"station_id":"ce4bgj92rcd13ifvqbd0","pricing_plan_id":"cebpf4jnsgd1na2vs0mg"},{"bike_id":"7b88d236-9847-47c0-a315-2f490b417c6f","system_id":"levelo_inurba_marseille","lat":43.324832,"lon":5.365627,"is_reserved":false,"is_disabled":false,"rental_uris":{"android":"levelo://app?vid=7b88d236-9847-47c0-a315-2f490b417c6f","ios":"levelo://app?vid=7b88d236-9847-47c0-a315-2f490b417c6f"},"vehicle_type_id":"4","last_reported":1759241451,"current_range_meters":4800,"station_id":"ce4bhs12rcd13ifvqhvg","pricing_plan_id":"cebpf4jnsgd1na2vs0mg"},{"bike_id":"ca660db5-13a2-4b17-89f6-c4a43f402701","system_id":"levelo_inurba_marseille","lat":43.31837,"lon":5.37063,"is_reserved":false,"is_disabled":false,"rental_uris":{"android":"levelo://app?vid=ca660db5-13a2-4b17-89f6-c4a43f402701","ios":"levelo://app?vid=ca660db5-13a2-4b17-89f6-c4a43f402701"},"vehicle_type_id":"4","last_reported":1759241451,"current_range_meters":4800,"station_id":"","pricing_plan_id":"cebpf4jnsgd1na2vs0mg"},{"bike_id":"f344697f-66a4-494f-a8d5-dcf7a59d7370","system_id":"levelo_inurba_marseille","lat":43.29026,"lon":5.38649,"is_reserved":false,"is_disabled":false,"rental_uris":{"android":"levelo://app?vid=f344697f-66a4-494f-a8d5-dcf7a59d7370","ios":"levelo://app?vid=f344697f-66a4-494f-a8d5-dcf7a59d7370"},"vehicle_type_id":"4","last_reported":1759241451,"current_range_meters":4800,"station_id":"ce4bh4p2rcd13ifvqe0g","pricing_plan_id":"cebpf4jnsgd1na2vs0mg"},{"bike_id":"e4b04b55-dfc8-446d-85b9-a9defa103a6a","system_id":"levelo_inurba_marseille","lat":43.2827,"lon":5.3506,"is_reserved":false,"is_disabled":false,"rental_uris":{"android":"levelo://app?vid=e4b04b55-dfc8-446d-85b9-a9defa103a6a","ios":"levelo://app?vid=e4b04b55-dfc8-446d-85b9-a9defa103a6a"},"vehicle_type_id":"4","last_reported":1759241451,"current_range_meters":4800,"station_id":"ce4bhbp2rcd13ifvqerg","pricing_plan_id":"cebpf4jnsgd1na2vs0mg"},{"bike_id":"5d90def0-df15-411d-8daa-eb34227d3a1b","system_id":"levelo_inurba_marseille","lat":43.25716,"lon":5.41112,"is_reserved":false,"is_disabled":false,"rental_uris":{"android":"levelo://app?vid=5d90def0-df15-411d-8daa-eb34227d3a1b","ios":"levelo://app?vid=5d90def0-df15-411d-8daa-eb34227d3a1b"},"vehicle_type_id":"4","last_reported":1759241451,"current_range_meters":4800,"station_id":"ce4bhkp2rcd13ifvqgd0","pricing_plan_id":"cebpf4jnsgd1na2vs0mg"},{"bike_id":"7568e24b-99b2-4e93-a935-6cbd1894abb5","system_id":"levelo_inurba_marseille","lat":43.28846,"lon":5.3586,"is_reserved":false,"is_disabled":false,"rental_uris":{"android":"levelo://app?vid=7568e24b-99b2-4e93-a935-6cbd1894abb5","ios":"levelo://app?vid=7568e24b-99b2-4e93-a935-6cbd1894abb5"},"vehicle_type_id":"4","last_reported":1759241451,"current_range_meters":5600,"station_id":"ce4bhb12rcd13ifvqem0","pricing_plan_id":"cebpf4jnsgd1na2vs0mg"},{"bike_id":"35e8f722-b82a-4247-beb8-7e2827829ce6","system_id":"levelo_inurba_marseille","lat":43.32405,"lon":5.3911,"is_reserved":false,"is_disabled":false,"rental_uris":{"android":"levelo://app?vid=35e8f722-b82a-4247-beb8-7e2827829ce6","ios":"levelo://app?vid=35e8f722-b82a-4247-beb8-7e2827829ce6"},"vehicle_type_id":"4","last_reported":1759241451,"current_range_meters":5600,"station_id":"","pricing_plan_id":"cebpf4jnsgd1na2vs0mg"},{"bike_id":"72a4a948-e1c0-42ce-a9a4-8365d23fd015","system_id":"levelo_inurba_marseille","lat":43.31708,"lon":5.37733,"is_reserved":false,"is_disabled":false,"rental_uris":{"android":"levelo://app?vid=72a4a948-e1c0-42ce-a9a4-8365d23fd015","ios":"levelo://app?vid=72a4a948-e1c0-42ce-a9a4-8365d23fd015"},"vehicle_type_id":"4","last_reported":1759241451,"current_range_meters":4800,"station_id":"ce4bgth2rcd13ifvqch0","pricing_plan_id":"cebpf4jnsgd1na2vs0mg"},{"bike_id":"e5378695-fba9-432a-9cfb-3b5b05e40fec","system_id":"levelo_inurba_marseille","lat":43.337986,"lon":5.374304,"is_reserved":false,"is_disabled":false,"rental_uris":{"android":"levelo://app?vid=e5378695-fba9-432a-9cfb-3b5b05e40fec","ios":"levelo://app?vid=e5378695-fba9-432a-9cfb-3b5b05e40fec"},"vehicle_type_id":"4","last_reported":1759241451,"current_range_meters":5600,"station_id":"","pricing_plan_id":"cebpf4jnsgd1na2vs0mg"},{"bike_id":"8eba698c-1343-4776-a7ef-1194c9c853da","system_id":"levelo_inurba_marseille","lat":43.26597,"lon":5.39412,"is_reserved":false,"is_disabled":false,"rental_uris":{"android":"levelo://app?vid=8eba698c-1343-4776-a7ef-1194c9c853da","ios":"levelo://app?vid=8eba698c-1343-4776-a7ef-1194c9c853da"},"vehicle_type_id":"4","last_reported":1759241451,"current_range_meters":6000,"station_id":"","pricing_plan_id":"cebpf4jnsgd1na2vs0mg"},{"bike_id":"4e37c9e2-8e82-42a0-b4b0-91abc14d24c2","system_id":"levelo_inurba_marseille","lat":43.30947,"lon":5.39029,"is_reserved":false,"is_disabled":false,"rental_uris":{"android":"levelo://app?vid=4e37c9e2-8e82-42a0-b4b0-91abc14d24c2","ios":"levelo://app?vid=4e37c9e2-8e82-42a0-b4b0-91abc14d24c2"},"vehicle_type_id":"4","last_reported":1759241451,"current_range_meters":6000,"station_id":"ce4bgup2rcd13ifvqco0","pricing_plan_id":"cebpf4jnsgd1na2vs0mg"},{"bike_id":"aae0fff4-79c4-4eff-a901-ce6dfad9d0e7","system_id":"levelo_inurba_marseille","lat":43.28073,"lon":5.38671,"is_reserved":false,"is_disabled":true,"rental_uris":{"android":"levelo://app?vid=aae0fff4-79c4-4eff-a901-ce6dfad9d0e7","ios":"levelo://app?vid=aae0fff4-79c4-4eff-a901-ce6dfad9d0e7"},"vehicle_type_id":"4","last_reported":1759241451,"current_range_meters":6000,"station_id":"","pricing_plan_id":"cebpf4jnsgd1na2vs0mg"},{"bike_id":"cc757e86-91ad-4d91-ba12-cb6dcee4a02a","system_id":"levelo_inurba_marseille","lat":43.24072,"lon":5.37767,"is_reserved":false,"is_disabled":false,"rental_uris":{"android":"levelo://app?vid=cc757e86-91ad-4d91-ba12-cb6dcee4a02a","ios":"levelo://app?vid=cc757e86-91ad-4d91-ba12-cb6dcee4a02a"},"vehicle_type_id":"4","last_reported":1759241451,"current_range_meters":6000,"station_id":"ce4bhnp2rcd13ifvqgvg","pricing_plan_id":"cebpf4jnsgd1na2vs0mg"},{"bike_id":"d80683ae-b1ab-41ba-beee-598809e4c60f","system_id":"levelo_inurba_marseille","lat":43.28856,"lon":5.39311,"is_reserved":false,"is_disabled":false,"rental_uris":{"android":"levelo://app?vid=d80683ae-b1ab-41ba-beee-598809e4c60f","ios":"levelo://app?vid=d80683ae-b1ab-41ba-beee-598809e4c60f"},"vehicle_type_id":"4","last_reported":1759241451,"current_range_meters":6000,"station_id":"ce4bh2p2rcd13ifvqdi0","pricing_plan_id":"cebpf4jnsgd1na2vs0mg"},{"bike_id":"fa8dacc2-e6fa-4a05-80d9-fc90564c7f6a","system_id":"levelo_inurba_marseille","lat":43.28461,"lon":5.35885,"is_reserved":false,"is_disabled":false,"rental_uris":{"android":"levelo://app?vid=fa8dacc2-e6fa-4a05-80d9-fc90564c7f6a","ios":"levelo://app?vid=fa8dacc2-e6fa-4a05-80d9-fc90564c7f6a"},"vehicle_type_id":"4","last_reported":1759241451,"current_range_meters":6000,"station_id":"ce4bhah2rcd13ifvqei0","pricing_plan_id":"cebpf4jnsgd1na2vs0mg"},{"bike_id":"532e238e-ae1e-4051-96c5-50016c95ff15","system_id":"levelo_inurba_marseille","lat":43.28403,"lon":5.34974,"is_reserved":false,"is_disabled":false,"rental_uris":{"android":"levelo://app?vid=532e238e-ae1e-4051-96c5-50016c95ff15","ios":"levelo://app?vid=532e238e-ae1e-4051-96c5-50016c95ff15"},"vehicle_type_id":"4","last_reported":1759241451,"current_range_meters":6400,"station_id":"ce4bhbh2rcd13ifvqepg","pricing_plan_id":"cebpf4jnsgd1na2vs0mg"},{"bike_id":"aa123961-c527-4db0-9350-7d548f67905a","system_id":"levelo_inurba_marseille","lat":43.26381,"lon":5.39697,"is_reserved":false,"is_disabled":false,"rental_uris":{"android":"levelo://app?vid=aa123961-c527-4db0-9350-7d548f67905a","ios":"levelo://app?vid=aa123961-c527-4db0-9350-7d548f67905a"},"vehicle_type_id":"4","last_reported":1759241451,"current_range_meters":6800,"station_id":"","pricing_plan_id":"cebpf4jnsgd1na2vs0mg"},{"bike_id":"ea59b303-6900-42ad-9e79-5b0f95bedd6c","system_id":"levelo_inurba_marseille","lat":43.30448,"lon":5.36878,"is_reserved":false,"is_disabled":false,"rental_uris":{"android":"levelo://app?vid=ea59b303-6900-42ad-9e79-5b0f95bedd6c","ios":"levelo://app?vid=ea59b303-6900-42ad-9e79-5b0f95bedd6c"},"vehicle_type_id":"4","last_reported":1759241451,"current_range_meters":6800,"station_id":"","pricing_plan_id":"cebpf4jnsgd1na2vs0mg"},{"bike_id":"51ce698b-599f-4a3c-9e01-6845615ff28d","system_id":"levelo_inurba_marseille","lat":43.31692,"lon":5.37746,"is_reserved":false,"is_disabled":false,"rental_uris":{"android":"levelo://app?vid=51ce698b-599f-4a3c-9e01-6845615ff28d","ios":"levelo://app?vid=51ce698b-599f-4a3c-9e01-6845615ff28d"},"vehicle_type_id":"4","last_reported":1759241451,"current_range_meters":6800,"station_id":"ce4bgth2rcd13ifvqch0","pricing_plan_id":"cebpf4jnsgd1na2vs0mg"},{"bike_id":"30369c8f-6895-4e24-b2df-5d317aa542ed","system_id":"levelo_inurba_marseille","lat":43.24804,"lon":5.37453,"is_reserved":false,"is_disabled":false,"rental_uris":{"android":"levelo://app?vid=30369c8f-6895-4e24-b2df-5d317aa542ed","ios":"levelo://app?vid=30369c8f-6895-4e24-b2df-5d317aa542ed"},"vehicle_type_id":"4","last_reported":1759241451,"current_range_meters":7200,"station_id":"ce4bhgh2rcd13ifvqfb0","pricing_plan_id":"cebpf4jnsgd1na2vs0mg"},{"bike_id":"29fb0313-96d0-4699-a2b9-d9bfae768dba","system_id":"levelo_inurba_marseille","lat":43.281647,"lon":5.426374,"is_reserved":false,"is_disabled":true,"rental_uris":{"android":"levelo://app?vid=29fb0313-96d0-4699-a2b9-d9bfae768dba","ios":"levelo://app?vid=29fb0313-96d0-4699-a2b9-d9bfae768dba"},"vehicle_type_id":"4","last_reported":1759241451,"current_range_meters":7200,"station_id":"ce4bhnh2rcd13ifvqgug","pricing_plan_id":"cebpf4jnsgd1na2vs0mg"},{"bike_id":"008f00ef-5d91-4678-8543-b2d7f596f40f","system_id":"levelo_inurba_marseille","lat":43.31255,"lon":5.36847,"is_reserved":false,"is_disabled":false,"rental_uris":{"android":"levelo://app?vid=008f00ef-5d91-4678-8543-b2d7f596f40f","ios":"levelo://app?vid=008f00ef-5d91-4678-8543-b2d7f596f40f"},"vehicle_type_id":"4","last_reported":1759241451,"current_range_meters":7200,"station_id":"ce4bgl92rcd13ifvqbq0","pricing_plan_id":"cebpf4jnsgd1na2vs0mg"},{"bike_id":"7952d0c5-c3b4-4c29-bacd-f59ef155894d","system_id":"levelo_inurba_marseille","lat":43.30093,"lon":5.39027,"is_reserved":false,"is_disabled":false,"rental_uris":{"android":"levelo://app?vid=7952d0c5-c3b4-4c29-bacd-f59ef155894d","ios":"levelo://app?vid=7952d0c5-c3b4-4c29-bacd-f59ef155894d"},"vehicle_type_id":"4","last_reported":1759241451,"current_range_meters":7200,"station_id":"ce4bh192rcd13ifvqdb0","pricing_plan_id":"cebpf4jnsgd1na2vs0mg"},{"bike_id":"ee96a502-9b76-492e-840a-498b02aefe72","system_id":"levelo_inurba_marseille","lat":43.32358,"lon":5.39224,"is_reserved":false,"is_disabled":false,"rental_uris":{"android":"levelo://app?vid=ee96a502-9b76-492e-840a-498b02aefe72","ios":"levelo://app?vid=ee96a502-9b76-492e-840a-498b02aefe72"},"vehicle_type_id":"4","last_reported":1759241451,"current_range_meters":7200,"station_id":"","pricing_plan_id":"cebpf4jnsgd1na2vs0mg"},{"bike_id":"44ec3eda-960d-45f5-9553-fecad9e6ffcd","system_id":"levelo_inurba_marseille","lat":43.28617,"lon":5.35105,"is_reserved":false,"is_disabled":false,"rental_uris":{"android":"levelo://app?vid=44ec3eda-960d-45f5-9553-fecad9e6ffcd","ios":"levelo://app?vid=44ec3eda-960d-45f5-9553-fecad9e6ffcd"},"vehicle_type_id":"4","last_reported":1759241451,"current_range_meters":7200,"station_id":"ce4bhch2rcd13ifvqeug","pricing_plan_id":"cebpf4jnsgd1na2vs0mg"},{"bike_id":"e72db6c0-2cd2-4763-a2c0-652764f55897","system_id":"levelo_inurba_marseille","lat":43.29916,"lon":5.37195,"is_reserved":false,"is_disabled":false,"rental_uris":{"android":"levelo://app?vid=e72db6c0-2cd2-4763-a2c0-652764f55897","ios":"levelo://app?vid=e72db6c0-2cd2-4763-a2c0-652764f55897"},"vehicle_type_id":"4","last_reported":1759241451,"current_range_meters":7200,"station_id":"","pricing_plan_id":"cebpf4jnsgd1na2vs0mg"},{"bike_id":"50bb43a1-269f-4a35-bbd1-73c71c72c200","system_id":"levelo_inurba_marseille","lat":43.31711,"lon":5.43709,"is_reserved":false,"is_disabled":false,"rental_uris":{"android":"levelo://app?vid=50bb43a1-269f-4a35-bbd1-73c71c72c200","ios":"levelo://app?vid=50bb43a1-269f-4a35-bbd1-73c71c72c200"},"vehicle_type_id":"4","last_reported":1759241451,"current_range_meters":7200,"station_id":"ce4bhp92rcd13ifvqhcg","pricing_plan_id":"cebpf4jnsgd1na2vs0mg"},{"bike_id":"ce5e157e-4ef2-4c41-9b3b-54d3eecbfa45","system_id":"levelo_inurba_marseille","lat":43.2251,"lon":5.34839,"is_reserved":false,"is_disabled":false,"rental_uris":{"android":"levelo://app?vid=ce5e157e-4ef2-4c41-9b3b-54d3eecbfa45","ios":"levelo://app?vid=ce5e157e-4ef2-4c41-9b3b-54d3eecbfa45"},"vehicle_type_id":"4","last_reported":1759241451,"current_range_meters":7200,"station_id":"","pricing_plan_id":"cebpf4jnsgd1na2vs0mg"},{"bike_id":"a9954192-4802-4f98-b97a-ebe9ab75d705","system_id":"levelo_inurba_marseille","lat":43.34151,"lon":5.40909,"is_reserved":false,"is_disabled":false,"rental_uris":{"android":"levelo://app?vid=a9954192-4802-4f98-b97a-ebe9ab75d705","ios":"levelo://app?vid=a9954192-4802-4f98-b97a-ebe9ab75d705"},"vehicle_type_id":"4","last_reported":1759241451,"current_range_meters":8000,"station_id":"ce4bhqh2rcd13ifvqhlg","pricing_plan_id":"cebpf4jnsgd1na2vs0mg"},{"bike_id":"f6c3d2fb-9f91-4b66-b25d-c58805110c32","system_id":"levelo_inurba_marseille","lat":43.28439,"lon":5.39184,"is_reserved":false,"is_disabled":false,"rental_uris":{"android":"levelo://app?vid=f6c3d2fb-9f91-4b66-b25d-c58805110c32","ios":"levelo://app?vid=f6c3d2fb-9f91-4b66-b25d-c58805110c32"},"vehicle_type_id":"4","last_reported":1759241451,"current_range_meters":8000,"station_id":"ce4bhoh2rcd13ifvqh5g","pricing_plan_id":"cebpf4jnsgd1na2vs0mg"},{"bike_id":"2c30a691-c7db-407f-94db-72462b1c39d0","system_id":"levelo_inurba_marseille","lat":43.30303,"lon":5.36906,"is_reserved":false,"is_disabled":false,"rental_uris":{"android":"levelo://app?vid=2c30a691-c7db-407f-94db-72462b1c39d0","ios":"levelo://app?vid=2c30a691-c7db-407f-94db-72462b1c39d0"},"vehicle_type_id":"4","last_reported":1759241451,"current_range_meters":8000,"station_id":"ce4bgqh2rcd13ifvqc5g","pricing_plan_id":"cebpf4jnsgd1na2vs0mg"},{"bike_id":"29cc97d2-a93b-44d3-b0e5-03c1b1e8cf72","system_id":"levelo_inurba_marseille","lat":43.258654,"lon":5.398951,"is_reserved":false,"is_disabled":false,"rental_uris":{"android":"levelo://app?vid=29cc97d2-a93b-44d3-b0e5-03c1b1e8cf72","ios":"levelo://app?vid=29cc97d2-a93b-44d3-b0e5-03c1b1e8cf72"},"vehicle_type_id":"4","last_reported":1759241451,"current_range_meters":8000,"station_id":"ce4bhl92rcd13ifvqghg","pricing_plan_id":"cebpf4jnsgd1na2vs0mg"},{"bike_id":"5a5f0890-1d3b-4da9-8863-5a0f4e6253ef","system_id":"levelo_inurba_marseille","lat":43.33024,"lon":5.39035,"is_reserved":false,"is_disabled":false,"rental_uris":{"android":"levelo://app?vid=5a5f0890-1d3b-4da9-8863-5a0f4e6253ef","ios":"levelo://app?vid=5a5f0890-1d3b-4da9-8863-5a0f4e6253ef"},"vehicle_type_id":"4","last_reported":1759241451,"current_range_meters":8000,"station_id":"ce4bhr92rcd13ifvqhrg","pricing_plan_id":"cebpf4jnsgd1na2vs0mg"},{"bike_id":"9c4235da-d3d0-4056-aa6b-c6aa6e8e7367","system_id":"levelo_inurba_marseille","lat":43.30674,"lon":5.37522,"is_reserved":false,"is_disabled":false,"rental_uris":{"android":"levelo://app?vid=9c4235da-d3d0-4056-aa6b-c6aa6e8e7367","ios":"levelo://app?vid=9c4235da-d3d0-4056-aa6b-c6aa6e8e7367"},"vehicle_type_id":"4","last_reported":1759241451,"current_range_meters":8000,"station_id":"","pricing_plan_id":"cebpf4jnsgd1na2vs0mg"},{"bike_id":"2e8e4b55-0ca7-4b03-b7cf-6bb39aff6c93","system_id":"levelo_inurba_marseille","lat":43.21748,"lon":5.34599,"is_reserved":false,"is_disabled":false,"rental_uris":{"android":"levelo://app?vid=2e8e4b55-0ca7-4b03-b7cf-6bb39aff6c93","ios":"levelo://app?vid=2e8e4b55-0ca7-4b03-b7cf-6bb39aff6c93"},"vehicle_type_id":"4","last_reported":1759241451,"current_range_meters":8400,"station_id":"st_cvj6r9ubvosntc0bgbag","pricing_plan_id":"cebpf4jnsgd1na2vs0mg"},{"bike_id":"dd5e8987-9f51-4f50-bdd1-4945b8c8a574","system_id":"levelo_inurba_marseille","lat":43.255743,"lon":5.382267,"is_reserved":false,"is_disabled":false,"rental_uris":{"android":"levelo://app?vid=dd5e8987-9f51-4f50-bdd1-4945b8c8a574","ios":"levelo://app?vid=dd5e8987-9f51-4f50-bdd1-4945b8c8a574"},"vehicle_type_id":"4","last_reported":1759241451,"current_range_meters":8400,"station_id":"ce4bhih2rcd13ifvqfs0","pricing_plan_id":"cebpf4jnsgd1na2vs0mg"},{"bike_id":"c9f7c894-4df2-4643-ac68-955fcc67beeb","system_id":"levelo_inurba_marseille","lat":43.27991,"lon":5.41666,"is_reserved":false,"is_disabled":true,"rental_uris":{"android":"levelo://app?vid=c9f7c894-4df2-4643-ac68-955fcc67beeb","ios":"levelo://app?vid=c9f7c894-4df2-4643-ac68-955fcc67beeb"},"vehicle_type_id":"4","last_reported":1759241451,"current_range_meters":8400,"station_id":"ce4bho12rcd13ifvqh1g","pricing_plan_id":"cebpf4jnsgd1na2vs0mg"},{"bike_id":"cfe28005-3bdc-4d60-84df-3d6e3c4a3cc4","system_id":"levelo_inurba_marseille","lat":43.29536,"lon":5.38613,"is_reserved":false,"is_disabled":false,"rental_uris":{"android":"levelo://app?vid=cfe28005-3bdc-4d60-84df-3d6e3c4a3cc4","ios":"levelo://app?vid=cfe28005-3bdc-4d60-84df-3d6e3c4a3cc4"},"vehicle_type_id":"4","last_reported":1759241451,"current_range_meters":8400,"station_id":"ce4bgih2rcd13ifvqba0","pricing_plan_id":"cebpf4jnsgd1na2vs0mg"},{"bike_id":"6734c476-4598-422c-9549-b4dfcd11231a","system_id":"levelo_inurba_marseille","lat":43.29412,"lon":5.4324,"is_reserved":false,"is_disabled":false,"rental_uris":{"android":"levelo://app?vid=6734c476-4598-422c-9549-b4dfcd11231a","ios":"levelo://app?vid=6734c476-4598-422c-9549-b4dfcd11231a"},"vehicle_type_id":"4","last_reported":1759241451,"current_range_meters":8400,"station_id":"","pricing_plan_id":"cebpf4jnsgd1na2vs0mg"},{"bike_id":"9269e5a4-bd2b-46ef-a386-76229cf6c029","system_id":"levelo_inurba_marseille","lat":43.27675,"lon":5.38866,"is_reserved":false,"is_disabled":false,"rental_uris":{"android":"levelo://app?vid=9269e5a4-bd2b-46ef-a386-76229cf6c029","ios":"levelo://app?vid=9269e5a4-bd2b-46ef-a386-76229cf6c029"},"vehicle_type_id":"4","last_reported":1759241451,"current_range_meters":8400,"station_id":"ce4bhi12rcd13ifvqfo0","pricing_plan_id":"cebpf4jnsgd1na2vs0mg"},{"bike_id":"d49d4088-ae73-45e6-850e-3659f3a3d0e1","system_id":"levelo_inurba_marseille","lat":43.21746,"lon":5.34599,"is_reserved":false,"is_disabled":false,"rental_uris":{"android":"levelo://app?vid=d49d4088-ae73-45e6-850e-3659f3a3d0e1","ios":"levelo://app?vid=d49d4088-ae73-45e6-850e-3659f3a3d0e1"},"vehicle_type_id":"4","last_reported":1759241451,"current_range_meters":8400,"station_id":"st_cvj6r9ubvosntc0bgbag","pricing_plan_id":"cebpf4jnsgd1na2vs0mg"},{"bike_id":"d3e63642-d8e1-415a-bd6c-1227573898fc","system_id":"levelo_inurba_marseille","lat":43.31237,"lon":5.36871,"is_reserved":false,"is_disabled":false,"rental_uris":{"android":"levelo://app?vid=d3e63642-d8e1-415a-bd6c-1227573898fc","ios":"levelo://app?vid=d3e63642-d8e1-415a-bd6c-1227573898fc"},"vehicle_type_id":"4","last_reported":1759241451,"current_range_meters":8400,"station_id":"ce4bgl92rcd13ifvqbq0","pricing_plan_id":"cebpf4jnsgd1na2vs0mg"},{"bike_id":"1075a4ed-7b7f-43bd-ac49-ccac6a05e62d","system_id":"levelo_inurba_marseille","lat":43.32358,"lon":5.36757,"is_reserved":false,"is_disabled":false,"rental_uris":{"android":"levelo://app?vid=1075a4ed-7b7f-43bd-ac49-ccac6a05e62d","ios":"levelo://app?vid=1075a4ed-7b7f-43bd-ac49-ccac6a05e62d"},"vehicle_type_id":"4","last_reported":1759241451,"current_range_meters":8400,"station_id":"ce4bhsh2rcd13ifvqi2g","pricing_plan_id":"cebpf4jnsgd1na2vs0mg"},{"bike_id":"f74da0d6-55b4-42b8-81c8-c9a3550343b4","system_id":"levelo_inurba_marseille","lat":43.2963,"lon":5.40597,"is_reserved":false,"is_disabled":false,"rental_uris":{"android":"levelo://app?vid=f74da0d6-55b4-42b8-81c8-c9a3550343b4","ios":"levelo://app?vid=f74da0d6-55b4-42b8-81c8-c9a3550343b4"},"vehicle_type_id":"4","last_reported":1759241451,"current_range_meters":8000,"station_id":"ce4bh0h2rcd13ifvqd60","pricing_plan_id":"cebpf4jnsgd1na2vs0mg"},{"bike_id":"a07a513e-e5a9-4481-8592-d991379bc662","system_id":"levelo_inurba_marseille","lat":43.33735,"lon":5.37481,"is_reserved":false,"is_disabled":false,"rental_uris":{"android":"levelo://app?vid=a07a513e-e5a9-4481-8592-d991379bc662","ios":"levelo://app?vid=a07a513e-e5a9-4481-8592-d991379bc662"},"vehicle_type_id":"4","last_reported":1759241451,"current_range_meters":8400,"station_id":"","pricing_plan_id":"cebpf4jnsgd1na2vs0mg"},{"bike_id":"a2411a4b-e5ef-475f-b05a-622f2fcb8ba4","system_id":"levelo_inurba_marseille","lat":43.315,"lon":5.37333,"is_reserved":false,"is_disabled":false,"rental_uris":{"android":"levelo://app?vid=a2411a4b-e5ef-475f-b05a-622f2fcb8ba4","ios":"levelo://app?vid=a2411a4b-e5ef-475f-b05a-622f2fcb8ba4"},"vehicle_type_id":"4","last_reported":1759241451,"current_range_meters":8800,"station_id":"ce4bgt12rcd13ifvqcd0","pricing_plan_id":"cebpf4jnsgd1na2vs0mg"},{"bike_id":"09645222-f055-49e6-a916-d7c26e8ef9cf","system_id":"levelo_inurba_marseille","lat":43.27622,"lon":5.36112,"is_reserved":false,"is_disabled":false,"rental_uris":{"android":"levelo://app?vid=09645222-f055-49e6-a916-d7c26e8ef9cf","ios":"levelo://app?vid=09645222-f055-49e6-a916-d7c26e8ef9cf"},"vehicle_type_id":"4","last_reported":1759241451,"current_range_meters":8800,"station_id":"ce4bgj92rcd13ifvqbe0","pricing_plan_id":"cebpf4jnsgd1na2vs0mg"},{"bike_id":"3a3e2a83-8c64-4a37-8392-e30a2f3ab0b2","system_id":"levelo_inurba_marseille","lat":43.29801,"lon":5.38085,"is_reserved":false,"is_disabled":false,"rental_uris":{"android":"levelo://app?vid=3a3e2a83-8c64-4a37-8392-e30a2f3ab0b2","ios":"levelo://app?vid=3a3e2a83-8c64-4a37-8392-e30a2f3ab0b2"},"vehicle_type_id":"4","last_reported":1759241451,"current_range_meters":8800,"station_id":"ce4bgip2rcd13ifvqbb0","pricing_plan_id":"cebpf4jnsgd1na2vs0mg"},{"bike_id":"1824d1a5-6abf-47b2-ac81-0e442779e954","system_id":"levelo_inurba_marseille","lat":43.28034,"lon":5.36941,"is_reserved":false,"is_disabled":true,"rental_uris":{"android":"levelo://app?vid=1824d1a5-6abf-47b2-ac81-0e442779e954","ios":"levelo://app?vid=1824d1a5-6abf-47b2-ac81-0e442779e954"},"vehicle_type_id":"4","last_reported":1759241451,"current_range_meters":8800,"station_id":"ce4bha12rcd13ifvqef0","pricing_plan_id":"cebpf4jnsgd1na2vs0mg"},{"bike_id":"c627b34a-8e81-4438-af3b-4fd0aab1c160","system_id":"levelo_inurba_marseille","lat":43.29656,"lon":5.35999,"is_reserved":false,"is_disabled":false,"rental_uris":{"android":"levelo://app?vid=c627b34a-8e81-4438-af3b-4fd0aab1c160","ios":"levelo://app?vid=c627b34a-8e81-4438-af3b-4fd0aab1c160"},"vehicle_type_id":"4","last_reported":1759241451,"current_range_meters":8800,"station_id":"","pricing_plan_id":"cebpf4jnsgd1na2vs0mg"},{"bike_id":"cbf5f2b9-0634-4733-86af-c2447a3d228b","system_id":"levelo_inurba_marseille","lat":43.28268,"lon":5.35058,"is_reserved":false,"is_disabled":false,"rental_uris":{"android":"levelo://app?vid=cbf5f2b9-0634-4733-86af-c2447a3d228b","ios":"levelo://app?vid=cbf5f2b9-0634-4733-86af-c2447a3d228b"},"vehicle_type_id":"4","last_reported":1759241451,"current_range_meters":8800,"station_id":"ce4bhbp2rcd13ifvqerg","pricing_plan_id":"cebpf4jnsgd1na2vs0mg"},{"bike_id":"7f05602f-0975-4bd8-b9c1-b5371e8abbdf","system_id":"levelo_inurba_marseille","lat":43.30315,"lon":5.40446,"is_reserved":false,"is_disabled":false,"rental_uris":{"android":"levelo://app?vid=7f05602f-0975-4bd8-b9c1-b5371e8abbdf","ios":"levelo://app?vid=7f05602f-0975-4bd8-b9c1-b5371e8abbdf"},"vehicle_type_id":"4","last_reported":1759241451,"current_range_meters":8800,"station_id":"ce4bh012rcd13ifvqd10","pricing_plan_id":"cebpf4jnsgd1na2vs0mg"},{"bike_id":"99442e93-a170-435c-b3c7-c027029e4fd3","system_id":"levelo_inurba_marseille","lat":43.22566,"lon":5.41623,"is_reserved":false,"is_disabled":false,"rental_uris":{"android":"levelo://app?vid=99442e93-a170-435c-b3c7-c027029e4fd3","ios":"levelo://app?vid=99442e93-a170-435c-b3c7-c027029e4fd3"},"vehicle_type_id":"4","last_reported":1759241451,"current_range_meters":9200,"station_id":"st_d2o4gvlbi1j2169b742g","pricing_plan_id":"cebpf4jnsgd1na2vs0mg"},{"bike_id":"3a8a9dd9-df7b-412e-9466-be1306cdb76a","system_id":"levelo_inurba_marseille","lat":43.282768,"lon":5.350632,"is_reserved":false,"is_disabled":false,"rental_uris":{"android":"levelo://app?vid=3a8a9dd9-df7b-412e-9466-be1306cdb76a","ios":"levelo://app?vid=3a8a9dd9-df7b-412e-9466-be1306cdb76a"},"vehicle_type_id":"4","last_reported":1759241451,"current_range_meters":9200,"station_id":"ce4bhbp2rcd13ifvqerg","pricing_plan_id":"cebpf4jnsgd1na2vs0mg"},{"bike_id":"fa7b8d5d-cda7-4720-9ca3-21b0406e462a","system_id":"levelo_inurba_marseille","lat":43.295248,"lon":5.37505,"is_reserved":false,"is_disabled":false,"rental_uris":{"android":"levelo://app?vid=fa7b8d5d-cda7-4720-9ca3-21b0406e462a","ios":"levelo://app?vid=fa7b8d5d-cda7-4720-9ca3-21b0406e462a"},"vehicle_type_id":"4","last_reported":1759241451,"current_range_meters":9200,"station_id":"","pricing_plan_id":"cebpf4jnsgd1na2vs0mg"},{"bike_id":"443719ee-4035-461d-80e3-84957335ffe2","system_id":"levelo_inurba_marseille","lat":43.31273,"lon":5.40168,"is_reserved":false,"is_disabled":false,"rental_uris":{"android":"levelo://app?vid=443719ee-4035-461d-80e3-84957335ffe2","ios":"levelo://app?vid=443719ee-4035-461d-80e3-84957335ffe2"},"vehicle_type_id":"4","last_reported":1759241451,"current_range_meters":9200,"station_id":"ce4bh092rcd13ifvqd30","pricing_plan_id":"cebpf4jnsgd1na2vs0mg"},{"bike_id":"a3facd02-86c3-46b8-b551-a66387adb49f","system_id":"levelo_inurba_marseille","lat":43.29619,"lon":5.37164,"is_reserved":false,"is_disabled":false,"rental_uris":{"android":"levelo://app?vid=a3facd02-86c3-46b8-b551-a66387adb49f","ios":"levelo://app?vid=a3facd02-86c3-46b8-b551-a66387adb49f"},"vehicle_type_id":"4","last_reported":1759241451,"current_range_meters":9200,"station_id":"ce4bgnh2rcd13ifvqc0g","pricing_plan_id":"cebpf4jnsgd1na2vs0mg"},{"bike_id":"b3aac7b4-0ed6-4ddc-9d19-ef755d070cd4","system_id":"levelo_inurba_marseille","lat":43.308026,"lon":5.435257,"is_reserved":false,"is_disabled":false,"rental_uris":{"android":"levelo://app?vid=b3aac7b4-0ed6-4ddc-9d19-ef755d070cd4","ios":"levelo://app?vid=b3aac7b4-0ed6-4ddc-9d19-ef755d070cd4"},"vehicle_type_id":"4","last_reported":1759241451,"current_range_meters":9200,"station_id":"ce4bhph2rcd13ifvqheg","pricing_plan_id":"cebpf4jnsgd1na2vs0mg"},{"bike_id":"5849321c-0fba-4923-80b7-d7df381bb2f1","system_id":"levelo_inurba_marseille","lat":43.292297,"lon":5.36076,"is_reserved":false,"is_disabled":false,"rental_uris":{"android":"levelo://app?vid=5849321c-0fba-4923-80b7-d7df381bb2f1","ios":"levelo://app?vid=5849321c-0fba-4923-80b7-d7df381bb2f1"},"vehicle_type_id":"4","last_reported":1759241451,"current_range_meters":9600,"station_id":"","pricing_plan_id":"cebpf4jnsgd1na2vs0mg"},{"bike_id":"385fa573-6758-43e7-a2f4-f27be30ea572","system_id":"levelo_inurba_marseille","lat":43.32117,"lon":5.36772,"is_reserved":false,"is_disabled":false,"rental_uris":{"android":"levelo://app?vid=385fa573-6758-43e7-a2f4-f27be30ea572","ios":"levelo://app?vid=385fa573-6758-43e7-a2f4-f27be30ea572"},"vehicle_type_id":"4","last_reported":1759241451,"current_range_meters":9600,"station_id":"ce4bhrh2rcd13ifvqhug","pricing_plan_id":"cebpf4jnsgd1na2vs0mg"},{"bike_id":"0662e5ec-17b3-4da7-8ffc-903097426f9d","system_id":"levelo_inurba_marseille","lat":43.31712,"lon":5.43703,"is_reserved":false,"is_disabled":false,"rental_uris":{"android":"levelo://app?vid=0662e5ec-17b3-4da7-8ffc-903097426f9d","ios":"levelo://app?vid=0662e5ec-17b3-4da7-8ffc-903097426f9d"},"vehicle_type_id":"4","last_reported":1759241451,"current_range_meters":9600,"station_id":"ce4bhp92rcd13ifvqhcg","pricing_plan_id":"cebpf4jnsgd1na2vs0mg"},{"bike_id":"498de633-1978-409b-aa35-b617d56ba506","system_id":"levelo_inurba_marseille","lat":43.289401,"lon":5.366452,"is_reserved":false,"is_disabled":false,"rental_uris":{"android":"levelo://app?vid=498de633-1978-409b-aa35-b617d56ba506","ios":"levelo://app?vid=498de633-1978-409b-aa35-b617d56ba506"},"vehicle_type_id":"4","last_reported":1759241451,"current_range_meters":9600,"station_id":"ce4bhap2rcd13ifvqek0","pricing_plan_id":"cebpf4jnsgd1na2vs0mg"},{"bike_id":"211afd9f-58b0-436e-9b6b-1acbadc34392","system_id":"levelo_inurba_marseille","lat":43.32358,"lon":5.36767,"is_reserved":false,"is_disabled":false,"rental_uris":{"android":"levelo://app?vid=211afd9f-58b0-436e-9b6b-1acbadc34392","ios":"levelo://app?vid=211afd9f-58b0-436e-9b6b-1acbadc34392"},"vehicle_type_id":"4","last_reported":1759241451,"current_range_meters":9600,"station_id":"ce4bhsh2rcd13ifvqi2g","pricing_plan_id":"cebpf4jnsgd1na2vs0mg"},{"bike_id":"aebf0e68-ba27-412a-9ce2-11cc42127dee","system_id":"levelo_inurba_marseille","lat":43.337444,"lon":5.374475,"is_reserved":false,"is_disabled":false,"rental_uris":{"android":"levelo://app?vid=aebf0e68-ba27-412a-9ce2-11cc42127dee","ios":"levelo://app?vid=aebf0e68-ba27-412a-9ce2-11cc42127dee"},"vehicle_type_id":"4","last_reported":1759241451,"current_range_meters":9600,"station_id":"","pricing_plan_id":"cebpf4jnsgd1na2vs0mg"},{"bike_id":"b133fa03-daa1-4b83-8343-a37755ef3e95","system_id":"levelo_inurba_marseille","lat":43.30783,"lon":5.37654,"is_reserved":false,"is_disabled":false,"rental_uris":{"android":"levelo://app?vid=b133fa03-daa1-4b83-8343-a37755ef3e95","ios":"levelo://app?vid=b133fa03-daa1-4b83-8343-a37755ef3e95"},"vehicle_type_id":"4","last_reported":1759241451,"current_range_meters":10000,"station_id":"ce4bgv92rcd13ifvqcq0","pricing_plan_id":"cebpf4jnsgd1na2vs0mg"},{"bike_id":"4ecfcb24-c2bf-450a-8e97-ad1cf4c47f46","system_id":"levelo_inurba_marseille","lat":43.298695,"lon":5.397227,"is_reserved":false,"is_disabled":false,"rental_uris":{"android":"levelo://app?vid=4ecfcb24-c2bf-450a-8e97-ad1cf4c47f46","ios":"levelo://app?vid=4ecfcb24-c2bf-450a-8e97-ad1cf4c47f46"},"vehicle_type_id":"4","last_reported":1759241451,"current_range_meters":10000,"station_id":"ce4bh0h2rcd13ifvqd50","pricing_plan_id":"cebpf4jnsgd1na2vs0mg"},{"bike_id":"56d6a008-a903-4bd5-8ee3-1cec5d05c634","system_id":"levelo_inurba_marseille","lat":43.31749,"lon":5.39024,"is_reserved":false,"is_disabled":false,"rental_uris":{"android":"levelo://app?vid=56d6a008-a903-4bd5-8ee3-1cec5d05c634","ios":"levelo://app?vid=56d6a008-a903-4bd5-8ee3-1cec5d05c634"},"vehicle_type_id":"4","last_reported":1759241451,"current_range_meters":10000,"station_id":"ce4bhqp2rcd13ifvqhng","pricing_plan_id":"cebpf4jnsgd1na2vs0mg"},{"bike_id":"d1d9aabf-75a5-4e60-9fbe-4acc62770d28","system_id":"levelo_inurba_marseille","lat":43.2885,"lon":5.42505,"is_reserved":false,"is_disabled":false,"rental_uris":{"android":"levelo://app?vid=d1d9aabf-75a5-4e60-9fbe-4acc62770d28","ios":"levelo://app?vid=d1d9aabf-75a5-4e60-9fbe-4acc62770d28"},"vehicle_type_id":"4","last_reported":1759241451,"current_range_meters":10000,"station_id":"st_d3b462108ojc7389ooeg","pricing_plan_id":"cebpf4jnsgd1na2vs0mg"},{"bike_id":"7610f2f6-80b1-424a-a93a-9a46d68a0177","system_id":"levelo_inurba_marseille","lat":43.26936,"lon":5.38923,"is_reserved":false,"is_disabled":false,"rental_uris":{"android":"levelo://app?vid=7610f2f6-80b1-424a-a93a-9a46d68a0177","ios":"levelo://app?vid=7610f2f6-80b1-424a-a93a-9a46d68a0177"},"vehicle_type_id":"4","last_reported":1759241451,"current_range_meters":10000,"station_id":"ce4bhhh2rcd13ifvqfl0","pricing_plan_id":"cebpf4jnsgd1na2vs0mg"},{"bike_id":"400a13d3-2dcc-4b4f-91a1-3b839b24ea7d","system_id":"levelo_inurba_marseille","lat":43.28603,"lon":5.39179,"is_reserved":false,"is_disabled":false,"rental_uris":{"android":"levelo://app?vid=400a13d3-2dcc-4b4f-91a1-3b839b24ea7d","ios":"levelo://app?vid=400a13d3-2dcc-4b4f-91a1-3b839b24ea7d"},"vehicle_type_id":"4","last_reported":1759241451,"current_range_meters":10800,"station_id":"","pricing_plan_id":"cebpf4jnsgd1na2vs0mg"},{"bike_id":"e20659cc-4d0e-4532-9294-d48cb75084d7","system_id":"levelo_inurba_marseille","lat":43.28457,"lon":5.35894,"is_reserved":false,"is_disabled":false,"rental_uris":{"android":"levelo://app?vid=e20659cc-4d0e-4532-9294-d48cb75084d7","ios":"levelo://app?vid=e20659cc-4d0e-4532-9294-d48cb75084d7"},"vehicle_type_id":"4","last_reported":1759241451,"current_range_meters":10800,"station_id":"ce4bhah2rcd13ifvqei0","pricing_plan_id":"cebpf4jnsgd1na2vs0mg"},{"bike_id":"8e4a3cbf-e0ab-488c-8c64-dc98bdb2feb1","system_id":"levelo_inurba_marseille","lat":43.30136,"lon":5.3743,"is_reserved":false,"is_disabled":false,"rental_uris":{"android":"levelo://app?vid=8e4a3cbf-e0ab-488c-8c64-dc98bdb2feb1","ios":"levelo://app?vid=8e4a3cbf-e0ab-488c-8c64-dc98bdb2feb1"},"vehicle_type_id":"4","last_reported":1759241451,"current_range_meters":10800,"station_id":"ce4bgs92rcd13ifvqcc0","pricing_plan_id":"cebpf4jnsgd1na2vs0mg"},{"bike_id":"63633112-c081-4065-acbe-3af4e56b0aec","system_id":"levelo_inurba_marseille","lat":43.3042,"lon":5.412903,"is_reserved":false,"is_disabled":false,"rental_uris":{"android":"levelo://app?vid=63633112-c081-4065-acbe-3af4e56b0aec","ios":"levelo://app?vid=63633112-c081-4065-acbe-3af4e56b0aec"},"vehicle_type_id":"4","last_reported":1759241451,"current_range_meters":10800,"station_id":"ce4bhop2rcd13ifvqh8g","pricing_plan_id":"cebpf4jnsgd1na2vs0mg"},{"bike_id":"f3046d66-0d38-41d1-a87c-a54ec8f5a0e6","system_id":"levelo_inurba_marseille","lat":43.21752,"lon":5.34604,"is_reserved":false,"is_disabled":false,"rental_uris":{"android":"levelo://app?vid=f3046d66-0d38-41d1-a87c-a54ec8f5a0e6","ios":"levelo://app?vid=f3046d66-0d38-41d1-a87c-a54ec8f5a0e6"},"vehicle_type_id":"4","last_reported":1759241451,"current_range_meters":10800,"station_id":"st_cvj6r9ubvosntc0bgbag","pricing_plan_id":"cebpf4jnsgd1na2vs0mg"},{"bike_id":"8cbcf5e7-b804-4925-bbed-5f57e8580ccf","system_id":"levelo_inurba_marseille","lat":43.31519,"lon":5.36803,"is_reserved":false,"is_disabled":false,"rental_uris":{"android":"levelo://app?vid=8cbcf5e7-b804-4925-bbed-5f57e8580ccf","ios":"levelo://app?vid=8cbcf5e7-b804-4925-bbed-5f57e8580ccf"},"vehicle_type_id":"4","last_reported":1759241451,"current_range_meters":10800,"station_id":"","pricing_plan_id":"cebpf4jnsgd1na2vs0mg"},{"bike_id":"901c1d4b-9d6a-4d25-b31d-d2ae10bb3289","system_id":"levelo_inurba_marseille","lat":43.269383,"lon":5.402487,"is_reserved":false,"is_disabled":false,"rental_uris":{"android":"levelo://app?vid=901c1d4b-9d6a-4d25-b31d-d2ae10bb3289","ios":"levelo://app?vid=901c1d4b-9d6a-4d25-b31d-d2ae10bb3289"},"vehicle_type_id":"4","last_reported":1759241451,"current_range_meters":10000,"station_id":"cjm6bp8fraef2m0cb0m0","pricing_plan_id":"cebpf4jnsgd1na2vs0mg"},{"bike_id":"f56fc89b-3991-4048-8193-27cf7b6ee891","system_id":"levelo_inurba_marseille","lat":43.24169,"lon":5.36398,"is_reserved":false,"is_disabled":false,"rental_uris":{"android":"levelo://app?vid=f56fc89b-3991-4048-8193-27cf7b6ee891","ios":"levelo://app?vid=f56fc89b-3991-4048-8193-27cf7b6ee891"},"vehicle_type_id":"4","last_reported":1759241451,"current_range_meters":10800,"station_id":"cpo36qri1sfpv3e86is0","pricing_plan_id":"cebpf4jnsgd1na2vs0mg"},{"bike_id":"4adfd23d-0e14-4a21-a4e0-c7fe8311ee16","system_id":"levelo_inurba_marseille","lat":43.30438,"lon":5.397484,"is_reserved":false,"is_disabled":false,"rental_uris":{"android":"levelo://app?vid=4adfd23d-0e14-4a21-a4e0-c7fe8311ee16","ios":"levelo://app?vid=4adfd23d-0e14-4a21-a4e0-c7fe8311ee16"},"vehicle_type_id":"4","last_reported":1759241451,"current_range_meters":10800,"station_id":"ce4bh092rcd13ifvqd20","pricing_plan_id":"cebpf4jnsgd1na2vs0mg"},{"bike_id":"99ce2063-5dfb-4ed3-a4a6-8fc3a54c4890","system_id":"levelo_inurba_marseille","lat":43.337444,"lon":5.374475,"is_reserved":false,"is_disabled":false,"rental_uris":{"android":"levelo://app?vid=99ce2063-5dfb-4ed3-a4a6-8fc3a54c4890","ios":"levelo://app?vid=99ce2063-5dfb-4ed3-a4a6-8fc3a54c4890"},"vehicle_type_id":"4","last_reported":1759241451,"current_range_meters":10800,"station_id":"","pricing_plan_id":"cebpf4jnsgd1na2vs0mg"},{"bike_id":"5f8245c1-d6d3-4e20-af8e-6d792fdc04ce","system_id":"levelo_inurba_marseille","lat":43.29855,"lon":5.45602,"is_reserved":false,"is_disabled":false,"rental_uris":{"android":"levelo://app?vid=5f8245c1-d6d3-4e20-af8e-6d792fdc04ce","ios":"levelo://app?vid=5f8245c1-d6d3-4e20-af8e-6d792fdc04ce"},"vehicle_type_id":"4","last_reported":1759241451,"current_range_meters":11200,"station_id":"","pricing_plan_id":"cebpf4jnsgd1na2vs0mg"},{"bike_id":"f61f0512-28fc-421a-a9d8-f08182ff7898","system_id":"levelo_inurba_marseille","lat":43.32658,"lon":5.40989,"is_reserved":false,"is_disabled":false,"rental_uris":{"android":"levelo://app?vid=f61f0512-28fc-421a-a9d8-f08182ff7898","ios":"levelo://app?vid=f61f0512-28fc-421a-a9d8-f08182ff7898"},"vehicle_type_id":"4","last_reported":1759241451,"current_range_meters":11200,"station_id":"ce4bhpp2rcd13ifvqhgg","pricing_plan_id":"cebpf4jnsgd1na2vs0mg"},{"bike_id":"96520869-d013-4e0c-a355-f7bbd728ba84","system_id":"levelo_inurba_marseille","lat":43.32369,"lon":5.36742,"is_reserved":false,"is_disabled":false,"rental_uris":{"android":"levelo://app?vid=96520869-d013-4e0c-a355-f7bbd728ba84","ios":"levelo://app?vid=96520869-d013-4e0c-a355-f7bbd728ba84"},"vehicle_type_id":"4","last_reported":1759241451,"current_range_meters":11200,"station_id":"ce4bhsh2rcd13ifvqi2g","pricing_plan_id":"cebpf4jnsgd1na2vs0mg"},{"bike_id":"171eb6c7-bef7-4549-92f0-752da1f5737b","system_id":"levelo_inurba_marseille","lat":43.3417,"lon":5.40914,"is_reserved":false,"is_disabled":false,"rental_uris":{"android":"levelo://app?vid=171eb6c7-bef7-4549-92f0-752da1f5737b","ios":"levelo://app?vid=171eb6c7-bef7-4549-92f0-752da1f5737b"},"vehicle_type_id":"4","last_reported":1759241451,"current_range_meters":11200,"station_id":"ce4bhqh2rcd13ifvqhlg","pricing_plan_id":"cebpf4jnsgd1na2vs0mg"},{"bike_id":"92d05395-7dc9-41cb-954a-64d9ebdbcfbe","system_id":"levelo_inurba_marseille","lat":43.29877,"lon":5.37451,"is_reserved":false,"is_disabled":false,"rental_uris":{"android":"levelo://app?vid=92d05395-7dc9-41cb-954a-64d9ebdbcfbe","ios":"levelo://app?vid=92d05395-7dc9-41cb-954a-64d9ebdbcfbe"},"vehicle_type_id":"4","last_reported":1759241451,"current_range_meters":11200,"station_id":"","pricing_plan_id":"cebpf4jnsgd1na2vs0mg"},{"bike_id":"738a51a6-02d0-4def-8f3f-9c82f6a6dd05","system_id":"levelo_inurba_marseille","lat":43.32339,"lon":5.367,"is_reserved":false,"is_disabled":false,"rental_uris":{"android":"levelo://app?vid=738a51a6-02d0-4def-8f3f-9c82f6a6dd05","ios":"levelo://app?vid=738a51a6-02d0-4def-8f3f-9c82f6a6dd05"},"vehicle_type_id":"4","last_reported":1759241451,"current_range_meters":11200,"station_id":"","pricing_plan_id":"cebpf4jnsgd1na2vs0mg"},{"bike_id":"752e9e6c-104e-400e-b382-2f7ca898d634","system_id":"levelo_inurba_marseille","lat":43.28265,"lon":5.35067,"is_reserved":false,"is_disabled":false,"rental_uris":{"android":"levelo://app?vid=752e9e6c-104e-400e-b382-2f7ca898d634","ios":"levelo://app?vid=752e9e6c-104e-400e-b382-2f7ca898d634"},"vehicle_type_id":"4","last_reported":1759241451,"current_range_meters":11200,"station_id":"ce4bhbp2rcd13ifvqerg","pricing_plan_id":"cebpf4jnsgd1na2vs0mg"},{"bike_id":"92662833-c6ac-4b02-b7df-1638b54b1972","system_id":"levelo_inurba_marseille","lat":43.33742,"lon":5.37449,"is_reserved":false,"is_disabled":false,"rental_uris":{"android":"levelo://app?vid=92662833-c6ac-4b02-b7df-1638b54b1972","ios":"levelo://app?vid=92662833-c6ac-4b02-b7df-1638b54b1972"},"vehicle_type_id":"4","last_reported":1759241451,"current_range_meters":11200,"station_id":"","pricing_plan_id":"cebpf4jnsgd1na2vs0mg"},{"bike_id":"f8d78e5f-60e1-4623-939f-49e76ff16505","system_id":"levelo_inurba_marseille","lat":43.33742,"lon":5.37448,"is_reserved":false,"is_disabled":false,"rental_uris":{"android":"levelo://app?vid=f8d78e5f-60e1-4623-939f-49e76ff16505","ios":"levelo://app?vid=f8d78e5f-60e1-4623-939f-49e76ff16505"},"vehicle_type_id":"4","last_reported":1759241451,"current_range_meters":11200,"station_id":"","pricing_plan_id":"cebpf4jnsgd1na2vs0mg"},{"bike_id":"f6369a8d-337f-4d96-b93b-5fae17fa63fb","system_id":"levelo_inurba_marseille","lat":43.23155,"lon":5.43698,"is_reserved":false,"is_disabled":true,"rental_uris":{"android":"levelo://app?vid=f6369a8d-337f-4d96-b93b-5fae17fa63fb","ios":"levelo://app?vid=f6369a8d-337f-4d96-b93b-5fae17fa63fb"},"vehicle_type_id":"4","last_reported":1759241451,"current_range_meters":11600,"station_id":"ce4bhmp2rcd13ifvqgog","pricing_plan_id":"cebpf4jnsgd1na2vs0mg"},{"bike_id":"cb4b9073-e436-438a-959a-5f5f4b3d56dd","system_id":"levelo_inurba_marseille","lat":43.26684,"lon":5.38273,"is_reserved":false,"is_disabled":false,"rental_uris":{"android":"levelo://app?vid=cb4b9073-e436-438a-959a-5f5f4b3d56dd","ios":"levelo://app?vid=cb4b9073-e436-438a-959a-5f5f4b3d56dd"},"vehicle_type_id":"4","last_reported":1759241451,"current_range_meters":11600,"station_id":"ce4bhg92rcd13ifvqf90","pricing_plan_id":"cebpf4jnsgd1na2vs0mg"},{"bike_id":"84ebcd11-1124-45a8-b548-64f08413c385","system_id":"levelo_inurba_marseille","lat":43.28271,"lon":5.35069,"is_reserved":false,"is_disabled":false,"rental_uris":{"android":"levelo://app?vid=84ebcd11-1124-45a8-b548-64f08413c385","ios":"levelo://app?vid=84ebcd11-1124-45a8-b548-64f08413c385"},"vehicle_type_id":"4","last_reported":1759241451,"current_range_meters":11600,"station_id":"ce4bhbp2rcd13ifvqerg","pricing_plan_id":"cebpf4jnsgd1na2vs0mg"},{"bike_id":"816201c6-fbf8-410f-a768-00925fea36f0","system_id":"levelo_inurba_marseille","lat":43.30312,"lon":5.36897,"is_reserved":false,"is_disabled":false,"rental_uris":{"android":"levelo://app?vid=816201c6-fbf8-410f-a768-00925fea36f0","ios":"levelo://app?vid=816201c6-fbf8-410f-a768-00925fea36f0"},"vehicle_type_id":"4","last_reported":1759241451,"current_range_meters":11200,"station_id":"ce4bgqh2rcd13ifvqc5g","pricing_plan_id":"cebpf4jnsgd1na2vs0mg"},{"bike_id":"f44df0c8-3c0a-4103-982e-900169d96e81","system_id":"levelo_inurba_marseille","lat":43.321187,"lon":5.367627,"is_reserved":false,"is_disabled":false,"rental_uris":{"android":"levelo://app?vid=f44df0c8-3c0a-4103-982e-900169d96e81","ios":"levelo://app?vid=f44df0c8-3c0a-4103-982e-900169d96e81"},"vehicle_type_id":"4","last_reported":1759241451,"current_range_meters":11600,"station_id":"ce4bhrh2rcd13ifvqhug","pricing_plan_id":"cebpf4jnsgd1na2vs0mg"},{"bike_id":"3bbc2ed3-11a3-45e3-9458-39d389642322","system_id":"levelo_inurba_marseille","lat":43.28155,"lon":5.42637,"is_reserved":false,"is_disabled":false,"rental_uris":{"android":"levelo://app?vid=3bbc2ed3-11a3-45e3-9458-39d389642322","ios":"levelo://app?vid=3bbc2ed3-11a3-45e3-9458-39d389642322"},"vehicle_type_id":"4","last_reported":1759241451,"current_range_meters":11600,"station_id":"ce4bhnh2rcd13ifvqgug","pricing_plan_id":"cebpf4jnsgd1na2vs0mg"},{"bike_id":"56ca0258-bee9-4eb2-b3c5-63b5cd0b9e67","system_id":"levelo_inurba_marseille","lat":43.33737,"lon":5.37445,"is_reserved":false,"is_disabled":false,"rental_uris":{"android":"levelo://app?vid=56ca0258-bee9-4eb2-b3c5-63b5cd0b9e67","ios":"levelo://app?vid=56ca0258-bee9-4eb2-b3c5-63b5cd0b9e67"},"vehicle_type_id":"4","last_reported":1759241451,"current_range_meters":11600,"station_id":"","pricing_plan_id":"cebpf4jnsgd1na2vs0mg"},{"bike_id":"11acad3d-b798-4c25-a044-c3c54677d114","system_id":"levelo_inurba_marseille","lat":43.28617,"lon":5.35102,"is_reserved":false,"is_disabled":false,"rental_uris":{"android":"levelo://app?vid=11acad3d-b798-4c25-a044-c3c54677d114","ios":"levelo://app?vid=11acad3d-b798-4c25-a044-c3c54677d114"},"vehicle_type_id":"4","last_reported":1759241451,"current_range_meters":12000,"station_id":"ce4bhch2rcd13ifvqeug","pricing_plan_id":"cebpf4jnsgd1na2vs0mg"},{"bike_id":"40984540-03fa-4ac3-a291-4387510e4217","system_id":"levelo_inurba_marseille","lat":43.275951,"lon":5.360929,"is_reserved":false,"is_disabled":false,"rental_uris":{"android":"levelo://app?vid=40984540-03fa-4ac3-a291-4387510e4217","ios":"levelo://app?vid=40984540-03fa-4ac3-a291-4387510e4217"},"vehicle_type_id":"4","last_reported":1759241451,"current_range_meters":12000,"station_id":"ce4bgj92rcd13ifvqbe0","pricing_plan_id":"cebpf4jnsgd1na2vs0mg"},{"bike_id":"a950f62b-1260-449d-a036-15b5022e4455","system_id":"levelo_inurba_marseille","lat":43.25501,"lon":5.37649,"is_reserved":false,"is_disabled":false,"rental_uris":{"android":"levelo://app?vid=a950f62b-1260-449d-a036-15b5022e4455","ios":"levelo://app?vid=a950f62b-1260-449d-a036-15b5022e4455"},"vehicle_type_id":"4","last_reported":1759241451,"current_range_meters":12000,"station_id":"ce4bhh12rcd13ifvqff0","pricing_plan_id":"cebpf4jnsgd1na2vs0mg"},{"bike_id":"fc403f4f-2827-43d8-b0cd-0a915d34f462","system_id":"levelo_inurba_marseille","lat":43.23184,"lon":5.39977,"is_reserved":false,"is_disabled":false,"rental_uris":{"android":"levelo://app?vid=fc403f4f-2827-43d8-b0cd-0a915d34f462","ios":"levelo://app?vid=fc403f4f-2827-43d8-b0cd-0a915d34f462"},"vehicle_type_id":"4","last_reported":1759241451,"current_range_meters":12000,"station_id":"ce4bhn12rcd13ifvqgqg","pricing_plan_id":"cebpf4jnsgd1na2vs0mg"},{"bike_id":"0aba4fe3-5dca-4d79-8b9d-2fc77d6e7d70","system_id":"levelo_inurba_marseille","lat":43.28418,"lon":5.349815,"is_reserved":false,"is_disabled":false,"rental_uris":{"android":"levelo://app?vid=0aba4fe3-5dca-4d79-8b9d-2fc77d6e7d70","ios":"levelo://app?vid=0aba4fe3-5dca-4d79-8b9d-2fc77d6e7d70"},"vehicle_type_id":"4","last_reported":1759241451,"current_range_meters":12400,"station_id":"","pricing_plan_id":"cebpf4jnsgd1na2vs0mg"},{"bike_id":"8c889c5e-dbff-42f9-9e9a-56a3d0500fe9","system_id":"levelo_inurba_marseille","lat":43.302882,"lon":5.36978,"is_reserved":false,"is_disabled":false,"rental_uris":{"android":"levelo://app?vid=8c889c5e-dbff-42f9-9e9a-56a3d0500fe9","ios":"levelo://app?vid=8c889c5e-dbff-42f9-9e9a-56a3d0500fe9"},"vehicle_type_id":"4","last_reported":1759241451,"current_range_meters":12400,"station_id":"","pricing_plan_id":"cebpf4jnsgd1na2vs0mg"},{"bike_id":"c6675985-04bd-4683-b136-8f7eddb47e95","system_id":"levelo_inurba_marseille","lat":43.29266,"lon":5.3763,"is_reserved":false,"is_disabled":false,"rental_uris":{"android":"levelo://app?vid=c6675985-04bd-4683-b136-8f7eddb47e95","ios":"levelo://app?vid=c6675985-04bd-4683-b136-8f7eddb47e95"},"vehicle_type_id":"4","last_reported":1759241451,"current_range_meters":12400,"station_id":"ce4bgi12rcd13ifvqb80","pricing_plan_id":"cebpf4jnsgd1na2vs0mg"},{"bike_id":"0ef768a8-9cae-4e79-8841-57a2b45ae284","system_id":"levelo_inurba_marseille","lat":43.29523,"lon":5.39034,"is_reserved":false,"is_disabled":false,"rental_uris":{"android":"levelo://app?vid=0ef768a8-9cae-4e79-8841-57a2b45ae284","ios":"levelo://app?vid=0ef768a8-9cae-4e79-8841-57a2b45ae284"},"vehicle_type_id":"4","last_reported":1759241451,"current_range_meters":12400,"station_id":"ce4bh3p2rcd13ifvqdp0","pricing_plan_id":"cebpf4jnsgd1na2vs0mg"},{"bike_id":"d1d4c1e7-8004-447b-a7ab-a2a19cbc2243","system_id":"levelo_inurba_marseille","lat":43.298416,"lon":5.36268,"is_reserved":false,"is_disabled":false,"rental_uris":{"android":"levelo://app?vid=d1d4c1e7-8004-447b-a7ab-a2a19cbc2243","ios":"levelo://app?vid=d1d4c1e7-8004-447b-a7ab-a2a19cbc2243"},"vehicle_type_id":"4","last_reported":1759241451,"current_range_meters":12400,"station_id":"ce4bgpp2rcd13ifvqc3g","pricing_plan_id":"cebpf4jnsgd1na2vs0mg"},{"bike_id":"cba80365-dee8-470c-98bf-9afac3ba940d","system_id":"levelo_inurba_marseille","lat":43.29846,"lon":5.36272,"is_reserved":false,"is_disabled":false,"rental_uris":{"android":"levelo://app?vid=cba80365-dee8-470c-98bf-9afac3ba940d","ios":"levelo://app?vid=cba80365-dee8-470c-98bf-9afac3ba940d"},"vehicle_type_id":"4","last_reported":1759241451,"current_range_meters":12400,"station_id":"ce4bgpp2rcd13ifvqc3g","pricing_plan_id":"cebpf4jnsgd1na2vs0mg"},{"bike_id":"4c40fb83-4f42-4300-9825-6566bc0ea0a6","system_id":"levelo_inurba_marseille","lat":43.23178,"lon":5.39992,"is_reserved":false,"is_disabled":false,"rental_uris":{"android":"levelo://app?vid=4c40fb83-4f42-4300-9825-6566bc0ea0a6","ios":"levelo://app?vid=4c40fb83-4f42-4300-9825-6566bc0ea0a6"},"vehicle_type_id":"4","last_reported":1759241451,"current_range_meters":12000,"station_id":"ce4bhn12rcd13ifvqgqg","pricing_plan_id":"cebpf4jnsgd1na2vs0mg"},{"bike_id":"6f3d6773-464f-4ec6-96b7-5fd121a92bf5","system_id":"levelo_inurba_marseille","lat":43.23149,"lon":5.43714,"is_reserved":false,"is_disabled":false,"rental_uris":{"android":"levelo://app?vid=6f3d6773-464f-4ec6-96b7-5fd121a92bf5","ios":"levelo://app?vid=6f3d6773-464f-4ec6-96b7-5fd121a92bf5"},"vehicle_type_id":"4","last_reported":1759241451,"current_range_meters":12800,"station_id":"ce4bhmp2rcd13ifvqgog","pricing_plan_id":"cebpf4jnsgd1na2vs0mg"},{"bike_id":"c3434172-e5b7-419f-b16f-2ee53a7faacc","system_id":"levelo_inurba_marseille","lat":43.24995,"lon":5.3893,"is_reserved":false,"is_disabled":false,"rental_uris":{"android":"levelo://app?vid=c3434172-e5b7-419f-b16f-2ee53a7faacc","ios":"levelo://app?vid=c3434172-e5b7-419f-b16f-2ee53a7faacc"},"vehicle_type_id":"4","last_reported":1759241451,"current_range_meters":12800,"station_id":"ce4bhgp2rcd13ifvqfd0","pricing_plan_id":"cebpf4jnsgd1na2vs0mg"},{"bike_id":"02e31a2e-e976-447f-9487-a645cf138242","system_id":"levelo_inurba_marseille","lat":43.280011,"lon":5.416649,"is_reserved":false,"is_disabled":false,"rental_uris":{"android":"levelo://app?vid=02e31a2e-e976-447f-9487-a645cf138242","ios":"levelo://app?vid=02e31a2e-e976-447f-9487-a645cf138242"},"vehicle_type_id":"4","last_reported":1759241451,"current_range_meters":12800,"station_id":"","pricing_plan_id":"cebpf4jnsgd1na2vs0mg"},{"bike_id":"d2f46c9e-a53c-42a7-ad54-fd7c896f4565","system_id":"levelo_inurba_marseille","lat":43.33797,"lon":5.37428,"is_reserved":false,"is_disabled":false,"rental_uris":{"android":"levelo://app?vid=d2f46c9e-a53c-42a7-ad54-fd7c896f4565","ios":"levelo://app?vid=d2f46c9e-a53c-42a7-ad54-fd7c896f4565"},"vehicle_type_id":"4","last_reported":1759241451,"current_range_meters":12800,"station_id":"","pricing_plan_id":"cebpf4jnsgd1na2vs0mg"},{"bike_id":"5626d12c-c31b-4678-a559-f7501e6d3dbb","system_id":"levelo_inurba_marseille","lat":43.24068,"lon":5.37756,"is_reserved":false,"is_disabled":false,"rental_uris":{"android":"levelo://app?vid=5626d12c-c31b-4678-a559-f7501e6d3dbb","ios":"levelo://app?vid=5626d12c-c31b-4678-a559-f7501e6d3dbb"},"vehicle_type_id":"4","last_reported":1759241451,"current_range_meters":13600,"station_id":"","pricing_plan_id":"cebpf4jnsgd1na2vs0mg"},{"bike_id":"2ab535df-4c2c-40d8-af4f-189047a67c11","system_id":"levelo_inurba_marseille","lat":43.246404,"lon":5.431476,"is_reserved":false,"is_disabled":false,"rental_uris":{"android":"levelo://app?vid=2ab535df-4c2c-40d8-af4f-189047a67c11","ios":"levelo://app?vid=2ab535df-4c2c-40d8-af4f-189047a67c11"},"vehicle_type_id":"4","last_reported":1759241451,"current_range_meters":13600,"station_id":"st_d2m6c4gdas8pm72e190g","pricing_plan_id":"cebpf4jnsgd1na2vs0mg"},{"bike_id":"d114139c-60d0-4459-ba3b-cac62be00268","system_id":"levelo_inurba_marseille","lat":43.30143,"lon":5.37419,"is_reserved":false,"is_disabled":false,"rental_uris":{"android":"levelo://app?vid=d114139c-60d0-4459-ba3b-cac62be00268","ios":"levelo://app?vid=d114139c-60d0-4459-ba3b-cac62be00268"},"vehicle_type_id":"4","last_reported":1759241451,"current_range_meters":13600,"station_id":"ce4bgs92rcd13ifvqcc0","pricing_plan_id":"cebpf4jnsgd1na2vs0mg"},{"bike_id":"5bcdfc87-d912-419c-8d13-d273ac9e7d8c","system_id":"levelo_inurba_marseille","lat":43.29252,"lon":5.40911,"is_reserved":false,"is_disabled":false,"rental_uris":{"android":"levelo://app?vid=5bcdfc87-d912-419c-8d13-d273ac9e7d8c","ios":"levelo://app?vid=5bcdfc87-d912-419c-8d13-d273ac9e7d8c"},"vehicle_type_id":"4","last_reported":1759241451,"current_range_meters":13600,"station_id":"ce4bh192rcd13ifvqdc0","pricing_plan_id":"cebpf4jnsgd1na2vs0mg"},{"bike_id":"adfbe18b-7ca7-424a-9090-23d85cce22c6","system_id":"levelo_inurba_marseille","lat":43.30045,"lon":5.409279,"is_reserved":false,"is_disabled":false,"rental_uris":{"android":"levelo://app?vid=adfbe18b-7ca7-424a-9090-23d85cce22c6","ios":"levelo://app?vid=adfbe18b-7ca7-424a-9090-23d85cce22c6"},"vehicle_type_id":"4","last_reported":1759241451,"current_range_meters":14000,"station_id":"","pricing_plan_id":"cebpf4jnsgd1na2vs0mg"},{"bike_id":"dc5dbc98-f4fc-4e26-bb34-c5d23ca16d12","system_id":"levelo_inurba_marseille","lat":43.27306,"lon":5.39081,"is_reserved":false,"is_disabled":false,"rental_uris":{"android":"levelo://app?vid=dc5dbc98-f4fc-4e26-bb34-c5d23ca16d12","ios":"levelo://app?vid=dc5dbc98-f4fc-4e26-bb34-c5d23ca16d12"},"vehicle_type_id":"4","last_reported":1759241451,"current_range_meters":14000,"station_id":"ce4bhgp2rcd13ifvqfe0","pricing_plan_id":"cebpf4jnsgd1na2vs0mg"},{"bike_id":"35750caf-9b66-4a89-9f74-7b424527d069","system_id":"levelo_inurba_marseille","lat":43.298553,"lon":5.363157,"is_reserved":false,"is_disabled":false,"rental_uris":{"android":"levelo://app?vid=35750caf-9b66-4a89-9f74-7b424527d069","ios":"levelo://app?vid=35750caf-9b66-4a89-9f74-7b424527d069"},"vehicle_type_id":"4","last_reported":1759241451,"current_range_meters":14000,"station_id":"","pricing_plan_id":"cebpf4jnsgd1na2vs0mg"},{"bike_id":"30cbf9c0-d8c9-49e3-afe2-ea0d70b63a10","system_id":"levelo_inurba_marseille","lat":43.28358,"lon":5.3865,"is_reserved":false,"is_disabled":true,"rental_uris":{"android":"levelo://app?vid=30cbf9c0-d8c9-49e3-afe2-ea0d70b63a10","ios":"levelo://app?vid=30cbf9c0-d8c9-49e3-afe2-ea0d70b63a10"},"vehicle_type_id":"4","last_reported":1759241451,"current_range_meters":14000,"station_id":"ce4bh492rcd13ifvqdvg","pricing_plan_id":"cebpf4jnsgd1na2vs0mg"},{"bike_id":"dbb3ab9c-1548-4285-bc28-e5b1c67bf65e","system_id":"levelo_inurba_marseille","lat":43.28422,"lon":5.34986,"is_reserved":false,"is_disabled":false,"rental_uris":{"android":"levelo://app?vid=dbb3ab9c-1548-4285-bc28-e5b1c67bf65e","ios":"levelo://app?vid=dbb3ab9c-1548-4285-bc28-e5b1c67bf65e"},"vehicle_type_id":"4","last_reported":1759241451,"current_range_meters":14000,"station_id":"ce4bhbh2rcd13ifvqepg","pricing_plan_id":"cebpf4jnsgd1na2vs0mg"},{"bike_id":"01b56f6d-fc22-4ec2-a961-6a664f800b1e","system_id":"levelo_inurba_marseille","lat":43.240733,"lon":5.37737,"is_reserved":false,"is_disabled":false,"rental_uris":{"android":"levelo://app?vid=01b56f6d-fc22-4ec2-a961-6a664f800b1e","ios":"levelo://app?vid=01b56f6d-fc22-4ec2-a961-6a664f800b1e"},"vehicle_type_id":"4","last_reported":1759241451,"current_range_meters":14000,"station_id":"ce4bhnp2rcd13ifvqgvg","pricing_plan_id":"cebpf4jnsgd1na2vs0mg"},{"bike_id":"a8205022-661b-4b9f-b567-3fd2d923e9c8","system_id":"levelo_inurba_marseille","lat":43.32283,"lon":5.38271,"is_reserved":false,"is_disabled":false,"rental_uris":{"android":"levelo://app?vid=a8205022-661b-4b9f-b567-3fd2d923e9c8","ios":"levelo://app?vid=a8205022-661b-4b9f-b567-3fd2d923e9c8"},"vehicle_type_id":"4","last_reported":1759241451,"current_range_meters":14000,"station_id":"ce4bhr12rcd13ifvqhqg","pricing_plan_id":"cebpf4jnsgd1na2vs0mg"},{"bike_id":"e4b830e3-f2e6-46c8-beac-f7d139f50a04","system_id":"levelo_inurba_marseille","lat":43.28272,"lon":5.35065,"is_reserved":false,"is_disabled":false,"rental_uris":{"android":"levelo://app?vid=e4b830e3-f2e6-46c8-beac-f7d139f50a04","ios":"levelo://app?vid=e4b830e3-f2e6-46c8-beac-f7d139f50a04"},"vehicle_type_id":"4","last_reported":1759241451,"current_range_meters":14400,"station_id":"ce4bhbp2rcd13ifvqerg","pricing_plan_id":"cebpf4jnsgd1na2vs0mg"},{"bike_id":"1c37279a-eb90-4a94-9eee-ce2d47c397e2","system_id":"levelo_inurba_marseille","lat":43.28408,"lon":5.34977,"is_reserved":false,"is_disabled":false,"rental_uris":{"android":"levelo://app?vid=1c37279a-eb90-4a94-9eee-ce2d47c397e2","ios":"levelo://app?vid=1c37279a-eb90-4a94-9eee-ce2d47c397e2"},"vehicle_type_id":"4","last_reported":1759241451,"current_range_meters":14400,"station_id":"ce4bhbh2rcd13ifvqepg","pricing_plan_id":"cebpf4jnsgd1na2vs0mg"},{"bike_id":"cdddcc3f-f37e-4ffb-b281-87da1fa4b92c","system_id":"levelo_inurba_marseille","lat":43.30419,"lon":5.41277,"is_reserved":false,"is_disabled":false,"rental_uris":{"android":"levelo://app?vid=cdddcc3f-f37e-4ffb-b281-87da1fa4b92c","ios":"levelo://app?vid=cdddcc3f-f37e-4ffb-b281-87da1fa4b92c"},"vehicle_type_id":"4","last_reported":1759241451,"current_range_meters":14000,"station_id":"ce4bhop2rcd13ifvqh8g","pricing_plan_id":"cebpf4jnsgd1na2vs0mg"},{"bike_id":"51f491ff-3218-4612-8c99-ba94da741ec2","system_id":"levelo_inurba_marseille","lat":43.320282,"lon":5.415752,"is_reserved":false,"is_disabled":false,"rental_uris":{"android":"levelo://app?vid=51f491ff-3218-4612-8c99-ba94da741ec2","ios":"levelo://app?vid=51f491ff-3218-4612-8c99-ba94da741ec2"},"vehicle_type_id":"4","last_reported":1759241451,"current_range_meters":14400,"station_id":"ce4bhq92rcd13ifvqhkg","pricing_plan_id":"cebpf4jnsgd1na2vs0mg"},{"bike_id":"44631c7d-87d1-44be-96c2-2a43e54fa7d0","system_id":"levelo_inurba_marseille","lat":43.26196,"lon":5.37451,"is_reserved":false,"is_disabled":false,"rental_uris":{"android":"levelo://app?vid=44631c7d-87d1-44be-96c2-2a43e54fa7d0","ios":"levelo://app?vid=44631c7d-87d1-44be-96c2-2a43e54fa7d0"},"vehicle_type_id":"4","last_reported":1759241451,"current_range_meters":14400,"station_id":"ce4bhgp2rcd13ifvqfc0","pricing_plan_id":"cebpf4jnsgd1na2vs0mg"},{"bike_id":"9dc17d8d-1491-4161-b163-f3b8761ee256","system_id":"levelo_inurba_marseille","lat":43.24997,"lon":5.38926,"is_reserved":false,"is_disabled":false,"rental_uris":{"android":"levelo://app?vid=9dc17d8d-1491-4161-b163-f3b8761ee256","ios":"levelo://app?vid=9dc17d8d-1491-4161-b163-f3b8761ee256"},"vehicle_type_id":"4","last_reported":1759241451,"current_range_meters":14400,"station_id":"ce4bhgp2rcd13ifvqfd0","pricing_plan_id":"cebpf4jnsgd1na2vs0mg"},{"bike_id":"dec9446c-a40f-4d64-8476-2f4372230baf","system_id":"levelo_inurba_marseille","lat":43.302565,"lon":5.381348,"is_reserved":false,"is_disabled":false,"rental_uris":{"android":"levelo://app?vid=dec9446c-a40f-4d64-8476-2f4372230baf","ios":"levelo://app?vid=dec9446c-a40f-4d64-8476-2f4372230baf"},"vehicle_type_id":"4","last_reported":1759241451,"current_range_meters":14800,"station_id":"","pricing_plan_id":"cebpf4jnsgd1na2vs0mg"},{"bike_id":"1adf72d4-f2e2-443a-bd81-e3e77d2b1f3e","system_id":"levelo_inurba_marseille","lat":43.266783,"lon":5.402324,"is_reserved":false,"is_disabled":false,"rental_uris":{"android":"levelo://app?vid=1adf72d4-f2e2-443a-bd81-e3e77d2b1f3e","ios":"levelo://app?vid=1adf72d4-f2e2-443a-bd81-e3e77d2b1f3e"},"vehicle_type_id":"4","last_reported":1759241451,"current_range_meters":14800,"station_id":"","pricing_plan_id":"cebpf4jnsgd1na2vs0mg"},{"bike_id":"a89583ad-1e3e-49a8-bb62-8a0e502adbf1","system_id":"levelo_inurba_marseille","lat":43.29975,"lon":5.384948,"is_reserved":false,"is_disabled":false,"rental_uris":{"android":"levelo://app?vid=a89583ad-1e3e-49a8-bb62-8a0e502adbf1","ios":"levelo://app?vid=a89583ad-1e3e-49a8-bb62-8a0e502adbf1"},"vehicle_type_id":"4","last_reported":1759241451,"current_range_meters":15200,"station_id":"ce4bgj92rcd13ifvqbd0","pricing_plan_id":"cebpf4jnsgd1na2vs0mg"},{"bike_id":"313885ed-6abb-4611-9b90-45ab382083be","system_id":"levelo_inurba_marseille","lat":43.2928,"lon":5.36849,"is_reserved":false,"is_disabled":false,"rental_uris":{"android":"levelo://app?vid=313885ed-6abb-4611-9b90-45ab382083be","ios":"levelo://app?vid=313885ed-6abb-4611-9b90-45ab382083be"},"vehicle_type_id":"4","last_reported":1759241451,"current_range_meters":15200,"station_id":"ce4bhbp2rcd13ifvqesg","pricing_plan_id":"cebpf4jnsgd1na2vs0mg"},{"bike_id":"f752559e-e357-41d0-b0e1-06afd32411be","system_id":"levelo_inurba_marseille","lat":43.27483,"lon":5.40787,"is_reserved":false,"is_disabled":false,"rental_uris":{"android":"levelo://app?vid=f752559e-e357-41d0-b0e1-06afd32411be","ios":"levelo://app?vid=f752559e-e357-41d0-b0e1-06afd32411be"},"vehicle_type_id":"4","last_reported":1759241451,"current_range_meters":15200,"station_id":"","pricing_plan_id":"cebpf4jnsgd1na2vs0mg"},{"bike_id":"e7b29f05-d767-4f11-889b-8f7abe62cda4","system_id":"levelo_inurba_marseille","lat":43.298028,"lon":5.381145,"is_reserved":false,"is_disabled":false,"rental_uris":{"android":"levelo://app?vid=e7b29f05-d767-4f11-889b-8f7abe62cda4","ios":"levelo://app?vid=e7b29f05-d767-4f11-889b-8f7abe62cda4"},"vehicle_type_id":"4","last_reported":1759241451,"current_range_meters":15200,"station_id":"ce4bgip2rcd13ifvqbb0","pricing_plan_id":"cebpf4jnsgd1na2vs0mg"},{"bike_id":"8d10d425-c2f3-4d49-a701-b93672249e2f","system_id":"levelo_inurba_marseille","lat":43.29801,"lon":5.38106,"is_reserved":false,"is_disabled":false,"rental_uris":{"android":"levelo://app?vid=8d10d425-c2f3-4d49-a701-b93672249e2f","ios":"levelo://app?vid=8d10d425-c2f3-4d49-a701-b93672249e2f"},"vehicle_type_id":"4","last_reported":1759241451,"current_range_meters":15200,"station_id":"ce4bgip2rcd13ifvqbb0","pricing_plan_id":"cebpf4jnsgd1na2vs0mg"},{"bike_id":"17e0140f-dff1-4f70-a503-0dfd92c9aaf4","system_id":"levelo_inurba_marseille","lat":43.27623,"lon":5.36097,"is_reserved":false,"is_disabled":false,"rental_uris":{"android":"levelo://app?vid=17e0140f-dff1-4f70-a503-0dfd92c9aaf4","ios":"levelo://app?vid=17e0140f-dff1-4f70-a503-0dfd92c9aaf4"},"vehicle_type_id":"4","last_reported":1759241451,"current_range_meters":14800,"station_id":"ce4bgj92rcd13ifvqbe0","pricing_plan_id":"cebpf4jnsgd1na2vs0mg"},{"bike_id":"627f0009-c086-4f8a-8406-c08f3975bb85","system_id":"levelo_inurba_marseille","lat":43.337914,"lon":5.374267,"is_reserved":false,"is_disabled":false,"rental_uris":{"android":"levelo://app?vid=627f0009-c086-4f8a-8406-c08f3975bb85","ios":"levelo://app?vid=627f0009-c086-4f8a-8406-c08f3975bb85"},"vehicle_type_id":"4","last_reported":1759241451,"current_range_meters":15200,"station_id":"","pricing_plan_id":"cebpf4jnsgd1na2vs0mg"},{"bike_id":"a850760d-f890-4818-860e-321d70e97b11","system_id":"levelo_inurba_marseille","lat":43.32364,"lon":5.36759,"is_reserved":false,"is_disabled":false,"rental_uris":{"android":"levelo://app?vid=a850760d-f890-4818-860e-321d70e97b11","ios":"levelo://app?vid=a850760d-f890-4818-860e-321d70e97b11"},"vehicle_type_id":"4","last_reported":1759241451,"current_range_meters":16000,"station_id":"ce4bhsh2rcd13ifvqi2g","pricing_plan_id":"cebpf4jnsgd1na2vs0mg"},{"bike_id":"6bbf58ce-a6bb-4f83-a184-41994dbf9a2f","system_id":"levelo_inurba_marseille","lat":43.25487,"lon":5.37646,"is_reserved":false,"is_disabled":false,"rental_uris":{"android":"levelo://app?vid=6bbf58ce-a6bb-4f83-a184-41994dbf9a2f","ios":"levelo://app?vid=6bbf58ce-a6bb-4f83-a184-41994dbf9a2f"},"vehicle_type_id":"4","last_reported":1759241451,"current_range_meters":16000,"station_id":"ce4bhh12rcd13ifvqff0","pricing_plan_id":"cebpf4jnsgd1na2vs0mg"},{"bike_id":"9259d079-29af-4c38-99e0-f25e4d514b98","system_id":"levelo_inurba_marseille","lat":43.28431,"lon":5.34986,"is_reserved":false,"is_disabled":false,"rental_uris":{"android":"levelo://app?vid=9259d079-29af-4c38-99e0-f25e4d514b98","ios":"levelo://app?vid=9259d079-29af-4c38-99e0-f25e4d514b98"},"vehicle_type_id":"4","last_reported":1759241451,"current_range_meters":16000,"station_id":"ce4bhbh2rcd13ifvqepg","pricing_plan_id":"cebpf4jnsgd1na2vs0mg"},{"bike_id":"6a80563a-33ef-46e3-b795-c0e1254bcc18","system_id":"levelo_inurba_marseille","lat":43.241795,"lon":5.397371,"is_reserved":false,"is_disabled":false,"rental_uris":{"android":"levelo://app?vid=6a80563a-33ef-46e3-b795-c0e1254bcc18","ios":"levelo://app?vid=6a80563a-33ef-46e3-b795-c0e1254bcc18"},"vehicle_type_id":"4","last_reported":1759241451,"current_range_meters":16000,"station_id":"ce4bhn12rcd13ifvqgpg","pricing_plan_id":"cebpf4jnsgd1na2vs0mg"},{"bike_id":"096fa98c-973a-4925-aa44-c7b36acaadc0","system_id":"levelo_inurba_marseille","lat":43.2318,"lon":5.39991,"is_reserved":false,"is_disabled":false,"rental_uris":{"android":"levelo://app?vid=096fa98c-973a-4925-aa44-c7b36acaadc0","ios":"levelo://app?vid=096fa98c-973a-4925-aa44-c7b36acaadc0"},"vehicle_type_id":"4","last_reported":1759241451,"current_range_meters":16000,"station_id":"ce4bhn12rcd13ifvqgqg","pricing_plan_id":"cebpf4jnsgd1na2vs0mg"},{"bike_id":"8529f32e-2b7c-4b03-9b67-3802b1b158ab","system_id":"levelo_inurba_marseille","lat":43.313536,"lon":5.36705,"is_reserved":false,"is_disabled":false,"rental_uris":{"android":"levelo://app?vid=8529f32e-2b7c-4b03-9b67-3802b1b158ab","ios":"levelo://app?vid=8529f32e-2b7c-4b03-9b67-3802b1b158ab"},"vehicle_type_id":"4","last_reported":1759241451,"current_range_meters":16000,"station_id":"ce4bgr92rcd13ifvqc6g","pricing_plan_id":"cebpf4jnsgd1na2vs0mg"},{"bike_id":"66a0e74e-7f56-4e4d-a1d9-b433b748f53b","system_id":"levelo_inurba_marseille","lat":43.28283,"lon":5.35065,"is_reserved":false,"is_disabled":false,"rental_uris":{"android":"levelo://app?vid=66a0e74e-7f56-4e4d-a1d9-b433b748f53b","ios":"levelo://app?vid=66a0e74e-7f56-4e4d-a1d9-b433b748f53b"},"vehicle_type_id":"4","last_reported":1759241451,"current_range_meters":16000,"station_id":"ce4bhbp2rcd13ifvqerg","pricing_plan_id":"cebpf4jnsgd1na2vs0mg"},{"bike_id":"85877f30-b8d6-4ddc-b6f6-0fa6647c818a","system_id":"levelo_inurba_marseille","lat":43.26778,"lon":5.39419,"is_reserved":false,"is_disabled":false,"rental_uris":{"android":"levelo://app?vid=85877f30-b8d6-4ddc-b6f6-0fa6647c818a","ios":"levelo://app?vid=85877f30-b8d6-4ddc-b6f6-0fa6647c818a"},"vehicle_type_id":"4","last_reported":1759241451,"current_range_meters":16400,"station_id":"ce4bhh12rcd13ifvqfg0","pricing_plan_id":"cebpf4jnsgd1na2vs0mg"},{"bike_id":"fa3e6782-c198-4993-bfc8-ba4949faaf19","system_id":"levelo_inurba_marseille","lat":43.21195,"lon":5.35064,"is_reserved":false,"is_disabled":true,"rental_uris":{"android":"levelo://app?vid=fa3e6782-c198-4993-bfc8-ba4949faaf19","ios":"levelo://app?vid=fa3e6782-c198-4993-bfc8-ba4949faaf19"},"vehicle_type_id":"4","last_reported":1759241451,"current_range_meters":16400,"station_id":"","pricing_plan_id":"cebpf4jnsgd1na2vs0mg"},{"bike_id":"365480bc-c570-4b8e-a786-d0753041664b","system_id":"levelo_inurba_marseille","lat":43.32289,"lon":5.3826,"is_reserved":false,"is_disabled":false,"rental_uris":{"android":"levelo://app?vid=365480bc-c570-4b8e-a786-d0753041664b","ios":"levelo://app?vid=365480bc-c570-4b8e-a786-d0753041664b"},"vehicle_type_id":"4","last_reported":1759241451,"current_range_meters":16400,"station_id":"ce4bhr12rcd13ifvqhqg","pricing_plan_id":"cebpf4jnsgd1na2vs0mg"},{"bike_id":"8aa0252b-bfe1-4791-bcb2-47bc0726c293","system_id":"levelo_inurba_marseille","lat":43.233413,"lon":5.439374,"is_reserved":false,"is_disabled":false,"rental_uris":{"android":"levelo://app?vid=8aa0252b-bfe1-4791-bcb2-47bc0726c293","ios":"levelo://app?vid=8aa0252b-bfe1-4791-bcb2-47bc0726c293"},"vehicle_type_id":"4","last_reported":1759241451,"current_range_meters":16400,"station_id":"","pricing_plan_id":"cebpf4jnsgd1na2vs0mg"},{"bike_id":"5542081e-f1a4-4459-994a-d2e453dbb8bc","system_id":"levelo_inurba_marseille","lat":43.24081,"lon":5.37755,"is_reserved":false,"is_disabled":false,"rental_uris":{"android":"levelo://app?vid=5542081e-f1a4-4459-994a-d2e453dbb8bc","ios":"levelo://app?vid=5542081e-f1a4-4459-994a-d2e453dbb8bc"},"vehicle_type_id":"4","last_reported":1759241451,"current_range_meters":16400,"station_id":"ce4bhnp2rcd13ifvqgvg","pricing_plan_id":"cebpf4jnsgd1na2vs0mg"},{"bike_id":"ee94eda5-f40b-4168-a57a-bf8989940e9c","system_id":"levelo_inurba_marseille","lat":43.32461,"lon":5.36608,"is_reserved":false,"is_disabled":false,"rental_uris":{"android":"levelo://app?vid=ee94eda5-f40b-4168-a57a-bf8989940e9c","ios":"levelo://app?vid=ee94eda5-f40b-4168-a57a-bf8989940e9c"},"vehicle_type_id":"4","last_reported":1759241451,"current_range_meters":16400,"station_id":"ce4bhs12rcd13ifvqhvg","pricing_plan_id":"cebpf4jnsgd1na2vs0mg"},{"bike_id":"617dca4b-4508-4d52-9e62-d583d919ac44","system_id":"levelo_inurba_marseille","lat":43.29748,"lon":5.37119,"is_reserved":false,"is_disabled":false,"rental_uris":{"android":"levelo://app?vid=617dca4b-4508-4d52-9e62-d583d919ac44","ios":"levelo://app?vid=617dca4b-4508-4d52-9e62-d583d919ac44"},"vehicle_type_id":"4","last_reported":1759241451,"current_range_meters":16400,"station_id":"ce4bgop2rcd13ifvqc1g","pricing_plan_id":"cebpf4jnsgd1na2vs0mg"},{"bike_id":"96989374-612f-4d3b-9955-b4d13e07474a","system_id":"levelo_inurba_marseille","lat":43.24168,"lon":5.36396,"is_reserved":false,"is_disabled":false,"rental_uris":{"android":"levelo://app?vid=96989374-612f-4d3b-9955-b4d13e07474a","ios":"levelo://app?vid=96989374-612f-4d3b-9955-b4d13e07474a"},"vehicle_type_id":"4","last_reported":1759241451,"current_range_meters":16400,"station_id":"cpo36qri1sfpv3e86is0","pricing_plan_id":"cebpf4jnsgd1na2vs0mg"},{"bike_id":"77afb33c-fed5-4e3b-8be2-8e9c84b75f06","system_id":"levelo_inurba_marseille","lat":43.29868,"lon":5.3973,"is_reserved":false,"is_disabled":false,"rental_uris":{"android":"levelo://app?vid=77afb33c-fed5-4e3b-8be2-8e9c84b75f06","ios":"levelo://app?vid=77afb33c-fed5-4e3b-8be2-8e9c84b75f06"},"vehicle_type_id":"4","last_reported":1759241451,"current_range_meters":16400,"station_id":"ce4bh0h2rcd13ifvqd50","pricing_plan_id":"cebpf4jnsgd1na2vs0mg"},{"bike_id":"d88e0d03-a71d-4d69-bfe0-f7906e10eef6","system_id":"levelo_inurba_marseille","lat":43.22906,"lon":5.35379,"is_reserved":false,"is_disabled":false,"rental_uris":{"android":"levelo://app?vid=d88e0d03-a71d-4d69-bfe0-f7906e10eef6","ios":"levelo://app?vid=d88e0d03-a71d-4d69-bfe0-f7906e10eef6"},"vehicle_type_id":"4","last_reported":1759241451,"current_range_meters":16400,"station_id":"cpo3532slgdg3j2ikp40","pricing_plan_id":"cebpf4jnsgd1na2vs0mg"},{"bike_id":"db0d3370-dcdf-4190-949f-104331db7416","system_id":"levelo_inurba_marseille","lat":43.28607,"lon":5.37064,"is_reserved":false,"is_disabled":false,"rental_uris":{"android":"levelo://app?vid=db0d3370-dcdf-4190-949f-104331db7416","ios":"levelo://app?vid=db0d3370-dcdf-4190-949f-104331db7416"},"vehicle_type_id":"4","last_reported":1759241451,"current_range_meters":16400,"station_id":"ce4bht12rcd13ifvqi60","pricing_plan_id":"cebpf4jnsgd1na2vs0mg"},{"bike_id":"5b7c598b-f845-4454-8d12-85625404b56d","system_id":"levelo_inurba_marseille","lat":43.28261,"lon":5.35064,"is_reserved":false,"is_disabled":false,"rental_uris":{"android":"levelo://app?vid=5b7c598b-f845-4454-8d12-85625404b56d","ios":"levelo://app?vid=5b7c598b-f845-4454-8d12-85625404b56d"},"vehicle_type_id":"4","last_reported":1759241451,"current_range_meters":16400,"station_id":"ce4bhbp2rcd13ifvqerg","pricing_plan_id":"cebpf4jnsgd1na2vs0mg"},{"bike_id":"50a6d9be-879d-4d99-9855-abb98fbce5b8","system_id":"levelo_inurba_marseille","lat":43.337851,"lon":5.374298,"is_reserved":false,"is_disabled":false,"rental_uris":{"android":"levelo://app?vid=50a6d9be-879d-4d99-9855-abb98fbce5b8","ios":"levelo://app?vid=50a6d9be-879d-4d99-9855-abb98fbce5b8"},"vehicle_type_id":"4","last_reported":1759241451,"current_range_meters":16400,"station_id":"","pricing_plan_id":"cebpf4jnsgd1na2vs0mg"},{"bike_id":"f60ba75b-6a93-4a07-93b3-f3a1c0458fe0","system_id":"levelo_inurba_marseille","lat":43.30144,"lon":5.38773,"is_reserved":false,"is_disabled":false,"rental_uris":{"android":"levelo://app?vid=f60ba75b-6a93-4a07-93b3-f3a1c0458fe0","ios":"levelo://app?vid=f60ba75b-6a93-4a07-93b3-f3a1c0458fe0"},"vehicle_type_id":"4","last_reported":1759241451,"current_range_meters":16800,"station_id":"ce4bghh2rcd13ifvqb60","pricing_plan_id":"cebpf4jnsgd1na2vs0mg"},{"bike_id":"f389964a-c6b6-4af1-95ba-d2e996bf344e","system_id":"levelo_inurba_marseille","lat":43.28414,"lon":5.34979,"is_reserved":false,"is_disabled":false,"rental_uris":{"android":"levelo://app?vid=f389964a-c6b6-4af1-95ba-d2e996bf344e","ios":"levelo://app?vid=f389964a-c6b6-4af1-95ba-d2e996bf344e"},"vehicle_type_id":"4","last_reported":1759241451,"current_range_meters":16800,"station_id":"ce4bhbh2rcd13ifvqepg","pricing_plan_id":"cebpf4jnsgd1na2vs0mg"},{"bike_id":"87a2ef25-659a-4ad2-baa9-ec626fba8ea6","system_id":"levelo_inurba_marseille","lat":43.32031,"lon":5.41504,"is_reserved":false,"is_disabled":false,"rental_uris":{"android":"levelo://app?vid=87a2ef25-659a-4ad2-baa9-ec626fba8ea6","ios":"levelo://app?vid=87a2ef25-659a-4ad2-baa9-ec626fba8ea6"},"vehicle_type_id":"4","last_reported":1759241451,"current_range_meters":16800,"station_id":"ce4bhq92rcd13ifvqhkg","pricing_plan_id":"cebpf4jnsgd1na2vs0mg"},{"bike_id":"64b25e14-4e01-4810-94ac-2ca7b90cf2f7","system_id":"levelo_inurba_marseille","lat":43.28411,"lon":5.34991,"is_reserved":false,"is_disabled":false,"rental_uris":{"android":"levelo://app?vid=64b25e14-4e01-4810-94ac-2ca7b90cf2f7","ios":"levelo://app?vid=64b25e14-4e01-4810-94ac-2ca7b90cf2f7"},"vehicle_type_id":"4","last_reported":1759241451,"current_range_meters":16800,"station_id":"ce4bhbh2rcd13ifvqepg","pricing_plan_id":"cebpf4jnsgd1na2vs0mg"},{"bike_id":"94b4a201-5b9b-42ef-90cd-56c4ea0d80e7","system_id":"levelo_inurba_marseille","lat":43.32537,"lon":5.4142,"is_reserved":false,"is_disabled":false,"rental_uris":{"android":"levelo://app?vid=94b4a201-5b9b-42ef-90cd-56c4ea0d80e7","ios":"levelo://app?vid=94b4a201-5b9b-42ef-90cd-56c4ea0d80e7"},"vehicle_type_id":"4","last_reported":1759241451,"current_range_meters":16800,"station_id":"ce4bhq12rcd13ifvqhhg","pricing_plan_id":"cebpf4jnsgd1na2vs0mg"},{"bike_id":"a58a4c94-7754-46be-b35a-a0b84fc468a5","system_id":"levelo_inurba_marseille","lat":43.29988,"lon":5.37341,"is_reserved":false,"is_disabled":false,"rental_uris":{"android":"levelo://app?vid=a58a4c94-7754-46be-b35a-a0b84fc468a5","ios":"levelo://app?vid=a58a4c94-7754-46be-b35a-a0b84fc468a5"},"vehicle_type_id":"4","last_reported":1759241451,"current_range_meters":16800,"station_id":"","pricing_plan_id":"cebpf4jnsgd1na2vs0mg"},{"bike_id":"6c2e96f0-0d94-4ada-b75d-f16e4d9045a7","system_id":"levelo_inurba_marseille","lat":43.23967,"lon":5.36629,"is_reserved":false,"is_disabled":false,"rental_uris":{"android":"levelo://app?vid=6c2e96f0-0d94-4ada-b75d-f16e4d9045a7","ios":"levelo://app?vid=6c2e96f0-0d94-4ada-b75d-f16e4d9045a7"},"vehicle_type_id":"4","last_reported":1759241451,"current_range_meters":16800,"station_id":"ce4bhi12rcd13ifvqfp0","pricing_plan_id":"cebpf4jnsgd1na2vs0mg"},{"bike_id":"15510eb5-9352-4543-afbe-dbb0e293d815","system_id":"levelo_inurba_marseille","lat":43.30315,"lon":5.369,"is_reserved":false,"is_disabled":false,"rental_uris":{"android":"levelo://app?vid=15510eb5-9352-4543-afbe-dbb0e293d815","ios":"levelo://app?vid=15510eb5-9352-4543-afbe-dbb0e293d815"},"vehicle_type_id":"4","last_reported":1759241451,"current_range_meters":16800,"station_id":"ce4bgqh2rcd13ifvqc5g","pricing_plan_id":"cebpf4jnsgd1na2vs0mg"},{"bike_id":"81f1164a-9e3e-4808-98ae-4bdf82d878d1","system_id":"levelo_inurba_marseille","lat":43.28441,"lon":5.39206,"is_reserved":false,"is_disabled":false,"rental_uris":{"android":"levelo://app?vid=81f1164a-9e3e-4808-98ae-4bdf82d878d1","ios":"levelo://app?vid=81f1164a-9e3e-4808-98ae-4bdf82d878d1"},"vehicle_type_id":"4","last_reported":1759241451,"current_range_meters":16800,"station_id":"ce4bhoh2rcd13ifvqh5g","pricing_plan_id":"cebpf4jnsgd1na2vs0mg"},{"bike_id":"392eeab0-4417-4ea2-8f31-701ca26eb22a","system_id":"levelo_inurba_marseille","lat":43.295287,"lon":5.390312,"is_reserved":false,"is_disabled":false,"rental_uris":{"android":"levelo://app?vid=392eeab0-4417-4ea2-8f31-701ca26eb22a","ios":"levelo://app?vid=392eeab0-4417-4ea2-8f31-701ca26eb22a"},"vehicle_type_id":"4","last_reported":1759241451,"current_range_meters":16800,"station_id":"ce4bh3p2rcd13ifvqdp0","pricing_plan_id":"cebpf4jnsgd1na2vs0mg"},{"bike_id":"70a531a4-cab1-4ade-8fdd-903d1fdaf5a1","system_id":"levelo_inurba_marseille","lat":43.29964,"lon":5.3849,"is_reserved":false,"is_disabled":false,"rental_uris":{"android":"levelo://app?vid=70a531a4-cab1-4ade-8fdd-903d1fdaf5a1","ios":"levelo://app?vid=70a531a4-cab1-4ade-8fdd-903d1fdaf5a1"},"vehicle_type_id":"4","last_reported":1759241451,"current_range_meters":16800,"station_id":"ce4bgj92rcd13ifvqbd0","pricing_plan_id":"cebpf4jnsgd1na2vs0mg"},{"bike_id":"0e22ced9-197b-4339-bd33-e5a8f131c1c2","system_id":"levelo_inurba_marseille","lat":43.23185,"lon":5.35534,"is_reserved":false,"is_disabled":false,"rental_uris":{"android":"levelo://app?vid=0e22ced9-197b-4339-bd33-e5a8f131c1c2","ios":"levelo://app?vid=0e22ced9-197b-4339-bd33-e5a8f131c1c2"},"vehicle_type_id":"4","last_reported":1759241451,"current_range_meters":16800,"station_id":"ce4bhu92rcd13ifvqi70","pricing_plan_id":"cebpf4jnsgd1na2vs0mg"},{"bike_id":"426de97d-2019-4f4d-877a-315760e1fccb","system_id":"levelo_inurba_marseille","lat":43.301389,"lon":5.387723,"is_reserved":false,"is_disabled":false,"rental_uris":{"android":"levelo://app?vid=426de97d-2019-4f4d-877a-315760e1fccb","ios":"levelo://app?vid=426de97d-2019-4f4d-877a-315760e1fccb"},"vehicle_type_id":"4","last_reported":1759241451,"current_range_meters":16800,"station_id":"ce4bghh2rcd13ifvqb60","pricing_plan_id":"cebpf4jnsgd1na2vs0mg"},{"bike_id":"99fca88f-4d69-4c0c-af12-65f76f1bda78","system_id":"levelo_inurba_marseille","lat":43.29845,"lon":5.36275,"is_reserved":false,"is_disabled":false,"rental_uris":{"android":"levelo://app?vid=99fca88f-4d69-4c0c-af12-65f76f1bda78","ios":"levelo://app?vid=99fca88f-4d69-4c0c-af12-65f76f1bda78"},"vehicle_type_id":"4","last_reported":1759241451,"current_range_meters":16800,"station_id":"ce4bgpp2rcd13ifvqc3g","pricing_plan_id":"cebpf4jnsgd1na2vs0mg"},{"bike_id":"a9efa52c-4657-4cc0-bfc5-747a278bfca4","system_id":"levelo_inurba_marseille","lat":43.32532,"lon":5.41458,"is_reserved":false,"is_disabled":false,"rental_uris":{"android":"levelo://app?vid=a9efa52c-4657-4cc0-bfc5-747a278bfca4","ios":"levelo://app?vid=a9efa52c-4657-4cc0-bfc5-747a278bfca4"},"vehicle_type_id":"4","last_reported":1759241451,"current_range_meters":16800,"station_id":"ce4bhq12rcd13ifvqhhg","pricing_plan_id":"cebpf4jnsgd1na2vs0mg"},{"bike_id":"60f19490-a45a-4e9a-ab91-7c76b559841a","system_id":"levelo_inurba_marseille","lat":43.26564,"lon":5.40326,"is_reserved":false,"is_disabled":false,"rental_uris":{"android":"levelo://app?vid=60f19490-a45a-4e9a-ab91-7c76b559841a","ios":"levelo://app?vid=60f19490-a45a-4e9a-ab91-7c76b559841a"},"vehicle_type_id":"4","last_reported":1759241451,"current_range_meters":16800,"station_id":"ce4bhmp2rcd13ifvqgng","pricing_plan_id":"cebpf4jnsgd1na2vs0mg"},{"bike_id":"3f8a7425-65dd-467a-bda8-36ede2e6a269","system_id":"levelo_inurba_marseille","lat":43.269344,"lon":5.410209,"is_reserved":false,"is_disabled":false,"rental_uris":{"android":"levelo://app?vid=3f8a7425-65dd-467a-bda8-36ede2e6a269","ios":"levelo://app?vid=3f8a7425-65dd-467a-bda8-36ede2e6a269"},"vehicle_type_id":"4","last_reported":1759241451,"current_range_meters":17200,"station_id":"","pricing_plan_id":"cebpf4jnsgd1na2vs0mg"},{"bike_id":"6e35eb3a-244d-446e-ba2c-c58465f51251","system_id":"levelo_inurba_marseille","lat":43.321066,"lon":5.367791,"is_reserved":false,"is_disabled":false,"rental_uris":{"android":"levelo://app?vid=6e35eb3a-244d-446e-ba2c-c58465f51251","ios":"levelo://app?vid=6e35eb3a-244d-446e-ba2c-c58465f51251"},"vehicle_type_id":"4","last_reported":1759241451,"current_range_meters":17200,"station_id":"ce4bhrh2rcd13ifvqhug","pricing_plan_id":"cebpf4jnsgd1na2vs0mg"},{"bike_id":"284a0a39-8634-4794-8ee9-f93dbb66a72f","system_id":"levelo_inurba_marseille","lat":43.28277,"lon":5.35067,"is_reserved":false,"is_disabled":false,"rental_uris":{"android":"levelo://app?vid=284a0a39-8634-4794-8ee9-f93dbb66a72f","ios":"levelo://app?vid=284a0a39-8634-4794-8ee9-f93dbb66a72f"},"vehicle_type_id":"4","last_reported":1759241451,"current_range_meters":17200,"station_id":"ce4bhbp2rcd13ifvqerg","pricing_plan_id":"cebpf4jnsgd1na2vs0mg"},{"bike_id":"2410b542-4dbb-4ba2-8de7-3b722fc9a69f","system_id":"levelo_inurba_marseille","lat":43.28467,"lon":5.35887,"is_reserved":false,"is_disabled":true,"rental_uris":{"android":"levelo://app?vid=2410b542-4dbb-4ba2-8de7-3b722fc9a69f","ios":"levelo://app?vid=2410b542-4dbb-4ba2-8de7-3b722fc9a69f"},"vehicle_type_id":"4","last_reported":1759241451,"current_range_meters":17200,"station_id":"ce4bhah2rcd13ifvqei0","pricing_plan_id":"cebpf4jnsgd1na2vs0mg"},{"bike_id":"554426a0-1a6b-4d05-86bd-05dda4224304","system_id":"levelo_inurba_marseille","lat":43.28039,"lon":5.36949,"is_reserved":false,"is_disabled":false,"rental_uris":{"android":"levelo://app?vid=554426a0-1a6b-4d05-86bd-05dda4224304","ios":"levelo://app?vid=554426a0-1a6b-4d05-86bd-05dda4224304"},"vehicle_type_id":"4","last_reported":1759241451,"current_range_meters":16800,"station_id":"ce4bha12rcd13ifvqef0","pricing_plan_id":"cebpf4jnsgd1na2vs0mg"},{"bike_id":"84708907-4ff3-4bc3-a7b9-c61902524e9b","system_id":"levelo_inurba_marseille","lat":43.28413,"lon":5.3498,"is_reserved":false,"is_disabled":false,"rental_uris":{"android":"levelo://app?vid=84708907-4ff3-4bc3-a7b9-c61902524e9b","ios":"levelo://app?vid=84708907-4ff3-4bc3-a7b9-c61902524e9b"},"vehicle_type_id":"4","last_reported":1759241451,"current_range_meters":17200,"station_id":"ce4bhbh2rcd13ifvqepg","pricing_plan_id":"cebpf4jnsgd1na2vs0mg"},{"bike_id":"db3a202b-6514-4a53-892d-e953fc1e9d26","system_id":"levelo_inurba_marseille","lat":43.225369,"lon":5.348573,"is_reserved":false,"is_disabled":false,"rental_uris":{"android":"levelo://app?vid=db3a202b-6514-4a53-892d-e953fc1e9d26","ios":"levelo://app?vid=db3a202b-6514-4a53-892d-e953fc1e9d26"},"vehicle_type_id":"4","last_reported":1759241451,"current_range_meters":17200,"station_id":"","pricing_plan_id":"cebpf4jnsgd1na2vs0mg"},{"bike_id":"aa44d07e-6268-4b5c-80fb-bdf5232877a1","system_id":"levelo_inurba_marseille","lat":43.28419,"lon":5.34992,"is_reserved":false,"is_disabled":false,"rental_uris":{"android":"levelo://app?vid=aa44d07e-6268-4b5c-80fb-bdf5232877a1","ios":"levelo://app?vid=aa44d07e-6268-4b5c-80fb-bdf5232877a1"},"vehicle_type_id":"4","last_reported":1759241451,"current_range_meters":17200,"station_id":"ce4bhbh2rcd13ifvqepg","pricing_plan_id":"cebpf4jnsgd1na2vs0mg"},{"bike_id":"123e055a-692b-459b-9c4f-970a83ad75be","system_id":"levelo_inurba_marseille","lat":43.32364,"lon":5.36758,"is_reserved":false,"is_disabled":true,"rental_uris":{"android":"levelo://app?vid=123e055a-692b-459b-9c4f-970a83ad75be","ios":"levelo://app?vid=123e055a-692b-459b-9c4f-970a83ad75be"},"vehicle_type_id":"4","last_reported":1759241451,"current_range_meters":17200,"station_id":"ce4bhsh2rcd13ifvqi2g","pricing_plan_id":"cebpf4jnsgd1na2vs0mg"},{"bike_id":"947f9f70-3953-40d7-9617-60a96275cdf5","system_id":"levelo_inurba_marseille","lat":43.28859,"lon":5.42513,"is_reserved":false,"is_disabled":false,"rental_uris":{"android":"levelo://app?vid=947f9f70-3953-40d7-9617-60a96275cdf5","ios":"levelo://app?vid=947f9f70-3953-40d7-9617-60a96275cdf5"},"vehicle_type_id":"4","last_reported":1759241451,"current_range_meters":17600,"station_id":"st_d3b462108ojc7389ooeg","pricing_plan_id":"cebpf4jnsgd1na2vs0mg"},{"bike_id":"f1e98c97-f3fd-4a6e-9fe2-f8343d7dfc5b","system_id":"levelo_inurba_marseille","lat":43.31224,"lon":5.36852,"is_reserved":false,"is_disabled":false,"rental_uris":{"android":"levelo://app?vid=f1e98c97-f3fd-4a6e-9fe2-f8343d7dfc5b","ios":"levelo://app?vid=f1e98c97-f3fd-4a6e-9fe2-f8343d7dfc5b"},"vehicle_type_id":"4","last_reported":1759241451,"current_range_meters":17600,"station_id":"ce4bgl92rcd13ifvqbq0","pricing_plan_id":"cebpf4jnsgd1na2vs0mg"},{"bike_id":"73e22ed6-f150-4bd5-a7c9-af939e7a8ce9","system_id":"levelo_inurba_marseille","lat":43.290507,"lon":5.419421,"is_reserved":false,"is_disabled":false,"rental_uris":{"android":"levelo://app?vid=73e22ed6-f150-4bd5-a7c9-af939e7a8ce9","ios":"levelo://app?vid=73e22ed6-f150-4bd5-a7c9-af939e7a8ce9"},"vehicle_type_id":"4","last_reported":1759241451,"current_range_meters":17600,"station_id":"","pricing_plan_id":"cebpf4jnsgd1na2vs0mg"},{"bike_id":"e8a6d609-d965-4c72-b22f-83ffb60a3d29","system_id":"levelo_inurba_marseille","lat":43.28413,"lon":5.34989,"is_reserved":false,"is_disabled":false,"rental_uris":{"android":"levelo://app?vid=e8a6d609-d965-4c72-b22f-83ffb60a3d29","ios":"levelo://app?vid=e8a6d609-d965-4c72-b22f-83ffb60a3d29"},"vehicle_type_id":"4","last_reported":1759241451,"current_range_meters":17600,"station_id":"ce4bhbh2rcd13ifvqepg","pricing_plan_id":"cebpf4jnsgd1na2vs0mg"},{"bike_id":"b5f73e60-d6e9-4301-95c9-3723d9020ffd","system_id":"levelo_inurba_marseille","lat":43.292634,"lon":5.384434,"is_reserved":false,"is_disabled":false,"rental_uris":{"android":"levelo://app?vid=b5f73e60-d6e9-4301-95c9-3723d9020ffd","ios":"levelo://app?vid=b5f73e60-d6e9-4301-95c9-3723d9020ffd"},"vehicle_type_id":"4","last_reported":1759241451,"current_range_meters":17600,"station_id":"ce4bh692rcd13ifvqea0","pricing_plan_id":"cebpf4jnsgd1na2vs0mg"},{"bike_id":"9dde4949-a38b-4878-a743-12e995aff432","system_id":"levelo_inurba_marseille","lat":43.28263,"lon":5.35064,"is_reserved":false,"is_disabled":false,"rental_uris":{"android":"levelo://app?vid=9dde4949-a38b-4878-a743-12e995aff432","ios":"levelo://app?vid=9dde4949-a38b-4878-a743-12e995aff432"},"vehicle_type_id":"4","last_reported":1759241451,"current_range_meters":17600,"station_id":"ce4bhbp2rcd13ifvqerg","pricing_plan_id":"cebpf4jnsgd1na2vs0mg"},{"bike_id":"79625676-c57f-4ecd-a61b-b1b4d638a9c5","system_id":"levelo_inurba_marseille","lat":43.273129,"lon":5.390623,"is_reserved":false,"is_disabled":false,"rental_uris":{"android":"levelo://app?vid=79625676-c57f-4ecd-a61b-b1b4d638a9c5","ios":"levelo://app?vid=79625676-c57f-4ecd-a61b-b1b4d638a9c5"},"vehicle_type_id":"4","last_reported":1759241451,"current_range_meters":17600,"station_id":"ce4bhgp2rcd13ifvqfe0","pricing_plan_id":"cebpf4jnsgd1na2vs0mg"},{"bike_id":"8758711a-1ac5-4451-83b4-71cf262c01c9","system_id":"levelo_inurba_marseille","lat":43.28275,"lon":5.35071,"is_reserved":false,"is_disabled":false,"rental_uris":{"android":"levelo://app?vid=8758711a-1ac5-4451-83b4-71cf262c01c9","ios":"levelo://app?vid=8758711a-1ac5-4451-83b4-71cf262c01c9"},"vehicle_type_id":"4","last_reported":1759241451,"current_range_meters":17600,"station_id":"ce4bhbp2rcd13ifvqerg","pricing_plan_id":"cebpf4jnsgd1na2vs0mg"},{"bike_id":"700e2971-7ce2-46cc-996b-6959d72691c7","system_id":"levelo_inurba_marseille","lat":43.22564,"lon":5.41626,"is_reserved":false,"is_disabled":false,"rental_uris":{"android":"levelo://app?vid=700e2971-7ce2-46cc-996b-6959d72691c7","ios":"levelo://app?vid=700e2971-7ce2-46cc-996b-6959d72691c7"},"vehicle_type_id":"4","last_reported":1759241451,"current_range_meters":17600,"station_id":"st_d2o4gvlbi1j2169b742g","pricing_plan_id":"cebpf4jnsgd1na2vs0mg"},{"bike_id":"9af262dd-ad91-476d-9019-5e4a794f9a3f","system_id":"levelo_inurba_marseille","lat":43.24069,"lon":5.37765,"is_reserved":false,"is_disabled":false,"rental_uris":{"android":"levelo://app?vid=9af262dd-ad91-476d-9019-5e4a794f9a3f","ios":"levelo://app?vid=9af262dd-ad91-476d-9019-5e4a794f9a3f"},"vehicle_type_id":"4","last_reported":1759241451,"current_range_meters":17600,"station_id":"ce4bhnp2rcd13ifvqgvg","pricing_plan_id":"cebpf4jnsgd1na2vs0mg"},{"bike_id":"a8e4062f-d231-4fb9-9b8c-aa6a08efe307","system_id":"levelo_inurba_marseille","lat":43.298508,"lon":5.36286,"is_reserved":false,"is_disabled":false,"rental_uris":{"android":"levelo://app?vid=a8e4062f-d231-4fb9-9b8c-aa6a08efe307","ios":"levelo://app?vid=a8e4062f-d231-4fb9-9b8c-aa6a08efe307"},"vehicle_type_id":"4","last_reported":1759241451,"current_range_meters":17600,"station_id":"ce4bgpp2rcd13ifvqc3g","pricing_plan_id":"cebpf4jnsgd1na2vs0mg"},{"bike_id":"f45eba02-4c2c-4bf6-8566-bd0e9f140d6e","system_id":"levelo_inurba_marseille","lat":43.29852,"lon":5.36271,"is_reserved":false,"is_disabled":false,"rental_uris":{"android":"levelo://app?vid=f45eba02-4c2c-4bf6-8566-bd0e9f140d6e","ios":"levelo://app?vid=f45eba02-4c2c-4bf6-8566-bd0e9f140d6e"},"vehicle_type_id":"4","last_reported":1759241451,"current_range_meters":17600,"station_id":"ce4bgpp2rcd13ifvqc3g","pricing_plan_id":"cebpf4jnsgd1na2vs0mg"},{"bike_id":"bb80e5da-8df2-462f-8828-7587302fcb86","system_id":"levelo_inurba_marseille","lat":43.29784,"lon":5.37666,"is_reserved":false,"is_disabled":false,"rental_uris":{"android":"levelo://app?vid=bb80e5da-8df2-462f-8828-7587302fcb86","ios":"levelo://app?vid=bb80e5da-8df2-462f-8828-7587302fcb86"},"vehicle_type_id":"4","last_reported":1759241451,"current_range_meters":17600,"station_id":"","pricing_plan_id":"cebpf4jnsgd1na2vs0mg"},{"bike_id":"450844ba-2fc2-47be-9959-8fee61f07fb6","system_id":"levelo_inurba_marseille","lat":43.317354,"lon":5.390403,"is_reserved":false,"is_disabled":false,"rental_uris":{"android":"levelo://app?vid=450844ba-2fc2-47be-9959-8fee61f07fb6","ios":"levelo://app?vid=450844ba-2fc2-47be-9959-8fee61f07fb6"},"vehicle_type_id":"4","last_reported":1759241451,"current_range_meters":18000,"station_id":"ce4bhqp2rcd13ifvqhng","pricing_plan_id":"cebpf4jnsgd1na2vs0mg"},{"bike_id":"b7cd29c1-7e6a-4750-89cf-107360408473","system_id":"levelo_inurba_marseille","lat":43.22542,"lon":5.34824,"is_reserved":false,"is_disabled":false,"rental_uris":{"android":"levelo://app?vid=b7cd29c1-7e6a-4750-89cf-107360408473","ios":"levelo://app?vid=b7cd29c1-7e6a-4750-89cf-107360408473"},"vehicle_type_id":"4","last_reported":1759241451,"current_range_meters":18000,"station_id":"","pricing_plan_id":"cebpf4jnsgd1na2vs0mg"},{"bike_id":"4bfdeb80-9884-49e1-b245-6dd804daa778","system_id":"levelo_inurba_marseille","lat":43.22921,"lon":5.35375,"is_reserved":false,"is_disabled":true,"rental_uris":{"android":"levelo://app?vid=4bfdeb80-9884-49e1-b245-6dd804daa778","ios":"levelo://app?vid=4bfdeb80-9884-49e1-b245-6dd804daa778"},"vehicle_type_id":"4","last_reported":1759241451,"current_range_meters":18000,"station_id":"cpo3532slgdg3j2ikp40","pricing_plan_id":"cebpf4jnsgd1na2vs0mg"},{"bike_id":"993b9914-9fba-4bf1-8fc7-fbc75b76aea6","system_id":"levelo_inurba_marseille","lat":43.27361,"lon":5.36244,"is_reserved":false,"is_disabled":false,"rental_uris":{"android":"levelo://app?vid=993b9914-9fba-4bf1-8fc7-fbc75b76aea6","ios":"levelo://app?vid=993b9914-9fba-4bf1-8fc7-fbc75b76aea6"},"vehicle_type_id":"4","last_reported":1759241451,"current_range_meters":18000,"station_id":"ce4bhbh2rcd13ifvqeo0","pricing_plan_id":"cebpf4jnsgd1na2vs0mg"},{"bike_id":"b664ce19-efb8-4ee2-a42d-f5f63c4a7bca","system_id":"levelo_inurba_marseille","lat":43.28258,"lon":5.35074,"is_reserved":false,"is_disabled":false,"rental_uris":{"android":"levelo://app?vid=b664ce19-efb8-4ee2-a42d-f5f63c4a7bca","ios":"levelo://app?vid=b664ce19-efb8-4ee2-a42d-f5f63c4a7bca"},"vehicle_type_id":"4","last_reported":1759241451,"current_range_meters":18000,"station_id":"ce4bhbp2rcd13ifvqerg","pricing_plan_id":"cebpf4jnsgd1na2vs0mg"},{"bike_id":"ed72cb11-07b3-4d9e-a5e8-81f72acc58fc","system_id":"levelo_inurba_marseille","lat":43.25327,"lon":5.42164,"is_reserved":false,"is_disabled":false,"rental_uris":{"android":"levelo://app?vid=ed72cb11-07b3-4d9e-a5e8-81f72acc58fc","ios":"levelo://app?vid=ed72cb11-07b3-4d9e-a5e8-81f72acc58fc"},"vehicle_type_id":"4","last_reported":1759241451,"current_range_meters":18000,"station_id":"st_d2m65c5bi1j21697t3ng","pricing_plan_id":"cebpf4jnsgd1na2vs0mg"},{"bike_id":"a3577dd7-b1db-4ad9-be15-00d58b2f8c69","system_id":"levelo_inurba_marseille","lat":43.27077,"lon":5.42265,"is_reserved":false,"is_disabled":false,"rental_uris":{"android":"levelo://app?vid=a3577dd7-b1db-4ad9-be15-00d58b2f8c69","ios":"levelo://app?vid=a3577dd7-b1db-4ad9-be15-00d58b2f8c69"},"vehicle_type_id":"4","last_reported":1759241451,"current_range_meters":18000,"station_id":"ce4bhk92rcd13ifvqgb0","pricing_plan_id":"cebpf4jnsgd1na2vs0mg"},{"bike_id":"9f344037-7aa5-4ee2-920d-740ab1273e5a","system_id":"levelo_inurba_marseille","lat":43.29618,"lon":5.37713,"is_reserved":false,"is_disabled":false,"rental_uris":{"android":"levelo://app?vid=9f344037-7aa5-4ee2-920d-740ab1273e5a","ios":"levelo://app?vid=9f344037-7aa5-4ee2-920d-740ab1273e5a"},