{"last_updated":1775134111,"ttl":60,"version":"2.2","data":{"bikes":[{"bike_id":"dd386d11-be01-43be-a57c-4febd6a1eee8","system_id":"levelo_inurba_marseille","lat":43.337444,"lon":5.374475,"is_reserved":false,"is_disabled":false,"rental_uris":{"android":"levelo://app?vid=dd386d11-be01-43be-a57c-4febd6a1eee8","ios":"levelo://app?vid=dd386d11-be01-43be-a57c-4febd6a1eee8"},"vehicle_type_id":"4","last_reported":1775134111,"current_range_meters":0,"station_id":"","pricing_plan_id":"cebpf4jnsgd1na2vs0mg"},{"bike_id":"44ab3f09-0453-4674-a534-44896e27d972","system_id":"levelo_inurba_marseille","lat":43.337444,"lon":5.374475,"is_reserved":false,"is_disabled":false,"rental_uris":{"android":"levelo://app?vid=44ab3f09-0453-4674-a534-44896e27d972","ios":"levelo://app?vid=44ab3f09-0453-4674-a534-44896e27d972"},"vehicle_type_id":"4","last_reported":1775134111,"current_range_meters":0,"station_id":"","pricing_plan_id":"cebpf4jnsgd1na2vs0mg"},{"bike_id":"039e3ae8-f60d-4dca-bcd6-3269b277f319","system_id":"levelo_inurba_marseille","lat":43.337444,"lon":5.374475,"is_reserved":false,"is_disabled":false,"rental_uris":{"android":"levelo://app?vid=039e3ae8-f60d-4dca-bcd6-3269b277f319","ios":"levelo://app?vid=039e3ae8-f60d-4dca-bcd6-3269b277f319"},"vehicle_type_id":"4","last_reported":1775134111,"current_range_meters":0,"station_id":"","pricing_plan_id":"cebpf4jnsgd1na2vs0mg"},{"bike_id":"75c8fc62-f095-43e7-97cc-67df746c3fc7","system_id":"levelo_inurba_marseille","lat":43.337444,"lon":5.374475,"is_reserved":false,"is_disabled":false,"rental_uris":{"android":"levelo://app?vid=75c8fc62-f095-43e7-97cc-67df746c3fc7","ios":"levelo://app?vid=75c8fc62-f095-43e7-97cc-67df746c3fc7"},"vehicle_type_id":"4","last_reported":1775134111,"current_range_meters":0,"station_id":"","pricing_plan_id":"cebpf4jnsgd1na2vs0mg"},{"bike_id":"c9e2d8f5-3d52-481f-8ef6-0e3deb6011bc","system_id":"levelo_inurba_marseille","lat":43.337444,"lon":5.374475,"is_reserved":false,"is_disabled":false,"rental_uris":{"android":"levelo://app?vid=c9e2d8f5-3d52-481f-8ef6-0e3deb6011bc","ios":"levelo://app?vid=c9e2d8f5-3d52-481f-8ef6-0e3deb6011bc"},"vehicle_type_id":"4","last_reported":1775134111,"current_range_meters":0,"station_id":"","pricing_plan_id":"cebpf4jnsgd1na2vs0mg"},{"bike_id":"a8fd138f-00fb-4643-8494-c2e8e89201c9","system_id":"levelo_inurba_marseille","lat":43.337444,"lon":5.374475,"is_reserved":false,"is_disabled":false,"rental_uris":{"android":"levelo://app?vid=a8fd138f-00fb-4643-8494-c2e8e89201c9","ios":"levelo://app?vid=a8fd138f-00fb-4643-8494-c2e8e89201c9"},"vehicle_type_id":"4","last_reported":1775134111,"current_range_meters":0,"station_id":"","pricing_plan_id":"cebpf4jnsgd1na2vs0mg"},{"bike_id":"51722bdc-ed62-4a6d-a5d5-635dce16917e","system_id":"levelo_inurba_marseille","lat":43.337444,"lon":5.374475,"is_reserved":false,"is_disabled":false,"rental_uris":{"android":"levelo://app?vid=51722bdc-ed62-4a6d-a5d5-635dce16917e","ios":"levelo://app?vid=51722bdc-ed62-4a6d-a5d5-635dce16917e"},"vehicle_type_id":"4","last_reported":1775134111,"current_range_meters":0,"station_id":"","pricing_plan_id":"cebpf4jnsgd1na2vs0mg"},{"bike_id":"bdd7ec0d-38f5-43a2-966e-e32fb983b192","system_id":"levelo_inurba_marseille","lat":43.337444,"lon":5.374475,"is_reserved":false,"is_disabled":false,"rental_uris":{"android":"levelo://app?vid=bdd7ec0d-38f5-43a2-966e-e32fb983b192","ios":"levelo://app?vid=bdd7ec0d-38f5-43a2-966e-e32fb983b192"},"vehicle_type_id":"4","last_reported":1775134111,"current_range_meters":0,"station_id":"","pricing_plan_id":"cebpf4jnsgd1na2vs0mg"},{"bike_id":"32be5f2e-8087-4e38-8a4c-fcc21ab19010","system_id":"levelo_inurba_marseille","lat":43.337444,"lon":5.374475,"is_reserved":false,"is_disabled":false,"rental_uris":{"android":"levelo://app?vid=32be5f2e-8087-4e38-8a4c-fcc21ab19010","ios":"levelo://app?vid=32be5f2e-8087-4e38-8a4c-fcc21ab19010"},"vehicle_type_id":"4","last_reported":1775134111,"current_range_meters":0,"station_id":"","pricing_plan_id":"cebpf4jnsgd1na2vs0mg"},{"bike_id":"26448bff-57ed-4f27-ab04-ed81ab2dc78e","system_id":"levelo_inurba_marseille","lat":43.337444,"lon":5.374475,"is_reserved":false,"is_disabled":false,"rental_uris":{"android":"levelo://app?vid=26448bff-57ed-4f27-ab04-ed81ab2dc78e","ios":"levelo://app?vid=26448bff-57ed-4f27-ab04-ed81ab2dc78e"},"vehicle_type_id":"4","last_reported":1775134111,"current_range_meters":0,"station_id":"","pricing_plan_id":"cebpf4jnsgd1na2vs0mg"},{"bike_id":"66033656-2b70-4882-a8f6-76e56fad51be","system_id":"levelo_inurba_marseille","lat":43.337444,"lon":5.374475,"is_reserved":false,"is_disabled":false,"rental_uris":{"android":"levelo://app?vid=66033656-2b70-4882-a8f6-76e56fad51be","ios":"levelo://app?vid=66033656-2b70-4882-a8f6-76e56fad51be"},"vehicle_type_id":"4","last_reported":1775134111,"current_range_meters":0,"station_id":"","pricing_plan_id":"cebpf4jnsgd1na2vs0mg"},{"bike_id":"2d801f58-11b8-4ccb-ade4-813a5f577b0f","system_id":"levelo_inurba_marseille","lat":43.337444,"lon":5.374475,"is_reserved":false,"is_disabled":false,"rental_uris":{"android":"levelo://app?vid=2d801f58-11b8-4ccb-ade4-813a5f577b0f","ios":"levelo://app?vid=2d801f58-11b8-4ccb-ade4-813a5f577b0f"},"vehicle_type_id":"4","last_reported":1775134111,"current_range_meters":0,"station_id":"","pricing_plan_id":"cebpf4jnsgd1na2vs0mg"},{"bike_id":"cec2ff71-be65-4c11-8b10-28df88cedb59","system_id":"levelo_inurba_marseille","lat":43.337444,"lon":5.374475,"is_reserved":false,"is_disabled":false,"rental_uris":{"android":"levelo://app?vid=cec2ff71-be65-4c11-8b10-28df88cedb59","ios":"levelo://app?vid=cec2ff71-be65-4c11-8b10-28df88cedb59"},"vehicle_type_id":"4","last_reported":1775134111,"current_range_meters":0,"station_id":"","pricing_plan_id":"cebpf4jnsgd1na2vs0mg"},{"bike_id":"072035c1-3cdd-4100-8617-217525ed2f2f","system_id":"levelo_inurba_marseille","lat":43.337444,"lon":5.374475,"is_reserved":false,"is_disabled":false,"rental_uris":{"android":"levelo://app?vid=072035c1-3cdd-4100-8617-217525ed2f2f","ios":"levelo://app?vid=072035c1-3cdd-4100-8617-217525ed2f2f"},"vehicle_type_id":"4","last_reported":1775134111,"current_range_meters":0,"station_id":"","pricing_plan_id":"cebpf4jnsgd1na2vs0mg"},{"bike_id":"70b1f438-45bb-4025-a336-fe6fe046abf6","system_id":"levelo_inurba_marseille","lat":43.337444,"lon":5.374475,"is_reserved":false,"is_disabled":false,"rental_uris":{"android":"levelo://app?vid=70b1f438-45bb-4025-a336-fe6fe046abf6","ios":"levelo://app?vid=70b1f438-45bb-4025-a336-fe6fe046abf6"},"vehicle_type_id":"4","last_reported":1775134111,"current_range_meters":0,"station_id":"","pricing_plan_id":"cebpf4jnsgd1na2vs0mg"},{"bike_id":"29e58c2b-7331-4ba7-8d80-abed76444062","system_id":"levelo_inurba_marseille","lat":43.337444,"lon":5.374475,"is_reserved":false,"is_disabled":false,"rental_uris":{"android":"levelo://app?vid=29e58c2b-7331-4ba7-8d80-abed76444062","ios":"levelo://app?vid=29e58c2b-7331-4ba7-8d80-abed76444062"},"vehicle_type_id":"4","last_reported":1775134111,"current_range_meters":0,"station_id":"","pricing_plan_id":"cebpf4jnsgd1na2vs0mg"},{"bike_id":"7c39496a-c125-499f-960a-c9d334c4a1fc","system_id":"levelo_inurba_marseille","lat":43.337444,"lon":5.374475,"is_reserved":false,"is_disabled":false,"rental_uris":{"android":"levelo://app?vid=7c39496a-c125-499f-960a-c9d334c4a1fc","ios":"levelo://app?vid=7c39496a-c125-499f-960a-c9d334c4a1fc"},"vehicle_type_id":"4","last_reported":1775134111,"current_range_meters":0,"station_id":"","pricing_plan_id":"cebpf4jnsgd1na2vs0mg"},{"bike_id":"6ec1889d-c43d-42d7-9ebb-6d09626d1897","system_id":"levelo_inurba_marseille","lat":43.24638,"lon":5.38915,"is_reserved":false,"is_disabled":false,"rental_uris":{"android":"levelo://app?vid=6ec1889d-c43d-42d7-9ebb-6d09626d1897","ios":"levelo://app?vid=6ec1889d-c43d-42d7-9ebb-6d09626d1897"},"vehicle_type_id":"4","last_reported":1775134111,"current_range_meters":2800,"station_id":"ce4bhg12rcd13ifvqf60","pricing_plan_id":"cebpf4jnsgd1na2vs0mg"},{"bike_id":"a2eaa8fe-9ee3-4783-9910-a0708dc6938b","system_id":"levelo_inurba_marseille","lat":43.23052,"lon":5.35511,"is_reserved":false,"is_disabled":false,"rental_uris":{"android":"levelo://app?vid=a2eaa8fe-9ee3-4783-9910-a0708dc6938b","ios":"levelo://app?vid=a2eaa8fe-9ee3-4783-9910-a0708dc6938b"},"vehicle_type_id":"4","last_reported":1775134111,"current_range_meters":2800,"station_id":"cpo3342slgdg3j2ifvpg","pricing_plan_id":"cebpf4jnsgd1na2vs0mg"},{"bike_id":"a08ca64a-2abc-4872-bcd9-336ced89a23d","system_id":"levelo_inurba_marseille","lat":43.24474,"lon":5.42538,"is_reserved":false,"is_disabled":false,"rental_uris":{"android":"levelo://app?vid=a08ca64a-2abc-4872-bcd9-336ced89a23d","ios":"levelo://app?vid=a08ca64a-2abc-4872-bcd9-336ced89a23d"},"vehicle_type_id":"4","last_reported":1775134111,"current_range_meters":2800,"station_id":"st_d4a3vfp97mjs738cd8kg","pricing_plan_id":"cebpf4jnsgd1na2vs0mg"},{"bike_id":"e48449c9-7d13-4803-b2aa-7fb857c0a68c","system_id":"levelo_inurba_marseille","lat":43.24431,"lon":5.41587,"is_reserved":false,"is_disabled":false,"rental_uris":{"android":"levelo://app?vid=e48449c9-7d13-4803-b2aa-7fb857c0a68c","ios":"levelo://app?vid=e48449c9-7d13-4803-b2aa-7fb857c0a68c"},"vehicle_type_id":"4","last_reported":1775134111,"current_range_meters":2800,"station_id":"","pricing_plan_id":"cebpf4jnsgd1na2vs0mg"},{"bike_id":"06e374bf-9713-4dbc-9e4e-8b141cedc659","system_id":"levelo_inurba_marseille","lat":43.22567,"lon":5.4163,"is_reserved":false,"is_disabled":false,"rental_uris":{"android":"levelo://app?vid=06e374bf-9713-4dbc-9e4e-8b141cedc659","ios":"levelo://app?vid=06e374bf-9713-4dbc-9e4e-8b141cedc659"},"vehicle_type_id":"4","last_reported":1775134111,"current_range_meters":2800,"station_id":"st_d2o4gvlbi1j2169b742g","pricing_plan_id":"cebpf4jnsgd1na2vs0mg"},{"bike_id":"5ff8da46-d50f-41b2-8eee-8fa1fd7c4ed1","system_id":"levelo_inurba_marseille","lat":43.25004,"lon":5.38938,"is_reserved":false,"is_disabled":false,"rental_uris":{"android":"levelo://app?vid=5ff8da46-d50f-41b2-8eee-8fa1fd7c4ed1","ios":"levelo://app?vid=5ff8da46-d50f-41b2-8eee-8fa1fd7c4ed1"},"vehicle_type_id":"4","last_reported":1775134111,"current_range_meters":2800,"station_id":"ce4bhgp2rcd13ifvqfd0","pricing_plan_id":"cebpf4jnsgd1na2vs0mg"},{"bike_id":"839f391b-feab-427a-b17d-2d524e38c555","system_id":"levelo_inurba_marseille","lat":43.26962,"lon":5.38702,"is_reserved":false,"is_disabled":false,"rental_uris":{"android":"levelo://app?vid=839f391b-feab-427a-b17d-2d524e38c555","ios":"levelo://app?vid=839f391b-feab-427a-b17d-2d524e38c555"},"vehicle_type_id":"4","last_reported":1775134111,"current_range_meters":2800,"station_id":"","pricing_plan_id":"cebpf4jnsgd1na2vs0mg"},{"bike_id":"50236813-bf88-46a5-ace1-dd5e5784f3e0","system_id":"levelo_inurba_marseille","lat":43.33118,"lon":5.37765,"is_reserved":false,"is_disabled":false,"rental_uris":{"android":"levelo://app?vid=50236813-bf88-46a5-ace1-dd5e5784f3e0","ios":"levelo://app?vid=50236813-bf88-46a5-ace1-dd5e5784f3e0"},"vehicle_type_id":"4","last_reported":1775134111,"current_range_meters":2800,"station_id":"st_d46cu089ee8s73dldbu0","pricing_plan_id":"cebpf4jnsgd1na2vs0mg"},{"bike_id":"15ae1403-5ddd-4eff-b7bc-69c195288011","system_id":"levelo_inurba_marseille","lat":43.28946,"lon":5.36628,"is_reserved":false,"is_disabled":false,"rental_uris":{"android":"levelo://app?vid=15ae1403-5ddd-4eff-b7bc-69c195288011","ios":"levelo://app?vid=15ae1403-5ddd-4eff-b7bc-69c195288011"},"vehicle_type_id":"4","last_reported":1775134111,"current_range_meters":2800,"station_id":"ce4bhap2rcd13ifvqek0","pricing_plan_id":"cebpf4jnsgd1na2vs0mg"},{"bike_id":"8fc970ee-a484-45a1-8680-8f7f28a23ddf","system_id":"levelo_inurba_marseille","lat":43.21734,"lon":5.34629,"is_reserved":false,"is_disabled":false,"rental_uris":{"android":"levelo://app?vid=8fc970ee-a484-45a1-8680-8f7f28a23ddf","ios":"levelo://app?vid=8fc970ee-a484-45a1-8680-8f7f28a23ddf"},"vehicle_type_id":"4","last_reported":1775134111,"current_range_meters":2800,"station_id":"st_cvj6r9ubvosntc0bgbag","pricing_plan_id":"cebpf4jnsgd1na2vs0mg"},{"bike_id":"521fdd5c-22f2-444b-870e-16f0ca92be9e","system_id":"levelo_inurba_marseille","lat":43.29525,"lon":5.38653,"is_reserved":false,"is_disabled":false,"rental_uris":{"android":"levelo://app?vid=521fdd5c-22f2-444b-870e-16f0ca92be9e","ios":"levelo://app?vid=521fdd5c-22f2-444b-870e-16f0ca92be9e"},"vehicle_type_id":"4","last_reported":1775134111,"current_range_meters":3200,"station_id":"","pricing_plan_id":"cebpf4jnsgd1na2vs0mg"},{"bike_id":"c70b8416-c3af-43d1-8b92-c752625b6271","system_id":"levelo_inurba_marseille","lat":43.29532,"lon":5.36557,"is_reserved":false,"is_disabled":false,"rental_uris":{"android":"levelo://app?vid=c70b8416-c3af-43d1-8b92-c752625b6271","ios":"levelo://app?vid=c70b8416-c3af-43d1-8b92-c752625b6271"},"vehicle_type_id":"4","last_reported":1775134111,"current_range_meters":3200,"station_id":"","pricing_plan_id":"cebpf4jnsgd1na2vs0mg"},{"bike_id":"ace8d92c-665e-46a4-858d-e12872c8b9f0","system_id":"levelo_inurba_marseille","lat":43.2848,"lon":5.48387,"is_reserved":false,"is_disabled":false,"rental_uris":{"android":"levelo://app?vid=ace8d92c-665e-46a4-858d-e12872c8b9f0","ios":"levelo://app?vid=ace8d92c-665e-46a4-858d-e12872c8b9f0"},"vehicle_type_id":"4","last_reported":1775134111,"current_range_meters":3200,"station_id":"","pricing_plan_id":"cebpf4jnsgd1na2vs0mg"},{"bike_id":"6179595b-a790-436d-9557-b83fbb560404","system_id":"levelo_inurba_marseille","lat":43.23147,"lon":5.43687,"is_reserved":false,"is_disabled":false,"rental_uris":{"android":"levelo://app?vid=6179595b-a790-436d-9557-b83fbb560404","ios":"levelo://app?vid=6179595b-a790-436d-9557-b83fbb560404"},"vehicle_type_id":"4","last_reported":1775134111,"current_range_meters":3200,"station_id":"ce4bhmp2rcd13ifvqgog","pricing_plan_id":"cebpf4jnsgd1na2vs0mg"},{"bike_id":"23a1f004-01c9-4416-9d3b-31e26d56c169","system_id":"levelo_inurba_marseille","lat":43.24058,"lon":5.37739,"is_reserved":false,"is_disabled":false,"rental_uris":{"android":"levelo://app?vid=23a1f004-01c9-4416-9d3b-31e26d56c169","ios":"levelo://app?vid=23a1f004-01c9-4416-9d3b-31e26d56c169"},"vehicle_type_id":"4","last_reported":1775134111,"current_range_meters":3200,"station_id":"ce4bhnp2rcd13ifvqgvg","pricing_plan_id":"cebpf4jnsgd1na2vs0mg"},{"bike_id":"0d0c8f03-48a7-4e97-9825-e79885ed278e","system_id":"levelo_inurba_marseille","lat":43.23048,"lon":5.3549,"is_reserved":false,"is_disabled":false,"rental_uris":{"android":"levelo://app?vid=0d0c8f03-48a7-4e97-9825-e79885ed278e","ios":"levelo://app?vid=0d0c8f03-48a7-4e97-9825-e79885ed278e"},"vehicle_type_id":"4","last_reported":1775134111,"current_range_meters":3200,"station_id":"cpo3342slgdg3j2ifvpg","pricing_plan_id":"cebpf4jnsgd1na2vs0mg"},{"bike_id":"e41e3697-59e4-4346-81a5-c14ee6c184fd","system_id":"levelo_inurba_marseille","lat":43.22548,"lon":5.34828,"is_reserved":false,"is_disabled":false,"rental_uris":{"android":"levelo://app?vid=e41e3697-59e4-4346-81a5-c14ee6c184fd","ios":"levelo://app?vid=e41e3697-59e4-4346-81a5-c14ee6c184fd"},"vehicle_type_id":"4","last_reported":1775134111,"current_range_meters":3200,"station_id":"st_cvj5dfep6f1abm77gieg","pricing_plan_id":"cebpf4jnsgd1na2vs0mg"},{"bike_id":"63f62f34-62d8-4c59-8d2b-7d93107f84e0","system_id":"levelo_inurba_marseille","lat":43.27997,"lon":5.41655,"is_reserved":false,"is_disabled":false,"rental_uris":{"android":"levelo://app?vid=63f62f34-62d8-4c59-8d2b-7d93107f84e0","ios":"levelo://app?vid=63f62f34-62d8-4c59-8d2b-7d93107f84e0"},"vehicle_type_id":"4","last_reported":1775134111,"current_range_meters":3200,"station_id":"ce4bho12rcd13ifvqh1g","pricing_plan_id":"cebpf4jnsgd1na2vs0mg"},{"bike_id":"7d221536-c309-4cb7-98fe-5bdf54751499","system_id":"levelo_inurba_marseille","lat":43.28476,"lon":5.48397,"is_reserved":false,"is_disabled":false,"rental_uris":{"android":"levelo://app?vid=7d221536-c309-4cb7-98fe-5bdf54751499","ios":"levelo://app?vid=7d221536-c309-4cb7-98fe-5bdf54751499"},"vehicle_type_id":"4","last_reported":1775134111,"current_range_meters":3200,"station_id":"","pricing_plan_id":"cebpf4jnsgd1na2vs0mg"},{"bike_id":"b5194005-3c8f-4b57-87f0-efc0715e1393","system_id":"levelo_inurba_marseille","lat":43.29953,"lon":5.38529,"is_reserved":false,"is_disabled":false,"rental_uris":{"android":"levelo://app?vid=b5194005-3c8f-4b57-87f0-efc0715e1393","ios":"levelo://app?vid=b5194005-3c8f-4b57-87f0-efc0715e1393"},"vehicle_type_id":"4","last_reported":1775134111,"current_range_meters":3200,"station_id":"ce4bgj92rcd13ifvqbd0","pricing_plan_id":"cebpf4jnsgd1na2vs0mg"},{"bike_id":"542d2dae-7cb3-41cb-b03c-cc1fe9db4665","system_id":"levelo_inurba_marseille","lat":43.2796,"lon":5.38715,"is_reserved":false,"is_disabled":false,"rental_uris":{"android":"levelo://app?vid=542d2dae-7cb3-41cb-b03c-cc1fe9db4665","ios":"levelo://app?vid=542d2dae-7cb3-41cb-b03c-cc1fe9db4665"},"vehicle_type_id":"4","last_reported":1775134111,"current_range_meters":3200,"station_id":"ce4bhg12rcd13ifvqf80","pricing_plan_id":"cebpf4jnsgd1na2vs0mg"},{"bike_id":"4f6e6664-ece1-4ab9-bd43-08ecd5585a36","system_id":"levelo_inurba_marseille","lat":43.29023,"lon":5.38645,"is_reserved":false,"is_disabled":false,"rental_uris":{"android":"levelo://app?vid=4f6e6664-ece1-4ab9-bd43-08ecd5585a36","ios":"levelo://app?vid=4f6e6664-ece1-4ab9-bd43-08ecd5585a36"},"vehicle_type_id":"4","last_reported":1775134111,"current_range_meters":3200,"station_id":"ce4bh4p2rcd13ifvqe0g","pricing_plan_id":"cebpf4jnsgd1na2vs0mg"},{"bike_id":"64542355-3e4e-4b29-baea-1e3edf480810","system_id":"levelo_inurba_marseille","lat":43.30937,"lon":5.40135,"is_reserved":false,"is_disabled":false,"rental_uris":{"android":"levelo://app?vid=64542355-3e4e-4b29-baea-1e3edf480810","ios":"levelo://app?vid=64542355-3e4e-4b29-baea-1e3edf480810"},"vehicle_type_id":"4","last_reported":1775134111,"current_range_meters":3200,"station_id":"ce4bgvp2rcd13ifvqct0","pricing_plan_id":"cebpf4jnsgd1na2vs0mg"},{"bike_id":"f6ced8d1-bf4c-433b-9ac4-01f185b043e1","system_id":"levelo_inurba_marseille","lat":43.24151,"lon":5.36423,"is_reserved":false,"is_disabled":false,"rental_uris":{"android":"levelo://app?vid=f6ced8d1-bf4c-433b-9ac4-01f185b043e1","ios":"levelo://app?vid=f6ced8d1-bf4c-433b-9ac4-01f185b043e1"},"vehicle_type_id":"4","last_reported":1775134111,"current_range_meters":3600,"station_id":"cpo36qri1sfpv3e86is0","pricing_plan_id":"cebpf4jnsgd1na2vs0mg"},{"bike_id":"982951ba-d1eb-42d4-bb65-5d98050aa6ef","system_id":"levelo_inurba_marseille","lat":43.28481,"lon":5.48396,"is_reserved":false,"is_disabled":false,"rental_uris":{"android":"levelo://app?vid=982951ba-d1eb-42d4-bb65-5d98050aa6ef","ios":"levelo://app?vid=982951ba-d1eb-42d4-bb65-5d98050aa6ef"},"vehicle_type_id":"4","last_reported":1775134111,"current_range_meters":3600,"station_id":"","pricing_plan_id":"cebpf4jnsgd1na2vs0mg"},{"bike_id":"49bf89f4-35c4-41a0-a0c6-04e0d316201a","system_id":"levelo_inurba_marseille","lat":43.31924,"lon":5.36802,"is_reserved":false,"is_disabled":false,"rental_uris":{"android":"levelo://app?vid=49bf89f4-35c4-41a0-a0c6-04e0d316201a","ios":"levelo://app?vid=49bf89f4-35c4-41a0-a0c6-04e0d316201a"},"vehicle_type_id":"4","last_reported":1775134111,"current_range_meters":3600,"station_id":"","pricing_plan_id":"cebpf4jnsgd1na2vs0mg"},{"bike_id":"8db74139-08de-41fc-bc0c-08a8a75a0bdf","system_id":"levelo_inurba_marseille","lat":43.292317,"lon":5.36062,"is_reserved":false,"is_disabled":true,"rental_uris":{"android":"levelo://app?vid=8db74139-08de-41fc-bc0c-08a8a75a0bdf","ios":"levelo://app?vid=8db74139-08de-41fc-bc0c-08a8a75a0bdf"},"vehicle_type_id":"4","last_reported":1775134111,"current_range_meters":3600,"station_id":"ce4bhbh2rcd13ifvqeqg","pricing_plan_id":"cebpf4jnsgd1na2vs0mg"},{"bike_id":"0a9ea9af-b668-4055-b532-f9c769ea9596","system_id":"levelo_inurba_marseille","lat":43.2696,"lon":5.38633,"is_reserved":false,"is_disabled":false,"rental_uris":{"android":"levelo://app?vid=0a9ea9af-b668-4055-b532-f9c769ea9596","ios":"levelo://app?vid=0a9ea9af-b668-4055-b532-f9c769ea9596"},"vehicle_type_id":"4","last_reported":1775134111,"current_range_meters":3600,"station_id":"ce4bhh92rcd13ifvqfh0","pricing_plan_id":"cebpf4jnsgd1na2vs0mg"},{"bike_id":"433957cf-9331-4616-9a94-b2b355ef1825","system_id":"levelo_inurba_marseille","lat":43.26934,"lon":5.38919,"is_reserved":false,"is_disabled":false,"rental_uris":{"android":"levelo://app?vid=433957cf-9331-4616-9a94-b2b355ef1825","ios":"levelo://app?vid=433957cf-9331-4616-9a94-b2b355ef1825"},"vehicle_type_id":"4","last_reported":1775134111,"current_range_meters":3600,"station_id":"ce4bhhh2rcd13ifvqfl0","pricing_plan_id":"cebpf4jnsgd1na2vs0mg"},{"bike_id":"d41d5ff3-651c-4e70-8a12-e8a105b53c64","system_id":"levelo_inurba_marseille","lat":43.31574,"lon":5.44544,"is_reserved":false,"is_disabled":false,"rental_uris":{"android":"levelo://app?vid=d41d5ff3-651c-4e70-8a12-e8a105b53c64","ios":"levelo://app?vid=d41d5ff3-651c-4e70-8a12-e8a105b53c64"},"vehicle_type_id":"4","last_reported":1775134111,"current_range_meters":3600,"station_id":"","pricing_plan_id":"cebpf4jnsgd1na2vs0mg"},{"bike_id":"54c2b8bb-7259-470c-a906-fdbbea78bb9c","system_id":"levelo_inurba_marseille","lat":43.28519,"lon":5.44099,"is_reserved":false,"is_disabled":false,"rental_uris":{"android":"levelo://app?vid=54c2b8bb-7259-470c-a906-fdbbea78bb9c","ios":"levelo://app?vid=54c2b8bb-7259-470c-a906-fdbbea78bb9c"},"vehicle_type_id":"4","last_reported":1775134111,"current_range_meters":3600,"station_id":"st_d3j3df2ikq2c7380ej80","pricing_plan_id":"cebpf4jnsgd1na2vs0mg"},{"bike_id":"c0a6fcfe-4561-4d07-990a-966abad3ee49","system_id":"levelo_inurba_marseille","lat":43.24071,"lon":5.3773,"is_reserved":false,"is_disabled":false,"rental_uris":{"android":"levelo://app?vid=c0a6fcfe-4561-4d07-990a-966abad3ee49","ios":"levelo://app?vid=c0a6fcfe-4561-4d07-990a-966abad3ee49"},"vehicle_type_id":"4","last_reported":1775134111,"current_range_meters":3600,"station_id":"ce4bhnp2rcd13ifvqgvg","pricing_plan_id":"cebpf4jnsgd1na2vs0mg"},{"bike_id":"78a4b1de-44f0-4c98-a5da-0bd1eb28c8c1","system_id":"levelo_inurba_marseille","lat":43.27836,"lon":5.39209,"is_reserved":false,"is_disabled":false,"rental_uris":{"android":"levelo://app?vid=78a4b1de-44f0-4c98-a5da-0bd1eb28c8c1","ios":"levelo://app?vid=78a4b1de-44f0-4c98-a5da-0bd1eb28c8c1"},"vehicle_type_id":"4","last_reported":1775134111,"current_range_meters":3600,"station_id":"ce4bhjp2rcd13ifvqga0","pricing_plan_id":"cebpf4jnsgd1na2vs0mg"},{"bike_id":"6c3b2188-ad26-44f1-97bc-4de5c5fe5d74","system_id":"levelo_inurba_marseille","lat":43.28477,"lon":5.48392,"is_reserved":false,"is_disabled":false,"rental_uris":{"android":"levelo://app?vid=6c3b2188-ad26-44f1-97bc-4de5c5fe5d74","ios":"levelo://app?vid=6c3b2188-ad26-44f1-97bc-4de5c5fe5d74"},"vehicle_type_id":"4","last_reported":1775134111,"current_range_meters":3600,"station_id":"","pricing_plan_id":"cebpf4jnsgd1na2vs0mg"},{"bike_id":"cb5b1ee0-fb07-4fe9-8d2d-7bd39e547d09","system_id":"levelo_inurba_marseille","lat":43.33628,"lon":5.40945,"is_reserved":false,"is_disabled":true,"rental_uris":{"android":"levelo://app?vid=cb5b1ee0-fb07-4fe9-8d2d-7bd39e547d09","ios":"levelo://app?vid=cb5b1ee0-fb07-4fe9-8d2d-7bd39e547d09"},"vehicle_type_id":"4","last_reported":1775134111,"current_range_meters":3600,"station_id":"","pricing_plan_id":"cebpf4jnsgd1na2vs0mg"},{"bike_id":"2c78b9d7-6797-4c09-ad87-2e1c14443b34","system_id":"levelo_inurba_marseille","lat":43.28567,"lon":5.42925,"is_reserved":false,"is_disabled":false,"rental_uris":{"android":"levelo://app?vid=2c78b9d7-6797-4c09-ad87-2e1c14443b34","ios":"levelo://app?vid=2c78b9d7-6797-4c09-ad87-2e1c14443b34"},"vehicle_type_id":"4","last_reported":1775134111,"current_range_meters":3600,"station_id":"","pricing_plan_id":"cebpf4jnsgd1na2vs0mg"},{"bike_id":"62bf82c9-a7d6-485f-b660-bbbb2d4f54e9","system_id":"levelo_inurba_marseille","lat":43.24386,"lon":5.37045,"is_reserved":false,"is_disabled":false,"rental_uris":{"android":"levelo://app?vid=62bf82c9-a7d6-485f-b660-bbbb2d4f54e9","ios":"levelo://app?vid=62bf82c9-a7d6-485f-b660-bbbb2d4f54e9"},"vehicle_type_id":"4","last_reported":1775134111,"current_range_meters":4000,"station_id":"ce4bhhh2rcd13ifvqfk0","pricing_plan_id":"cebpf4jnsgd1na2vs0mg"},{"bike_id":"b9a2dc0a-a78c-4ec1-b214-1ebc47ea2ab0","system_id":"levelo_inurba_marseille","lat":43.22548,"lon":5.41646,"is_reserved":false,"is_disabled":false,"rental_uris":{"android":"levelo://app?vid=b9a2dc0a-a78c-4ec1-b214-1ebc47ea2ab0","ios":"levelo://app?vid=b9a2dc0a-a78c-4ec1-b214-1ebc47ea2ab0"},"vehicle_type_id":"4","last_reported":1775134111,"current_range_meters":4000,"station_id":"st_d2o4gvlbi1j2169b742g","pricing_plan_id":"cebpf4jnsgd1na2vs0mg"},{"bike_id":"0a057ffb-3de4-4291-951d-edcb5ba4e81a","system_id":"levelo_inurba_marseille","lat":43.28698,"lon":5.37394,"is_reserved":false,"is_disabled":false,"rental_uris":{"android":"levelo://app?vid=0a057ffb-3de4-4291-951d-edcb5ba4e81a","ios":"levelo://app?vid=0a057ffb-3de4-4291-951d-edcb5ba4e81a"},"vehicle_type_id":"4","last_reported":1775134111,"current_range_meters":4000,"station_id":"ce4bh3p2rcd13ifvqdq0","pricing_plan_id":"cebpf4jnsgd1na2vs0mg"},{"bike_id":"3b00fc1e-e36b-481b-a2bc-3dac3c178dbc","system_id":"levelo_inurba_marseille","lat":43.27775,"lon":5.40594,"is_reserved":false,"is_disabled":true,"rental_uris":{"android":"levelo://app?vid=3b00fc1e-e36b-481b-a2bc-3dac3c178dbc","ios":"levelo://app?vid=3b00fc1e-e36b-481b-a2bc-3dac3c178dbc"},"vehicle_type_id":"4","last_reported":1775134111,"current_range_meters":4000,"station_id":"","pricing_plan_id":"cebpf4jnsgd1na2vs0mg"},{"bike_id":"ac9cfb47-6491-4537-bdd0-177ab07e5667","system_id":"levelo_inurba_marseille","lat":43.31334,"lon":5.36713,"is_reserved":false,"is_disabled":false,"rental_uris":{"android":"levelo://app?vid=ac9cfb47-6491-4537-bdd0-177ab07e5667","ios":"levelo://app?vid=ac9cfb47-6491-4537-bdd0-177ab07e5667"},"vehicle_type_id":"4","last_reported":1775134111,"current_range_meters":4000,"station_id":"ce4bgr92rcd13ifvqc6g","pricing_plan_id":"cebpf4jnsgd1na2vs0mg"},{"bike_id":"7b9afc77-0e17-48ba-b360-a407675726ad","system_id":"levelo_inurba_marseille","lat":43.2887,"lon":5.42517,"is_reserved":false,"is_disabled":false,"rental_uris":{"android":"levelo://app?vid=7b9afc77-0e17-48ba-b360-a407675726ad","ios":"levelo://app?vid=7b9afc77-0e17-48ba-b360-a407675726ad"},"vehicle_type_id":"4","last_reported":1775134111,"current_range_meters":4000,"station_id":"st_d3b462108ojc7389ooeg","pricing_plan_id":"cebpf4jnsgd1na2vs0mg"},{"bike_id":"a81f7642-6bd6-4097-af23-f70da54d08c0","system_id":"levelo_inurba_marseille","lat":43.2418,"lon":5.39727,"is_reserved":false,"is_disabled":false,"rental_uris":{"android":"levelo://app?vid=a81f7642-6bd6-4097-af23-f70da54d08c0","ios":"levelo://app?vid=a81f7642-6bd6-4097-af23-f70da54d08c0"},"vehicle_type_id":"4","last_reported":1775134111,"current_range_meters":4000,"station_id":"ce4bhn12rcd13ifvqgpg","pricing_plan_id":"cebpf4jnsgd1na2vs0mg"},{"bike_id":"c2e7728f-c323-4fcc-a752-e96078414027","system_id":"levelo_inurba_marseille","lat":43.30863,"lon":5.38851,"is_reserved":false,"is_disabled":false,"rental_uris":{"android":"levelo://app?vid=c2e7728f-c323-4fcc-a752-e96078414027","ios":"levelo://app?vid=c2e7728f-c323-4fcc-a752-e96078414027"},"vehicle_type_id":"4","last_reported":1775134111,"current_range_meters":4000,"station_id":"","pricing_plan_id":"cebpf4jnsgd1na2vs0mg"},{"bike_id":"87e3d3dc-ed41-4697-9ed0-7234ba2d7e1d","system_id":"levelo_inurba_marseille","lat":43.30427,"lon":5.38885,"is_reserved":false,"is_disabled":false,"rental_uris":{"android":"levelo://app?vid=87e3d3dc-ed41-4697-9ed0-7234ba2d7e1d","ios":"levelo://app?vid=87e3d3dc-ed41-4697-9ed0-7234ba2d7e1d"},"vehicle_type_id":"4","last_reported":1775134111,"current_range_meters":4000,"station_id":"ce4bgk12rcd13ifvqbi0","pricing_plan_id":"cebpf4jnsgd1na2vs0mg"},{"bike_id":"c01d9e49-fff9-456c-8c86-45ce90e055c7","system_id":"levelo_inurba_marseille","lat":43.31233,"lon":5.36843,"is_reserved":false,"is_disabled":false,"rental_uris":{"android":"levelo://app?vid=c01d9e49-fff9-456c-8c86-45ce90e055c7","ios":"levelo://app?vid=c01d9e49-fff9-456c-8c86-45ce90e055c7"},"vehicle_type_id":"4","last_reported":1775134111,"current_range_meters":4000,"station_id":"ce4bgl92rcd13ifvqbq0","pricing_plan_id":"cebpf4jnsgd1na2vs0mg"},{"bike_id":"bed085cd-e643-4cf8-a83c-4e3f37218df7","system_id":"levelo_inurba_marseille","lat":43.23134,"lon":5.40162,"is_reserved":false,"is_disabled":false,"rental_uris":{"android":"levelo://app?vid=bed085cd-e643-4cf8-a83c-4e3f37218df7","ios":"levelo://app?vid=bed085cd-e643-4cf8-a83c-4e3f37218df7"},"vehicle_type_id":"4","last_reported":1775134111,"current_range_meters":4000,"station_id":"","pricing_plan_id":"cebpf4jnsgd1na2vs0mg"},{"bike_id":"c267eaf3-200a-4a1c-8074-fa1f1a8154c6","system_id":"levelo_inurba_marseille","lat":43.21744,"lon":5.34602,"is_reserved":false,"is_disabled":false,"rental_uris":{"android":"levelo://app?vid=c267eaf3-200a-4a1c-8074-fa1f1a8154c6","ios":"levelo://app?vid=c267eaf3-200a-4a1c-8074-fa1f1a8154c6"},"vehicle_type_id":"4","last_reported":1775134111,"current_range_meters":4000,"station_id":"st_cvj6r9ubvosntc0bgbag","pricing_plan_id":"cebpf4jnsgd1na2vs0mg"},{"bike_id":"dbafccf7-0909-44bd-86f0-abe7aa0ed694","system_id":"levelo_inurba_marseille","lat":43.29049,"lon":5.43601,"is_reserved":false,"is_disabled":false,"rental_uris":{"android":"levelo://app?vid=dbafccf7-0909-44bd-86f0-abe7aa0ed694","ios":"levelo://app?vid=dbafccf7-0909-44bd-86f0-abe7aa0ed694"},"vehicle_type_id":"4","last_reported":1775134111,"current_range_meters":4400,"station_id":"","pricing_plan_id":"cebpf4jnsgd1na2vs0mg"},{"bike_id":"dce4483f-8437-4e51-a485-855a840fe68e","system_id":"levelo_inurba_marseille","lat":43.30962,"lon":5.39036,"is_reserved":false,"is_disabled":false,"rental_uris":{"android":"levelo://app?vid=dce4483f-8437-4e51-a485-855a840fe68e","ios":"levelo://app?vid=dce4483f-8437-4e51-a485-855a840fe68e"},"vehicle_type_id":"4","last_reported":1775134111,"current_range_meters":4400,"station_id":"ce4bgup2rcd13ifvqco0","pricing_plan_id":"cebpf4jnsgd1na2vs0mg"},{"bike_id":"ffde6a95-5dec-426a-943f-3ce4b714e7dc","system_id":"levelo_inurba_marseille","lat":43.21753,"lon":5.34575,"is_reserved":false,"is_disabled":false,"rental_uris":{"android":"levelo://app?vid=ffde6a95-5dec-426a-943f-3ce4b714e7dc","ios":"levelo://app?vid=ffde6a95-5dec-426a-943f-3ce4b714e7dc"},"vehicle_type_id":"4","last_reported":1775134111,"current_range_meters":4400,"station_id":"st_cvj6r9ubvosntc0bgbag","pricing_plan_id":"cebpf4jnsgd1na2vs0mg"},{"bike_id":"68945dd7-fcc7-4d4c-a459-6c84a8a17358","system_id":"levelo_inurba_marseille","lat":43.23979,"lon":5.36608,"is_reserved":false,"is_disabled":false,"rental_uris":{"android":"levelo://app?vid=68945dd7-fcc7-4d4c-a459-6c84a8a17358","ios":"levelo://app?vid=68945dd7-fcc7-4d4c-a459-6c84a8a17358"},"vehicle_type_id":"4","last_reported":1775134111,"current_range_meters":4400,"station_id":"ce4bhi12rcd13ifvqfp0","pricing_plan_id":"cebpf4jnsgd1na2vs0mg"},{"bike_id":"922cbae4-a4d7-4bde-bdea-8dbb21963e3e","system_id":"levelo_inurba_marseille","lat":43.26568,"lon":5.37285,"is_reserved":false,"is_disabled":false,"rental_uris":{"android":"levelo://app?vid=922cbae4-a4d7-4bde-bdea-8dbb21963e3e","ios":"levelo://app?vid=922cbae4-a4d7-4bde-bdea-8dbb21963e3e"},"vehicle_type_id":"4","last_reported":1775134111,"current_range_meters":4400,"station_id":"ce4bhg12rcd13ifvqf70","pricing_plan_id":"cebpf4jnsgd1na2vs0mg"},{"bike_id":"da46a4c6-14ff-4547-851e-67aeaa7cd5b0","system_id":"levelo_inurba_marseille","lat":43.24822,"lon":5.37436,"is_reserved":false,"is_disabled":false,"rental_uris":{"android":"levelo://app?vid=da46a4c6-14ff-4547-851e-67aeaa7cd5b0","ios":"levelo://app?vid=da46a4c6-14ff-4547-851e-67aeaa7cd5b0"},"vehicle_type_id":"4","last_reported":1775134111,"current_range_meters":4400,"station_id":"ce4bhgh2rcd13ifvqfb0","pricing_plan_id":"cebpf4jnsgd1na2vs0mg"},{"bike_id":"a17dbbf9-2919-4aa7-a6bc-4d101b9dc30c","system_id":"levelo_inurba_marseille","lat":43.27522,"lon":5.40912,"is_reserved":false,"is_disabled":false,"rental_uris":{"android":"levelo://app?vid=a17dbbf9-2919-4aa7-a6bc-4d101b9dc30c","ios":"levelo://app?vid=a17dbbf9-2919-4aa7-a6bc-4d101b9dc30c"},"vehicle_type_id":"4","last_reported":1775134111,"current_range_meters":4400,"station_id":"","pricing_plan_id":"cebpf4jnsgd1na2vs0mg"},{"bike_id":"bd745af4-b1d4-4322-9723-4db0fa7083f7","system_id":"levelo_inurba_marseille","lat":43.30963,"lon":5.39022,"is_reserved":false,"is_disabled":false,"rental_uris":{"android":"levelo://app?vid=bd745af4-b1d4-4322-9723-4db0fa7083f7","ios":"levelo://app?vid=bd745af4-b1d4-4322-9723-4db0fa7083f7"},"vehicle_type_id":"4","last_reported":1775134111,"current_range_meters":4400,"station_id":"ce4bgup2rcd13ifvqco0","pricing_plan_id":"cebpf4jnsgd1na2vs0mg"},{"bike_id":"044d0e04-4a13-414f-aa0d-6345aea274e6","system_id":"levelo_inurba_marseille","lat":43.29584,"lon":5.375,"is_reserved":false,"is_disabled":true,"rental_uris":{"android":"levelo://app?vid=044d0e04-4a13-414f-aa0d-6345aea274e6","ios":"levelo://app?vid=044d0e04-4a13-414f-aa0d-6345aea274e6"},"vehicle_type_id":"4","last_reported":1775134111,"current_range_meters":4800,"station_id":"ce4bgh92rcd13ifvqb50","pricing_plan_id":"cebpf4jnsgd1na2vs0mg"},{"bike_id":"b97544d4-fc20-4746-a137-2d69f3584b87","system_id":"levelo_inurba_marseille","lat":43.22534,"lon":5.34827,"is_reserved":false,"is_disabled":false,"rental_uris":{"android":"levelo://app?vid=b97544d4-fc20-4746-a137-2d69f3584b87","ios":"levelo://app?vid=b97544d4-fc20-4746-a137-2d69f3584b87"},"vehicle_type_id":"4","last_reported":1775134111,"current_range_meters":4800,"station_id":"st_cvj5dfep6f1abm77gieg","pricing_plan_id":"cebpf4jnsgd1na2vs0mg"},{"bike_id":"0a4ace7c-ab80-4da3-82e6-6613116e4ad5","system_id":"levelo_inurba_marseille","lat":43.24642,"lon":5.38905,"is_reserved":false,"is_disabled":false,"rental_uris":{"android":"levelo://app?vid=0a4ace7c-ab80-4da3-82e6-6613116e4ad5","ios":"levelo://app?vid=0a4ace7c-ab80-4da3-82e6-6613116e4ad5"},"vehicle_type_id":"4","last_reported":1775134111,"current_range_meters":4800,"station_id":"ce4bhg12rcd13ifvqf60","pricing_plan_id":"cebpf4jnsgd1na2vs0mg"},{"bike_id":"28902c85-2ce9-4ec9-adfe-51cf4064fa09","system_id":"levelo_inurba_marseille","lat":43.2845,"lon":5.39197,"is_reserved":false,"is_disabled":true,"rental_uris":{"android":"levelo://app?vid=28902c85-2ce9-4ec9-adfe-51cf4064fa09","ios":"levelo://app?vid=28902c85-2ce9-4ec9-adfe-51cf4064fa09"},"vehicle_type_id":"4","last_reported":1775134111,"current_range_meters":4800,"station_id":"ce4bhoh2rcd13ifvqh5g","pricing_plan_id":"cebpf4jnsgd1na2vs0mg"},{"bike_id":"32bbc785-7878-457c-9b63-c753cac045af","system_id":"levelo_inurba_marseille","lat":43.21747,"lon":5.34598,"is_reserved":false,"is_disabled":false,"rental_uris":{"android":"levelo://app?vid=32bbc785-7878-457c-9b63-c753cac045af","ios":"levelo://app?vid=32bbc785-7878-457c-9b63-c753cac045af"},"vehicle_type_id":"4","last_reported":1775134111,"current_range_meters":4800,"station_id":"st_cvj6r9ubvosntc0bgbag","pricing_plan_id":"cebpf4jnsgd1na2vs0mg"},{"bike_id":"50dbb98a-b975-4f0e-b47f-dfca01a844ad","system_id":"levelo_inurba_marseille","lat":43.2583,"lon":5.39445,"is_reserved":false,"is_disabled":false,"rental_uris":{"android":"levelo://app?vid=50dbb98a-b975-4f0e-b47f-dfca01a844ad","ios":"levelo://app?vid=50dbb98a-b975-4f0e-b47f-dfca01a844ad"},"vehicle_type_id":"4","last_reported":1775134111,"current_range_meters":4800,"station_id":"ce4bhip2rcd13ifvqft0","pricing_plan_id":"cebpf4jnsgd1na2vs0mg"},{"bike_id":"1bdbf982-d656-4173-91b1-d3055e78d6cd","system_id":"levelo_inurba_marseille","lat":43.2256,"lon":5.41626,"is_reserved":false,"is_disabled":false,"rental_uris":{"android":"levelo://app?vid=1bdbf982-d656-4173-91b1-d3055e78d6cd","ios":"levelo://app?vid=1bdbf982-d656-4173-91b1-d3055e78d6cd"},"vehicle_type_id":"4","last_reported":1775134111,"current_range_meters":4800,"station_id":"st_d2o4gvlbi1j2169b742g","pricing_plan_id":"cebpf4jnsgd1na2vs0mg"},{"bike_id":"4be31217-ede8-46fc-86c8-106fd2f046bc","system_id":"levelo_inurba_marseille","lat":43.306042,"lon":5.372337,"is_reserved":false,"is_disabled":false,"rental_uris":{"android":"levelo://app?vid=4be31217-ede8-46fc-86c8-106fd2f046bc","ios":"levelo://app?vid=4be31217-ede8-46fc-86c8-106fd2f046bc"},"vehicle_type_id":"4","last_reported":1775134111,"current_range_meters":4800,"station_id":"ce4bgqh2rcd13ifvqc4g","pricing_plan_id":"cebpf4jnsgd1na2vs0mg"},{"bike_id":"fcc76792-8f25-4c34-9187-bb7b39eab8b7","system_id":"levelo_inurba_marseille","lat":43.30514,"lon":5.36541,"is_reserved":false,"is_disabled":false,"rental_uris":{"android":"levelo://app?vid=fcc76792-8f25-4c34-9187-bb7b39eab8b7","ios":"levelo://app?vid=fcc76792-8f25-4c34-9187-bb7b39eab8b7"},"vehicle_type_id":"4","last_reported":1775134111,"current_range_meters":4800,"station_id":"","pricing_plan_id":"cebpf4jnsgd1na2vs0mg"},{"bike_id":"b38958e0-be28-496a-863e-67eb9ce698ba","system_id":"levelo_inurba_marseille","lat":43.2998,"lon":5.38475,"is_reserved":false,"is_disabled":false,"rental_uris":{"android":"levelo://app?vid=b38958e0-be28-496a-863e-67eb9ce698ba","ios":"levelo://app?vid=b38958e0-be28-496a-863e-67eb9ce698ba"},"vehicle_type_id":"4","last_reported":1775134111,"current_range_meters":4800,"station_id":"ce4bgj92rcd13ifvqbd0","pricing_plan_id":"cebpf4jnsgd1na2vs0mg"},{"bike_id":"fe73f2af-d468-4c03-9079-e13adb2eb8bf","system_id":"levelo_inurba_marseille","lat":43.30532,"lon":5.36528,"is_reserved":false,"is_disabled":false,"rental_uris":{"android":"levelo://app?vid=fe73f2af-d468-4c03-9079-e13adb2eb8bf","ios":"levelo://app?vid=fe73f2af-d468-4c03-9079-e13adb2eb8bf"},"vehicle_type_id":"4","last_reported":1775134111,"current_range_meters":4800,"station_id":"ce4bgs12rcd13ifvqcag","pricing_plan_id":"cebpf4jnsgd1na2vs0mg"},{"bike_id":"ef8d4fc8-6bc3-4a9f-a476-2d23d9d29968","system_id":"levelo_inurba_marseille","lat":43.29272,"lon":5.40102,"is_reserved":false,"is_disabled":true,"rental_uris":{"android":"levelo://app?vid=ef8d4fc8-6bc3-4a9f-a476-2d23d9d29968","ios":"levelo://app?vid=ef8d4fc8-6bc3-4a9f-a476-2d23d9d29968"},"vehicle_type_id":"4","last_reported":1775134111,"current_range_meters":4800,"station_id":"ce4bh312rcd13ifvqdk0","pricing_plan_id":"cebpf4jnsgd1na2vs0mg"},{"bike_id":"465c3b97-fa3b-4987-a0da-c02fe6cfecbd","system_id":"levelo_inurba_marseille","lat":43.31003,"lon":5.37158,"is_reserved":false,"is_disabled":false,"rental_uris":{"android":"levelo://app?vid=465c3b97-fa3b-4987-a0da-c02fe6cfecbd","ios":"levelo://app?vid=465c3b97-fa3b-4987-a0da-c02fe6cfecbd"},"vehicle_type_id":"4","last_reported":1775134111,"current_range_meters":5600,"station_id":"","pricing_plan_id":"cebpf4jnsgd1na2vs0mg"},{"bike_id":"78151f0b-d096-4bc8-9d04-f28fec21246f","system_id":"levelo_inurba_marseille","lat":43.23197,"lon":5.39936,"is_reserved":false,"is_disabled":false,"rental_uris":{"android":"levelo://app?vid=78151f0b-d096-4bc8-9d04-f28fec21246f","ios":"levelo://app?vid=78151f0b-d096-4bc8-9d04-f28fec21246f"},"vehicle_type_id":"4","last_reported":1775134111,"current_range_meters":5600,"station_id":"","pricing_plan_id":"cebpf4jnsgd1na2vs0mg"},{"bike_id":"1b89f2e1-0726-4a0a-ba7f-f4397fe41860","system_id":"levelo_inurba_marseille","lat":43.28594,"lon":5.38381,"is_reserved":false,"is_disabled":false,"rental_uris":{"android":"levelo://app?vid=1b89f2e1-0726-4a0a-ba7f-f4397fe41860","ios":"levelo://app?vid=1b89f2e1-0726-4a0a-ba7f-f4397fe41860"},"vehicle_type_id":"4","last_reported":1775134111,"current_range_meters":5600,"station_id":"","pricing_plan_id":"cebpf4jnsgd1na2vs0mg"},{"bike_id":"8d67b323-4095-4405-9704-9e7776fd3be7","system_id":"levelo_inurba_marseille","lat":43.21198,"lon":5.35036,"is_reserved":false,"is_disabled":false,"rental_uris":{"android":"levelo://app?vid=8d67b323-4095-4405-9704-9e7776fd3be7","ios":"levelo://app?vid=8d67b323-4095-4405-9704-9e7776fd3be7"},"vehicle_type_id":"4","last_reported":1775134111,"current_range_meters":5600,"station_id":"st_cvj6sg6p6f1abm77japg","pricing_plan_id":"cebpf4jnsgd1na2vs0mg"},{"bike_id":"4b3c825a-c5e6-42c6-af30-700063fa913d","system_id":"levelo_inurba_marseille","lat":43.25981,"lon":5.37596,"is_reserved":false,"is_disabled":true,"rental_uris":{"android":"levelo://app?vid=4b3c825a-c5e6-42c6-af30-700063fa913d","ios":"levelo://app?vid=4b3c825a-c5e6-42c6-af30-700063fa913d"},"vehicle_type_id":"4","last_reported":1775134111,"current_range_meters":5600,"station_id":"","pricing_plan_id":"cebpf4jnsgd1na2vs0mg"},{"bike_id":"2a66931b-9ad6-4c16-b5da-9b2ebeed0433","system_id":"levelo_inurba_marseille","lat":43.29534,"lon":5.39039,"is_reserved":false,"is_disabled":false,"rental_uris":{"android":"levelo://app?vid=2a66931b-9ad6-4c16-b5da-9b2ebeed0433","ios":"levelo://app?vid=2a66931b-9ad6-4c16-b5da-9b2ebeed0433"},"vehicle_type_id":"4","last_reported":1775134111,"current_range_meters":5600,"station_id":"ce4bh3p2rcd13ifvqdp0","pricing_plan_id":"cebpf4jnsgd1na2vs0mg"},{"bike_id":"54ed8ed4-a295-4f05-a94c-10db1e3683a2","system_id":"levelo_inurba_marseille","lat":43.31223,"lon":5.36872,"is_reserved":false,"is_disabled":false,"rental_uris":{"android":"levelo://app?vid=54ed8ed4-a295-4f05-a94c-10db1e3683a2","ios":"levelo://app?vid=54ed8ed4-a295-4f05-a94c-10db1e3683a2"},"vehicle_type_id":"4","last_reported":1775134111,"current_range_meters":5600,"station_id":"ce4bgl92rcd13ifvqbq0","pricing_plan_id":"cebpf4jnsgd1na2vs0mg"},{"bike_id":"17b8fc26-3ba8-4cf9-a457-0b2cc0ec871e","system_id":"levelo_inurba_marseille","lat":43.27513,"lon":5.41656,"is_reserved":false,"is_disabled":false,"rental_uris":{"android":"levelo://app?vid=17b8fc26-3ba8-4cf9-a457-0b2cc0ec871e","ios":"levelo://app?vid=17b8fc26-3ba8-4cf9-a457-0b2cc0ec871e"},"vehicle_type_id":"4","last_reported":1775134111,"current_range_meters":5600,"station_id":"","pricing_plan_id":"cebpf4jnsgd1na2vs0mg"},{"bike_id":"c22ffa75-839c-40e9-954e-51d78e1b76a9","system_id":"levelo_inurba_marseille","lat":43.24388,"lon":5.37064,"is_reserved":false,"is_disabled":false,"rental_uris":{"android":"levelo://app?vid=c22ffa75-839c-40e9-954e-51d78e1b76a9","ios":"levelo://app?vid=c22ffa75-839c-40e9-954e-51d78e1b76a9"},"vehicle_type_id":"4","last_reported":1775134111,"current_range_meters":5600,"station_id":"ce4bhhh2rcd13ifvqfk0","pricing_plan_id":"cebpf4jnsgd1na2vs0mg"},{"bike_id":"e9b3f906-3c96-41d2-bde3-70019147dd95","system_id":"levelo_inurba_marseille","lat":43.22564,"lon":5.41631,"is_reserved":false,"is_disabled":false,"rental_uris":{"android":"levelo://app?vid=e9b3f906-3c96-41d2-bde3-70019147dd95","ios":"levelo://app?vid=e9b3f906-3c96-41d2-bde3-70019147dd95"},"vehicle_type_id":"4","last_reported":1775134111,"current_range_meters":5600,"station_id":"st_d2o4gvlbi1j2169b742g","pricing_plan_id":"cebpf4jnsgd1na2vs0mg"},{"bike_id":"710dbe45-c511-40ed-9ed9-1842bac89e31","system_id":"levelo_inurba_marseille","lat":43.33609,"lon":5.41043,"is_reserved":false,"is_disabled":false,"rental_uris":{"android":"levelo://app?vid=710dbe45-c511-40ed-9ed9-1842bac89e31","ios":"levelo://app?vid=710dbe45-c511-40ed-9ed9-1842bac89e31"},"vehicle_type_id":"4","last_reported":1775134111,"current_range_meters":5600,"station_id":"ce4bhqh2rcd13ifvqhmg","pricing_plan_id":"cebpf4jnsgd1na2vs0mg"},{"bike_id":"2b176618-2114-4a94-bc43-fa6914887efb","system_id":"levelo_inurba_marseille","lat":43.33545,"lon":5.37482,"is_reserved":false,"is_disabled":false,"rental_uris":{"android":"levelo://app?vid=2b176618-2114-4a94-bc43-fa6914887efb","ios":"levelo://app?vid=2b176618-2114-4a94-bc43-fa6914887efb"},"vehicle_type_id":"4","last_reported":1775134111,"current_range_meters":5600,"station_id":"st_d46tts09ee8s73dlu43g","pricing_plan_id":"cebpf4jnsgd1na2vs0mg"},{"bike_id":"052f68eb-b3d2-4c29-a99d-37f9d3e34be6","system_id":"levelo_inurba_marseille","lat":43.2487,"lon":5.42653,"is_reserved":false,"is_disabled":false,"rental_uris":{"android":"levelo://app?vid=052f68eb-b3d2-4c29-a99d-37f9d3e34be6","ios":"levelo://app?vid=052f68eb-b3d2-4c29-a99d-37f9d3e34be6"},"vehicle_type_id":"4","last_reported":1775134111,"current_range_meters":5600,"station_id":"","pricing_plan_id":"cebpf4jnsgd1na2vs0mg"},{"bike_id":"0b417d6b-01e3-4a7a-87a5-ad7ec5b3190a","system_id":"levelo_inurba_marseille","lat":43.23153,"lon":5.43718,"is_reserved":false,"is_disabled":false,"rental_uris":{"android":"levelo://app?vid=0b417d6b-01e3-4a7a-87a5-ad7ec5b3190a","ios":"levelo://app?vid=0b417d6b-01e3-4a7a-87a5-ad7ec5b3190a"},"vehicle_type_id":"4","last_reported":1775134111,"current_range_meters":5600,"station_id":"ce4bhmp2rcd13ifvqgog","pricing_plan_id":"cebpf4jnsgd1na2vs0mg"},{"bike_id":"751823b1-fecf-476f-a14d-b22ea92d3e4c","system_id":"levelo_inurba_marseille","lat":43.29187,"lon":5.42681,"is_reserved":false,"is_disabled":false,"rental_uris":{"android":"levelo://app?vid=751823b1-fecf-476f-a14d-b22ea92d3e4c","ios":"levelo://app?vid=751823b1-fecf-476f-a14d-b22ea92d3e4c"},"vehicle_type_id":"4","last_reported":1775134111,"current_range_meters":5600,"station_id":"","pricing_plan_id":"cebpf4jnsgd1na2vs0mg"},{"bike_id":"41cd8bf1-f074-41ef-a621-11928c4a85e3","system_id":"levelo_inurba_marseille","lat":43.31059,"lon":5.37198,"is_reserved":false,"is_disabled":false,"rental_uris":{"android":"levelo://app?vid=41cd8bf1-f074-41ef-a621-11928c4a85e3","ios":"levelo://app?vid=41cd8bf1-f074-41ef-a621-11928c4a85e3"},"vehicle_type_id":"4","last_reported":1775134111,"current_range_meters":5600,"station_id":"st_d4kl2rp97mjs73e7tdfg","pricing_plan_id":"cebpf4jnsgd1na2vs0mg"},{"bike_id":"85844a9c-a993-495a-be4d-4c12ee28db09","system_id":"levelo_inurba_marseille","lat":43.24958,"lon":5.40498,"is_reserved":false,"is_disabled":false,"rental_uris":{"android":"levelo://app?vid=85844a9c-a993-495a-be4d-4c12ee28db09","ios":"levelo://app?vid=85844a9c-a993-495a-be4d-4c12ee28db09"},"vehicle_type_id":"4","last_reported":1775134111,"current_range_meters":5600,"station_id":"st_d2ngiaodas8pm72gd1h0","pricing_plan_id":"cebpf4jnsgd1na2vs0mg"},{"bike_id":"fa52ce35-6ea9-4f46-bfd2-c8715437ce36","system_id":"levelo_inurba_marseille","lat":43.31089,"lon":5.37163,"is_reserved":false,"is_disabled":false,"rental_uris":{"android":"levelo://app?vid=fa52ce35-6ea9-4f46-bfd2-c8715437ce36","ios":"levelo://app?vid=fa52ce35-6ea9-4f46-bfd2-c8715437ce36"},"vehicle_type_id":"4","last_reported":1775134111,"current_range_meters":6000,"station_id":"st_d4kl2rp97mjs73e7tdfg","pricing_plan_id":"cebpf4jnsgd1na2vs0mg"},{"bike_id":"eb1dc476-538d-4bab-a0e5-6a32e006e93b","system_id":"levelo_inurba_marseille","lat":43.28847,"lon":5.35832,"is_reserved":false,"is_disabled":false,"rental_uris":{"android":"levelo://app?vid=eb1dc476-538d-4bab-a0e5-6a32e006e93b","ios":"levelo://app?vid=eb1dc476-538d-4bab-a0e5-6a32e006e93b"},"vehicle_type_id":"4","last_reported":1775134111,"current_range_meters":6000,"station_id":"ce4bhb12rcd13ifvqem0","pricing_plan_id":"cebpf4jnsgd1na2vs0mg"},{"bike_id":"fd8a1152-1ce7-4d23-9abe-23b669815d8a","system_id":"levelo_inurba_marseille","lat":43.31217,"lon":5.36865,"is_reserved":false,"is_disabled":false,"rental_uris":{"android":"levelo://app?vid=fd8a1152-1ce7-4d23-9abe-23b669815d8a","ios":"levelo://app?vid=fd8a1152-1ce7-4d23-9abe-23b669815d8a"},"vehicle_type_id":"4","last_reported":1775134111,"current_range_meters":6000,"station_id":"ce4bgl92rcd13ifvqbq0","pricing_plan_id":"cebpf4jnsgd1na2vs0mg"},{"bike_id":"8429f855-c4a0-4803-9ce7-0d1fb93dbfe8","system_id":"levelo_inurba_marseille","lat":43.28556,"lon":5.48336,"is_reserved":false,"is_disabled":false,"rental_uris":{"android":"levelo://app?vid=8429f855-c4a0-4803-9ce7-0d1fb93dbfe8","ios":"levelo://app?vid=8429f855-c4a0-4803-9ce7-0d1fb93dbfe8"},"vehicle_type_id":"4","last_reported":1775134111,"current_range_meters":6000,"station_id":"","pricing_plan_id":"cebpf4jnsgd1na2vs0mg"},{"bike_id":"7a44b039-836a-4b6a-b321-6853ea723941","system_id":"levelo_inurba_marseille","lat":43.24163,"lon":5.36402,"is_reserved":false,"is_disabled":false,"rental_uris":{"android":"levelo://app?vid=7a44b039-836a-4b6a-b321-6853ea723941","ios":"levelo://app?vid=7a44b039-836a-4b6a-b321-6853ea723941"},"vehicle_type_id":"4","last_reported":1775134111,"current_range_meters":6000,"station_id":"cpo36qri1sfpv3e86is0","pricing_plan_id":"cebpf4jnsgd1na2vs0mg"},{"bike_id":"2b43d2c3-beb5-40a2-815f-a9953306ba17","system_id":"levelo_inurba_marseille","lat":43.29928,"lon":5.37443,"is_reserved":false,"is_disabled":false,"rental_uris":{"android":"levelo://app?vid=2b43d2c3-beb5-40a2-815f-a9953306ba17","ios":"levelo://app?vid=2b43d2c3-beb5-40a2-815f-a9953306ba17"},"vehicle_type_id":"4","last_reported":1775134111,"current_range_meters":6000,"station_id":"ce4bgjh2rcd13ifvqbg0","pricing_plan_id":"cebpf4jnsgd1na2vs0mg"},{"bike_id":"7666b094-a043-46d5-89c7-2136b9652383","system_id":"levelo_inurba_marseille","lat":43.21762,"lon":5.34583,"is_reserved":false,"is_disabled":false,"rental_uris":{"android":"levelo://app?vid=7666b094-a043-46d5-89c7-2136b9652383","ios":"levelo://app?vid=7666b094-a043-46d5-89c7-2136b9652383"},"vehicle_type_id":"4","last_reported":1775134111,"current_range_meters":6000,"station_id":"st_cvj6r9ubvosntc0bgbag","pricing_plan_id":"cebpf4jnsgd1na2vs0mg"},{"bike_id":"cac3c55f-dcf5-4706-9051-185e14264ce9","system_id":"levelo_inurba_marseille","lat":43.26018,"lon":5.37555,"is_reserved":false,"is_disabled":false,"rental_uris":{"android":"levelo://app?vid=cac3c55f-dcf5-4706-9051-185e14264ce9","ios":"levelo://app?vid=cac3c55f-dcf5-4706-9051-185e14264ce9"},"vehicle_type_id":"4","last_reported":1775134111,"current_range_meters":6000,"station_id":"ce4bhgh2rcd13ifvqfa0","pricing_plan_id":"cebpf4jnsgd1na2vs0mg"},{"bike_id":"2be64f19-432b-4d07-98a7-6e9bfd23e981","system_id":"levelo_inurba_marseille","lat":43.2976,"lon":5.4278,"is_reserved":false,"is_disabled":false,"rental_uris":{"android":"levelo://app?vid=2be64f19-432b-4d07-98a7-6e9bfd23e981","ios":"levelo://app?vid=2be64f19-432b-4d07-98a7-6e9bfd23e981"},"vehicle_type_id":"4","last_reported":1775134111,"current_range_meters":6000,"station_id":"st_d3md5207bmas73dh9klg","pricing_plan_id":"cebpf4jnsgd1na2vs0mg"},{"bike_id":"36324448-9147-4274-9bae-5f508f780811","system_id":"levelo_inurba_marseille","lat":43.27212,"lon":5.39183,"is_reserved":false,"is_disabled":false,"rental_uris":{"android":"levelo://app?vid=36324448-9147-4274-9bae-5f508f780811","ios":"levelo://app?vid=36324448-9147-4274-9bae-5f508f780811"},"vehicle_type_id":"4","last_reported":1775134111,"current_range_meters":6000,"station_id":"ce4bhhp2rcd13ifvqfm0","pricing_plan_id":"cebpf4jnsgd1na2vs0mg"},{"bike_id":"cce71867-af00-4efb-acca-1ad994ce58c1","system_id":"levelo_inurba_marseille","lat":43.33165,"lon":5.37695,"is_reserved":false,"is_disabled":false,"rental_uris":{"android":"levelo://app?vid=cce71867-af00-4efb-acca-1ad994ce58c1","ios":"levelo://app?vid=cce71867-af00-4efb-acca-1ad994ce58c1"},"vehicle_type_id":"4","last_reported":1775134111,"current_range_meters":6000,"station_id":"st_d46cu089ee8s73dldbu0","pricing_plan_id":"cebpf4jnsgd1na2vs0mg"},{"bike_id":"0c7b7146-ea70-46cb-8ebb-6ecd2332c233","system_id":"levelo_inurba_marseille","lat":43.29014,"lon":5.3561,"is_reserved":false,"is_disabled":false,"rental_uris":{"android":"levelo://app?vid=0c7b7146-ea70-46cb-8ebb-6ecd2332c233","ios":"levelo://app?vid=0c7b7146-ea70-46cb-8ebb-6ecd2332c233"},"vehicle_type_id":"4","last_reported":1775134111,"current_range_meters":6000,"station_id":"ce4bhb92rcd13ifvqen0","pricing_plan_id":"cebpf4jnsgd1na2vs0mg"},{"bike_id":"4e48773f-30f8-41cd-9be2-e8fe81c25162","system_id":"levelo_inurba_marseille","lat":43.21172,"lon":5.3519,"is_reserved":false,"is_disabled":false,"rental_uris":{"android":"levelo://app?vid=4e48773f-30f8-41cd-9be2-e8fe81c25162","ios":"levelo://app?vid=4e48773f-30f8-41cd-9be2-e8fe81c25162"},"vehicle_type_id":"4","last_reported":1775134111,"current_range_meters":6400,"station_id":"","pricing_plan_id":"cebpf4jnsgd1na2vs0mg"},{"bike_id":"ede576d6-306b-4f55-a88c-3cfbe8a323ba","system_id":"levelo_inurba_marseille","lat":43.2958,"lon":5.36736,"is_reserved":false,"is_disabled":false,"rental_uris":{"android":"levelo://app?vid=ede576d6-306b-4f55-a88c-3cfbe8a323ba","ios":"levelo://app?vid=ede576d6-306b-4f55-a88c-3cfbe8a323ba"},"vehicle_type_id":"4","last_reported":1775134111,"current_range_meters":6400,"station_id":"ce4bgph2rcd13ifvqc2g","pricing_plan_id":"cebpf4jnsgd1na2vs0mg"},{"bike_id":"eb13de84-eec1-4b89-9f29-8496bfcf3cc1","system_id":"levelo_inurba_marseille","lat":43.302857,"lon":5.404393,"is_reserved":false,"is_disabled":false,"rental_uris":{"android":"levelo://app?vid=eb13de84-eec1-4b89-9f29-8496bfcf3cc1","ios":"levelo://app?vid=eb13de84-eec1-4b89-9f29-8496bfcf3cc1"},"vehicle_type_id":"4","last_reported":1775134111,"current_range_meters":6400,"station_id":"ce4bh012rcd13ifvqd10","pricing_plan_id":"cebpf4jnsgd1na2vs0mg"},{"bike_id":"bd0ac768-7c9c-45a3-a37e-3f8f101dd4fa","system_id":"levelo_inurba_marseille","lat":43.22535,"lon":5.34808,"is_reserved":false,"is_disabled":false,"rental_uris":{"android":"levelo://app?vid=bd0ac768-7c9c-45a3-a37e-3f8f101dd4fa","ios":"levelo://app?vid=bd0ac768-7c9c-45a3-a37e-3f8f101dd4fa"},"vehicle_type_id":"4","last_reported":1775134111,"current_range_meters":6400,"station_id":"st_cvj5dfep6f1abm77gieg","pricing_plan_id":"cebpf4jnsgd1na2vs0mg"},{"bike_id":"11d19dab-7798-472d-a3cd-c1ff1cf623a6","system_id":"levelo_inurba_marseille","lat":43.25029,"lon":5.38909,"is_reserved":false,"is_disabled":false,"rental_uris":{"android":"levelo://app?vid=11d19dab-7798-472d-a3cd-c1ff1cf623a6","ios":"levelo://app?vid=11d19dab-7798-472d-a3cd-c1ff1cf623a6"},"vehicle_type_id":"4","last_reported":1775134111,"current_range_meters":6400,"station_id":"ce4bhgp2rcd13ifvqfd0","pricing_plan_id":"cebpf4jnsgd1na2vs0mg"},{"bike_id":"a5ccb9c6-4f2b-438b-b0de-c6c999b11fec","system_id":"levelo_inurba_marseille","lat":43.2843,"lon":5.3498,"is_reserved":false,"is_disabled":false,"rental_uris":{"android":"levelo://app?vid=a5ccb9c6-4f2b-438b-b0de-c6c999b11fec","ios":"levelo://app?vid=a5ccb9c6-4f2b-438b-b0de-c6c999b11fec"},"vehicle_type_id":"4","last_reported":1775134111,"current_range_meters":6400,"station_id":"ce4bhbh2rcd13ifvqepg","pricing_plan_id":"cebpf4jnsgd1na2vs0mg"},{"bike_id":"3dcfc146-d8e4-4bb5-8aa5-945f3a839802","system_id":"levelo_inurba_marseille","lat":43.27701,"lon":5.38904,"is_reserved":false,"is_disabled":false,"rental_uris":{"android":"levelo://app?vid=3dcfc146-d8e4-4bb5-8aa5-945f3a839802","ios":"levelo://app?vid=3dcfc146-d8e4-4bb5-8aa5-945f3a839802"},"vehicle_type_id":"4","last_reported":1775134111,"current_range_meters":6400,"station_id":"ce4bhi12rcd13ifvqfo0","pricing_plan_id":"cebpf4jnsgd1na2vs0mg"},{"bike_id":"b149b05d-17dc-4174-91fd-6a2d9bb13c8f","system_id":"levelo_inurba_marseille","lat":43.31663,"lon":5.3812,"is_reserved":false,"is_disabled":false,"rental_uris":{"android":"levelo://app?vid=b149b05d-17dc-4174-91fd-6a2d9bb13c8f","ios":"levelo://app?vid=b149b05d-17dc-4174-91fd-6a2d9bb13c8f"},"vehicle_type_id":"4","last_reported":1775134111,"current_range_meters":6400,"station_id":"","pricing_plan_id":"cebpf4jnsgd1na2vs0mg"},{"bike_id":"6ce91bfb-b0c1-4320-95a4-9a09f18eb684","system_id":"levelo_inurba_marseille","lat":43.31698,"lon":5.4047,"is_reserved":false,"is_disabled":false,"rental_uris":{"android":"levelo://app?vid=6ce91bfb-b0c1-4320-95a4-9a09f18eb684","ios":"levelo://app?vid=6ce91bfb-b0c1-4320-95a4-9a09f18eb684"},"vehicle_type_id":"4","last_reported":1775134111,"current_range_meters":6400,"station_id":"ce4bh012rcd13ifvqd00","pricing_plan_id":"cebpf4jnsgd1na2vs0mg"},{"bike_id":"68d2a4ee-b92e-4689-8df0-ae783d53cf34","system_id":"levelo_inurba_marseille","lat":43.2732,"lon":5.39094,"is_reserved":false,"is_disabled":false,"rental_uris":{"android":"levelo://app?vid=68d2a4ee-b92e-4689-8df0-ae783d53cf34","ios":"levelo://app?vid=68d2a4ee-b92e-4689-8df0-ae783d53cf34"},"vehicle_type_id":"4","last_reported":1775134111,"current_range_meters":6400,"station_id":"ce4bhgp2rcd13ifvqfe0","pricing_plan_id":"cebpf4jnsgd1na2vs0mg"},{"bike_id":"62210ce0-a99a-4686-acce-34a5c68d8cfd","system_id":"levelo_inurba_marseille","lat":43.2402,"lon":5.3778,"is_reserved":false,"is_disabled":false,"rental_uris":{"android":"levelo://app?vid=62210ce0-a99a-4686-acce-34a5c68d8cfd","ios":"levelo://app?vid=62210ce0-a99a-4686-acce-34a5c68d8cfd"},"vehicle_type_id":"4","last_reported":1775134111,"current_range_meters":6400,"station_id":"","pricing_plan_id":"cebpf4jnsgd1na2vs0mg"},{"bike_id":"d79043de-c8e5-4bdb-aecd-cc4044485d69","system_id":"levelo_inurba_marseille","lat":43.3316,"lon":5.37682,"is_reserved":false,"is_disabled":false,"rental_uris":{"android":"levelo://app?vid=d79043de-c8e5-4bdb-aecd-cc4044485d69","ios":"levelo://app?vid=d79043de-c8e5-4bdb-aecd-cc4044485d69"},"vehicle_type_id":"4","last_reported":1775134111,"current_range_meters":6400,"station_id":"st_d46cu089ee8s73dldbu0","pricing_plan_id":"cebpf4jnsgd1na2vs0mg"},{"bike_id":"832c5fe5-61fd-4100-967b-f2395c6cf0b3","system_id":"levelo_inurba_marseille","lat":43.28613,"lon":5.37057,"is_reserved":false,"is_disabled":false,"rental_uris":{"android":"levelo://app?vid=832c5fe5-61fd-4100-967b-f2395c6cf0b3","ios":"levelo://app?vid=832c5fe5-61fd-4100-967b-f2395c6cf0b3"},"vehicle_type_id":"4","last_reported":1775134111,"current_range_meters":6400,"station_id":"ce4bht12rcd13ifvqi60","pricing_plan_id":"cebpf4jnsgd1na2vs0mg"},{"bike_id":"7ec93daf-bae4-4c79-9a9f-c866e3f33531","system_id":"levelo_inurba_marseille","lat":43.25578,"lon":5.38239,"is_reserved":false,"is_disabled":false,"rental_uris":{"android":"levelo://app?vid=7ec93daf-bae4-4c79-9a9f-c866e3f33531","ios":"levelo://app?vid=7ec93daf-bae4-4c79-9a9f-c866e3f33531"},"vehicle_type_id":"4","last_reported":1775134111,"current_range_meters":6400,"station_id":"ce4bhih2rcd13ifvqfs0","pricing_plan_id":"cebpf4jnsgd1na2vs0mg"},{"bike_id":"1da5be12-1432-4b5e-987e-1e8d04872807","system_id":"levelo_inurba_marseille","lat":43.29716,"lon":5.36611,"is_reserved":false,"is_disabled":false,"rental_uris":{"android":"levelo://app?vid=1da5be12-1432-4b5e-987e-1e8d04872807","ios":"levelo://app?vid=1da5be12-1432-4b5e-987e-1e8d04872807"},"vehicle_type_id":"4","last_reported":1775134111,"current_range_meters":6400,"station_id":"ce4bgn12rcd13ifvqbt0","pricing_plan_id":"cebpf4jnsgd1na2vs0mg"},{"bike_id":"bdb37c63-8ee2-4344-96c3-48092fad9bb8","system_id":"levelo_inurba_marseille","lat":43.29632,"lon":5.37162,"is_reserved":false,"is_disabled":false,"rental_uris":{"android":"levelo://app?vid=bdb37c63-8ee2-4344-96c3-48092fad9bb8","ios":"levelo://app?vid=bdb37c63-8ee2-4344-96c3-48092fad9bb8"},"vehicle_type_id":"4","last_reported":1775134111,"current_range_meters":6400,"station_id":"ce4bgnh2rcd13ifvqc0g","pricing_plan_id":"cebpf4jnsgd1na2vs0mg"},{"bike_id":"1ddada69-e90e-42d5-84c6-ca6acdb9f7a2","system_id":"levelo_inurba_marseille","lat":43.30055,"lon":5.43892,"is_reserved":false,"is_disabled":false,"rental_uris":{"android":"levelo://app?vid=1ddada69-e90e-42d5-84c6-ca6acdb9f7a2","ios":"levelo://app?vid=1ddada69-e90e-42d5-84c6-ca6acdb9f7a2"},"vehicle_type_id":"4","last_reported":1775134111,"current_range_meters":6800,"station_id":"","pricing_plan_id":"cebpf4jnsgd1na2vs0mg"},{"bike_id":"58d91ae1-8063-4e7d-870c-f6392dad8fd9","system_id":"levelo_inurba_marseille","lat":43.28476,"lon":5.48395,"is_reserved":false,"is_disabled":false,"rental_uris":{"android":"levelo://app?vid=58d91ae1-8063-4e7d-870c-f6392dad8fd9","ios":"levelo://app?vid=58d91ae1-8063-4e7d-870c-f6392dad8fd9"},"vehicle_type_id":"4","last_reported":1775134111,"current_range_meters":6800,"station_id":"","pricing_plan_id":"cebpf4jnsgd1na2vs0mg"},{"bike_id":"11a3575c-a967-4750-a89c-f077d62c5247","system_id":"levelo_inurba_marseille","lat":43.24671,"lon":5.38161,"is_reserved":false,"is_disabled":false,"rental_uris":{"android":"levelo://app?vid=11a3575c-a967-4750-a89c-f077d62c5247","ios":"levelo://app?vid=11a3575c-a967-4750-a89c-f077d62c5247"},"vehicle_type_id":"4","last_reported":1775134111,"current_range_meters":6800,"station_id":"ce4bhih2rcd13ifvqfr0","pricing_plan_id":"cebpf4jnsgd1na2vs0mg"},{"bike_id":"7d8f3bc3-46ff-4802-82b9-2bf86ded1c15","system_id":"levelo_inurba_marseille","lat":43.33746,"lon":5.37459,"is_reserved":false,"is_disabled":true,"rental_uris":{"android":"levelo://app?vid=7d8f3bc3-46ff-4802-82b9-2bf86ded1c15","ios":"levelo://app?vid=7d8f3bc3-46ff-4802-82b9-2bf86ded1c15"},"vehicle_type_id":"4","last_reported":1775134111,"current_range_meters":6800,"station_id":"","pricing_plan_id":"cebpf4jnsgd1na2vs0mg"},{"bike_id":"0bccd438-ccc6-4db5-a746-92db398465e4","system_id":"levelo_inurba_marseille","lat":43.31435,"lon":5.36952,"is_reserved":false,"is_disabled":false,"rental_uris":{"android":"levelo://app?vid=0bccd438-ccc6-4db5-a746-92db398465e4","ios":"levelo://app?vid=0bccd438-ccc6-4db5-a746-92db398465e4"},"vehicle_type_id":"4","last_reported":1775134111,"current_range_meters":6800,"station_id":"","pricing_plan_id":"cebpf4jnsgd1na2vs0mg"},{"bike_id":"4d5384d3-8484-4fd4-ab3e-42cf8d8ddb2b","system_id":"levelo_inurba_marseille","lat":43.2887,"lon":5.42501,"is_reserved":false,"is_disabled":false,"rental_uris":{"android":"levelo://app?vid=4d5384d3-8484-4fd4-ab3e-42cf8d8ddb2b","ios":"levelo://app?vid=4d5384d3-8484-4fd4-ab3e-42cf8d8ddb2b"},"vehicle_type_id":"4","last_reported":1775134111,"current_range_meters":6800,"station_id":"st_d3b462108ojc7389ooeg","pricing_plan_id":"cebpf4jnsgd1na2vs0mg"},{"bike_id":"b1cb2378-66e2-4e73-a135-28bf0dec66f1","system_id":"levelo_inurba_marseille","lat":43.31292,"lon":5.4409,"is_reserved":false,"is_disabled":false,"rental_uris":{"android":"levelo://app?vid=b1cb2378-66e2-4e73-a135-28bf0dec66f1","ios":"levelo://app?vid=b1cb2378-66e2-4e73-a135-28bf0dec66f1"},"vehicle_type_id":"4","last_reported":1775134111,"current_range_meters":6800,"station_id":"","pricing_plan_id":"cebpf4jnsgd1na2vs0mg"},{"bike_id":"9291dae7-b61f-4b45-8de8-0e850c2d1049","system_id":"levelo_inurba_marseille","lat":43.25582,"lon":5.38218,"is_reserved":false,"is_disabled":false,"rental_uris":{"android":"levelo://app?vid=9291dae7-b61f-4b45-8de8-0e850c2d1049","ios":"levelo://app?vid=9291dae7-b61f-4b45-8de8-0e850c2d1049"},"vehicle_type_id":"4","last_reported":1775134111,"current_range_meters":6800,"station_id":"ce4bhih2rcd13ifvqfs0","pricing_plan_id":"cebpf4jnsgd1na2vs0mg"},{"bike_id":"93b54f12-6027-40ee-aaaf-52c4a5342eb2","system_id":"levelo_inurba_marseille","lat":43.21228,"lon":5.35057,"is_reserved":false,"is_disabled":false,"rental_uris":{"android":"levelo://app?vid=93b54f12-6027-40ee-aaaf-52c4a5342eb2","ios":"levelo://app?vid=93b54f12-6027-40ee-aaaf-52c4a5342eb2"},"vehicle_type_id":"4","last_reported":1775134111,"current_range_meters":6800,"station_id":"","pricing_plan_id":"cebpf4jnsgd1na2vs0mg"},{"bike_id":"023cd25a-3a5c-404f-8d54-b375a56464ca","system_id":"levelo_inurba_marseille","lat":43.27358,"lon":5.42405,"is_reserved":false,"is_disabled":false,"rental_uris":{"android":"levelo://app?vid=023cd25a-3a5c-404f-8d54-b375a56464ca","ios":"levelo://app?vid=023cd25a-3a5c-404f-8d54-b375a56464ca"},"vehicle_type_id":"4","last_reported":1775134111,"current_range_meters":6800,"station_id":"","pricing_plan_id":"cebpf4jnsgd1na2vs0mg"},{"bike_id":"ab06f0c1-dd3c-4093-aae2-11693a90ca5c","system_id":"levelo_inurba_marseille","lat":43.23961,"lon":5.36626,"is_reserved":false,"is_disabled":false,"rental_uris":{"android":"levelo://app?vid=ab06f0c1-dd3c-4093-aae2-11693a90ca5c","ios":"levelo://app?vid=ab06f0c1-dd3c-4093-aae2-11693a90ca5c"},"vehicle_type_id":"4","last_reported":1775134111,"current_range_meters":6800,"station_id":"ce4bhi12rcd13ifvqfp0","pricing_plan_id":"cebpf4jnsgd1na2vs0mg"},{"bike_id":"5017ed3e-5ae8-4a2b-bc3b-d1157886d715","system_id":"levelo_inurba_marseille","lat":43.26557,"lon":5.37283,"is_reserved":false,"is_disabled":false,"rental_uris":{"android":"levelo://app?vid=5017ed3e-5ae8-4a2b-bc3b-d1157886d715","ios":"levelo://app?vid=5017ed3e-5ae8-4a2b-bc3b-d1157886d715"},"vehicle_type_id":"4","last_reported":1775134111,"current_range_meters":6800,"station_id":"ce4bhg12rcd13ifvqf70","pricing_plan_id":"cebpf4jnsgd1na2vs0mg"},{"bike_id":"d6349826-5510-4834-ae61-5f416883040f","system_id":"levelo_inurba_marseille","lat":43.21747,"lon":5.34595,"is_reserved":false,"is_disabled":false,"rental_uris":{"android":"levelo://app?vid=d6349826-5510-4834-ae61-5f416883040f","ios":"levelo://app?vid=d6349826-5510-4834-ae61-5f416883040f"},"vehicle_type_id":"4","last_reported":1775134111,"current_range_meters":6800,"station_id":"st_cvj6r9ubvosntc0bgbag","pricing_plan_id":"cebpf4jnsgd1na2vs0mg"},{"bike_id":"50fa0f37-4341-4266-ad7b-b29c71b0141d","system_id":"levelo_inurba_marseille","lat":43.31993,"lon":5.38164,"is_reserved":false,"is_disabled":false,"rental_uris":{"android":"levelo://app?vid=50fa0f37-4341-4266-ad7b-b29c71b0141d","ios":"levelo://app?vid=50fa0f37-4341-4266-ad7b-b29c71b0141d"},"vehicle_type_id":"4","last_reported":1775134111,"current_range_meters":6800,"station_id":"ce4bhr12rcd13ifvqhpg","pricing_plan_id":"cebpf4jnsgd1na2vs0mg"},{"bike_id":"71195851-f126-43ec-a2a7-703a881ee3e3","system_id":"levelo_inurba_marseille","lat":43.27063,"lon":5.38308,"is_reserved":false,"is_disabled":false,"rental_uris":{"android":"levelo://app?vid=71195851-f126-43ec-a2a7-703a881ee3e3","ios":"levelo://app?vid=71195851-f126-43ec-a2a7-703a881ee3e3"},"vehicle_type_id":"4","last_reported":1775134111,"current_range_meters":6800,"station_id":"st_d3n2fo6cfp8s73cte1j0","pricing_plan_id":"cebpf4jnsgd1na2vs0mg"},{"bike_id":"d0111825-3017-4e03-aba5-c350420e66fe","system_id":"levelo_inurba_marseille","lat":43.21193,"lon":5.35081,"is_reserved":false,"is_disabled":false,"rental_uris":{"android":"levelo://app?vid=d0111825-3017-4e03-aba5-c350420e66fe","ios":"levelo://app?vid=d0111825-3017-4e03-aba5-c350420e66fe"},"vehicle_type_id":"4","last_reported":1775134111,"current_range_meters":7200,"station_id":"st_cvj6sg6p6f1abm77japg","pricing_plan_id":"cebpf4jnsgd1na2vs0mg"},{"bike_id":"793b472f-3246-4295-8dc2-cf0dac98a9ac","system_id":"levelo_inurba_marseille","lat":43.29539,"lon":5.39025,"is_reserved":false,"is_disabled":false,"rental_uris":{"android":"levelo://app?vid=793b472f-3246-4295-8dc2-cf0dac98a9ac","ios":"levelo://app?vid=793b472f-3246-4295-8dc2-cf0dac98a9ac"},"vehicle_type_id":"4","last_reported":1775134111,"current_range_meters":7200,"station_id":"ce4bh3p2rcd13ifvqdp0","pricing_plan_id":"cebpf4jnsgd1na2vs0mg"},{"bike_id":"de1f351c-391f-4865-a5a6-0213c813fa44","system_id":"levelo_inurba_marseille","lat":43.25494,"lon":5.37648,"is_reserved":false,"is_disabled":false,"rental_uris":{"android":"levelo://app?vid=de1f351c-391f-4865-a5a6-0213c813fa44","ios":"levelo://app?vid=de1f351c-391f-4865-a5a6-0213c813fa44"},"vehicle_type_id":"4","last_reported":1775134111,"current_range_meters":7200,"station_id":"ce4bhh12rcd13ifvqff0","pricing_plan_id":"cebpf4jnsgd1na2vs0mg"},{"bike_id":"38229089-2eba-460d-8fa7-69cd48d52f91","system_id":"levelo_inurba_marseille","lat":43.28859,"lon":5.42505,"is_reserved":false,"is_disabled":false,"rental_uris":{"android":"levelo://app?vid=38229089-2eba-460d-8fa7-69cd48d52f91","ios":"levelo://app?vid=38229089-2eba-460d-8fa7-69cd48d52f91"},"vehicle_type_id":"4","last_reported":1775134111,"current_range_meters":7200,"station_id":"st_d3b462108ojc7389ooeg","pricing_plan_id":"cebpf4jnsgd1na2vs0mg"},{"bike_id":"02b3d96c-202e-4834-95a4-1a0e026b664b","system_id":"levelo_inurba_marseille","lat":43.23153,"lon":5.43705,"is_reserved":false,"is_disabled":false,"rental_uris":{"android":"levelo://app?vid=02b3d96c-202e-4834-95a4-1a0e026b664b","ios":"levelo://app?vid=02b3d96c-202e-4834-95a4-1a0e026b664b"},"vehicle_type_id":"4","last_reported":1775134111,"current_range_meters":7200,"station_id":"ce4bhmp2rcd13ifvqgog","pricing_plan_id":"cebpf4jnsgd1na2vs0mg"},{"bike_id":"dbe83780-e18f-4f1a-be27-84cd62855783","system_id":"levelo_inurba_marseille","lat":43.24043,"lon":5.37673,"is_reserved":false,"is_disabled":false,"rental_uris":{"android":"levelo://app?vid=dbe83780-e18f-4f1a-be27-84cd62855783","ios":"levelo://app?vid=dbe83780-e18f-4f1a-be27-84cd62855783"},"vehicle_type_id":"4","last_reported":1775134111,"current_range_meters":7200,"station_id":"ce4bhnp2rcd13ifvqgvg","pricing_plan_id":"cebpf4jnsgd1na2vs0mg"},{"bike_id":"6535518c-804f-447b-a494-407b4e1dbc8e","system_id":"levelo_inurba_marseille","lat":43.31279,"lon":5.36791,"is_reserved":false,"is_disabled":false,"rental_uris":{"android":"levelo://app?vid=6535518c-804f-447b-a494-407b4e1dbc8e","ios":"levelo://app?vid=6535518c-804f-447b-a494-407b4e1dbc8e"},"vehicle_type_id":"4","last_reported":1775134111,"current_range_meters":7200,"station_id":"ce4bgl92rcd13ifvqbq0","pricing_plan_id":"cebpf4jnsgd1na2vs0mg"},{"bike_id":"9b76a430-1715-4bdf-ba95-ccb004ee3579","system_id":"levelo_inurba_marseille","lat":43.27329,"lon":5.3907,"is_reserved":false,"is_disabled":false,"rental_uris":{"android":"levelo://app?vid=9b76a430-1715-4bdf-ba95-ccb004ee3579","ios":"levelo://app?vid=9b76a430-1715-4bdf-ba95-ccb004ee3579"},"vehicle_type_id":"4","last_reported":1775134111,"current_range_meters":7200,"station_id":"ce4bhgp2rcd13ifvqfe0","pricing_plan_id":"cebpf4jnsgd1na2vs0mg"},{"bike_id":"55330e56-255c-48f3-9113-88978beab7bf","system_id":"levelo_inurba_marseille","lat":43.29972,"lon":5.38491,"is_reserved":false,"is_disabled":false,"rental_uris":{"android":"levelo://app?vid=55330e56-255c-48f3-9113-88978beab7bf","ios":"levelo://app?vid=55330e56-255c-48f3-9113-88978beab7bf"},"vehicle_type_id":"4","last_reported":1775134111,"current_range_meters":7200,"station_id":"ce4bgj92rcd13ifvqbd0","pricing_plan_id":"cebpf4jnsgd1na2vs0mg"},{"bike_id":"fc6395ad-d62f-4a87-ac5d-6a2edf2e75a8","system_id":"levelo_inurba_marseille","lat":43.31206,"lon":5.36897,"is_reserved":false,"is_disabled":false,"rental_uris":{"android":"levelo://app?vid=fc6395ad-d62f-4a87-ac5d-6a2edf2e75a8","ios":"levelo://app?vid=fc6395ad-d62f-4a87-ac5d-6a2edf2e75a8"},"vehicle_type_id":"4","last_reported":1775134111,"current_range_meters":7200,"station_id":"ce4bgl92rcd13ifvqbq0","pricing_plan_id":"cebpf4jnsgd1na2vs0mg"},{"bike_id":"3e1e1212-7cb2-4464-8dea-7430534b1cda","system_id":"levelo_inurba_marseille","lat":43.27222,"lon":5.39166,"is_reserved":false,"is_disabled":false,"rental_uris":{"android":"levelo://app?vid=3e1e1212-7cb2-4464-8dea-7430534b1cda","ios":"levelo://app?vid=3e1e1212-7cb2-4464-8dea-7430534b1cda"},"vehicle_type_id":"4","last_reported":1775134111,"current_range_meters":7200,"station_id":"ce4bhhp2rcd13ifvqfm0","pricing_plan_id":"cebpf4jnsgd1na2vs0mg"},{"bike_id":"7e59145b-92ba-4aa6-ab3d-5ada90b45541","system_id":"levelo_inurba_marseille","lat":43.24182,"lon":5.39726,"is_reserved":false,"is_disabled":false,"rental_uris":{"android":"levelo://app?vid=7e59145b-92ba-4aa6-ab3d-5ada90b45541","ios":"levelo://app?vid=7e59145b-92ba-4aa6-ab3d-5ada90b45541"},"vehicle_type_id":"4","last_reported":1775134111,"current_range_meters":7200,"station_id":"ce4bhn12rcd13ifvqgpg","pricing_plan_id":"cebpf4jnsgd1na2vs0mg"},{"bike_id":"91f6c6e4-3173-430a-922a-ed24dba3f564","system_id":"levelo_inurba_marseille","lat":43.31392,"lon":5.36702,"is_reserved":false,"is_disabled":false,"rental_uris":{"android":"levelo://app?vid=91f6c6e4-3173-430a-922a-ed24dba3f564","ios":"levelo://app?vid=91f6c6e4-3173-430a-922a-ed24dba3f564"},"vehicle_type_id":"4","last_reported":1775134111,"current_range_meters":7200,"station_id":"ce4bgr92rcd13ifvqc6g","pricing_plan_id":"cebpf4jnsgd1na2vs0mg"},{"bike_id":"a3e023e2-d4d4-4709-b2ae-04a06b5ecc63","system_id":"levelo_inurba_marseille","lat":43.22553,"lon":5.41633,"is_reserved":false,"is_disabled":false,"rental_uris":{"android":"levelo://app?vid=a3e023e2-d4d4-4709-b2ae-04a06b5ecc63","ios":"levelo://app?vid=a3e023e2-d4d4-4709-b2ae-04a06b5ecc63"},"vehicle_type_id":"4","last_reported":1775134111,"current_range_meters":7200,"station_id":"st_d2o4gvlbi1j2169b742g","pricing_plan_id":"cebpf4jnsgd1na2vs0mg"},{"bike_id":"fe0a3fa3-1a01-4338-919a-e9d1fe0b671b","system_id":"levelo_inurba_marseille","lat":43.26711,"lon":5.38273,"is_reserved":false,"is_disabled":false,"rental_uris":{"android":"levelo://app?vid=fe0a3fa3-1a01-4338-919a-e9d1fe0b671b","ios":"levelo://app?vid=fe0a3fa3-1a01-4338-919a-e9d1fe0b671b"},"vehicle_type_id":"4","last_reported":1775134111,"current_range_meters":7200,"station_id":"ce4bhg92rcd13ifvqf90","pricing_plan_id":"cebpf4jnsgd1na2vs0mg"},{"bike_id":"9917d801-fb7e-4725-b871-ab9dc4af15bb","system_id":"levelo_inurba_marseille","lat":43.27082,"lon":5.42267,"is_reserved":false,"is_disabled":false,"rental_uris":{"android":"levelo://app?vid=9917d801-fb7e-4725-b871-ab9dc4af15bb","ios":"levelo://app?vid=9917d801-fb7e-4725-b871-ab9dc4af15bb"},"vehicle_type_id":"4","last_reported":1775134111,"current_range_meters":7200,"station_id":"ce4bhk92rcd13ifvqgb0","pricing_plan_id":"cebpf4jnsgd1na2vs0mg"},{"bike_id":"0aab06ad-730e-4c5f-9486-239cae30a405","system_id":"levelo_inurba_marseille","lat":43.28479,"lon":5.38388,"is_reserved":false,"is_disabled":false,"rental_uris":{"android":"levelo://app?vid=0aab06ad-730e-4c5f-9486-239cae30a405","ios":"levelo://app?vid=0aab06ad-730e-4c5f-9486-239cae30a405"},"vehicle_type_id":"4","last_reported":1775134111,"current_range_meters":7200,"station_id":"ce4bh512rcd13ifvqe3g","pricing_plan_id":"cebpf4jnsgd1na2vs0mg"},{"bike_id":"13713002-484d-442d-8d88-c09ee25b68e4","system_id":"levelo_inurba_marseille","lat":43.27781,"lon":5.42346,"is_reserved":false,"is_disabled":false,"rental_uris":{"android":"levelo://app?vid=13713002-484d-442d-8d88-c09ee25b68e4","ios":"levelo://app?vid=13713002-484d-442d-8d88-c09ee25b68e4"},"vehicle_type_id":"4","last_reported":1775134111,"current_range_meters":7200,"station_id":"","pricing_plan_id":"cebpf4jnsgd1na2vs0mg"},{"bike_id":"b3fdb3c6-13b8-4611-957c-1ad249219f8c","system_id":"levelo_inurba_marseille","lat":43.24467,"lon":5.42528,"is_reserved":false,"is_disabled":false,"rental_uris":{"android":"levelo://app?vid=b3fdb3c6-13b8-4611-957c-1ad249219f8c","ios":"levelo://app?vid=b3fdb3c6-13b8-4611-957c-1ad249219f8c"},"vehicle_type_id":"4","last_reported":1775134111,"current_range_meters":7200,"station_id":"st_d4a3vfp97mjs738cd8kg","pricing_plan_id":"cebpf4jnsgd1na2vs0mg"},{"bike_id":"ba33614c-a307-4e62-b0d9-643b797f7d62","system_id":"levelo_inurba_marseille","lat":43.30211,"lon":5.38525,"is_reserved":false,"is_disabled":false,"rental_uris":{"android":"levelo://app?vid=ba33614c-a307-4e62-b0d9-643b797f7d62","ios":"levelo://app?vid=ba33614c-a307-4e62-b0d9-643b797f7d62"},"vehicle_type_id":"4","last_reported":1775134111,"current_range_meters":7200,"station_id":"","pricing_plan_id":"cebpf4jnsgd1na2vs0mg"},{"bike_id":"bb435da3-856a-4144-9704-d052e66aeded","system_id":"levelo_inurba_marseille","lat":43.33162,"lon":5.37687,"is_reserved":false,"is_disabled":false,"rental_uris":{"android":"levelo://app?vid=bb435da3-856a-4144-9704-d052e66aeded","ios":"levelo://app?vid=bb435da3-856a-4144-9704-d052e66aeded"},"vehicle_type_id":"4","last_reported":1775134111,"current_range_meters":7200,"station_id":"st_d46cu089ee8s73dldbu0","pricing_plan_id":"cebpf4jnsgd1na2vs0mg"},{"bike_id":"50fa3228-5bcd-4940-8104-0df268dafe26","system_id":"levelo_inurba_marseille","lat":43.31176,"lon":5.40168,"is_reserved":false,"is_disabled":false,"rental_uris":{"android":"levelo://app?vid=50fa3228-5bcd-4940-8104-0df268dafe26","ios":"levelo://app?vid=50fa3228-5bcd-4940-8104-0df268dafe26"},"vehicle_type_id":"4","last_reported":1775134111,"current_range_meters":7200,"station_id":"","pricing_plan_id":"cebpf4jnsgd1na2vs0mg"},{"bike_id":"047851bc-9e92-4e73-b3fd-a4eec913d1db","system_id":"levelo_inurba_marseille","lat":43.21749,"lon":5.34596,"is_reserved":false,"is_disabled":false,"rental_uris":{"android":"levelo://app?vid=047851bc-9e92-4e73-b3fd-a4eec913d1db","ios":"levelo://app?vid=047851bc-9e92-4e73-b3fd-a4eec913d1db"},"vehicle_type_id":"4","last_reported":1775134111,"current_range_meters":7200,"station_id":"st_cvj6r9ubvosntc0bgbag","pricing_plan_id":"cebpf4jnsgd1na2vs0mg"},{"bike_id":"85147ab3-8aed-491b-b6bf-368988fc7ec0","system_id":"levelo_inurba_marseille","lat":43.25105,"lon":5.40337,"is_reserved":false,"is_disabled":false,"rental_uris":{"android":"levelo://app?vid=85147ab3-8aed-491b-b6bf-368988fc7ec0","ios":"levelo://app?vid=85147ab3-8aed-491b-b6bf-368988fc7ec0"},"vehicle_type_id":"4","last_reported":1775134111,"current_range_meters":7200,"station_id":"ce4bhlh2rcd13ifvqgig","pricing_plan_id":"cebpf4jnsgd1na2vs0mg"},{"bike_id":"1da36686-f519-4f37-bc89-5027da6666d7","system_id":"levelo_inurba_marseille","lat":43.28611,"lon":5.39871,"is_reserved":false,"is_disabled":false,"rental_uris":{"android":"levelo://app?vid=1da36686-f519-4f37-bc89-5027da6666d7","ios":"levelo://app?vid=1da36686-f519-4f37-bc89-5027da6666d7"},"vehicle_type_id":"4","last_reported":1775134111,"current_range_meters":7200,"station_id":"st_d4a7ka997mjs738ck50g","pricing_plan_id":"cebpf4jnsgd1na2vs0mg"},{"bike_id":"094d9b13-1962-4687-a19b-a28fbe36c836","system_id":"levelo_inurba_marseille","lat":43.30287,"lon":5.36862,"is_reserved":false,"is_disabled":false,"rental_uris":{"android":"levelo://app?vid=094d9b13-1962-4687-a19b-a28fbe36c836","ios":"levelo://app?vid=094d9b13-1962-4687-a19b-a28fbe36c836"},"vehicle_type_id":"4","last_reported":1775134111,"current_range_meters":8000,"station_id":"ce4bgqh2rcd13ifvqc5g","pricing_plan_id":"cebpf4jnsgd1na2vs0mg"},{"bike_id":"905289e5-7113-4e8f-9100-1778260d107a","system_id":"levelo_inurba_marseille","lat":43.24383,"lon":5.37088,"is_reserved":false,"is_disabled":false,"rental_uris":{"android":"levelo://app?vid=905289e5-7113-4e8f-9100-1778260d107a","ios":"levelo://app?vid=905289e5-7113-4e8f-9100-1778260d107a"},"vehicle_type_id":"4","last_reported":1775134111,"current_range_meters":8000,"station_id":"ce4bhhh2rcd13ifvqfk0","pricing_plan_id":"cebpf4jnsgd1na2vs0mg"},{"bike_id":"a26e0612-5996-4080-8567-451a7c6785da","system_id":"levelo_inurba_marseille","lat":43.28475,"lon":5.48405,"is_reserved":false,"is_disabled":false,"rental_uris":{"android":"levelo://app?vid=a26e0612-5996-4080-8567-451a7c6785da","ios":"levelo://app?vid=a26e0612-5996-4080-8567-451a7c6785da"},"vehicle_type_id":"4","last_reported":1775134111,"current_range_meters":8000,"station_id":"","pricing_plan_id":"cebpf4jnsgd1na2vs0mg"},{"bike_id":"d8590a38-0fbe-438f-bb60-e30c992f819d","system_id":"levelo_inurba_marseille","lat":43.30919,"lon":5.39021,"is_reserved":false,"is_disabled":false,"rental_uris":{"android":"levelo://app?vid=d8590a38-0fbe-438f-bb60-e30c992f819d","ios":"levelo://app?vid=d8590a38-0fbe-438f-bb60-e30c992f819d"},"vehicle_type_id":"4","last_reported":1775134111,"current_range_meters":8000,"station_id":"ce4bgup2rcd13ifvqco0","pricing_plan_id":"cebpf4jnsgd1na2vs0mg"},{"bike_id":"e2d4538e-989f-404e-b5fb-58cfe29ddc03","system_id":"levelo_inurba_marseille","lat":43.24475,"lon":5.42543,"is_reserved":false,"is_disabled":false,"rental_uris":{"android":"levelo://app?vid=e2d4538e-989f-404e-b5fb-58cfe29ddc03","ios":"levelo://app?vid=e2d4538e-989f-404e-b5fb-58cfe29ddc03"},"vehicle_type_id":"4","last_reported":1775134111,"current_range_meters":8000,"station_id":"st_d4a3vfp97mjs738cd8kg","pricing_plan_id":"cebpf4jnsgd1na2vs0mg"},{"bike_id":"ed2bc61f-72aa-4fa8-b592-aa4e71f2e4da","system_id":"levelo_inurba_marseille","lat":43.22539,"lon":5.34822,"is_reserved":false,"is_disabled":false,"rental_uris":{"android":"levelo://app?vid=ed2bc61f-72aa-4fa8-b592-aa4e71f2e4da","ios":"levelo://app?vid=ed2bc61f-72aa-4fa8-b592-aa4e71f2e4da"},"vehicle_type_id":"4","last_reported":1775134111,"current_range_meters":8000,"station_id":"st_cvj5dfep6f1abm77gieg","pricing_plan_id":"cebpf4jnsgd1na2vs0mg"},{"bike_id":"993554b6-0de0-483c-81a8-74355d0900be","system_id":"levelo_inurba_marseille","lat":43.29645,"lon":5.3811,"is_reserved":false,"is_disabled":false,"rental_uris":{"android":"levelo://app?vid=993554b6-0de0-483c-81a8-74355d0900be","ios":"levelo://app?vid=993554b6-0de0-483c-81a8-74355d0900be"},"vehicle_type_id":"4","last_reported":1775134111,"current_range_meters":8000,"station_id":"ce4bgl12rcd13ifvqbo0","pricing_plan_id":"cebpf4jnsgd1na2vs0mg"},{"bike_id":"443ec70c-2f5b-431d-8ec5-5fd2af1a6ada","system_id":"levelo_inurba_marseille","lat":43.30551,"lon":5.36673,"is_reserved":false,"is_disabled":false,"rental_uris":{"android":"levelo://app?vid=443ec70c-2f5b-431d-8ec5-5fd2af1a6ada","ios":"levelo://app?vid=443ec70c-2f5b-431d-8ec5-5fd2af1a6ada"},"vehicle_type_id":"4","last_reported":1775134111,"current_range_meters":8000,"station_id":"","pricing_plan_id":"cebpf4jnsgd1na2vs0mg"},{"bike_id":"3fb1841f-ade8-4e3a-a506-2629dd4a8949","system_id":"levelo_inurba_marseille","lat":43.26371,"lon":5.41078,"is_reserved":false,"is_disabled":false,"rental_uris":{"android":"levelo://app?vid=3fb1841f-ade8-4e3a-a506-2629dd4a8949","ios":"levelo://app?vid=3fb1841f-ade8-4e3a-a506-2629dd4a8949"},"vehicle_type_id":"4","last_reported":1775134111,"current_range_meters":8000,"station_id":"st_d4e5ca6na9uc73bfl5fg","pricing_plan_id":"cebpf4jnsgd1na2vs0mg"},{"bike_id":"7454e20f-aeeb-429e-8370-29d207e4b480","system_id":"levelo_inurba_marseille","lat":43.25498,"lon":5.37628,"is_reserved":false,"is_disabled":false,"rental_uris":{"android":"levelo://app?vid=7454e20f-aeeb-429e-8370-29d207e4b480","ios":"levelo://app?vid=7454e20f-aeeb-429e-8370-29d207e4b480"},"vehicle_type_id":"4","last_reported":1775134111,"current_range_meters":8000,"station_id":"ce4bhh12rcd13ifvqff0","pricing_plan_id":"cebpf4jnsgd1na2vs0mg"},{"bike_id":"17e1349c-2875-4c80-8b7f-edefe8fdfd05","system_id":"levelo_inurba_marseille","lat":43.23162,"lon":5.43706,"is_reserved":false,"is_disabled":false,"rental_uris":{"android":"levelo://app?vid=17e1349c-2875-4c80-8b7f-edefe8fdfd05","ios":"levelo://app?vid=17e1349c-2875-4c80-8b7f-edefe8fdfd05"},"vehicle_type_id":"4","last_reported":1775134111,"current_range_meters":8000,"station_id":"ce4bhmp2rcd13ifvqgog","pricing_plan_id":"cebpf4jnsgd1na2vs0mg"},{"bike_id":"96784f52-0ed9-4001-804c-6b491d754fb0","system_id":"levelo_inurba_marseille","lat":43.29214,"lon":5.36069,"is_reserved":false,"is_disabled":false,"rental_uris":{"android":"levelo://app?vid=96784f52-0ed9-4001-804c-6b491d754fb0","ios":"levelo://app?vid=96784f52-0ed9-4001-804c-6b491d754fb0"},"vehicle_type_id":"4","last_reported":1775134111,"current_range_meters":8000,"station_id":"ce4bhbh2rcd13ifvqeqg","pricing_plan_id":"cebpf4jnsgd1na2vs0mg"},{"bike_id":"7b93e255-4d4f-467e-8eb6-0b90f4c65fe9","system_id":"levelo_inurba_marseille","lat":43.30533,"lon":5.36671,"is_reserved":false,"is_disabled":false,"rental_uris":{"android":"levelo://app?vid=7b93e255-4d4f-467e-8eb6-0b90f4c65fe9","ios":"levelo://app?vid=7b93e255-4d4f-467e-8eb6-0b90f4c65fe9"},"vehicle_type_id":"4","last_reported":1775134111,"current_range_meters":8000,"station_id":"","pricing_plan_id":"cebpf4jnsgd1na2vs0mg"},{"bike_id":"229f0e67-0671-4c17-8f2a-9394f3ccb1c5","system_id":"levelo_inurba_marseille","lat":43.24384,"lon":5.3705,"is_reserved":false,"is_disabled":false,"rental_uris":{"android":"levelo://app?vid=229f0e67-0671-4c17-8f2a-9394f3ccb1c5","ios":"levelo://app?vid=229f0e67-0671-4c17-8f2a-9394f3ccb1c5"},"vehicle_type_id":"4","last_reported":1775134111,"current_range_meters":8000,"station_id":"ce4bhhh2rcd13ifvqfk0","pricing_plan_id":"cebpf4jnsgd1na2vs0mg"},{"bike_id":"2821d6b0-26b2-47c1-a75a-c38c967d84c8","system_id":"levelo_inurba_marseille","lat":43.27992,"lon":5.41647,"is_reserved":false,"is_disabled":false,"rental_uris":{"android":"levelo://app?vid=2821d6b0-26b2-47c1-a75a-c38c967d84c8","ios":"levelo://app?vid=2821d6b0-26b2-47c1-a75a-c38c967d84c8"},"vehicle_type_id":"4","last_reported":1775134111,"current_range_meters":8000,"station_id":"ce4bho12rcd13ifvqh1g","pricing_plan_id":"cebpf4jnsgd1na2vs0mg"},{"bike_id":"ace76a94-ea86-4544-a0ad-b6082b39722f","system_id":"levelo_inurba_marseille","lat":43.25952,"lon":5.40881,"is_reserved":false,"is_disabled":false,"rental_uris":{"android":"levelo://app?vid=ace76a94-ea86-4544-a0ad-b6082b39722f","ios":"levelo://app?vid=ace76a94-ea86-4544-a0ad-b6082b39722f"},"vehicle_type_id":"4","last_reported":1775134111,"current_range_meters":8000,"station_id":"ce4bhm92rcd13ifvqglg","pricing_plan_id":"cebpf4jnsgd1na2vs0mg"},{"bike_id":"ad46cc3e-cf03-4d98-88a5-9d1413c3ff95","system_id":"levelo_inurba_marseille","lat":43.24168,"lon":5.36395,"is_reserved":false,"is_disabled":false,"rental_uris":{"android":"levelo://app?vid=ad46cc3e-cf03-4d98-88a5-9d1413c3ff95","ios":"levelo://app?vid=ad46cc3e-cf03-4d98-88a5-9d1413c3ff95"},"vehicle_type_id":"4","last_reported":1775134111,"current_range_meters":8000,"station_id":"cpo36qri1sfpv3e86is0","pricing_plan_id":"cebpf4jnsgd1na2vs0mg"},{"bike_id":"f62ff8d5-3d47-4bb4-906e-344e9b5207aa","system_id":"levelo_inurba_marseille","lat":43.21191,"lon":5.35068,"is_reserved":false,"is_disabled":false,"rental_uris":{"android":"levelo://app?vid=f62ff8d5-3d47-4bb4-906e-344e9b5207aa","ios":"levelo://app?vid=f62ff8d5-3d47-4bb4-906e-344e9b5207aa"},"vehicle_type_id":"4","last_reported":1775134111,"current_range_meters":8000,"station_id":"","pricing_plan_id":"cebpf4jnsgd1na2vs0mg"},{"bike_id":"d45c42e7-136c-4f75-ab55-f3d56d314963","system_id":"levelo_inurba_marseille","lat":43.28846,"lon":5.39325,"is_reserved":false,"is_disabled":false,"rental_uris":{"android":"levelo://app?vid=d45c42e7-136c-4f75-ab55-f3d56d314963","ios":"levelo://app?vid=d45c42e7-136c-4f75-ab55-f3d56d314963"},"vehicle_type_id":"4","last_reported":1775134111,"current_range_meters":8000,"station_id":"ce4bh2p2rcd13ifvqdi0","pricing_plan_id":"cebpf4jnsgd1na2vs0mg"},{"bike_id":"3b22d7ff-60ef-4c70-a9fd-796d6e8cc5e7","system_id":"levelo_inurba_marseille","lat":43.29024,"lon":5.38128,"is_reserved":false,"is_disabled":false,"rental_uris":{"android":"levelo://app?vid=3b22d7ff-60ef-4c70-a9fd-796d6e8cc5e7","ios":"levelo://app?vid=3b22d7ff-60ef-4c70-a9fd-796d6e8cc5e7"},"vehicle_type_id":"4","last_reported":1775134111,"current_range_meters":8000,"station_id":"ce4bho92rcd13ifvqh3g","pricing_plan_id":"cebpf4jnsgd1na2vs0mg"},{"bike_id":"4f119c6b-857f-4f3e-86dc-8c41fed421db","system_id":"levelo_inurba_marseille","lat":43.2175,"lon":5.34582,"is_reserved":false,"is_disabled":false,"rental_uris":{"android":"levelo://app?vid=4f119c6b-857f-4f3e-86dc-8c41fed421db","ios":"levelo://app?vid=4f119c6b-857f-4f3e-86dc-8c41fed421db"},"vehicle_type_id":"4","last_reported":1775134111,"current_range_meters":8000,"station_id":"st_cvj6r9ubvosntc0bgbag","pricing_plan_id":"cebpf4jnsgd1na2vs0mg"},{"bike_id":"63afbea1-9a2c-4718-b112-74e3e5f62cb0","system_id":"levelo_inurba_marseille","lat":43.29029,"lon":5.35598,"is_reserved":false,"is_disabled":false,"rental_uris":{"android":"levelo://app?vid=63afbea1-9a2c-4718-b112-74e3e5f62cb0","ios":"levelo://app?vid=63afbea1-9a2c-4718-b112-74e3e5f62cb0"},"vehicle_type_id":"4","last_reported":1775134111,"current_range_meters":8000,"station_id":"ce4bhb92rcd13ifvqen0","pricing_plan_id":"cebpf4jnsgd1na2vs0mg"},{"bike_id":"63e9c27e-df35-4221-a72b-372775ab28af","system_id":"levelo_inurba_marseille","lat":43.24642,"lon":5.3893,"is_reserved":false,"is_disabled":false,"rental_uris":{"android":"levelo://app?vid=63e9c27e-df35-4221-a72b-372775ab28af","ios":"levelo://app?vid=63e9c27e-df35-4221-a72b-372775ab28af"},"vehicle_type_id":"4","last_reported":1775134111,"current_range_meters":8000,"station_id":"ce4bhg12rcd13ifvqf60","pricing_plan_id":"cebpf4jnsgd1na2vs0mg"},{"bike_id":"84918f73-8d33-4a6f-b0fe-7a6dafab7567","system_id":"levelo_inurba_marseille","lat":43.28279,"lon":5.35071,"is_reserved":false,"is_disabled":false,"rental_uris":{"android":"levelo://app?vid=84918f73-8d33-4a6f-b0fe-7a6dafab7567","ios":"levelo://app?vid=84918f73-8d33-4a6f-b0fe-7a6dafab7567"},"vehicle_type_id":"4","last_reported":1775134111,"current_range_meters":8000,"station_id":"ce4bhbp2rcd13ifvqerg","pricing_plan_id":"cebpf4jnsgd1na2vs0mg"},{"bike_id":"2ea54038-ff11-4f07-b417-747114045f86","system_id":"levelo_inurba_marseille","lat":43.27563,"lon":5.38411,"is_reserved":false,"is_disabled":false,"rental_uris":{"android":"levelo://app?vid=2ea54038-ff11-4f07-b417-747114045f86","ios":"levelo://app?vid=2ea54038-ff11-4f07-b417-747114045f86"},"vehicle_type_id":"4","last_reported":1775134111,"current_range_meters":8000,"station_id":"ce4bhh92rcd13ifvqfi0","pricing_plan_id":"cebpf4jnsgd1na2vs0mg"},{"bike_id":"c0244268-1300-41a7-9a33-8160575e0bc7","system_id":"levelo_inurba_marseille","lat":43.23199,"lon":5.35551,"is_reserved":false,"is_disabled":false,"rental_uris":{"android":"levelo://app?vid=c0244268-1300-41a7-9a33-8160575e0bc7","ios":"levelo://app?vid=c0244268-1300-41a7-9a33-8160575e0bc7"},"vehicle_type_id":"4","last_reported":1775134111,"current_range_meters":8000,"station_id":"ce4bhu92rcd13ifvqi70","pricing_plan_id":"cebpf4jnsgd1na2vs0mg"},{"bike_id":"27b45b8e-0171-47ee-adeb-5c83b7a0c53c","system_id":"levelo_inurba_marseille","lat":43.29368,"lon":5.37848,"is_reserved":false,"is_disabled":false,"rental_uris":{"android":"levelo://app?vid=27b45b8e-0171-47ee-adeb-5c83b7a0c53c","ios":"levelo://app?vid=27b45b8e-0171-47ee-adeb-5c83b7a0c53c"},"vehicle_type_id":"4","last_reported":1775134111,"current_range_meters":8000,"station_id":"ce4bgjh2rcd13ifvqbf0","pricing_plan_id":"cebpf4jnsgd1na2vs0mg"},{"bike_id":"ec73d10f-d000-4d7d-ab9a-4a1d96a7ccc2","system_id":"levelo_inurba_marseille","lat":43.31245,"lon":5.36828,"is_reserved":false,"is_disabled":false,"rental_uris":{"android":"levelo://app?vid=ec73d10f-d000-4d7d-ab9a-4a1d96a7ccc2","ios":"levelo://app?vid=ec73d10f-d000-4d7d-ab9a-4a1d96a7ccc2"},"vehicle_type_id":"4","last_reported":1775134111,"current_range_meters":8000,"station_id":"ce4bgl92rcd13ifvqbq0","pricing_plan_id":"cebpf4jnsgd1na2vs0mg"},{"bike_id":"b17c4f99-f264-4929-869c-2e7e7176ce13","system_id":"levelo_inurba_marseille","lat":43.28681,"lon":5.3866,"is_reserved":false,"is_disabled":true,"rental_uris":{"android":"levelo://app?vid=b17c4f99-f264-4929-869c-2e7e7176ce13","ios":"levelo://app?vid=b17c4f99-f264-4929-869c-2e7e7176ce13"},"vehicle_type_id":"4","last_reported":1775134111,"current_range_meters":8000,"station_id":"ce4bh492rcd13ifvqdug","pricing_plan_id":"cebpf4jnsgd1na2vs0mg"},{"bike_id":"53f1d28b-559d-4aa7-a3f8-4e3935f7c03a","system_id":"levelo_inurba_marseille","lat":43.3063,"lon":5.42935,"is_reserved":false,"is_disabled":false,"rental_uris":{"android":"levelo://app?vid=53f1d28b-559d-4aa7-a3f8-4e3935f7c03a","ios":"levelo://app?vid=53f1d28b-559d-4aa7-a3f8-4e3935f7c03a"},"vehicle_type_id":"4","last_reported":1775134111,"current_range_meters":8000,"station_id":"","pricing_plan_id":"cebpf4jnsgd1na2vs0mg"},{"bike_id":"87e346fe-57ff-40e1-bc30-332765acdf33","system_id":"levelo_inurba_marseille","lat":43.22937,"lon":5.35372,"is_reserved":false,"is_disabled":false,"rental_uris":{"android":"levelo://app?vid=87e346fe-57ff-40e1-bc30-332765acdf33","ios":"levelo://app?vid=87e346fe-57ff-40e1-bc30-332765acdf33"},"vehicle_type_id":"4","last_reported":1775134111,"current_range_meters":8400,"station_id":"cpo3532slgdg3j2ikp40","pricing_plan_id":"cebpf4jnsgd1na2vs0mg"},{"bike_id":"baaa819f-f621-4bbc-b8f6-009cbb2eb24c","system_id":"levelo_inurba_marseille","lat":43.23197,"lon":5.35536,"is_reserved":false,"is_disabled":false,"rental_uris":{"android":"levelo://app?vid=baaa819f-f621-4bbc-b8f6-009cbb2eb24c","ios":"levelo://app?vid=baaa819f-f621-4bbc-b8f6-009cbb2eb24c"},"vehicle_type_id":"4","last_reported":1775134111,"current_range_meters":8400,"station_id":"ce4bhu92rcd13ifvqi70","pricing_plan_id":"cebpf4jnsgd1na2vs0mg"},{"bike_id":"4662ce83-961a-43fe-b5d2-6ce767222e0c","system_id":"levelo_inurba_marseille","lat":43.28609,"lon":5.35096,"is_reserved":false,"is_disabled":false,"rental_uris":{"android":"levelo://app?vid=4662ce83-961a-43fe-b5d2-6ce767222e0c","ios":"levelo://app?vid=4662ce83-961a-43fe-b5d2-6ce767222e0c"},"vehicle_type_id":"4","last_reported":1775134111,"current_range_meters":8400,"station_id":"ce4bhch2rcd13ifvqeug","pricing_plan_id":"cebpf4jnsgd1na2vs0mg"},{"bike_id":"f9889cfc-1d44-4a74-b59e-2e0cc04a8762","system_id":"levelo_inurba_marseille","lat":43.212,"lon":5.35038,"is_reserved":false,"is_disabled":false,"rental_uris":{"android":"levelo://app?vid=f9889cfc-1d44-4a74-b59e-2e0cc04a8762","ios":"levelo://app?vid=f9889cfc-1d44-4a74-b59e-2e0cc04a8762"},"vehicle_type_id":"4","last_reported":1775134111,"current_range_meters":8400,"station_id":"st_cvj6sg6p6f1abm77japg","pricing_plan_id":"cebpf4jnsgd1na2vs0mg"},{"bike_id":"ebf8d41b-af9e-48cd-b4ac-c559138fc501","system_id":"levelo_inurba_marseille","lat":43.24168,"lon":5.36402,"is_reserved":false,"is_disabled":false,"rental_uris":{"android":"levelo://app?vid=ebf8d41b-af9e-48cd-b4ac-c559138fc501","ios":"levelo://app?vid=ebf8d41b-af9e-48cd-b4ac-c559138fc501"},"vehicle_type_id":"4","last_reported":1775134111,"current_range_meters":8400,"station_id":"cpo36qri1sfpv3e86is0","pricing_plan_id":"cebpf4jnsgd1na2vs0mg"},{"bike_id":"b99da45f-b890-4b92-ad87-4c26ace5150b","system_id":"levelo_inurba_marseille","lat":43.26691,"lon":5.38255,"is_reserved":false,"is_disabled":false,"rental_uris":{"android":"levelo://app?vid=b99da45f-b890-4b92-ad87-4c26ace5150b","ios":"levelo://app?vid=b99da45f-b890-4b92-ad87-4c26ace5150b"},"vehicle_type_id":"4","last_reported":1775134111,"current_range_meters":8400,"station_id":"ce4bhg92rcd13ifvqf90","pricing_plan_id":"cebpf4jnsgd1na2vs0mg"},{"bike_id":"aa1d76c6-fdd6-48cf-b275-3c7e0fed08e5","system_id":"levelo_inurba_marseille","lat":43.30525,"lon":5.36712,"is_reserved":false,"is_disabled":false,"rental_uris":{"android":"levelo://app?vid=aa1d76c6-fdd6-48cf-b275-3c7e0fed08e5","ios":"levelo://app?vid=aa1d76c6-fdd6-48cf-b275-3c7e0fed08e5"},"vehicle_type_id":"4","last_reported":1775134111,"current_range_meters":8400,"station_id":"ce4bgrp2rcd13ifvqc9g","pricing_plan_id":"cebpf4jnsgd1na2vs0mg"},{"bike_id":"396b4933-6447-44ae-846f-3182cbfe6beb","system_id":"levelo_inurba_marseille","lat":43.30473,"lon":5.37925,"is_reserved":false,"is_disabled":false,"rental_uris":{"android":"levelo://app?vid=396b4933-6447-44ae-846f-3182cbfe6beb","ios":"levelo://app?vid=396b4933-6447-44ae-846f-3182cbfe6beb"},"vehicle_type_id":"4","last_reported":1775134111,"current_range_meters":8400,"station_id":"ce4bgup2rcd13ifvqcn0","pricing_plan_id":"cebpf4jnsgd1na2vs0mg"},{"bike_id":"70bd5822-47e3-45de-9242-8d30a995fd35","system_id":"levelo_inurba_marseille","lat":43.21747,"lon":5.346,"is_reserved":false,"is_disabled":false,"rental_uris":{"android":"levelo://app?vid=70bd5822-47e3-45de-9242-8d30a995fd35","ios":"levelo://app?vid=70bd5822-47e3-45de-9242-8d30a995fd35"},"vehicle_type_id":"4","last_reported":1775134111,"current_range_meters":8400,"station_id":"st_cvj6r9ubvosntc0bgbag","pricing_plan_id":"cebpf4jnsgd1na2vs0mg"},{"bike_id":"7f331a45-ab18-4a20-bb31-96c6e9325d41","system_id":"levelo_inurba_marseille","lat":43.29629,"lon":5.3716,"is_reserved":false,"is_disabled":false,"rental_uris":{"android":"levelo://app?vid=7f331a45-ab18-4a20-bb31-96c6e9325d41","ios":"levelo://app?vid=7f331a45-ab18-4a20-bb31-96c6e9325d41"},"vehicle_type_id":"4","last_reported":1775134111,"current_range_meters":8400,"station_id":"ce4bgnh2rcd13ifvqc0g","pricing_plan_id":"cebpf4jnsgd1na2vs0mg"},{"bike_id":"a0bbc992-87da-4583-a529-59d0980f5448","system_id":"levelo_inurba_marseille","lat":43.29821,"lon":5.44068,"is_reserved":false,"is_disabled":false,"rental_uris":{"android":"levelo://app?vid=a0bbc992-87da-4583-a529-59d0980f5448","ios":"levelo://app?vid=a0bbc992-87da-4583-a529-59d0980f5448"},"vehicle_type_id":"4","last_reported":1775134111,"current_range_meters":8400,"station_id":"st_d3jp68qikq2c7381ktn0","pricing_plan_id":"cebpf4jnsgd1na2vs0mg"},{"bike_id":"7e76070b-db38-429d-8668-6726a0f67ea4","system_id":"levelo_inurba_marseille","lat":43.32491,"lon":5.38301,"is_reserved":false,"is_disabled":false,"rental_uris":{"android":"levelo://app?vid=7e76070b-db38-429d-8668-6726a0f67ea4","ios":"levelo://app?vid=7e76070b-db38-429d-8668-6726a0f67ea4"},"vehicle_type_id":"4","last_reported":1775134111,"current_range_meters":8400,"station_id":"st_d4asgbiv49dc73anf9m0","pricing_plan_id":"cebpf4jnsgd1na2vs0mg"},{"bike_id":"63b3799a-ab41-421e-ba54-170ad074cc67","system_id":"levelo_inurba_marseille","lat":43.25572,"lon":5.38232,"is_reserved":false,"is_disabled":false,"rental_uris":{"android":"levelo://app?vid=63b3799a-ab41-421e-ba54-170ad074cc67","ios":"levelo://app?vid=63b3799a-ab41-421e-ba54-170ad074cc67"},"vehicle_type_id":"4","last_reported":1775134111,"current_range_meters":8400,"station_id":"ce4bhih2rcd13ifvqfs0","pricing_plan_id":"cebpf4jnsgd1na2vs0mg"},{"bike_id":"58f6a581-b952-4db3-8423-2d3a503f9944","system_id":"levelo_inurba_marseille","lat":43.31253,"lon":5.36825,"is_reserved":false,"is_disabled":false,"rental_uris":{"android":"levelo://app?vid=58f6a581-b952-4db3-8423-2d3a503f9944","ios":"levelo://app?vid=58f6a581-b952-4db3-8423-2d3a503f9944"},"vehicle_type_id":"4","last_reported":1775134111,"current_range_meters":8400,"station_id":"ce4bgl92rcd13ifvqbq0","pricing_plan_id":"cebpf4jnsgd1na2vs0mg"},{"bike_id":"cc9dfb4b-a2a7-417b-9104-b896c029449e","system_id":"levelo_inurba_marseille","lat":43.31371,"lon":5.36727,"is_reserved":false,"is_disabled":false,"rental_uris":{"android":"levelo://app?vid=cc9dfb4b-a2a7-417b-9104-b896c029449e","ios":"levelo://app?vid=cc9dfb4b-a2a7-417b-9104-b896c029449e"},"vehicle_type_id":"4","last_reported":1775134111,"current_range_meters":8400,"station_id":"ce4bgr92rcd13ifvqc6g","pricing_plan_id":"cebpf4jnsgd1na2vs0mg"},{"bike_id":"e3ccc183-2d52-483d-b306-8ec417ed00fd","system_id":"levelo_inurba_marseille","lat":43.31058,"lon":5.37162,"is_reserved":false,"is_disabled":false,"rental_uris":{"android":"levelo://app?vid=e3ccc183-2d52-483d-b306-8ec417ed00fd","ios":"levelo://app?vid=e3ccc183-2d52-483d-b306-8ec417ed00fd"},"vehicle_type_id":"4","last_reported":1775134111,"current_range_meters":8400,"station_id":"st_d4kl2rp97mjs73e7tdfg","pricing_plan_id":"cebpf4jnsgd1na2vs0mg"},{"bike_id":"4b626325-cc12-4c30-b32c-a9eae71ae167","system_id":"levelo_inurba_marseille","lat":43.2922,"lon":5.42692,"is_reserved":false,"is_disabled":false,"rental_uris":{"android":"levelo://app?vid=4b626325-cc12-4c30-b32c-a9eae71ae167","ios":"levelo://app?vid=4b626325-cc12-4c30-b32c-a9eae71ae167"},"vehicle_type_id":"4","last_reported":1775134111,"current_range_meters":8400,"station_id":"","pricing_plan_id":"cebpf4jnsgd1na2vs0mg"},{"bike_id":"102c7519-e7e3-4de8-8a1e-2a86a3f7c287","system_id":"levelo_inurba_marseille","lat":43.3124,"lon":5.36863,"is_reserved":false,"is_disabled":false,"rental_uris":{"android":"levelo://app?vid=102c7519-e7e3-4de8-8a1e-2a86a3f7c287","ios":"levelo://app?vid=102c7519-e7e3-4de8-8a1e-2a86a3f7c287"},"vehicle_type_id":"4","last_reported":1775134111,"current_range_meters":8400,"station_id":"ce4bgl92rcd13ifvqbq0","pricing_plan_id":"cebpf4jnsgd1na2vs0mg"},{"bike_id":"85bd7590-dc00-4396-a5c7-552ad5f06944","system_id":"levelo_inurba_marseille","lat":43.24172,"lon":5.36383,"is_reserved":false,"is_disabled":false,"rental_uris":{"android":"levelo://app?vid=85bd7590-dc00-4396-a5c7-552ad5f06944","ios":"levelo://app?vid=85bd7590-dc00-4396-a5c7-552ad5f06944"},"vehicle_type_id":"4","last_reported":1775134111,"current_range_meters":8400,"station_id":"cpo36qri1sfpv3e86is0","pricing_plan_id":"cebpf4jnsgd1na2vs0mg"},{"bike_id":"7a5a210d-61fc-4d03-a557-eb846b17279b","system_id":"levelo_inurba_marseille","lat":43.28605,"lon":5.44605,"is_reserved":false,"is_disabled":false,"rental_uris":{"android":"levelo://app?vid=7a5a210d-61fc-4d03-a557-eb846b17279b","ios":"levelo://app?vid=7a5a210d-61fc-4d03-a557-eb846b17279b"},"vehicle_type_id":"4","last_reported":1775134111,"current_range_meters":8400,"station_id":"","pricing_plan_id":"cebpf4jnsgd1na2vs0mg"},{"bike_id":"98df447c-64bf-4393-91db-18d15d708d32","system_id":"levelo_inurba_marseille","lat":43.25948,"lon":5.40898,"is_reserved":false,"is_disabled":false,"rental_uris":{"android":"levelo://app?vid=98df447c-64bf-4393-91db-18d15d708d32","ios":"levelo://app?vid=98df447c-64bf-4393-91db-18d15d708d32"},"vehicle_type_id":"4","last_reported":1775134111,"current_range_meters":8400,"station_id":"ce4bhm92rcd13ifvqglg","pricing_plan_id":"cebpf4jnsgd1na2vs0mg"},{"bike_id":"ec8b19fe-643e-4f00-8b29-5c9b3d9fb7d0","system_id":"levelo_inurba_marseille","lat":43.27233,"lon":5.39177,"is_reserved":false,"is_disabled":false,"rental_uris":{"android":"levelo://app?vid=ec8b19fe-643e-4f00-8b29-5c9b3d9fb7d0","ios":"levelo://app?vid=ec8b19fe-643e-4f00-8b29-5c9b3d9fb7d0"},