{"last_updated":1716570413,"ttl":30,"version":"2.2","data":{"bikes":[{"bike_id":"680accf6-ed3b-4787-af41-1076d02d7782","system_id":"levelo_inurba_marseille","lat":43.312038,"lon":5.36839,"is_reserved":false,"is_disabled":false,"rental_uris":{"android":"levelo://app?vid=680accf6-ed3b-4787-af41-1076d02d7782","ios":"levelo://app?vid=680accf6-ed3b-4787-af41-1076d02d7782"},"vehicle_type_id":"4","last_reported":1716570413,"current_range_meters":0,"station_id":"ce4bgl92rcd13ifvqbq0","pricing_plan_id":"cebpf4jnsgd1na2vs0mg"},{"bike_id":"f0d3e7e9-3c9d-4fb2-88ad-d712b31c784e","system_id":"levelo_inurba_marseille","lat":43.312239,"lon":5.368562,"is_reserved":false,"is_disabled":false,"rental_uris":{"android":"levelo://app?vid=f0d3e7e9-3c9d-4fb2-88ad-d712b31c784e","ios":"levelo://app?vid=f0d3e7e9-3c9d-4fb2-88ad-d712b31c784e"},"vehicle_type_id":"4","last_reported":1716570413,"current_range_meters":6400,"station_id":"ce4bgl92rcd13ifvqbq0","pricing_plan_id":"cebpf4jnsgd1na2vs0mg"},{"bike_id":"73e8106d-8140-4774-a499-5642df1659c2","system_id":"levelo_inurba_marseille","lat":43.312239,"lon":5.368562,"is_reserved":false,"is_disabled":false,"rental_uris":{"android":"levelo://app?vid=73e8106d-8140-4774-a499-5642df1659c2","ios":"levelo://app?vid=73e8106d-8140-4774-a499-5642df1659c2"},"vehicle_type_id":"4","last_reported":1716570413,"current_range_meters":16800,"station_id":"ce4bgl92rcd13ifvqbq0","pricing_plan_id":"cebpf4jnsgd1na2vs0mg"},{"bike_id":"aa7ac3de-f406-4a87-b5bd-1e6a1d1d50ec","system_id":"levelo_inurba_marseille","lat":43.309076,"lon":5.368465,"is_reserved":false,"is_disabled":false,"rental_uris":{"android":"levelo://app?vid=aa7ac3de-f406-4a87-b5bd-1e6a1d1d50ec","ios":"levelo://app?vid=aa7ac3de-f406-4a87-b5bd-1e6a1d1d50ec"},"vehicle_type_id":"4","last_reported":1716570413,"current_range_meters":0,"station_id":"ce4bgn92rcd13ifvqbvg","pricing_plan_id":"cebpf4jnsgd1na2vs0mg"},{"bike_id":"e0b8471d-a059-4b20-9941-96fffce08717","system_id":"levelo_inurba_marseille","lat":43.309039,"lon":5.371797,"is_reserved":false,"is_disabled":false,"rental_uris":{"android":"levelo://app?vid=e0b8471d-a059-4b20-9941-96fffce08717","ios":"levelo://app?vid=e0b8471d-a059-4b20-9941-96fffce08717"},"vehicle_type_id":"4","last_reported":1716570413,"current_range_meters":9600,"station_id":"ce4bguh2rcd13ifvqckg","pricing_plan_id":"cebpf4jnsgd1na2vs0mg"},{"bike_id":"fae9a63d-a676-46d2-969d-b9996db3703e","system_id":"levelo_inurba_marseille","lat":43.31493,"lon":5.37306,"is_reserved":false,"is_disabled":false,"rental_uris":{"android":"levelo://app?vid=fae9a63d-a676-46d2-969d-b9996db3703e","ios":"levelo://app?vid=fae9a63d-a676-46d2-969d-b9996db3703e"},"vehicle_type_id":"4","last_reported":1716570413,"current_range_meters":25200,"station_id":"ce4bgt12rcd13ifvqcd0","pricing_plan_id":"cebpf4jnsgd1na2vs0mg"},{"bike_id":"cca0a0b7-ccb1-495b-9db4-d8792466c188","system_id":"levelo_inurba_marseille","lat":43.309039,"lon":5.371797,"is_reserved":false,"is_disabled":false,"rental_uris":{"android":"levelo://app?vid=cca0a0b7-ccb1-495b-9db4-d8792466c188","ios":"levelo://app?vid=cca0a0b7-ccb1-495b-9db4-d8792466c188"},"vehicle_type_id":"4","last_reported":1716570413,"current_range_meters":10400,"station_id":"ce4bguh2rcd13ifvqckg","pricing_plan_id":"cebpf4jnsgd1na2vs0mg"},{"bike_id":"f607a2d9-dea8-4867-a264-a375240e5b9a","system_id":"levelo_inurba_marseille","lat":43.31672,"lon":5.3722,"is_reserved":false,"is_disabled":false,"rental_uris":{"android":"levelo://app?vid=f607a2d9-dea8-4867-a264-a375240e5b9a","ios":"levelo://app?vid=f607a2d9-dea8-4867-a264-a375240e5b9a"},"vehicle_type_id":"4","last_reported":1716570413,"current_range_meters":2400,"station_id":"","pricing_plan_id":"cebpf4jnsgd1na2vs0mg"},{"bike_id":"67540202-d2a5-45ae-a2b2-d74624ac1729","system_id":"levelo_inurba_marseille","lat":43.305712,"lon":5.365641,"is_reserved":false,"is_disabled":false,"rental_uris":{"android":"levelo://app?vid=67540202-d2a5-45ae-a2b2-d74624ac1729","ios":"levelo://app?vid=67540202-d2a5-45ae-a2b2-d74624ac1729"},"vehicle_type_id":"4","last_reported":1716570413,"current_range_meters":21600,"station_id":"ce4bgs12rcd13ifvqcag","pricing_plan_id":"cebpf4jnsgd1na2vs0mg"},{"bike_id":"4e3db86b-1fb3-4d58-86af-aa4912967c12","system_id":"levelo_inurba_marseille","lat":43.30537,"lon":5.367345,"is_reserved":false,"is_disabled":false,"rental_uris":{"android":"levelo://app?vid=4e3db86b-1fb3-4d58-86af-aa4912967c12","ios":"levelo://app?vid=4e3db86b-1fb3-4d58-86af-aa4912967c12"},"vehicle_type_id":"4","last_reported":1716570413,"current_range_meters":1200,"station_id":"ce4bgrp2rcd13ifvqc9g","pricing_plan_id":"cebpf4jnsgd1na2vs0mg"},{"bike_id":"085f8808-1d82-4a31-a42a-8e58df7e3717","system_id":"levelo_inurba_marseille","lat":43.30608,"lon":5.372243,"is_reserved":false,"is_disabled":false,"rental_uris":{"android":"levelo://app?vid=085f8808-1d82-4a31-a42a-8e58df7e3717","ios":"levelo://app?vid=085f8808-1d82-4a31-a42a-8e58df7e3717"},"vehicle_type_id":"4","last_reported":1716570413,"current_range_meters":31200,"station_id":"ce4bgqh2rcd13ifvqc4g","pricing_plan_id":"cebpf4jnsgd1na2vs0mg"},{"bike_id":"28572ade-6792-4729-9537-c5f1e93b8a44","system_id":"levelo_inurba_marseille","lat":43.303046,"lon":5.368981,"is_reserved":false,"is_disabled":false,"rental_uris":{"android":"levelo://app?vid=28572ade-6792-4729-9537-c5f1e93b8a44","ios":"levelo://app?vid=28572ade-6792-4729-9537-c5f1e93b8a44"},"vehicle_type_id":"4","last_reported":1716570413,"current_range_meters":11600,"station_id":"ce4bgqh2rcd13ifvqc5g","pricing_plan_id":"cebpf4jnsgd1na2vs0mg"},{"bike_id":"15c4e31b-acc6-467e-8e0e-43f24a21bbd0","system_id":"levelo_inurba_marseille","lat":43.315293,"lon":5.380349,"is_reserved":false,"is_disabled":false,"rental_uris":{"android":"levelo://app?vid=15c4e31b-acc6-467e-8e0e-43f24a21bbd0","ios":"levelo://app?vid=15c4e31b-acc6-467e-8e0e-43f24a21bbd0"},"vehicle_type_id":"4","last_reported":1716570413,"current_range_meters":26400,"station_id":"ce4bhsp2rcd13ifvqi50","pricing_plan_id":"cebpf4jnsgd1na2vs0mg"},{"bike_id":"f22c24f6-9295-4f14-bcb0-5f42ea025f9f","system_id":"levelo_inurba_marseille","lat":43.308251,"lon":5.381799,"is_reserved":false,"is_disabled":false,"rental_uris":{"android":"levelo://app?vid=f22c24f6-9295-4f14-bcb0-5f42ea025f9f","ios":"levelo://app?vid=f22c24f6-9295-4f14-bcb0-5f42ea025f9f"},"vehicle_type_id":"4","last_reported":1716570413,"current_range_meters":9200,"station_id":"ce4bgt12rcd13ifvqce0","pricing_plan_id":"cebpf4jnsgd1na2vs0mg"},{"bike_id":"03b2d0ac-4855-463a-a2f0-be21041dc802","system_id":"levelo_inurba_marseille","lat":43.304606,"lon":5.379026,"is_reserved":false,"is_disabled":false,"rental_uris":{"android":"levelo://app?vid=03b2d0ac-4855-463a-a2f0-be21041dc802","ios":"levelo://app?vid=03b2d0ac-4855-463a-a2f0-be21041dc802"},"vehicle_type_id":"4","last_reported":1716570413,"current_range_meters":31600,"station_id":"ce4bgup2rcd13ifvqcn0","pricing_plan_id":"cebpf4jnsgd1na2vs0mg"},{"bike_id":"a4183120-792d-4417-a4a5-120c2b39a7dc","system_id":"levelo_inurba_marseille","lat":43.304606,"lon":5.379026,"is_reserved":false,"is_disabled":false,"rental_uris":{"android":"levelo://app?vid=a4183120-792d-4417-a4a5-120c2b39a7dc","ios":"levelo://app?vid=a4183120-792d-4417-a4a5-120c2b39a7dc"},"vehicle_type_id":"4","last_reported":1716570413,"current_range_meters":4400,"station_id":"ce4bgup2rcd13ifvqcn0","pricing_plan_id":"cebpf4jnsgd1na2vs0mg"},{"bike_id":"a8cf95ee-6e67-4aed-b1f4-e2098149a3d5","system_id":"levelo_inurba_marseille","lat":43.324771,"lon":5.36557,"is_reserved":false,"is_disabled":false,"rental_uris":{"android":"levelo://app?vid=a8cf95ee-6e67-4aed-b1f4-e2098149a3d5","ios":"levelo://app?vid=a8cf95ee-6e67-4aed-b1f4-e2098149a3d5"},"vehicle_type_id":"4","last_reported":1716570413,"current_range_meters":1200,"station_id":"ce4bhs12rcd13ifvqhvg","pricing_plan_id":"cebpf4jnsgd1na2vs0mg"},{"bike_id":"ada561a4-fbf1-4cc8-91fc-62dea67e083f","system_id":"levelo_inurba_marseille","lat":43.304288,"lon":5.378835,"is_reserved":false,"is_disabled":false,"rental_uris":{"android":"levelo://app?vid=ada561a4-fbf1-4cc8-91fc-62dea67e083f","ios":"levelo://app?vid=ada561a4-fbf1-4cc8-91fc-62dea67e083f"},"vehicle_type_id":"4","last_reported":1716570413,"current_range_meters":0,"station_id":"ce4bgup2rcd13ifvqcn0","pricing_plan_id":"cebpf4jnsgd1na2vs0mg"},{"bike_id":"706efe4b-ab2c-4b6b-9fa9-d96e3129a976","system_id":"levelo_inurba_marseille","lat":43.324771,"lon":5.36557,"is_reserved":false,"is_disabled":false,"rental_uris":{"android":"levelo://app?vid=706efe4b-ab2c-4b6b-9fa9-d96e3129a976","ios":"levelo://app?vid=706efe4b-ab2c-4b6b-9fa9-d96e3129a976"},"vehicle_type_id":"4","last_reported":1716570413,"current_range_meters":19600,"station_id":"ce4bhs12rcd13ifvqhvg","pricing_plan_id":"cebpf4jnsgd1na2vs0mg"},{"bike_id":"97aa767d-4a7c-4d81-b244-c5d3efb49efc","system_id":"levelo_inurba_marseille","lat":43.324771,"lon":5.36557,"is_reserved":false,"is_disabled":false,"rental_uris":{"android":"levelo://app?vid=97aa767d-4a7c-4d81-b244-c5d3efb49efc","ios":"levelo://app?vid=97aa767d-4a7c-4d81-b244-c5d3efb49efc"},"vehicle_type_id":"4","last_reported":1716570413,"current_range_meters":25600,"station_id":"ce4bhs12rcd13ifvqhvg","pricing_plan_id":"cebpf4jnsgd1na2vs0mg"},{"bike_id":"46cad44a-c6f9-49fd-aa92-8c749577af76","system_id":"levelo_inurba_marseille","lat":43.324841,"lon":5.365771,"is_reserved":false,"is_disabled":false,"rental_uris":{"android":"levelo://app?vid=46cad44a-c6f9-49fd-aa92-8c749577af76","ios":"levelo://app?vid=46cad44a-c6f9-49fd-aa92-8c749577af76"},"vehicle_type_id":"4","last_reported":1716570413,"current_range_meters":6400,"station_id":"ce4bhs12rcd13ifvqhvg","pricing_plan_id":"cebpf4jnsgd1na2vs0mg"},{"bike_id":"6a39c2c1-3f5d-4386-9723-56c6d4271e93","system_id":"levelo_inurba_marseille","lat":43.32484,"lon":5.36563,"is_reserved":false,"is_disabled":false,"rental_uris":{"android":"levelo://app?vid=6a39c2c1-3f5d-4386-9723-56c6d4271e93","ios":"levelo://app?vid=6a39c2c1-3f5d-4386-9723-56c6d4271e93"},"vehicle_type_id":"4","last_reported":1716570413,"current_range_meters":0,"station_id":"ce4bhs12rcd13ifvqhvg","pricing_plan_id":"cebpf4jnsgd1na2vs0mg"},{"bike_id":"f17462eb-9d0d-4948-85db-37f9fcb89ac8","system_id":"levelo_inurba_marseille","lat":43.31997,"lon":5.381289,"is_reserved":false,"is_disabled":false,"rental_uris":{"android":"levelo://app?vid=f17462eb-9d0d-4948-85db-37f9fcb89ac8","ios":"levelo://app?vid=f17462eb-9d0d-4948-85db-37f9fcb89ac8"},"vehicle_type_id":"4","last_reported":1716570413,"current_range_meters":8000,"station_id":"ce4bhr12rcd13ifvqhpg","pricing_plan_id":"cebpf4jnsgd1na2vs0mg"},{"bike_id":"0fbe5198-f394-4686-a086-9ac196b8caea","system_id":"levelo_inurba_marseille","lat":43.319935,"lon":5.381699,"is_reserved":false,"is_disabled":false,"rental_uris":{"android":"levelo://app?vid=0fbe5198-f394-4686-a086-9ac196b8caea","ios":"levelo://app?vid=0fbe5198-f394-4686-a086-9ac196b8caea"},"vehicle_type_id":"4","last_reported":1716570413,"current_range_meters":22400,"station_id":"ce4bhr12rcd13ifvqhpg","pricing_plan_id":"cebpf4jnsgd1na2vs0mg"},{"bike_id":"d6cf34df-394c-4d92-a652-1b6a17a3dade","system_id":"levelo_inurba_marseille","lat":43.319935,"lon":5.381699,"is_reserved":false,"is_disabled":false,"rental_uris":{"android":"levelo://app?vid=d6cf34df-394c-4d92-a652-1b6a17a3dade","ios":"levelo://app?vid=d6cf34df-394c-4d92-a652-1b6a17a3dade"},"vehicle_type_id":"4","last_reported":1716570413,"current_range_meters":6800,"station_id":"ce4bhr12rcd13ifvqhpg","pricing_plan_id":"cebpf4jnsgd1na2vs0mg"},{"bike_id":"71369abf-e394-4940-97da-986f25abee8b","system_id":"levelo_inurba_marseille","lat":43.319935,"lon":5.381699,"is_reserved":false,"is_disabled":false,"rental_uris":{"android":"levelo://app?vid=71369abf-e394-4940-97da-986f25abee8b","ios":"levelo://app?vid=71369abf-e394-4940-97da-986f25abee8b"},"vehicle_type_id":"4","last_reported":1716570413,"current_range_meters":22400,"station_id":"ce4bhr12rcd13ifvqhpg","pricing_plan_id":"cebpf4jnsgd1na2vs0mg"},{"bike_id":"659b5f1e-1b58-48d0-8b18-0f8309fdf1c3","system_id":"levelo_inurba_marseille","lat":43.319935,"lon":5.381699,"is_reserved":false,"is_disabled":false,"rental_uris":{"android":"levelo://app?vid=659b5f1e-1b58-48d0-8b18-0f8309fdf1c3","ios":"levelo://app?vid=659b5f1e-1b58-48d0-8b18-0f8309fdf1c3"},"vehicle_type_id":"4","last_reported":1716570413,"current_range_meters":2800,"station_id":"ce4bhr12rcd13ifvqhpg","pricing_plan_id":"cebpf4jnsgd1na2vs0mg"},{"bike_id":"355ef40c-fce9-431a-9fc9-60a8505fc255","system_id":"levelo_inurba_marseille","lat":43.319935,"lon":5.381699,"is_reserved":false,"is_disabled":false,"rental_uris":{"android":"levelo://app?vid=355ef40c-fce9-431a-9fc9-60a8505fc255","ios":"levelo://app?vid=355ef40c-fce9-431a-9fc9-60a8505fc255"},"vehicle_type_id":"4","last_reported":1716570413,"current_range_meters":15600,"station_id":"ce4bhr12rcd13ifvqhpg","pricing_plan_id":"cebpf4jnsgd1na2vs0mg"},{"bike_id":"1366b3d5-04b1-4cd5-a5e6-45a66ac47ff6","system_id":"levelo_inurba_marseille","lat":43.319935,"lon":5.381699,"is_reserved":false,"is_disabled":false,"rental_uris":{"android":"levelo://app?vid=1366b3d5-04b1-4cd5-a5e6-45a66ac47ff6","ios":"levelo://app?vid=1366b3d5-04b1-4cd5-a5e6-45a66ac47ff6"},"vehicle_type_id":"4","last_reported":1716570413,"current_range_meters":3600,"station_id":"ce4bhr12rcd13ifvqhpg","pricing_plan_id":"cebpf4jnsgd1na2vs0mg"},{"bike_id":"08a779f8-5751-4ab7-86b3-8a824069d447","system_id":"levelo_inurba_marseille","lat":43.313571,"lon":5.384829,"is_reserved":false,"is_disabled":false,"rental_uris":{"android":"levelo://app?vid=08a779f8-5751-4ab7-86b3-8a824069d447","ios":"levelo://app?vid=08a779f8-5751-4ab7-86b3-8a824069d447"},"vehicle_type_id":"4","last_reported":1716570413,"current_range_meters":14800,"station_id":"ce4bgt92rcd13ifvqcf0","pricing_plan_id":"cebpf4jnsgd1na2vs0mg"},{"bike_id":"21907c94-baf3-4cb1-80a3-b1ad6fa54d7b","system_id":"levelo_inurba_marseille","lat":43.313571,"lon":5.384829,"is_reserved":false,"is_disabled":false,"rental_uris":{"android":"levelo://app?vid=21907c94-baf3-4cb1-80a3-b1ad6fa54d7b","ios":"levelo://app?vid=21907c94-baf3-4cb1-80a3-b1ad6fa54d7b"},"vehicle_type_id":"4","last_reported":1716570413,"current_range_meters":7200,"station_id":"ce4bgt92rcd13ifvqcf0","pricing_plan_id":"cebpf4jnsgd1na2vs0mg"},{"bike_id":"88a6e91e-8cd8-4a39-9bfb-fc0dc178f5c3","system_id":"levelo_inurba_marseille","lat":43.313571,"lon":5.384829,"is_reserved":false,"is_disabled":false,"rental_uris":{"android":"levelo://app?vid=88a6e91e-8cd8-4a39-9bfb-fc0dc178f5c3","ios":"levelo://app?vid=88a6e91e-8cd8-4a39-9bfb-fc0dc178f5c3"},"vehicle_type_id":"4","last_reported":1716570413,"current_range_meters":8400,"station_id":"ce4bgt92rcd13ifvqcf0","pricing_plan_id":"cebpf4jnsgd1na2vs0mg"},{"bike_id":"22a33d5d-a503-4938-89b3-91796817a5f4","system_id":"levelo_inurba_marseille","lat":43.313571,"lon":5.384829,"is_reserved":false,"is_disabled":false,"rental_uris":{"android":"levelo://app?vid=22a33d5d-a503-4938-89b3-91796817a5f4","ios":"levelo://app?vid=22a33d5d-a503-4938-89b3-91796817a5f4"},"vehicle_type_id":"4","last_reported":1716570413,"current_range_meters":6800,"station_id":"ce4bgt92rcd13ifvqcf0","pricing_plan_id":"cebpf4jnsgd1na2vs0mg"},{"bike_id":"9ddbe235-0d7c-4e27-a52c-2833e2255795","system_id":"levelo_inurba_marseille","lat":43.313571,"lon":5.384829,"is_reserved":false,"is_disabled":false,"rental_uris":{"android":"levelo://app?vid=9ddbe235-0d7c-4e27-a52c-2833e2255795","ios":"levelo://app?vid=9ddbe235-0d7c-4e27-a52c-2833e2255795"},"vehicle_type_id":"4","last_reported":1716570413,"current_range_meters":2000,"station_id":"ce4bgt92rcd13ifvqcf0","pricing_plan_id":"cebpf4jnsgd1na2vs0mg"},{"bike_id":"e37f899f-7372-4ddf-b012-0e53462dcc7c","system_id":"levelo_inurba_marseille","lat":43.313571,"lon":5.384829,"is_reserved":false,"is_disabled":false,"rental_uris":{"android":"levelo://app?vid=e37f899f-7372-4ddf-b012-0e53462dcc7c","ios":"levelo://app?vid=e37f899f-7372-4ddf-b012-0e53462dcc7c"},"vehicle_type_id":"4","last_reported":1716570413,"current_range_meters":10400,"station_id":"ce4bgt92rcd13ifvqcf0","pricing_plan_id":"cebpf4jnsgd1na2vs0mg"},{"bike_id":"333e70e7-9da8-49e5-818c-5b5cfe34aecd","system_id":"levelo_inurba_marseille","lat":43.299724,"lon":5.371829,"is_reserved":false,"is_disabled":false,"rental_uris":{"android":"levelo://app?vid=333e70e7-9da8-49e5-818c-5b5cfe34aecd","ios":"levelo://app?vid=333e70e7-9da8-49e5-818c-5b5cfe34aecd"},"vehicle_type_id":"4","last_reported":1716570413,"current_range_meters":28800,"station_id":"ce4bgr92rcd13ifvqc7g","pricing_plan_id":"cebpf4jnsgd1na2vs0mg"},{"bike_id":"452c3027-faff-476e-9d6c-789927154778","system_id":"levelo_inurba_marseille","lat":43.29971,"lon":5.37178,"is_reserved":false,"is_disabled":false,"rental_uris":{"android":"levelo://app?vid=452c3027-faff-476e-9d6c-789927154778","ios":"levelo://app?vid=452c3027-faff-476e-9d6c-789927154778"},"vehicle_type_id":"4","last_reported":1716570413,"current_range_meters":10800,"station_id":"ce4bgr92rcd13ifvqc7g","pricing_plan_id":"cebpf4jnsgd1na2vs0mg"},{"bike_id":"0a54c0d0-3360-4ab0-a71a-773256598603","system_id":"levelo_inurba_marseille","lat":43.298433,"lon":5.362774,"is_reserved":false,"is_disabled":false,"rental_uris":{"android":"levelo://app?vid=0a54c0d0-3360-4ab0-a71a-773256598603","ios":"levelo://app?vid=0a54c0d0-3360-4ab0-a71a-773256598603"},"vehicle_type_id":"4","last_reported":1716570413,"current_range_meters":19200,"station_id":"ce4bgpp2rcd13ifvqc3g","pricing_plan_id":"cebpf4jnsgd1na2vs0mg"},{"bike_id":"ccbf7936-d3f7-49cb-b78d-4d039e26513b","system_id":"levelo_inurba_marseille","lat":43.298494,"lon":5.362807,"is_reserved":false,"is_disabled":false,"rental_uris":{"android":"levelo://app?vid=ccbf7936-d3f7-49cb-b78d-4d039e26513b","ios":"levelo://app?vid=ccbf7936-d3f7-49cb-b78d-4d039e26513b"},"vehicle_type_id":"4","last_reported":1716570413,"current_range_meters":400,"station_id":"ce4bgpp2rcd13ifvqc3g","pricing_plan_id":"cebpf4jnsgd1na2vs0mg"},{"bike_id":"d0f3ea67-638b-4b43-b8d3-8e00304eb0cd","system_id":"levelo_inurba_marseille","lat":43.311722,"lon":5.387247,"is_reserved":false,"is_disabled":false,"rental_uris":{"android":"levelo://app?vid=d0f3ea67-638b-4b43-b8d3-8e00304eb0cd","ios":"levelo://app?vid=d0f3ea67-638b-4b43-b8d3-8e00304eb0cd"},"vehicle_type_id":"4","last_reported":1716570413,"current_range_meters":13600,"station_id":"ce4bgv12rcd13ifvqcp0","pricing_plan_id":"cebpf4jnsgd1na2vs0mg"},{"bike_id":"3a4266a6-e3f5-4d81-8f16-fc6d23726105","system_id":"levelo_inurba_marseille","lat":43.322872,"lon":5.382756,"is_reserved":false,"is_disabled":false,"rental_uris":{"android":"levelo://app?vid=3a4266a6-e3f5-4d81-8f16-fc6d23726105","ios":"levelo://app?vid=3a4266a6-e3f5-4d81-8f16-fc6d23726105"},"vehicle_type_id":"4","last_reported":1716570413,"current_range_meters":2400,"station_id":"ce4bhr12rcd13ifvqhqg","pricing_plan_id":"cebpf4jnsgd1na2vs0mg"},{"bike_id":"58f90cc2-2b29-4d76-9b3a-33747885ca41","system_id":"levelo_inurba_marseille","lat":43.311722,"lon":5.387247,"is_reserved":false,"is_disabled":false,"rental_uris":{"android":"levelo://app?vid=58f90cc2-2b29-4d76-9b3a-33747885ca41","ios":"levelo://app?vid=58f90cc2-2b29-4d76-9b3a-33747885ca41"},"vehicle_type_id":"4","last_reported":1716570413,"current_range_meters":10000,"station_id":"ce4bgv12rcd13ifvqcp0","pricing_plan_id":"cebpf4jnsgd1na2vs0mg"},{"bike_id":"0c7cb940-ce76-4b33-a607-d6b561fe0792","system_id":"levelo_inurba_marseille","lat":43.299243,"lon":5.37481,"is_reserved":false,"is_disabled":false,"rental_uris":{"android":"levelo://app?vid=0c7cb940-ce76-4b33-a607-d6b561fe0792","ios":"levelo://app?vid=0c7cb940-ce76-4b33-a607-d6b561fe0792"},"vehicle_type_id":"4","last_reported":1716570413,"current_range_meters":7600,"station_id":"ce4bgjh2rcd13ifvqbg0","pricing_plan_id":"cebpf4jnsgd1na2vs0mg"},{"bike_id":"584d1e2f-e584-46d3-952f-e6f22d6f6700","system_id":"levelo_inurba_marseille","lat":43.322872,"lon":5.382756,"is_reserved":false,"is_disabled":false,"rental_uris":{"android":"levelo://app?vid=584d1e2f-e584-46d3-952f-e6f22d6f6700","ios":"levelo://app?vid=584d1e2f-e584-46d3-952f-e6f22d6f6700"},"vehicle_type_id":"4","last_reported":1716570413,"current_range_meters":19200,"station_id":"ce4bhr12rcd13ifvqhqg","pricing_plan_id":"cebpf4jnsgd1na2vs0mg"},{"bike_id":"ed492a4e-944e-43b3-bd26-4581a8e6f7a8","system_id":"levelo_inurba_marseille","lat":43.297794,"lon":5.370888,"is_reserved":false,"is_disabled":false,"rental_uris":{"android":"levelo://app?vid=ed492a4e-944e-43b3-bd26-4581a8e6f7a8","ios":"levelo://app?vid=ed492a4e-944e-43b3-bd26-4581a8e6f7a8"},"vehicle_type_id":"4","last_reported":1716570413,"current_range_meters":30000,"station_id":"ce4bgop2rcd13ifvqc1g","pricing_plan_id":"cebpf4jnsgd1na2vs0mg"},{"bike_id":"79f33001-a651-4b0f-b82e-f19ee71b8d0f","system_id":"levelo_inurba_marseille","lat":43.322872,"lon":5.382756,"is_reserved":false,"is_disabled":false,"rental_uris":{"android":"levelo://app?vid=79f33001-a651-4b0f-b82e-f19ee71b8d0f","ios":"levelo://app?vid=79f33001-a651-4b0f-b82e-f19ee71b8d0f"},"vehicle_type_id":"4","last_reported":1716570413,"current_range_meters":28400,"station_id":"ce4bhr12rcd13ifvqhqg","pricing_plan_id":"cebpf4jnsgd1na2vs0mg"},{"bike_id":"a9c38c7c-2f1a-4bff-a9ae-be2146643247","system_id":"levelo_inurba_marseille","lat":43.322872,"lon":5.382756,"is_reserved":false,"is_disabled":false,"rental_uris":{"android":"levelo://app?vid=a9c38c7c-2f1a-4bff-a9ae-be2146643247","ios":"levelo://app?vid=a9c38c7c-2f1a-4bff-a9ae-be2146643247"},"vehicle_type_id":"4","last_reported":1716570413,"current_range_meters":23600,"station_id":"ce4bhr12rcd13ifvqhqg","pricing_plan_id":"cebpf4jnsgd1na2vs0mg"},{"bike_id":"ff2c9325-2710-4158-a459-0a59e7eafe1b","system_id":"levelo_inurba_marseille","lat":43.322873,"lon":5.382707,"is_reserved":false,"is_disabled":false,"rental_uris":{"android":"levelo://app?vid=ff2c9325-2710-4158-a459-0a59e7eafe1b","ios":"levelo://app?vid=ff2c9325-2710-4158-a459-0a59e7eafe1b"},"vehicle_type_id":"4","last_reported":1716570413,"current_range_meters":11200,"station_id":"ce4bhr12rcd13ifvqhqg","pricing_plan_id":"cebpf4jnsgd1na2vs0mg"},{"bike_id":"e39f77da-b2ef-4df0-8c27-f669a9096c13","system_id":"levelo_inurba_marseille","lat":43.322872,"lon":5.382756,"is_reserved":false,"is_disabled":false,"rental_uris":{"android":"levelo://app?vid=e39f77da-b2ef-4df0-8c27-f669a9096c13","ios":"levelo://app?vid=e39f77da-b2ef-4df0-8c27-f669a9096c13"},"vehicle_type_id":"4","last_reported":1716570413,"current_range_meters":6400,"station_id":"ce4bhr12rcd13ifvqhqg","pricing_plan_id":"cebpf4jnsgd1na2vs0mg"},{"bike_id":"a281f011-7cc0-4b1c-9d34-3a0e8e58659c","system_id":"levelo_inurba_marseille","lat":43.322872,"lon":5.382756,"is_reserved":false,"is_disabled":false,"rental_uris":{"android":"levelo://app?vid=a281f011-7cc0-4b1c-9d34-3a0e8e58659c","ios":"levelo://app?vid=a281f011-7cc0-4b1c-9d34-3a0e8e58659c"},"vehicle_type_id":"4","last_reported":1716570413,"current_range_meters":26800,"station_id":"ce4bhr12rcd13ifvqhqg","pricing_plan_id":"cebpf4jnsgd1na2vs0mg"},{"bike_id":"66425d78-e730-4e03-8806-befd97dd7ae9","system_id":"levelo_inurba_marseille","lat":43.322872,"lon":5.382756,"is_reserved":false,"is_disabled":false,"rental_uris":{"android":"levelo://app?vid=66425d78-e730-4e03-8806-befd97dd7ae9","ios":"levelo://app?vid=66425d78-e730-4e03-8806-befd97dd7ae9"},"vehicle_type_id":"4","last_reported":1716570413,"current_range_meters":22400,"station_id":"ce4bhr12rcd13ifvqhqg","pricing_plan_id":"cebpf4jnsgd1na2vs0mg"},{"bike_id":"023fd50e-0e64-4a44-bb5f-522d4d1226e8","system_id":"levelo_inurba_marseille","lat":43.322872,"lon":5.382756,"is_reserved":false,"is_disabled":false,"rental_uris":{"android":"levelo://app?vid=023fd50e-0e64-4a44-bb5f-522d4d1226e8","ios":"levelo://app?vid=023fd50e-0e64-4a44-bb5f-522d4d1226e8"},"vehicle_type_id":"4","last_reported":1716570413,"current_range_meters":9600,"station_id":"ce4bhr12rcd13ifvqhqg","pricing_plan_id":"cebpf4jnsgd1na2vs0mg"},{"bike_id":"b9bd4c2d-8b9e-443d-b745-48cc12636a84","system_id":"levelo_inurba_marseille","lat":43.297794,"lon":5.370888,"is_reserved":false,"is_disabled":false,"rental_uris":{"android":"levelo://app?vid=b9bd4c2d-8b9e-443d-b745-48cc12636a84","ios":"levelo://app?vid=b9bd4c2d-8b9e-443d-b745-48cc12636a84"},"vehicle_type_id":"4","last_reported":1716570413,"current_range_meters":7600,"station_id":"ce4bgop2rcd13ifvqc1g","pricing_plan_id":"cebpf4jnsgd1na2vs0mg"},{"bike_id":"cff583e1-7050-4411-9832-304165d5fe66","system_id":"levelo_inurba_marseille","lat":43.297794,"lon":5.370888,"is_reserved":false,"is_disabled":false,"rental_uris":{"android":"levelo://app?vid=cff583e1-7050-4411-9832-304165d5fe66","ios":"levelo://app?vid=cff583e1-7050-4411-9832-304165d5fe66"},"vehicle_type_id":"4","last_reported":1716570413,"current_range_meters":31200,"station_id":"ce4bgop2rcd13ifvqc1g","pricing_plan_id":"cebpf4jnsgd1na2vs0mg"},{"bike_id":"b342ffe4-d6ef-4b88-ad98-79b247226863","system_id":"levelo_inurba_marseille","lat":43.297163,"lon":5.365866,"is_reserved":false,"is_disabled":false,"rental_uris":{"android":"levelo://app?vid=b342ffe4-d6ef-4b88-ad98-79b247226863","ios":"levelo://app?vid=b342ffe4-d6ef-4b88-ad98-79b247226863"},"vehicle_type_id":"4","last_reported":1716570413,"current_range_meters":800,"station_id":"ce4bgn12rcd13ifvqbt0","pricing_plan_id":"cebpf4jnsgd1na2vs0mg"},{"bike_id":"fef19b85-e841-42d1-9cad-a8ea3c9523a5","system_id":"levelo_inurba_marseille","lat":43.29851,"lon":5.37698,"is_reserved":false,"is_disabled":false,"rental_uris":{"android":"levelo://app?vid=fef19b85-e841-42d1-9cad-a8ea3c9523a5","ios":"levelo://app?vid=fef19b85-e841-42d1-9cad-a8ea3c9523a5"},"vehicle_type_id":"4","last_reported":1716570413,"current_range_meters":10800,"station_id":"","pricing_plan_id":"cebpf4jnsgd1na2vs0mg"},{"bike_id":"c8a2ff32-943e-4d03-a713-656faa906714","system_id":"levelo_inurba_marseille","lat":43.2968,"lon":5.37291,"is_reserved":false,"is_disabled":false,"rental_uris":{"android":"levelo://app?vid=c8a2ff32-943e-4d03-a713-656faa906714","ios":"levelo://app?vid=c8a2ff32-943e-4d03-a713-656faa906714"},"vehicle_type_id":"4","last_reported":1716570413,"current_range_meters":26400,"station_id":"ce4bgk12rcd13ifvqbj0","pricing_plan_id":"cebpf4jnsgd1na2vs0mg"},{"bike_id":"74c77949-1c9d-4b53-ba89-871040b4b7a3","system_id":"levelo_inurba_marseille","lat":43.2968,"lon":5.37291,"is_reserved":false,"is_disabled":false,"rental_uris":{"android":"levelo://app?vid=74c77949-1c9d-4b53-ba89-871040b4b7a3","ios":"levelo://app?vid=74c77949-1c9d-4b53-ba89-871040b4b7a3"},"vehicle_type_id":"4","last_reported":1716570413,"current_range_meters":18000,"station_id":"ce4bgk12rcd13ifvqbj0","pricing_plan_id":"cebpf4jnsgd1na2vs0mg"},{"bike_id":"b0181dbd-d16d-4347-9382-b450da867146","system_id":"levelo_inurba_marseille","lat":43.29657,"lon":5.36162,"is_reserved":false,"is_disabled":false,"rental_uris":{"android":"levelo://app?vid=b0181dbd-d16d-4347-9382-b450da867146","ios":"levelo://app?vid=b0181dbd-d16d-4347-9382-b450da867146"},"vehicle_type_id":"4","last_reported":1716570413,"current_range_meters":12000,"station_id":"","pricing_plan_id":"cebpf4jnsgd1na2vs0mg"},{"bike_id":"21413092-e971-4d30-857b-241afb232306","system_id":"levelo_inurba_marseille","lat":43.29573,"lon":5.367355,"is_reserved":false,"is_disabled":false,"rental_uris":{"android":"levelo://app?vid=21413092-e971-4d30-857b-241afb232306","ios":"levelo://app?vid=21413092-e971-4d30-857b-241afb232306"},"vehicle_type_id":"4","last_reported":1716570413,"current_range_meters":16000,"station_id":"ce4bgph2rcd13ifvqc2g","pricing_plan_id":"cebpf4jnsgd1na2vs0mg"},{"bike_id":"39e41708-3b70-4fac-b722-271a587c4edd","system_id":"levelo_inurba_marseille","lat":43.29573,"lon":5.367355,"is_reserved":false,"is_disabled":false,"rental_uris":{"android":"levelo://app?vid=39e41708-3b70-4fac-b722-271a587c4edd","ios":"levelo://app?vid=39e41708-3b70-4fac-b722-271a587c4edd"},"vehicle_type_id":"4","last_reported":1716570413,"current_range_meters":0,"station_id":"ce4bgph2rcd13ifvqc2g","pricing_plan_id":"cebpf4jnsgd1na2vs0mg"},{"bike_id":"7896f118-cc1d-4204-8f61-36df3857e1ec","system_id":"levelo_inurba_marseille","lat":43.296131,"lon":5.370773,"is_reserved":false,"is_disabled":false,"rental_uris":{"android":"levelo://app?vid=7896f118-cc1d-4204-8f61-36df3857e1ec","ios":"levelo://app?vid=7896f118-cc1d-4204-8f61-36df3857e1ec"},"vehicle_type_id":"4","last_reported":1716570413,"current_range_meters":31200,"station_id":"ce4bgnh2rcd13ifvqc0g","pricing_plan_id":"cebpf4jnsgd1na2vs0mg"},{"bike_id":"3374f1e8-e66e-432e-9bf8-ac24a32e9ca2","system_id":"levelo_inurba_marseille","lat":43.296131,"lon":5.370791,"is_reserved":false,"is_disabled":false,"rental_uris":{"android":"levelo://app?vid=3374f1e8-e66e-432e-9bf8-ac24a32e9ca2","ios":"levelo://app?vid=3374f1e8-e66e-432e-9bf8-ac24a32e9ca2"},"vehicle_type_id":"4","last_reported":1716570413,"current_range_meters":30400,"station_id":"ce4bgnh2rcd13ifvqc0g","pricing_plan_id":"cebpf4jnsgd1na2vs0mg"},{"bike_id":"59029776-d726-4433-80b3-fcd7416a4bb3","system_id":"levelo_inurba_marseille","lat":43.29573,"lon":5.367355,"is_reserved":false,"is_disabled":false,"rental_uris":{"android":"levelo://app?vid=59029776-d726-4433-80b3-fcd7416a4bb3","ios":"levelo://app?vid=59029776-d726-4433-80b3-fcd7416a4bb3"},"vehicle_type_id":"4","last_reported":1716570413,"current_range_meters":13600,"station_id":"ce4bgph2rcd13ifvqc2g","pricing_plan_id":"cebpf4jnsgd1na2vs0mg"},{"bike_id":"8cfe3bff-0a8c-4df8-8855-e590ec774bac","system_id":"levelo_inurba_marseille","lat":43.29573,"lon":5.367355,"is_reserved":false,"is_disabled":false,"rental_uris":{"android":"levelo://app?vid=8cfe3bff-0a8c-4df8-8855-e590ec774bac","ios":"levelo://app?vid=8cfe3bff-0a8c-4df8-8855-e590ec774bac"},"vehicle_type_id":"4","last_reported":1716570413,"current_range_meters":4800,"station_id":"ce4bgph2rcd13ifvqc2g","pricing_plan_id":"cebpf4jnsgd1na2vs0mg"},{"bike_id":"334c0d8e-6510-4e11-b653-e91dd0a5e658","system_id":"levelo_inurba_marseille","lat":43.299028,"lon":5.381509,"is_reserved":false,"is_disabled":false,"rental_uris":{"android":"levelo://app?vid=334c0d8e-6510-4e11-b653-e91dd0a5e658","ios":"levelo://app?vid=334c0d8e-6510-4e11-b653-e91dd0a5e658"},"vehicle_type_id":"4","last_reported":1716570413,"current_range_meters":13200,"station_id":"ce4bgj12rcd13ifvqbc0","pricing_plan_id":"cebpf4jnsgd1na2vs0mg"},{"bike_id":"5ae16265-56e4-45ba-8cd6-ac17e3b61386","system_id":"levelo_inurba_marseille","lat":43.309589,"lon":5.390258,"is_reserved":false,"is_disabled":false,"rental_uris":{"android":"levelo://app?vid=5ae16265-56e4-45ba-8cd6-ac17e3b61386","ios":"levelo://app?vid=5ae16265-56e4-45ba-8cd6-ac17e3b61386"},"vehicle_type_id":"4","last_reported":1716570413,"current_range_meters":15600,"station_id":"ce4bgup2rcd13ifvqco0","pricing_plan_id":"cebpf4jnsgd1na2vs0mg"},{"bike_id":"f047c0b6-19ee-4a6d-8ca1-7e199ff31610","system_id":"levelo_inurba_marseille","lat":43.302784,"lon":5.377158,"is_reserved":false,"is_disabled":false,"rental_uris":{"android":"levelo://app?vid=f047c0b6-19ee-4a6d-8ca1-7e199ff31610","ios":"levelo://app?vid=f047c0b6-19ee-4a6d-8ca1-7e199ff31610"},"vehicle_type_id":"4","last_reported":1716570413,"current_range_meters":24000,"station_id":"ce4bguh2rcd13ifvqcj0","pricing_plan_id":"cebpf4jnsgd1na2vs0mg"},{"bike_id":"715783de-84db-410e-8ce5-a6d9c09c8769","system_id":"levelo_inurba_marseille","lat":43.317557,"lon":5.390173,"is_reserved":false,"is_disabled":false,"rental_uris":{"android":"levelo://app?vid=715783de-84db-410e-8ce5-a6d9c09c8769","ios":"levelo://app?vid=715783de-84db-410e-8ce5-a6d9c09c8769"},"vehicle_type_id":"4","last_reported":1716570413,"current_range_meters":29600,"station_id":"ce4bhqp2rcd13ifvqhng","pricing_plan_id":"cebpf4jnsgd1na2vs0mg"},{"bike_id":"2bd2bca9-0e5e-4968-b464-3d64201eed49","system_id":"levelo_inurba_marseille","lat":43.298037,"lon":5.381066,"is_reserved":false,"is_disabled":false,"rental_uris":{"android":"levelo://app?vid=2bd2bca9-0e5e-4968-b464-3d64201eed49","ios":"levelo://app?vid=2bd2bca9-0e5e-4968-b464-3d64201eed49"},"vehicle_type_id":"4","last_reported":1716570413,"current_range_meters":18400,"station_id":"ce4bgip2rcd13ifvqbb0","pricing_plan_id":"cebpf4jnsgd1na2vs0mg"},{"bike_id":"800ff92f-b739-4378-8973-19bfe4e03e17","system_id":"levelo_inurba_marseille","lat":43.30143,"lon":5.37413,"is_reserved":false,"is_disabled":false,"rental_uris":{"android":"levelo://app?vid=800ff92f-b739-4378-8973-19bfe4e03e17","ios":"levelo://app?vid=800ff92f-b739-4378-8973-19bfe4e03e17"},"vehicle_type_id":"4","last_reported":1716570413,"current_range_meters":19600,"station_id":"ce4bgs92rcd13ifvqcc0","pricing_plan_id":"cebpf4jnsgd1na2vs0mg"},{"bike_id":"b770e0b1-e590-4766-9e2a-6c786609fe4e","system_id":"levelo_inurba_marseille","lat":43.295748,"lon":5.37522,"is_reserved":false,"is_disabled":false,"rental_uris":{"android":"levelo://app?vid=b770e0b1-e590-4766-9e2a-6c786609fe4e","ios":"levelo://app?vid=b770e0b1-e590-4766-9e2a-6c786609fe4e"},"vehicle_type_id":"4","last_reported":1716570413,"current_range_meters":0,"station_id":"ce4bgh92rcd13ifvqb50","pricing_plan_id":"cebpf4jnsgd1na2vs0mg"},{"bike_id":"aba7bf44-fd56-4b95-97e0-ba3ec61e667a","system_id":"levelo_inurba_marseille","lat":43.296277,"lon":5.377108,"is_reserved":false,"is_disabled":false,"rental_uris":{"android":"levelo://app?vid=aba7bf44-fd56-4b95-97e0-ba3ec61e667a","ios":"levelo://app?vid=aba7bf44-fd56-4b95-97e0-ba3ec61e667a"},"vehicle_type_id":"4","last_reported":1716570413,"current_range_meters":0,"station_id":"ce4bgi92rcd13ifvqb90","pricing_plan_id":"cebpf4jnsgd1na2vs0mg"},{"bike_id":"ea5c8d42-c861-4802-a2ac-9f57d3bd183f","system_id":"levelo_inurba_marseille","lat":43.299724,"lon":5.384848,"is_reserved":false,"is_disabled":false,"rental_uris":{"android":"levelo://app?vid=ea5c8d42-c861-4802-a2ac-9f57d3bd183f","ios":"levelo://app?vid=ea5c8d42-c861-4802-a2ac-9f57d3bd183f"},"vehicle_type_id":"4","last_reported":1716570413,"current_range_meters":30400,"station_id":"ce4bgj92rcd13ifvqbd0","pricing_plan_id":"cebpf4jnsgd1na2vs0mg"},{"bike_id":"d014cf3e-048b-41f0-8f75-4b7171a47831","system_id":"levelo_inurba_marseille","lat":43.299717,"lon":5.384845,"is_reserved":false,"is_disabled":false,"rental_uris":{"android":"levelo://app?vid=d014cf3e-048b-41f0-8f75-4b7171a47831","ios":"levelo://app?vid=d014cf3e-048b-41f0-8f75-4b7171a47831"},"vehicle_type_id":"4","last_reported":1716570413,"current_range_meters":31200,"station_id":"ce4bgj92rcd13ifvqbd0","pricing_plan_id":"cebpf4jnsgd1na2vs0mg"},{"bike_id":"c692fd75-9972-42e1-92a8-4ac7cce47a41","system_id":"levelo_inurba_marseille","lat":43.299243,"lon":5.37481,"is_reserved":false,"is_disabled":false,"rental_uris":{"android":"levelo://app?vid=c692fd75-9972-42e1-92a8-4ac7cce47a41","ios":"levelo://app?vid=c692fd75-9972-42e1-92a8-4ac7cce47a41"},"vehicle_type_id":"4","last_reported":1716570413,"current_range_meters":15200,"station_id":"ce4bgjh2rcd13ifvqbg0","pricing_plan_id":"cebpf4jnsgd1na2vs0mg"},{"bike_id":"78252e3e-8eff-4ccb-a142-6526e4cc39f4","system_id":"levelo_inurba_marseille","lat":43.30089,"lon":5.38729,"is_reserved":false,"is_disabled":false,"rental_uris":{"android":"levelo://app?vid=78252e3e-8eff-4ccb-a142-6526e4cc39f4","ios":"levelo://app?vid=78252e3e-8eff-4ccb-a142-6526e4cc39f4"},"vehicle_type_id":"4","last_reported":1716570413,"current_range_meters":3600,"station_id":"","pricing_plan_id":"cebpf4jnsgd1na2vs0mg"},{"bike_id":"4c8882e3-fb0d-4069-aa35-6a6f8d4824eb","system_id":"levelo_inurba_marseille","lat":43.3237,"lon":5.38883,"is_reserved":false,"is_disabled":false,"rental_uris":{"android":"levelo://app?vid=4c8882e3-fb0d-4069-aa35-6a6f8d4824eb","ios":"levelo://app?vid=4c8882e3-fb0d-4069-aa35-6a6f8d4824eb"},"vehicle_type_id":"4","last_reported":1716570413,"current_range_meters":0,"station_id":"ce4bhqp2rcd13ifvqhog","pricing_plan_id":"cebpf4jnsgd1na2vs0mg"},{"bike_id":"68a1b4b0-ba98-492a-b341-03bdb7416f44","system_id":"levelo_inurba_marseille","lat":43.32365,"lon":5.38889,"is_reserved":false,"is_disabled":false,"rental_uris":{"android":"levelo://app?vid=68a1b4b0-ba98-492a-b341-03bdb7416f44","ios":"levelo://app?vid=68a1b4b0-ba98-492a-b341-03bdb7416f44"},"vehicle_type_id":"4","last_reported":1716570413,"current_range_meters":7200,"station_id":"ce4bhqp2rcd13ifvqhog","pricing_plan_id":"cebpf4jnsgd1na2vs0mg"},{"bike_id":"eef2fc75-37f2-4919-a57c-ff6516d63899","system_id":"levelo_inurba_marseille","lat":43.32363,"lon":5.38894,"is_reserved":false,"is_disabled":false,"rental_uris":{"android":"levelo://app?vid=eef2fc75-37f2-4919-a57c-ff6516d63899","ios":"levelo://app?vid=eef2fc75-37f2-4919-a57c-ff6516d63899"},"vehicle_type_id":"4","last_reported":1716570413,"current_range_meters":0,"station_id":"ce4bhqp2rcd13ifvqhog","pricing_plan_id":"cebpf4jnsgd1na2vs0mg"},{"bike_id":"d987e0b4-58cf-40f9-b65b-0136a10defbb","system_id":"levelo_inurba_marseille","lat":43.29596,"lon":5.38061,"is_reserved":false,"is_disabled":false,"rental_uris":{"android":"levelo://app?vid=d987e0b4-58cf-40f9-b65b-0136a10defbb","ios":"levelo://app?vid=d987e0b4-58cf-40f9-b65b-0136a10defbb"},"vehicle_type_id":"4","last_reported":1716570413,"current_range_meters":0,"station_id":"ce4bgl12rcd13ifvqbo0","pricing_plan_id":"cebpf4jnsgd1na2vs0mg"},{"bike_id":"35bf7ef3-9804-4e71-9585-f91a566d5661","system_id":"levelo_inurba_marseille","lat":43.29604,"lon":5.38103,"is_reserved":false,"is_disabled":false,"rental_uris":{"android":"levelo://app?vid=35bf7ef3-9804-4e71-9585-f91a566d5661","ios":"levelo://app?vid=35bf7ef3-9804-4e71-9585-f91a566d5661"},"vehicle_type_id":"4","last_reported":1716570413,"current_range_meters":0,"station_id":"ce4bgl12rcd13ifvqbo0","pricing_plan_id":"cebpf4jnsgd1na2vs0mg"},{"bike_id":"fdff9a14-d749-4b84-a4bc-dcdb92854ff7","system_id":"levelo_inurba_marseille","lat":43.29601,"lon":5.38106,"is_reserved":false,"is_disabled":false,"rental_uris":{"android":"levelo://app?vid=fdff9a14-d749-4b84-a4bc-dcdb92854ff7","ios":"levelo://app?vid=fdff9a14-d749-4b84-a4bc-dcdb92854ff7"},"vehicle_type_id":"4","last_reported":1716570413,"current_range_meters":26800,"station_id":"ce4bgl12rcd13ifvqbo0","pricing_plan_id":"cebpf4jnsgd1na2vs0mg"},{"bike_id":"32a8901e-b07c-40a6-b06f-b70377791cc1","system_id":"levelo_inurba_marseille","lat":43.292749,"lon":5.368398,"is_reserved":false,"is_disabled":false,"rental_uris":{"android":"levelo://app?vid=32a8901e-b07c-40a6-b06f-b70377791cc1","ios":"levelo://app?vid=32a8901e-b07c-40a6-b06f-b70377791cc1"},"vehicle_type_id":"4","last_reported":1716570413,"current_range_meters":3200,"station_id":"ce4bhbp2rcd13ifvqesg","pricing_plan_id":"cebpf4jnsgd1na2vs0mg"},{"bike_id":"6a3d03b0-ddfa-4f4c-bd4f-f8638b5131e5","system_id":"levelo_inurba_marseille","lat":43.292749,"lon":5.368398,"is_reserved":false,"is_disabled":false,"rental_uris":{"android":"levelo://app?vid=6a3d03b0-ddfa-4f4c-bd4f-f8638b5131e5","ios":"levelo://app?vid=6a3d03b0-ddfa-4f4c-bd4f-f8638b5131e5"},"vehicle_type_id":"4","last_reported":1716570413,"current_range_meters":11600,"station_id":"ce4bhbp2rcd13ifvqesg","pricing_plan_id":"cebpf4jnsgd1na2vs0mg"},{"bike_id":"9faeaf48-47cb-42cf-81d8-877742e0e2b8","system_id":"levelo_inurba_marseille","lat":43.292749,"lon":5.368402,"is_reserved":false,"is_disabled":false,"rental_uris":{"android":"levelo://app?vid=9faeaf48-47cb-42cf-81d8-877742e0e2b8","ios":"levelo://app?vid=9faeaf48-47cb-42cf-81d8-877742e0e2b8"},"vehicle_type_id":"4","last_reported":1716570413,"current_range_meters":24000,"station_id":"ce4bhbp2rcd13ifvqesg","pricing_plan_id":"cebpf4jnsgd1na2vs0mg"},{"bike_id":"715c58e9-704a-421d-bb11-749025f512b7","system_id":"levelo_inurba_marseille","lat":43.293009,"lon":5.374584,"is_reserved":false,"is_disabled":false,"rental_uris":{"android":"levelo://app?vid=715c58e9-704a-421d-bb11-749025f512b7","ios":"levelo://app?vid=715c58e9-704a-421d-bb11-749025f512b7"},"vehicle_type_id":"4","last_reported":1716570413,"current_range_meters":9600,"station_id":"ce4bgi12rcd13ifvqb70","pricing_plan_id":"cebpf4jnsgd1na2vs0mg"},{"bike_id":"fb39f544-3a74-423a-b0d5-2e70618b3872","system_id":"levelo_inurba_marseille","lat":43.290104,"lon":5.356111,"is_reserved":false,"is_disabled":false,"rental_uris":{"android":"levelo://app?vid=fb39f544-3a74-423a-b0d5-2e70618b3872","ios":"levelo://app?vid=fb39f544-3a74-423a-b0d5-2e70618b3872"},"vehicle_type_id":"4","last_reported":1716570413,"current_range_meters":0,"station_id":"ce4bhb92rcd13ifvqen0","pricing_plan_id":"cebpf4jnsgd1na2vs0mg"},{"bike_id":"274be6ce-b248-45f3-a0e0-f7749799c703","system_id":"levelo_inurba_marseille","lat":43.293009,"lon":5.374584,"is_reserved":false,"is_disabled":false,"rental_uris":{"android":"levelo://app?vid=274be6ce-b248-45f3-a0e0-f7749799c703","ios":"levelo://app?vid=274be6ce-b248-45f3-a0e0-f7749799c703"},"vehicle_type_id":"4","last_reported":1716570413,"current_range_meters":14000,"station_id":"ce4bgi12rcd13ifvqb70","pricing_plan_id":"cebpf4jnsgd1na2vs0mg"},{"bike_id":"2b0e6bf9-2d37-4397-a82c-d4634fcd9c62","system_id":"levelo_inurba_marseille","lat":43.298037,"lon":5.381066,"is_reserved":false,"is_disabled":false,"rental_uris":{"android":"levelo://app?vid=2b0e6bf9-2d37-4397-a82c-d4634fcd9c62","ios":"levelo://app?vid=2b0e6bf9-2d37-4397-a82c-d4634fcd9c62"},"vehicle_type_id":"4","last_reported":1716570413,"current_range_meters":0,"station_id":"ce4bgip2rcd13ifvqbb0","pricing_plan_id":"cebpf4jnsgd1na2vs0mg"},{"bike_id":"97900e37-a693-4f78-a1e7-4bcbe28166a9","system_id":"levelo_inurba_marseille","lat":43.305769,"lon":5.393491,"is_reserved":false,"is_disabled":false,"rental_uris":{"android":"levelo://app?vid=97900e37-a693-4f78-a1e7-4bcbe28166a9","ios":"levelo://app?vid=97900e37-a693-4f78-a1e7-4bcbe28166a9"},"vehicle_type_id":"4","last_reported":1716570413,"current_range_meters":14000,"station_id":"ce4bh0p2rcd13ifvqd80","pricing_plan_id":"cebpf4jnsgd1na2vs0mg"},{"bike_id":"4f22c128-876e-4e73-815e-b46cda66909a","system_id":"levelo_inurba_marseille","lat":43.293009,"lon":5.374584,"is_reserved":false,"is_disabled":false,"rental_uris":{"android":"levelo://app?vid=4f22c128-876e-4e73-815e-b46cda66909a","ios":"levelo://app?vid=4f22c128-876e-4e73-815e-b46cda66909a"},"vehicle_type_id":"4","last_reported":1716570413,"current_range_meters":4800,"station_id":"ce4bgi12rcd13ifvqb70","pricing_plan_id":"cebpf4jnsgd1na2vs0mg"},{"bike_id":"40670d59-64ca-4851-914a-6d1d8e7df6a5","system_id":"levelo_inurba_marseille","lat":43.305994,"lon":5.393687,"is_reserved":false,"is_disabled":false,"rental_uris":{"android":"levelo://app?vid=40670d59-64ca-4851-914a-6d1d8e7df6a5","ios":"levelo://app?vid=40670d59-64ca-4851-914a-6d1d8e7df6a5"},"vehicle_type_id":"4","last_reported":1716570413,"current_range_meters":18400,"station_id":"ce4bh0p2rcd13ifvqd80","pricing_plan_id":"cebpf4jnsgd1na2vs0mg"},{"bike_id":"7ea6055b-5473-4899-9f75-663736ced83e","system_id":"levelo_inurba_marseille","lat":43.302969,"lon":5.391996,"is_reserved":false,"is_disabled":false,"rental_uris":{"android":"levelo://app?vid=7ea6055b-5473-4899-9f75-663736ced83e","ios":"levelo://app?vid=7ea6055b-5473-4899-9f75-663736ced83e"},"vehicle_type_id":"4","last_reported":1716570413,"current_range_meters":0,"station_id":"ce4bgkh2rcd13ifvqbk0","pricing_plan_id":"cebpf4jnsgd1na2vs0mg"},{"bike_id":"739574b5-7f1b-4bfd-bb4f-b974cb37f062","system_id":"levelo_inurba_marseille","lat":43.303,"lon":5.39202,"is_reserved":false,"is_disabled":false,"rental_uris":{"android":"levelo://app?vid=739574b5-7f1b-4bfd-bb4f-b974cb37f062","ios":"levelo://app?vid=739574b5-7f1b-4bfd-bb4f-b974cb37f062"},"vehicle_type_id":"4","last_reported":1716570413,"current_range_meters":0,"station_id":"ce4bgkh2rcd13ifvqbk0","pricing_plan_id":"cebpf4jnsgd1na2vs0mg"},{"bike_id":"52e18ec9-236f-4f8d-a4d9-b7a017bfc376","system_id":"levelo_inurba_marseille","lat":43.302992,"lon":5.392136,"is_reserved":false,"is_disabled":false,"rental_uris":{"android":"levelo://app?vid=52e18ec9-236f-4f8d-a4d9-b7a017bfc376","ios":"levelo://app?vid=52e18ec9-236f-4f8d-a4d9-b7a017bfc376"},"vehicle_type_id":"4","last_reported":1716570413,"current_range_meters":13600,"station_id":"ce4bgkh2rcd13ifvqbk0","pricing_plan_id":"cebpf4jnsgd1na2vs0mg"},{"bike_id":"ac895382-1753-445e-ac29-78fa1557ae3d","system_id":"levelo_inurba_marseille","lat":43.303002,"lon":5.392142,"is_reserved":false,"is_disabled":false,"rental_uris":{"android":"levelo://app?vid=ac895382-1753-445e-ac29-78fa1557ae3d","ios":"levelo://app?vid=ac895382-1753-445e-ac29-78fa1557ae3d"},"vehicle_type_id":"4","last_reported":1716570413,"current_range_meters":7600,"station_id":"ce4bgkh2rcd13ifvqbk0","pricing_plan_id":"cebpf4jnsgd1na2vs0mg"},{"bike_id":"2bb88893-7fc4-4008-8ce2-cee7d605e341","system_id":"levelo_inurba_marseille","lat":43.303002,"lon":5.392142,"is_reserved":false,"is_disabled":false,"rental_uris":{"android":"levelo://app?vid=2bb88893-7fc4-4008-8ce2-cee7d605e341","ios":"levelo://app?vid=2bb88893-7fc4-4008-8ce2-cee7d605e341"},"vehicle_type_id":"4","last_reported":1716570413,"current_range_meters":13600,"station_id":"ce4bgkh2rcd13ifvqbk0","pricing_plan_id":"cebpf4jnsgd1na2vs0mg"},{"bike_id":"cab4d411-19e8-448f-a40f-128721181661","system_id":"levelo_inurba_marseille","lat":43.29368,"lon":5.37848,"is_reserved":false,"is_disabled":false,"rental_uris":{"android":"levelo://app?vid=cab4d411-19e8-448f-a40f-128721181661","ios":"levelo://app?vid=cab4d411-19e8-448f-a40f-128721181661"},"vehicle_type_id":"4","last_reported":1716570413,"current_range_meters":0,"station_id":"ce4bgjh2rcd13ifvqbf0","pricing_plan_id":"cebpf4jnsgd1na2vs0mg"},{"bike_id":"9fb49172-028f-4080-9237-36e9ff2e89b7","system_id":"levelo_inurba_marseille","lat":43.30085,"lon":5.390856,"is_reserved":false,"is_disabled":false,"rental_uris":{"android":"levelo://app?vid=9fb49172-028f-4080-9237-36e9ff2e89b7","ios":"levelo://app?vid=9fb49172-028f-4080-9237-36e9ff2e89b7"},"vehicle_type_id":"4","last_reported":1716570413,"current_range_meters":0,"station_id":"ce4bh192rcd13ifvqdb0","pricing_plan_id":"cebpf4jnsgd1na2vs0mg"},{"bike_id":"93474962-5876-467a-96e7-9b0b44d4f709","system_id":"levelo_inurba_marseille","lat":43.292311,"lon":5.360731,"is_reserved":false,"is_disabled":false,"rental_uris":{"android":"levelo://app?vid=93474962-5876-467a-96e7-9b0b44d4f709","ios":"levelo://app?vid=93474962-5876-467a-96e7-9b0b44d4f709"},"vehicle_type_id":"4","last_reported":1716570413,"current_range_meters":20000,"station_id":"ce4bhbh2rcd13ifvqeqg","pricing_plan_id":"cebpf4jnsgd1na2vs0mg"},{"bike_id":"43907bd0-4103-4669-b052-6f1c68333ab7","system_id":"levelo_inurba_marseille","lat":43.29228,"lon":5.36061,"is_reserved":false,"is_disabled":false,"rental_uris":{"android":"levelo://app?vid=43907bd0-4103-4669-b052-6f1c68333ab7","ios":"levelo://app?vid=43907bd0-4103-4669-b052-6f1c68333ab7"},"vehicle_type_id":"4","last_reported":1716570413,"current_range_meters":7200,"station_id":"ce4bhbh2rcd13ifvqeqg","pricing_plan_id":"cebpf4jnsgd1na2vs0mg"},{"bike_id":"acf61fd3-d1ce-4b2e-a2b7-c9a3b80ae1d3","system_id":"levelo_inurba_marseille","lat":43.29225,"lon":5.36067,"is_reserved":false,"is_disabled":false,"rental_uris":{"android":"levelo://app?vid=acf61fd3-d1ce-4b2e-a2b7-c9a3b80ae1d3","ios":"levelo://app?vid=acf61fd3-d1ce-4b2e-a2b7-c9a3b80ae1d3"},"vehicle_type_id":"4","last_reported":1716570413,"current_range_meters":24000,"station_id":"ce4bhbh2rcd13ifvqeqg","pricing_plan_id":"cebpf4jnsgd1na2vs0mg"},{"bike_id":"2529a767-a92e-4ad3-bcab-799df6f75583","system_id":"levelo_inurba_marseille","lat":43.30085,"lon":5.390856,"is_reserved":false,"is_disabled":false,"rental_uris":{"android":"levelo://app?vid=2529a767-a92e-4ad3-bcab-799df6f75583","ios":"levelo://app?vid=2529a767-a92e-4ad3-bcab-799df6f75583"},"vehicle_type_id":"4","last_reported":1716570413,"current_range_meters":24000,"station_id":"ce4bh192rcd13ifvqdb0","pricing_plan_id":"cebpf4jnsgd1na2vs0mg"},{"bike_id":"ab8f3953-f9dd-48fe-8245-206450ef3fe2","system_id":"levelo_inurba_marseille","lat":43.29217,"lon":5.360576,"is_reserved":false,"is_disabled":false,"rental_uris":{"android":"levelo://app?vid=ab8f3953-f9dd-48fe-8245-206450ef3fe2","ios":"levelo://app?vid=ab8f3953-f9dd-48fe-8245-206450ef3fe2"},"vehicle_type_id":"4","last_reported":1716570413,"current_range_meters":20800,"station_id":"ce4bhbh2rcd13ifvqeqg","pricing_plan_id":"cebpf4jnsgd1na2vs0mg"},{"bike_id":"d55a60a9-3f5f-406c-a7ab-900176d821d1","system_id":"levelo_inurba_marseille","lat":43.29215,"lon":5.36055,"is_reserved":false,"is_disabled":false,"rental_uris":{"android":"levelo://app?vid=d55a60a9-3f5f-406c-a7ab-900176d821d1","ios":"levelo://app?vid=d55a60a9-3f5f-406c-a7ab-900176d821d1"},"vehicle_type_id":"4","last_reported":1716570413,"current_range_meters":30800,"station_id":"ce4bhbh2rcd13ifvqeqg","pricing_plan_id":"cebpf4jnsgd1na2vs0mg"},{"bike_id":"23f79f2d-e349-413b-ae78-c3b7f633e079","system_id":"levelo_inurba_marseille","lat":43.3008,"lon":5.39097,"is_reserved":false,"is_disabled":false,"rental_uris":{"android":"levelo://app?vid=23f79f2d-e349-413b-ae78-c3b7f633e079","ios":"levelo://app?vid=23f79f2d-e349-413b-ae78-c3b7f633e079"},"vehicle_type_id":"4","last_reported":1716570413,"current_range_meters":18000,"station_id":"ce4bh192rcd13ifvqdb0","pricing_plan_id":"cebpf4jnsgd1na2vs0mg"},{"bike_id":"b03aac42-ad7a-4cbb-879e-e2eb2d609673","system_id":"levelo_inurba_marseille","lat":43.291675,"lon":5.371583,"is_reserved":false,"is_disabled":false,"rental_uris":{"android":"levelo://app?vid=b03aac42-ad7a-4cbb-879e-e2eb2d609673","ios":"levelo://app?vid=b03aac42-ad7a-4cbb-879e-e2eb2d609673"},"vehicle_type_id":"4","last_reported":1716570413,"current_range_meters":5600,"station_id":"ce4bha92rcd13ifvqeh0","pricing_plan_id":"cebpf4jnsgd1na2vs0mg"},{"bike_id":"9a295ee6-20e4-47dd-8d5b-a683aa67d3b4","system_id":"levelo_inurba_marseille","lat":43.30085,"lon":5.390856,"is_reserved":false,"is_disabled":false,"rental_uris":{"android":"levelo://app?vid=9a295ee6-20e4-47dd-8d5b-a683aa67d3b4","ios":"levelo://app?vid=9a295ee6-20e4-47dd-8d5b-a683aa67d3b4"},"vehicle_type_id":"4","last_reported":1716570413,"current_range_meters":22000,"station_id":"ce4bh192rcd13ifvqdb0","pricing_plan_id":"cebpf4jnsgd1na2vs0mg"},{"bike_id":"d6559032-5526-496b-bbd6-2a13a4f75c04","system_id":"levelo_inurba_marseille","lat":43.298764,"lon":5.388973,"is_reserved":false,"is_disabled":false,"rental_uris":{"android":"levelo://app?vid=d6559032-5526-496b-bbd6-2a13a4f75c04","ios":"levelo://app?vid=d6559032-5526-496b-bbd6-2a13a4f75c04"},"vehicle_type_id":"4","last_reported":1716570413,"current_range_meters":15200,"station_id":"ce4bh392rcd13ifvqdl0","pricing_plan_id":"cebpf4jnsgd1na2vs0mg"},{"bike_id":"86632c09-d3d5-4ac4-83d7-5599ef2eb04e","system_id":"levelo_inurba_marseille","lat":43.291675,"lon":5.371583,"is_reserved":false,"is_disabled":false,"rental_uris":{"android":"levelo://app?vid=86632c09-d3d5-4ac4-83d7-5599ef2eb04e","ios":"levelo://app?vid=86632c09-d3d5-4ac4-83d7-5599ef2eb04e"},"vehicle_type_id":"4","last_reported":1716570413,"current_range_meters":3600,"station_id":"ce4bha92rcd13ifvqeh0","pricing_plan_id":"cebpf4jnsgd1na2vs0mg"},{"bike_id":"38065a37-8363-4847-94f6-ed7fec5832e3","system_id":"levelo_inurba_marseille","lat":43.313291,"lon":5.396838,"is_reserved":false,"is_disabled":false,"rental_uris":{"android":"levelo://app?vid=38065a37-8363-4847-94f6-ed7fec5832e3","ios":"levelo://app?vid=38065a37-8363-4847-94f6-ed7fec5832e3"},"vehicle_type_id":"4","last_reported":1716570413,"current_range_meters":23200,"station_id":"ce4bgvp2rcd13ifvqcu0","pricing_plan_id":"cebpf4jnsgd1na2vs0mg"},{"bike_id":"7f8052db-fb55-4f5d-95c8-3f535781aef3","system_id":"levelo_inurba_marseille","lat":43.313291,"lon":5.396838,"is_reserved":false,"is_disabled":false,"rental_uris":{"android":"levelo://app?vid=7f8052db-fb55-4f5d-95c8-3f535781aef3","ios":"levelo://app?vid=7f8052db-fb55-4f5d-95c8-3f535781aef3"},"vehicle_type_id":"4","last_reported":1716570413,"current_range_meters":800,"station_id":"ce4bgvp2rcd13ifvqcu0","pricing_plan_id":"cebpf4jnsgd1na2vs0mg"},{"bike_id":"647fe26c-630b-4701-8dbb-4a96e2b90bdc","system_id":"levelo_inurba_marseille","lat":43.291994,"lon":5.357886,"is_reserved":false,"is_disabled":false,"rental_uris":{"android":"levelo://app?vid=647fe26c-630b-4701-8dbb-4a96e2b90bdc","ios":"levelo://app?vid=647fe26c-630b-4701-8dbb-4a96e2b90bdc"},"vehicle_type_id":"4","last_reported":1716570413,"current_range_meters":400,"station_id":"ce4bhb12rcd13ifvqel0","pricing_plan_id":"cebpf4jnsgd1na2vs0mg"},{"bike_id":"a6266722-fd35-439a-9ebb-385104d933e6","system_id":"levelo_inurba_marseille","lat":43.29529,"lon":5.385581,"is_reserved":false,"is_disabled":false,"rental_uris":{"android":"levelo://app?vid=a6266722-fd35-439a-9ebb-385104d933e6","ios":"levelo://app?vid=a6266722-fd35-439a-9ebb-385104d933e6"},"vehicle_type_id":"4","last_reported":1716570413,"current_range_meters":5200,"station_id":"ce4bgih2rcd13ifvqba0","pricing_plan_id":"cebpf4jnsgd1na2vs0mg"},{"bike_id":"6a128be0-ba98-4790-8bd8-bf69a2e37d78","system_id":"levelo_inurba_marseille","lat":43.29529,"lon":5.385581,"is_reserved":false,"is_disabled":false,"rental_uris":{"android":"levelo://app?vid=6a128be0-ba98-4790-8bd8-bf69a2e37d78","ios":"levelo://app?vid=6a128be0-ba98-4790-8bd8-bf69a2e37d78"},"vehicle_type_id":"4","last_reported":1716570413,"current_range_meters":4400,"station_id":"ce4bgih2rcd13ifvqba0","pricing_plan_id":"cebpf4jnsgd1na2vs0mg"},{"bike_id":"b745935f-9551-4517-88dc-a914308268cb","system_id":"levelo_inurba_marseille","lat":43.29529,"lon":5.385581,"is_reserved":false,"is_disabled":false,"rental_uris":{"android":"levelo://app?vid=b745935f-9551-4517-88dc-a914308268cb","ios":"levelo://app?vid=b745935f-9551-4517-88dc-a914308268cb"},"vehicle_type_id":"4","last_reported":1716570413,"current_range_meters":18000,"station_id":"ce4bgih2rcd13ifvqba0","pricing_plan_id":"cebpf4jnsgd1na2vs0mg"},{"bike_id":"c86e5ae8-b792-4af3-8a3c-cf26a8d89c16","system_id":"levelo_inurba_marseille","lat":43.29529,"lon":5.385581,"is_reserved":false,"is_disabled":false,"rental_uris":{"android":"levelo://app?vid=c86e5ae8-b792-4af3-8a3c-cf26a8d89c16","ios":"levelo://app?vid=c86e5ae8-b792-4af3-8a3c-cf26a8d89c16"},"vehicle_type_id":"4","last_reported":1716570413,"current_range_meters":26800,"station_id":"ce4bgih2rcd13ifvqba0","pricing_plan_id":"cebpf4jnsgd1na2vs0mg"},{"bike_id":"ff398eb5-e67d-40a6-80ba-ca135251a31c","system_id":"levelo_inurba_marseille","lat":43.29539,"lon":5.38551,"is_reserved":false,"is_disabled":false,"rental_uris":{"android":"levelo://app?vid=ff398eb5-e67d-40a6-80ba-ca135251a31c","ios":"levelo://app?vid=ff398eb5-e67d-40a6-80ba-ca135251a31c"},"vehicle_type_id":"4","last_reported":1716570413,"current_range_meters":30000,"station_id":"","pricing_plan_id":"cebpf4jnsgd1na2vs0mg"},{"bike_id":"c5d33e61-3df0-49a9-b59a-8eb417a521d2","system_id":"levelo_inurba_marseille","lat":43.29529,"lon":5.385581,"is_reserved":false,"is_disabled":false,"rental_uris":{"android":"levelo://app?vid=c5d33e61-3df0-49a9-b59a-8eb417a521d2","ios":"levelo://app?vid=c5d33e61-3df0-49a9-b59a-8eb417a521d2"},"vehicle_type_id":"4","last_reported":1716570413,"current_range_meters":21200,"station_id":"ce4bgih2rcd13ifvqba0","pricing_plan_id":"cebpf4jnsgd1na2vs0mg"},{"bike_id":"5b912db2-179a-41a4-bc57-9c79c65d5f57","system_id":"levelo_inurba_marseille","lat":43.29529,"lon":5.385581,"is_reserved":false,"is_disabled":false,"rental_uris":{"android":"levelo://app?vid=5b912db2-179a-41a4-bc57-9c79c65d5f57","ios":"levelo://app?vid=5b912db2-179a-41a4-bc57-9c79c65d5f57"},"vehicle_type_id":"4","last_reported":1716570413,"current_range_meters":0,"station_id":"ce4bgih2rcd13ifvqba0","pricing_plan_id":"cebpf4jnsgd1na2vs0mg"},{"bike_id":"791bf1c6-6a00-4997-9cb1-4c017251dcdc","system_id":"levelo_inurba_marseille","lat":43.29529,"lon":5.385581,"is_reserved":false,"is_disabled":false,"rental_uris":{"android":"levelo://app?vid=791bf1c6-6a00-4997-9cb1-4c017251dcdc","ios":"levelo://app?vid=791bf1c6-6a00-4997-9cb1-4c017251dcdc"},"vehicle_type_id":"4","last_reported":1716570413,"current_range_meters":2000,"station_id":"ce4bgih2rcd13ifvqba0","pricing_plan_id":"cebpf4jnsgd1na2vs0mg"},{"bike_id":"0584a9be-1f8a-464d-a3b3-de588f2e2ac5","system_id":"levelo_inurba_marseille","lat":43.29529,"lon":5.385581,"is_reserved":false,"is_disabled":false,"rental_uris":{"android":"levelo://app?vid=0584a9be-1f8a-464d-a3b3-de588f2e2ac5","ios":"levelo://app?vid=0584a9be-1f8a-464d-a3b3-de588f2e2ac5"},"vehicle_type_id":"4","last_reported":1716570413,"current_range_meters":15200,"station_id":"ce4bgih2rcd13ifvqba0","pricing_plan_id":"cebpf4jnsgd1na2vs0mg"},{"bike_id":"3ec46017-267e-4ade-b5e2-df3a77e27143","system_id":"levelo_inurba_marseille","lat":43.290779,"lon":5.371482,"is_reserved":false,"is_disabled":false,"rental_uris":{"android":"levelo://app?vid=3ec46017-267e-4ade-b5e2-df3a77e27143","ios":"levelo://app?vid=3ec46017-267e-4ade-b5e2-df3a77e27143"},"vehicle_type_id":"4","last_reported":1716570413,"current_range_meters":20400,"station_id":"ce4bh5p2rcd13ifvqe4g","pricing_plan_id":"cebpf4jnsgd1na2vs0mg"},{"bike_id":"85fc1228-d5b0-4253-a251-de6b772f4cae","system_id":"levelo_inurba_marseille","lat":43.290779,"lon":5.371482,"is_reserved":false,"is_disabled":false,"rental_uris":{"android":"levelo://app?vid=85fc1228-d5b0-4253-a251-de6b772f4cae","ios":"levelo://app?vid=85fc1228-d5b0-4253-a251-de6b772f4cae"},"vehicle_type_id":"4","last_reported":1716570413,"current_range_meters":27200,"station_id":"ce4bh5p2rcd13ifvqe4g","pricing_plan_id":"cebpf4jnsgd1na2vs0mg"},{"bike_id":"2bb300f7-f5fc-4c1d-8b32-6e53049967b6","system_id":"levelo_inurba_marseille","lat":43.290779,"lon":5.371482,"is_reserved":false,"is_disabled":false,"rental_uris":{"android":"levelo://app?vid=2bb300f7-f5fc-4c1d-8b32-6e53049967b6","ios":"levelo://app?vid=2bb300f7-f5fc-4c1d-8b32-6e53049967b6"},"vehicle_type_id":"4","last_reported":1716570413,"current_range_meters":0,"station_id":"ce4bh5p2rcd13ifvqe4g","pricing_plan_id":"cebpf4jnsgd1na2vs0mg"},{"bike_id":"7989c83a-418a-4b4e-b521-11727d7aea8a","system_id":"levelo_inurba_marseille","lat":43.290779,"lon":5.371482,"is_reserved":false,"is_disabled":false,"rental_uris":{"android":"levelo://app?vid=7989c83a-418a-4b4e-b521-11727d7aea8a","ios":"levelo://app?vid=7989c83a-418a-4b4e-b521-11727d7aea8a"},"vehicle_type_id":"4","last_reported":1716570413,"current_range_meters":18800,"station_id":"ce4bh5p2rcd13ifvqe4g","pricing_plan_id":"cebpf4jnsgd1na2vs0mg"},{"bike_id":"08913abb-9e5a-45a1-8b9f-1a9569240a99","system_id":"levelo_inurba_marseille","lat":43.290779,"lon":5.371482,"is_reserved":false,"is_disabled":false,"rental_uris":{"android":"levelo://app?vid=08913abb-9e5a-45a1-8b9f-1a9569240a99","ios":"levelo://app?vid=08913abb-9e5a-45a1-8b9f-1a9569240a99"},"vehicle_type_id":"4","last_reported":1716570413,"current_range_meters":24800,"station_id":"ce4bh5p2rcd13ifvqe4g","pricing_plan_id":"cebpf4jnsgd1na2vs0mg"},{"bike_id":"b346cb0e-a3bb-411a-ae71-8aec2a31bb71","system_id":"levelo_inurba_marseille","lat":43.290779,"lon":5.371482,"is_reserved":false,"is_disabled":false,"rental_uris":{"android":"levelo://app?vid=b346cb0e-a3bb-411a-ae71-8aec2a31bb71","ios":"levelo://app?vid=b346cb0e-a3bb-411a-ae71-8aec2a31bb71"},"vehicle_type_id":"4","last_reported":1716570413,"current_range_meters":24400,"station_id":"ce4bh5p2rcd13ifvqe4g","pricing_plan_id":"cebpf4jnsgd1na2vs0mg"},{"bike_id":"e370e371-e4eb-4e1e-a903-45641ed3080e","system_id":"levelo_inurba_marseille","lat":43.290624,"lon":5.359245,"is_reserved":false,"is_disabled":false,"rental_uris":{"android":"levelo://app?vid=e370e371-e4eb-4e1e-a903-45641ed3080e","ios":"levelo://app?vid=e370e371-e4eb-4e1e-a903-45641ed3080e"},"vehicle_type_id":"4","last_reported":1716570413,"current_range_meters":5600,"station_id":"ce4bha92rcd13ifvqeg0","pricing_plan_id":"cebpf4jnsgd1na2vs0mg"},{"bike_id":"ee1d0f0d-177f-4afc-8c46-1c482036ffac","system_id":"levelo_inurba_marseille","lat":43.290631,"lon":5.359244,"is_reserved":false,"is_disabled":false,"rental_uris":{"android":"levelo://app?vid=ee1d0f0d-177f-4afc-8c46-1c482036ffac","ios":"levelo://app?vid=ee1d0f0d-177f-4afc-8c46-1c482036ffac"},"vehicle_type_id":"4","last_reported":1716570413,"current_range_meters":23200,"station_id":"ce4bha92rcd13ifvqeg0","pricing_plan_id":"cebpf4jnsgd1na2vs0mg"},{"bike_id":"749616ba-ea0a-4e1a-b234-8e00108dd86a","system_id":"levelo_inurba_marseille","lat":43.298037,"lon":5.381066,"is_reserved":false,"is_disabled":false,"rental_uris":{"android":"levelo://app?vid=749616ba-ea0a-4e1a-b234-8e00108dd86a","ios":"levelo://app?vid=749616ba-ea0a-4e1a-b234-8e00108dd86a"},"vehicle_type_id":"4","last_reported":1716570413,"current_range_meters":15200,"station_id":"ce4bgip2rcd13ifvqbb0","pricing_plan_id":"cebpf4jnsgd1na2vs0mg"},{"bike_id":"a31eebff-eae6-4a1e-a398-5257ddd2218d","system_id":"levelo_inurba_marseille","lat":43.302008,"lon":5.394694,"is_reserved":false,"is_disabled":false,"rental_uris":{"android":"levelo://app?vid=a31eebff-eae6-4a1e-a398-5257ddd2218d","ios":"levelo://app?vid=a31eebff-eae6-4a1e-a398-5257ddd2218d"},"vehicle_type_id":"4","last_reported":1716570413,"current_range_meters":1200,"station_id":"ce4bh0p2rcd13ifvqd70","pricing_plan_id":"cebpf4jnsgd1na2vs0mg"},{"bike_id":"9aa0b3c1-2264-4da0-b9aa-2fa7d4ad9620","system_id":"levelo_inurba_marseille","lat":43.302008,"lon":5.394694,"is_reserved":false,"is_disabled":false,"rental_uris":{"android":"levelo://app?vid=9aa0b3c1-2264-4da0-b9aa-2fa7d4ad9620","ios":"levelo://app?vid=9aa0b3c1-2264-4da0-b9aa-2fa7d4ad9620"},"vehicle_type_id":"4","last_reported":1716570413,"current_range_meters":8800,"station_id":"ce4bh0p2rcd13ifvqd70","pricing_plan_id":"cebpf4jnsgd1na2vs0mg"},{"bike_id":"b72eac38-45c9-45f2-94c7-a1d724433fa7","system_id":"levelo_inurba_marseille","lat":43.302008,"lon":5.394694,"is_reserved":false,"is_disabled":false,"rental_uris":{"android":"levelo://app?vid=b72eac38-45c9-45f2-94c7-a1d724433fa7","ios":"levelo://app?vid=b72eac38-45c9-45f2-94c7-a1d724433fa7"},"vehicle_type_id":"4","last_reported":1716570413,"current_range_meters":800,"station_id":"ce4bh0p2rcd13ifvqd70","pricing_plan_id":"cebpf4jnsgd1na2vs0mg"},{"bike_id":"ca929da4-4039-4e6d-8cf1-b5691d339889","system_id":"levelo_inurba_marseille","lat":43.290104,"lon":5.356111,"is_reserved":false,"is_disabled":false,"rental_uris":{"android":"levelo://app?vid=ca929da4-4039-4e6d-8cf1-b5691d339889","ios":"levelo://app?vid=ca929da4-4039-4e6d-8cf1-b5691d339889"},"vehicle_type_id":"4","last_reported":1716570413,"current_range_meters":7600,"station_id":"ce4bhb92rcd13ifvqen0","pricing_plan_id":"cebpf4jnsgd1na2vs0mg"},{"bike_id":"472fb6c8-002a-4434-b9c5-f688d35d0284","system_id":"levelo_inurba_marseille","lat":43.289468,"lon":5.363719,"is_reserved":false,"is_disabled":false,"rental_uris":{"android":"levelo://app?vid=472fb6c8-002a-4434-b9c5-f688d35d0284","ios":"levelo://app?vid=472fb6c8-002a-4434-b9c5-f688d35d0284"},"vehicle_type_id":"4","last_reported":1716570413,"current_range_meters":2400,"station_id":"ce4bhc92rcd13ifvqetg","pricing_plan_id":"cebpf4jnsgd1na2vs0mg"},{"bike_id":"799b4a2b-f97a-4994-aab7-c72da2376ca9","system_id":"levelo_inurba_marseille","lat":43.294153,"lon":5.386305,"is_reserved":false,"is_disabled":false,"rental_uris":{"android":"levelo://app?vid=799b4a2b-f97a-4994-aab7-c72da2376ca9","ios":"levelo://app?vid=799b4a2b-f97a-4994-aab7-c72da2376ca9"},"vehicle_type_id":"4","last_reported":1716570413,"current_range_meters":0,"station_id":"ce4bh2h2rcd13ifvqdh0","pricing_plan_id":"cebpf4jnsgd1na2vs0mg"},{"bike_id":"2fd7430d-e389-4d93-8f1c-431b1aa4b8c9","system_id":"levelo_inurba_marseille","lat":43.294153,"lon":5.386305,"is_reserved":false,"is_disabled":false,"rental_uris":{"android":"levelo://app?vid=2fd7430d-e389-4d93-8f1c-431b1aa4b8c9","ios":"levelo://app?vid=2fd7430d-e389-4d93-8f1c-431b1aa4b8c9"},"vehicle_type_id":"4","last_reported":1716570413,"current_range_meters":3600,"station_id":"ce4bh2h2rcd13ifvqdh0","pricing_plan_id":"cebpf4jnsgd1na2vs0mg"},{"bike_id":"5378f1ca-2b8f-430e-be13-1f7403c5f70b","system_id":"levelo_inurba_marseille","lat":43.29419,"lon":5.38617,"is_reserved":false,"is_disabled":false,"rental_uris":{"android":"levelo://app?vid=5378f1ca-2b8f-430e-be13-1f7403c5f70b","ios":"levelo://app?vid=5378f1ca-2b8f-430e-be13-1f7403c5f70b"},"vehicle_type_id":"4","last_reported":1716570413,"current_range_meters":18000,"station_id":"ce4bh2h2rcd13ifvqdh0","pricing_plan_id":"cebpf4jnsgd1na2vs0mg"},{"bike_id":"238f492f-c729-4bcb-a850-8d804a0f0dec","system_id":"levelo_inurba_marseille","lat":43.28727,"lon":5.36078,"is_reserved":false,"is_disabled":false,"rental_uris":{"android":"levelo://app?vid=238f492f-c729-4bcb-a850-8d804a0f0dec","ios":"levelo://app?vid=238f492f-c729-4bcb-a850-8d804a0f0dec"},"vehicle_type_id":"4","last_reported":1716570413,"current_range_meters":18400,"station_id":"cki0cbj6b192h4jlfktg","pricing_plan_id":"cebpf4jnsgd1na2vs0mg"},{"bike_id":"6177b78c-6c0b-4b39-b14e-e3edaecb1c06","system_id":"levelo_inurba_marseille","lat":43.294153,"lon":5.386305,"is_reserved":false,"is_disabled":false,"rental_uris":{"android":"levelo://app?vid=6177b78c-6c0b-4b39-b14e-e3edaecb1c06","ios":"levelo://app?vid=6177b78c-6c0b-4b39-b14e-e3edaecb1c06"},"vehicle_type_id":"4","last_reported":1716570413,"current_range_meters":17200,"station_id":"ce4bh2h2rcd13ifvqdh0","pricing_plan_id":"cebpf4jnsgd1na2vs0mg"},{"bike_id":"d33f775d-e0ae-4f83-9159-359d4f4b608d","system_id":"levelo_inurba_marseille","lat":43.29416,"lon":5.38618,"is_reserved":false,"is_disabled":false,"rental_uris":{"android":"levelo://app?vid=d33f775d-e0ae-4f83-9159-359d4f4b608d","ios":"levelo://app?vid=d33f775d-e0ae-4f83-9159-359d4f4b608d"},"vehicle_type_id":"4","last_reported":1716570413,"current_range_meters":19600,"station_id":"ce4bh2h2rcd13ifvqdh0","pricing_plan_id":"cebpf4jnsgd1na2vs0mg"},{"bike_id":"8c25ef47-d93b-49da-8264-5f8087b93776","system_id":"levelo_inurba_marseille","lat":43.29416,"lon":5.38619,"is_reserved":false,"is_disabled":false,"rental_uris":{"android":"levelo://app?vid=8c25ef47-d93b-49da-8264-5f8087b93776","ios":"levelo://app?vid=8c25ef47-d93b-49da-8264-5f8087b93776"},"vehicle_type_id":"4","last_reported":1716570413,"current_range_meters":12800,"station_id":"ce4bh2h2rcd13ifvqdh0","pricing_plan_id":"cebpf4jnsgd1na2vs0mg"},{"bike_id":"2781163a-bbf4-43f3-81a5-3a1563f6a470","system_id":"levelo_inurba_marseille","lat":43.294153,"lon":5.386305,"is_reserved":false,"is_disabled":false,"rental_uris":{"android":"levelo://app?vid=2781163a-bbf4-43f3-81a5-3a1563f6a470","ios":"levelo://app?vid=2781163a-bbf4-43f3-81a5-3a1563f6a470"},"vehicle_type_id":"4","last_reported":1716570413,"current_range_meters":800,"station_id":"ce4bh2h2rcd13ifvqdh0","pricing_plan_id":"cebpf4jnsgd1na2vs0mg"},{"bike_id":"f428f6a0-302d-49ad-8a22-0bbd2f16febb","system_id":"levelo_inurba_marseille","lat":43.294153,"lon":5.386305,"is_reserved":false,"is_disabled":false,"rental_uris":{"android":"levelo://app?vid=f428f6a0-302d-49ad-8a22-0bbd2f16febb","ios":"levelo://app?vid=f428f6a0-302d-49ad-8a22-0bbd2f16febb"},"vehicle_type_id":"4","last_reported":1716570413,"current_range_meters":12400,"station_id":"ce4bh2h2rcd13ifvqdh0","pricing_plan_id":"cebpf4jnsgd1na2vs0mg"},{"bike_id":"0e8d730f-b939-4f94-a252-b7faa4dde2f2","system_id":"levelo_inurba_marseille","lat":43.290319,"lon":5.375732,"is_reserved":false,"is_disabled":false,"rental_uris":{"android":"levelo://app?vid=0e8d730f-b939-4f94-a252-b7faa4dde2f2","ios":"levelo://app?vid=0e8d730f-b939-4f94-a252-b7faa4dde2f2"},"vehicle_type_id":"4","last_reported":1716570413,"current_range_meters":31200,"station_id":"ce4bh692rcd13ifvqe90","pricing_plan_id":"cebpf4jnsgd1na2vs0mg"},{"bike_id":"6c3979e8-811f-46a3-9e64-efa60a3eaaf6","system_id":"levelo_inurba_marseille","lat":43.289184,"lon":5.366408,"is_reserved":false,"is_disabled":false,"rental_uris":{"android":"levelo://app?vid=6c3979e8-811f-46a3-9e64-efa60a3eaaf6","ios":"levelo://app?vid=6c3979e8-811f-46a3-9e64-efa60a3eaaf6"},"vehicle_type_id":"4","last_reported":1716570413,"current_range_meters":9600,"station_id":"ce4bhap2rcd13ifvqek0","pricing_plan_id":"cebpf4jnsgd1na2vs0mg"},{"bike_id":"d6d8329a-21fd-4c18-b504-c79946a12220","system_id":"levelo_inurba_marseille","lat":43.294142,"lon":5.386231,"is_reserved":false,"is_disabled":false,"rental_uris":{"android":"levelo://app?vid=d6d8329a-21fd-4c18-b504-c79946a12220","ios":"levelo://app?vid=d6d8329a-21fd-4c18-b504-c79946a12220"},"vehicle_type_id":"4","last_reported":1716570413,"current_range_meters":0,"station_id":"ce4bh2h2rcd13ifvqdh0","pricing_plan_id":"cebpf4jnsgd1na2vs0mg"},{"bike_id":"da600146-ae3b-42e0-ab5f-0d23ff30d2f1","system_id":"levelo_inurba_marseille","lat":43.289184,"lon":5.366408,"is_reserved":false,"is_disabled":false,"rental_uris":{"android":"levelo://app?vid=da600146-ae3b-42e0-ab5f-0d23ff30d2f1","ios":"levelo://app?vid=da600146-ae3b-42e0-ab5f-0d23ff30d2f1"},"vehicle_type_id":"4","last_reported":1716570413,"current_range_meters":0,"station_id":"ce4bhap2rcd13ifvqek0","pricing_plan_id":"cebpf4jnsgd1na2vs0mg"},{"bike_id":"a8007aef-8f33-4a16-97cd-293285ead09c","system_id":"levelo_inurba_marseille","lat":43.294162,"lon":5.386292,"is_reserved":false,"is_disabled":false,"rental_uris":{"android":"levelo://app?vid=a8007aef-8f33-4a16-97cd-293285ead09c","ios":"levelo://app?vid=a8007aef-8f33-4a16-97cd-293285ead09c"},"vehicle_type_id":"4","last_reported":1716570413,"current_range_meters":16400,"station_id":"ce4bh2h2rcd13ifvqdh0","pricing_plan_id":"cebpf4jnsgd1na2vs0mg"},{"bike_id":"4536ffd9-93d6-4b4e-a874-4f1ae873df67","system_id":"levelo_inurba_marseille","lat":43.289184,"lon":5.366408,"is_reserved":false,"is_disabled":false,"rental_uris":{"android":"levelo://app?vid=4536ffd9-93d6-4b4e-a874-4f1ae873df67","ios":"levelo://app?vid=4536ffd9-93d6-4b4e-a874-4f1ae873df67"},"vehicle_type_id":"4","last_reported":1716570413,"current_range_meters":28400,"station_id":"ce4bhap2rcd13ifvqek0","pricing_plan_id":"cebpf4jnsgd1na2vs0mg"},{"bike_id":"9837dbfc-186e-4fd2-9c40-01770e53a88e","system_id":"levelo_inurba_marseille","lat":43.294162,"lon":5.386292,"is_reserved":false,"is_disabled":false,"rental_uris":{"android":"levelo://app?vid=9837dbfc-186e-4fd2-9c40-01770e53a88e","ios":"levelo://app?vid=9837dbfc-186e-4fd2-9c40-01770e53a88e"},"vehicle_type_id":"4","last_reported":1716570413,"current_range_meters":7200,"station_id":"ce4bh2h2rcd13ifvqdh0","pricing_plan_id":"cebpf4jnsgd1na2vs0mg"},{"bike_id":"66b86ec1-fbff-4058-9ba2-b008596a6937","system_id":"levelo_inurba_marseille","lat":43.28939,"lon":5.36642,"is_reserved":false,"is_disabled":false,"rental_uris":{"android":"levelo://app?vid=66b86ec1-fbff-4058-9ba2-b008596a6937","ios":"levelo://app?vid=66b86ec1-fbff-4058-9ba2-b008596a6937"},"vehicle_type_id":"4","last_reported":1716570413,"current_range_meters":8400,"station_id":"","pricing_plan_id":"cebpf4jnsgd1na2vs0mg"},{"bike_id":"999aa422-513c-40fd-a2f0-df8fee01421e","system_id":"levelo_inurba_marseille","lat":43.289184,"lon":5.366408,"is_reserved":false,"is_disabled":false,"rental_uris":{"android":"levelo://app?vid=999aa422-513c-40fd-a2f0-df8fee01421e","ios":"levelo://app?vid=999aa422-513c-40fd-a2f0-df8fee01421e"},"vehicle_type_id":"4","last_reported":1716570413,"current_range_meters":10400,"station_id":"ce4bhap2rcd13ifvqek0","pricing_plan_id":"cebpf4jnsgd1na2vs0mg"},{"bike_id":"e2821550-868e-4fe0-9635-d661c32e04f2","system_id":"levelo_inurba_marseille","lat":43.289184,"lon":5.366408,"is_reserved":false,"is_disabled":false,"rental_uris":{"android":"levelo://app?vid=e2821550-868e-4fe0-9635-d661c32e04f2","ios":"levelo://app?vid=e2821550-868e-4fe0-9635-d661c32e04f2"},"vehicle_type_id":"4","last_reported":1716570413,"current_range_meters":2800,"station_id":"ce4bhap2rcd13ifvqek0","pricing_plan_id":"cebpf4jnsgd1na2vs0mg"},{"bike_id":"22e88c99-7223-41ff-9adb-61d7f4e80397","system_id":"levelo_inurba_marseille","lat":43.289184,"lon":5.366408,"is_reserved":false,"is_disabled":false,"rental_uris":{"android":"levelo://app?vid=22e88c99-7223-41ff-9adb-61d7f4e80397","ios":"levelo://app?vid=22e88c99-7223-41ff-9adb-61d7f4e80397"},"vehicle_type_id":"4","last_reported":1716570413,"current_range_meters":14400,"station_id":"ce4bhap2rcd13ifvqek0","pricing_plan_id":"cebpf4jnsgd1na2vs0mg"},{"bike_id":"62ec8ca6-4f5a-4c7f-b9b5-bfc25221d195","system_id":"levelo_inurba_marseille","lat":43.289468,"lon":5.363719,"is_reserved":false,"is_disabled":false,"rental_uris":{"android":"levelo://app?vid=62ec8ca6-4f5a-4c7f-b9b5-bfc25221d195","ios":"levelo://app?vid=62ec8ca6-4f5a-4c7f-b9b5-bfc25221d195"},"vehicle_type_id":"4","last_reported":1716570413,"current_range_meters":0,"station_id":"ce4bhc92rcd13ifvqetg","pricing_plan_id":"cebpf4jnsgd1na2vs0mg"},{"bike_id":"21a1f57b-63a3-4fb5-9111-e57ff7313711","system_id":"levelo_inurba_marseille","lat":43.294153,"lon":5.386305,"is_reserved":false,"is_disabled":false,"rental_uris":{"android":"levelo://app?vid=21a1f57b-63a3-4fb5-9111-e57ff7313711","ios":"levelo://app?vid=21a1f57b-63a3-4fb5-9111-e57ff7313711"},"vehicle_type_id":"4","last_reported":1716570413,"current_range_meters":0,"station_id":"ce4bh2h2rcd13ifvqdh0","pricing_plan_id":"cebpf4jnsgd1na2vs0mg"},{"bike_id":"4c1012dd-2729-42af-b6ca-6f05a1ccd680","system_id":"levelo_inurba_marseille","lat":43.289741,"lon":5.378306,"is_reserved":false,"is_disabled":false,"rental_uris":{"android":"levelo://app?vid=4c1012dd-2729-42af-b6ca-6f05a1ccd680","ios":"levelo://app?vid=4c1012dd-2729-42af-b6ca-6f05a1ccd680"},"vehicle_type_id":"4","last_reported":1716570413,"current_range_meters":26400,"station_id":"ce4bh9p2rcd13ifvqed0","pricing_plan_id":"cebpf4jnsgd1na2vs0mg"},{"bike_id":"9d78f6c2-392f-41aa-abd1-ae7b026b8a35","system_id":"levelo_inurba_marseille","lat":43.294162,"lon":5.386292,"is_reserved":false,"is_disabled":false,"rental_uris":{"android":"levelo://app?vid=9d78f6c2-392f-41aa-abd1-ae7b026b8a35","ios":"levelo://app?vid=9d78f6c2-392f-41aa-abd1-ae7b026b8a35"},"vehicle_type_id":"4","last_reported":1716570413,"current_range_meters":25600,"station_id":"ce4bh2h2rcd13ifvqdh0","pricing_plan_id":"cebpf4jnsgd1na2vs0mg"},{"bike_id":"c534bed9-aab7-4f54-9f23-c4983676c582","system_id":"levelo_inurba_marseille","lat":43.290424,"lon":5.377747,"is_reserved":false,"is_disabled":false,"rental_uris":{"android":"levelo://app?vid=c534bed9-aab7-4f54-9f23-c4983676c582","ios":"levelo://app?vid=c534bed9-aab7-4f54-9f23-c4983676c582"},"vehicle_type_id":"4","last_reported":1716570413,"current_range_meters":8400,"station_id":"","pricing_plan_id":"cebpf4jnsgd1na2vs0mg"},{"bike_id":"fb0411f6-d017-4c08-a4e8-070763e9441e","system_id":"levelo_inurba_marseille","lat":43.29271,"lon":5.38445,"is_reserved":false,"is_disabled":false,"rental_uris":{"android":"levelo://app?vid=fb0411f6-d017-4c08-a4e8-070763e9441e","ios":"levelo://app?vid=fb0411f6-d017-4c08-a4e8-070763e9441e"},"vehicle_type_id":"4","last_reported":1716570413,"current_range_meters":0,"station_id":"ce4bh692rcd13ifvqea0","pricing_plan_id":"cebpf4jnsgd1na2vs0mg"},{"bike_id":"26879562-a620-4492-9fea-8aefe63ff97d","system_id":"levelo_inurba_marseille","lat":43.304279,"lon":5.397492,"is_reserved":false,"is_disabled":false,"rental_uris":{"android":"levelo://app?vid=26879562-a620-4492-9fea-8aefe63ff97d","ios":"levelo://app?vid=26879562-a620-4492-9fea-8aefe63ff97d"},"vehicle_type_id":"4","last_reported":1716570413,"current_range_meters":31200,"station_id":"ce4bh092rcd13ifvqd20","pricing_plan_id":"cebpf4jnsgd1na2vs0mg"},{"bike_id":"549ef7c4-d211-4868-9c9d-88baed1b03c7","system_id":"levelo_inurba_marseille","lat":43.290104,"lon":5.356111,"is_reserved":false,"is_disabled":false,"rental_uris":{"android":"levelo://app?vid=549ef7c4-d211-4868-9c9d-88baed1b03c7","ios":"levelo://app?vid=549ef7c4-d211-4868-9c9d-88baed1b03c7"},"vehicle_type_id":"4","last_reported":1716570413,"current_range_meters":12800,"station_id":"ce4bhb92rcd13ifvqen0","pricing_plan_id":"cebpf4jnsgd1na2vs0mg"},{"bike_id":"0ae7cf8b-3f6c-4083-bb83-88e9057f12e2","system_id":"levelo_inurba_marseille","lat":43.290104,"lon":5.356111,"is_reserved":false,"is_disabled":false,"rental_uris":{"android":"levelo://app?vid=0ae7cf8b-3f6c-4083-bb83-88e9057f12e2","ios":"levelo://app?vid=0ae7cf8b-3f6c-4083-bb83-88e9057f12e2"},"vehicle_type_id":"4","last_reported":1716570413,"current_range_meters":8400,"station_id":"ce4bhb92rcd13ifvqen0","pricing_plan_id":"cebpf4jnsgd1na2vs0mg"},{"bike_id":"eefea682-4f0d-41c1-ad3c-f669e428afad","system_id":"levelo_inurba_marseille","lat":43.290103,"lon":5.356114,"is_reserved":false,"is_disabled":false,"rental_uris":{"android":"levelo://app?vid=eefea682-4f0d-41c1-ad3c-f669e428afad","ios":"levelo://app?vid=eefea682-4f0d-41c1-ad3c-f669e428afad"},"vehicle_type_id":"4","last_reported":1716570413,"current_range_meters":10800,"station_id":"ce4bhb92rcd13ifvqen0","pricing_plan_id":"cebpf4jnsgd1na2vs0mg"},{"bike_id":"8fae2673-cc2e-47de-8d47-7e0eca5589e2","system_id":"levelo_inurba_marseille","lat":43.290104,"lon":5.356111,"is_reserved":false,"is_disabled":false,"rental_uris":{"android":"levelo://app?vid=8fae2673-cc2e-47de-8d47-7e0eca5589e2","ios":"levelo://app?vid=8fae2673-cc2e-47de-8d47-7e0eca5589e2"},"vehicle_type_id":"4","last_reported":1716570413,"current_range_meters":13600,"station_id":"ce4bhb92rcd13ifvqen0","pricing_plan_id":"cebpf4jnsgd1na2vs0mg"},{"bike_id":"8b430e00-2d87-4633-b070-ea241569876f","system_id":"levelo_inurba_marseille","lat":43.290103,"lon":5.356114,"is_reserved":false,"is_disabled":false,"rental_uris":{"android":"levelo://app?vid=8b430e00-2d87-4633-b070-ea241569876f","ios":"levelo://app?vid=8b430e00-2d87-4633-b070-ea241569876f"},"vehicle_type_id":"4","last_reported":1716570413,"current_range_meters":13200,"station_id":"ce4bhb92rcd13ifvqen0","pricing_plan_id":"cebpf4jnsgd1na2vs0mg"},{"bike_id":"71a91556-5386-4fb8-90a3-de72c4419390","system_id":"levelo_inurba_marseille","lat":43.29009,"lon":5.35614,"is_reserved":false,"is_disabled":false,"rental_uris":{"android":"levelo://app?vid=71a91556-5386-4fb8-90a3-de72c4419390","ios":"levelo://app?vid=71a91556-5386-4fb8-90a3-de72c4419390"},"vehicle_type_id":"4","last_reported":1716570413,"current_range_meters":6400,"station_id":"ce4bhb92rcd13ifvqen0","pricing_plan_id":"cebpf4jnsgd1na2vs0mg"},{"bike_id":"2b4e3517-6740-4b83-9ea3-c02ab3d62a8d","system_id":"levelo_inurba_marseille","lat":43.29008,"lon":5.35616,"is_reserved":false,"is_disabled":false,"rental_uris":{"android":"levelo://app?vid=2b4e3517-6740-4b83-9ea3-c02ab3d62a8d","ios":"levelo://app?vid=2b4e3517-6740-4b83-9ea3-c02ab3d62a8d"},"vehicle_type_id":"4","last_reported":1716570413,"current_range_meters":17600,"station_id":"ce4bhb92rcd13ifvqen0","pricing_plan_id":"cebpf4jnsgd1na2vs0mg"},{"bike_id":"13421fbd-5ab3-4713-ae0f-8df548dd4166","system_id":"levelo_inurba_marseille","lat":43.290103,"lon":5.356114,"is_reserved":false,"is_disabled":false,"rental_uris":{"android":"levelo://app?vid=13421fbd-5ab3-4713-ae0f-8df548dd4166","ios":"levelo://app?vid=13421fbd-5ab3-4713-ae0f-8df548dd4166"},"vehicle_type_id":"4","last_reported":1716570413,"current_range_meters":6800,"station_id":"ce4bhb92rcd13ifvqen0","pricing_plan_id":"cebpf4jnsgd1na2vs0mg"},{"bike_id":"b6fc6562-2aad-4123-9ddc-7326be1af058","system_id":"levelo_inurba_marseille","lat":43.290104,"lon":5.356111,"is_reserved":false,"is_disabled":false,"rental_uris":{"android":"levelo://app?vid=b6fc6562-2aad-4123-9ddc-7326be1af058","ios":"levelo://app?vid=b6fc6562-2aad-4123-9ddc-7326be1af058"},"vehicle_type_id":"4","last_reported":1716570413,"current_range_meters":11600,"station_id":"ce4bhb92rcd13ifvqen0","pricing_plan_id":"cebpf4jnsgd1na2vs0mg"},{"bike_id":"3a9fdc8a-a51f-4203-b6c6-2ae04737ad4b","system_id":"levelo_inurba_marseille","lat":43.290104,"lon":5.356111,"is_reserved":false,"is_disabled":false,"rental_uris":{"android":"levelo://app?vid=3a9fdc8a-a51f-4203-b6c6-2ae04737ad4b","ios":"levelo://app?vid=3a9fdc8a-a51f-4203-b6c6-2ae04737ad4b"},"vehicle_type_id":"4","last_reported":1716570413,"current_range_meters":2000,"station_id":"ce4bhb92rcd13ifvqen0","pricing_plan_id":"cebpf4jnsgd1na2vs0mg"},{"bike_id":"ad211297-ac30-4c9a-9d97-3c0f79ea9d80","system_id":"levelo_inurba_marseille","lat":43.290104,"lon":5.356111,"is_reserved":false,"is_disabled":false,"rental_uris":{"android":"levelo://app?vid=ad211297-ac30-4c9a-9d97-3c0f79ea9d80","ios":"levelo://app?vid=ad211297-ac30-4c9a-9d97-3c0f79ea9d80"},"vehicle_type_id":"4","last_reported":1716570413,"current_range_meters":4800,"station_id":"ce4bhb92rcd13ifvqen0","pricing_plan_id":"cebpf4jnsgd1na2vs0mg"},{"bike_id":"286ca79d-d6c6-4e7f-8d7b-6217063b9bf2","system_id":"levelo_inurba_marseille","lat":43.290103,"lon":5.356114,"is_reserved":false,"is_disabled":false,"rental_uris":{"android":"levelo://app?vid=286ca79d-d6c6-4e7f-8d7b-6217063b9bf2","ios":"levelo://app?vid=286ca79d-d6c6-4e7f-8d7b-6217063b9bf2"},"vehicle_type_id":"4","last_reported":1716570413,"current_range_meters":11200,"station_id":"ce4bhb92rcd13ifvqen0","pricing_plan_id":"cebpf4jnsgd1na2vs0mg"},{"bike_id":"204d6723-540a-4425-974d-ec7c9531a139","system_id":"levelo_inurba_marseille","lat":43.290104,"lon":5.356111,"is_reserved":false,"is_disabled":false,"rental_uris":{"android":"levelo://app?vid=204d6723-540a-4425-974d-ec7c9531a139","ios":"levelo://app?vid=204d6723-540a-4425-974d-ec7c9531a139"},"vehicle_type_id":"4","last_reported":1716570413,"current_range_meters":5600,"station_id":"ce4bhb92rcd13ifvqen0","pricing_plan_id":"cebpf4jnsgd1na2vs0mg"},{"bike_id":"576feec9-6dc0-447a-a20c-7177f777cd9c","system_id":"levelo_inurba_marseille","lat":43.290104,"lon":5.356111,"is_reserved":false,"is_disabled":false,"rental_uris":{"android":"levelo://app?vid=576feec9-6dc0-447a-a20c-7177f777cd9c","ios":"levelo://app?vid=576feec9-6dc0-447a-a20c-7177f777cd9c"},"vehicle_type_id":"4","last_reported":1716570413,"current_range_meters":21600,"station_id":"ce4bhb92rcd13ifvqen0","pricing_plan_id":"cebpf4jnsgd1na2vs0mg"},{"bike_id":"b6cd0f8f-3e32-4df4-9c8f-7d3775eb5713","system_id":"levelo_inurba_marseille","lat":43.290995,"lon":5.381361,"is_reserved":false,"is_disabled":false,"rental_uris":{"android":"levelo://app?vid=b6cd0f8f-3e32-4df4-9c8f-7d3775eb5713","ios":"levelo://app?vid=b6cd0f8f-3e32-4df4-9c8f-7d3775eb5713"},"vehicle_type_id":"4","last_reported":1716570413,"current_range_meters":24800,"station_id":"ce4bh512rcd13ifvqe2g","pricing_plan_id":"cebpf4jnsgd1na2vs0mg"},{"bike_id":"890ac0d6-0a26-4495-8daf-d587eec0fea3","system_id":"levelo_inurba_marseille","lat":43.295169,"lon":5.390426,"is_reserved":false,"is_disabled":false,"rental_uris":{"android":"levelo://app?vid=890ac0d6-0a26-4495-8daf-d587eec0fea3","ios":"levelo://app?vid=890ac0d6-0a26-4495-8daf-d587eec0fea3"},"vehicle_type_id":"4","last_reported":1716570413,"current_range_meters":9200,"station_id":"ce4bh3p2rcd13ifvqdp0","pricing_plan_id":"cebpf4jnsgd1na2vs0mg"},{"bike_id":"4ea85edf-374e-4554-9a8c-9ee79b17685a","system_id":"levelo_inurba_marseille","lat":43.295169,"lon":5.390426,"is_reserved":false,"is_disabled":false,"rental_uris":{"android":"levelo://app?vid=4ea85edf-374e-4554-9a8c-9ee79b17685a","ios":"levelo://app?vid=4ea85edf-374e-4554-9a8c-9ee79b17685a"},"vehicle_type_id":"4","last_reported":1716570413,"current_range_meters":3200,"station_id":"ce4bh3p2rcd13ifvqdp0","pricing_plan_id":"cebpf4jnsgd1na2vs0mg"},{"bike_id":"9b319875-d0c3-43f7-a340-347c50d1a990","system_id":"levelo_inurba_marseille","lat":43.2979,"lon":5.39338,"is_reserved":false,"is_disabled":false,"rental_uris":{"android":"levelo://app?vid=9b319875-d0c3-43f7-a340-347c50d1a990","ios":"levelo://app?vid=9b319875-d0c3-43f7-a340-347c50d1a990"},"vehicle_type_id":"4","last_reported":1716570413,"current_range_meters":13200,"station_id":"chh1huq6cuj3fo74tm60","pricing_plan_id":"cebpf4jnsgd1na2vs0mg"},{"bike_id":"d6edaa43-0437-41a3-981f-a20f752f7d0f","system_id":"levelo_inurba_marseille","lat":43.330442,"lon":5.389148,"is_reserved":false,"is_disabled":false,"rental_uris":{"android":"levelo://app?vid=d6edaa43-0437-41a3-981f-a20f752f7d0f","ios":"levelo://app?vid=d6edaa43-0437-41a3-981f-a20f752f7d0f"},"vehicle_type_id":"4","last_reported":1716570413,"current_range_meters":23200,"station_id":"ce4bhr92rcd13ifvqhrg","pricing_plan_id":"cebpf4jnsgd1na2vs0mg"},{"bike_id":"e950b2a9-27ed-41d9-81cf-053ccf200e85","system_id":"levelo_inurba_marseille","lat":43.29785,"lon":5.39364,"is_reserved":false,"is_disabled":false,"rental_uris":{"android":"levelo://app?vid=e950b2a9-27ed-41d9-81cf-053ccf200e85","ios":"levelo://app?vid=e950b2a9-27ed-41d9-81cf-053ccf200e85"},"vehicle_type_id":"4","last_reported":1716570413,"current_range_meters":0,"station_id":"chh1huq6cuj3fo74tm60","pricing_plan_id":"cebpf4jnsgd1na2vs0mg"},{"bike_id":"6da30965-bb53-4147-a495-30691cb90e9b","system_id":"levelo_inurba_marseille","lat":43.29523,"lon":5.39048,"is_reserved":false,"is_disabled":false,"rental_uris":{"android":"levelo://app?vid=6da30965-bb53-4147-a495-30691cb90e9b","ios":"levelo://app?vid=6da30965-bb53-4147-a495-30691cb90e9b"},"vehicle_type_id":"4","last_reported":1716570413,"current_range_meters":2800,"station_id":"ce4bh3p2rcd13ifvqdp0","pricing_plan_id":"cebpf4jnsgd1na2vs0mg"},{"bike_id":"c8d4f43a-0bd1-46a9-8726-5b66464b5cbb","system_id":"levelo_inurba_marseille","lat":43.295169,"lon":5.390426,"is_reserved":false,"is_disabled":false,"rental_uris":{"android":"levelo://app?vid=c8d4f43a-0bd1-46a9-8726-5b66464b5cbb","ios":"levelo://app?vid=c8d4f43a-0bd1-46a9-8726-5b66464b5cbb"},"vehicle_type_id":"4","last_reported":1716570413,"current_range_meters":5600,"station_id":"ce4bh3p2rcd13ifvqdp0","pricing_plan_id":"cebpf4jnsgd1na2vs0mg"},{"bike_id":"fe484e3f-2221-4656-8870-fd916e9da731","system_id":"levelo_inurba_marseille","lat":43.295169,"lon":5.390426,"is_reserved":false,"is_disabled":false,"rental_uris":{"android":"levelo://app?vid=fe484e3f-2221-4656-8870-fd916e9da731","ios":"levelo://app?vid=fe484e3f-2221-4656-8870-fd916e9da731"},"vehicle_type_id":"4","last_reported":1716570413,"current_range_meters":23200,"station_id":"ce4bh3p2rcd13ifvqdp0","pricing_plan_id":"cebpf4jnsgd1na2vs0mg"},{"bike_id":"9cf3b249-d07c-4514-9112-c31d86ba4285","system_id":"levelo_inurba_marseille","lat":43.295169,"lon":5.390426,"is_reserved":false,"is_disabled":false,"rental_uris":{"android":"levelo://app?vid=9cf3b249-d07c-4514-9112-c31d86ba4285","ios":"levelo://app?vid=9cf3b249-d07c-4514-9112-c31d86ba4285"},"vehicle_type_id":"4","last_reported":1716570413,"current_range_meters":1600,"station_id":"ce4bh3p2rcd13ifvqdp0","pricing_plan_id":"cebpf4jnsgd1na2vs0mg"},{"bike_id":"ba7bba16-c57b-44f6-9f9c-c9839289854f","system_id":"levelo_inurba_marseille","lat":43.31065,"lon":5.40081,"is_reserved":false,"is_disabled":false,"rental_uris":{"android":"levelo://app?vid=ba7bba16-c57b-44f6-9f9c-c9839289854f","ios":"levelo://app?vid=ba7bba16-c57b-44f6-9f9c-c9839289854f"},"vehicle_type_id":"4","last_reported":1716570413,"current_range_meters":26000,"station_id":"","pricing_plan_id":"cebpf4jnsgd1na2vs0mg"},{"bike_id":"15135130-4ca0-4d7b-9a4c-ff4e8d461043","system_id":"levelo_inurba_marseille","lat":43.2901,"lon":5.381269,"is_reserved":false,"is_disabled":false,"rental_uris":{"android":"levelo://app?vid=15135130-4ca0-4d7b-9a4c-ff4e8d461043","ios":"levelo://app?vid=15135130-4ca0-4d7b-9a4c-ff4e8d461043"},"vehicle_type_id":"4","last_reported":1716570413,"current_range_meters":0,"station_id":"ce4bh4p2rcd13ifvqe1g","pricing_plan_id":"cebpf4jnsgd1na2vs0mg"},{"bike_id":"83fa6f7a-4d8a-4ab8-b12a-fbf69f416b0a","system_id":"levelo_inurba_marseille","lat":43.28856,"lon":5.358371,"is_reserved":false,"is_disabled":false,"rental_uris":{"android":"levelo://app?vid=83fa6f7a-4d8a-4ab8-b12a-fbf69f416b0a","ios":"levelo://app?vid=83fa6f7a-4d8a-4ab8-b12a-fbf69f416b0a"},"vehicle_type_id":"4","last_reported":1716570413,"current_range_meters":14800,"station_id":"ce4bhb12rcd13ifvqem0","pricing_plan_id":"cebpf4jnsgd1na2vs0mg"},{"bike_id":"1a1505af-a805-4e97-b6c5-ef86c8ad33ae","system_id":"levelo_inurba_marseille","lat":43.31069,"lon":5.40095,"is_reserved":false,"is_disabled":false,"rental_uris":{"android":"levelo://app?vid=1a1505af-a805-4e97-b6c5-ef86c8ad33ae","ios":"levelo://app?vid=1a1505af-a805-4e97-b6c5-ef86c8ad33ae"},"vehicle_type_id":"4","last_reported":1716570413,"current_range_meters":9200,"station_id":"","pricing_plan_id":"cebpf4jnsgd1na2vs0mg"},{"bike_id":"509d77a9-70a6-4dd8-a9c7-36915136993b","system_id":"levelo_inurba_marseille","lat":43.291546,"lon":5.384754,"is_reserved":false,"is_disabled":false,"rental_uris":{"android":"levelo://app?vid=509d77a9-70a6-4dd8-a9c7-36915136993b","ios":"levelo://app?vid=509d77a9-70a6-4dd8-a9c7-36915136993b"},"vehicle_type_id":"4","last_reported":1716570413,"current_range_meters":0,"station_id":"","pricing_plan_id":"cebpf4jnsgd1na2vs0mg"},{"bike_id":"03383166-1d08-4253-bf68-c5aabca9abad","system_id":"levelo_inurba_marseille","lat":43.290094,"lon":5.381264,"is_reserved":false,"is_disabled":false,"rental_uris":{"android":"levelo://app?vid=03383166-1d08-4253-bf68-c5aabca9abad","ios":"levelo://app?vid=03383166-1d08-4253-bf68-c5aabca9abad"},"vehicle_type_id":"4","last_reported":1716570413,"current_range_meters":29200,"station_id":"ce4bh4p2rcd13ifvqe1g","pricing_plan_id":"cebpf4jnsgd1na2vs0mg"},{"bike_id":"45b53406-ea47-4476-8772-5b1c676ddd8e","system_id":"levelo_inurba_marseille","lat":43.340804,"lon":5.410219,"is_reserved":false,"is_disabled":false,"rental_uris":{"android":"levelo://app?vid=45b53406-ea47-4476-8772-5b1c676ddd8e","ios":"levelo://app?vid=45b53406-ea47-4476-8772-5b1c676ddd8e"},"vehicle_type_id":"4","last_reported":1716570413,"current_range_meters":15200,"station_id":"ce4bhqh2rcd13ifvqhlg","pricing_plan_id":"cebpf4jnsgd1na2vs0mg"},{"bike_id":"ec3e03fc-6f10-4ca5-8c24-a3ce2406e069","system_id":"levelo_inurba_marseille","lat":43.312609,"lon":5.401662,"is_reserved":false,"is_disabled":false,"rental_uris":{"android":"levelo://app?vid=ec3e03fc-6f10-4ca5-8c24-a3ce2406e069","ios":"levelo://app?vid=ec3e03fc-6f10-4ca5-8c24-a3ce2406e069"},"vehicle_type_id":"4","last_reported":1716570413,"current_range_meters":10800,"station_id":"ce4bh092rcd13ifvqd30","pricing_plan_id":"cebpf4jnsgd1na2vs0mg"},{"bike_id":"d8abed2a-51aa-4578-853b-de357285abde","system_id":"levelo_inurba_marseille","lat":43.30926,"lon":5.40143,"is_reserved":false,"is_disabled":false,"rental_uris":{"android":"levelo://app?vid=d8abed2a-51aa-4578-853b-de357285abde","ios":"levelo://app?vid=d8abed2a-51aa-4578-853b-de357285abde"},"vehicle_type_id":"4","last_reported":1716570413,"current_range_meters":20400,"station_id":"ce4bgvp2rcd13ifvqct0","pricing_plan_id":"cebpf4jnsgd1na2vs0mg"},{"bike_id":"73ed19b5-6949-4b6a-9ee3-4e987781e314","system_id":"levelo_inurba_marseille","lat":43.309339,"lon":5.401453,"is_reserved":false,"is_disabled":false,"rental_uris":{"android":"levelo://app?vid=73ed19b5-6949-4b6a-9ee3-4e987781e314","ios":"levelo://app?vid=73ed19b5-6949-4b6a-9ee3-4e987781e314"},"vehicle_type_id":"4","last_reported":1716570413,"current_range_meters":0,"station_id":"ce4bgvp2rcd13ifvqct0","pricing_plan_id":"cebpf4jnsgd1na2vs0mg"},{"bike_id":"5e08015a-b315-49d5-b067-121fc243166b","system_id":"levelo_inurba_marseille","lat":43.33752,"lon":5.37436,"is_reserved":false,"is_disabled":false,"rental_uris":{"android":"levelo://app?vid=5e08015a-b315-49d5-b067-121fc243166b","ios":"levelo://app?vid=5e08015a-b315-49d5-b067-121fc243166b"},"vehicle_type_id":"4","last_reported":1716570413,"current_range_meters":22800,"station_id":"","pricing_plan_id":"cebpf4jnsgd1na2vs0mg"},{"bike_id":"4d476eee-4013-46a3-be70-3fc5198fa0f9","system_id":"levelo_inurba_marseille","lat":43.33763,"lon":5.374318,"is_reserved":false,"is_disabled":false,"rental_uris":{"android":"levelo://app?vid=4d476eee-4013-46a3-be70-3fc5198fa0f9","ios":"levelo://app?vid=4d476eee-4013-46a3-be70-3fc5198fa0f9"},"vehicle_type_id":"4","last_reported":1716570413,"current_range_meters":19200,"station_id":"","pricing_plan_id":"cebpf4jnsgd1na2vs0mg"},{"bike_id":"8b72a3a0-c7aa-4cc3-b46e-a04a3d9b8d4a","system_id":"levelo_inurba_marseille","lat":43.337625,"lon":5.374405,"is_reserved":false,"is_disabled":false,"rental_uris":{"android":"levelo://app?vid=8b72a3a0-c7aa-4cc3-b46e-a04a3d9b8d4a","ios":"levelo://app?vid=8b72a3a0-c7aa-4cc3-b46e-a04a3d9b8d4a"},"vehicle_type_id":"4","last_reported":1716570413,"current_range_meters":19600,"station_id":"","pricing_plan_id":"cebpf4jnsgd1na2vs0mg"},{"bike_id":"53c70ae3-8356-4615-a5ee-d27e4fbf5a2d","system_id":"levelo_inurba_marseille","lat":43.337642,"lon":5.374393,"is_reserved":false,"is_disabled":false,"rental_uris":{"android":"levelo://app?vid=53c70ae3-8356-4615-a5ee-d27e4fbf5a2d","ios":"levelo://app?vid=53c70ae3-8356-4615-a5ee-d27e4fbf5a2d"},"vehicle_type_id":"4","last_reported":1716570413,"current_range_meters":800,"station_id":"","pricing_plan_id":"cebpf4jnsgd1na2vs0mg"},{"bike_id":"601ec3d2-db21-4009-a4e8-50ad82c00ac4","system_id":"levelo_inurba_marseille","lat":43.289307,"lon":5.38406,"is_reserved":false,"is_disabled":false,"rental_uris":{"android":"levelo://app?vid=601ec3d2-db21-4009-a4e8-50ad82c00ac4","ios":"levelo://app?vid=601ec3d2-db21-4009-a4e8-50ad82c00ac4"},"vehicle_type_id":"4","last_reported":1716570413,"current_range_meters":6800,"station_id":"ce4bh612rcd13ifvqe6g","pricing_plan_id":"cebpf4jnsgd1na2vs0mg"},{"bike_id":"67501d10-6402-41d4-b1bf-c07354ebef89","system_id":"levelo_inurba_marseille","lat":43.28727,"lon":5.36078,"is_reserved":false,"is_disabled":false,"rental_uris":{"android":"levelo://app?vid=67501d10-6402-41d4-b1bf-c07354ebef89","ios":"levelo://app?vid=67501d10-6402-41d4-b1bf-c07354ebef89"},"vehicle_type_id":"4","last_reported":1716570413,"current_range_meters":16400,"station_id":"cki0cbj6b192h4jlfktg","pricing_plan_id":"cebpf4jnsgd1na2vs0mg"},{"bike_id":"b3f55e0f-9097-4fe1-a55c-2b8a18775fe9","system_id":"levelo_inurba_marseille","lat":43.28727,"lon":5.36078,"is_reserved":false,"is_disabled":false,"rental_uris":{"android":"levelo://app?vid=b3f55e0f-9097-4fe1-a55c-2b8a18775fe9","ios":"levelo://app?vid=b3f55e0f-9097-4fe1-a55c-2b8a18775fe9"},"vehicle_type_id":"4","last_reported":1716570413,"current_range_meters":4000,"station_id":"cki0cbj6b192h4jlfktg","pricing_plan_id":"cebpf4jnsgd1na2vs0mg"},{"bike_id":"5b1e493e-f9f3-430b-9450-6e87e9dce2c4","system_id":"levelo_inurba_marseille","lat":43.30107,"lon":5.399006,"is_reserved":false,"is_disabled":false,"rental_uris":{"android":"levelo://app?vid=5b1e493e-f9f3-430b-9450-6e87e9dce2c4","ios":"levelo://app?vid=5b1e493e-f9f3-430b-9450-6e87e9dce2c4"},"vehicle_type_id":"4","last_reported":1716570413,"current_range_meters":0,"station_id":"ce4bh0h2rcd13ifvqd40","pricing_plan_id":"cebpf4jnsgd1na2vs0mg"},{"bike_id":"467ee7e5-a97c-4621-92a5-6bf28a599739","system_id":"levelo_inurba_marseille","lat":43.287018,"lon":5.373856,"is_reserved":false,"is_disabled":false,"rental_uris":{"android":"levelo://app?vid=467ee7e5-a97c-4621-92a5-6bf28a599739","ios":"levelo://app?vid=467ee7e5-a97c-4621-92a5-6bf28a599739"},"vehicle_type_id":"4","last_reported":1716570413,"current_range_meters":0,"station_id":"ce4bh3p2rcd13ifvqdq0","pricing_plan_id":"cebpf4jnsgd1na2vs0mg"},{"bike_id":"21bfce6c-a12c-4a06-8d44-f8070ad865e1","system_id":"levelo_inurba_marseille","lat":43.295196,"lon":5.39397,"is_reserved":false,"is_disabled":false,"rental_uris":{"android":"levelo://app?vid=21bfce6c-a12c-4a06-8d44-f8070ad865e1","ios":"levelo://app?vid=21bfce6c-a12c-4a06-8d44-f8070ad865e1"},"vehicle_type_id":"4","last_reported":1716570413,"current_range_meters":11600,"station_id":"ce4bh292rcd13ifvqdf0","pricing_plan_id":"cebpf4jnsgd1na2vs0mg"},{"bike_id":"0af0ad9a-13c3-4653-831c-124af27f2de5","system_id":"levelo_inurba_marseille","lat":43.295194,"lon":5.39397,"is_reserved":false,"is_disabled":false,"rental_uris":{"android":"levelo://app?vid=0af0ad9a-13c3-4653-831c-124af27f2de5","ios":"levelo://app?vid=0af0ad9a-13c3-4653-831c-124af27f2de5"},"vehicle_type_id":"4","last_reported":1716570413,"current_range_meters":1200,"station_id":"ce4bh292rcd13ifvqdf0","pricing_plan_id":"cebpf4jnsgd1na2vs0mg"},{"bike_id":"87a438a1-8c18-4555-9177-d5a8930dad05","system_id":"levelo_inurba_marseille","lat":43.286961,"lon":5.373785,"is_reserved":false,"is_disabled":false,"rental_uris":{"android":"levelo://app?vid=87a438a1-8c18-4555-9177-d5a8930dad05","ios":"levelo://app?vid=87a438a1-8c18-4555-9177-d5a8930dad05"},"vehicle_type_id":"4","last_reported":1716570413,"current_range_meters":21200,"station_id":"ce4bh3p2rcd13ifvqdq0","pricing_plan_id":"cebpf4jnsgd1na2vs0mg"},{"bike_id":"e0a4f711-d040-42ba-8732-7c733c2ec2ea","system_id":"levelo_inurba_marseille","lat":43.286961,"lon":5.373785,"is_reserved":false,"is_disabled":false,"rental_uris":{"android":"levelo://app?vid=e0a4f711-d040-42ba-8732-7c733c2ec2ea","ios":"levelo://app?vid=e0a4f711-d040-42ba-8732-7c733c2ec2ea"},"vehicle_type_id":"4","last_reported":1716570413,"current_range_meters":12000,"station_id":"ce4bh3p2rcd13ifvqdq0","pricing_plan_id":"cebpf4jnsgd1na2vs0mg"},{"bike_id":"9a8b18b4-1e2f-42ac-8ed8-d5f08d5c85ee","system_id":"levelo_inurba_marseille","lat":43.295196,"lon":5.39397,"is_reserved":false,"is_disabled":false,"rental_uris":{"android":"levelo://app?vid=9a8b18b4-1e2f-42ac-8ed8-d5f08d5c85ee","ios":"levelo://app?vid=9a8b18b4-1e2f-42ac-8ed8-d5f08d5c85ee"},"vehicle_type_id":"4","last_reported":1716570413,"current_range_meters":0,"station_id":"ce4bh292rcd13ifvqdf0","pricing_plan_id":"cebpf4jnsgd1na2vs0mg"},{"bike_id":"25ccec71-499e-48b7-9edf-34010e26b75f","system_id":"levelo_inurba_marseille","lat":43.289307,"lon":5.38406,"is_reserved":false,"is_disabled":false,"rental_uris":{"android":"levelo://app?vid=25ccec71-499e-48b7-9edf-34010e26b75f","ios":"levelo://app?vid=25ccec71-499e-48b7-9edf-34010e26b75f"},"vehicle_type_id":"4","last_reported":1716570413,"current_range_meters":12000,"station_id":"ce4bh612rcd13ifvqe6g","pricing_plan_id":"cebpf4jnsgd1na2vs0mg"},{"bike_id":"d157291b-ba7f-42ee-a9df-eb77dab15b59","system_id":"levelo_inurba_marseille","lat":43.290336,"lon":5.386425,"is_reserved":false,"is_disabled":false,"rental_uris":{"android":"levelo://app?vid=d157291b-ba7f-42ee-a9df-eb77dab15b59","ios":"levelo://app?vid=d157291b-ba7f-42ee-a9df-eb77dab15b59"},"vehicle_type_id":"4","last_reported":1716570413,"current_range_meters":0,"station_id":"ce4bh4p2rcd13ifvqe0g","pricing_plan_id":"cebpf4jnsgd1na2vs0mg"},{"bike_id":"0a476c27-aa46-4859-9afd-00a85675aa7c","system_id":"levelo_inurba_marseille","lat":43.286039,"lon":5.370679,"is_reserved":false,"is_disabled":false,"rental_uris":{"android":"levelo://app?vid=0a476c27-aa46-4859-9afd-00a85675aa7c","ios":"levelo://app?vid=0a476c27-aa46-4859-9afd-00a85675aa7c"},"vehicle_type_id":"4","last_reported":1716570413,"current_range_meters":24800,"station_id":"ce4bht12rcd13ifvqi60","pricing_plan_id":"cebpf4jnsgd1na2vs0mg"},{"bike_id":"21cf2853-8c44-4d13-8039-eed2ea5d849c","system_id":"levelo_inurba_marseille","lat":43.286039,"lon":5.370681,"is_reserved":false,"is_disabled":false,"rental_uris":{"android":"levelo://app?vid=21cf2853-8c44-4d13-8039-eed2ea5d849c","ios":"levelo://app?vid=21cf2853-8c44-4d13-8039-eed2ea5d849c"},"vehicle_type_id":"4","last_reported":1716570413,"current_range_meters":16800,"station_id":"ce4bht12rcd13ifvqi60","pricing_plan_id":"cebpf4jnsgd1na2vs0mg"},{"bike_id":"ea7ec744-b8a8-4b99-879d-cd8f702a52aa","system_id":"levelo_inurba_marseille","lat":43.287184,"lon":5.37937,"is_reserved":false,"is_disabled":false,"rental_uris":{"android":"levelo://app?vid=ea7ec744-b8a8-4b99-879d-cd8f702a52aa","ios":"levelo://app?vid=ea7ec744-b8a8-4b99-879d-cd8f702a52aa"},"vehicle_type_id":"4","last_reported":1716570413,"current_range_meters":3200,"station_id":"ce4bh9p2rcd13ifvqec0","pricing_plan_id":"cebpf4jnsgd1na2vs0mg"},{"bike_id":"52030816-7b26-49fa-ad0a-88827d512c5d","system_id":"levelo_inurba_marseille","lat":43.316821,"lon":5.404737,"is_reserved":false,"is_disabled":false,"rental_uris":{"android":"levelo://app?vid=52030816-7b26-49fa-ad0a-88827d512c5d","ios":"levelo://app?vid=52030816-7b26-49fa-ad0a-88827d512c5d"},"vehicle_type_id":"4","last_reported":1716570413,"current_range_meters":12000,"station_id":"ce4bh012rcd13ifvqd00","pricing_plan_id":"cebpf4jnsgd1na2vs0mg"},{"bike_id":"da27a2eb-40f1-47d2-873a-772025959d7e","system_id":"levelo_inurba_marseille","lat":43.286927,"lon":5.380013,"is_reserved":false,"is_disabled":false,"rental_uris":{"android":"levelo://app?vid=da27a2eb-40f1-47d2-873a-772025959d7e","ios":"levelo://app?vid=da27a2eb-40f1-47d2-873a-772025959d7e"},"vehicle_type_id":"4","last_reported":1716570413,"current_range_meters":0,"station_id":"ce4bh9p2rcd13ifvqec0","pricing_plan_id":"cebpf4jnsgd1na2vs0mg"},