{"last_updated":1687612422,"ttl":30,"version":"2.2","data":{"bikes":[{"bike_id":"e0533316-dd1b-4187-944d-40456902eb3e","system_id":"levelo_inurba_marseille","lat":43.31341,"lon":5.367098,"is_reserved":false,"is_disabled":false,"rental_uris":{"android":"levelo://app?vid=e0533316-dd1b-4187-944d-40456902eb3e","ios":"levelo://app?vid=e0533316-dd1b-4187-944d-40456902eb3e"},"vehicle_type_id":"4","last_reported":1687612424,"current_range_meters":30400,"station_id":"ce4bgr92rcd13ifvqc6g","pricing_plan_id":"free"},{"bike_id":"789a5324-f028-46a3-8f18-3e8617fc08a3","system_id":"levelo_inurba_marseille","lat":43.31341,"lon":5.367098,"is_reserved":false,"is_disabled":false,"rental_uris":{"android":"levelo://app?vid=789a5324-f028-46a3-8f18-3e8617fc08a3","ios":"levelo://app?vid=789a5324-f028-46a3-8f18-3e8617fc08a3"},"vehicle_type_id":"4","last_reported":1687612424,"current_range_meters":20000,"station_id":"ce4bgr92rcd13ifvqc6g","pricing_plan_id":"free"},{"bike_id":"33f4bd82-e015-4c75-838b-b8ca97b28ad6","system_id":"levelo_inurba_marseille","lat":43.31341,"lon":5.367098,"is_reserved":false,"is_disabled":false,"rental_uris":{"android":"levelo://app?vid=33f4bd82-e015-4c75-838b-b8ca97b28ad6","ios":"levelo://app?vid=33f4bd82-e015-4c75-838b-b8ca97b28ad6"},"vehicle_type_id":"4","last_reported":1687612424,"current_range_meters":27600,"station_id":"ce4bgr92rcd13ifvqc6g","pricing_plan_id":"free"},{"bike_id":"aff9f736-1710-4bfe-aeb4-9dc0261f324d","system_id":"levelo_inurba_marseille","lat":43.313391,"lon":5.36706,"is_reserved":false,"is_disabled":false,"rental_uris":{"android":"levelo://app?vid=aff9f736-1710-4bfe-aeb4-9dc0261f324d","ios":"levelo://app?vid=aff9f736-1710-4bfe-aeb4-9dc0261f324d"},"vehicle_type_id":"4","last_reported":1687612424,"current_range_meters":30800,"station_id":"ce4bgr92rcd13ifvqc6g","pricing_plan_id":"free"},{"bike_id":"95cf182a-77aa-4148-a0fe-b7e2e9ea066a","system_id":"levelo_inurba_marseille","lat":43.312239,"lon":5.368562,"is_reserved":false,"is_disabled":false,"rental_uris":{"android":"levelo://app?vid=95cf182a-77aa-4148-a0fe-b7e2e9ea066a","ios":"levelo://app?vid=95cf182a-77aa-4148-a0fe-b7e2e9ea066a"},"vehicle_type_id":"4","last_reported":1687612424,"current_range_meters":30800,"station_id":"ce4bgl92rcd13ifvqbq0","pricing_plan_id":"free"},{"bike_id":"c8ef818c-a3f7-4f03-b7df-78b91524ca8e","system_id":"levelo_inurba_marseille","lat":43.31221,"lon":5.36851,"is_reserved":false,"is_disabled":false,"rental_uris":{"android":"levelo://app?vid=c8ef818c-a3f7-4f03-b7df-78b91524ca8e","ios":"levelo://app?vid=c8ef818c-a3f7-4f03-b7df-78b91524ca8e"},"vehicle_type_id":"4","last_reported":1687612424,"current_range_meters":31200,"station_id":"ce4bgl92rcd13ifvqbq0","pricing_plan_id":"free"},{"bike_id":"693691e2-5fd1-4244-9f0e-360fc9ed9a65","system_id":"levelo_inurba_marseille","lat":43.312215,"lon":5.368559,"is_reserved":false,"is_disabled":false,"rental_uris":{"android":"levelo://app?vid=693691e2-5fd1-4244-9f0e-360fc9ed9a65","ios":"levelo://app?vid=693691e2-5fd1-4244-9f0e-360fc9ed9a65"},"vehicle_type_id":"4","last_reported":1687612424,"current_range_meters":22800,"station_id":"","pricing_plan_id":"free"},{"bike_id":"5b002de5-5d9d-48af-8b73-3ebbbcfc1a48","system_id":"levelo_inurba_marseille","lat":43.312195,"lon":5.368575,"is_reserved":false,"is_disabled":false,"rental_uris":{"android":"levelo://app?vid=5b002de5-5d9d-48af-8b73-3ebbbcfc1a48","ios":"levelo://app?vid=5b002de5-5d9d-48af-8b73-3ebbbcfc1a48"},"vehicle_type_id":"4","last_reported":1687612424,"current_range_meters":31600,"station_id":"ce4bgl92rcd13ifvqbq0","pricing_plan_id":"free"},{"bike_id":"613b79af-2bf5-4727-98f7-6085624b44ee","system_id":"levelo_inurba_marseille","lat":43.312239,"lon":5.368562,"is_reserved":false,"is_disabled":false,"rental_uris":{"android":"levelo://app?vid=613b79af-2bf5-4727-98f7-6085624b44ee","ios":"levelo://app?vid=613b79af-2bf5-4727-98f7-6085624b44ee"},"vehicle_type_id":"4","last_reported":1687612424,"current_range_meters":28000,"station_id":"ce4bgl92rcd13ifvqbq0","pricing_plan_id":"free"},{"bike_id":"7efb8f60-b5c3-406b-bf4a-186cbe1d7cf0","system_id":"levelo_inurba_marseille","lat":43.309076,"lon":5.368465,"is_reserved":false,"is_disabled":false,"rental_uris":{"android":"levelo://app?vid=7efb8f60-b5c3-406b-bf4a-186cbe1d7cf0","ios":"levelo://app?vid=7efb8f60-b5c3-406b-bf4a-186cbe1d7cf0"},"vehicle_type_id":"4","last_reported":1687612424,"current_range_meters":8000,"station_id":"ce4bgn92rcd13ifvqbvg","pricing_plan_id":"free"},{"bike_id":"136decfa-37a4-48d0-a916-5092eb755171","system_id":"levelo_inurba_marseille","lat":43.309076,"lon":5.368465,"is_reserved":false,"is_disabled":false,"rental_uris":{"android":"levelo://app?vid=136decfa-37a4-48d0-a916-5092eb755171","ios":"levelo://app?vid=136decfa-37a4-48d0-a916-5092eb755171"},"vehicle_type_id":"4","last_reported":1687612424,"current_range_meters":1600,"station_id":"ce4bgn92rcd13ifvqbvg","pricing_plan_id":"free"},{"bike_id":"06310f1c-4cc8-49c6-a574-6b33fca387cc","system_id":"levelo_inurba_marseille","lat":43.31315,"lon":5.37256,"is_reserved":false,"is_disabled":false,"rental_uris":{"android":"levelo://app?vid=06310f1c-4cc8-49c6-a574-6b33fca387cc","ios":"levelo://app?vid=06310f1c-4cc8-49c6-a574-6b33fca387cc"},"vehicle_type_id":"4","last_reported":1687612424,"current_range_meters":6400,"station_id":"","pricing_plan_id":"free"},{"bike_id":"8e771a7c-b966-4c1e-ba20-6bd5e6cec7e3","system_id":"levelo_inurba_marseille","lat":43.308606,"lon":5.372099,"is_reserved":false,"is_disabled":false,"rental_uris":{"android":"levelo://app?vid=8e771a7c-b966-4c1e-ba20-6bd5e6cec7e3","ios":"levelo://app?vid=8e771a7c-b966-4c1e-ba20-6bd5e6cec7e3"},"vehicle_type_id":"4","last_reported":1687612424,"current_range_meters":31600,"station_id":"ce4bguh2rcd13ifvqckg","pricing_plan_id":"free"},{"bike_id":"d0e2512f-fd30-4dfa-8a0b-7a19775ef8d7","system_id":"levelo_inurba_marseille","lat":43.308606,"lon":5.372099,"is_reserved":false,"is_disabled":false,"rental_uris":{"android":"levelo://app?vid=d0e2512f-fd30-4dfa-8a0b-7a19775ef8d7","ios":"levelo://app?vid=d0e2512f-fd30-4dfa-8a0b-7a19775ef8d7"},"vehicle_type_id":"4","last_reported":1687612424,"current_range_meters":31600,"station_id":"ce4bguh2rcd13ifvqckg","pricing_plan_id":"free"},{"bike_id":"c5c0a745-c5b2-4730-80ab-d40fdb912616","system_id":"levelo_inurba_marseille","lat":43.308606,"lon":5.372099,"is_reserved":false,"is_disabled":false,"rental_uris":{"android":"levelo://app?vid=c5c0a745-c5b2-4730-80ab-d40fdb912616","ios":"levelo://app?vid=c5c0a745-c5b2-4730-80ab-d40fdb912616"},"vehicle_type_id":"4","last_reported":1687612424,"current_range_meters":29600,"station_id":"ce4bguh2rcd13ifvqckg","pricing_plan_id":"free"},{"bike_id":"fb95d872-15f2-4450-887b-285bb847d2ab","system_id":"levelo_inurba_marseille","lat":43.308606,"lon":5.372099,"is_reserved":false,"is_disabled":false,"rental_uris":{"android":"levelo://app?vid=fb95d872-15f2-4450-887b-285bb847d2ab","ios":"levelo://app?vid=fb95d872-15f2-4450-887b-285bb847d2ab"},"vehicle_type_id":"4","last_reported":1687612424,"current_range_meters":31600,"station_id":"ce4bguh2rcd13ifvqckg","pricing_plan_id":"free"},{"bike_id":"c9dd3c9a-bd6b-4d53-8369-8c5fdb338b1d","system_id":"levelo_inurba_marseille","lat":43.305989,"lon":5.37225,"is_reserved":false,"is_disabled":false,"rental_uris":{"android":"levelo://app?vid=c9dd3c9a-bd6b-4d53-8369-8c5fdb338b1d","ios":"levelo://app?vid=c9dd3c9a-bd6b-4d53-8369-8c5fdb338b1d"},"vehicle_type_id":"4","last_reported":1687612424,"current_range_meters":24800,"station_id":"ce4bgqh2rcd13ifvqc4g","pricing_plan_id":"free"},{"bike_id":"ca5d1e07-046c-4cb6-9657-a260797bc2da","system_id":"levelo_inurba_marseille","lat":43.311131,"lon":5.377651,"is_reserved":false,"is_disabled":false,"rental_uris":{"android":"levelo://app?vid=ca5d1e07-046c-4cb6-9657-a260797bc2da","ios":"levelo://app?vid=ca5d1e07-046c-4cb6-9657-a260797bc2da"},"vehicle_type_id":"4","last_reported":1687612424,"current_range_meters":7200,"station_id":"ce4bgt92rcd13ifvqcg0","pricing_plan_id":"free"},{"bike_id":"c2197d93-da44-443f-8890-247f5fbecf32","system_id":"levelo_inurba_marseille","lat":43.301939,"lon":5.366286,"is_reserved":false,"is_disabled":false,"rental_uris":{"android":"levelo://app?vid=c2197d93-da44-443f-8890-247f5fbecf32","ios":"levelo://app?vid=c2197d93-da44-443f-8890-247f5fbecf32"},"vehicle_type_id":"4","last_reported":1687612424,"current_range_meters":30400,"station_id":"ce4bgrh2rcd13ifvqc8g","pricing_plan_id":"free"},{"bike_id":"d7ac9f3b-2cb8-4b38-8d13-9d441b5149d9","system_id":"levelo_inurba_marseille","lat":43.308012,"lon":5.381511,"is_reserved":false,"is_disabled":false,"rental_uris":{"android":"levelo://app?vid=d7ac9f3b-2cb8-4b38-8d13-9d441b5149d9","ios":"levelo://app?vid=d7ac9f3b-2cb8-4b38-8d13-9d441b5149d9"},"vehicle_type_id":"4","last_reported":1687612424,"current_range_meters":12800,"station_id":"ce4bgt12rcd13ifvqce0","pricing_plan_id":"free"},{"bike_id":"072ed6d0-994e-4d45-8b4c-3a7b9a8a3db1","system_id":"levelo_inurba_marseille","lat":43.30803,"lon":5.38157,"is_reserved":false,"is_disabled":false,"rental_uris":{"android":"levelo://app?vid=072ed6d0-994e-4d45-8b4c-3a7b9a8a3db1","ios":"levelo://app?vid=072ed6d0-994e-4d45-8b4c-3a7b9a8a3db1"},"vehicle_type_id":"4","last_reported":1687612424,"current_range_meters":20800,"station_id":"ce4bgt12rcd13ifvqce0","pricing_plan_id":"free"},{"bike_id":"c86f741e-c8f8-4093-81ca-e5c8787a78ed","system_id":"levelo_inurba_marseille","lat":43.302784,"lon":5.377158,"is_reserved":false,"is_disabled":false,"rental_uris":{"android":"levelo://app?vid=c86f741e-c8f8-4093-81ca-e5c8787a78ed","ios":"levelo://app?vid=c86f741e-c8f8-4093-81ca-e5c8787a78ed"},"vehicle_type_id":"4","last_reported":1687612424,"current_range_meters":6800,"station_id":"ce4bguh2rcd13ifvqcj0","pricing_plan_id":"free"},{"bike_id":"388b99fc-8590-48a5-b5e8-4e62559f8827","system_id":"levelo_inurba_marseille","lat":43.3148,"lon":5.38391,"is_reserved":false,"is_disabled":false,"rental_uris":{"android":"levelo://app?vid=388b99fc-8590-48a5-b5e8-4e62559f8827","ios":"levelo://app?vid=388b99fc-8590-48a5-b5e8-4e62559f8827"},"vehicle_type_id":"4","last_reported":1687612424,"current_range_meters":19200,"station_id":"","pricing_plan_id":"free"},{"bike_id":"f024ea82-3354-43d3-be2c-9286bbb1369b","system_id":"levelo_inurba_marseille","lat":43.32,"lon":5.38152,"is_reserved":false,"is_disabled":false,"rental_uris":{"android":"levelo://app?vid=f024ea82-3354-43d3-be2c-9286bbb1369b","ios":"levelo://app?vid=f024ea82-3354-43d3-be2c-9286bbb1369b"},"vehicle_type_id":"4","last_reported":1687612424,"current_range_meters":20800,"station_id":"ce4bhr12rcd13ifvqhpg","pricing_plan_id":"free"},{"bike_id":"64ca4307-191e-457a-8136-e78a8e1cd430","system_id":"levelo_inurba_marseille","lat":43.299222,"lon":5.365554,"is_reserved":false,"is_disabled":false,"rental_uris":{"android":"levelo://app?vid=64ca4307-191e-457a-8136-e78a8e1cd430","ios":"levelo://app?vid=64ca4307-191e-457a-8136-e78a8e1cd430"},"vehicle_type_id":"4","last_reported":1687612424,"current_range_meters":15200,"station_id":"ce4bgm92rcd13ifvqbr0","pricing_plan_id":"free"},{"bike_id":"ce918bb8-761f-45c8-a4a1-cd6b6fcdf61e","system_id":"levelo_inurba_marseille","lat":43.299222,"lon":5.365554,"is_reserved":false,"is_disabled":false,"rental_uris":{"android":"levelo://app?vid=ce918bb8-761f-45c8-a4a1-cd6b6fcdf61e","ios":"levelo://app?vid=ce918bb8-761f-45c8-a4a1-cd6b6fcdf61e"},"vehicle_type_id":"4","last_reported":1687612424,"current_range_meters":21600,"station_id":"ce4bgm92rcd13ifvqbr0","pricing_plan_id":"free"},{"bike_id":"a53c4653-da84-44cd-8276-1be89ef504a0","system_id":"levelo_inurba_marseille","lat":43.299222,"lon":5.365554,"is_reserved":false,"is_disabled":false,"rental_uris":{"android":"levelo://app?vid=a53c4653-da84-44cd-8276-1be89ef504a0","ios":"levelo://app?vid=a53c4653-da84-44cd-8276-1be89ef504a0"},"vehicle_type_id":"4","last_reported":1687612424,"current_range_meters":12400,"station_id":"ce4bgm92rcd13ifvqbr0","pricing_plan_id":"free"},{"bike_id":"5f86f29a-b7f5-4b6a-9040-dba6e18171c7","system_id":"levelo_inurba_marseille","lat":43.298433,"lon":5.362774,"is_reserved":false,"is_disabled":false,"rental_uris":{"android":"levelo://app?vid=5f86f29a-b7f5-4b6a-9040-dba6e18171c7","ios":"levelo://app?vid=5f86f29a-b7f5-4b6a-9040-dba6e18171c7"},"vehicle_type_id":"4","last_reported":1687612424,"current_range_meters":22400,"station_id":"ce4bgpp2rcd13ifvqc3g","pricing_plan_id":"free"},{"bike_id":"0fef7749-b436-49aa-a060-be7d1e33884f","system_id":"levelo_inurba_marseille","lat":43.311722,"lon":5.387247,"is_reserved":false,"is_disabled":false,"rental_uris":{"android":"levelo://app?vid=0fef7749-b436-49aa-a060-be7d1e33884f","ios":"levelo://app?vid=0fef7749-b436-49aa-a060-be7d1e33884f"},"vehicle_type_id":"4","last_reported":1687612424,"current_range_meters":0,"station_id":"ce4bgv12rcd13ifvqcp0","pricing_plan_id":"free"},{"bike_id":"e1ab28f9-a68b-4ce3-aa5d-08d51b4c03f2","system_id":"levelo_inurba_marseille","lat":43.311722,"lon":5.387247,"is_reserved":false,"is_disabled":false,"rental_uris":{"android":"levelo://app?vid=e1ab28f9-a68b-4ce3-aa5d-08d51b4c03f2","ios":"levelo://app?vid=e1ab28f9-a68b-4ce3-aa5d-08d51b4c03f2"},"vehicle_type_id":"4","last_reported":1687612424,"current_range_meters":15600,"station_id":"ce4bgv12rcd13ifvqcp0","pricing_plan_id":"free"},{"bike_id":"1580a472-182f-4d91-8a6c-4c3a23a9c034","system_id":"levelo_inurba_marseille","lat":43.302,"lon":5.3821,"is_reserved":false,"is_disabled":false,"rental_uris":{"android":"levelo://app?vid=1580a472-182f-4d91-8a6c-4c3a23a9c034","ios":"levelo://app?vid=1580a472-182f-4d91-8a6c-4c3a23a9c034"},"vehicle_type_id":"4","last_reported":1687612424,"current_range_meters":17200,"station_id":"","pricing_plan_id":"free"},{"bike_id":"fa80e9cd-f31a-45d0-9ce7-3d96d492f473","system_id":"levelo_inurba_marseille","lat":43.328371,"lon":5.366909,"is_reserved":false,"is_disabled":false,"rental_uris":{"android":"levelo://app?vid=fa80e9cd-f31a-45d0-9ce7-3d96d492f473","ios":"levelo://app?vid=fa80e9cd-f31a-45d0-9ce7-3d96d492f473"},"vehicle_type_id":"4","last_reported":1687612424,"current_range_meters":17200,"station_id":"ce4bhs92rcd13ifvqi0g","pricing_plan_id":"free"},{"bike_id":"95a91c18-4e58-4f07-b039-80067af6d5c7","system_id":"levelo_inurba_marseille","lat":43.32826,"lon":5.36691,"is_reserved":false,"is_disabled":false,"rental_uris":{"android":"levelo://app?vid=95a91c18-4e58-4f07-b039-80067af6d5c7","ios":"levelo://app?vid=95a91c18-4e58-4f07-b039-80067af6d5c7"},"vehicle_type_id":"4","last_reported":1687612424,"current_range_meters":29600,"station_id":"ce4bhs92rcd13ifvqi0g","pricing_plan_id":"free"},{"bike_id":"f968b818-c67a-4852-a038-f1f0176621c2","system_id":"levelo_inurba_marseille","lat":43.32826,"lon":5.36689,"is_reserved":false,"is_disabled":false,"rental_uris":{"android":"levelo://app?vid=f968b818-c67a-4852-a038-f1f0176621c2","ios":"levelo://app?vid=f968b818-c67a-4852-a038-f1f0176621c2"},"vehicle_type_id":"4","last_reported":1687612424,"current_range_meters":18800,"station_id":"ce4bhs92rcd13ifvqi0g","pricing_plan_id":"free"},{"bike_id":"f0c49d04-749f-4a18-8823-5f643fcb68d5","system_id":"levelo_inurba_marseille","lat":43.328371,"lon":5.366909,"is_reserved":false,"is_disabled":false,"rental_uris":{"android":"levelo://app?vid=f0c49d04-749f-4a18-8823-5f643fcb68d5","ios":"levelo://app?vid=f0c49d04-749f-4a18-8823-5f643fcb68d5"},"vehicle_type_id":"4","last_reported":1687612424,"current_range_meters":30000,"station_id":"ce4bhs92rcd13ifvqi0g","pricing_plan_id":"free"},{"bike_id":"ce9487af-76bc-41bd-a9cf-1f83771f0d31","system_id":"levelo_inurba_marseille","lat":43.328371,"lon":5.366909,"is_reserved":false,"is_disabled":false,"rental_uris":{"android":"levelo://app?vid=ce9487af-76bc-41bd-a9cf-1f83771f0d31","ios":"levelo://app?vid=ce9487af-76bc-41bd-a9cf-1f83771f0d31"},"vehicle_type_id":"4","last_reported":1687612424,"current_range_meters":0,"station_id":"ce4bhs92rcd13ifvqi0g","pricing_plan_id":"free"},{"bike_id":"cbdd73a9-8831-4dab-9e8d-2ce4e630f6d2","system_id":"levelo_inurba_marseille","lat":43.328371,"lon":5.366909,"is_reserved":false,"is_disabled":false,"rental_uris":{"android":"levelo://app?vid=cbdd73a9-8831-4dab-9e8d-2ce4e630f6d2","ios":"levelo://app?vid=cbdd73a9-8831-4dab-9e8d-2ce4e630f6d2"},"vehicle_type_id":"4","last_reported":1687612424,"current_range_meters":30400,"station_id":"ce4bhs92rcd13ifvqi0g","pricing_plan_id":"free"},{"bike_id":"dd41ba81-9716-41ad-bf2f-fd5f1f31dcaa","system_id":"levelo_inurba_marseille","lat":43.328371,"lon":5.366909,"is_reserved":false,"is_disabled":false,"rental_uris":{"android":"levelo://app?vid=dd41ba81-9716-41ad-bf2f-fd5f1f31dcaa","ios":"levelo://app?vid=dd41ba81-9716-41ad-bf2f-fd5f1f31dcaa"},"vehicle_type_id":"4","last_reported":1687612424,"current_range_meters":27200,"station_id":"ce4bhs92rcd13ifvqi0g","pricing_plan_id":"free"},{"bike_id":"4030e3d9-1bf9-4d4c-8d02-edef99b24753","system_id":"levelo_inurba_marseille","lat":43.3283,"lon":5.3669,"is_reserved":false,"is_disabled":false,"rental_uris":{"android":"levelo://app?vid=4030e3d9-1bf9-4d4c-8d02-edef99b24753","ios":"levelo://app?vid=4030e3d9-1bf9-4d4c-8d02-edef99b24753"},"vehicle_type_id":"4","last_reported":1687612424,"current_range_meters":23600,"station_id":"ce4bhs92rcd13ifvqi0g","pricing_plan_id":"free"},{"bike_id":"d6aa4b8f-0fbd-492f-a726-f1b64033634e","system_id":"levelo_inurba_marseille","lat":43.29705,"lon":5.36427,"is_reserved":false,"is_disabled":false,"rental_uris":{"android":"levelo://app?vid=d6aa4b8f-0fbd-492f-a726-f1b64033634e","ios":"levelo://app?vid=d6aa4b8f-0fbd-492f-a726-f1b64033634e"},"vehicle_type_id":"4","last_reported":1687612424,"current_range_meters":6000,"station_id":"","pricing_plan_id":"free"},{"bike_id":"6f439543-ce0c-4001-956c-65f95bd33166","system_id":"levelo_inurba_marseille","lat":43.296131,"lon":5.370791,"is_reserved":false,"is_disabled":false,"rental_uris":{"android":"levelo://app?vid=6f439543-ce0c-4001-956c-65f95bd33166","ios":"levelo://app?vid=6f439543-ce0c-4001-956c-65f95bd33166"},"vehicle_type_id":"4","last_reported":1687612424,"current_range_meters":2400,"station_id":"ce4bgnh2rcd13ifvqc0g","pricing_plan_id":"free"},{"bike_id":"4468b067-ba2e-4d89-a77e-ca7c2efcdcbf","system_id":"levelo_inurba_marseille","lat":43.29573,"lon":5.367355,"is_reserved":false,"is_disabled":false,"rental_uris":{"android":"levelo://app?vid=4468b067-ba2e-4d89-a77e-ca7c2efcdcbf","ios":"levelo://app?vid=4468b067-ba2e-4d89-a77e-ca7c2efcdcbf"},"vehicle_type_id":"4","last_reported":1687612424,"current_range_meters":20400,"station_id":"ce4bgph2rcd13ifvqc2g","pricing_plan_id":"free"},{"bike_id":"09a975cf-2923-4694-a406-88966c891f00","system_id":"levelo_inurba_marseille","lat":43.299028,"lon":5.381509,"is_reserved":false,"is_disabled":false,"rental_uris":{"android":"levelo://app?vid=09a975cf-2923-4694-a406-88966c891f00","ios":"levelo://app?vid=09a975cf-2923-4694-a406-88966c891f00"},"vehicle_type_id":"4","last_reported":1687612424,"current_range_meters":14400,"station_id":"ce4bgj12rcd13ifvqbc0","pricing_plan_id":"free"},{"bike_id":"041bc147-ef2f-419b-bb81-deca3bdf89e2","system_id":"levelo_inurba_marseille","lat":43.29611,"lon":5.36046,"is_reserved":false,"is_disabled":false,"rental_uris":{"android":"levelo://app?vid=041bc147-ef2f-419b-bb81-deca3bdf89e2","ios":"levelo://app?vid=041bc147-ef2f-419b-bb81-deca3bdf89e2"},"vehicle_type_id":"4","last_reported":1687612424,"current_range_meters":6800,"station_id":"","pricing_plan_id":"free"},{"bike_id":"5af85b02-b450-4d91-81c7-b1ca1d0e1190","system_id":"levelo_inurba_marseille","lat":43.309589,"lon":5.390258,"is_reserved":false,"is_disabled":false,"rental_uris":{"android":"levelo://app?vid=5af85b02-b450-4d91-81c7-b1ca1d0e1190","ios":"levelo://app?vid=5af85b02-b450-4d91-81c7-b1ca1d0e1190"},"vehicle_type_id":"4","last_reported":1687612424,"current_range_meters":29200,"station_id":"ce4bgup2rcd13ifvqco0","pricing_plan_id":"free"},{"bike_id":"e832706a-f014-4cc9-8946-b5632920fa35","system_id":"levelo_inurba_marseille","lat":43.295748,"lon":5.37522,"is_reserved":false,"is_disabled":false,"rental_uris":{"android":"levelo://app?vid=e832706a-f014-4cc9-8946-b5632920fa35","ios":"levelo://app?vid=e832706a-f014-4cc9-8946-b5632920fa35"},"vehicle_type_id":"4","last_reported":1687612424,"current_range_meters":25600,"station_id":"ce4bgh92rcd13ifvqb50","pricing_plan_id":"free"},{"bike_id":"841fcfaa-770f-462a-a0fc-5164a9147d26","system_id":"levelo_inurba_marseille","lat":43.304274,"lon":5.388873,"is_reserved":false,"is_disabled":false,"rental_uris":{"android":"levelo://app?vid=841fcfaa-770f-462a-a0fc-5164a9147d26","ios":"levelo://app?vid=841fcfaa-770f-462a-a0fc-5164a9147d26"},"vehicle_type_id":"4","last_reported":1687612424,"current_range_meters":25600,"station_id":"ce4bgk12rcd13ifvqbi0","pricing_plan_id":"free"},{"bike_id":"a4457bf7-90af-458e-a92b-f79337fbee76","system_id":"levelo_inurba_marseille","lat":43.299707,"lon":5.384859,"is_reserved":false,"is_disabled":false,"rental_uris":{"android":"levelo://app?vid=a4457bf7-90af-458e-a92b-f79337fbee76","ios":"levelo://app?vid=a4457bf7-90af-458e-a92b-f79337fbee76"},"vehicle_type_id":"4","last_reported":1687612424,"current_range_meters":16400,"station_id":"ce4bgj92rcd13ifvqbd0","pricing_plan_id":"free"},{"bike_id":"b5215c82-ad84-431a-9f9a-f531bc467bb1","system_id":"levelo_inurba_marseille","lat":43.299707,"lon":5.384859,"is_reserved":false,"is_disabled":false,"rental_uris":{"android":"levelo://app?vid=b5215c82-ad84-431a-9f9a-f531bc467bb1","ios":"levelo://app?vid=b5215c82-ad84-431a-9f9a-f531bc467bb1"},"vehicle_type_id":"4","last_reported":1687612424,"current_range_meters":16400,"station_id":"ce4bgj92rcd13ifvqbd0","pricing_plan_id":"free"},{"bike_id":"6b05f8f0-f4fb-40e7-82c0-a54912f6c06c","system_id":"levelo_inurba_marseille","lat":43.32359,"lon":5.38879,"is_reserved":false,"is_disabled":false,"rental_uris":{"android":"levelo://app?vid=6b05f8f0-f4fb-40e7-82c0-a54912f6c06c","ios":"levelo://app?vid=6b05f8f0-f4fb-40e7-82c0-a54912f6c06c"},"vehicle_type_id":"4","last_reported":1687612424,"current_range_meters":28000,"station_id":"ce4bhqp2rcd13ifvqhog","pricing_plan_id":"free"},{"bike_id":"2e0fa622-dc89-44fe-984b-a2bb7220f9be","system_id":"levelo_inurba_marseille","lat":43.32364,"lon":5.38881,"is_reserved":false,"is_disabled":false,"rental_uris":{"android":"levelo://app?vid=2e0fa622-dc89-44fe-984b-a2bb7220f9be","ios":"levelo://app?vid=2e0fa622-dc89-44fe-984b-a2bb7220f9be"},"vehicle_type_id":"4","last_reported":1687612424,"current_range_meters":31200,"station_id":"ce4bhqp2rcd13ifvqhog","pricing_plan_id":"free"},{"bike_id":"beb825d8-da6f-4d0f-a4f9-15b4d0872995","system_id":"levelo_inurba_marseille","lat":43.32367,"lon":5.388836,"is_reserved":false,"is_disabled":false,"rental_uris":{"android":"levelo://app?vid=beb825d8-da6f-4d0f-a4f9-15b4d0872995","ios":"levelo://app?vid=beb825d8-da6f-4d0f-a4f9-15b4d0872995"},"vehicle_type_id":"4","last_reported":1687612424,"current_range_meters":23200,"station_id":"ce4bhqp2rcd13ifvqhog","pricing_plan_id":"free"},{"bike_id":"47fc5bea-6c10-4f83-992b-5650d209fa6f","system_id":"levelo_inurba_marseille","lat":43.29246,"lon":5.36582,"is_reserved":false,"is_disabled":false,"rental_uris":{"android":"levelo://app?vid=47fc5bea-6c10-4f83-992b-5650d209fa6f","ios":"levelo://app?vid=47fc5bea-6c10-4f83-992b-5650d209fa6f"},"vehicle_type_id":"4","last_reported":1687612424,"current_range_meters":400,"station_id":"","pricing_plan_id":"free"},{"bike_id":"ffe166a3-2983-451f-8740-e391bc74c971","system_id":"levelo_inurba_marseille","lat":43.305994,"lon":5.393687,"is_reserved":false,"is_disabled":false,"rental_uris":{"android":"levelo://app?vid=ffe166a3-2983-451f-8740-e391bc74c971","ios":"levelo://app?vid=ffe166a3-2983-451f-8740-e391bc74c971"},"vehicle_type_id":"4","last_reported":1687612424,"current_range_meters":4800,"station_id":"ce4bh0p2rcd13ifvqd80","pricing_plan_id":"free"},{"bike_id":"14833c60-4f14-4c21-9e5f-d636063c4edd","system_id":"levelo_inurba_marseille","lat":43.290779,"lon":5.371482,"is_reserved":false,"is_disabled":false,"rental_uris":{"android":"levelo://app?vid=14833c60-4f14-4c21-9e5f-d636063c4edd","ios":"levelo://app?vid=14833c60-4f14-4c21-9e5f-d636063c4edd"},"vehicle_type_id":"4","last_reported":1687612424,"current_range_meters":4400,"station_id":"ce4bh5p2rcd13ifvqe4g","pricing_plan_id":"free"},{"bike_id":"f679254c-9d1f-40b9-8a1a-cd3d0b316f94","system_id":"levelo_inurba_marseille","lat":43.313291,"lon":5.396838,"is_reserved":false,"is_disabled":false,"rental_uris":{"android":"levelo://app?vid=f679254c-9d1f-40b9-8a1a-cd3d0b316f94","ios":"levelo://app?vid=f679254c-9d1f-40b9-8a1a-cd3d0b316f94"},"vehicle_type_id":"4","last_reported":1687612424,"current_range_meters":14000,"station_id":"ce4bgvp2rcd13ifvqcu0","pricing_plan_id":"free"},{"bike_id":"7649e0fb-be4c-42a8-90fd-ea0fae4c8d4e","system_id":"levelo_inurba_marseille","lat":43.309038,"lon":5.396546,"is_reserved":false,"is_disabled":false,"rental_uris":{"android":"levelo://app?vid=7649e0fb-be4c-42a8-90fd-ea0fae4c8d4e","ios":"levelo://app?vid=7649e0fb-be4c-42a8-90fd-ea0fae4c8d4e"},"vehicle_type_id":"4","last_reported":1687612424,"current_range_meters":22800,"station_id":"ce4bh012rcd13ifvqcv0","pricing_plan_id":"free"},{"bike_id":"1f76a9b4-6625-4179-bb09-1c72fd71c17d","system_id":"levelo_inurba_marseille","lat":43.309038,"lon":5.396546,"is_reserved":false,"is_disabled":false,"rental_uris":{"android":"levelo://app?vid=1f76a9b4-6625-4179-bb09-1c72fd71c17d","ios":"levelo://app?vid=1f76a9b4-6625-4179-bb09-1c72fd71c17d"},"vehicle_type_id":"4","last_reported":1687612424,"current_range_meters":14400,"station_id":"ce4bh012rcd13ifvqcv0","pricing_plan_id":"free"},{"bike_id":"43dd4f0e-391c-4a4a-8a3a-ef854194120d","system_id":"levelo_inurba_marseille","lat":43.29291,"lon":5.38282,"is_reserved":false,"is_disabled":false,"rental_uris":{"android":"levelo://app?vid=43dd4f0e-391c-4a4a-8a3a-ef854194120d","ios":"levelo://app?vid=43dd4f0e-391c-4a4a-8a3a-ef854194120d"},"vehicle_type_id":"4","last_reported":1687612424,"current_range_meters":2000,"station_id":"","pricing_plan_id":"free"},{"bike_id":"20b2702a-2cf1-439f-b7da-41f192fa1a0a","system_id":"levelo_inurba_marseille","lat":43.29411,"lon":5.38614,"is_reserved":false,"is_disabled":false,"rental_uris":{"android":"levelo://app?vid=20b2702a-2cf1-439f-b7da-41f192fa1a0a","ios":"levelo://app?vid=20b2702a-2cf1-439f-b7da-41f192fa1a0a"},"vehicle_type_id":"4","last_reported":1687612424,"current_range_meters":19200,"station_id":"","pricing_plan_id":"free"},{"bike_id":"e36874dc-7135-4ebc-b4cd-8f7cd3793fb7","system_id":"levelo_inurba_marseille","lat":43.3033,"lon":5.39701,"is_reserved":false,"is_disabled":false,"rental_uris":{"android":"levelo://app?vid=e36874dc-7135-4ebc-b4cd-8f7cd3793fb7","ios":"levelo://app?vid=e36874dc-7135-4ebc-b4cd-8f7cd3793fb7"},"vehicle_type_id":"4","last_reported":1687612424,"current_range_meters":22000,"station_id":"","pricing_plan_id":"free"},{"bike_id":"7c811762-c0ee-4656-87ba-109acbb8edd1","system_id":"levelo_inurba_marseille","lat":43.33039,"lon":5.38918,"is_reserved":false,"is_disabled":false,"rental_uris":{"android":"levelo://app?vid=7c811762-c0ee-4656-87ba-109acbb8edd1","ios":"levelo://app?vid=7c811762-c0ee-4656-87ba-109acbb8edd1"},"vehicle_type_id":"4","last_reported":1687612424,"current_range_meters":7600,"station_id":"ce4bhr92rcd13ifvqhrg","pricing_plan_id":"free"},{"bike_id":"2ed8539d-fa7b-489c-b466-c2748c9b76c5","system_id":"levelo_inurba_marseille","lat":43.33042,"lon":5.38914,"is_reserved":false,"is_disabled":false,"rental_uris":{"android":"levelo://app?vid=2ed8539d-fa7b-489c-b466-c2748c9b76c5","ios":"levelo://app?vid=2ed8539d-fa7b-489c-b466-c2748c9b76c5"},"vehicle_type_id":"4","last_reported":1687612424,"current_range_meters":23600,"station_id":"ce4bhr92rcd13ifvqhrg","pricing_plan_id":"free"},{"bike_id":"383564b9-2cae-4808-aee8-d3aefd710421","system_id":"levelo_inurba_marseille","lat":43.33043,"lon":5.38916,"is_reserved":false,"is_disabled":false,"rental_uris":{"android":"levelo://app?vid=383564b9-2cae-4808-aee8-d3aefd710421","ios":"levelo://app?vid=383564b9-2cae-4808-aee8-d3aefd710421"},"vehicle_type_id":"4","last_reported":1687612424,"current_range_meters":31600,"station_id":"ce4bhr92rcd13ifvqhrg","pricing_plan_id":"free"},{"bike_id":"dbf71a06-02c9-4cfe-a9d6-5738d4d32aad","system_id":"levelo_inurba_marseille","lat":43.33045,"lon":5.38913,"is_reserved":false,"is_disabled":false,"rental_uris":{"android":"levelo://app?vid=dbf71a06-02c9-4cfe-a9d6-5738d4d32aad","ios":"levelo://app?vid=dbf71a06-02c9-4cfe-a9d6-5738d4d32aad"},"vehicle_type_id":"4","last_reported":1687612424,"current_range_meters":30800,"station_id":"ce4bhr92rcd13ifvqhrg","pricing_plan_id":"free"},{"bike_id":"b49d73e2-9f19-4a2c-9b7e-4e20a517a2b2","system_id":"levelo_inurba_marseille","lat":43.3304,"lon":5.38921,"is_reserved":false,"is_disabled":false,"rental_uris":{"android":"levelo://app?vid=b49d73e2-9f19-4a2c-9b7e-4e20a517a2b2","ios":"levelo://app?vid=b49d73e2-9f19-4a2c-9b7e-4e20a517a2b2"},"vehicle_type_id":"4","last_reported":1687612424,"current_range_meters":30800,"station_id":"ce4bhr92rcd13ifvqhrg","pricing_plan_id":"free"},{"bike_id":"1a01895d-f344-4f7a-a2e9-47e079e18485","system_id":"levelo_inurba_marseille","lat":43.3304,"lon":5.38922,"is_reserved":false,"is_disabled":false,"rental_uris":{"android":"levelo://app?vid=1a01895d-f344-4f7a-a2e9-47e079e18485","ios":"levelo://app?vid=1a01895d-f344-4f7a-a2e9-47e079e18485"},"vehicle_type_id":"4","last_reported":1687612424,"current_range_meters":25200,"station_id":"ce4bhr92rcd13ifvqhrg","pricing_plan_id":"free"},{"bike_id":"e4e06b95-1721-4584-9864-ef74cf24cd0f","system_id":"levelo_inurba_marseille","lat":43.33042,"lon":5.3892,"is_reserved":false,"is_disabled":false,"rental_uris":{"android":"levelo://app?vid=e4e06b95-1721-4584-9864-ef74cf24cd0f","ios":"levelo://app?vid=e4e06b95-1721-4584-9864-ef74cf24cd0f"},"vehicle_type_id":"4","last_reported":1687612424,"current_range_meters":14800,"station_id":"ce4bhr92rcd13ifvqhrg","pricing_plan_id":"free"},{"bike_id":"24a0f559-e32f-408d-8874-8220046fd40e","system_id":"levelo_inurba_marseille","lat":43.290995,"lon":5.381361,"is_reserved":false,"is_disabled":false,"rental_uris":{"android":"levelo://app?vid=24a0f559-e32f-408d-8874-8220046fd40e","ios":"levelo://app?vid=24a0f559-e32f-408d-8874-8220046fd40e"},"vehicle_type_id":"4","last_reported":1687612424,"current_range_meters":0,"station_id":"ce4bh512rcd13ifvqe2g","pricing_plan_id":"free"},{"bike_id":"3f8a925a-6a54-4259-a38f-9cf091aab246","system_id":"levelo_inurba_marseille","lat":43.29247,"lon":5.38753,"is_reserved":false,"is_disabled":false,"rental_uris":{"android":"levelo://app?vid=3f8a925a-6a54-4259-a38f-9cf091aab246","ios":"levelo://app?vid=3f8a925a-6a54-4259-a38f-9cf091aab246"},"vehicle_type_id":"4","last_reported":1687612424,"current_range_meters":20800,"station_id":"","pricing_plan_id":"free"},{"bike_id":"c180ae38-f769-441f-8a55-5a6e4930e6ad","system_id":"levelo_inurba_marseille","lat":43.3375,"lon":5.37439,"is_reserved":false,"is_disabled":false,"rental_uris":{"android":"levelo://app?vid=c180ae38-f769-441f-8a55-5a6e4930e6ad","ios":"levelo://app?vid=c180ae38-f769-441f-8a55-5a6e4930e6ad"},"vehicle_type_id":"4","last_reported":1687612424,"current_range_meters":24800,"station_id":"","pricing_plan_id":"free"},{"bike_id":"6e2fb281-01ae-4984-9f39-ab50296e73ac","system_id":"levelo_inurba_marseille","lat":43.30642,"lon":5.401031,"is_reserved":false,"is_disabled":false,"rental_uris":{"android":"levelo://app?vid=6e2fb281-01ae-4984-9f39-ab50296e73ac","ios":"levelo://app?vid=6e2fb281-01ae-4984-9f39-ab50296e73ac"},"vehicle_type_id":"4","last_reported":1687612424,"current_range_meters":4400,"station_id":"ce4bh112rcd13ifvqda0","pricing_plan_id":"free"},{"bike_id":"bf376a2c-2d9f-4a43-9ea9-31a5af9dd96a","system_id":"levelo_inurba_marseille","lat":43.337663,"lon":5.374375,"is_reserved":false,"is_disabled":false,"rental_uris":{"android":"levelo://app?vid=bf376a2c-2d9f-4a43-9ea9-31a5af9dd96a","ios":"levelo://app?vid=bf376a2c-2d9f-4a43-9ea9-31a5af9dd96a"},"vehicle_type_id":"4","last_reported":1687612424,"current_range_meters":30800,"station_id":"","pricing_plan_id":"free"},{"bike_id":"8da04476-3092-4a89-a426-d24f008310f0","system_id":"levelo_inurba_marseille","lat":43.30642,"lon":5.401031,"is_reserved":false,"is_disabled":false,"rental_uris":{"android":"levelo://app?vid=8da04476-3092-4a89-a426-d24f008310f0","ios":"levelo://app?vid=8da04476-3092-4a89-a426-d24f008310f0"},"vehicle_type_id":"4","last_reported":1687612424,"current_range_meters":21200,"station_id":"ce4bh112rcd13ifvqda0","pricing_plan_id":"free"},{"bike_id":"60628021-c674-4af3-917a-6ddfa844b935","system_id":"levelo_inurba_marseille","lat":43.30135,"lon":5.39883,"is_reserved":false,"is_disabled":false,"rental_uris":{"android":"levelo://app?vid=60628021-c674-4af3-917a-6ddfa844b935","ios":"levelo://app?vid=60628021-c674-4af3-917a-6ddfa844b935"},"vehicle_type_id":"4","last_reported":1687612424,"current_range_meters":29200,"station_id":"ce4bh0h2rcd13ifvqd40","pricing_plan_id":"free"},{"bike_id":"efc75a47-44ca-427c-a605-feda05a85e9f","system_id":"levelo_inurba_marseille","lat":43.286593,"lon":5.363346,"is_reserved":false,"is_disabled":false,"rental_uris":{"android":"levelo://app?vid=efc75a47-44ca-427c-a605-feda05a85e9f","ios":"levelo://app?vid=efc75a47-44ca-427c-a605-feda05a85e9f"},"vehicle_type_id":"4","last_reported":1687612424,"current_range_meters":0,"station_id":"ce4bhah2rcd13ifvqej0","pricing_plan_id":"free"},{"bike_id":"b99232b5-b7dc-460b-9a74-c8e2975f8e74","system_id":"levelo_inurba_marseille","lat":43.286961,"lon":5.373785,"is_reserved":false,"is_disabled":false,"rental_uris":{"android":"levelo://app?vid=b99232b5-b7dc-460b-9a74-c8e2975f8e74","ios":"levelo://app?vid=b99232b5-b7dc-460b-9a74-c8e2975f8e74"},"vehicle_type_id":"4","last_reported":1687612424,"current_range_meters":2800,"station_id":"ce4bh3p2rcd13ifvqdq0","pricing_plan_id":"free"},{"bike_id":"d69fed3a-efe9-46fb-b1dc-1240b8978d3e","system_id":"levelo_inurba_marseille","lat":43.316517,"lon":5.404375,"is_reserved":false,"is_disabled":false,"rental_uris":{"android":"levelo://app?vid=d69fed3a-efe9-46fb-b1dc-1240b8978d3e","ios":"levelo://app?vid=d69fed3a-efe9-46fb-b1dc-1240b8978d3e"},"vehicle_type_id":"4","last_reported":1687612424,"current_range_meters":18800,"station_id":"ce4bh012rcd13ifvqd00","pricing_plan_id":"free"},{"bike_id":"11420014-7158-44c7-a433-0b4291a28fb3","system_id":"levelo_inurba_marseille","lat":43.316517,"lon":5.404375,"is_reserved":false,"is_disabled":false,"rental_uris":{"android":"levelo://app?vid=11420014-7158-44c7-a433-0b4291a28fb3","ios":"levelo://app?vid=11420014-7158-44c7-a433-0b4291a28fb3"},"vehicle_type_id":"4","last_reported":1687612424,"current_range_meters":1200,"station_id":"ce4bh012rcd13ifvqd00","pricing_plan_id":"free"},{"bike_id":"b0b57813-736c-4ecd-ae4b-e42df8d5963b","system_id":"levelo_inurba_marseille","lat":43.28459,"lon":5.35881,"is_reserved":false,"is_disabled":false,"rental_uris":{"android":"levelo://app?vid=b0b57813-736c-4ecd-ae4b-e42df8d5963b","ios":"levelo://app?vid=b0b57813-736c-4ecd-ae4b-e42df8d5963b"},"vehicle_type_id":"4","last_reported":1687612424,"current_range_meters":19600,"station_id":"ce4bhah2rcd13ifvqei0","pricing_plan_id":"free"},{"bike_id":"b9930183-4f31-4b79-93b1-5e63eccd2442","system_id":"levelo_inurba_marseille","lat":43.28456,"lon":5.35897,"is_reserved":false,"is_disabled":false,"rental_uris":{"android":"levelo://app?vid=b9930183-4f31-4b79-93b1-5e63eccd2442","ios":"levelo://app?vid=b9930183-4f31-4b79-93b1-5e63eccd2442"},"vehicle_type_id":"4","last_reported":1687612424,"current_range_meters":31200,"station_id":"ce4bhah2rcd13ifvqei0","pricing_plan_id":"free"},{"bike_id":"287ad290-29af-4905-9bf8-f934234eb603","system_id":"levelo_inurba_marseille","lat":43.28455,"lon":5.35899,"is_reserved":false,"is_disabled":false,"rental_uris":{"android":"levelo://app?vid=287ad290-29af-4905-9bf8-f934234eb603","ios":"levelo://app?vid=287ad290-29af-4905-9bf8-f934234eb603"},"vehicle_type_id":"4","last_reported":1687612424,"current_range_meters":31200,"station_id":"ce4bhah2rcd13ifvqei0","pricing_plan_id":"free"},{"bike_id":"2468774b-a465-468e-b6dd-49ddc6869353","system_id":"levelo_inurba_marseille","lat":43.28454,"lon":5.35896,"is_reserved":false,"is_disabled":false,"rental_uris":{"android":"levelo://app?vid=2468774b-a465-468e-b6dd-49ddc6869353","ios":"levelo://app?vid=2468774b-a465-468e-b6dd-49ddc6869353"},"vehicle_type_id":"4","last_reported":1687612424,"current_range_meters":31200,"station_id":"ce4bhah2rcd13ifvqei0","pricing_plan_id":"free"},{"bike_id":"f24af894-bf5c-4e9a-8f35-48d3773119a5","system_id":"levelo_inurba_marseille","lat":43.28452,"lon":5.35896,"is_reserved":false,"is_disabled":false,"rental_uris":{"android":"levelo://app?vid=f24af894-bf5c-4e9a-8f35-48d3773119a5","ios":"levelo://app?vid=f24af894-bf5c-4e9a-8f35-48d3773119a5"},"vehicle_type_id":"4","last_reported":1687612424,"current_range_meters":29600,"station_id":"ce4bhah2rcd13ifvqei0","pricing_plan_id":"free"},{"bike_id":"7a2e27ca-f7d8-4c15-9a10-5d3dcb9643cd","system_id":"levelo_inurba_marseille","lat":43.28441,"lon":5.35889,"is_reserved":false,"is_disabled":false,"rental_uris":{"android":"levelo://app?vid=7a2e27ca-f7d8-4c15-9a10-5d3dcb9643cd","ios":"levelo://app?vid=7a2e27ca-f7d8-4c15-9a10-5d3dcb9643cd"},"vehicle_type_id":"4","last_reported":1687612424,"current_range_meters":31200,"station_id":"ce4bhah2rcd13ifvqei0","pricing_plan_id":"free"},{"bike_id":"898faa87-5252-4a62-a128-a827f0c66d2f","system_id":"levelo_inurba_marseille","lat":43.28617,"lon":5.35107,"is_reserved":false,"is_disabled":false,"rental_uris":{"android":"levelo://app?vid=898faa87-5252-4a62-a128-a827f0c66d2f","ios":"levelo://app?vid=898faa87-5252-4a62-a128-a827f0c66d2f"},"vehicle_type_id":"4","last_reported":1687612424,"current_range_meters":22800,"station_id":"ce4bhch2rcd13ifvqeug","pricing_plan_id":"free"},{"bike_id":"495b5eb8-6416-4acd-bc72-d351549deef3","system_id":"levelo_inurba_marseille","lat":43.285856,"lon":5.350771,"is_reserved":false,"is_disabled":false,"rental_uris":{"android":"levelo://app?vid=495b5eb8-6416-4acd-bc72-d351549deef3","ios":"levelo://app?vid=495b5eb8-6416-4acd-bc72-d351549deef3"},"vehicle_type_id":"4","last_reported":1687612424,"current_range_meters":16000,"station_id":"ce4bhch2rcd13ifvqeug","pricing_plan_id":"free"},{"bike_id":"baa54848-c642-434f-93cc-64e30e79a6bc","system_id":"levelo_inurba_marseille","lat":43.285856,"lon":5.350771,"is_reserved":false,"is_disabled":false,"rental_uris":{"android":"levelo://app?vid=baa54848-c642-434f-93cc-64e30e79a6bc","ios":"levelo://app?vid=baa54848-c642-434f-93cc-64e30e79a6bc"},"vehicle_type_id":"4","last_reported":1687612424,"current_range_meters":31200,"station_id":"ce4bhch2rcd13ifvqeug","pricing_plan_id":"free"},{"bike_id":"22cc7a76-05f9-4ced-9b89-6ce87ab4251f","system_id":"levelo_inurba_marseille","lat":43.285856,"lon":5.350771,"is_reserved":false,"is_disabled":false,"rental_uris":{"android":"levelo://app?vid=22cc7a76-05f9-4ced-9b89-6ce87ab4251f","ios":"levelo://app?vid=22cc7a76-05f9-4ced-9b89-6ce87ab4251f"},"vehicle_type_id":"4","last_reported":1687612424,"current_range_meters":23200,"station_id":"ce4bhch2rcd13ifvqeug","pricing_plan_id":"free"},{"bike_id":"beb9c156-faae-49c2-b97e-d9fe9496cda8","system_id":"levelo_inurba_marseille","lat":43.28615,"lon":5.35103,"is_reserved":false,"is_disabled":false,"rental_uris":{"android":"levelo://app?vid=beb9c156-faae-49c2-b97e-d9fe9496cda8","ios":"levelo://app?vid=beb9c156-faae-49c2-b97e-d9fe9496cda8"},"vehicle_type_id":"4","last_reported":1687612424,"current_range_meters":3600,"station_id":"ce4bhch2rcd13ifvqeug","pricing_plan_id":"free"},{"bike_id":"3eb9dd2c-b9b2-4028-a09d-0a7556bbf6ef","system_id":"levelo_inurba_marseille","lat":43.28614,"lon":5.35106,"is_reserved":false,"is_disabled":false,"rental_uris":{"android":"levelo://app?vid=3eb9dd2c-b9b2-4028-a09d-0a7556bbf6ef","ios":"levelo://app?vid=3eb9dd2c-b9b2-4028-a09d-0a7556bbf6ef"},"vehicle_type_id":"4","last_reported":1687612424,"current_range_meters":20800,"station_id":"","pricing_plan_id":"free"},{"bike_id":"a365c532-febb-4640-b79d-ab9e31f33468","system_id":"levelo_inurba_marseille","lat":43.286133,"lon":5.351079,"is_reserved":false,"is_disabled":false,"rental_uris":{"android":"levelo://app?vid=a365c532-febb-4640-b79d-ab9e31f33468","ios":"levelo://app?vid=a365c532-febb-4640-b79d-ab9e31f33468"},"vehicle_type_id":"4","last_reported":1687612424,"current_range_meters":18800,"station_id":"ce4bhch2rcd13ifvqeug","pricing_plan_id":"free"},{"bike_id":"08c3fa4e-0f76-4b54-9b6b-5f413c6bd390","system_id":"levelo_inurba_marseille","lat":43.286148,"lon":5.351024,"is_reserved":false,"is_disabled":false,"rental_uris":{"android":"levelo://app?vid=08c3fa4e-0f76-4b54-9b6b-5f413c6bd390","ios":"levelo://app?vid=08c3fa4e-0f76-4b54-9b6b-5f413c6bd390"},"vehicle_type_id":"4","last_reported":1687612424,"current_range_meters":19200,"station_id":"ce4bhch2rcd13ifvqeug","pricing_plan_id":"free"},{"bike_id":"72662650-821e-4700-8ed0-aa05799fcf0c","system_id":"levelo_inurba_marseille","lat":43.285856,"lon":5.350771,"is_reserved":false,"is_disabled":false,"rental_uris":{"android":"levelo://app?vid=72662650-821e-4700-8ed0-aa05799fcf0c","ios":"levelo://app?vid=72662650-821e-4700-8ed0-aa05799fcf0c"},"vehicle_type_id":"4","last_reported":1687612424,"current_range_meters":11600,"station_id":"ce4bhch2rcd13ifvqeug","pricing_plan_id":"free"},{"bike_id":"9c87a658-7c01-4d45-8c55-e9bdbb1c6889","system_id":"levelo_inurba_marseille","lat":43.286103,"lon":5.35111,"is_reserved":false,"is_disabled":false,"rental_uris":{"android":"levelo://app?vid=9c87a658-7c01-4d45-8c55-e9bdbb1c6889","ios":"levelo://app?vid=9c87a658-7c01-4d45-8c55-e9bdbb1c6889"},"vehicle_type_id":"4","last_reported":1687612424,"current_range_meters":15200,"station_id":"ce4bhch2rcd13ifvqeug","pricing_plan_id":"free"},{"bike_id":"f0373634-155d-46ae-883a-3d2319a7097f","system_id":"levelo_inurba_marseille","lat":43.283998,"lon":5.375062,"is_reserved":false,"is_disabled":false,"rental_uris":{"android":"levelo://app?vid=f0373634-155d-46ae-883a-3d2319a7097f","ios":"levelo://app?vid=f0373634-155d-46ae-883a-3d2319a7097f"},"vehicle_type_id":"4","last_reported":1687612424,"current_range_meters":8000,"station_id":"ce4bh412rcd13ifvqds0","pricing_plan_id":"free"},{"bike_id":"8d1f88b2-a260-40c1-9cbd-c5c8b2bfd015","system_id":"levelo_inurba_marseille","lat":43.32338,"lon":5.40625,"is_reserved":false,"is_disabled":false,"rental_uris":{"android":"levelo://app?vid=8d1f88b2-a260-40c1-9cbd-c5c8b2bfd015","ios":"levelo://app?vid=8d1f88b2-a260-40c1-9cbd-c5c8b2bfd015"},"vehicle_type_id":"4","last_reported":1687612424,"current_range_meters":10800,"station_id":"ce4bhq92rcd13ifvqhjg","pricing_plan_id":"free"},{"bike_id":"6606e82c-c0ce-4a7f-bf46-357d4faa235e","system_id":"levelo_inurba_marseille","lat":43.3234,"lon":5.40625,"is_reserved":false,"is_disabled":false,"rental_uris":{"android":"levelo://app?vid=6606e82c-c0ce-4a7f-bf46-357d4faa235e","ios":"levelo://app?vid=6606e82c-c0ce-4a7f-bf46-357d4faa235e"},"vehicle_type_id":"4","last_reported":1687612424,"current_range_meters":0,"station_id":"ce4bhq92rcd13ifvqhjg","pricing_plan_id":"free"},{"bike_id":"165784fd-8cb0-48fe-8681-d7abe54a6cf4","system_id":"levelo_inurba_marseille","lat":43.32341,"lon":5.40626,"is_reserved":false,"is_disabled":false,"rental_uris":{"android":"levelo://app?vid=165784fd-8cb0-48fe-8681-d7abe54a6cf4","ios":"levelo://app?vid=165784fd-8cb0-48fe-8681-d7abe54a6cf4"},"vehicle_type_id":"4","last_reported":1687612424,"current_range_meters":30400,"station_id":"ce4bhq92rcd13ifvqhjg","pricing_plan_id":"free"},{"bike_id":"13e45eba-ba09-4bdd-977c-601114b19ea9","system_id":"levelo_inurba_marseille","lat":43.288501,"lon":5.393087,"is_reserved":false,"is_disabled":false,"rental_uris":{"android":"levelo://app?vid=13e45eba-ba09-4bdd-977c-601114b19ea9","ios":"levelo://app?vid=13e45eba-ba09-4bdd-977c-601114b19ea9"},"vehicle_type_id":"4","last_reported":1687612424,"current_range_meters":28800,"station_id":"ce4bh2p2rcd13ifvqdi0","pricing_plan_id":"free"},{"bike_id":"93e1a488-331e-44ba-8509-e53d3664506c","system_id":"levelo_inurba_marseille","lat":43.288497,"lon":5.393089,"is_reserved":false,"is_disabled":false,"rental_uris":{"android":"levelo://app?vid=93e1a488-331e-44ba-8509-e53d3664506c","ios":"levelo://app?vid=93e1a488-331e-44ba-8509-e53d3664506c"},"vehicle_type_id":"4","last_reported":1687612424,"current_range_meters":29200,"station_id":"ce4bh2p2rcd13ifvqdi0","pricing_plan_id":"free"},{"bike_id":"3eea67ef-be35-4b96-9e46-83cc12d41f51","system_id":"levelo_inurba_marseille","lat":43.28852,"lon":5.39319,"is_reserved":false,"is_disabled":false,"rental_uris":{"android":"levelo://app?vid=3eea67ef-be35-4b96-9e46-83cc12d41f51","ios":"levelo://app?vid=3eea67ef-be35-4b96-9e46-83cc12d41f51"},"vehicle_type_id":"4","last_reported":1687612424,"current_range_meters":22000,"station_id":"ce4bh2p2rcd13ifvqdi0","pricing_plan_id":"free"},{"bike_id":"886ca4dd-28e9-4c30-91a7-130726978800","system_id":"levelo_inurba_marseille","lat":43.288497,"lon":5.393089,"is_reserved":false,"is_disabled":false,"rental_uris":{"android":"levelo://app?vid=886ca4dd-28e9-4c30-91a7-130726978800","ios":"levelo://app?vid=886ca4dd-28e9-4c30-91a7-130726978800"},"vehicle_type_id":"4","last_reported":1687612424,"current_range_meters":21200,"station_id":"ce4bh2p2rcd13ifvqdi0","pricing_plan_id":"free"},{"bike_id":"efd96963-f8a1-4a4f-872e-e009147b371f","system_id":"levelo_inurba_marseille","lat":43.288501,"lon":5.393087,"is_reserved":false,"is_disabled":false,"rental_uris":{"android":"levelo://app?vid=efd96963-f8a1-4a4f-872e-e009147b371f","ios":"levelo://app?vid=efd96963-f8a1-4a4f-872e-e009147b371f"},"vehicle_type_id":"4","last_reported":1687612424,"current_range_meters":31200,"station_id":"ce4bh2p2rcd13ifvqdi0","pricing_plan_id":"free"},{"bike_id":"b4c950db-352f-4a1a-8e3c-c05101a6dad0","system_id":"levelo_inurba_marseille","lat":43.288501,"lon":5.393087,"is_reserved":false,"is_disabled":false,"rental_uris":{"android":"levelo://app?vid=b4c950db-352f-4a1a-8e3c-c05101a6dad0","ios":"levelo://app?vid=b4c950db-352f-4a1a-8e3c-c05101a6dad0"},"vehicle_type_id":"4","last_reported":1687612424,"current_range_meters":31200,"station_id":"ce4bh2p2rcd13ifvqdi0","pricing_plan_id":"free"},{"bike_id":"1a38aedc-74ca-46bc-9719-07bf1108e827","system_id":"levelo_inurba_marseille","lat":43.28431,"lon":5.35008,"is_reserved":false,"is_disabled":false,"rental_uris":{"android":"levelo://app?vid=1a38aedc-74ca-46bc-9719-07bf1108e827","ios":"levelo://app?vid=1a38aedc-74ca-46bc-9719-07bf1108e827"},"vehicle_type_id":"4","last_reported":1687612424,"current_range_meters":31200,"station_id":"ce4bhbh2rcd13ifvqepg","pricing_plan_id":"free"},{"bike_id":"4cf8a622-776f-4199-b50a-aeee2e3f5c07","system_id":"levelo_inurba_marseille","lat":43.28422,"lon":5.34986,"is_reserved":false,"is_disabled":false,"rental_uris":{"android":"levelo://app?vid=4cf8a622-776f-4199-b50a-aeee2e3f5c07","ios":"levelo://app?vid=4cf8a622-776f-4199-b50a-aeee2e3f5c07"},"vehicle_type_id":"4","last_reported":1687612424,"current_range_meters":31200,"station_id":"ce4bhbh2rcd13ifvqepg","pricing_plan_id":"free"},{"bike_id":"18b07cb4-7e42-4e0d-ab43-3d6ac52f3b2b","system_id":"levelo_inurba_marseille","lat":43.284219,"lon":5.3497,"is_reserved":false,"is_disabled":false,"rental_uris":{"android":"levelo://app?vid=18b07cb4-7e42-4e0d-ab43-3d6ac52f3b2b","ios":"levelo://app?vid=18b07cb4-7e42-4e0d-ab43-3d6ac52f3b2b"},"vehicle_type_id":"4","last_reported":1687612424,"current_range_meters":31600,"station_id":"ce4bhbh2rcd13ifvqepg","pricing_plan_id":"free"},{"bike_id":"0055eff6-c9b4-4290-bec2-537a07918075","system_id":"levelo_inurba_marseille","lat":43.284219,"lon":5.3497,"is_reserved":false,"is_disabled":false,"rental_uris":{"android":"levelo://app?vid=0055eff6-c9b4-4290-bec2-537a07918075","ios":"levelo://app?vid=0055eff6-c9b4-4290-bec2-537a07918075"},"vehicle_type_id":"4","last_reported":1687612424,"current_range_meters":31200,"station_id":"ce4bhbh2rcd13ifvqepg","pricing_plan_id":"free"},{"bike_id":"e4e9cb2d-e1ed-48ef-9478-8b91cad9d674","system_id":"levelo_inurba_marseille","lat":43.28421,"lon":5.34979,"is_reserved":false,"is_disabled":false,"rental_uris":{"android":"levelo://app?vid=e4e9cb2d-e1ed-48ef-9478-8b91cad9d674","ios":"levelo://app?vid=e4e9cb2d-e1ed-48ef-9478-8b91cad9d674"},"vehicle_type_id":"4","last_reported":1687612424,"current_range_meters":24400,"station_id":"ce4bhbh2rcd13ifvqepg","pricing_plan_id":"free"},{"bike_id":"3d8744b5-74d3-4465-a40a-faac9e2e7f8f","system_id":"levelo_inurba_marseille","lat":43.28418,"lon":5.34987,"is_reserved":false,"is_disabled":false,"rental_uris":{"android":"levelo://app?vid=3d8744b5-74d3-4465-a40a-faac9e2e7f8f","ios":"levelo://app?vid=3d8744b5-74d3-4465-a40a-faac9e2e7f8f"},"vehicle_type_id":"4","last_reported":1687612424,"current_range_meters":14800,"station_id":"ce4bhbh2rcd13ifvqepg","pricing_plan_id":"free"},{"bike_id":"77c5016f-b961-42a1-899b-0da2b4bc813e","system_id":"levelo_inurba_marseille","lat":43.284191,"lon":5.349788,"is_reserved":false,"is_disabled":false,"rental_uris":{"android":"levelo://app?vid=77c5016f-b961-42a1-899b-0da2b4bc813e","ios":"levelo://app?vid=77c5016f-b961-42a1-899b-0da2b4bc813e"},"vehicle_type_id":"4","last_reported":1687612424,"current_range_meters":16000,"station_id":"ce4bhbh2rcd13ifvqepg","pricing_plan_id":"free"},{"bike_id":"507db3a9-e6ba-4395-bac1-f6bb2b833100","system_id":"levelo_inurba_marseille","lat":43.2842,"lon":5.34972,"is_reserved":false,"is_disabled":false,"rental_uris":{"android":"levelo://app?vid=507db3a9-e6ba-4395-bac1-f6bb2b833100","ios":"levelo://app?vid=507db3a9-e6ba-4395-bac1-f6bb2b833100"},"vehicle_type_id":"4","last_reported":1687612424,"current_range_meters":4000,"station_id":"ce4bhbh2rcd13ifvqepg","pricing_plan_id":"free"},{"bike_id":"02c4906c-8403-4025-af52-6609de01361f","system_id":"levelo_inurba_marseille","lat":43.284217,"lon":5.349697,"is_reserved":false,"is_disabled":false,"rental_uris":{"android":"levelo://app?vid=02c4906c-8403-4025-af52-6609de01361f","ios":"levelo://app?vid=02c4906c-8403-4025-af52-6609de01361f"},"vehicle_type_id":"4","last_reported":1687612424,"current_range_meters":30800,"station_id":"ce4bhbh2rcd13ifvqepg","pricing_plan_id":"free"},{"bike_id":"bbe9d181-0f79-4680-8fc6-f9e581e36c4a","system_id":"levelo_inurba_marseille","lat":43.284217,"lon":5.349697,"is_reserved":false,"is_disabled":false,"rental_uris":{"android":"levelo://app?vid=bbe9d181-0f79-4680-8fc6-f9e581e36c4a","ios":"levelo://app?vid=bbe9d181-0f79-4680-8fc6-f9e581e36c4a"},"vehicle_type_id":"4","last_reported":1687612424,"current_range_meters":18400,"station_id":"ce4bhbh2rcd13ifvqepg","pricing_plan_id":"free"},{"bike_id":"4fa7f9f2-823f-401e-a653-9a5cc9bb4235","system_id":"levelo_inurba_marseille","lat":43.28414,"lon":5.349852,"is_reserved":false,"is_disabled":false,"rental_uris":{"android":"levelo://app?vid=4fa7f9f2-823f-401e-a653-9a5cc9bb4235","ios":"levelo://app?vid=4fa7f9f2-823f-401e-a653-9a5cc9bb4235"},"vehicle_type_id":"4","last_reported":1687612424,"current_range_meters":14000,"station_id":"ce4bhbh2rcd13ifvqepg","pricing_plan_id":"free"},{"bike_id":"320e87c7-5f32-4f84-a1c8-bddf1595e316","system_id":"levelo_inurba_marseille","lat":43.284217,"lon":5.349697,"is_reserved":false,"is_disabled":false,"rental_uris":{"android":"levelo://app?vid=320e87c7-5f32-4f84-a1c8-bddf1595e316","ios":"levelo://app?vid=320e87c7-5f32-4f84-a1c8-bddf1595e316"},"vehicle_type_id":"4","last_reported":1687612424,"current_range_meters":20800,"station_id":"ce4bhbh2rcd13ifvqepg","pricing_plan_id":"free"},{"bike_id":"8216e25d-9f58-40ea-9e01-dff73bcac161","system_id":"levelo_inurba_marseille","lat":43.284217,"lon":5.349697,"is_reserved":false,"is_disabled":false,"rental_uris":{"android":"levelo://app?vid=8216e25d-9f58-40ea-9e01-dff73bcac161","ios":"levelo://app?vid=8216e25d-9f58-40ea-9e01-dff73bcac161"},"vehicle_type_id":"4","last_reported":1687612424,"current_range_meters":20800,"station_id":"ce4bhbh2rcd13ifvqepg","pricing_plan_id":"free"},{"bike_id":"93bc5c67-7f85-4c1e-8f78-3342d90b62a6","system_id":"levelo_inurba_marseille","lat":43.284217,"lon":5.349697,"is_reserved":false,"is_disabled":false,"rental_uris":{"android":"levelo://app?vid=93bc5c67-7f85-4c1e-8f78-3342d90b62a6","ios":"levelo://app?vid=93bc5c67-7f85-4c1e-8f78-3342d90b62a6"},"vehicle_type_id":"4","last_reported":1687612424,"current_range_meters":14000,"station_id":"ce4bhbh2rcd13ifvqepg","pricing_plan_id":"free"},{"bike_id":"f42409f8-055c-4c4d-9db7-2c41ec8410d2","system_id":"levelo_inurba_marseille","lat":43.284217,"lon":5.349697,"is_reserved":false,"is_disabled":false,"rental_uris":{"android":"levelo://app?vid=f42409f8-055c-4c4d-9db7-2c41ec8410d2","ios":"levelo://app?vid=f42409f8-055c-4c4d-9db7-2c41ec8410d2"},"vehicle_type_id":"4","last_reported":1687612424,"current_range_meters":31600,"station_id":"ce4bhbh2rcd13ifvqepg","pricing_plan_id":"free"},{"bike_id":"2ff8ded9-dfa5-47aa-b736-47077523ec1f","system_id":"levelo_inurba_marseille","lat":43.28412,"lon":5.34982,"is_reserved":false,"is_disabled":false,"rental_uris":{"android":"levelo://app?vid=2ff8ded9-dfa5-47aa-b736-47077523ec1f","ios":"levelo://app?vid=2ff8ded9-dfa5-47aa-b736-47077523ec1f"},"vehicle_type_id":"4","last_reported":1687612424,"current_range_meters":24800,"station_id":"ce4bhbh2rcd13ifvqepg","pricing_plan_id":"free"},{"bike_id":"ab0aa422-6a4f-493a-8593-123e3ad068d2","system_id":"levelo_inurba_marseille","lat":43.284217,"lon":5.349697,"is_reserved":false,"is_disabled":false,"rental_uris":{"android":"levelo://app?vid=ab0aa422-6a4f-493a-8593-123e3ad068d2","ios":"levelo://app?vid=ab0aa422-6a4f-493a-8593-123e3ad068d2"},"vehicle_type_id":"4","last_reported":1687612424,"current_range_meters":15200,"station_id":"ce4bhbh2rcd13ifvqepg","pricing_plan_id":"free"},{"bike_id":"09136ba0-c6f4-4081-af9f-a62f0eb8feca","system_id":"levelo_inurba_marseille","lat":43.284217,"lon":5.349697,"is_reserved":false,"is_disabled":false,"rental_uris":{"android":"levelo://app?vid=09136ba0-c6f4-4081-af9f-a62f0eb8feca","ios":"levelo://app?vid=09136ba0-c6f4-4081-af9f-a62f0eb8feca"},"vehicle_type_id":"4","last_reported":1687612424,"current_range_meters":20400,"station_id":"ce4bhbh2rcd13ifvqepg","pricing_plan_id":"free"},{"bike_id":"b738e605-c72a-4891-a4fd-3f03a0d4025c","system_id":"levelo_inurba_marseille","lat":43.284217,"lon":5.349697,"is_reserved":false,"is_disabled":false,"rental_uris":{"android":"levelo://app?vid=b738e605-c72a-4891-a4fd-3f03a0d4025c","ios":"levelo://app?vid=b738e605-c72a-4891-a4fd-3f03a0d4025c"},"vehicle_type_id":"4","last_reported":1687612424,"current_range_meters":12000,"station_id":"ce4bhbh2rcd13ifvqepg","pricing_plan_id":"free"},{"bike_id":"d0eec264-9f5d-41f7-8361-a2a5c46f64e2","system_id":"levelo_inurba_marseille","lat":43.284217,"lon":5.349697,"is_reserved":false,"is_disabled":false,"rental_uris":{"android":"levelo://app?vid=d0eec264-9f5d-41f7-8361-a2a5c46f64e2","ios":"levelo://app?vid=d0eec264-9f5d-41f7-8361-a2a5c46f64e2"},"vehicle_type_id":"4","last_reported":1687612424,"current_range_meters":22000,"station_id":"ce4bhbh2rcd13ifvqepg","pricing_plan_id":"free"},{"bike_id":"7400b20e-6d37-4c01-b9ed-6ec0402f1a23","system_id":"levelo_inurba_marseille","lat":43.284102,"lon":5.349752,"is_reserved":false,"is_disabled":false,"rental_uris":{"android":"levelo://app?vid=7400b20e-6d37-4c01-b9ed-6ec0402f1a23","ios":"levelo://app?vid=7400b20e-6d37-4c01-b9ed-6ec0402f1a23"},"vehicle_type_id":"4","last_reported":1687612424,"current_range_meters":19200,"station_id":"ce4bhbh2rcd13ifvqepg","pricing_plan_id":"free"},{"bike_id":"4c5ed9a7-1400-482f-9328-9e033ff55ff2","system_id":"levelo_inurba_marseille","lat":43.284032,"lon":5.349544,"is_reserved":false,"is_disabled":false,"rental_uris":{"android":"levelo://app?vid=4c5ed9a7-1400-482f-9328-9e033ff55ff2","ios":"levelo://app?vid=4c5ed9a7-1400-482f-9328-9e033ff55ff2"},"vehicle_type_id":"4","last_reported":1687612424,"current_range_meters":22400,"station_id":"ce4bhbh2rcd13ifvqepg","pricing_plan_id":"free"},{"bike_id":"bb380de8-46aa-4f95-98b1-29b6e625f094","system_id":"levelo_inurba_marseille","lat":43.28936,"lon":5.39628,"is_reserved":false,"is_disabled":false,"rental_uris":{"android":"levelo://app?vid=bb380de8-46aa-4f95-98b1-29b6e625f094","ios":"levelo://app?vid=bb380de8-46aa-4f95-98b1-29b6e625f094"},"vehicle_type_id":"4","last_reported":1687612424,"current_range_meters":31600,"station_id":"ce4bh3h2rcd13ifvqdn0","pricing_plan_id":"free"},{"bike_id":"30f54a37-cfba-4e75-a40d-f898d7390bc6","system_id":"levelo_inurba_marseille","lat":43.292724,"lon":5.401131,"is_reserved":false,"is_disabled":false,"rental_uris":{"android":"levelo://app?vid=30f54a37-cfba-4e75-a40d-f898d7390bc6","ios":"levelo://app?vid=30f54a37-cfba-4e75-a40d-f898d7390bc6"},"vehicle_type_id":"4","last_reported":1687612424,"current_range_meters":24800,"station_id":"ce4bh312rcd13ifvqdk0","pricing_plan_id":"free"},{"bike_id":"e3ba0baf-66ba-4955-ae5f-69786cb0091e","system_id":"levelo_inurba_marseille","lat":43.28278,"lon":5.35069,"is_reserved":false,"is_disabled":false,"rental_uris":{"android":"levelo://app?vid=e3ba0baf-66ba-4955-ae5f-69786cb0091e","ios":"levelo://app?vid=e3ba0baf-66ba-4955-ae5f-69786cb0091e"},"vehicle_type_id":"4","last_reported":1687612424,"current_range_meters":12800,"station_id":"ce4bhbp2rcd13ifvqerg","pricing_plan_id":"free"},{"bike_id":"edb9fb3e-2372-44d2-9aed-e175e7a20102","system_id":"levelo_inurba_marseille","lat":43.28272,"lon":5.35073,"is_reserved":false,"is_disabled":false,"rental_uris":{"android":"levelo://app?vid=edb9fb3e-2372-44d2-9aed-e175e7a20102","ios":"levelo://app?vid=edb9fb3e-2372-44d2-9aed-e175e7a20102"},"vehicle_type_id":"4","last_reported":1687612424,"current_range_meters":13600,"station_id":"ce4bhbp2rcd13ifvqerg","pricing_plan_id":"free"},{"bike_id":"ec379ecd-a000-4c96-927d-01b743353722","system_id":"levelo_inurba_marseille","lat":43.28274,"lon":5.35064,"is_reserved":false,"is_disabled":false,"rental_uris":{"android":"levelo://app?vid=ec379ecd-a000-4c96-927d-01b743353722","ios":"levelo://app?vid=ec379ecd-a000-4c96-927d-01b743353722"},"vehicle_type_id":"4","last_reported":1687612424,"current_range_meters":9200,"station_id":"ce4bhbp2rcd13ifvqerg","pricing_plan_id":"free"},{"bike_id":"7fed7268-dcd6-4498-9fe3-cf29b13541fb","system_id":"levelo_inurba_marseille","lat":43.282744,"lon":5.350533,"is_reserved":false,"is_disabled":false,"rental_uris":{"android":"levelo://app?vid=7fed7268-dcd6-4498-9fe3-cf29b13541fb","ios":"levelo://app?vid=7fed7268-dcd6-4498-9fe3-cf29b13541fb"},"vehicle_type_id":"4","last_reported":1687612424,"current_range_meters":3200,"station_id":"ce4bhbp2rcd13ifvqerg","pricing_plan_id":"free"},{"bike_id":"e390d55b-b5b3-461f-ac26-452c16d893aa","system_id":"levelo_inurba_marseille","lat":43.28273,"lon":5.35057,"is_reserved":false,"is_disabled":false,"rental_uris":{"android":"levelo://app?vid=e390d55b-b5b3-461f-ac26-452c16d893aa","ios":"levelo://app?vid=e390d55b-b5b3-461f-ac26-452c16d893aa"},"vehicle_type_id":"4","last_reported":1687612424,"current_range_meters":25200,"station_id":"ce4bhbp2rcd13ifvqerg","pricing_plan_id":"free"},{"bike_id":"57e6f643-ee1a-46a7-a3b0-0b5f1c1570ef","system_id":"levelo_inurba_marseille","lat":43.2827,"lon":5.35064,"is_reserved":false,"is_disabled":false,"rental_uris":{"android":"levelo://app?vid=57e6f643-ee1a-46a7-a3b0-0b5f1c1570ef","ios":"levelo://app?vid=57e6f643-ee1a-46a7-a3b0-0b5f1c1570ef"},"vehicle_type_id":"4","last_reported":1687612424,"current_range_meters":0,"station_id":"ce4bhbp2rcd13ifvqerg","pricing_plan_id":"free"},{"bike_id":"a7683699-6196-457a-ae06-d2c27050d5e2","system_id":"levelo_inurba_marseille","lat":43.282744,"lon":5.350533,"is_reserved":false,"is_disabled":false,"rental_uris":{"android":"levelo://app?vid=a7683699-6196-457a-ae06-d2c27050d5e2","ios":"levelo://app?vid=a7683699-6196-457a-ae06-d2c27050d5e2"},"vehicle_type_id":"4","last_reported":1687612424,"current_range_meters":15200,"station_id":"ce4bhbp2rcd13ifvqerg","pricing_plan_id":"free"},{"bike_id":"3e6fcdc8-5d6b-4946-b7ca-49d2d850a29e","system_id":"levelo_inurba_marseille","lat":43.2827,"lon":5.35058,"is_reserved":false,"is_disabled":false,"rental_uris":{"android":"levelo://app?vid=3e6fcdc8-5d6b-4946-b7ca-49d2d850a29e","ios":"levelo://app?vid=3e6fcdc8-5d6b-4946-b7ca-49d2d850a29e"},"vehicle_type_id":"4","last_reported":1687612424,"current_range_meters":11600,"station_id":"ce4bhbp2rcd13ifvqerg","pricing_plan_id":"free"},{"bike_id":"bcfa9d76-7245-486f-b405-0640b5ddd473","system_id":"levelo_inurba_marseille","lat":43.282744,"lon":5.350533,"is_reserved":false,"is_disabled":false,"rental_uris":{"android":"levelo://app?vid=bcfa9d76-7245-486f-b405-0640b5ddd473","ios":"levelo://app?vid=bcfa9d76-7245-486f-b405-0640b5ddd473"},"vehicle_type_id":"4","last_reported":1687612424,"current_range_meters":27200,"station_id":"ce4bhbp2rcd13ifvqerg","pricing_plan_id":"free"},{"bike_id":"7bb2baaa-9044-4b53-982a-6d68dba0b668","system_id":"levelo_inurba_marseille","lat":43.28264,"lon":5.35062,"is_reserved":false,"is_disabled":false,"rental_uris":{"android":"levelo://app?vid=7bb2baaa-9044-4b53-982a-6d68dba0b668","ios":"levelo://app?vid=7bb2baaa-9044-4b53-982a-6d68dba0b668"},"vehicle_type_id":"4","last_reported":1687612424,"current_range_meters":11200,"station_id":"ce4bhbp2rcd13ifvqerg","pricing_plan_id":"free"},{"bike_id":"1c053e4a-8ea8-4f95-a7fb-ea6504e77fa2","system_id":"levelo_inurba_marseille","lat":43.282744,"lon":5.350533,"is_reserved":false,"is_disabled":false,"rental_uris":{"android":"levelo://app?vid=1c053e4a-8ea8-4f95-a7fb-ea6504e77fa2","ios":"levelo://app?vid=1c053e4a-8ea8-4f95-a7fb-ea6504e77fa2"},"vehicle_type_id":"4","last_reported":1687612424,"current_range_meters":30800,"station_id":"ce4bhbp2rcd13ifvqerg","pricing_plan_id":"free"},{"bike_id":"ff60adae-f71a-4e2f-9c03-c28e9ecc3c45","system_id":"levelo_inurba_marseille","lat":43.32718,"lon":5.40784,"is_reserved":false,"is_disabled":false,"rental_uris":{"android":"levelo://app?vid=ff60adae-f71a-4e2f-9c03-c28e9ecc3c45","ios":"levelo://app?vid=ff60adae-f71a-4e2f-9c03-c28e9ecc3c45"},"vehicle_type_id":"4","last_reported":1687612424,"current_range_meters":5200,"station_id":"","pricing_plan_id":"free"},{"bike_id":"a035b999-c6e1-4ca3-8eec-64b9fd6f8686","system_id":"levelo_inurba_marseille","lat":43.284462,"lon":5.392121,"is_reserved":false,"is_disabled":false,"rental_uris":{"android":"levelo://app?vid=a035b999-c6e1-4ca3-8eec-64b9fd6f8686","ios":"levelo://app?vid=a035b999-c6e1-4ca3-8eec-64b9fd6f8686"},"vehicle_type_id":"4","last_reported":1687612424,"current_range_meters":19600,"station_id":"ce4bhoh2rcd13ifvqh5g","pricing_plan_id":"free"},{"bike_id":"effe6ce2-27a3-49bc-a9a2-da9fac501ecb","system_id":"levelo_inurba_marseille","lat":43.284462,"lon":5.392121,"is_reserved":false,"is_disabled":false,"rental_uris":{"android":"levelo://app?vid=effe6ce2-27a3-49bc-a9a2-da9fac501ecb","ios":"levelo://app?vid=effe6ce2-27a3-49bc-a9a2-da9fac501ecb"},"vehicle_type_id":"4","last_reported":1687612424,"current_range_meters":1600,"station_id":"ce4bhoh2rcd13ifvqh5g","pricing_plan_id":"free"},{"bike_id":"514e4d9d-f74c-4bd1-8d07-610055ad8743","system_id":"levelo_inurba_marseille","lat":43.32661,"lon":5.40982,"is_reserved":false,"is_disabled":false,"rental_uris":{"android":"levelo://app?vid=514e4d9d-f74c-4bd1-8d07-610055ad8743","ios":"levelo://app?vid=514e4d9d-f74c-4bd1-8d07-610055ad8743"},"vehicle_type_id":"4","last_reported":1687612424,"current_range_meters":10000,"station_id":"ce4bhpp2rcd13ifvqhgg","pricing_plan_id":"free"},{"bike_id":"5de98341-c4f0-4072-bcea-73b5bf2f2859","system_id":"levelo_inurba_marseille","lat":43.326605,"lon":5.409903,"is_reserved":false,"is_disabled":false,"rental_uris":{"android":"levelo://app?vid=5de98341-c4f0-4072-bcea-73b5bf2f2859","ios":"levelo://app?vid=5de98341-c4f0-4072-bcea-73b5bf2f2859"},"vehicle_type_id":"4","last_reported":1687612424,"current_range_meters":30000,"station_id":"ce4bhpp2rcd13ifvqhgg","pricing_plan_id":"free"},{"bike_id":"944cc645-9c61-42d4-8b7e-807c114cae2f","system_id":"levelo_inurba_marseille","lat":43.3266,"lon":5.40986,"is_reserved":false,"is_disabled":false,"rental_uris":{"android":"levelo://app?vid=944cc645-9c61-42d4-8b7e-807c114cae2f","ios":"levelo://app?vid=944cc645-9c61-42d4-8b7e-807c114cae2f"},"vehicle_type_id":"4","last_reported":1687612424,"current_range_meters":30400,"station_id":"ce4bhpp2rcd13ifvqhgg","pricing_plan_id":"free"},{"bike_id":"61e5781c-69a0-4299-ba2e-ce4fc92d331a","system_id":"levelo_inurba_marseille","lat":43.326605,"lon":5.409903,"is_reserved":false,"is_disabled":false,"rental_uris":{"android":"levelo://app?vid=61e5781c-69a0-4299-ba2e-ce4fc92d331a","ios":"levelo://app?vid=61e5781c-69a0-4299-ba2e-ce4fc92d331a"},"vehicle_type_id":"4","last_reported":1687612424,"current_range_meters":26800,"station_id":"ce4bhpp2rcd13ifvqhgg","pricing_plan_id":"free"},{"bike_id":"fc2a51fe-3bf8-46f3-9fe8-f24612d4a02a","system_id":"levelo_inurba_marseille","lat":43.326565,"lon":5.409975,"is_reserved":false,"is_disabled":false,"rental_uris":{"android":"levelo://app?vid=fc2a51fe-3bf8-46f3-9fe8-f24612d4a02a","ios":"levelo://app?vid=fc2a51fe-3bf8-46f3-9fe8-f24612d4a02a"},"vehicle_type_id":"4","last_reported":1687612424,"current_range_meters":3600,"station_id":"ce4bhpp2rcd13ifvqhgg","pricing_plan_id":"free"},{"bike_id":"15d6790e-c95b-494c-8abc-7c1762777321","system_id":"levelo_inurba_marseille","lat":43.27964,"lon":5.35373,"is_reserved":false,"is_disabled":false,"rental_uris":{"android":"levelo://app?vid=15d6790e-c95b-494c-8abc-7c1762777321","ios":"levelo://app?vid=15d6790e-c95b-494c-8abc-7c1762777321"},"vehicle_type_id":"4","last_reported":1687612424,"current_range_meters":0,"station_id":"","pricing_plan_id":"free"},{"bike_id":"92d20a4c-87c2-42f8-b369-e2a3f1eb9aa5","system_id":"levelo_inurba_marseille","lat":43.28065,"lon":5.34768,"is_reserved":false,"is_disabled":false,"rental_uris":{"android":"levelo://app?vid=92d20a4c-87c2-42f8-b369-e2a3f1eb9aa5","ios":"levelo://app?vid=92d20a4c-87c2-42f8-b369-e2a3f1eb9aa5"},"vehicle_type_id":"4","last_reported":1687612424,"current_range_meters":4800,"station_id":"","pricing_plan_id":"free"},{"bike_id":"50fd953c-9754-45f4-aec7-ae52bb9eb6fe","system_id":"levelo_inurba_marseille","lat":43.287154,"lon":5.399979,"is_reserved":false,"is_disabled":false,"rental_uris":{"android":"levelo://app?vid=50fd953c-9754-45f4-aec7-ae52bb9eb6fe","ios":"levelo://app?vid=50fd953c-9754-45f4-aec7-ae52bb9eb6fe"},"vehicle_type_id":"4","last_reported":1687612424,"current_range_meters":31200,"station_id":"ce4bho92rcd13ifvqh3g","pricing_plan_id":"free"},{"bike_id":"8a41a8b8-9a35-4187-a50c-2e5cb059ceb3","system_id":"levelo_inurba_marseille","lat":43.320045,"lon":5.415048,"is_reserved":false,"is_disabled":false,"rental_uris":{"android":"levelo://app?vid=8a41a8b8-9a35-4187-a50c-2e5cb059ceb3","ios":"levelo://app?vid=8a41a8b8-9a35-4187-a50c-2e5cb059ceb3"},"vehicle_type_id":"4","last_reported":1687612424,"current_range_meters":31600,"station_id":"ce4bhq92rcd13ifvqhkg","pricing_plan_id":"free"},{"bike_id":"14c9cff9-ef50-4c6d-8fa4-9a1095daa1fd","system_id":"levelo_inurba_marseille","lat":43.299579,"lon":5.413255,"is_reserved":false,"is_disabled":false,"rental_uris":{"android":"levelo://app?vid=14c9cff9-ef50-4c6d-8fa4-9a1095daa1fd","ios":"levelo://app?vid=14c9cff9-ef50-4c6d-8fa4-9a1095daa1fd"},"vehicle_type_id":"4","last_reported":1687612424,"current_range_meters":31200,"station_id":"ce4bhp12rcd13ifvqh9g","pricing_plan_id":"free"},{"bike_id":"27e72165-7243-456a-a337-a0adaad0e220","system_id":"levelo_inurba_marseille","lat":43.320045,"lon":5.415046,"is_reserved":false,"is_disabled":false,"rental_uris":{"android":"levelo://app?vid=27e72165-7243-456a-a337-a0adaad0e220","ios":"levelo://app?vid=27e72165-7243-456a-a337-a0adaad0e220"},"vehicle_type_id":"4","last_reported":1687612424,"current_range_meters":27600,"station_id":"ce4bhq92rcd13ifvqhkg","pricing_plan_id":"free"},{"bike_id":"9197d768-935a-4a09-bd6c-c6864e33e9c7","system_id":"levelo_inurba_marseille","lat":43.320045,"lon":5.415048,"is_reserved":false,"is_disabled":false,"rental_uris":{"android":"levelo://app?vid=9197d768-935a-4a09-bd6c-c6864e33e9c7","ios":"levelo://app?vid=9197d768-935a-4a09-bd6c-c6864e33e9c7"},"vehicle_type_id":"4","last_reported":1687612424,"current_range_meters":29600,"station_id":"ce4bhq92rcd13ifvqhkg","pricing_plan_id":"free"},{"bike_id":"ed1c94f0-8a0b-4a63-a93e-6771127b17ab","system_id":"levelo_inurba_marseille","lat":43.29958,"lon":5.41319,"is_reserved":false,"is_disabled":false,"rental_uris":{"android":"levelo://app?vid=ed1c94f0-8a0b-4a63-a93e-6771127b17ab","ios":"levelo://app?vid=ed1c94f0-8a0b-4a63-a93e-6771127b17ab"},"vehicle_type_id":"4","last_reported":1687612424,"current_range_meters":16000,"station_id":"ce4bhp12rcd13ifvqh9g","pricing_plan_id":"free"},{"bike_id":"a5db1ab2-8349-49de-b400-2b29dc124992","system_id":"levelo_inurba_marseille","lat":43.29952,"lon":5.41318,"is_reserved":false,"is_disabled":false,"rental_uris":{"android":"levelo://app?vid=a5db1ab2-8349-49de-b400-2b29dc124992","ios":"levelo://app?vid=a5db1ab2-8349-49de-b400-2b29dc124992"},"vehicle_type_id":"4","last_reported":1687612424,"current_range_meters":11200,"station_id":"ce4bhp12rcd13ifvqh9g","pricing_plan_id":"free"},{"bike_id":"cc3079b5-848e-4588-aff1-afe1ae5dd557","system_id":"levelo_inurba_marseille","lat":43.320045,"lon":5.415048,"is_reserved":false,"is_disabled":false,"rental_uris":{"android":"levelo://app?vid=cc3079b5-848e-4588-aff1-afe1ae5dd557","ios":"levelo://app?vid=cc3079b5-848e-4588-aff1-afe1ae5dd557"},"vehicle_type_id":"4","last_reported":1687612424,"current_range_meters":31600,"station_id":"ce4bhq92rcd13ifvqhkg","pricing_plan_id":"free"},{"bike_id":"56b1fb02-a75b-457e-a05e-d2e5166b6ee7","system_id":"levelo_inurba_marseille","lat":43.320045,"lon":5.415048,"is_reserved":false,"is_disabled":false,"rental_uris":{"android":"levelo://app?vid=56b1fb02-a75b-457e-a05e-d2e5166b6ee7","ios":"levelo://app?vid=56b1fb02-a75b-457e-a05e-d2e5166b6ee7"},"vehicle_type_id":"4","last_reported":1687612424,"current_range_meters":24000,"station_id":"ce4bhq92rcd13ifvqhkg","pricing_plan_id":"free"},{"bike_id":"d1ee3eeb-b6d2-4502-8c4e-66513d598e4d","system_id":"levelo_inurba_marseille","lat":43.320045,"lon":5.415048,"is_reserved":false,"is_disabled":false,"rental_uris":{"android":"levelo://app?vid=d1ee3eeb-b6d2-4502-8c4e-66513d598e4d","ios":"levelo://app?vid=d1ee3eeb-b6d2-4502-8c4e-66513d598e4d"},"vehicle_type_id":"4","last_reported":1687612424,"current_range_meters":23600,"station_id":"ce4bhq92rcd13ifvqhkg","pricing_plan_id":"free"},{"bike_id":"25fbec75-4b67-47e9-a9b8-cf1a69311c4e","system_id":"levelo_inurba_marseille","lat":43.320045,"lon":5.415046,"is_reserved":false,"is_disabled":false,"rental_uris":{"android":"levelo://app?vid=25fbec75-4b67-47e9-a9b8-cf1a69311c4e","ios":"levelo://app?vid=25fbec75-4b67-47e9-a9b8-cf1a69311c4e"},"vehicle_type_id":"4","last_reported":1687612424,"current_range_meters":30800,"station_id":"ce4bhq92rcd13ifvqhkg","pricing_plan_id":"free"},{"bike_id":"21f45db4-1549-433b-8db7-2bc3b650790d","system_id":"levelo_inurba_marseille","lat":43.325233,"lon":5.414318,"is_reserved":false,"is_disabled":false,"rental_uris":{"android":"levelo://app?vid=21f45db4-1549-433b-8db7-2bc3b650790d","ios":"levelo://app?vid=21f45db4-1549-433b-8db7-2bc3b650790d"},"vehicle_type_id":"4","last_reported":1687612424,"current_range_meters":27600,"station_id":"ce4bhq12rcd13ifvqhhg","pricing_plan_id":"free"},{"bike_id":"265e9839-5686-442c-9b91-94874b6a24b0","system_id":"levelo_inurba_marseille","lat":43.28079,"lon":5.39652,"is_reserved":false,"is_disabled":false,"rental_uris":{"android":"levelo://app?vid=265e9839-5686-442c-9b91-94874b6a24b0","ios":"levelo://app?vid=265e9839-5686-442c-9b91-94874b6a24b0"},"vehicle_type_id":"4","last_reported":1687612424,"current_range_meters":0,"station_id":"ce4bho12rcd13ifvqh2g","pricing_plan_id":"free"},{"bike_id":"78e650a7-157a-4d72-872d-3c5b118d4899","system_id":"levelo_inurba_marseille","lat":43.303837,"lon":5.418724,"is_reserved":false,"is_disabled":false,"rental_uris":{"android":"levelo://app?vid=78e650a7-157a-4d72-872d-3c5b118d4899","ios":"levelo://app?vid=78e650a7-157a-4d72-872d-3c5b118d4899"},"vehicle_type_id":"4","last_reported":1687612424,"current_range_meters":24800,"station_id":"ce4bhop2rcd13ifvqh7g","pricing_plan_id":"free"},{"bike_id":"9dcf2228-36a7-4c5b-b1d0-ae308dae8cfd","system_id":"levelo_inurba_marseille","lat":43.303837,"lon":5.418724,"is_reserved":false,"is_disabled":false,"rental_uris":{"android":"levelo://app?vid=9dcf2228-36a7-4c5b-b1d0-ae308dae8cfd","ios":"levelo://app?vid=9dcf2228-36a7-4c5b-b1d0-ae308dae8cfd"},"vehicle_type_id":"4","last_reported":1687612424,"current_range_meters":28000,"station_id":"ce4bhop2rcd13ifvqh7g","pricing_plan_id":"free"},{"bike_id":"d704e506-f359-4682-9cd8-eea6238573db","system_id":"levelo_inurba_marseille","lat":43.303837,"lon":5.418724,"is_reserved":false,"is_disabled":false,"rental_uris":{"android":"levelo://app?vid=d704e506-f359-4682-9cd8-eea6238573db","ios":"levelo://app?vid=d704e506-f359-4682-9cd8-eea6238573db"},"vehicle_type_id":"4","last_reported":1687612424,"current_range_meters":26000,"station_id":"ce4bhop2rcd13ifvqh7g","pricing_plan_id":"free"},{"bike_id":"53727e42-cda1-41d9-9e15-e90f36c6b0d5","system_id":"levelo_inurba_marseille","lat":43.303837,"lon":5.418724,"is_reserved":false,"is_disabled":false,"rental_uris":{"android":"levelo://app?vid=53727e42-cda1-41d9-9e15-e90f36c6b0d5","ios":"levelo://app?vid=53727e42-cda1-41d9-9e15-e90f36c6b0d5"},"vehicle_type_id":"4","last_reported":1687612424,"current_range_meters":12800,"station_id":"ce4bhop2rcd13ifvqh7g","pricing_plan_id":"free"},{"bike_id":"5d60cd9a-4014-4f80-ac0a-701343470b48","system_id":"levelo_inurba_marseille","lat":43.27381,"lon":5.36253,"is_reserved":false,"is_disabled":false,"rental_uris":{"android":"levelo://app?vid=5d60cd9a-4014-4f80-ac0a-701343470b48","ios":"levelo://app?vid=5d60cd9a-4014-4f80-ac0a-701343470b48"},"vehicle_type_id":"4","last_reported":1687612424,"current_range_meters":3200,"station_id":"ce4bhbh2rcd13ifvqeo0","pricing_plan_id":"free"},{"bike_id":"07671372-68ac-49a7-aea8-7eba409585f6","system_id":"levelo_inurba_marseille","lat":43.273613,"lon":5.362705,"is_reserved":false,"is_disabled":false,"rental_uris":{"android":"levelo://app?vid=07671372-68ac-49a7-aea8-7eba409585f6","ios":"levelo://app?vid=07671372-68ac-49a7-aea8-7eba409585f6"},"vehicle_type_id":"4","last_reported":1687612424,"current_range_meters":15200,"station_id":"ce4bhbh2rcd13ifvqeo0","pricing_plan_id":"free"},{"bike_id":"aee2bc11-f975-4296-8bbe-70e68d0c566a","system_id":"levelo_inurba_marseille","lat":43.273613,"lon":5.362705,"is_reserved":false,"is_disabled":false,"rental_uris":{"android":"levelo://app?vid=aee2bc11-f975-4296-8bbe-70e68d0c566a","ios":"levelo://app?vid=aee2bc11-f975-4296-8bbe-70e68d0c566a"},"vehicle_type_id":"4","last_reported":1687612424,"current_range_meters":22000,"station_id":"ce4bhbh2rcd13ifvqeo0","pricing_plan_id":"free"},{"bike_id":"083f3400-7964-4d86-87b5-740fbe29ed20","system_id":"levelo_inurba_marseille","lat":43.27379,"lon":5.36252,"is_reserved":false,"is_disabled":false,"rental_uris":{"android":"levelo://app?vid=083f3400-7964-4d86-87b5-740fbe29ed20","ios":"levelo://app?vid=083f3400-7964-4d86-87b5-740fbe29ed20"},"vehicle_type_id":"4","last_reported":1687612424,"current_range_meters":15600,"station_id":"ce4bhbh2rcd13ifvqeo0","pricing_plan_id":"free"},{"bike_id":"64c4ac0d-ffe2-469c-b0bd-d75164f54046","system_id":"levelo_inurba_marseille","lat":43.273613,"lon":5.362705,"is_reserved":false,"is_disabled":false,"rental_uris":{"android":"levelo://app?vid=64c4ac0d-ffe2-469c-b0bd-d75164f54046","ios":"levelo://app?vid=64c4ac0d-ffe2-469c-b0bd-d75164f54046"},"vehicle_type_id":"4","last_reported":1687612424,"current_range_meters":13600,"station_id":"ce4bhbh2rcd13ifvqeo0","pricing_plan_id":"free"},{"bike_id":"37076e43-3f08-4d29-89d7-62bc0cd52067","system_id":"levelo_inurba_marseille","lat":43.27377,"lon":5.36261,"is_reserved":false,"is_disabled":false,"rental_uris":{"android":"levelo://app?vid=37076e43-3f08-4d29-89d7-62bc0cd52067","ios":"levelo://app?vid=37076e43-3f08-4d29-89d7-62bc0cd52067"},"vehicle_type_id":"4","last_reported":1687612424,"current_range_meters":17200,"station_id":"ce4bhbh2rcd13ifvqeo0","pricing_plan_id":"free"},{"bike_id":"a6dbd9b4-5d0e-46f7-b914-b9b8e204749f","system_id":"levelo_inurba_marseille","lat":43.273613,"lon":5.362705,"is_reserved":false,"is_disabled":false,"rental_uris":{"android":"levelo://app?vid=a6dbd9b4-5d0e-46f7-b914-b9b8e204749f","ios":"levelo://app?vid=a6dbd9b4-5d0e-46f7-b914-b9b8e204749f"},"vehicle_type_id":"4","last_reported":1687612424,"current_range_meters":21600,"station_id":"ce4bhbh2rcd13ifvqeo0","pricing_plan_id":"free"},{"bike_id":"0913d858-3663-4497-b2de-35378c985892","system_id":"levelo_inurba_marseille","lat":43.273613,"lon":5.362705,"is_reserved":false,"is_disabled":false,"rental_uris":{"android":"levelo://app?vid=0913d858-3663-4497-b2de-35378c985892","ios":"levelo://app?vid=0913d858-3663-4497-b2de-35378c985892"},"vehicle_type_id":"4","last_reported":1687612424,"current_range_meters":24400,"station_id":"ce4bhbh2rcd13ifvqeo0","pricing_plan_id":"free"},{"bike_id":"7a5f2a05-33ab-491d-be5d-108bcaa7cd60","system_id":"levelo_inurba_marseille","lat":43.273613,"lon":5.362705,"is_reserved":false,"is_disabled":false,"rental_uris":{"android":"levelo://app?vid=7a5f2a05-33ab-491d-be5d-108bcaa7cd60","ios":"levelo://app?vid=7a5f2a05-33ab-491d-be5d-108bcaa7cd60"},"vehicle_type_id":"4","last_reported":1687612424,"current_range_meters":7200,"station_id":"ce4bhbh2rcd13ifvqeo0","pricing_plan_id":"free"},{"bike_id":"137eef42-c031-46bf-ab28-9bf867b0dbca","system_id":"levelo_inurba_marseille","lat":43.27376,"lon":5.3625,"is_reserved":false,"is_disabled":false,"rental_uris":{"android":"levelo://app?vid=137eef42-c031-46bf-ab28-9bf867b0dbca","ios":"levelo://app?vid=137eef42-c031-46bf-ab28-9bf867b0dbca"},"vehicle_type_id":"4","last_reported":1687612424,"current_range_meters":15200,"station_id":"ce4bhbh2rcd13ifvqeo0","pricing_plan_id":"free"},{"bike_id":"94f1293d-56d3-4adc-98e9-2c48a3b93f02","system_id":"levelo_inurba_marseille","lat":43.273613,"lon":5.362705,"is_reserved":false,"is_disabled":false,"rental_uris":{"android":"levelo://app?vid=94f1293d-56d3-4adc-98e9-2c48a3b93f02","ios":"levelo://app?vid=94f1293d-56d3-4adc-98e9-2c48a3b93f02"},"vehicle_type_id":"4","last_reported":1687612424,"current_range_meters":6400,"station_id":"ce4bhbh2rcd13ifvqeo0","pricing_plan_id":"free"},{"bike_id":"13445ec0-d9e3-4f5d-b9b1-4d19c78ecae9","system_id":"levelo_inurba_marseille","lat":43.273613,"lon":5.362705,"is_reserved":false,"is_disabled":false,"rental_uris":{"android":"levelo://app?vid=13445ec0-d9e3-4f5d-b9b1-4d19c78ecae9","ios":"levelo://app?vid=13445ec0-d9e3-4f5d-b9b1-4d19c78ecae9"},"vehicle_type_id":"4","last_reported":1687612424,"current_range_meters":6800,"station_id":"ce4bhbh2rcd13ifvqeo0","pricing_plan_id":"free"},{"bike_id":"bb6acc4e-e5c2-431a-bb95-b7290824b0fc","system_id":"levelo_inurba_marseille","lat":43.273609,"lon":5.362708,"is_reserved":false,"is_disabled":false,"rental_uris":{"android":"levelo://app?vid=bb6acc4e-e5c2-431a-bb95-b7290824b0fc","ios":"levelo://app?vid=bb6acc4e-e5c2-431a-bb95-b7290824b0fc"},"vehicle_type_id":"4","last_reported":1687612424,"current_range_meters":11200,"station_id":"ce4bhbh2rcd13ifvqeo0","pricing_plan_id":"free"},{"bike_id":"5a224d26-8ced-42c1-9e9d-998616494d4e","system_id":"levelo_inurba_marseille","lat":43.273609,"lon":5.362708,"is_reserved":false,"is_disabled":false,"rental_uris":{"android":"levelo://app?vid=5a224d26-8ced-42c1-9e9d-998616494d4e","ios":"levelo://app?vid=5a224d26-8ced-42c1-9e9d-998616494d4e"},"vehicle_type_id":"4","last_reported":1687612424,"current_range_meters":28000,"station_id":"ce4bhbh2rcd13ifvqeo0","pricing_plan_id":"free"},{"bike_id":"62a68779-48fa-4337-b50d-2a8aee14a2a4","system_id":"levelo_inurba_marseille","lat":43.27567,"lon":5.38418,"is_reserved":false,"is_disabled":false,"rental_uris":{"android":"levelo://app?vid=62a68779-48fa-4337-b50d-2a8aee14a2a4","ios":"levelo://app?vid=62a68779-48fa-4337-b50d-2a8aee14a2a4"},"vehicle_type_id":"4","last_reported":1687612424,"current_range_meters":0,"station_id":"ce4bhh92rcd13ifvqfi0","pricing_plan_id":"free"},{"bike_id":"71d94b29-418c-41e4-9540-8a47e0b675c9","system_id":"levelo_inurba_marseille","lat":43.273613,"lon":5.362705,"is_reserved":false,"is_disabled":false,"rental_uris":{"android":"levelo://app?vid=71d94b29-418c-41e4-9540-8a47e0b675c9","ios":"levelo://app?vid=71d94b29-418c-41e4-9540-8a47e0b675c9"},"vehicle_type_id":"4","last_reported":1687612424,"current_range_meters":23600,"station_id":"ce4bhbh2rcd13ifvqeo0","pricing_plan_id":"free"},{"bike_id":"bf6367b2-484b-4a74-afce-302e8e859df3","system_id":"levelo_inurba_marseille","lat":43.273613,"lon":5.362705,"is_reserved":false,"is_disabled":false,"rental_uris":{"android":"levelo://app?vid=bf6367b2-484b-4a74-afce-302e8e859df3","ios":"levelo://app?vid=bf6367b2-484b-4a74-afce-302e8e859df3"},"vehicle_type_id":"4","last_reported":1687612424,"current_range_meters":32000,"station_id":"ce4bhbh2rcd13ifvqeo0","pricing_plan_id":"free"},{"bike_id":"d60832f5-4d74-4884-a682-017c832e1676","system_id":"levelo_inurba_marseille","lat":43.33612,"lon":5.410321,"is_reserved":false,"is_disabled":false,"rental_uris":{"android":"levelo://app?vid=d60832f5-4d74-4884-a682-017c832e1676","ios":"levelo://app?vid=d60832f5-4d74-4884-a682-017c832e1676"},"vehicle_type_id":"4","last_reported":1687612424,"current_range_meters":31200,"station_id":"ce4bhqh2rcd13ifvqhmg","pricing_plan_id":"free"},{"bike_id":"11646277-3de0-41e6-93b5-099e8d9f1696","system_id":"levelo_inurba_marseille","lat":43.273609,"lon":5.362708,"is_reserved":false,"is_disabled":false,"rental_uris":{"android":"levelo://app?vid=11646277-3de0-41e6-93b5-099e8d9f1696","ios":"levelo://app?vid=11646277-3de0-41e6-93b5-099e8d9f1696"},"vehicle_type_id":"4","last_reported":1687612424,"current_range_meters":32000,"station_id":"ce4bhbh2rcd13ifvqeo0","pricing_plan_id":"free"},{"bike_id":"1e080dad-9563-450f-9182-6068e837aad4","system_id":"levelo_inurba_marseille","lat":43.273613,"lon":5.362705,"is_reserved":false,"is_disabled":false,"rental_uris":{"android":"levelo://app?vid=1e080dad-9563-450f-9182-6068e837aad4","ios":"levelo://app?vid=1e080dad-9563-450f-9182-6068e837aad4"},"vehicle_type_id":"4","last_reported":1687612424,"current_range_meters":11200,"station_id":"ce4bhbh2rcd13ifvqeo0","pricing_plan_id":"free"},{"bike_id":"bd9bcbdd-8d23-4f19-8514-4f63044abb45","system_id":"levelo_inurba_marseille","lat":43.273609,"lon":5.362708,"is_reserved":false,"is_disabled":false,"rental_uris":{"android":"levelo://app?vid=bd9bcbdd-8d23-4f19-8514-4f63044abb45","ios":"levelo://app?vid=bd9bcbdd-8d23-4f19-8514-4f63044abb45"},"vehicle_type_id":"4","last_reported":1687612424,"current_range_meters":28800,"station_id":"ce4bhbh2rcd13ifvqeo0","pricing_plan_id":"free"},{"bike_id":"624eac60-cf0b-48eb-a7e9-8f6235cc6d83","system_id":"levelo_inurba_marseille","lat":43.273609,"lon":5.362708,"is_reserved":false,"is_disabled":false,"rental_uris":{"android":"levelo://app?vid=624eac60-cf0b-48eb-a7e9-8f6235cc6d83","ios":"levelo://app?vid=624eac60-cf0b-48eb-a7e9-8f6235cc6d83"},"vehicle_type_id":"4","last_reported":1687612424,"current_range_meters":32000,"station_id":"ce4bhbh2rcd13ifvqeo0","pricing_plan_id":"free"},{"bike_id":"abeea9fa-728c-4549-950f-7e92e5701e70","system_id":"levelo_inurba_marseille","lat":43.273609,"lon":5.362708,"is_reserved":false,"is_disabled":false,"rental_uris":{"android":"levelo://app?vid=abeea9fa-728c-4549-950f-7e92e5701e70","ios":"levelo://app?vid=abeea9fa-728c-4549-950f-7e92e5701e70"},"vehicle_type_id":"4","last_reported":1687612424,"current_range_meters":31200,"station_id":"ce4bhbh2rcd13ifvqeo0","pricing_plan_id":"free"},{"bike_id":"92cd2f89-9964-4d0c-8664-94290848e6ba","system_id":"levelo_inurba_marseille","lat":43.273609,"lon":5.362708,"is_reserved":false,"is_disabled":false,"rental_uris":{"android":"levelo://app?vid=92cd2f89-9964-4d0c-8664-94290848e6ba","ios":"levelo://app?vid=92cd2f89-9964-4d0c-8664-94290848e6ba"},"vehicle_type_id":"4","last_reported":1687612424,"current_range_meters":15600,"station_id":"ce4bhbh2rcd13ifvqeo0","pricing_plan_id":"free"},{"bike_id":"f5d48d7a-49bb-4e30-aaf1-3f296f18d938","system_id":"levelo_inurba_marseille","lat":43.273609,"lon":5.362708,"is_reserved":false,"is_disabled":false,"rental_uris":{"android":"levelo://app?vid=f5d48d7a-49bb-4e30-aaf1-3f296f18d938","ios":"levelo://app?vid=f5d48d7a-49bb-4e30-aaf1-3f296f18d938"},"vehicle_type_id":"4","last_reported":1687612424,"current_range_meters":24800,"station_id":"ce4bhbh2rcd13ifvqeo0","pricing_plan_id":"free"},{"bike_id":"f78fbdcb-08ef-4dbc-b210-895645c96633","system_id":"levelo_inurba_marseille","lat":43.273613,"lon":5.362705,"is_reserved":false,"is_disabled":false,"rental_uris":{"android":"levelo://app?vid=f78fbdcb-08ef-4dbc-b210-895645c96633","ios":"levelo://app?vid=f78fbdcb-08ef-4dbc-b210-895645c96633"},"vehicle_type_id":"4","last_reported":1687612424,"current_range_meters":32000,"station_id":"ce4bhbh2rcd13ifvqeo0","pricing_plan_id":"free"},{"bike_id":"38118899-2064-4d4b-94e9-26d9e04d01da","system_id":"levelo_inurba_marseille","lat":43.273609,"lon":5.362708,"is_reserved":false,"is_disabled":false,"rental_uris":{"android":"levelo://app?vid=38118899-2064-4d4b-94e9-26d9e04d01da","ios":"levelo://app?vid=38118899-2064-4d4b-94e9-26d9e04d01da"},"vehicle_type_id":"4","last_reported":1687612424,"current_range_meters":23600,"station_id":"ce4bhbh2rcd13ifvqeo0","pricing_plan_id":"free"},{"bike_id":"18f3f0db-9283-405d-965c-bcbb0793f933","system_id":"levelo_inurba_marseille","lat":43.273609,"lon":5.362708,"is_reserved":false,"is_disabled":false,"rental_uris":{"android":"levelo://app?vid=18f3f0db-9283-405d-965c-bcbb0793f933","ios":"levelo://app?vid=18f3f0db-9283-405d-965c-bcbb0793f933"},"vehicle_type_id":"4","last_reported":1687612424,"current_range_meters":30000,"station_id":"ce4bhbh2rcd13ifvqeo0","pricing_plan_id":"free"},{"bike_id":"17ae740a-0cf7-4672-8e6a-2681eb5e87d4","system_id":"levelo_inurba_marseille","lat":43.273648,"lon":5.362502,"is_reserved":false,"is_disabled":false,"rental_uris":{"android":"levelo://app?vid=17ae740a-0cf7-4672-8e6a-2681eb5e87d4","ios":"levelo://app?vid=17ae740a-0cf7-4672-8e6a-2681eb5e87d4"},"vehicle_type_id":"4","last_reported":1687612424,"current_range_meters":25200,"station_id":"ce4bhbh2rcd13ifvqeo0","pricing_plan_id":"free"},{"bike_id":"da569050-2492-4700-8b3c-289f50cc44e7","system_id":"levelo_inurba_marseille","lat":43.33612,"lon":5.41023,"is_reserved":false,"is_disabled":false,"rental_uris":{"android":"levelo://app?vid=da569050-2492-4700-8b3c-289f50cc44e7","ios":"levelo://app?vid=da569050-2492-4700-8b3c-289f50cc44e7"},"vehicle_type_id":"4","last_reported":1687612424,"current_range_meters":16400,"station_id":"ce4bhqh2rcd13ifvqhmg","pricing_plan_id":"free"},{"bike_id":"3ba219a1-bfce-4511-aabc-9eec4d3607c8","system_id":"levelo_inurba_marseille","lat":43.336134,"lon":5.410341,"is_reserved":false,"is_disabled":false,"rental_uris":{"android":"levelo://app?vid=3ba219a1-bfce-4511-aabc-9eec4d3607c8","ios":"levelo://app?vid=3ba219a1-bfce-4511-aabc-9eec4d3607c8"},"vehicle_type_id":"4","last_reported":1687612424,"current_range_meters":31200,"station_id":"ce4bhqh2rcd13ifvqhmg","pricing_plan_id":"free"},{"bike_id":"caad2176-2282-4855-8c38-34443d645d84","system_id":"levelo_inurba_marseille","lat":43.33612,"lon":5.410321,"is_reserved":false,"is_disabled":false,"rental_uris":{"android":"levelo://app?vid=caad2176-2282-4855-8c38-34443d645d84","ios":"levelo://app?vid=caad2176-2282-4855-8c38-34443d645d84"},"vehicle_type_id":"4","last_reported":1687612424,"current_range_meters":31200,"station_id":"ce4bhqh2rcd13ifvqhmg","pricing_plan_id":"free"},{"bike_id":"75396852-52a9-4ee7-be03-c9ac43c5d4bb","system_id":"levelo_inurba_marseille","lat":43.336134,"lon":5.410341,"is_reserved":false,"is_disabled":false,"rental_uris":{"android":"levelo://app?vid=75396852-52a9-4ee7-be03-c9ac43c5d4bb","ios":"levelo://app?vid=75396852-52a9-4ee7-be03-c9ac43c5d4bb"},"vehicle_type_id":"4","last_reported":1687612424,"current_range_meters":31200,"station_id":"ce4bhqh2rcd13ifvqhmg","pricing_plan_id":"free"},{"bike_id":"421b13e9-e21e-487d-9b2e-479d298401ba","system_id":"levelo_inurba_marseille","lat":43.33613,"lon":5.41036,"is_reserved":false,"is_disabled":false,"rental_uris":{"android":"levelo://app?vid=421b13e9-e21e-487d-9b2e-479d298401ba","ios":"levelo://app?vid=421b13e9-e21e-487d-9b2e-479d298401ba"},"vehicle_type_id":"4","last_reported":1687612424,"current_range_meters":26000,"station_id":"ce4bhqh2rcd13ifvqhmg","pricing_plan_id":"free"},{"bike_id":"c6b3935a-6e04-4d83-a55b-fcc228882994","system_id":"levelo_inurba_marseille","lat":43.30584,"lon":5.42238,"is_reserved":false,"is_disabled":false,"rental_uris":{"android":"levelo://app?vid=c6b3935a-6e04-4d83-a55b-fcc228882994","ios":"levelo://app?vid=c6b3935a-6e04-4d83-a55b-fcc228882994"},"vehicle_type_id":"4","last_reported":1687612424,"current_range_meters":0,"station_id":"","pricing_plan_id":"free"},{"bike_id":"ef60ee1b-9259-4ac5-a17b-d8159f81c5d0","system_id":"levelo_inurba_marseille","lat":43.317121,"lon":5.423936,"is_reserved":false,"is_disabled":false,"rental_uris":{"android":"levelo://app?vid=ef60ee1b-9259-4ac5-a17b-d8159f81c5d0","ios":"levelo://app?vid=ef60ee1b-9259-4ac5-a17b-d8159f81c5d0"},"vehicle_type_id":"4","last_reported":1687612424,"current_range_meters":31600,"station_id":"ce4bhp92rcd13ifvqhbg","pricing_plan_id":"free"},{"bike_id":"a5af5e7f-d669-412d-8386-b234202ce058","system_id":"levelo_inurba_marseille","lat":43.317121,"lon":5.423936,"is_reserved":false,"is_disabled":false,"rental_uris":{"android":"levelo://app?vid=a5af5e7f-d669-412d-8386-b234202ce058","ios":"levelo://app?vid=a5af5e7f-d669-412d-8386-b234202ce058"},"vehicle_type_id":"4","last_reported":1687612424,"current_range_meters":31200,"station_id":"ce4bhp92rcd13ifvqhbg","pricing_plan_id":"free"},{"bike_id":"48fc22d5-0c9a-4999-bc9e-78c030f85154","system_id":"levelo_inurba_marseille","lat":43.317121,"lon":5.423936,"is_reserved":false,"is_disabled":false,"rental_uris":{"android":"levelo://app?vid=48fc22d5-0c9a-4999-bc9e-78c030f85154","ios":"levelo://app?vid=48fc22d5-0c9a-4999-bc9e-78c030f85154"},"vehicle_type_id":"4","last_reported":1687612424,"current_range_meters":16000,"station_id":"ce4bhp92rcd13ifvqhbg","pricing_plan_id":"free"},{"bike_id":"dd35c8c4-372d-43a8-9ab0-dc800a767a7e","system_id":"levelo_inurba_marseille","lat":43.310785,"lon":5.424305,"is_reserved":false,"is_disabled":false,"rental_uris":{"android":"levelo://app?vid=dd35c8c4-372d-43a8-9ab0-dc800a767a7e","ios":"levelo://app?vid=dd35c8c4-372d-43a8-9ab0-dc800a767a7e"},"vehicle_type_id":"4","last_reported":1687612424,"current_range_meters":30000,"station_id":"ce4bhp92rcd13ifvqhag","pricing_plan_id":"free"},{"bike_id":"d0061ac5-9742-4a0c-aaf3-7f03ef588c42","system_id":"levelo_inurba_marseille","lat":43.27591,"lon":5.39487,"is_reserved":false,"is_disabled":false,"rental_uris":{"android":"levelo://app?vid=d0061ac5-9742-4a0c-aaf3-7f03ef588c42","ios":"levelo://app?vid=d0061ac5-9742-4a0c-aaf3-7f03ef588c42"},"vehicle_type_id":"4","last_reported":1687612424,"current_range_meters":15600,"station_id":"","pricing_plan_id":"free"},{"bike_id":"6704442f-a4e5-4764-99eb-7119bd35ec5c","system_id":"levelo_inurba_marseille","lat":43.273125,"lon":5.390731,"is_reserved":false,"is_disabled":false,"rental_uris":{"android":"levelo://app?vid=6704442f-a4e5-4764-99eb-7119bd35ec5c","ios":"levelo://app?vid=6704442f-a4e5-4764-99eb-7119bd35ec5c"},"vehicle_type_id":"4","last_reported":1687612424,"current_range_meters":3200,"station_id":"ce4bhgp2rcd13ifvqfe0","pricing_plan_id":"free"},{"bike_id":"01208fbe-9431-4ed6-ac1f-e90329c35bdb","system_id":"levelo_inurba_marseille","lat":43.26955,"lon":5.36633,"is_reserved":false,"is_disabled":false,"rental_uris":{"android":"levelo://app?vid=01208fbe-9431-4ed6-ac1f-e90329c35bdb","ios":"levelo://app?vid=01208fbe-9431-4ed6-ac1f-e90329c35bdb"},"vehicle_type_id":"4","last_reported":1687612424,"current_range_meters":3600,"station_id":"","pricing_plan_id":"free"},{"bike_id":"e416fd72-8289-4f16-9193-92b10d228523","system_id":"levelo_inurba_marseille","lat":43.27418,"lon":5.39409,"is_reserved":false,"is_disabled":false,"rental_uris":{"android":"levelo://app?vid=e416fd72-8289-4f16-9193-92b10d228523","ios":"levelo://app?vid=e416fd72-8289-4f16-9193-92b10d228523"},"vehicle_type_id":"4","last_reported":1687612424,"current_range_meters":0,"station_id":"","pricing_plan_id":"free"},{"bike_id":"43e65502-6f04-4676-924d-a5f56269c263","system_id":"levelo_inurba_marseille","lat":43.304096,"lon":5.425385,"is_reserved":false,"is_disabled":false,"rental_uris":{"android":"levelo://app?vid=43e65502-6f04-4676-924d-a5f56269c263","ios":"levelo://app?vid=43e65502-6f04-4676-924d-a5f56269c263"},"vehicle_type_id":"4","last_reported":1687612424,"current_range_meters":6800,"station_id":"ce4bhoh2rcd13ifvqh6g","pricing_plan_id":"free"},{"bike_id":"3da22b33-3700-4ebe-b0a2-31d55fd6f719","system_id":"levelo_inurba_marseille","lat":43.304088,"lon":5.425388,"is_reserved":false,"is_disabled":false,"rental_uris":{"android":"levelo://app?vid=3da22b33-3700-4ebe-b0a2-31d55fd6f719","ios":"levelo://app?vid=3da22b33-3700-4ebe-b0a2-31d55fd6f719"},"vehicle_type_id":"4","last_reported":1687612424,"current_range_meters":28400,"station_id":"ce4bhoh2rcd13ifvqh6g","pricing_plan_id":"free"},{"bike_id":"30c2ef91-98e0-4712-8342-0913837d2124","system_id":"levelo_inurba_marseille","lat":43.295511,"lon":5.422926,"is_reserved":false,"is_disabled":false,"rental_uris":{"android":"levelo://app?vid=30c2ef91-98e0-4712-8342-0913837d2124","ios":"levelo://app?vid=30c2ef91-98e0-4712-8342-0913837d2124"},"vehicle_type_id":"4","last_reported":1687612424,"current_range_meters":28400,"station_id":"ce4bhph2rcd13ifvqhdg","pricing_plan_id":"free"},{"bike_id":"f2172cdf-46b2-407f-b934-da33580c2309","system_id":"levelo_inurba_marseille","lat":43.295511,"lon":5.422926,"is_reserved":false,"is_disabled":false,"rental_uris":{"android":"levelo://app?vid=f2172cdf-46b2-407f-b934-da33580c2309","ios":"levelo://app?vid=f2172cdf-46b2-407f-b934-da33580c2309"},"vehicle_type_id":"4","last_reported":1687612424,"current_range_meters":16400,"station_id":"ce4bhph2rcd13ifvqhdg","pricing_plan_id":"free"},{"bike_id":"4fa21102-9c5c-4785-8da0-3d7f957b0c31","system_id":"levelo_inurba_marseille","lat":43.27213,"lon":5.39183,"is_reserved":false,"is_disabled":false,"rental_uris":{"android":"levelo://app?vid=4fa21102-9c5c-4785-8da0-3d7f957b0c31","ios":"levelo://app?vid=4fa21102-9c5c-4785-8da0-3d7f957b0c31"},"vehicle_type_id":"4","last_reported":1687612424,"current_range_meters":30800,"station_id":"ce4bhhp2rcd13ifvqfm0","pricing_plan_id":"free"},{"bike_id":"f296d274-299c-4660-bf81-4c5369eff000","system_id":"levelo_inurba_marseille","lat":43.27203,"lon":5.39191,"is_reserved":false,"is_disabled":false,"rental_uris":{"android":"levelo://app?vid=f296d274-299c-4660-bf81-4c5369eff000","ios":"levelo://app?vid=f296d274-299c-4660-bf81-4c5369eff000"},"vehicle_type_id":"4","last_reported":1687612424,"current_range_meters":20000,"station_id":"ce4bhhp2rcd13ifvqfm0","pricing_plan_id":"free"},{"bike_id":"ca85f6c1-4ce0-48af-8061-d5ac4281084d","system_id":"levelo_inurba_marseille","lat":43.278128,"lon":5.407195,"is_reserved":false,"is_disabled":false,"rental_uris":{"android":"levelo://app?vid=ca85f6c1-4ce0-48af-8061-d5ac4281084d","ios":"levelo://app?vid=ca85f6c1-4ce0-48af-8061-d5ac4281084d"},"vehicle_type_id":"4","last_reported":1687612424,"current_range_meters":22800,"station_id":"ce4bhnh2rcd13ifvqgtg","pricing_plan_id":"free"},{"bike_id":"1bba5890-b4a9-403b-9437-1ddcd2422497","system_id":"levelo_inurba_marseille","lat":43.26956,"lon":5.3863,"is_reserved":false,"is_disabled":false,"rental_uris":{"android":"levelo://app?vid=1bba5890-b4a9-403b-9437-1ddcd2422497","ios":"levelo://app?vid=1bba5890-b4a9-403b-9437-1ddcd2422497"},"vehicle_type_id":"4","last_reported":1687612424,"current_range_meters":14800,"station_id":"ce4bhh92rcd13ifvqfh0","pricing_plan_id":"free"},{"bike_id":"7422f1bd-980a-4043-8833-6a75c5cdef54","system_id":"levelo_inurba_marseille","lat":43.269319,"lon":5.389397,"is_reserved":false,"is_disabled":false,"rental_uris":{"android":"levelo://app?vid=7422f1bd-980a-4043-8833-6a75c5cdef54","ios":"levelo://app?vid=7422f1bd-980a-4043-8833-6a75c5cdef54"},"vehicle_type_id":"4","last_reported":1687612424,"current_range_meters":23600,"station_id":"ce4bhhh2rcd13ifvqfl0","pricing_plan_id":"free"},{"bike_id":"657f4a82-bd5f-4936-ad99-4adcc0877861","system_id":"levelo_inurba_marseille","lat":43.27996,"lon":5.416624,"is_reserved":false,"is_disabled":false,"rental_uris":{"android":"levelo://app?vid=657f4a82-bd5f-4936-ad99-4adcc0877861","ios":"levelo://app?vid=657f4a82-bd5f-4936-ad99-4adcc0877861"},"vehicle_type_id":"4","last_reported":1687612424,"current_range_meters":31200,"station_id":"ce4bho12rcd13ifvqh1g","pricing_plan_id":"free"},{"bike_id":"012a14d4-c419-4d36-8d45-bd73980bbd92","system_id":"levelo_inurba_marseille","lat":43.267966,"lon":5.393976,"is_reserved":false,"is_disabled":false,"rental_uris":{"android":"levelo://app?vid=012a14d4-c419-4d36-8d45-bd73980bbd92","ios":"levelo://app?vid=012a14d4-c419-4d36-8d45-bd73980bbd92"},"vehicle_type_id":"4","last_reported":1687612424,"current_range_meters":18000,"station_id":"ce4bhh12rcd13ifvqfg0","pricing_plan_id":"free"},{"bike_id":"5a7df577-55ad-4c08-ac4b-a5dd6f62059e","system_id":"levelo_inurba_marseille","lat":43.267966,"lon":5.393976,"is_reserved":false,"is_disabled":false,"rental_uris":{"android":"levelo://app?vid=5a7df577-55ad-4c08-ac4b-a5dd6f62059e","ios":"levelo://app?vid=5a7df577-55ad-4c08-ac4b-a5dd6f62059e"},"vehicle_type_id":"4","last_reported":1687612424,"current_range_meters":15600,"station_id":"ce4bhh12rcd13ifvqfg0","pricing_plan_id":"free"},{"bike_id":"942b124e-6d26-4db5-8fbc-a441a9bdae10","system_id":"levelo_inurba_marseille","lat":43.26779,"lon":5.39416,"is_reserved":false,"is_disabled":false,"rental_uris":{"android":"levelo://app?vid=942b124e-6d26-4db5-8fbc-a441a9bdae10","ios":"levelo://app?vid=942b124e-6d26-4db5-8fbc-a441a9bdae10"},"vehicle_type_id":"4","last_reported":1687612424,"current_range_meters":14000,"station_id":"ce4bhh12rcd13ifvqfg0","pricing_plan_id":"free"},{"bike_id":"5b655a4e-21e3-40fe-a116-771f2ceeb50a","system_id":"levelo_inurba_marseille","lat":43.308051,"lon":5.43527,"is_reserved":false,"is_disabled":false,"rental_uris":{"android":"levelo://app?vid=5b655a4e-21e3-40fe-a116-771f2ceeb50a","ios":"levelo://app?vid=5b655a4e-21e3-40fe-a116-771f2ceeb50a"},"vehicle_type_id":"4","last_reported":1687612424,"current_range_meters":28000,"station_id":"ce4bhph2rcd13ifvqheg","pricing_plan_id":"free"},{"bike_id":"314ba889-f58f-40c0-a3d2-e94eea3f88a9","system_id":"levelo_inurba_marseille","lat":43.308051,"lon":5.43527,"is_reserved":false,"is_disabled":false,"rental_uris":{"android":"levelo://app?vid=314ba889-f58f-40c0-a3d2-e94eea3f88a9","ios":"levelo://app?vid=314ba889-f58f-40c0-a3d2-e94eea3f88a9"},"vehicle_type_id":"4","last_reported":1687612424,"current_range_meters":25200,"station_id":"ce4bhph2rcd13ifvqheg","pricing_plan_id":"free"},{"bike_id":"5df1d586-4c0e-4d46-923d-e5d0fee8b312","system_id":"levelo_inurba_marseille","lat":43.30797,"lon":5.43525,"is_reserved":false,"is_disabled":false,"rental_uris":{"android":"levelo://app?vid=5df1d586-4c0e-4d46-923d-e5d0fee8b312","ios":"levelo://app?vid=5df1d586-4c0e-4d46-923d-e5d0fee8b312"},"vehicle_type_id":"4","last_reported":1687612424,"current_range_meters":23200,"station_id":"ce4bhph2rcd13ifvqheg","pricing_plan_id":"free"},{"bike_id":"fd5fbafb-8404-4ea9-9b6e-daa5aa9ed3cd","system_id":"levelo_inurba_marseille","lat":43.265569,"lon":5.390047,"is_reserved":false,"is_disabled":false,"rental_uris":{"android":"levelo://app?vid=fd5fbafb-8404-4ea9-9b6e-daa5aa9ed3cd","ios":"levelo://app?vid=fd5fbafb-8404-4ea9-9b6e-daa5aa9ed3cd"},"vehicle_type_id":"4","last_reported":1687612424,"current_range_meters":1200,"station_id":"ce4bhe12rcd13ifvqf30","pricing_plan_id":"free"},