{"last_updated":1741028842,"ttl":60,"version":"2.2","data":{"bikes":[{"bike_id":"1cb9cb6c-c5d2-4e01-80f1-dca100101b75","system_id":"levelo_inurba_marseille","lat":43.30239,"lon":5.40048,"is_reserved":false,"is_disabled":true,"rental_uris":{"android":"levelo://app?vid=1cb9cb6c-c5d2-4e01-80f1-dca100101b75","ios":"levelo://app?vid=1cb9cb6c-c5d2-4e01-80f1-dca100101b75"},"vehicle_type_id":"4","last_reported":1741028843,"current_range_meters":2800,"station_id":"ce4bgvh2rcd13ifvqcs0","pricing_plan_id":"cebpf4jnsgd1na2vs0mg"},{"bike_id":"c98ace63-f039-49c0-9cf5-ae6e73f28f6e","system_id":"levelo_inurba_marseille","lat":43.28169,"lon":5.42629,"is_reserved":false,"is_disabled":true,"rental_uris":{"android":"levelo://app?vid=c98ace63-f039-49c0-9cf5-ae6e73f28f6e","ios":"levelo://app?vid=c98ace63-f039-49c0-9cf5-ae6e73f28f6e"},"vehicle_type_id":"4","last_reported":1741028843,"current_range_meters":2800,"station_id":"ce4bhnh2rcd13ifvqgug","pricing_plan_id":"cebpf4jnsgd1na2vs0mg"},{"bike_id":"c30ed274-d387-479d-b02e-c71b1d069bc7","system_id":"levelo_inurba_marseille","lat":43.2811,"lon":5.37833,"is_reserved":false,"is_disabled":false,"rental_uris":{"android":"levelo://app?vid=c30ed274-d387-479d-b02e-c71b1d069bc7","ios":"levelo://app?vid=c30ed274-d387-479d-b02e-c71b1d069bc7"},"vehicle_type_id":"4","last_reported":1741028843,"current_range_meters":2800,"station_id":"ce4bha12rcd13ifvqee0","pricing_plan_id":"cebpf4jnsgd1na2vs0mg"},{"bike_id":"ff324a05-3631-455c-9c3c-b1d560cb2ddf","system_id":"levelo_inurba_marseille","lat":43.27311,"lon":5.39105,"is_reserved":false,"is_disabled":false,"rental_uris":{"android":"levelo://app?vid=ff324a05-3631-455c-9c3c-b1d560cb2ddf","ios":"levelo://app?vid=ff324a05-3631-455c-9c3c-b1d560cb2ddf"},"vehicle_type_id":"4","last_reported":1741028843,"current_range_meters":2800,"station_id":"ce4bhgp2rcd13ifvqfe0","pricing_plan_id":"cebpf4jnsgd1na2vs0mg"},{"bike_id":"b6f1cc23-9854-4734-b28b-d72c4a7d7047","system_id":"levelo_inurba_marseille","lat":43.30936,"lon":5.401437,"is_reserved":false,"is_disabled":false,"rental_uris":{"android":"levelo://app?vid=b6f1cc23-9854-4734-b28b-d72c4a7d7047","ios":"levelo://app?vid=b6f1cc23-9854-4734-b28b-d72c4a7d7047"},"vehicle_type_id":"4","last_reported":1741028843,"current_range_meters":2800,"station_id":"ce4bgvp2rcd13ifvqct0","pricing_plan_id":"cebpf4jnsgd1na2vs0mg"},{"bike_id":"b73a6a6c-2ccd-44a4-8309-0915095570f3","system_id":"levelo_inurba_marseille","lat":43.28658,"lon":5.36363,"is_reserved":false,"is_disabled":false,"rental_uris":{"android":"levelo://app?vid=b73a6a6c-2ccd-44a4-8309-0915095570f3","ios":"levelo://app?vid=b73a6a6c-2ccd-44a4-8309-0915095570f3"},"vehicle_type_id":"4","last_reported":1741028843,"current_range_meters":2800,"station_id":"ce4bhah2rcd13ifvqej0","pricing_plan_id":"cebpf4jnsgd1na2vs0mg"},{"bike_id":"7b7d562a-7293-48aa-a575-a77b95b76d6a","system_id":"levelo_inurba_marseille","lat":43.28677,"lon":5.38675,"is_reserved":false,"is_disabled":false,"rental_uris":{"android":"levelo://app?vid=7b7d562a-7293-48aa-a575-a77b95b76d6a","ios":"levelo://app?vid=7b7d562a-7293-48aa-a575-a77b95b76d6a"},"vehicle_type_id":"4","last_reported":1741028843,"current_range_meters":2800,"station_id":"ce4bh492rcd13ifvqdug","pricing_plan_id":"cebpf4jnsgd1na2vs0mg"},{"bike_id":"c6f71329-013b-4494-959e-8d659c1784d9","system_id":"levelo_inurba_marseille","lat":43.28941,"lon":5.36634,"is_reserved":false,"is_disabled":false,"rental_uris":{"android":"levelo://app?vid=c6f71329-013b-4494-959e-8d659c1784d9","ios":"levelo://app?vid=c6f71329-013b-4494-959e-8d659c1784d9"},"vehicle_type_id":"4","last_reported":1741028843,"current_range_meters":3200,"station_id":"ce4bhap2rcd13ifvqek0","pricing_plan_id":"cebpf4jnsgd1na2vs0mg"},{"bike_id":"ee03f83b-3694-42cc-a671-e03a150a1798","system_id":"levelo_inurba_marseille","lat":43.24619,"lon":5.41969,"is_reserved":false,"is_disabled":false,"rental_uris":{"android":"levelo://app?vid=ee03f83b-3694-42cc-a671-e03a150a1798","ios":"levelo://app?vid=ee03f83b-3694-42cc-a671-e03a150a1798"},"vehicle_type_id":"4","last_reported":1741028843,"current_range_meters":3200,"station_id":"","pricing_plan_id":"cebpf4jnsgd1na2vs0mg"},{"bike_id":"26350f2f-54a6-49a6-9b9f-9776dbf53608","system_id":"levelo_inurba_marseille","lat":43.290017,"lon":5.356135,"is_reserved":false,"is_disabled":false,"rental_uris":{"android":"levelo://app?vid=26350f2f-54a6-49a6-9b9f-9776dbf53608","ios":"levelo://app?vid=26350f2f-54a6-49a6-9b9f-9776dbf53608"},"vehicle_type_id":"4","last_reported":1741028843,"current_range_meters":3200,"station_id":"","pricing_plan_id":"cebpf4jnsgd1na2vs0mg"},{"bike_id":"5658ebdb-8ef1-47a9-84b7-5a8b995e4fb9","system_id":"levelo_inurba_marseille","lat":43.298,"lon":5.40394,"is_reserved":false,"is_disabled":false,"rental_uris":{"android":"levelo://app?vid=5658ebdb-8ef1-47a9-84b7-5a8b995e4fb9","ios":"levelo://app?vid=5658ebdb-8ef1-47a9-84b7-5a8b995e4fb9"},"vehicle_type_id":"4","last_reported":1741028843,"current_range_meters":3600,"station_id":"ce4bh112rcd13ifvqd90","pricing_plan_id":"cebpf4jnsgd1na2vs0mg"},{"bike_id":"285fcbe9-02c4-48b1-acbe-4d2f1bfb4a7a","system_id":"levelo_inurba_marseille","lat":43.26566,"lon":5.3905,"is_reserved":false,"is_disabled":false,"rental_uris":{"android":"levelo://app?vid=285fcbe9-02c4-48b1-acbe-4d2f1bfb4a7a","ios":"levelo://app?vid=285fcbe9-02c4-48b1-acbe-4d2f1bfb4a7a"},"vehicle_type_id":"4","last_reported":1741028843,"current_range_meters":3600,"station_id":"ce4bhe12rcd13ifvqf30","pricing_plan_id":"cebpf4jnsgd1na2vs0mg"},{"bike_id":"0b67d736-8352-49e9-a708-084ebe63b3d3","system_id":"levelo_inurba_marseille","lat":43.26938,"lon":5.40264,"is_reserved":false,"is_disabled":false,"rental_uris":{"android":"levelo://app?vid=0b67d736-8352-49e9-a708-084ebe63b3d3","ios":"levelo://app?vid=0b67d736-8352-49e9-a708-084ebe63b3d3"},"vehicle_type_id":"4","last_reported":1741028843,"current_range_meters":5600,"station_id":"cjm6bp8fraef2m0cb0m0","pricing_plan_id":"cebpf4jnsgd1na2vs0mg"},{"bike_id":"66139c24-6a12-4709-9f49-696d98febbca","system_id":"levelo_inurba_marseille","lat":43.24389,"lon":5.37061,"is_reserved":false,"is_disabled":false,"rental_uris":{"android":"levelo://app?vid=66139c24-6a12-4709-9f49-696d98febbca","ios":"levelo://app?vid=66139c24-6a12-4709-9f49-696d98febbca"},"vehicle_type_id":"4","last_reported":1741028843,"current_range_meters":4000,"station_id":"ce4bhhh2rcd13ifvqfk0","pricing_plan_id":"cebpf4jnsgd1na2vs0mg"},{"bike_id":"a1323d8f-1239-4362-90cd-8f684d8dc3fd","system_id":"levelo_inurba_marseille","lat":43.29792,"lon":5.3933,"is_reserved":false,"is_disabled":false,"rental_uris":{"android":"levelo://app?vid=a1323d8f-1239-4362-90cd-8f684d8dc3fd","ios":"levelo://app?vid=a1323d8f-1239-4362-90cd-8f684d8dc3fd"},"vehicle_type_id":"4","last_reported":1741028843,"current_range_meters":4000,"station_id":"chh1huq6cuj3fo74tm60","pricing_plan_id":"cebpf4jnsgd1na2vs0mg"},{"bike_id":"7294fa1b-6789-4d34-92da-72d6801cf1aa","system_id":"levelo_inurba_marseille","lat":43.32723,"lon":5.36279,"is_reserved":false,"is_disabled":false,"rental_uris":{"android":"levelo://app?vid=7294fa1b-6789-4d34-92da-72d6801cf1aa","ios":"levelo://app?vid=7294fa1b-6789-4d34-92da-72d6801cf1aa"},"vehicle_type_id":"4","last_reported":1741028843,"current_range_meters":4000,"station_id":"","pricing_plan_id":"cebpf4jnsgd1na2vs0mg"},{"bike_id":"46b8038c-4f22-4684-a926-cde0cc0fc3cf","system_id":"levelo_inurba_marseille","lat":43.28039,"lon":5.36941,"is_reserved":false,"is_disabled":false,"rental_uris":{"android":"levelo://app?vid=46b8038c-4f22-4684-a926-cde0cc0fc3cf","ios":"levelo://app?vid=46b8038c-4f22-4684-a926-cde0cc0fc3cf"},"vehicle_type_id":"4","last_reported":1741028843,"current_range_meters":4400,"station_id":"ce4bha12rcd13ifvqef0","pricing_plan_id":"cebpf4jnsgd1na2vs0mg"},{"bike_id":"814dda93-1f2a-4e40-afb3-f9c3ca2e2806","system_id":"levelo_inurba_marseille","lat":43.29792,"lon":5.39345,"is_reserved":false,"is_disabled":false,"rental_uris":{"android":"levelo://app?vid=814dda93-1f2a-4e40-afb3-f9c3ca2e2806","ios":"levelo://app?vid=814dda93-1f2a-4e40-afb3-f9c3ca2e2806"},"vehicle_type_id":"4","last_reported":1741028843,"current_range_meters":4400,"station_id":"chh1huq6cuj3fo74tm60","pricing_plan_id":"cebpf4jnsgd1na2vs0mg"},{"bike_id":"4100917a-e83e-4612-b92c-a150746da0c7","system_id":"levelo_inurba_marseille","lat":43.29977,"lon":5.38499,"is_reserved":false,"is_disabled":false,"rental_uris":{"android":"levelo://app?vid=4100917a-e83e-4612-b92c-a150746da0c7","ios":"levelo://app?vid=4100917a-e83e-4612-b92c-a150746da0c7"},"vehicle_type_id":"4","last_reported":1741028843,"current_range_meters":4400,"station_id":"ce4bgj92rcd13ifvqbd0","pricing_plan_id":"cebpf4jnsgd1na2vs0mg"},{"bike_id":"0a3311ac-a0eb-4cf1-9f83-c10f0f367a7e","system_id":"levelo_inurba_marseille","lat":43.31359,"lon":5.38494,"is_reserved":false,"is_disabled":false,"rental_uris":{"android":"levelo://app?vid=0a3311ac-a0eb-4cf1-9f83-c10f0f367a7e","ios":"levelo://app?vid=0a3311ac-a0eb-4cf1-9f83-c10f0f367a7e"},"vehicle_type_id":"4","last_reported":1741028843,"current_range_meters":4400,"station_id":"ce4bgt92rcd13ifvqcf0","pricing_plan_id":"cebpf4jnsgd1na2vs0mg"},{"bike_id":"5070f7d5-38ad-4123-8db9-3fc3b1bb04ea","system_id":"levelo_inurba_marseille","lat":43.30426,"lon":5.3889,"is_reserved":false,"is_disabled":false,"rental_uris":{"android":"levelo://app?vid=5070f7d5-38ad-4123-8db9-3fc3b1bb04ea","ios":"levelo://app?vid=5070f7d5-38ad-4123-8db9-3fc3b1bb04ea"},"vehicle_type_id":"4","last_reported":1741028843,"current_range_meters":4400,"station_id":"ce4bgk12rcd13ifvqbi0","pricing_plan_id":"cebpf4jnsgd1na2vs0mg"},{"bike_id":"2d25bec7-9051-4875-aca7-629ec07997e3","system_id":"levelo_inurba_marseille","lat":43.30451,"lon":5.38906,"is_reserved":false,"is_disabled":false,"rental_uris":{"android":"levelo://app?vid=2d25bec7-9051-4875-aca7-629ec07997e3","ios":"levelo://app?vid=2d25bec7-9051-4875-aca7-629ec07997e3"},"vehicle_type_id":"4","last_reported":1741028843,"current_range_meters":4400,"station_id":"ce4bgk12rcd13ifvqbi0","pricing_plan_id":"cebpf4jnsgd1na2vs0mg"},{"bike_id":"fd55ec61-ea03-4691-8f74-530e74ea7311","system_id":"levelo_inurba_marseille","lat":43.25004,"lon":5.38934,"is_reserved":false,"is_disabled":false,"rental_uris":{"android":"levelo://app?vid=fd55ec61-ea03-4691-8f74-530e74ea7311","ios":"levelo://app?vid=fd55ec61-ea03-4691-8f74-530e74ea7311"},"vehicle_type_id":"4","last_reported":1741028843,"current_range_meters":4800,"station_id":"ce4bhgp2rcd13ifvqfd0","pricing_plan_id":"cebpf4jnsgd1na2vs0mg"},{"bike_id":"fbb434ec-fb3e-4b4d-be26-675e17ec36af","system_id":"levelo_inurba_marseille","lat":43.231515,"lon":5.437043,"is_reserved":false,"is_disabled":true,"rental_uris":{"android":"levelo://app?vid=fbb434ec-fb3e-4b4d-be26-675e17ec36af","ios":"levelo://app?vid=fbb434ec-fb3e-4b4d-be26-675e17ec36af"},"vehicle_type_id":"4","last_reported":1741028843,"current_range_meters":4800,"station_id":"ce4bhmp2rcd13ifvqgog","pricing_plan_id":"cebpf4jnsgd1na2vs0mg"},{"bike_id":"8398b76f-1deb-48f7-883a-7df37452d0b5","system_id":"levelo_inurba_marseille","lat":43.28852,"lon":5.39303,"is_reserved":false,"is_disabled":false,"rental_uris":{"android":"levelo://app?vid=8398b76f-1deb-48f7-883a-7df37452d0b5","ios":"levelo://app?vid=8398b76f-1deb-48f7-883a-7df37452d0b5"},"vehicle_type_id":"4","last_reported":1741028843,"current_range_meters":4800,"station_id":"ce4bh2p2rcd13ifvqdi0","pricing_plan_id":"cebpf4jnsgd1na2vs0mg"},{"bike_id":"59d9e0eb-e90b-49f4-9ef9-9118dd8cbdd9","system_id":"levelo_inurba_marseille","lat":43.28107,"lon":5.37832,"is_reserved":false,"is_disabled":false,"rental_uris":{"android":"levelo://app?vid=59d9e0eb-e90b-49f4-9ef9-9118dd8cbdd9","ios":"levelo://app?vid=59d9e0eb-e90b-49f4-9ef9-9118dd8cbdd9"},"vehicle_type_id":"4","last_reported":1741028843,"current_range_meters":4800,"station_id":"ce4bha12rcd13ifvqee0","pricing_plan_id":"cebpf4jnsgd1na2vs0mg"},{"bike_id":"cb89e89a-f182-4505-b274-e70daa108517","system_id":"levelo_inurba_marseille","lat":43.28571,"lon":5.39495,"is_reserved":false,"is_disabled":false,"rental_uris":{"android":"levelo://app?vid=cb89e89a-f182-4505-b274-e70daa108517","ios":"levelo://app?vid=cb89e89a-f182-4505-b274-e70daa108517"},"vehicle_type_id":"4","last_reported":1741028843,"current_range_meters":2000,"station_id":"ce4bh292rcd13ifvqdg0","pricing_plan_id":"cebpf4jnsgd1na2vs0mg"},{"bike_id":"7c10fa8c-d129-46d2-81f1-74bf4734ab80","system_id":"levelo_inurba_marseille","lat":43.28925,"lon":5.38382,"is_reserved":false,"is_disabled":false,"rental_uris":{"android":"levelo://app?vid=7c10fa8c-d129-46d2-81f1-74bf4734ab80","ios":"levelo://app?vid=7c10fa8c-d129-46d2-81f1-74bf4734ab80"},"vehicle_type_id":"4","last_reported":1741028843,"current_range_meters":5600,"station_id":"ce4bh612rcd13ifvqe6g","pricing_plan_id":"cebpf4jnsgd1na2vs0mg"},{"bike_id":"3a3cbe22-1551-4286-9224-dac0ef3b404a","system_id":"levelo_inurba_marseille","lat":43.28926,"lon":5.38388,"is_reserved":false,"is_disabled":false,"rental_uris":{"android":"levelo://app?vid=3a3cbe22-1551-4286-9224-dac0ef3b404a","ios":"levelo://app?vid=3a3cbe22-1551-4286-9224-dac0ef3b404a"},"vehicle_type_id":"4","last_reported":1741028843,"current_range_meters":4800,"station_id":"ce4bh612rcd13ifvqe6g","pricing_plan_id":"cebpf4jnsgd1na2vs0mg"},{"bike_id":"217d65b3-7ceb-462d-9843-88d2f01a5050","system_id":"levelo_inurba_marseille","lat":43.32901,"lon":5.38062,"is_reserved":false,"is_disabled":false,"rental_uris":{"android":"levelo://app?vid=217d65b3-7ceb-462d-9843-88d2f01a5050","ios":"levelo://app?vid=217d65b3-7ceb-462d-9843-88d2f01a5050"},"vehicle_type_id":"4","last_reported":1741028843,"current_range_meters":5600,"station_id":"","pricing_plan_id":"cebpf4jnsgd1na2vs0mg"},{"bike_id":"fb928c3c-26fb-43f9-b8d2-3ef22d6b82da","system_id":"levelo_inurba_marseille","lat":43.29848,"lon":5.3627,"is_reserved":false,"is_disabled":false,"rental_uris":{"android":"levelo://app?vid=fb928c3c-26fb-43f9-b8d2-3ef22d6b82da","ios":"levelo://app?vid=fb928c3c-26fb-43f9-b8d2-3ef22d6b82da"},"vehicle_type_id":"4","last_reported":1741028843,"current_range_meters":5600,"station_id":"ce4bgpp2rcd13ifvqc3g","pricing_plan_id":"cebpf4jnsgd1na2vs0mg"},{"bike_id":"8b458597-9639-492e-aa6b-d0a23ffeb280","system_id":"levelo_inurba_marseille","lat":43.25586,"lon":5.38236,"is_reserved":false,"is_disabled":false,"rental_uris":{"android":"levelo://app?vid=8b458597-9639-492e-aa6b-d0a23ffeb280","ios":"levelo://app?vid=8b458597-9639-492e-aa6b-d0a23ffeb280"},"vehicle_type_id":"4","last_reported":1741028843,"current_range_meters":5600,"station_id":"ce4bhih2rcd13ifvqfs0","pricing_plan_id":"cebpf4jnsgd1na2vs0mg"},{"bike_id":"6a9dc3f9-ab58-40b1-b07d-bf2d8eb823c9","system_id":"levelo_inurba_marseille","lat":43.29567,"lon":5.39975,"is_reserved":false,"is_disabled":false,"rental_uris":{"android":"levelo://app?vid=6a9dc3f9-ab58-40b1-b07d-bf2d8eb823c9","ios":"levelo://app?vid=6a9dc3f9-ab58-40b1-b07d-bf2d8eb823c9"},"vehicle_type_id":"4","last_reported":1741028843,"current_range_meters":5600,"station_id":"ce4bh312rcd13ifvqdj0","pricing_plan_id":"cebpf4jnsgd1na2vs0mg"},{"bike_id":"bccdc009-4363-4c42-8872-b7a69f9e81f1","system_id":"levelo_inurba_marseille","lat":43.25499,"lon":5.37647,"is_reserved":false,"is_disabled":false,"rental_uris":{"android":"levelo://app?vid=bccdc009-4363-4c42-8872-b7a69f9e81f1","ios":"levelo://app?vid=bccdc009-4363-4c42-8872-b7a69f9e81f1"},"vehicle_type_id":"4","last_reported":1741028843,"current_range_meters":6000,"station_id":"ce4bhh12rcd13ifvqff0","pricing_plan_id":"cebpf4jnsgd1na2vs0mg"},{"bike_id":"e0fc8d54-7aea-4d6e-8fa8-926448c099ad","system_id":"levelo_inurba_marseille","lat":43.26052,"lon":5.3938,"is_reserved":false,"is_disabled":false,"rental_uris":{"android":"levelo://app?vid=e0fc8d54-7aea-4d6e-8fa8-926448c099ad","ios":"levelo://app?vid=e0fc8d54-7aea-4d6e-8fa8-926448c099ad"},"vehicle_type_id":"4","last_reported":1741028843,"current_range_meters":6000,"station_id":"ce4bhh92rcd13ifvqfj0","pricing_plan_id":"cebpf4jnsgd1na2vs0mg"},{"bike_id":"f8b991f5-1046-49b6-a84e-83a79d74b980","system_id":"levelo_inurba_marseille","lat":43.2827,"lon":5.35075,"is_reserved":false,"is_disabled":false,"rental_uris":{"android":"levelo://app?vid=f8b991f5-1046-49b6-a84e-83a79d74b980","ios":"levelo://app?vid=f8b991f5-1046-49b6-a84e-83a79d74b980"},"vehicle_type_id":"4","last_reported":1741028843,"current_range_meters":6000,"station_id":"ce4bhbp2rcd13ifvqerg","pricing_plan_id":"cebpf4jnsgd1na2vs0mg"},{"bike_id":"db917d75-2e56-416a-a174-c009ce6c14ea","system_id":"levelo_inurba_marseille","lat":43.28938,"lon":5.36409,"is_reserved":false,"is_disabled":false,"rental_uris":{"android":"levelo://app?vid=db917d75-2e56-416a-a174-c009ce6c14ea","ios":"levelo://app?vid=db917d75-2e56-416a-a174-c009ce6c14ea"},"vehicle_type_id":"4","last_reported":1741028843,"current_range_meters":6000,"station_id":"ce4bhc92rcd13ifvqetg","pricing_plan_id":"cebpf4jnsgd1na2vs0mg"},{"bike_id":"40c7c1f1-140a-449b-9e5f-c3e3d2687022","system_id":"levelo_inurba_marseille","lat":43.28613,"lon":5.37068,"is_reserved":false,"is_disabled":false,"rental_uris":{"android":"levelo://app?vid=40c7c1f1-140a-449b-9e5f-c3e3d2687022","ios":"levelo://app?vid=40c7c1f1-140a-449b-9e5f-c3e3d2687022"},"vehicle_type_id":"4","last_reported":1741028843,"current_range_meters":6000,"station_id":"ce4bht12rcd13ifvqi60","pricing_plan_id":"cebpf4jnsgd1na2vs0mg"},{"bike_id":"124efc88-7b8c-4f44-83d6-2e0f1306d348","system_id":"levelo_inurba_marseille","lat":43.29158,"lon":5.37168,"is_reserved":false,"is_disabled":false,"rental_uris":{"android":"levelo://app?vid=124efc88-7b8c-4f44-83d6-2e0f1306d348","ios":"levelo://app?vid=124efc88-7b8c-4f44-83d6-2e0f1306d348"},"vehicle_type_id":"4","last_reported":1741028843,"current_range_meters":6000,"station_id":"ce4bha92rcd13ifvqeh0","pricing_plan_id":"cebpf4jnsgd1na2vs0mg"},{"bike_id":"22fae547-e446-46ff-a02d-c56f6b239dd6","system_id":"levelo_inurba_marseille","lat":43.31326,"lon":5.39721,"is_reserved":false,"is_disabled":false,"rental_uris":{"android":"levelo://app?vid=22fae547-e446-46ff-a02d-c56f6b239dd6","ios":"levelo://app?vid=22fae547-e446-46ff-a02d-c56f6b239dd6"},"vehicle_type_id":"4","last_reported":1741028843,"current_range_meters":6000,"station_id":"ce4bgvp2rcd13ifvqcu0","pricing_plan_id":"cebpf4jnsgd1na2vs0mg"},{"bike_id":"ed66d6d0-2199-4330-a81f-5b8beacb5347","system_id":"levelo_inurba_marseille","lat":43.28415,"lon":5.37509,"is_reserved":false,"is_disabled":false,"rental_uris":{"android":"levelo://app?vid=ed66d6d0-2199-4330-a81f-5b8beacb5347","ios":"levelo://app?vid=ed66d6d0-2199-4330-a81f-5b8beacb5347"},"vehicle_type_id":"4","last_reported":1741028843,"current_range_meters":6000,"station_id":"ce4bh412rcd13ifvqds0","pricing_plan_id":"cebpf4jnsgd1na2vs0mg"},{"bike_id":"755add5d-12e9-4f3c-96c0-7e75d5e151d8","system_id":"levelo_inurba_marseille","lat":43.28357,"lon":5.38097,"is_reserved":false,"is_disabled":false,"rental_uris":{"android":"levelo://app?vid=755add5d-12e9-4f3c-96c0-7e75d5e151d8","ios":"levelo://app?vid=755add5d-12e9-4f3c-96c0-7e75d5e151d8"},"vehicle_type_id":"4","last_reported":1741028843,"current_range_meters":5600,"station_id":"ce4bhnp2rcd13ifvqgvg","pricing_plan_id":"cebpf4jnsgd1na2vs0mg"},{"bike_id":"3c1ec355-f81c-4635-9136-6c482c16cbb9","system_id":"levelo_inurba_marseille","lat":43.30311,"lon":5.39216,"is_reserved":false,"is_disabled":false,"rental_uris":{"android":"levelo://app?vid=3c1ec355-f81c-4635-9136-6c482c16cbb9","ios":"levelo://app?vid=3c1ec355-f81c-4635-9136-6c482c16cbb9"},"vehicle_type_id":"4","last_reported":1741028843,"current_range_meters":6400,"station_id":"ce4bgkh2rcd13ifvqbk0","pricing_plan_id":"cebpf4jnsgd1na2vs0mg"},{"bike_id":"36671c12-c972-4f65-9950-0fdaa8db7dcb","system_id":"levelo_inurba_marseille","lat":43.3015,"lon":5.39864,"is_reserved":false,"is_disabled":false,"rental_uris":{"android":"levelo://app?vid=36671c12-c972-4f65-9950-0fdaa8db7dcb","ios":"levelo://app?vid=36671c12-c972-4f65-9950-0fdaa8db7dcb"},"vehicle_type_id":"4","last_reported":1741028843,"current_range_meters":6000,"station_id":"ce4bh0h2rcd13ifvqd40","pricing_plan_id":"cebpf4jnsgd1na2vs0mg"},{"bike_id":"34a2992f-6f7e-48a1-9dac-b3d98c954b49","system_id":"levelo_inurba_marseille","lat":43.28665,"lon":5.36351,"is_reserved":false,"is_disabled":false,"rental_uris":{"android":"levelo://app?vid=34a2992f-6f7e-48a1-9dac-b3d98c954b49","ios":"levelo://app?vid=34a2992f-6f7e-48a1-9dac-b3d98c954b49"},"vehicle_type_id":"4","last_reported":1741028843,"current_range_meters":6400,"station_id":"ce4bhah2rcd13ifvqej0","pricing_plan_id":"cebpf4jnsgd1na2vs0mg"},{"bike_id":"51dac736-e1f7-43ae-a021-5c1e738d6bef","system_id":"levelo_inurba_marseille","lat":43.28845,"lon":5.35844,"is_reserved":false,"is_disabled":true,"rental_uris":{"android":"levelo://app?vid=51dac736-e1f7-43ae-a021-5c1e738d6bef","ios":"levelo://app?vid=51dac736-e1f7-43ae-a021-5c1e738d6bef"},"vehicle_type_id":"4","last_reported":1741028843,"current_range_meters":6400,"station_id":"ce4bhb12rcd13ifvqem0","pricing_plan_id":"cebpf4jnsgd1na2vs0mg"},{"bike_id":"e355fddf-c114-45a4-b7a3-1e02fde20fd3","system_id":"levelo_inurba_marseille","lat":43.25107,"lon":5.4033,"is_reserved":false,"is_disabled":false,"rental_uris":{"android":"levelo://app?vid=e355fddf-c114-45a4-b7a3-1e02fde20fd3","ios":"levelo://app?vid=e355fddf-c114-45a4-b7a3-1e02fde20fd3"},"vehicle_type_id":"4","last_reported":1741028843,"current_range_meters":6400,"station_id":"ce4bhlh2rcd13ifvqgig","pricing_plan_id":"cebpf4jnsgd1na2vs0mg"},{"bike_id":"e7bf9aa4-ebab-4733-bd2d-62b9efb9b294","system_id":"levelo_inurba_marseille","lat":43.27486,"lon":5.42454,"is_reserved":false,"is_disabled":true,"rental_uris":{"android":"levelo://app?vid=e7bf9aa4-ebab-4733-bd2d-62b9efb9b294","ios":"levelo://app?vid=e7bf9aa4-ebab-4733-bd2d-62b9efb9b294"},"vehicle_type_id":"4","last_reported":1741028843,"current_range_meters":6400,"station_id":"ce4bhn92rcd13ifvqgrg","pricing_plan_id":"cebpf4jnsgd1na2vs0mg"},{"bike_id":"490dbe3e-d414-4ae9-8af5-152d53a87743","system_id":"levelo_inurba_marseille","lat":43.2893,"lon":5.36642,"is_reserved":false,"is_disabled":false,"rental_uris":{"android":"levelo://app?vid=490dbe3e-d414-4ae9-8af5-152d53a87743","ios":"levelo://app?vid=490dbe3e-d414-4ae9-8af5-152d53a87743"},"vehicle_type_id":"4","last_reported":1741028843,"current_range_meters":6400,"station_id":"ce4bhap2rcd13ifvqek0","pricing_plan_id":"cebpf4jnsgd1na2vs0mg"},{"bike_id":"03f91bfd-925e-46d4-beb0-792ce7682109","system_id":"levelo_inurba_marseille","lat":43.29198,"lon":5.35792,"is_reserved":false,"is_disabled":false,"rental_uris":{"android":"levelo://app?vid=03f91bfd-925e-46d4-beb0-792ce7682109","ios":"levelo://app?vid=03f91bfd-925e-46d4-beb0-792ce7682109"},"vehicle_type_id":"4","last_reported":1741028843,"current_range_meters":6000,"station_id":"ce4bhb12rcd13ifvqel0","pricing_plan_id":"cebpf4jnsgd1na2vs0mg"},{"bike_id":"d714a156-b5fd-4301-a9d9-7c7ebe6c6edb","system_id":"levelo_inurba_marseille","lat":43.281689,"lon":5.378813,"is_reserved":false,"is_disabled":false,"rental_uris":{"android":"levelo://app?vid=d714a156-b5fd-4301-a9d9-7c7ebe6c6edb","ios":"levelo://app?vid=d714a156-b5fd-4301-a9d9-7c7ebe6c6edb"},"vehicle_type_id":"4","last_reported":1741028843,"current_range_meters":6800,"station_id":"ce4bha12rcd13ifvqee0","pricing_plan_id":"cebpf4jnsgd1na2vs0mg"},{"bike_id":"301b1e84-a30f-459c-bdb2-1eb965e582e1","system_id":"levelo_inurba_marseille","lat":43.30264,"lon":5.40115,"is_reserved":false,"is_disabled":false,"rental_uris":{"android":"levelo://app?vid=301b1e84-a30f-459c-bdb2-1eb965e582e1","ios":"levelo://app?vid=301b1e84-a30f-459c-bdb2-1eb965e582e1"},"vehicle_type_id":"4","last_reported":1741028843,"current_range_meters":6800,"station_id":"ce4bgvh2rcd13ifvqcs0","pricing_plan_id":"cebpf4jnsgd1na2vs0mg"},{"bike_id":"e570d6c1-cc4e-42a8-a853-3a66a5e91138","system_id":"levelo_inurba_marseille","lat":43.23046,"lon":5.35514,"is_reserved":false,"is_disabled":false,"rental_uris":{"android":"levelo://app?vid=e570d6c1-cc4e-42a8-a853-3a66a5e91138","ios":"levelo://app?vid=e570d6c1-cc4e-42a8-a853-3a66a5e91138"},"vehicle_type_id":"4","last_reported":1741028843,"current_range_meters":6800,"station_id":"cpo3342slgdg3j2ifvpg","pricing_plan_id":"cebpf4jnsgd1na2vs0mg"},{"bike_id":"aa546ddd-ae8d-4e0f-9536-5b70745585d3","system_id":"levelo_inurba_marseille","lat":43.25003,"lon":5.38937,"is_reserved":false,"is_disabled":false,"rental_uris":{"android":"levelo://app?vid=aa546ddd-ae8d-4e0f-9536-5b70745585d3","ios":"levelo://app?vid=aa546ddd-ae8d-4e0f-9536-5b70745585d3"},"vehicle_type_id":"4","last_reported":1741028843,"current_range_meters":6800,"station_id":"ce4bhgp2rcd13ifvqfd0","pricing_plan_id":"cebpf4jnsgd1na2vs0mg"},{"bike_id":"1621e0c3-0194-4d15-8a8b-87beecb39238","system_id":"levelo_inurba_marseille","lat":43.31994,"lon":5.38143,"is_reserved":false,"is_disabled":true,"rental_uris":{"android":"levelo://app?vid=1621e0c3-0194-4d15-8a8b-87beecb39238","ios":"levelo://app?vid=1621e0c3-0194-4d15-8a8b-87beecb39238"},"vehicle_type_id":"4","last_reported":1741028843,"current_range_meters":7200,"station_id":"ce4bhr12rcd13ifvqhpg","pricing_plan_id":"cebpf4jnsgd1na2vs0mg"},{"bike_id":"de12ae88-8a49-4127-a4ae-0c2d4331cb91","system_id":"levelo_inurba_marseille","lat":43.24391,"lon":5.37059,"is_reserved":false,"is_disabled":false,"rental_uris":{"android":"levelo://app?vid=de12ae88-8a49-4127-a4ae-0c2d4331cb91","ios":"levelo://app?vid=de12ae88-8a49-4127-a4ae-0c2d4331cb91"},"vehicle_type_id":"4","last_reported":1741028843,"current_range_meters":7200,"station_id":"ce4bhhh2rcd13ifvqfk0","pricing_plan_id":"cebpf4jnsgd1na2vs0mg"},{"bike_id":"a1e7e777-09c6-469c-a373-c31474ce4e9c","system_id":"levelo_inurba_marseille","lat":43.292175,"lon":5.379166,"is_reserved":false,"is_disabled":false,"rental_uris":{"android":"levelo://app?vid=a1e7e777-09c6-469c-a373-c31474ce4e9c","ios":"levelo://app?vid=a1e7e777-09c6-469c-a373-c31474ce4e9c"},"vehicle_type_id":"4","last_reported":1741028843,"current_range_meters":7200,"station_id":"ce4bhah2rcd13ifvqej0","pricing_plan_id":"cebpf4jnsgd1na2vs0mg"},{"bike_id":"9cad0ab4-9c0e-4299-b9f0-9e3a8c398676","system_id":"levelo_inurba_marseille","lat":43.28346,"lon":5.38101,"is_reserved":false,"is_disabled":false,"rental_uris":{"android":"levelo://app?vid=9cad0ab4-9c0e-4299-b9f0-9e3a8c398676","ios":"levelo://app?vid=9cad0ab4-9c0e-4299-b9f0-9e3a8c398676"},"vehicle_type_id":"4","last_reported":1741028843,"current_range_meters":6800,"station_id":"ce4bh412rcd13ifvqdr0","pricing_plan_id":"cebpf4jnsgd1na2vs0mg"},{"bike_id":"f1c8f5e3-cdda-43f4-a454-326ddfcc2175","system_id":"levelo_inurba_marseille","lat":43.29026,"lon":5.38647,"is_reserved":false,"is_disabled":true,"rental_uris":{"android":"levelo://app?vid=f1c8f5e3-cdda-43f4-a454-326ddfcc2175","ios":"levelo://app?vid=f1c8f5e3-cdda-43f4-a454-326ddfcc2175"},"vehicle_type_id":"4","last_reported":1741028843,"current_range_meters":7200,"station_id":"ce4bh4p2rcd13ifvqe0g","pricing_plan_id":"cebpf4jnsgd1na2vs0mg"},{"bike_id":"23c20c41-e8a4-4dc6-b7b9-05b6d6793f3e","system_id":"levelo_inurba_marseille","lat":43.2782,"lon":5.40727,"is_reserved":false,"is_disabled":false,"rental_uris":{"android":"levelo://app?vid=23c20c41-e8a4-4dc6-b7b9-05b6d6793f3e","ios":"levelo://app?vid=23c20c41-e8a4-4dc6-b7b9-05b6d6793f3e"},"vehicle_type_id":"4","last_reported":1741028843,"current_range_meters":7200,"station_id":"ce4bhnh2rcd13ifvqgtg","pricing_plan_id":"cebpf4jnsgd1na2vs0mg"},{"bike_id":"5cf485f0-0424-4195-84d9-8609b01e21ea","system_id":"levelo_inurba_marseille","lat":43.29589,"lon":5.37603,"is_reserved":false,"is_disabled":false,"rental_uris":{"android":"levelo://app?vid=5cf485f0-0424-4195-84d9-8609b01e21ea","ios":"levelo://app?vid=5cf485f0-0424-4195-84d9-8609b01e21ea"},"vehicle_type_id":"4","last_reported":1741028843,"current_range_meters":8000,"station_id":"","pricing_plan_id":"cebpf4jnsgd1na2vs0mg"},{"bike_id":"3df256a4-3af2-4e09-ac29-246774d99c68","system_id":"levelo_inurba_marseille","lat":43.2319,"lon":5.39975,"is_reserved":false,"is_disabled":false,"rental_uris":{"android":"levelo://app?vid=3df256a4-3af2-4e09-ac29-246774d99c68","ios":"levelo://app?vid=3df256a4-3af2-4e09-ac29-246774d99c68"},"vehicle_type_id":"4","last_reported":1741028843,"current_range_meters":7200,"station_id":"ce4bhn12rcd13ifvqgqg","pricing_plan_id":"cebpf4jnsgd1na2vs0mg"},{"bike_id":"5cd0c11b-f9d6-428f-9f34-0abc9c264bfe","system_id":"levelo_inurba_marseille","lat":43.2799,"lon":5.41664,"is_reserved":false,"is_disabled":false,"rental_uris":{"android":"levelo://app?vid=5cd0c11b-f9d6-428f-9f34-0abc9c264bfe","ios":"levelo://app?vid=5cd0c11b-f9d6-428f-9f34-0abc9c264bfe"},"vehicle_type_id":"4","last_reported":1741028843,"current_range_meters":7200,"station_id":"ce4bho12rcd13ifvqh1g","pricing_plan_id":"cebpf4jnsgd1na2vs0mg"},{"bike_id":"6882fdeb-c50f-4170-a23d-e93b62843123","system_id":"levelo_inurba_marseille","lat":43.31363,"lon":5.38497,"is_reserved":false,"is_disabled":false,"rental_uris":{"android":"levelo://app?vid=6882fdeb-c50f-4170-a23d-e93b62843123","ios":"levelo://app?vid=6882fdeb-c50f-4170-a23d-e93b62843123"},"vehicle_type_id":"4","last_reported":1741028843,"current_range_meters":7200,"station_id":"ce4bgt92rcd13ifvqcf0","pricing_plan_id":"cebpf4jnsgd1na2vs0mg"},{"bike_id":"232499b3-0afe-409e-b179-d21bfa5b759f","system_id":"levelo_inurba_marseille","lat":43.27184,"lon":5.40987,"is_reserved":false,"is_disabled":false,"rental_uris":{"android":"levelo://app?vid=232499b3-0afe-409e-b179-d21bfa5b759f","ios":"levelo://app?vid=232499b3-0afe-409e-b179-d21bfa5b759f"},"vehicle_type_id":"4","last_reported":1741028843,"current_range_meters":7200,"station_id":"ce4bhl12rcd13ifvqgf0","pricing_plan_id":"cebpf4jnsgd1na2vs0mg"},{"bike_id":"9db49163-1bcf-4cb4-975b-b1e9ddf4e6d9","system_id":"levelo_inurba_marseille","lat":43.27172,"lon":5.40994,"is_reserved":false,"is_disabled":false,"rental_uris":{"android":"levelo://app?vid=9db49163-1bcf-4cb4-975b-b1e9ddf4e6d9","ios":"levelo://app?vid=9db49163-1bcf-4cb4-975b-b1e9ddf4e6d9"},"vehicle_type_id":"4","last_reported":1741028843,"current_range_meters":7200,"station_id":"ce4bhl12rcd13ifvqgf0","pricing_plan_id":"cebpf4jnsgd1na2vs0mg"},{"bike_id":"e67ba2d4-7ad6-4ad9-b1d1-b65da88ab977","system_id":"levelo_inurba_marseille","lat":43.29445,"lon":5.39755,"is_reserved":false,"is_disabled":false,"rental_uris":{"android":"levelo://app?vid=e67ba2d4-7ad6-4ad9-b1d1-b65da88ab977","ios":"levelo://app?vid=e67ba2d4-7ad6-4ad9-b1d1-b65da88ab977"},"vehicle_type_id":"4","last_reported":1741028843,"current_range_meters":8000,"station_id":"ce4bh3h2rcd13ifvqdo0","pricing_plan_id":"cebpf4jnsgd1na2vs0mg"},{"bike_id":"89cb348e-b4f6-4810-b86f-98d924074122","system_id":"levelo_inurba_marseille","lat":43.32365,"lon":5.38885,"is_reserved":false,"is_disabled":false,"rental_uris":{"android":"levelo://app?vid=89cb348e-b4f6-4810-b86f-98d924074122","ios":"levelo://app?vid=89cb348e-b4f6-4810-b86f-98d924074122"},"vehicle_type_id":"4","last_reported":1741028843,"current_range_meters":8000,"station_id":"ce4bhqp2rcd13ifvqhog","pricing_plan_id":"cebpf4jnsgd1na2vs0mg"},{"bike_id":"6229b5e8-8d17-4294-a915-b97f6de0103d","system_id":"levelo_inurba_marseille","lat":43.25588,"lon":5.38254,"is_reserved":false,"is_disabled":false,"rental_uris":{"android":"levelo://app?vid=6229b5e8-8d17-4294-a915-b97f6de0103d","ios":"levelo://app?vid=6229b5e8-8d17-4294-a915-b97f6de0103d"},"vehicle_type_id":"4","last_reported":1741028843,"current_range_meters":8000,"station_id":"ce4bhih2rcd13ifvqfs0","pricing_plan_id":"cebpf4jnsgd1na2vs0mg"},{"bike_id":"2d4e1c3e-7392-4616-b3cf-646345a17bd5","system_id":"levelo_inurba_marseille","lat":43.29554,"lon":5.4227,"is_reserved":false,"is_disabled":true,"rental_uris":{"android":"levelo://app?vid=2d4e1c3e-7392-4616-b3cf-646345a17bd5","ios":"levelo://app?vid=2d4e1c3e-7392-4616-b3cf-646345a17bd5"},"vehicle_type_id":"4","last_reported":1741028843,"current_range_meters":8000,"station_id":"ce4bhph2rcd13ifvqhdg","pricing_plan_id":"cebpf4jnsgd1na2vs0mg"},{"bike_id":"73681137-6538-4684-87ec-aa9b29720d1e","system_id":"levelo_inurba_marseille","lat":43.23193,"lon":5.35552,"is_reserved":false,"is_disabled":false,"rental_uris":{"android":"levelo://app?vid=73681137-6538-4684-87ec-aa9b29720d1e","ios":"levelo://app?vid=73681137-6538-4684-87ec-aa9b29720d1e"},"vehicle_type_id":"4","last_reported":1741028843,"current_range_meters":8000,"station_id":"ce4bhu92rcd13ifvqi70","pricing_plan_id":"cebpf4jnsgd1na2vs0mg"},{"bike_id":"2daa11be-071f-479c-9bd0-92101cc53d8c","system_id":"levelo_inurba_marseille","lat":43.28077,"lon":5.39645,"is_reserved":false,"is_disabled":false,"rental_uris":{"android":"levelo://app?vid=2daa11be-071f-479c-9bd0-92101cc53d8c","ios":"levelo://app?vid=2daa11be-071f-479c-9bd0-92101cc53d8c"},"vehicle_type_id":"4","last_reported":1741028843,"current_range_meters":8000,"station_id":"ce4bho12rcd13ifvqh2g","pricing_plan_id":"cebpf4jnsgd1na2vs0mg"},{"bike_id":"65681f16-0063-43c3-9636-5734292b8658","system_id":"levelo_inurba_marseille","lat":43.28942,"lon":5.36639,"is_reserved":false,"is_disabled":false,"rental_uris":{"android":"levelo://app?vid=65681f16-0063-43c3-9636-5734292b8658","ios":"levelo://app?vid=65681f16-0063-43c3-9636-5734292b8658"},"vehicle_type_id":"4","last_reported":1741028843,"current_range_meters":8000,"station_id":"ce4bhap2rcd13ifvqek0","pricing_plan_id":"cebpf4jnsgd1na2vs0mg"},{"bike_id":"93c78c45-afab-486c-8bef-c2b3d219a8cf","system_id":"levelo_inurba_marseille","lat":43.2707,"lon":5.42275,"is_reserved":false,"is_disabled":false,"rental_uris":{"android":"levelo://app?vid=93c78c45-afab-486c-8bef-c2b3d219a8cf","ios":"levelo://app?vid=93c78c45-afab-486c-8bef-c2b3d219a8cf"},"vehicle_type_id":"4","last_reported":1741028843,"current_range_meters":8000,"station_id":"ce4bhk92rcd13ifvqgb0","pricing_plan_id":"cebpf4jnsgd1na2vs0mg"},{"bike_id":"e5cc295a-bb37-400d-b07c-79830e0f9d2e","system_id":"levelo_inurba_marseille","lat":43.27823,"lon":5.40726,"is_reserved":false,"is_disabled":false,"rental_uris":{"android":"levelo://app?vid=e5cc295a-bb37-400d-b07c-79830e0f9d2e","ios":"levelo://app?vid=e5cc295a-bb37-400d-b07c-79830e0f9d2e"},"vehicle_type_id":"4","last_reported":1741028843,"current_range_meters":8000,"station_id":"ce4bhnh2rcd13ifvqgtg","pricing_plan_id":"cebpf4jnsgd1na2vs0mg"},{"bike_id":"5da70b26-5045-4fcf-85cf-7f68a925e135","system_id":"levelo_inurba_marseille","lat":43.27996,"lon":5.41672,"is_reserved":false,"is_disabled":false,"rental_uris":{"android":"levelo://app?vid=5da70b26-5045-4fcf-85cf-7f68a925e135","ios":"levelo://app?vid=5da70b26-5045-4fcf-85cf-7f68a925e135"},"vehicle_type_id":"4","last_reported":1741028843,"current_range_meters":8000,"station_id":"ce4bho12rcd13ifvqh1g","pricing_plan_id":"cebpf4jnsgd1na2vs0mg"},{"bike_id":"0a42b506-aec3-4369-808c-c91f0f7eb197","system_id":"levelo_inurba_marseille","lat":43.25581,"lon":5.38243,"is_reserved":false,"is_disabled":false,"rental_uris":{"android":"levelo://app?vid=0a42b506-aec3-4369-808c-c91f0f7eb197","ios":"levelo://app?vid=0a42b506-aec3-4369-808c-c91f0f7eb197"},"vehicle_type_id":"4","last_reported":1741028843,"current_range_meters":8000,"station_id":"ce4bhih2rcd13ifvqfs0","pricing_plan_id":"cebpf4jnsgd1na2vs0mg"},{"bike_id":"a038f657-a255-4c8c-81cc-b85ca9068a94","system_id":"levelo_inurba_marseille","lat":43.287,"lon":5.39986,"is_reserved":false,"is_disabled":false,"rental_uris":{"android":"levelo://app?vid=a038f657-a255-4c8c-81cc-b85ca9068a94","ios":"levelo://app?vid=a038f657-a255-4c8c-81cc-b85ca9068a94"},"vehicle_type_id":"4","last_reported":1741028843,"current_range_meters":8000,"station_id":"ce4bho92rcd13ifvqh3g","pricing_plan_id":"cebpf4jnsgd1na2vs0mg"},{"bike_id":"0ab98849-fd18-4b92-b681-50b3f3a44120","system_id":"levelo_inurba_marseille","lat":43.29277,"lon":5.36845,"is_reserved":false,"is_disabled":false,"rental_uris":{"android":"levelo://app?vid=0ab98849-fd18-4b92-b681-50b3f3a44120","ios":"levelo://app?vid=0ab98849-fd18-4b92-b681-50b3f3a44120"},"vehicle_type_id":"4","last_reported":1741028843,"current_range_meters":8000,"station_id":"ce4bhbp2rcd13ifvqesg","pricing_plan_id":"cebpf4jnsgd1na2vs0mg"},{"bike_id":"0d482153-e71d-4e6f-bac6-dbeecc6ef8cd","system_id":"levelo_inurba_marseille","lat":43.29212,"lon":5.3933,"is_reserved":false,"is_disabled":false,"rental_uris":{"android":"levelo://app?vid=0d482153-e71d-4e6f-bac6-dbeecc6ef8cd","ios":"levelo://app?vid=0d482153-e71d-4e6f-bac6-dbeecc6ef8cd"},"vehicle_type_id":"4","last_reported":1741028843,"current_range_meters":8000,"station_id":"ce4bh192rcd13ifvqdd0","pricing_plan_id":"cebpf4jnsgd1na2vs0mg"},{"bike_id":"9c9d1fd7-f87f-46d1-89cc-9bd3a97b84ba","system_id":"levelo_inurba_marseille","lat":43.28668,"lon":5.3635,"is_reserved":false,"is_disabled":false,"rental_uris":{"android":"levelo://app?vid=9c9d1fd7-f87f-46d1-89cc-9bd3a97b84ba","ios":"levelo://app?vid=9c9d1fd7-f87f-46d1-89cc-9bd3a97b84ba"},"vehicle_type_id":"4","last_reported":1741028843,"current_range_meters":8000,"station_id":"ce4bhah2rcd13ifvqej0","pricing_plan_id":"cebpf4jnsgd1na2vs0mg"},{"bike_id":"f381c9bd-14fa-41ab-b589-3ecebd6dfe48","system_id":"levelo_inurba_marseille","lat":43.32361,"lon":5.36756,"is_reserved":false,"is_disabled":false,"rental_uris":{"android":"levelo://app?vid=f381c9bd-14fa-41ab-b589-3ecebd6dfe48","ios":"levelo://app?vid=f381c9bd-14fa-41ab-b589-3ecebd6dfe48"},"vehicle_type_id":"4","last_reported":1741028843,"current_range_meters":8000,"station_id":"ce4bhsh2rcd13ifvqi2g","pricing_plan_id":"cebpf4jnsgd1na2vs0mg"},{"bike_id":"712f73ce-ea91-4475-b89d-6c7eebf04ca6","system_id":"levelo_inurba_marseille","lat":43.30212,"lon":5.39474,"is_reserved":false,"is_disabled":false,"rental_uris":{"android":"levelo://app?vid=712f73ce-ea91-4475-b89d-6c7eebf04ca6","ios":"levelo://app?vid=712f73ce-ea91-4475-b89d-6c7eebf04ca6"},"vehicle_type_id":"4","last_reported":1741028843,"current_range_meters":8000,"station_id":"ce4bh0p2rcd13ifvqd70","pricing_plan_id":"cebpf4jnsgd1na2vs0mg"},{"bike_id":"40323d2b-7fa4-44fa-8afd-3105efa74518","system_id":"levelo_inurba_marseille","lat":43.24168,"lon":5.39743,"is_reserved":false,"is_disabled":false,"rental_uris":{"android":"levelo://app?vid=40323d2b-7fa4-44fa-8afd-3105efa74518","ios":"levelo://app?vid=40323d2b-7fa4-44fa-8afd-3105efa74518"},"vehicle_type_id":"4","last_reported":1741028843,"current_range_meters":8400,"station_id":"ce4bhn12rcd13ifvqgpg","pricing_plan_id":"cebpf4jnsgd1na2vs0mg"},{"bike_id":"1d34f648-5239-430b-90b9-0227061e3556","system_id":"levelo_inurba_marseille","lat":43.28608,"lon":5.3707,"is_reserved":false,"is_disabled":false,"rental_uris":{"android":"levelo://app?vid=1d34f648-5239-430b-90b9-0227061e3556","ios":"levelo://app?vid=1d34f648-5239-430b-90b9-0227061e3556"},"vehicle_type_id":"4","last_reported":1741028843,"current_range_meters":8400,"station_id":"ce4bht12rcd13ifvqi60","pricing_plan_id":"cebpf4jnsgd1na2vs0mg"},{"bike_id":"92508342-016b-47ab-8141-2c3a8fa7f78c","system_id":"levelo_inurba_marseille","lat":43.29797,"lon":5.38097,"is_reserved":false,"is_disabled":false,"rental_uris":{"android":"levelo://app?vid=92508342-016b-47ab-8141-2c3a8fa7f78c","ios":"levelo://app?vid=92508342-016b-47ab-8141-2c3a8fa7f78c"},"vehicle_type_id":"4","last_reported":1741028843,"current_range_meters":8400,"station_id":"ce4bgip2rcd13ifvqbb0","pricing_plan_id":"cebpf4jnsgd1na2vs0mg"},{"bike_id":"2ab11bbe-a968-4ea2-8a15-b47f3045ae38","system_id":"levelo_inurba_marseille","lat":43.23189,"lon":5.3998,"is_reserved":false,"is_disabled":false,"rental_uris":{"android":"levelo://app?vid=2ab11bbe-a968-4ea2-8a15-b47f3045ae38","ios":"levelo://app?vid=2ab11bbe-a968-4ea2-8a15-b47f3045ae38"},"vehicle_type_id":"4","last_reported":1741028843,"current_range_meters":8400,"station_id":"ce4bhn12rcd13ifvqgqg","pricing_plan_id":"cebpf4jnsgd1na2vs0mg"},{"bike_id":"cc33fbb4-9af6-4003-b965-a7312e3c1cb7","system_id":"levelo_inurba_marseille","lat":43.29733,"lon":5.3794,"is_reserved":false,"is_disabled":false,"rental_uris":{"android":"levelo://app?vid=cc33fbb4-9af6-4003-b965-a7312e3c1cb7","ios":"levelo://app?vid=cc33fbb4-9af6-4003-b965-a7312e3c1cb7"},"vehicle_type_id":"4","last_reported":1741028843,"current_range_meters":8400,"station_id":"","pricing_plan_id":"cebpf4jnsgd1na2vs0mg"},{"bike_id":"333a6c0e-55ea-479e-8979-442cffca28fc","system_id":"levelo_inurba_marseille","lat":43.27812,"lon":5.40715,"is_reserved":false,"is_disabled":false,"rental_uris":{"android":"levelo://app?vid=333a6c0e-55ea-479e-8979-442cffca28fc","ios":"levelo://app?vid=333a6c0e-55ea-479e-8979-442cffca28fc"},"vehicle_type_id":"4","last_reported":1741028843,"current_range_meters":8400,"station_id":"ce4bhnh2rcd13ifvqgtg","pricing_plan_id":"cebpf4jnsgd1na2vs0mg"},{"bike_id":"46e7a504-f3ee-41c1-8f9a-51e5c7ae74e1","system_id":"levelo_inurba_marseille","lat":43.29641,"lon":5.40602,"is_reserved":false,"is_disabled":false,"rental_uris":{"android":"levelo://app?vid=46e7a504-f3ee-41c1-8f9a-51e5c7ae74e1","ios":"levelo://app?vid=46e7a504-f3ee-41c1-8f9a-51e5c7ae74e1"},"vehicle_type_id":"4","last_reported":1741028843,"current_range_meters":8400,"station_id":"ce4bh0h2rcd13ifvqd60","pricing_plan_id":"cebpf4jnsgd1na2vs0mg"},{"bike_id":"76d154d9-de45-47c4-aa4e-ebc4dd631146","system_id":"levelo_inurba_marseille","lat":43.29263,"lon":5.37621,"is_reserved":false,"is_disabled":false,"rental_uris":{"android":"levelo://app?vid=76d154d9-de45-47c4-aa4e-ebc4dd631146","ios":"levelo://app?vid=76d154d9-de45-47c4-aa4e-ebc4dd631146"},"vehicle_type_id":"4","last_reported":1741028843,"current_range_meters":8400,"station_id":"ce4bgi12rcd13ifvqb80","pricing_plan_id":"cebpf4jnsgd1na2vs0mg"},{"bike_id":"9aa030fc-75b6-46d2-bc65-2c1c00869ae1","system_id":"levelo_inurba_marseille","lat":43.25085,"lon":5.39524,"is_reserved":false,"is_disabled":false,"rental_uris":{"android":"levelo://app?vid=9aa030fc-75b6-46d2-bc65-2c1c00869ae1","ios":"levelo://app?vid=9aa030fc-75b6-46d2-bc65-2c1c00869ae1"},"vehicle_type_id":"4","last_reported":1741028843,"current_range_meters":8400,"station_id":"ce4bhm12rcd13ifvqgkg","pricing_plan_id":"cebpf4jnsgd1na2vs0mg"},{"bike_id":"21695fff-f155-4839-904c-88b17112f7ea","system_id":"levelo_inurba_marseille","lat":43.28403,"lon":5.37516,"is_reserved":false,"is_disabled":false,"rental_uris":{"android":"levelo://app?vid=21695fff-f155-4839-904c-88b17112f7ea","ios":"levelo://app?vid=21695fff-f155-4839-904c-88b17112f7ea"},"vehicle_type_id":"4","last_reported":1741028843,"current_range_meters":8400,"station_id":"ce4bh412rcd13ifvqds0","pricing_plan_id":"cebpf4jnsgd1na2vs0mg"},{"bike_id":"f2768923-5ee4-4dd0-b537-4dc0cfa1c53d","system_id":"levelo_inurba_marseille","lat":43.29695,"lon":5.36763,"is_reserved":false,"is_disabled":false,"rental_uris":{"android":"levelo://app?vid=f2768923-5ee4-4dd0-b537-4dc0cfa1c53d","ios":"levelo://app?vid=f2768923-5ee4-4dd0-b537-4dc0cfa1c53d"},"vehicle_type_id":"4","last_reported":1741028843,"current_range_meters":8800,"station_id":"ce4bgj92rcd13ifvqbd0","pricing_plan_id":"cebpf4jnsgd1na2vs0mg"},{"bike_id":"9ee3d017-a864-4e85-a47f-e27d4c7b327f","system_id":"levelo_inurba_marseille","lat":43.27812,"lon":5.40714,"is_reserved":false,"is_disabled":false,"rental_uris":{"android":"levelo://app?vid=9ee3d017-a864-4e85-a47f-e27d4c7b327f","ios":"levelo://app?vid=9ee3d017-a864-4e85-a47f-e27d4c7b327f"},"vehicle_type_id":"4","last_reported":1741028843,"current_range_meters":8800,"station_id":"","pricing_plan_id":"cebpf4jnsgd1na2vs0mg"},{"bike_id":"27d79748-37ff-44a9-9b3c-91da3ce4c1f0","system_id":"levelo_inurba_marseille","lat":43.28941,"lon":5.36408,"is_reserved":false,"is_disabled":false,"rental_uris":{"android":"levelo://app?vid=27d79748-37ff-44a9-9b3c-91da3ce4c1f0","ios":"levelo://app?vid=27d79748-37ff-44a9-9b3c-91da3ce4c1f0"},"vehicle_type_id":"4","last_reported":1741028843,"current_range_meters":8800,"station_id":"ce4bhc92rcd13ifvqetg","pricing_plan_id":"cebpf4jnsgd1na2vs0mg"},{"bike_id":"83e96fc2-577d-4bdd-a82a-f6df6246bb8f","system_id":"levelo_inurba_marseille","lat":43.29267,"lon":5.36841,"is_reserved":false,"is_disabled":false,"rental_uris":{"android":"levelo://app?vid=83e96fc2-577d-4bdd-a82a-f6df6246bb8f","ios":"levelo://app?vid=83e96fc2-577d-4bdd-a82a-f6df6246bb8f"},"vehicle_type_id":"4","last_reported":1741028843,"current_range_meters":8800,"station_id":"ce4bhbp2rcd13ifvqesg","pricing_plan_id":"cebpf4jnsgd1na2vs0mg"},{"bike_id":"d7ce44cc-3af2-4647-93ca-8a6f7b44c256","system_id":"levelo_inurba_marseille","lat":43.32789,"lon":5.39155,"is_reserved":false,"is_disabled":false,"rental_uris":{"android":"levelo://app?vid=d7ce44cc-3af2-4647-93ca-8a6f7b44c256","ios":"levelo://app?vid=d7ce44cc-3af2-4647-93ca-8a6f7b44c256"},"vehicle_type_id":"4","last_reported":1741028843,"current_range_meters":8800,"station_id":"","pricing_plan_id":"cebpf4jnsgd1na2vs0mg"},{"bike_id":"2f0b80d9-59f7-4334-be85-b33604a2c47a","system_id":"levelo_inurba_marseille","lat":43.24176,"lon":5.36417,"is_reserved":false,"is_disabled":false,"rental_uris":{"android":"levelo://app?vid=2f0b80d9-59f7-4334-be85-b33604a2c47a","ios":"levelo://app?vid=2f0b80d9-59f7-4334-be85-b33604a2c47a"},"vehicle_type_id":"4","last_reported":1741028843,"current_range_meters":9200,"station_id":"cpo36qri1sfpv3e86is0","pricing_plan_id":"cebpf4jnsgd1na2vs0mg"},{"bike_id":"08272454-3723-4d05-8bf6-1eaae2029b64","system_id":"levelo_inurba_marseille","lat":43.2781,"lon":5.40718,"is_reserved":false,"is_disabled":false,"rental_uris":{"android":"levelo://app?vid=08272454-3723-4d05-8bf6-1eaae2029b64","ios":"levelo://app?vid=08272454-3723-4d05-8bf6-1eaae2029b64"},"vehicle_type_id":"4","last_reported":1741028843,"current_range_meters":9200,"station_id":"ce4bhnh2rcd13ifvqgtg","pricing_plan_id":"cebpf4jnsgd1na2vs0mg"},{"bike_id":"b21e25bd-5fe3-4b4c-9515-724946c2cde8","system_id":"levelo_inurba_marseille","lat":43.28457,"lon":5.35889,"is_reserved":false,"is_disabled":false,"rental_uris":{"android":"levelo://app?vid=b21e25bd-5fe3-4b4c-9515-724946c2cde8","ios":"levelo://app?vid=b21e25bd-5fe3-4b4c-9515-724946c2cde8"},"vehicle_type_id":"4","last_reported":1741028843,"current_range_meters":9200,"station_id":"ce4bhah2rcd13ifvqei0","pricing_plan_id":"cebpf4jnsgd1na2vs0mg"},{"bike_id":"8ade5181-cd88-4ece-8534-46a6372826ef","system_id":"levelo_inurba_marseille","lat":43.27717,"lon":5.41528,"is_reserved":false,"is_disabled":false,"rental_uris":{"android":"levelo://app?vid=8ade5181-cd88-4ece-8534-46a6372826ef","ios":"levelo://app?vid=8ade5181-cd88-4ece-8534-46a6372826ef"},"vehicle_type_id":"4","last_reported":1741028843,"current_range_meters":9200,"station_id":"","pricing_plan_id":"cebpf4jnsgd1na2vs0mg"},{"bike_id":"6d4c1863-5b62-4c5a-885f-92e7721e779d","system_id":"levelo_inurba_marseille","lat":43.28456,"lon":5.35898,"is_reserved":false,"is_disabled":false,"rental_uris":{"android":"levelo://app?vid=6d4c1863-5b62-4c5a-885f-92e7721e779d","ios":"levelo://app?vid=6d4c1863-5b62-4c5a-885f-92e7721e779d"},"vehicle_type_id":"4","last_reported":1741028843,"current_range_meters":9200,"station_id":"ce4bhah2rcd13ifvqei0","pricing_plan_id":"cebpf4jnsgd1na2vs0mg"},{"bike_id":"b39b1018-4e48-4939-acdb-f4fc8f78493b","system_id":"levelo_inurba_marseille","lat":43.29716,"lon":5.36608,"is_reserved":false,"is_disabled":false,"rental_uris":{"android":"levelo://app?vid=b39b1018-4e48-4939-acdb-f4fc8f78493b","ios":"levelo://app?vid=b39b1018-4e48-4939-acdb-f4fc8f78493b"},"vehicle_type_id":"4","last_reported":1741028843,"current_range_meters":9200,"station_id":"ce4bgn12rcd13ifvqbt0","pricing_plan_id":"cebpf4jnsgd1na2vs0mg"},{"bike_id":"45ec3018-31a6-48f7-9605-e884ba196cac","system_id":"levelo_inurba_marseille","lat":43.28268,"lon":5.35061,"is_reserved":false,"is_disabled":false,"rental_uris":{"android":"levelo://app?vid=45ec3018-31a6-48f7-9605-e884ba196cac","ios":"levelo://app?vid=45ec3018-31a6-48f7-9605-e884ba196cac"},"vehicle_type_id":"4","last_reported":1741028843,"current_range_meters":9200,"station_id":"ce4bhbp2rcd13ifvqerg","pricing_plan_id":"cebpf4jnsgd1na2vs0mg"},{"bike_id":"98d0825f-31c8-4d5c-9f01-e7a8c05900e5","system_id":"levelo_inurba_marseille","lat":43.28363,"lon":5.3862,"is_reserved":false,"is_disabled":false,"rental_uris":{"android":"levelo://app?vid=98d0825f-31c8-4d5c-9f01-e7a8c05900e5","ios":"levelo://app?vid=98d0825f-31c8-4d5c-9f01-e7a8c05900e5"},"vehicle_type_id":"4","last_reported":1741028843,"current_range_meters":9200,"station_id":"ce4bh492rcd13ifvqdvg","pricing_plan_id":"cebpf4jnsgd1na2vs0mg"},{"bike_id":"4be1617a-3f98-419b-a490-f3c7e9a08bb4","system_id":"levelo_inurba_marseille","lat":43.32334,"lon":5.40621,"is_reserved":false,"is_disabled":false,"rental_uris":{"android":"levelo://app?vid=4be1617a-3f98-419b-a490-f3c7e9a08bb4","ios":"levelo://app?vid=4be1617a-3f98-419b-a490-f3c7e9a08bb4"},"vehicle_type_id":"4","last_reported":1741028843,"current_range_meters":9200,"station_id":"ce4bhq92rcd13ifvqhjg","pricing_plan_id":"cebpf4jnsgd1na2vs0mg"},{"bike_id":"87aa6962-4521-45e2-b329-c7da6122dc3b","system_id":"levelo_inurba_marseille","lat":43.28929,"lon":5.36635,"is_reserved":false,"is_disabled":false,"rental_uris":{"android":"levelo://app?vid=87aa6962-4521-45e2-b329-c7da6122dc3b","ios":"levelo://app?vid=87aa6962-4521-45e2-b329-c7da6122dc3b"},"vehicle_type_id":"4","last_reported":1741028843,"current_range_meters":9200,"station_id":"ce4bhap2rcd13ifvqek0","pricing_plan_id":"cebpf4jnsgd1na2vs0mg"},{"bike_id":"363384fc-6347-4de1-be06-bef546276c5a","system_id":"levelo_inurba_marseille","lat":43.31369,"lon":5.38491,"is_reserved":false,"is_disabled":false,"rental_uris":{"android":"levelo://app?vid=363384fc-6347-4de1-be06-bef546276c5a","ios":"levelo://app?vid=363384fc-6347-4de1-be06-bef546276c5a"},"vehicle_type_id":"4","last_reported":1741028843,"current_range_meters":9200,"station_id":"ce4bgt92rcd13ifvqcf0","pricing_plan_id":"cebpf4jnsgd1na2vs0mg"},{"bike_id":"e41e0bb8-6c1c-4ce2-b18d-069e130ca183","system_id":"levelo_inurba_marseille","lat":43.23051,"lon":5.35499,"is_reserved":false,"is_disabled":false,"rental_uris":{"android":"levelo://app?vid=e41e0bb8-6c1c-4ce2-b18d-069e130ca183","ios":"levelo://app?vid=e41e0bb8-6c1c-4ce2-b18d-069e130ca183"},"vehicle_type_id":"4","last_reported":1741028843,"current_range_meters":9200,"station_id":"cpo3342slgdg3j2ifvpg","pricing_plan_id":"cebpf4jnsgd1na2vs0mg"},{"bike_id":"e5af46d8-756e-4b29-887f-202b12c3baa0","system_id":"levelo_inurba_marseille","lat":43.3041,"lon":5.41297,"is_reserved":false,"is_disabled":false,"rental_uris":{"android":"levelo://app?vid=e5af46d8-756e-4b29-887f-202b12c3baa0","ios":"levelo://app?vid=e5af46d8-756e-4b29-887f-202b12c3baa0"},"vehicle_type_id":"4","last_reported":1741028843,"current_range_meters":9200,"station_id":"ce4bhop2rcd13ifvqh8g","pricing_plan_id":"cebpf4jnsgd1na2vs0mg"},{"bike_id":"c8c30254-af6a-4a88-b0b6-9a3a52022bea","system_id":"levelo_inurba_marseille","lat":43.32455,"lon":5.42672,"is_reserved":false,"is_disabled":false,"rental_uris":{"android":"levelo://app?vid=c8c30254-af6a-4a88-b0b6-9a3a52022bea","ios":"levelo://app?vid=c8c30254-af6a-4a88-b0b6-9a3a52022bea"},"vehicle_type_id":"4","last_reported":1741028843,"current_range_meters":9600,"station_id":"","pricing_plan_id":"cebpf4jnsgd1na2vs0mg"},{"bike_id":"5b69c928-069c-4522-8a93-8676e4f351de","system_id":"levelo_inurba_marseille","lat":43.28459,"lon":5.35886,"is_reserved":false,"is_disabled":false,"rental_uris":{"android":"levelo://app?vid=5b69c928-069c-4522-8a93-8676e4f351de","ios":"levelo://app?vid=5b69c928-069c-4522-8a93-8676e4f351de"},"vehicle_type_id":"4","last_reported":1741028843,"current_range_meters":9600,"station_id":"ce4bhah2rcd13ifvqei0","pricing_plan_id":"cebpf4jnsgd1na2vs0mg"},{"bike_id":"ce8ef3d2-07e3-4512-8813-bcde53a01429","system_id":"levelo_inurba_marseille","lat":43.24157,"lon":5.36416,"is_reserved":false,"is_disabled":false,"rental_uris":{"android":"levelo://app?vid=ce8ef3d2-07e3-4512-8813-bcde53a01429","ios":"levelo://app?vid=ce8ef3d2-07e3-4512-8813-bcde53a01429"},"vehicle_type_id":"4","last_reported":1741028843,"current_range_meters":9600,"station_id":"cpo36qri1sfpv3e86is0","pricing_plan_id":"cebpf4jnsgd1na2vs0mg"},{"bike_id":"8853f3b9-20a3-4480-9c1d-81721e27d9f9","system_id":"levelo_inurba_marseille","lat":43.26067,"lon":5.39385,"is_reserved":false,"is_disabled":false,"rental_uris":{"android":"levelo://app?vid=8853f3b9-20a3-4480-9c1d-81721e27d9f9","ios":"levelo://app?vid=8853f3b9-20a3-4480-9c1d-81721e27d9f9"},"vehicle_type_id":"4","last_reported":1741028843,"current_range_meters":9600,"station_id":"ce4bhh92rcd13ifvqfj0","pricing_plan_id":"cebpf4jnsgd1na2vs0mg"},{"bike_id":"48d33537-7de8-4746-9396-b1f5f4e83f13","system_id":"levelo_inurba_marseille","lat":43.24075,"lon":5.37763,"is_reserved":false,"is_disabled":false,"rental_uris":{"android":"levelo://app?vid=48d33537-7de8-4746-9396-b1f5f4e83f13","ios":"levelo://app?vid=48d33537-7de8-4746-9396-b1f5f4e83f13"},"vehicle_type_id":"4","last_reported":1741028843,"current_range_meters":9600,"station_id":"ce4bhnp2rcd13ifvqgvg","pricing_plan_id":"cebpf4jnsgd1na2vs0mg"},{"bike_id":"089251b4-101d-44dd-a4b2-0e114c7f8e04","system_id":"levelo_inurba_marseille","lat":43.30426,"lon":5.39752,"is_reserved":false,"is_disabled":false,"rental_uris":{"android":"levelo://app?vid=089251b4-101d-44dd-a4b2-0e114c7f8e04","ios":"levelo://app?vid=089251b4-101d-44dd-a4b2-0e114c7f8e04"},"vehicle_type_id":"4","last_reported":1741028843,"current_range_meters":9600,"station_id":"ce4bh092rcd13ifvqd20","pricing_plan_id":"cebpf4jnsgd1na2vs0mg"},{"bike_id":"fcc1e2d7-d27d-4efa-925e-da5eb0b689fc","system_id":"levelo_inurba_marseille","lat":43.28121,"lon":5.37842,"is_reserved":false,"is_disabled":false,"rental_uris":{"android":"levelo://app?vid=fcc1e2d7-d27d-4efa-925e-da5eb0b689fc","ios":"levelo://app?vid=fcc1e2d7-d27d-4efa-925e-da5eb0b689fc"},"vehicle_type_id":"4","last_reported":1741028843,"current_range_meters":9600,"station_id":"ce4bha12rcd13ifvqee0","pricing_plan_id":"cebpf4jnsgd1na2vs0mg"},{"bike_id":"fa1becb4-876d-4e10-9a14-5d4a50592266","system_id":"levelo_inurba_marseille","lat":43.291865,"lon":5.408077,"is_reserved":false,"is_disabled":false,"rental_uris":{"android":"levelo://app?vid=fa1becb4-876d-4e10-9a14-5d4a50592266","ios":"levelo://app?vid=fa1becb4-876d-4e10-9a14-5d4a50592266"},"vehicle_type_id":"4","last_reported":1741028843,"current_range_meters":9600,"station_id":"ce4bh3h2rcd13ifvqdn0","pricing_plan_id":"cebpf4jnsgd1na2vs0mg"},{"bike_id":"ffd5fa35-92ec-4cc7-9a87-e8633ad3e1d2","system_id":"levelo_inurba_marseille","lat":43.27817,"lon":5.40716,"is_reserved":false,"is_disabled":false,"rental_uris":{"android":"levelo://app?vid=ffd5fa35-92ec-4cc7-9a87-e8633ad3e1d2","ios":"levelo://app?vid=ffd5fa35-92ec-4cc7-9a87-e8633ad3e1d2"},"vehicle_type_id":"4","last_reported":1741028843,"current_range_meters":9600,"station_id":"ce4bhnh2rcd13ifvqgtg","pricing_plan_id":"cebpf4jnsgd1na2vs0mg"},{"bike_id":"4586ca83-2f5e-4b63-b2a9-29ed75f9f1db","system_id":"levelo_inurba_marseille","lat":43.28718,"lon":5.3612,"is_reserved":false,"is_disabled":false,"rental_uris":{"android":"levelo://app?vid=4586ca83-2f5e-4b63-b2a9-29ed75f9f1db","ios":"levelo://app?vid=4586ca83-2f5e-4b63-b2a9-29ed75f9f1db"},"vehicle_type_id":"4","last_reported":1741028843,"current_range_meters":9600,"station_id":"cki0cbj6b192h4jlfktg","pricing_plan_id":"cebpf4jnsgd1na2vs0mg"},{"bike_id":"eac991c0-65e5-4dc5-9b70-2f5e83a3119b","system_id":"levelo_inurba_marseille","lat":43.28418,"lon":5.37511,"is_reserved":false,"is_disabled":false,"rental_uris":{"android":"levelo://app?vid=eac991c0-65e5-4dc5-9b70-2f5e83a3119b","ios":"levelo://app?vid=eac991c0-65e5-4dc5-9b70-2f5e83a3119b"},"vehicle_type_id":"4","last_reported":1741028843,"current_range_meters":9600,"station_id":"ce4bh412rcd13ifvqds0","pricing_plan_id":"cebpf4jnsgd1na2vs0mg"},{"bike_id":"653759b4-e960-429b-96f0-2f8ae3aa5797","system_id":"levelo_inurba_marseille","lat":43.28095,"lon":5.37838,"is_reserved":false,"is_disabled":false,"rental_uris":{"android":"levelo://app?vid=653759b4-e960-429b-96f0-2f8ae3aa5797","ios":"levelo://app?vid=653759b4-e960-429b-96f0-2f8ae3aa5797"},"vehicle_type_id":"4","last_reported":1741028843,"current_range_meters":9600,"station_id":"ce4bha12rcd13ifvqee0","pricing_plan_id":"cebpf4jnsgd1na2vs0mg"},{"bike_id":"69c64ec9-e24d-4807-ad49-cbbbaf87179a","system_id":"levelo_inurba_marseille","lat":43.269434,"lon":5.402546,"is_reserved":false,"is_disabled":false,"rental_uris":{"android":"levelo://app?vid=69c64ec9-e24d-4807-ad49-cbbbaf87179a","ios":"levelo://app?vid=69c64ec9-e24d-4807-ad49-cbbbaf87179a"},"vehicle_type_id":"4","last_reported":1741028843,"current_range_meters":9600,"station_id":"cjm6bp8fraef2m0cb0m0","pricing_plan_id":"cebpf4jnsgd1na2vs0mg"},{"bike_id":"9a9a1bb1-cfc6-481d-a86b-b0a179d777f1","system_id":"levelo_inurba_marseille","lat":43.30593,"lon":5.3935,"is_reserved":false,"is_disabled":false,"rental_uris":{"android":"levelo://app?vid=9a9a1bb1-cfc6-481d-a86b-b0a179d777f1","ios":"levelo://app?vid=9a9a1bb1-cfc6-481d-a86b-b0a179d777f1"},"vehicle_type_id":"4","last_reported":1741028843,"current_range_meters":9600,"station_id":"ce4bh0p2rcd13ifvqd80","pricing_plan_id":"cebpf4jnsgd1na2vs0mg"},{"bike_id":"b53e751e-c2f6-4da9-aba0-fe23543b117d","system_id":"levelo_inurba_marseille","lat":43.28082,"lon":5.39661,"is_reserved":false,"is_disabled":false,"rental_uris":{"android":"levelo://app?vid=b53e751e-c2f6-4da9-aba0-fe23543b117d","ios":"levelo://app?vid=b53e751e-c2f6-4da9-aba0-fe23543b117d"},"vehicle_type_id":"4","last_reported":1741028843,"current_range_meters":9600,"station_id":"ce4bho12rcd13ifvqh2g","pricing_plan_id":"cebpf4jnsgd1na2vs0mg"},{"bike_id":"b3e66660-ec1c-42ea-8782-8b8d085180e6","system_id":"levelo_inurba_marseille","lat":43.29316,"lon":5.40179,"is_reserved":false,"is_disabled":false,"rental_uris":{"android":"levelo://app?vid=b3e66660-ec1c-42ea-8782-8b8d085180e6","ios":"levelo://app?vid=b3e66660-ec1c-42ea-8782-8b8d085180e6"},"vehicle_type_id":"4","last_reported":1741028843,"current_range_meters":9600,"station_id":"","pricing_plan_id":"cebpf4jnsgd1na2vs0mg"},{"bike_id":"9c786e03-2f25-4bd0-a17f-b92c6f941aa7","system_id":"levelo_inurba_marseille","lat":43.26153,"lon":5.393544,"is_reserved":false,"is_disabled":false,"rental_uris":{"android":"levelo://app?vid=9c786e03-2f25-4bd0-a17f-b92c6f941aa7","ios":"levelo://app?vid=9c786e03-2f25-4bd0-a17f-b92c6f941aa7"},"vehicle_type_id":"4","last_reported":1741028843,"current_range_meters":9600,"station_id":"ce4bhip2rcd13ifvqft0","pricing_plan_id":"cebpf4jnsgd1na2vs0mg"},{"bike_id":"e7d02aea-a5f1-47d2-9f85-fe1a246d83da","system_id":"levelo_inurba_marseille","lat":43.32361,"lon":5.38884,"is_reserved":false,"is_disabled":false,"rental_uris":{"android":"levelo://app?vid=e7d02aea-a5f1-47d2-9f85-fe1a246d83da","ios":"levelo://app?vid=e7d02aea-a5f1-47d2-9f85-fe1a246d83da"},"vehicle_type_id":"4","last_reported":1741028843,"current_range_meters":9600,"station_id":"ce4bhqp2rcd13ifvqhog","pricing_plan_id":"cebpf4jnsgd1na2vs0mg"},{"bike_id":"5f6058f8-17d6-41f9-bf21-73aab62a2071","system_id":"levelo_inurba_marseille","lat":43.25809,"lon":5.39458,"is_reserved":false,"is_disabled":false,"rental_uris":{"android":"levelo://app?vid=5f6058f8-17d6-41f9-bf21-73aab62a2071","ios":"levelo://app?vid=5f6058f8-17d6-41f9-bf21-73aab62a2071"},"vehicle_type_id":"4","last_reported":1741028843,"current_range_meters":10000,"station_id":"ce4bhip2rcd13ifvqft0","pricing_plan_id":"cebpf4jnsgd1na2vs0mg"},{"bike_id":"8a926c1c-bce9-43a8-b444-8cbd0ddeca91","system_id":"levelo_inurba_marseille","lat":43.337444,"lon":5.374475,"is_reserved":false,"is_disabled":true,"rental_uris":{"android":"levelo://app?vid=8a926c1c-bce9-43a8-b444-8cbd0ddeca91","ios":"levelo://app?vid=8a926c1c-bce9-43a8-b444-8cbd0ddeca91"},"vehicle_type_id":"4","last_reported":1741028843,"current_range_meters":10000,"station_id":"","pricing_plan_id":"cebpf4jnsgd1na2vs0mg"},{"bike_id":"d7017455-e845-4cf7-87ff-9fab3b262731","system_id":"levelo_inurba_marseille","lat":43.29046,"lon":5.39961,"is_reserved":false,"is_disabled":false,"rental_uris":{"android":"levelo://app?vid=d7017455-e845-4cf7-87ff-9fab3b262731","ios":"levelo://app?vid=d7017455-e845-4cf7-87ff-9fab3b262731"},"vehicle_type_id":"4","last_reported":1741028843,"current_range_meters":10800,"station_id":"ce4bh392rcd13ifvqdm0","pricing_plan_id":"cebpf4jnsgd1na2vs0mg"},{"bike_id":"71cd5d9d-c4a9-4d7f-b25c-bd7ceef0b27e","system_id":"levelo_inurba_marseille","lat":43.31271,"lon":5.3775,"is_reserved":false,"is_disabled":false,"rental_uris":{"android":"levelo://app?vid=71cd5d9d-c4a9-4d7f-b25c-bd7ceef0b27e","ios":"levelo://app?vid=71cd5d9d-c4a9-4d7f-b25c-bd7ceef0b27e"},"vehicle_type_id":"4","last_reported":1741028843,"current_range_meters":10000,"station_id":"","pricing_plan_id":"cebpf4jnsgd1na2vs0mg"},{"bike_id":"cfff197d-74ac-4300-81c7-c4b6d9f1ad1a","system_id":"levelo_inurba_marseille","lat":43.25823,"lon":5.39436,"is_reserved":false,"is_disabled":false,"rental_uris":{"android":"levelo://app?vid=cfff197d-74ac-4300-81c7-c4b6d9f1ad1a","ios":"levelo://app?vid=cfff197d-74ac-4300-81c7-c4b6d9f1ad1a"},"vehicle_type_id":"4","last_reported":1741028843,"current_range_meters":10000,"station_id":"ce4bhip2rcd13ifvqft0","pricing_plan_id":"cebpf4jnsgd1na2vs0mg"},{"bike_id":"9de31664-78c8-4270-8903-4906d276beb2","system_id":"levelo_inurba_marseille","lat":43.28083,"lon":5.39658,"is_reserved":false,"is_disabled":false,"rental_uris":{"android":"levelo://app?vid=9de31664-78c8-4270-8903-4906d276beb2","ios":"levelo://app?vid=9de31664-78c8-4270-8903-4906d276beb2"},"vehicle_type_id":"4","last_reported":1741028843,"current_range_meters":10000,"station_id":"ce4bho12rcd13ifvqh2g","pricing_plan_id":"cebpf4jnsgd1na2vs0mg"},{"bike_id":"0861f41b-d308-43ab-b5f1-23ddeec2c6cf","system_id":"levelo_inurba_marseille","lat":43.27072,"lon":5.4228,"is_reserved":false,"is_disabled":false,"rental_uris":{"android":"levelo://app?vid=0861f41b-d308-43ab-b5f1-23ddeec2c6cf","ios":"levelo://app?vid=0861f41b-d308-43ab-b5f1-23ddeec2c6cf"},"vehicle_type_id":"4","last_reported":1741028843,"current_range_meters":10000,"station_id":"ce4bhk92rcd13ifvqgb0","pricing_plan_id":"cebpf4jnsgd1na2vs0mg"},{"bike_id":"8db2b8e3-db8c-46d1-8782-db1b004c8ba7","system_id":"levelo_inurba_marseille","lat":43.2926,"lon":5.40908,"is_reserved":false,"is_disabled":false,"rental_uris":{"android":"levelo://app?vid=8db2b8e3-db8c-46d1-8782-db1b004c8ba7","ios":"levelo://app?vid=8db2b8e3-db8c-46d1-8782-db1b004c8ba7"},"vehicle_type_id":"4","last_reported":1741028843,"current_range_meters":10000,"station_id":"ce4bh192rcd13ifvqdc0","pricing_plan_id":"cebpf4jnsgd1na2vs0mg"},{"bike_id":"1435b1a0-ef09-45e5-a3de-ae96b7aced1c","system_id":"levelo_inurba_marseille","lat":43.289383,"lon":5.366438,"is_reserved":false,"is_disabled":false,"rental_uris":{"android":"levelo://app?vid=1435b1a0-ef09-45e5-a3de-ae96b7aced1c","ios":"levelo://app?vid=1435b1a0-ef09-45e5-a3de-ae96b7aced1c"},"vehicle_type_id":"4","last_reported":1741028843,"current_range_meters":9600,"station_id":"ce4bhap2rcd13ifvqek0","pricing_plan_id":"cebpf4jnsgd1na2vs0mg"},{"bike_id":"cdb7b82b-8591-427b-abcc-5cab10bc4c90","system_id":"levelo_inurba_marseille","lat":43.29844,"lon":5.36273,"is_reserved":false,"is_disabled":false,"rental_uris":{"android":"levelo://app?vid=cdb7b82b-8591-427b-abcc-5cab10bc4c90","ios":"levelo://app?vid=cdb7b82b-8591-427b-abcc-5cab10bc4c90"},"vehicle_type_id":"4","last_reported":1741028843,"current_range_meters":10000,"station_id":"ce4bgpp2rcd13ifvqc3g","pricing_plan_id":"cebpf4jnsgd1na2vs0mg"},{"bike_id":"35af5cdd-93fc-40ab-8fad-3ee3d5572abe","system_id":"levelo_inurba_marseille","lat":43.26805,"lon":5.40272,"is_reserved":false,"is_disabled":false,"rental_uris":{"android":"levelo://app?vid=35af5cdd-93fc-40ab-8fad-3ee3d5572abe","ios":"levelo://app?vid=35af5cdd-93fc-40ab-8fad-3ee3d5572abe"},"vehicle_type_id":"4","last_reported":1741028843,"current_range_meters":10000,"station_id":"ce501612rcd8frsf0b60","pricing_plan_id":"cebpf4jnsgd1na2vs0mg"},{"bike_id":"20f28f92-adf9-48e3-a33b-83ded65127c5","system_id":"levelo_inurba_marseille","lat":43.23078,"lon":5.35505,"is_reserved":false,"is_disabled":false,"rental_uris":{"android":"levelo://app?vid=20f28f92-adf9-48e3-a33b-83ded65127c5","ios":"levelo://app?vid=20f28f92-adf9-48e3-a33b-83ded65127c5"},"vehicle_type_id":"4","last_reported":1741028843,"current_range_meters":10000,"station_id":"cpo3342slgdg3j2ifvpg","pricing_plan_id":"cebpf4jnsgd1na2vs0mg"},{"bike_id":"f6eb9592-fc92-442a-81d8-aa644308ff02","system_id":"levelo_inurba_marseille","lat":43.284088,"lon":5.37501,"is_reserved":false,"is_disabled":false,"rental_uris":{"android":"levelo://app?vid=f6eb9592-fc92-442a-81d8-aa644308ff02","ios":"levelo://app?vid=f6eb9592-fc92-442a-81d8-aa644308ff02"},"vehicle_type_id":"4","last_reported":1741028843,"current_range_meters":10000,"station_id":"cpo3342slgdg3j2ifvpg","pricing_plan_id":"cebpf4jnsgd1na2vs0mg"},{"bike_id":"9fae9d96-dd99-4bba-9f1a-9e0b80122715","system_id":"levelo_inurba_marseille","lat":43.262,"lon":5.37934,"is_reserved":false,"is_disabled":false,"rental_uris":{"android":"levelo://app?vid=9fae9d96-dd99-4bba-9f1a-9e0b80122715","ios":"levelo://app?vid=9fae9d96-dd99-4bba-9f1a-9e0b80122715"},"vehicle_type_id":"4","last_reported":1741028843,"current_range_meters":10800,"station_id":"ce4bhjp2rcd13ifvqg90","pricing_plan_id":"cebpf4jnsgd1na2vs0mg"},{"bike_id":"853e9f93-6f18-4242-b269-d87025e7bb93","system_id":"levelo_inurba_marseille","lat":43.30732,"lon":5.37138,"is_reserved":false,"is_disabled":false,"rental_uris":{"android":"levelo://app?vid=853e9f93-6f18-4242-b269-d87025e7bb93","ios":"levelo://app?vid=853e9f93-6f18-4242-b269-d87025e7bb93"},"vehicle_type_id":"4","last_reported":1741028843,"current_range_meters":10800,"station_id":"","pricing_plan_id":"cebpf4jnsgd1na2vs0mg"},{"bike_id":"17908224-c68a-4e08-a998-a35b9c818f5d","system_id":"levelo_inurba_marseille","lat":43.24635,"lon":5.38904,"is_reserved":false,"is_disabled":false,"rental_uris":{"android":"levelo://app?vid=17908224-c68a-4e08-a998-a35b9c818f5d","ios":"levelo://app?vid=17908224-c68a-4e08-a998-a35b9c818f5d"},"vehicle_type_id":"4","last_reported":1741028843,"current_range_meters":10800,"station_id":"ce4bhg12rcd13ifvqf60","pricing_plan_id":"cebpf4jnsgd1na2vs0mg"},{"bike_id":"e29f86e8-2c96-484f-9c1f-a6eb3cd7348e","system_id":"levelo_inurba_marseille","lat":43.28002,"lon":5.41664,"is_reserved":false,"is_disabled":false,"rental_uris":{"android":"levelo://app?vid=e29f86e8-2c96-484f-9c1f-a6eb3cd7348e","ios":"levelo://app?vid=e29f86e8-2c96-484f-9c1f-a6eb3cd7348e"},"vehicle_type_id":"4","last_reported":1741028843,"current_range_meters":10800,"station_id":"ce4bho12rcd13ifvqh1g","pricing_plan_id":"cebpf4jnsgd1na2vs0mg"},{"bike_id":"caedf473-9313-4874-87c8-230b4a1efdb8","system_id":"levelo_inurba_marseille","lat":43.32487,"lon":5.3657,"is_reserved":false,"is_disabled":false,"rental_uris":{"android":"levelo://app?vid=caedf473-9313-4874-87c8-230b4a1efdb8","ios":"levelo://app?vid=caedf473-9313-4874-87c8-230b4a1efdb8"},"vehicle_type_id":"4","last_reported":1741028843,"current_range_meters":10800,"station_id":"ce4bhs12rcd13ifvqhvg","pricing_plan_id":"cebpf4jnsgd1na2vs0mg"},{"bike_id":"e46aaa24-439a-4b2f-b104-8839e0fa87f7","system_id":"levelo_inurba_marseille","lat":43.27826,"lon":5.40725,"is_reserved":false,"is_disabled":false,"rental_uris":{"android":"levelo://app?vid=e46aaa24-439a-4b2f-b104-8839e0fa87f7","ios":"levelo://app?vid=e46aaa24-439a-4b2f-b104-8839e0fa87f7"},"vehicle_type_id":"4","last_reported":1741028843,"current_range_meters":10800,"station_id":"ce4bhnh2rcd13ifvqgtg","pricing_plan_id":"cebpf4jnsgd1na2vs0mg"},{"bike_id":"0c943d4e-54e6-4eb2-ba36-1216e5ea5e52","system_id":"levelo_inurba_marseille","lat":43.29178,"lon":5.37153,"is_reserved":false,"is_disabled":false,"rental_uris":{"android":"levelo://app?vid=0c943d4e-54e6-4eb2-ba36-1216e5ea5e52","ios":"levelo://app?vid=0c943d4e-54e6-4eb2-ba36-1216e5ea5e52"},"vehicle_type_id":"4","last_reported":1741028843,"current_range_meters":10800,"station_id":"ce4bha92rcd13ifvqeh0","pricing_plan_id":"cebpf4jnsgd1na2vs0mg"},{"bike_id":"84d59691-2fe2-40f5-99af-d69b01f1f4e5","system_id":"levelo_inurba_marseille","lat":43.29192,"lon":5.39342,"is_reserved":false,"is_disabled":false,"rental_uris":{"android":"levelo://app?vid=84d59691-2fe2-40f5-99af-d69b01f1f4e5","ios":"levelo://app?vid=84d59691-2fe2-40f5-99af-d69b01f1f4e5"},"vehicle_type_id":"4","last_reported":1741028843,"current_range_meters":10800,"station_id":"ce4bh192rcd13ifvqdd0","pricing_plan_id":"cebpf4jnsgd1na2vs0mg"},{"bike_id":"ee26afb6-ba4c-4dc4-8464-b764cc25857b","system_id":"levelo_inurba_marseille","lat":43.27953,"lon":5.41073,"is_reserved":false,"is_disabled":false,"rental_uris":{"android":"levelo://app?vid=ee26afb6-ba4c-4dc4-8464-b764cc25857b","ios":"levelo://app?vid=ee26afb6-ba4c-4dc4-8464-b764cc25857b"},"vehicle_type_id":"4","last_reported":1741028843,"current_range_meters":10800,"station_id":"ce4bhnp2rcd13ifvqh0g","pricing_plan_id":"cebpf4jnsgd1na2vs0mg"},{"bike_id":"48766e60-a39f-4b63-b5b9-f8725bf9eb95","system_id":"levelo_inurba_marseille","lat":43.279066,"lon":5.380148,"is_reserved":false,"is_disabled":false,"rental_uris":{"android":"levelo://app?vid=48766e60-a39f-4b63-b5b9-f8725bf9eb95","ios":"levelo://app?vid=48766e60-a39f-4b63-b5b9-f8725bf9eb95"},"vehicle_type_id":"4","last_reported":1741028843,"current_range_meters":10800,"station_id":"ce4bhf92rcd13ifvqf50","pricing_plan_id":"cebpf4jnsgd1na2vs0mg"},{"bike_id":"dd1f8279-3140-4cc7-9d4f-2981bc73d236","system_id":"levelo_inurba_marseille","lat":43.32324,"lon":5.4065,"is_reserved":false,"is_disabled":false,"rental_uris":{"android":"levelo://app?vid=dd1f8279-3140-4cc7-9d4f-2981bc73d236","ios":"levelo://app?vid=dd1f8279-3140-4cc7-9d4f-2981bc73d236"},"vehicle_type_id":"4","last_reported":1741028843,"current_range_meters":11200,"station_id":"ce4bhq92rcd13ifvqhjg","pricing_plan_id":"cebpf4jnsgd1na2vs0mg"},{"bike_id":"e1993c30-bf76-4bdd-b6e8-6751d5d1e137","system_id":"levelo_inurba_marseille","lat":43.28579,"lon":5.39492,"is_reserved":false,"is_disabled":false,"rental_uris":{"android":"levelo://app?vid=e1993c30-bf76-4bdd-b6e8-6751d5d1e137","ios":"levelo://app?vid=e1993c30-bf76-4bdd-b6e8-6751d5d1e137"},"vehicle_type_id":"4","last_reported":1741028843,"current_range_meters":11200,"station_id":"ce4bh292rcd13ifvqdg0","pricing_plan_id":"cebpf4jnsgd1na2vs0mg"},{"bike_id":"f71f9016-cd7a-4d2f-a244-6b67297b159e","system_id":"levelo_inurba_marseille","lat":43.27917,"lon":5.41665,"is_reserved":false,"is_disabled":false,"rental_uris":{"android":"levelo://app?vid=f71f9016-cd7a-4d2f-a244-6b67297b159e","ios":"levelo://app?vid=f71f9016-cd7a-4d2f-a244-6b67297b159e"},"vehicle_type_id":"4","last_reported":1741028843,"current_range_meters":11200,"station_id":"","pricing_plan_id":"cebpf4jnsgd1na2vs0mg"},{"bike_id":"1901130a-ffd5-42a0-b994-e2aa42548e35","system_id":"levelo_inurba_marseille","lat":43.26125,"lon":5.41486,"is_reserved":false,"is_disabled":false,"rental_uris":{"android":"levelo://app?vid=1901130a-ffd5-42a0-b994-e2aa42548e35","ios":"levelo://app?vid=1901130a-ffd5-42a0-b994-e2aa42548e35"},"vehicle_type_id":"4","last_reported":1741028843,"current_range_meters":11200,"station_id":"","pricing_plan_id":"cebpf4jnsgd1na2vs0mg"},{"bike_id":"442e17cf-9700-477c-a555-09fc8cf0081c","system_id":"levelo_inurba_marseille","lat":43.28466,"lon":5.35888,"is_reserved":false,"is_disabled":false,"rental_uris":{"android":"levelo://app?vid=442e17cf-9700-477c-a555-09fc8cf0081c","ios":"levelo://app?vid=442e17cf-9700-477c-a555-09fc8cf0081c"},"vehicle_type_id":"4","last_reported":1741028843,"current_range_meters":11200,"station_id":"ce4bhah2rcd13ifvqei0","pricing_plan_id":"cebpf4jnsgd1na2vs0mg"},{"bike_id":"7e08dcdf-f47e-4eba-8f0e-b43cc6aa3a3d","system_id":"levelo_inurba_marseille","lat":43.27806,"lon":5.40724,"is_reserved":false,"is_disabled":false,"rental_uris":{"android":"levelo://app?vid=7e08dcdf-f47e-4eba-8f0e-b43cc6aa3a3d","ios":"levelo://app?vid=7e08dcdf-f47e-4eba-8f0e-b43cc6aa3a3d"},"vehicle_type_id":"4","last_reported":1741028843,"current_range_meters":11200,"station_id":"ce4bhnh2rcd13ifvqgtg","pricing_plan_id":"cebpf4jnsgd1na2vs0mg"},{"bike_id":"8917eb43-0d6f-41f1-bc6b-7372ba94dedc","system_id":"levelo_inurba_marseille","lat":43.29805,"lon":5.38105,"is_reserved":false,"is_disabled":false,"rental_uris":{"android":"levelo://app?vid=8917eb43-0d6f-41f1-bc6b-7372ba94dedc","ios":"levelo://app?vid=8917eb43-0d6f-41f1-bc6b-7372ba94dedc"},"vehicle_type_id":"4","last_reported":1741028843,"current_range_meters":11200,"station_id":"ce4bgip2rcd13ifvqbb0","pricing_plan_id":"cebpf4jnsgd1na2vs0mg"},{"bike_id":"bd00532b-68d2-4793-bdab-ff20bc181a97","system_id":"levelo_inurba_marseille","lat":43.30537,"lon":5.38425,"is_reserved":false,"is_disabled":false,"rental_uris":{"android":"levelo://app?vid=bd00532b-68d2-4793-bdab-ff20bc181a97","ios":"levelo://app?vid=bd00532b-68d2-4793-bdab-ff20bc181a97"},"vehicle_type_id":"4","last_reported":1741028843,"current_range_meters":11200,"station_id":"ce4bgg92rcd13ifvqb30","pricing_plan_id":"cebpf4jnsgd1na2vs0mg"},{"bike_id":"41ed89d3-77cd-4311-8513-748a0ca63c4f","system_id":"levelo_inurba_marseille","lat":43.21248,"lon":5.353302,"is_reserved":false,"is_disabled":false,"rental_uris":{"android":"levelo://app?vid=41ed89d3-77cd-4311-8513-748a0ca63c4f","ios":"levelo://app?vid=41ed89d3-77cd-4311-8513-748a0ca63c4f"},"vehicle_type_id":"4","last_reported":1741028843,"current_range_meters":11200,"station_id":"","pricing_plan_id":"cebpf4jnsgd1na2vs0mg"},{"bike_id":"4437cc42-40fc-48c5-ba74-cf4be72feab7","system_id":"levelo_inurba_marseille","lat":43.28853,"lon":5.35854,"is_reserved":false,"is_disabled":false,"rental_uris":{"android":"levelo://app?vid=4437cc42-40fc-48c5-ba74-cf4be72feab7","ios":"levelo://app?vid=4437cc42-40fc-48c5-ba74-cf4be72feab7"},"vehicle_type_id":"4","last_reported":1741028843,"current_range_meters":10800,"station_id":"ce4bhb12rcd13ifvqem0","pricing_plan_id":"cebpf4jnsgd1na2vs0mg"},{"bike_id":"64953142-7637-42b4-b0d1-c449e63f1db7","system_id":"levelo_inurba_marseille","lat":43.29652,"lon":5.36015,"is_reserved":false,"is_disabled":false,"rental_uris":{"android":"levelo://app?vid=64953142-7637-42b4-b0d1-c449e63f1db7","ios":"levelo://app?vid=64953142-7637-42b4-b0d1-c449e63f1db7"},"vehicle_type_id":"4","last_reported":1741028843,"current_range_meters":11200,"station_id":"","pricing_plan_id":"cebpf4jnsgd1na2vs0mg"},{"bike_id":"83ed66f8-02e2-4018-b9ef-9016056fb6bc","system_id":"levelo_inurba_marseille","lat":43.24546,"lon":5.39521,"is_reserved":false,"is_disabled":false,"rental_uris":{"android":"levelo://app?vid=83ed66f8-02e2-4018-b9ef-9016056fb6bc","ios":"levelo://app?vid=83ed66f8-02e2-4018-b9ef-9016056fb6bc"},"vehicle_type_id":"4","last_reported":1741028843,"current_range_meters":11200,"station_id":"ce4bhlp2rcd13ifvqgjg","pricing_plan_id":"cebpf4jnsgd1na2vs0mg"},{"bike_id":"9a386038-9cc6-4b52-b406-e6a33e3dcf23","system_id":"levelo_inurba_marseille","lat":43.28465,"lon":5.35868,"is_reserved":false,"is_disabled":false,"rental_uris":{"android":"levelo://app?vid=9a386038-9cc6-4b52-b406-e6a33e3dcf23","ios":"levelo://app?vid=9a386038-9cc6-4b52-b406-e6a33e3dcf23"},"vehicle_type_id":"4","last_reported":1741028843,"current_range_meters":11200,"station_id":"ce4bhah2rcd13ifvqei0","pricing_plan_id":"cebpf4jnsgd1na2vs0mg"},{"bike_id":"bba5c829-32fe-4a1d-9461-a852d59caa6b","system_id":"levelo_inurba_marseille","lat":43.28859,"lon":5.39315,"is_reserved":false,"is_disabled":true,"rental_uris":{"android":"levelo://app?vid=bba5c829-32fe-4a1d-9461-a852d59caa6b","ios":"levelo://app?vid=bba5c829-32fe-4a1d-9461-a852d59caa6b"},"vehicle_type_id":"4","last_reported":1741028843,"current_range_meters":11200,"station_id":"ce4bh2p2rcd13ifvqdi0","pricing_plan_id":"cebpf4jnsgd1na2vs0mg"},{"bike_id":"70a04243-d343-46a3-bf94-2fb82bebc024","system_id":"levelo_inurba_marseille","lat":43.30597,"lon":5.37245,"is_reserved":false,"is_disabled":false,"rental_uris":{"android":"levelo://app?vid=70a04243-d343-46a3-bf94-2fb82bebc024","ios":"levelo://app?vid=70a04243-d343-46a3-bf94-2fb82bebc024"},"vehicle_type_id":"4","last_reported":1741028843,"current_range_meters":11200,"station_id":"ce4bgqh2rcd13ifvqc4g","pricing_plan_id":"cebpf4jnsgd1na2vs0mg"},{"bike_id":"69e0af57-75ad-4a66-bf4b-23be23eb2e22","system_id":"levelo_inurba_marseille","lat":43.27938,"lon":5.41043,"is_reserved":false,"is_disabled":false,"rental_uris":{"android":"levelo://app?vid=69e0af57-75ad-4a66-bf4b-23be23eb2e22","ios":"levelo://app?vid=69e0af57-75ad-4a66-bf4b-23be23eb2e22"},"vehicle_type_id":"4","last_reported":1741028843,"current_range_meters":11600,"station_id":"ce4bhnp2rcd13ifvqh0g","pricing_plan_id":"cebpf4jnsgd1na2vs0mg"},{"bike_id":"27320d50-8e86-48df-bbb5-3b0aa94caf44","system_id":"levelo_inurba_marseille","lat":43.29051,"lon":5.35922,"is_reserved":false,"is_disabled":false,"rental_uris":{"android":"levelo://app?vid=27320d50-8e86-48df-bbb5-3b0aa94caf44","ios":"levelo://app?vid=27320d50-8e86-48df-bbb5-3b0aa94caf44"},"vehicle_type_id":"4","last_reported":1741028843,"current_range_meters":11200,"station_id":"ce4bha92rcd13ifvqeg0","pricing_plan_id":"cebpf4jnsgd1na2vs0mg"},{"bike_id":"7c309f39-c40e-43c0-ba34-e6d9dc8bea4d","system_id":"levelo_inurba_marseille","lat":43.23961,"lon":5.36629,"is_reserved":false,"is_disabled":false,"rental_uris":{"android":"levelo://app?vid=7c309f39-c40e-43c0-ba34-e6d9dc8bea4d","ios":"levelo://app?vid=7c309f39-c40e-43c0-ba34-e6d9dc8bea4d"},"vehicle_type_id":"4","last_reported":1741028843,"current_range_meters":11600,"station_id":"ce4bhi12rcd13ifvqfp0","pricing_plan_id":"cebpf4jnsgd1na2vs0mg"},{"bike_id":"94c353ec-821f-4bbe-8a14-539333b66493","system_id":"levelo_inurba_marseille","lat":43.30805,"lon":5.43522,"is_reserved":false,"is_disabled":false,"rental_uris":{"android":"levelo://app?vid=94c353ec-821f-4bbe-8a14-539333b66493","ios":"levelo://app?vid=94c353ec-821f-4bbe-8a14-539333b66493"},"vehicle_type_id":"4","last_reported":1741028843,"current_range_meters":11200,"station_id":"ce4bhph2rcd13ifvqheg","pricing_plan_id":"cebpf4jnsgd1na2vs0mg"},{"bike_id":"362b2e41-0f7d-42ca-85b4-447baad17196","system_id":"levelo_inurba_marseille","lat":43.27206,"lon":5.41895,"is_reserved":false,"is_disabled":false,"rental_uris":{"android":"levelo://app?vid=362b2e41-0f7d-42ca-85b4-447baad17196","ios":"levelo://app?vid=362b2e41-0f7d-42ca-85b4-447baad17196"},"vehicle_type_id":"4","last_reported":1741028843,"current_range_meters":11600,"station_id":"","pricing_plan_id":"cebpf4jnsgd1na2vs0mg"},{"bike_id":"c709f4ab-be67-465b-a351-7099684b65b0","system_id":"levelo_inurba_marseille","lat":43.29274,"lon":5.36844,"is_reserved":false,"is_disabled":false,"rental_uris":{"android":"levelo://app?vid=c709f4ab-be67-465b-a351-7099684b65b0","ios":"levelo://app?vid=c709f4ab-be67-465b-a351-7099684b65b0"},"vehicle_type_id":"4","last_reported":1741028843,"current_range_meters":11600,"station_id":"ce4bhbp2rcd13ifvqesg","pricing_plan_id":"cebpf4jnsgd1na2vs0mg"},{"bike_id":"8d7d9f91-f2d2-47f9-9353-dd533d4ef4f3","system_id":"levelo_inurba_marseille","lat":43.29252,"lon":5.409,"is_reserved":false,"is_disabled":false,"rental_uris":{"android":"levelo://app?vid=8d7d9f91-f2d2-47f9-9353-dd533d4ef4f3","ios":"levelo://app?vid=8d7d9f91-f2d2-47f9-9353-dd533d4ef4f3"},"vehicle_type_id":"4","last_reported":1741028843,"current_range_meters":12000,"station_id":"ce4bh192rcd13ifvqdc0","pricing_plan_id":"cebpf4jnsgd1na2vs0mg"},{"bike_id":"0b818497-4d97-451b-b637-cef3d02b5c9d","system_id":"levelo_inurba_marseille","lat":43.3171,"lon":5.43695,"is_reserved":false,"is_disabled":true,"rental_uris":{"android":"levelo://app?vid=0b818497-4d97-451b-b637-cef3d02b5c9d","ios":"levelo://app?vid=0b818497-4d97-451b-b637-cef3d02b5c9d"},"vehicle_type_id":"4","last_reported":1741028843,"current_range_meters":12000,"station_id":"ce4bhp92rcd13ifvqhcg","pricing_plan_id":"cebpf4jnsgd1na2vs0mg"},{"bike_id":"63d5966d-c5d3-4903-a125-c5cb202a1d2a","system_id":"levelo_inurba_marseille","lat":43.2816,"lon":5.42649,"is_reserved":false,"is_disabled":false,"rental_uris":{"android":"levelo://app?vid=63d5966d-c5d3-4903-a125-c5cb202a1d2a","ios":"levelo://app?vid=63d5966d-c5d3-4903-a125-c5cb202a1d2a"},"vehicle_type_id":"4","last_reported":1741028843,"current_range_meters":12000,"station_id":"ce4bhnh2rcd13ifvqgug","pricing_plan_id":"cebpf4jnsgd1na2vs0mg"},{"bike_id":"5829183c-71a8-4a42-b875-550f5805a9dd","system_id":"levelo_inurba_marseille","lat":43.29008,"lon":5.3561,"is_reserved":false,"is_disabled":false,"rental_uris":{"android":"levelo://app?vid=5829183c-71a8-4a42-b875-550f5805a9dd","ios":"levelo://app?vid=5829183c-71a8-4a42-b875-550f5805a9dd"},"vehicle_type_id":"4","last_reported":1741028843,"current_range_meters":12000,"station_id":"ce4bhb92rcd13ifvqen0","pricing_plan_id":"cebpf4jnsgd1na2vs0mg"},{"bike_id":"f74ee3db-d412-4878-a4c6-0b8dae5b5a77","system_id":"levelo_inurba_marseille","lat":43.24649,"lon":5.38895,"is_reserved":false,"is_disabled":false,"rental_uris":{"android":"levelo://app?vid=f74ee3db-d412-4878-a4c6-0b8dae5b5a77","ios":"levelo://app?vid=f74ee3db-d412-4878-a4c6-0b8dae5b5a77"},"vehicle_type_id":"4","last_reported":1741028843,"current_range_meters":11600,"station_id":"ce4bhg12rcd13ifvqf60","pricing_plan_id":"cebpf4jnsgd1na2vs0mg"},{"bike_id":"4b8bcc6a-b1ee-4044-9ae8-7c00efea0717","system_id":"levelo_inurba_marseille","lat":43.28408,"lon":5.37501,"is_reserved":false,"is_disabled":false,"rental_uris":{"android":"levelo://app?vid=4b8bcc6a-b1ee-4044-9ae8-7c00efea0717","ios":"levelo://app?vid=4b8bcc6a-b1ee-4044-9ae8-7c00efea0717"},"vehicle_type_id":"4","last_reported":1741028843,"current_range_meters":12000,"station_id":"ce4bh412rcd13ifvqds0","pricing_plan_id":"cebpf4jnsgd1na2vs0mg"},{"bike_id":"d170468f-c190-4434-8e4e-ee1b40595363","system_id":"levelo_inurba_marseille","lat":43.30421,"lon":5.41279,"is_reserved":false,"is_disabled":false,"rental_uris":{"android":"levelo://app?vid=d170468f-c190-4434-8e4e-ee1b40595363","ios":"levelo://app?vid=d170468f-c190-4434-8e4e-ee1b40595363"},"vehicle_type_id":"4","last_reported":1741028843,"current_range_meters":12000,"station_id":"ce4bhop2rcd13ifvqh8g","pricing_plan_id":"cebpf4jnsgd1na2vs0mg"},{"bike_id":"ad59b830-78f7-4086-940e-9b2c1f343553","system_id":"levelo_inurba_marseille","lat":43.27997,"lon":5.40017,"is_reserved":false,"is_disabled":false,"rental_uris":{"android":"levelo://app?vid=ad59b830-78f7-4086-940e-9b2c1f343553","ios":"levelo://app?vid=ad59b830-78f7-4086-940e-9b2c1f343553"},"vehicle_type_id":"4","last_reported":1741028843,"current_range_meters":12000,"station_id":"ce4bho92rcd13ifvqh4g","pricing_plan_id":"cebpf4jnsgd1na2vs0mg"},{"bike_id":"db736e35-5569-4194-a5ba-d957f7eadf92","system_id":"levelo_inurba_marseille","lat":43.30304,"lon":5.392,"is_reserved":false,"is_disabled":false,"rental_uris":{"android":"levelo://app?vid=db736e35-5569-4194-a5ba-d957f7eadf92","ios":"levelo://app?vid=db736e35-5569-4194-a5ba-d957f7eadf92"},"vehicle_type_id":"4","last_reported":1741028843,"current_range_meters":12400,"station_id":"ce4bgkh2rcd13ifvqbk0","pricing_plan_id":"cebpf4jnsgd1na2vs0mg"},{"bike_id":"187d5684-340e-4f8d-b6ab-116969b1a3d0","system_id":"levelo_inurba_marseille","lat":43.27809,"lon":5.40722,"is_reserved":false,"is_disabled":false,"rental_uris":{"android":"levelo://app?vid=187d5684-340e-4f8d-b6ab-116969b1a3d0","ios":"levelo://app?vid=187d5684-340e-4f8d-b6ab-116969b1a3d0"},"vehicle_type_id":"4","last_reported":1741028843,"current_range_meters":12400,"station_id":"ce4bhnh2rcd13ifvqgtg","pricing_plan_id":"cebpf4jnsgd1na2vs0mg"},{"bike_id":"602d4599-66db-4c51-934c-10f122321525","system_id":"levelo_inurba_marseille","lat":43.22959,"lon":5.35365,"is_reserved":false,"is_disabled":false,"rental_uris":{"android":"levelo://app?vid=602d4599-66db-4c51-934c-10f122321525","ios":"levelo://app?vid=602d4599-66db-4c51-934c-10f122321525"},"vehicle_type_id":"4","last_reported":1741028843,"current_range_meters":12400,"station_id":"cpo3532slgdg3j2ikp40","pricing_plan_id":"cebpf4jnsgd1na2vs0mg"},{"bike_id":"cb20a281-73cc-42c5-a827-44c39ab391fd","system_id":"levelo_inurba_marseille","lat":43.28036,"lon":5.36948,"is_reserved":false,"is_disabled":false,"rental_uris":{"android":"levelo://app?vid=cb20a281-73cc-42c5-a827-44c39ab391fd","ios":"levelo://app?vid=cb20a281-73cc-42c5-a827-44c39ab391fd"},"vehicle_type_id":"4","last_reported":1741028843,"current_range_meters":12000,"station_id":"ce4bha12rcd13ifvqef0","pricing_plan_id":"cebpf4jnsgd1na2vs0mg"},{"bike_id":"102de46f-1f3d-42c6-b125-cb45380886c0","system_id":"levelo_inurba_marseille","lat":43.2849,"lon":5.35881,"is_reserved":false,"is_disabled":false,"rental_uris":{"android":"levelo://app?vid=102de46f-1f3d-42c6-b125-cb45380886c0","ios":"levelo://app?vid=102de46f-1f3d-42c6-b125-cb45380886c0"},"vehicle_type_id":"4","last_reported":1741028843,"current_range_meters":12400,"station_id":"ce4bhah2rcd13ifvqei0","pricing_plan_id":"cebpf4jnsgd1na2vs0mg"},{"bike_id":"bce611a7-5044-470a-9dc2-ccdbc1151c5c","system_id":"levelo_inurba_marseille","lat":43.32496,"lon":5.36558,"is_reserved":false,"is_disabled":false,"rental_uris":{"android":"levelo://app?vid=bce611a7-5044-470a-9dc2-ccdbc1151c5c","ios":"levelo://app?vid=bce611a7-5044-470a-9dc2-ccdbc1151c5c"},"vehicle_type_id":"4","last_reported":1741028843,"current_range_meters":12400,"station_id":"ce4bhs12rcd13ifvqhvg","pricing_plan_id":"cebpf4jnsgd1na2vs0mg"},{"bike_id":"e61fc92c-066a-469c-967f-4f066588d4e6","system_id":"levelo_inurba_marseille","lat":43.23192,"lon":5.35559,"is_reserved":false,"is_disabled":false,"rental_uris":{"android":"levelo://app?vid=e61fc92c-066a-469c-967f-4f066588d4e6","ios":"levelo://app?vid=e61fc92c-066a-469c-967f-4f066588d4e6"},"vehicle_type_id":"4","last_reported":1741028843,"current_range_meters":12400,"station_id":"ce4bhu92rcd13ifvqi70","pricing_plan_id":"cebpf4jnsgd1na2vs0mg"},{"bike_id":"52b4d3cc-a26e-43a1-abac-4d8eaa65bcff","system_id":"levelo_inurba_marseille","lat":43.26805,"lon":5.40269,"is_reserved":false,"is_disabled":false,"rental_uris":{"android":"levelo://app?vid=52b4d3cc-a26e-43a1-abac-4d8eaa65bcff","ios":"levelo://app?vid=52b4d3cc-a26e-43a1-abac-4d8eaa65bcff"},"vehicle_type_id":"4","last_reported":1741028843,"current_range_meters":12400,"station_id":"ce501612rcd8frsf0b60","pricing_plan_id":"cebpf4jnsgd1na2vs0mg"},{"bike_id":"388166ba-be8d-4506-860b-36386ab86095","system_id":"levelo_inurba_marseille","lat":43.295252,"lon":5.391602,"is_reserved":false,"is_disabled":false,"rental_uris":{"android":"levelo://app?vid=388166ba-be8d-4506-860b-36386ab86095","ios":"levelo://app?vid=388166ba-be8d-4506-860b-36386ab86095"},"vehicle_type_id":"4","last_reported":1741028843,"current_range_meters":12400,"station_id":"ce4bgup2rcd13ifvqco0","pricing_plan_id":"cebpf4jnsgd1na2vs0mg"},{"bike_id":"2fe8f916-4590-4cd4-978d-98051b849535","system_id":"levelo_inurba_marseille","lat":43.27995,"lon":5.41682,"is_reserved":false,"is_disabled":false,"rental_uris":{"android":"levelo://app?vid=2fe8f916-4590-4cd4-978d-98051b849535","ios":"levelo://app?vid=2fe8f916-4590-4cd4-978d-98051b849535"},"vehicle_type_id":"4","last_reported":1741028843,"current_range_meters":12800,"station_id":"ce4bho12rcd13ifvqh1g","pricing_plan_id":"cebpf4jnsgd1na2vs0mg"},{"bike_id":"9de42f25-f760-4086-9a08-2934eee1b520","system_id":"levelo_inurba_marseille","lat":43.21235,"lon":5.35261,"is_reserved":false,"is_disabled":false,"rental_uris":{"android":"levelo://app?vid=9de42f25-f760-4086-9a08-2934eee1b520","ios":"levelo://app?vid=9de42f25-f760-4086-9a08-2934eee1b520"},"vehicle_type_id":"4","last_reported":1741028843,"current_range_meters":12800,"station_id":"","pricing_plan_id":"cebpf4jnsgd1na2vs0mg"},{"bike_id":"1f702b26-10c2-41d0-997c-d98547eb6d39","system_id":"levelo_inurba_marseille","lat":43.29618,"lon":5.37746,"is_reserved":false,"is_disabled":false,"rental_uris":{"android":"levelo://app?vid=1f702b26-10c2-41d0-997c-d98547eb6d39","ios":"levelo://app?vid=1f702b26-10c2-41d0-997c-d98547eb6d39"},"vehicle_type_id":"4","last_reported":1741028843,"current_range_meters":12400,"station_id":"ce4bgi92rcd13ifvqb90","pricing_plan_id":"cebpf4jnsgd1na2vs0mg"},{"bike_id":"a935696e-a820-43a3-9dd9-36fb23f62bdf","system_id":"levelo_inurba_marseille","lat":43.31116,"lon":5.37764,"is_reserved":false,"is_disabled":false,"rental_uris":{"android":"levelo://app?vid=a935696e-a820-43a3-9dd9-36fb23f62bdf","ios":"levelo://app?vid=a935696e-a820-43a3-9dd9-36fb23f62bdf"},"vehicle_type_id":"4","last_reported":1741028843,"current_range_meters":13600,"station_id":"ce4bgt92rcd13ifvqcg0","pricing_plan_id":"cebpf4jnsgd1na2vs0mg"},{"bike_id":"aaafab8b-0a08-4997-9c68-e1b93dc3797e","system_id":"levelo_inurba_marseille","lat":43.28461,"lon":5.35892,"is_reserved":false,"is_disabled":false,"rental_uris":{"android":"levelo://app?vid=aaafab8b-0a08-4997-9c68-e1b93dc3797e","ios":"levelo://app?vid=aaafab8b-0a08-4997-9c68-e1b93dc3797e"},"vehicle_type_id":"4","last_reported":1741028843,"current_range_meters":13600,"station_id":"ce4bhah2rcd13ifvqei0","pricing_plan_id":"cebpf4jnsgd1na2vs0mg"},{"bike_id":"e4e91370-e554-4387-b1fb-5ffddc6d4231","system_id":"levelo_inurba_marseille","lat":43.25823,"lon":5.39441,"is_reserved":false,"is_disabled":false,"rental_uris":{"android":"levelo://app?vid=e4e91370-e554-4387-b1fb-5ffddc6d4231","ios":"levelo://app?vid=e4e91370-e554-4387-b1fb-5ffddc6d4231"},"vehicle_type_id":"4","last_reported":1741028843,"current_range_meters":13600,"station_id":"ce4bhip2rcd13ifvqft0","pricing_plan_id":"cebpf4jnsgd1na2vs0mg"},{"bike_id":"29c60754-9df2-4a82-8936-100fec420b4c","system_id":"levelo_inurba_marseille","lat":43.29867,"lon":5.39732,"is_reserved":false,"is_disabled":false,"rental_uris":{"android":"levelo://app?vid=29c60754-9df2-4a82-8936-100fec420b4c","ios":"levelo://app?vid=29c60754-9df2-4a82-8936-100fec420b4c"},"vehicle_type_id":"4","last_reported":1741028843,"current_range_meters":13600,"station_id":"ce4bh0h2rcd13ifvqd50","pricing_plan_id":"cebpf4jnsgd1na2vs0mg"},{"bike_id":"e7ec1ac1-2323-47bd-a2b5-7cd3afb282cf","system_id":"levelo_inurba_marseille","lat":43.26561,"lon":5.37299,"is_reserved":false,"is_disabled":false,"rental_uris":{"android":"levelo://app?vid=e7ec1ac1-2323-47bd-a2b5-7cd3afb282cf","ios":"levelo://app?vid=e7ec1ac1-2323-47bd-a2b5-7cd3afb282cf"},"vehicle_type_id":"4","last_reported":1741028843,"current_range_meters":13600,"station_id":"ce4bhg12rcd13ifvqf70","pricing_plan_id":"cebpf4jnsgd1na2vs0mg"},{"bike_id":"a5193847-231c-4c8c-b335-8579028b0ddd","system_id":"levelo_inurba_marseille","lat":43.27816,"lon":5.40715,"is_reserved":false,"is_disabled":false,"rental_uris":{"android":"levelo://app?vid=a5193847-231c-4c8c-b335-8579028b0ddd","ios":"levelo://app?vid=a5193847-231c-4c8c-b335-8579028b0ddd"},"vehicle_type_id":"4","last_reported":1741028843,"current_range_meters":13600,"station_id":"ce4bhnh2rcd13ifvqgtg","pricing_plan_id":"cebpf4jnsgd1na2vs0mg"},{"bike_id":"0f0b1d81-8293-4dce-a745-f5fcc5866735","system_id":"levelo_inurba_marseille","lat":43.28942,"lon":5.39627,"is_reserved":false,"is_disabled":false,"rental_uris":{"android":"levelo://app?vid=0f0b1d81-8293-4dce-a745-f5fcc5866735","ios":"levelo://app?vid=0f0b1d81-8293-4dce-a745-f5fcc5866735"},"vehicle_type_id":"4","last_reported":1741028843,"current_range_meters":11600,"station_id":"ce4bh3h2rcd13ifvqdn0","pricing_plan_id":"cebpf4jnsgd1na2vs0mg"},{"bike_id":"3759cab8-d5f5-4ea7-82f3-140039abdfe6","system_id":"levelo_inurba_marseille","lat":43.28485,"lon":5.38418,"is_reserved":false,"is_disabled":false,"rental_uris":{"android":"levelo://app?vid=3759cab8-d5f5-4ea7-82f3-140039abdfe6","ios":"levelo://app?vid=3759cab8-d5f5-4ea7-82f3-140039abdfe6"},"vehicle_type_id":"4","last_reported":1741028843,"current_range_meters":13600,"station_id":"ce4bh512rcd13ifvqe3g","pricing_plan_id":"cebpf4jnsgd1na2vs0mg"},{"bike_id":"3e8ef613-7c6b-4ce9-8e8d-446a1ce6983a","system_id":"levelo_inurba_marseille","lat":43.28554,"lon":5.39479,"is_reserved":false,"is_disabled":false,"rental_uris":{"android":"levelo://app?vid=3e8ef613-7c6b-4ce9-8e8d-446a1ce6983a","ios":"levelo://app?vid=3e8ef613-7c6b-4ce9-8e8d-446a1ce6983a"},"vehicle_type_id":"4","last_reported":1741028843,"current_range_meters":13600,"station_id":"ce4bh292rcd13ifvqdg0","pricing_plan_id":"cebpf4jnsgd1na2vs0mg"},{"bike_id":"f89c0517-1961-4d8f-87e7-b54c95f424eb","system_id":"levelo_inurba_marseille","lat":43.29413,"lon":5.38623,"is_reserved":false,"is_disabled":false,"rental_uris":{"android":"levelo://app?vid=f89c0517-1961-4d8f-87e7-b54c95f424eb","ios":"levelo://app?vid=f89c0517-1961-4d8f-87e7-b54c95f424eb"},"vehicle_type_id":"4","last_reported":1741028843,"current_range_meters":13600,"station_id":"ce4bh2h2rcd13ifvqdh0","pricing_plan_id":"cebpf4jnsgd1na2vs0mg"},{"bike_id":"fc538172-abdb-42d0-9e73-20cebfb49ebf","system_id":"levelo_inurba_marseille","lat":43.28414,"lon":5.37522,"is_reserved":false,"is_disabled":false,"rental_uris":{"android":"levelo://app?vid=fc538172-abdb-42d0-9e73-20cebfb49ebf","ios":"levelo://app?vid=fc538172-abdb-42d0-9e73-20cebfb49ebf"},"vehicle_type_id":"4","last_reported":1741028843,"current_range_meters":13600,"station_id":"ce4bh412rcd13ifvqds0","pricing_plan_id":"cebpf4jnsgd1na2vs0mg"},{"bike_id":"cb014a6b-6553-43cb-90ee-c6d22cf5883f","system_id":"levelo_inurba_marseille","lat":43.260655,"lon":5.39412,"is_reserved":false,"is_disabled":false,"rental_uris":{"android":"levelo://app?vid=cb014a6b-6553-43cb-90ee-c6d22cf5883f","ios":"levelo://app?vid=cb014a6b-6553-43cb-90ee-c6d22cf5883f"},"vehicle_type_id":"4","last_reported":1741028843,"current_range_meters":13600,"station_id":"ce4bhh92rcd13ifvqfj0","pricing_plan_id":"cebpf4jnsgd1na2vs0mg"},{"bike_id":"1a4d70d1-be74-4574-ad13-121f03a2b193","system_id":"levelo_inurba_marseille","lat":43.27951,"lon":5.41045,"is_reserved":false,"is_disabled":false,"rental_uris":{"android":"levelo://app?vid=1a4d70d1-be74-4574-ad13-121f03a2b193","ios":"levelo://app?vid=1a4d70d1-be74-4574-ad13-121f03a2b193"},"vehicle_type_id":"4","last_reported":1741028843,"current_range_meters":14000,"station_id":"ce4bhnp2rcd13ifvqh0g","pricing_plan_id":"cebpf4jnsgd1na2vs0mg"},{"bike_id":"60e5c1cb-556c-46b5-9af8-2e243f68768b","system_id":"levelo_inurba_marseille","lat":43.32658,"lon":5.40996,"is_reserved":false,"is_disabled":false,"rental_uris":{"android":"levelo://app?vid=60e5c1cb-556c-46b5-9af8-2e243f68768b","ios":"levelo://app?vid=60e5c1cb-556c-46b5-9af8-2e243f68768b"},"vehicle_type_id":"4","last_reported":1741028843,"current_range_meters":14000,"station_id":"ce4bhpp2rcd13ifvqhgg","pricing_plan_id":"cebpf4jnsgd1na2vs0mg"},{"bike_id":"cb813df4-3836-4634-974a-d02d99a32d8a","system_id":"levelo_inurba_marseille","lat":43.32705,"lon":5.39232,"is_reserved":false,"is_disabled":false,"rental_uris":{"android":"levelo://app?vid=cb813df4-3836-4634-974a-d02d99a32d8a","ios":"levelo://app?vid=cb813df4-3836-4634-974a-d02d99a32d8a"},"vehicle_type_id":"4","last_reported":1741028843,"current_range_meters":14000,"station_id":"","pricing_plan_id":"cebpf4jnsgd1na2vs0mg"},{"bike_id":"2a3dd15e-df4f-45ea-a3a5-8426e7b861ff","system_id":"levelo_inurba_marseille","lat":43.29864,"lon":5.36263,"is_reserved":false,"is_disabled":false,"rental_uris":{"android":"levelo://app?vid=2a3dd15e-df4f-45ea-a3a5-8426e7b861ff","ios":"levelo://app?vid=2a3dd15e-df4f-45ea-a3a5-8426e7b861ff"},"vehicle_type_id":"4","last_reported":1741028843,"current_range_meters":14000,"station_id":"ce4bgpp2rcd13ifvqc3g","pricing_plan_id":"cebpf4jnsgd1na2vs0mg"},{"bike_id":"373d78c5-16bc-4095-9a66-2b440c99b361","system_id":"levelo_inurba_marseille","lat":43.27816,"lon":5.4071,"is_reserved":false,"is_disabled":false,"rental_uris":{"android":"levelo://app?vid=373d78c5-16bc-4095-9a66-2b440c99b361","ios":"levelo://app?vid=373d78c5-16bc-4095-9a66-2b440c99b361"},"vehicle_type_id":"4","last_reported":1741028843,"current_range_meters":14000,"station_id":"ce4bhnh2rcd13ifvqgtg","pricing_plan_id":"cebpf4jnsgd1na2vs0mg"},{"bike_id":"0145dee0-4f95-43c0-b60f-04c8f8aa0aaa","system_id":"levelo_inurba_marseille","lat":43.2606,"lon":5.39397,"is_reserved":false,"is_disabled":false,"rental_uris":{"android":"levelo://app?vid=0145dee0-4f95-43c0-b60f-04c8f8aa0aaa","ios":"levelo://app?vid=0145dee0-4f95-43c0-b60f-04c8f8aa0aaa"},"vehicle_type_id":"4","last_reported":1741028843,"current_range_meters":14000,"station_id":"ce4bhh92rcd13ifvqfj0","pricing_plan_id":"cebpf4jnsgd1na2vs0mg"},{"bike_id":"33d78023-4d5b-48ce-9665-2809bebb67ae","system_id":"levelo_inurba_marseille","lat":43.28461,"lon":5.3588,"is_reserved":false,"is_disabled":false,"rental_uris":{"android":"levelo://app?vid=33d78023-4d5b-48ce-9665-2809bebb67ae","ios":"levelo://app?vid=33d78023-4d5b-48ce-9665-2809bebb67ae"},"vehicle_type_id":"4","last_reported":1741028843,"current_range_meters":14000,"station_id":"ce4bhah2rcd13ifvqei0","pricing_plan_id":"cebpf4jnsgd1na2vs0mg"},{"bike_id":"1fdc1bf5-6c50-40b0-ae04-f87096c89246","system_id":"levelo_inurba_marseille","lat":43.25085,"lon":5.39512,"is_reserved":false,"is_disabled":false,"rental_uris":{"android":"levelo://app?vid=1fdc1bf5-6c50-40b0-ae04-f87096c89246","ios":"levelo://app?vid=1fdc1bf5-6c50-40b0-ae04-f87096c89246"},"vehicle_type_id":"4","last_reported":1741028843,"current_range_meters":14000,"station_id":"ce4bhm12rcd13ifvqgkg","pricing_plan_id":"cebpf4jnsgd1na2vs0mg"},{"bike_id":"8fd7d9f7-e8bc-417d-8642-b3fc5e66e788","system_id":"levelo_inurba_marseille","lat":43.29915,"lon":5.39747,"is_reserved":false,"is_disabled":false,"rental_uris":{"android":"levelo://app?vid=8fd7d9f7-e8bc-417d-8642-b3fc5e66e788","ios":"levelo://app?vid=8fd7d9f7-e8bc-417d-8642-b3fc5e66e788"},"vehicle_type_id":"4","last_reported":1741028843,"current_range_meters":14000,"station_id":"","pricing_plan_id":"cebpf4jnsgd1na2vs0mg"},{"bike_id":"dd08d469-0e07-4995-a332-b3086215ce48","system_id":"levelo_inurba_marseille","lat":43.30948,"lon":5.39056,"is_reserved":false,"is_disabled":true,"rental_uris":{"android":"levelo://app?vid=dd08d469-0e07-4995-a332-b3086215ce48","ios":"levelo://app?vid=dd08d469-0e07-4995-a332-b3086215ce48"},"vehicle_type_id":"4","last_reported":1741028843,"current_range_meters":14000,"station_id":"ce4bgup2rcd13ifvqco0","pricing_plan_id":"cebpf4jnsgd1na2vs0mg"},{"bike_id":"7b13e8bf-255a-46dd-8a05-33ec63fc95d8","system_id":"levelo_inurba_marseille","lat":43.30611,"lon":5.37226,"is_reserved":false,"is_disabled":false,"rental_uris":{"android":"levelo://app?vid=7b13e8bf-255a-46dd-8a05-33ec63fc95d8","ios":"levelo://app?vid=7b13e8bf-255a-46dd-8a05-33ec63fc95d8"},"vehicle_type_id":"4","last_reported":1741028843,"current_range_meters":14000,"station_id":"ce4bgqh2rcd13ifvqc4g","pricing_plan_id":"cebpf4jnsgd1na2vs0mg"},{"bike_id":"d1b38336-63c7-4d2d-a2d6-75d4567269de","system_id":"levelo_inurba_marseille","lat":43.30941,"lon":5.40136,"is_reserved":false,"is_disabled":false,"rental_uris":{"android":"levelo://app?vid=d1b38336-63c7-4d2d-a2d6-75d4567269de","ios":"levelo://app?vid=d1b38336-63c7-4d2d-a2d6-75d4567269de"},"vehicle_type_id":"4","last_reported":1741028843,"current_range_meters":14000,"station_id":"ce4bgvp2rcd13ifvqct0","pricing_plan_id":"cebpf4jnsgd1na2vs0mg"},{"bike_id":"0755ca8d-d678-412a-9680-fc81c3a7963d","system_id":"levelo_inurba_marseille","lat":43.31113,"lon":5.37771,"is_reserved":false,"is_disabled":false,"rental_uris":{"android":"levelo://app?vid=0755ca8d-d678-412a-9680-fc81c3a7963d","ios":"levelo://app?vid=0755ca8d-d678-412a-9680-fc81c3a7963d"},"vehicle_type_id":"4","last_reported":1741028843,"current_range_meters":14000,"station_id":"ce4bgt92rcd13ifvqcg0","pricing_plan_id":"cebpf4jnsgd1na2vs0mg"},{"bike_id":"c2724e00-8407-46de-afcb-ad97700cd4b1","system_id":"levelo_inurba_marseille","lat":43.29852,"lon":5.36271,"is_reserved":false,"is_disabled":false,"rental_uris":{"android":"levelo://app?vid=c2724e00-8407-46de-afcb-ad97700cd4b1","ios":"levelo://app?vid=c2724e00-8407-46de-afcb-ad97700cd4b1"},"vehicle_type_id":"4","last_reported":1741028843,"current_range_meters":14400,"station_id":"ce4bgpp2rcd13ifvqc3g","pricing_plan_id":"cebpf4jnsgd1na2vs0mg"},{"bike_id":"c5cab787-1fec-4750-8488-b69f56aae4b0","system_id":"levelo_inurba_marseille","lat":43.24662,"lon":5.38165,"is_reserved":false,"is_disabled":false,"rental_uris":{"android":"levelo://app?vid=c5cab787-1fec-4750-8488-b69f56aae4b0","ios":"levelo://app?vid=c5cab787-1fec-4750-8488-b69f56aae4b0"},