{"last_updated":1743001858,"ttl":60,"version":"2.2","data":{"bikes":[{"bike_id":"822a0dfd-2f22-4d1c-a28c-b617a9dbc5fe","system_id":"levelo_inurba_marseille","lat":43.29963,"lon":5.38495,"is_reserved":false,"is_disabled":false,"rental_uris":{"android":"levelo://app?vid=822a0dfd-2f22-4d1c-a28c-b617a9dbc5fe","ios":"levelo://app?vid=822a0dfd-2f22-4d1c-a28c-b617a9dbc5fe"},"vehicle_type_id":"4","last_reported":1743001858,"current_range_meters":2800,"station_id":"ce4bgj92rcd13ifvqbd0","pricing_plan_id":"cebpf4jnsgd1na2vs0mg"},{"bike_id":"aa1f32d4-608c-46b0-aad9-784ade02d0b1","system_id":"levelo_inurba_marseille","lat":43.22934,"lon":5.35376,"is_reserved":false,"is_disabled":false,"rental_uris":{"android":"levelo://app?vid=aa1f32d4-608c-46b0-aad9-784ade02d0b1","ios":"levelo://app?vid=aa1f32d4-608c-46b0-aad9-784ade02d0b1"},"vehicle_type_id":"4","last_reported":1743001858,"current_range_meters":2800,"station_id":"cpo3532slgdg3j2ikp40","pricing_plan_id":"cebpf4jnsgd1na2vs0mg"},{"bike_id":"6a4e7ed2-f778-4420-b599-6ab9f440ccf7","system_id":"levelo_inurba_marseille","lat":43.28615,"lon":5.35106,"is_reserved":false,"is_disabled":false,"rental_uris":{"android":"levelo://app?vid=6a4e7ed2-f778-4420-b599-6ab9f440ccf7","ios":"levelo://app?vid=6a4e7ed2-f778-4420-b599-6ab9f440ccf7"},"vehicle_type_id":"4","last_reported":1743001858,"current_range_meters":2800,"station_id":"ce4bhch2rcd13ifvqeug","pricing_plan_id":"cebpf4jnsgd1na2vs0mg"},{"bike_id":"4c79e017-d873-4276-bf51-c1ec44689fac","system_id":"levelo_inurba_marseille","lat":43.2549,"lon":5.37648,"is_reserved":false,"is_disabled":false,"rental_uris":{"android":"levelo://app?vid=4c79e017-d873-4276-bf51-c1ec44689fac","ios":"levelo://app?vid=4c79e017-d873-4276-bf51-c1ec44689fac"},"vehicle_type_id":"4","last_reported":1743001858,"current_range_meters":2800,"station_id":"ce4bhh12rcd13ifvqff0","pricing_plan_id":"cebpf4jnsgd1na2vs0mg"},{"bike_id":"02c642d0-bab7-4205-b1fb-4419adeb4af1","system_id":"levelo_inurba_marseille","lat":43.29042,"lon":5.356,"is_reserved":false,"is_disabled":true,"rental_uris":{"android":"levelo://app?vid=02c642d0-bab7-4205-b1fb-4419adeb4af1","ios":"levelo://app?vid=02c642d0-bab7-4205-b1fb-4419adeb4af1"},"vehicle_type_id":"4","last_reported":1743001858,"current_range_meters":2800,"station_id":"","pricing_plan_id":"cebpf4jnsgd1na2vs0mg"},{"bike_id":"5ced1dc3-0cf1-4bb2-ba59-2d8a97af716f","system_id":"levelo_inurba_marseille","lat":43.29359,"lon":5.37853,"is_reserved":false,"is_disabled":false,"rental_uris":{"android":"levelo://app?vid=5ced1dc3-0cf1-4bb2-ba59-2d8a97af716f","ios":"levelo://app?vid=5ced1dc3-0cf1-4bb2-ba59-2d8a97af716f"},"vehicle_type_id":"4","last_reported":1743001858,"current_range_meters":2800,"station_id":"ce4bgjh2rcd13ifvqbf0","pricing_plan_id":"cebpf4jnsgd1na2vs0mg"},{"bike_id":"4b167df8-7a03-4cdc-a091-fa300939331f","system_id":"levelo_inurba_marseille","lat":43.295377,"lon":5.393949,"is_reserved":false,"is_disabled":false,"rental_uris":{"android":"levelo://app?vid=4b167df8-7a03-4cdc-a091-fa300939331f","ios":"levelo://app?vid=4b167df8-7a03-4cdc-a091-fa300939331f"},"vehicle_type_id":"4","last_reported":1743001858,"current_range_meters":2800,"station_id":"ce4bh292rcd13ifvqdf0","pricing_plan_id":"cebpf4jnsgd1na2vs0mg"},{"bike_id":"5021e727-c4d5-4379-8a36-4e65096c1252","system_id":"levelo_inurba_marseille","lat":43.267614,"lon":5.383843,"is_reserved":false,"is_disabled":false,"rental_uris":{"android":"levelo://app?vid=5021e727-c4d5-4379-8a36-4e65096c1252","ios":"levelo://app?vid=5021e727-c4d5-4379-8a36-4e65096c1252"},"vehicle_type_id":"4","last_reported":1743001858,"current_range_meters":3200,"station_id":"","pricing_plan_id":"cebpf4jnsgd1na2vs0mg"},{"bike_id":"87879e08-db2d-4159-8179-a10250593617","system_id":"levelo_inurba_marseille","lat":43.292053,"lon":5.382271,"is_reserved":false,"is_disabled":false,"rental_uris":{"android":"levelo://app?vid=87879e08-db2d-4159-8179-a10250593617","ios":"levelo://app?vid=87879e08-db2d-4159-8179-a10250593617"},"vehicle_type_id":"4","last_reported":1743001858,"current_range_meters":3200,"station_id":"ce4bhph2rcd13ifvqhdg","pricing_plan_id":"cebpf4jnsgd1na2vs0mg"},{"bike_id":"21eb8bf0-4f44-4940-a780-7e21c4864c31","system_id":"levelo_inurba_marseille","lat":43.30554,"lon":5.36565,"is_reserved":false,"is_disabled":false,"rental_uris":{"android":"levelo://app?vid=21eb8bf0-4f44-4940-a780-7e21c4864c31","ios":"levelo://app?vid=21eb8bf0-4f44-4940-a780-7e21c4864c31"},"vehicle_type_id":"4","last_reported":1743001858,"current_range_meters":3200,"station_id":"ce4bgs12rcd13ifvqcag","pricing_plan_id":"cebpf4jnsgd1na2vs0mg"},{"bike_id":"9c650378-c00b-4b5c-90bd-220167c770b5","system_id":"levelo_inurba_marseille","lat":43.30418,"lon":5.41281,"is_reserved":false,"is_disabled":false,"rental_uris":{"android":"levelo://app?vid=9c650378-c00b-4b5c-90bd-220167c770b5","ios":"levelo://app?vid=9c650378-c00b-4b5c-90bd-220167c770b5"},"vehicle_type_id":"4","last_reported":1743001858,"current_range_meters":2800,"station_id":"ce4bhop2rcd13ifvqh8g","pricing_plan_id":"cebpf4jnsgd1na2vs0mg"},{"bike_id":"49a77b57-0e61-4a5d-bd8d-3f7e3a8cf2fb","system_id":"levelo_inurba_marseille","lat":43.27426,"lon":5.39436,"is_reserved":false,"is_disabled":true,"rental_uris":{"android":"levelo://app?vid=49a77b57-0e61-4a5d-bd8d-3f7e3a8cf2fb","ios":"levelo://app?vid=49a77b57-0e61-4a5d-bd8d-3f7e3a8cf2fb"},"vehicle_type_id":"4","last_reported":1743001858,"current_range_meters":3600,"station_id":"ce4bhdp2rcd13ifvqf20","pricing_plan_id":"cebpf4jnsgd1na2vs0mg"},{"bike_id":"fd7a2af8-9457-4025-b973-dfee612c3338","system_id":"levelo_inurba_marseille","lat":43.30398,"lon":5.39732,"is_reserved":false,"is_disabled":true,"rental_uris":{"android":"levelo://app?vid=fd7a2af8-9457-4025-b973-dfee612c3338","ios":"levelo://app?vid=fd7a2af8-9457-4025-b973-dfee612c3338"},"vehicle_type_id":"4","last_reported":1743001858,"current_range_meters":3600,"station_id":"ce4bh092rcd13ifvqd20","pricing_plan_id":"cebpf4jnsgd1na2vs0mg"},{"bike_id":"e1ee3aa7-9b34-4529-8338-dfd8425a5eb6","system_id":"levelo_inurba_marseille","lat":43.26792,"lon":5.39404,"is_reserved":false,"is_disabled":false,"rental_uris":{"android":"levelo://app?vid=e1ee3aa7-9b34-4529-8338-dfd8425a5eb6","ios":"levelo://app?vid=e1ee3aa7-9b34-4529-8338-dfd8425a5eb6"},"vehicle_type_id":"4","last_reported":1743001858,"current_range_meters":3600,"station_id":"ce4bhh12rcd13ifvqfg0","pricing_plan_id":"cebpf4jnsgd1na2vs0mg"},{"bike_id":"dc4df713-b096-4e9f-9285-b74656ff2f17","system_id":"levelo_inurba_marseille","lat":43.28667,"lon":5.38668,"is_reserved":false,"is_disabled":false,"rental_uris":{"android":"levelo://app?vid=dc4df713-b096-4e9f-9285-b74656ff2f17","ios":"levelo://app?vid=dc4df713-b096-4e9f-9285-b74656ff2f17"},"vehicle_type_id":"4","last_reported":1743001858,"current_range_meters":3600,"station_id":"ce4bh492rcd13ifvqdug","pricing_plan_id":"cebpf4jnsgd1na2vs0mg"},{"bike_id":"48fb31a8-b84c-4381-8d46-377e59e64c65","system_id":"levelo_inurba_marseille","lat":43.313477,"lon":5.379347,"is_reserved":false,"is_disabled":true,"rental_uris":{"android":"levelo://app?vid=48fb31a8-b84c-4381-8d46-377e59e64c65","ios":"levelo://app?vid=48fb31a8-b84c-4381-8d46-377e59e64c65"},"vehicle_type_id":"4","last_reported":1743001858,"current_range_meters":3600,"station_id":"","pricing_plan_id":"cebpf4jnsgd1na2vs0mg"},{"bike_id":"6c2d8e41-6f92-468b-bf0f-849368c98a98","system_id":"levelo_inurba_marseille","lat":43.28678,"lon":5.38671,"is_reserved":false,"is_disabled":false,"rental_uris":{"android":"levelo://app?vid=6c2d8e41-6f92-468b-bf0f-849368c98a98","ios":"levelo://app?vid=6c2d8e41-6f92-468b-bf0f-849368c98a98"},"vehicle_type_id":"4","last_reported":1743001858,"current_range_meters":3200,"station_id":"ce4bh492rcd13ifvqdug","pricing_plan_id":"cebpf4jnsgd1na2vs0mg"},{"bike_id":"a0d4632a-7a87-4031-aeeb-061ca0feaca6","system_id":"levelo_inurba_marseille","lat":43.23959,"lon":5.36632,"is_reserved":false,"is_disabled":false,"rental_uris":{"android":"levelo://app?vid=a0d4632a-7a87-4031-aeeb-061ca0feaca6","ios":"levelo://app?vid=a0d4632a-7a87-4031-aeeb-061ca0feaca6"},"vehicle_type_id":"4","last_reported":1743001858,"current_range_meters":4000,"station_id":"ce4bhi12rcd13ifvqfp0","pricing_plan_id":"cebpf4jnsgd1na2vs0mg"},{"bike_id":"0089a50b-37a2-4e28-81ca-3d10c4d5a7a9","system_id":"levelo_inurba_marseille","lat":43.25929,"lon":5.40912,"is_reserved":false,"is_disabled":false,"rental_uris":{"android":"levelo://app?vid=0089a50b-37a2-4e28-81ca-3d10c4d5a7a9","ios":"levelo://app?vid=0089a50b-37a2-4e28-81ca-3d10c4d5a7a9"},"vehicle_type_id":"4","last_reported":1743001858,"current_range_meters":4000,"station_id":"ce4bhm92rcd13ifvqglg","pricing_plan_id":"cebpf4jnsgd1na2vs0mg"},{"bike_id":"e3162120-725a-4663-8148-e797ab7d76d4","system_id":"levelo_inurba_marseille","lat":43.30416,"lon":5.36986,"is_reserved":false,"is_disabled":false,"rental_uris":{"android":"levelo://app?vid=e3162120-725a-4663-8148-e797ab7d76d4","ios":"levelo://app?vid=e3162120-725a-4663-8148-e797ab7d76d4"},"vehicle_type_id":"4","last_reported":1743001858,"current_range_meters":4000,"station_id":"","pricing_plan_id":"cebpf4jnsgd1na2vs0mg"},{"bike_id":"00ea7ecd-a7f3-4194-8a70-c2485f5279b0","system_id":"levelo_inurba_marseille","lat":43.30432,"lon":5.38889,"is_reserved":false,"is_disabled":false,"rental_uris":{"android":"levelo://app?vid=00ea7ecd-a7f3-4194-8a70-c2485f5279b0","ios":"levelo://app?vid=00ea7ecd-a7f3-4194-8a70-c2485f5279b0"},"vehicle_type_id":"4","last_reported":1743001858,"current_range_meters":3600,"station_id":"ce4bgk12rcd13ifvqbi0","pricing_plan_id":"cebpf4jnsgd1na2vs0mg"},{"bike_id":"e37cef88-320a-4b1c-8431-277be5cf0bde","system_id":"levelo_inurba_marseille","lat":43.24171,"lon":5.3972,"is_reserved":false,"is_disabled":false,"rental_uris":{"android":"levelo://app?vid=e37cef88-320a-4b1c-8431-277be5cf0bde","ios":"levelo://app?vid=e37cef88-320a-4b1c-8431-277be5cf0bde"},"vehicle_type_id":"4","last_reported":1743001858,"current_range_meters":4000,"station_id":"ce4bhn12rcd13ifvqgpg","pricing_plan_id":"cebpf4jnsgd1na2vs0mg"},{"bike_id":"0bba536a-79a8-4ad5-a46d-aa12e8cb9c10","system_id":"levelo_inurba_marseille","lat":43.24073,"lon":5.3776,"is_reserved":false,"is_disabled":false,"rental_uris":{"android":"levelo://app?vid=0bba536a-79a8-4ad5-a46d-aa12e8cb9c10","ios":"levelo://app?vid=0bba536a-79a8-4ad5-a46d-aa12e8cb9c10"},"vehicle_type_id":"4","last_reported":1743001858,"current_range_meters":4000,"station_id":"ce4bhnp2rcd13ifvqgvg","pricing_plan_id":"cebpf4jnsgd1na2vs0mg"},{"bike_id":"24085f34-05bd-4b7a-8394-6d0759c976a2","system_id":"levelo_inurba_marseille","lat":43.3302,"lon":5.39034,"is_reserved":false,"is_disabled":false,"rental_uris":{"android":"levelo://app?vid=24085f34-05bd-4b7a-8394-6d0759c976a2","ios":"levelo://app?vid=24085f34-05bd-4b7a-8394-6d0759c976a2"},"vehicle_type_id":"4","last_reported":1743001858,"current_range_meters":4000,"station_id":"ce4bhr92rcd13ifvqhrg","pricing_plan_id":"cebpf4jnsgd1na2vs0mg"},{"bike_id":"a37e06fa-0086-4e69-bc0d-5df535569e8e","system_id":"levelo_inurba_marseille","lat":43.28668,"lon":5.38672,"is_reserved":false,"is_disabled":false,"rental_uris":{"android":"levelo://app?vid=a37e06fa-0086-4e69-bc0d-5df535569e8e","ios":"levelo://app?vid=a37e06fa-0086-4e69-bc0d-5df535569e8e"},"vehicle_type_id":"4","last_reported":1743001858,"current_range_meters":3600,"station_id":"ce4bh492rcd13ifvqdug","pricing_plan_id":"cebpf4jnsgd1na2vs0mg"},{"bike_id":"66f69882-9bc0-4f69-af42-1e4faa3ed134","system_id":"levelo_inurba_marseille","lat":43.29889,"lon":5.43655,"is_reserved":false,"is_disabled":false,"rental_uris":{"android":"levelo://app?vid=66f69882-9bc0-4f69-af42-1e4faa3ed134","ios":"levelo://app?vid=66f69882-9bc0-4f69-af42-1e4faa3ed134"},"vehicle_type_id":"4","last_reported":1743001858,"current_range_meters":4400,"station_id":"ce4bhpp2rcd13ifvqhfg","pricing_plan_id":"cebpf4jnsgd1na2vs0mg"},{"bike_id":"cd20d16a-032a-4ea7-a430-255e9d8a59c5","system_id":"levelo_inurba_marseille","lat":43.28088,"lon":5.40469,"is_reserved":false,"is_disabled":false,"rental_uris":{"android":"levelo://app?vid=cd20d16a-032a-4ea7-a430-255e9d8a59c5","ios":"levelo://app?vid=cd20d16a-032a-4ea7-a430-255e9d8a59c5"},"vehicle_type_id":"4","last_reported":1743001858,"current_range_meters":4400,"station_id":"","pricing_plan_id":"cebpf4jnsgd1na2vs0mg"},{"bike_id":"335eef0b-23a1-47a8-b75d-f1d427beae55","system_id":"levelo_inurba_marseille","lat":43.24801,"lon":5.37457,"is_reserved":false,"is_disabled":false,"rental_uris":{"android":"levelo://app?vid=335eef0b-23a1-47a8-b75d-f1d427beae55","ios":"levelo://app?vid=335eef0b-23a1-47a8-b75d-f1d427beae55"},"vehicle_type_id":"4","last_reported":1743001858,"current_range_meters":4400,"station_id":"ce4bhgh2rcd13ifvqfb0","pricing_plan_id":"cebpf4jnsgd1na2vs0mg"},{"bike_id":"5475e2f7-6ae6-43c2-8a19-61edd2e081b7","system_id":"levelo_inurba_marseille","lat":43.27376,"lon":5.36262,"is_reserved":false,"is_disabled":false,"rental_uris":{"android":"levelo://app?vid=5475e2f7-6ae6-43c2-8a19-61edd2e081b7","ios":"levelo://app?vid=5475e2f7-6ae6-43c2-8a19-61edd2e081b7"},"vehicle_type_id":"4","last_reported":1743001858,"current_range_meters":4800,"station_id":"ce4bhbh2rcd13ifvqeo0","pricing_plan_id":"cebpf4jnsgd1na2vs0mg"},{"bike_id":"0c9cada4-2764-4013-a528-15089818cb84","system_id":"levelo_inurba_marseille","lat":43.27752,"lon":5.41169,"is_reserved":false,"is_disabled":false,"rental_uris":{"android":"levelo://app?vid=0c9cada4-2764-4013-a528-15089818cb84","ios":"levelo://app?vid=0c9cada4-2764-4013-a528-15089818cb84"},"vehicle_type_id":"4","last_reported":1743001858,"current_range_meters":4800,"station_id":"","pricing_plan_id":"cebpf4jnsgd1na2vs0mg"},{"bike_id":"85f740ce-b25c-4f01-a4d0-1cb1211ec32c","system_id":"levelo_inurba_marseille","lat":43.2718,"lon":5.40995,"is_reserved":false,"is_disabled":false,"rental_uris":{"android":"levelo://app?vid=85f740ce-b25c-4f01-a4d0-1cb1211ec32c","ios":"levelo://app?vid=85f740ce-b25c-4f01-a4d0-1cb1211ec32c"},"vehicle_type_id":"4","last_reported":1743001858,"current_range_meters":4800,"station_id":"ce4bhl12rcd13ifvqgf0","pricing_plan_id":"cebpf4jnsgd1na2vs0mg"},{"bike_id":"baf54f68-2ee3-4016-951c-6d2104656a49","system_id":"levelo_inurba_marseille","lat":43.26553,"lon":5.37294,"is_reserved":false,"is_disabled":false,"rental_uris":{"android":"levelo://app?vid=baf54f68-2ee3-4016-951c-6d2104656a49","ios":"levelo://app?vid=baf54f68-2ee3-4016-951c-6d2104656a49"},"vehicle_type_id":"4","last_reported":1743001858,"current_range_meters":4800,"station_id":"ce4bhg12rcd13ifvqf70","pricing_plan_id":"cebpf4jnsgd1na2vs0mg"},{"bike_id":"3915ffad-c259-4486-a78d-568fd29e2c7d","system_id":"levelo_inurba_marseille","lat":43.30326,"lon":5.40427,"is_reserved":false,"is_disabled":false,"rental_uris":{"android":"levelo://app?vid=3915ffad-c259-4486-a78d-568fd29e2c7d","ios":"levelo://app?vid=3915ffad-c259-4486-a78d-568fd29e2c7d"},"vehicle_type_id":"4","last_reported":1743001858,"current_range_meters":4800,"station_id":"ce4bh012rcd13ifvqd10","pricing_plan_id":"cebpf4jnsgd1na2vs0mg"},{"bike_id":"1e505630-7c05-4fa3-bb46-85cf15ca42d0","system_id":"levelo_inurba_marseille","lat":43.29305,"lon":5.37184,"is_reserved":false,"is_disabled":false,"rental_uris":{"android":"levelo://app?vid=1e505630-7c05-4fa3-bb46-85cf15ca42d0","ios":"levelo://app?vid=1e505630-7c05-4fa3-bb46-85cf15ca42d0"},"vehicle_type_id":"4","last_reported":1743001858,"current_range_meters":4800,"station_id":"ce4bgh92rcd13ifvqb40","pricing_plan_id":"cebpf4jnsgd1na2vs0mg"},{"bike_id":"661ad638-f20a-4099-990d-7e316fc20bf4","system_id":"levelo_inurba_marseille","lat":43.26943,"lon":5.40251,"is_reserved":false,"is_disabled":false,"rental_uris":{"android":"levelo://app?vid=661ad638-f20a-4099-990d-7e316fc20bf4","ios":"levelo://app?vid=661ad638-f20a-4099-990d-7e316fc20bf4"},"vehicle_type_id":"4","last_reported":1743001858,"current_range_meters":4800,"station_id":"cjm6bp8fraef2m0cb0m0","pricing_plan_id":"cebpf4jnsgd1na2vs0mg"},{"bike_id":"249dca90-3516-4fa7-8357-af8165e8e29f","system_id":"levelo_inurba_marseille","lat":43.29846,"lon":5.36274,"is_reserved":false,"is_disabled":false,"rental_uris":{"android":"levelo://app?vid=249dca90-3516-4fa7-8357-af8165e8e29f","ios":"levelo://app?vid=249dca90-3516-4fa7-8357-af8165e8e29f"},"vehicle_type_id":"4","last_reported":1743001858,"current_range_meters":5600,"station_id":"ce4bgpp2rcd13ifvqc3g","pricing_plan_id":"cebpf4jnsgd1na2vs0mg"},{"bike_id":"2a99ecb7-4bf0-4c00-89bb-11ff019b8a6d","system_id":"levelo_inurba_marseille","lat":43.22926,"lon":5.35384,"is_reserved":false,"is_disabled":false,"rental_uris":{"android":"levelo://app?vid=2a99ecb7-4bf0-4c00-89bb-11ff019b8a6d","ios":"levelo://app?vid=2a99ecb7-4bf0-4c00-89bb-11ff019b8a6d"},"vehicle_type_id":"4","last_reported":1743001858,"current_range_meters":5600,"station_id":"cpo3532slgdg3j2ikp40","pricing_plan_id":"cebpf4jnsgd1na2vs0mg"},{"bike_id":"03908684-304c-46cb-8098-7d26df555d11","system_id":"levelo_inurba_marseille","lat":43.29255,"lon":5.39858,"is_reserved":false,"is_disabled":false,"rental_uris":{"android":"levelo://app?vid=03908684-304c-46cb-8098-7d26df555d11","ios":"levelo://app?vid=03908684-304c-46cb-8098-7d26df555d11"},"vehicle_type_id":"4","last_reported":1743001858,"current_range_meters":5600,"station_id":"","pricing_plan_id":"cebpf4jnsgd1na2vs0mg"},{"bike_id":"d9f7d8be-9425-4103-9342-1eabe2318a05","system_id":"levelo_inurba_marseille","lat":43.26675,"lon":5.38284,"is_reserved":false,"is_disabled":false,"rental_uris":{"android":"levelo://app?vid=d9f7d8be-9425-4103-9342-1eabe2318a05","ios":"levelo://app?vid=d9f7d8be-9425-4103-9342-1eabe2318a05"},"vehicle_type_id":"4","last_reported":1743001858,"current_range_meters":5600,"station_id":"ce4bhg92rcd13ifvqf90","pricing_plan_id":"cebpf4jnsgd1na2vs0mg"},{"bike_id":"49c9effc-587b-498b-a7fb-55ae6df8fc54","system_id":"levelo_inurba_marseille","lat":43.22933,"lon":5.35383,"is_reserved":false,"is_disabled":false,"rental_uris":{"android":"levelo://app?vid=49c9effc-587b-498b-a7fb-55ae6df8fc54","ios":"levelo://app?vid=49c9effc-587b-498b-a7fb-55ae6df8fc54"},"vehicle_type_id":"4","last_reported":1743001858,"current_range_meters":5600,"station_id":"cpo3532slgdg3j2ikp40","pricing_plan_id":"cebpf4jnsgd1na2vs0mg"},{"bike_id":"e23e82d7-4130-4234-9a4f-a359cbc4cdd5","system_id":"levelo_inurba_marseille","lat":43.26216,"lon":5.37448,"is_reserved":false,"is_disabled":false,"rental_uris":{"android":"levelo://app?vid=e23e82d7-4130-4234-9a4f-a359cbc4cdd5","ios":"levelo://app?vid=e23e82d7-4130-4234-9a4f-a359cbc4cdd5"},"vehicle_type_id":"4","last_reported":1743001858,"current_range_meters":5600,"station_id":"ce4bhgp2rcd13ifvqfc0","pricing_plan_id":"cebpf4jnsgd1na2vs0mg"},{"bike_id":"6df05034-1645-4acd-af70-0489a49349e2","system_id":"levelo_inurba_marseille","lat":43.28083,"lon":5.40489,"is_reserved":false,"is_disabled":false,"rental_uris":{"android":"levelo://app?vid=6df05034-1645-4acd-af70-0489a49349e2","ios":"levelo://app?vid=6df05034-1645-4acd-af70-0489a49349e2"},"vehicle_type_id":"4","last_reported":1743001858,"current_range_meters":6000,"station_id":"","pricing_plan_id":"cebpf4jnsgd1na2vs0mg"},{"bike_id":"f97fd236-1c27-4275-9b2f-18b41db9af6b","system_id":"levelo_inurba_marseille","lat":43.289968,"lon":5.356069,"is_reserved":false,"is_disabled":false,"rental_uris":{"android":"levelo://app?vid=f97fd236-1c27-4275-9b2f-18b41db9af6b","ios":"levelo://app?vid=f97fd236-1c27-4275-9b2f-18b41db9af6b"},"vehicle_type_id":"4","last_reported":1743001858,"current_range_meters":4800,"station_id":"ce4bh412rcd13ifvqdr0","pricing_plan_id":"cebpf4jnsgd1na2vs0mg"},{"bike_id":"5800cd9e-5bad-44cb-8156-378258fcca10","system_id":"levelo_inurba_marseille","lat":43.28986,"lon":5.37837,"is_reserved":false,"is_disabled":false,"rental_uris":{"android":"levelo://app?vid=5800cd9e-5bad-44cb-8156-378258fcca10","ios":"levelo://app?vid=5800cd9e-5bad-44cb-8156-378258fcca10"},"vehicle_type_id":"4","last_reported":1743001858,"current_range_meters":6000,"station_id":"ce4bh9p2rcd13ifvqed0","pricing_plan_id":"cebpf4jnsgd1na2vs0mg"},{"bike_id":"ae64d049-3c54-4b63-a552-b1e07d06f548","system_id":"levelo_inurba_marseille","lat":43.25736,"lon":5.41099,"is_reserved":false,"is_disabled":false,"rental_uris":{"android":"levelo://app?vid=ae64d049-3c54-4b63-a552-b1e07d06f548","ios":"levelo://app?vid=ae64d049-3c54-4b63-a552-b1e07d06f548"},"vehicle_type_id":"4","last_reported":1743001858,"current_range_meters":6000,"station_id":"ce4bho12rcd13ifvqh1g","pricing_plan_id":"cebpf4jnsgd1na2vs0mg"},{"bike_id":"39dcbc04-2d07-4c37-9035-ab09fd69f090","system_id":"levelo_inurba_marseille","lat":43.30458,"lon":5.37904,"is_reserved":false,"is_disabled":false,"rental_uris":{"android":"levelo://app?vid=39dcbc04-2d07-4c37-9035-ab09fd69f090","ios":"levelo://app?vid=39dcbc04-2d07-4c37-9035-ab09fd69f090"},"vehicle_type_id":"4","last_reported":1743001858,"current_range_meters":6000,"station_id":"ce4bgup2rcd13ifvqcn0","pricing_plan_id":"cebpf4jnsgd1na2vs0mg"},{"bike_id":"62340cdc-9899-4264-bfe1-207e70daf83b","system_id":"levelo_inurba_marseille","lat":43.28711,"lon":5.37932,"is_reserved":false,"is_disabled":false,"rental_uris":{"android":"levelo://app?vid=62340cdc-9899-4264-bfe1-207e70daf83b","ios":"levelo://app?vid=62340cdc-9899-4264-bfe1-207e70daf83b"},"vehicle_type_id":"4","last_reported":1743001858,"current_range_meters":6400,"station_id":"ce4bh9p2rcd13ifvqec0","pricing_plan_id":"cebpf4jnsgd1na2vs0mg"},{"bike_id":"2f3e2a92-1301-4a27-8eaa-7b0ea525530e","system_id":"levelo_inurba_marseille","lat":43.3171,"lon":5.43717,"is_reserved":false,"is_disabled":false,"rental_uris":{"android":"levelo://app?vid=2f3e2a92-1301-4a27-8eaa-7b0ea525530e","ios":"levelo://app?vid=2f3e2a92-1301-4a27-8eaa-7b0ea525530e"},"vehicle_type_id":"4","last_reported":1743001858,"current_range_meters":6400,"station_id":"ce4bhp92rcd13ifvqhcg","pricing_plan_id":"cebpf4jnsgd1na2vs0mg"},{"bike_id":"5fb958d3-303f-4e61-a382-afce497d8fdd","system_id":"levelo_inurba_marseille","lat":43.2315,"lon":5.43723,"is_reserved":false,"is_disabled":false,"rental_uris":{"android":"levelo://app?vid=5fb958d3-303f-4e61-a382-afce497d8fdd","ios":"levelo://app?vid=5fb958d3-303f-4e61-a382-afce497d8fdd"},"vehicle_type_id":"4","last_reported":1743001858,"current_range_meters":6400,"station_id":"ce4bhmp2rcd13ifvqgog","pricing_plan_id":"cebpf4jnsgd1na2vs0mg"},{"bike_id":"7d944d2b-bdbb-4dfe-b8d5-68d8eb03245d","system_id":"levelo_inurba_marseille","lat":43.24656,"lon":5.38891,"is_reserved":false,"is_disabled":false,"rental_uris":{"android":"levelo://app?vid=7d944d2b-bdbb-4dfe-b8d5-68d8eb03245d","ios":"levelo://app?vid=7d944d2b-bdbb-4dfe-b8d5-68d8eb03245d"},"vehicle_type_id":"4","last_reported":1743001858,"current_range_meters":6400,"station_id":"ce4bhg12rcd13ifvqf60","pricing_plan_id":"cebpf4jnsgd1na2vs0mg"},{"bike_id":"aa316640-b4e3-46a6-a983-b02f99f14049","system_id":"levelo_inurba_marseille","lat":43.26207,"lon":5.3745,"is_reserved":false,"is_disabled":false,"rental_uris":{"android":"levelo://app?vid=aa316640-b4e3-46a6-a983-b02f99f14049","ios":"levelo://app?vid=aa316640-b4e3-46a6-a983-b02f99f14049"},"vehicle_type_id":"4","last_reported":1743001858,"current_range_meters":6400,"station_id":"ce4bhgp2rcd13ifvqfc0","pricing_plan_id":"cebpf4jnsgd1na2vs0mg"},{"bike_id":"77823725-c761-49bc-902c-64c32b686ae7","system_id":"levelo_inurba_marseille","lat":43.23063,"lon":5.35498,"is_reserved":false,"is_disabled":false,"rental_uris":{"android":"levelo://app?vid=77823725-c761-49bc-902c-64c32b686ae7","ios":"levelo://app?vid=77823725-c761-49bc-902c-64c32b686ae7"},"vehicle_type_id":"4","last_reported":1743001858,"current_range_meters":6400,"station_id":"cpo3342slgdg3j2ifvpg","pricing_plan_id":"cebpf4jnsgd1na2vs0mg"},{"bike_id":"7e628bd8-f74d-4310-8492-8512d6f315fe","system_id":"levelo_inurba_marseille","lat":43.23194,"lon":5.39994,"is_reserved":false,"is_disabled":false,"rental_uris":{"android":"levelo://app?vid=7e628bd8-f74d-4310-8492-8512d6f315fe","ios":"levelo://app?vid=7e628bd8-f74d-4310-8492-8512d6f315fe"},"vehicle_type_id":"4","last_reported":1743001858,"current_range_meters":6400,"station_id":"ce4bhn12rcd13ifvqgqg","pricing_plan_id":"cebpf4jnsgd1na2vs0mg"},{"bike_id":"02f216f6-5365-4a64-8ac6-6badd4e8814e","system_id":"levelo_inurba_marseille","lat":43.23962,"lon":5.36632,"is_reserved":false,"is_disabled":false,"rental_uris":{"android":"levelo://app?vid=02f216f6-5365-4a64-8ac6-6badd4e8814e","ios":"levelo://app?vid=02f216f6-5365-4a64-8ac6-6badd4e8814e"},"vehicle_type_id":"4","last_reported":1743001858,"current_range_meters":6800,"station_id":"ce4bhi12rcd13ifvqfp0","pricing_plan_id":"cebpf4jnsgd1na2vs0mg"},{"bike_id":"724ed8e8-2918-4d83-96a9-866364fdcf75","system_id":"levelo_inurba_marseille","lat":43.27372,"lon":5.36262,"is_reserved":false,"is_disabled":false,"rental_uris":{"android":"levelo://app?vid=724ed8e8-2918-4d83-96a9-866364fdcf75","ios":"levelo://app?vid=724ed8e8-2918-4d83-96a9-866364fdcf75"},"vehicle_type_id":"4","last_reported":1743001858,"current_range_meters":6800,"station_id":"ce4bhbh2rcd13ifvqeo0","pricing_plan_id":"cebpf4jnsgd1na2vs0mg"},{"bike_id":"6ebd2412-8497-45ab-bf5c-0e151a187e9d","system_id":"levelo_inurba_marseille","lat":43.27918,"lon":5.39576,"is_reserved":false,"is_disabled":false,"rental_uris":{"android":"levelo://app?vid=6ebd2412-8497-45ab-bf5c-0e151a187e9d","ios":"levelo://app?vid=6ebd2412-8497-45ab-bf5c-0e151a187e9d"},"vehicle_type_id":"4","last_reported":1743001858,"current_range_meters":6800,"station_id":"ce4bhf92rcd13ifvqf40","pricing_plan_id":"cebpf4jnsgd1na2vs0mg"},{"bike_id":"7a034f8b-a298-4003-8a58-c5b34c163ba9","system_id":"levelo_inurba_marseille","lat":43.29196,"lon":5.35797,"is_reserved":false,"is_disabled":false,"rental_uris":{"android":"levelo://app?vid=7a034f8b-a298-4003-8a58-c5b34c163ba9","ios":"levelo://app?vid=7a034f8b-a298-4003-8a58-c5b34c163ba9"},"vehicle_type_id":"4","last_reported":1743001858,"current_range_meters":6800,"station_id":"ce4bhb12rcd13ifvqel0","pricing_plan_id":"cebpf4jnsgd1na2vs0mg"},{"bike_id":"4854f24c-9faa-49bc-bb24-6fa89f51360a","system_id":"levelo_inurba_marseille","lat":43.26196,"lon":5.37469,"is_reserved":false,"is_disabled":false,"rental_uris":{"android":"levelo://app?vid=4854f24c-9faa-49bc-bb24-6fa89f51360a","ios":"levelo://app?vid=4854f24c-9faa-49bc-bb24-6fa89f51360a"},"vehicle_type_id":"4","last_reported":1743001858,"current_range_meters":6800,"station_id":"ce4bhgp2rcd13ifvqfc0","pricing_plan_id":"cebpf4jnsgd1na2vs0mg"},{"bike_id":"e4804609-19d5-4ae7-9814-37b857d1e56c","system_id":"levelo_inurba_marseille","lat":43.26786,"lon":5.39413,"is_reserved":false,"is_disabled":false,"rental_uris":{"android":"levelo://app?vid=e4804609-19d5-4ae7-9814-37b857d1e56c","ios":"levelo://app?vid=e4804609-19d5-4ae7-9814-37b857d1e56c"},"vehicle_type_id":"4","last_reported":1743001858,"current_range_meters":6800,"station_id":"ce4bhh12rcd13ifvqfg0","pricing_plan_id":"cebpf4jnsgd1na2vs0mg"},{"bike_id":"6633349b-54ae-41b8-88d5-61ec5d012302","system_id":"levelo_inurba_marseille","lat":43.32107,"lon":5.367711,"is_reserved":false,"is_disabled":false,"rental_uris":{"android":"levelo://app?vid=6633349b-54ae-41b8-88d5-61ec5d012302","ios":"levelo://app?vid=6633349b-54ae-41b8-88d5-61ec5d012302"},"vehicle_type_id":"4","last_reported":1743001858,"current_range_meters":7200,"station_id":"ce4bhrh2rcd13ifvqhug","pricing_plan_id":"cebpf4jnsgd1na2vs0mg"},{"bike_id":"8cf47f8a-0d0f-4d1e-960b-687b712e3a1f","system_id":"levelo_inurba_marseille","lat":43.30876,"lon":5.39638,"is_reserved":false,"is_disabled":false,"rental_uris":{"android":"levelo://app?vid=8cf47f8a-0d0f-4d1e-960b-687b712e3a1f","ios":"levelo://app?vid=8cf47f8a-0d0f-4d1e-960b-687b712e3a1f"},"vehicle_type_id":"4","last_reported":1743001858,"current_range_meters":7200,"station_id":"ce4bh012rcd13ifvqcv0","pricing_plan_id":"cebpf4jnsgd1na2vs0mg"},{"bike_id":"1cc22df2-fffe-4fde-9634-268475adf9c2","system_id":"levelo_inurba_marseille","lat":43.27369,"lon":5.3625,"is_reserved":false,"is_disabled":false,"rental_uris":{"android":"levelo://app?vid=1cc22df2-fffe-4fde-9634-268475adf9c2","ios":"levelo://app?vid=1cc22df2-fffe-4fde-9634-268475adf9c2"},"vehicle_type_id":"4","last_reported":1743001858,"current_range_meters":7200,"station_id":"ce4bhbh2rcd13ifvqeo0","pricing_plan_id":"cebpf4jnsgd1na2vs0mg"},{"bike_id":"f4e6165f-66cb-4097-b095-63912ce8cad9","system_id":"levelo_inurba_marseille","lat":43.27183,"lon":5.40981,"is_reserved":false,"is_disabled":false,"rental_uris":{"android":"levelo://app?vid=f4e6165f-66cb-4097-b095-63912ce8cad9","ios":"levelo://app?vid=f4e6165f-66cb-4097-b095-63912ce8cad9"},"vehicle_type_id":"4","last_reported":1743001858,"current_range_meters":7200,"station_id":"ce4bhl12rcd13ifvqgf0","pricing_plan_id":"cebpf4jnsgd1na2vs0mg"},{"bike_id":"87bb7819-7798-4623-9876-0b0a256b27a1","system_id":"levelo_inurba_marseille","lat":43.26489,"lon":5.3954,"is_reserved":false,"is_disabled":false,"rental_uris":{"android":"levelo://app?vid=87bb7819-7798-4623-9876-0b0a256b27a1","ios":"levelo://app?vid=87bb7819-7798-4623-9876-0b0a256b27a1"},"vehicle_type_id":"4","last_reported":1743001858,"current_range_meters":7200,"station_id":"ce4bhi12rcd13ifvqfq0","pricing_plan_id":"cebpf4jnsgd1na2vs0mg"},{"bike_id":"839e5b26-a51f-4f0f-a069-889aa6fc8186","system_id":"levelo_inurba_marseille","lat":43.30909,"lon":5.36849,"is_reserved":false,"is_disabled":false,"rental_uris":{"android":"levelo://app?vid=839e5b26-a51f-4f0f-a069-889aa6fc8186","ios":"levelo://app?vid=839e5b26-a51f-4f0f-a069-889aa6fc8186"},"vehicle_type_id":"4","last_reported":1743001858,"current_range_meters":7200,"station_id":"ce4bgn92rcd13ifvqbvg","pricing_plan_id":"cebpf4jnsgd1na2vs0mg"},{"bike_id":"2cd38659-3007-4a70-a3c0-4dbdf8d620d5","system_id":"levelo_inurba_marseille","lat":43.315,"lon":5.37306,"is_reserved":false,"is_disabled":true,"rental_uris":{"android":"levelo://app?vid=2cd38659-3007-4a70-a3c0-4dbdf8d620d5","ios":"levelo://app?vid=2cd38659-3007-4a70-a3c0-4dbdf8d620d5"},"vehicle_type_id":"4","last_reported":1743001858,"current_range_meters":7200,"station_id":"ce4bgt12rcd13ifvqcd0","pricing_plan_id":"cebpf4jnsgd1na2vs0mg"},{"bike_id":"6d8ad2d1-5685-452e-ab8f-9d52ef92b770","system_id":"levelo_inurba_marseille","lat":43.30889,"lon":5.3963,"is_reserved":false,"is_disabled":false,"rental_uris":{"android":"levelo://app?vid=6d8ad2d1-5685-452e-ab8f-9d52ef92b770","ios":"levelo://app?vid=6d8ad2d1-5685-452e-ab8f-9d52ef92b770"},"vehicle_type_id":"4","last_reported":1743001858,"current_range_meters":7200,"station_id":"ce4bh012rcd13ifvqcv0","pricing_plan_id":"cebpf4jnsgd1na2vs0mg"},{"bike_id":"986460fa-a4c9-46d1-b214-8e24b33d3df7","system_id":"levelo_inurba_marseille","lat":43.28718,"lon":5.37945,"is_reserved":false,"is_disabled":false,"rental_uris":{"android":"levelo://app?vid=986460fa-a4c9-46d1-b214-8e24b33d3df7","ios":"levelo://app?vid=986460fa-a4c9-46d1-b214-8e24b33d3df7"},"vehicle_type_id":"4","last_reported":1743001858,"current_range_meters":8000,"station_id":"ce4bh9p2rcd13ifvqec0","pricing_plan_id":"cebpf4jnsgd1na2vs0mg"},{"bike_id":"36c1ca57-38fc-4715-a7b3-708182aeacb6","system_id":"levelo_inurba_marseille","lat":43.27363,"lon":5.3625,"is_reserved":false,"is_disabled":false,"rental_uris":{"android":"levelo://app?vid=36c1ca57-38fc-4715-a7b3-708182aeacb6","ios":"levelo://app?vid=36c1ca57-38fc-4715-a7b3-708182aeacb6"},"vehicle_type_id":"4","last_reported":1743001858,"current_range_meters":8000,"station_id":"ce4bhbh2rcd13ifvqeo0","pricing_plan_id":"cebpf4jnsgd1na2vs0mg"},{"bike_id":"24f170bb-7380-4aeb-96f3-48bf267ec462","system_id":"levelo_inurba_marseille","lat":43.24176,"lon":5.39729,"is_reserved":false,"is_disabled":false,"rental_uris":{"android":"levelo://app?vid=24f170bb-7380-4aeb-96f3-48bf267ec462","ios":"levelo://app?vid=24f170bb-7380-4aeb-96f3-48bf267ec462"},"vehicle_type_id":"4","last_reported":1743001858,"current_range_meters":8000,"station_id":"ce4bhn12rcd13ifvqgpg","pricing_plan_id":"cebpf4jnsgd1na2vs0mg"},{"bike_id":"1e5ced36-eaec-4145-8f76-b5160df0a11f","system_id":"levelo_inurba_marseille","lat":43.27571,"lon":5.38417,"is_reserved":false,"is_disabled":false,"rental_uris":{"android":"levelo://app?vid=1e5ced36-eaec-4145-8f76-b5160df0a11f","ios":"levelo://app?vid=1e5ced36-eaec-4145-8f76-b5160df0a11f"},"vehicle_type_id":"4","last_reported":1743001858,"current_range_meters":8000,"station_id":"ce4bhh92rcd13ifvqfi0","pricing_plan_id":"cebpf4jnsgd1na2vs0mg"},{"bike_id":"82c52622-7918-454d-ba66-bef05850dccd","system_id":"levelo_inurba_marseille","lat":43.29005,"lon":5.35617,"is_reserved":false,"is_disabled":false,"rental_uris":{"android":"levelo://app?vid=82c52622-7918-454d-ba66-bef05850dccd","ios":"levelo://app?vid=82c52622-7918-454d-ba66-bef05850dccd"},"vehicle_type_id":"4","last_reported":1743001858,"current_range_meters":8000,"station_id":"ce4bhb92rcd13ifvqen0","pricing_plan_id":"cebpf4jnsgd1na2vs0mg"},{"bike_id":"aa794ec4-81a6-42f4-a54e-ca5925ac23e8","system_id":"levelo_inurba_marseille","lat":43.30962,"lon":5.39042,"is_reserved":false,"is_disabled":false,"rental_uris":{"android":"levelo://app?vid=aa794ec4-81a6-42f4-a54e-ca5925ac23e8","ios":"levelo://app?vid=aa794ec4-81a6-42f4-a54e-ca5925ac23e8"},"vehicle_type_id":"4","last_reported":1743001858,"current_range_meters":8000,"station_id":"ce4bgup2rcd13ifvqco0","pricing_plan_id":"cebpf4jnsgd1na2vs0mg"},{"bike_id":"d2d4a013-da47-429f-9400-c6da6763f452","system_id":"levelo_inurba_marseille","lat":43.27809,"lon":5.40719,"is_reserved":false,"is_disabled":false,"rental_uris":{"android":"levelo://app?vid=d2d4a013-da47-429f-9400-c6da6763f452","ios":"levelo://app?vid=d2d4a013-da47-429f-9400-c6da6763f452"},"vehicle_type_id":"4","last_reported":1743001858,"current_range_meters":8000,"station_id":"ce4bhnh2rcd13ifvqgtg","pricing_plan_id":"cebpf4jnsgd1na2vs0mg"},{"bike_id":"466a4566-f1b8-4c33-9e57-2d82087e9c28","system_id":"levelo_inurba_marseille","lat":43.30543,"lon":5.36557,"is_reserved":false,"is_disabled":false,"rental_uris":{"android":"levelo://app?vid=466a4566-f1b8-4c33-9e57-2d82087e9c28","ios":"levelo://app?vid=466a4566-f1b8-4c33-9e57-2d82087e9c28"},"vehicle_type_id":"4","last_reported":1743001858,"current_range_meters":8000,"station_id":"ce4bgs12rcd13ifvqcag","pricing_plan_id":"cebpf4jnsgd1na2vs0mg"},{"bike_id":"34f9114a-5fea-45cc-ac77-851e0e916817","system_id":"levelo_inurba_marseille","lat":43.28416,"lon":5.34985,"is_reserved":false,"is_disabled":false,"rental_uris":{"android":"levelo://app?vid=34f9114a-5fea-45cc-ac77-851e0e916817","ios":"levelo://app?vid=34f9114a-5fea-45cc-ac77-851e0e916817"},"vehicle_type_id":"4","last_reported":1743001858,"current_range_meters":8000,"station_id":"ce4bhbh2rcd13ifvqepg","pricing_plan_id":"cebpf4jnsgd1na2vs0mg"},{"bike_id":"9e173e96-6e88-4829-bf19-207ad7c21b72","system_id":"levelo_inurba_marseille","lat":43.29844,"lon":5.36277,"is_reserved":false,"is_disabled":false,"rental_uris":{"android":"levelo://app?vid=9e173e96-6e88-4829-bf19-207ad7c21b72","ios":"levelo://app?vid=9e173e96-6e88-4829-bf19-207ad7c21b72"},"vehicle_type_id":"4","last_reported":1743001858,"current_range_meters":8000,"station_id":"ce4bgpp2rcd13ifvqc3g","pricing_plan_id":"cebpf4jnsgd1na2vs0mg"},{"bike_id":"d3c0e6c8-5e98-4d4b-a2ba-41afadbf3ef2","system_id":"levelo_inurba_marseille","lat":43.2985,"lon":5.36276,"is_reserved":false,"is_disabled":false,"rental_uris":{"android":"levelo://app?vid=d3c0e6c8-5e98-4d4b-a2ba-41afadbf3ef2","ios":"levelo://app?vid=d3c0e6c8-5e98-4d4b-a2ba-41afadbf3ef2"},"vehicle_type_id":"4","last_reported":1743001858,"current_range_meters":8000,"station_id":"ce4bgpp2rcd13ifvqc3g","pricing_plan_id":"cebpf4jnsgd1na2vs0mg"},{"bike_id":"9e414f59-5d13-4847-984b-695d5e36104b","system_id":"levelo_inurba_marseille","lat":43.27878,"lon":5.41221,"is_reserved":false,"is_disabled":false,"rental_uris":{"android":"levelo://app?vid=9e414f59-5d13-4847-984b-695d5e36104b","ios":"levelo://app?vid=9e414f59-5d13-4847-984b-695d5e36104b"},"vehicle_type_id":"4","last_reported":1743001858,"current_range_meters":8400,"station_id":"","pricing_plan_id":"cebpf4jnsgd1na2vs0mg"},{"bike_id":"d7381c29-3251-4f6c-b5ec-dc0ef3180051","system_id":"levelo_inurba_marseille","lat":43.26226,"lon":5.40449,"is_reserved":false,"is_disabled":false,"rental_uris":{"android":"levelo://app?vid=d7381c29-3251-4f6c-b5ec-dc0ef3180051","ios":"levelo://app?vid=d7381c29-3251-4f6c-b5ec-dc0ef3180051"},"vehicle_type_id":"4","last_reported":1743001858,"current_range_meters":8400,"station_id":"ce4bhmh2rcd13ifvqgmg","pricing_plan_id":"cebpf4jnsgd1na2vs0mg"},{"bike_id":"e7f6adda-5e1c-4de1-9551-6cb302dd96e0","system_id":"levelo_inurba_marseille","lat":43.26198,"lon":5.37928,"is_reserved":false,"is_disabled":false,"rental_uris":{"android":"levelo://app?vid=e7f6adda-5e1c-4de1-9551-6cb302dd96e0","ios":"levelo://app?vid=e7f6adda-5e1c-4de1-9551-6cb302dd96e0"},"vehicle_type_id":"4","last_reported":1743001858,"current_range_meters":8400,"station_id":"ce4bhjp2rcd13ifvqg90","pricing_plan_id":"cebpf4jnsgd1na2vs0mg"},{"bike_id":"98c7ca61-6b4e-4129-ad44-4943fd2074d6","system_id":"levelo_inurba_marseille","lat":43.22931,"lon":5.35377,"is_reserved":false,"is_disabled":false,"rental_uris":{"android":"levelo://app?vid=98c7ca61-6b4e-4129-ad44-4943fd2074d6","ios":"levelo://app?vid=98c7ca61-6b4e-4129-ad44-4943fd2074d6"},"vehicle_type_id":"4","last_reported":1743001858,"current_range_meters":8400,"station_id":"cpo3532slgdg3j2ikp40","pricing_plan_id":"cebpf4jnsgd1na2vs0mg"},{"bike_id":"98129e8a-99d7-422f-89d5-f8db570c233d","system_id":"levelo_inurba_marseille","lat":43.29713,"lon":5.37689,"is_reserved":false,"is_disabled":false,"rental_uris":{"android":"levelo://app?vid=98129e8a-99d7-422f-89d5-f8db570c233d","ios":"levelo://app?vid=98129e8a-99d7-422f-89d5-f8db570c233d"},"vehicle_type_id":"4","last_reported":1743001858,"current_range_meters":8400,"station_id":"ce4bgkh2rcd13ifvqbl0","pricing_plan_id":"cebpf4jnsgd1na2vs0mg"},{"bike_id":"6c565aa4-82a9-41b4-833b-ae75d9a678cd","system_id":"levelo_inurba_marseille","lat":43.3148,"lon":5.37291,"is_reserved":false,"is_disabled":false,"rental_uris":{"android":"levelo://app?vid=6c565aa4-82a9-41b4-833b-ae75d9a678cd","ios":"levelo://app?vid=6c565aa4-82a9-41b4-833b-ae75d9a678cd"},"vehicle_type_id":"4","last_reported":1743001858,"current_range_meters":8400,"station_id":"ce4bgt12rcd13ifvqcd0","pricing_plan_id":"cebpf4jnsgd1na2vs0mg"},{"bike_id":"c44afd14-a0f0-4d96-8c08-1ff7252d41d7","system_id":"levelo_inurba_marseille","lat":43.2991,"lon":5.37467,"is_reserved":false,"is_disabled":false,"rental_uris":{"android":"levelo://app?vid=c44afd14-a0f0-4d96-8c08-1ff7252d41d7","ios":"levelo://app?vid=c44afd14-a0f0-4d96-8c08-1ff7252d41d7"},"vehicle_type_id":"4","last_reported":1743001858,"current_range_meters":8400,"station_id":"ce4bgjh2rcd13ifvqbg0","pricing_plan_id":"cebpf4jnsgd1na2vs0mg"},{"bike_id":"84dc4f7e-50b6-4dda-8c76-4ba70061e643","system_id":"levelo_inurba_marseille","lat":43.29265,"lon":5.3764,"is_reserved":false,"is_disabled":false,"rental_uris":{"android":"levelo://app?vid=84dc4f7e-50b6-4dda-8c76-4ba70061e643","ios":"levelo://app?vid=84dc4f7e-50b6-4dda-8c76-4ba70061e643"},"vehicle_type_id":"4","last_reported":1743001858,"current_range_meters":8400,"station_id":"ce4bgi12rcd13ifvqb80","pricing_plan_id":"cebpf4jnsgd1na2vs0mg"},{"bike_id":"aec1d2be-86f6-4e60-beb2-de9c370350a2","system_id":"levelo_inurba_marseille","lat":43.3013,"lon":5.37404,"is_reserved":false,"is_disabled":false,"rental_uris":{"android":"levelo://app?vid=aec1d2be-86f6-4e60-beb2-de9c370350a2","ios":"levelo://app?vid=aec1d2be-86f6-4e60-beb2-de9c370350a2"},"vehicle_type_id":"4","last_reported":1743001858,"current_range_meters":8400,"station_id":"ce4bgs92rcd13ifvqcc0","pricing_plan_id":"cebpf4jnsgd1na2vs0mg"},{"bike_id":"6746a662-2fbd-48d7-bb40-dd0731a70b88","system_id":"levelo_inurba_marseille","lat":43.284735,"lon":5.358837,"is_reserved":false,"is_disabled":false,"rental_uris":{"android":"levelo://app?vid=6746a662-2fbd-48d7-bb40-dd0731a70b88","ios":"levelo://app?vid=6746a662-2fbd-48d7-bb40-dd0731a70b88"},"vehicle_type_id":"4","last_reported":1743001858,"current_range_meters":8400,"station_id":"ce4bhah2rcd13ifvqei0","pricing_plan_id":"cebpf4jnsgd1na2vs0mg"},{"bike_id":"2fac4004-0944-4575-a338-55de22a479f3","system_id":"levelo_inurba_marseille","lat":43.28279,"lon":5.35088,"is_reserved":false,"is_disabled":false,"rental_uris":{"android":"levelo://app?vid=2fac4004-0944-4575-a338-55de22a479f3","ios":"levelo://app?vid=2fac4004-0944-4575-a338-55de22a479f3"},"vehicle_type_id":"4","last_reported":1743001858,"current_range_meters":8400,"station_id":"ce4bhbp2rcd13ifvqerg","pricing_plan_id":"cebpf4jnsgd1na2vs0mg"},{"bike_id":"e626ba5a-7c33-4919-b3b6-e062dddfb6d1","system_id":"levelo_inurba_marseille","lat":43.30813,"lon":5.38135,"is_reserved":false,"is_disabled":false,"rental_uris":{"android":"levelo://app?vid=e626ba5a-7c33-4919-b3b6-e062dddfb6d1","ios":"levelo://app?vid=e626ba5a-7c33-4919-b3b6-e062dddfb6d1"},"vehicle_type_id":"4","last_reported":1743001858,"current_range_meters":8400,"station_id":"ce4bgt12rcd13ifvqce0","pricing_plan_id":"cebpf4jnsgd1na2vs0mg"},{"bike_id":"681ec03c-5fcc-472b-a4f7-a3ac540e8e2a","system_id":"levelo_inurba_marseille","lat":43.30806,"lon":5.37074,"is_reserved":false,"is_disabled":false,"rental_uris":{"android":"levelo://app?vid=681ec03c-5fcc-472b-a4f7-a3ac540e8e2a","ios":"levelo://app?vid=681ec03c-5fcc-472b-a4f7-a3ac540e8e2a"},"vehicle_type_id":"4","last_reported":1743001858,"current_range_meters":8400,"station_id":"","pricing_plan_id":"cebpf4jnsgd1na2vs0mg"},{"bike_id":"ee28380f-2566-499f-8ab8-5a75cb1ed72f","system_id":"levelo_inurba_marseille","lat":43.288329,"lon":5.393258,"is_reserved":false,"is_disabled":true,"rental_uris":{"android":"levelo://app?vid=ee28380f-2566-499f-8ab8-5a75cb1ed72f","ios":"levelo://app?vid=ee28380f-2566-499f-8ab8-5a75cb1ed72f"},"vehicle_type_id":"4","last_reported":1743001858,"current_range_meters":8400,"station_id":"","pricing_plan_id":"cebpf4jnsgd1na2vs0mg"},{"bike_id":"494edb5c-8886-472a-b4b2-0033adc0ccbd","system_id":"levelo_inurba_marseille","lat":43.23187,"lon":5.39987,"is_reserved":false,"is_disabled":false,"rental_uris":{"android":"levelo://app?vid=494edb5c-8886-472a-b4b2-0033adc0ccbd","ios":"levelo://app?vid=494edb5c-8886-472a-b4b2-0033adc0ccbd"},"vehicle_type_id":"4","last_reported":1743001858,"current_range_meters":8400,"station_id":"ce4bhn12rcd13ifvqgqg","pricing_plan_id":"cebpf4jnsgd1na2vs0mg"},{"bike_id":"cbea678f-0958-47c0-b1b1-24ee5e33a2d5","system_id":"levelo_inurba_marseille","lat":43.29253,"lon":5.40906,"is_reserved":false,"is_disabled":false,"rental_uris":{"android":"levelo://app?vid=cbea678f-0958-47c0-b1b1-24ee5e33a2d5","ios":"levelo://app?vid=cbea678f-0958-47c0-b1b1-24ee5e33a2d5"},"vehicle_type_id":"4","last_reported":1743001858,"current_range_meters":8400,"station_id":"ce4bh192rcd13ifvqdc0","pricing_plan_id":"cebpf4jnsgd1na2vs0mg"},{"bike_id":"4911f970-d030-452c-99ca-e2084e364a6b","system_id":"levelo_inurba_marseille","lat":43.338099,"lon":5.393819,"is_reserved":false,"is_disabled":false,"rental_uris":{"android":"levelo://app?vid=4911f970-d030-452c-99ca-e2084e364a6b","ios":"levelo://app?vid=4911f970-d030-452c-99ca-e2084e364a6b"},"vehicle_type_id":"4","last_reported":1743001858,"current_range_meters":8400,"station_id":"ce4bhr92rcd13ifvqhsg","pricing_plan_id":"cebpf4jnsgd1na2vs0mg"},{"bike_id":"5d4c7691-5d19-4c19-adec-d63add0cf3b2","system_id":"levelo_inurba_marseille","lat":43.29005,"lon":5.35606,"is_reserved":false,"is_disabled":false,"rental_uris":{"android":"levelo://app?vid=5d4c7691-5d19-4c19-adec-d63add0cf3b2","ios":"levelo://app?vid=5d4c7691-5d19-4c19-adec-d63add0cf3b2"},"vehicle_type_id":"4","last_reported":1743001858,"current_range_meters":8800,"station_id":"ce4bhb92rcd13ifvqen0","pricing_plan_id":"cebpf4jnsgd1na2vs0mg"},{"bike_id":"7fa238cc-7f16-4aad-a292-e6020568177d","system_id":"levelo_inurba_marseille","lat":43.29523,"lon":5.39036,"is_reserved":false,"is_disabled":false,"rental_uris":{"android":"levelo://app?vid=7fa238cc-7f16-4aad-a292-e6020568177d","ios":"levelo://app?vid=7fa238cc-7f16-4aad-a292-e6020568177d"},"vehicle_type_id":"4","last_reported":1743001858,"current_range_meters":8800,"station_id":"ce4bh312rcd13ifvqdj0","pricing_plan_id":"cebpf4jnsgd1na2vs0mg"},{"bike_id":"0c2bafe5-46fc-41ba-b250-676d3b920e0a","system_id":"levelo_inurba_marseille","lat":43.25723,"lon":5.41111,"is_reserved":false,"is_disabled":false,"rental_uris":{"android":"levelo://app?vid=0c2bafe5-46fc-41ba-b250-676d3b920e0a","ios":"levelo://app?vid=0c2bafe5-46fc-41ba-b250-676d3b920e0a"},"vehicle_type_id":"4","last_reported":1743001858,"current_range_meters":8800,"station_id":"ce4bhkp2rcd13ifvqgd0","pricing_plan_id":"cebpf4jnsgd1na2vs0mg"},{"bike_id":"4d6d8a3e-5cdb-4d7b-bbad-abcfee7897a7","system_id":"levelo_inurba_marseille","lat":43.28029,"lon":5.36942,"is_reserved":false,"is_disabled":false,"rental_uris":{"android":"levelo://app?vid=4d6d8a3e-5cdb-4d7b-bbad-abcfee7897a7","ios":"levelo://app?vid=4d6d8a3e-5cdb-4d7b-bbad-abcfee7897a7"},"vehicle_type_id":"4","last_reported":1743001858,"current_range_meters":8800,"station_id":"ce4bha12rcd13ifvqef0","pricing_plan_id":"cebpf4jnsgd1na2vs0mg"},{"bike_id":"221c9671-4cc2-4bed-b70c-631c04858e8d","system_id":"levelo_inurba_marseille","lat":43.30782,"lon":5.37652,"is_reserved":false,"is_disabled":false,"rental_uris":{"android":"levelo://app?vid=221c9671-4cc2-4bed-b70c-631c04858e8d","ios":"levelo://app?vid=221c9671-4cc2-4bed-b70c-631c04858e8d"},"vehicle_type_id":"4","last_reported":1743001858,"current_range_meters":8400,"station_id":"ce4bgv92rcd13ifvqcq0","pricing_plan_id":"cebpf4jnsgd1na2vs0mg"},{"bike_id":"c6949601-076a-4732-b20d-215d8d41ec43","system_id":"levelo_inurba_marseille","lat":43.29554,"lon":5.42291,"is_reserved":false,"is_disabled":false,"rental_uris":{"android":"levelo://app?vid=c6949601-076a-4732-b20d-215d8d41ec43","ios":"levelo://app?vid=c6949601-076a-4732-b20d-215d8d41ec43"},"vehicle_type_id":"4","last_reported":1743001858,"current_range_meters":8800,"station_id":"ce4bhph2rcd13ifvqhdg","pricing_plan_id":"cebpf4jnsgd1na2vs0mg"},{"bike_id":"22465ece-8108-4408-be70-456e850721f0","system_id":"levelo_inurba_marseille","lat":43.29261,"lon":5.37626,"is_reserved":false,"is_disabled":false,"rental_uris":{"android":"levelo://app?vid=22465ece-8108-4408-be70-456e850721f0","ios":"levelo://app?vid=22465ece-8108-4408-be70-456e850721f0"},"vehicle_type_id":"4","last_reported":1743001858,"current_range_meters":8800,"station_id":"ce4bgi12rcd13ifvqb80","pricing_plan_id":"cebpf4jnsgd1na2vs0mg"},{"bike_id":"126f0723-4a70-4a52-a4de-918e33b817cd","system_id":"levelo_inurba_marseille","lat":43.28929,"lon":5.38401,"is_reserved":false,"is_disabled":false,"rental_uris":{"android":"levelo://app?vid=126f0723-4a70-4a52-a4de-918e33b817cd","ios":"levelo://app?vid=126f0723-4a70-4a52-a4de-918e33b817cd"},"vehicle_type_id":"4","last_reported":1743001858,"current_range_meters":8400,"station_id":"ce4bh612rcd13ifvqe6g","pricing_plan_id":"cebpf4jnsgd1na2vs0mg"},{"bike_id":"5c215084-976d-4a69-9199-44167f2b9b30","system_id":"levelo_inurba_marseille","lat":43.30326,"lon":5.40424,"is_reserved":false,"is_disabled":false,"rental_uris":{"android":"levelo://app?vid=5c215084-976d-4a69-9199-44167f2b9b30","ios":"levelo://app?vid=5c215084-976d-4a69-9199-44167f2b9b30"},"vehicle_type_id":"4","last_reported":1743001858,"current_range_meters":9200,"station_id":"ce4bh012rcd13ifvqd10","pricing_plan_id":"cebpf4jnsgd1na2vs0mg"},{"bike_id":"61658fa4-2de1-4107-972c-992d142fab12","system_id":"levelo_inurba_marseille","lat":43.24658,"lon":5.38167,"is_reserved":false,"is_disabled":false,"rental_uris":{"android":"levelo://app?vid=61658fa4-2de1-4107-972c-992d142fab12","ios":"levelo://app?vid=61658fa4-2de1-4107-972c-992d142fab12"},"vehicle_type_id":"4","last_reported":1743001858,"current_range_meters":8800,"station_id":"ce4bhih2rcd13ifvqfr0","pricing_plan_id":"cebpf4jnsgd1na2vs0mg"},{"bike_id":"f331f4a0-921f-47e2-bc64-3b6ed88b17e3","system_id":"levelo_inurba_marseille","lat":43.2718,"lon":5.40982,"is_reserved":false,"is_disabled":false,"rental_uris":{"android":"levelo://app?vid=f331f4a0-921f-47e2-bc64-3b6ed88b17e3","ios":"levelo://app?vid=f331f4a0-921f-47e2-bc64-3b6ed88b17e3"},"vehicle_type_id":"4","last_reported":1743001858,"current_range_meters":9200,"station_id":"ce4bhl12rcd13ifvqgf0","pricing_plan_id":"cebpf4jnsgd1na2vs0mg"},{"bike_id":"3ee1f2d0-a450-44bc-8ac6-976182aa6192","system_id":"levelo_inurba_marseille","lat":43.30927,"lon":5.36851,"is_reserved":false,"is_disabled":false,"rental_uris":{"android":"levelo://app?vid=3ee1f2d0-a450-44bc-8ac6-976182aa6192","ios":"levelo://app?vid=3ee1f2d0-a450-44bc-8ac6-976182aa6192"},"vehicle_type_id":"4","last_reported":1743001858,"current_range_meters":9200,"station_id":"ce4bgn92rcd13ifvqbvg","pricing_plan_id":"cebpf4jnsgd1na2vs0mg"},{"bike_id":"de348bc8-358e-428b-8ad7-4bf54bd71853","system_id":"levelo_inurba_marseille","lat":43.30604,"lon":5.37213,"is_reserved":false,"is_disabled":false,"rental_uris":{"android":"levelo://app?vid=de348bc8-358e-428b-8ad7-4bf54bd71853","ios":"levelo://app?vid=de348bc8-358e-428b-8ad7-4bf54bd71853"},"vehicle_type_id":"4","last_reported":1743001858,"current_range_meters":9200,"station_id":"ce4bgqh2rcd13ifvqc4g","pricing_plan_id":"cebpf4jnsgd1na2vs0mg"},{"bike_id":"392f10d0-2980-4c63-a87f-cd8352afbb83","system_id":"levelo_inurba_marseille","lat":43.25127,"lon":5.40342,"is_reserved":false,"is_disabled":false,"rental_uris":{"android":"levelo://app?vid=392f10d0-2980-4c63-a87f-cd8352afbb83","ios":"levelo://app?vid=392f10d0-2980-4c63-a87f-cd8352afbb83"},"vehicle_type_id":"4","last_reported":1743001858,"current_range_meters":9200,"station_id":"ce4bhlh2rcd13ifvqgig","pricing_plan_id":"cebpf4jnsgd1na2vs0mg"},{"bike_id":"34e777bb-80fc-4899-be68-1132d03bb1e9","system_id":"levelo_inurba_marseille","lat":43.28985,"lon":5.37825,"is_reserved":false,"is_disabled":false,"rental_uris":{"android":"levelo://app?vid=34e777bb-80fc-4899-be68-1132d03bb1e9","ios":"levelo://app?vid=34e777bb-80fc-4899-be68-1132d03bb1e9"},"vehicle_type_id":"4","last_reported":1743001858,"current_range_meters":9200,"station_id":"ce4bh9p2rcd13ifvqed0","pricing_plan_id":"cebpf4jnsgd1na2vs0mg"},{"bike_id":"e126e5db-8bce-4aaf-9956-3bc7c371bd61","system_id":"levelo_inurba_marseille","lat":43.24806,"lon":5.37448,"is_reserved":false,"is_disabled":false,"rental_uris":{"android":"levelo://app?vid=e126e5db-8bce-4aaf-9956-3bc7c371bd61","ios":"levelo://app?vid=e126e5db-8bce-4aaf-9956-3bc7c371bd61"},"vehicle_type_id":"4","last_reported":1743001858,"current_range_meters":9200,"station_id":"ce4bhgh2rcd13ifvqfb0","pricing_plan_id":"cebpf4jnsgd1na2vs0mg"},{"bike_id":"f5eba3ce-1f07-4e08-918f-dc60901b422b","system_id":"levelo_inurba_marseille","lat":43.27617,"lon":5.36105,"is_reserved":false,"is_disabled":false,"rental_uris":{"android":"levelo://app?vid=f5eba3ce-1f07-4e08-918f-dc60901b422b","ios":"levelo://app?vid=f5eba3ce-1f07-4e08-918f-dc60901b422b"},"vehicle_type_id":"4","last_reported":1743001858,"current_range_meters":9200,"station_id":"ce4bgj92rcd13ifvqbe0","pricing_plan_id":"cebpf4jnsgd1na2vs0mg"},{"bike_id":"589f1146-20bc-4a88-9ab7-60ee275b3000","system_id":"levelo_inurba_marseille","lat":43.29655,"lon":5.38034,"is_reserved":false,"is_disabled":false,"rental_uris":{"android":"levelo://app?vid=589f1146-20bc-4a88-9ab7-60ee275b3000","ios":"levelo://app?vid=589f1146-20bc-4a88-9ab7-60ee275b3000"},"vehicle_type_id":"4","last_reported":1743001858,"current_range_meters":9600,"station_id":"","pricing_plan_id":"cebpf4jnsgd1na2vs0mg"},{"bike_id":"8e1b69fe-38a9-404e-9145-427fd10d244c","system_id":"levelo_inurba_marseille","lat":43.28447,"lon":5.34961,"is_reserved":false,"is_disabled":false,"rental_uris":{"android":"levelo://app?vid=8e1b69fe-38a9-404e-9145-427fd10d244c","ios":"levelo://app?vid=8e1b69fe-38a9-404e-9145-427fd10d244c"},"vehicle_type_id":"4","last_reported":1743001858,"current_range_meters":9600,"station_id":"ce4bhbh2rcd13ifvqepg","pricing_plan_id":"cebpf4jnsgd1na2vs0mg"},{"bike_id":"9954e6c9-9470-4407-b7fa-84eb87cc1fb9","system_id":"levelo_inurba_marseille","lat":43.32668,"lon":5.40995,"is_reserved":false,"is_disabled":false,"rental_uris":{"android":"levelo://app?vid=9954e6c9-9470-4407-b7fa-84eb87cc1fb9","ios":"levelo://app?vid=9954e6c9-9470-4407-b7fa-84eb87cc1fb9"},"vehicle_type_id":"4","last_reported":1743001858,"current_range_meters":9600,"station_id":"ce4bhpp2rcd13ifvqhgg","pricing_plan_id":"cebpf4jnsgd1na2vs0mg"},{"bike_id":"de479ead-939b-4a66-b65a-869f1edecf77","system_id":"levelo_inurba_marseille","lat":43.270452,"lon":5.40265,"is_reserved":false,"is_disabled":false,"rental_uris":{"android":"levelo://app?vid=de479ead-939b-4a66-b65a-869f1edecf77","ios":"levelo://app?vid=de479ead-939b-4a66-b65a-869f1edecf77"},"vehicle_type_id":"4","last_reported":1743001858,"current_range_meters":9600,"station_id":"ce4bhk92rcd13ifvqgc0","pricing_plan_id":"cebpf4jnsgd1na2vs0mg"},{"bike_id":"8a9602e7-e6f2-4dac-845f-cea224e49dd5","system_id":"levelo_inurba_marseille","lat":43.23071,"lon":5.35492,"is_reserved":false,"is_disabled":false,"rental_uris":{"android":"levelo://app?vid=8a9602e7-e6f2-4dac-845f-cea224e49dd5","ios":"levelo://app?vid=8a9602e7-e6f2-4dac-845f-cea224e49dd5"},"vehicle_type_id":"4","last_reported":1743001858,"current_range_meters":9600,"station_id":"cpo3342slgdg3j2ifvpg","pricing_plan_id":"cebpf4jnsgd1na2vs0mg"},{"bike_id":"3113e899-9f91-49de-90fe-fbd7a5add133","system_id":"levelo_inurba_marseille","lat":43.28413,"lon":5.34995,"is_reserved":false,"is_disabled":false,"rental_uris":{"android":"levelo://app?vid=3113e899-9f91-49de-90fe-fbd7a5add133","ios":"levelo://app?vid=3113e899-9f91-49de-90fe-fbd7a5add133"},"vehicle_type_id":"4","last_reported":1743001858,"current_range_meters":9600,"station_id":"ce4bhbh2rcd13ifvqepg","pricing_plan_id":"cebpf4jnsgd1na2vs0mg"},{"bike_id":"0383eab6-696d-43a1-8f44-295fb41f1668","system_id":"levelo_inurba_marseille","lat":43.28265,"lon":5.35068,"is_reserved":false,"is_disabled":false,"rental_uris":{"android":"levelo://app?vid=0383eab6-696d-43a1-8f44-295fb41f1668","ios":"levelo://app?vid=0383eab6-696d-43a1-8f44-295fb41f1668"},"vehicle_type_id":"4","last_reported":1743001858,"current_range_meters":9600,"station_id":"ce4bhbp2rcd13ifvqerg","pricing_plan_id":"cebpf4jnsgd1na2vs0mg"},{"bike_id":"01cbffb0-3fb0-4769-96f8-4c2dd20b8277","system_id":"levelo_inurba_marseille","lat":43.28521,"lon":5.40568,"is_reserved":false,"is_disabled":false,"rental_uris":{"android":"levelo://app?vid=01cbffb0-3fb0-4769-96f8-4c2dd20b8277","ios":"levelo://app?vid=01cbffb0-3fb0-4769-96f8-4c2dd20b8277"},"vehicle_type_id":"4","last_reported":1743001858,"current_range_meters":9600,"station_id":"","pricing_plan_id":"cebpf4jnsgd1na2vs0mg"},{"bike_id":"967b5a81-4dba-46b8-880f-346cf631bc0b","system_id":"levelo_inurba_marseille","lat":43.2991,"lon":5.43669,"is_reserved":false,"is_disabled":false,"rental_uris":{"android":"levelo://app?vid=967b5a81-4dba-46b8-880f-346cf631bc0b","ios":"levelo://app?vid=967b5a81-4dba-46b8-880f-346cf631bc0b"},"vehicle_type_id":"4","last_reported":1743001858,"current_range_meters":9200,"station_id":"ce4bhpp2rcd13ifvqhfg","pricing_plan_id":"cebpf4jnsgd1na2vs0mg"},{"bike_id":"974f5876-effd-44d0-911c-76ea7a107a8c","system_id":"levelo_inurba_marseille","lat":43.3338,"lon":5.35983,"is_reserved":false,"is_disabled":false,"rental_uris":{"android":"levelo://app?vid=974f5876-effd-44d0-911c-76ea7a107a8c","ios":"levelo://app?vid=974f5876-effd-44d0-911c-76ea7a107a8c"},"vehicle_type_id":"4","last_reported":1743001858,"current_range_meters":9600,"station_id":"","pricing_plan_id":"cebpf4jnsgd1na2vs0mg"},{"bike_id":"6adb298a-66db-4feb-85c3-22953c94b247","system_id":"levelo_inurba_marseille","lat":43.31323,"lon":5.397,"is_reserved":false,"is_disabled":false,"rental_uris":{"android":"levelo://app?vid=6adb298a-66db-4feb-85c3-22953c94b247","ios":"levelo://app?vid=6adb298a-66db-4feb-85c3-22953c94b247"},"vehicle_type_id":"4","last_reported":1743001858,"current_range_meters":9200,"station_id":"ce4bgvp2rcd13ifvqcu0","pricing_plan_id":"cebpf4jnsgd1na2vs0mg"},{"bike_id":"cf0260a0-1198-4692-8863-a9bbdc53b0c8","system_id":"levelo_inurba_marseille","lat":43.26797,"lon":5.39411,"is_reserved":false,"is_disabled":false,"rental_uris":{"android":"levelo://app?vid=cf0260a0-1198-4692-8863-a9bbdc53b0c8","ios":"levelo://app?vid=cf0260a0-1198-4692-8863-a9bbdc53b0c8"},"vehicle_type_id":"4","last_reported":1743001858,"current_range_meters":9200,"station_id":"ce4bhh12rcd13ifvqfg0","pricing_plan_id":"cebpf4jnsgd1na2vs0mg"},{"bike_id":"efbcaaa6-b11f-400a-9240-cc4b1a3b098a","system_id":"levelo_inurba_marseille","lat":43.30588,"lon":5.39342,"is_reserved":false,"is_disabled":true,"rental_uris":{"android":"levelo://app?vid=efbcaaa6-b11f-400a-9240-cc4b1a3b098a","ios":"levelo://app?vid=efbcaaa6-b11f-400a-9240-cc4b1a3b098a"},"vehicle_type_id":"4","last_reported":1743001858,"current_range_meters":9600,"station_id":"ce4bh0p2rcd13ifvqd80","pricing_plan_id":"cebpf4jnsgd1na2vs0mg"},{"bike_id":"8de7059d-00de-4eed-a842-00ac61b0e1a8","system_id":"levelo_inurba_marseille","lat":43.295931,"lon":5.380881,"is_reserved":false,"is_disabled":true,"rental_uris":{"android":"levelo://app?vid=8de7059d-00de-4eed-a842-00ac61b0e1a8","ios":"levelo://app?vid=8de7059d-00de-4eed-a842-00ac61b0e1a8"},"vehicle_type_id":"4","last_reported":1743001858,"current_range_meters":10000,"station_id":"ce4bgl12rcd13ifvqbo0","pricing_plan_id":"cebpf4jnsgd1na2vs0mg"},{"bike_id":"543a81a8-0b22-4d9b-9e1e-8bfaa6da2058","system_id":"levelo_inurba_marseille","lat":43.26584,"lon":5.37296,"is_reserved":false,"is_disabled":false,"rental_uris":{"android":"levelo://app?vid=543a81a8-0b22-4d9b-9e1e-8bfaa6da2058","ios":"levelo://app?vid=543a81a8-0b22-4d9b-9e1e-8bfaa6da2058"},"vehicle_type_id":"4","last_reported":1743001858,"current_range_meters":10000,"station_id":"ce4bhg12rcd13ifvqf70","pricing_plan_id":"cebpf4jnsgd1na2vs0mg"},{"bike_id":"84a7a785-5392-42bc-8088-fb903bcc7f5c","system_id":"levelo_inurba_marseille","lat":43.23058,"lon":5.35485,"is_reserved":false,"is_disabled":false,"rental_uris":{"android":"levelo://app?vid=84a7a785-5392-42bc-8088-fb903bcc7f5c","ios":"levelo://app?vid=84a7a785-5392-42bc-8088-fb903bcc7f5c"},"vehicle_type_id":"4","last_reported":1743001858,"current_range_meters":10000,"station_id":"cpo3342slgdg3j2ifvpg","pricing_plan_id":"cebpf4jnsgd1na2vs0mg"},{"bike_id":"4b4fbcaf-55fd-435a-a55f-532cae6a78d0","system_id":"levelo_inurba_marseille","lat":43.28286,"lon":5.35085,"is_reserved":false,"is_disabled":false,"rental_uris":{"android":"levelo://app?vid=4b4fbcaf-55fd-435a-a55f-532cae6a78d0","ios":"levelo://app?vid=4b4fbcaf-55fd-435a-a55f-532cae6a78d0"},"vehicle_type_id":"4","last_reported":1743001858,"current_range_meters":10000,"station_id":"ce4bhbp2rcd13ifvqerg","pricing_plan_id":"cebpf4jnsgd1na2vs0mg"},{"bike_id":"4d7af583-0cbf-445e-9365-04e13ff42cf9","system_id":"levelo_inurba_marseille","lat":43.230626,"lon":5.354904,"is_reserved":false,"is_disabled":false,"rental_uris":{"android":"levelo://app?vid=4d7af583-0cbf-445e-9365-04e13ff42cf9","ios":"levelo://app?vid=4d7af583-0cbf-445e-9365-04e13ff42cf9"},"vehicle_type_id":"4","last_reported":1743001858,"current_range_meters":10000,"station_id":"ce4bhu92rcd13ifvqi70","pricing_plan_id":"cebpf4jnsgd1na2vs0mg"},{"bike_id":"73af0020-588b-45d4-8d8c-0a5409e9c6fa","system_id":"levelo_inurba_marseille","lat":43.28614,"lon":5.35106,"is_reserved":false,"is_disabled":false,"rental_uris":{"android":"levelo://app?vid=73af0020-588b-45d4-8d8c-0a5409e9c6fa","ios":"levelo://app?vid=73af0020-588b-45d4-8d8c-0a5409e9c6fa"},"vehicle_type_id":"4","last_reported":1743001858,"current_range_meters":10000,"station_id":"ce4bhch2rcd13ifvqeug","pricing_plan_id":"cebpf4jnsgd1na2vs0mg"},{"bike_id":"851d67d5-70c5-490c-aea6-c48636966809","system_id":"levelo_inurba_marseille","lat":43.28419,"lon":5.34995,"is_reserved":false,"is_disabled":false,"rental_uris":{"android":"levelo://app?vid=851d67d5-70c5-490c-aea6-c48636966809","ios":"levelo://app?vid=851d67d5-70c5-490c-aea6-c48636966809"},"vehicle_type_id":"4","last_reported":1743001858,"current_range_meters":10000,"station_id":"ce4bhbh2rcd13ifvqepg","pricing_plan_id":"cebpf4jnsgd1na2vs0mg"},{"bike_id":"0ed82322-7b8a-4750-876a-5c701219b023","system_id":"levelo_inurba_marseille","lat":43.27812,"lon":5.4071,"is_reserved":false,"is_disabled":false,"rental_uris":{"android":"levelo://app?vid=0ed82322-7b8a-4750-876a-5c701219b023","ios":"levelo://app?vid=0ed82322-7b8a-4750-876a-5c701219b023"},"vehicle_type_id":"4","last_reported":1743001858,"current_range_meters":10000,"station_id":"ce4bhnh2rcd13ifvqgtg","pricing_plan_id":"cebpf4jnsgd1na2vs0mg"},{"bike_id":"87f4e25e-eec3-4939-9eaa-25920e2c9ba9","system_id":"levelo_inurba_marseille","lat":43.3033,"lon":5.4044,"is_reserved":false,"is_disabled":false,"rental_uris":{"android":"levelo://app?vid=87f4e25e-eec3-4939-9eaa-25920e2c9ba9","ios":"levelo://app?vid=87f4e25e-eec3-4939-9eaa-25920e2c9ba9"},"vehicle_type_id":"4","last_reported":1743001858,"current_range_meters":10000,"station_id":"ce4bh012rcd13ifvqd10","pricing_plan_id":"cebpf4jnsgd1na2vs0mg"},{"bike_id":"dd3c2c21-8058-4ad2-bb2d-1b89c01c402f","system_id":"levelo_inurba_marseille","lat":43.30533,"lon":5.36548,"is_reserved":false,"is_disabled":false,"rental_uris":{"android":"levelo://app?vid=dd3c2c21-8058-4ad2-bb2d-1b89c01c402f","ios":"levelo://app?vid=dd3c2c21-8058-4ad2-bb2d-1b89c01c402f"},"vehicle_type_id":"4","last_reported":1743001858,"current_range_meters":10000,"station_id":"ce4bgs12rcd13ifvqcag","pricing_plan_id":"cebpf4jnsgd1na2vs0mg"},{"bike_id":"df204cff-1693-4748-917c-c164aef844a0","system_id":"levelo_inurba_marseille","lat":43.23963,"lon":5.36648,"is_reserved":false,"is_disabled":false,"rental_uris":{"android":"levelo://app?vid=df204cff-1693-4748-917c-c164aef844a0","ios":"levelo://app?vid=df204cff-1693-4748-917c-c164aef844a0"},"vehicle_type_id":"4","last_reported":1743001858,"current_range_meters":10800,"station_id":"ce4bhi12rcd13ifvqfp0","pricing_plan_id":"cebpf4jnsgd1na2vs0mg"},{"bike_id":"b418d168-f2ad-4db0-9a6f-e88743ba94c8","system_id":"levelo_inurba_marseille","lat":43.29261,"lon":5.37629,"is_reserved":false,"is_disabled":true,"rental_uris":{"android":"levelo://app?vid=b418d168-f2ad-4db0-9a6f-e88743ba94c8","ios":"levelo://app?vid=b418d168-f2ad-4db0-9a6f-e88743ba94c8"},"vehicle_type_id":"4","last_reported":1743001858,"current_range_meters":10800,"station_id":"ce4bgi12rcd13ifvqb80","pricing_plan_id":"cebpf4jnsgd1na2vs0mg"},{"bike_id":"ffaf6716-09fd-4ee2-be14-fe7fd975c6bd","system_id":"levelo_inurba_marseille","lat":43.27348,"lon":5.36231,"is_reserved":false,"is_disabled":false,"rental_uris":{"android":"levelo://app?vid=ffaf6716-09fd-4ee2-be14-fe7fd975c6bd","ios":"levelo://app?vid=ffaf6716-09fd-4ee2-be14-fe7fd975c6bd"},"vehicle_type_id":"4","last_reported":1743001858,"current_range_meters":10800,"station_id":"ce4bhbh2rcd13ifvqeo0","pricing_plan_id":"cebpf4jnsgd1na2vs0mg"},{"bike_id":"6a0559e7-710d-4412-9e61-8c930a73e189","system_id":"levelo_inurba_marseille","lat":43.23063,"lon":5.35489,"is_reserved":false,"is_disabled":false,"rental_uris":{"android":"levelo://app?vid=6a0559e7-710d-4412-9e61-8c930a73e189","ios":"levelo://app?vid=6a0559e7-710d-4412-9e61-8c930a73e189"},"vehicle_type_id":"4","last_reported":1743001858,"current_range_meters":11200,"station_id":"cpo3342slgdg3j2ifvpg","pricing_plan_id":"cebpf4jnsgd1na2vs0mg"},{"bike_id":"042baf3a-488d-4cb8-8db5-00a24704613a","system_id":"levelo_inurba_marseille","lat":43.26192,"lon":5.3744,"is_reserved":false,"is_disabled":false,"rental_uris":{"android":"levelo://app?vid=042baf3a-488d-4cb8-8db5-00a24704613a","ios":"levelo://app?vid=042baf3a-488d-4cb8-8db5-00a24704613a"},"vehicle_type_id":"4","last_reported":1743001858,"current_range_meters":10800,"station_id":"ce4bhgp2rcd13ifvqfc0","pricing_plan_id":"cebpf4jnsgd1na2vs0mg"},{"bike_id":"4106c910-4da2-4f08-846e-bfe7276726e6","system_id":"levelo_inurba_marseille","lat":43.32336,"lon":5.40627,"is_reserved":false,"is_disabled":false,"rental_uris":{"android":"levelo://app?vid=4106c910-4da2-4f08-846e-bfe7276726e6","ios":"levelo://app?vid=4106c910-4da2-4f08-846e-bfe7276726e6"},"vehicle_type_id":"4","last_reported":1743001858,"current_range_meters":10000,"station_id":"ce4bhq92rcd13ifvqhjg","pricing_plan_id":"cebpf4jnsgd1na2vs0mg"},{"bike_id":"3c5ad46c-6916-4198-9969-6a5a730716fb","system_id":"levelo_inurba_marseille","lat":43.2923,"lon":5.36074,"is_reserved":false,"is_disabled":false,"rental_uris":{"android":"levelo://app?vid=3c5ad46c-6916-4198-9969-6a5a730716fb","ios":"levelo://app?vid=3c5ad46c-6916-4198-9969-6a5a730716fb"},"vehicle_type_id":"4","last_reported":1743001858,"current_range_meters":10800,"station_id":"ce4bhbh2rcd13ifvqeqg","pricing_plan_id":"cebpf4jnsgd1na2vs0mg"},{"bike_id":"6a00ec6f-686e-412b-b7f3-9e2b9fbbac06","system_id":"levelo_inurba_marseille","lat":43.26955,"lon":5.38639,"is_reserved":false,"is_disabled":false,"rental_uris":{"android":"levelo://app?vid=6a00ec6f-686e-412b-b7f3-9e2b9fbbac06","ios":"levelo://app?vid=6a00ec6f-686e-412b-b7f3-9e2b9fbbac06"},"vehicle_type_id":"4","last_reported":1743001858,"current_range_meters":10000,"station_id":"ce4bhh92rcd13ifvqfh0","pricing_plan_id":"cebpf4jnsgd1na2vs0mg"},{"bike_id":"1ffe7db3-026c-49e2-9097-d01cbf4dca57","system_id":"levelo_inurba_marseille","lat":43.27062,"lon":5.40253,"is_reserved":false,"is_disabled":false,"rental_uris":{"android":"levelo://app?vid=1ffe7db3-026c-49e2-9097-d01cbf4dca57","ios":"levelo://app?vid=1ffe7db3-026c-49e2-9097-d01cbf4dca57"},"vehicle_type_id":"4","last_reported":1743001858,"current_range_meters":10800,"station_id":"ce4bhk92rcd13ifvqgc0","pricing_plan_id":"cebpf4jnsgd1na2vs0mg"},{"bike_id":"a3581d99-7175-4d7f-ae46-7197148d1b7a","system_id":"levelo_inurba_marseille","lat":43.28419,"lon":5.3498,"is_reserved":false,"is_disabled":false,"rental_uris":{"android":"levelo://app?vid=a3581d99-7175-4d7f-ae46-7197148d1b7a","ios":"levelo://app?vid=a3581d99-7175-4d7f-ae46-7197148d1b7a"},"vehicle_type_id":"4","last_reported":1743001858,"current_range_meters":10800,"station_id":"ce4bhbh2rcd13ifvqepg","pricing_plan_id":"cebpf4jnsgd1na2vs0mg"},{"bike_id":"41a3dd54-69c8-4a8c-8cb4-82f3648e8acc","system_id":"levelo_inurba_marseille","lat":43.27366,"lon":5.36249,"is_reserved":false,"is_disabled":false,"rental_uris":{"android":"levelo://app?vid=41a3dd54-69c8-4a8c-8cb4-82f3648e8acc","ios":"levelo://app?vid=41a3dd54-69c8-4a8c-8cb4-82f3648e8acc"},"vehicle_type_id":"4","last_reported":1743001858,"current_range_meters":10800,"station_id":"ce4bhbh2rcd13ifvqeo0","pricing_plan_id":"cebpf4jnsgd1na2vs0mg"},{"bike_id":"d45a2f6c-957b-46cd-bd89-ee8e58d1536e","system_id":"levelo_inurba_marseille","lat":43.27733,"lon":5.40796,"is_reserved":false,"is_disabled":false,"rental_uris":{"android":"levelo://app?vid=d45a2f6c-957b-46cd-bd89-ee8e58d1536e","ios":"levelo://app?vid=d45a2f6c-957b-46cd-bd89-ee8e58d1536e"},"vehicle_type_id":"4","last_reported":1743001858,"current_range_meters":11200,"station_id":"","pricing_plan_id":"cebpf4jnsgd1na2vs0mg"},{"bike_id":"682f1ee0-a752-4cd6-b82c-89df077e39e9","system_id":"levelo_inurba_marseille","lat":43.26558,"lon":5.37287,"is_reserved":false,"is_disabled":false,"rental_uris":{"android":"levelo://app?vid=682f1ee0-a752-4cd6-b82c-89df077e39e9","ios":"levelo://app?vid=682f1ee0-a752-4cd6-b82c-89df077e39e9"},"vehicle_type_id":"4","last_reported":1743001858,"current_range_meters":11200,"station_id":"ce4bhg12rcd13ifvqf70","pricing_plan_id":"cebpf4jnsgd1na2vs0mg"},{"bike_id":"b437c4f4-a2a8-4007-84b1-69cf02bab21c","system_id":"levelo_inurba_marseille","lat":43.28662,"lon":5.38658,"is_reserved":false,"is_disabled":false,"rental_uris":{"android":"levelo://app?vid=b437c4f4-a2a8-4007-84b1-69cf02bab21c","ios":"levelo://app?vid=b437c4f4-a2a8-4007-84b1-69cf02bab21c"},"vehicle_type_id":"4","last_reported":1743001858,"current_range_meters":11200,"station_id":"ce4bh492rcd13ifvqdug","pricing_plan_id":"cebpf4jnsgd1na2vs0mg"},{"bike_id":"339cb39d-039f-4d57-8335-0434e27e1e46","system_id":"levelo_inurba_marseille","lat":43.28031,"lon":5.36945,"is_reserved":false,"is_disabled":false,"rental_uris":{"android":"levelo://app?vid=339cb39d-039f-4d57-8335-0434e27e1e46","ios":"levelo://app?vid=339cb39d-039f-4d57-8335-0434e27e1e46"},"vehicle_type_id":"4","last_reported":1743001858,"current_range_meters":11200,"station_id":"ce4bha12rcd13ifvqef0","pricing_plan_id":"cebpf4jnsgd1na2vs0mg"},{"bike_id":"bb96378c-3fb5-4844-a658-80f9f7098e9f","system_id":"levelo_inurba_marseille","lat":43.27355,"lon":5.36233,"is_reserved":false,"is_disabled":false,"rental_uris":{"android":"levelo://app?vid=bb96378c-3fb5-4844-a658-80f9f7098e9f","ios":"levelo://app?vid=bb96378c-3fb5-4844-a658-80f9f7098e9f"},"vehicle_type_id":"4","last_reported":1743001858,"current_range_meters":11200,"station_id":"ce4bhbh2rcd13ifvqeo0","pricing_plan_id":"cebpf4jnsgd1na2vs0mg"},{"bike_id":"ccdfac36-22da-4f2d-bd50-7bf147cc0fff","system_id":"levelo_inurba_marseille","lat":43.29897,"lon":5.43667,"is_reserved":false,"is_disabled":false,"rental_uris":{"android":"levelo://app?vid=ccdfac36-22da-4f2d-bd50-7bf147cc0fff","ios":"levelo://app?vid=ccdfac36-22da-4f2d-bd50-7bf147cc0fff"},"vehicle_type_id":"4","last_reported":1743001858,"current_range_meters":11600,"station_id":"ce4bhpp2rcd13ifvqhfg","pricing_plan_id":"cebpf4jnsgd1na2vs0mg"},{"bike_id":"d22eb261-e0f2-482f-b572-53d1a4ab5e5c","system_id":"levelo_inurba_marseille","lat":43.27365,"lon":5.36256,"is_reserved":false,"is_disabled":false,"rental_uris":{"android":"levelo://app?vid=d22eb261-e0f2-482f-b572-53d1a4ab5e5c","ios":"levelo://app?vid=d22eb261-e0f2-482f-b572-53d1a4ab5e5c"},"vehicle_type_id":"4","last_reported":1743001858,"current_range_meters":11600,"station_id":"ce4bhbh2rcd13ifvqeo0","pricing_plan_id":"cebpf4jnsgd1na2vs0mg"},{"bike_id":"1d165c56-236e-4374-8632-8a15f8f79471","system_id":"levelo_inurba_marseille","lat":43.31251,"lon":5.36838,"is_reserved":false,"is_disabled":false,"rental_uris":{"android":"levelo://app?vid=1d165c56-236e-4374-8632-8a15f8f79471","ios":"levelo://app?vid=1d165c56-236e-4374-8632-8a15f8f79471"},"vehicle_type_id":"4","last_reported":1743001858,"current_range_meters":11600,"station_id":"ce4bgl92rcd13ifvqbq0","pricing_plan_id":"cebpf4jnsgd1na2vs0mg"},{"bike_id":"2bd0beb5-39fe-4b42-b0a5-001015d8e29c","system_id":"levelo_inurba_marseille","lat":43.293642,"lon":5.378396,"is_reserved":false,"is_disabled":false,"rental_uris":{"android":"levelo://app?vid=2bd0beb5-39fe-4b42-b0a5-001015d8e29c","ios":"levelo://app?vid=2bd0beb5-39fe-4b42-b0a5-001015d8e29c"},"vehicle_type_id":"4","last_reported":1743001858,"current_range_meters":11600,"station_id":"ce4bgjh2rcd13ifvqbf0","pricing_plan_id":"cebpf4jnsgd1na2vs0mg"},{"bike_id":"0743d4da-e7ff-40f2-aed4-12a7e48a031d","system_id":"levelo_inurba_marseille","lat":43.292265,"lon":5.360758,"is_reserved":false,"is_disabled":false,"rental_uris":{"android":"levelo://app?vid=0743d4da-e7ff-40f2-aed4-12a7e48a031d","ios":"levelo://app?vid=0743d4da-e7ff-40f2-aed4-12a7e48a031d"},"vehicle_type_id":"4","last_reported":1743001858,"current_range_meters":11600,"station_id":"ce4bhbh2rcd13ifvqeqg","pricing_plan_id":"cebpf4jnsgd1na2vs0mg"},{"bike_id":"484928c8-8c60-48c3-a758-e3e274268153","system_id":"levelo_inurba_marseille","lat":43.24153,"lon":5.364,"is_reserved":false,"is_disabled":false,"rental_uris":{"android":"levelo://app?vid=484928c8-8c60-48c3-a758-e3e274268153","ios":"levelo://app?vid=484928c8-8c60-48c3-a758-e3e274268153"},"vehicle_type_id":"4","last_reported":1743001858,"current_range_meters":11600,"station_id":"cpo36qri1sfpv3e86is0","pricing_plan_id":"cebpf4jnsgd1na2vs0mg"},{"bike_id":"1ab573d3-794d-4ee4-961c-5dfcc39af17b","system_id":"levelo_inurba_marseille","lat":43.29519,"lon":5.39031,"is_reserved":false,"is_disabled":false,"rental_uris":{"android":"levelo://app?vid=1ab573d3-794d-4ee4-961c-5dfcc39af17b","ios":"levelo://app?vid=1ab573d3-794d-4ee4-961c-5dfcc39af17b"},"vehicle_type_id":"4","last_reported":1743001858,"current_range_meters":11600,"station_id":"ce4bh3p2rcd13ifvqdp0","pricing_plan_id":"cebpf4jnsgd1na2vs0mg"},{"bike_id":"3438569c-1902-46aa-8c9d-f1e41df53646","system_id":"levelo_inurba_marseille","lat":43.31225,"lon":5.36862,"is_reserved":false,"is_disabled":false,"rental_uris":{"android":"levelo://app?vid=3438569c-1902-46aa-8c9d-f1e41df53646","ios":"levelo://app?vid=3438569c-1902-46aa-8c9d-f1e41df53646"},"vehicle_type_id":"4","last_reported":1743001858,"current_range_meters":12000,"station_id":"ce4bgl92rcd13ifvqbq0","pricing_plan_id":"cebpf4jnsgd1na2vs0mg"},{"bike_id":"b3279f87-2d05-49bc-8af7-5bda53a1f332","system_id":"levelo_inurba_marseille","lat":43.2397,"lon":5.36629,"is_reserved":false,"is_disabled":false,"rental_uris":{"android":"levelo://app?vid=b3279f87-2d05-49bc-8af7-5bda53a1f332","ios":"levelo://app?vid=b3279f87-2d05-49bc-8af7-5bda53a1f332"},"vehicle_type_id":"4","last_reported":1743001858,"current_range_meters":12000,"station_id":"ce4bhi12rcd13ifvqfp0","pricing_plan_id":"cebpf4jnsgd1na2vs0mg"},{"bike_id":"2623a753-dcde-4ffa-9bf1-3275e6037e7a","system_id":"levelo_inurba_marseille","lat":43.325,"lon":5.36577,"is_reserved":false,"is_disabled":false,"rental_uris":{"android":"levelo://app?vid=2623a753-dcde-4ffa-9bf1-3275e6037e7a","ios":"levelo://app?vid=2623a753-dcde-4ffa-9bf1-3275e6037e7a"},"vehicle_type_id":"4","last_reported":1743001858,"current_range_meters":12000,"station_id":"ce4bhs12rcd13ifvqhvg","pricing_plan_id":"cebpf4jnsgd1na2vs0mg"},{"bike_id":"db6e155f-b855-483c-83e4-22ef3861b0c5","system_id":"levelo_inurba_marseille","lat":43.2861,"lon":5.37061,"is_reserved":false,"is_disabled":false,"rental_uris":{"android":"levelo://app?vid=db6e155f-b855-483c-83e4-22ef3861b0c5","ios":"levelo://app?vid=db6e155f-b855-483c-83e4-22ef3861b0c5"},"vehicle_type_id":"4","last_reported":1743001858,"current_range_meters":12000,"station_id":"ce4bht12rcd13ifvqi60","pricing_plan_id":"cebpf4jnsgd1na2vs0mg"},{"bike_id":"feb02021-c91c-4994-8c83-a0f717e424da","system_id":"levelo_inurba_marseille","lat":43.25009,"lon":5.38913,"is_reserved":false,"is_disabled":false,"rental_uris":{"android":"levelo://app?vid=feb02021-c91c-4994-8c83-a0f717e424da","ios":"levelo://app?vid=feb02021-c91c-4994-8c83-a0f717e424da"},"vehicle_type_id":"4","last_reported":1743001858,"current_range_meters":12000,"station_id":"ce4bhgp2rcd13ifvqfd0","pricing_plan_id":"cebpf4jnsgd1na2vs0mg"},{"bike_id":"30fb7409-637b-442a-84b0-f23cad9a2a74","system_id":"levelo_inurba_marseille","lat":43.27379,"lon":5.36255,"is_reserved":false,"is_disabled":false,"rental_uris":{"android":"levelo://app?vid=30fb7409-637b-442a-84b0-f23cad9a2a74","ios":"levelo://app?vid=30fb7409-637b-442a-84b0-f23cad9a2a74"},"vehicle_type_id":"4","last_reported":1743001858,"current_range_meters":12000,"station_id":"ce4bhbh2rcd13ifvqeo0","pricing_plan_id":"cebpf4jnsgd1na2vs0mg"},{"bike_id":"b993fda9-e005-40e6-b0e7-62fd9edd8461","system_id":"levelo_inurba_marseille","lat":43.27323,"lon":5.39079,"is_reserved":false,"is_disabled":false,"rental_uris":{"android":"levelo://app?vid=b993fda9-e005-40e6-b0e7-62fd9edd8461","ios":"levelo://app?vid=b993fda9-e005-40e6-b0e7-62fd9edd8461"},"vehicle_type_id":"4","last_reported":1743001858,"current_range_meters":12000,"station_id":"ce4bhgp2rcd13ifvqfe0","pricing_plan_id":"cebpf4jnsgd1na2vs0mg"},{"bike_id":"5b830359-30b8-45d9-a902-126192112277","system_id":"levelo_inurba_marseille","lat":43.231956,"lon":5.355468,"is_reserved":false,"is_disabled":false,"rental_uris":{"android":"levelo://app?vid=5b830359-30b8-45d9-a902-126192112277","ios":"levelo://app?vid=5b830359-30b8-45d9-a902-126192112277"},"vehicle_type_id":"4","last_reported":1743001858,"current_range_meters":12400,"station_id":"ce4bhu92rcd13ifvqi70","pricing_plan_id":"cebpf4jnsgd1na2vs0mg"},{"bike_id":"c23c6af9-8436-4cbf-a483-580e35f21751","system_id":"levelo_inurba_marseille","lat":43.25006,"lon":5.38923,"is_reserved":false,"is_disabled":false,"rental_uris":{"android":"levelo://app?vid=c23c6af9-8436-4cbf-a483-580e35f21751","ios":"levelo://app?vid=c23c6af9-8436-4cbf-a483-580e35f21751"},"vehicle_type_id":"4","last_reported":1743001858,"current_range_meters":12000,"station_id":"ce4bhgp2rcd13ifvqfd0","pricing_plan_id":"cebpf4jnsgd1na2vs0mg"},{"bike_id":"cfb1e6dc-5588-44cc-8f0e-3d3716cf2b6e","system_id":"levelo_inurba_marseille","lat":43.30891,"lon":5.396373,"is_reserved":false,"is_disabled":false,"rental_uris":{"android":"levelo://app?vid=cfb1e6dc-5588-44cc-8f0e-3d3716cf2b6e","ios":"levelo://app?vid=cfb1e6dc-5588-44cc-8f0e-3d3716cf2b6e"},"vehicle_type_id":"4","last_reported":1743001858,"current_range_meters":12400,"station_id":"ce4bh012rcd13ifvqcv0","pricing_plan_id":"cebpf4jnsgd1na2vs0mg"},{"bike_id":"f0553958-fcfa-4dab-814f-03d240c25b5c","system_id":"levelo_inurba_marseille","lat":43.25063,"lon":5.39522,"is_reserved":false,"is_disabled":false,"rental_uris":{"android":"levelo://app?vid=f0553958-fcfa-4dab-814f-03d240c25b5c","ios":"levelo://app?vid=f0553958-fcfa-4dab-814f-03d240c25b5c"},"vehicle_type_id":"4","last_reported":1743001858,"current_range_meters":12400,"station_id":"ce4bhm12rcd13ifvqgkg","pricing_plan_id":"cebpf4jnsgd1na2vs0mg"},{"bike_id":"ed6c471e-ec6e-4614-87fd-7c89663a773b","system_id":"levelo_inurba_marseille","lat":43.2737,"lon":5.36255,"is_reserved":false,"is_disabled":false,"rental_uris":{"android":"levelo://app?vid=ed6c471e-ec6e-4614-87fd-7c89663a773b","ios":"levelo://app?vid=ed6c471e-ec6e-4614-87fd-7c89663a773b"},"vehicle_type_id":"4","last_reported":1743001858,"current_range_meters":12400,"station_id":"ce4bhbh2rcd13ifvqeo0","pricing_plan_id":"cebpf4jnsgd1na2vs0mg"},{"bike_id":"c058f0c5-2b4a-431d-985d-f14e613fab32","system_id":"levelo_inurba_marseille","lat":43.27424,"lon":5.39415,"is_reserved":false,"is_disabled":false,"rental_uris":{"android":"levelo://app?vid=c058f0c5-2b4a-431d-985d-f14e613fab32","ios":"levelo://app?vid=c058f0c5-2b4a-431d-985d-f14e613fab32"},"vehicle_type_id":"4","last_reported":1743001858,"current_range_meters":12400,"station_id":"ce4bhdp2rcd13ifvqf20","pricing_plan_id":"cebpf4jnsgd1na2vs0mg"},{"bike_id":"9490ab3f-b563-4312-b2ed-009944c7886e","system_id":"levelo_inurba_marseille","lat":43.3246,"lon":5.36541,"is_reserved":false,"is_disabled":false,"rental_uris":{"android":"levelo://app?vid=9490ab3f-b563-4312-b2ed-009944c7886e","ios":"levelo://app?vid=9490ab3f-b563-4312-b2ed-009944c7886e"},"vehicle_type_id":"4","last_reported":1743001858,"current_range_meters":12400,"station_id":"ce4bhs12rcd13ifvqhvg","pricing_plan_id":"cebpf4jnsgd1na2vs0mg"},{"bike_id":"dabbffc7-43aa-419b-9f81-3ec8e4e55a54","system_id":"levelo_inurba_marseille","lat":43.25924,"lon":5.40908,"is_reserved":false,"is_disabled":false,"rental_uris":{"android":"levelo://app?vid=dabbffc7-43aa-419b-9f81-3ec8e4e55a54","ios":"levelo://app?vid=dabbffc7-43aa-419b-9f81-3ec8e4e55a54"},"vehicle_type_id":"4","last_reported":1743001858,"current_range_meters":12400,"station_id":"ce4bhm92rcd13ifvqglg","pricing_plan_id":"cebpf4jnsgd1na2vs0mg"},{"bike_id":"32f5fa30-be78-4ef7-9a30-7ad362928e8e","system_id":"levelo_inurba_marseille","lat":43.24387,"lon":5.37051,"is_reserved":false,"is_disabled":false,"rental_uris":{"android":"levelo://app?vid=32f5fa30-be78-4ef7-9a30-7ad362928e8e","ios":"levelo://app?vid=32f5fa30-be78-4ef7-9a30-7ad362928e8e"},"vehicle_type_id":"4","last_reported":1743001858,"current_range_meters":12400,"station_id":"ce4bhhh2rcd13ifvqfk0","pricing_plan_id":"cebpf4jnsgd1na2vs0mg"},{"bike_id":"53342180-c148-436a-ad56-1c957642ec6a","system_id":"levelo_inurba_marseille","lat":43.231901,"lon":5.355553,"is_reserved":false,"is_disabled":false,"rental_uris":{"android":"levelo://app?vid=53342180-c148-436a-ad56-1c957642ec6a","ios":"levelo://app?vid=53342180-c148-436a-ad56-1c957642ec6a"},"vehicle_type_id":"4","last_reported":1743001858,"current_range_meters":12400,"station_id":"ce4bhu92rcd13ifvqi70","pricing_plan_id":"cebpf4jnsgd1na2vs0mg"},{"bike_id":"466e2e46-838c-4f9d-b2cf-0f4bacfcd6ac","system_id":"levelo_inurba_marseille","lat":43.28423,"lon":5.34997,"is_reserved":false,"is_disabled":false,"rental_uris":{"android":"levelo://app?vid=466e2e46-838c-4f9d-b2cf-0f4bacfcd6ac","ios":"levelo://app?vid=466e2e46-838c-4f9d-b2cf-0f4bacfcd6ac"},"vehicle_type_id":"4","last_reported":1743001858,"current_range_meters":12400,"station_id":"ce4bhbh2rcd13ifvqepg","pricing_plan_id":"cebpf4jnsgd1na2vs0mg"},{"bike_id":"42c44b1b-46b7-4c55-a3c2-9af930fd6f2f","system_id":"levelo_inurba_marseille","lat":43.29894,"lon":5.43664,"is_reserved":false,"is_disabled":false,"rental_uris":{"android":"levelo://app?vid=42c44b1b-46b7-4c55-a3c2-9af930fd6f2f","ios":"levelo://app?vid=42c44b1b-46b7-4c55-a3c2-9af930fd6f2f"},"vehicle_type_id":"4","last_reported":1743001858,"current_range_meters":12800,"station_id":"ce4bhpp2rcd13ifvqhfg","pricing_plan_id":"cebpf4jnsgd1na2vs0mg"},{"bike_id":"f1414457-b578-4c46-b2bf-7e89a08e69ff","system_id":"levelo_inurba_marseille","lat":43.30536,"lon":5.36541,"is_reserved":false,"is_disabled":false,"rental_uris":{"android":"levelo://app?vid=f1414457-b578-4c46-b2bf-7e89a08e69ff","ios":"levelo://app?vid=f1414457-b578-4c46-b2bf-7e89a08e69ff"},"vehicle_type_id":"4","last_reported":1743001858,"current_range_meters":12800,"station_id":"ce4bgs12rcd13ifvqcag","pricing_plan_id":"cebpf4jnsgd1na2vs0mg"},{"bike_id":"c4cd62a8-2ada-4122-910c-452009a0ea48","system_id":"levelo_inurba_marseille","lat":43.3063,"lon":5.40091,"is_reserved":false,"is_disabled":false,"rental_uris":{"android":"levelo://app?vid=c4cd62a8-2ada-4122-910c-452009a0ea48","ios":"levelo://app?vid=c4cd62a8-2ada-4122-910c-452009a0ea48"},"vehicle_type_id":"4","last_reported":1743001858,"current_range_meters":12800,"station_id":"ce4bh112rcd13ifvqda0","pricing_plan_id":"cebpf4jnsgd1na2vs0mg"},{"bike_id":"32801816-2201-4874-aadf-00bf1eb21f17","system_id":"levelo_inurba_marseille","lat":43.24716,"lon":5.38073,"is_reserved":false,"is_disabled":false,"rental_uris":{"android":"levelo://app?vid=32801816-2201-4874-aadf-00bf1eb21f17","ios":"levelo://app?vid=32801816-2201-4874-aadf-00bf1eb21f17"},"vehicle_type_id":"4","last_reported":1743001858,"current_range_meters":12800,"station_id":"","pricing_plan_id":"cebpf4jnsgd1na2vs0mg"},{"bike_id":"46bc7627-5963-437b-83ed-b3f9497370e8","system_id":"levelo_inurba_marseille","lat":43.298995,"lon":5.436629,"is_reserved":false,"is_disabled":false,"rental_uris":{"android":"levelo://app?vid=46bc7627-5963-437b-83ed-b3f9497370e8","ios":"levelo://app?vid=46bc7627-5963-437b-83ed-b3f9497370e8"},"vehicle_type_id":"4","last_reported":1743001858,"current_range_meters":12800,"station_id":"ce4bhpp2rcd13ifvqhfg","pricing_plan_id":"cebpf4jnsgd1na2vs0mg"},{"bike_id":"85d0fa0c-b5b9-41cd-ba43-951901672dab","system_id":"levelo_inurba_marseille","lat":43.256073,"lon":5.389857,"is_reserved":false,"is_disabled":false,"rental_uris":{"android":"levelo://app?vid=85d0fa0c-b5b9-41cd-ba43-951901672dab","ios":"levelo://app?vid=85d0fa0c-b5b9-41cd-ba43-951901672dab"},"vehicle_type_id":"4","last_reported":1743001858,"current_range_meters":12800,"station_id":"","pricing_plan_id":"cebpf4jnsgd1na2vs0mg"},{"bike_id":"00a6566c-9629-4dce-b6c6-f9a859b388e2","system_id":"levelo_inurba_marseille","lat":43.29003,"lon":5.35602,"is_reserved":false,"is_disabled":false,"rental_uris":{"android":"levelo://app?vid=00a6566c-9629-4dce-b6c6-f9a859b388e2","ios":"levelo://app?vid=00a6566c-9629-4dce-b6c6-f9a859b388e2"},"vehicle_type_id":"4","last_reported":1743001858,"current_range_meters":13600,"station_id":"ce4bhb92rcd13ifvqen0","pricing_plan_id":"cebpf4jnsgd1na2vs0mg"},{"bike_id":"debad199-6b8b-4d72-aea6-475625d912fa","system_id":"levelo_inurba_marseille","lat":43.24548,"lon":5.3952,"is_reserved":false,"is_disabled":false,"rental_uris":{"android":"levelo://app?vid=debad199-6b8b-4d72-aea6-475625d912fa","ios":"levelo://app?vid=debad199-6b8b-4d72-aea6-475625d912fa"},"vehicle_type_id":"4","last_reported":1743001858,"current_range_meters":13600,"station_id":"ce4bhlp2rcd13ifvqgjg","pricing_plan_id":"cebpf4jnsgd1na2vs0mg"},{"bike_id":"ce6fb305-2ce9-42a2-a222-e7a3d9e1b14e","system_id":"levelo_inurba_marseille","lat":43.33046,"lon":5.39045,"is_reserved":false,"is_disabled":false,"rental_uris":{"android":"levelo://app?vid=ce6fb305-2ce9-42a2-a222-e7a3d9e1b14e","ios":"levelo://app?vid=ce6fb305-2ce9-42a2-a222-e7a3d9e1b14e"},"vehicle_type_id":"4","last_reported":1743001858,"current_range_meters":13600,"station_id":"ce4bhr92rcd13ifvqhrg","pricing_plan_id":"cebpf4jnsgd1na2vs0mg"},{"bike_id":"f3740f6c-b009-42dc-8001-31f01a243c8c","system_id":"levelo_inurba_marseille","lat":43.33024,"lon":5.39035,"is_reserved":false,"is_disabled":false,"rental_uris":{"android":"levelo://app?vid=f3740f6c-b009-42dc-8001-31f01a243c8c","ios":"levelo://app?vid=f3740f6c-b009-42dc-8001-31f01a243c8c"},"vehicle_type_id":"4","last_reported":1743001858,"current_range_meters":13600,"station_id":"ce4bhr92rcd13ifvqhrg","pricing_plan_id":"cebpf4jnsgd1na2vs0mg"},{"bike_id":"0f9443e3-33eb-4c08-9852-439b28315704","system_id":"levelo_inurba_marseille","lat":43.30786,"lon":5.376383,"is_reserved":false,"is_disabled":false,"rental_uris":{"android":"levelo://app?vid=0f9443e3-33eb-4c08-9852-439b28315704","ios":"levelo://app?vid=0f9443e3-33eb-4c08-9852-439b28315704"},"vehicle_type_id":"4","last_reported":1743001858,"current_range_meters":13600,"station_id":"ce4bgv92rcd13ifvqcq0","pricing_plan_id":"cebpf4jnsgd1na2vs0mg"},{"bike_id":"53f39986-2d83-4317-a840-5b1fd1874c0c","system_id":"levelo_inurba_marseille","lat":43.30962,"lon":5.39043,"is_reserved":false,"is_disabled":false,"rental_uris":{"android":"levelo://app?vid=53f39986-2d83-4317-a840-5b1fd1874c0c","ios":"levelo://app?vid=53f39986-2d83-4317-a840-5b1fd1874c0c"},"vehicle_type_id":"4","last_reported":1743001858,"current_range_meters":13600,"station_id":"ce4bgup2rcd13ifvqco0","pricing_plan_id":"cebpf4jnsgd1na2vs0mg"},{"bike_id":"9820e45b-c32b-4af4-8a71-8a212855c4ff","system_id":"levelo_inurba_marseille","lat":43.30525,"lon":5.3672,"is_reserved":false,"is_disabled":false,"rental_uris":{"android":"levelo://app?vid=9820e45b-c32b-4af4-8a71-8a212855c4ff","ios":"levelo://app?vid=9820e45b-c32b-4af4-8a71-8a212855c4ff"},"vehicle_type_id":"4","last_reported":1743001858,"current_range_meters":13600,"station_id":"ce4bgrp2rcd13ifvqc9g","pricing_plan_id":"cebpf4jnsgd1na2vs0mg"},{"bike_id":"c2fa1070-4e4e-42cb-a34a-c0f1a94e593b","system_id":"levelo_inurba_marseille","lat":43.25119,"lon":5.40318,"is_reserved":false,"is_disabled":false,"rental_uris":{"android":"levelo://app?vid=c2fa1070-4e4e-42cb-a34a-c0f1a94e593b","ios":"levelo://app?vid=c2fa1070-4e4e-42cb-a34a-c0f1a94e593b"},"vehicle_type_id":"4","last_reported":1743001858,"current_range_meters":13600,"station_id":"ce4bhlh2rcd13ifvqgig","pricing_plan_id":"cebpf4jnsgd1na2vs0mg"},{"bike_id":"d72b2321-ec34-48cf-868e-8c5e65afe96e","system_id":"levelo_inurba_marseille","lat":43.27913,"lon":5.39579,"is_reserved":false,"is_disabled":false,"rental_uris":{"android":"levelo://app?vid=d72b2321-ec34-48cf-868e-8c5e65afe96e","ios":"levelo://app?vid=d72b2321-ec34-48cf-868e-8c5e65afe96e"},"vehicle_type_id":"4","last_reported":1743001858,"current_range_meters":14000,"station_id":"ce4bhf92rcd13ifvqf40","pricing_plan_id":"cebpf4jnsgd1na2vs0mg"},{"bike_id":"08bfe4ef-b251-42c2-bf3f-048b712a6ba4","system_id":"levelo_inurba_marseille","lat":43.23063,"lon":5.35492,"is_reserved":false,"is_disabled":false,"rental_uris":{"android":"levelo://app?vid=08bfe4ef-b251-42c2-bf3f-048b712a6ba4","ios":"levelo://app?vid=08bfe4ef-b251-42c2-bf3f-048b712a6ba4"},"vehicle_type_id":"4","last_reported":1743001858,"current_range_meters":14000,"station_id":"cpo3342slgdg3j2ifvpg","pricing_plan_id":"cebpf4jnsgd1na2vs0mg"},{"bike_id":"a446a54f-4fbf-40df-b247-11c1431d2281","system_id":"levelo_inurba_marseille","lat":43.31232,"lon":5.36885,"is_reserved":false,"is_disabled":false,"rental_uris":{"android":"levelo://app?vid=a446a54f-4fbf-40df-b247-11c1431d2281","ios":"levelo://app?vid=a446a54f-4fbf-40df-b247-11c1431d2281"},"vehicle_type_id":"4","last_reported":1743001858,"current_range_meters":14000,"station_id":"ce4bgl92rcd13ifvqbq0","pricing_plan_id":"cebpf4jnsgd1na2vs0mg"},{"bike_id":"5a6dc6b6-6ec6-42d1-ac54-20233320938b","system_id":"levelo_inurba_marseille","lat":43.31159,"lon":5.36778,"is_reserved":false,"is_disabled":false,"rental_uris":{"android":"levelo://app?vid=5a6dc6b6-6ec6-42d1-ac54-20233320938b","ios":"levelo://app?vid=5a6dc6b6-6ec6-42d1-ac54-20233320938b"},"vehicle_type_id":"4","last_reported":1743001858,"current_range_meters":14000,"station_id":"","pricing_plan_id":"cebpf4jnsgd1na2vs0mg"},{"bike_id":"2f69c259-678f-4dc6-9847-fd43204ee42a","system_id":"levelo_inurba_marseille","lat":43.25086,"lon":5.39512,"is_reserved":false,"is_disabled":false,"rental_uris":{"android":"levelo://app?vid=2f69c259-678f-4dc6-9847-fd43204ee42a","ios":"levelo://app?vid=2f69c259-678f-4dc6-9847-fd43204ee42a"},"vehicle_type_id":"4","last_reported":1743001858,"current_range_meters":14000,"station_id":"ce4bhm12rcd13ifvqgkg","pricing_plan_id":"cebpf4jnsgd1na2vs0mg"},{"bike_id":"5a86a0ff-a812-42dc-84dd-dff8f4cf06da","system_id":"levelo_inurba_marseille","lat":43.28116,"lon":5.37838,"is_reserved":false,"is_disabled":false,"rental_uris":{"android":"levelo://app?vid=5a86a0ff-a812-42dc-84dd-dff8f4cf06da","ios":"levelo://app?vid=5a86a0ff-a812-42dc-84dd-dff8f4cf06da"},"vehicle_type_id":"4","last_reported":1743001858,"current_range_meters":14000,"station_id":"ce4bha12rcd13ifvqee0","pricing_plan_id":"cebpf4jnsgd1na2vs0mg"},{"bike_id":"7c43061b-44f9-45fa-9f05-5b7e2cf06616","system_id":"levelo_inurba_marseille","lat":43.27948,"lon":5.4105,"is_reserved":false,"is_disabled":false,"rental_uris":{"android":"levelo://app?vid=7c43061b-44f9-45fa-9f05-5b7e2cf06616","ios":"levelo://app?vid=7c43061b-44f9-45fa-9f05-5b7e2cf06616"},"vehicle_type_id":"4","last_reported":1743001858,"current_range_meters":14000,"station_id":"ce4bhnp2rcd13ifvqh0g","pricing_plan_id":"cebpf4jnsgd1na2vs0mg"},{"bike_id":"ca8a5c5f-9264-4e03-a83b-fe27d1b1aabe","system_id":"levelo_inurba_marseille","lat":43.3054,"lon":5.36562,"is_reserved":false,"is_disabled":false,"rental_uris":{"android":"levelo://app?vid=ca8a5c5f-9264-4e03-a83b-fe27d1b1aabe","ios":"levelo://app?vid=ca8a5c5f-9264-4e03-a83b-fe27d1b1aabe"},"vehicle_type_id":"4","last_reported":1743001858,"current_range_meters":14000,"station_id":"ce4bgs12rcd13ifvqcag","pricing_plan_id":"cebpf4jnsgd1na2vs0mg"},{"bike_id":"94e79fc7-9367-4952-8689-794a28fc3d39","system_id":"levelo_inurba_marseille","lat":43.29904,"lon":5.43677,"is_reserved":false,"is_disabled":false,"rental_uris":{"android":"levelo://app?vid=94e79fc7-9367-4952-8689-794a28fc3d39","ios":"levelo://app?vid=94e79fc7-9367-4952-8689-794a28fc3d39"},"vehicle_type_id":"4","last_reported":1743001858,"current_range_meters":14400,"station_id":"ce4bhpp2rcd13ifvqhfg","pricing_plan_id":"cebpf4jnsgd1na2vs0mg"},{"bike_id":"a83d2307-e4c7-4a85-8698-7c634d4aa616","system_id":"levelo_inurba_marseille","lat":43.2807,"lon":5.39655,"is_reserved":false,"is_disabled":false,"rental_uris":{"android":"levelo://app?vid=a83d2307-e4c7-4a85-8698-7c634d4aa616","ios":"levelo://app?vid=a83d2307-e4c7-4a85-8698-7c634d4aa616"},"vehicle_type_id":"4","last_reported":1743001858,"current_range_meters":14400,"station_id":"ce4bho12rcd13ifvqh2g","pricing_plan_id":"cebpf4jnsgd1na2vs0mg"},{"bike_id":"c6e3452b-f8d0-48b5-b208-01d642929070","system_id":"levelo_inurba_marseille","lat":43.30546,"lon":5.36713,"is_reserved":false,"is_disabled":false,"rental_uris":{"android":"levelo://app?vid=c6e3452b-f8d0-48b5-b208-01d642929070","ios":"levelo://app?vid=c6e3452b-f8d0-48b5-b208-01d642929070"},"vehicle_type_id":"4","last_reported":1743001858,"current_range_meters":14400,"station_id":"ce4bgrp2rcd13ifvqc9g","pricing_plan_id":"cebpf4jnsgd1na2vs0mg"},{"bike_id":"a4e9e3fd-ebc7-468f-aaef-a21894efe6ce","system_id":"levelo_inurba_marseille","lat":43.284339,"lon":5.391999,"is_reserved":false,"is_disabled":false,"rental_uris":{"android":"levelo://app?vid=a4e9e3fd-ebc7-468f-aaef-a21894efe6ce","ios":"levelo://app?vid=a4e9e3fd-ebc7-468f-aaef-a21894efe6ce"},"vehicle_type_id":"4","last_reported":1743001858,"current_range_meters":14400,"station_id":"ce4bhoh2rcd13ifvqh5g","pricing_plan_id":"cebpf4jnsgd1na2vs0mg"},{"bike_id":"0a4a36bf-847a-4136-9ce8-19ca855d9705","system_id":"levelo_inurba_marseille","lat":43.28422,"lon":5.34997,"is_reserved":false,"is_disabled":false,"rental_uris":{"android":"levelo://app?vid=0a4a36bf-847a-4136-9ce8-19ca855d9705","ios":"levelo://app?vid=0a4a36bf-847a-4136-9ce8-19ca855d9705"},"vehicle_type_id":"4","last_reported":1743001858,"current_range_meters":14800,"station_id":"ce4bhbh2rcd13ifvqepg","pricing_plan_id":"cebpf4jnsgd1na2vs0mg"},{"bike_id":"15064182-56ee-4264-9788-220a7476c84f","system_id":"levelo_inurba_marseille","lat":43.27304,"lon":5.39082,"is_reserved":false,"is_disabled":false,"rental_uris":{"android":"levelo://app?vid=15064182-56ee-4264-9788-220a7476c84f","ios":"levelo://app?vid=15064182-56ee-4264-9788-220a7476c84f"},"vehicle_type_id":"4","last_reported":1743001858,"current_range_meters":14800,"station_id":"ce4bhgp2rcd13ifvqfe0","pricing_plan_id":"cebpf4jnsgd1na2vs0mg"},{"bike_id":"be501a49-6295-40fd-a82e-3971a75cd18a","system_id":"levelo_inurba_marseille","lat":43.29272,"lon":5.36843,"is_reserved":false,"is_disabled":false,"rental_uris":{"android":"levelo://app?vid=be501a49-6295-40fd-a82e-3971a75cd18a","ios":"levelo://app?vid=be501a49-6295-40fd-a82e-3971a75cd18a"},"vehicle_type_id":"4","last_reported":1743001858,"current_range_meters":14800,"station_id":"ce4bhbp2rcd13ifvqesg","pricing_plan_id":"cebpf4jnsgd1na2vs0mg"},{"bike_id":"75c7187b-7cb5-4136-b180-795a32bcbe1d","system_id":"levelo_inurba_marseille","lat":43.27974,"lon":5.38589,"is_reserved":false,"is_disabled":true,"rental_uris":{"android":"levelo://app?vid=75c7187b-7cb5-4136-b180-795a32bcbe1d","ios":"levelo://app?vid=75c7187b-7cb5-4136-b180-795a32bcbe1d"},"vehicle_type_id":"4","last_reported":1743001858,"current_range_meters":14800,"station_id":"","pricing_plan_id":"cebpf4jnsgd1na2vs0mg"},{"bike_id":"0ac88cdf-dd3a-494f-aaa5-2b24d1ce393f","system_id":"levelo_inurba_marseille","lat":43.2319,"lon":5.35553,"is_reserved":false,"is_disabled":false,"rental_uris":{"android":"levelo://app?vid=0ac88cdf-dd3a-494f-aaa5-2b24d1ce393f","ios":"levelo://app?vid=0ac88cdf-dd3a-494f-aaa5-2b24d1ce393f"},"vehicle_type_id":"4","last_reported":1743001858,"current_range_meters":14800,"station_id":"ce4bhu92rcd13ifvqi70","pricing_plan_id":"cebpf4jnsgd1na2vs0mg"},{"bike_id":"39ccec1f-5b11-4333-8c8a-e8a693ed917d","system_id":"levelo_inurba_marseille","lat":43.265568,"lon":5.372897,"is_reserved":false,"is_disabled":false,"rental_uris":{"android":"levelo://app?vid=39ccec1f-5b11-4333-8c8a-e8a693ed917d","ios":"levelo://app?vid=39ccec1f-5b11-4333-8c8a-e8a693ed917d"},"vehicle_type_id":"4","last_reported":1743001858,"current_range_meters":14800,"station_id":"ce4bhg12rcd13ifvqf70","pricing_plan_id":"cebpf4jnsgd1na2vs0mg"},{"bike_id":"df0f87ca-76da-4d9b-a35f-91f6291f46ac","system_id":"levelo_inurba_marseille","lat":43.26228,"lon":5.37456,"is_reserved":false,"is_disabled":false,"rental_uris":{"android":"levelo://app?vid=df0f87ca-76da-4d9b-a35f-91f6291f46ac","ios":"levelo://app?vid=df0f87ca-76da-4d9b-a35f-91f6291f46ac"},"vehicle_type_id":"4","last_reported":1743001858,"current_range_meters":14800,"station_id":"ce4bhgp2rcd13ifvqfc0","pricing_plan_id":"cebpf4jnsgd1na2vs0mg"},{"bike_id":"0945919b-b390-4511-8a42-9e3e7a39048e","system_id":"levelo_inurba_marseille","lat":43.28925,"lon":5.38401,"is_reserved":false,"is_disabled":false,"rental_uris":{"android":"levelo://app?vid=0945919b-b390-4511-8a42-9e3e7a39048e","ios":"levelo://app?vid=0945919b-b390-4511-8a42-9e3e7a39048e"},"vehicle_type_id":"4","last_reported":1743001858,"current_range_meters":14800,"station_id":"ce4bh612rcd13ifvqe6g","pricing_plan_id":"cebpf4jnsgd1na2vs0mg"},{"bike_id":"b3c3b31f-d7bf-4b81-85f2-7581d36e8d8d","system_id":"levelo_inurba_marseille","lat":43.231954,"lon":5.355552,"is_reserved":false,"is_disabled":false,"rental_uris":{"android":"levelo://app?vid=b3c3b31f-d7bf-4b81-85f2-7581d36e8d8d","ios":"levelo://app?vid=b3c3b31f-d7bf-4b81-85f2-7581d36e8d8d"},"vehicle_type_id":"4","last_reported":1743001858,"current_range_meters":14800,"station_id":"ce4bhu92rcd13ifvqi70","pricing_plan_id":"cebpf4jnsgd1na2vs0mg"},{"bike_id":"f3223e47-c1a4-40d3-b276-f1b49a83a5ca","system_id":"levelo_inurba_marseille","lat":43.26033,"lon":5.37551,"is_reserved":false,"is_disabled":false,"rental_uris":{"android":"levelo://app?vid=f3223e47-c1a4-40d3-b276-f1b49a83a5ca","ios":"levelo://app?vid=f3223e47-c1a4-40d3-b276-f1b49a83a5ca"},"vehicle_type_id":"4","last_reported":1743001858,"current_range_meters":15200,"station_id":"ce4bhgh2rcd13ifvqfa0","pricing_plan_id":"cebpf4jnsgd1na2vs0mg"},{"bike_id":"0cde21f7-3bfa-4431-8114-0b121f87b2ac","system_id":"levelo_inurba_marseille","lat":43.26567,"lon":5.3901,"is_reserved":false,"is_disabled":false,"rental_uris":{"android":"levelo://app?vid=0cde21f7-3bfa-4431-8114-0b121f87b2ac","ios":"levelo://app?vid=0cde21f7-3bfa-4431-8114-0b121f87b2ac"},"vehicle_type_id":"4","last_reported":1743001858,"current_range_meters":15200,"station_id":"ce4bhe12rcd13ifvqf30","pricing_plan_id":"cebpf4jnsgd1na2vs0mg"},{"bike_id":"c18155db-65c7-4d5a-8c5b-923eb75c675d","system_id":"levelo_inurba_marseille","lat":43.32123,"lon":5.36737,"is_reserved":false,"is_disabled":false,"rental_uris":{"android":"levelo://app?vid=c18155db-65c7-4d5a-8c5b-923eb75c675d","ios":"levelo://app?vid=c18155db-65c7-4d5a-8c5b-923eb75c675d"},"vehicle_type_id":"4","last_reported":1743001858,"current_range_meters":15200,"station_id":"ce4bhrh2rcd13ifvqhug","pricing_plan_id":"cebpf4jnsgd1na2vs0mg"},{"bike_id":"5ca9ac81-53c9-444a-ab66-71f3af25a779","system_id":"levelo_inurba_marseille","lat":43.28014,"lon":5.39997,"is_reserved":false,"is_disabled":false,"rental_uris":{"android":"levelo://app?vid=5ca9ac81-53c9-444a-ab66-71f3af25a779","ios":"levelo://app?vid=5ca9ac81-53c9-444a-ab66-71f3af25a779"},"vehicle_type_id":"4","last_reported":1743001858,"current_range_meters":15200,"station_id":"ce4bho92rcd13ifvqh4g","pricing_plan_id":"cebpf4jnsgd1na2vs0mg"},{"bike_id":"fc8e8371-f4e9-4721-bc19-563801e389dc","system_id":"levelo_inurba_marseille","lat":43.337444,"lon":5.374475,"is_reserved":false,"is_disabled":false,"rental_uris":{"android":"levelo://app?vid=fc8e8371-f4e9-4721-bc19-563801e389dc","ios":"levelo://app?vid=fc8e8371-f4e9-4721-bc19-563801e389dc"},"vehicle_type_id":"4","last_reported":1743001858,"current_range_meters":15200,"station_id":"","pricing_plan_id":"cebpf4jnsgd1na2vs0mg"},{"bike_id":"3c7b734e-08f2-4621-905a-33b4308c7b3a","system_id":"levelo_inurba_marseille","lat":43.30605,"lon":5.37223,"is_reserved":false,"is_disabled":false,"rental_uris":{"android":"levelo://app?vid=3c7b734e-08f2-4621-905a-33b4308c7b3a","ios":"levelo://app?vid=3c7b734e-08f2-4621-905a-33b4308c7b3a"},"vehicle_type_id":"4","last_reported":1743001858,"current_range_meters":16000,"station_id":"ce4bgqh2rcd13ifvqc4g","pricing_plan_id":"cebpf4jnsgd1na2vs0mg"},{"bike_id":"5392e877-3d7c-4910-aa76-cdb892c1f17d","system_id":"levelo_inurba_marseille","lat":43.30545,"lon":5.36558,"is_reserved":false,"is_disabled":false,"rental_uris":{"android":"levelo://app?vid=5392e877-3d7c-4910-aa76-cdb892c1f17d","ios":"levelo://app?vid=5392e877-3d7c-4910-aa76-cdb892c1f17d"},"vehicle_type_id":"4","last_reported":1743001858,"current_range_meters":16000,"station_id":"ce4bgs12rcd13ifvqcag","pricing_plan_id":"cebpf4jnsgd1na2vs0mg"},{"bike_id":"ced5ed98-6f1c-4769-a626-3556f140e04a","system_id":"levelo_inurba_marseille","lat":43.29205,"lon":5.35809,"is_reserved":false,"is_disabled":false,"rental_uris":{"android":"levelo://app?vid=ced5ed98-6f1c-4769-a626-3556f140e04a","ios":"levelo://app?vid=ced5ed98-6f1c-4769-a626-3556f140e04a"},"vehicle_type_id":"4","last_reported":1743001858,"current_range_meters":16000,"station_id":"ce4bhb12rcd13ifvqel0","pricing_plan_id":"cebpf4jnsgd1na2vs0mg"},{"bike_id":"db871e2c-1b25-4a88-83ba-c2191aebfc28","system_id":"levelo_inurba_marseille","lat":43.24665,"lon":5.3816,"is_reserved":false,"is_disabled":false,"rental_uris":{"android":"levelo://app?vid=db871e2c-1b25-4a88-83ba-c2191aebfc28","ios":"levelo://app?vid=db871e2c-1b25-4a88-83ba-c2191aebfc28"},