{"last_updated":1773501414,"ttl":60,"version":"2.2","data":{"bikes":[{"bike_id":"4853eebb-ab61-45f6-ad42-3d4e196de01e","system_id":"levelo_inurba_marseille","lat":43.30738,"lon":5.42436,"is_reserved":false,"is_disabled":false,"rental_uris":{"android":"levelo://app?vid=4853eebb-ab61-45f6-ad42-3d4e196de01e","ios":"levelo://app?vid=4853eebb-ab61-45f6-ad42-3d4e196de01e"},"vehicle_type_id":"4","last_reported":1773501415,"current_range_meters":39200,"station_id":"st_cvj6ca6bvosntc0bfgr0","pricing_plan_id":"cebpf4jnsgd1na2vs0mg"},{"bike_id":"94855c32-71af-45bf-9147-35a0aed1b4e4","system_id":"levelo_inurba_marseille","lat":43.29789,"lon":5.38064,"is_reserved":false,"is_disabled":false,"rental_uris":{"android":"levelo://app?vid=94855c32-71af-45bf-9147-35a0aed1b4e4","ios":"levelo://app?vid=94855c32-71af-45bf-9147-35a0aed1b4e4"},"vehicle_type_id":"4","last_reported":1773501415,"current_range_meters":34800,"station_id":"ce4bgip2rcd13ifvqbb0","pricing_plan_id":"cebpf4jnsgd1na2vs0mg"},{"bike_id":"84258842-b27c-44d2-a3e3-a8ab065af084","system_id":"levelo_inurba_marseille","lat":43.26061,"lon":5.39399,"is_reserved":false,"is_disabled":false,"rental_uris":{"android":"levelo://app?vid=84258842-b27c-44d2-a3e3-a8ab065af084","ios":"levelo://app?vid=84258842-b27c-44d2-a3e3-a8ab065af084"},"vehicle_type_id":"4","last_reported":1773501415,"current_range_meters":33600,"station_id":"ce4bhh92rcd13ifvqfj0","pricing_plan_id":"cebpf4jnsgd1na2vs0mg"},{"bike_id":"4ee1719e-9828-41ad-ab0e-ac501a6f8dcb","system_id":"levelo_inurba_marseille","lat":43.26065,"lon":5.39403,"is_reserved":false,"is_disabled":false,"rental_uris":{"android":"levelo://app?vid=4ee1719e-9828-41ad-ab0e-ac501a6f8dcb","ios":"levelo://app?vid=4ee1719e-9828-41ad-ab0e-ac501a6f8dcb"},"vehicle_type_id":"4","last_reported":1773501415,"current_range_meters":9600,"station_id":"ce4bhh92rcd13ifvqfj0","pricing_plan_id":"cebpf4jnsgd1na2vs0mg"},{"bike_id":"e4c6d513-0f75-4d36-ab87-e09b44465632","system_id":"levelo_inurba_marseille","lat":43.27376,"lon":5.36246,"is_reserved":false,"is_disabled":true,"rental_uris":{"android":"levelo://app?vid=e4c6d513-0f75-4d36-ab87-e09b44465632","ios":"levelo://app?vid=e4c6d513-0f75-4d36-ab87-e09b44465632"},"vehicle_type_id":"4","last_reported":1773501415,"current_range_meters":37600,"station_id":"ce4bhbh2rcd13ifvqeo0","pricing_plan_id":"cebpf4jnsgd1na2vs0mg"},{"bike_id":"05d6ffaa-eaa6-4548-999f-268edc9df414","system_id":"levelo_inurba_marseille","lat":43.29602,"lon":5.38084,"is_reserved":false,"is_disabled":false,"rental_uris":{"android":"levelo://app?vid=05d6ffaa-eaa6-4548-999f-268edc9df414","ios":"levelo://app?vid=05d6ffaa-eaa6-4548-999f-268edc9df414"},"vehicle_type_id":"4","last_reported":1773501415,"current_range_meters":37600,"station_id":"ce4bgl12rcd13ifvqbo0","pricing_plan_id":"cebpf4jnsgd1na2vs0mg"},{"bike_id":"89d4cd13-7e30-4fc4-b6b1-48fcbe88b8e7","system_id":"levelo_inurba_marseille","lat":43.30557,"lon":5.36539,"is_reserved":false,"is_disabled":false,"rental_uris":{"android":"levelo://app?vid=89d4cd13-7e30-4fc4-b6b1-48fcbe88b8e7","ios":"levelo://app?vid=89d4cd13-7e30-4fc4-b6b1-48fcbe88b8e7"},"vehicle_type_id":"4","last_reported":1773501415,"current_range_meters":17600,"station_id":"ce4bgs12rcd13ifvqcag","pricing_plan_id":"cebpf4jnsgd1na2vs0mg"},{"bike_id":"dfd0a0f6-5285-4bd7-80a4-14fead877d67","system_id":"levelo_inurba_marseille","lat":43.25081,"lon":5.39526,"is_reserved":false,"is_disabled":false,"rental_uris":{"android":"levelo://app?vid=dfd0a0f6-5285-4bd7-80a4-14fead877d67","ios":"levelo://app?vid=dfd0a0f6-5285-4bd7-80a4-14fead877d67"},"vehicle_type_id":"4","last_reported":1773501415,"current_range_meters":32400,"station_id":"ce4bhm12rcd13ifvqgkg","pricing_plan_id":"cebpf4jnsgd1na2vs0mg"},{"bike_id":"956f7584-ac59-441b-ad41-c775215e35ed","system_id":"levelo_inurba_marseille","lat":43.30511,"lon":5.3669,"is_reserved":false,"is_disabled":false,"rental_uris":{"android":"levelo://app?vid=956f7584-ac59-441b-ad41-c775215e35ed","ios":"levelo://app?vid=956f7584-ac59-441b-ad41-c775215e35ed"},"vehicle_type_id":"4","last_reported":1773501415,"current_range_meters":14400,"station_id":"ce4bgrp2rcd13ifvqc9g","pricing_plan_id":"cebpf4jnsgd1na2vs0mg"},{"bike_id":"18f35d94-7133-4b4b-a629-0bec9d48af36","system_id":"levelo_inurba_marseille","lat":43.28486,"lon":5.48391,"is_reserved":false,"is_disabled":false,"rental_uris":{"android":"levelo://app?vid=18f35d94-7133-4b4b-a629-0bec9d48af36","ios":"levelo://app?vid=18f35d94-7133-4b4b-a629-0bec9d48af36"},"vehicle_type_id":"4","last_reported":1773501415,"current_range_meters":25200,"station_id":"","pricing_plan_id":"cebpf4jnsgd1na2vs0mg"},{"bike_id":"058a40ef-aca0-46a1-b31e-3c5dc3514929","system_id":"levelo_inurba_marseille","lat":43.28426,"lon":5.34971,"is_reserved":false,"is_disabled":false,"rental_uris":{"android":"levelo://app?vid=058a40ef-aca0-46a1-b31e-3c5dc3514929","ios":"levelo://app?vid=058a40ef-aca0-46a1-b31e-3c5dc3514929"},"vehicle_type_id":"4","last_reported":1773501415,"current_range_meters":35200,"station_id":"ce4bhbh2rcd13ifvqepg","pricing_plan_id":"cebpf4jnsgd1na2vs0mg"},{"bike_id":"41cb7e86-279c-46aa-999e-3f3d964547db","system_id":"levelo_inurba_marseille","lat":43.31337,"lon":5.39695,"is_reserved":false,"is_disabled":false,"rental_uris":{"android":"levelo://app?vid=41cb7e86-279c-46aa-999e-3f3d964547db","ios":"levelo://app?vid=41cb7e86-279c-46aa-999e-3f3d964547db"},"vehicle_type_id":"4","last_reported":1773501415,"current_range_meters":39200,"station_id":"ce4bgvp2rcd13ifvqcu0","pricing_plan_id":"cebpf4jnsgd1na2vs0mg"},{"bike_id":"7db92065-fd6e-4014-982f-daf9b3e1e88d","system_id":"levelo_inurba_marseille","lat":43.25833,"lon":5.39445,"is_reserved":false,"is_disabled":false,"rental_uris":{"android":"levelo://app?vid=7db92065-fd6e-4014-982f-daf9b3e1e88d","ios":"levelo://app?vid=7db92065-fd6e-4014-982f-daf9b3e1e88d"},"vehicle_type_id":"4","last_reported":1773501415,"current_range_meters":14400,"station_id":"ce4bhip2rcd13ifvqft0","pricing_plan_id":"cebpf4jnsgd1na2vs0mg"},{"bike_id":"51b2397d-a326-4ab5-aec4-76d244d8df54","system_id":"levelo_inurba_marseille","lat":43.29705,"lon":5.37697,"is_reserved":false,"is_disabled":false,"rental_uris":{"android":"levelo://app?vid=51b2397d-a326-4ab5-aec4-76d244d8df54","ios":"levelo://app?vid=51b2397d-a326-4ab5-aec4-76d244d8df54"},"vehicle_type_id":"4","last_reported":1773501415,"current_range_meters":24400,"station_id":"ce4bgkh2rcd13ifvqbl0","pricing_plan_id":"cebpf4jnsgd1na2vs0mg"},{"bike_id":"2160cf90-c2ed-4bac-8d60-36bbdf94fd16","system_id":"levelo_inurba_marseille","lat":43.31467,"lon":5.37341,"is_reserved":false,"is_disabled":false,"rental_uris":{"android":"levelo://app?vid=2160cf90-c2ed-4bac-8d60-36bbdf94fd16","ios":"levelo://app?vid=2160cf90-c2ed-4bac-8d60-36bbdf94fd16"},"vehicle_type_id":"4","last_reported":1773501415,"current_range_meters":36000,"station_id":"ce4bgt12rcd13ifvqcd0","pricing_plan_id":"cebpf4jnsgd1na2vs0mg"},{"bike_id":"dc4d8345-3917-4fdd-b9db-2f1d7997a861","system_id":"levelo_inurba_marseille","lat":43.29605,"lon":5.38105,"is_reserved":false,"is_disabled":false,"rental_uris":{"android":"levelo://app?vid=dc4d8345-3917-4fdd-b9db-2f1d7997a861","ios":"levelo://app?vid=dc4d8345-3917-4fdd-b9db-2f1d7997a861"},"vehicle_type_id":"4","last_reported":1773501415,"current_range_meters":35600,"station_id":"ce4bgl12rcd13ifvqbo0","pricing_plan_id":"cebpf4jnsgd1na2vs0mg"},{"bike_id":"c948e8f0-68b4-4761-a05d-44631217c9a6","system_id":"levelo_inurba_marseille","lat":43.2655,"lon":5.37307,"is_reserved":false,"is_disabled":false,"rental_uris":{"android":"levelo://app?vid=c948e8f0-68b4-4761-a05d-44631217c9a6","ios":"levelo://app?vid=c948e8f0-68b4-4761-a05d-44631217c9a6"},"vehicle_type_id":"4","last_reported":1773501415,"current_range_meters":39200,"station_id":"ce4bhg12rcd13ifvqf70","pricing_plan_id":"cebpf4jnsgd1na2vs0mg"},{"bike_id":"85cd8cb8-1572-4483-8d2e-ca06fd40ed7c","system_id":"levelo_inurba_marseille","lat":43.3228,"lon":5.38261,"is_reserved":false,"is_disabled":false,"rental_uris":{"android":"levelo://app?vid=85cd8cb8-1572-4483-8d2e-ca06fd40ed7c","ios":"levelo://app?vid=85cd8cb8-1572-4483-8d2e-ca06fd40ed7c"},"vehicle_type_id":"4","last_reported":1773501415,"current_range_meters":39200,"station_id":"ce4bhr12rcd13ifvqhqg","pricing_plan_id":"cebpf4jnsgd1na2vs0mg"},{"bike_id":"64cd7236-5f55-4d16-bd1b-f126550c61ca","system_id":"levelo_inurba_marseille","lat":43.26029,"lon":5.37547,"is_reserved":false,"is_disabled":false,"rental_uris":{"android":"levelo://app?vid=64cd7236-5f55-4d16-bd1b-f126550c61ca","ios":"levelo://app?vid=64cd7236-5f55-4d16-bd1b-f126550c61ca"},"vehicle_type_id":"4","last_reported":1773501415,"current_range_meters":22400,"station_id":"ce4bhgh2rcd13ifvqfa0","pricing_plan_id":"cebpf4jnsgd1na2vs0mg"},{"bike_id":"6f61d387-d66c-4612-94f7-67c0f0b415c5","system_id":"levelo_inurba_marseille","lat":43.30151,"lon":5.37429,"is_reserved":false,"is_disabled":false,"rental_uris":{"android":"levelo://app?vid=6f61d387-d66c-4612-94f7-67c0f0b415c5","ios":"levelo://app?vid=6f61d387-d66c-4612-94f7-67c0f0b415c5"},"vehicle_type_id":"4","last_reported":1773501415,"current_range_meters":28400,"station_id":"ce4bgs92rcd13ifvqcc0","pricing_plan_id":"cebpf4jnsgd1na2vs0mg"},{"bike_id":"67b7bf41-9b9b-43de-b00d-287608da0a5b","system_id":"levelo_inurba_marseille","lat":43.2979,"lon":5.38085,"is_reserved":false,"is_disabled":false,"rental_uris":{"android":"levelo://app?vid=67b7bf41-9b9b-43de-b00d-287608da0a5b","ios":"levelo://app?vid=67b7bf41-9b9b-43de-b00d-287608da0a5b"},"vehicle_type_id":"4","last_reported":1773501415,"current_range_meters":11600,"station_id":"ce4bgip2rcd13ifvqbb0","pricing_plan_id":"cebpf4jnsgd1na2vs0mg"},{"bike_id":"4b9599ef-93db-4af7-bbb2-15fbc38173ee","system_id":"levelo_inurba_marseille","lat":43.26192,"lon":5.3745,"is_reserved":false,"is_disabled":false,"rental_uris":{"android":"levelo://app?vid=4b9599ef-93db-4af7-bbb2-15fbc38173ee","ios":"levelo://app?vid=4b9599ef-93db-4af7-bbb2-15fbc38173ee"},"vehicle_type_id":"4","last_reported":1773501415,"current_range_meters":6000,"station_id":"ce4bhgp2rcd13ifvqfc0","pricing_plan_id":"cebpf4jnsgd1na2vs0mg"},{"bike_id":"9deacf8a-4518-4e3c-a557-b8bb07f2bf49","system_id":"levelo_inurba_marseille","lat":43.29,"lon":5.35603,"is_reserved":false,"is_disabled":false,"rental_uris":{"android":"levelo://app?vid=9deacf8a-4518-4e3c-a557-b8bb07f2bf49","ios":"levelo://app?vid=9deacf8a-4518-4e3c-a557-b8bb07f2bf49"},"vehicle_type_id":"4","last_reported":1773501415,"current_range_meters":24000,"station_id":"ce4bhb92rcd13ifvqen0","pricing_plan_id":"cebpf4jnsgd1na2vs0mg"},{"bike_id":"241cec90-a229-49cc-b05f-72d0a49bd6a1","system_id":"levelo_inurba_marseille","lat":43.29282,"lon":5.36847,"is_reserved":false,"is_disabled":false,"rental_uris":{"android":"levelo://app?vid=241cec90-a229-49cc-b05f-72d0a49bd6a1","ios":"levelo://app?vid=241cec90-a229-49cc-b05f-72d0a49bd6a1"},"vehicle_type_id":"4","last_reported":1773501415,"current_range_meters":24400,"station_id":"ce4bhbp2rcd13ifvqesg","pricing_plan_id":"cebpf4jnsgd1na2vs0mg"},{"bike_id":"480a954f-db3c-4cd5-acb5-179ba9006c67","system_id":"levelo_inurba_marseille","lat":43.28537,"lon":5.44099,"is_reserved":false,"is_disabled":false,"rental_uris":{"android":"levelo://app?vid=480a954f-db3c-4cd5-acb5-179ba9006c67","ios":"levelo://app?vid=480a954f-db3c-4cd5-acb5-179ba9006c67"},"vehicle_type_id":"4","last_reported":1773501415,"current_range_meters":28800,"station_id":"st_d3j3df2ikq2c7380ej80","pricing_plan_id":"cebpf4jnsgd1na2vs0mg"},{"bike_id":"a4c76e6c-6637-43e8-bff7-19173b2633d7","system_id":"levelo_inurba_marseille","lat":43.32052,"lon":5.41539,"is_reserved":false,"is_disabled":false,"rental_uris":{"android":"levelo://app?vid=a4c76e6c-6637-43e8-bff7-19173b2633d7","ios":"levelo://app?vid=a4c76e6c-6637-43e8-bff7-19173b2633d7"},"vehicle_type_id":"4","last_reported":1773501415,"current_range_meters":16800,"station_id":"ce4bhq92rcd13ifvqhkg","pricing_plan_id":"cebpf4jnsgd1na2vs0mg"},{"bike_id":"2b80b318-acfa-4f67-8c76-6f08845cfc66","system_id":"levelo_inurba_marseille","lat":43.292786,"lon":5.401178,"is_reserved":false,"is_disabled":false,"rental_uris":{"android":"levelo://app?vid=2b80b318-acfa-4f67-8c76-6f08845cfc66","ios":"levelo://app?vid=2b80b318-acfa-4f67-8c76-6f08845cfc66"},"vehicle_type_id":"4","last_reported":1773501415,"current_range_meters":28400,"station_id":"ce4bh312rcd13ifvqdk0","pricing_plan_id":"cebpf4jnsgd1na2vs0mg"},{"bike_id":"5445152f-5e9e-4b14-adb4-08bc7867a4cb","system_id":"levelo_inurba_marseille","lat":43.29781,"lon":5.37097,"is_reserved":false,"is_disabled":false,"rental_uris":{"android":"levelo://app?vid=5445152f-5e9e-4b14-adb4-08bc7867a4cb","ios":"levelo://app?vid=5445152f-5e9e-4b14-adb4-08bc7867a4cb"},"vehicle_type_id":"4","last_reported":1773501415,"current_range_meters":25600,"station_id":"ce4bgop2rcd13ifvqc1g","pricing_plan_id":"cebpf4jnsgd1na2vs0mg"},{"bike_id":"0cc2ecee-72da-418b-8bb3-40f2a9c7fc8c","system_id":"levelo_inurba_marseille","lat":43.29956,"lon":5.41327,"is_reserved":false,"is_disabled":false,"rental_uris":{"android":"levelo://app?vid=0cc2ecee-72da-418b-8bb3-40f2a9c7fc8c","ios":"levelo://app?vid=0cc2ecee-72da-418b-8bb3-40f2a9c7fc8c"},"vehicle_type_id":"4","last_reported":1773501415,"current_range_meters":38400,"station_id":"ce4bhp12rcd13ifvqh9g","pricing_plan_id":"cebpf4jnsgd1na2vs0mg"},{"bike_id":"591726e2-1ee0-414a-babf-c40a853c2ca5","system_id":"levelo_inurba_marseille","lat":43.28003,"lon":5.39997,"is_reserved":false,"is_disabled":false,"rental_uris":{"android":"levelo://app?vid=591726e2-1ee0-414a-babf-c40a853c2ca5","ios":"levelo://app?vid=591726e2-1ee0-414a-babf-c40a853c2ca5"},"vehicle_type_id":"4","last_reported":1773501415,"current_range_meters":38800,"station_id":"ce4bho92rcd13ifvqh4g","pricing_plan_id":"cebpf4jnsgd1na2vs0mg"},{"bike_id":"2e0ab0e2-6462-44e2-92a3-4e91424f4e72","system_id":"levelo_inurba_marseille","lat":43.30173,"lon":5.36612,"is_reserved":false,"is_disabled":false,"rental_uris":{"android":"levelo://app?vid=2e0ab0e2-6462-44e2-92a3-4e91424f4e72","ios":"levelo://app?vid=2e0ab0e2-6462-44e2-92a3-4e91424f4e72"},"vehicle_type_id":"4","last_reported":1773501415,"current_range_meters":39200,"station_id":"ce4bgrh2rcd13ifvqc8g","pricing_plan_id":"cebpf4jnsgd1na2vs0mg"},{"bike_id":"bde57046-f85b-45f0-884f-f669804926f7","system_id":"levelo_inurba_marseille","lat":43.29293,"lon":5.37167,"is_reserved":false,"is_disabled":false,"rental_uris":{"android":"levelo://app?vid=bde57046-f85b-45f0-884f-f669804926f7","ios":"levelo://app?vid=bde57046-f85b-45f0-884f-f669804926f7"},"vehicle_type_id":"4","last_reported":1773501415,"current_range_meters":32000,"station_id":"ce4bgh92rcd13ifvqb40","pricing_plan_id":"cebpf4jnsgd1na2vs0mg"},{"bike_id":"b308e7af-e586-420b-b9a4-425c9b9ae1c7","system_id":"levelo_inurba_marseille","lat":43.30489,"lon":5.36705,"is_reserved":false,"is_disabled":false,"rental_uris":{"android":"levelo://app?vid=b308e7af-e586-420b-b9a4-425c9b9ae1c7","ios":"levelo://app?vid=b308e7af-e586-420b-b9a4-425c9b9ae1c7"},"vehicle_type_id":"4","last_reported":1773501415,"current_range_meters":38800,"station_id":"ce4bgrp2rcd13ifvqc9g","pricing_plan_id":"cebpf4jnsgd1na2vs0mg"},{"bike_id":"8dc380b6-8aab-4846-8957-2d5e3531459e","system_id":"levelo_inurba_marseille","lat":43.29625,"lon":5.37693,"is_reserved":false,"is_disabled":false,"rental_uris":{"android":"levelo://app?vid=8dc380b6-8aab-4846-8957-2d5e3531459e","ios":"levelo://app?vid=8dc380b6-8aab-4846-8957-2d5e3531459e"},"vehicle_type_id":"4","last_reported":1773501415,"current_range_meters":30800,"station_id":"ce4bgi92rcd13ifvqb90","pricing_plan_id":"cebpf4jnsgd1na2vs0mg"},{"bike_id":"106b5c17-3a4d-41d5-888b-1edf1f351e6e","system_id":"levelo_inurba_marseille","lat":43.25826,"lon":5.39424,"is_reserved":false,"is_disabled":false,"rental_uris":{"android":"levelo://app?vid=106b5c17-3a4d-41d5-888b-1edf1f351e6e","ios":"levelo://app?vid=106b5c17-3a4d-41d5-888b-1edf1f351e6e"},"vehicle_type_id":"4","last_reported":1773501415,"current_range_meters":39200,"station_id":"ce4bhip2rcd13ifvqft0","pricing_plan_id":"cebpf4jnsgd1na2vs0mg"},{"bike_id":"ced05e86-2551-48cf-8692-7f3559e5deac","system_id":"levelo_inurba_marseille","lat":43.29502,"lon":5.43296,"is_reserved":false,"is_disabled":false,"rental_uris":{"android":"levelo://app?vid=ced05e86-2551-48cf-8692-7f3559e5deac","ios":"levelo://app?vid=ced05e86-2551-48cf-8692-7f3559e5deac"},"vehicle_type_id":"4","last_reported":1773501415,"current_range_meters":8800,"station_id":"st_d3j5ugp08ojc73fj9d10","pricing_plan_id":"cebpf4jnsgd1na2vs0mg"},{"bike_id":"9000aacf-7d45-4f1f-a2a3-e83d7e88d199","system_id":"levelo_inurba_marseille","lat":43.26947,"lon":5.38615,"is_reserved":false,"is_disabled":false,"rental_uris":{"android":"levelo://app?vid=9000aacf-7d45-4f1f-a2a3-e83d7e88d199","ios":"levelo://app?vid=9000aacf-7d45-4f1f-a2a3-e83d7e88d199"},"vehicle_type_id":"4","last_reported":1773501415,"current_range_meters":39200,"station_id":"ce4bhh92rcd13ifvqfh0","pricing_plan_id":"cebpf4jnsgd1na2vs0mg"},{"bike_id":"d506a005-0adb-46f0-9e3d-b5e7464b70f0","system_id":"levelo_inurba_marseille","lat":43.29803,"lon":5.38099,"is_reserved":false,"is_disabled":false,"rental_uris":{"android":"levelo://app?vid=d506a005-0adb-46f0-9e3d-b5e7464b70f0","ios":"levelo://app?vid=d506a005-0adb-46f0-9e3d-b5e7464b70f0"},"vehicle_type_id":"4","last_reported":1773501415,"current_range_meters":29600,"station_id":"ce4bgip2rcd13ifvqbb0","pricing_plan_id":"cebpf4jnsgd1na2vs0mg"},{"bike_id":"e5725ce8-50a2-40ca-b011-9888ac1cf133","system_id":"levelo_inurba_marseille","lat":43.27373,"lon":5.36248,"is_reserved":false,"is_disabled":false,"rental_uris":{"android":"levelo://app?vid=e5725ce8-50a2-40ca-b011-9888ac1cf133","ios":"levelo://app?vid=e5725ce8-50a2-40ca-b011-9888ac1cf133"},"vehicle_type_id":"4","last_reported":1773501415,"current_range_meters":38000,"station_id":"ce4bhbh2rcd13ifvqeo0","pricing_plan_id":"cebpf4jnsgd1na2vs0mg"},{"bike_id":"41ae287c-9cc1-430a-84ca-70506bc523b6","system_id":"levelo_inurba_marseille","lat":43.22568,"lon":5.41624,"is_reserved":false,"is_disabled":false,"rental_uris":{"android":"levelo://app?vid=41ae287c-9cc1-430a-84ca-70506bc523b6","ios":"levelo://app?vid=41ae287c-9cc1-430a-84ca-70506bc523b6"},"vehicle_type_id":"4","last_reported":1773501415,"current_range_meters":38000,"station_id":"st_d2o4gvlbi1j2169b742g","pricing_plan_id":"cebpf4jnsgd1na2vs0mg"},{"bike_id":"fe8dfa27-62f0-46d6-ba43-c3127399aaa0","system_id":"levelo_inurba_marseille","lat":43.29639,"lon":5.42147,"is_reserved":false,"is_disabled":false,"rental_uris":{"android":"levelo://app?vid=fe8dfa27-62f0-46d6-ba43-c3127399aaa0","ios":"levelo://app?vid=fe8dfa27-62f0-46d6-ba43-c3127399aaa0"},"vehicle_type_id":"4","last_reported":1773501415,"current_range_meters":25600,"station_id":"","pricing_plan_id":"cebpf4jnsgd1na2vs0mg"},{"bike_id":"5c0630ed-bd2b-4642-b36b-ddb6b84186db","system_id":"levelo_inurba_marseille","lat":43.30742,"lon":5.42436,"is_reserved":false,"is_disabled":false,"rental_uris":{"android":"levelo://app?vid=5c0630ed-bd2b-4642-b36b-ddb6b84186db","ios":"levelo://app?vid=5c0630ed-bd2b-4642-b36b-ddb6b84186db"},"vehicle_type_id":"4","last_reported":1773501415,"current_range_meters":25200,"station_id":"st_cvj6ca6bvosntc0bfgr0","pricing_plan_id":"cebpf4jnsgd1na2vs0mg"},{"bike_id":"139228ac-6fb0-412e-bb04-6aeede04229f","system_id":"levelo_inurba_marseille","lat":43.2893,"lon":5.36626,"is_reserved":false,"is_disabled":false,"rental_uris":{"android":"levelo://app?vid=139228ac-6fb0-412e-bb04-6aeede04229f","ios":"levelo://app?vid=139228ac-6fb0-412e-bb04-6aeede04229f"},"vehicle_type_id":"4","last_reported":1773501415,"current_range_meters":39200,"station_id":"ce4bhap2rcd13ifvqek0","pricing_plan_id":"cebpf4jnsgd1na2vs0mg"},{"bike_id":"38e5107a-fdc2-431b-892a-488d0107acb0","system_id":"levelo_inurba_marseille","lat":43.30622,"lon":5.37216,"is_reserved":false,"is_disabled":false,"rental_uris":{"android":"levelo://app?vid=38e5107a-fdc2-431b-892a-488d0107acb0","ios":"levelo://app?vid=38e5107a-fdc2-431b-892a-488d0107acb0"},"vehicle_type_id":"4","last_reported":1773501415,"current_range_meters":32400,"station_id":"ce4bgqh2rcd13ifvqc4g","pricing_plan_id":"cebpf4jnsgd1na2vs0mg"},{"bike_id":"5610e2c2-b6fd-4a5f-b620-e591960372de","system_id":"levelo_inurba_marseille","lat":43.30907,"lon":5.36846,"is_reserved":false,"is_disabled":false,"rental_uris":{"android":"levelo://app?vid=5610e2c2-b6fd-4a5f-b620-e591960372de","ios":"levelo://app?vid=5610e2c2-b6fd-4a5f-b620-e591960372de"},"vehicle_type_id":"4","last_reported":1773501415,"current_range_meters":32000,"station_id":"ce4bgn92rcd13ifvqbvg","pricing_plan_id":"cebpf4jnsgd1na2vs0mg"},{"bike_id":"bba2d762-24c5-424c-8885-ccb819513608","system_id":"levelo_inurba_marseille","lat":43.27648,"lon":5.38883,"is_reserved":false,"is_disabled":true,"rental_uris":{"android":"levelo://app?vid=bba2d762-24c5-424c-8885-ccb819513608","ios":"levelo://app?vid=bba2d762-24c5-424c-8885-ccb819513608"},"vehicle_type_id":"4","last_reported":1773501415,"current_range_meters":16000,"station_id":"ce4bhi12rcd13ifvqfo0","pricing_plan_id":"cebpf4jnsgd1na2vs0mg"},{"bike_id":"bbd01454-2423-4218-8a6f-60bf3a414075","system_id":"levelo_inurba_marseille","lat":43.28698,"lon":5.37386,"is_reserved":false,"is_disabled":true,"rental_uris":{"android":"levelo://app?vid=bbd01454-2423-4218-8a6f-60bf3a414075","ios":"levelo://app?vid=bbd01454-2423-4218-8a6f-60bf3a414075"},"vehicle_type_id":"4","last_reported":1773501415,"current_range_meters":3600,"station_id":"ce4bh3p2rcd13ifvqdq0","pricing_plan_id":"cebpf4jnsgd1na2vs0mg"},{"bike_id":"b4014dc0-a5be-4f3d-9232-fc50ba6d9aa4","system_id":"levelo_inurba_marseille","lat":43.30445,"lon":5.39757,"is_reserved":false,"is_disabled":false,"rental_uris":{"android":"levelo://app?vid=b4014dc0-a5be-4f3d-9232-fc50ba6d9aa4","ios":"levelo://app?vid=b4014dc0-a5be-4f3d-9232-fc50ba6d9aa4"},"vehicle_type_id":"4","last_reported":1773501415,"current_range_meters":28400,"station_id":"ce4bh092rcd13ifvqd20","pricing_plan_id":"cebpf4jnsgd1na2vs0mg"},{"bike_id":"1fa66c7c-5bbe-4c72-8397-ac5bb2c15dc7","system_id":"levelo_inurba_marseille","lat":43.32371,"lon":5.38866,"is_reserved":false,"is_disabled":false,"rental_uris":{"android":"levelo://app?vid=1fa66c7c-5bbe-4c72-8397-ac5bb2c15dc7","ios":"levelo://app?vid=1fa66c7c-5bbe-4c72-8397-ac5bb2c15dc7"},"vehicle_type_id":"4","last_reported":1773501415,"current_range_meters":38400,"station_id":"ce4bhqp2rcd13ifvqhog","pricing_plan_id":"cebpf4jnsgd1na2vs0mg"},{"bike_id":"210de9b4-3033-4c95-a839-e4b62a601c40","system_id":"levelo_inurba_marseille","lat":43.27782,"lon":5.40789,"is_reserved":false,"is_disabled":false,"rental_uris":{"android":"levelo://app?vid=210de9b4-3033-4c95-a839-e4b62a601c40","ios":"levelo://app?vid=210de9b4-3033-4c95-a839-e4b62a601c40"},"vehicle_type_id":"4","last_reported":1773501415,"current_range_meters":6800,"station_id":"","pricing_plan_id":"cebpf4jnsgd1na2vs0mg"},{"bike_id":"aed4118b-a0e3-4071-9098-af6c6a632706","system_id":"levelo_inurba_marseille","lat":43.30129,"lon":5.43109,"is_reserved":false,"is_disabled":false,"rental_uris":{"android":"levelo://app?vid=aed4118b-a0e3-4071-9098-af6c6a632706","ios":"levelo://app?vid=aed4118b-a0e3-4071-9098-af6c6a632706"},"vehicle_type_id":"4","last_reported":1773501415,"current_range_meters":10800,"station_id":"st_d3js3co5814s73ftftug","pricing_plan_id":"cebpf4jnsgd1na2vs0mg"},{"bike_id":"ee97d76b-d430-4b45-b3b0-dd8a973c7e77","system_id":"levelo_inurba_marseille","lat":43.23967,"lon":5.36614,"is_reserved":false,"is_disabled":false,"rental_uris":{"android":"levelo://app?vid=ee97d76b-d430-4b45-b3b0-dd8a973c7e77","ios":"levelo://app?vid=ee97d76b-d430-4b45-b3b0-dd8a973c7e77"},"vehicle_type_id":"4","last_reported":1773501415,"current_range_meters":23200,"station_id":"ce4bhi12rcd13ifvqfp0","pricing_plan_id":"cebpf4jnsgd1na2vs0mg"},{"bike_id":"92bc8068-37f4-4e54-99b9-1e9bd2b9446d","system_id":"levelo_inurba_marseille","lat":43.27047,"lon":5.40264,"is_reserved":false,"is_disabled":false,"rental_uris":{"android":"levelo://app?vid=92bc8068-37f4-4e54-99b9-1e9bd2b9446d","ios":"levelo://app?vid=92bc8068-37f4-4e54-99b9-1e9bd2b9446d"},"vehicle_type_id":"4","last_reported":1773501415,"current_range_meters":32000,"station_id":"ce4bhk92rcd13ifvqgc0","pricing_plan_id":"cebpf4jnsgd1na2vs0mg"},{"bike_id":"de2a67b3-9e8f-4713-8afd-79937f90fb1f","system_id":"levelo_inurba_marseille","lat":43.26955,"lon":5.38647,"is_reserved":false,"is_disabled":false,"rental_uris":{"android":"levelo://app?vid=de2a67b3-9e8f-4713-8afd-79937f90fb1f","ios":"levelo://app?vid=de2a67b3-9e8f-4713-8afd-79937f90fb1f"},"vehicle_type_id":"4","last_reported":1773501415,"current_range_meters":30800,"station_id":"ce4bhh92rcd13ifvqfh0","pricing_plan_id":"cebpf4jnsgd1na2vs0mg"},{"bike_id":"2fd025c2-5d1f-404e-b401-f593d342fd66","system_id":"levelo_inurba_marseille","lat":43.337444,"lon":5.374475,"is_reserved":false,"is_disabled":false,"rental_uris":{"android":"levelo://app?vid=2fd025c2-5d1f-404e-b401-f593d342fd66","ios":"levelo://app?vid=2fd025c2-5d1f-404e-b401-f593d342fd66"},"vehicle_type_id":"4","last_reported":1773501415,"current_range_meters":36800,"station_id":"","pricing_plan_id":"cebpf4jnsgd1na2vs0mg"},{"bike_id":"a32106be-375b-4a35-92db-7951151fd382","system_id":"levelo_inurba_marseille","lat":43.29631,"lon":5.37142,"is_reserved":false,"is_disabled":false,"rental_uris":{"android":"levelo://app?vid=a32106be-375b-4a35-92db-7951151fd382","ios":"levelo://app?vid=a32106be-375b-4a35-92db-7951151fd382"},"vehicle_type_id":"4","last_reported":1773501415,"current_range_meters":26800,"station_id":"ce4bgnh2rcd13ifvqc0g","pricing_plan_id":"cebpf4jnsgd1na2vs0mg"},{"bike_id":"52b0c375-5849-4127-9f6c-ae2c65cb0f00","system_id":"levelo_inurba_marseille","lat":43.30245,"lon":5.37755,"is_reserved":false,"is_disabled":false,"rental_uris":{"android":"levelo://app?vid=52b0c375-5849-4127-9f6c-ae2c65cb0f00","ios":"levelo://app?vid=52b0c375-5849-4127-9f6c-ae2c65cb0f00"},"vehicle_type_id":"4","last_reported":1773501415,"current_range_meters":37600,"station_id":"ce4bguh2rcd13ifvqcj0","pricing_plan_id":"cebpf4jnsgd1na2vs0mg"},{"bike_id":"10a02c07-6f77-46b3-b74c-a0d1963c7478","system_id":"levelo_inurba_marseille","lat":43.30171,"lon":5.3808,"is_reserved":false,"is_disabled":false,"rental_uris":{"android":"levelo://app?vid=10a02c07-6f77-46b3-b74c-a0d1963c7478","ios":"levelo://app?vid=10a02c07-6f77-46b3-b74c-a0d1963c7478"},"vehicle_type_id":"4","last_reported":1773501415,"current_range_meters":37600,"station_id":"ce4bgjp2rcd13ifvqbh0","pricing_plan_id":"cebpf4jnsgd1na2vs0mg"},{"bike_id":"114e304d-e20d-4f8a-9525-1a164e809dee","system_id":"levelo_inurba_marseille","lat":43.23961,"lon":5.36626,"is_reserved":false,"is_disabled":false,"rental_uris":{"android":"levelo://app?vid=114e304d-e20d-4f8a-9525-1a164e809dee","ios":"levelo://app?vid=114e304d-e20d-4f8a-9525-1a164e809dee"},"vehicle_type_id":"4","last_reported":1773501415,"current_range_meters":27200,"station_id":"ce4bhi12rcd13ifvqfp0","pricing_plan_id":"cebpf4jnsgd1na2vs0mg"},{"bike_id":"ed805e5c-c91a-41a9-a21f-ce0355ac464f","system_id":"levelo_inurba_marseille","lat":43.28433,"lon":5.35902,"is_reserved":false,"is_disabled":false,"rental_uris":{"android":"levelo://app?vid=ed805e5c-c91a-41a9-a21f-ce0355ac464f","ios":"levelo://app?vid=ed805e5c-c91a-41a9-a21f-ce0355ac464f"},"vehicle_type_id":"4","last_reported":1773501415,"current_range_meters":16800,"station_id":"ce4bhah2rcd13ifvqei0","pricing_plan_id":"cebpf4jnsgd1na2vs0mg"},{"bike_id":"a29ef319-c201-4a0d-88b8-75666b991d70","system_id":"levelo_inurba_marseille","lat":43.31209,"lon":5.3732,"is_reserved":false,"is_disabled":true,"rental_uris":{"android":"levelo://app?vid=a29ef319-c201-4a0d-88b8-75666b991d70","ios":"levelo://app?vid=a29ef319-c201-4a0d-88b8-75666b991d70"},"vehicle_type_id":"4","last_reported":1773501415,"current_range_meters":0,"station_id":"","pricing_plan_id":"cebpf4jnsgd1na2vs0mg"},{"bike_id":"84070638-e9dc-4734-8eb1-e9c5ccbf3761","system_id":"levelo_inurba_marseille","lat":43.23183,"lon":5.39986,"is_reserved":false,"is_disabled":false,"rental_uris":{"android":"levelo://app?vid=84070638-e9dc-4734-8eb1-e9c5ccbf3761","ios":"levelo://app?vid=84070638-e9dc-4734-8eb1-e9c5ccbf3761"},"vehicle_type_id":"4","last_reported":1773501415,"current_range_meters":37600,"station_id":"ce4bhn12rcd13ifvqgqg","pricing_plan_id":"cebpf4jnsgd1na2vs0mg"},{"bike_id":"bfecdb4a-3dfe-4b59-8c44-2c5ecdab9200","system_id":"levelo_inurba_marseille","lat":43.28939,"lon":5.36397,"is_reserved":false,"is_disabled":false,"rental_uris":{"android":"levelo://app?vid=bfecdb4a-3dfe-4b59-8c44-2c5ecdab9200","ios":"levelo://app?vid=bfecdb4a-3dfe-4b59-8c44-2c5ecdab9200"},"vehicle_type_id":"4","last_reported":1773501415,"current_range_meters":12800,"station_id":"ce4bhc92rcd13ifvqetg","pricing_plan_id":"cebpf4jnsgd1na2vs0mg"},{"bike_id":"ff136b18-5bf3-4f32-95cf-e58a7e399a7b","system_id":"levelo_inurba_marseille","lat":43.27816,"lon":5.40716,"is_reserved":false,"is_disabled":false,"rental_uris":{"android":"levelo://app?vid=ff136b18-5bf3-4f32-95cf-e58a7e399a7b","ios":"levelo://app?vid=ff136b18-5bf3-4f32-95cf-e58a7e399a7b"},"vehicle_type_id":"4","last_reported":1773501415,"current_range_meters":25200,"station_id":"ce4bhnh2rcd13ifvqgtg","pricing_plan_id":"cebpf4jnsgd1na2vs0mg"},{"bike_id":"84f4a2bf-2617-4f6d-b5b2-52999d43fb4f","system_id":"levelo_inurba_marseille","lat":43.27371,"lon":5.36254,"is_reserved":false,"is_disabled":false,"rental_uris":{"android":"levelo://app?vid=84f4a2bf-2617-4f6d-b5b2-52999d43fb4f","ios":"levelo://app?vid=84f4a2bf-2617-4f6d-b5b2-52999d43fb4f"},"vehicle_type_id":"4","last_reported":1773501415,"current_range_meters":38400,"station_id":"ce4bhbh2rcd13ifvqeo0","pricing_plan_id":"cebpf4jnsgd1na2vs0mg"},{"bike_id":"ae3b076b-7857-43af-bef1-3afe5ec9a162","system_id":"levelo_inurba_marseille","lat":43.30273,"lon":5.37695,"is_reserved":false,"is_disabled":false,"rental_uris":{"android":"levelo://app?vid=ae3b076b-7857-43af-bef1-3afe5ec9a162","ios":"levelo://app?vid=ae3b076b-7857-43af-bef1-3afe5ec9a162"},"vehicle_type_id":"4","last_reported":1773501415,"current_range_meters":39200,"station_id":"ce4bguh2rcd13ifvqcj0","pricing_plan_id":"cebpf4jnsgd1na2vs0mg"},{"bike_id":"012bb7fa-e4d0-4138-9c92-350c5c6b2640","system_id":"levelo_inurba_marseille","lat":43.28536,"lon":5.44101,"is_reserved":false,"is_disabled":false,"rental_uris":{"android":"levelo://app?vid=012bb7fa-e4d0-4138-9c92-350c5c6b2640","ios":"levelo://app?vid=012bb7fa-e4d0-4138-9c92-350c5c6b2640"},"vehicle_type_id":"4","last_reported":1773501415,"current_range_meters":26800,"station_id":"st_d3j3df2ikq2c7380ej80","pricing_plan_id":"cebpf4jnsgd1na2vs0mg"},{"bike_id":"87064ff3-a238-494e-854d-d857dbb567cf","system_id":"levelo_inurba_marseille","lat":43.27331,"lon":5.39074,"is_reserved":false,"is_disabled":false,"rental_uris":{"android":"levelo://app?vid=87064ff3-a238-494e-854d-d857dbb567cf","ios":"levelo://app?vid=87064ff3-a238-494e-854d-d857dbb567cf"},"vehicle_type_id":"4","last_reported":1773501415,"current_range_meters":33600,"station_id":"ce4bhgp2rcd13ifvqfe0","pricing_plan_id":"cebpf4jnsgd1na2vs0mg"},{"bike_id":"959cb468-adf5-492c-a8a7-a3170c99be64","system_id":"levelo_inurba_marseille","lat":43.27062,"lon":5.38292,"is_reserved":false,"is_disabled":false,"rental_uris":{"android":"levelo://app?vid=959cb468-adf5-492c-a8a7-a3170c99be64","ios":"levelo://app?vid=959cb468-adf5-492c-a8a7-a3170c99be64"},"vehicle_type_id":"4","last_reported":1773501415,"current_range_meters":39200,"station_id":"st_d3n2fo6cfp8s73cte1j0","pricing_plan_id":"cebpf4jnsgd1na2vs0mg"},{"bike_id":"f32212cf-6d01-43e1-9d28-c332d31396c9","system_id":"levelo_inurba_marseille","lat":43.24681,"lon":5.43359,"is_reserved":false,"is_disabled":false,"rental_uris":{"android":"levelo://app?vid=f32212cf-6d01-43e1-9d28-c332d31396c9","ios":"levelo://app?vid=f32212cf-6d01-43e1-9d28-c332d31396c9"},"vehicle_type_id":"4","last_reported":1773501415,"current_range_meters":18800,"station_id":"","pricing_plan_id":"cebpf4jnsgd1na2vs0mg"},{"bike_id":"6acc6294-778e-4389-ae09-ea37b9c06714","system_id":"levelo_inurba_marseille","lat":43.29727,"lon":5.41059,"is_reserved":false,"is_disabled":false,"rental_uris":{"android":"levelo://app?vid=6acc6294-778e-4389-ae09-ea37b9c06714","ios":"levelo://app?vid=6acc6294-778e-4389-ae09-ea37b9c06714"},"vehicle_type_id":"4","last_reported":1773501415,"current_range_meters":14800,"station_id":"","pricing_plan_id":"cebpf4jnsgd1na2vs0mg"},{"bike_id":"a48e5de6-f5d4-4dbb-8df3-d8ba024354e8","system_id":"levelo_inurba_marseille","lat":43.29266,"lon":5.36853,"is_reserved":false,"is_disabled":false,"rental_uris":{"android":"levelo://app?vid=a48e5de6-f5d4-4dbb-8df3-d8ba024354e8","ios":"levelo://app?vid=a48e5de6-f5d4-4dbb-8df3-d8ba024354e8"},"vehicle_type_id":"4","last_reported":1773501415,"current_range_meters":36800,"station_id":"ce4bhbp2rcd13ifvqesg","pricing_plan_id":"cebpf4jnsgd1na2vs0mg"},{"bike_id":"968e0752-94e3-4427-8693-dccfb2dc93c6","system_id":"levelo_inurba_marseille","lat":43.32367,"lon":5.3885,"is_reserved":false,"is_disabled":false,"rental_uris":{"android":"levelo://app?vid=968e0752-94e3-4427-8693-dccfb2dc93c6","ios":"levelo://app?vid=968e0752-94e3-4427-8693-dccfb2dc93c6"},"vehicle_type_id":"4","last_reported":1773501415,"current_range_meters":38400,"station_id":"ce4bhqp2rcd13ifvqhog","pricing_plan_id":"cebpf4jnsgd1na2vs0mg"},{"bike_id":"3c88719d-1179-4cd6-8e58-1b02b824935d","system_id":"levelo_inurba_marseille","lat":43.29574,"lon":5.37499,"is_reserved":false,"is_disabled":false,"rental_uris":{"android":"levelo://app?vid=3c88719d-1179-4cd6-8e58-1b02b824935d","ios":"levelo://app?vid=3c88719d-1179-4cd6-8e58-1b02b824935d"},"vehicle_type_id":"4","last_reported":1773501415,"current_range_meters":36000,"station_id":"ce4bgh92rcd13ifvqb50","pricing_plan_id":"cebpf4jnsgd1na2vs0mg"},{"bike_id":"84c526cc-3337-4c2c-bfdc-c96b3709e4c9","system_id":"levelo_inurba_marseille","lat":43.26491,"lon":5.39553,"is_reserved":false,"is_disabled":false,"rental_uris":{"android":"levelo://app?vid=84c526cc-3337-4c2c-bfdc-c96b3709e4c9","ios":"levelo://app?vid=84c526cc-3337-4c2c-bfdc-c96b3709e4c9"},"vehicle_type_id":"4","last_reported":1773501415,"current_range_meters":37600,"station_id":"ce4bhi12rcd13ifvqfq0","pricing_plan_id":"cebpf4jnsgd1na2vs0mg"},{"bike_id":"a06d62f9-7578-4e61-806a-1b3e9b9dda78","system_id":"levelo_inurba_marseille","lat":43.29054,"lon":5.39958,"is_reserved":false,"is_disabled":false,"rental_uris":{"android":"levelo://app?vid=a06d62f9-7578-4e61-806a-1b3e9b9dda78","ios":"levelo://app?vid=a06d62f9-7578-4e61-806a-1b3e9b9dda78"},"vehicle_type_id":"4","last_reported":1773501415,"current_range_meters":36000,"station_id":"ce4bh392rcd13ifvqdm0","pricing_plan_id":"cebpf4jnsgd1na2vs0mg"},{"bike_id":"5dbc8de5-1746-40c6-890f-29dadb98e0ce","system_id":"levelo_inurba_marseille","lat":43.28436,"lon":5.34953,"is_reserved":false,"is_disabled":false,"rental_uris":{"android":"levelo://app?vid=5dbc8de5-1746-40c6-890f-29dadb98e0ce","ios":"levelo://app?vid=5dbc8de5-1746-40c6-890f-29dadb98e0ce"},"vehicle_type_id":"4","last_reported":1773501415,"current_range_meters":33600,"station_id":"ce4bhbh2rcd13ifvqepg","pricing_plan_id":"cebpf4jnsgd1na2vs0mg"},{"bike_id":"71501c24-7c0d-4212-996a-19e1a1605792","system_id":"levelo_inurba_marseille","lat":43.2949,"lon":5.43297,"is_reserved":false,"is_disabled":false,"rental_uris":{"android":"levelo://app?vid=71501c24-7c0d-4212-996a-19e1a1605792","ios":"levelo://app?vid=71501c24-7c0d-4212-996a-19e1a1605792"},"vehicle_type_id":"4","last_reported":1773501415,"current_range_meters":13600,"station_id":"st_d3j5ugp08ojc73fj9d10","pricing_plan_id":"cebpf4jnsgd1na2vs0mg"},{"bike_id":"4eba5897-27c8-4dab-a9ba-ec34688d9fc8","system_id":"levelo_inurba_marseille","lat":43.29544,"lon":5.37494,"is_reserved":false,"is_disabled":false,"rental_uris":{"android":"levelo://app?vid=4eba5897-27c8-4dab-a9ba-ec34688d9fc8","ios":"levelo://app?vid=4eba5897-27c8-4dab-a9ba-ec34688d9fc8"},"vehicle_type_id":"4","last_reported":1773501415,"current_range_meters":21600,"station_id":"ce4bgkp2rcd13ifvqbmg","pricing_plan_id":"cebpf4jnsgd1na2vs0mg"},{"bike_id":"d26f4ec2-fb37-4d6e-b792-e0215f12edab","system_id":"levelo_inurba_marseille","lat":43.27995,"lon":5.40019,"is_reserved":false,"is_disabled":false,"rental_uris":{"android":"levelo://app?vid=d26f4ec2-fb37-4d6e-b792-e0215f12edab","ios":"levelo://app?vid=d26f4ec2-fb37-4d6e-b792-e0215f12edab"},"vehicle_type_id":"4","last_reported":1773501415,"current_range_meters":25200,"station_id":"ce4bho92rcd13ifvqh4g","pricing_plan_id":"cebpf4jnsgd1na2vs0mg"},{"bike_id":"d5455e83-72e4-4ef4-9233-f07b53171cfa","system_id":"levelo_inurba_marseille","lat":43.24974,"lon":5.40505,"is_reserved":false,"is_disabled":false,"rental_uris":{"android":"levelo://app?vid=d5455e83-72e4-4ef4-9233-f07b53171cfa","ios":"levelo://app?vid=d5455e83-72e4-4ef4-9233-f07b53171cfa"},"vehicle_type_id":"4","last_reported":1773501415,"current_range_meters":39200,"station_id":"st_d2ngiaodas8pm72gd1h0","pricing_plan_id":"cebpf4jnsgd1na2vs0mg"},{"bike_id":"4b3e344f-d5f5-47ea-a0e1-c3ff7ab3ba9f","system_id":"levelo_inurba_marseille","lat":43.2339,"lon":5.41228,"is_reserved":false,"is_disabled":false,"rental_uris":{"android":"levelo://app?vid=4b3e344f-d5f5-47ea-a0e1-c3ff7ab3ba9f","ios":"levelo://app?vid=4b3e344f-d5f5-47ea-a0e1-c3ff7ab3ba9f"},"vehicle_type_id":"4","last_reported":1773501415,"current_range_meters":29600,"station_id":"","pricing_plan_id":"cebpf4jnsgd1na2vs0mg"},{"bike_id":"fab9d42d-0389-4e3c-b710-106effb7d2e6","system_id":"levelo_inurba_marseille","lat":43.27812,"lon":5.40719,"is_reserved":false,"is_disabled":false,"rental_uris":{"android":"levelo://app?vid=fab9d42d-0389-4e3c-b710-106effb7d2e6","ios":"levelo://app?vid=fab9d42d-0389-4e3c-b710-106effb7d2e6"},"vehicle_type_id":"4","last_reported":1773501415,"current_range_meters":34000,"station_id":"ce4bhnh2rcd13ifvqgtg","pricing_plan_id":"cebpf4jnsgd1na2vs0mg"},{"bike_id":"04fc03bf-d06d-478f-a4d6-3a6392ae5838","system_id":"levelo_inurba_marseille","lat":43.29585,"lon":5.36739,"is_reserved":false,"is_disabled":false,"rental_uris":{"android":"levelo://app?vid=04fc03bf-d06d-478f-a4d6-3a6392ae5838","ios":"levelo://app?vid=04fc03bf-d06d-478f-a4d6-3a6392ae5838"},"vehicle_type_id":"4","last_reported":1773501415,"current_range_meters":29600,"station_id":"ce4bgph2rcd13ifvqc2g","pricing_plan_id":"cebpf4jnsgd1na2vs0mg"},{"bike_id":"ec7b79aa-c136-46d4-b5dd-2e86834f4663","system_id":"levelo_inurba_marseille","lat":43.26561,"lon":5.37275,"is_reserved":false,"is_disabled":false,"rental_uris":{"android":"levelo://app?vid=ec7b79aa-c136-46d4-b5dd-2e86834f4663","ios":"levelo://app?vid=ec7b79aa-c136-46d4-b5dd-2e86834f4663"},"vehicle_type_id":"4","last_reported":1773501415,"current_range_meters":30000,"station_id":"ce4bhg12rcd13ifvqf70","pricing_plan_id":"cebpf4jnsgd1na2vs0mg"},{"bike_id":"1b76ca95-f18f-46ad-b5e2-115c03b09dc0","system_id":"levelo_inurba_marseille","lat":43.29768,"lon":5.4277,"is_reserved":false,"is_disabled":false,"rental_uris":{"android":"levelo://app?vid=1b76ca95-f18f-46ad-b5e2-115c03b09dc0","ios":"levelo://app?vid=1b76ca95-f18f-46ad-b5e2-115c03b09dc0"},"vehicle_type_id":"4","last_reported":1773501415,"current_range_meters":20800,"station_id":"st_d3md5207bmas73dh9klg","pricing_plan_id":"cebpf4jnsgd1na2vs0mg"},{"bike_id":"aa1ea814-effc-4a82-a7ce-fc6b0be25510","system_id":"levelo_inurba_marseille","lat":43.31833,"lon":5.36983,"is_reserved":false,"is_disabled":false,"rental_uris":{"android":"levelo://app?vid=aa1ea814-effc-4a82-a7ce-fc6b0be25510","ios":"levelo://app?vid=aa1ea814-effc-4a82-a7ce-fc6b0be25510"},"vehicle_type_id":"4","last_reported":1773501415,"current_range_meters":33600,"station_id":"","pricing_plan_id":"cebpf4jnsgd1na2vs0mg"},{"bike_id":"7704b38f-82bd-49cd-9941-f2baf8ee666d","system_id":"levelo_inurba_marseille","lat":43.27625,"lon":5.36118,"is_reserved":false,"is_disabled":false,"rental_uris":{"android":"levelo://app?vid=7704b38f-82bd-49cd-9941-f2baf8ee666d","ios":"levelo://app?vid=7704b38f-82bd-49cd-9941-f2baf8ee666d"},"vehicle_type_id":"4","last_reported":1773501415,"current_range_meters":26800,"station_id":"ce4bgj92rcd13ifvqbe0","pricing_plan_id":"cebpf4jnsgd1na2vs0mg"},{"bike_id":"26037d97-88e4-4893-9c65-adc367a84f61","system_id":"levelo_inurba_marseille","lat":43.26036,"lon":5.37545,"is_reserved":false,"is_disabled":false,"rental_uris":{"android":"levelo://app?vid=26037d97-88e4-4893-9c65-adc367a84f61","ios":"levelo://app?vid=26037d97-88e4-4893-9c65-adc367a84f61"},"vehicle_type_id":"4","last_reported":1773501415,"current_range_meters":38400,"station_id":"ce4bhgh2rcd13ifvqfa0","pricing_plan_id":"cebpf4jnsgd1na2vs0mg"},{"bike_id":"fb572cf7-cf1a-4dfc-ac30-6f925bcd24fa","system_id":"levelo_inurba_marseille","lat":43.30598,"lon":5.37209,"is_reserved":false,"is_disabled":false,"rental_uris":{"android":"levelo://app?vid=fb572cf7-cf1a-4dfc-ac30-6f925bcd24fa","ios":"levelo://app?vid=fb572cf7-cf1a-4dfc-ac30-6f925bcd24fa"},"vehicle_type_id":"4","last_reported":1773501415,"current_range_meters":32400,"station_id":"ce4bgqh2rcd13ifvqc4g","pricing_plan_id":"cebpf4jnsgd1na2vs0mg"},{"bike_id":"adb3e066-3d52-48f2-aa5f-de1d01f85bb9","system_id":"levelo_inurba_marseille","lat":43.30149,"lon":5.37425,"is_reserved":false,"is_disabled":false,"rental_uris":{"android":"levelo://app?vid=adb3e066-3d52-48f2-aa5f-de1d01f85bb9","ios":"levelo://app?vid=adb3e066-3d52-48f2-aa5f-de1d01f85bb9"},"vehicle_type_id":"4","last_reported":1773501415,"current_range_meters":20000,"station_id":"ce4bgs92rcd13ifvqcc0","pricing_plan_id":"cebpf4jnsgd1na2vs0mg"},{"bike_id":"8b8345ac-08c0-42b5-84ad-2247a6050461","system_id":"levelo_inurba_marseille","lat":43.2781,"lon":5.40707,"is_reserved":false,"is_disabled":false,"rental_uris":{"android":"levelo://app?vid=8b8345ac-08c0-42b5-84ad-2247a6050461","ios":"levelo://app?vid=8b8345ac-08c0-42b5-84ad-2247a6050461"},"vehicle_type_id":"4","last_reported":1773501415,"current_range_meters":38400,"station_id":"ce4bhnh2rcd13ifvqgtg","pricing_plan_id":"cebpf4jnsgd1na2vs0mg"},{"bike_id":"8d1d6e8b-5750-4bc4-847c-d5a2d80e3e6b","system_id":"levelo_inurba_marseille","lat":43.31498,"lon":5.37349,"is_reserved":false,"is_disabled":false,"rental_uris":{"android":"levelo://app?vid=8d1d6e8b-5750-4bc4-847c-d5a2d80e3e6b","ios":"levelo://app?vid=8d1d6e8b-5750-4bc4-847c-d5a2d80e3e6b"},"vehicle_type_id":"4","last_reported":1773501415,"current_range_meters":39200,"station_id":"ce4bgt12rcd13ifvqcd0","pricing_plan_id":"cebpf4jnsgd1na2vs0mg"},{"bike_id":"833ead7f-2cc1-415f-b495-f484e1825ff8","system_id":"levelo_inurba_marseille","lat":43.31706,"lon":5.43715,"is_reserved":false,"is_disabled":false,"rental_uris":{"android":"levelo://app?vid=833ead7f-2cc1-415f-b495-f484e1825ff8","ios":"levelo://app?vid=833ead7f-2cc1-415f-b495-f484e1825ff8"},"vehicle_type_id":"4","last_reported":1773501415,"current_range_meters":39200,"station_id":"ce4bhp92rcd13ifvqhcg","pricing_plan_id":"cebpf4jnsgd1na2vs0mg"},{"bike_id":"eb2f308c-8a12-4604-91b5-c6e7beca1962","system_id":"levelo_inurba_marseille","lat":43.25599,"lon":5.38227,"is_reserved":false,"is_disabled":false,"rental_uris":{"android":"levelo://app?vid=eb2f308c-8a12-4604-91b5-c6e7beca1962","ios":"levelo://app?vid=eb2f308c-8a12-4604-91b5-c6e7beca1962"},"vehicle_type_id":"4","last_reported":1773501415,"current_range_meters":25200,"station_id":"ce4bhih2rcd13ifvqfs0","pricing_plan_id":"cebpf4jnsgd1na2vs0mg"},{"bike_id":"9275d7e0-6f92-4728-99cc-26ef8f5159ad","system_id":"levelo_inurba_marseille","lat":43.29116,"lon":5.43276,"is_reserved":false,"is_disabled":false,"rental_uris":{"android":"levelo://app?vid=9275d7e0-6f92-4728-99cc-26ef8f5159ad","ios":"levelo://app?vid=9275d7e0-6f92-4728-99cc-26ef8f5159ad"},"vehicle_type_id":"4","last_reported":1773501415,"current_range_meters":30800,"station_id":"","pricing_plan_id":"cebpf4jnsgd1na2vs0mg"},{"bike_id":"0129e82f-23e7-41dc-b218-2c46214b3ed1","system_id":"levelo_inurba_marseille","lat":43.31289,"lon":5.40173,"is_reserved":false,"is_disabled":false,"rental_uris":{"android":"levelo://app?vid=0129e82f-23e7-41dc-b218-2c46214b3ed1","ios":"levelo://app?vid=0129e82f-23e7-41dc-b218-2c46214b3ed1"},"vehicle_type_id":"4","last_reported":1773501415,"current_range_meters":20000,"station_id":"ce4bh092rcd13ifvqd30","pricing_plan_id":"cebpf4jnsgd1na2vs0mg"},{"bike_id":"85f520fc-113e-4f17-b2a5-245ce16c5540","system_id":"levelo_inurba_marseille","lat":43.25302,"lon":5.42188,"is_reserved":false,"is_disabled":false,"rental_uris":{"android":"levelo://app?vid=85f520fc-113e-4f17-b2a5-245ce16c5540","ios":"levelo://app?vid=85f520fc-113e-4f17-b2a5-245ce16c5540"},"vehicle_type_id":"4","last_reported":1773501415,"current_range_meters":3200,"station_id":"st_d2m65c5bi1j21697t3ng","pricing_plan_id":"cebpf4jnsgd1na2vs0mg"},{"bike_id":"b7302990-5503-41e4-ae87-97c85ad7b277","system_id":"levelo_inurba_marseille","lat":43.30135,"lon":5.37432,"is_reserved":false,"is_disabled":false,"rental_uris":{"android":"levelo://app?vid=b7302990-5503-41e4-ae87-97c85ad7b277","ios":"levelo://app?vid=b7302990-5503-41e4-ae87-97c85ad7b277"},"vehicle_type_id":"4","last_reported":1773501415,"current_range_meters":32800,"station_id":"ce4bgs92rcd13ifvqcc0","pricing_plan_id":"cebpf4jnsgd1na2vs0mg"},{"bike_id":"be4b33f3-f666-4b28-9e53-550c3c6e8b23","system_id":"levelo_inurba_marseille","lat":43.28479,"lon":5.484,"is_reserved":false,"is_disabled":false,"rental_uris":{"android":"levelo://app?vid=be4b33f3-f666-4b28-9e53-550c3c6e8b23","ios":"levelo://app?vid=be4b33f3-f666-4b28-9e53-550c3c6e8b23"},"vehicle_type_id":"4","last_reported":1773501415,"current_range_meters":21600,"station_id":"","pricing_plan_id":"cebpf4jnsgd1na2vs0mg"},{"bike_id":"5af7ee6c-ab5a-4141-b66f-fa4cf96882c5","system_id":"levelo_inurba_marseille","lat":43.28947,"lon":5.36637,"is_reserved":false,"is_disabled":false,"rental_uris":{"android":"levelo://app?vid=5af7ee6c-ab5a-4141-b66f-fa4cf96882c5","ios":"levelo://app?vid=5af7ee6c-ab5a-4141-b66f-fa4cf96882c5"},"vehicle_type_id":"4","last_reported":1773501415,"current_range_meters":39200,"station_id":"ce4bhap2rcd13ifvqek0","pricing_plan_id":"cebpf4jnsgd1na2vs0mg"},{"bike_id":"18b94e32-c0fc-4f34-a2a9-cd156ee3282a","system_id":"levelo_inurba_marseille","lat":43.30584,"lon":5.37232,"is_reserved":false,"is_disabled":false,"rental_uris":{"android":"levelo://app?vid=18b94e32-c0fc-4f34-a2a9-cd156ee3282a","ios":"levelo://app?vid=18b94e32-c0fc-4f34-a2a9-cd156ee3282a"},"vehicle_type_id":"4","last_reported":1773501415,"current_range_meters":36400,"station_id":"ce4bgqh2rcd13ifvqc4g","pricing_plan_id":"cebpf4jnsgd1na2vs0mg"},{"bike_id":"26ec3725-c826-40e4-8423-caab5390d1ff","system_id":"levelo_inurba_marseille","lat":43.26684,"lon":5.38277,"is_reserved":false,"is_disabled":false,"rental_uris":{"android":"levelo://app?vid=26ec3725-c826-40e4-8423-caab5390d1ff","ios":"levelo://app?vid=26ec3725-c826-40e4-8423-caab5390d1ff"},"vehicle_type_id":"4","last_reported":1773501415,"current_range_meters":19200,"station_id":"ce4bhg92rcd13ifvqf90","pricing_plan_id":"cebpf4jnsgd1na2vs0mg"},{"bike_id":"193cbe9d-b7d2-421e-9f76-9c8c86aebb4a","system_id":"levelo_inurba_marseille","lat":43.33537,"lon":5.37464,"is_reserved":false,"is_disabled":false,"rental_uris":{"android":"levelo://app?vid=193cbe9d-b7d2-421e-9f76-9c8c86aebb4a","ios":"levelo://app?vid=193cbe9d-b7d2-421e-9f76-9c8c86aebb4a"},"vehicle_type_id":"4","last_reported":1773501415,"current_range_meters":12400,"station_id":"st_d46tts09ee8s73dlu43g","pricing_plan_id":"cebpf4jnsgd1na2vs0mg"},{"bike_id":"35767eb5-578d-4b29-9c32-ce565407fc05","system_id":"levelo_inurba_marseille","lat":43.29873,"lon":5.38886,"is_reserved":false,"is_disabled":true,"rental_uris":{"android":"levelo://app?vid=35767eb5-578d-4b29-9c32-ce565407fc05","ios":"levelo://app?vid=35767eb5-578d-4b29-9c32-ce565407fc05"},"vehicle_type_id":"4","last_reported":1773501415,"current_range_meters":0,"station_id":"ce4bh392rcd13ifvqdl0","pricing_plan_id":"cebpf4jnsgd1na2vs0mg"},{"bike_id":"69bcc04d-1262-470e-8c27-7da8ae96d177","system_id":"levelo_inurba_marseille","lat":43.29617,"lon":5.37734,"is_reserved":false,"is_disabled":false,"rental_uris":{"android":"levelo://app?vid=69bcc04d-1262-470e-8c27-7da8ae96d177","ios":"levelo://app?vid=69bcc04d-1262-470e-8c27-7da8ae96d177"},"vehicle_type_id":"4","last_reported":1773501415,"current_range_meters":36400,"station_id":"ce4bgi92rcd13ifvqb90","pricing_plan_id":"cebpf4jnsgd1na2vs0mg"},{"bike_id":"5b28f130-a5cc-4f35-b129-e6efce2e6fb7","system_id":"levelo_inurba_marseille","lat":43.30477,"lon":5.38913,"is_reserved":false,"is_disabled":false,"rental_uris":{"android":"levelo://app?vid=5b28f130-a5cc-4f35-b129-e6efce2e6fb7","ios":"levelo://app?vid=5b28f130-a5cc-4f35-b129-e6efce2e6fb7"},"vehicle_type_id":"4","last_reported":1773501415,"current_range_meters":27200,"station_id":"","pricing_plan_id":"cebpf4jnsgd1na2vs0mg"},{"bike_id":"9d6774b9-7096-4dd3-a8cc-8d3bf2180d87","system_id":"levelo_inurba_marseille","lat":43.30156,"lon":5.38101,"is_reserved":false,"is_disabled":false,"rental_uris":{"android":"levelo://app?vid=9d6774b9-7096-4dd3-a8cc-8d3bf2180d87","ios":"levelo://app?vid=9d6774b9-7096-4dd3-a8cc-8d3bf2180d87"},"vehicle_type_id":"4","last_reported":1773501415,"current_range_meters":24000,"station_id":"ce4bgjp2rcd13ifvqbh0","pricing_plan_id":"cebpf4jnsgd1na2vs0mg"},{"bike_id":"776fcf0a-04e4-4c33-b331-eeb12fabebb3","system_id":"levelo_inurba_marseille","lat":43.28934,"lon":5.36637,"is_reserved":false,"is_disabled":false,"rental_uris":{"android":"levelo://app?vid=776fcf0a-04e4-4c33-b331-eeb12fabebb3","ios":"levelo://app?vid=776fcf0a-04e4-4c33-b331-eeb12fabebb3"},"vehicle_type_id":"4","last_reported":1773501415,"current_range_meters":36800,"station_id":"ce4bhap2rcd13ifvqek0","pricing_plan_id":"cebpf4jnsgd1na2vs0mg"},{"bike_id":"363eb9a8-8391-43a6-8dd0-57a9b8ddd213","system_id":"levelo_inurba_marseille","lat":43.29909,"lon":5.37472,"is_reserved":false,"is_disabled":false,"rental_uris":{"android":"levelo://app?vid=363eb9a8-8391-43a6-8dd0-57a9b8ddd213","ios":"levelo://app?vid=363eb9a8-8391-43a6-8dd0-57a9b8ddd213"},"vehicle_type_id":"4","last_reported":1773501415,"current_range_meters":26800,"station_id":"ce4bgjh2rcd13ifvqbg0","pricing_plan_id":"cebpf4jnsgd1na2vs0mg"},{"bike_id":"641cab82-5627-4c24-a3b6-dfa17af8941b","system_id":"levelo_inurba_marseille","lat":43.24535,"lon":5.39515,"is_reserved":false,"is_disabled":false,"rental_uris":{"android":"levelo://app?vid=641cab82-5627-4c24-a3b6-dfa17af8941b","ios":"levelo://app?vid=641cab82-5627-4c24-a3b6-dfa17af8941b"},"vehicle_type_id":"4","last_reported":1773501415,"current_range_meters":27200,"station_id":"ce4bhlp2rcd13ifvqgjg","pricing_plan_id":"cebpf4jnsgd1na2vs0mg"},{"bike_id":"83abf129-0e47-41f5-b093-b90289f6f24b","system_id":"levelo_inurba_marseille","lat":43.28617,"lon":5.39875,"is_reserved":false,"is_disabled":false,"rental_uris":{"android":"levelo://app?vid=83abf129-0e47-41f5-b093-b90289f6f24b","ios":"levelo://app?vid=83abf129-0e47-41f5-b093-b90289f6f24b"},"vehicle_type_id":"4","last_reported":1773501415,"current_range_meters":38400,"station_id":"","pricing_plan_id":"cebpf4jnsgd1na2vs0mg"},{"bike_id":"61323a19-6e8d-4fbe-ac05-6f68173b313e","system_id":"levelo_inurba_marseille","lat":43.31069,"lon":5.42463,"is_reserved":false,"is_disabled":false,"rental_uris":{"android":"levelo://app?vid=61323a19-6e8d-4fbe-ac05-6f68173b313e","ios":"levelo://app?vid=61323a19-6e8d-4fbe-ac05-6f68173b313e"},"vehicle_type_id":"4","last_reported":1773501415,"current_range_meters":35200,"station_id":"ce4bhp92rcd13ifvqhag","pricing_plan_id":"cebpf4jnsgd1na2vs0mg"},{"bike_id":"c507ad31-13a8-4812-86d2-979e4a29518c","system_id":"levelo_inurba_marseille","lat":43.26939,"lon":5.38928,"is_reserved":false,"is_disabled":false,"rental_uris":{"android":"levelo://app?vid=c507ad31-13a8-4812-86d2-979e4a29518c","ios":"levelo://app?vid=c507ad31-13a8-4812-86d2-979e4a29518c"},"vehicle_type_id":"4","last_reported":1773501415,"current_range_meters":10000,"station_id":"ce4bhhh2rcd13ifvqfl0","pricing_plan_id":"cebpf4jnsgd1na2vs0mg"},{"bike_id":"1061801b-b18e-4107-b525-c5770c253c61","system_id":"levelo_inurba_marseille","lat":43.26067,"lon":5.3941,"is_reserved":false,"is_disabled":false,"rental_uris":{"android":"levelo://app?vid=1061801b-b18e-4107-b525-c5770c253c61","ios":"levelo://app?vid=1061801b-b18e-4107-b525-c5770c253c61"},"vehicle_type_id":"4","last_reported":1773501415,"current_range_meters":39200,"station_id":"ce4bhh92rcd13ifvqfj0","pricing_plan_id":"cebpf4jnsgd1na2vs0mg"},{"bike_id":"3e7c4266-be7b-4c37-abd9-485e291405dd","system_id":"levelo_inurba_marseille","lat":43.22563,"lon":5.41618,"is_reserved":false,"is_disabled":false,"rental_uris":{"android":"levelo://app?vid=3e7c4266-be7b-4c37-abd9-485e291405dd","ios":"levelo://app?vid=3e7c4266-be7b-4c37-abd9-485e291405dd"},"vehicle_type_id":"4","last_reported":1773501415,"current_range_meters":39200,"station_id":"st_d2o4gvlbi1j2169b742g","pricing_plan_id":"cebpf4jnsgd1na2vs0mg"},{"bike_id":"c04af2e4-8d44-4d6e-8024-42b3012f6922","system_id":"levelo_inurba_marseille","lat":43.29818,"lon":5.44059,"is_reserved":false,"is_disabled":false,"rental_uris":{"android":"levelo://app?vid=c04af2e4-8d44-4d6e-8024-42b3012f6922","ios":"levelo://app?vid=c04af2e4-8d44-4d6e-8024-42b3012f6922"},"vehicle_type_id":"4","last_reported":1773501415,"current_range_meters":24400,"station_id":"st_d3jp68qikq2c7381ktn0","pricing_plan_id":"cebpf4jnsgd1na2vs0mg"},{"bike_id":"040ebf91-65e6-4961-b3b8-9b42783730b4","system_id":"levelo_inurba_marseille","lat":43.30317,"lon":5.36907,"is_reserved":false,"is_disabled":false,"rental_uris":{"android":"levelo://app?vid=040ebf91-65e6-4961-b3b8-9b42783730b4","ios":"levelo://app?vid=040ebf91-65e6-4961-b3b8-9b42783730b4"},"vehicle_type_id":"4","last_reported":1773501415,"current_range_meters":34800,"station_id":"ce4bgqh2rcd13ifvqc5g","pricing_plan_id":"cebpf4jnsgd1na2vs0mg"},{"bike_id":"12122f31-8c7a-4736-b626-2f58a52bcc02","system_id":"levelo_inurba_marseille","lat":43.31124,"lon":5.37782,"is_reserved":false,"is_disabled":false,"rental_uris":{"android":"levelo://app?vid=12122f31-8c7a-4736-b626-2f58a52bcc02","ios":"levelo://app?vid=12122f31-8c7a-4736-b626-2f58a52bcc02"},"vehicle_type_id":"4","last_reported":1773501415,"current_range_meters":38000,"station_id":"ce4bgt92rcd13ifvqcg0","pricing_plan_id":"cebpf4jnsgd1na2vs0mg"},{"bike_id":"3a46d46a-3434-4c09-9481-ae1049d546b0","system_id":"levelo_inurba_marseille","lat":43.31499,"lon":5.37287,"is_reserved":false,"is_disabled":false,"rental_uris":{"android":"levelo://app?vid=3a46d46a-3434-4c09-9481-ae1049d546b0","ios":"levelo://app?vid=3a46d46a-3434-4c09-9481-ae1049d546b0"},"vehicle_type_id":"4","last_reported":1773501415,"current_range_meters":39200,"station_id":"ce4bgt12rcd13ifvqcd0","pricing_plan_id":"cebpf4jnsgd1na2vs0mg"},{"bike_id":"64069c02-c977-4af0-a752-efe4502ec874","system_id":"levelo_inurba_marseille","lat":43.28472,"lon":5.4839,"is_reserved":false,"is_disabled":false,"rental_uris":{"android":"levelo://app?vid=64069c02-c977-4af0-a752-efe4502ec874","ios":"levelo://app?vid=64069c02-c977-4af0-a752-efe4502ec874"},"vehicle_type_id":"4","last_reported":1773501415,"current_range_meters":6400,"station_id":"","pricing_plan_id":"cebpf4jnsgd1na2vs0mg"},{"bike_id":"030d87a5-4fd6-406c-97be-8b1d2c082c10","system_id":"levelo_inurba_marseille","lat":43.24544,"lon":5.39513,"is_reserved":false,"is_disabled":false,"rental_uris":{"android":"levelo://app?vid=030d87a5-4fd6-406c-97be-8b1d2c082c10","ios":"levelo://app?vid=030d87a5-4fd6-406c-97be-8b1d2c082c10"},"vehicle_type_id":"4","last_reported":1773501415,"current_range_meters":37600,"station_id":"ce4bhlp2rcd13ifvqgjg","pricing_plan_id":"cebpf4jnsgd1na2vs0mg"},{"bike_id":"bd95ccaa-515f-4360-91f2-e00beab69aa6","system_id":"levelo_inurba_marseille","lat":43.29542,"lon":5.38537,"is_reserved":false,"is_disabled":false,"rental_uris":{"android":"levelo://app?vid=bd95ccaa-515f-4360-91f2-e00beab69aa6","ios":"levelo://app?vid=bd95ccaa-515f-4360-91f2-e00beab69aa6"},"vehicle_type_id":"4","last_reported":1773501415,"current_range_meters":39200,"station_id":"ce4bgih2rcd13ifvqba0","pricing_plan_id":"cebpf4jnsgd1na2vs0mg"},{"bike_id":"da93a014-a92f-4e1d-9c7c-eb34c47701ab","system_id":"levelo_inurba_marseille","lat":43.29731,"lon":5.37689,"is_reserved":false,"is_disabled":false,"rental_uris":{"android":"levelo://app?vid=da93a014-a92f-4e1d-9c7c-eb34c47701ab","ios":"levelo://app?vid=da93a014-a92f-4e1d-9c7c-eb34c47701ab"},"vehicle_type_id":"4","last_reported":1773501415,"current_range_meters":17600,"station_id":"ce4bgkh2rcd13ifvqbl0","pricing_plan_id":"cebpf4jnsgd1na2vs0mg"},{"bike_id":"6ba02607-5543-4986-b3cb-a1df5f02d1dd","system_id":"levelo_inurba_marseille","lat":43.3137,"lon":5.36712,"is_reserved":false,"is_disabled":false,"rental_uris":{"android":"levelo://app?vid=6ba02607-5543-4986-b3cb-a1df5f02d1dd","ios":"levelo://app?vid=6ba02607-5543-4986-b3cb-a1df5f02d1dd"},"vehicle_type_id":"4","last_reported":1773501415,"current_range_meters":39200,"station_id":"ce4bgr92rcd13ifvqc6g","pricing_plan_id":"cebpf4jnsgd1na2vs0mg"},{"bike_id":"68f8bcec-7291-4d62-b8e4-32de3382d5ae","system_id":"levelo_inurba_marseille","lat":43.30143,"lon":5.37407,"is_reserved":false,"is_disabled":false,"rental_uris":{"android":"levelo://app?vid=68f8bcec-7291-4d62-b8e4-32de3382d5ae","ios":"levelo://app?vid=68f8bcec-7291-4d62-b8e4-32de3382d5ae"},"vehicle_type_id":"4","last_reported":1773501415,"current_range_meters":12800,"station_id":"ce4bgs92rcd13ifvqcc0","pricing_plan_id":"cebpf4jnsgd1na2vs0mg"},{"bike_id":"7bf0a830-d498-457c-a030-91c3bd84fed4","system_id":"levelo_inurba_marseille","lat":43.23171,"lon":5.35546,"is_reserved":false,"is_disabled":false,"rental_uris":{"android":"levelo://app?vid=7bf0a830-d498-457c-a030-91c3bd84fed4","ios":"levelo://app?vid=7bf0a830-d498-457c-a030-91c3bd84fed4"},"vehicle_type_id":"4","last_reported":1773501415,"current_range_meters":34800,"station_id":"ce4bhu92rcd13ifvqi70","pricing_plan_id":"cebpf4jnsgd1na2vs0mg"},{"bike_id":"db5fc025-f609-443b-b481-2f6cefb137d4","system_id":"levelo_inurba_marseille","lat":43.2848,"lon":5.48391,"is_reserved":false,"is_disabled":false,"rental_uris":{"android":"levelo://app?vid=db5fc025-f609-443b-b481-2f6cefb137d4","ios":"levelo://app?vid=db5fc025-f609-443b-b481-2f6cefb137d4"},"vehicle_type_id":"4","last_reported":1773501415,"current_range_meters":30400,"station_id":"","pricing_plan_id":"cebpf4jnsgd1na2vs0mg"},{"bike_id":"3b85e9e8-4938-4ae7-a83e-c8e2526a550f","system_id":"levelo_inurba_marseille","lat":43.24165,"lon":5.3641,"is_reserved":false,"is_disabled":false,"rental_uris":{"android":"levelo://app?vid=3b85e9e8-4938-4ae7-a83e-c8e2526a550f","ios":"levelo://app?vid=3b85e9e8-4938-4ae7-a83e-c8e2526a550f"},"vehicle_type_id":"4","last_reported":1773501415,"current_range_meters":20800,"station_id":"cpo36qri1sfpv3e86is0","pricing_plan_id":"cebpf4jnsgd1na2vs0mg"},{"bike_id":"be3ab178-8b1d-4789-9583-850d3e5be4a6","system_id":"levelo_inurba_marseille","lat":43.30544,"lon":5.36511,"is_reserved":false,"is_disabled":false,"rental_uris":{"android":"levelo://app?vid=be3ab178-8b1d-4789-9583-850d3e5be4a6","ios":"levelo://app?vid=be3ab178-8b1d-4789-9583-850d3e5be4a6"},"vehicle_type_id":"4","last_reported":1773501415,"current_range_meters":39200,"station_id":"ce4bgs12rcd13ifvqcag","pricing_plan_id":"cebpf4jnsgd1na2vs0mg"},{"bike_id":"5f1d8734-3741-4052-9f0e-83819d0b458b","system_id":"levelo_inurba_marseille","lat":43.28723,"lon":5.39976,"is_reserved":false,"is_disabled":false,"rental_uris":{"android":"levelo://app?vid=5f1d8734-3741-4052-9f0e-83819d0b458b","ios":"levelo://app?vid=5f1d8734-3741-4052-9f0e-83819d0b458b"},"vehicle_type_id":"4","last_reported":1773501415,"current_range_meters":30800,"station_id":"ce4bho92rcd13ifvqh3g","pricing_plan_id":"cebpf4jnsgd1na2vs0mg"},{"bike_id":"57aa564f-18d7-4da2-b67c-e3aff3bc078f","system_id":"levelo_inurba_marseille","lat":43.30574,"lon":5.36705,"is_reserved":false,"is_disabled":false,"rental_uris":{"android":"levelo://app?vid=57aa564f-18d7-4da2-b67c-e3aff3bc078f","ios":"levelo://app?vid=57aa564f-18d7-4da2-b67c-e3aff3bc078f"},"vehicle_type_id":"4","last_reported":1773501415,"current_range_meters":39200,"station_id":"ce4bgrp2rcd13ifvqc9g","pricing_plan_id":"cebpf4jnsgd1na2vs0mg"},{"bike_id":"b0071e5d-cdbb-40e9-bef7-0244303243f3","system_id":"levelo_inurba_marseille","lat":43.30303,"lon":5.36898,"is_reserved":false,"is_disabled":false,"rental_uris":{"android":"levelo://app?vid=b0071e5d-cdbb-40e9-bef7-0244303243f3","ios":"levelo://app?vid=b0071e5d-cdbb-40e9-bef7-0244303243f3"},"vehicle_type_id":"4","last_reported":1773501415,"current_range_meters":36400,"station_id":"ce4bgqh2rcd13ifvqc5g","pricing_plan_id":"cebpf4jnsgd1na2vs0mg"},{"bike_id":"2c6a2cc6-c851-4e88-afa4-be17bb846b49","system_id":"levelo_inurba_marseille","lat":43.30544,"lon":5.36523,"is_reserved":false,"is_disabled":false,"rental_uris":{"android":"levelo://app?vid=2c6a2cc6-c851-4e88-afa4-be17bb846b49","ios":"levelo://app?vid=2c6a2cc6-c851-4e88-afa4-be17bb846b49"},"vehicle_type_id":"4","last_reported":1773501415,"current_range_meters":39200,"station_id":"ce4bgs12rcd13ifvqcag","pricing_plan_id":"cebpf4jnsgd1na2vs0mg"},{"bike_id":"ab7d9189-2568-4974-829e-49dee9a447d5","system_id":"levelo_inurba_marseille","lat":43.23189,"lon":5.35556,"is_reserved":false,"is_disabled":false,"rental_uris":{"android":"levelo://app?vid=ab7d9189-2568-4974-829e-49dee9a447d5","ios":"levelo://app?vid=ab7d9189-2568-4974-829e-49dee9a447d5"},"vehicle_type_id":"4","last_reported":1773501415,"current_range_meters":39200,"station_id":"ce4bhu92rcd13ifvqi70","pricing_plan_id":"cebpf4jnsgd1na2vs0mg"},{"bike_id":"0b373a44-b9eb-43b6-9ce5-cda6bc04ce52","system_id":"levelo_inurba_marseille","lat":43.28943,"lon":5.36627,"is_reserved":false,"is_disabled":false,"rental_uris":{"android":"levelo://app?vid=0b373a44-b9eb-43b6-9ce5-cda6bc04ce52","ios":"levelo://app?vid=0b373a44-b9eb-43b6-9ce5-cda6bc04ce52"},"vehicle_type_id":"4","last_reported":1773501415,"current_range_meters":39200,"station_id":"ce4bhap2rcd13ifvqek0","pricing_plan_id":"cebpf4jnsgd1na2vs0mg"},{"bike_id":"c0c5d9dc-928d-48b1-bc04-fe5d71707694","system_id":"levelo_inurba_marseille","lat":43.32354,"lon":5.36726,"is_reserved":false,"is_disabled":false,"rental_uris":{"android":"levelo://app?vid=c0c5d9dc-928d-48b1-bc04-fe5d71707694","ios":"levelo://app?vid=c0c5d9dc-928d-48b1-bc04-fe5d71707694"},"vehicle_type_id":"4","last_reported":1773501415,"current_range_meters":36800,"station_id":"ce4bhsh2rcd13ifvqi2g","pricing_plan_id":"cebpf4jnsgd1na2vs0mg"},{"bike_id":"c4c382c3-1a78-4873-9804-42b7207bdffe","system_id":"levelo_inurba_marseille","lat":43.26213,"lon":5.3744,"is_reserved":false,"is_disabled":false,"rental_uris":{"android":"levelo://app?vid=c4c382c3-1a78-4873-9804-42b7207bdffe","ios":"levelo://app?vid=c4c382c3-1a78-4873-9804-42b7207bdffe"},"vehicle_type_id":"4","last_reported":1773501415,"current_range_meters":36000,"station_id":"ce4bhgp2rcd13ifvqfc0","pricing_plan_id":"cebpf4jnsgd1na2vs0mg"},{"bike_id":"37d43fd8-cdec-4372-bbf9-45ba3794afe0","system_id":"levelo_inurba_marseille","lat":43.29434,"lon":5.39752,"is_reserved":false,"is_disabled":true,"rental_uris":{"android":"levelo://app?vid=37d43fd8-cdec-4372-bbf9-45ba3794afe0","ios":"levelo://app?vid=37d43fd8-cdec-4372-bbf9-45ba3794afe0"},"vehicle_type_id":"4","last_reported":1773501415,"current_range_meters":28000,"station_id":"ce4bh3h2rcd13ifvqdo0","pricing_plan_id":"cebpf4jnsgd1na2vs0mg"},{"bike_id":"475f6229-3b8f-4eab-b8fd-2fbd86f0fb75","system_id":"levelo_inurba_marseille","lat":43.24167,"lon":5.36392,"is_reserved":false,"is_disabled":false,"rental_uris":{"android":"levelo://app?vid=475f6229-3b8f-4eab-b8fd-2fbd86f0fb75","ios":"levelo://app?vid=475f6229-3b8f-4eab-b8fd-2fbd86f0fb75"},"vehicle_type_id":"4","last_reported":1773501415,"current_range_meters":38000,"station_id":"cpo36qri1sfpv3e86is0","pricing_plan_id":"cebpf4jnsgd1na2vs0mg"},{"bike_id":"aaf56433-ee77-470c-b7b6-221e680ae993","system_id":"levelo_inurba_marseille","lat":43.2256,"lon":5.41621,"is_reserved":false,"is_disabled":false,"rental_uris":{"android":"levelo://app?vid=aaf56433-ee77-470c-b7b6-221e680ae993","ios":"levelo://app?vid=aaf56433-ee77-470c-b7b6-221e680ae993"},"vehicle_type_id":"4","last_reported":1773501415,"current_range_meters":40000,"station_id":"st_d2o4gvlbi1j2169b742g","pricing_plan_id":"cebpf4jnsgd1na2vs0mg"},{"bike_id":"3ff3df78-eee4-4716-9de4-5e86fa44030b","system_id":"levelo_inurba_marseille","lat":43.30159,"lon":5.37413,"is_reserved":false,"is_disabled":false,"rental_uris":{"android":"levelo://app?vid=3ff3df78-eee4-4716-9de4-5e86fa44030b","ios":"levelo://app?vid=3ff3df78-eee4-4716-9de4-5e86fa44030b"},"vehicle_type_id":"4","last_reported":1773501415,"current_range_meters":39200,"station_id":"ce4bgs92rcd13ifvqcc0","pricing_plan_id":"cebpf4jnsgd1na2vs0mg"},{"bike_id":"3a3e1c85-dbae-420f-b6d9-3a4969e8b66e","system_id":"levelo_inurba_marseille","lat":43.24461,"lon":5.42527,"is_reserved":false,"is_disabled":false,"rental_uris":{"android":"levelo://app?vid=3a3e1c85-dbae-420f-b6d9-3a4969e8b66e","ios":"levelo://app?vid=3a3e1c85-dbae-420f-b6d9-3a4969e8b66e"},"vehicle_type_id":"4","last_reported":1773501415,"current_range_meters":38800,"station_id":"st_d4a3vfp97mjs738cd8kg","pricing_plan_id":"cebpf4jnsgd1na2vs0mg"},{"bike_id":"eb566e58-31ed-4f69-8ead-9fd9fd55d1d0","system_id":"levelo_inurba_marseille","lat":43.29634,"lon":5.377,"is_reserved":false,"is_disabled":false,"rental_uris":{"android":"levelo://app?vid=eb566e58-31ed-4f69-8ead-9fd9fd55d1d0","ios":"levelo://app?vid=eb566e58-31ed-4f69-8ead-9fd9fd55d1d0"},"vehicle_type_id":"4","last_reported":1773501415,"current_range_meters":24800,"station_id":"ce4bgi92rcd13ifvqb90","pricing_plan_id":"cebpf4jnsgd1na2vs0mg"},{"bike_id":"eb259eb3-17cb-4932-bfd9-164bb2aaf2fe","system_id":"levelo_inurba_marseille","lat":43.23201,"lon":5.35546,"is_reserved":false,"is_disabled":false,"rental_uris":{"android":"levelo://app?vid=eb259eb3-17cb-4932-bfd9-164bb2aaf2fe","ios":"levelo://app?vid=eb259eb3-17cb-4932-bfd9-164bb2aaf2fe"},"vehicle_type_id":"4","last_reported":1773501415,"current_range_meters":39200,"station_id":"ce4bhu92rcd13ifvqi70","pricing_plan_id":"cebpf4jnsgd1na2vs0mg"},{"bike_id":"94603dc7-e518-4b5c-b68c-9554ac34faba","system_id":"levelo_inurba_marseille","lat":43.29248,"lon":5.37618,"is_reserved":false,"is_disabled":false,"rental_uris":{"android":"levelo://app?vid=94603dc7-e518-4b5c-b68c-9554ac34faba","ios":"levelo://app?vid=94603dc7-e518-4b5c-b68c-9554ac34faba"},"vehicle_type_id":"4","last_reported":1773501415,"current_range_meters":33200,"station_id":"ce4bgi12rcd13ifvqb80","pricing_plan_id":"cebpf4jnsgd1na2vs0mg"},{"bike_id":"41b16539-d93d-4e64-a8e4-b7d380ab4e3b","system_id":"levelo_inurba_marseille","lat":43.25009,"lon":5.38935,"is_reserved":false,"is_disabled":false,"rental_uris":{"android":"levelo://app?vid=41b16539-d93d-4e64-a8e4-b7d380ab4e3b","ios":"levelo://app?vid=41b16539-d93d-4e64-a8e4-b7d380ab4e3b"},"vehicle_type_id":"4","last_reported":1773501415,"current_range_meters":14400,"station_id":"ce4bhgp2rcd13ifvqfd0","pricing_plan_id":"cebpf4jnsgd1na2vs0mg"},{"bike_id":"f099973d-7c3c-4c24-a96d-66e53b1f4f14","system_id":"levelo_inurba_marseille","lat":43.30129,"lon":5.39158,"is_reserved":false,"is_disabled":true,"rental_uris":{"android":"levelo://app?vid=f099973d-7c3c-4c24-a96d-66e53b1f4f14","ios":"levelo://app?vid=f099973d-7c3c-4c24-a96d-66e53b1f4f14"},"vehicle_type_id":"4","last_reported":1773501415,"current_range_meters":32800,"station_id":"","pricing_plan_id":"cebpf4jnsgd1na2vs0mg"},{"bike_id":"81fdc98f-6ff2-4469-a1f9-96ab6be2f633","system_id":"levelo_inurba_marseille","lat":43.276895,"lon":5.38897,"is_reserved":false,"is_disabled":false,"rental_uris":{"android":"levelo://app?vid=81fdc98f-6ff2-4469-a1f9-96ab6be2f633","ios":"levelo://app?vid=81fdc98f-6ff2-4469-a1f9-96ab6be2f633"},"vehicle_type_id":"4","last_reported":1773501415,"current_range_meters":34000,"station_id":"ce4bhi12rcd13ifvqfo0","pricing_plan_id":"cebpf4jnsgd1na2vs0mg"},{"bike_id":"dc55aad2-548c-4bad-93ab-f77886d8d8a8","system_id":"levelo_inurba_marseille","lat":43.30137,"lon":5.43121,"is_reserved":false,"is_disabled":false,"rental_uris":{"android":"levelo://app?vid=dc55aad2-548c-4bad-93ab-f77886d8d8a8","ios":"levelo://app?vid=dc55aad2-548c-4bad-93ab-f77886d8d8a8"},"vehicle_type_id":"4","last_reported":1773501415,"current_range_meters":38000,"station_id":"st_d3js3co5814s73ftftug","pricing_plan_id":"cebpf4jnsgd1na2vs0mg"},{"bike_id":"a4951a30-7084-4efc-835c-7b8db4704dd8","system_id":"levelo_inurba_marseille","lat":43.2695,"lon":5.40243,"is_reserved":false,"is_disabled":false,"rental_uris":{"android":"levelo://app?vid=a4951a30-7084-4efc-835c-7b8db4704dd8","ios":"levelo://app?vid=a4951a30-7084-4efc-835c-7b8db4704dd8"},"vehicle_type_id":"4","last_reported":1773501415,"current_range_meters":39200,"station_id":"cjm6bp8fraef2m0cb0m0","pricing_plan_id":"cebpf4jnsgd1na2vs0mg"},{"bike_id":"c22cc882-ebd7-44c9-bc30-354a308d9518","system_id":"levelo_inurba_marseille","lat":43.29609,"lon":5.37735,"is_reserved":false,"is_disabled":false,"rental_uris":{"android":"levelo://app?vid=c22cc882-ebd7-44c9-bc30-354a308d9518","ios":"levelo://app?vid=c22cc882-ebd7-44c9-bc30-354a308d9518"},"vehicle_type_id":"4","last_reported":1773501415,"current_range_meters":35600,"station_id":"ce4bgi92rcd13ifvqb90","pricing_plan_id":"cebpf4jnsgd1na2vs0mg"},{"bike_id":"505acdb5-557c-4aaa-be09-70eef20776f8","system_id":"levelo_inurba_marseille","lat":43.2994,"lon":5.37455,"is_reserved":false,"is_disabled":false,"rental_uris":{"android":"levelo://app?vid=505acdb5-557c-4aaa-be09-70eef20776f8","ios":"levelo://app?vid=505acdb5-557c-4aaa-be09-70eef20776f8"},"vehicle_type_id":"4","last_reported":1773501415,"current_range_meters":28400,"station_id":"ce4bgjh2rcd13ifvqbg0","pricing_plan_id":"cebpf4jnsgd1na2vs0mg"},{"bike_id":"68909a52-a81a-47d2-a672-452ce92b3e14","system_id":"levelo_inurba_marseille","lat":43.29769,"lon":5.37101,"is_reserved":false,"is_disabled":false,"rental_uris":{"android":"levelo://app?vid=68909a52-a81a-47d2-a672-452ce92b3e14","ios":"levelo://app?vid=68909a52-a81a-47d2-a672-452ce92b3e14"},"vehicle_type_id":"4","last_reported":1773501415,"current_range_meters":8000,"station_id":"ce4bgop2rcd13ifvqc1g","pricing_plan_id":"cebpf4jnsgd1na2vs0mg"},{"bike_id":"6e8cbc55-1efb-4ebc-b70e-2a9253dbdc8a","system_id":"levelo_inurba_marseille","lat":43.30748,"lon":5.42449,"is_reserved":false,"is_disabled":false,"rental_uris":{"android":"levelo://app?vid=6e8cbc55-1efb-4ebc-b70e-2a9253dbdc8a","ios":"levelo://app?vid=6e8cbc55-1efb-4ebc-b70e-2a9253dbdc8a"},"vehicle_type_id":"4","last_reported":1773501415,"current_range_meters":32400,"station_id":"st_cvj6ca6bvosntc0bfgr0","pricing_plan_id":"cebpf4jnsgd1na2vs0mg"},{"bike_id":"e56edbcf-b9b5-432c-a812-fe9279456d4f","system_id":"levelo_inurba_marseille","lat":43.29784,"lon":5.38056,"is_reserved":false,"is_disabled":false,"rental_uris":{"android":"levelo://app?vid=e56edbcf-b9b5-432c-a812-fe9279456d4f","ios":"levelo://app?vid=e56edbcf-b9b5-432c-a812-fe9279456d4f"},"vehicle_type_id":"4","last_reported":1773501415,"current_range_meters":22400,"station_id":"ce4bgip2rcd13ifvqbb0","pricing_plan_id":"cebpf4jnsgd1na2vs0mg"},{"bike_id":"88cb8c7f-0ccd-4a01-91f9-3a530d0e94ef","system_id":"levelo_inurba_marseille","lat":43.28635,"lon":5.35079,"is_reserved":false,"is_disabled":false,"rental_uris":{"android":"levelo://app?vid=88cb8c7f-0ccd-4a01-91f9-3a530d0e94ef","ios":"levelo://app?vid=88cb8c7f-0ccd-4a01-91f9-3a530d0e94ef"},"vehicle_type_id":"4","last_reported":1773501415,"current_range_meters":38800,"station_id":"ce4bhch2rcd13ifvqeug","pricing_plan_id":"cebpf4jnsgd1na2vs0mg"},{"bike_id":"466d5686-152b-40db-b82b-75b5e82313ee","system_id":"levelo_inurba_marseille","lat":43.3014,"lon":5.37408,"is_reserved":false,"is_disabled":false,"rental_uris":{"android":"levelo://app?vid=466d5686-152b-40db-b82b-75b5e82313ee","ios":"levelo://app?vid=466d5686-152b-40db-b82b-75b5e82313ee"},"vehicle_type_id":"4","last_reported":1773501415,"current_range_meters":21600,"station_id":"ce4bgs92rcd13ifvqcc0","pricing_plan_id":"cebpf4jnsgd1na2vs0mg"},{"bike_id":"32358ead-44ff-491d-882b-0c4122b7d796","system_id":"levelo_inurba_marseille","lat":43.21189,"lon":5.35074,"is_reserved":false,"is_disabled":false,"rental_uris":{"android":"levelo://app?vid=32358ead-44ff-491d-882b-0c4122b7d796","ios":"levelo://app?vid=32358ead-44ff-491d-882b-0c4122b7d796"},"vehicle_type_id":"4","last_reported":1773501415,"current_range_meters":4400,"station_id":"st_cvj6sg6p6f1abm77japg","pricing_plan_id":"cebpf4jnsgd1na2vs0mg"},{"bike_id":"22a3e837-7a54-4a6a-b5d3-2e13ccc633ca","system_id":"levelo_inurba_marseille","lat":43.25112,"lon":5.40319,"is_reserved":false,"is_disabled":false,"rental_uris":{"android":"levelo://app?vid=22a3e837-7a54-4a6a-b5d3-2e13ccc633ca","ios":"levelo://app?vid=22a3e837-7a54-4a6a-b5d3-2e13ccc633ca"},"vehicle_type_id":"4","last_reported":1773501415,"current_range_meters":11600,"station_id":"ce4bhlh2rcd13ifvqgig","pricing_plan_id":"cebpf4jnsgd1na2vs0mg"},{"bike_id":"88baf1fe-4b9b-4c52-81f7-dd067c921a9f","system_id":"levelo_inurba_marseille","lat":43.29819,"lon":5.44061,"is_reserved":false,"is_disabled":false,"rental_uris":{"android":"levelo://app?vid=88baf1fe-4b9b-4c52-81f7-dd067c921a9f","ios":"levelo://app?vid=88baf1fe-4b9b-4c52-81f7-dd067c921a9f"},"vehicle_type_id":"4","last_reported":1773501415,"current_range_meters":12800,"station_id":"st_d3jp68qikq2c7381ktn0","pricing_plan_id":"cebpf4jnsgd1na2vs0mg"},{"bike_id":"f1739d55-3e76-4e0d-b185-981885a8712f","system_id":"levelo_inurba_marseille","lat":43.28937,"lon":5.39627,"is_reserved":false,"is_disabled":false,"rental_uris":{"android":"levelo://app?vid=f1739d55-3e76-4e0d-b185-981885a8712f","ios":"levelo://app?vid=f1739d55-3e76-4e0d-b185-981885a8712f"},"vehicle_type_id":"4","last_reported":1773501415,"current_range_meters":24000,"station_id":"ce4bh3h2rcd13ifvqdn0","pricing_plan_id":"cebpf4jnsgd1na2vs0mg"},{"bike_id":"fc490484-a83d-4dbc-a9ca-17596f3ee413","system_id":"levelo_inurba_marseille","lat":43.232,"lon":5.35544,"is_reserved":false,"is_disabled":false,"rental_uris":{"android":"levelo://app?vid=fc490484-a83d-4dbc-a9ca-17596f3ee413","ios":"levelo://app?vid=fc490484-a83d-4dbc-a9ca-17596f3ee413"},"vehicle_type_id":"4","last_reported":1773501415,"current_range_meters":36800,"station_id":"ce4bhu92rcd13ifvqi70","pricing_plan_id":"cebpf4jnsgd1na2vs0mg"},{"bike_id":"2618ca3e-e707-428b-b1b1-6385a7928c0d","system_id":"levelo_inurba_marseille","lat":43.24066,"lon":5.37755,"is_reserved":false,"is_disabled":false,"rental_uris":{"android":"levelo://app?vid=2618ca3e-e707-428b-b1b1-6385a7928c0d","ios":"levelo://app?vid=2618ca3e-e707-428b-b1b1-6385a7928c0d"},"vehicle_type_id":"4","last_reported":1773501415,"current_range_meters":5600,"station_id":"ce4bhnp2rcd13ifvqgvg","pricing_plan_id":"cebpf4jnsgd1na2vs0mg"},{"bike_id":"574389cd-d5f7-4bb8-8e81-3a3b9218fbef","system_id":"levelo_inurba_marseille","lat":43.24164,"lon":5.364,"is_reserved":false,"is_disabled":false,"rental_uris":{"android":"levelo://app?vid=574389cd-d5f7-4bb8-8e81-3a3b9218fbef","ios":"levelo://app?vid=574389cd-d5f7-4bb8-8e81-3a3b9218fbef"},"vehicle_type_id":"4","last_reported":1773501415,"current_range_meters":11600,"station_id":"cpo36qri1sfpv3e86is0","pricing_plan_id":"cebpf4jnsgd1na2vs0mg"},{"bike_id":"4b89016e-4162-40fe-a211-e0b3a395484a","system_id":"levelo_inurba_marseille","lat":43.31331,"lon":5.39714,"is_reserved":false,"is_disabled":false,"rental_uris":{"android":"levelo://app?vid=4b89016e-4162-40fe-a211-e0b3a395484a","ios":"levelo://app?vid=4b89016e-4162-40fe-a211-e0b3a395484a"},"vehicle_type_id":"4","last_reported":1773501415,"current_range_meters":6800,"station_id":"ce4bgvp2rcd13ifvqcu0","pricing_plan_id":"cebpf4jnsgd1na2vs0mg"},{"bike_id":"51698126-ef3f-46b9-9967-577364141b4b","system_id":"levelo_inurba_marseille","lat":43.27315,"lon":5.39088,"is_reserved":false,"is_disabled":false,"rental_uris":{"android":"levelo://app?vid=51698126-ef3f-46b9-9967-577364141b4b","ios":"levelo://app?vid=51698126-ef3f-46b9-9967-577364141b4b"},"vehicle_type_id":"4","last_reported":1773501415,"current_range_meters":25600,"station_id":"ce4bhgp2rcd13ifvqfe0","pricing_plan_id":"cebpf4jnsgd1na2vs0mg"},{"bike_id":"d008a3ca-bdab-43f7-957e-465391a2d48d","system_id":"levelo_inurba_marseille","lat":43.31725,"lon":5.42397,"is_reserved":false,"is_disabled":false,"rental_uris":{"android":"levelo://app?vid=d008a3ca-bdab-43f7-957e-465391a2d48d","ios":"levelo://app?vid=d008a3ca-bdab-43f7-957e-465391a2d48d"},"vehicle_type_id":"4","last_reported":1773501415,"current_range_meters":34800,"station_id":"ce4bhp92rcd13ifvqhbg","pricing_plan_id":"cebpf4jnsgd1na2vs0mg"},{"bike_id":"620ff2af-052e-41b1-a64f-0ec58b0cc2e0","system_id":"levelo_inurba_marseille","lat":43.30517,"lon":5.3652,"is_reserved":false,"is_disabled":false,"rental_uris":{"android":"levelo://app?vid=620ff2af-052e-41b1-a64f-0ec58b0cc2e0","ios":"levelo://app?vid=620ff2af-052e-41b1-a64f-0ec58b0cc2e0"},"vehicle_type_id":"4","last_reported":1773501415,"current_range_meters":26000,"station_id":"","pricing_plan_id":"cebpf4jnsgd1na2vs0mg"},{"bike_id":"ed192828-e48e-4c2d-bad0-d58abf6718d3","system_id":"levelo_inurba_marseille","lat":43.25134,"lon":5.40345,"is_reserved":false,"is_disabled":false,"rental_uris":{"android":"levelo://app?vid=ed192828-e48e-4c2d-bad0-d58abf6718d3","ios":"levelo://app?vid=ed192828-e48e-4c2d-bad0-d58abf6718d3"},"vehicle_type_id":"4","last_reported":1773501415,"current_range_meters":39200,"station_id":"ce4bhlh2rcd13ifvqgig","pricing_plan_id":"cebpf4jnsgd1na2vs0mg"},{"bike_id":"62781773-cd96-4a3e-9647-ab7d51807b63","system_id":"levelo_inurba_marseille","lat":43.29637,"lon":5.37176,"is_reserved":false,"is_disabled":false,"rental_uris":{"android":"levelo://app?vid=62781773-cd96-4a3e-9647-ab7d51807b63","ios":"levelo://app?vid=62781773-cd96-4a3e-9647-ab7d51807b63"},"vehicle_type_id":"4","last_reported":1773501415,"current_range_meters":19200,"station_id":"ce4bgnh2rcd13ifvqc0g","pricing_plan_id":"cebpf4jnsgd1na2vs0mg"},{"bike_id":"2da74aad-d5d0-4aee-be79-0fb398f1f69b","system_id":"levelo_inurba_marseille","lat":43.29785,"lon":5.381,"is_reserved":false,"is_disabled":true,"rental_uris":{"android":"levelo://app?vid=2da74aad-d5d0-4aee-be79-0fb398f1f69b","ios":"levelo://app?vid=2da74aad-d5d0-4aee-be79-0fb398f1f69b"},"vehicle_type_id":"4","last_reported":1773501415,"current_range_meters":27600,"station_id":"ce4bgip2rcd13ifvqbb0","pricing_plan_id":"cebpf4jnsgd1na2vs0mg"},{"bike_id":"3b54169a-0f94-4192-a382-4816db848351","system_id":"levelo_inurba_marseille","lat":43.28473,"lon":5.38428,"is_reserved":false,"is_disabled":false,"rental_uris":{"android":"levelo://app?vid=3b54169a-0f94-4192-a382-4816db848351","ios":"levelo://app?vid=3b54169a-0f94-4192-a382-4816db848351"},"vehicle_type_id":"4","last_reported":1773501415,"current_range_meters":39200,"station_id":"ce4bh512rcd13ifvqe3g","pricing_plan_id":"cebpf4jnsgd1na2vs0mg"},{"bike_id":"95c0353e-1f33-4d1b-8336-9e50cf81fcb2","system_id":"levelo_inurba_marseille","lat":43.26016,"lon":5.37545,"is_reserved":false,"is_disabled":false,"rental_uris":{"android":"levelo://app?vid=95c0353e-1f33-4d1b-8336-9e50cf81fcb2","ios":"levelo://app?vid=95c0353e-1f33-4d1b-8336-9e50cf81fcb2"},"vehicle_type_id":"4","last_reported":1773501415,"current_range_meters":39200,"station_id":"ce4bhgh2rcd13ifvqfa0","pricing_plan_id":"cebpf4jnsgd1na2vs0mg"},{"bike_id":"b38179ff-f147-48ed-818f-48e396304eb5","system_id":"levelo_inurba_marseille","lat":43.31484,"lon":5.37308,"is_reserved":false,"is_disabled":false,"rental_uris":{"android":"levelo://app?vid=b38179ff-f147-48ed-818f-48e396304eb5","ios":"levelo://app?vid=b38179ff-f147-48ed-818f-48e396304eb5"},"vehicle_type_id":"4","last_reported":1773501415,"current_range_meters":34000,"station_id":"ce4bgt12rcd13ifvqcd0","pricing_plan_id":"cebpf4jnsgd1na2vs0mg"},{"bike_id":"3d6179b6-b8f1-48d8-ba0b-8479d3a7b785","system_id":"levelo_inurba_marseille","lat":43.29288,"lon":5.37447,"is_reserved":false,"is_disabled":false,"rental_uris":{"android":"levelo://app?vid=3d6179b6-b8f1-48d8-ba0b-8479d3a7b785","ios":"levelo://app?vid=3d6179b6-b8f1-48d8-ba0b-8479d3a7b785"},"vehicle_type_id":"4","last_reported":1773501415,"current_range_meters":24000,"station_id":"ce4bgi12rcd13ifvqb70","pricing_plan_id":"cebpf4jnsgd1na2vs0mg"},{"bike_id":"57bb4d9e-d4d4-4990-bab6-6d06f315dddc","system_id":"levelo_inurba_marseille","lat":43.30114,"lon":5.37452,"is_reserved":false,"is_disabled":false,"rental_uris":{"android":"levelo://app?vid=57bb4d9e-d4d4-4990-bab6-6d06f315dddc","ios":"levelo://app?vid=57bb4d9e-d4d4-4990-bab6-6d06f315dddc"},"vehicle_type_id":"4","last_reported":1773501415,"current_range_meters":37600,"station_id":"ce4bgs92rcd13ifvqcc0","pricing_plan_id":"cebpf4jnsgd1na2vs0mg"},{"bike_id":"2bab96cf-f3bd-4d1e-9a10-e0bfbf596746","system_id":"levelo_inurba_marseille","lat":43.23176,"lon":5.39991,"is_reserved":false,"is_disabled":false,"rental_uris":{"android":"levelo://app?vid=2bab96cf-f3bd-4d1e-9a10-e0bfbf596746","ios":"levelo://app?vid=2bab96cf-f3bd-4d1e-9a10-e0bfbf596746"},"vehicle_type_id":"4","last_reported":1773501415,"current_range_meters":30800,"station_id":"ce4bhn12rcd13ifvqgqg","pricing_plan_id":"cebpf4jnsgd1na2vs0mg"},{"bike_id":"ef364c26-b12f-4ac2-8385-acdb623c591d","system_id":"levelo_inurba_marseille","lat":43.22553,"lon":5.41634,"is_reserved":false,"is_disabled":false,"rental_uris":{"android":"levelo://app?vid=ef364c26-b12f-4ac2-8385-acdb623c591d","ios":"levelo://app?vid=ef364c26-b12f-4ac2-8385-acdb623c591d"},"vehicle_type_id":"4","last_reported":1773501415,"current_range_meters":13600,"station_id":"st_d2o4gvlbi1j2169b742g","pricing_plan_id":"cebpf4jnsgd1na2vs0mg"},{"bike_id":"1f6349b5-213e-4c70-8847-e120f033f762","system_id":"levelo_inurba_marseille","lat":43.31883,"lon":5.40714,"is_reserved":false,"is_disabled":false,"rental_uris":{"android":"levelo://app?vid=1f6349b5-213e-4c70-8847-e120f033f762","ios":"levelo://app?vid=1f6349b5-213e-4c70-8847-e120f033f762"},"vehicle_type_id":"4","last_reported":1773501415,"current_range_meters":39200,"station_id":"ce4bhq12rcd13ifvqhig","pricing_plan_id":"cebpf4jnsgd1na2vs0mg"},{"bike_id":"ec053d37-15de-4341-bd19-aaf0f39acc51","system_id":"levelo_inurba_marseille","lat":43.320282,"lon":5.415653,"is_reserved":false,"is_disabled":false,"rental_uris":{"android":"levelo://app?vid=ec053d37-15de-4341-bd19-aaf0f39acc51","ios":"levelo://app?vid=ec053d37-15de-4341-bd19-aaf0f39acc51"},"vehicle_type_id":"4","last_reported":1773501415,"current_range_meters":35600,"station_id":"ce4bhq92rcd13ifvqhkg","pricing_plan_id":"cebpf4jnsgd1na2vs0mg"},{"bike_id":"a5d08093-6eaa-43fc-91f4-d63e60f6890d","system_id":"levelo_inurba_marseille","lat":43.2655,"lon":5.3728,"is_reserved":false,"is_disabled":false,"rental_uris":{"android":"levelo://app?vid=a5d08093-6eaa-43fc-91f4-d63e60f6890d","ios":"levelo://app?vid=a5d08093-6eaa-43fc-91f4-d63e60f6890d"},"vehicle_type_id":"4","last_reported":1773501415,"current_range_meters":4800,"station_id":"ce4bhg12rcd13ifvqf70","pricing_plan_id":"cebpf4jnsgd1na2vs0mg"},{"bike_id":"8617b24d-bdd2-49e3-beda-5d74fc474252","system_id":"levelo_inurba_marseille","lat":43.28476,"lon":5.48403,"is_reserved":false,"is_disabled":false,"rental_uris":{"android":"levelo://app?vid=8617b24d-bdd2-49e3-beda-5d74fc474252","ios":"levelo://app?vid=8617b24d-bdd2-49e3-beda-5d74fc474252"},"vehicle_type_id":"4","last_reported":1773501415,"current_range_meters":27200,"station_id":"","pricing_plan_id":"cebpf4jnsgd1na2vs0mg"},{"bike_id":"75f1146b-b27c-4ee4-85c5-6d1e00364ea7","system_id":"levelo_inurba_marseille","lat":43.24958,"lon":5.40517,"is_reserved":false,"is_disabled":false,"rental_uris":{"android":"levelo://app?vid=75f1146b-b27c-4ee4-85c5-6d1e00364ea7","ios":"levelo://app?vid=75f1146b-b27c-4ee4-85c5-6d1e00364ea7"},"vehicle_type_id":"4","last_reported":1773501415,"current_range_meters":13600,"station_id":"st_d2ngiaodas8pm72gd1h0","pricing_plan_id":"cebpf4jnsgd1na2vs0mg"},{"bike_id":"75f14208-a968-40dc-80f8-68b063e0d714","system_id":"levelo_inurba_marseille","lat":43.23159,"lon":5.43697,"is_reserved":false,"is_disabled":false,"rental_uris":{"android":"levelo://app?vid=75f14208-a968-40dc-80f8-68b063e0d714","ios":"levelo://app?vid=75f14208-a968-40dc-80f8-68b063e0d714"},"vehicle_type_id":"4","last_reported":1773501415,"current_range_meters":10800,"station_id":"ce4bhmp2rcd13ifvqgog","pricing_plan_id":"cebpf4jnsgd1na2vs0mg"},{"bike_id":"5171781a-4c7f-4561-ae84-4a776dd83173","system_id":"levelo_inurba_marseille","lat":43.29552,"lon":5.37515,"is_reserved":false,"is_disabled":false,"rental_uris":{"android":"levelo://app?vid=5171781a-4c7f-4561-ae84-4a776dd83173","ios":"levelo://app?vid=5171781a-4c7f-4561-ae84-4a776dd83173"},"vehicle_type_id":"4","last_reported":1773501415,"current_range_meters":39200,"station_id":"ce4bgkp2rcd13ifvqbmg","pricing_plan_id":"cebpf4jnsgd1na2vs0mg"},{"bike_id":"4a09330b-b9bf-424e-8693-aafe00acb3cd","system_id":"levelo_inurba_marseille","lat":43.29569,"lon":5.42298,"is_reserved":false,"is_disabled":false,"rental_uris":{"android":"levelo://app?vid=4a09330b-b9bf-424e-8693-aafe00acb3cd","ios":"levelo://app?vid=4a09330b-b9bf-424e-8693-aafe00acb3cd"},"vehicle_type_id":"4","last_reported":1773501415,"current_range_meters":35600,"station_id":"ce4bhph2rcd13ifvqhdg","pricing_plan_id":"cebpf4jnsgd1na2vs0mg"},{"bike_id":"e0f4c726-c891-4b59-a727-5f7bf2fb4325","system_id":"levelo_inurba_marseille","lat":43.2855,"lon":5.4408,"is_reserved":false,"is_disabled":false,"rental_uris":{"android":"levelo://app?vid=e0f4c726-c891-4b59-a727-5f7bf2fb4325","ios":"levelo://app?vid=e0f4c726-c891-4b59-a727-5f7bf2fb4325"},"vehicle_type_id":"4","last_reported":1773501415,"current_range_meters":38400,"station_id":"st_d3j3df2ikq2c7380ej80","pricing_plan_id":"cebpf4jnsgd1na2vs0mg"},{"bike_id":"043cb6ab-09fe-43b5-876c-f65533ee2b8e","system_id":"levelo_inurba_marseille","lat":43.24663,"lon":5.38176,"is_reserved":false,"is_disabled":false,"rental_uris":{"android":"levelo://app?vid=043cb6ab-09fe-43b5-876c-f65533ee2b8e","ios":"levelo://app?vid=043cb6ab-09fe-43b5-876c-f65533ee2b8e"},"vehicle_type_id":"4","last_reported":1773501415,"current_range_meters":15200,"station_id":"ce4bhih2rcd13ifvqfr0","pricing_plan_id":"cebpf4jnsgd1na2vs0mg"},{"bike_id":"3d4208c2-815f-40bf-8bb0-f78b87ee07d6","system_id":"levelo_inurba_marseille","lat":43.28401,"lon":5.34986,"is_reserved":false,"is_disabled":false,"rental_uris":{"android":"levelo://app?vid=3d4208c2-815f-40bf-8bb0-f78b87ee07d6","ios":"levelo://app?vid=3d4208c2-815f-40bf-8bb0-f78b87ee07d6"},"vehicle_type_id":"4","last_reported":1773501415,"current_range_meters":36000,"station_id":"ce4bhbh2rcd13ifvqepg","pricing_plan_id":"cebpf4jnsgd1na2vs0mg"},{"bike_id":"6c1ab70e-6e48-45e1-a5b5-d2f8fc926d21","system_id":"levelo_inurba_marseille","lat":43.29974,"lon":5.37189,"is_reserved":false,"is_disabled":false,"rental_uris":{"android":"levelo://app?vid=6c1ab70e-6e48-45e1-a5b5-d2f8fc926d21","ios":"levelo://app?vid=6c1ab70e-6e48-45e1-a5b5-d2f8fc926d21"},"vehicle_type_id":"4","last_reported":1773501415,"current_range_meters":38400,"station_id":"ce4bgr92rcd13ifvqc7g","pricing_plan_id":"cebpf4jnsgd1na2vs0mg"},{"bike_id":"b129dd58-1611-46d1-8998-00763fbad8df","system_id":"levelo_inurba_marseille","lat":43.30069,"lon":5.417,"is_reserved":false,"is_disabled":false,"rental_uris":{"android":"levelo://app?vid=b129dd58-1611-46d1-8998-00763fbad8df","ios":"levelo://app?vid=b129dd58-1611-46d1-8998-00763fbad8df"},"vehicle_type_id":"4","last_reported":1773501415,"current_range_meters":34800,"station_id":"","pricing_plan_id":"cebpf4jnsgd1na2vs0mg"},{"bike_id":"155725a2-4e9c-4e7c-942b-f2b8be31f206","system_id":"levelo_inurba_marseille","lat":43.21743,"lon":5.346,"is_reserved":false,"is_disabled":false,"rental_uris":{"android":"levelo://app?vid=155725a2-4e9c-4e7c-942b-f2b8be31f206","ios":"levelo://app?vid=155725a2-4e9c-4e7c-942b-f2b8be31f206"},"vehicle_type_id":"4","last_reported":1773501415,"current_range_meters":8000,"station_id":"st_cvj6r9ubvosntc0bgbag","pricing_plan_id":"cebpf4jnsgd1na2vs0mg"},{"bike_id":"5b9c3f93-1599-4fd0-b513-558b424405ce","system_id":"levelo_inurba_marseille","lat":43.3249,"lon":5.36572,"is_reserved":false,"is_disabled":false,"rental_uris":{"android":"levelo://app?vid=5b9c3f93-1599-4fd0-b513-558b424405ce","ios":"levelo://app?vid=5b9c3f93-1599-4fd0-b513-558b424405ce"},"vehicle_type_id":"4","last_reported":1773501415,"current_range_meters":39200,"station_id":"ce4bhs12rcd13ifvqhvg","pricing_plan_id":"cebpf4jnsgd1na2vs0mg"},{"bike_id":"56fddcda-c541-44a5-8391-f7fbf087f4ed","system_id":"levelo_inurba_marseille","lat":43.22559,"lon":5.41614,"is_reserved":false,"is_disabled":false,"rental_uris":{"android":"levelo://app?vid=56fddcda-c541-44a5-8391-f7fbf087f4ed","ios":"levelo://app?vid=56fddcda-c541-44a5-8391-f7fbf087f4ed"},"vehicle_type_id":"4","last_reported":1773501415,"current_range_meters":38400,"station_id":"st_d2o4gvlbi1j2169b742g","pricing_plan_id":"cebpf4jnsgd1na2vs0mg"},{"bike_id":"6de2338b-bc98-4ec6-8f36-63911b8deee6","system_id":"levelo_inurba_marseille","lat":43.30132,"lon":5.3809,"is_reserved":false,"is_disabled":false,"rental_uris":{"android":"levelo://app?vid=6de2338b-bc98-4ec6-8f36-63911b8deee6","ios":"levelo://app?vid=6de2338b-bc98-4ec6-8f36-63911b8deee6"},"vehicle_type_id":"4","last_reported":1773501415,"current_range_meters":9200,"station_id":"ce4bgjp2rcd13ifvqbh0","pricing_plan_id":"cebpf4jnsgd1na2vs0mg"},{"bike_id":"3c269094-2ef0-490c-a9ac-3cda7cb6e417","system_id":"levelo_inurba_marseille","lat":43.29292,"lon":5.37171,"is_reserved":false,"is_disabled":false,"rental_uris":{"android":"levelo://app?vid=3c269094-2ef0-490c-a9ac-3cda7cb6e417","ios":"levelo://app?vid=3c269094-2ef0-490c-a9ac-3cda7cb6e417"},"vehicle_type_id":"4","last_reported":1773501415,"current_range_meters":10000,"station_id":"ce4bgh92rcd13ifvqb40","pricing_plan_id":"cebpf4jnsgd1na2vs0mg"},{"bike_id":"fde143c4-7b92-483d-af2a-91c861b8bf34","system_id":"levelo_inurba_marseille","lat":43.27964,"lon":5.38712,"is_reserved":false,"is_disabled":false,"rental_uris":{"android":"levelo://app?vid=fde143c4-7b92-483d-af2a-91c861b8bf34","ios":"levelo://app?vid=fde143c4-7b92-483d-af2a-91c861b8bf34"},"vehicle_type_id":"4","last_reported":1773501415,"current_range_meters":17600,"station_id":"ce4bhg12rcd13ifvqf80","pricing_plan_id":"cebpf4jnsgd1na2vs0mg"},{"bike_id":"d213d92d-5289-4183-93be-f84e36b07244","system_id":"levelo_inurba_marseille","lat":43.28995,"lon":5.35609,"is_reserved":false,"is_disabled":false,"rental_uris":{"android":"levelo://app?vid=d213d92d-5289-4183-93be-f84e36b07244","ios":"levelo://app?vid=d213d92d-5289-4183-93be-f84e36b07244"},"vehicle_type_id":"4","last_reported":1773501415,"current_range_meters":26800,"station_id":"ce4bhb92rcd13ifvqen0","pricing_plan_id":"cebpf4jnsgd1na2vs0mg"},{"bike_id":"510fa626-a59b-4f64-b4b9-52f8dea898f8","system_id":"levelo_inurba_marseille","lat":43.29523,"lon":5.37504,"is_reserved":false,"is_disabled":false,"rental_uris":{"android":"levelo://app?vid=510fa626-a59b-4f64-b4b9-52f8dea898f8","ios":"levelo://app?vid=510fa626-a59b-4f64-b4b9-52f8dea898f8"},"vehicle_type_id":"4","last_reported":1773501415,"current_range_meters":39200,"station_id":"ce4bgkp2rcd13ifvqbmg","pricing_plan_id":"cebpf4jnsgd1na2vs0mg"},{"bike_id":"64303c33-dd0e-4058-88f1-4ad1fe4b8f6f","system_id":"levelo_inurba_marseille","lat":43.29933,"lon":5.3747,"is_reserved":false,"is_disabled":false,"rental_uris":{"android":"levelo://app?vid=64303c33-dd0e-4058-88f1-4ad1fe4b8f6f","ios":"levelo://app?vid=64303c33-dd0e-4058-88f1-4ad1fe4b8f6f"},"vehicle_type_id":"4","last_reported":1773501415,"current_range_meters":20800,"station_id":"ce4bgjh2rcd13ifvqbg0","pricing_plan_id":"cebpf4jnsgd1na2vs0mg"},{"bike_id":"4223d7a4-dd77-4487-9c42-66e40698426b","system_id":"levelo_inurba_marseille","lat":43.26235,"lon":5.37423,"is_reserved":false,"is_disabled":false,"rental_uris":{"android":"levelo://app?vid=4223d7a4-dd77-4487-9c42-66e40698426b","ios":"levelo://app?vid=4223d7a4-dd77-4487-9c42-66e40698426b"},"vehicle_type_id":"4","last_reported":1773501415,"current_range_meters":32000,"station_id":"ce4bhgp2rcd13ifvqfc0","pricing_plan_id":"cebpf4jnsgd1na2vs0mg"},{"bike_id":"df722087-d85d-4fcf-980f-e590dcc93d7d","system_id":"levelo_inurba_marseille","lat":43.3054,"lon":5.36544,"is_reserved":false,"is_disabled":false,"rental_uris":{"android":"levelo://app?vid=df722087-d85d-4fcf-980f-e590dcc93d7d","ios":"levelo://app?vid=df722087-d85d-4fcf-980f-e590dcc93d7d"},"vehicle_type_id":"4","last_reported":1773501415,"current_range_meters":32800,"station_id":"ce4bgs12rcd13ifvqcag","pricing_plan_id":"cebpf4jnsgd1na2vs0mg"},{"bike_id":"378008cb-af5a-4fbc-8292-b209b164483f","system_id":"levelo_inurba_marseille","lat":43.29761,"lon":5.37704,"is_reserved":false,"is_disabled":false,"rental_uris":{"android":"levelo://app?vid=378008cb-af5a-4fbc-8292-b209b164483f","ios":"levelo://app?vid=378008cb-af5a-4fbc-8292-b209b164483f"},"vehicle_type_id":"4","last_reported":1773501415,"current_range_meters":38400,"station_id":"","pricing_plan_id":"cebpf4jnsgd1na2vs0mg"},{"bike_id":"7b4f3785-c03f-4f66-b614-089b31933102","system_id":"levelo_inurba_marseille","lat":43.2397,"lon":5.36614,"is_reserved":false,"is_disabled":false,"rental_uris":{"android":"levelo://app?vid=7b4f3785-c03f-4f66-b614-089b31933102","ios":"levelo://app?vid=7b4f3785-c03f-4f66-b614-089b31933102"},"vehicle_type_id":"4","last_reported":1773501415,"current_range_meters":31200,"station_id":"ce4bhi12rcd13ifvqfp0","pricing_plan_id":"cebpf4jnsgd1na2vs0mg"},{"bike_id":"7d3927c8-a0ff-4116-b54d-e2222e2625be","system_id":"levelo_inurba_marseille","lat":43.29702,"lon":5.3729,"is_reserved":false,"is_disabled":false,"rental_uris":{"android":"levelo://app?vid=7d3927c8-a0ff-4116-b54d-e2222e2625be","ios":"levelo://app?vid=7d3927c8-a0ff-4116-b54d-e2222e2625be"},"vehicle_type_id":"4","last_reported":1773501415,"current_range_meters":32000,"station_id":"ce4bgk12rcd13ifvqbj0","pricing_plan_id":"cebpf4jnsgd1na2vs0mg"},{"bike_id":"242e55c9-ac4f-4aec-81c1-865b2142177b","system_id":"levelo_inurba_marseille","lat":43.229258,"lon":5.353739,"is_reserved":false,"is_disabled":false,"rental_uris":{"android":"levelo://app?vid=242e55c9-ac4f-4aec-81c1-865b2142177b","ios":"levelo://app?vid=242e55c9-ac4f-4aec-81c1-865b2142177b"},"vehicle_type_id":"4","last_reported":1773501415,"current_range_meters":10800,"station_id":"cpo3532slgdg3j2ikp40","pricing_plan_id":"cebpf4jnsgd1na2vs0mg"},{"bike_id":"9e663960-b898-4d9b-b3fc-cc012c944d0f","system_id":"levelo_inurba_marseille","lat":43.30305,"lon":5.3689,"is_reserved":false,"is_disabled":false,"rental_uris":{"android":"levelo://app?vid=9e663960-b898-4d9b-b3fc-cc012c944d0f","ios":"levelo://app?vid=9e663960-b898-4d9b-b3fc-cc012c944d0f"},"vehicle_type_id":"4","last_reported":1773501415,"current_range_meters":36400,"station_id":"ce4bgqh2rcd13ifvqc5g","pricing_plan_id":"cebpf4jnsgd1na2vs0mg"},{"bike_id":"ac325101-b5a7-4f5d-9bc7-aba501847b2e","system_id":"levelo_inurba_marseille","lat":43.27371,"lon":5.3626,"is_reserved":false,"is_disabled":true,"rental_uris":{"android":"levelo://app?vid=ac325101-b5a7-4f5d-9bc7-aba501847b2e","ios":"levelo://app?vid=ac325101-b5a7-4f5d-9bc7-aba501847b2e"},"vehicle_type_id":"4","last_reported":1773501415,"current_range_meters":39200,"station_id":"ce4bhbh2rcd13ifvqeo0","pricing_plan_id":"cebpf4jnsgd1na2vs0mg"},{"bike_id":"cffdf26c-1919-4029-87b5-8b45a2bc0447","system_id":"levelo_inurba_marseille","lat":43.29579,"lon":5.36737,"is_reserved":false,"is_disabled":true,"rental_uris":{"android":"levelo://app?vid=cffdf26c-1919-4029-87b5-8b45a2bc0447","ios":"levelo://app?vid=cffdf26c-1919-4029-87b5-8b45a2bc0447"},"vehicle_type_id":"4","last_reported":1773501415,"current_range_meters":39200,"station_id":"ce4bgph2rcd13ifvqc2g","pricing_plan_id":"cebpf4jnsgd1na2vs0mg"},{"bike_id":"1862ef9b-e928-487d-ac03-0e1b254ff476","system_id":"levelo_inurba_marseille","lat":43.29575,"lon":5.37497,"is_reserved":false,"is_disabled":false,"rental_uris":{"android":"levelo://app?vid=1862ef9b-e928-487d-ac03-0e1b254ff476","ios":"levelo://app?vid=1862ef9b-e928-487d-ac03-0e1b254ff476"},"vehicle_type_id":"4","last_reported":1773501415,"current_range_meters":4400,"station_id":"ce4bgh92rcd13ifvqb50","pricing_plan_id":"cebpf4jnsgd1na2vs0mg"},{"bike_id":"cb969723-c1c1-4dae-93f6-1fb61cdfb887","system_id":"levelo_inurba_marseille","lat":43.23793,"lon":5.36614,"is_reserved":false,"is_disabled":false,"rental_uris":{"android":"levelo://app?vid=cb969723-c1c1-4dae-93f6-1fb61cdfb887","ios":"levelo://app?vid=cb969723-c1c1-4dae-93f6-1fb61cdfb887"},"vehicle_type_id":"4","last_reported":1773501415,"current_range_meters":30400,"station_id":"st_d3nk18o9ro0c73en2l3g","pricing_plan_id":"cebpf4jnsgd1na2vs0mg"},{"bike_id":"b55e7dd1-4091-4cd0-9b33-d385b7f63602","system_id":"levelo_inurba_marseille","lat":43.26546,"lon":5.37294,"is_reserved":false,"is_disabled":false,"rental_uris":{"android":"levelo://app?vid=b55e7dd1-4091-4cd0-9b33-d385b7f63602","ios":"levelo://app?vid=b55e7dd1-4091-4cd0-9b33-d385b7f63602"},"vehicle_type_id":"4","last_reported":1773501415,"current_range_meters":39200,"station_id":"ce4bhg12rcd13ifvqf70","pricing_plan_id":"cebpf4jnsgd1na2vs0mg"},{"bike_id":"6840f6df-3461-42c8-98d7-357f6584e26f","system_id":"levelo_inurba_marseille","lat":43.27374,"lon":5.36258,"is_reserved":false,"is_disabled":false,"rental_uris":{"android":"levelo://app?vid=6840f6df-3461-42c8-98d7-357f6584e26f","ios":"levelo://app?vid=6840f6df-3461-42c8-98d7-357f6584e26f"},"vehicle_type_id":"4","last_reported":1773501415,"current_range_meters":36000,"station_id":"ce4bhbh2rcd13ifvqeo0","pricing_plan_id":"cebpf4jnsgd1na2vs0mg"},{"bike_id":"573a49d0-b5e7-4555-a348-021fa2a24e33","system_id":"levelo_inurba_marseille","lat":43.27925,"lon":5.38714,"is_reserved":false,"is_disabled":false,"rental_uris":{"android":"levelo://app?vid=573a49d0-b5e7-4555-a348-021fa2a24e33","ios":"levelo://app?vid=573a49d0-b5e7-4555-a348-021fa2a24e33"},"vehicle_type_id":"4","last_reported":1773501415,"current_range_meters":31200,"station_id":"","pricing_plan_id":"cebpf4jnsgd1na2vs0mg"},{"bike_id":"ccb4939a-db67-4e58-97af-0628a81e8654","system_id":"levelo_inurba_marseille","lat":43.28278,"lon":5.35062,"is_reserved":false,"is_disabled":false,"rental_uris":{"android":"levelo://app?vid=ccb4939a-db67-4e58-97af-0628a81e8654","ios":"levelo://app?vid=ccb4939a-db67-4e58-97af-0628a81e8654"},"vehicle_type_id":"4","last_reported":1773501415,"current_range_meters":32800,"station_id":"ce4bhbp2rcd13ifvqerg","pricing_plan_id":"cebpf4jnsgd1na2vs0mg"},{"bike_id":"13b759af-9f39-4385-b233-8157f102d0b7","system_id":"levelo_inurba_marseille","lat":43.23964,"lon":5.36624,"is_reserved":false,"is_disabled":false,"rental_uris":{"android":"levelo://app?vid=13b759af-9f39-4385-b233-8157f102d0b7","ios":"levelo://app?vid=13b759af-9f39-4385-b233-8157f102d0b7"},"vehicle_type_id":"4","last_reported":1773501415,"current_range_meters":39200,"station_id":"ce4bhi12rcd13ifvqfp0","pricing_plan_id":"cebpf4jnsgd1na2vs0mg"},{"bike_id":"ccbbfdc0-227e-4f9a-abda-4b98116a3dd5","system_id":"levelo_inurba_marseille","lat":43.28006,"lon":5.40017,"is_reserved":false,"is_disabled":false,"rental_uris":{"android":"levelo://app?vid=ccbbfdc0-227e-4f9a-abda-4b98116a3dd5","ios":"levelo://app?vid=ccbbfdc0-227e-4f9a-abda-4b98116a3dd5"},"vehicle_type_id":"4","last_reported":1773501415,"current_range_meters":39200,"station_id":"ce4bho92rcd13ifvqh4g","pricing_plan_id":"cebpf4jnsgd1na2vs0mg"},{"bike_id":"ce85a082-729f-4db7-99c1-d945817661a9","system_id":"levelo_inurba_marseille","lat":43.29591,"lon":5.36743,"is_reserved":false,"is_disabled":false,"rental_uris":{"android":"levelo://app?vid=ce85a082-729f-4db7-99c1-d945817661a9","ios":"levelo://app?vid=ce85a082-729f-4db7-99c1-d945817661a9"},"vehicle_type_id":"4","last_reported":1773501415,"current_range_meters":36800,"station_id":"ce4bgph2rcd13ifvqc2g","pricing_plan_id":"cebpf4jnsgd1na2vs0mg"},