{"last_updated":1743682789,"ttl":60,"version":"2.2","data":{"bikes":[{"bike_id":"a7b4c36d-3382-4daa-a198-f7c879d5894b","system_id":"levelo_inurba_marseille","lat":43.30479,"lon":5.37902,"is_reserved":false,"is_disabled":false,"rental_uris":{"android":"levelo://app?vid=a7b4c36d-3382-4daa-a198-f7c879d5894b","ios":"levelo://app?vid=a7b4c36d-3382-4daa-a198-f7c879d5894b"},"vehicle_type_id":"4","last_reported":1743682790,"current_range_meters":2800,"station_id":"ce4bgup2rcd13ifvqcn0","pricing_plan_id":"cebpf4jnsgd1na2vs0mg"},{"bike_id":"2ee4137b-52bd-4d3d-90de-90bf79171a3f","system_id":"levelo_inurba_marseille","lat":43.29885,"lon":5.38918,"is_reserved":false,"is_disabled":false,"rental_uris":{"android":"levelo://app?vid=2ee4137b-52bd-4d3d-90de-90bf79171a3f","ios":"levelo://app?vid=2ee4137b-52bd-4d3d-90de-90bf79171a3f"},"vehicle_type_id":"4","last_reported":1743682790,"current_range_meters":2800,"station_id":"ce4bh392rcd13ifvqdl0","pricing_plan_id":"cebpf4jnsgd1na2vs0mg"},{"bike_id":"d96ec732-cec8-4c92-b336-aab453d77ece","system_id":"levelo_inurba_marseille","lat":43.28352,"lon":5.38109,"is_reserved":false,"is_disabled":false,"rental_uris":{"android":"levelo://app?vid=d96ec732-cec8-4c92-b336-aab453d77ece","ios":"levelo://app?vid=d96ec732-cec8-4c92-b336-aab453d77ece"},"vehicle_type_id":"4","last_reported":1743682790,"current_range_meters":2800,"station_id":"ce4bh412rcd13ifvqdr0","pricing_plan_id":"cebpf4jnsgd1na2vs0mg"},{"bike_id":"36916775-d467-4524-9ea1-1af7ce353bf4","system_id":"levelo_inurba_marseille","lat":43.26573,"lon":5.39006,"is_reserved":false,"is_disabled":false,"rental_uris":{"android":"levelo://app?vid=36916775-d467-4524-9ea1-1af7ce353bf4","ios":"levelo://app?vid=36916775-d467-4524-9ea1-1af7ce353bf4"},"vehicle_type_id":"4","last_reported":1743682790,"current_range_meters":2800,"station_id":"ce4bhe12rcd13ifvqf30","pricing_plan_id":"cebpf4jnsgd1na2vs0mg"},{"bike_id":"97896511-69ea-46eb-be23-6e4cbf1927e9","system_id":"levelo_inurba_marseille","lat":43.24072,"lon":5.37761,"is_reserved":false,"is_disabled":false,"rental_uris":{"android":"levelo://app?vid=97896511-69ea-46eb-be23-6e4cbf1927e9","ios":"levelo://app?vid=97896511-69ea-46eb-be23-6e4cbf1927e9"},"vehicle_type_id":"4","last_reported":1743682790,"current_range_meters":2800,"station_id":"ce4bhnp2rcd13ifvqgvg","pricing_plan_id":"cebpf4jnsgd1na2vs0mg"},{"bike_id":"ec5dbb43-20ac-4b10-86a8-7554f941fbc5","system_id":"levelo_inurba_marseille","lat":43.292,"lon":5.39325,"is_reserved":false,"is_disabled":false,"rental_uris":{"android":"levelo://app?vid=ec5dbb43-20ac-4b10-86a8-7554f941fbc5","ios":"levelo://app?vid=ec5dbb43-20ac-4b10-86a8-7554f941fbc5"},"vehicle_type_id":"4","last_reported":1743682790,"current_range_meters":3200,"station_id":"ce4bh192rcd13ifvqdd0","pricing_plan_id":"cebpf4jnsgd1na2vs0mg"},{"bike_id":"f8e97187-07b3-4b1d-99a0-1a04a366c43c","system_id":"levelo_inurba_marseille","lat":43.25727,"lon":5.41117,"is_reserved":false,"is_disabled":false,"rental_uris":{"android":"levelo://app?vid=f8e97187-07b3-4b1d-99a0-1a04a366c43c","ios":"levelo://app?vid=f8e97187-07b3-4b1d-99a0-1a04a366c43c"},"vehicle_type_id":"4","last_reported":1743682790,"current_range_meters":3200,"station_id":"ce4bhkp2rcd13ifvqgd0","pricing_plan_id":"cebpf4jnsgd1na2vs0mg"},{"bike_id":"48c63911-059b-467a-bc1e-aae060a83a98","system_id":"levelo_inurba_marseille","lat":43.298,"lon":5.38096,"is_reserved":false,"is_disabled":false,"rental_uris":{"android":"levelo://app?vid=48c63911-059b-467a-bc1e-aae060a83a98","ios":"levelo://app?vid=48c63911-059b-467a-bc1e-aae060a83a98"},"vehicle_type_id":"4","last_reported":1743682790,"current_range_meters":3600,"station_id":"ce4bgip2rcd13ifvqbb0","pricing_plan_id":"cebpf4jnsgd1na2vs0mg"},{"bike_id":"de66f069-4686-4c41-9577-ab3d692da3f7","system_id":"levelo_inurba_marseille","lat":43.30085,"lon":5.38997,"is_reserved":false,"is_disabled":false,"rental_uris":{"android":"levelo://app?vid=de66f069-4686-4c41-9577-ab3d692da3f7","ios":"levelo://app?vid=de66f069-4686-4c41-9577-ab3d692da3f7"},"vehicle_type_id":"4","last_reported":1743682790,"current_range_meters":3600,"station_id":"","pricing_plan_id":"cebpf4jnsgd1na2vs0mg"},{"bike_id":"0822350f-ef7d-4906-bf0f-779af7f8d443","system_id":"levelo_inurba_marseille","lat":43.29207,"lon":5.39327,"is_reserved":false,"is_disabled":false,"rental_uris":{"android":"levelo://app?vid=0822350f-ef7d-4906-bf0f-779af7f8d443","ios":"levelo://app?vid=0822350f-ef7d-4906-bf0f-779af7f8d443"},"vehicle_type_id":"4","last_reported":1743682790,"current_range_meters":3600,"station_id":"ce4bh192rcd13ifvqdd0","pricing_plan_id":"cebpf4jnsgd1na2vs0mg"},{"bike_id":"b229288d-4168-49e5-81c8-70fd00f1dab8","system_id":"levelo_inurba_marseille","lat":43.3065,"lon":5.40087,"is_reserved":false,"is_disabled":false,"rental_uris":{"android":"levelo://app?vid=b229288d-4168-49e5-81c8-70fd00f1dab8","ios":"levelo://app?vid=b229288d-4168-49e5-81c8-70fd00f1dab8"},"vehicle_type_id":"4","last_reported":1743682790,"current_range_meters":3200,"station_id":"ce4bh112rcd13ifvqda0","pricing_plan_id":"cebpf4jnsgd1na2vs0mg"},{"bike_id":"67f8a067-8346-4c33-a06c-04854791a6ef","system_id":"levelo_inurba_marseille","lat":43.2941,"lon":5.3863,"is_reserved":false,"is_disabled":false,"rental_uris":{"android":"levelo://app?vid=67f8a067-8346-4c33-a06c-04854791a6ef","ios":"levelo://app?vid=67f8a067-8346-4c33-a06c-04854791a6ef"},"vehicle_type_id":"4","last_reported":1743682790,"current_range_meters":3600,"station_id":"ce4bh2h2rcd13ifvqdh0","pricing_plan_id":"cebpf4jnsgd1na2vs0mg"},{"bike_id":"65409a44-68f7-4c2f-89cc-90194bf95e91","system_id":"levelo_inurba_marseille","lat":43.29524,"lon":5.37508,"is_reserved":false,"is_disabled":false,"rental_uris":{"android":"levelo://app?vid=65409a44-68f7-4c2f-89cc-90194bf95e91","ios":"levelo://app?vid=65409a44-68f7-4c2f-89cc-90194bf95e91"},"vehicle_type_id":"4","last_reported":1743682790,"current_range_meters":3600,"station_id":"ce4bgkp2rcd13ifvqbmg","pricing_plan_id":"cebpf4jnsgd1na2vs0mg"},{"bike_id":"fd379b95-103a-4d01-af5e-ef4e254699fe","system_id":"levelo_inurba_marseille","lat":43.23192,"lon":5.35556,"is_reserved":false,"is_disabled":false,"rental_uris":{"android":"levelo://app?vid=fd379b95-103a-4d01-af5e-ef4e254699fe","ios":"levelo://app?vid=fd379b95-103a-4d01-af5e-ef4e254699fe"},"vehicle_type_id":"4","last_reported":1743682790,"current_range_meters":5600,"station_id":"ce4bhu92rcd13ifvqi70","pricing_plan_id":"cebpf4jnsgd1na2vs0mg"},{"bike_id":"f6af57a4-a1dc-4de2-8777-d218941ea64c","system_id":"levelo_inurba_marseille","lat":43.285447,"lon":5.379917,"is_reserved":false,"is_disabled":false,"rental_uris":{"android":"levelo://app?vid=f6af57a4-a1dc-4de2-8777-d218941ea64c","ios":"levelo://app?vid=f6af57a4-a1dc-4de2-8777-d218941ea64c"},"vehicle_type_id":"4","last_reported":1743682790,"current_range_meters":4000,"station_id":"ce4bh412rcd13ifvqdr0","pricing_plan_id":"cebpf4jnsgd1na2vs0mg"},{"bike_id":"c9494fbf-7cdd-4618-a59b-c5a096c31d65","system_id":"levelo_inurba_marseille","lat":43.29074,"lon":5.37187,"is_reserved":false,"is_disabled":false,"rental_uris":{"android":"levelo://app?vid=c9494fbf-7cdd-4618-a59b-c5a096c31d65","ios":"levelo://app?vid=c9494fbf-7cdd-4618-a59b-c5a096c31d65"},"vehicle_type_id":"4","last_reported":1743682790,"current_range_meters":3600,"station_id":"ce4bh5p2rcd13ifvqe4g","pricing_plan_id":"cebpf4jnsgd1na2vs0mg"},{"bike_id":"e6b69cd2-f965-4a12-9e02-6f28a269f9f9","system_id":"levelo_inurba_marseille","lat":43.23051,"lon":5.35497,"is_reserved":false,"is_disabled":false,"rental_uris":{"android":"levelo://app?vid=e6b69cd2-f965-4a12-9e02-6f28a269f9f9","ios":"levelo://app?vid=e6b69cd2-f965-4a12-9e02-6f28a269f9f9"},"vehicle_type_id":"4","last_reported":1743682790,"current_range_meters":4400,"station_id":"cpo3342slgdg3j2ifvpg","pricing_plan_id":"cebpf4jnsgd1na2vs0mg"},{"bike_id":"85d52ac0-4bee-4257-89a0-86469614f9c1","system_id":"levelo_inurba_marseille","lat":43.28078,"lon":5.396485,"is_reserved":false,"is_disabled":false,"rental_uris":{"android":"levelo://app?vid=85d52ac0-4bee-4257-89a0-86469614f9c1","ios":"levelo://app?vid=85d52ac0-4bee-4257-89a0-86469614f9c1"},"vehicle_type_id":"4","last_reported":1743682790,"current_range_meters":4400,"station_id":"ce4bho12rcd13ifvqh2g","pricing_plan_id":"cebpf4jnsgd1na2vs0mg"},{"bike_id":"39c94d58-86dd-4c73-88fa-10ad22a1d6b2","system_id":"levelo_inurba_marseille","lat":43.23154,"lon":5.43711,"is_reserved":false,"is_disabled":false,"rental_uris":{"android":"levelo://app?vid=39c94d58-86dd-4c73-88fa-10ad22a1d6b2","ios":"levelo://app?vid=39c94d58-86dd-4c73-88fa-10ad22a1d6b2"},"vehicle_type_id":"4","last_reported":1743682790,"current_range_meters":4400,"station_id":"ce4bhmp2rcd13ifvqgog","pricing_plan_id":"cebpf4jnsgd1na2vs0mg"},{"bike_id":"d55e5eb4-d8f3-4db7-909f-246faeb61fc9","system_id":"levelo_inurba_marseille","lat":43.27391,"lon":5.42379,"is_reserved":false,"is_disabled":false,"rental_uris":{"android":"levelo://app?vid=d55e5eb4-d8f3-4db7-909f-246faeb61fc9","ios":"levelo://app?vid=d55e5eb4-d8f3-4db7-909f-246faeb61fc9"},"vehicle_type_id":"4","last_reported":1743682790,"current_range_meters":4400,"station_id":"","pricing_plan_id":"cebpf4jnsgd1na2vs0mg"},{"bike_id":"2cf61775-cb21-4b86-a7af-7925ef8f8bd8","system_id":"levelo_inurba_marseille","lat":43.22946,"lon":5.3536,"is_reserved":false,"is_disabled":false,"rental_uris":{"android":"levelo://app?vid=2cf61775-cb21-4b86-a7af-7925ef8f8bd8","ios":"levelo://app?vid=2cf61775-cb21-4b86-a7af-7925ef8f8bd8"},"vehicle_type_id":"4","last_reported":1743682790,"current_range_meters":4400,"station_id":"cpo3532slgdg3j2ikp40","pricing_plan_id":"cebpf4jnsgd1na2vs0mg"},{"bike_id":"3e5329f3-c0cd-422c-afb1-2f46242590da","system_id":"levelo_inurba_marseille","lat":43.31918,"lon":5.37556,"is_reserved":false,"is_disabled":false,"rental_uris":{"android":"levelo://app?vid=3e5329f3-c0cd-422c-afb1-2f46242590da","ios":"levelo://app?vid=3e5329f3-c0cd-422c-afb1-2f46242590da"},"vehicle_type_id":"4","last_reported":1743682790,"current_range_meters":4400,"station_id":"","pricing_plan_id":"cebpf4jnsgd1na2vs0mg"},{"bike_id":"1209f1c4-0bab-467c-8202-9230e2b01c04","system_id":"levelo_inurba_marseille","lat":43.2751,"lon":5.42447,"is_reserved":false,"is_disabled":false,"rental_uris":{"android":"levelo://app?vid=1209f1c4-0bab-467c-8202-9230e2b01c04","ios":"levelo://app?vid=1209f1c4-0bab-467c-8202-9230e2b01c04"},"vehicle_type_id":"4","last_reported":1743682790,"current_range_meters":4400,"station_id":"ce4bhn92rcd13ifvqgrg","pricing_plan_id":"cebpf4jnsgd1na2vs0mg"},{"bike_id":"12b5e061-2678-473f-9ed7-3d823c808278","system_id":"levelo_inurba_marseille","lat":43.24393,"lon":5.37043,"is_reserved":false,"is_disabled":false,"rental_uris":{"android":"levelo://app?vid=12b5e061-2678-473f-9ed7-3d823c808278","ios":"levelo://app?vid=12b5e061-2678-473f-9ed7-3d823c808278"},"vehicle_type_id":"4","last_reported":1743682790,"current_range_meters":4800,"station_id":"ce4bhhh2rcd13ifvqfk0","pricing_plan_id":"cebpf4jnsgd1na2vs0mg"},{"bike_id":"36fee319-bb1d-4349-a361-4410281a9826","system_id":"levelo_inurba_marseille","lat":43.26573,"lon":5.39012,"is_reserved":false,"is_disabled":false,"rental_uris":{"android":"levelo://app?vid=36fee319-bb1d-4349-a361-4410281a9826","ios":"levelo://app?vid=36fee319-bb1d-4349-a361-4410281a9826"},"vehicle_type_id":"4","last_reported":1743682790,"current_range_meters":4800,"station_id":"ce4bhe12rcd13ifvqf30","pricing_plan_id":"cebpf4jnsgd1na2vs0mg"},{"bike_id":"f55695a6-b65f-4a30-99ab-94b2bfa63268","system_id":"levelo_inurba_marseille","lat":43.23203,"lon":5.35546,"is_reserved":false,"is_disabled":false,"rental_uris":{"android":"levelo://app?vid=f55695a6-b65f-4a30-99ab-94b2bfa63268","ios":"levelo://app?vid=f55695a6-b65f-4a30-99ab-94b2bfa63268"},"vehicle_type_id":"4","last_reported":1743682790,"current_range_meters":4800,"station_id":"ce4bhu92rcd13ifvqi70","pricing_plan_id":"cebpf4jnsgd1na2vs0mg"},{"bike_id":"101ee90b-f857-4a50-8b85-491d1b3d5efc","system_id":"levelo_inurba_marseille","lat":43.23207,"lon":5.3555,"is_reserved":false,"is_disabled":false,"rental_uris":{"android":"levelo://app?vid=101ee90b-f857-4a50-8b85-491d1b3d5efc","ios":"levelo://app?vid=101ee90b-f857-4a50-8b85-491d1b3d5efc"},"vehicle_type_id":"4","last_reported":1743682790,"current_range_meters":4800,"station_id":"ce4bhu92rcd13ifvqi70","pricing_plan_id":"cebpf4jnsgd1na2vs0mg"},{"bike_id":"fbe13428-14ca-4e07-8835-ec0f9593f729","system_id":"levelo_inurba_marseille","lat":43.2669,"lon":5.38272,"is_reserved":false,"is_disabled":false,"rental_uris":{"android":"levelo://app?vid=fbe13428-14ca-4e07-8835-ec0f9593f729","ios":"levelo://app?vid=fbe13428-14ca-4e07-8835-ec0f9593f729"},"vehicle_type_id":"4","last_reported":1743682790,"current_range_meters":5600,"station_id":"ce4bhg92rcd13ifvqf90","pricing_plan_id":"cebpf4jnsgd1na2vs0mg"},{"bike_id":"edbf1118-da70-45d7-bdfc-c237875c7272","system_id":"levelo_inurba_marseille","lat":43.302774,"lon":5.377083,"is_reserved":false,"is_disabled":false,"rental_uris":{"android":"levelo://app?vid=edbf1118-da70-45d7-bdfc-c237875c7272","ios":"levelo://app?vid=edbf1118-da70-45d7-bdfc-c237875c7272"},"vehicle_type_id":"4","last_reported":1743682790,"current_range_meters":5600,"station_id":"ce4bguh2rcd13ifvqcj0","pricing_plan_id":"cebpf4jnsgd1na2vs0mg"},{"bike_id":"d157a8ac-f1ea-480a-a1ee-9ac00962bb01","system_id":"levelo_inurba_marseille","lat":43.29546,"lon":5.42299,"is_reserved":false,"is_disabled":false,"rental_uris":{"android":"levelo://app?vid=d157a8ac-f1ea-480a-a1ee-9ac00962bb01","ios":"levelo://app?vid=d157a8ac-f1ea-480a-a1ee-9ac00962bb01"},"vehicle_type_id":"4","last_reported":1743682790,"current_range_meters":5600,"station_id":"ce4bhph2rcd13ifvqhdg","pricing_plan_id":"cebpf4jnsgd1na2vs0mg"},{"bike_id":"2018dfe2-c8d0-4d02-a4b0-21e7b5954e0c","system_id":"levelo_inurba_marseille","lat":43.270326,"lon":5.402499,"is_reserved":false,"is_disabled":false,"rental_uris":{"android":"levelo://app?vid=2018dfe2-c8d0-4d02-a4b0-21e7b5954e0c","ios":"levelo://app?vid=2018dfe2-c8d0-4d02-a4b0-21e7b5954e0c"},"vehicle_type_id":"4","last_reported":1743682790,"current_range_meters":6800,"station_id":"ce4bhh12rcd13ifvqfg0","pricing_plan_id":"cebpf4jnsgd1na2vs0mg"},{"bike_id":"149810ea-9b12-45f4-b5f3-4dd9aaa85844","system_id":"levelo_inurba_marseille","lat":43.283538,"lon":5.381032,"is_reserved":false,"is_disabled":false,"rental_uris":{"android":"levelo://app?vid=149810ea-9b12-45f4-b5f3-4dd9aaa85844","ios":"levelo://app?vid=149810ea-9b12-45f4-b5f3-4dd9aaa85844"},"vehicle_type_id":"4","last_reported":1743682790,"current_range_meters":5600,"station_id":"ce4bh412rcd13ifvqdr0","pricing_plan_id":"cebpf4jnsgd1na2vs0mg"},{"bike_id":"81f0cc2f-efe9-4060-aad0-859640f827ba","system_id":"levelo_inurba_marseille","lat":43.28348,"lon":5.38107,"is_reserved":false,"is_disabled":false,"rental_uris":{"android":"levelo://app?vid=81f0cc2f-efe9-4060-aad0-859640f827ba","ios":"levelo://app?vid=81f0cc2f-efe9-4060-aad0-859640f827ba"},"vehicle_type_id":"4","last_reported":1743682790,"current_range_meters":6000,"station_id":"ce4bh412rcd13ifvqdr0","pricing_plan_id":"cebpf4jnsgd1na2vs0mg"},{"bike_id":"3f59376a-02ae-4792-b504-029e3371ce08","system_id":"levelo_inurba_marseille","lat":43.29003,"lon":5.37842,"is_reserved":false,"is_disabled":false,"rental_uris":{"android":"levelo://app?vid=3f59376a-02ae-4792-b504-029e3371ce08","ios":"levelo://app?vid=3f59376a-02ae-4792-b504-029e3371ce08"},"vehicle_type_id":"4","last_reported":1743682790,"current_range_meters":6000,"station_id":"ce4bh9p2rcd13ifvqed0","pricing_plan_id":"cebpf4jnsgd1na2vs0mg"},{"bike_id":"29802665-07bd-468f-8af1-5541db64803b","system_id":"levelo_inurba_marseille","lat":43.27486,"lon":5.42453,"is_reserved":false,"is_disabled":false,"rental_uris":{"android":"levelo://app?vid=29802665-07bd-468f-8af1-5541db64803b","ios":"levelo://app?vid=29802665-07bd-468f-8af1-5541db64803b"},"vehicle_type_id":"4","last_reported":1743682790,"current_range_meters":6000,"station_id":"ce4bhn92rcd13ifvqgrg","pricing_plan_id":"cebpf4jnsgd1na2vs0mg"},{"bike_id":"eb1723e2-7d01-4cf0-ad22-71299ca2c61c","system_id":"levelo_inurba_marseille","lat":43.29312,"lon":5.37182,"is_reserved":false,"is_disabled":true,"rental_uris":{"android":"levelo://app?vid=eb1723e2-7d01-4cf0-ad22-71299ca2c61c","ios":"levelo://app?vid=eb1723e2-7d01-4cf0-ad22-71299ca2c61c"},"vehicle_type_id":"4","last_reported":1743682790,"current_range_meters":6400,"station_id":"ce4bgh92rcd13ifvqb40","pricing_plan_id":"cebpf4jnsgd1na2vs0mg"},{"bike_id":"8056fae5-7334-4c2d-9e0d-b7df89809c99","system_id":"levelo_inurba_marseille","lat":43.293,"lon":5.37456,"is_reserved":false,"is_disabled":false,"rental_uris":{"android":"levelo://app?vid=8056fae5-7334-4c2d-9e0d-b7df89809c99","ios":"levelo://app?vid=8056fae5-7334-4c2d-9e0d-b7df89809c99"},"vehicle_type_id":"4","last_reported":1743682790,"current_range_meters":6400,"station_id":"ce4bgi12rcd13ifvqb70","pricing_plan_id":"cebpf4jnsgd1na2vs0mg"},{"bike_id":"c493c483-943a-4324-92b5-4926e5cf7171","system_id":"levelo_inurba_marseille","lat":43.23186,"lon":5.39988,"is_reserved":false,"is_disabled":false,"rental_uris":{"android":"levelo://app?vid=c493c483-943a-4324-92b5-4926e5cf7171","ios":"levelo://app?vid=c493c483-943a-4324-92b5-4926e5cf7171"},"vehicle_type_id":"4","last_reported":1743682790,"current_range_meters":6400,"station_id":"ce4bhn12rcd13ifvqgqg","pricing_plan_id":"cebpf4jnsgd1na2vs0mg"},{"bike_id":"4a850789-d7ab-4c9e-a4b7-57c95aeb16d6","system_id":"levelo_inurba_marseille","lat":43.26568,"lon":5.39038,"is_reserved":false,"is_disabled":false,"rental_uris":{"android":"levelo://app?vid=4a850789-d7ab-4c9e-a4b7-57c95aeb16d6","ios":"levelo://app?vid=4a850789-d7ab-4c9e-a4b7-57c95aeb16d6"},"vehicle_type_id":"4","last_reported":1743682790,"current_range_meters":6400,"station_id":"ce4bhe12rcd13ifvqf30","pricing_plan_id":"cebpf4jnsgd1na2vs0mg"},{"bike_id":"b80ee275-2592-4659-b2e9-175feb839700","system_id":"levelo_inurba_marseille","lat":43.23197,"lon":5.3556,"is_reserved":false,"is_disabled":false,"rental_uris":{"android":"levelo://app?vid=b80ee275-2592-4659-b2e9-175feb839700","ios":"levelo://app?vid=b80ee275-2592-4659-b2e9-175feb839700"},"vehicle_type_id":"4","last_reported":1743682790,"current_range_meters":6400,"station_id":"ce4bhu92rcd13ifvqi70","pricing_plan_id":"cebpf4jnsgd1na2vs0mg"},{"bike_id":"7bc507c4-187b-4cb2-a5ef-07322f924baf","system_id":"levelo_inurba_marseille","lat":43.22945,"lon":5.35405,"is_reserved":false,"is_disabled":false,"rental_uris":{"android":"levelo://app?vid=7bc507c4-187b-4cb2-a5ef-07322f924baf","ios":"levelo://app?vid=7bc507c4-187b-4cb2-a5ef-07322f924baf"},"vehicle_type_id":"4","last_reported":1743682790,"current_range_meters":6400,"station_id":"cpo3532slgdg3j2ikp40","pricing_plan_id":"cebpf4jnsgd1na2vs0mg"},{"bike_id":"faa7e089-08e1-400c-9e29-321477aae17f","system_id":"levelo_inurba_marseille","lat":43.29266,"lon":5.38454,"is_reserved":false,"is_disabled":false,"rental_uris":{"android":"levelo://app?vid=faa7e089-08e1-400c-9e29-321477aae17f","ios":"levelo://app?vid=faa7e089-08e1-400c-9e29-321477aae17f"},"vehicle_type_id":"4","last_reported":1743682790,"current_range_meters":6400,"station_id":"ce4bh692rcd13ifvqea0","pricing_plan_id":"cebpf4jnsgd1na2vs0mg"},{"bike_id":"36e0c13c-6f27-4230-a226-822cec73bf56","system_id":"levelo_inurba_marseille","lat":43.24556,"lon":5.39522,"is_reserved":false,"is_disabled":false,"rental_uris":{"android":"levelo://app?vid=36e0c13c-6f27-4230-a226-822cec73bf56","ios":"levelo://app?vid=36e0c13c-6f27-4230-a226-822cec73bf56"},"vehicle_type_id":"4","last_reported":1743682790,"current_range_meters":6400,"station_id":"ce4bhlp2rcd13ifvqgjg","pricing_plan_id":"cebpf4jnsgd1na2vs0mg"},{"bike_id":"988a4b2a-1fca-4561-9342-57ad8b6adb1c","system_id":"levelo_inurba_marseille","lat":43.22938,"lon":5.35369,"is_reserved":false,"is_disabled":false,"rental_uris":{"android":"levelo://app?vid=988a4b2a-1fca-4561-9342-57ad8b6adb1c","ios":"levelo://app?vid=988a4b2a-1fca-4561-9342-57ad8b6adb1c"},"vehicle_type_id":"4","last_reported":1743682790,"current_range_meters":6800,"station_id":"cpo3532slgdg3j2ikp40","pricing_plan_id":"cebpf4jnsgd1na2vs0mg"},{"bike_id":"f87e996c-206a-47d9-8697-84a2d463fdc3","system_id":"levelo_inurba_marseille","lat":43.23183,"lon":5.35554,"is_reserved":false,"is_disabled":false,"rental_uris":{"android":"levelo://app?vid=f87e996c-206a-47d9-8697-84a2d463fdc3","ios":"levelo://app?vid=f87e996c-206a-47d9-8697-84a2d463fdc3"},"vehicle_type_id":"4","last_reported":1743682790,"current_range_meters":6800,"station_id":"ce4bhu92rcd13ifvqi70","pricing_plan_id":"cebpf4jnsgd1na2vs0mg"},{"bike_id":"90278da6-0a86-4764-b9be-eda06ef3279e","system_id":"levelo_inurba_marseille","lat":43.29042,"lon":5.39958,"is_reserved":false,"is_disabled":false,"rental_uris":{"android":"levelo://app?vid=90278da6-0a86-4764-b9be-eda06ef3279e","ios":"levelo://app?vid=90278da6-0a86-4764-b9be-eda06ef3279e"},"vehicle_type_id":"4","last_reported":1743682790,"current_range_meters":6800,"station_id":"ce4bh392rcd13ifvqdm0","pricing_plan_id":"cebpf4jnsgd1na2vs0mg"},{"bike_id":"1e56f8b0-0569-43fd-956b-7c3d45c8ba02","system_id":"levelo_inurba_marseille","lat":43.29331,"lon":5.41157,"is_reserved":false,"is_disabled":false,"rental_uris":{"android":"levelo://app?vid=1e56f8b0-0569-43fd-956b-7c3d45c8ba02","ios":"levelo://app?vid=1e56f8b0-0569-43fd-956b-7c3d45c8ba02"},"vehicle_type_id":"4","last_reported":1743682790,"current_range_meters":6800,"station_id":"","pricing_plan_id":"cebpf4jnsgd1na2vs0mg"},{"bike_id":"fe147b08-794f-4cc8-a62c-e589ca5791a1","system_id":"levelo_inurba_marseille","lat":43.25912,"lon":5.40886,"is_reserved":false,"is_disabled":false,"rental_uris":{"android":"levelo://app?vid=fe147b08-794f-4cc8-a62c-e589ca5791a1","ios":"levelo://app?vid=fe147b08-794f-4cc8-a62c-e589ca5791a1"},"vehicle_type_id":"4","last_reported":1743682790,"current_range_meters":6800,"station_id":"ce4bhm92rcd13ifvqglg","pricing_plan_id":"cebpf4jnsgd1na2vs0mg"},{"bike_id":"a112ce08-6f4e-41f2-873e-94895f2e1506","system_id":"levelo_inurba_marseille","lat":43.27686,"lon":5.38913,"is_reserved":false,"is_disabled":true,"rental_uris":{"android":"levelo://app?vid=a112ce08-6f4e-41f2-873e-94895f2e1506","ios":"levelo://app?vid=a112ce08-6f4e-41f2-873e-94895f2e1506"},"vehicle_type_id":"4","last_reported":1743682790,"current_range_meters":7200,"station_id":"ce4bhi12rcd13ifvqfo0","pricing_plan_id":"cebpf4jnsgd1na2vs0mg"},{"bike_id":"d53777c8-71ae-4227-ab5d-b5d248512007","system_id":"levelo_inurba_marseille","lat":43.23159,"lon":5.43721,"is_reserved":false,"is_disabled":false,"rental_uris":{"android":"levelo://app?vid=d53777c8-71ae-4227-ab5d-b5d248512007","ios":"levelo://app?vid=d53777c8-71ae-4227-ab5d-b5d248512007"},"vehicle_type_id":"4","last_reported":1743682790,"current_range_meters":6800,"station_id":"ce4bhmp2rcd13ifvqgog","pricing_plan_id":"cebpf4jnsgd1na2vs0mg"},{"bike_id":"d3c79605-f5d1-48ff-a8ed-0411290f1105","system_id":"levelo_inurba_marseille","lat":43.30532,"lon":5.38421,"is_reserved":false,"is_disabled":true,"rental_uris":{"android":"levelo://app?vid=d3c79605-f5d1-48ff-a8ed-0411290f1105","ios":"levelo://app?vid=d3c79605-f5d1-48ff-a8ed-0411290f1105"},"vehicle_type_id":"4","last_reported":1743682790,"current_range_meters":6800,"station_id":"ce4bgg92rcd13ifvqb30","pricing_plan_id":"cebpf4jnsgd1na2vs0mg"},{"bike_id":"7c408ae1-47f0-46ed-95a5-74a894459a08","system_id":"levelo_inurba_marseille","lat":43.28953,"lon":5.36639,"is_reserved":false,"is_disabled":false,"rental_uris":{"android":"levelo://app?vid=7c408ae1-47f0-46ed-95a5-74a894459a08","ios":"levelo://app?vid=7c408ae1-47f0-46ed-95a5-74a894459a08"},"vehicle_type_id":"4","last_reported":1743682790,"current_range_meters":6800,"station_id":"ce4bhap2rcd13ifvqek0","pricing_plan_id":"cebpf4jnsgd1na2vs0mg"},{"bike_id":"9e898bf6-7c3b-46f2-b158-f8c5de38c9db","system_id":"levelo_inurba_marseille","lat":43.24062,"lon":5.37732,"is_reserved":false,"is_disabled":false,"rental_uris":{"android":"levelo://app?vid=9e898bf6-7c3b-46f2-b158-f8c5de38c9db","ios":"levelo://app?vid=9e898bf6-7c3b-46f2-b158-f8c5de38c9db"},"vehicle_type_id":"4","last_reported":1743682790,"current_range_meters":6800,"station_id":"ce4bhnp2rcd13ifvqgvg","pricing_plan_id":"cebpf4jnsgd1na2vs0mg"},{"bike_id":"04556df8-715f-45d8-b288-9c8fd51282f9","system_id":"levelo_inurba_marseille","lat":43.23204,"lon":5.35564,"is_reserved":false,"is_disabled":false,"rental_uris":{"android":"levelo://app?vid=04556df8-715f-45d8-b288-9c8fd51282f9","ios":"levelo://app?vid=04556df8-715f-45d8-b288-9c8fd51282f9"},"vehicle_type_id":"4","last_reported":1743682790,"current_range_meters":7200,"station_id":"ce4bhu92rcd13ifvqi70","pricing_plan_id":"cebpf4jnsgd1na2vs0mg"},{"bike_id":"f96ad9e2-c10f-4d40-84a7-fd1752ede24d","system_id":"levelo_inurba_marseille","lat":43.28624,"lon":5.35098,"is_reserved":false,"is_disabled":false,"rental_uris":{"android":"levelo://app?vid=f96ad9e2-c10f-4d40-84a7-fd1752ede24d","ios":"levelo://app?vid=f96ad9e2-c10f-4d40-84a7-fd1752ede24d"},"vehicle_type_id":"4","last_reported":1743682790,"current_range_meters":7200,"station_id":"ce4bhch2rcd13ifvqeug","pricing_plan_id":"cebpf4jnsgd1na2vs0mg"},{"bike_id":"3b948fbe-ea54-4e7f-8a80-214f816bc66c","system_id":"levelo_inurba_marseille","lat":43.24156,"lon":5.39735,"is_reserved":false,"is_disabled":false,"rental_uris":{"android":"levelo://app?vid=3b948fbe-ea54-4e7f-8a80-214f816bc66c","ios":"levelo://app?vid=3b948fbe-ea54-4e7f-8a80-214f816bc66c"},"vehicle_type_id":"4","last_reported":1743682790,"current_range_meters":7200,"station_id":"ce4bhn12rcd13ifvqgpg","pricing_plan_id":"cebpf4jnsgd1na2vs0mg"},{"bike_id":"75a685c2-3528-4ffe-a7a2-640750e0dac0","system_id":"levelo_inurba_marseille","lat":43.30603,"lon":5.37236,"is_reserved":false,"is_disabled":false,"rental_uris":{"android":"levelo://app?vid=75a685c2-3528-4ffe-a7a2-640750e0dac0","ios":"levelo://app?vid=75a685c2-3528-4ffe-a7a2-640750e0dac0"},"vehicle_type_id":"4","last_reported":1743682790,"current_range_meters":6800,"station_id":"ce4bgqh2rcd13ifvqc4g","pricing_plan_id":"cebpf4jnsgd1na2vs0mg"},{"bike_id":"fe33a8eb-3e5a-4763-b908-d742f7f76f48","system_id":"levelo_inurba_marseille","lat":43.30602,"lon":5.39359,"is_reserved":false,"is_disabled":false,"rental_uris":{"android":"levelo://app?vid=fe33a8eb-3e5a-4763-b908-d742f7f76f48","ios":"levelo://app?vid=fe33a8eb-3e5a-4763-b908-d742f7f76f48"},"vehicle_type_id":"4","last_reported":1743682790,"current_range_meters":7200,"station_id":"ce4bh0p2rcd13ifvqd80","pricing_plan_id":"cebpf4jnsgd1na2vs0mg"},{"bike_id":"30a3f394-c1af-4ed6-b3ee-6ae83556d7e2","system_id":"levelo_inurba_marseille","lat":43.2816,"lon":5.42646,"is_reserved":false,"is_disabled":false,"rental_uris":{"android":"levelo://app?vid=30a3f394-c1af-4ed6-b3ee-6ae83556d7e2","ios":"levelo://app?vid=30a3f394-c1af-4ed6-b3ee-6ae83556d7e2"},"vehicle_type_id":"4","last_reported":1743682790,"current_range_meters":7200,"station_id":"ce4bhnh2rcd13ifvqgug","pricing_plan_id":"cebpf4jnsgd1na2vs0mg"},{"bike_id":"8d5bb9fc-b3f0-422d-a5ec-62fdbc945251","system_id":"levelo_inurba_marseille","lat":43.24083,"lon":5.37758,"is_reserved":false,"is_disabled":false,"rental_uris":{"android":"levelo://app?vid=8d5bb9fc-b3f0-422d-a5ec-62fdbc945251","ios":"levelo://app?vid=8d5bb9fc-b3f0-422d-a5ec-62fdbc945251"},"vehicle_type_id":"4","last_reported":1743682790,"current_range_meters":7200,"station_id":"ce4bhnp2rcd13ifvqgvg","pricing_plan_id":"cebpf4jnsgd1na2vs0mg"},{"bike_id":"f1760784-c110-42da-90b6-730dd2c7c9e6","system_id":"levelo_inurba_marseille","lat":43.32478,"lon":5.36567,"is_reserved":false,"is_disabled":false,"rental_uris":{"android":"levelo://app?vid=f1760784-c110-42da-90b6-730dd2c7c9e6","ios":"levelo://app?vid=f1760784-c110-42da-90b6-730dd2c7c9e6"},"vehicle_type_id":"4","last_reported":1743682790,"current_range_meters":7200,"station_id":"ce4bhs12rcd13ifvqhvg","pricing_plan_id":"cebpf4jnsgd1na2vs0mg"},{"bike_id":"e7b14aec-0e7a-4f02-acf4-c91264c0f0be","system_id":"levelo_inurba_marseille","lat":43.28637,"lon":5.35089,"is_reserved":false,"is_disabled":false,"rental_uris":{"android":"levelo://app?vid=e7b14aec-0e7a-4f02-acf4-c91264c0f0be","ios":"levelo://app?vid=e7b14aec-0e7a-4f02-acf4-c91264c0f0be"},"vehicle_type_id":"4","last_reported":1743682790,"current_range_meters":7200,"station_id":"ce4bhch2rcd13ifvqeug","pricing_plan_id":"cebpf4jnsgd1na2vs0mg"},{"bike_id":"c8c097cc-00f2-49a0-9238-138b03cf8284","system_id":"levelo_inurba_marseille","lat":43.23153,"lon":5.43711,"is_reserved":false,"is_disabled":false,"rental_uris":{"android":"levelo://app?vid=c8c097cc-00f2-49a0-9238-138b03cf8284","ios":"levelo://app?vid=c8c097cc-00f2-49a0-9238-138b03cf8284"},"vehicle_type_id":"4","last_reported":1743682790,"current_range_meters":7200,"station_id":"ce4bhmp2rcd13ifvqgog","pricing_plan_id":"cebpf4jnsgd1na2vs0mg"},{"bike_id":"bdeb8275-f21a-4dd3-b411-d3d1f57188e8","system_id":"levelo_inurba_marseille","lat":43.2481,"lon":5.37458,"is_reserved":false,"is_disabled":false,"rental_uris":{"android":"levelo://app?vid=bdeb8275-f21a-4dd3-b411-d3d1f57188e8","ios":"levelo://app?vid=bdeb8275-f21a-4dd3-b411-d3d1f57188e8"},"vehicle_type_id":"4","last_reported":1743682790,"current_range_meters":7200,"station_id":"ce4bhgh2rcd13ifvqfb0","pricing_plan_id":"cebpf4jnsgd1na2vs0mg"},{"bike_id":"546380d0-0813-4737-817f-a21e056e8d2e","system_id":"levelo_inurba_marseille","lat":43.32355,"lon":5.36761,"is_reserved":false,"is_disabled":false,"rental_uris":{"android":"levelo://app?vid=546380d0-0813-4737-817f-a21e056e8d2e","ios":"levelo://app?vid=546380d0-0813-4737-817f-a21e056e8d2e"},"vehicle_type_id":"4","last_reported":1743682790,"current_range_meters":7200,"station_id":"ce4bhsh2rcd13ifvqi2g","pricing_plan_id":"cebpf4jnsgd1na2vs0mg"},{"bike_id":"32832353-61d3-4cf2-8f49-0ca7d822f94a","system_id":"levelo_inurba_marseille","lat":43.30196,"lon":5.36617,"is_reserved":false,"is_disabled":false,"rental_uris":{"android":"levelo://app?vid=32832353-61d3-4cf2-8f49-0ca7d822f94a","ios":"levelo://app?vid=32832353-61d3-4cf2-8f49-0ca7d822f94a"},"vehicle_type_id":"4","last_reported":1743682790,"current_range_meters":7200,"station_id":"ce4bgrh2rcd13ifvqc8g","pricing_plan_id":"cebpf4jnsgd1na2vs0mg"},{"bike_id":"1331c791-6775-4642-afd5-40465ecccfa5","system_id":"levelo_inurba_marseille","lat":43.24071,"lon":5.37756,"is_reserved":false,"is_disabled":false,"rental_uris":{"android":"levelo://app?vid=1331c791-6775-4642-afd5-40465ecccfa5","ios":"levelo://app?vid=1331c791-6775-4642-afd5-40465ecccfa5"},"vehicle_type_id":"4","last_reported":1743682790,"current_range_meters":7200,"station_id":"ce4bhnp2rcd13ifvqgvg","pricing_plan_id":"cebpf4jnsgd1na2vs0mg"},{"bike_id":"2e1d0491-8046-4a1c-910c-6d230f4ca468","system_id":"levelo_inurba_marseille","lat":43.30668,"lon":5.37369,"is_reserved":false,"is_disabled":false,"rental_uris":{"android":"levelo://app?vid=2e1d0491-8046-4a1c-910c-6d230f4ca468","ios":"levelo://app?vid=2e1d0491-8046-4a1c-910c-6d230f4ca468"},"vehicle_type_id":"4","last_reported":1743682790,"current_range_meters":7200,"station_id":"","pricing_plan_id":"cebpf4jnsgd1na2vs0mg"},{"bike_id":"c461a114-9207-49e6-a84f-b7367626da5f","system_id":"levelo_inurba_marseille","lat":43.29264,"lon":5.38438,"is_reserved":false,"is_disabled":false,"rental_uris":{"android":"levelo://app?vid=c461a114-9207-49e6-a84f-b7367626da5f","ios":"levelo://app?vid=c461a114-9207-49e6-a84f-b7367626da5f"},"vehicle_type_id":"4","last_reported":1743682790,"current_range_meters":8000,"station_id":"ce4bh692rcd13ifvqea0","pricing_plan_id":"cebpf4jnsgd1na2vs0mg"},{"bike_id":"05a93327-09c1-461c-819d-5b085c4997c7","system_id":"levelo_inurba_marseille","lat":43.290167,"lon":5.381325,"is_reserved":false,"is_disabled":false,"rental_uris":{"android":"levelo://app?vid=05a93327-09c1-461c-819d-5b085c4997c7","ios":"levelo://app?vid=05a93327-09c1-461c-819d-5b085c4997c7"},"vehicle_type_id":"4","last_reported":1743682790,"current_range_meters":8000,"station_id":"ce4bgr92rcd13ifvqc7g","pricing_plan_id":"cebpf4jnsgd1na2vs0mg"},{"bike_id":"5ca485bb-481f-4015-9aa9-0277a5a252a5","system_id":"levelo_inurba_marseille","lat":43.32499,"lon":5.36571,"is_reserved":false,"is_disabled":false,"rental_uris":{"android":"levelo://app?vid=5ca485bb-481f-4015-9aa9-0277a5a252a5","ios":"levelo://app?vid=5ca485bb-481f-4015-9aa9-0277a5a252a5"},"vehicle_type_id":"4","last_reported":1743682790,"current_range_meters":8000,"station_id":"ce4bhs12rcd13ifvqhvg","pricing_plan_id":"cebpf4jnsgd1na2vs0mg"},{"bike_id":"78d6b7cd-ac07-453b-bc94-98692716d8c6","system_id":"levelo_inurba_marseille","lat":43.23186,"lon":5.35555,"is_reserved":false,"is_disabled":false,"rental_uris":{"android":"levelo://app?vid=78d6b7cd-ac07-453b-bc94-98692716d8c6","ios":"levelo://app?vid=78d6b7cd-ac07-453b-bc94-98692716d8c6"},"vehicle_type_id":"4","last_reported":1743682790,"current_range_meters":8000,"station_id":"ce4bhu92rcd13ifvqi70","pricing_plan_id":"cebpf4jnsgd1na2vs0mg"},{"bike_id":"3945780b-3464-4b52-8543-cf05282ae10d","system_id":"levelo_inurba_marseille","lat":43.312271,"lon":5.36854,"is_reserved":false,"is_disabled":false,"rental_uris":{"android":"levelo://app?vid=3945780b-3464-4b52-8543-cf05282ae10d","ios":"levelo://app?vid=3945780b-3464-4b52-8543-cf05282ae10d"},"vehicle_type_id":"4","last_reported":1743682790,"current_range_meters":8000,"station_id":"ce4bgl92rcd13ifvqbq0","pricing_plan_id":"cebpf4jnsgd1na2vs0mg"},{"bike_id":"23b161d8-3d9a-45c1-8c5f-bc776692862c","system_id":"levelo_inurba_marseille","lat":43.2757,"lon":5.38425,"is_reserved":false,"is_disabled":false,"rental_uris":{"android":"levelo://app?vid=23b161d8-3d9a-45c1-8c5f-bc776692862c","ios":"levelo://app?vid=23b161d8-3d9a-45c1-8c5f-bc776692862c"},"vehicle_type_id":"4","last_reported":1743682790,"current_range_meters":8000,"station_id":"ce4bhh92rcd13ifvqfi0","pricing_plan_id":"cebpf4jnsgd1na2vs0mg"},{"bike_id":"677c382e-627b-44a3-a31b-472f499234d9","system_id":"levelo_inurba_marseille","lat":43.27496,"lon":5.4245,"is_reserved":false,"is_disabled":false,"rental_uris":{"android":"levelo://app?vid=677c382e-627b-44a3-a31b-472f499234d9","ios":"levelo://app?vid=677c382e-627b-44a3-a31b-472f499234d9"},"vehicle_type_id":"4","last_reported":1743682790,"current_range_meters":8000,"station_id":"ce4bhn92rcd13ifvqgrg","pricing_plan_id":"cebpf4jnsgd1na2vs0mg"},{"bike_id":"75dae32f-059a-4b5b-a5e8-963c6eda2f66","system_id":"levelo_inurba_marseille","lat":43.27537,"lon":5.41002,"is_reserved":false,"is_disabled":false,"rental_uris":{"android":"levelo://app?vid=75dae32f-059a-4b5b-a5e8-963c6eda2f66","ios":"levelo://app?vid=75dae32f-059a-4b5b-a5e8-963c6eda2f66"},"vehicle_type_id":"4","last_reported":1743682790,"current_range_meters":8000,"station_id":"","pricing_plan_id":"cebpf4jnsgd1na2vs0mg"},{"bike_id":"41ab2c21-6690-4606-bdaa-71ae7494ffb1","system_id":"levelo_inurba_marseille","lat":43.2743,"lon":5.394257,"is_reserved":false,"is_disabled":false,"rental_uris":{"android":"levelo://app?vid=41ab2c21-6690-4606-bdaa-71ae7494ffb1","ios":"levelo://app?vid=41ab2c21-6690-4606-bdaa-71ae7494ffb1"},"vehicle_type_id":"4","last_reported":1743682790,"current_range_meters":8000,"station_id":"ce4bhdp2rcd13ifvqf20","pricing_plan_id":"cebpf4jnsgd1na2vs0mg"},{"bike_id":"ecac53c7-1761-431e-93a5-c1352259aa2f","system_id":"levelo_inurba_marseille","lat":43.28961,"lon":5.46544,"is_reserved":false,"is_disabled":false,"rental_uris":{"android":"levelo://app?vid=ecac53c7-1761-431e-93a5-c1352259aa2f","ios":"levelo://app?vid=ecac53c7-1761-431e-93a5-c1352259aa2f"},"vehicle_type_id":"4","last_reported":1743682790,"current_range_meters":8400,"station_id":"","pricing_plan_id":"cebpf4jnsgd1na2vs0mg"},{"bike_id":"f48e3712-a1f9-454e-a3a8-cb8da8cda512","system_id":"levelo_inurba_marseille","lat":43.26585,"lon":5.39035,"is_reserved":false,"is_disabled":false,"rental_uris":{"android":"levelo://app?vid=f48e3712-a1f9-454e-a3a8-cb8da8cda512","ios":"levelo://app?vid=f48e3712-a1f9-454e-a3a8-cb8da8cda512"},"vehicle_type_id":"4","last_reported":1743682790,"current_range_meters":8400,"station_id":"ce4bhe12rcd13ifvqf30","pricing_plan_id":"cebpf4jnsgd1na2vs0mg"},{"bike_id":"32a978e0-d0c2-43d4-9b03-19a5c41c27de","system_id":"levelo_inurba_marseille","lat":43.31072,"lon":5.38358,"is_reserved":false,"is_disabled":true,"rental_uris":{"android":"levelo://app?vid=32a978e0-d0c2-43d4-9b03-19a5c41c27de","ios":"levelo://app?vid=32a978e0-d0c2-43d4-9b03-19a5c41c27de"},"vehicle_type_id":"4","last_reported":1743682790,"current_range_meters":8400,"station_id":"ce4bgv92rcd13ifvqcr0","pricing_plan_id":"cebpf4jnsgd1na2vs0mg"},{"bike_id":"39ea9489-02e8-4bca-ad9d-f8f3705b7612","system_id":"levelo_inurba_marseille","lat":43.28357,"lon":5.38111,"is_reserved":false,"is_disabled":false,"rental_uris":{"android":"levelo://app?vid=39ea9489-02e8-4bca-ad9d-f8f3705b7612","ios":"levelo://app?vid=39ea9489-02e8-4bca-ad9d-f8f3705b7612"},"vehicle_type_id":"4","last_reported":1743682790,"current_range_meters":8400,"station_id":"ce4bh412rcd13ifvqdr0","pricing_plan_id":"cebpf4jnsgd1na2vs0mg"},{"bike_id":"3ae1c99b-5c67-48ae-a72d-6e9ab88dc302","system_id":"levelo_inurba_marseille","lat":43.26991,"lon":5.38561,"is_reserved":false,"is_disabled":false,"rental_uris":{"android":"levelo://app?vid=3ae1c99b-5c67-48ae-a72d-6e9ab88dc302","ios":"levelo://app?vid=3ae1c99b-5c67-48ae-a72d-6e9ab88dc302"},"vehicle_type_id":"4","last_reported":1743682790,"current_range_meters":8400,"station_id":"","pricing_plan_id":"cebpf4jnsgd1na2vs0mg"},{"bike_id":"21087ec7-7549-4282-8a8e-391c3a9e4c8d","system_id":"levelo_inurba_marseille","lat":43.24084,"lon":5.37753,"is_reserved":false,"is_disabled":false,"rental_uris":{"android":"levelo://app?vid=21087ec7-7549-4282-8a8e-391c3a9e4c8d","ios":"levelo://app?vid=21087ec7-7549-4282-8a8e-391c3a9e4c8d"},"vehicle_type_id":"4","last_reported":1743682790,"current_range_meters":8400,"station_id":"ce4bhnp2rcd13ifvqgvg","pricing_plan_id":"cebpf4jnsgd1na2vs0mg"},{"bike_id":"806f15f5-826d-41fe-94bf-7198bfd375b1","system_id":"levelo_inurba_marseille","lat":43.23149,"lon":5.43724,"is_reserved":false,"is_disabled":false,"rental_uris":{"android":"levelo://app?vid=806f15f5-826d-41fe-94bf-7198bfd375b1","ios":"levelo://app?vid=806f15f5-826d-41fe-94bf-7198bfd375b1"},"vehicle_type_id":"4","last_reported":1743682790,"current_range_meters":8400,"station_id":"ce4bhmp2rcd13ifvqgog","pricing_plan_id":"cebpf4jnsgd1na2vs0mg"},{"bike_id":"63c19073-a7de-46ed-a396-8639743b910e","system_id":"levelo_inurba_marseille","lat":43.231964,"lon":5.355488,"is_reserved":false,"is_disabled":false,"rental_uris":{"android":"levelo://app?vid=63c19073-a7de-46ed-a396-8639743b910e","ios":"levelo://app?vid=63c19073-a7de-46ed-a396-8639743b910e"},"vehicle_type_id":"4","last_reported":1743682790,"current_range_meters":8400,"station_id":"ce4bhu92rcd13ifvqi70","pricing_plan_id":"cebpf4jnsgd1na2vs0mg"},{"bike_id":"cdf83610-7cf6-46ec-a28f-7d003b5497db","system_id":"levelo_inurba_marseille","lat":43.30306,"lon":5.36877,"is_reserved":false,"is_disabled":false,"rental_uris":{"android":"levelo://app?vid=cdf83610-7cf6-46ec-a28f-7d003b5497db","ios":"levelo://app?vid=cdf83610-7cf6-46ec-a28f-7d003b5497db"},"vehicle_type_id":"4","last_reported":1743682790,"current_range_meters":8400,"station_id":"ce4bgqh2rcd13ifvqc5g","pricing_plan_id":"cebpf4jnsgd1na2vs0mg"},{"bike_id":"4efe08bc-3ed4-4dd1-ad00-43917e8a6048","system_id":"levelo_inurba_marseille","lat":43.2813,"lon":5.3784,"is_reserved":false,"is_disabled":false,"rental_uris":{"android":"levelo://app?vid=4efe08bc-3ed4-4dd1-ad00-43917e8a6048","ios":"levelo://app?vid=4efe08bc-3ed4-4dd1-ad00-43917e8a6048"},"vehicle_type_id":"4","last_reported":1743682790,"current_range_meters":8400,"station_id":"ce4bha12rcd13ifvqee0","pricing_plan_id":"cebpf4jnsgd1na2vs0mg"},{"bike_id":"e1b03b21-5eb0-483c-b4ac-ea8a29304382","system_id":"levelo_inurba_marseille","lat":43.28741,"lon":5.3609,"is_reserved":false,"is_disabled":false,"rental_uris":{"android":"levelo://app?vid=e1b03b21-5eb0-483c-b4ac-ea8a29304382","ios":"levelo://app?vid=e1b03b21-5eb0-483c-b4ac-ea8a29304382"},"vehicle_type_id":"4","last_reported":1743682790,"current_range_meters":8800,"station_id":"","pricing_plan_id":"cebpf4jnsgd1na2vs0mg"},{"bike_id":"3374421a-949f-40b6-870f-59a2d8ba0de4","system_id":"levelo_inurba_marseille","lat":43.24177,"lon":5.36391,"is_reserved":false,"is_disabled":false,"rental_uris":{"android":"levelo://app?vid=3374421a-949f-40b6-870f-59a2d8ba0de4","ios":"levelo://app?vid=3374421a-949f-40b6-870f-59a2d8ba0de4"},"vehicle_type_id":"4","last_reported":1743682790,"current_range_meters":8800,"station_id":"cpo36qri1sfpv3e86is0","pricing_plan_id":"cebpf4jnsgd1na2vs0mg"},{"bike_id":"c2e6881a-04a3-4a38-9cc0-75cacf165e78","system_id":"levelo_inurba_marseille","lat":43.28832,"lon":5.364645,"is_reserved":false,"is_disabled":false,"rental_uris":{"android":"levelo://app?vid=c2e6881a-04a3-4a38-9cc0-75cacf165e78","ios":"levelo://app?vid=c2e6881a-04a3-4a38-9cc0-75cacf165e78"},"vehicle_type_id":"4","last_reported":1743682790,"current_range_meters":8800,"station_id":"","pricing_plan_id":"cebpf4jnsgd1na2vs0mg"},{"bike_id":"1d204f53-d112-418a-998b-2fc7a97bb64e","system_id":"levelo_inurba_marseille","lat":43.28933,"lon":5.38412,"is_reserved":false,"is_disabled":false,"rental_uris":{"android":"levelo://app?vid=1d204f53-d112-418a-998b-2fc7a97bb64e","ios":"levelo://app?vid=1d204f53-d112-418a-998b-2fc7a97bb64e"},"vehicle_type_id":"4","last_reported":1743682790,"current_range_meters":8800,"station_id":"ce4bh612rcd13ifvqe6g","pricing_plan_id":"cebpf4jnsgd1na2vs0mg"},{"bike_id":"b5fa61b4-55c0-4d0f-b518-f0583e71aca3","system_id":"levelo_inurba_marseille","lat":43.22938,"lon":5.35374,"is_reserved":false,"is_disabled":false,"rental_uris":{"android":"levelo://app?vid=b5fa61b4-55c0-4d0f-b518-f0583e71aca3","ios":"levelo://app?vid=b5fa61b4-55c0-4d0f-b518-f0583e71aca3"},"vehicle_type_id":"4","last_reported":1743682790,"current_range_meters":8800,"station_id":"cpo3532slgdg3j2ikp40","pricing_plan_id":"cebpf4jnsgd1na2vs0mg"},{"bike_id":"6b901243-5970-4d41-950d-b84f98e2f80e","system_id":"levelo_inurba_marseille","lat":43.29279,"lon":5.37597,"is_reserved":false,"is_disabled":false,"rental_uris":{"android":"levelo://app?vid=6b901243-5970-4d41-950d-b84f98e2f80e","ios":"levelo://app?vid=6b901243-5970-4d41-950d-b84f98e2f80e"},"vehicle_type_id":"4","last_reported":1743682790,"current_range_meters":8800,"station_id":"ce4bgi12rcd13ifvqb80","pricing_plan_id":"cebpf4jnsgd1na2vs0mg"},{"bike_id":"38aea306-ed22-4087-8bd2-06551e10901e","system_id":"levelo_inurba_marseille","lat":43.2657,"lon":5.37298,"is_reserved":false,"is_disabled":false,"rental_uris":{"android":"levelo://app?vid=38aea306-ed22-4087-8bd2-06551e10901e","ios":"levelo://app?vid=38aea306-ed22-4087-8bd2-06551e10901e"},"vehicle_type_id":"4","last_reported":1743682790,"current_range_meters":8800,"station_id":"ce4bhg12rcd13ifvqf70","pricing_plan_id":"cebpf4jnsgd1na2vs0mg"},{"bike_id":"32b6ce14-bc37-467a-9bd1-70d62beccbe6","system_id":"levelo_inurba_marseille","lat":43.30961,"lon":5.39048,"is_reserved":false,"is_disabled":false,"rental_uris":{"android":"levelo://app?vid=32b6ce14-bc37-467a-9bd1-70d62beccbe6","ios":"levelo://app?vid=32b6ce14-bc37-467a-9bd1-70d62beccbe6"},"vehicle_type_id":"4","last_reported":1743682790,"current_range_meters":8800,"station_id":"ce4bgup2rcd13ifvqco0","pricing_plan_id":"cebpf4jnsgd1na2vs0mg"},{"bike_id":"8e3ec1f6-cfd2-4742-aa59-99e502f0c840","system_id":"levelo_inurba_marseille","lat":43.29867,"lon":5.39746,"is_reserved":false,"is_disabled":false,"rental_uris":{"android":"levelo://app?vid=8e3ec1f6-cfd2-4742-aa59-99e502f0c840","ios":"levelo://app?vid=8e3ec1f6-cfd2-4742-aa59-99e502f0c840"},"vehicle_type_id":"4","last_reported":1743682790,"current_range_meters":8800,"station_id":"ce4bh0h2rcd13ifvqd50","pricing_plan_id":"cebpf4jnsgd1na2vs0mg"},{"bike_id":"220b5a1e-ad83-49aa-94fb-26792a9f1e2d","system_id":"levelo_inurba_marseille","lat":43.27492,"lon":5.4245,"is_reserved":false,"is_disabled":false,"rental_uris":{"android":"levelo://app?vid=220b5a1e-ad83-49aa-94fb-26792a9f1e2d","ios":"levelo://app?vid=220b5a1e-ad83-49aa-94fb-26792a9f1e2d"},"vehicle_type_id":"4","last_reported":1743682790,"current_range_meters":8800,"station_id":"ce4bhn92rcd13ifvqgrg","pricing_plan_id":"cebpf4jnsgd1na2vs0mg"},{"bike_id":"61da1036-90fb-4e6f-ad89-ef7fc71db220","system_id":"levelo_inurba_marseille","lat":43.26558,"lon":5.37297,"is_reserved":false,"is_disabled":false,"rental_uris":{"android":"levelo://app?vid=61da1036-90fb-4e6f-ad89-ef7fc71db220","ios":"levelo://app?vid=61da1036-90fb-4e6f-ad89-ef7fc71db220"},"vehicle_type_id":"4","last_reported":1743682790,"current_range_meters":9200,"station_id":"ce4bhg12rcd13ifvqf70","pricing_plan_id":"cebpf4jnsgd1na2vs0mg"},{"bike_id":"7d45afe2-32fc-4c2d-a880-4d5933abb089","system_id":"levelo_inurba_marseille","lat":43.26936,"lon":5.38921,"is_reserved":false,"is_disabled":false,"rental_uris":{"android":"levelo://app?vid=7d45afe2-32fc-4c2d-a880-4d5933abb089","ios":"levelo://app?vid=7d45afe2-32fc-4c2d-a880-4d5933abb089"},"vehicle_type_id":"4","last_reported":1743682790,"current_range_meters":8800,"station_id":"ce4bhhh2rcd13ifvqfl0","pricing_plan_id":"cebpf4jnsgd1na2vs0mg"},{"bike_id":"58e66669-53ab-4d39-8504-5d085a462eeb","system_id":"levelo_inurba_marseille","lat":43.25917,"lon":5.40875,"is_reserved":false,"is_disabled":false,"rental_uris":{"android":"levelo://app?vid=58e66669-53ab-4d39-8504-5d085a462eeb","ios":"levelo://app?vid=58e66669-53ab-4d39-8504-5d085a462eeb"},"vehicle_type_id":"4","last_reported":1743682790,"current_range_meters":9200,"station_id":"ce4bhm92rcd13ifvqglg","pricing_plan_id":"cebpf4jnsgd1na2vs0mg"},{"bike_id":"c6544980-1e17-4054-9fa5-ef3391dbce24","system_id":"levelo_inurba_marseille","lat":43.2998,"lon":5.3718,"is_reserved":false,"is_disabled":false,"rental_uris":{"android":"levelo://app?vid=c6544980-1e17-4054-9fa5-ef3391dbce24","ios":"levelo://app?vid=c6544980-1e17-4054-9fa5-ef3391dbce24"},"vehicle_type_id":"4","last_reported":1743682790,"current_range_meters":9200,"station_id":"ce4bgr92rcd13ifvqc7g","pricing_plan_id":"cebpf4jnsgd1na2vs0mg"},{"bike_id":"5324b335-3699-4e60-abf7-a73fdc50f9da","system_id":"levelo_inurba_marseille","lat":43.27322,"lon":5.39093,"is_reserved":false,"is_disabled":false,"rental_uris":{"android":"levelo://app?vid=5324b335-3699-4e60-abf7-a73fdc50f9da","ios":"levelo://app?vid=5324b335-3699-4e60-abf7-a73fdc50f9da"},"vehicle_type_id":"4","last_reported":1743682790,"current_range_meters":9200,"station_id":"ce4bhgp2rcd13ifvqfe0","pricing_plan_id":"cebpf4jnsgd1na2vs0mg"},{"bike_id":"5b574daa-c81a-4aa3-bc81-f87519e8407b","system_id":"levelo_inurba_marseille","lat":43.26678,"lon":5.38268,"is_reserved":false,"is_disabled":false,"rental_uris":{"android":"levelo://app?vid=5b574daa-c81a-4aa3-bc81-f87519e8407b","ios":"levelo://app?vid=5b574daa-c81a-4aa3-bc81-f87519e8407b"},"vehicle_type_id":"4","last_reported":1743682790,"current_range_meters":9200,"station_id":"ce4bhg92rcd13ifvqf90","pricing_plan_id":"cebpf4jnsgd1na2vs0mg"},{"bike_id":"4a8d215f-728c-4424-bfbf-5faa62888e2d","system_id":"levelo_inurba_marseille","lat":43.295101,"lon":5.394076,"is_reserved":false,"is_disabled":true,"rental_uris":{"android":"levelo://app?vid=4a8d215f-728c-4424-bfbf-5faa62888e2d","ios":"levelo://app?vid=4a8d215f-728c-4424-bfbf-5faa62888e2d"},"vehicle_type_id":"4","last_reported":1743682790,"current_range_meters":9200,"station_id":"ce4bh292rcd13ifvqdf0","pricing_plan_id":"cebpf4jnsgd1na2vs0mg"},{"bike_id":"4c17ae71-9ea8-4d02-94e7-edfd67299dec","system_id":"levelo_inurba_marseille","lat":43.30802,"lon":5.38143,"is_reserved":false,"is_disabled":false,"rental_uris":{"android":"levelo://app?vid=4c17ae71-9ea8-4d02-94e7-edfd67299dec","ios":"levelo://app?vid=4c17ae71-9ea8-4d02-94e7-edfd67299dec"},"vehicle_type_id":"4","last_reported":1743682790,"current_range_meters":9600,"station_id":"ce4bgt12rcd13ifvqce0","pricing_plan_id":"cebpf4jnsgd1na2vs0mg"},{"bike_id":"cd83c8ac-ed09-4369-9279-b6f36f2bbd3c","system_id":"levelo_inurba_marseille","lat":43.30827,"lon":5.38238,"is_reserved":false,"is_disabled":false,"rental_uris":{"android":"levelo://app?vid=cd83c8ac-ed09-4369-9279-b6f36f2bbd3c","ios":"levelo://app?vid=cd83c8ac-ed09-4369-9279-b6f36f2bbd3c"},"vehicle_type_id":"4","last_reported":1743682790,"current_range_meters":9600,"station_id":"","pricing_plan_id":"cebpf4jnsgd1na2vs0mg"},{"bike_id":"7d49898d-4c6e-4131-9fdb-37de62f2c79c","system_id":"levelo_inurba_marseille","lat":43.28902,"lon":5.37124,"is_reserved":false,"is_disabled":false,"rental_uris":{"android":"levelo://app?vid=7d49898d-4c6e-4131-9fdb-37de62f2c79c","ios":"levelo://app?vid=7d49898d-4c6e-4131-9fdb-37de62f2c79c"},"vehicle_type_id":"4","last_reported":1743682790,"current_range_meters":9600,"station_id":"","pricing_plan_id":"cebpf4jnsgd1na2vs0mg"},{"bike_id":"eae1c1f9-7db0-41d8-acdc-37132416b428","system_id":"levelo_inurba_marseille","lat":43.27435,"lon":5.39412,"is_reserved":false,"is_disabled":false,"rental_uris":{"android":"levelo://app?vid=eae1c1f9-7db0-41d8-acdc-37132416b428","ios":"levelo://app?vid=eae1c1f9-7db0-41d8-acdc-37132416b428"},"vehicle_type_id":"4","last_reported":1743682790,"current_range_meters":9600,"station_id":"ce4bhdp2rcd13ifvqf20","pricing_plan_id":"cebpf4jnsgd1na2vs0mg"},{"bike_id":"22bcfedc-fd1a-42ef-b4ce-f8cb0c81bc99","system_id":"levelo_inurba_marseille","lat":43.30142,"lon":5.38782,"is_reserved":false,"is_disabled":true,"rental_uris":{"android":"levelo://app?vid=22bcfedc-fd1a-42ef-b4ce-f8cb0c81bc99","ios":"levelo://app?vid=22bcfedc-fd1a-42ef-b4ce-f8cb0c81bc99"},"vehicle_type_id":"4","last_reported":1743682790,"current_range_meters":9600,"station_id":"ce4bghh2rcd13ifvqb60","pricing_plan_id":"cebpf4jnsgd1na2vs0mg"},{"bike_id":"87ebaa08-417c-4e4c-9c6c-0870e96c7115","system_id":"levelo_inurba_marseille","lat":43.25002,"lon":5.38937,"is_reserved":false,"is_disabled":false,"rental_uris":{"android":"levelo://app?vid=87ebaa08-417c-4e4c-9c6c-0870e96c7115","ios":"levelo://app?vid=87ebaa08-417c-4e4c-9c6c-0870e96c7115"},"vehicle_type_id":"4","last_reported":1743682790,"current_range_meters":9600,"station_id":"ce4bhgp2rcd13ifvqfd0","pricing_plan_id":"cebpf4jnsgd1na2vs0mg"},{"bike_id":"74157fd8-0597-409e-9f68-969f3d916f32","system_id":"levelo_inurba_marseille","lat":43.25573,"lon":5.38236,"is_reserved":false,"is_disabled":false,"rental_uris":{"android":"levelo://app?vid=74157fd8-0597-409e-9f68-969f3d916f32","ios":"levelo://app?vid=74157fd8-0597-409e-9f68-969f3d916f32"},"vehicle_type_id":"4","last_reported":1743682790,"current_range_meters":9600,"station_id":"ce4bhih2rcd13ifvqfs0","pricing_plan_id":"cebpf4jnsgd1na2vs0mg"},{"bike_id":"6b04b6c2-6bd5-4038-ac04-8cb37928e09c","system_id":"levelo_inurba_marseille","lat":43.30322,"lon":5.40434,"is_reserved":false,"is_disabled":false,"rental_uris":{"android":"levelo://app?vid=6b04b6c2-6bd5-4038-ac04-8cb37928e09c","ios":"levelo://app?vid=6b04b6c2-6bd5-4038-ac04-8cb37928e09c"},"vehicle_type_id":"4","last_reported":1743682790,"current_range_meters":10000,"station_id":"ce4bh012rcd13ifvqd10","pricing_plan_id":"cebpf4jnsgd1na2vs0mg"},{"bike_id":"9a01609b-5c8b-499f-9feb-521c7bd78f99","system_id":"levelo_inurba_marseille","lat":43.29286,"lon":5.40123,"is_reserved":false,"is_disabled":false,"rental_uris":{"android":"levelo://app?vid=9a01609b-5c8b-499f-9feb-521c7bd78f99","ios":"levelo://app?vid=9a01609b-5c8b-499f-9feb-521c7bd78f99"},"vehicle_type_id":"4","last_reported":1743682790,"current_range_meters":10000,"station_id":"ce4bh312rcd13ifvqdk0","pricing_plan_id":"cebpf4jnsgd1na2vs0mg"},{"bike_id":"6b53d01e-77c7-4299-99ae-dda20d28569d","system_id":"levelo_inurba_marseille","lat":43.27963,"lon":5.3874,"is_reserved":false,"is_disabled":false,"rental_uris":{"android":"levelo://app?vid=6b53d01e-77c7-4299-99ae-dda20d28569d","ios":"levelo://app?vid=6b53d01e-77c7-4299-99ae-dda20d28569d"},"vehicle_type_id":"4","last_reported":1743682790,"current_range_meters":10000,"station_id":"ce4bhg12rcd13ifvqf80","pricing_plan_id":"cebpf4jnsgd1na2vs0mg"},{"bike_id":"8073569a-23c7-45b8-b854-282c3d0a58a5","system_id":"levelo_inurba_marseille","lat":43.28156,"lon":5.42641,"is_reserved":false,"is_disabled":false,"rental_uris":{"android":"levelo://app?vid=8073569a-23c7-45b8-b854-282c3d0a58a5","ios":"levelo://app?vid=8073569a-23c7-45b8-b854-282c3d0a58a5"},"vehicle_type_id":"4","last_reported":1743682790,"current_range_meters":10000,"station_id":"ce4bhnh2rcd13ifvqgug","pricing_plan_id":"cebpf4jnsgd1na2vs0mg"},{"bike_id":"a7b7b96a-e2e8-4e84-b8f4-2948db1d4b8c","system_id":"levelo_inurba_marseille","lat":43.29921,"lon":5.37467,"is_reserved":false,"is_disabled":false,"rental_uris":{"android":"levelo://app?vid=a7b7b96a-e2e8-4e84-b8f4-2948db1d4b8c","ios":"levelo://app?vid=a7b7b96a-e2e8-4e84-b8f4-2948db1d4b8c"},"vehicle_type_id":"4","last_reported":1743682790,"current_range_meters":10000,"station_id":"ce4bgjh2rcd13ifvqbg0","pricing_plan_id":"cebpf4jnsgd1na2vs0mg"},{"bike_id":"692f3245-71a2-4a5e-be47-09d1b72325ea","system_id":"levelo_inurba_marseille","lat":43.30532,"lon":5.36517,"is_reserved":false,"is_disabled":false,"rental_uris":{"android":"levelo://app?vid=692f3245-71a2-4a5e-be47-09d1b72325ea","ios":"levelo://app?vid=692f3245-71a2-4a5e-be47-09d1b72325ea"},"vehicle_type_id":"4","last_reported":1743682790,"current_range_meters":10000,"station_id":"ce4bgs12rcd13ifvqcag","pricing_plan_id":"cebpf4jnsgd1na2vs0mg"},{"bike_id":"8084a1e5-3eb2-4a07-82e8-309719c1a80e","system_id":"levelo_inurba_marseille","lat":43.26237,"lon":5.40446,"is_reserved":false,"is_disabled":false,"rental_uris":{"android":"levelo://app?vid=8084a1e5-3eb2-4a07-82e8-309719c1a80e","ios":"levelo://app?vid=8084a1e5-3eb2-4a07-82e8-309719c1a80e"},"vehicle_type_id":"4","last_reported":1743682790,"current_range_meters":10000,"station_id":"ce4bhmh2rcd13ifvqgmg","pricing_plan_id":"cebpf4jnsgd1na2vs0mg"},{"bike_id":"15c4e591-5a58-4b7a-b2e0-e6c79b9aca75","system_id":"levelo_inurba_marseille","lat":43.283447,"lon":5.381022,"is_reserved":false,"is_disabled":false,"rental_uris":{"android":"levelo://app?vid=15c4e591-5a58-4b7a-b2e0-e6c79b9aca75","ios":"levelo://app?vid=15c4e591-5a58-4b7a-b2e0-e6c79b9aca75"},"vehicle_type_id":"4","last_reported":1743682790,"current_range_meters":10000,"station_id":"ce4bgl12rcd13ifvqbo0","pricing_plan_id":"cebpf4jnsgd1na2vs0mg"},{"bike_id":"6c51a2a4-1207-41d6-8962-c4f070bd2bd2","system_id":"levelo_inurba_marseille","lat":43.27067,"lon":5.42272,"is_reserved":false,"is_disabled":false,"rental_uris":{"android":"levelo://app?vid=6c51a2a4-1207-41d6-8962-c4f070bd2bd2","ios":"levelo://app?vid=6c51a2a4-1207-41d6-8962-c4f070bd2bd2"},"vehicle_type_id":"4","last_reported":1743682790,"current_range_meters":10000,"station_id":"ce4bhk92rcd13ifvqgb0","pricing_plan_id":"cebpf4jnsgd1na2vs0mg"},{"bike_id":"73d854ad-9eb6-4d68-8878-e9b2295ae65a","system_id":"levelo_inurba_marseille","lat":43.23099,"lon":5.35475,"is_reserved":false,"is_disabled":false,"rental_uris":{"android":"levelo://app?vid=73d854ad-9eb6-4d68-8878-e9b2295ae65a","ios":"levelo://app?vid=73d854ad-9eb6-4d68-8878-e9b2295ae65a"},"vehicle_type_id":"4","last_reported":1743682790,"current_range_meters":10800,"station_id":"cpo3342slgdg3j2ifvpg","pricing_plan_id":"cebpf4jnsgd1na2vs0mg"},{"bike_id":"8b5a7420-7dda-4ff5-9659-2710246b9739","system_id":"levelo_inurba_marseille","lat":43.25115,"lon":5.4032,"is_reserved":false,"is_disabled":false,"rental_uris":{"android":"levelo://app?vid=8b5a7420-7dda-4ff5-9659-2710246b9739","ios":"levelo://app?vid=8b5a7420-7dda-4ff5-9659-2710246b9739"},"vehicle_type_id":"4","last_reported":1743682790,"current_range_meters":10800,"station_id":"ce4bhlh2rcd13ifvqgig","pricing_plan_id":"cebpf4jnsgd1na2vs0mg"},{"bike_id":"f6a8daf0-7a1f-4aeb-9246-cf0bfd5ca092","system_id":"levelo_inurba_marseille","lat":43.29282,"lon":5.36843,"is_reserved":false,"is_disabled":false,"rental_uris":{"android":"levelo://app?vid=f6a8daf0-7a1f-4aeb-9246-cf0bfd5ca092","ios":"levelo://app?vid=f6a8daf0-7a1f-4aeb-9246-cf0bfd5ca092"},"vehicle_type_id":"4","last_reported":1743682790,"current_range_meters":10800,"station_id":"ce4bhbp2rcd13ifvqesg","pricing_plan_id":"cebpf4jnsgd1na2vs0mg"},{"bike_id":"99a5afe8-91ee-41e3-b503-4989371ca08e","system_id":"levelo_inurba_marseille","lat":43.26563,"lon":5.37276,"is_reserved":false,"is_disabled":false,"rental_uris":{"android":"levelo://app?vid=99a5afe8-91ee-41e3-b503-4989371ca08e","ios":"levelo://app?vid=99a5afe8-91ee-41e3-b503-4989371ca08e"},"vehicle_type_id":"4","last_reported":1743682790,"current_range_meters":10800,"station_id":"ce4bhg12rcd13ifvqf70","pricing_plan_id":"cebpf4jnsgd1na2vs0mg"},{"bike_id":"f35bd8ac-a873-4763-a770-2a9a94275323","system_id":"levelo_inurba_marseille","lat":43.23147,"lon":5.43707,"is_reserved":false,"is_disabled":false,"rental_uris":{"android":"levelo://app?vid=f35bd8ac-a873-4763-a770-2a9a94275323","ios":"levelo://app?vid=f35bd8ac-a873-4763-a770-2a9a94275323"},"vehicle_type_id":"4","last_reported":1743682790,"current_range_meters":12800,"station_id":"ce4bhmp2rcd13ifvqgog","pricing_plan_id":"cebpf4jnsgd1na2vs0mg"},{"bike_id":"9e87594c-4498-40ac-951e-1679f3505c8d","system_id":"levelo_inurba_marseille","lat":43.30431,"lon":5.39758,"is_reserved":false,"is_disabled":false,"rental_uris":{"android":"levelo://app?vid=9e87594c-4498-40ac-951e-1679f3505c8d","ios":"levelo://app?vid=9e87594c-4498-40ac-951e-1679f3505c8d"},"vehicle_type_id":"4","last_reported":1743682790,"current_range_meters":10000,"station_id":"ce4bh092rcd13ifvqd20","pricing_plan_id":"cebpf4jnsgd1na2vs0mg"},{"bike_id":"e82d3ee0-1d60-4058-a155-6a7d5ea8d517","system_id":"levelo_inurba_marseille","lat":43.302204,"lon":5.394664,"is_reserved":false,"is_disabled":false,"rental_uris":{"android":"levelo://app?vid=e82d3ee0-1d60-4058-a155-6a7d5ea8d517","ios":"levelo://app?vid=e82d3ee0-1d60-4058-a155-6a7d5ea8d517"},"vehicle_type_id":"4","last_reported":1743682790,"current_range_meters":10800,"station_id":"ce4bh0p2rcd13ifvqd70","pricing_plan_id":"cebpf4jnsgd1na2vs0mg"},{"bike_id":"2c3816c2-cada-47b8-a6cf-d720d3ee7f62","system_id":"levelo_inurba_marseille","lat":43.24072,"lon":5.37756,"is_reserved":false,"is_disabled":false,"rental_uris":{"android":"levelo://app?vid=2c3816c2-cada-47b8-a6cf-d720d3ee7f62","ios":"levelo://app?vid=2c3816c2-cada-47b8-a6cf-d720d3ee7f62"},"vehicle_type_id":"4","last_reported":1743682790,"current_range_meters":10800,"station_id":"ce4bhnp2rcd13ifvqgvg","pricing_plan_id":"cebpf4jnsgd1na2vs0mg"},{"bike_id":"2635283e-ffd4-4c1f-b9e8-1b146ac4c8cc","system_id":"levelo_inurba_marseille","lat":43.302019,"lon":5.419234,"is_reserved":false,"is_disabled":false,"rental_uris":{"android":"levelo://app?vid=2635283e-ffd4-4c1f-b9e8-1b146ac4c8cc","ios":"levelo://app?vid=2635283e-ffd4-4c1f-b9e8-1b146ac4c8cc"},"vehicle_type_id":"4","last_reported":1743682790,"current_range_meters":10800,"station_id":"","pricing_plan_id":"cebpf4jnsgd1na2vs0mg"},{"bike_id":"c13336a2-47ce-488c-b5b6-77c01a3ac1d1","system_id":"levelo_inurba_marseille","lat":43.31906,"lon":5.40731,"is_reserved":false,"is_disabled":true,"rental_uris":{"android":"levelo://app?vid=c13336a2-47ce-488c-b5b6-77c01a3ac1d1","ios":"levelo://app?vid=c13336a2-47ce-488c-b5b6-77c01a3ac1d1"},"vehicle_type_id":"4","last_reported":1743682790,"current_range_meters":10800,"station_id":"ce4bhq12rcd13ifvqhig","pricing_plan_id":"cebpf4jnsgd1na2vs0mg"},{"bike_id":"5b34af55-5db8-496a-8bda-0293c275d6eb","system_id":"levelo_inurba_marseille","lat":43.28619,"lon":5.35111,"is_reserved":false,"is_disabled":false,"rental_uris":{"android":"levelo://app?vid=5b34af55-5db8-496a-8bda-0293c275d6eb","ios":"levelo://app?vid=5b34af55-5db8-496a-8bda-0293c275d6eb"},"vehicle_type_id":"4","last_reported":1743682790,"current_range_meters":10800,"station_id":"ce4bhch2rcd13ifvqeug","pricing_plan_id":"cebpf4jnsgd1na2vs0mg"},{"bike_id":"89632a6e-df4a-479e-a710-feb11145499c","system_id":"levelo_inurba_marseille","lat":43.26565,"lon":5.37302,"is_reserved":false,"is_disabled":false,"rental_uris":{"android":"levelo://app?vid=89632a6e-df4a-479e-a710-feb11145499c","ios":"levelo://app?vid=89632a6e-df4a-479e-a710-feb11145499c"},"vehicle_type_id":"4","last_reported":1743682790,"current_range_meters":10800,"station_id":"ce4bhg12rcd13ifvqf70","pricing_plan_id":"cebpf4jnsgd1na2vs0mg"},{"bike_id":"70e5b39f-29e3-4ea9-aa83-5a60a8eec6f8","system_id":"levelo_inurba_marseille","lat":43.25065,"lon":5.41688,"is_reserved":false,"is_disabled":false,"rental_uris":{"android":"levelo://app?vid=70e5b39f-29e3-4ea9-aa83-5a60a8eec6f8","ios":"levelo://app?vid=70e5b39f-29e3-4ea9-aa83-5a60a8eec6f8"},"vehicle_type_id":"4","last_reported":1743682790,"current_range_meters":10800,"station_id":"","pricing_plan_id":"cebpf4jnsgd1na2vs0mg"},{"bike_id":"e887e1b0-3e28-4312-9fbe-6970a3a27c4a","system_id":"levelo_inurba_marseille","lat":43.25923,"lon":5.40905,"is_reserved":false,"is_disabled":false,"rental_uris":{"android":"levelo://app?vid=e887e1b0-3e28-4312-9fbe-6970a3a27c4a","ios":"levelo://app?vid=e887e1b0-3e28-4312-9fbe-6970a3a27c4a"},"vehicle_type_id":"4","last_reported":1743682790,"current_range_meters":11200,"station_id":"ce4bhm92rcd13ifvqglg","pricing_plan_id":"cebpf4jnsgd1na2vs0mg"},{"bike_id":"e35bb1e3-bd5c-4799-8537-6d1bb84d0e1a","system_id":"levelo_inurba_marseille","lat":43.30214,"lon":5.39473,"is_reserved":false,"is_disabled":false,"rental_uris":{"android":"levelo://app?vid=e35bb1e3-bd5c-4799-8537-6d1bb84d0e1a","ios":"levelo://app?vid=e35bb1e3-bd5c-4799-8537-6d1bb84d0e1a"},"vehicle_type_id":"4","last_reported":1743682790,"current_range_meters":11200,"station_id":"ce4bh0p2rcd13ifvqd70","pricing_plan_id":"cebpf4jnsgd1na2vs0mg"},{"bike_id":"929aa6ab-d61d-4fac-9ce0-4667602e1f8f","system_id":"levelo_inurba_marseille","lat":43.33012,"lon":5.39033,"is_reserved":false,"is_disabled":false,"rental_uris":{"android":"levelo://app?vid=929aa6ab-d61d-4fac-9ce0-4667602e1f8f","ios":"levelo://app?vid=929aa6ab-d61d-4fac-9ce0-4667602e1f8f"},"vehicle_type_id":"4","last_reported":1743682790,"current_range_meters":11200,"station_id":"ce4bhr92rcd13ifvqhrg","pricing_plan_id":"cebpf4jnsgd1na2vs0mg"},{"bike_id":"e3a29d38-a611-4b12-87ef-2fb8a21c41d5","system_id":"levelo_inurba_marseille","lat":43.22939,"lon":5.35377,"is_reserved":false,"is_disabled":false,"rental_uris":{"android":"levelo://app?vid=e3a29d38-a611-4b12-87ef-2fb8a21c41d5","ios":"levelo://app?vid=e3a29d38-a611-4b12-87ef-2fb8a21c41d5"},"vehicle_type_id":"4","last_reported":1743682790,"current_range_meters":11200,"station_id":"cpo3532slgdg3j2ikp40","pricing_plan_id":"cebpf4jnsgd1na2vs0mg"},{"bike_id":"c1c63035-c83b-4419-8cbf-133778d95125","system_id":"levelo_inurba_marseille","lat":43.297871,"lon":5.393516,"is_reserved":false,"is_disabled":true,"rental_uris":{"android":"levelo://app?vid=c1c63035-c83b-4419-8cbf-133778d95125","ios":"levelo://app?vid=c1c63035-c83b-4419-8cbf-133778d95125"},"vehicle_type_id":"4","last_reported":1743682790,"current_range_meters":11200,"station_id":"chh1huq6cuj3fo74tm60","pricing_plan_id":"cebpf4jnsgd1na2vs0mg"},{"bike_id":"4fcd2061-ddd4-4ba5-a215-f274b5e981af","system_id":"levelo_inurba_marseille","lat":43.2836,"lon":5.38101,"is_reserved":false,"is_disabled":false,"rental_uris":{"android":"levelo://app?vid=4fcd2061-ddd4-4ba5-a215-f274b5e981af","ios":"levelo://app?vid=4fcd2061-ddd4-4ba5-a215-f274b5e981af"},"vehicle_type_id":"4","last_reported":1743682790,"current_range_meters":11200,"station_id":"ce4bh412rcd13ifvqdr0","pricing_plan_id":"cebpf4jnsgd1na2vs0mg"},{"bike_id":"b672fb25-95a9-4ba6-868f-de9ccfea37ac","system_id":"levelo_inurba_marseille","lat":43.30318,"lon":5.39184,"is_reserved":false,"is_disabled":true,"rental_uris":{"android":"levelo://app?vid=b672fb25-95a9-4ba6-868f-de9ccfea37ac","ios":"levelo://app?vid=b672fb25-95a9-4ba6-868f-de9ccfea37ac"},"vehicle_type_id":"4","last_reported":1743682790,"current_range_meters":11600,"station_id":"ce4bgkh2rcd13ifvqbk0","pricing_plan_id":"cebpf4jnsgd1na2vs0mg"},{"bike_id":"d2a9c8d5-6f1a-4cf5-9fa3-a5dbab8b5880","system_id":"levelo_inurba_marseille","lat":43.29599,"lon":5.36731,"is_reserved":false,"is_disabled":false,"rental_uris":{"android":"levelo://app?vid=d2a9c8d5-6f1a-4cf5-9fa3-a5dbab8b5880","ios":"levelo://app?vid=d2a9c8d5-6f1a-4cf5-9fa3-a5dbab8b5880"},"vehicle_type_id":"4","last_reported":1743682790,"current_range_meters":11600,"station_id":"ce4bgph2rcd13ifvqc2g","pricing_plan_id":"cebpf4jnsgd1na2vs0mg"},{"bike_id":"bb32f878-4758-4574-b0bc-f6150889fb77","system_id":"levelo_inurba_marseille","lat":43.28717,"lon":5.37939,"is_reserved":false,"is_disabled":false,"rental_uris":{"android":"levelo://app?vid=bb32f878-4758-4574-b0bc-f6150889fb77","ios":"levelo://app?vid=bb32f878-4758-4574-b0bc-f6150889fb77"},"vehicle_type_id":"4","last_reported":1743682790,"current_range_meters":11600,"station_id":"ce4bh9p2rcd13ifvqec0","pricing_plan_id":"cebpf4jnsgd1na2vs0mg"},{"bike_id":"aa9f909d-1ab0-423e-af17-7c1ea9c9d869","system_id":"levelo_inurba_marseille","lat":43.31237,"lon":5.36866,"is_reserved":false,"is_disabled":false,"rental_uris":{"android":"levelo://app?vid=aa9f909d-1ab0-423e-af17-7c1ea9c9d869","ios":"levelo://app?vid=aa9f909d-1ab0-423e-af17-7c1ea9c9d869"},"vehicle_type_id":"4","last_reported":1743682790,"current_range_meters":11600,"station_id":"ce4bgl92rcd13ifvqbq0","pricing_plan_id":"cebpf4jnsgd1na2vs0mg"},{"bike_id":"efddeda7-6eb2-4c14-868d-fa0ce0b35ef3","system_id":"levelo_inurba_marseille","lat":43.31296,"lon":5.38293,"is_reserved":false,"is_disabled":false,"rental_uris":{"android":"levelo://app?vid=efddeda7-6eb2-4c14-868d-fa0ce0b35ef3","ios":"levelo://app?vid=efddeda7-6eb2-4c14-868d-fa0ce0b35ef3"},"vehicle_type_id":"4","last_reported":1743682790,"current_range_meters":11600,"station_id":"","pricing_plan_id":"cebpf4jnsgd1na2vs0mg"},{"bike_id":"de32991c-39d7-4ac2-886e-deed814d2c25","system_id":"levelo_inurba_marseille","lat":43.2791,"lon":5.39577,"is_reserved":false,"is_disabled":false,"rental_uris":{"android":"levelo://app?vid=de32991c-39d7-4ac2-886e-deed814d2c25","ios":"levelo://app?vid=de32991c-39d7-4ac2-886e-deed814d2c25"},"vehicle_type_id":"4","last_reported":1743682790,"current_range_meters":11600,"station_id":"ce4bhf92rcd13ifvqf40","pricing_plan_id":"cebpf4jnsgd1na2vs0mg"},{"bike_id":"03621e27-7737-4553-a20f-2f2e0e6120b9","system_id":"levelo_inurba_marseille","lat":43.26237,"lon":5.40449,"is_reserved":false,"is_disabled":false,"rental_uris":{"android":"levelo://app?vid=03621e27-7737-4553-a20f-2f2e0e6120b9","ios":"levelo://app?vid=03621e27-7737-4553-a20f-2f2e0e6120b9"},"vehicle_type_id":"4","last_reported":1743682790,"current_range_meters":12000,"station_id":"ce4bhmh2rcd13ifvqgmg","pricing_plan_id":"cebpf4jnsgd1na2vs0mg"},{"bike_id":"9ada3385-2eea-446a-95da-f8740519d0e3","system_id":"levelo_inurba_marseille","lat":43.24061,"lon":5.37742,"is_reserved":false,"is_disabled":false,"rental_uris":{"android":"levelo://app?vid=9ada3385-2eea-446a-95da-f8740519d0e3","ios":"levelo://app?vid=9ada3385-2eea-446a-95da-f8740519d0e3"},"vehicle_type_id":"4","last_reported":1743682790,"current_range_meters":12000,"station_id":"ce4bhnp2rcd13ifvqgvg","pricing_plan_id":"cebpf4jnsgd1na2vs0mg"},{"bike_id":"8e4581a0-ac48-45f0-8881-72e126b8df71","system_id":"levelo_inurba_marseille","lat":43.31218,"lon":5.36874,"is_reserved":false,"is_disabled":false,"rental_uris":{"android":"levelo://app?vid=8e4581a0-ac48-45f0-8881-72e126b8df71","ios":"levelo://app?vid=8e4581a0-ac48-45f0-8881-72e126b8df71"},"vehicle_type_id":"4","last_reported":1743682790,"current_range_meters":12000,"station_id":"ce4bgl92rcd13ifvqbq0","pricing_plan_id":"cebpf4jnsgd1na2vs0mg"},{"bike_id":"52dddf61-35ee-4d24-b3ca-c6cea6327137","system_id":"levelo_inurba_marseille","lat":43.34142,"lon":5.40907,"is_reserved":false,"is_disabled":false,"rental_uris":{"android":"levelo://app?vid=52dddf61-35ee-4d24-b3ca-c6cea6327137","ios":"levelo://app?vid=52dddf61-35ee-4d24-b3ca-c6cea6327137"},"vehicle_type_id":"4","last_reported":1743682790,"current_range_meters":12400,"station_id":"ce4bhqh2rcd13ifvqhlg","pricing_plan_id":"cebpf4jnsgd1na2vs0mg"},{"bike_id":"8131976e-a19a-452d-8f81-137449755be0","system_id":"levelo_inurba_marseille","lat":43.28427,"lon":5.34979,"is_reserved":false,"is_disabled":false,"rental_uris":{"android":"levelo://app?vid=8131976e-a19a-452d-8f81-137449755be0","ios":"levelo://app?vid=8131976e-a19a-452d-8f81-137449755be0"},"vehicle_type_id":"4","last_reported":1743682790,"current_range_meters":12400,"station_id":"ce4bhbh2rcd13ifvqepg","pricing_plan_id":"cebpf4jnsgd1na2vs0mg"},{"bike_id":"88fe0602-5033-4610-b8b3-85d796ebfed7","system_id":"levelo_inurba_marseille","lat":43.26069,"lon":5.39403,"is_reserved":false,"is_disabled":false,"rental_uris":{"android":"levelo://app?vid=88fe0602-5033-4610-b8b3-85d796ebfed7","ios":"levelo://app?vid=88fe0602-5033-4610-b8b3-85d796ebfed7"},"vehicle_type_id":"4","last_reported":1743682790,"current_range_meters":12400,"station_id":"ce4bhh92rcd13ifvqfj0","pricing_plan_id":"cebpf4jnsgd1na2vs0mg"},{"bike_id":"caf1b957-71f5-44e7-849c-22f9515c7ed6","system_id":"levelo_inurba_marseille","lat":43.24069,"lon":5.37746,"is_reserved":false,"is_disabled":false,"rental_uris":{"android":"levelo://app?vid=caf1b957-71f5-44e7-849c-22f9515c7ed6","ios":"levelo://app?vid=caf1b957-71f5-44e7-849c-22f9515c7ed6"},"vehicle_type_id":"4","last_reported":1743682790,"current_range_meters":12400,"station_id":"ce4bhnp2rcd13ifvqgvg","pricing_plan_id":"cebpf4jnsgd1na2vs0mg"},{"bike_id":"6d8a8a4d-fdb3-4591-9586-a46ceb6fb1d8","system_id":"levelo_inurba_marseille","lat":43.26554,"lon":5.3729,"is_reserved":false,"is_disabled":false,"rental_uris":{"android":"levelo://app?vid=6d8a8a4d-fdb3-4591-9586-a46ceb6fb1d8","ios":"levelo://app?vid=6d8a8a4d-fdb3-4591-9586-a46ceb6fb1d8"},"vehicle_type_id":"4","last_reported":1743682790,"current_range_meters":12400,"station_id":"ce4bhg12rcd13ifvqf70","pricing_plan_id":"cebpf4jnsgd1na2vs0mg"},{"bike_id":"05d276a4-5470-4193-90b9-5b333d56bd72","system_id":"levelo_inurba_marseille","lat":43.2481,"lon":5.37458,"is_reserved":false,"is_disabled":false,"rental_uris":{"android":"levelo://app?vid=05d276a4-5470-4193-90b9-5b333d56bd72","ios":"levelo://app?vid=05d276a4-5470-4193-90b9-5b333d56bd72"},"vehicle_type_id":"4","last_reported":1743682790,"current_range_meters":12400,"station_id":"ce4bhgh2rcd13ifvqfb0","pricing_plan_id":"cebpf4jnsgd1na2vs0mg"},{"bike_id":"e2349e95-21ed-4a50-86ca-c4c21aaca26b","system_id":"levelo_inurba_marseille","lat":43.28858,"lon":5.35878,"is_reserved":false,"is_disabled":false,"rental_uris":{"android":"levelo://app?vid=e2349e95-21ed-4a50-86ca-c4c21aaca26b","ios":"levelo://app?vid=e2349e95-21ed-4a50-86ca-c4c21aaca26b"},"vehicle_type_id":"4","last_reported":1743682790,"current_range_meters":12800,"station_id":"ce4bhb12rcd13ifvqem0","pricing_plan_id":"cebpf4jnsgd1na2vs0mg"},{"bike_id":"e7748123-e42c-423e-a37d-5a1df5da89bb","system_id":"levelo_inurba_marseille","lat":43.3153,"lon":5.37212,"is_reserved":false,"is_disabled":false,"rental_uris":{"android":"levelo://app?vid=e7748123-e42c-423e-a37d-5a1df5da89bb","ios":"levelo://app?vid=e7748123-e42c-423e-a37d-5a1df5da89bb"},"vehicle_type_id":"4","last_reported":1743682790,"current_range_meters":12800,"station_id":"","pricing_plan_id":"cebpf4jnsgd1na2vs0mg"},{"bike_id":"301156b7-e9e2-4fbc-88ce-e2edf0d34844","system_id":"levelo_inurba_marseille","lat":43.29047,"lon":5.38127,"is_reserved":false,"is_disabled":true,"rental_uris":{"android":"levelo://app?vid=301156b7-e9e2-4fbc-88ce-e2edf0d34844","ios":"levelo://app?vid=301156b7-e9e2-4fbc-88ce-e2edf0d34844"},"vehicle_type_id":"4","last_reported":1743682790,"current_range_meters":12800,"station_id":"ce4bh4p2rcd13ifvqe1g","pricing_plan_id":"cebpf4jnsgd1na2vs0mg"},{"bike_id":"b79cf3c0-e776-42b5-b490-23abee074384","system_id":"levelo_inurba_marseille","lat":43.30264,"lon":5.40074,"is_reserved":false,"is_disabled":false,"rental_uris":{"android":"levelo://app?vid=b79cf3c0-e776-42b5-b490-23abee074384","ios":"levelo://app?vid=b79cf3c0-e776-42b5-b490-23abee074384"},"vehicle_type_id":"4","last_reported":1743682790,"current_range_meters":12400,"station_id":"ce4bgvh2rcd13ifvqcs0","pricing_plan_id":"cebpf4jnsgd1na2vs0mg"},{"bike_id":"0e0d511f-208e-433e-87ea-773f95b2cc75","system_id":"levelo_inurba_marseille","lat":43.30888,"lon":5.39657,"is_reserved":false,"is_disabled":false,"rental_uris":{"android":"levelo://app?vid=0e0d511f-208e-433e-87ea-773f95b2cc75","ios":"levelo://app?vid=0e0d511f-208e-433e-87ea-773f95b2cc75"},"vehicle_type_id":"4","last_reported":1743682790,"current_range_meters":12800,"station_id":"ce4bh012rcd13ifvqcv0","pricing_plan_id":"cebpf4jnsgd1na2vs0mg"},{"bike_id":"78bf4d6c-2fc5-4774-b8b9-8258a8e0a7a4","system_id":"levelo_inurba_marseille","lat":43.28726,"lon":5.36104,"is_reserved":false,"is_disabled":false,"rental_uris":{"android":"levelo://app?vid=78bf4d6c-2fc5-4774-b8b9-8258a8e0a7a4","ios":"levelo://app?vid=78bf4d6c-2fc5-4774-b8b9-8258a8e0a7a4"},"vehicle_type_id":"4","last_reported":1743682790,"current_range_meters":12400,"station_id":"cki0cbj6b192h4jlfktg","pricing_plan_id":"cebpf4jnsgd1na2vs0mg"},{"bike_id":"5a1286b5-5fd1-4027-a67f-8832d73a1c90","system_id":"levelo_inurba_marseille","lat":43.25727,"lon":5.41118,"is_reserved":false,"is_disabled":false,"rental_uris":{"android":"levelo://app?vid=5a1286b5-5fd1-4027-a67f-8832d73a1c90","ios":"levelo://app?vid=5a1286b5-5fd1-4027-a67f-8832d73a1c90"},"vehicle_type_id":"4","last_reported":1743682790,"current_range_meters":13600,"station_id":"ce4bhkp2rcd13ifvqgd0","pricing_plan_id":"cebpf4jnsgd1na2vs0mg"},{"bike_id":"22b8702c-0dfe-451a-841a-e968657038a3","system_id":"levelo_inurba_marseille","lat":43.32493,"lon":5.36561,"is_reserved":false,"is_disabled":false,"rental_uris":{"android":"levelo://app?vid=22b8702c-0dfe-451a-841a-e968657038a3","ios":"levelo://app?vid=22b8702c-0dfe-451a-841a-e968657038a3"},"vehicle_type_id":"4","last_reported":1743682790,"current_range_meters":13600,"station_id":"ce4bhs12rcd13ifvqhvg","pricing_plan_id":"cebpf4jnsgd1na2vs0mg"},{"bike_id":"3e4aebda-a52f-4359-959c-13f23d9355e0","system_id":"levelo_inurba_marseille","lat":43.26681,"lon":5.38277,"is_reserved":false,"is_disabled":false,"rental_uris":{"android":"levelo://app?vid=3e4aebda-a52f-4359-959c-13f23d9355e0","ios":"levelo://app?vid=3e4aebda-a52f-4359-959c-13f23d9355e0"},"vehicle_type_id":"4","last_reported":1743682790,"current_range_meters":13600,"station_id":"ce4bhg92rcd13ifvqf90","pricing_plan_id":"cebpf4jnsgd1na2vs0mg"},{"bike_id":"841946bd-6940-4794-9af4-41cbe287891a","system_id":"levelo_inurba_marseille","lat":43.27379,"lon":5.36254,"is_reserved":false,"is_disabled":false,"rental_uris":{"android":"levelo://app?vid=841946bd-6940-4794-9af4-41cbe287891a","ios":"levelo://app?vid=841946bd-6940-4794-9af4-41cbe287891a"},"vehicle_type_id":"4","last_reported":1743682790,"current_range_meters":13600,"station_id":"ce4bhbh2rcd13ifvqeo0","pricing_plan_id":"cebpf4jnsgd1na2vs0mg"},{"bike_id":"9223a985-0cac-4967-beb8-063de2b144f0","system_id":"levelo_inurba_marseille","lat":43.28663,"lon":5.36354,"is_reserved":false,"is_disabled":false,"rental_uris":{"android":"levelo://app?vid=9223a985-0cac-4967-beb8-063de2b144f0","ios":"levelo://app?vid=9223a985-0cac-4967-beb8-063de2b144f0"},"vehicle_type_id":"4","last_reported":1743682790,"current_range_meters":12800,"station_id":"ce4bhah2rcd13ifvqej0","pricing_plan_id":"cebpf4jnsgd1na2vs0mg"},{"bike_id":"63139285-137c-4e8d-8e95-6c2a275f8333","system_id":"levelo_inurba_marseille","lat":43.32103,"lon":5.36771,"is_reserved":false,"is_disabled":false,"rental_uris":{"android":"levelo://app?vid=63139285-137c-4e8d-8e95-6c2a275f8333","ios":"levelo://app?vid=63139285-137c-4e8d-8e95-6c2a275f8333"},"vehicle_type_id":"4","last_reported":1743682790,"current_range_meters":13600,"station_id":"ce4bhrh2rcd13ifvqhug","pricing_plan_id":"cebpf4jnsgd1na2vs0mg"},{"bike_id":"7d05682b-7611-4261-9f80-a784a651f3b6","system_id":"levelo_inurba_marseille","lat":43.30139,"lon":5.3743,"is_reserved":false,"is_disabled":false,"rental_uris":{"android":"levelo://app?vid=7d05682b-7611-4261-9f80-a784a651f3b6","ios":"levelo://app?vid=7d05682b-7611-4261-9f80-a784a651f3b6"},"vehicle_type_id":"4","last_reported":1743682790,"current_range_meters":13600,"station_id":"ce4bgs92rcd13ifvqcc0","pricing_plan_id":"cebpf4jnsgd1na2vs0mg"},{"bike_id":"21b65b62-2684-4fc7-8920-573a961d7a1b","system_id":"levelo_inurba_marseille","lat":43.28279,"lon":5.35061,"is_reserved":false,"is_disabled":false,"rental_uris":{"android":"levelo://app?vid=21b65b62-2684-4fc7-8920-573a961d7a1b","ios":"levelo://app?vid=21b65b62-2684-4fc7-8920-573a961d7a1b"},"vehicle_type_id":"4","last_reported":1743682790,"current_range_meters":14000,"station_id":"ce4bhbp2rcd13ifvqerg","pricing_plan_id":"cebpf4jnsgd1na2vs0mg"},{"bike_id":"403dd03e-77f9-4fde-aef9-0293362afb60","system_id":"levelo_inurba_marseille","lat":43.317108,"lon":5.377711,"is_reserved":false,"is_disabled":false,"rental_uris":{"android":"levelo://app?vid=403dd03e-77f9-4fde-aef9-0293362afb60","ios":"levelo://app?vid=403dd03e-77f9-4fde-aef9-0293362afb60"},"vehicle_type_id":"4","last_reported":1743682790,"current_range_meters":14000,"station_id":"","pricing_plan_id":"cebpf4jnsgd1na2vs0mg"},{"bike_id":"2a9b1edd-33fe-4beb-91c4-857776c582d4","system_id":"levelo_inurba_marseille","lat":43.29528,"lon":5.38541,"is_reserved":false,"is_disabled":false,"rental_uris":{"android":"levelo://app?vid=2a9b1edd-33fe-4beb-91c4-857776c582d4","ios":"levelo://app?vid=2a9b1edd-33fe-4beb-91c4-857776c582d4"},"vehicle_type_id":"4","last_reported":1743682790,"current_range_meters":13600,"station_id":"ce4bgih2rcd13ifvqba0","pricing_plan_id":"cebpf4jnsgd1na2vs0mg"},{"bike_id":"5f46717b-05d1-4f34-a220-8087932d755b","system_id":"levelo_inurba_marseille","lat":43.30099,"lon":5.36935,"is_reserved":false,"is_disabled":false,"rental_uris":{"android":"levelo://app?vid=5f46717b-05d1-4f34-a220-8087932d755b","ios":"levelo://app?vid=5f46717b-05d1-4f34-a220-8087932d755b"},"vehicle_type_id":"4","last_reported":1743682790,"current_range_meters":14000,"station_id":"","pricing_plan_id":"cebpf4jnsgd1na2vs0mg"},{"bike_id":"cc9f7e74-2a43-41f0-9b0c-b67ec2e63e40","system_id":"levelo_inurba_marseille","lat":43.2862,"lon":5.35099,"is_reserved":false,"is_disabled":false,"rental_uris":{"android":"levelo://app?vid=cc9f7e74-2a43-41f0-9b0c-b67ec2e63e40","ios":"levelo://app?vid=cc9f7e74-2a43-41f0-9b0c-b67ec2e63e40"},"vehicle_type_id":"4","last_reported":1743682790,"current_range_meters":14000,"station_id":"ce4bhch2rcd13ifvqeug","pricing_plan_id":"cebpf4jnsgd1na2vs0mg"},{"bike_id":"e3e0f7ef-f028-476a-a48d-5daec52bcf76","system_id":"levelo_inurba_marseille","lat":43.2836,"lon":5.38114,"is_reserved":false,"is_disabled":false,"rental_uris":{"android":"levelo://app?vid=e3e0f7ef-f028-476a-a48d-5daec52bcf76","ios":"levelo://app?vid=e3e0f7ef-f028-476a-a48d-5daec52bcf76"},"vehicle_type_id":"4","last_reported":1743682790,"current_range_meters":14000,"station_id":"ce4bh412rcd13ifvqdr0","pricing_plan_id":"cebpf4jnsgd1na2vs0mg"},{"bike_id":"0aa69f03-0878-4038-837b-a34d05729b70","system_id":"levelo_inurba_marseille","lat":43.3055,"lon":5.36682,"is_reserved":false,"is_disabled":false,"rental_uris":{"android":"levelo://app?vid=0aa69f03-0878-4038-837b-a34d05729b70","ios":"levelo://app?vid=0aa69f03-0878-4038-837b-a34d05729b70"},"vehicle_type_id":"4","last_reported":1743682790,"current_range_meters":14400,"station_id":"ce4bgrp2rcd13ifvqc9g","pricing_plan_id":"cebpf4jnsgd1na2vs0mg"},{"bike_id":"4e1e0902-80c7-4677-a573-2b896641a2d0","system_id":"levelo_inurba_marseille","lat":43.27974,"lon":5.3874,"is_reserved":false,"is_disabled":false,"rental_uris":{"android":"levelo://app?vid=4e1e0902-80c7-4677-a573-2b896641a2d0","ios":"levelo://app?vid=4e1e0902-80c7-4677-a573-2b896641a2d0"},"vehicle_type_id":"4","last_reported":1743682790,"current_range_meters":14000,"station_id":"ce4bhg12rcd13ifvqf80","pricing_plan_id":"cebpf4jnsgd1na2vs0mg"},{"bike_id":"a6303451-5b45-435c-bf0e-748f94cc010d","system_id":"levelo_inurba_marseille","lat":43.232073,"lon":5.355477,"is_reserved":false,"is_disabled":false,"rental_uris":{"android":"levelo://app?vid=a6303451-5b45-435c-bf0e-748f94cc010d","ios":"levelo://app?vid=a6303451-5b45-435c-bf0e-748f94cc010d"},"vehicle_type_id":"4","last_reported":1743682790,"current_range_meters":14400,"station_id":"ce4bhu92rcd13ifvqi70","pricing_plan_id":"cebpf4jnsgd1na2vs0mg"},{"bike_id":"e9947125-e4b1-4977-bee9-fb031515997e","system_id":"levelo_inurba_marseille","lat":43.24565,"lon":5.395,"is_reserved":false,"is_disabled":false,"rental_uris":{"android":"levelo://app?vid=e9947125-e4b1-4977-bee9-fb031515997e","ios":"levelo://app?vid=e9947125-e4b1-4977-bee9-fb031515997e"},"vehicle_type_id":"4","last_reported":1743682790,"current_range_meters":14400,"station_id":"ce4bhlp2rcd13ifvqgjg","pricing_plan_id":"cebpf4jnsgd1na2vs0mg"},{"bike_id":"f1e5f20d-e5bb-4349-9a72-f7ab8a004414","system_id":"levelo_inurba_marseille","lat":43.3032,"lon":5.40437,"is_reserved":false,"is_disabled":true,"rental_uris":{"android":"levelo://app?vid=f1e5f20d-e5bb-4349-9a72-f7ab8a004414","ios":"levelo://app?vid=f1e5f20d-e5bb-4349-9a72-f7ab8a004414"},"vehicle_type_id":"4","last_reported":1743682790,"current_range_meters":14400,"station_id":"ce4bh012rcd13ifvqd10","pricing_plan_id":"cebpf4jnsgd1na2vs0mg"},{"bike_id":"b924e854-9966-4e4a-a3a9-648bf6f2bda0","system_id":"levelo_inurba_marseille","lat":43.30782,"lon":5.37641,"is_reserved":false,"is_disabled":false,"rental_uris":{"android":"levelo://app?vid=b924e854-9966-4e4a-a3a9-648bf6f2bda0","ios":"levelo://app?vid=b924e854-9966-4e4a-a3a9-648bf6f2bda0"},"vehicle_type_id":"4","last_reported":1743682790,"current_range_meters":14000,"station_id":"ce4bgv92rcd13ifvqcq0","pricing_plan_id":"cebpf4jnsgd1na2vs0mg"},{"bike_id":"ddece980-9bf4-4cd1-87d5-3d4126bbcba8","system_id":"levelo_inurba_marseille","lat":43.23191,"lon":5.35553,"is_reserved":false,"is_disabled":false,"rental_uris":{"android":"levelo://app?vid=ddece980-9bf4-4cd1-87d5-3d4126bbcba8","ios":"levelo://app?vid=ddece980-9bf4-4cd1-87d5-3d4126bbcba8"},"vehicle_type_id":"4","last_reported":1743682790,"current_range_meters":14800,"station_id":"ce4bhu92rcd13ifvqi70","pricing_plan_id":"cebpf4jnsgd1na2vs0mg"},{"bike_id":"dfcbc06f-393a-4082-b8e3-5908f272108e","system_id":"levelo_inurba_marseille","lat":43.31354,"lon":5.36698,"is_reserved":false,"is_disabled":false,"rental_uris":{"android":"levelo://app?vid=dfcbc06f-393a-4082-b8e3-5908f272108e","ios":"levelo://app?vid=dfcbc06f-393a-4082-b8e3-5908f272108e"},"vehicle_type_id":"4","last_reported":1743682790,"current_range_meters":14800,"station_id":"ce4bgr92rcd13ifvqc6g","pricing_plan_id":"cebpf4jnsgd1na2vs0mg"},{"bike_id":"69c0db05-6ded-4dc6-9720-2452c83c1020","system_id":"levelo_inurba_marseille","lat":43.24077,"lon":5.36277,"is_reserved":false,"is_disabled":false,"rental_uris":{"android":"levelo://app?vid=69c0db05-6ded-4dc6-9720-2452c83c1020","ios":"levelo://app?vid=69c0db05-6ded-4dc6-9720-2452c83c1020"},"vehicle_type_id":"4","last_reported":1743682790,"current_range_meters":14800,"station_id":"","pricing_plan_id":"cebpf4jnsgd1na2vs0mg"},{"bike_id":"f408db80-58e4-4a29-8ab8-a02b36a44ad3","system_id":"levelo_inurba_marseille","lat":43.254861,"lon":5.376554,"is_reserved":false,"is_disabled":false,"rental_uris":{"android":"levelo://app?vid=f408db80-58e4-4a29-8ab8-a02b36a44ad3","ios":"levelo://app?vid=f408db80-58e4-4a29-8ab8-a02b36a44ad3"},"vehicle_type_id":"4","last_reported":1743682790,"current_range_meters":10800,"station_id":"ce4bhh12rcd13ifvqff0","pricing_plan_id":"cebpf4jnsgd1na2vs0mg"},{"bike_id":"aa5d990c-0a50-43b2-bcac-21594eb664fc","system_id":"levelo_inurba_marseille","lat":43.29987,"lon":5.38488,"is_reserved":false,"is_disabled":true,"rental_uris":{"android":"levelo://app?vid=aa5d990c-0a50-43b2-bcac-21594eb664fc","ios":"levelo://app?vid=aa5d990c-0a50-43b2-bcac-21594eb664fc"},"vehicle_type_id":"4","last_reported":1743682790,"current_range_meters":14800,"station_id":"ce4bgj92rcd13ifvqbd0","pricing_plan_id":"cebpf4jnsgd1na2vs0mg"},{"bike_id":"c6dbfbad-c5e4-4444-9b15-94527aba01a5","system_id":"levelo_inurba_marseille","lat":43.30541,"lon":5.36546,"is_reserved":false,"is_disabled":true,"rental_uris":{"android":"levelo://app?vid=c6dbfbad-c5e4-4444-9b15-94527aba01a5","ios":"levelo://app?vid=c6dbfbad-c5e4-4444-9b15-94527aba01a5"},"vehicle_type_id":"4","last_reported":1743682790,"current_range_meters":14800,"station_id":"ce4bgs12rcd13ifvqcag","pricing_plan_id":"cebpf4jnsgd1na2vs0mg"},{"bike_id":"0da307f0-a737-4f3f-8786-4dd451d57e79","system_id":"levelo_inurba_marseille","lat":43.309,"lon":5.36755,"is_reserved":false,"is_disabled":false,"rental_uris":{"android":"levelo://app?vid=0da307f0-a737-4f3f-8786-4dd451d57e79","ios":"levelo://app?vid=0da307f0-a737-4f3f-8786-4dd451d57e79"},"vehicle_type_id":"4","last_reported":1743682790,"current_range_meters":15200,"station_id":"","pricing_plan_id":"cebpf4jnsgd1na2vs0mg"},{"bike_id":"8ab04e8f-c432-41cc-b5c5-8fe666f18f9d","system_id":"levelo_inurba_marseille","lat":43.30529,"lon":5.36713,"is_reserved":false,"is_disabled":false,"rental_uris":{"android":"levelo://app?vid=8ab04e8f-c432-41cc-b5c5-8fe666f18f9d","ios":"levelo://app?vid=8ab04e8f-c432-41cc-b5c5-8fe666f18f9d"},"vehicle_type_id":"4","last_reported":1743682790,"current_range_meters":15200,"station_id":"ce4bgrp2rcd13ifvqc9g","pricing_plan_id":"cebpf4jnsgd1na2vs0mg"},{"bike_id":"6ac92f44-57e5-4adf-aa7c-298b89142bb4","system_id":"levelo_inurba_marseille","lat":43.28617,"lon":5.3511,"is_reserved":false,"is_disabled":false,"rental_uris":{"android":"levelo://app?vid=6ac92f44-57e5-4adf-aa7c-298b89142bb4","ios":"levelo://app?vid=6ac92f44-57e5-4adf-aa7c-298b89142bb4"},"vehicle_type_id":"4","last_reported":1743682790,"current_range_meters":15200,"station_id":"ce4bhch2rcd13ifvqeug","pricing_plan_id":"cebpf4jnsgd1na2vs0mg"},{"bike_id":"5a670507-1979-4b98-8c90-ecde60222578","system_id":"levelo_inurba_marseille","lat":43.26212,"lon":5.40453,"is_reserved":false,"is_disabled":false,"rental_uris":{"android":"levelo://app?vid=5a670507-1979-4b98-8c90-ecde60222578","ios":"levelo://app?vid=5a670507-1979-4b98-8c90-ecde60222578"},"vehicle_type_id":"4","last_reported":1743682790,"current_range_meters":15200,"station_id":"ce4bhmh2rcd13ifvqgmg","pricing_plan_id":"cebpf4jnsgd1na2vs0mg"},{"bike_id":"06e4ca2a-8da9-4484-9278-716508bc91b7","system_id":"levelo_inurba_marseille","lat":43.23963,"lon":5.36631,"is_reserved":false,"is_disabled":false,"rental_uris":{"android":"levelo://app?vid=06e4ca2a-8da9-4484-9278-716508bc91b7","ios":"levelo://app?vid=06e4ca2a-8da9-4484-9278-716508bc91b7"},"vehicle_type_id":"4","last_reported":1743682790,"current_range_meters":16000,"station_id":"ce4bhi12rcd13ifvqfp0","pricing_plan_id":"cebpf4jnsgd1na2vs0mg"},{"bike_id":"21bb0a6d-7ac6-400f-85fa-68146121b37a","system_id":"levelo_inurba_marseille","lat":43.31341,"lon":5.36726,"is_reserved":false,"is_disabled":false,"rental_uris":{"android":"levelo://app?vid=21bb0a6d-7ac6-400f-85fa-68146121b37a","ios":"levelo://app?vid=21bb0a6d-7ac6-400f-85fa-68146121b37a"},"vehicle_type_id":"4","last_reported":1743682790,"current_range_meters":16000,"station_id":"ce4bgr92rcd13ifvqc6g","pricing_plan_id":"cebpf4jnsgd1na2vs0mg"},{"bike_id":"9d7b4579-2f49-4625-9d98-42fe0dd225fc","system_id":"levelo_inurba_marseille","lat":43.30213,"lon":5.41897,"is_reserved":false,"is_disabled":false,"rental_uris":{"android":"levelo://app?vid=9d7b4579-2f49-4625-9d98-42fe0dd225fc","ios":"levelo://app?vid=9d7b4579-2f49-4625-9d98-42fe0dd225fc"},"vehicle_type_id":"4","last_reported":1743682790,"current_range_meters":16000,"station_id":"","pricing_plan_id":"cebpf4jnsgd1na2vs0mg"},{"bike_id":"54cf07b6-ec6b-498e-9072-f60edcd372f8","system_id":"levelo_inurba_marseille","lat":43.30948,"lon":5.39033,"is_reserved":false,"is_disabled":false,"rental_uris":{"android":"levelo://app?vid=54cf07b6-ec6b-498e-9072-f60edcd372f8","ios":"levelo://app?vid=54cf07b6-ec6b-498e-9072-f60edcd372f8"},"vehicle_type_id":"4","last_reported":1743682790,"current_range_meters":16000,"station_id":"ce4bgup2rcd13ifvqco0","pricing_plan_id":"cebpf4jnsgd1na2vs0mg"},{"bike_id":"6b95e7d2-eea6-4a45-b5e2-6a288925ff44","system_id":"levelo_inurba_marseille","lat":43.27491,"lon":5.42463,"is_reserved":false,"is_disabled":false,"rental_uris":{"android":"levelo://app?vid=6b95e7d2-eea6-4a45-b5e2-6a288925ff44","ios":"levelo://app?vid=6b95e7d2-eea6-4a45-b5e2-6a288925ff44"},"vehicle_type_id":"4","last_reported":1743682790,"current_range_meters":16000,"station_id":"ce4bhn92rcd13ifvqgrg","pricing_plan_id":"cebpf4jnsgd1na2vs0mg"},{"bike_id":"9822119b-de6c-4fcf-9260-7ba8e04649a5","system_id":"levelo_inurba_marseille","lat":43.25718,"lon":5.41116,"is_reserved":false,"is_disabled":false,"rental_uris":{"android":"levelo://app?vid=9822119b-de6c-4fcf-9260-7ba8e04649a5","ios":"levelo://app?vid=9822119b-de6c-4fcf-9260-7ba8e04649a5"},"vehicle_type_id":"4","last_reported":1743682790,"current_range_meters":16000,"station_id":"ce4bhkp2rcd13ifvqgd0","pricing_plan_id":"cebpf4jnsgd1na2vs0mg"},{"bike_id":"416dbf46-c3b6-4144-a79a-c09d4af88311","system_id":"levelo_inurba_marseille","lat":43.30549,"lon":5.36676,"is_reserved":false,"is_disabled":false,"rental_uris":{"android":"levelo://app?vid=416dbf46-c3b6-4144-a79a-c09d4af88311","ios":"levelo://app?vid=416dbf46-c3b6-4144-a79a-c09d4af88311"},"vehicle_type_id":"4","last_reported":1743682790,"current_range_meters":16000,"station_id":"ce4bgrp2rcd13ifvqc9g","pricing_plan_id":"cebpf4jnsgd1na2vs0mg"},{"bike_id":"5ea08217-fc90-4249-b169-c868ec958e2d","system_id":"levelo_inurba_marseille","lat":43.30951,"lon":5.39047,"is_reserved":false,"is_disabled":false,"rental_uris":{"android":"levelo://app?vid=5ea08217-fc90-4249-b169-c868ec958e2d","ios":"levelo://app?vid=5ea08217-fc90-4249-b169-c868ec958e2d"},"vehicle_type_id":"4","last_reported":1743682790,"current_range_meters":16000,"station_id":"ce4bgup2rcd13ifvqco0","pricing_plan_id":"cebpf4jnsgd1na2vs0mg"},{"bike_id":"41750c31-c806-4d41-a3b7-dc89616a9f9a","system_id":"levelo_inurba_marseille","lat":43.27497,"lon":5.42445,"is_reserved":false,"is_disabled":false,"rental_uris":{"android":"levelo://app?vid=41750c31-c806-4d41-a3b7-dc89616a9f9a","ios":"levelo://app?vid=41750c31-c806-4d41-a3b7-dc89616a9f9a"},"vehicle_type_id":"4","last_reported":1743682790,"current_range_meters":16000,"station_id":"ce4bhn92rcd13ifvqgrg","pricing_plan_id":"cebpf4jnsgd1na2vs0mg"},{"bike_id":"65c86302-8ef0-46f4-ab6e-bac7149a2865","system_id":"levelo_inurba_marseille","lat":43.32117,"lon":5.36786,"is_reserved":false,"is_disabled":false,"rental_uris":{"android":"levelo://app?vid=65c86302-8ef0-46f4-ab6e-bac7149a2865","ios":"levelo://app?vid=65c86302-8ef0-46f4-ab6e-bac7149a2865"},"vehicle_type_id":"4","last_reported":1743682790,"current_range_meters":16000,"station_id":"ce4bhrh2rcd13ifvqhug","pricing_plan_id":"cebpf4jnsgd1na2vs0mg"},{"bike_id":"10dba690-16cc-4e3a-8cf1-837f9f6eb283","system_id":"levelo_inurba_marseille","lat":43.30137,"lon":5.37415,"is_reserved":false,"is_disabled":false,"rental_uris":{"android":"levelo://app?vid=10dba690-16cc-4e3a-8cf1-837f9f6eb283","ios":"levelo://app?vid=10dba690-16cc-4e3a-8cf1-837f9f6eb283"},"vehicle_type_id":"4","last_reported":1743682790,"current_range_meters":16000,"station_id":"ce4bgs92rcd13ifvqcc0","pricing_plan_id":"cebpf4jnsgd1na2vs0mg"},{"bike_id":"955338a0-012b-4e84-861b-8757cf81f287","system_id":"levelo_inurba_marseille","lat":43.22934,"lon":5.35371,"is_reserved":false,"is_disabled":false,"rental_uris":{"android":"levelo://app?vid=955338a0-012b-4e84-861b-8757cf81f287","ios":"levelo://app?vid=955338a0-012b-4e84-861b-8757cf81f287"},"vehicle_type_id":"4","last_reported":1743682790,"current_range_meters":16400,"station_id":"cpo3532slgdg3j2ikp40","pricing_plan_id":"cebpf4jnsgd1na2vs0mg"},{"bike_id":"fb348b09-6abb-47a4-a266-91f2eeaee291","system_id":"levelo_inurba_marseille","lat":43.32105,"lon":5.36771,"is_reserved":false,"is_disabled":false,"rental_uris":{"android":"levelo://app?vid=fb348b09-6abb-47a4-a266-91f2eeaee291","ios":"levelo://app?vid=fb348b09-6abb-47a4-a266-91f2eeaee291"},"vehicle_type_id":"4","last_reported":1743682790,"current_range_meters":16400,"station_id":"ce4bhrh2rcd13ifvqhug","pricing_plan_id":"cebpf4jnsgd1na2vs0mg"},{"bike_id":"0df0e7a9-81b2-41f8-8fc9-9278b36af5a7","system_id":"levelo_inurba_marseille","lat":43.25091,"lon":5.39516,"is_reserved":false,"is_disabled":false,"rental_uris":{"android":"levelo://app?vid=0df0e7a9-81b2-41f8-8fc9-9278b36af5a7","ios":"levelo://app?vid=0df0e7a9-81b2-41f8-8fc9-9278b36af5a7"},"vehicle_type_id":"4","last_reported":1743682790,"current_range_meters":16400,"station_id":"ce4bhm12rcd13ifvqgkg","pricing_plan_id":"cebpf4jnsgd1na2vs0mg"},{"bike_id":"95ab9cee-b2ce-460f-9c42-139a721474a6","system_id":"levelo_inurba_marseille","lat":43.30258,"lon":5.40069,"is_reserved":false,"is_disabled":false,"rental_uris":{"android":"levelo://app?vid=95ab9cee-b2ce-460f-9c42-139a721474a6","ios":"levelo://app?vid=95ab9cee-b2ce-460f-9c42-139a721474a6"},"vehicle_type_id":"4","last_reported":1743682790,"current_range_meters":16000,"station_id":"ce4bgvh2rcd13ifvqcs0","pricing_plan_id":"cebpf4jnsgd1na2vs0mg"},{"bike_id":"48005087-0cf9-4525-9fc9-09c83ee91872","system_id":"levelo_inurba_marseille","lat":43.24171,"lon":5.39715,"is_reserved":false,"is_disabled":false,"rental_uris":{"android":"levelo://app?vid=48005087-0cf9-4525-9fc9-09c83ee91872","ios":"levelo://app?vid=48005087-0cf9-4525-9fc9-09c83ee91872"},"vehicle_type_id":"4","last_reported":1743682790,"current_range_meters":16400,"station_id":"ce4bhn12rcd13ifvqgpg","pricing_plan_id":"cebpf4jnsgd1na2vs0mg"},{"bike_id":"37c43400-5ad9-4fb7-b64b-55f97a8ebf2c","system_id":"levelo_inurba_marseille","lat":43.28159,"lon":5.42634,"is_reserved":false,"is_disabled":false,"rental_uris":{"android":"levelo://app?vid=37c43400-5ad9-4fb7-b64b-55f97a8ebf2c","ios":"levelo://app?vid=37c43400-5ad9-4fb7-b64b-55f97a8ebf2c"},"vehicle_type_id":"4","last_reported":1743682790,"current_range_meters":16400,"station_id":"ce4bhnh2rcd13ifvqgug","pricing_plan_id":"cebpf4jnsgd1na2vs0mg"},{"bike_id":"d771ef34-b79d-4535-9c1c-b1cb947d359b","system_id":"levelo_inurba_marseille","lat":43.30417,"lon":5.41291,"is_reserved":false,"is_disabled":false,"rental_uris":{"android":"levelo://app?vid=d771ef34-b79d-4535-9c1c-b1cb947d359b","ios":"levelo://app?vid=d771ef34-b79d-4535-9c1c-b1cb947d359b"},"vehicle_type_id":"4","last_reported":1743682790,"current_range_meters":16400,"station_id":"ce4bhop2rcd13ifvqh8g","pricing_plan_id":"cebpf4jnsgd1na2vs0mg"},{"bike_id":"7ae4537f-13d5-405b-b523-70860bfb9589","system_id":"levelo_inurba_marseille","lat":43.28979,"lon":5.37832,"is_reserved":false,"is_disabled":false,"rental_uris":{"android":"levelo://app?vid=7ae4537f-13d5-405b-b523-70860bfb9589","ios":"levelo://app?vid=7ae4537f-13d5-405b-b523-70860bfb9589"},"vehicle_type_id":"4","last_reported":1743682790,"current_range_meters":16000,"station_id":"ce4bh9p2rcd13ifvqed0","pricing_plan_id":"cebpf4jnsgd1na2vs0mg"},{"bike_id":"4c6c26e9-c2c0-42ca-bbad-340608c64a5a","system_id":"levelo_inurba_marseille","lat":43.31332,"lon":5.36715,"is_reserved":false,"is_disabled":false,"rental_uris":{"android":"levelo://app?vid=4c6c26e9-c2c0-42ca-bbad-340608c64a5a","ios":"levelo://app?vid=4c6c26e9-c2c0-42ca-bbad-340608c64a5a"},"vehicle_type_id":"4","last_reported":1743682790,"current_range_meters":16400,"station_id":"ce4bgr92rcd13ifvqc6g","pricing_plan_id":"cebpf4jnsgd1na2vs0mg"},{"bike_id":"c0e36771-dbe7-477f-9122-f8476f7b7779","system_id":"levelo_inurba_marseille","lat":43.32292,"lon":5.36705,"is_reserved":false,"is_disabled":false,"rental_uris":{"android":"levelo://app?vid=c0e36771-dbe7-477f-9122-f8476f7b7779","ios":"levelo://app?vid=c0e36771-dbe7-477f-9122-f8476f7b7779"},"vehicle_type_id":"4","last_reported":1743682790,"current_range_meters":16400,"station_id":"ce4bhsh2rcd13ifvqi2g","pricing_plan_id":"cebpf4jnsgd1na2vs0mg"},{"bike_id":"229ba492-02d9-4033-b935-7f43b75a8976","system_id":"levelo_inurba_marseille","lat":43.30554,"lon":5.3655,"is_reserved":false,"is_disabled":false,"rental_uris":{"android":"levelo://app?vid=229ba492-02d9-4033-b935-7f43b75a8976","ios":"levelo://app?vid=229ba492-02d9-4033-b935-7f43b75a8976"},"vehicle_type_id":"4","last_reported":1743682790,"current_range_meters":16400,"station_id":"ce4bgs12rcd13ifvqcag","pricing_plan_id":"cebpf4jnsgd1na2vs0mg"},{"bike_id":"16e30be1-6821-4531-b2d3-8709a32f4f02","system_id":"levelo_inurba_marseille","lat":43.30462,"lon":5.379,"is_reserved":false,"is_disabled":false,"rental_uris":{"android":"levelo://app?vid=16e30be1-6821-4531-b2d3-8709a32f4f02","ios":"levelo://app?vid=16e30be1-6821-4531-b2d3-8709a32f4f02"},"vehicle_type_id":"4","last_reported":1743682790,"current_range_meters":16400,"station_id":"ce4bgup2rcd13ifvqcn0","pricing_plan_id":"cebpf4jnsgd1na2vs0mg"},{"bike_id":"4126fc1b-5c35-4b99-af29-e9cce6561280","system_id":"levelo_inurba_marseille","lat":43.3095,"lon":5.39029,"is_reserved":false,"is_disabled":false,"rental_uris":{"android":"levelo://app?vid=4126fc1b-5c35-4b99-af29-e9cce6561280","ios":"levelo://app?vid=4126fc1b-5c35-4b99-af29-e9cce6561280"},"vehicle_type_id":"4","last_reported":1743682790,"current_range_meters":16400,"station_id":"ce4bgup2rcd13ifvqco0","pricing_plan_id":"cebpf4jnsgd1na2vs0mg"},{"bike_id":"68af975d-3bab-4ac4-ae64-bc12c91d53e8","system_id":"levelo_inurba_marseille","lat":43.30141,"lon":5.38781,"is_reserved":false,"is_disabled":false,"rental_uris":{"android":"levelo://app?vid=68af975d-3bab-4ac4-ae64-bc12c91d53e8","ios":"levelo://app?vid=68af975d-3bab-4ac4-ae64-bc12c91d53e8"},"vehicle_type_id":"4","last_reported":1743682790,"current_range_meters":16800,"station_id":"ce4bghh2rcd13ifvqb60","pricing_plan_id":"cebpf4jnsgd1na2vs0mg"},{"bike_id":"b2f4490f-edf0-49ca-9d34-1b76be892ddc","system_id":"levelo_inurba_marseille","lat":43.26233,"lon":5.40457,"is_reserved":false,"is_disabled":false,"rental_uris":{"android":"levelo://app?vid=b2f4490f-edf0-49ca-9d34-1b76be892ddc","ios":"levelo://app?vid=b2f4490f-edf0-49ca-9d34-1b76be892ddc"},"vehicle_type_id":"4","last_reported":1743682790,"current_range_meters":16800,"station_id":"ce4bhmh2rcd13ifvqgmg","pricing_plan_id":"cebpf4jnsgd1na2vs0mg"},{"bike_id":"59d3e494-3467-480e-9104-f7fc1c556d33","system_id":"levelo_inurba_marseille","lat":43.34142,"lon":5.40901,"is_reserved":false,"is_disabled":false,"rental_uris":{"android":"levelo://app?vid=59d3e494-3467-480e-9104-f7fc1c556d33","ios":"levelo://app?vid=59d3e494-3467-480e-9104-f7fc1c556d33"},"vehicle_type_id":"4","last_reported":1743682790,"current_range_meters":16400,"station_id":"ce4bhqh2rcd13ifvqhlg","pricing_plan_id":"cebpf4jnsgd1na2vs0mg"},{"bike_id":"fb4cfac6-d54b-4f49-96fe-f3cb5cad9b95","system_id":"levelo_inurba_marseille","lat":43.30529,"lon":5.36527,"is_reserved":false,"is_disabled":false,"rental_uris":{"android":"levelo://app?vid=fb4cfac6-d54b-4f49-96fe-f3cb5cad9b95","ios":"levelo://app?vid=fb4cfac6-d54b-4f49-96fe-f3cb5cad9b95"},"vehicle_type_id":"4","last_reported":1743682790,"current_range_meters":16800,"station_id":"ce4bgs12rcd13ifvqcag","pricing_plan_id":"cebpf4jnsgd1na2vs0mg"},{"bike_id":"48791434-6332-4c8a-8b22-d38943f04995","system_id":"levelo_inurba_marseille","lat":43.2606,"lon":5.394,"is_reserved":false,"is_disabled":false,"rental_uris":{"android":"levelo://app?vid=48791434-6332-4c8a-8b22-d38943f04995","ios":"levelo://app?vid=48791434-6332-4c8a-8b22-d38943f04995"},"vehicle_type_id":"4","last_reported":1743682790,"current_range_meters":16800,"station_id":"ce4bhh92rcd13ifvqfj0","pricing_plan_id":"cebpf4jnsgd1na2vs0mg"},{"bike_id":"19224d95-e048-4cbb-8884-43e0e6b3db9b","system_id":"levelo_inurba_marseille","lat":43.29871,"lon":5.39745,"is_reserved":false,"is_disabled":true,"rental_uris":{"android":"levelo://app?vid=19224d95-e048-4cbb-8884-43e0e6b3db9b","ios":"levelo://app?vid=19224d95-e048-4cbb-8884-43e0e6b3db9b"},"vehicle_type_id":"4","last_reported":1743682790,"current_range_meters":16800,"station_id":"ce4bh0h2rcd13ifvqd50","pricing_plan_id":"cebpf4jnsgd1na2vs0mg"},{"bike_id":"cac725b7-ddf4-46ae-b16d-38f04a283996","system_id":"levelo_inurba_marseille","lat":43.29697,"lon":5.36603,"is_reserved":false,"is_disabled":false,"rental_uris":{"android":"levelo://app?vid=cac725b7-ddf4-46ae-b16d-38f04a283996","ios":"levelo://app?vid=cac725b7-ddf4-46ae-b16d-38f04a283996"},