{"last_updated":1738663775,"ttl":60,"version":"2.2","data":{"bikes":[{"bike_id":"a6accd57-54cf-4d44-87f9-766d1013e2f7","system_id":"levelo_inurba_marseille","lat":43.26019,"lon":5.37567,"is_reserved":false,"is_disabled":false,"rental_uris":{"android":"levelo://app?vid=a6accd57-54cf-4d44-87f9-766d1013e2f7","ios":"levelo://app?vid=a6accd57-54cf-4d44-87f9-766d1013e2f7"},"vehicle_type_id":"4","last_reported":1738663775,"current_range_meters":36800,"station_id":"ce4bhgh2rcd13ifvqfa0","pricing_plan_id":"cebpf4jnsgd1na2vs0mg"},{"bike_id":"3dd6c08f-719a-43b7-9e16-fa033ab26402","system_id":"levelo_inurba_marseille","lat":43.30147,"lon":5.38094,"is_reserved":false,"is_disabled":true,"rental_uris":{"android":"levelo://app?vid=3dd6c08f-719a-43b7-9e16-fa033ab26402","ios":"levelo://app?vid=3dd6c08f-719a-43b7-9e16-fa033ab26402"},"vehicle_type_id":"4","last_reported":1738663775,"current_range_meters":21600,"station_id":"ce4bgjp2rcd13ifvqbh0","pricing_plan_id":"cebpf4jnsgd1na2vs0mg"},{"bike_id":"49aed3b7-a69e-4cda-bb23-f5c244bb23cd","system_id":"levelo_inurba_marseille","lat":43.29962,"lon":5.37195,"is_reserved":false,"is_disabled":false,"rental_uris":{"android":"levelo://app?vid=49aed3b7-a69e-4cda-bb23-f5c244bb23cd","ios":"levelo://app?vid=49aed3b7-a69e-4cda-bb23-f5c244bb23cd"},"vehicle_type_id":"4","last_reported":1738663775,"current_range_meters":30400,"station_id":"ce4bgr92rcd13ifvqc7g","pricing_plan_id":"cebpf4jnsgd1na2vs0mg"},{"bike_id":"41ab9220-c5cd-4360-8e13-84bb0d5ce82a","system_id":"levelo_inurba_marseille","lat":43.3008,"lon":5.39078,"is_reserved":false,"is_disabled":false,"rental_uris":{"android":"levelo://app?vid=41ab9220-c5cd-4360-8e13-84bb0d5ce82a","ios":"levelo://app?vid=41ab9220-c5cd-4360-8e13-84bb0d5ce82a"},"vehicle_type_id":"4","last_reported":1738663775,"current_range_meters":26000,"station_id":"ce4bh192rcd13ifvqdb0","pricing_plan_id":"cebpf4jnsgd1na2vs0mg"},{"bike_id":"51a18f6e-4b26-440c-b2a0-206be31c2210","system_id":"levelo_inurba_marseille","lat":43.30091,"lon":5.39085,"is_reserved":false,"is_disabled":false,"rental_uris":{"android":"levelo://app?vid=51a18f6e-4b26-440c-b2a0-206be31c2210","ios":"levelo://app?vid=51a18f6e-4b26-440c-b2a0-206be31c2210"},"vehicle_type_id":"4","last_reported":1738663775,"current_range_meters":25200,"station_id":"ce4bh192rcd13ifvqdb0","pricing_plan_id":"cebpf4jnsgd1na2vs0mg"},{"bike_id":"b6efb97c-35b0-4597-8788-924b4527ae77","system_id":"levelo_inurba_marseille","lat":43.29168,"lon":5.37161,"is_reserved":false,"is_disabled":false,"rental_uris":{"android":"levelo://app?vid=b6efb97c-35b0-4597-8788-924b4527ae77","ios":"levelo://app?vid=b6efb97c-35b0-4597-8788-924b4527ae77"},"vehicle_type_id":"4","last_reported":1738663775,"current_range_meters":24800,"station_id":"ce4bha92rcd13ifvqeh0","pricing_plan_id":"cebpf4jnsgd1na2vs0mg"},{"bike_id":"d07674d7-e60e-4159-9a35-f652ed1ac5cd","system_id":"levelo_inurba_marseille","lat":43.29904,"lon":5.38139,"is_reserved":false,"is_disabled":false,"rental_uris":{"android":"levelo://app?vid=d07674d7-e60e-4159-9a35-f652ed1ac5cd","ios":"levelo://app?vid=d07674d7-e60e-4159-9a35-f652ed1ac5cd"},"vehicle_type_id":"4","last_reported":1738663775,"current_range_meters":30000,"station_id":"ce4bgj12rcd13ifvqbc0","pricing_plan_id":"cebpf4jnsgd1na2vs0mg"},{"bike_id":"878aa16d-c15f-4ee8-bdbd-dd74bcfe9106","system_id":"levelo_inurba_marseille","lat":43.31379,"lon":5.38499,"is_reserved":false,"is_disabled":false,"rental_uris":{"android":"levelo://app?vid=878aa16d-c15f-4ee8-bdbd-dd74bcfe9106","ios":"levelo://app?vid=878aa16d-c15f-4ee8-bdbd-dd74bcfe9106"},"vehicle_type_id":"4","last_reported":1738663775,"current_range_meters":18800,"station_id":"ce4bgt92rcd13ifvqcf0","pricing_plan_id":"cebpf4jnsgd1na2vs0mg"},{"bike_id":"218cf88c-674f-46a7-9455-3b01fdb97c07","system_id":"levelo_inurba_marseille","lat":43.23141,"lon":5.43709,"is_reserved":false,"is_disabled":false,"rental_uris":{"android":"levelo://app?vid=218cf88c-674f-46a7-9455-3b01fdb97c07","ios":"levelo://app?vid=218cf88c-674f-46a7-9455-3b01fdb97c07"},"vehicle_type_id":"4","last_reported":1738663775,"current_range_meters":2800,"station_id":"ce4bhmp2rcd13ifvqgog","pricing_plan_id":"cebpf4jnsgd1na2vs0mg"},{"bike_id":"4adc5aab-b210-4641-aba5-160a4e23aeb0","system_id":"levelo_inurba_marseille","lat":43.2962,"lon":5.37164,"is_reserved":false,"is_disabled":false,"rental_uris":{"android":"levelo://app?vid=4adc5aab-b210-4641-aba5-160a4e23aeb0","ios":"levelo://app?vid=4adc5aab-b210-4641-aba5-160a4e23aeb0"},"vehicle_type_id":"4","last_reported":1738663775,"current_range_meters":38400,"station_id":"ce4bgnh2rcd13ifvqc0g","pricing_plan_id":"cebpf4jnsgd1na2vs0mg"},{"bike_id":"03e56226-a4a2-447a-b0ef-d77b2ac074e2","system_id":"levelo_inurba_marseille","lat":43.24069,"lon":5.37755,"is_reserved":false,"is_disabled":false,"rental_uris":{"android":"levelo://app?vid=03e56226-a4a2-447a-b0ef-d77b2ac074e2","ios":"levelo://app?vid=03e56226-a4a2-447a-b0ef-d77b2ac074e2"},"vehicle_type_id":"4","last_reported":1738663775,"current_range_meters":27200,"station_id":"ce4bhnp2rcd13ifvqgvg","pricing_plan_id":"cebpf4jnsgd1na2vs0mg"},{"bike_id":"34189982-6632-44fa-a854-62f98624a855","system_id":"levelo_inurba_marseille","lat":43.29268,"lon":5.36853,"is_reserved":false,"is_disabled":false,"rental_uris":{"android":"levelo://app?vid=34189982-6632-44fa-a854-62f98624a855","ios":"levelo://app?vid=34189982-6632-44fa-a854-62f98624a855"},"vehicle_type_id":"4","last_reported":1738663775,"current_range_meters":30000,"station_id":"ce4bhbp2rcd13ifvqesg","pricing_plan_id":"cebpf4jnsgd1na2vs0mg"},{"bike_id":"1715ed09-9064-47b9-9dfb-4e205db9bc6b","system_id":"levelo_inurba_marseille","lat":43.29044,"lon":5.3998,"is_reserved":false,"is_disabled":false,"rental_uris":{"android":"levelo://app?vid=1715ed09-9064-47b9-9dfb-4e205db9bc6b","ios":"levelo://app?vid=1715ed09-9064-47b9-9dfb-4e205db9bc6b"},"vehicle_type_id":"4","last_reported":1738663775,"current_range_meters":9200,"station_id":"ce4bh392rcd13ifvqdm0","pricing_plan_id":"cebpf4jnsgd1na2vs0mg"},{"bike_id":"f6b676ab-6f6d-4434-a8f0-84bcb49b4a08","system_id":"levelo_inurba_marseille","lat":43.26557,"lon":5.37285,"is_reserved":false,"is_disabled":false,"rental_uris":{"android":"levelo://app?vid=f6b676ab-6f6d-4434-a8f0-84bcb49b4a08","ios":"levelo://app?vid=f6b676ab-6f6d-4434-a8f0-84bcb49b4a08"},"vehicle_type_id":"4","last_reported":1738663775,"current_range_meters":17200,"station_id":"ce4bhg12rcd13ifvqf70","pricing_plan_id":"cebpf4jnsgd1na2vs0mg"},{"bike_id":"db90e030-6fe7-4a19-9bb1-0175ffc7c8b8","system_id":"levelo_inurba_marseille","lat":43.30455,"lon":5.37904,"is_reserved":false,"is_disabled":true,"rental_uris":{"android":"levelo://app?vid=db90e030-6fe7-4a19-9bb1-0175ffc7c8b8","ios":"levelo://app?vid=db90e030-6fe7-4a19-9bb1-0175ffc7c8b8"},"vehicle_type_id":"4","last_reported":1738663775,"current_range_meters":24800,"station_id":"ce4bgup2rcd13ifvqcn0","pricing_plan_id":"cebpf4jnsgd1na2vs0mg"},{"bike_id":"c83fec32-dcf8-45bb-9c13-a99bd785b12a","system_id":"levelo_inurba_marseille","lat":43.24075,"lon":5.37738,"is_reserved":false,"is_disabled":false,"rental_uris":{"android":"levelo://app?vid=c83fec32-dcf8-45bb-9c13-a99bd785b12a","ios":"levelo://app?vid=c83fec32-dcf8-45bb-9c13-a99bd785b12a"},"vehicle_type_id":"4","last_reported":1738663775,"current_range_meters":14400,"station_id":"ce4bhnp2rcd13ifvqgvg","pricing_plan_id":"cebpf4jnsgd1na2vs0mg"},{"bike_id":"81fc2b49-7d41-4bc4-9c6c-fc4ded896c4f","system_id":"levelo_inurba_marseille","lat":43.29898,"lon":5.3745,"is_reserved":false,"is_disabled":true,"rental_uris":{"android":"levelo://app?vid=81fc2b49-7d41-4bc4-9c6c-fc4ded896c4f","ios":"levelo://app?vid=81fc2b49-7d41-4bc4-9c6c-fc4ded896c4f"},"vehicle_type_id":"4","last_reported":1738663775,"current_range_meters":33200,"station_id":"ce4bgjh2rcd13ifvqbg0","pricing_plan_id":"cebpf4jnsgd1na2vs0mg"},{"bike_id":"b2f5ad0b-e859-4a5a-afe6-19f2444b14ba","system_id":"levelo_inurba_marseille","lat":43.31994,"lon":5.381641,"is_reserved":false,"is_disabled":false,"rental_uris":{"android":"levelo://app?vid=b2f5ad0b-e859-4a5a-afe6-19f2444b14ba","ios":"levelo://app?vid=b2f5ad0b-e859-4a5a-afe6-19f2444b14ba"},"vehicle_type_id":"4","last_reported":1738663775,"current_range_meters":37600,"station_id":"ce4bhr12rcd13ifvqhpg","pricing_plan_id":"cebpf4jnsgd1na2vs0mg"},{"bike_id":"f670e577-d2e0-4476-9e77-01baed11281c","system_id":"levelo_inurba_marseille","lat":43.26587,"lon":5.39594,"is_reserved":false,"is_disabled":false,"rental_uris":{"android":"levelo://app?vid=f670e577-d2e0-4476-9e77-01baed11281c","ios":"levelo://app?vid=f670e577-d2e0-4476-9e77-01baed11281c"},"vehicle_type_id":"4","last_reported":1738663775,"current_range_meters":39200,"station_id":"ce4bhh12rcd13ifvqfg0","pricing_plan_id":"cebpf4jnsgd1na2vs0mg"},{"bike_id":"c835a4f7-cc05-45bd-a5f6-1bed625cc89d","system_id":"levelo_inurba_marseille","lat":43.24103,"lon":5.37741,"is_reserved":false,"is_disabled":false,"rental_uris":{"android":"levelo://app?vid=c835a4f7-cc05-45bd-a5f6-1bed625cc89d","ios":"levelo://app?vid=c835a4f7-cc05-45bd-a5f6-1bed625cc89d"},"vehicle_type_id":"4","last_reported":1738663775,"current_range_meters":38800,"station_id":"ce4bhnp2rcd13ifvqgvg","pricing_plan_id":"cebpf4jnsgd1na2vs0mg"},{"bike_id":"7ee6b050-81ea-4bfa-a08c-64a80af2cc42","system_id":"levelo_inurba_marseille","lat":43.26784,"lon":5.39416,"is_reserved":false,"is_disabled":false,"rental_uris":{"android":"levelo://app?vid=7ee6b050-81ea-4bfa-a08c-64a80af2cc42","ios":"levelo://app?vid=7ee6b050-81ea-4bfa-a08c-64a80af2cc42"},"vehicle_type_id":"4","last_reported":1738663775,"current_range_meters":18800,"station_id":"ce4bhh12rcd13ifvqfg0","pricing_plan_id":"cebpf4jnsgd1na2vs0mg"},{"bike_id":"ae3421f3-623a-4e60-a4de-b128d2cd362d","system_id":"levelo_inurba_marseille","lat":43.30927,"lon":5.40138,"is_reserved":false,"is_disabled":false,"rental_uris":{"android":"levelo://app?vid=ae3421f3-623a-4e60-a4de-b128d2cd362d","ios":"levelo://app?vid=ae3421f3-623a-4e60-a4de-b128d2cd362d"},"vehicle_type_id":"4","last_reported":1738663775,"current_range_meters":37600,"station_id":"ce4bgvp2rcd13ifvqct0","pricing_plan_id":"cebpf4jnsgd1na2vs0mg"},{"bike_id":"c5bc887f-937a-4827-8fcd-0e5d0dcc3dcb","system_id":"levelo_inurba_marseille","lat":43.30631,"lon":5.36507,"is_reserved":false,"is_disabled":false,"rental_uris":{"android":"levelo://app?vid=c5bc887f-937a-4827-8fcd-0e5d0dcc3dcb","ios":"levelo://app?vid=c5bc887f-937a-4827-8fcd-0e5d0dcc3dcb"},"vehicle_type_id":"4","last_reported":1738663775,"current_range_meters":34800,"station_id":"ce4bgs12rcd13ifvqcag","pricing_plan_id":"cebpf4jnsgd1na2vs0mg"},{"bike_id":"cbd18551-d678-4764-8cf7-949c364e95d9","system_id":"levelo_inurba_marseille","lat":43.29276,"lon":5.36842,"is_reserved":false,"is_disabled":false,"rental_uris":{"android":"levelo://app?vid=cbd18551-d678-4764-8cf7-949c364e95d9","ios":"levelo://app?vid=cbd18551-d678-4764-8cf7-949c364e95d9"},"vehicle_type_id":"4","last_reported":1738663775,"current_range_meters":8800,"station_id":"ce4bhbp2rcd13ifvqesg","pricing_plan_id":"cebpf4jnsgd1na2vs0mg"},{"bike_id":"1f1a2b54-e794-4f98-9a8a-e7896c67bcf7","system_id":"levelo_inurba_marseille","lat":43.241743,"lon":5.39731,"is_reserved":false,"is_disabled":false,"rental_uris":{"android":"levelo://app?vid=1f1a2b54-e794-4f98-9a8a-e7896c67bcf7","ios":"levelo://app?vid=1f1a2b54-e794-4f98-9a8a-e7896c67bcf7"},"vehicle_type_id":"4","last_reported":1738663775,"current_range_meters":36400,"station_id":"ce4bhn12rcd13ifvqgpg","pricing_plan_id":"cebpf4jnsgd1na2vs0mg"},{"bike_id":"820e8ef9-125b-498e-aafa-fafccb5e57f1","system_id":"levelo_inurba_marseille","lat":43.30558,"lon":5.36704,"is_reserved":false,"is_disabled":false,"rental_uris":{"android":"levelo://app?vid=820e8ef9-125b-498e-aafa-fafccb5e57f1","ios":"levelo://app?vid=820e8ef9-125b-498e-aafa-fafccb5e57f1"},"vehicle_type_id":"4","last_reported":1738663775,"current_range_meters":24800,"station_id":"ce4bgrp2rcd13ifvqc9g","pricing_plan_id":"cebpf4jnsgd1na2vs0mg"},{"bike_id":"e534ed31-6c84-40bd-908a-616c7918b43b","system_id":"levelo_inurba_marseille","lat":43.30947,"lon":5.39043,"is_reserved":false,"is_disabled":false,"rental_uris":{"android":"levelo://app?vid=e534ed31-6c84-40bd-908a-616c7918b43b","ios":"levelo://app?vid=e534ed31-6c84-40bd-908a-616c7918b43b"},"vehicle_type_id":"4","last_reported":1738663775,"current_range_meters":8000,"station_id":"ce4bgup2rcd13ifvqco0","pricing_plan_id":"cebpf4jnsgd1na2vs0mg"},{"bike_id":"7e953663-785f-4ca5-b64b-6c0ab0420a03","system_id":"levelo_inurba_marseille","lat":43.27494,"lon":5.42451,"is_reserved":false,"is_disabled":false,"rental_uris":{"android":"levelo://app?vid=7e953663-785f-4ca5-b64b-6c0ab0420a03","ios":"levelo://app?vid=7e953663-785f-4ca5-b64b-6c0ab0420a03"},"vehicle_type_id":"4","last_reported":1738663775,"current_range_meters":31200,"station_id":"ce4bhn92rcd13ifvqgrg","pricing_plan_id":"cebpf4jnsgd1na2vs0mg"},{"bike_id":"c92d27b3-011a-4b9b-85d3-c7a68cdf0054","system_id":"levelo_inurba_marseille","lat":43.324777,"lon":5.365669,"is_reserved":false,"is_disabled":true,"rental_uris":{"android":"levelo://app?vid=c92d27b3-011a-4b9b-85d3-c7a68cdf0054","ios":"levelo://app?vid=c92d27b3-011a-4b9b-85d3-c7a68cdf0054"},"vehicle_type_id":"4","last_reported":1738663775,"current_range_meters":17600,"station_id":"","pricing_plan_id":"cebpf4jnsgd1na2vs0mg"},{"bike_id":"3e574816-3754-460d-8072-f6ebe3757ea0","system_id":"levelo_inurba_marseille","lat":43.3236,"lon":5.36766,"is_reserved":false,"is_disabled":false,"rental_uris":{"android":"levelo://app?vid=3e574816-3754-460d-8072-f6ebe3757ea0","ios":"levelo://app?vid=3e574816-3754-460d-8072-f6ebe3757ea0"},"vehicle_type_id":"4","last_reported":1738663775,"current_range_meters":18000,"station_id":"ce4bhsh2rcd13ifvqi2g","pricing_plan_id":"cebpf4jnsgd1na2vs0mg"},{"bike_id":"c2713548-3811-4ac0-ba42-9180d830f676","system_id":"levelo_inurba_marseille","lat":43.30306,"lon":5.36893,"is_reserved":false,"is_disabled":false,"rental_uris":{"android":"levelo://app?vid=c2713548-3811-4ac0-ba42-9180d830f676","ios":"levelo://app?vid=c2713548-3811-4ac0-ba42-9180d830f676"},"vehicle_type_id":"4","last_reported":1738663775,"current_range_meters":27600,"station_id":"ce4bgqh2rcd13ifvqc5g","pricing_plan_id":"cebpf4jnsgd1na2vs0mg"},{"bike_id":"11512d3a-36d3-4b7c-b842-3e0849bb78ff","system_id":"levelo_inurba_marseille","lat":43.276775,"lon":5.388925,"is_reserved":false,"is_disabled":false,"rental_uris":{"android":"levelo://app?vid=11512d3a-36d3-4b7c-b842-3e0849bb78ff","ios":"levelo://app?vid=11512d3a-36d3-4b7c-b842-3e0849bb78ff"},"vehicle_type_id":"4","last_reported":1738663775,"current_range_meters":28400,"station_id":"ce4bhi12rcd13ifvqfo0","pricing_plan_id":"cebpf4jnsgd1na2vs0mg"},{"bike_id":"a1a7079b-68b5-45ca-9af8-b6bc9f7cd559","system_id":"levelo_inurba_marseille","lat":43.2293,"lon":5.35368,"is_reserved":false,"is_disabled":false,"rental_uris":{"android":"levelo://app?vid=a1a7079b-68b5-45ca-9af8-b6bc9f7cd559","ios":"levelo://app?vid=a1a7079b-68b5-45ca-9af8-b6bc9f7cd559"},"vehicle_type_id":"4","last_reported":1738663775,"current_range_meters":38800,"station_id":"cpo3532slgdg3j2ikp40","pricing_plan_id":"cebpf4jnsgd1na2vs0mg"},{"bike_id":"391156ab-23e6-4087-9fff-4d00554806c8","system_id":"levelo_inurba_marseille","lat":43.27567,"lon":5.384129,"is_reserved":false,"is_disabled":false,"rental_uris":{"android":"levelo://app?vid=391156ab-23e6-4087-9fff-4d00554806c8","ios":"levelo://app?vid=391156ab-23e6-4087-9fff-4d00554806c8"},"vehicle_type_id":"4","last_reported":1738663775,"current_range_meters":33600,"station_id":"ce4bhh92rcd13ifvqfi0","pricing_plan_id":"cebpf4jnsgd1na2vs0mg"},{"bike_id":"c5d244f0-0f80-49dd-80ea-357f59117f57","system_id":"levelo_inurba_marseille","lat":43.2959,"lon":5.37706,"is_reserved":false,"is_disabled":false,"rental_uris":{"android":"levelo://app?vid=c5d244f0-0f80-49dd-80ea-357f59117f57","ios":"levelo://app?vid=c5d244f0-0f80-49dd-80ea-357f59117f57"},"vehicle_type_id":"4","last_reported":1738663775,"current_range_meters":26800,"station_id":"","pricing_plan_id":"cebpf4jnsgd1na2vs0mg"},{"bike_id":"9c1a59c4-afd8-4334-86ac-0ecc10ba731d","system_id":"levelo_inurba_marseille","lat":43.30423,"lon":5.41285,"is_reserved":false,"is_disabled":false,"rental_uris":{"android":"levelo://app?vid=9c1a59c4-afd8-4334-86ac-0ecc10ba731d","ios":"levelo://app?vid=9c1a59c4-afd8-4334-86ac-0ecc10ba731d"},"vehicle_type_id":"4","last_reported":1738663775,"current_range_meters":39200,"station_id":"ce4bhop2rcd13ifvqh8g","pricing_plan_id":"cebpf4jnsgd1na2vs0mg"},{"bike_id":"7a2d1c7c-697f-41e7-9a56-3b4fb1b139f2","system_id":"levelo_inurba_marseille","lat":43.23138,"lon":5.43742,"is_reserved":false,"is_disabled":false,"rental_uris":{"android":"levelo://app?vid=7a2d1c7c-697f-41e7-9a56-3b4fb1b139f2","ios":"levelo://app?vid=7a2d1c7c-697f-41e7-9a56-3b4fb1b139f2"},"vehicle_type_id":"4","last_reported":1738663775,"current_range_meters":10000,"station_id":"ce4bhmp2rcd13ifvqgog","pricing_plan_id":"cebpf4jnsgd1na2vs0mg"},{"bike_id":"dbf7072a-7876-4e1d-a586-d51c7ff2c81e","system_id":"levelo_inurba_marseille","lat":43.31338,"lon":5.39691,"is_reserved":false,"is_disabled":false,"rental_uris":{"android":"levelo://app?vid=dbf7072a-7876-4e1d-a586-d51c7ff2c81e","ios":"levelo://app?vid=dbf7072a-7876-4e1d-a586-d51c7ff2c81e"},"vehicle_type_id":"4","last_reported":1738663775,"current_range_meters":30800,"station_id":"ce4bgvp2rcd13ifvqcu0","pricing_plan_id":"cebpf4jnsgd1na2vs0mg"},{"bike_id":"8b7cdb48-c19b-44dd-8859-dc2aba3e48ea","system_id":"levelo_inurba_marseille","lat":43.25577,"lon":5.38234,"is_reserved":false,"is_disabled":false,"rental_uris":{"android":"levelo://app?vid=8b7cdb48-c19b-44dd-8859-dc2aba3e48ea","ios":"levelo://app?vid=8b7cdb48-c19b-44dd-8859-dc2aba3e48ea"},"vehicle_type_id":"4","last_reported":1738663775,"current_range_meters":8000,"station_id":"ce4bhih2rcd13ifvqfs0","pricing_plan_id":"cebpf4jnsgd1na2vs0mg"},{"bike_id":"1e80229c-3730-4f6a-ad92-db35f7d75e3d","system_id":"levelo_inurba_marseille","lat":43.27152,"lon":5.41014,"is_reserved":false,"is_disabled":false,"rental_uris":{"android":"levelo://app?vid=1e80229c-3730-4f6a-ad92-db35f7d75e3d","ios":"levelo://app?vid=1e80229c-3730-4f6a-ad92-db35f7d75e3d"},"vehicle_type_id":"4","last_reported":1738663775,"current_range_meters":38000,"station_id":"ce4bhl12rcd13ifvqgf0","pricing_plan_id":"cebpf4jnsgd1na2vs0mg"},{"bike_id":"a989f7eb-c39d-479f-a8dc-55e581823a87","system_id":"levelo_inurba_marseille","lat":43.30774,"lon":5.37645,"is_reserved":false,"is_disabled":false,"rental_uris":{"android":"levelo://app?vid=a989f7eb-c39d-479f-a8dc-55e581823a87","ios":"levelo://app?vid=a989f7eb-c39d-479f-a8dc-55e581823a87"},"vehicle_type_id":"4","last_reported":1738663775,"current_range_meters":38800,"station_id":"ce4bgv92rcd13ifvqcq0","pricing_plan_id":"cebpf4jnsgd1na2vs0mg"},{"bike_id":"b2a6436f-4c95-46dd-a3bd-6af91e9591d2","system_id":"levelo_inurba_marseille","lat":43.25565,"lon":5.38237,"is_reserved":false,"is_disabled":false,"rental_uris":{"android":"levelo://app?vid=b2a6436f-4c95-46dd-a3bd-6af91e9591d2","ios":"levelo://app?vid=b2a6436f-4c95-46dd-a3bd-6af91e9591d2"},"vehicle_type_id":"4","last_reported":1738663775,"current_range_meters":19200,"station_id":"ce4bhih2rcd13ifvqfs0","pricing_plan_id":"cebpf4jnsgd1na2vs0mg"},{"bike_id":"fcd446ef-f8e6-45a0-806e-34fecb9910fa","system_id":"levelo_inurba_marseille","lat":43.27491,"lon":5.42461,"is_reserved":false,"is_disabled":false,"rental_uris":{"android":"levelo://app?vid=fcd446ef-f8e6-45a0-806e-34fecb9910fa","ios":"levelo://app?vid=fcd446ef-f8e6-45a0-806e-34fecb9910fa"},"vehicle_type_id":"4","last_reported":1738663775,"current_range_meters":20000,"station_id":"ce4bhn92rcd13ifvqgrg","pricing_plan_id":"cebpf4jnsgd1na2vs0mg"},{"bike_id":"3a9e538c-65c2-479b-b2d6-6e9e8856f5d8","system_id":"levelo_inurba_marseille","lat":43.25919,"lon":5.40918,"is_reserved":false,"is_disabled":false,"rental_uris":{"android":"levelo://app?vid=3a9e538c-65c2-479b-b2d6-6e9e8856f5d8","ios":"levelo://app?vid=3a9e538c-65c2-479b-b2d6-6e9e8856f5d8"},"vehicle_type_id":"4","last_reported":1738663775,"current_range_meters":26000,"station_id":"ce4bhm92rcd13ifvqglg","pricing_plan_id":"cebpf4jnsgd1na2vs0mg"},{"bike_id":"c86e8d31-7f1b-4b47-8104-02a7730632ab","system_id":"levelo_inurba_marseille","lat":43.29908,"lon":5.38142,"is_reserved":false,"is_disabled":false,"rental_uris":{"android":"levelo://app?vid=c86e8d31-7f1b-4b47-8104-02a7730632ab","ios":"levelo://app?vid=c86e8d31-7f1b-4b47-8104-02a7730632ab"},"vehicle_type_id":"4","last_reported":1738663775,"current_range_meters":28800,"station_id":"ce4bgj12rcd13ifvqbc0","pricing_plan_id":"cebpf4jnsgd1na2vs0mg"},{"bike_id":"f49399e3-6204-4840-b71d-d4fdec09f64b","system_id":"levelo_inurba_marseille","lat":43.2592,"lon":5.40896,"is_reserved":false,"is_disabled":false,"rental_uris":{"android":"levelo://app?vid=f49399e3-6204-4840-b71d-d4fdec09f64b","ios":"levelo://app?vid=f49399e3-6204-4840-b71d-d4fdec09f64b"},"vehicle_type_id":"4","last_reported":1738663775,"current_range_meters":28800,"station_id":"ce4bhm92rcd13ifvqglg","pricing_plan_id":"cebpf4jnsgd1na2vs0mg"},{"bike_id":"6a63ff52-6ed1-4940-b0b4-eb2a8bc83e74","system_id":"levelo_inurba_marseille","lat":43.29276,"lon":5.36843,"is_reserved":false,"is_disabled":false,"rental_uris":{"android":"levelo://app?vid=6a63ff52-6ed1-4940-b0b4-eb2a8bc83e74","ios":"levelo://app?vid=6a63ff52-6ed1-4940-b0b4-eb2a8bc83e74"},"vehicle_type_id":"4","last_reported":1738663775,"current_range_meters":26000,"station_id":"ce4bhbp2rcd13ifvqesg","pricing_plan_id":"cebpf4jnsgd1na2vs0mg"},{"bike_id":"50c53f9f-f22e-4be4-851a-9f27103ba451","system_id":"levelo_inurba_marseille","lat":43.30604,"lon":5.37223,"is_reserved":false,"is_disabled":false,"rental_uris":{"android":"levelo://app?vid=50c53f9f-f22e-4be4-851a-9f27103ba451","ios":"levelo://app?vid=50c53f9f-f22e-4be4-851a-9f27103ba451"},"vehicle_type_id":"4","last_reported":1738663775,"current_range_meters":25200,"station_id":"ce4bgqh2rcd13ifvqc4g","pricing_plan_id":"cebpf4jnsgd1na2vs0mg"},{"bike_id":"1a794636-1de8-48ff-a1bf-f41557cb147d","system_id":"levelo_inurba_marseille","lat":43.34596,"lon":5.38119,"is_reserved":false,"is_disabled":false,"rental_uris":{"android":"levelo://app?vid=1a794636-1de8-48ff-a1bf-f41557cb147d","ios":"levelo://app?vid=1a794636-1de8-48ff-a1bf-f41557cb147d"},"vehicle_type_id":"4","last_reported":1738663775,"current_range_meters":14000,"station_id":"","pricing_plan_id":"cebpf4jnsgd1na2vs0mg"},{"bike_id":"3c8e5445-cf86-469e-9c11-4a5caaef9b7e","system_id":"levelo_inurba_marseille","lat":43.24646,"lon":5.38912,"is_reserved":false,"is_disabled":false,"rental_uris":{"android":"levelo://app?vid=3c8e5445-cf86-469e-9c11-4a5caaef9b7e","ios":"levelo://app?vid=3c8e5445-cf86-469e-9c11-4a5caaef9b7e"},"vehicle_type_id":"4","last_reported":1738663775,"current_range_meters":38400,"station_id":"ce4bhg12rcd13ifvqf60","pricing_plan_id":"cebpf4jnsgd1na2vs0mg"},{"bike_id":"d6839042-ffb2-4301-bb52-472b8256b81e","system_id":"levelo_inurba_marseille","lat":43.30453,"lon":5.37913,"is_reserved":false,"is_disabled":false,"rental_uris":{"android":"levelo://app?vid=d6839042-ffb2-4301-bb52-472b8256b81e","ios":"levelo://app?vid=d6839042-ffb2-4301-bb52-472b8256b81e"},"vehicle_type_id":"4","last_reported":1738663775,"current_range_meters":32800,"station_id":"ce4bgup2rcd13ifvqcn0","pricing_plan_id":"cebpf4jnsgd1na2vs0mg"},{"bike_id":"9d61ac4e-e68f-4b98-917f-b08321d44dbd","system_id":"levelo_inurba_marseille","lat":43.28955,"lon":5.37875,"is_reserved":false,"is_disabled":false,"rental_uris":{"android":"levelo://app?vid=9d61ac4e-e68f-4b98-917f-b08321d44dbd","ios":"levelo://app?vid=9d61ac4e-e68f-4b98-917f-b08321d44dbd"},"vehicle_type_id":"4","last_reported":1738663775,"current_range_meters":39200,"station_id":"ce4bh9p2rcd13ifvqed0","pricing_plan_id":"cebpf4jnsgd1na2vs0mg"},{"bike_id":"73eafdd5-6e61-4fa8-88ae-0301d718a618","system_id":"levelo_inurba_marseille","lat":43.32313,"lon":5.38241,"is_reserved":false,"is_disabled":false,"rental_uris":{"android":"levelo://app?vid=73eafdd5-6e61-4fa8-88ae-0301d718a618","ios":"levelo://app?vid=73eafdd5-6e61-4fa8-88ae-0301d718a618"},"vehicle_type_id":"4","last_reported":1738663775,"current_range_meters":38000,"station_id":"ce4bhr12rcd13ifvqhqg","pricing_plan_id":"cebpf4jnsgd1na2vs0mg"},{"bike_id":"0580b22c-e37b-43ae-9129-b4938c90022d","system_id":"levelo_inurba_marseille","lat":43.31509,"lon":5.373,"is_reserved":false,"is_disabled":false,"rental_uris":{"android":"levelo://app?vid=0580b22c-e37b-43ae-9129-b4938c90022d","ios":"levelo://app?vid=0580b22c-e37b-43ae-9129-b4938c90022d"},"vehicle_type_id":"4","last_reported":1738663775,"current_range_meters":30000,"station_id":"ce4bgt12rcd13ifvqcd0","pricing_plan_id":"cebpf4jnsgd1na2vs0mg"},{"bike_id":"13bc01dd-b19c-4b2d-b1c1-1a3c85340b9a","system_id":"levelo_inurba_marseille","lat":43.24643,"lon":5.38896,"is_reserved":false,"is_disabled":false,"rental_uris":{"android":"levelo://app?vid=13bc01dd-b19c-4b2d-b1c1-1a3c85340b9a","ios":"levelo://app?vid=13bc01dd-b19c-4b2d-b1c1-1a3c85340b9a"},"vehicle_type_id":"4","last_reported":1738663775,"current_range_meters":38800,"station_id":"ce4bhg12rcd13ifvqf60","pricing_plan_id":"cebpf4jnsgd1na2vs0mg"},{"bike_id":"30d68ac6-7ba6-4749-8154-bf914e372a6a","system_id":"levelo_inurba_marseille","lat":43.32366,"lon":5.38883,"is_reserved":false,"is_disabled":false,"rental_uris":{"android":"levelo://app?vid=30d68ac6-7ba6-4749-8154-bf914e372a6a","ios":"levelo://app?vid=30d68ac6-7ba6-4749-8154-bf914e372a6a"},"vehicle_type_id":"4","last_reported":1738663775,"current_range_meters":38000,"station_id":"ce4bhqp2rcd13ifvqhog","pricing_plan_id":"cebpf4jnsgd1na2vs0mg"},{"bike_id":"70db77fa-5101-4cc3-b5ef-7ecd27e20697","system_id":"levelo_inurba_marseille","lat":43.23065,"lon":5.35485,"is_reserved":false,"is_disabled":false,"rental_uris":{"android":"levelo://app?vid=70db77fa-5101-4cc3-b5ef-7ecd27e20697","ios":"levelo://app?vid=70db77fa-5101-4cc3-b5ef-7ecd27e20697"},"vehicle_type_id":"4","last_reported":1738663775,"current_range_meters":24800,"station_id":"cpo3342slgdg3j2ifvpg","pricing_plan_id":"cebpf4jnsgd1na2vs0mg"},{"bike_id":"e33c097b-83d0-40ec-9fbf-364e5b0a9ef8","system_id":"levelo_inurba_marseille","lat":43.23193,"lon":5.35553,"is_reserved":false,"is_disabled":false,"rental_uris":{"android":"levelo://app?vid=e33c097b-83d0-40ec-9fbf-364e5b0a9ef8","ios":"levelo://app?vid=e33c097b-83d0-40ec-9fbf-364e5b0a9ef8"},"vehicle_type_id":"4","last_reported":1738663775,"current_range_meters":39200,"station_id":"ce4bhu92rcd13ifvqi70","pricing_plan_id":"cebpf4jnsgd1na2vs0mg"},{"bike_id":"15a26f1c-8db6-4e23-b349-ee383d713225","system_id":"levelo_inurba_marseille","lat":43.29042,"lon":5.40025,"is_reserved":false,"is_disabled":true,"rental_uris":{"android":"levelo://app?vid=15a26f1c-8db6-4e23-b349-ee383d713225","ios":"levelo://app?vid=15a26f1c-8db6-4e23-b349-ee383d713225"},"vehicle_type_id":"4","last_reported":1738663775,"current_range_meters":22400,"station_id":"ce4bh392rcd13ifvqdm0","pricing_plan_id":"cebpf4jnsgd1na2vs0mg"},{"bike_id":"46e3fda2-910b-49f3-bb16-3c8f8f4eaa0d","system_id":"levelo_inurba_marseille","lat":43.28948,"lon":5.36407,"is_reserved":false,"is_disabled":false,"rental_uris":{"android":"levelo://app?vid=46e3fda2-910b-49f3-bb16-3c8f8f4eaa0d","ios":"levelo://app?vid=46e3fda2-910b-49f3-bb16-3c8f8f4eaa0d"},"vehicle_type_id":"4","last_reported":1738663775,"current_range_meters":19200,"station_id":"ce4bhc92rcd13ifvqetg","pricing_plan_id":"cebpf4jnsgd1na2vs0mg"},{"bike_id":"dc7053bf-404a-4185-a924-64707a11b476","system_id":"levelo_inurba_marseille","lat":43.303,"lon":5.37709,"is_reserved":false,"is_disabled":false,"rental_uris":{"android":"levelo://app?vid=dc7053bf-404a-4185-a924-64707a11b476","ios":"levelo://app?vid=dc7053bf-404a-4185-a924-64707a11b476"},"vehicle_type_id":"4","last_reported":1738663775,"current_range_meters":27600,"station_id":"ce4bguh2rcd13ifvqcj0","pricing_plan_id":"cebpf4jnsgd1na2vs0mg"},{"bike_id":"8c6b7a51-ddd8-424b-ae4e-3239e83554e1","system_id":"levelo_inurba_marseille","lat":43.30477,"lon":5.37899,"is_reserved":false,"is_disabled":false,"rental_uris":{"android":"levelo://app?vid=8c6b7a51-ddd8-424b-ae4e-3239e83554e1","ios":"levelo://app?vid=8c6b7a51-ddd8-424b-ae4e-3239e83554e1"},"vehicle_type_id":"4","last_reported":1738663775,"current_range_meters":27600,"station_id":"ce4bgup2rcd13ifvqcn0","pricing_plan_id":"cebpf4jnsgd1na2vs0mg"},{"bike_id":"0e775c38-7145-4e54-8c6f-1ded1dd2ad0f","system_id":"levelo_inurba_marseille","lat":43.27492,"lon":5.42461,"is_reserved":false,"is_disabled":false,"rental_uris":{"android":"levelo://app?vid=0e775c38-7145-4e54-8c6f-1ded1dd2ad0f","ios":"levelo://app?vid=0e775c38-7145-4e54-8c6f-1ded1dd2ad0f"},"vehicle_type_id":"4","last_reported":1738663775,"current_range_meters":28800,"station_id":"ce4bhn92rcd13ifvqgrg","pricing_plan_id":"cebpf4jnsgd1na2vs0mg"},{"bike_id":"cedd1b75-7ca7-45aa-a6ce-9bae6e8b581f","system_id":"levelo_inurba_marseille","lat":43.26939,"lon":5.38652,"is_reserved":false,"is_disabled":false,"rental_uris":{"android":"levelo://app?vid=cedd1b75-7ca7-45aa-a6ce-9bae6e8b581f","ios":"levelo://app?vid=cedd1b75-7ca7-45aa-a6ce-9bae6e8b581f"},"vehicle_type_id":"4","last_reported":1738663775,"current_range_meters":38800,"station_id":"ce4bhh92rcd13ifvqfh0","pricing_plan_id":"cebpf4jnsgd1na2vs0mg"},{"bike_id":"89e0fb27-5f26-4cfe-9f61-e8651117733f","system_id":"levelo_inurba_marseille","lat":43.22922,"lon":5.35371,"is_reserved":false,"is_disabled":false,"rental_uris":{"android":"levelo://app?vid=89e0fb27-5f26-4cfe-9f61-e8651117733f","ios":"levelo://app?vid=89e0fb27-5f26-4cfe-9f61-e8651117733f"},"vehicle_type_id":"4","last_reported":1738663775,"current_range_meters":38000,"station_id":"cpo3532slgdg3j2ikp40","pricing_plan_id":"cebpf4jnsgd1na2vs0mg"},{"bike_id":"c99192c5-d228-4fa6-b582-8ef5a907c121","system_id":"levelo_inurba_marseille","lat":43.28952,"lon":5.37868,"is_reserved":false,"is_disabled":false,"rental_uris":{"android":"levelo://app?vid=c99192c5-d228-4fa6-b582-8ef5a907c121","ios":"levelo://app?vid=c99192c5-d228-4fa6-b582-8ef5a907c121"},"vehicle_type_id":"4","last_reported":1738663775,"current_range_meters":38800,"station_id":"ce4bh9p2rcd13ifvqed0","pricing_plan_id":"cebpf4jnsgd1na2vs0mg"},{"bike_id":"cfdf0950-ea3c-4b92-804b-57a6b13d3e7a","system_id":"levelo_inurba_marseille","lat":43.274902,"lon":5.424564,"is_reserved":false,"is_disabled":false,"rental_uris":{"android":"levelo://app?vid=cfdf0950-ea3c-4b92-804b-57a6b13d3e7a","ios":"levelo://app?vid=cfdf0950-ea3c-4b92-804b-57a6b13d3e7a"},"vehicle_type_id":"4","last_reported":1738663775,"current_range_meters":33600,"station_id":"ce4bhn92rcd13ifvqgrg","pricing_plan_id":"cebpf4jnsgd1na2vs0mg"},{"bike_id":"c548f53c-8626-4aa7-a88e-8260a0782630","system_id":"levelo_inurba_marseille","lat":43.2593,"lon":5.40894,"is_reserved":false,"is_disabled":false,"rental_uris":{"android":"levelo://app?vid=c548f53c-8626-4aa7-a88e-8260a0782630","ios":"levelo://app?vid=c548f53c-8626-4aa7-a88e-8260a0782630"},"vehicle_type_id":"4","last_reported":1738663775,"current_range_meters":4000,"station_id":"ce4bhm92rcd13ifvqglg","pricing_plan_id":"cebpf4jnsgd1na2vs0mg"},{"bike_id":"937e2379-ae23-49c0-b84b-a0ddcf142a84","system_id":"levelo_inurba_marseille","lat":43.30079,"lon":5.3908,"is_reserved":false,"is_disabled":false,"rental_uris":{"android":"levelo://app?vid=937e2379-ae23-49c0-b84b-a0ddcf142a84","ios":"levelo://app?vid=937e2379-ae23-49c0-b84b-a0ddcf142a84"},"vehicle_type_id":"4","last_reported":1738663775,"current_range_meters":28000,"station_id":"ce4bh192rcd13ifvqdb0","pricing_plan_id":"cebpf4jnsgd1na2vs0mg"},{"bike_id":"73ce5867-64af-413e-8de7-68ce3423aed3","system_id":"levelo_inurba_marseille","lat":43.24071,"lon":5.3777,"is_reserved":false,"is_disabled":false,"rental_uris":{"android":"levelo://app?vid=73ce5867-64af-413e-8de7-68ce3423aed3","ios":"levelo://app?vid=73ce5867-64af-413e-8de7-68ce3423aed3"},"vehicle_type_id":"4","last_reported":1738663775,"current_range_meters":25600,"station_id":"ce4bhnp2rcd13ifvqgvg","pricing_plan_id":"cebpf4jnsgd1na2vs0mg"},{"bike_id":"b215dd6e-9910-4def-beb6-1006112b71da","system_id":"levelo_inurba_marseille","lat":43.24075,"lon":5.37771,"is_reserved":false,"is_disabled":false,"rental_uris":{"android":"levelo://app?vid=b215dd6e-9910-4def-beb6-1006112b71da","ios":"levelo://app?vid=b215dd6e-9910-4def-beb6-1006112b71da"},"vehicle_type_id":"4","last_reported":1738663775,"current_range_meters":39200,"station_id":"ce4bhnp2rcd13ifvqgvg","pricing_plan_id":"cebpf4jnsgd1na2vs0mg"},{"bike_id":"b8377e0a-43f0-421f-b7bc-be53cdc947c8","system_id":"levelo_inurba_marseille","lat":43.32554,"lon":5.41454,"is_reserved":false,"is_disabled":false,"rental_uris":{"android":"levelo://app?vid=b8377e0a-43f0-421f-b7bc-be53cdc947c8","ios":"levelo://app?vid=b8377e0a-43f0-421f-b7bc-be53cdc947c8"},"vehicle_type_id":"4","last_reported":1738663775,"current_range_meters":37600,"station_id":"ce4bhq12rcd13ifvqhhg","pricing_plan_id":"cebpf4jnsgd1na2vs0mg"},{"bike_id":"61fb1657-1c82-4c6e-95f9-6cf0d8834dd4","system_id":"levelo_inurba_marseille","lat":43.29906,"lon":5.38135,"is_reserved":false,"is_disabled":false,"rental_uris":{"android":"levelo://app?vid=61fb1657-1c82-4c6e-95f9-6cf0d8834dd4","ios":"levelo://app?vid=61fb1657-1c82-4c6e-95f9-6cf0d8834dd4"},"vehicle_type_id":"4","last_reported":1738663775,"current_range_meters":33600,"station_id":"ce4bgj12rcd13ifvqbc0","pricing_plan_id":"cebpf4jnsgd1na2vs0mg"},{"bike_id":"5ab289db-c659-49ce-baab-8009c07d9c58","system_id":"levelo_inurba_marseille","lat":43.30136,"lon":5.38783,"is_reserved":false,"is_disabled":true,"rental_uris":{"android":"levelo://app?vid=5ab289db-c659-49ce-baab-8009c07d9c58","ios":"levelo://app?vid=5ab289db-c659-49ce-baab-8009c07d9c58"},"vehicle_type_id":"4","last_reported":1738663775,"current_range_meters":0,"station_id":"ce4bghh2rcd13ifvqb60","pricing_plan_id":"cebpf4jnsgd1na2vs0mg"},{"bike_id":"9a246337-8b93-40ac-8041-a37c41945aaf","system_id":"levelo_inurba_marseille","lat":43.26933,"lon":5.40266,"is_reserved":false,"is_disabled":false,"rental_uris":{"android":"levelo://app?vid=9a246337-8b93-40ac-8041-a37c41945aaf","ios":"levelo://app?vid=9a246337-8b93-40ac-8041-a37c41945aaf"},"vehicle_type_id":"4","last_reported":1738663775,"current_range_meters":7200,"station_id":"cjm6bp8fraef2m0cb0m0","pricing_plan_id":"cebpf4jnsgd1na2vs0mg"},{"bike_id":"3bee43d5-e27e-4692-8630-5bfa4bfc3f39","system_id":"levelo_inurba_marseille","lat":43.323,"lon":5.38274,"is_reserved":false,"is_disabled":false,"rental_uris":{"android":"levelo://app?vid=3bee43d5-e27e-4692-8630-5bfa4bfc3f39","ios":"levelo://app?vid=3bee43d5-e27e-4692-8630-5bfa4bfc3f39"},"vehicle_type_id":"4","last_reported":1738663775,"current_range_meters":25200,"station_id":"ce4bhr12rcd13ifvqhqg","pricing_plan_id":"cebpf4jnsgd1na2vs0mg"},{"bike_id":"278902b4-7b50-4f46-8ac1-6d0f29cc8638","system_id":"levelo_inurba_marseille","lat":43.24387,"lon":5.37064,"is_reserved":false,"is_disabled":false,"rental_uris":{"android":"levelo://app?vid=278902b4-7b50-4f46-8ac1-6d0f29cc8638","ios":"levelo://app?vid=278902b4-7b50-4f46-8ac1-6d0f29cc8638"},"vehicle_type_id":"4","last_reported":1738663775,"current_range_meters":36800,"station_id":"ce4bhhh2rcd13ifvqfk0","pricing_plan_id":"cebpf4jnsgd1na2vs0mg"},{"bike_id":"892d3765-5c4a-4b7c-80bb-37a8d91fb9fc","system_id":"levelo_inurba_marseille","lat":43.27285,"lon":5.39134,"is_reserved":false,"is_disabled":false,"rental_uris":{"android":"levelo://app?vid=892d3765-5c4a-4b7c-80bb-37a8d91fb9fc","ios":"levelo://app?vid=892d3765-5c4a-4b7c-80bb-37a8d91fb9fc"},"vehicle_type_id":"4","last_reported":1738663775,"current_range_meters":9200,"station_id":"","pricing_plan_id":"cebpf4jnsgd1na2vs0mg"},{"bike_id":"1296b03b-2cea-4701-83bd-76fc58cddc12","system_id":"levelo_inurba_marseille","lat":43.2927,"lon":5.36857,"is_reserved":false,"is_disabled":false,"rental_uris":{"android":"levelo://app?vid=1296b03b-2cea-4701-83bd-76fc58cddc12","ios":"levelo://app?vid=1296b03b-2cea-4701-83bd-76fc58cddc12"},"vehicle_type_id":"4","last_reported":1738663775,"current_range_meters":38800,"station_id":"ce4bhbp2rcd13ifvqesg","pricing_plan_id":"cebpf4jnsgd1na2vs0mg"},{"bike_id":"061fe1f7-1b1b-403e-bdb0-1319fb067ccf","system_id":"levelo_inurba_marseille","lat":43.32538,"lon":5.41455,"is_reserved":false,"is_disabled":false,"rental_uris":{"android":"levelo://app?vid=061fe1f7-1b1b-403e-bdb0-1319fb067ccf","ios":"levelo://app?vid=061fe1f7-1b1b-403e-bdb0-1319fb067ccf"},"vehicle_type_id":"4","last_reported":1738663775,"current_range_meters":39200,"station_id":"ce4bhq12rcd13ifvqhhg","pricing_plan_id":"cebpf4jnsgd1na2vs0mg"},{"bike_id":"3ab0ceb6-cd89-477f-8038-1be761eb4bda","system_id":"levelo_inurba_marseille","lat":43.29198,"lon":5.36052,"is_reserved":false,"is_disabled":false,"rental_uris":{"android":"levelo://app?vid=3ab0ceb6-cd89-477f-8038-1be761eb4bda","ios":"levelo://app?vid=3ab0ceb6-cd89-477f-8038-1be761eb4bda"},"vehicle_type_id":"4","last_reported":1738663775,"current_range_meters":14000,"station_id":"ce4bhbh2rcd13ifvqeqg","pricing_plan_id":"cebpf4jnsgd1na2vs0mg"},{"bike_id":"cb22c695-a4a1-4b40-8327-76d0a13c0d1d","system_id":"levelo_inurba_marseille","lat":43.30539,"lon":5.36696,"is_reserved":false,"is_disabled":false,"rental_uris":{"android":"levelo://app?vid=cb22c695-a4a1-4b40-8327-76d0a13c0d1d","ios":"levelo://app?vid=cb22c695-a4a1-4b40-8327-76d0a13c0d1d"},"vehicle_type_id":"4","last_reported":1738663775,"current_range_meters":23200,"station_id":"ce4bgrp2rcd13ifvqc9g","pricing_plan_id":"cebpf4jnsgd1na2vs0mg"},{"bike_id":"f876c5f4-d351-4f17-9695-ad6fce8ba38c","system_id":"levelo_inurba_marseille","lat":43.24075,"lon":5.37754,"is_reserved":false,"is_disabled":false,"rental_uris":{"android":"levelo://app?vid=f876c5f4-d351-4f17-9695-ad6fce8ba38c","ios":"levelo://app?vid=f876c5f4-d351-4f17-9695-ad6fce8ba38c"},"vehicle_type_id":"4","last_reported":1738663775,"current_range_meters":25600,"station_id":"ce4bhnp2rcd13ifvqgvg","pricing_plan_id":"cebpf4jnsgd1na2vs0mg"},{"bike_id":"a7707bf1-29c6-4f48-976f-2880303742fc","system_id":"levelo_inurba_marseille","lat":43.29533,"lon":5.39045,"is_reserved":false,"is_disabled":true,"rental_uris":{"android":"levelo://app?vid=a7707bf1-29c6-4f48-976f-2880303742fc","ios":"levelo://app?vid=a7707bf1-29c6-4f48-976f-2880303742fc"},"vehicle_type_id":"4","last_reported":1738663775,"current_range_meters":14400,"station_id":"ce4bh3p2rcd13ifvqdp0","pricing_plan_id":"cebpf4jnsgd1na2vs0mg"},{"bike_id":"87b6bc82-efdc-4821-adfd-7e797dfdd749","system_id":"levelo_inurba_marseille","lat":43.29222,"lon":5.36071,"is_reserved":false,"is_disabled":false,"rental_uris":{"android":"levelo://app?vid=87b6bc82-efdc-4821-adfd-7e797dfdd749","ios":"levelo://app?vid=87b6bc82-efdc-4821-adfd-7e797dfdd749"},"vehicle_type_id":"4","last_reported":1738663775,"current_range_meters":34000,"station_id":"ce4bhbh2rcd13ifvqeqg","pricing_plan_id":"cebpf4jnsgd1na2vs0mg"},{"bike_id":"af21b367-4269-4594-b228-5a4aa2d7c730","system_id":"levelo_inurba_marseille","lat":43.26561,"lon":5.37276,"is_reserved":false,"is_disabled":false,"rental_uris":{"android":"levelo://app?vid=af21b367-4269-4594-b228-5a4aa2d7c730","ios":"levelo://app?vid=af21b367-4269-4594-b228-5a4aa2d7c730"},"vehicle_type_id":"4","last_reported":1738663775,"current_range_meters":4400,"station_id":"ce4bhg12rcd13ifvqf70","pricing_plan_id":"cebpf4jnsgd1na2vs0mg"},{"bike_id":"9dd00de5-5db2-4d28-96a2-352d9adfb4b3","system_id":"levelo_inurba_marseille","lat":43.23967,"lon":5.36638,"is_reserved":false,"is_disabled":false,"rental_uris":{"android":"levelo://app?vid=9dd00de5-5db2-4d28-96a2-352d9adfb4b3","ios":"levelo://app?vid=9dd00de5-5db2-4d28-96a2-352d9adfb4b3"},"vehicle_type_id":"4","last_reported":1738663775,"current_range_meters":28800,"station_id":"ce4bhi12rcd13ifvqfp0","pricing_plan_id":"cebpf4jnsgd1na2vs0mg"},{"bike_id":"8af0b331-8042-4fb4-ad0c-c579fbbb63b7","system_id":"levelo_inurba_marseille","lat":43.33619,"lon":5.41035,"is_reserved":false,"is_disabled":false,"rental_uris":{"android":"levelo://app?vid=8af0b331-8042-4fb4-ad0c-c579fbbb63b7","ios":"levelo://app?vid=8af0b331-8042-4fb4-ad0c-c579fbbb63b7"},"vehicle_type_id":"4","last_reported":1738663775,"current_range_meters":39200,"station_id":"ce4bhqh2rcd13ifvqhmg","pricing_plan_id":"cebpf4jnsgd1na2vs0mg"},{"bike_id":"a91cdf06-8aaf-4398-8173-3fb2561d3057","system_id":"levelo_inurba_marseille","lat":43.25567,"lon":5.38262,"is_reserved":false,"is_disabled":false,"rental_uris":{"android":"levelo://app?vid=a91cdf06-8aaf-4398-8173-3fb2561d3057","ios":"levelo://app?vid=a91cdf06-8aaf-4398-8173-3fb2561d3057"},"vehicle_type_id":"4","last_reported":1738663775,"current_range_meters":35600,"station_id":"ce4bhih2rcd13ifvqfs0","pricing_plan_id":"cebpf4jnsgd1na2vs0mg"},{"bike_id":"54d06fd4-9213-43ef-8373-28e5edb151d5","system_id":"levelo_inurba_marseille","lat":43.30476,"lon":5.37915,"is_reserved":false,"is_disabled":false,"rental_uris":{"android":"levelo://app?vid=54d06fd4-9213-43ef-8373-28e5edb151d5","ios":"levelo://app?vid=54d06fd4-9213-43ef-8373-28e5edb151d5"},"vehicle_type_id":"4","last_reported":1738663775,"current_range_meters":27600,"station_id":"ce4bgup2rcd13ifvqcn0","pricing_plan_id":"cebpf4jnsgd1na2vs0mg"},{"bike_id":"f99c2d6a-f6bd-43c9-9b5e-96aec13e4155","system_id":"levelo_inurba_marseille","lat":43.31388,"lon":5.36682,"is_reserved":false,"is_disabled":false,"rental_uris":{"android":"levelo://app?vid=f99c2d6a-f6bd-43c9-9b5e-96aec13e4155","ios":"levelo://app?vid=f99c2d6a-f6bd-43c9-9b5e-96aec13e4155"},"vehicle_type_id":"4","last_reported":1738663775,"current_range_meters":39200,"station_id":"ce4bgr92rcd13ifvqc6g","pricing_plan_id":"cebpf4jnsgd1na2vs0mg"},{"bike_id":"d732545f-c3e1-462d-ad3c-bff54d6ecd94","system_id":"levelo_inurba_marseille","lat":43.30152,"lon":5.38089,"is_reserved":false,"is_disabled":false,"rental_uris":{"android":"levelo://app?vid=d732545f-c3e1-462d-ad3c-bff54d6ecd94","ios":"levelo://app?vid=d732545f-c3e1-462d-ad3c-bff54d6ecd94"},"vehicle_type_id":"4","last_reported":1738663775,"current_range_meters":27200,"station_id":"ce4bgjp2rcd13ifvqbh0","pricing_plan_id":"cebpf4jnsgd1na2vs0mg"},{"bike_id":"6d2d1c50-a3ea-4c3a-a277-96f47403f17f","system_id":"levelo_inurba_marseille","lat":43.25819,"lon":5.39435,"is_reserved":false,"is_disabled":false,"rental_uris":{"android":"levelo://app?vid=6d2d1c50-a3ea-4c3a-a277-96f47403f17f","ios":"levelo://app?vid=6d2d1c50-a3ea-4c3a-a277-96f47403f17f"},"vehicle_type_id":"4","last_reported":1738663775,"current_range_meters":23200,"station_id":"ce4bhip2rcd13ifvqft0","pricing_plan_id":"cebpf4jnsgd1na2vs0mg"},{"bike_id":"8deac318-65a8-448d-93f6-837f094a0dbe","system_id":"levelo_inurba_marseille","lat":43.31324,"lon":5.36751,"is_reserved":false,"is_disabled":false,"rental_uris":{"android":"levelo://app?vid=8deac318-65a8-448d-93f6-837f094a0dbe","ios":"levelo://app?vid=8deac318-65a8-448d-93f6-837f094a0dbe"},"vehicle_type_id":"4","last_reported":1738663775,"current_range_meters":38800,"station_id":"ce4bgr92rcd13ifvqc6g","pricing_plan_id":"cebpf4jnsgd1na2vs0mg"},{"bike_id":"f7834a82-53cc-4861-ac94-89c1c72000c0","system_id":"levelo_inurba_marseille","lat":43.23963,"lon":5.36627,"is_reserved":false,"is_disabled":false,"rental_uris":{"android":"levelo://app?vid=f7834a82-53cc-4861-ac94-89c1c72000c0","ios":"levelo://app?vid=f7834a82-53cc-4861-ac94-89c1c72000c0"},"vehicle_type_id":"4","last_reported":1738663775,"current_range_meters":17200,"station_id":"ce4bhi12rcd13ifvqfp0","pricing_plan_id":"cebpf4jnsgd1na2vs0mg"},{"bike_id":"d956c0fa-8e81-4a5c-a819-66560ebeacd2","system_id":"levelo_inurba_marseille","lat":43.28162,"lon":5.42645,"is_reserved":false,"is_disabled":false,"rental_uris":{"android":"levelo://app?vid=d956c0fa-8e81-4a5c-a819-66560ebeacd2","ios":"levelo://app?vid=d956c0fa-8e81-4a5c-a819-66560ebeacd2"},"vehicle_type_id":"4","last_reported":1738663775,"current_range_meters":7200,"station_id":"ce4bhnh2rcd13ifvqgug","pricing_plan_id":"cebpf4jnsgd1na2vs0mg"},{"bike_id":"e270e9c9-c637-4eec-85ca-20047cef130b","system_id":"levelo_inurba_marseille","lat":43.23147,"lon":5.43717,"is_reserved":false,"is_disabled":true,"rental_uris":{"android":"levelo://app?vid=e270e9c9-c637-4eec-85ca-20047cef130b","ios":"levelo://app?vid=e270e9c9-c637-4eec-85ca-20047cef130b"},"vehicle_type_id":"4","last_reported":1738663775,"current_range_meters":1200,"station_id":"ce4bhmp2rcd13ifvqgog","pricing_plan_id":"cebpf4jnsgd1na2vs0mg"},{"bike_id":"dfe4a7c7-0508-43ad-a0c0-ea841f1a5151","system_id":"levelo_inurba_marseille","lat":43.31227,"lon":5.36821,"is_reserved":false,"is_disabled":false,"rental_uris":{"android":"levelo://app?vid=dfe4a7c7-0508-43ad-a0c0-ea841f1a5151","ios":"levelo://app?vid=dfe4a7c7-0508-43ad-a0c0-ea841f1a5151"},"vehicle_type_id":"4","last_reported":1738663775,"current_range_meters":35200,"station_id":"ce4bgl92rcd13ifvqbq0","pricing_plan_id":"cebpf4jnsgd1na2vs0mg"},{"bike_id":"2596d18e-5a51-415d-81d9-dda15ef753ca","system_id":"levelo_inurba_marseille","lat":43.29617,"lon":5.37171,"is_reserved":false,"is_disabled":false,"rental_uris":{"android":"levelo://app?vid=2596d18e-5a51-415d-81d9-dda15ef753ca","ios":"levelo://app?vid=2596d18e-5a51-415d-81d9-dda15ef753ca"},"vehicle_type_id":"4","last_reported":1738663775,"current_range_meters":38800,"station_id":"ce4bgnh2rcd13ifvqc0g","pricing_plan_id":"cebpf4jnsgd1na2vs0mg"},{"bike_id":"0779427b-9373-4e00-a6df-90da704710dd","system_id":"levelo_inurba_marseille","lat":43.29339,"lon":5.3712,"is_reserved":false,"is_disabled":false,"rental_uris":{"android":"levelo://app?vid=0779427b-9373-4e00-a6df-90da704710dd","ios":"levelo://app?vid=0779427b-9373-4e00-a6df-90da704710dd"},"vehicle_type_id":"4","last_reported":1738663775,"current_range_meters":38800,"station_id":"","pricing_plan_id":"cebpf4jnsgd1na2vs0mg"},{"bike_id":"ab21f6d2-741a-4615-9802-4ed65daecb37","system_id":"levelo_inurba_marseille","lat":43.26674,"lon":5.38257,"is_reserved":false,"is_disabled":false,"rental_uris":{"android":"levelo://app?vid=ab21f6d2-741a-4615-9802-4ed65daecb37","ios":"levelo://app?vid=ab21f6d2-741a-4615-9802-4ed65daecb37"},"vehicle_type_id":"4","last_reported":1738663775,"current_range_meters":35200,"station_id":"ce4bhg92rcd13ifvqf90","pricing_plan_id":"cebpf4jnsgd1na2vs0mg"},{"bike_id":"005249ad-a5ba-4e73-997c-32d7121f7635","system_id":"levelo_inurba_marseille","lat":43.27913,"lon":5.39593,"is_reserved":false,"is_disabled":false,"rental_uris":{"android":"levelo://app?vid=005249ad-a5ba-4e73-997c-32d7121f7635","ios":"levelo://app?vid=005249ad-a5ba-4e73-997c-32d7121f7635"},"vehicle_type_id":"4","last_reported":1738663775,"current_range_meters":30000,"station_id":"ce4bhf92rcd13ifvqf40","pricing_plan_id":"cebpf4jnsgd1na2vs0mg"},{"bike_id":"284984b1-0b04-4286-8de9-da966b43349a","system_id":"levelo_inurba_marseille","lat":43.24677,"lon":5.38175,"is_reserved":false,"is_disabled":false,"rental_uris":{"android":"levelo://app?vid=284984b1-0b04-4286-8de9-da966b43349a","ios":"levelo://app?vid=284984b1-0b04-4286-8de9-da966b43349a"},"vehicle_type_id":"4","last_reported":1738663775,"current_range_meters":33600,"station_id":"ce4bhih2rcd13ifvqfr0","pricing_plan_id":"cebpf4jnsgd1na2vs0mg"},{"bike_id":"c1ac1f60-a8dc-4824-a6ad-b9fcfc0f1194","system_id":"levelo_inurba_marseille","lat":43.29514,"lon":5.3751,"is_reserved":false,"is_disabled":false,"rental_uris":{"android":"levelo://app?vid=c1ac1f60-a8dc-4824-a6ad-b9fcfc0f1194","ios":"levelo://app?vid=c1ac1f60-a8dc-4824-a6ad-b9fcfc0f1194"},"vehicle_type_id":"4","last_reported":1738663775,"current_range_meters":30000,"station_id":"ce4bgkp2rcd13ifvqbmg","pricing_plan_id":"cebpf4jnsgd1na2vs0mg"},{"bike_id":"7268df03-0057-41ae-b742-1d956fd18e03","system_id":"levelo_inurba_marseille","lat":43.26947,"lon":5.38655,"is_reserved":false,"is_disabled":false,"rental_uris":{"android":"levelo://app?vid=7268df03-0057-41ae-b742-1d956fd18e03","ios":"levelo://app?vid=7268df03-0057-41ae-b742-1d956fd18e03"},"vehicle_type_id":"4","last_reported":1738663775,"current_range_meters":16800,"station_id":"ce4bhh92rcd13ifvqfh0","pricing_plan_id":"cebpf4jnsgd1na2vs0mg"},{"bike_id":"88f6ec14-1047-428a-bfc8-ed7564b679d3","system_id":"levelo_inurba_marseille","lat":43.24513,"lon":5.36967,"is_reserved":false,"is_disabled":false,"rental_uris":{"android":"levelo://app?vid=88f6ec14-1047-428a-bfc8-ed7564b679d3","ios":"levelo://app?vid=88f6ec14-1047-428a-bfc8-ed7564b679d3"},"vehicle_type_id":"4","last_reported":1738663775,"current_range_meters":38800,"station_id":"","pricing_plan_id":"cebpf4jnsgd1na2vs0mg"},{"bike_id":"6060c4ed-da61-4680-ae0f-affc9319157f","system_id":"levelo_inurba_marseille","lat":43.30142,"lon":5.38076,"is_reserved":false,"is_disabled":false,"rental_uris":{"android":"levelo://app?vid=6060c4ed-da61-4680-ae0f-affc9319157f","ios":"levelo://app?vid=6060c4ed-da61-4680-ae0f-affc9319157f"},"vehicle_type_id":"4","last_reported":1738663775,"current_range_meters":8400,"station_id":"ce4bgjp2rcd13ifvqbh0","pricing_plan_id":"cebpf4jnsgd1na2vs0mg"},{"bike_id":"08c7b2dc-6f10-4fcb-92d7-f4662a1f51b9","system_id":"levelo_inurba_marseille","lat":43.29904,"lon":5.38134,"is_reserved":false,"is_disabled":false,"rental_uris":{"android":"levelo://app?vid=08c7b2dc-6f10-4fcb-92d7-f4662a1f51b9","ios":"levelo://app?vid=08c7b2dc-6f10-4fcb-92d7-f4662a1f51b9"},"vehicle_type_id":"4","last_reported":1738663775,"current_range_meters":36000,"station_id":"ce4bgj12rcd13ifvqbc0","pricing_plan_id":"cebpf4jnsgd1na2vs0mg"},{"bike_id":"9ebdf5b7-cadf-4f22-9a24-90d1c8b0b45a","system_id":"levelo_inurba_marseille","lat":43.29776,"lon":5.39361,"is_reserved":false,"is_disabled":false,"rental_uris":{"android":"levelo://app?vid=9ebdf5b7-cadf-4f22-9a24-90d1c8b0b45a","ios":"levelo://app?vid=9ebdf5b7-cadf-4f22-9a24-90d1c8b0b45a"},"vehicle_type_id":"4","last_reported":1738663775,"current_range_meters":34000,"station_id":"chh1huq6cuj3fo74tm60","pricing_plan_id":"cebpf4jnsgd1na2vs0mg"},{"bike_id":"352d595e-1fe6-4582-beb8-01e7d677d0ed","system_id":"levelo_inurba_marseille","lat":43.23954,"lon":5.36629,"is_reserved":false,"is_disabled":false,"rental_uris":{"android":"levelo://app?vid=352d595e-1fe6-4582-beb8-01e7d677d0ed","ios":"levelo://app?vid=352d595e-1fe6-4582-beb8-01e7d677d0ed"},"vehicle_type_id":"4","last_reported":1738663775,"current_range_meters":4000,"station_id":"ce4bhi12rcd13ifvqfp0","pricing_plan_id":"cebpf4jnsgd1na2vs0mg"},{"bike_id":"d236b23f-174d-4fff-af81-c971b0017636","system_id":"levelo_inurba_marseille","lat":43.27496,"lon":5.42451,"is_reserved":false,"is_disabled":false,"rental_uris":{"android":"levelo://app?vid=d236b23f-174d-4fff-af81-c971b0017636","ios":"levelo://app?vid=d236b23f-174d-4fff-af81-c971b0017636"},"vehicle_type_id":"4","last_reported":1738663775,"current_range_meters":28000,"station_id":"ce4bhn92rcd13ifvqgrg","pricing_plan_id":"cebpf4jnsgd1na2vs0mg"},{"bike_id":"40040c8e-2685-4c87-9802-c71ca769ff08","system_id":"levelo_inurba_marseille","lat":43.31357,"lon":5.36782,"is_reserved":false,"is_disabled":false,"rental_uris":{"android":"levelo://app?vid=40040c8e-2685-4c87-9802-c71ca769ff08","ios":"levelo://app?vid=40040c8e-2685-4c87-9802-c71ca769ff08"},"vehicle_type_id":"4","last_reported":1738663775,"current_range_meters":24000,"station_id":"","pricing_plan_id":"cebpf4jnsgd1na2vs0mg"},{"bike_id":"03215b30-aa65-4b10-b451-ed50967ec88e","system_id":"levelo_inurba_marseille","lat":43.34438,"lon":5.35951,"is_reserved":false,"is_disabled":true,"rental_uris":{"android":"levelo://app?vid=03215b30-aa65-4b10-b451-ed50967ec88e","ios":"levelo://app?vid=03215b30-aa65-4b10-b451-ed50967ec88e"},"vehicle_type_id":"4","last_reported":1738663775,"current_range_meters":0,"station_id":"","pricing_plan_id":"cebpf4jnsgd1na2vs0mg"},{"bike_id":"97f761ee-ed28-4a21-82f2-5e7ab3058ff7","system_id":"levelo_inurba_marseille","lat":43.25733,"lon":5.41101,"is_reserved":false,"is_disabled":false,"rental_uris":{"android":"levelo://app?vid=97f761ee-ed28-4a21-82f2-5e7ab3058ff7","ios":"levelo://app?vid=97f761ee-ed28-4a21-82f2-5e7ab3058ff7"},"vehicle_type_id":"4","last_reported":1738663775,"current_range_meters":19200,"station_id":"ce4bhkp2rcd13ifvqgd0","pricing_plan_id":"cebpf4jnsgd1na2vs0mg"},{"bike_id":"362b8e1d-c9e1-490d-a4e0-861ce9907193","system_id":"levelo_inurba_marseille","lat":43.27502,"lon":5.42442,"is_reserved":false,"is_disabled":false,"rental_uris":{"android":"levelo://app?vid=362b8e1d-c9e1-490d-a4e0-861ce9907193","ios":"levelo://app?vid=362b8e1d-c9e1-490d-a4e0-861ce9907193"},"vehicle_type_id":"4","last_reported":1738663775,"current_range_meters":10800,"station_id":"","pricing_plan_id":"cebpf4jnsgd1na2vs0mg"},{"bike_id":"e909661d-e36b-46c7-8f76-361f4308c549","system_id":"levelo_inurba_marseille","lat":43.29913,"lon":5.3748,"is_reserved":false,"is_disabled":false,"rental_uris":{"android":"levelo://app?vid=e909661d-e36b-46c7-8f76-361f4308c549","ios":"levelo://app?vid=e909661d-e36b-46c7-8f76-361f4308c549"},"vehicle_type_id":"4","last_reported":1738663775,"current_range_meters":14000,"station_id":"ce4bgjh2rcd13ifvqbg0","pricing_plan_id":"cebpf4jnsgd1na2vs0mg"},{"bike_id":"d1d51ec2-e1ab-4b92-9a4b-f935b04ef436","system_id":"levelo_inurba_marseille","lat":43.25009,"lon":5.38936,"is_reserved":false,"is_disabled":false,"rental_uris":{"android":"levelo://app?vid=d1d51ec2-e1ab-4b92-9a4b-f935b04ef436","ios":"levelo://app?vid=d1d51ec2-e1ab-4b92-9a4b-f935b04ef436"},"vehicle_type_id":"4","last_reported":1738663775,"current_range_meters":24800,"station_id":"ce4bhgp2rcd13ifvqfd0","pricing_plan_id":"cebpf4jnsgd1na2vs0mg"},{"bike_id":"66e207d9-0e49-41bc-b8c7-fa36242f8418","system_id":"levelo_inurba_marseille","lat":43.32367,"lon":5.38876,"is_reserved":false,"is_disabled":false,"rental_uris":{"android":"levelo://app?vid=66e207d9-0e49-41bc-b8c7-fa36242f8418","ios":"levelo://app?vid=66e207d9-0e49-41bc-b8c7-fa36242f8418"},"vehicle_type_id":"4","last_reported":1738663775,"current_range_meters":12000,"station_id":"ce4bhqp2rcd13ifvqhog","pricing_plan_id":"cebpf4jnsgd1na2vs0mg"},{"bike_id":"7a2080c9-d44a-471c-9acd-526428e8e5dc","system_id":"levelo_inurba_marseille","lat":43.22933,"lon":5.35389,"is_reserved":false,"is_disabled":false,"rental_uris":{"android":"levelo://app?vid=7a2080c9-d44a-471c-9acd-526428e8e5dc","ios":"levelo://app?vid=7a2080c9-d44a-471c-9acd-526428e8e5dc"},"vehicle_type_id":"4","last_reported":1738663775,"current_range_meters":39200,"station_id":"cpo3532slgdg3j2ikp40","pricing_plan_id":"cebpf4jnsgd1na2vs0mg"},{"bike_id":"37eb5dea-9f1d-4d5f-bad1-2ed5b3c6db90","system_id":"levelo_inurba_marseille","lat":43.23182,"lon":5.3998,"is_reserved":false,"is_disabled":false,"rental_uris":{"android":"levelo://app?vid=37eb5dea-9f1d-4d5f-bad1-2ed5b3c6db90","ios":"levelo://app?vid=37eb5dea-9f1d-4d5f-bad1-2ed5b3c6db90"},"vehicle_type_id":"4","last_reported":1738663775,"current_range_meters":36800,"station_id":"ce4bhn12rcd13ifvqgqg","pricing_plan_id":"cebpf4jnsgd1na2vs0mg"},{"bike_id":"e77d01ae-57a8-4fcc-af49-daac9102293c","system_id":"levelo_inurba_marseille","lat":43.29608,"lon":5.37717,"is_reserved":false,"is_disabled":false,"rental_uris":{"android":"levelo://app?vid=e77d01ae-57a8-4fcc-af49-daac9102293c","ios":"levelo://app?vid=e77d01ae-57a8-4fcc-af49-daac9102293c"},"vehicle_type_id":"4","last_reported":1738663775,"current_range_meters":38800,"station_id":"ce4bgi92rcd13ifvqb90","pricing_plan_id":"cebpf4jnsgd1na2vs0mg"},{"bike_id":"2c58a77e-b690-40d2-af4f-4e59f348130b","system_id":"levelo_inurba_marseille","lat":43.32368,"lon":5.38889,"is_reserved":false,"is_disabled":false,"rental_uris":{"android":"levelo://app?vid=2c58a77e-b690-40d2-af4f-4e59f348130b","ios":"levelo://app?vid=2c58a77e-b690-40d2-af4f-4e59f348130b"},"vehicle_type_id":"4","last_reported":1738663775,"current_range_meters":32400,"station_id":"ce4bhqp2rcd13ifvqhog","pricing_plan_id":"cebpf4jnsgd1na2vs0mg"},{"bike_id":"d2788a0d-1457-4251-a7fb-3b7709fcd7e5","system_id":"levelo_inurba_marseille","lat":43.29532,"lon":5.39024,"is_reserved":false,"is_disabled":false,"rental_uris":{"android":"levelo://app?vid=d2788a0d-1457-4251-a7fb-3b7709fcd7e5","ios":"levelo://app?vid=d2788a0d-1457-4251-a7fb-3b7709fcd7e5"},"vehicle_type_id":"4","last_reported":1738663775,"current_range_meters":38000,"station_id":"ce4bh3p2rcd13ifvqdp0","pricing_plan_id":"cebpf4jnsgd1na2vs0mg"},{"bike_id":"43d88c9c-d0eb-4b4f-b95e-e1d05d1ad7b8","system_id":"levelo_inurba_marseille","lat":43.29621,"lon":5.37166,"is_reserved":false,"is_disabled":false,"rental_uris":{"android":"levelo://app?vid=43d88c9c-d0eb-4b4f-b95e-e1d05d1ad7b8","ios":"levelo://app?vid=43d88c9c-d0eb-4b4f-b95e-e1d05d1ad7b8"},"vehicle_type_id":"4","last_reported":1738663775,"current_range_meters":31200,"station_id":"ce4bgnh2rcd13ifvqc0g","pricing_plan_id":"cebpf4jnsgd1na2vs0mg"},{"bike_id":"227d1457-7acb-444d-bf95-2cc0d4b33a5a","system_id":"levelo_inurba_marseille","lat":43.26557,"lon":5.3901,"is_reserved":false,"is_disabled":false,"rental_uris":{"android":"levelo://app?vid=227d1457-7acb-444d-bf95-2cc0d4b33a5a","ios":"levelo://app?vid=227d1457-7acb-444d-bf95-2cc0d4b33a5a"},"vehicle_type_id":"4","last_reported":1738663775,"current_range_meters":19600,"station_id":"ce4bhe12rcd13ifvqf30","pricing_plan_id":"cebpf4jnsgd1na2vs0mg"},{"bike_id":"0bb638d0-2838-47fa-8a2d-f175e9aec41a","system_id":"levelo_inurba_marseille","lat":43.23967,"lon":5.36614,"is_reserved":false,"is_disabled":false,"rental_uris":{"android":"levelo://app?vid=0bb638d0-2838-47fa-8a2d-f175e9aec41a","ios":"levelo://app?vid=0bb638d0-2838-47fa-8a2d-f175e9aec41a"},"vehicle_type_id":"4","last_reported":1738663775,"current_range_meters":15200,"station_id":"ce4bhi12rcd13ifvqfp0","pricing_plan_id":"cebpf4jnsgd1na2vs0mg"},{"bike_id":"527225ef-7ea1-4609-aded-699f77a699d2","system_id":"levelo_inurba_marseille","lat":43.30545,"lon":5.36702,"is_reserved":false,"is_disabled":false,"rental_uris":{"android":"levelo://app?vid=527225ef-7ea1-4609-aded-699f77a699d2","ios":"levelo://app?vid=527225ef-7ea1-4609-aded-699f77a699d2"},"vehicle_type_id":"4","last_reported":1738663775,"current_range_meters":28400,"station_id":"ce4bgrp2rcd13ifvqc9g","pricing_plan_id":"cebpf4jnsgd1na2vs0mg"},{"bike_id":"9be03674-7120-4176-aff8-82689c3366f6","system_id":"levelo_inurba_marseille","lat":43.25929,"lon":5.40906,"is_reserved":false,"is_disabled":false,"rental_uris":{"android":"levelo://app?vid=9be03674-7120-4176-aff8-82689c3366f6","ios":"levelo://app?vid=9be03674-7120-4176-aff8-82689c3366f6"},"vehicle_type_id":"4","last_reported":1738663775,"current_range_meters":14800,"station_id":"ce4bhm92rcd13ifvqglg","pricing_plan_id":"cebpf4jnsgd1na2vs0mg"},{"bike_id":"2fed9ba3-3909-423b-8e60-69abd9978d73","system_id":"levelo_inurba_marseille","lat":43.26804,"lon":5.40267,"is_reserved":false,"is_disabled":false,"rental_uris":{"android":"levelo://app?vid=2fed9ba3-3909-423b-8e60-69abd9978d73","ios":"levelo://app?vid=2fed9ba3-3909-423b-8e60-69abd9978d73"},"vehicle_type_id":"4","last_reported":1738663775,"current_range_meters":38800,"station_id":"ce501612rcd8frsf0b60","pricing_plan_id":"cebpf4jnsgd1na2vs0mg"},{"bike_id":"57177188-63b6-4ba7-b8e7-32133daa92a4","system_id":"levelo_inurba_marseille","lat":43.30313,"lon":5.36885,"is_reserved":false,"is_disabled":false,"rental_uris":{"android":"levelo://app?vid=57177188-63b6-4ba7-b8e7-32133daa92a4","ios":"levelo://app?vid=57177188-63b6-4ba7-b8e7-32133daa92a4"},"vehicle_type_id":"4","last_reported":1738663775,"current_range_meters":32000,"station_id":"ce4bgqh2rcd13ifvqc5g","pricing_plan_id":"cebpf4jnsgd1na2vs0mg"},{"bike_id":"98709c99-b7fd-450f-bb98-395cad9c7ffe","system_id":"levelo_inurba_marseille","lat":43.2873,"lon":5.36093,"is_reserved":false,"is_disabled":true,"rental_uris":{"android":"levelo://app?vid=98709c99-b7fd-450f-bb98-395cad9c7ffe","ios":"levelo://app?vid=98709c99-b7fd-450f-bb98-395cad9c7ffe"},"vehicle_type_id":"4","last_reported":1738663775,"current_range_meters":6800,"station_id":"cki0cbj6b192h4jlfktg","pricing_plan_id":"cebpf4jnsgd1na2vs0mg"},{"bike_id":"a2360890-da0d-437a-916b-04e787d9f58a","system_id":"levelo_inurba_marseille","lat":43.324841,"lon":5.365636,"is_reserved":false,"is_disabled":false,"rental_uris":{"android":"levelo://app?vid=a2360890-da0d-437a-916b-04e787d9f58a","ios":"levelo://app?vid=a2360890-da0d-437a-916b-04e787d9f58a"},"vehicle_type_id":"4","last_reported":1738663775,"current_range_meters":35200,"station_id":"ce4bhs12rcd13ifvqhvg","pricing_plan_id":"cebpf4jnsgd1na2vs0mg"},{"bike_id":"a2582f8a-32dd-47e9-9165-174ccbae50eb","system_id":"levelo_inurba_marseille","lat":43.28935,"lon":5.36633,"is_reserved":false,"is_disabled":false,"rental_uris":{"android":"levelo://app?vid=a2582f8a-32dd-47e9-9165-174ccbae50eb","ios":"levelo://app?vid=a2582f8a-32dd-47e9-9165-174ccbae50eb"},"vehicle_type_id":"4","last_reported":1738663775,"current_range_meters":6800,"station_id":"ce4bhap2rcd13ifvqek0","pricing_plan_id":"cebpf4jnsgd1na2vs0mg"},{"bike_id":"6e7c1ac2-e791-43c7-8c36-9db37854d07d","system_id":"levelo_inurba_marseille","lat":43.28615,"lon":5.3508,"is_reserved":false,"is_disabled":true,"rental_uris":{"android":"levelo://app?vid=6e7c1ac2-e791-43c7-8c36-9db37854d07d","ios":"levelo://app?vid=6e7c1ac2-e791-43c7-8c36-9db37854d07d"},"vehicle_type_id":"4","last_reported":1738663775,"current_range_meters":26800,"station_id":"ce4bhch2rcd13ifvqeug","pricing_plan_id":"cebpf4jnsgd1na2vs0mg"},{"bike_id":"b6032f4b-edb6-4222-814c-aae3fb9ce67d","system_id":"levelo_inurba_marseille","lat":43.28151,"lon":5.4264,"is_reserved":false,"is_disabled":false,"rental_uris":{"android":"levelo://app?vid=b6032f4b-edb6-4222-814c-aae3fb9ce67d","ios":"levelo://app?vid=b6032f4b-edb6-4222-814c-aae3fb9ce67d"},"vehicle_type_id":"4","last_reported":1738663775,"current_range_meters":16000,"station_id":"ce4bhnh2rcd13ifvqgug","pricing_plan_id":"cebpf4jnsgd1na2vs0mg"},{"bike_id":"48ad2ada-c5f9-43ce-83c7-1d09232e6b48","system_id":"levelo_inurba_marseille","lat":43.26495,"lon":5.39563,"is_reserved":false,"is_disabled":false,"rental_uris":{"android":"levelo://app?vid=48ad2ada-c5f9-43ce-83c7-1d09232e6b48","ios":"levelo://app?vid=48ad2ada-c5f9-43ce-83c7-1d09232e6b48"},"vehicle_type_id":"4","last_reported":1738663775,"current_range_meters":25200,"station_id":"ce4bhi12rcd13ifvqfq0","pricing_plan_id":"cebpf4jnsgd1na2vs0mg"},{"bike_id":"2bfbac20-586a-462d-a17f-72f4b177752f","system_id":"levelo_inurba_marseille","lat":43.29269,"lon":5.36859,"is_reserved":false,"is_disabled":false,"rental_uris":{"android":"levelo://app?vid=2bfbac20-586a-462d-a17f-72f4b177752f","ios":"levelo://app?vid=2bfbac20-586a-462d-a17f-72f4b177752f"},"vehicle_type_id":"4","last_reported":1738663775,"current_range_meters":14800,"station_id":"ce4bhbp2rcd13ifvqesg","pricing_plan_id":"cebpf4jnsgd1na2vs0mg"},{"bike_id":"5875daa5-2b51-4890-86b6-114703e4a4f2","system_id":"levelo_inurba_marseille","lat":43.311094,"lon":5.380041,"is_reserved":false,"is_disabled":false,"rental_uris":{"android":"levelo://app?vid=5875daa5-2b51-4890-86b6-114703e4a4f2","ios":"levelo://app?vid=5875daa5-2b51-4890-86b6-114703e4a4f2"},"vehicle_type_id":"4","last_reported":1738663775,"current_range_meters":11200,"station_id":"","pricing_plan_id":"cebpf4jnsgd1na2vs0mg"},{"bike_id":"17152edd-b1d4-4a46-be84-5f51cb6d3ffc","system_id":"levelo_inurba_marseille","lat":43.29174,"lon":5.37155,"is_reserved":false,"is_disabled":false,"rental_uris":{"android":"levelo://app?vid=17152edd-b1d4-4a46-be84-5f51cb6d3ffc","ios":"levelo://app?vid=17152edd-b1d4-4a46-be84-5f51cb6d3ffc"},"vehicle_type_id":"4","last_reported":1738663775,"current_range_meters":39200,"station_id":"ce4bha92rcd13ifvqeh0","pricing_plan_id":"cebpf4jnsgd1na2vs0mg"},{"bike_id":"9f8a4819-e39e-4a53-910e-41c0cb445168","system_id":"levelo_inurba_marseille","lat":43.29533,"lon":5.37508,"is_reserved":false,"is_disabled":false,"rental_uris":{"android":"levelo://app?vid=9f8a4819-e39e-4a53-910e-41c0cb445168","ios":"levelo://app?vid=9f8a4819-e39e-4a53-910e-41c0cb445168"},"vehicle_type_id":"4","last_reported":1738663775,"current_range_meters":28800,"station_id":"ce4bgkp2rcd13ifvqbmg","pricing_plan_id":"cebpf4jnsgd1na2vs0mg"},{"bike_id":"42100b73-4271-4dbe-b8af-b995e553b53d","system_id":"levelo_inurba_marseille","lat":43.27495,"lon":5.42457,"is_reserved":false,"is_disabled":false,"rental_uris":{"android":"levelo://app?vid=42100b73-4271-4dbe-b8af-b995e553b53d","ios":"levelo://app?vid=42100b73-4271-4dbe-b8af-b995e553b53d"},"vehicle_type_id":"4","last_reported":1738663775,"current_range_meters":12000,"station_id":"ce4bhn92rcd13ifvqgrg","pricing_plan_id":"cebpf4jnsgd1na2vs0mg"},{"bike_id":"17f82009-f239-469f-b327-f6eba79948f6","system_id":"levelo_inurba_marseille","lat":43.29919,"lon":5.38131,"is_reserved":false,"is_disabled":false,"rental_uris":{"android":"levelo://app?vid=17f82009-f239-469f-b327-f6eba79948f6","ios":"levelo://app?vid=17f82009-f239-469f-b327-f6eba79948f6"},"vehicle_type_id":"4","last_reported":1738663775,"current_range_meters":38800,"station_id":"ce4bgj12rcd13ifvqbc0","pricing_plan_id":"cebpf4jnsgd1na2vs0mg"},{"bike_id":"5056aeb2-6f80-4ea0-9897-dccfd7616052","system_id":"levelo_inurba_marseille","lat":43.29299,"lon":5.37429,"is_reserved":false,"is_disabled":false,"rental_uris":{"android":"levelo://app?vid=5056aeb2-6f80-4ea0-9897-dccfd7616052","ios":"levelo://app?vid=5056aeb2-6f80-4ea0-9897-dccfd7616052"},"vehicle_type_id":"4","last_reported":1738663775,"current_range_meters":25200,"station_id":"ce4bgi12rcd13ifvqb70","pricing_plan_id":"cebpf4jnsgd1na2vs0mg"},{"bike_id":"3ca53271-0e58-4f09-a6c8-ace88698b7a9","system_id":"levelo_inurba_marseille","lat":43.25015,"lon":5.38934,"is_reserved":false,"is_disabled":false,"rental_uris":{"android":"levelo://app?vid=3ca53271-0e58-4f09-a6c8-ace88698b7a9","ios":"levelo://app?vid=3ca53271-0e58-4f09-a6c8-ace88698b7a9"},"vehicle_type_id":"4","last_reported":1738663775,"current_range_meters":38000,"station_id":"ce4bhgp2rcd13ifvqfd0","pricing_plan_id":"cebpf4jnsgd1na2vs0mg"},{"bike_id":"8cf86aea-68f2-4102-a684-9c437466dd34","system_id":"levelo_inurba_marseille","lat":43.25562,"lon":5.38248,"is_reserved":false,"is_disabled":false,"rental_uris":{"android":"levelo://app?vid=8cf86aea-68f2-4102-a684-9c437466dd34","ios":"levelo://app?vid=8cf86aea-68f2-4102-a684-9c437466dd34"},"vehicle_type_id":"4","last_reported":1738663775,"current_range_meters":10000,"station_id":"ce4bhih2rcd13ifvqfs0","pricing_plan_id":"cebpf4jnsgd1na2vs0mg"},{"bike_id":"49dfd201-9c9e-4c2d-9035-d7194487066e","system_id":"levelo_inurba_marseille","lat":43.30481,"lon":5.379,"is_reserved":false,"is_disabled":false,"rental_uris":{"android":"levelo://app?vid=49dfd201-9c9e-4c2d-9035-d7194487066e","ios":"levelo://app?vid=49dfd201-9c9e-4c2d-9035-d7194487066e"},"vehicle_type_id":"4","last_reported":1738663775,"current_range_meters":39200,"station_id":"ce4bgup2rcd13ifvqcn0","pricing_plan_id":"cebpf4jnsgd1na2vs0mg"},{"bike_id":"8a24c8d9-2c91-4996-8e85-7adae68fd668","system_id":"levelo_inurba_marseille","lat":43.30539,"lon":5.36539,"is_reserved":false,"is_disabled":false,"rental_uris":{"android":"levelo://app?vid=8a24c8d9-2c91-4996-8e85-7adae68fd668","ios":"levelo://app?vid=8a24c8d9-2c91-4996-8e85-7adae68fd668"},"vehicle_type_id":"4","last_reported":1738663775,"current_range_meters":18000,"station_id":"ce4bgs12rcd13ifvqcag","pricing_plan_id":"cebpf4jnsgd1na2vs0mg"},{"bike_id":"ba9659b0-1bff-4bf9-aec7-272758d875e8","system_id":"levelo_inurba_marseille","lat":43.29641,"lon":5.37151,"is_reserved":false,"is_disabled":false,"rental_uris":{"android":"levelo://app?vid=ba9659b0-1bff-4bf9-aec7-272758d875e8","ios":"levelo://app?vid=ba9659b0-1bff-4bf9-aec7-272758d875e8"},"vehicle_type_id":"4","last_reported":1738663775,"current_range_meters":32800,"station_id":"ce4bgnh2rcd13ifvqc0g","pricing_plan_id":"cebpf4jnsgd1na2vs0mg"},{"bike_id":"c28c025b-47c1-4849-b894-a654574e0b27","system_id":"levelo_inurba_marseille","lat":43.28313,"lon":5.38112,"is_reserved":false,"is_disabled":false,"rental_uris":{"android":"levelo://app?vid=c28c025b-47c1-4849-b894-a654574e0b27","ios":"levelo://app?vid=c28c025b-47c1-4849-b894-a654574e0b27"},"vehicle_type_id":"4","last_reported":1738663775,"current_range_meters":38800,"station_id":"ce4bh412rcd13ifvqdr0","pricing_plan_id":"cebpf4jnsgd1na2vs0mg"},{"bike_id":"07f0f501-8b4c-456f-8436-4462371d84b7","system_id":"levelo_inurba_marseille","lat":43.25716,"lon":5.41111,"is_reserved":false,"is_disabled":false,"rental_uris":{"android":"levelo://app?vid=07f0f501-8b4c-456f-8436-4462371d84b7","ios":"levelo://app?vid=07f0f501-8b4c-456f-8436-4462371d84b7"},"vehicle_type_id":"4","last_reported":1738663775,"current_range_meters":16400,"station_id":"ce4bhkp2rcd13ifvqgd0","pricing_plan_id":"cebpf4jnsgd1na2vs0mg"},{"bike_id":"48457462-e2e5-4b0c-9657-da77fe2191e8","system_id":"levelo_inurba_marseille","lat":43.305513,"lon":5.365463,"is_reserved":false,"is_disabled":false,"rental_uris":{"android":"levelo://app?vid=48457462-e2e5-4b0c-9657-da77fe2191e8","ios":"levelo://app?vid=48457462-e2e5-4b0c-9657-da77fe2191e8"},"vehicle_type_id":"4","last_reported":1738663775,"current_range_meters":24800,"station_id":"ce4bgs12rcd13ifvqcag","pricing_plan_id":"cebpf4jnsgd1na2vs0mg"},{"bike_id":"bc862fcc-2093-4eb1-bb6b-8520bc1c64b9","system_id":"levelo_inurba_marseille","lat":43.27811,"lon":5.40716,"is_reserved":false,"is_disabled":false,"rental_uris":{"android":"levelo://app?vid=bc862fcc-2093-4eb1-bb6b-8520bc1c64b9","ios":"levelo://app?vid=bc862fcc-2093-4eb1-bb6b-8520bc1c64b9"},"vehicle_type_id":"4","last_reported":1738663775,"current_range_meters":38800,"station_id":"ce4bhnh2rcd13ifvqgtg","pricing_plan_id":"cebpf4jnsgd1na2vs0mg"},{"bike_id":"630dd466-e4dd-4ada-8a39-01e92abf0818","system_id":"levelo_inurba_marseille","lat":43.26177,"lon":5.37464,"is_reserved":false,"is_disabled":false,"rental_uris":{"android":"levelo://app?vid=630dd466-e4dd-4ada-8a39-01e92abf0818","ios":"levelo://app?vid=630dd466-e4dd-4ada-8a39-01e92abf0818"},"vehicle_type_id":"4","last_reported":1738663775,"current_range_meters":34800,"station_id":"ce4bhgp2rcd13ifvqfc0","pricing_plan_id":"cebpf4jnsgd1na2vs0mg"},{"bike_id":"5df9bf08-43fe-4acc-898a-9db2002f38bc","system_id":"levelo_inurba_marseille","lat":43.25862,"lon":5.399081,"is_reserved":false,"is_disabled":true,"rental_uris":{"android":"levelo://app?vid=5df9bf08-43fe-4acc-898a-9db2002f38bc","ios":"levelo://app?vid=5df9bf08-43fe-4acc-898a-9db2002f38bc"},"vehicle_type_id":"4","last_reported":1738663775,"current_range_meters":16400,"station_id":"ce4bhl92rcd13ifvqghg","pricing_plan_id":"cebpf4jnsgd1na2vs0mg"},{"bike_id":"f82da6bb-bfb6-4230-be77-8860ce670df6","system_id":"levelo_inurba_marseille","lat":43.26559,"lon":5.37293,"is_reserved":false,"is_disabled":true,"rental_uris":{"android":"levelo://app?vid=f82da6bb-bfb6-4230-be77-8860ce670df6","ios":"levelo://app?vid=f82da6bb-bfb6-4230-be77-8860ce670df6"},"vehicle_type_id":"4","last_reported":1738663775,"current_range_meters":0,"station_id":"ce4bhg12rcd13ifvqf70","pricing_plan_id":"cebpf4jnsgd1na2vs0mg"},{"bike_id":"d7c4a808-69ad-4802-9cda-2ac9ba29b284","system_id":"levelo_inurba_marseille","lat":43.29289,"lon":5.37178,"is_reserved":false,"is_disabled":false,"rental_uris":{"android":"levelo://app?vid=d7c4a808-69ad-4802-9cda-2ac9ba29b284","ios":"levelo://app?vid=d7c4a808-69ad-4802-9cda-2ac9ba29b284"},"vehicle_type_id":"4","last_reported":1738663775,"current_range_meters":3200,"station_id":"ce4bgh92rcd13ifvqb40","pricing_plan_id":"cebpf4jnsgd1na2vs0mg"},{"bike_id":"3034d64e-f78e-468c-b4d6-2520a053438f","system_id":"levelo_inurba_marseille","lat":43.23188,"lon":5.39995,"is_reserved":false,"is_disabled":false,"rental_uris":{"android":"levelo://app?vid=3034d64e-f78e-468c-b4d6-2520a053438f","ios":"levelo://app?vid=3034d64e-f78e-468c-b4d6-2520a053438f"},"vehicle_type_id":"4","last_reported":1738663775,"current_range_meters":38800,"station_id":"ce4bhn12rcd13ifvqgqg","pricing_plan_id":"cebpf4jnsgd1na2vs0mg"},{"bike_id":"5ae71d42-303a-4718-85d0-b330642b87da","system_id":"levelo_inurba_marseille","lat":43.29263,"lon":5.36852,"is_reserved":false,"is_disabled":false,"rental_uris":{"android":"levelo://app?vid=5ae71d42-303a-4718-85d0-b330642b87da","ios":"levelo://app?vid=5ae71d42-303a-4718-85d0-b330642b87da"},"vehicle_type_id":"4","last_reported":1738663775,"current_range_meters":38000,"station_id":"ce4bhbp2rcd13ifvqesg","pricing_plan_id":"cebpf4jnsgd1na2vs0mg"},{"bike_id":"343ee9fa-65bc-44d7-b41c-f81f2cce2b1a","system_id":"levelo_inurba_marseille","lat":43.23142,"lon":5.43713,"is_reserved":false,"is_disabled":false,"rental_uris":{"android":"levelo://app?vid=343ee9fa-65bc-44d7-b41c-f81f2cce2b1a","ios":"levelo://app?vid=343ee9fa-65bc-44d7-b41c-f81f2cce2b1a"},"vehicle_type_id":"4","last_reported":1738663775,"current_range_meters":14400,"station_id":"ce4bhmp2rcd13ifvqgog","pricing_plan_id":"cebpf4jnsgd1na2vs0mg"},{"bike_id":"a853a0cd-b246-48c8-8e55-5b2baaa5ca83","system_id":"levelo_inurba_marseille","lat":43.29908,"lon":5.38137,"is_reserved":false,"is_disabled":false,"rental_uris":{"android":"levelo://app?vid=a853a0cd-b246-48c8-8e55-5b2baaa5ca83","ios":"levelo://app?vid=a853a0cd-b246-48c8-8e55-5b2baaa5ca83"},"vehicle_type_id":"4","last_reported":1738663775,"current_range_meters":33600,"station_id":"ce4bgj12rcd13ifvqbc0","pricing_plan_id":"cebpf4jnsgd1na2vs0mg"},{"bike_id":"7f87d5fc-9445-41df-bd3e-5287cb6adb70","system_id":"levelo_inurba_marseille","lat":43.26806,"lon":5.40268,"is_reserved":false,"is_disabled":false,"rental_uris":{"android":"levelo://app?vid=7f87d5fc-9445-41df-bd3e-5287cb6adb70","ios":"levelo://app?vid=7f87d5fc-9445-41df-bd3e-5287cb6adb70"},"vehicle_type_id":"4","last_reported":1738663775,"current_range_meters":9600,"station_id":"ce501612rcd8frsf0b60","pricing_plan_id":"cebpf4jnsgd1na2vs0mg"},{"bike_id":"9889f64f-961a-4fc8-9d44-bf6f4412f46f","system_id":"levelo_inurba_marseille","lat":43.25916,"lon":5.4089,"is_reserved":false,"is_disabled":false,"rental_uris":{"android":"levelo://app?vid=9889f64f-961a-4fc8-9d44-bf6f4412f46f","ios":"levelo://app?vid=9889f64f-961a-4fc8-9d44-bf6f4412f46f"},"vehicle_type_id":"4","last_reported":1738663775,"current_range_meters":9200,"station_id":"ce4bhm92rcd13ifvqglg","pricing_plan_id":"cebpf4jnsgd1na2vs0mg"},{"bike_id":"6ef4326b-b942-45af-aff2-bd626f026887","system_id":"levelo_inurba_marseille","lat":43.30954,"lon":5.39075,"is_reserved":false,"is_disabled":false,"rental_uris":{"android":"levelo://app?vid=6ef4326b-b942-45af-aff2-bd626f026887","ios":"levelo://app?vid=6ef4326b-b942-45af-aff2-bd626f026887"},"vehicle_type_id":"4","last_reported":1738663775,"current_range_meters":19200,"station_id":"ce4bgup2rcd13ifvqco0","pricing_plan_id":"cebpf4jnsgd1na2vs0mg"},{"bike_id":"649599e3-9252-4d00-ad77-a8ea70e06ee9","system_id":"levelo_inurba_marseille","lat":43.29221,"lon":5.3605,"is_reserved":false,"is_disabled":false,"rental_uris":{"android":"levelo://app?vid=649599e3-9252-4d00-ad77-a8ea70e06ee9","ios":"levelo://app?vid=649599e3-9252-4d00-ad77-a8ea70e06ee9"},"vehicle_type_id":"4","last_reported":1738663775,"current_range_meters":37600,"station_id":"ce4bhbh2rcd13ifvqeqg","pricing_plan_id":"cebpf4jnsgd1na2vs0mg"},{"bike_id":"a7dc0848-081a-4438-bce6-7e161a91f066","system_id":"levelo_inurba_marseille","lat":43.28177,"lon":5.42636,"is_reserved":false,"is_disabled":false,"rental_uris":{"android":"levelo://app?vid=a7dc0848-081a-4438-bce6-7e161a91f066","ios":"levelo://app?vid=a7dc0848-081a-4438-bce6-7e161a91f066"},"vehicle_type_id":"4","last_reported":1738663775,"current_range_meters":35200,"station_id":"ce4bhnh2rcd13ifvqgug","pricing_plan_id":"cebpf4jnsgd1na2vs0mg"},{"bike_id":"36dc3366-e52e-4f9e-a872-e2d020ed7b6b","system_id":"levelo_inurba_marseille","lat":43.30905,"lon":5.36868,"is_reserved":false,"is_disabled":false,"rental_uris":{"android":"levelo://app?vid=36dc3366-e52e-4f9e-a872-e2d020ed7b6b","ios":"levelo://app?vid=36dc3366-e52e-4f9e-a872-e2d020ed7b6b"},"vehicle_type_id":"4","last_reported":1738663775,"current_range_meters":38800,"station_id":"ce4bgn92rcd13ifvqbvg","pricing_plan_id":"cebpf4jnsgd1na2vs0mg"},{"bike_id":"567fe20f-ee11-4486-b421-98f3f7a93204","system_id":"levelo_inurba_marseille","lat":43.29962,"lon":5.3652,"is_reserved":false,"is_disabled":false,"rental_uris":{"android":"levelo://app?vid=567fe20f-ee11-4486-b421-98f3f7a93204","ios":"levelo://app?vid=567fe20f-ee11-4486-b421-98f3f7a93204"},"vehicle_type_id":"4","last_reported":1738663775,"current_range_meters":17600,"station_id":"ce4bgm92rcd13ifvqbr0","pricing_plan_id":"cebpf4jnsgd1na2vs0mg"},{"bike_id":"48a6c7fc-63b6-4b42-a5f1-b849f3d55f6a","system_id":"levelo_inurba_marseille","lat":43.3095,"lon":5.39063,"is_reserved":false,"is_disabled":false,"rental_uris":{"android":"levelo://app?vid=48a6c7fc-63b6-4b42-a5f1-b849f3d55f6a","ios":"levelo://app?vid=48a6c7fc-63b6-4b42-a5f1-b849f3d55f6a"},"vehicle_type_id":"4","last_reported":1738663775,"current_range_meters":34800,"station_id":"ce4bgup2rcd13ifvqco0","pricing_plan_id":"cebpf4jnsgd1na2vs0mg"},{"bike_id":"356d0183-7d80-4eb5-95fe-3d9dd28f8f01","system_id":"levelo_inurba_marseille","lat":43.24994,"lon":5.38939,"is_reserved":false,"is_disabled":false,"rental_uris":{"android":"levelo://app?vid=356d0183-7d80-4eb5-95fe-3d9dd28f8f01","ios":"levelo://app?vid=356d0183-7d80-4eb5-95fe-3d9dd28f8f01"},"vehicle_type_id":"4","last_reported":1738663775,"current_range_meters":36400,"station_id":"ce4bhgp2rcd13ifvqfd0","pricing_plan_id":"cebpf4jnsgd1na2vs0mg"},{"bike_id":"c8bd1d84-2291-473f-ab82-361f165fe1db","system_id":"levelo_inurba_marseille","lat":43.24169,"lon":5.36408,"is_reserved":false,"is_disabled":false,"rental_uris":{"android":"levelo://app?vid=c8bd1d84-2291-473f-ab82-361f165fe1db","ios":"levelo://app?vid=c8bd1d84-2291-473f-ab82-361f165fe1db"},"vehicle_type_id":"4","last_reported":1738663775,"current_range_meters":16000,"station_id":"cpo36qri1sfpv3e86is0","pricing_plan_id":"cebpf4jnsgd1na2vs0mg"},{"bike_id":"da05f112-ffb2-4f41-a3cb-99544f3f7f0e","system_id":"levelo_inurba_marseille","lat":43.30521,"lon":5.36714,"is_reserved":false,"is_disabled":false,"rental_uris":{"android":"levelo://app?vid=da05f112-ffb2-4f41-a3cb-99544f3f7f0e","ios":"levelo://app?vid=da05f112-ffb2-4f41-a3cb-99544f3f7f0e"},"vehicle_type_id":"4","last_reported":1738663775,"current_range_meters":33600,"station_id":"ce4bgrp2rcd13ifvqc9g","pricing_plan_id":"cebpf4jnsgd1na2vs0mg"},{"bike_id":"b4e739e6-1e16-4e34-8d5d-7503a7298ee4","system_id":"levelo_inurba_marseille","lat":43.259333,"lon":5.409083,"is_reserved":false,"is_disabled":false,"rental_uris":{"android":"levelo://app?vid=b4e739e6-1e16-4e34-8d5d-7503a7298ee4","ios":"levelo://app?vid=b4e739e6-1e16-4e34-8d5d-7503a7298ee4"},"vehicle_type_id":"4","last_reported":1738663775,"current_range_meters":29600,"station_id":"ce4bhm92rcd13ifvqglg","pricing_plan_id":"cebpf4jnsgd1na2vs0mg"},{"bike_id":"bb846df9-2969-480a-aed6-edbcf9c326fb","system_id":"levelo_inurba_marseille","lat":43.24812,"lon":5.37457,"is_reserved":false,"is_disabled":false,"rental_uris":{"android":"levelo://app?vid=bb846df9-2969-480a-aed6-edbcf9c326fb","ios":"levelo://app?vid=bb846df9-2969-480a-aed6-edbcf9c326fb"},"vehicle_type_id":"4","last_reported":1738663775,"current_range_meters":25600,"station_id":"ce4bhgh2rcd13ifvqfb0","pricing_plan_id":"cebpf4jnsgd1na2vs0mg"},{"bike_id":"bfacc9b6-6361-410a-a535-452bc231ed9e","system_id":"levelo_inurba_marseille","lat":43.29142,"lon":5.37168,"is_reserved":false,"is_disabled":false,"rental_uris":{"android":"levelo://app?vid=bfacc9b6-6361-410a-a535-452bc231ed9e","ios":"levelo://app?vid=bfacc9b6-6361-410a-a535-452bc231ed9e"},"vehicle_type_id":"4","last_reported":1738663775,"current_range_meters":13600,"station_id":"ce4bha92rcd13ifvqeh0","pricing_plan_id":"cebpf4jnsgd1na2vs0mg"},{"bike_id":"cd07e062-2af1-406e-bcb9-5f1ec4730937","system_id":"levelo_inurba_marseille","lat":43.23063,"lon":5.35497,"is_reserved":false,"is_disabled":false,"rental_uris":{"android":"levelo://app?vid=cd07e062-2af1-406e-bcb9-5f1ec4730937","ios":"levelo://app?vid=cd07e062-2af1-406e-bcb9-5f1ec4730937"},"vehicle_type_id":"4","last_reported":1738663775,"current_range_meters":9200,"station_id":"cpo3342slgdg3j2ifvpg","pricing_plan_id":"cebpf4jnsgd1na2vs0mg"},{"bike_id":"7bb4b040-42eb-4d12-af3c-351fb1de362d","system_id":"levelo_inurba_marseille","lat":43.2911,"lon":5.38131,"is_reserved":false,"is_disabled":false,"rental_uris":{"android":"levelo://app?vid=7bb4b040-42eb-4d12-af3c-351fb1de362d","ios":"levelo://app?vid=7bb4b040-42eb-4d12-af3c-351fb1de362d"},"vehicle_type_id":"4","last_reported":1738663775,"current_range_meters":38800,"station_id":"ce4bh512rcd13ifvqe2g","pricing_plan_id":"cebpf4jnsgd1na2vs0mg"},{"bike_id":"6d93c457-3ddd-4cec-9816-ca38730af33b","system_id":"levelo_inurba_marseille","lat":43.27058,"lon":5.40267,"is_reserved":false,"is_disabled":false,"rental_uris":{"android":"levelo://app?vid=6d93c457-3ddd-4cec-9816-ca38730af33b","ios":"levelo://app?vid=6d93c457-3ddd-4cec-9816-ca38730af33b"},"vehicle_type_id":"4","last_reported":1738663775,"current_range_meters":8000,"station_id":"ce4bhk92rcd13ifvqgc0","pricing_plan_id":"cebpf4jnsgd1na2vs0mg"},{"bike_id":"516f2549-79cf-4297-a0ad-3d3f06a71f80","system_id":"levelo_inurba_marseille","lat":43.31703,"lon":5.42421,"is_reserved":false,"is_disabled":true,"rental_uris":{"android":"levelo://app?vid=516f2549-79cf-4297-a0ad-3d3f06a71f80","ios":"levelo://app?vid=516f2549-79cf-4297-a0ad-3d3f06a71f80"},"vehicle_type_id":"4","last_reported":1738663775,"current_range_meters":3600,"station_id":"ce4bhp92rcd13ifvqhbg","pricing_plan_id":"cebpf4jnsgd1na2vs0mg"},{"bike_id":"9e9e116b-0245-457e-81f0-41dec3dfcb36","system_id":"levelo_inurba_marseille","lat":43.27492,"lon":5.42455,"is_reserved":false,"is_disabled":false,"rental_uris":{"android":"levelo://app?vid=9e9e116b-0245-457e-81f0-41dec3dfcb36","ios":"levelo://app?vid=9e9e116b-0245-457e-81f0-41dec3dfcb36"},"vehicle_type_id":"4","last_reported":1738663775,"current_range_meters":36400,"station_id":"ce4bhn92rcd13ifvqgrg","pricing_plan_id":"cebpf4jnsgd1na2vs0mg"},{"bike_id":"98c8136a-16ae-47fa-a564-d42e7b4dc97e","system_id":"levelo_inurba_marseille","lat":43.30866,"lon":5.39661,"is_reserved":false,"is_disabled":true,"rental_uris":{"android":"levelo://app?vid=98c8136a-16ae-47fa-a564-d42e7b4dc97e","ios":"levelo://app?vid=98c8136a-16ae-47fa-a564-d42e7b4dc97e"},"vehicle_type_id":"4","last_reported":1738663775,"current_range_meters":33600,"station_id":"ce4bh012rcd13ifvqcv0","pricing_plan_id":"cebpf4jnsgd1na2vs0mg"},{"bike_id":"0d1125f3-c4d3-493b-a583-6e3416f063f6","system_id":"levelo_inurba_marseille","lat":43.23192,"lon":5.35556,"is_reserved":false,"is_disabled":false,"rental_uris":{"android":"levelo://app?vid=0d1125f3-c4d3-493b-a583-6e3416f063f6","ios":"levelo://app?vid=0d1125f3-c4d3-493b-a583-6e3416f063f6"},"vehicle_type_id":"4","last_reported":1738663775,"current_range_meters":18800,"station_id":"ce4bhu92rcd13ifvqi70","pricing_plan_id":"cebpf4jnsgd1na2vs0mg"},{"bike_id":"473dc738-2184-4c96-a388-d3c1ef9e6829","system_id":"levelo_inurba_marseille","lat":43.27495,"lon":5.42451,"is_reserved":false,"is_disabled":false,"rental_uris":{"android":"levelo://app?vid=473dc738-2184-4c96-a388-d3c1ef9e6829","ios":"levelo://app?vid=473dc738-2184-4c96-a388-d3c1ef9e6829"},"vehicle_type_id":"4","last_reported":1738663775,"current_range_meters":15200,"station_id":"ce4bhn92rcd13ifvqgrg","pricing_plan_id":"cebpf4jnsgd1na2vs0mg"},{"bike_id":"5da027ad-f468-40e1-aa79-47fe96c2b0be","system_id":"levelo_inurba_marseille","lat":43.30081,"lon":5.39081,"is_reserved":false,"is_disabled":false,"rental_uris":{"android":"levelo://app?vid=5da027ad-f468-40e1-aa79-47fe96c2b0be","ios":"levelo://app?vid=5da027ad-f468-40e1-aa79-47fe96c2b0be"},"vehicle_type_id":"4","last_reported":1738663775,"current_range_meters":38800,"station_id":"ce4bh192rcd13ifvqdb0","pricing_plan_id":"cebpf4jnsgd1na2vs0mg"},{"bike_id":"15b72a17-6480-4f6d-86fc-355e39e8992c","system_id":"levelo_inurba_marseille","lat":43.27058,"lon":5.40286,"is_reserved":false,"is_disabled":true,"rental_uris":{"android":"levelo://app?vid=15b72a17-6480-4f6d-86fc-355e39e8992c","ios":"levelo://app?vid=15b72a17-6480-4f6d-86fc-355e39e8992c"},"vehicle_type_id":"4","last_reported":1738663775,"current_range_meters":27200,"station_id":"","pricing_plan_id":"cebpf4jnsgd1na2vs0mg"},{"bike_id":"9b68fc2b-4da0-4d12-b12e-c45597b2afb4","system_id":"levelo_inurba_marseille","lat":43.24811,"lon":5.37445,"is_reserved":false,"is_disabled":false,"rental_uris":{"android":"levelo://app?vid=9b68fc2b-4da0-4d12-b12e-c45597b2afb4","ios":"levelo://app?vid=9b68fc2b-4da0-4d12-b12e-c45597b2afb4"},"vehicle_type_id":"4","last_reported":1738663775,"current_range_meters":36000,"station_id":"ce4bhgh2rcd13ifvqfb0","pricing_plan_id":"cebpf4jnsgd1na2vs0mg"},{"bike_id":"473e7f69-ee4e-4079-b276-de69af6c6a7a","system_id":"levelo_inurba_marseille","lat":43.31508,"lon":5.37285,"is_reserved":false,"is_disabled":false,"rental_uris":{"android":"levelo://app?vid=473e7f69-ee4e-4079-b276-de69af6c6a7a","ios":"levelo://app?vid=473e7f69-ee4e-4079-b276-de69af6c6a7a"},"vehicle_type_id":"4","last_reported":1738663775,"current_range_meters":16400,"station_id":"ce4bgt12rcd13ifvqcd0","pricing_plan_id":"cebpf4jnsgd1na2vs0mg"},{"bike_id":"4aa6a979-835f-4210-a405-64607276413b","system_id":"levelo_inurba_marseille","lat":43.24074,"lon":5.3776,"is_reserved":false,"is_disabled":false,"rental_uris":{"android":"levelo://app?vid=4aa6a979-835f-4210-a405-64607276413b","ios":"levelo://app?vid=4aa6a979-835f-4210-a405-64607276413b"},"vehicle_type_id":"4","last_reported":1738663775,"current_range_meters":38400,"station_id":"ce4bhnp2rcd13ifvqgvg","pricing_plan_id":"cebpf4jnsgd1na2vs0mg"},{"bike_id":"cb360eae-9e0a-4706-ac77-865a26f70022","system_id":"levelo_inurba_marseille","lat":43.23138,"lon":5.43735,"is_reserved":false,"is_disabled":false,"rental_uris":{"android":"levelo://app?vid=cb360eae-9e0a-4706-ac77-865a26f70022","ios":"levelo://app?vid=cb360eae-9e0a-4706-ac77-865a26f70022"},"vehicle_type_id":"4","last_reported":1738663775,"current_range_meters":8400,"station_id":"ce4bhmp2rcd13ifvqgog","pricing_plan_id":"cebpf4jnsgd1na2vs0mg"},{"bike_id":"35798297-b936-47d1-8a98-bfdb50e14c75","system_id":"levelo_inurba_marseille","lat":43.32068,"lon":5.43318,"is_reserved":false,"is_disabled":true,"rental_uris":{"android":"levelo://app?vid=35798297-b936-47d1-8a98-bfdb50e14c75","ios":"levelo://app?vid=35798297-b936-47d1-8a98-bfdb50e14c75"},"vehicle_type_id":"4","last_reported":1738663775,"current_range_meters":38000,"station_id":"","pricing_plan_id":"cebpf4jnsgd1na2vs0mg"},{"bike_id":"c3066916-eed2-4635-b496-6709235f4164","system_id":"levelo_inurba_marseille","lat":43.24996,"lon":5.38958,"is_reserved":false,"is_disabled":false,"rental_uris":{"android":"levelo://app?vid=c3066916-eed2-4635-b496-6709235f4164","ios":"levelo://app?vid=c3066916-eed2-4635-b496-6709235f4164"},"vehicle_type_id":"4","last_reported":1738663775,"current_range_meters":38800,"station_id":"ce4bhgp2rcd13ifvqfd0","pricing_plan_id":"cebpf4jnsgd1na2vs0mg"},{"bike_id":"417b228d-71a2-4d40-9514-91dba2be9f7a","system_id":"levelo_inurba_marseille","lat":43.28488,"lon":5.38527,"is_reserved":false,"is_disabled":true,"rental_uris":{"android":"levelo://app?vid=417b228d-71a2-4d40-9514-91dba2be9f7a","ios":"levelo://app?vid=417b228d-71a2-4d40-9514-91dba2be9f7a"},"vehicle_type_id":"4","last_reported":1738663775,"current_range_meters":36800,"station_id":"ce4bh8p2rcd13ifvqeb0","pricing_plan_id":"cebpf4jnsgd1na2vs0mg"},{"bike_id":"e6dc612f-7f56-4634-8aac-2cfefb7b3910","system_id":"levelo_inurba_marseille","lat":43.282701,"lon":5.350743,"is_reserved":false,"is_disabled":true,"rental_uris":{"android":"levelo://app?vid=e6dc612f-7f56-4634-8aac-2cfefb7b3910","ios":"levelo://app?vid=e6dc612f-7f56-4634-8aac-2cfefb7b3910"},"vehicle_type_id":"4","last_reported":1738663775,"current_range_meters":32000,"station_id":"ce4bhbp2rcd13ifvqerg","pricing_plan_id":"cebpf4jnsgd1na2vs0mg"},{"bike_id":"fa48af50-f7f8-463b-8073-011bea7848cf","system_id":"levelo_inurba_marseille","lat":43.26936,"lon":5.40247,"is_reserved":false,"is_disabled":false,"rental_uris":{"android":"levelo://app?vid=fa48af50-f7f8-463b-8073-011bea7848cf","ios":"levelo://app?vid=fa48af50-f7f8-463b-8073-011bea7848cf"},"vehicle_type_id":"4","last_reported":1738663775,"current_range_meters":32400,"station_id":"cjm6bp8fraef2m0cb0m0","pricing_plan_id":"cebpf4jnsgd1na2vs0mg"},{"bike_id":"2710783e-8635-443c-a464-ed1a81306c7c","system_id":"levelo_inurba_marseille","lat":43.30545,"lon":5.36549,"is_reserved":false,"is_disabled":false,"rental_uris":{"android":"levelo://app?vid=2710783e-8635-443c-a464-ed1a81306c7c","ios":"levelo://app?vid=2710783e-8635-443c-a464-ed1a81306c7c"},"vehicle_type_id":"4","last_reported":1738663775,"current_range_meters":12000,"station_id":"ce4bgs12rcd13ifvqcag","pricing_plan_id":"cebpf4jnsgd1na2vs0mg"},{"bike_id":"cd65a618-318e-432f-958e-701a50dd9da8","system_id":"levelo_inurba_marseille","lat":43.2791,"lon":5.39586,"is_reserved":false,"is_disabled":false,"rental_uris":{"android":"levelo://app?vid=cd65a618-318e-432f-958e-701a50dd9da8","ios":"levelo://app?vid=cd65a618-318e-432f-958e-701a50dd9da8"},"vehicle_type_id":"4","last_reported":1738663775,"current_range_meters":3600,"station_id":"ce4bhf92rcd13ifvqf40","pricing_plan_id":"cebpf4jnsgd1na2vs0mg"},{"bike_id":"7bbd1ca9-5cb4-4750-a3f0-60560373cbff","system_id":"levelo_inurba_marseille","lat":43.25497,"lon":5.37645,"is_reserved":false,"is_disabled":false,"rental_uris":{"android":"levelo://app?vid=7bbd1ca9-5cb4-4750-a3f0-60560373cbff","ios":"levelo://app?vid=7bbd1ca9-5cb4-4750-a3f0-60560373cbff"},"vehicle_type_id":"4","last_reported":1738663775,"current_range_meters":38800,"station_id":"ce4bhh12rcd13ifvqff0","pricing_plan_id":"cebpf4jnsgd1na2vs0mg"},{"bike_id":"0e79a7d3-0ccd-47b6-909c-4584c044da05","system_id":"levelo_inurba_marseille","lat":43.2987,"lon":5.39737,"is_reserved":false,"is_disabled":true,"rental_uris":{"android":"levelo://app?vid=0e79a7d3-0ccd-47b6-909c-4584c044da05","ios":"levelo://app?vid=0e79a7d3-0ccd-47b6-909c-4584c044da05"},"vehicle_type_id":"4","last_reported":1738663775,"current_range_meters":400,"station_id":"ce4bh0h2rcd13ifvqd50","pricing_plan_id":"cebpf4jnsgd1na2vs0mg"},{"bike_id":"b33a36d4-9a6c-4b95-8224-aed4770c4627","system_id":"levelo_inurba_marseille","lat":43.27491,"lon":5.42431,"is_reserved":false,"is_disabled":false,"rental_uris":{"android":"levelo://app?vid=b33a36d4-9a6c-4b95-8224-aed4770c4627","ios":"levelo://app?vid=b33a36d4-9a6c-4b95-8224-aed4770c4627"},"vehicle_type_id":"4","last_reported":1738663775,"current_range_meters":8000,"station_id":"ce4bhn92rcd13ifvqgrg","pricing_plan_id":"cebpf4jnsgd1na2vs0mg"},{"bike_id":"070f0b27-0b2f-4f16-aced-78655828d7b9","system_id":"levelo_inurba_marseille","lat":43.275,"lon":5.42453,"is_reserved":false,"is_disabled":false,"rental_uris":{"android":"levelo://app?vid=070f0b27-0b2f-4f16-aced-78655828d7b9","ios":"levelo://app?vid=070f0b27-0b2f-4f16-aced-78655828d7b9"},"vehicle_type_id":"4","last_reported":1738663775,"current_range_meters":27200,"station_id":"ce4bhn92rcd13ifvqgrg","pricing_plan_id":"cebpf4jnsgd1na2vs0mg"},{"bike_id":"daccacb5-c4f7-4e8a-9a8e-534a72e1c224","system_id":"levelo_inurba_marseille","lat":43.29011,"lon":5.38134,"is_reserved":false,"is_disabled":false,"rental_uris":{"android":"levelo://app?vid=daccacb5-c4f7-4e8a-9a8e-534a72e1c224","ios":"levelo://app?vid=daccacb5-c4f7-4e8a-9a8e-534a72e1c224"},"vehicle_type_id":"4","last_reported":1738663775,"current_range_meters":38000,"station_id":"ce4bh4p2rcd13ifvqe1g","pricing_plan_id":"cebpf4jnsgd1na2vs0mg"},{"bike_id":"0c5c15e8-0295-4742-9ba3-07d5adfcbe05","system_id":"levelo_inurba_marseille","lat":43.25904,"lon":5.40969,"is_reserved":false,"is_disabled":false,"rental_uris":{"android":"levelo://app?vid=0c5c15e8-0295-4742-9ba3-07d5adfcbe05","ios":"levelo://app?vid=0c5c15e8-0295-4742-9ba3-07d5adfcbe05"},"vehicle_type_id":"4","last_reported":1738663775,"current_range_meters":30000,"station_id":"ce4bhm92rcd13ifvqglg","pricing_plan_id":"cebpf4jnsgd1na2vs0mg"},{"bike_id":"a8c55296-bae2-418d-9ff0-fa424815879b","system_id":"levelo_inurba_marseille","lat":43.31365,"lon":5.36712,"is_reserved":false,"is_disabled":false,"rental_uris":{"android":"levelo://app?vid=a8c55296-bae2-418d-9ff0-fa424815879b","ios":"levelo://app?vid=a8c55296-bae2-418d-9ff0-fa424815879b"},"vehicle_type_id":"4","last_reported":1738663775,"current_range_meters":16800,"station_id":"ce4bgr92rcd13ifvqc6g","pricing_plan_id":"cebpf4jnsgd1na2vs0mg"},{"bike_id":"6bb18b6b-35db-4080-8375-2a2e83c6fc4b","system_id":"levelo_inurba_marseille","lat":43.231501,"lon":5.437124,"is_reserved":false,"is_disabled":true,"rental_uris":{"android":"levelo://app?vid=6bb18b6b-35db-4080-8375-2a2e83c6fc4b","ios":"levelo://app?vid=6bb18b6b-35db-4080-8375-2a2e83c6fc4b"},"vehicle_type_id":"4","last_reported":1738663775,"current_range_meters":39200,"station_id":"ce4bhmp2rcd13ifvqgog","pricing_plan_id":"cebpf4jnsgd1na2vs0mg"},{"bike_id":"752349b0-989f-416f-93e1-78e34c5f1122","system_id":"levelo_inurba_marseille","lat":43.267387,"lon":5.394313,"is_reserved":false,"is_disabled":false,"rental_uris":{"android":"levelo://app?vid=752349b0-989f-416f-93e1-78e34c5f1122","ios":"levelo://app?vid=752349b0-989f-416f-93e1-78e34c5f1122"},"vehicle_type_id":"4","last_reported":1738663775,"current_range_meters":38800,"station_id":"ce4bhh12rcd13ifvqfg0","pricing_plan_id":"cebpf4jnsgd1na2vs0mg"},{"bike_id":"787b7837-f258-4886-bbf5-841ee39c0166","system_id":"levelo_inurba_marseille","lat":43.28271,"lon":5.35073,"is_reserved":false,"is_disabled":true,"rental_uris":{"android":"levelo://app?vid=787b7837-f258-4886-bbf5-841ee39c0166","ios":"levelo://app?vid=787b7837-f258-4886-bbf5-841ee39c0166"},"vehicle_type_id":"4","last_reported":1738663775,"current_range_meters":37600,"station_id":"ce4bhbp2rcd13ifvqerg","pricing_plan_id":"cebpf4jnsgd1na2vs0mg"},{"bike_id":"35e9be92-813b-4a24-804a-34341a2b466d","system_id":"levelo_inurba_marseille","lat":43.26482,"lon":5.3955,"is_reserved":false,"is_disabled":false,"rental_uris":{"android":"levelo://app?vid=35e9be92-813b-4a24-804a-34341a2b466d","ios":"levelo://app?vid=35e9be92-813b-4a24-804a-34341a2b466d"},"vehicle_type_id":"4","last_reported":1738663775,"current_range_meters":38800,"station_id":"ce4bhi12rcd13ifvqfq0","pricing_plan_id":"cebpf4jnsgd1na2vs0mg"},{"bike_id":"2726d875-1d0b-4730-b675-cd20129246db","system_id":"levelo_inurba_marseille","lat":43.25819,"lon":5.40844,"is_reserved":false,"is_disabled":false,"rental_uris":{"android":"levelo://app?vid=2726d875-1d0b-4730-b675-cd20129246db","ios":"levelo://app?vid=2726d875-1d0b-4730-b675-cd20129246db"},"vehicle_type_id":"4","last_reported":1738663775,"current_range_meters":14800,"station_id":"ce4bhm92rcd13ifvqglg","pricing_plan_id":"cebpf4jnsgd1na2vs0mg"},{"bike_id":"aa674e41-9150-49ce-b2d7-0e75c495e713","system_id":"levelo_inurba_marseille","lat":43.30087,"lon":5.3908,"is_reserved":false,"is_disabled":false,"rental_uris":{"android":"levelo://app?vid=aa674e41-9150-49ce-b2d7-0e75c495e713","ios":"levelo://app?vid=aa674e41-9150-49ce-b2d7-0e75c495e713"},"vehicle_type_id":"4","last_reported":1738663775,"current_range_meters":6000,"station_id":"ce4bh192rcd13ifvqdb0","pricing_plan_id":"cebpf4jnsgd1na2vs0mg"},{"bike_id":"d42ab506-242e-49de-93ba-15e047f78824","system_id":"levelo_inurba_marseille","lat":43.298407,"lon":5.362665,"is_reserved":false,"is_disabled":false,"rental_uris":{"android":"levelo://app?vid=d42ab506-242e-49de-93ba-15e047f78824","ios":"levelo://app?vid=d42ab506-242e-49de-93ba-15e047f78824"},"vehicle_type_id":"4","last_reported":1738663775,"current_range_meters":38400,"station_id":"ce4bgpp2rcd13ifvqc3g","pricing_plan_id":"cebpf4jnsgd1na2vs0mg"},{"bike_id":"ec18b12a-8427-47cf-8e4a-de725000bb9a","system_id":"levelo_inurba_marseille","lat":43.30884,"lon":5.37185,"is_reserved":false,"is_disabled":false,"rental_uris":{"android":"levelo://app?vid=ec18b12a-8427-47cf-8e4a-de725000bb9a","ios":"levelo://app?vid=ec18b12a-8427-47cf-8e4a-de725000bb9a"},"vehicle_type_id":"4","last_reported":1738663775,"current_range_meters":32000,"station_id":"ce4bguh2rcd13ifvqckg","pricing_plan_id":"cebpf4jnsgd1na2vs0mg"},{"bike_id":"7df16953-aab8-402b-9c96-92f88bed8fdb","system_id":"levelo_inurba_marseille","lat":43.31215,"lon":5.36873,"is_reserved":false,"is_disabled":false,"rental_uris":{"android":"levelo://app?vid=7df16953-aab8-402b-9c96-92f88bed8fdb","ios":"levelo://app?vid=7df16953-aab8-402b-9c96-92f88bed8fdb"},"vehicle_type_id":"4","last_reported":1738663775,"current_range_meters":28800,"station_id":"ce4bgl92rcd13ifvqbq0","pricing_plan_id":"cebpf4jnsgd1na2vs0mg"},{"bike_id":"eac8e106-76e0-4f1b-81af-4eaefecd2501","system_id":"levelo_inurba_marseille","lat":43.25004,"lon":5.38917,"is_reserved":false,"is_disabled":false,"rental_uris":{"android":"levelo://app?vid=eac8e106-76e0-4f1b-81af-4eaefecd2501","ios":"levelo://app?vid=eac8e106-76e0-4f1b-81af-4eaefecd2501"},"vehicle_type_id":"4","last_reported":1738663775,"current_range_meters":16800,"station_id":"ce4bhgp2rcd13ifvqfd0","pricing_plan_id":"cebpf4jnsgd1na2vs0mg"},{"bike_id":"c27cab57-1735-45df-9da6-6b95eed414b5","system_id":"levelo_inurba_marseille","lat":43.30957,"lon":5.39047,"is_reserved":false,"is_disabled":false,"rental_uris":{"android":"levelo://app?vid=c27cab57-1735-45df-9da6-6b95eed414b5","ios":"levelo://app?vid=c27cab57-1735-45df-9da6-6b95eed414b5"},"vehicle_type_id":"4","last_reported":1738663775,"current_range_meters":36400,"station_id":"ce4bgup2rcd13ifvqco0","pricing_plan_id":"cebpf4jnsgd1na2vs0mg"},{"bike_id":"31fd5316-6699-4a20-a1ec-d33428eaf5e7","system_id":"levelo_inurba_marseille","lat":43.30536,"lon":5.36703,"is_reserved":false,"is_disabled":false,"rental_uris":{"android":"levelo://app?vid=31fd5316-6699-4a20-a1ec-d33428eaf5e7","ios":"levelo://app?vid=31fd5316-6699-4a20-a1ec-d33428eaf5e7"},"vehicle_type_id":"4","last_reported":1738663775,"current_range_meters":27200,"station_id":"ce4bgrp2rcd13ifvqc9g","pricing_plan_id":"cebpf4jnsgd1na2vs0mg"},{"bike_id":"25f2077a-d569-4e6a-93b0-8c971d939cf0","system_id":"levelo_inurba_marseille","lat":43.27058,"lon":5.40256,"is_reserved":false,"is_disabled":true,"rental_uris":{"android":"levelo://app?vid=25f2077a-d569-4e6a-93b0-8c971d939cf0","ios":"levelo://app?vid=25f2077a-d569-4e6a-93b0-8c971d939cf0"},"vehicle_type_id":"4","last_reported":1738663775,"current_range_meters":1200,"station_id":"ce4bhk92rcd13ifvqgc0","pricing_plan_id":"cebpf4jnsgd1na2vs0mg"},{"bike_id":"1254cb89-0555-44f1-b127-ddecabcc274e","system_id":"levelo_inurba_marseille","lat":43.28613,"lon":5.35106,"is_reserved":false,"is_disabled":false,"rental_uris":{"android":"levelo://app?vid=1254cb89-0555-44f1-b127-ddecabcc274e","ios":"levelo://app?vid=1254cb89-0555-44f1-b127-ddecabcc274e"},"vehicle_type_id":"4","last_reported":1738663775,"current_range_meters":38000,"station_id":"ce4bhch2rcd13ifvqeug","pricing_plan_id":"cebpf4jnsgd1na2vs0mg"},{"bike_id":"0763298e-7eef-48ba-b1e3-698015274191","system_id":"levelo_inurba_marseille","lat":43.28345,"lon":5.37466,"is_reserved":false,"is_disabled":false,"rental_uris":{"android":"levelo://app?vid=0763298e-7eef-48ba-b1e3-698015274191","ios":"levelo://app?vid=0763298e-7eef-48ba-b1e3-698015274191"},"vehicle_type_id":"4","last_reported":1738663775,"current_range_meters":19600,"station_id":"ce4bh412rcd13ifvqds0","pricing_plan_id":"cebpf4jnsgd1na2vs0mg"},{"bike_id":"61ceb31b-03f6-4213-9b34-0374ee45b479","system_id":"levelo_inurba_marseille","lat":43.32104,"lon":5.36802,"is_reserved":false,"is_disabled":false,"rental_uris":{"android":"levelo://app?vid=61ceb31b-03f6-4213-9b34-0374ee45b479","ios":"levelo://app?vid=61ceb31b-03f6-4213-9b34-0374ee45b479"},"vehicle_type_id":"4","last_reported":1738663775,"current_range_meters":25200,"station_id":"ce4bhrh2rcd13ifvqhug","pricing_plan_id":"cebpf4jnsgd1na2vs0mg"},{"bike_id":"67e0b101-f1a3-4b4e-9684-12f90f2d31e6","system_id":"levelo_inurba_marseille","lat":43.30157,"lon":5.38088,"is_reserved":false,"is_disabled":false,"rental_uris":{"android":"levelo://app?vid=67e0b101-f1a3-4b4e-9684-12f90f2d31e6","ios":"levelo://app?vid=67e0b101-f1a3-4b4e-9684-12f90f2d31e6"},"vehicle_type_id":"4","last_reported":1738663775,"current_range_meters":38000,"station_id":"ce4bgjp2rcd13ifvqbh0","pricing_plan_id":"cebpf4jnsgd1na2vs0mg"},