{"last_updated":1706202408,"ttl":30,"version":"2.2","data":{"bikes":[{"bike_id":"544215c6-36bf-4ffa-8858-4ab8cf55f20c","system_id":"levelo_inurba_marseille","lat":43.31338,"lon":5.36725,"is_reserved":false,"is_disabled":false,"rental_uris":{"android":"levelo://app?vid=544215c6-36bf-4ffa-8858-4ab8cf55f20c","ios":"levelo://app?vid=544215c6-36bf-4ffa-8858-4ab8cf55f20c"},"vehicle_type_id":"4","last_reported":1706202408,"current_range_meters":27200,"station_id":"ce4bgr92rcd13ifvqc6g","pricing_plan_id":"free"},{"bike_id":"5c6ca3a0-aab1-4500-b991-5f6177c5b1cd","system_id":"levelo_inurba_marseille","lat":43.313454,"lon":5.367171,"is_reserved":false,"is_disabled":false,"rental_uris":{"android":"levelo://app?vid=5c6ca3a0-aab1-4500-b991-5f6177c5b1cd","ios":"levelo://app?vid=5c6ca3a0-aab1-4500-b991-5f6177c5b1cd"},"vehicle_type_id":"4","last_reported":1706202408,"current_range_meters":15200,"station_id":"ce4bgr92rcd13ifvqc6g","pricing_plan_id":"free"},{"bike_id":"a6c9f062-9a22-4ced-883b-4628af7b29e7","system_id":"levelo_inurba_marseille","lat":43.31341,"lon":5.367098,"is_reserved":false,"is_disabled":false,"rental_uris":{"android":"levelo://app?vid=a6c9f062-9a22-4ced-883b-4628af7b29e7","ios":"levelo://app?vid=a6c9f062-9a22-4ced-883b-4628af7b29e7"},"vehicle_type_id":"4","last_reported":1706202408,"current_range_meters":16000,"station_id":"ce4bgr92rcd13ifvqc6g","pricing_plan_id":"free"},{"bike_id":"692c7a1c-a62c-48dc-b2c6-09613b2668e4","system_id":"levelo_inurba_marseille","lat":43.31341,"lon":5.367098,"is_reserved":false,"is_disabled":false,"rental_uris":{"android":"levelo://app?vid=692c7a1c-a62c-48dc-b2c6-09613b2668e4","ios":"levelo://app?vid=692c7a1c-a62c-48dc-b2c6-09613b2668e4"},"vehicle_type_id":"4","last_reported":1706202408,"current_range_meters":19200,"station_id":"ce4bgr92rcd13ifvqc6g","pricing_plan_id":"free"},{"bike_id":"6687ce12-37dd-48f2-b1b2-2c7e45d8774e","system_id":"levelo_inurba_marseille","lat":43.31341,"lon":5.367098,"is_reserved":false,"is_disabled":false,"rental_uris":{"android":"levelo://app?vid=6687ce12-37dd-48f2-b1b2-2c7e45d8774e","ios":"levelo://app?vid=6687ce12-37dd-48f2-b1b2-2c7e45d8774e"},"vehicle_type_id":"4","last_reported":1706202408,"current_range_meters":27600,"station_id":"ce4bgr92rcd13ifvqc6g","pricing_plan_id":"free"},{"bike_id":"17402d8a-378f-45e1-b09e-67de136f5d5b","system_id":"levelo_inurba_marseille","lat":43.314811,"lon":5.373104,"is_reserved":false,"is_disabled":false,"rental_uris":{"android":"levelo://app?vid=17402d8a-378f-45e1-b09e-67de136f5d5b","ios":"levelo://app?vid=17402d8a-378f-45e1-b09e-67de136f5d5b"},"vehicle_type_id":"4","last_reported":1706202408,"current_range_meters":1600,"station_id":"ce4bgt12rcd13ifvqcd0","pricing_plan_id":"free"},{"bike_id":"f45b12f6-0837-4c95-bbae-3a7459272845","system_id":"levelo_inurba_marseille","lat":43.30883,"lon":5.37194,"is_reserved":false,"is_disabled":false,"rental_uris":{"android":"levelo://app?vid=f45b12f6-0837-4c95-bbae-3a7459272845","ios":"levelo://app?vid=f45b12f6-0837-4c95-bbae-3a7459272845"},"vehicle_type_id":"4","last_reported":1706202408,"current_range_meters":16000,"station_id":"ce4bguh2rcd13ifvqckg","pricing_plan_id":"free"},{"bike_id":"7083a204-0fcb-4eae-a250-104aab0e13b5","system_id":"levelo_inurba_marseille","lat":43.267959,"lon":5.402685,"is_reserved":false,"is_disabled":false,"rental_uris":{"android":"levelo://app?vid=7083a204-0fcb-4eae-a250-104aab0e13b5","ios":"levelo://app?vid=7083a204-0fcb-4eae-a250-104aab0e13b5"},"vehicle_type_id":"4","last_reported":1706202408,"current_range_meters":5600,"station_id":"ce501612rcd8frsf0b60","pricing_plan_id":"free"},{"bike_id":"5a8268f5-52fd-418c-aeb5-0b5e0f2074d8","system_id":"levelo_inurba_marseille","lat":43.305714,"lon":5.365633,"is_reserved":false,"is_disabled":false,"rental_uris":{"android":"levelo://app?vid=5a8268f5-52fd-418c-aeb5-0b5e0f2074d8","ios":"levelo://app?vid=5a8268f5-52fd-418c-aeb5-0b5e0f2074d8"},"vehicle_type_id":"4","last_reported":1706202408,"current_range_meters":0,"station_id":"ce4bgs12rcd13ifvqcag","pricing_plan_id":"free"},{"bike_id":"9443e511-2e2d-41e7-a2cd-4c95bf03992f","system_id":"levelo_inurba_marseille","lat":43.313834,"lon":5.376959,"is_reserved":false,"is_disabled":false,"rental_uris":{"android":"levelo://app?vid=9443e511-2e2d-41e7-a2cd-4c95bf03992f","ios":"levelo://app?vid=9443e511-2e2d-41e7-a2cd-4c95bf03992f"},"vehicle_type_id":"4","last_reported":1706202408,"current_range_meters":19600,"station_id":"","pricing_plan_id":"free"},{"bike_id":"467c77a9-b31d-42ef-a0db-c7ec721259dc","system_id":"levelo_inurba_marseille","lat":43.30542,"lon":5.36534,"is_reserved":false,"is_disabled":false,"rental_uris":{"android":"levelo://app?vid=467c77a9-b31d-42ef-a0db-c7ec721259dc","ios":"levelo://app?vid=467c77a9-b31d-42ef-a0db-c7ec721259dc"},"vehicle_type_id":"4","last_reported":1706202408,"current_range_meters":21200,"station_id":"ce4bgs12rcd13ifvqcag","pricing_plan_id":"free"},{"bike_id":"3785b59f-9c9f-4ff3-a098-2f9c64d89173","system_id":"levelo_inurba_marseille","lat":43.305425,"lon":5.365296,"is_reserved":false,"is_disabled":false,"rental_uris":{"android":"levelo://app?vid=3785b59f-9c9f-4ff3-a098-2f9c64d89173","ios":"levelo://app?vid=3785b59f-9c9f-4ff3-a098-2f9c64d89173"},"vehicle_type_id":"4","last_reported":1706202408,"current_range_meters":0,"station_id":"ce4bgs12rcd13ifvqcag","pricing_plan_id":"free"},{"bike_id":"83c0932b-077f-4939-b27a-1fca68bc502d","system_id":"levelo_inurba_marseille","lat":43.31119,"lon":5.37758,"is_reserved":false,"is_disabled":false,"rental_uris":{"android":"levelo://app?vid=83c0932b-077f-4939-b27a-1fca68bc502d","ios":"levelo://app?vid=83c0932b-077f-4939-b27a-1fca68bc502d"},"vehicle_type_id":"4","last_reported":1706202408,"current_range_meters":0,"station_id":"ce4bgt92rcd13ifvqcg0","pricing_plan_id":"free"},{"bike_id":"e972d0b8-a03c-4a29-a146-62abffd6f876","system_id":"levelo_inurba_marseille","lat":43.287154,"lon":5.399979,"is_reserved":false,"is_disabled":false,"rental_uris":{"android":"levelo://app?vid=e972d0b8-a03c-4a29-a146-62abffd6f876","ios":"levelo://app?vid=e972d0b8-a03c-4a29-a146-62abffd6f876"},"vehicle_type_id":"4","last_reported":1706202408,"current_range_meters":9600,"station_id":"ce4bho92rcd13ifvqh3g","pricing_plan_id":"free"},{"bike_id":"ddb75a71-313c-42dc-b041-c716699b57bb","system_id":"levelo_inurba_marseille","lat":43.311151,"lon":5.377661,"is_reserved":false,"is_disabled":false,"rental_uris":{"android":"levelo://app?vid=ddb75a71-313c-42dc-b041-c716699b57bb","ios":"levelo://app?vid=ddb75a71-313c-42dc-b041-c716699b57bb"},"vehicle_type_id":"4","last_reported":1706202408,"current_range_meters":9200,"station_id":"ce4bgt92rcd13ifvqcg0","pricing_plan_id":"free"},{"bike_id":"b39863d5-f7af-43cc-9e8d-a1ec298da46a","system_id":"levelo_inurba_marseille","lat":43.317075,"lon":5.377367,"is_reserved":false,"is_disabled":false,"rental_uris":{"android":"levelo://app?vid=b39863d5-f7af-43cc-9e8d-a1ec298da46a","ios":"levelo://app?vid=b39863d5-f7af-43cc-9e8d-a1ec298da46a"},"vehicle_type_id":"4","last_reported":1706202408,"current_range_meters":18000,"station_id":"ce4bgth2rcd13ifvqch0","pricing_plan_id":"free"},{"bike_id":"b1828c35-e4e8-4528-a510-5d81e98413c5","system_id":"levelo_inurba_marseille","lat":43.307945,"lon":5.376487,"is_reserved":false,"is_disabled":false,"rental_uris":{"android":"levelo://app?vid=b1828c35-e4e8-4528-a510-5d81e98413c5","ios":"levelo://app?vid=b1828c35-e4e8-4528-a510-5d81e98413c5"},"vehicle_type_id":"4","last_reported":1706202408,"current_range_meters":18400,"station_id":"ce4bgv92rcd13ifvqcq0","pricing_plan_id":"free"},{"bike_id":"aae4d74b-262e-4565-a112-9e55294f9b2c","system_id":"levelo_inurba_marseille","lat":43.307945,"lon":5.376487,"is_reserved":false,"is_disabled":false,"rental_uris":{"android":"levelo://app?vid=aae4d74b-262e-4565-a112-9e55294f9b2c","ios":"levelo://app?vid=aae4d74b-262e-4565-a112-9e55294f9b2c"},"vehicle_type_id":"4","last_reported":1706202408,"current_range_meters":17600,"station_id":"ce4bgv92rcd13ifvqcq0","pricing_plan_id":"free"},{"bike_id":"4b263855-72c1-4d97-a72c-54d94373cd81","system_id":"levelo_inurba_marseille","lat":43.317075,"lon":5.377367,"is_reserved":false,"is_disabled":false,"rental_uris":{"android":"levelo://app?vid=4b263855-72c1-4d97-a72c-54d94373cd81","ios":"levelo://app?vid=4b263855-72c1-4d97-a72c-54d94373cd81"},"vehicle_type_id":"4","last_reported":1706202408,"current_range_meters":27600,"station_id":"ce4bgth2rcd13ifvqch0","pricing_plan_id":"free"},{"bike_id":"183bb1c1-398f-466c-b05d-327ac4efc436","system_id":"levelo_inurba_marseille","lat":43.31719,"lon":5.37754,"is_reserved":false,"is_disabled":false,"rental_uris":{"android":"levelo://app?vid=183bb1c1-398f-466c-b05d-327ac4efc436","ios":"levelo://app?vid=183bb1c1-398f-466c-b05d-327ac4efc436"},"vehicle_type_id":"4","last_reported":1706202408,"current_range_meters":22000,"station_id":"ce4bgth2rcd13ifvqch0","pricing_plan_id":"free"},{"bike_id":"755367d9-52a9-4f5e-b598-6e90f4e4f515","system_id":"levelo_inurba_marseille","lat":43.317075,"lon":5.377367,"is_reserved":false,"is_disabled":false,"rental_uris":{"android":"levelo://app?vid=755367d9-52a9-4f5e-b598-6e90f4e4f515","ios":"levelo://app?vid=755367d9-52a9-4f5e-b598-6e90f4e4f515"},"vehicle_type_id":"4","last_reported":1706202408,"current_range_meters":28400,"station_id":"ce4bgth2rcd13ifvqch0","pricing_plan_id":"free"},{"bike_id":"cd085118-f819-47b0-95c2-16799083731b","system_id":"levelo_inurba_marseille","lat":43.290779,"lon":5.371482,"is_reserved":false,"is_disabled":false,"rental_uris":{"android":"levelo://app?vid=cd085118-f819-47b0-95c2-16799083731b","ios":"levelo://app?vid=cd085118-f819-47b0-95c2-16799083731b"},"vehicle_type_id":"4","last_reported":1706202408,"current_range_meters":6400,"station_id":"ce4bh5p2rcd13ifvqe4g","pricing_plan_id":"free"},{"bike_id":"daf4bbb0-168e-49c4-98be-e51a89f6fcf3","system_id":"levelo_inurba_marseille","lat":43.315277,"lon":5.380369,"is_reserved":false,"is_disabled":false,"rental_uris":{"android":"levelo://app?vid=daf4bbb0-168e-49c4-98be-e51a89f6fcf3","ios":"levelo://app?vid=daf4bbb0-168e-49c4-98be-e51a89f6fcf3"},"vehicle_type_id":"4","last_reported":1706202408,"current_range_meters":19600,"station_id":"ce4bhsp2rcd13ifvqi50","pricing_plan_id":"free"},{"bike_id":"88663f9e-6b79-46cc-a29c-5781acfcc00a","system_id":"levelo_inurba_marseille","lat":43.301939,"lon":5.366286,"is_reserved":false,"is_disabled":false,"rental_uris":{"android":"levelo://app?vid=88663f9e-6b79-46cc-a29c-5781acfcc00a","ios":"levelo://app?vid=88663f9e-6b79-46cc-a29c-5781acfcc00a"},"vehicle_type_id":"4","last_reported":1706202408,"current_range_meters":0,"station_id":"ce4bgrh2rcd13ifvqc8g","pricing_plan_id":"free"},{"bike_id":"1116a42b-637a-4989-8e8e-a171d6be36ba","system_id":"levelo_inurba_marseille","lat":43.275625,"lon":5.384392,"is_reserved":false,"is_disabled":false,"rental_uris":{"android":"levelo://app?vid=1116a42b-637a-4989-8e8e-a171d6be36ba","ios":"levelo://app?vid=1116a42b-637a-4989-8e8e-a171d6be36ba"},"vehicle_type_id":"4","last_reported":1706202408,"current_range_meters":0,"station_id":"ce4bhh92rcd13ifvqfi0","pricing_plan_id":"free"},{"bike_id":"7a1be407-dfb2-41b9-96b4-630202f0612d","system_id":"levelo_inurba_marseille","lat":43.30795,"lon":5.38137,"is_reserved":false,"is_disabled":false,"rental_uris":{"android":"levelo://app?vid=7a1be407-dfb2-41b9-96b4-630202f0612d","ios":"levelo://app?vid=7a1be407-dfb2-41b9-96b4-630202f0612d"},"vehicle_type_id":"4","last_reported":1706202408,"current_range_meters":0,"station_id":"ce4bgt12rcd13ifvqce0","pricing_plan_id":"free"},{"bike_id":"f6fdf758-114b-414d-a6ed-37038ef8cdce","system_id":"levelo_inurba_marseille","lat":43.324771,"lon":5.36557,"is_reserved":false,"is_disabled":false,"rental_uris":{"android":"levelo://app?vid=f6fdf758-114b-414d-a6ed-37038ef8cdce","ios":"levelo://app?vid=f6fdf758-114b-414d-a6ed-37038ef8cdce"},"vehicle_type_id":"4","last_reported":1706202408,"current_range_meters":15600,"station_id":"ce4bhs12rcd13ifvqhvg","pricing_plan_id":"free"},{"bike_id":"58520a95-ef4d-44e3-97cc-d535075988d1","system_id":"levelo_inurba_marseille","lat":43.30269,"lon":5.377,"is_reserved":false,"is_disabled":false,"rental_uris":{"android":"levelo://app?vid=58520a95-ef4d-44e3-97cc-d535075988d1","ios":"levelo://app?vid=58520a95-ef4d-44e3-97cc-d535075988d1"},"vehicle_type_id":"4","last_reported":1706202408,"current_range_meters":4000,"station_id":"ce4bguh2rcd13ifvqcj0","pricing_plan_id":"free"},{"bike_id":"db5640b8-520d-4779-8ec1-4a4bc253b2f8","system_id":"levelo_inurba_marseille","lat":43.319843,"lon":5.381397,"is_reserved":false,"is_disabled":false,"rental_uris":{"android":"levelo://app?vid=db5640b8-520d-4779-8ec1-4a4bc253b2f8","ios":"levelo://app?vid=db5640b8-520d-4779-8ec1-4a4bc253b2f8"},"vehicle_type_id":"4","last_reported":1706202408,"current_range_meters":31200,"station_id":"ce4bhr12rcd13ifvqhpg","pricing_plan_id":"free"},{"bike_id":"6a6be1d9-2ea2-4f0e-8d08-20e2444dab9d","system_id":"levelo_inurba_marseille","lat":43.319935,"lon":5.381699,"is_reserved":false,"is_disabled":false,"rental_uris":{"android":"levelo://app?vid=6a6be1d9-2ea2-4f0e-8d08-20e2444dab9d","ios":"levelo://app?vid=6a6be1d9-2ea2-4f0e-8d08-20e2444dab9d"},"vehicle_type_id":"4","last_reported":1706202408,"current_range_meters":24000,"station_id":"ce4bhr12rcd13ifvqhpg","pricing_plan_id":"free"},{"bike_id":"3ce3e68d-0313-40cb-afa9-858c717ce4c9","system_id":"levelo_inurba_marseille","lat":43.319935,"lon":5.381699,"is_reserved":false,"is_disabled":false,"rental_uris":{"android":"levelo://app?vid=3ce3e68d-0313-40cb-afa9-858c717ce4c9","ios":"levelo://app?vid=3ce3e68d-0313-40cb-afa9-858c717ce4c9"},"vehicle_type_id":"4","last_reported":1706202408,"current_range_meters":14000,"station_id":"ce4bhr12rcd13ifvqhpg","pricing_plan_id":"free"},{"bike_id":"fc51b747-b33f-40c9-9c2c-bd6f886bc3e2","system_id":"levelo_inurba_marseille","lat":43.319916,"lon":5.381533,"is_reserved":false,"is_disabled":false,"rental_uris":{"android":"levelo://app?vid=fc51b747-b33f-40c9-9c2c-bd6f886bc3e2","ios":"levelo://app?vid=fc51b747-b33f-40c9-9c2c-bd6f886bc3e2"},"vehicle_type_id":"4","last_reported":1706202408,"current_range_meters":18400,"station_id":"ce4bhr12rcd13ifvqhpg","pricing_plan_id":"free"},{"bike_id":"88483b5e-a393-4bfe-9800-1971f45b7e52","system_id":"levelo_inurba_marseille","lat":43.319982,"lon":5.381508,"is_reserved":false,"is_disabled":false,"rental_uris":{"android":"levelo://app?vid=88483b5e-a393-4bfe-9800-1971f45b7e52","ios":"levelo://app?vid=88483b5e-a393-4bfe-9800-1971f45b7e52"},"vehicle_type_id":"4","last_reported":1706202408,"current_range_meters":12000,"station_id":"ce4bhr12rcd13ifvqhpg","pricing_plan_id":"free"},{"bike_id":"a9ac72b8-40e9-40c4-a219-644fc945bcb4","system_id":"levelo_inurba_marseille","lat":43.32001,"lon":5.38149,"is_reserved":false,"is_disabled":false,"rental_uris":{"android":"levelo://app?vid=a9ac72b8-40e9-40c4-a219-644fc945bcb4","ios":"levelo://app?vid=a9ac72b8-40e9-40c4-a219-644fc945bcb4"},"vehicle_type_id":"4","last_reported":1706202408,"current_range_meters":28400,"station_id":"ce4bhr12rcd13ifvqhpg","pricing_plan_id":"free"},{"bike_id":"fd388e30-6c90-4fbf-abdf-dd15ef425659","system_id":"levelo_inurba_marseille","lat":43.319967,"lon":5.381565,"is_reserved":false,"is_disabled":false,"rental_uris":{"android":"levelo://app?vid=fd388e30-6c90-4fbf-abdf-dd15ef425659","ios":"levelo://app?vid=fd388e30-6c90-4fbf-abdf-dd15ef425659"},"vehicle_type_id":"4","last_reported":1706202408,"current_range_meters":13600,"station_id":"ce4bhr12rcd13ifvqhpg","pricing_plan_id":"free"},{"bike_id":"c7b09406-a878-4d1d-9f68-a32988c6424a","system_id":"levelo_inurba_marseille","lat":43.319941,"lon":5.381604,"is_reserved":false,"is_disabled":false,"rental_uris":{"android":"levelo://app?vid=c7b09406-a878-4d1d-9f68-a32988c6424a","ios":"levelo://app?vid=c7b09406-a878-4d1d-9f68-a32988c6424a"},"vehicle_type_id":"4","last_reported":1706202408,"current_range_meters":2000,"station_id":"ce4bhr12rcd13ifvqhpg","pricing_plan_id":"free"},{"bike_id":"ff53198e-2480-4895-9c3a-632d786a7dc6","system_id":"levelo_inurba_marseille","lat":43.31997,"lon":5.3816,"is_reserved":false,"is_disabled":false,"rental_uris":{"android":"levelo://app?vid=ff53198e-2480-4895-9c3a-632d786a7dc6","ios":"levelo://app?vid=ff53198e-2480-4895-9c3a-632d786a7dc6"},"vehicle_type_id":"4","last_reported":1706202408,"current_range_meters":17200,"station_id":"ce4bhr12rcd13ifvqhpg","pricing_plan_id":"free"},{"bike_id":"a0627ed1-e61a-41ad-8c4a-b19ea8c50a9f","system_id":"levelo_inurba_marseille","lat":43.319929,"lon":5.381646,"is_reserved":false,"is_disabled":false,"rental_uris":{"android":"levelo://app?vid=a0627ed1-e61a-41ad-8c4a-b19ea8c50a9f","ios":"levelo://app?vid=a0627ed1-e61a-41ad-8c4a-b19ea8c50a9f"},"vehicle_type_id":"4","last_reported":1706202408,"current_range_meters":0,"station_id":"ce4bhr12rcd13ifvqhpg","pricing_plan_id":"free"},{"bike_id":"459b5625-cff1-44dc-b21d-18af9ee3a68c","system_id":"levelo_inurba_marseille","lat":43.313571,"lon":5.384829,"is_reserved":false,"is_disabled":false,"rental_uris":{"android":"levelo://app?vid=459b5625-cff1-44dc-b21d-18af9ee3a68c","ios":"levelo://app?vid=459b5625-cff1-44dc-b21d-18af9ee3a68c"},"vehicle_type_id":"4","last_reported":1706202408,"current_range_meters":9200,"station_id":"ce4bgt92rcd13ifvqcf0","pricing_plan_id":"free"},{"bike_id":"340b4b2f-dd97-40a0-a008-884e9a3ff0dc","system_id":"levelo_inurba_marseille","lat":43.313571,"lon":5.384829,"is_reserved":false,"is_disabled":false,"rental_uris":{"android":"levelo://app?vid=340b4b2f-dd97-40a0-a008-884e9a3ff0dc","ios":"levelo://app?vid=340b4b2f-dd97-40a0-a008-884e9a3ff0dc"},"vehicle_type_id":"4","last_reported":1706202408,"current_range_meters":0,"station_id":"ce4bgt92rcd13ifvqcf0","pricing_plan_id":"free"},{"bike_id":"807ee0ff-f242-4bb9-83c8-91a68dd39a21","system_id":"levelo_inurba_marseille","lat":43.31357,"lon":5.38499,"is_reserved":false,"is_disabled":false,"rental_uris":{"android":"levelo://app?vid=807ee0ff-f242-4bb9-83c8-91a68dd39a21","ios":"levelo://app?vid=807ee0ff-f242-4bb9-83c8-91a68dd39a21"},"vehicle_type_id":"4","last_reported":1706202408,"current_range_meters":27600,"station_id":"ce4bgt92rcd13ifvqcf0","pricing_plan_id":"free"},{"bike_id":"a49f2ba8-d790-407c-905d-1bfb26b157e6","system_id":"levelo_inurba_marseille","lat":43.313571,"lon":5.384829,"is_reserved":false,"is_disabled":false,"rental_uris":{"android":"levelo://app?vid=a49f2ba8-d790-407c-905d-1bfb26b157e6","ios":"levelo://app?vid=a49f2ba8-d790-407c-905d-1bfb26b157e6"},"vehicle_type_id":"4","last_reported":1706202408,"current_range_meters":14000,"station_id":"ce4bgt92rcd13ifvqcf0","pricing_plan_id":"free"},{"bike_id":"53432ab6-e943-4f46-9b44-1cde6b33d23f","system_id":"levelo_inurba_marseille","lat":43.299724,"lon":5.371829,"is_reserved":false,"is_disabled":false,"rental_uris":{"android":"levelo://app?vid=53432ab6-e943-4f46-9b44-1cde6b33d23f","ios":"levelo://app?vid=53432ab6-e943-4f46-9b44-1cde6b33d23f"},"vehicle_type_id":"4","last_reported":1706202408,"current_range_meters":7200,"station_id":"ce4bgr92rcd13ifvqc7g","pricing_plan_id":"free"},{"bike_id":"b791274d-b3dc-4fd2-b092-19d5a79ef506","system_id":"levelo_inurba_marseille","lat":43.29781,"lon":5.37095,"is_reserved":false,"is_disabled":false,"rental_uris":{"android":"levelo://app?vid=b791274d-b3dc-4fd2-b092-19d5a79ef506","ios":"levelo://app?vid=b791274d-b3dc-4fd2-b092-19d5a79ef506"},"vehicle_type_id":"4","last_reported":1706202408,"current_range_meters":0,"station_id":"ce4bgop2rcd13ifvqc1g","pricing_plan_id":"free"},{"bike_id":"ccf1c033-8dcf-4a9e-92f4-f73b953c453a","system_id":"levelo_inurba_marseille","lat":43.322872,"lon":5.382756,"is_reserved":false,"is_disabled":false,"rental_uris":{"android":"levelo://app?vid=ccf1c033-8dcf-4a9e-92f4-f73b953c453a","ios":"levelo://app?vid=ccf1c033-8dcf-4a9e-92f4-f73b953c453a"},"vehicle_type_id":"4","last_reported":1706202408,"current_range_meters":26000,"station_id":"ce4bhr12rcd13ifvqhqg","pricing_plan_id":"free"},{"bike_id":"5af28d6f-0ba5-4083-9221-7095385406c3","system_id":"levelo_inurba_marseille","lat":43.322899,"lon":5.38263,"is_reserved":false,"is_disabled":false,"rental_uris":{"android":"levelo://app?vid=5af28d6f-0ba5-4083-9221-7095385406c3","ios":"levelo://app?vid=5af28d6f-0ba5-4083-9221-7095385406c3"},"vehicle_type_id":"4","last_reported":1706202408,"current_range_meters":29200,"station_id":"ce4bhr12rcd13ifvqhqg","pricing_plan_id":"free"},{"bike_id":"f94a4d7f-7b13-47ac-9fb4-130261837428","system_id":"levelo_inurba_marseille","lat":43.328049,"lon":5.366693,"is_reserved":false,"is_disabled":false,"rental_uris":{"android":"levelo://app?vid=f94a4d7f-7b13-47ac-9fb4-130261837428","ios":"levelo://app?vid=f94a4d7f-7b13-47ac-9fb4-130261837428"},"vehicle_type_id":"4","last_reported":1706202408,"current_range_meters":24000,"station_id":"ce4bhs92rcd13ifvqi0g","pricing_plan_id":"free"},{"bike_id":"068bcd7c-e579-4cf8-bca8-bfda5f97120e","system_id":"levelo_inurba_marseille","lat":43.322872,"lon":5.382756,"is_reserved":false,"is_disabled":false,"rental_uris":{"android":"levelo://app?vid=068bcd7c-e579-4cf8-bca8-bfda5f97120e","ios":"levelo://app?vid=068bcd7c-e579-4cf8-bca8-bfda5f97120e"},"vehicle_type_id":"4","last_reported":1706202408,"current_range_meters":22800,"station_id":"ce4bhr12rcd13ifvqhqg","pricing_plan_id":"free"},{"bike_id":"447532c0-56ca-46ac-9000-fea47d81b433","system_id":"levelo_inurba_marseille","lat":43.3282,"lon":5.36675,"is_reserved":false,"is_disabled":false,"rental_uris":{"android":"levelo://app?vid=447532c0-56ca-46ac-9000-fea47d81b433","ios":"levelo://app?vid=447532c0-56ca-46ac-9000-fea47d81b433"},"vehicle_type_id":"4","last_reported":1706202408,"current_range_meters":17600,"station_id":"ce4bhs92rcd13ifvqi0g","pricing_plan_id":"free"},{"bike_id":"6da9db5a-42ba-4fa8-afc9-4fdbb45498c1","system_id":"levelo_inurba_marseille","lat":43.32824,"lon":5.36677,"is_reserved":false,"is_disabled":false,"rental_uris":{"android":"levelo://app?vid=6da9db5a-42ba-4fa8-afc9-4fdbb45498c1","ios":"levelo://app?vid=6da9db5a-42ba-4fa8-afc9-4fdbb45498c1"},"vehicle_type_id":"4","last_reported":1706202408,"current_range_meters":8800,"station_id":"ce4bhs92rcd13ifvqi0g","pricing_plan_id":"free"},{"bike_id":"1d2af740-2b1a-47d8-912f-ec08474cd61d","system_id":"levelo_inurba_marseille","lat":43.32825,"lon":5.36674,"is_reserved":false,"is_disabled":false,"rental_uris":{"android":"levelo://app?vid=1d2af740-2b1a-47d8-912f-ec08474cd61d","ios":"levelo://app?vid=1d2af740-2b1a-47d8-912f-ec08474cd61d"},"vehicle_type_id":"4","last_reported":1706202408,"current_range_meters":400,"station_id":"ce4bhs92rcd13ifvqi0g","pricing_plan_id":"free"},{"bike_id":"ea0178f3-2c6b-4af6-b062-91b0b8dde1df","system_id":"levelo_inurba_marseille","lat":43.32826,"lon":5.36681,"is_reserved":false,"is_disabled":false,"rental_uris":{"android":"levelo://app?vid=ea0178f3-2c6b-4af6-b062-91b0b8dde1df","ios":"levelo://app?vid=ea0178f3-2c6b-4af6-b062-91b0b8dde1df"},"vehicle_type_id":"4","last_reported":1706202408,"current_range_meters":23600,"station_id":"ce4bhs92rcd13ifvqi0g","pricing_plan_id":"free"},{"bike_id":"85cedcff-9e9a-415d-8415-195178ea3cb7","system_id":"levelo_inurba_marseille","lat":43.32826,"lon":5.36672,"is_reserved":false,"is_disabled":false,"rental_uris":{"android":"levelo://app?vid=85cedcff-9e9a-415d-8415-195178ea3cb7","ios":"levelo://app?vid=85cedcff-9e9a-415d-8415-195178ea3cb7"},"vehicle_type_id":"4","last_reported":1706202408,"current_range_meters":26000,"station_id":"ce4bhs92rcd13ifvqi0g","pricing_plan_id":"free"},{"bike_id":"55c168e6-0d43-4c39-8a05-7fc879c5ff3f","system_id":"levelo_inurba_marseille","lat":43.32826,"lon":5.36665,"is_reserved":false,"is_disabled":false,"rental_uris":{"android":"levelo://app?vid=55c168e6-0d43-4c39-8a05-7fc879c5ff3f","ios":"levelo://app?vid=55c168e6-0d43-4c39-8a05-7fc879c5ff3f"},"vehicle_type_id":"4","last_reported":1706202408,"current_range_meters":0,"station_id":"ce4bhs92rcd13ifvqi0g","pricing_plan_id":"free"},{"bike_id":"e2144cee-6f27-4f74-94a6-27e23191de6d","system_id":"levelo_inurba_marseille","lat":43.32827,"lon":5.36685,"is_reserved":false,"is_disabled":false,"rental_uris":{"android":"levelo://app?vid=e2144cee-6f27-4f74-94a6-27e23191de6d","ios":"levelo://app?vid=e2144cee-6f27-4f74-94a6-27e23191de6d"},"vehicle_type_id":"4","last_reported":1706202408,"current_range_meters":2800,"station_id":"ce4bhs92rcd13ifvqi0g","pricing_plan_id":"free"},{"bike_id":"496f97d1-1e90-413b-bfda-c41ba9cde0d3","system_id":"levelo_inurba_marseille","lat":43.328279,"lon":5.366814,"is_reserved":false,"is_disabled":false,"rental_uris":{"android":"levelo://app?vid=496f97d1-1e90-413b-bfda-c41ba9cde0d3","ios":"levelo://app?vid=496f97d1-1e90-413b-bfda-c41ba9cde0d3"},"vehicle_type_id":"4","last_reported":1706202408,"current_range_meters":19200,"station_id":"ce4bhs92rcd13ifvqi0g","pricing_plan_id":"free"},{"bike_id":"d8b5260c-205c-4300-9784-22ead2fde86f","system_id":"levelo_inurba_marseille","lat":43.328371,"lon":5.366909,"is_reserved":false,"is_disabled":false,"rental_uris":{"android":"levelo://app?vid=d8b5260c-205c-4300-9784-22ead2fde86f","ios":"levelo://app?vid=d8b5260c-205c-4300-9784-22ead2fde86f"},"vehicle_type_id":"4","last_reported":1706202408,"current_range_meters":9200,"station_id":"ce4bhs92rcd13ifvqi0g","pricing_plan_id":"free"},{"bike_id":"e92d083a-dfb9-464f-a2d7-ffc480709cb3","system_id":"levelo_inurba_marseille","lat":43.328371,"lon":5.366909,"is_reserved":false,"is_disabled":false,"rental_uris":{"android":"levelo://app?vid=e92d083a-dfb9-464f-a2d7-ffc480709cb3","ios":"levelo://app?vid=e92d083a-dfb9-464f-a2d7-ffc480709cb3"},"vehicle_type_id":"4","last_reported":1706202408,"current_range_meters":25600,"station_id":"ce4bhs92rcd13ifvqi0g","pricing_plan_id":"free"},{"bike_id":"38d4b3c6-c1c4-4ada-b0ed-8e6826ac2770","system_id":"levelo_inurba_marseille","lat":43.328371,"lon":5.366909,"is_reserved":false,"is_disabled":false,"rental_uris":{"android":"levelo://app?vid=38d4b3c6-c1c4-4ada-b0ed-8e6826ac2770","ios":"levelo://app?vid=38d4b3c6-c1c4-4ada-b0ed-8e6826ac2770"},"vehicle_type_id":"4","last_reported":1706202408,"current_range_meters":31200,"station_id":"ce4bhs92rcd13ifvqi0g","pricing_plan_id":"free"},{"bike_id":"204738f6-469d-4db3-bd14-c2b38ef5e726","system_id":"levelo_inurba_marseille","lat":43.328371,"lon":5.366912,"is_reserved":false,"is_disabled":false,"rental_uris":{"android":"levelo://app?vid=204738f6-469d-4db3-bd14-c2b38ef5e726","ios":"levelo://app?vid=204738f6-469d-4db3-bd14-c2b38ef5e726"},"vehicle_type_id":"4","last_reported":1706202408,"current_range_meters":15200,"station_id":"ce4bhs92rcd13ifvqi0g","pricing_plan_id":"free"},{"bike_id":"79d2d98a-29f2-4ffd-ae01-bfd8a1fa05d5","system_id":"levelo_inurba_marseille","lat":43.328371,"lon":5.366912,"is_reserved":false,"is_disabled":false,"rental_uris":{"android":"levelo://app?vid=79d2d98a-29f2-4ffd-ae01-bfd8a1fa05d5","ios":"levelo://app?vid=79d2d98a-29f2-4ffd-ae01-bfd8a1fa05d5"},"vehicle_type_id":"4","last_reported":1706202408,"current_range_meters":21200,"station_id":"ce4bhs92rcd13ifvqi0g","pricing_plan_id":"free"},{"bike_id":"1b77f93c-c3e4-4823-99d7-2ae997b1c834","system_id":"levelo_inurba_marseille","lat":43.32367,"lon":5.388836,"is_reserved":false,"is_disabled":false,"rental_uris":{"android":"levelo://app?vid=1b77f93c-c3e4-4823-99d7-2ae997b1c834","ios":"levelo://app?vid=1b77f93c-c3e4-4823-99d7-2ae997b1c834"},"vehicle_type_id":"4","last_reported":1706202408,"current_range_meters":14800,"station_id":"ce4bhqp2rcd13ifvqhog","pricing_plan_id":"free"},{"bike_id":"9577c725-3fdd-4818-8ac1-0774a98f3454","system_id":"levelo_inurba_marseille","lat":43.2968,"lon":5.37291,"is_reserved":false,"is_disabled":false,"rental_uris":{"android":"levelo://app?vid=9577c725-3fdd-4818-8ac1-0774a98f3454","ios":"levelo://app?vid=9577c725-3fdd-4818-8ac1-0774a98f3454"},"vehicle_type_id":"4","last_reported":1706202408,"current_range_meters":10800,"station_id":"ce4bgk12rcd13ifvqbj0","pricing_plan_id":"free"},{"bike_id":"cb664713-06af-4ea6-ad8d-bb5ec075b15d","system_id":"levelo_inurba_marseille","lat":43.2968,"lon":5.37291,"is_reserved":false,"is_disabled":false,"rental_uris":{"android":"levelo://app?vid=cb664713-06af-4ea6-ad8d-bb5ec075b15d","ios":"levelo://app?vid=cb664713-06af-4ea6-ad8d-bb5ec075b15d"},"vehicle_type_id":"4","last_reported":1706202408,"current_range_meters":0,"station_id":"ce4bgk12rcd13ifvqbj0","pricing_plan_id":"free"},{"bike_id":"1fa3e458-75df-42eb-a09b-beba3955ac43","system_id":"levelo_inurba_marseille","lat":43.296131,"lon":5.370791,"is_reserved":false,"is_disabled":false,"rental_uris":{"android":"levelo://app?vid=1fa3e458-75df-42eb-a09b-beba3955ac43","ios":"levelo://app?vid=1fa3e458-75df-42eb-a09b-beba3955ac43"},"vehicle_type_id":"4","last_reported":1706202408,"current_range_meters":800,"station_id":"ce4bgnh2rcd13ifvqc0g","pricing_plan_id":"free"},{"bike_id":"c4c1828a-5d4e-46c4-be05-e74c7a54b5d6","system_id":"levelo_inurba_marseille","lat":43.296921,"lon":5.376579,"is_reserved":false,"is_disabled":false,"rental_uris":{"android":"levelo://app?vid=c4c1828a-5d4e-46c4-be05-e74c7a54b5d6","ios":"levelo://app?vid=c4c1828a-5d4e-46c4-be05-e74c7a54b5d6"},"vehicle_type_id":"4","last_reported":1706202408,"current_range_meters":8000,"station_id":"ce4bgkh2rcd13ifvqbl0","pricing_plan_id":"free"},{"bike_id":"9363b0dd-d04b-4359-9c7a-56eb8fc2670f","system_id":"levelo_inurba_marseille","lat":43.309476,"lon":5.39033,"is_reserved":false,"is_disabled":false,"rental_uris":{"android":"levelo://app?vid=9363b0dd-d04b-4359-9c7a-56eb8fc2670f","ios":"levelo://app?vid=9363b0dd-d04b-4359-9c7a-56eb8fc2670f"},"vehicle_type_id":"4","last_reported":1706202408,"current_range_meters":0,"station_id":"","pricing_plan_id":"free"},{"bike_id":"d84d0f6a-6774-47f0-b28a-6c1091fb2963","system_id":"levelo_inurba_marseille","lat":43.304278,"lon":5.388868,"is_reserved":false,"is_disabled":false,"rental_uris":{"android":"levelo://app?vid=d84d0f6a-6774-47f0-b28a-6c1091fb2963","ios":"levelo://app?vid=d84d0f6a-6774-47f0-b28a-6c1091fb2963"},"vehicle_type_id":"4","last_reported":1706202408,"current_range_meters":4000,"station_id":"ce4bgk12rcd13ifvqbi0","pricing_plan_id":"free"},{"bike_id":"7fd1f6a7-1812-4260-bbdf-cb2e51ec17e6","system_id":"levelo_inurba_marseille","lat":43.29972,"lon":5.38487,"is_reserved":false,"is_disabled":false,"rental_uris":{"android":"levelo://app?vid=7fd1f6a7-1812-4260-bbdf-cb2e51ec17e6","ios":"levelo://app?vid=7fd1f6a7-1812-4260-bbdf-cb2e51ec17e6"},"vehicle_type_id":"4","last_reported":1706202408,"current_range_meters":0,"station_id":"ce4bgj92rcd13ifvqbd0","pricing_plan_id":"free"},{"bike_id":"40996b4a-fac6-4cc2-a8e8-9a9ba72f10c9","system_id":"levelo_inurba_marseille","lat":43.298614,"lon":5.383962,"is_reserved":false,"is_disabled":false,"rental_uris":{"android":"levelo://app?vid=40996b4a-fac6-4cc2-a8e8-9a9ba72f10c9","ios":"levelo://app?vid=40996b4a-fac6-4cc2-a8e8-9a9ba72f10c9"},"vehicle_type_id":"4","last_reported":1706202408,"current_range_meters":16000,"station_id":"","pricing_plan_id":"free"},{"bike_id":"5c49c01a-bb90-4495-8e42-7e20df493208","system_id":"levelo_inurba_marseille","lat":43.32365,"lon":5.38865,"is_reserved":false,"is_disabled":false,"rental_uris":{"android":"levelo://app?vid=5c49c01a-bb90-4495-8e42-7e20df493208","ios":"levelo://app?vid=5c49c01a-bb90-4495-8e42-7e20df493208"},"vehicle_type_id":"4","last_reported":1706202408,"current_range_meters":11200,"station_id":"ce4bhqp2rcd13ifvqhog","pricing_plan_id":"free"},{"bike_id":"80d38eac-433a-4419-9c67-47adff43f90d","system_id":"levelo_inurba_marseille","lat":43.32367,"lon":5.388836,"is_reserved":false,"is_disabled":false,"rental_uris":{"android":"levelo://app?vid=80d38eac-433a-4419-9c67-47adff43f90d","ios":"levelo://app?vid=80d38eac-433a-4419-9c67-47adff43f90d"},"vehicle_type_id":"4","last_reported":1706202408,"current_range_meters":22400,"station_id":"ce4bhqp2rcd13ifvqhog","pricing_plan_id":"free"},{"bike_id":"22da8fd2-3adc-4fa6-b23f-78c5c623b32a","system_id":"levelo_inurba_marseille","lat":43.32367,"lon":5.388836,"is_reserved":false,"is_disabled":false,"rental_uris":{"android":"levelo://app?vid=22da8fd2-3adc-4fa6-b23f-78c5c623b32a","ios":"levelo://app?vid=22da8fd2-3adc-4fa6-b23f-78c5c623b32a"},"vehicle_type_id":"4","last_reported":1706202408,"current_range_meters":18400,"station_id":"ce4bhqp2rcd13ifvqhog","pricing_plan_id":"free"},{"bike_id":"e25f5247-dfd6-4d3d-980f-9a02b720acea","system_id":"levelo_inurba_marseille","lat":43.32367,"lon":5.388836,"is_reserved":false,"is_disabled":false,"rental_uris":{"android":"levelo://app?vid=e25f5247-dfd6-4d3d-980f-9a02b720acea","ios":"levelo://app?vid=e25f5247-dfd6-4d3d-980f-9a02b720acea"},"vehicle_type_id":"4","last_reported":1706202408,"current_range_meters":16400,"station_id":"ce4bhqp2rcd13ifvqhog","pricing_plan_id":"free"},{"bike_id":"64876903-6e64-41f2-a6cf-a42f719b77fb","system_id":"levelo_inurba_marseille","lat":43.32367,"lon":5.388836,"is_reserved":false,"is_disabled":false,"rental_uris":{"android":"levelo://app?vid=64876903-6e64-41f2-a6cf-a42f719b77fb","ios":"levelo://app?vid=64876903-6e64-41f2-a6cf-a42f719b77fb"},"vehicle_type_id":"4","last_reported":1706202408,"current_range_meters":19600,"station_id":"ce4bhqp2rcd13ifvqhog","pricing_plan_id":"free"},{"bike_id":"075afd40-a026-497a-805c-5cc1d1b2d8bd","system_id":"levelo_inurba_marseille","lat":43.32367,"lon":5.388836,"is_reserved":false,"is_disabled":false,"rental_uris":{"android":"levelo://app?vid=075afd40-a026-497a-805c-5cc1d1b2d8bd","ios":"levelo://app?vid=075afd40-a026-497a-805c-5cc1d1b2d8bd"},"vehicle_type_id":"4","last_reported":1706202408,"current_range_meters":3200,"station_id":"ce4bhqp2rcd13ifvqhog","pricing_plan_id":"free"},{"bike_id":"394ab8f4-1f75-4dcc-b064-47ac26370c07","system_id":"levelo_inurba_marseille","lat":43.32367,"lon":5.388836,"is_reserved":false,"is_disabled":false,"rental_uris":{"android":"levelo://app?vid=394ab8f4-1f75-4dcc-b064-47ac26370c07","ios":"levelo://app?vid=394ab8f4-1f75-4dcc-b064-47ac26370c07"},"vehicle_type_id":"4","last_reported":1706202408,"current_range_meters":6800,"station_id":"ce4bhqp2rcd13ifvqhog","pricing_plan_id":"free"},{"bike_id":"6d4e98a9-3b8c-4251-9bc4-f50fadfe25a7","system_id":"levelo_inurba_marseille","lat":43.32367,"lon":5.388836,"is_reserved":false,"is_disabled":false,"rental_uris":{"android":"levelo://app?vid=6d4e98a9-3b8c-4251-9bc4-f50fadfe25a7","ios":"levelo://app?vid=6d4e98a9-3b8c-4251-9bc4-f50fadfe25a7"},"vehicle_type_id":"4","last_reported":1706202408,"current_range_meters":28400,"station_id":"ce4bhqp2rcd13ifvqhog","pricing_plan_id":"free"},{"bike_id":"e5d5f999-009a-4b60-b575-37e7ff60d4fc","system_id":"levelo_inurba_marseille","lat":43.32369,"lon":5.38887,"is_reserved":false,"is_disabled":false,"rental_uris":{"android":"levelo://app?vid=e5d5f999-009a-4b60-b575-37e7ff60d4fc","ios":"levelo://app?vid=e5d5f999-009a-4b60-b575-37e7ff60d4fc"},"vehicle_type_id":"4","last_reported":1706202408,"current_range_meters":22800,"station_id":"ce4bhqp2rcd13ifvqhog","pricing_plan_id":"free"},{"bike_id":"b20b2952-bc2c-40b1-8ab2-5cf9787fbef2","system_id":"levelo_inurba_marseille","lat":43.304749,"lon":5.391188,"is_reserved":false,"is_disabled":false,"rental_uris":{"android":"levelo://app?vid=b20b2952-bc2c-40b1-8ab2-5cf9787fbef2","ios":"levelo://app?vid=b20b2952-bc2c-40b1-8ab2-5cf9787fbef2"},"vehicle_type_id":"4","last_reported":1706202408,"current_range_meters":6400,"station_id":"","pricing_plan_id":"free"},{"bike_id":"92f6e95b-299d-4b4c-8ba0-d03f11e73bea","system_id":"levelo_inurba_marseille","lat":43.29601,"lon":5.381084,"is_reserved":false,"is_disabled":false,"rental_uris":{"android":"levelo://app?vid=92f6e95b-299d-4b4c-8ba0-d03f11e73bea","ios":"levelo://app?vid=92f6e95b-299d-4b4c-8ba0-d03f11e73bea"},"vehicle_type_id":"4","last_reported":1706202408,"current_range_meters":18400,"station_id":"ce4bgl12rcd13ifvqbo0","pricing_plan_id":"free"},{"bike_id":"0e97e2e9-45fd-4871-8e65-88f0e69a478f","system_id":"levelo_inurba_marseille","lat":43.29602,"lon":5.381084,"is_reserved":false,"is_disabled":false,"rental_uris":{"android":"levelo://app?vid=0e97e2e9-45fd-4871-8e65-88f0e69a478f","ios":"levelo://app?vid=0e97e2e9-45fd-4871-8e65-88f0e69a478f"},"vehicle_type_id":"4","last_reported":1706202408,"current_range_meters":8000,"station_id":"ce4bgl12rcd13ifvqbo0","pricing_plan_id":"free"},{"bike_id":"657926db-2e5d-4b56-953b-4c4185408044","system_id":"levelo_inurba_marseille","lat":43.293259,"lon":5.371586,"is_reserved":false,"is_disabled":false,"rental_uris":{"android":"levelo://app?vid=657926db-2e5d-4b56-953b-4c4185408044","ios":"levelo://app?vid=657926db-2e5d-4b56-953b-4c4185408044"},"vehicle_type_id":"4","last_reported":1706202408,"current_range_meters":15200,"station_id":"ce4bgh92rcd13ifvqb40","pricing_plan_id":"free"},{"bike_id":"0a2c5014-0c0e-4b27-b0b0-a760337032bc","system_id":"levelo_inurba_marseille","lat":43.293249,"lon":5.371578,"is_reserved":false,"is_disabled":false,"rental_uris":{"android":"levelo://app?vid=0a2c5014-0c0e-4b27-b0b0-a760337032bc","ios":"levelo://app?vid=0a2c5014-0c0e-4b27-b0b0-a760337032bc"},"vehicle_type_id":"4","last_reported":1706202408,"current_range_meters":17200,"station_id":"ce4bgh92rcd13ifvqb40","pricing_plan_id":"free"},{"bike_id":"3686100e-60e1-4496-96d0-6343cf0c56ce","system_id":"levelo_inurba_marseille","lat":43.293259,"lon":5.371586,"is_reserved":false,"is_disabled":false,"rental_uris":{"android":"levelo://app?vid=3686100e-60e1-4496-96d0-6343cf0c56ce","ios":"levelo://app?vid=3686100e-60e1-4496-96d0-6343cf0c56ce"},"vehicle_type_id":"4","last_reported":1706202408,"current_range_meters":20000,"station_id":"ce4bgh92rcd13ifvqb40","pricing_plan_id":"free"},{"bike_id":"af0dd43c-bd6d-435c-89dd-abede7f31eea","system_id":"levelo_inurba_marseille","lat":43.29276,"lon":5.36845,"is_reserved":false,"is_disabled":false,"rental_uris":{"android":"levelo://app?vid=af0dd43c-bd6d-435c-89dd-abede7f31eea","ios":"levelo://app?vid=af0dd43c-bd6d-435c-89dd-abede7f31eea"},"vehicle_type_id":"4","last_reported":1706202408,"current_range_meters":2000,"station_id":"","pricing_plan_id":"free"},{"bike_id":"54cb3717-15dd-4f86-ac52-f879aa0e8038","system_id":"levelo_inurba_marseille","lat":43.290103,"lon":5.356114,"is_reserved":false,"is_disabled":false,"rental_uris":{"android":"levelo://app?vid=54cb3717-15dd-4f86-ac52-f879aa0e8038","ios":"levelo://app?vid=54cb3717-15dd-4f86-ac52-f879aa0e8038"},"vehicle_type_id":"4","last_reported":1706202408,"current_range_meters":7200,"station_id":"ce4bhb92rcd13ifvqen0","pricing_plan_id":"free"},{"bike_id":"20f35adf-01b9-4709-ae8e-9f8e5ceeeeca","system_id":"levelo_inurba_marseille","lat":43.293259,"lon":5.371586,"is_reserved":false,"is_disabled":false,"rental_uris":{"android":"levelo://app?vid=20f35adf-01b9-4709-ae8e-9f8e5ceeeeca","ios":"levelo://app?vid=20f35adf-01b9-4709-ae8e-9f8e5ceeeeca"},"vehicle_type_id":"4","last_reported":1706202408,"current_range_meters":15200,"station_id":"ce4bgh92rcd13ifvqb40","pricing_plan_id":"free"},{"bike_id":"4eb71ac0-ea4f-4c8b-b944-1ac9fce9550f","system_id":"levelo_inurba_marseille","lat":43.296263,"lon":5.377094,"is_reserved":false,"is_disabled":false,"rental_uris":{"android":"levelo://app?vid=4eb71ac0-ea4f-4c8b-b944-1ac9fce9550f","ios":"levelo://app?vid=4eb71ac0-ea4f-4c8b-b944-1ac9fce9550f"},"vehicle_type_id":"4","last_reported":1706202408,"current_range_meters":24800,"station_id":"ce4bgi92rcd13ifvqb90","pricing_plan_id":"free"},{"bike_id":"b245df4e-6283-43a8-89b1-80d0edeb7713","system_id":"levelo_inurba_marseille","lat":43.291675,"lon":5.371583,"is_reserved":false,"is_disabled":false,"rental_uris":{"android":"levelo://app?vid=b245df4e-6283-43a8-89b1-80d0edeb7713","ios":"levelo://app?vid=b245df4e-6283-43a8-89b1-80d0edeb7713"},"vehicle_type_id":"4","last_reported":1706202408,"current_range_meters":0,"station_id":"ce4bha92rcd13ifvqeh0","pricing_plan_id":"free"},{"bike_id":"bb1567b3-f80c-4a74-ae66-e659d4cd2380","system_id":"levelo_inurba_marseille","lat":43.293009,"lon":5.374584,"is_reserved":false,"is_disabled":false,"rental_uris":{"android":"levelo://app?vid=bb1567b3-f80c-4a74-ae66-e659d4cd2380","ios":"levelo://app?vid=bb1567b3-f80c-4a74-ae66-e659d4cd2380"},"vehicle_type_id":"4","last_reported":1706202408,"current_range_meters":8400,"station_id":"ce4bgi12rcd13ifvqb70","pricing_plan_id":"free"},{"bike_id":"9cce038f-1573-4d0a-b023-b3a685f4c534","system_id":"levelo_inurba_marseille","lat":43.303002,"lon":5.392142,"is_reserved":false,"is_disabled":false,"rental_uris":{"android":"levelo://app?vid=9cce038f-1573-4d0a-b023-b3a685f4c534","ios":"levelo://app?vid=9cce038f-1573-4d0a-b023-b3a685f4c534"},"vehicle_type_id":"4","last_reported":1706202408,"current_range_meters":6000,"station_id":"ce4bgkh2rcd13ifvqbk0","pricing_plan_id":"free"},{"bike_id":"805cfed1-cd74-48ba-93f3-ff0a258d226e","system_id":"levelo_inurba_marseille","lat":43.30309,"lon":5.39213,"is_reserved":false,"is_disabled":false,"rental_uris":{"android":"levelo://app?vid=805cfed1-cd74-48ba-93f3-ff0a258d226e","ios":"levelo://app?vid=805cfed1-cd74-48ba-93f3-ff0a258d226e"},"vehicle_type_id":"4","last_reported":1706202408,"current_range_meters":0,"station_id":"","pricing_plan_id":"free"},{"bike_id":"6d6a7805-bc92-452f-9514-b1603dc8139c","system_id":"levelo_inurba_marseille","lat":43.302992,"lon":5.392136,"is_reserved":false,"is_disabled":false,"rental_uris":{"android":"levelo://app?vid=6d6a7805-bc92-452f-9514-b1603dc8139c","ios":"levelo://app?vid=6d6a7805-bc92-452f-9514-b1603dc8139c"},"vehicle_type_id":"4","last_reported":1706202408,"current_range_meters":16000,"station_id":"ce4bgkh2rcd13ifvqbk0","pricing_plan_id":"free"},{"bike_id":"1d7ffa15-2c44-4509-8ba4-a87ef8ef85e4","system_id":"levelo_inurba_marseille","lat":43.302992,"lon":5.392136,"is_reserved":false,"is_disabled":false,"rental_uris":{"android":"levelo://app?vid=1d7ffa15-2c44-4509-8ba4-a87ef8ef85e4","ios":"levelo://app?vid=1d7ffa15-2c44-4509-8ba4-a87ef8ef85e4"},"vehicle_type_id":"4","last_reported":1706202408,"current_range_meters":5600,"station_id":"ce4bgkh2rcd13ifvqbk0","pricing_plan_id":"free"},{"bike_id":"8ac2fba2-dc97-488f-bc28-89380ccca9c5","system_id":"levelo_inurba_marseille","lat":43.29362,"lon":5.37849,"is_reserved":false,"is_disabled":false,"rental_uris":{"android":"levelo://app?vid=8ac2fba2-dc97-488f-bc28-89380ccca9c5","ios":"levelo://app?vid=8ac2fba2-dc97-488f-bc28-89380ccca9c5"},"vehicle_type_id":"4","last_reported":1706202408,"current_range_meters":7600,"station_id":"ce4bgjh2rcd13ifvqbf0","pricing_plan_id":"free"},{"bike_id":"4a6e3545-616e-4c46-b75a-2e2074a1cdd4","system_id":"levelo_inurba_marseille","lat":43.292311,"lon":5.360731,"is_reserved":false,"is_disabled":false,"rental_uris":{"android":"levelo://app?vid=4a6e3545-616e-4c46-b75a-2e2074a1cdd4","ios":"levelo://app?vid=4a6e3545-616e-4c46-b75a-2e2074a1cdd4"},"vehicle_type_id":"4","last_reported":1706202408,"current_range_meters":29200,"station_id":"ce4bhbh2rcd13ifvqeqg","pricing_plan_id":"free"},{"bike_id":"0ddc2989-2212-4374-bfc0-c96995c44305","system_id":"levelo_inurba_marseille","lat":43.30085,"lon":5.390856,"is_reserved":false,"is_disabled":false,"rental_uris":{"android":"levelo://app?vid=0ddc2989-2212-4374-bfc0-c96995c44305","ios":"levelo://app?vid=0ddc2989-2212-4374-bfc0-c96995c44305"},"vehicle_type_id":"4","last_reported":1706202408,"current_range_meters":8800,"station_id":"ce4bh192rcd13ifvqdb0","pricing_plan_id":"free"},{"bike_id":"0ffef87b-6323-4593-ad84-532683aef6b0","system_id":"levelo_inurba_marseille","lat":43.298764,"lon":5.388973,"is_reserved":false,"is_disabled":false,"rental_uris":{"android":"levelo://app?vid=0ffef87b-6323-4593-ad84-532683aef6b0","ios":"levelo://app?vid=0ffef87b-6323-4593-ad84-532683aef6b0"},"vehicle_type_id":"4","last_reported":1706202408,"current_range_meters":15200,"station_id":"ce4bh392rcd13ifvqdl0","pricing_plan_id":"free"},{"bike_id":"526e5f36-47d9-4b9d-84dc-d1ae44f4f0b3","system_id":"levelo_inurba_marseille","lat":43.291675,"lon":5.371583,"is_reserved":false,"is_disabled":false,"rental_uris":{"android":"levelo://app?vid=526e5f36-47d9-4b9d-84dc-d1ae44f4f0b3","ios":"levelo://app?vid=526e5f36-47d9-4b9d-84dc-d1ae44f4f0b3"},"vehicle_type_id":"4","last_reported":1706202408,"current_range_meters":13600,"station_id":"ce4bha92rcd13ifvqeh0","pricing_plan_id":"free"},{"bike_id":"8826efdb-b41c-4e52-a602-7e92a3cc428b","system_id":"levelo_inurba_marseille","lat":43.291675,"lon":5.371583,"is_reserved":false,"is_disabled":false,"rental_uris":{"android":"levelo://app?vid=8826efdb-b41c-4e52-a602-7e92a3cc428b","ios":"levelo://app?vid=8826efdb-b41c-4e52-a602-7e92a3cc428b"},"vehicle_type_id":"4","last_reported":1706202408,"current_range_meters":0,"station_id":"ce4bha92rcd13ifvqeh0","pricing_plan_id":"free"},{"bike_id":"0b941279-d27c-4483-a817-3d294ea0123f","system_id":"levelo_inurba_marseille","lat":43.291671,"lon":5.371575,"is_reserved":false,"is_disabled":false,"rental_uris":{"android":"levelo://app?vid=0b941279-d27c-4483-a817-3d294ea0123f","ios":"levelo://app?vid=0b941279-d27c-4483-a817-3d294ea0123f"},"vehicle_type_id":"4","last_reported":1706202408,"current_range_meters":0,"station_id":"ce4bha92rcd13ifvqeh0","pricing_plan_id":"free"},{"bike_id":"a899fa17-3ae6-47b4-9d61-d1b67d9e4d42","system_id":"levelo_inurba_marseille","lat":43.298764,"lon":5.388973,"is_reserved":false,"is_disabled":false,"rental_uris":{"android":"levelo://app?vid=a899fa17-3ae6-47b4-9d61-d1b67d9e4d42","ios":"levelo://app?vid=a899fa17-3ae6-47b4-9d61-d1b67d9e4d42"},"vehicle_type_id":"4","last_reported":1706202408,"current_range_meters":29600,"station_id":"ce4bh392rcd13ifvqdl0","pricing_plan_id":"free"},{"bike_id":"89fa7060-ae0c-499d-b729-5e724df4978d","system_id":"levelo_inurba_marseille","lat":43.291942,"lon":5.358053,"is_reserved":false,"is_disabled":false,"rental_uris":{"android":"levelo://app?vid=89fa7060-ae0c-499d-b729-5e724df4978d","ios":"levelo://app?vid=89fa7060-ae0c-499d-b729-5e724df4978d"},"vehicle_type_id":"4","last_reported":1706202408,"current_range_meters":31200,"station_id":"ce4bhb12rcd13ifvqel0","pricing_plan_id":"free"},{"bike_id":"1184f1c1-2c50-467e-817a-1e9c36de68ff","system_id":"levelo_inurba_marseille","lat":43.309038,"lon":5.396546,"is_reserved":false,"is_disabled":false,"rental_uris":{"android":"levelo://app?vid=1184f1c1-2c50-467e-817a-1e9c36de68ff","ios":"levelo://app?vid=1184f1c1-2c50-467e-817a-1e9c36de68ff"},"vehicle_type_id":"4","last_reported":1706202408,"current_range_meters":29600,"station_id":"ce4bh012rcd13ifvqcv0","pricing_plan_id":"free"},{"bike_id":"a903d98e-f419-4eb4-8547-151eb94a1cfd","system_id":"levelo_inurba_marseille","lat":43.291724,"lon":5.375251,"is_reserved":false,"is_disabled":false,"rental_uris":{"android":"levelo://app?vid=a903d98e-f419-4eb4-8547-151eb94a1cfd","ios":"levelo://app?vid=a903d98e-f419-4eb4-8547-151eb94a1cfd"},"vehicle_type_id":"4","last_reported":1706202408,"current_range_meters":0,"station_id":"","pricing_plan_id":"free"},{"bike_id":"2bd063c0-a95a-4a04-8914-b8f669a62eae","system_id":"levelo_inurba_marseille","lat":43.309038,"lon":5.396546,"is_reserved":false,"is_disabled":false,"rental_uris":{"android":"levelo://app?vid=2bd063c0-a95a-4a04-8914-b8f669a62eae","ios":"levelo://app?vid=2bd063c0-a95a-4a04-8914-b8f669a62eae"},"vehicle_type_id":"4","last_reported":1706202408,"current_range_meters":13600,"station_id":"ce4bh012rcd13ifvqcv0","pricing_plan_id":"free"},{"bike_id":"4a5628c1-382b-4abc-a022-cc7aeac1a9fa","system_id":"levelo_inurba_marseille","lat":43.309047,"lon":5.396551,"is_reserved":false,"is_disabled":false,"rental_uris":{"android":"levelo://app?vid=4a5628c1-382b-4abc-a022-cc7aeac1a9fa","ios":"levelo://app?vid=4a5628c1-382b-4abc-a022-cc7aeac1a9fa"},"vehicle_type_id":"4","last_reported":1706202408,"current_range_meters":7600,"station_id":"ce4bh012rcd13ifvqcv0","pricing_plan_id":"free"},{"bike_id":"91c2fdc4-cfa9-415a-a622-77386c25de34","system_id":"levelo_inurba_marseille","lat":43.29531,"lon":5.38545,"is_reserved":false,"is_disabled":false,"rental_uris":{"android":"levelo://app?vid=91c2fdc4-cfa9-415a-a622-77386c25de34","ios":"levelo://app?vid=91c2fdc4-cfa9-415a-a622-77386c25de34"},"vehicle_type_id":"4","last_reported":1706202408,"current_range_meters":19200,"station_id":"","pricing_plan_id":"free"},{"bike_id":"929e4e98-7af8-4438-9f5c-6ab8b50746cb","system_id":"levelo_inurba_marseille","lat":43.29529,"lon":5.385581,"is_reserved":false,"is_disabled":false,"rental_uris":{"android":"levelo://app?vid=929e4e98-7af8-4438-9f5c-6ab8b50746cb","ios":"levelo://app?vid=929e4e98-7af8-4438-9f5c-6ab8b50746cb"},"vehicle_type_id":"4","last_reported":1706202408,"current_range_meters":26400,"station_id":"ce4bgih2rcd13ifvqba0","pricing_plan_id":"free"},{"bike_id":"f0303a38-9da5-4434-af20-8b27e554ddf7","system_id":"levelo_inurba_marseille","lat":43.29529,"lon":5.385581,"is_reserved":false,"is_disabled":false,"rental_uris":{"android":"levelo://app?vid=f0303a38-9da5-4434-af20-8b27e554ddf7","ios":"levelo://app?vid=f0303a38-9da5-4434-af20-8b27e554ddf7"},"vehicle_type_id":"4","last_reported":1706202408,"current_range_meters":20400,"station_id":"ce4bgih2rcd13ifvqba0","pricing_plan_id":"free"},{"bike_id":"8d189235-6194-4351-947b-17704fe0bdfe","system_id":"levelo_inurba_marseille","lat":43.29529,"lon":5.385581,"is_reserved":false,"is_disabled":false,"rental_uris":{"android":"levelo://app?vid=8d189235-6194-4351-947b-17704fe0bdfe","ios":"levelo://app?vid=8d189235-6194-4351-947b-17704fe0bdfe"},"vehicle_type_id":"4","last_reported":1706202408,"current_range_meters":2400,"station_id":"ce4bgih2rcd13ifvqba0","pricing_plan_id":"free"},{"bike_id":"4f0dba9f-02d3-480b-8b17-243070e156c7","system_id":"levelo_inurba_marseille","lat":43.29529,"lon":5.385581,"is_reserved":false,"is_disabled":false,"rental_uris":{"android":"levelo://app?vid=4f0dba9f-02d3-480b-8b17-243070e156c7","ios":"levelo://app?vid=4f0dba9f-02d3-480b-8b17-243070e156c7"},"vehicle_type_id":"4","last_reported":1706202408,"current_range_meters":24800,"station_id":"ce4bgih2rcd13ifvqba0","pricing_plan_id":"free"},{"bike_id":"d3030b6b-a27b-47ac-ade4-10ff7c323e8f","system_id":"levelo_inurba_marseille","lat":43.290631,"lon":5.359244,"is_reserved":false,"is_disabled":false,"rental_uris":{"android":"levelo://app?vid=d3030b6b-a27b-47ac-ade4-10ff7c323e8f","ios":"levelo://app?vid=d3030b6b-a27b-47ac-ade4-10ff7c323e8f"},"vehicle_type_id":"4","last_reported":1706202408,"current_range_meters":13600,"station_id":"ce4bha92rcd13ifvqeg0","pricing_plan_id":"free"},{"bike_id":"94f55e8a-ef64-46e6-9b0a-8c71cc5a73a3","system_id":"levelo_inurba_marseille","lat":43.290624,"lon":5.359245,"is_reserved":false,"is_disabled":false,"rental_uris":{"android":"levelo://app?vid=94f55e8a-ef64-46e6-9b0a-8c71cc5a73a3","ios":"levelo://app?vid=94f55e8a-ef64-46e6-9b0a-8c71cc5a73a3"},"vehicle_type_id":"4","last_reported":1706202408,"current_range_meters":22400,"station_id":"ce4bha92rcd13ifvqeg0","pricing_plan_id":"free"},{"bike_id":"6d034c04-7b40-4b1d-9aa7-8b389c255b3e","system_id":"levelo_inurba_marseille","lat":43.294162,"lon":5.386292,"is_reserved":false,"is_disabled":false,"rental_uris":{"android":"levelo://app?vid=6d034c04-7b40-4b1d-9aa7-8b389c255b3e","ios":"levelo://app?vid=6d034c04-7b40-4b1d-9aa7-8b389c255b3e"},"vehicle_type_id":"4","last_reported":1706202408,"current_range_meters":19200,"station_id":"ce4bh2h2rcd13ifvqdh0","pricing_plan_id":"free"},{"bike_id":"aefd26f2-7def-49f0-9c3a-26d3d9056314","system_id":"levelo_inurba_marseille","lat":43.294153,"lon":5.386305,"is_reserved":false,"is_disabled":false,"rental_uris":{"android":"levelo://app?vid=aefd26f2-7def-49f0-9c3a-26d3d9056314","ios":"levelo://app?vid=aefd26f2-7def-49f0-9c3a-26d3d9056314"},"vehicle_type_id":"4","last_reported":1706202408,"current_range_meters":12400,"station_id":"ce4bh2h2rcd13ifvqdh0","pricing_plan_id":"free"},{"bike_id":"683c323a-f4d0-4b5b-bd4f-3ccfaa3ba144","system_id":"levelo_inurba_marseille","lat":43.292642,"lon":5.384254,"is_reserved":false,"is_disabled":false,"rental_uris":{"android":"levelo://app?vid=683c323a-f4d0-4b5b-bd4f-3ccfaa3ba144","ios":"levelo://app?vid=683c323a-f4d0-4b5b-bd4f-3ccfaa3ba144"},"vehicle_type_id":"4","last_reported":1706202408,"current_range_meters":20400,"station_id":"ce4bh692rcd13ifvqea0","pricing_plan_id":"free"},{"bike_id":"8a6bc0ca-c68a-43ae-94fc-32c5b940c8d8","system_id":"levelo_inurba_marseille","lat":43.294153,"lon":5.386305,"is_reserved":false,"is_disabled":false,"rental_uris":{"android":"levelo://app?vid=8a6bc0ca-c68a-43ae-94fc-32c5b940c8d8","ios":"levelo://app?vid=8a6bc0ca-c68a-43ae-94fc-32c5b940c8d8"},"vehicle_type_id":"4","last_reported":1706202408,"current_range_meters":16000,"station_id":"ce4bh2h2rcd13ifvqdh0","pricing_plan_id":"free"},{"bike_id":"dd4507d9-4deb-4109-8127-320de37f9a1f","system_id":"levelo_inurba_marseille","lat":43.294162,"lon":5.386292,"is_reserved":false,"is_disabled":false,"rental_uris":{"android":"levelo://app?vid=dd4507d9-4deb-4109-8127-320de37f9a1f","ios":"levelo://app?vid=dd4507d9-4deb-4109-8127-320de37f9a1f"},"vehicle_type_id":"4","last_reported":1706202408,"current_range_meters":18400,"station_id":"ce4bh2h2rcd13ifvqdh0","pricing_plan_id":"free"},{"bike_id":"776bfad1-1457-4197-8b36-b7f6e483d459","system_id":"levelo_inurba_marseille","lat":43.2894,"lon":5.36643,"is_reserved":false,"is_disabled":false,"rental_uris":{"android":"levelo://app?vid=776bfad1-1457-4197-8b36-b7f6e483d459","ios":"levelo://app?vid=776bfad1-1457-4197-8b36-b7f6e483d459"},"vehicle_type_id":"4","last_reported":1706202408,"current_range_meters":1200,"station_id":"","pricing_plan_id":"free"},{"bike_id":"d5a3d8d2-912e-45b9-be50-53b72d4ac0b7","system_id":"levelo_inurba_marseille","lat":43.29417,"lon":5.38637,"is_reserved":false,"is_disabled":false,"rental_uris":{"android":"levelo://app?vid=d5a3d8d2-912e-45b9-be50-53b72d4ac0b7","ios":"levelo://app?vid=d5a3d8d2-912e-45b9-be50-53b72d4ac0b7"},"vehicle_type_id":"4","last_reported":1706202408,"current_range_meters":0,"station_id":"ce4bh2h2rcd13ifvqdh0","pricing_plan_id":"free"},{"bike_id":"a8e1e8b0-837f-477d-bdca-55d799d02f66","system_id":"levelo_inurba_marseille","lat":43.289468,"lon":5.363719,"is_reserved":false,"is_disabled":false,"rental_uris":{"android":"levelo://app?vid=a8e1e8b0-837f-477d-bdca-55d799d02f66","ios":"levelo://app?vid=a8e1e8b0-837f-477d-bdca-55d799d02f66"},"vehicle_type_id":"4","last_reported":1706202408,"current_range_meters":2800,"station_id":"ce4bhc92rcd13ifvqetg","pricing_plan_id":"free"},{"bike_id":"cfbb983e-40c5-4001-9b02-db03dee0ef00","system_id":"levelo_inurba_marseille","lat":43.289184,"lon":5.366408,"is_reserved":false,"is_disabled":false,"rental_uris":{"android":"levelo://app?vid=cfbb983e-40c5-4001-9b02-db03dee0ef00","ios":"levelo://app?vid=cfbb983e-40c5-4001-9b02-db03dee0ef00"},"vehicle_type_id":"4","last_reported":1706202408,"current_range_meters":10800,"station_id":"ce4bhap2rcd13ifvqek0","pricing_plan_id":"free"},{"bike_id":"8743291f-61e6-4f53-9240-a91a538db11d","system_id":"levelo_inurba_marseille","lat":43.294162,"lon":5.386292,"is_reserved":false,"is_disabled":false,"rental_uris":{"android":"levelo://app?vid=8743291f-61e6-4f53-9240-a91a538db11d","ios":"levelo://app?vid=8743291f-61e6-4f53-9240-a91a538db11d"},"vehicle_type_id":"4","last_reported":1706202408,"current_range_meters":9600,"station_id":"ce4bh2h2rcd13ifvqdh0","pricing_plan_id":"free"},{"bike_id":"77dea817-d67f-45b6-8ac0-e0a2ef0e3ecb","system_id":"levelo_inurba_marseille","lat":43.289184,"lon":5.366408,"is_reserved":false,"is_disabled":false,"rental_uris":{"android":"levelo://app?vid=77dea817-d67f-45b6-8ac0-e0a2ef0e3ecb","ios":"levelo://app?vid=77dea817-d67f-45b6-8ac0-e0a2ef0e3ecb"},"vehicle_type_id":"4","last_reported":1706202408,"current_range_meters":12800,"station_id":"ce4bhap2rcd13ifvqek0","pricing_plan_id":"free"},{"bike_id":"80e5bf77-d4ed-43cc-9e3c-7a5168bae454","system_id":"levelo_inurba_marseille","lat":43.289184,"lon":5.366408,"is_reserved":false,"is_disabled":false,"rental_uris":{"android":"levelo://app?vid=80e5bf77-d4ed-43cc-9e3c-7a5168bae454","ios":"levelo://app?vid=80e5bf77-d4ed-43cc-9e3c-7a5168bae454"},"vehicle_type_id":"4","last_reported":1706202408,"current_range_meters":13200,"station_id":"ce4bhap2rcd13ifvqek0","pricing_plan_id":"free"},{"bike_id":"762be2c0-96eb-462e-a624-1ea3879ce47a","system_id":"levelo_inurba_marseille","lat":43.289184,"lon":5.366408,"is_reserved":false,"is_disabled":false,"rental_uris":{"android":"levelo://app?vid=762be2c0-96eb-462e-a624-1ea3879ce47a","ios":"levelo://app?vid=762be2c0-96eb-462e-a624-1ea3879ce47a"},"vehicle_type_id":"4","last_reported":1706202408,"current_range_meters":18800,"station_id":"ce4bhap2rcd13ifvqek0","pricing_plan_id":"free"},{"bike_id":"b4b24a78-fcbd-4e14-9f42-7ceb8d956188","system_id":"levelo_inurba_marseille","lat":43.292642,"lon":5.384254,"is_reserved":false,"is_disabled":false,"rental_uris":{"android":"levelo://app?vid=b4b24a78-fcbd-4e14-9f42-7ceb8d956188","ios":"levelo://app?vid=b4b24a78-fcbd-4e14-9f42-7ceb8d956188"},"vehicle_type_id":"4","last_reported":1706202408,"current_range_meters":15200,"station_id":"ce4bh692rcd13ifvqea0","pricing_plan_id":"free"},{"bike_id":"4699ff44-dc72-4d26-b2d2-fa549dad0e9f","system_id":"levelo_inurba_marseille","lat":43.290995,"lon":5.381361,"is_reserved":false,"is_disabled":false,"rental_uris":{"android":"levelo://app?vid=4699ff44-dc72-4d26-b2d2-fa549dad0e9f","ios":"levelo://app?vid=4699ff44-dc72-4d26-b2d2-fa549dad0e9f"},"vehicle_type_id":"4","last_reported":1706202408,"current_range_meters":400,"station_id":"ce4bh512rcd13ifvqe2g","pricing_plan_id":"free"},{"bike_id":"e0d0bc2e-64cf-43fd-b10d-36b0f4c60df2","system_id":"levelo_inurba_marseille","lat":43.289743,"lon":5.378304,"is_reserved":false,"is_disabled":false,"rental_uris":{"android":"levelo://app?vid=e0d0bc2e-64cf-43fd-b10d-36b0f4c60df2","ios":"levelo://app?vid=e0d0bc2e-64cf-43fd-b10d-36b0f4c60df2"},"vehicle_type_id":"4","last_reported":1706202408,"current_range_meters":7200,"station_id":"ce4bh9p2rcd13ifvqed0","pricing_plan_id":"free"},{"bike_id":"404837cf-376f-4bbd-823c-6cd3096622cb","system_id":"levelo_inurba_marseille","lat":43.292642,"lon":5.384254,"is_reserved":false,"is_disabled":false,"rental_uris":{"android":"levelo://app?vid=404837cf-376f-4bbd-823c-6cd3096622cb","ios":"levelo://app?vid=404837cf-376f-4bbd-823c-6cd3096622cb"},"vehicle_type_id":"4","last_reported":1706202408,"current_range_meters":0,"station_id":"ce4bh692rcd13ifvqea0","pricing_plan_id":"free"},{"bike_id":"7431088e-2a57-4af0-a396-e85fab817af2","system_id":"levelo_inurba_marseille","lat":43.295169,"lon":5.390426,"is_reserved":false,"is_disabled":false,"rental_uris":{"android":"levelo://app?vid=7431088e-2a57-4af0-a396-e85fab817af2","ios":"levelo://app?vid=7431088e-2a57-4af0-a396-e85fab817af2"},"vehicle_type_id":"4","last_reported":1706202408,"current_range_meters":6000,"station_id":"ce4bh3p2rcd13ifvqdp0","pricing_plan_id":"free"},{"bike_id":"3439b429-36d0-41d5-9a1d-952653cabceb","system_id":"levelo_inurba_marseille","lat":43.28856,"lon":5.358371,"is_reserved":false,"is_disabled":false,"rental_uris":{"android":"levelo://app?vid=3439b429-36d0-41d5-9a1d-952653cabceb","ios":"levelo://app?vid=3439b429-36d0-41d5-9a1d-952653cabceb"},"vehicle_type_id":"4","last_reported":1706202408,"current_range_meters":22800,"station_id":"ce4bhb12rcd13ifvqem0","pricing_plan_id":"free"},{"bike_id":"64f21671-d105-4366-bce7-60da39faf27a","system_id":"levelo_inurba_marseille","lat":43.28856,"lon":5.358371,"is_reserved":false,"is_disabled":false,"rental_uris":{"android":"levelo://app?vid=64f21671-d105-4366-bce7-60da39faf27a","ios":"levelo://app?vid=64f21671-d105-4366-bce7-60da39faf27a"},"vehicle_type_id":"4","last_reported":1706202408,"current_range_meters":21200,"station_id":"ce4bhb12rcd13ifvqem0","pricing_plan_id":"free"},{"bike_id":"4adb3c72-3cea-4281-9a4f-8bc1bf49e07b","system_id":"levelo_inurba_marseille","lat":43.28856,"lon":5.358371,"is_reserved":false,"is_disabled":false,"rental_uris":{"android":"levelo://app?vid=4adb3c72-3cea-4281-9a4f-8bc1bf49e07b","ios":"levelo://app?vid=4adb3c72-3cea-4281-9a4f-8bc1bf49e07b"},"vehicle_type_id":"4","last_reported":1706202408,"current_range_meters":0,"station_id":"ce4bhb12rcd13ifvqem0","pricing_plan_id":"free"},{"bike_id":"8fe24b03-a3a8-40e3-98a3-ee452b3505fe","system_id":"levelo_inurba_marseille","lat":43.33733,"lon":5.37446,"is_reserved":false,"is_disabled":false,"rental_uris":{"android":"levelo://app?vid=8fe24b03-a3a8-40e3-98a3-ee452b3505fe","ios":"levelo://app?vid=8fe24b03-a3a8-40e3-98a3-ee452b3505fe"},"vehicle_type_id":"4","last_reported":1706202408,"current_range_meters":25600,"station_id":"","pricing_plan_id":"free"},{"bike_id":"07bb8619-2be0-4e2b-8979-3c25f0d36d57","system_id":"levelo_inurba_marseille","lat":43.33744,"lon":5.37434,"is_reserved":false,"is_disabled":false,"rental_uris":{"android":"levelo://app?vid=07bb8619-2be0-4e2b-8979-3c25f0d36d57","ios":"levelo://app?vid=07bb8619-2be0-4e2b-8979-3c25f0d36d57"},"vehicle_type_id":"4","last_reported":1706202408,"current_range_meters":26000,"station_id":"","pricing_plan_id":"free"},{"bike_id":"01ebce04-3675-4da6-86f3-7556a77ee451","system_id":"levelo_inurba_marseille","lat":43.30925,"lon":5.40152,"is_reserved":false,"is_disabled":false,"rental_uris":{"android":"levelo://app?vid=01ebce04-3675-4da6-86f3-7556a77ee451","ios":"levelo://app?vid=01ebce04-3675-4da6-86f3-7556a77ee451"},"vehicle_type_id":"4","last_reported":1706202408,"current_range_meters":18400,"station_id":"ce4bgvp2rcd13ifvqct0","pricing_plan_id":"free"},{"bike_id":"34293494-c639-448f-8fb1-417ac402be89","system_id":"levelo_inurba_marseille","lat":43.337573,"lon":5.374586,"is_reserved":false,"is_disabled":false,"rental_uris":{"android":"levelo://app?vid=34293494-c639-448f-8fb1-417ac402be89","ios":"levelo://app?vid=34293494-c639-448f-8fb1-417ac402be89"},"vehicle_type_id":"4","last_reported":1706202408,"current_range_meters":25600,"station_id":"","pricing_plan_id":"free"},{"bike_id":"6b831be4-3234-41ba-85bf-215803acd38d","system_id":"levelo_inurba_marseille","lat":43.337573,"lon":5.37459,"is_reserved":false,"is_disabled":false,"rental_uris":{"android":"levelo://app?vid=6b831be4-3234-41ba-85bf-215803acd38d","ios":"levelo://app?vid=6b831be4-3234-41ba-85bf-215803acd38d"},"vehicle_type_id":"4","last_reported":1706202408,"current_range_meters":27200,"station_id":"","pricing_plan_id":"free"},{"bike_id":"53c6aa1e-7b39-4da8-aeb9-17ddeb9e4271","system_id":"levelo_inurba_marseille","lat":43.337588,"lon":5.374579,"is_reserved":false,"is_disabled":false,"rental_uris":{"android":"levelo://app?vid=53c6aa1e-7b39-4da8-aeb9-17ddeb9e4271","ios":"levelo://app?vid=53c6aa1e-7b39-4da8-aeb9-17ddeb9e4271"},"vehicle_type_id":"4","last_reported":1706202408,"current_range_meters":31200,"station_id":"","pricing_plan_id":"free"},{"bike_id":"338f1852-3770-4b76-b47c-a2e832e3cd19","system_id":"levelo_inurba_marseille","lat":43.306412,"lon":5.401035,"is_reserved":false,"is_disabled":false,"rental_uris":{"android":"levelo://app?vid=338f1852-3770-4b76-b47c-a2e832e3cd19","ios":"levelo://app?vid=338f1852-3770-4b76-b47c-a2e832e3cd19"},"vehicle_type_id":"4","last_reported":1706202408,"current_range_meters":10800,"station_id":"ce4bh112rcd13ifvqda0","pricing_plan_id":"free"},{"bike_id":"3e1f1e9d-c068-48d9-ae26-5e0426ba3f50","system_id":"levelo_inurba_marseille","lat":43.30927,"lon":5.40162,"is_reserved":false,"is_disabled":false,"rental_uris":{"android":"levelo://app?vid=3e1f1e9d-c068-48d9-ae26-5e0426ba3f50","ios":"levelo://app?vid=3e1f1e9d-c068-48d9-ae26-5e0426ba3f50"},"vehicle_type_id":"4","last_reported":1706202408,"current_range_meters":31200,"station_id":"ce4bgvp2rcd13ifvqct0","pricing_plan_id":"free"},{"bike_id":"fd852a40-f5a3-4e16-9629-34bcf78700bc","system_id":"levelo_inurba_marseille","lat":43.30642,"lon":5.401031,"is_reserved":false,"is_disabled":false,"rental_uris":{"android":"levelo://app?vid=fd852a40-f5a3-4e16-9629-34bcf78700bc","ios":"levelo://app?vid=fd852a40-f5a3-4e16-9629-34bcf78700bc"},"vehicle_type_id":"4","last_reported":1706202408,"current_range_meters":8400,"station_id":"ce4bh112rcd13ifvqda0","pricing_plan_id":"free"},{"bike_id":"2ead78e3-7187-433d-bd1c-ad75a68bd0e2","system_id":"levelo_inurba_marseille","lat":43.306412,"lon":5.401035,"is_reserved":false,"is_disabled":false,"rental_uris":{"android":"levelo://app?vid=2ead78e3-7187-433d-bd1c-ad75a68bd0e2","ios":"levelo://app?vid=2ead78e3-7187-433d-bd1c-ad75a68bd0e2"},"vehicle_type_id":"4","last_reported":1706202408,"current_range_meters":7200,"station_id":"ce4bh112rcd13ifvqda0","pricing_plan_id":"free"},{"bike_id":"647ed57e-922f-4d77-89a5-3078651b1cb8","system_id":"levelo_inurba_marseille","lat":43.28727,"lon":5.36078,"is_reserved":false,"is_disabled":false,"rental_uris":{"android":"levelo://app?vid=647ed57e-922f-4d77-89a5-3078651b1cb8","ios":"levelo://app?vid=647ed57e-922f-4d77-89a5-3078651b1cb8"},"vehicle_type_id":"4","last_reported":1706202408,"current_range_meters":4000,"station_id":"cki0cbj6b192h4jlfktg","pricing_plan_id":"free"},{"bike_id":"908c1a0e-c946-4188-8d81-1dfb67193f69","system_id":"levelo_inurba_marseille","lat":43.30129,"lon":5.39875,"is_reserved":false,"is_disabled":false,"rental_uris":{"android":"levelo://app?vid=908c1a0e-c946-4188-8d81-1dfb67193f69","ios":"levelo://app?vid=908c1a0e-c946-4188-8d81-1dfb67193f69"},"vehicle_type_id":"4","last_reported":1706202408,"current_range_meters":1600,"station_id":"ce4bh0h2rcd13ifvqd40","pricing_plan_id":"free"},{"bike_id":"65de5cae-1be0-491b-8592-12a0a1d19e29","system_id":"levelo_inurba_marseille","lat":43.28727,"lon":5.36078,"is_reserved":false,"is_disabled":false,"rental_uris":{"android":"levelo://app?vid=65de5cae-1be0-491b-8592-12a0a1d19e29","ios":"levelo://app?vid=65de5cae-1be0-491b-8592-12a0a1d19e29"},"vehicle_type_id":"4","last_reported":1706202408,"current_range_meters":8800,"station_id":"cki0cbj6b192h4jlfktg","pricing_plan_id":"free"},{"bike_id":"f964ee8b-65d6-4449-9e16-f6c084f710d2","system_id":"levelo_inurba_marseille","lat":43.28727,"lon":5.36078,"is_reserved":false,"is_disabled":false,"rental_uris":{"android":"levelo://app?vid=f964ee8b-65d6-4449-9e16-f6c084f710d2","ios":"levelo://app?vid=f964ee8b-65d6-4449-9e16-f6c084f710d2"},"vehicle_type_id":"4","last_reported":1706202408,"current_range_meters":6400,"station_id":"cki0cbj6b192h4jlfktg","pricing_plan_id":"free"},{"bike_id":"97910466-d090-4fa4-ba64-e1e6692b87e4","system_id":"levelo_inurba_marseille","lat":43.286961,"lon":5.373785,"is_reserved":false,"is_disabled":false,"rental_uris":{"android":"levelo://app?vid=97910466-d090-4fa4-ba64-e1e6692b87e4","ios":"levelo://app?vid=97910466-d090-4fa4-ba64-e1e6692b87e4"},"vehicle_type_id":"4","last_reported":1706202408,"current_range_meters":0,"station_id":"ce4bh3p2rcd13ifvqdq0","pricing_plan_id":"free"},{"bike_id":"a7069b43-3ca1-430a-8242-318350859379","system_id":"levelo_inurba_marseille","lat":43.286591,"lon":5.363346,"is_reserved":false,"is_disabled":false,"rental_uris":{"android":"levelo://app?vid=a7069b43-3ca1-430a-8242-318350859379","ios":"levelo://app?vid=a7069b43-3ca1-430a-8242-318350859379"},"vehicle_type_id":"4","last_reported":1706202408,"current_range_meters":30400,"station_id":"ce4bhah2rcd13ifvqej0","pricing_plan_id":"free"},{"bike_id":"51a0e7ff-9744-4562-b6a0-b5f17625950c","system_id":"levelo_inurba_marseille","lat":43.286591,"lon":5.363346,"is_reserved":false,"is_disabled":false,"rental_uris":{"android":"levelo://app?vid=51a0e7ff-9744-4562-b6a0-b5f17625950c","ios":"levelo://app?vid=51a0e7ff-9744-4562-b6a0-b5f17625950c"},"vehicle_type_id":"4","last_reported":1706202408,"current_range_meters":22800,"station_id":"ce4bhah2rcd13ifvqej0","pricing_plan_id":"free"},{"bike_id":"73f7f041-38c6-4fb9-b5d3-2b2fc7d01c4b","system_id":"levelo_inurba_marseille","lat":43.298681,"lon":5.397225,"is_reserved":false,"is_disabled":false,"rental_uris":{"android":"levelo://app?vid=73f7f041-38c6-4fb9-b5d3-2b2fc7d01c4b","ios":"levelo://app?vid=73f7f041-38c6-4fb9-b5d3-2b2fc7d01c4b"},"vehicle_type_id":"4","last_reported":1706202408,"current_range_meters":2400,"station_id":"ce4bh0h2rcd13ifvqd50","pricing_plan_id":"free"},{"bike_id":"7296d57b-bd3a-4369-aa9b-2c1e7961a172","system_id":"levelo_inurba_marseille","lat":43.286591,"lon":5.363346,"is_reserved":false,"is_disabled":false,"rental_uris":{"android":"levelo://app?vid=7296d57b-bd3a-4369-aa9b-2c1e7961a172","ios":"levelo://app?vid=7296d57b-bd3a-4369-aa9b-2c1e7961a172"},"vehicle_type_id":"4","last_reported":1706202408,"current_range_meters":0,"station_id":"ce4bhah2rcd13ifvqej0","pricing_plan_id":"free"},{"bike_id":"425fd4f0-1404-4445-9907-39652f928b24","system_id":"levelo_inurba_marseille","lat":43.286961,"lon":5.373785,"is_reserved":false,"is_disabled":false,"rental_uris":{"android":"levelo://app?vid=425fd4f0-1404-4445-9907-39652f928b24","ios":"levelo://app?vid=425fd4f0-1404-4445-9907-39652f928b24"},"vehicle_type_id":"4","last_reported":1706202408,"current_range_meters":13200,"station_id":"ce4bh3p2rcd13ifvqdq0","pricing_plan_id":"free"},{"bike_id":"be5d7504-047f-41e2-963d-34872d438177","system_id":"levelo_inurba_marseille","lat":43.286961,"lon":5.373785,"is_reserved":false,"is_disabled":false,"rental_uris":{"android":"levelo://app?vid=be5d7504-047f-41e2-963d-34872d438177","ios":"levelo://app?vid=be5d7504-047f-41e2-963d-34872d438177"},"vehicle_type_id":"4","last_reported":1706202408,"current_range_meters":20800,"station_id":"ce4bh3p2rcd13ifvqdq0","pricing_plan_id":"free"},{"bike_id":"f3470e51-07a1-4502-8876-5cecf6a3a1ac","system_id":"levelo_inurba_marseille","lat":43.286591,"lon":5.363346,"is_reserved":false,"is_disabled":false,"rental_uris":{"android":"levelo://app?vid=f3470e51-07a1-4502-8876-5cecf6a3a1ac","ios":"levelo://app?vid=f3470e51-07a1-4502-8876-5cecf6a3a1ac"},"vehicle_type_id":"4","last_reported":1706202408,"current_range_meters":4800,"station_id":"ce4bhah2rcd13ifvqej0","pricing_plan_id":"free"},{"bike_id":"72dba198-13d1-44c4-8fa8-dcfe9d3acbb5","system_id":"levelo_inurba_marseille","lat":43.286961,"lon":5.373785,"is_reserved":false,"is_disabled":false,"rental_uris":{"android":"levelo://app?vid=72dba198-13d1-44c4-8fa8-dcfe9d3acbb5","ios":"levelo://app?vid=72dba198-13d1-44c4-8fa8-dcfe9d3acbb5"},"vehicle_type_id":"4","last_reported":1706202408,"current_range_meters":1600,"station_id":"ce4bh3p2rcd13ifvqdq0","pricing_plan_id":"free"},{"bike_id":"1e238482-9904-48b4-8b14-b45cfe3d0680","system_id":"levelo_inurba_marseille","lat":43.2952,"lon":5.39397,"is_reserved":false,"is_disabled":false,"rental_uris":{"android":"levelo://app?vid=1e238482-9904-48b4-8b14-b45cfe3d0680","ios":"levelo://app?vid=1e238482-9904-48b4-8b14-b45cfe3d0680"},"vehicle_type_id":"4","last_reported":1706202408,"current_range_meters":0,"station_id":"ce4bh292rcd13ifvqdf0","pricing_plan_id":"free"},{"bike_id":"68a82d4e-bd54-479f-9de3-76bf61de668b","system_id":"levelo_inurba_marseille","lat":43.295196,"lon":5.39397,"is_reserved":false,"is_disabled":false,"rental_uris":{"android":"levelo://app?vid=68a82d4e-bd54-479f-9de3-76bf61de668b","ios":"levelo://app?vid=68a82d4e-bd54-479f-9de3-76bf61de668b"},"vehicle_type_id":"4","last_reported":1706202408,"current_range_meters":10400,"station_id":"ce4bh292rcd13ifvqdf0","pricing_plan_id":"free"},{"bike_id":"b3334c55-b59f-4967-8628-7c79271d0e7d","system_id":"levelo_inurba_marseille","lat":43.302759,"lon":5.400793,"is_reserved":false,"is_disabled":false,"rental_uris":{"android":"levelo://app?vid=b3334c55-b59f-4967-8628-7c79271d0e7d","ios":"levelo://app?vid=b3334c55-b59f-4967-8628-7c79271d0e7d"},"vehicle_type_id":"4","last_reported":1706202408,"current_range_meters":0,"station_id":"ce4bgvh2rcd13ifvqcs0","pricing_plan_id":"free"},{"bike_id":"cf9d8e85-9885-404b-bec8-952097c29bba","system_id":"levelo_inurba_marseille","lat":43.295196,"lon":5.39397,"is_reserved":false,"is_disabled":false,"rental_uris":{"android":"levelo://app?vid=cf9d8e85-9885-404b-bec8-952097c29bba","ios":"levelo://app?vid=cf9d8e85-9885-404b-bec8-952097c29bba"},"vehicle_type_id":"4","last_reported":1706202408,"current_range_meters":6000,"station_id":"ce4bh292rcd13ifvqdf0","pricing_plan_id":"free"},{"bike_id":"94508ee9-5cf8-4e32-a6d7-7b61fa5acf2f","system_id":"levelo_inurba_marseille","lat":43.293009,"lon":5.374584,"is_reserved":false,"is_disabled":false,"rental_uris":{"android":"levelo://app?vid=94508ee9-5cf8-4e32-a6d7-7b61fa5acf2f","ios":"levelo://app?vid=94508ee9-5cf8-4e32-a6d7-7b61fa5acf2f"},"vehicle_type_id":"4","last_reported":1706202408,"current_range_meters":10400,"station_id":"ce4bgi12rcd13ifvqb70","pricing_plan_id":"free"},{"bike_id":"edce5ae0-a973-4b90-9a5a-07b962a69210","system_id":"levelo_inurba_marseille","lat":43.29025,"lon":5.38638,"is_reserved":false,"is_disabled":false,"rental_uris":{"android":"levelo://app?vid=edce5ae0-a973-4b90-9a5a-07b962a69210","ios":"levelo://app?vid=edce5ae0-a973-4b90-9a5a-07b962a69210"},"vehicle_type_id":"4","last_reported":1706202408,"current_range_meters":0,"station_id":"","pricing_plan_id":"free"},{"bike_id":"fdf6cda7-8c50-4766-a8a8-aed18852d5a6","system_id":"levelo_inurba_marseille","lat":43.290336,"lon":5.386425,"is_reserved":false,"is_disabled":false,"rental_uris":{"android":"levelo://app?vid=fdf6cda7-8c50-4766-a8a8-aed18852d5a6","ios":"levelo://app?vid=fdf6cda7-8c50-4766-a8a8-aed18852d5a6"},"vehicle_type_id":"4","last_reported":1706202408,"current_range_meters":7600,"station_id":"ce4bh4p2rcd13ifvqe0g","pricing_plan_id":"free"},{"bike_id":"61fd5d6f-056f-4d96-b4fc-c188bd4c399a","system_id":"levelo_inurba_marseille","lat":43.303023,"lon":5.401129,"is_reserved":false,"is_disabled":false,"rental_uris":{"android":"levelo://app?vid=61fd5d6f-056f-4d96-b4fc-c188bd4c399a","ios":"levelo://app?vid=61fd5d6f-056f-4d96-b4fc-c188bd4c399a"},"vehicle_type_id":"4","last_reported":1706202408,"current_range_meters":24400,"station_id":"ce4bgvh2rcd13ifvqcs0","pricing_plan_id":"free"},{"bike_id":"1faf616f-86c0-4d95-b3c0-e6d9450429b9","system_id":"levelo_inurba_marseille","lat":43.286039,"lon":5.370679,"is_reserved":false,"is_disabled":false,"rental_uris":{"android":"levelo://app?vid=1faf616f-86c0-4d95-b3c0-e6d9450429b9","ios":"levelo://app?vid=1faf616f-86c0-4d95-b3c0-e6d9450429b9"},"vehicle_type_id":"4","last_reported":1706202408,"current_range_meters":0,"station_id":"ce4bht12rcd13ifvqi60","pricing_plan_id":"free"},{"bike_id":"0c72f7b9-0e7f-4bf0-879a-bc88cc1b73a4","system_id":"levelo_inurba_marseille","lat":43.286039,"lon":5.370681,"is_reserved":false,"is_disabled":false,"rental_uris":{"android":"levelo://app?vid=0c72f7b9-0e7f-4bf0-879a-bc88cc1b73a4","ios":"levelo://app?vid=0c72f7b9-0e7f-4bf0-879a-bc88cc1b73a4"},"vehicle_type_id":"4","last_reported":1706202408,"current_range_meters":21200,"station_id":"ce4bht12rcd13ifvqi60","pricing_plan_id":"free"},{"bike_id":"79a82f36-0c09-447a-a606-f0468ae76450","system_id":"levelo_inurba_marseille","lat":43.287184,"lon":5.37937,"is_reserved":false,"is_disabled":false,"rental_uris":{"android":"levelo://app?vid=79a82f36-0c09-447a-a606-f0468ae76450","ios":"levelo://app?vid=79a82f36-0c09-447a-a606-f0468ae76450"},"vehicle_type_id":"4","last_reported":1706202408,"current_range_meters":8400,"station_id":"ce4bh9p2rcd13ifvqec0","pricing_plan_id":"free"},{"bike_id":"33be35b8-365c-4e44-892c-95f0d89334b8","system_id":"levelo_inurba_marseille","lat":43.316828,"lon":5.404723,"is_reserved":false,"is_disabled":false,"rental_uris":{"android":"levelo://app?vid=33be35b8-365c-4e44-892c-95f0d89334b8","ios":"levelo://app?vid=33be35b8-365c-4e44-892c-95f0d89334b8"},"vehicle_type_id":"4","last_reported":1706202408,"current_range_meters":17600,"station_id":"ce4bh012rcd13ifvqd00","pricing_plan_id":"free"},{"bike_id":"b58e23fa-8d7a-44b3-91c7-111dd0467fe5","system_id":"levelo_inurba_marseille","lat":43.31687,"lon":5.4048,"is_reserved":false,"is_disabled":false,"rental_uris":{"android":"levelo://app?vid=b58e23fa-8d7a-44b3-91c7-111dd0467fe5","ios":"levelo://app?vid=b58e23fa-8d7a-44b3-91c7-111dd0467fe5"},"vehicle_type_id":"4","last_reported":1706202408,"current_range_meters":5200,"station_id":"ce4bh012rcd13ifvqd00","pricing_plan_id":"free"},{"bike_id":"5cd379d7-991b-4f99-96cc-0b31f5b275de","system_id":"levelo_inurba_marseille","lat":43.329789,"lon":5.397354,"is_reserved":false,"is_disabled":false,"rental_uris":{"android":"levelo://app?vid=5cd379d7-991b-4f99-96cc-0b31f5b275de","ios":"levelo://app?vid=5cd379d7-991b-4f99-96cc-0b31f5b275de"},"vehicle_type_id":"4","last_reported":1706202408,"current_range_meters":10800,"station_id":"ce4bhq92rcd13ifvqhjg","pricing_plan_id":"free"},{"bike_id":"73f46ebc-012e-475f-b7cc-e387818df14e","system_id":"levelo_inurba_marseille","lat":43.291994,"lon":5.392907,"is_reserved":false,"is_disabled":false,"rental_uris":{"android":"levelo://app?vid=73f46ebc-012e-475f-b7cc-e387818df14e","ios":"levelo://app?vid=73f46ebc-012e-475f-b7cc-e387818df14e"},"vehicle_type_id":"4","last_reported":1706202408,"current_range_meters":1200,"station_id":"ce4bh192rcd13ifvqdd0","pricing_plan_id":"free"},{"bike_id":"105a85b1-4e88-48b1-8cae-4d4979ed0e58","system_id":"levelo_inurba_marseille","lat":43.284534,"lon":5.358662,"is_reserved":false,"is_disabled":false,"rental_uris":{"android":"levelo://app?vid=105a85b1-4e88-48b1-8cae-4d4979ed0e58","ios":"levelo://app?vid=105a85b1-4e88-48b1-8cae-4d4979ed0e58"},"vehicle_type_id":"4","last_reported":1706202408,"current_range_meters":16000,"station_id":"ce4bhah2rcd13ifvqei0","pricing_plan_id":"free"},{"bike_id":"167cc068-332b-4ccc-a412-768a662056ff","system_id":"levelo_inurba_marseille","lat":43.284538,"lon":5.358657,"is_reserved":false,"is_disabled":false,"rental_uris":{"android":"levelo://app?vid=167cc068-332b-4ccc-a412-768a662056ff","ios":"levelo://app?vid=167cc068-332b-4ccc-a412-768a662056ff"},"vehicle_type_id":"4","last_reported":1706202408,"current_range_meters":15200,"station_id":"ce4bhah2rcd13ifvqei0","pricing_plan_id":"free"},{"bike_id":"bcc11a43-4510-4887-bcbc-70a82fbb4501","system_id":"levelo_inurba_marseille","lat":43.284538,"lon":5.358657,"is_reserved":false,"is_disabled":false,"rental_uris":{"android":"levelo://app?vid=bcc11a43-4510-4887-bcbc-70a82fbb4501","ios":"levelo://app?vid=bcc11a43-4510-4887-bcbc-70a82fbb4501"},"vehicle_type_id":"4","last_reported":1706202408,"current_range_meters":18000,"station_id":"ce4bhah2rcd13ifvqei0","pricing_plan_id":"free"},{"bike_id":"91f5abb4-80a6-4ff7-94ad-eb3321d72c84","system_id":"levelo_inurba_marseille","lat":43.284538,"lon":5.358657,"is_reserved":false,"is_disabled":false,"rental_uris":{"android":"levelo://app?vid=91f5abb4-80a6-4ff7-94ad-eb3321d72c84","ios":"levelo://app?vid=91f5abb4-80a6-4ff7-94ad-eb3321d72c84"},"vehicle_type_id":"4","last_reported":1706202408,"current_range_meters":10000,"station_id":"ce4bhah2rcd13ifvqei0","pricing_plan_id":"free"},{"bike_id":"72d50a33-94f0-42ee-8fdf-aa8bc30b89cc","system_id":"levelo_inurba_marseille","lat":43.284534,"lon":5.358662,"is_reserved":false,"is_disabled":false,"rental_uris":{"android":"levelo://app?vid=72d50a33-94f0-42ee-8fdf-aa8bc30b89cc","ios":"levelo://app?vid=72d50a33-94f0-42ee-8fdf-aa8bc30b89cc"},"vehicle_type_id":"4","last_reported":1706202408,"current_range_meters":14000,"station_id":"ce4bhah2rcd13ifvqei0","pricing_plan_id":"free"},{"bike_id":"1117a5e4-e4e6-4b15-9964-83aa5407fc14","system_id":"levelo_inurba_marseille","lat":43.284534,"lon":5.358662,"is_reserved":false,"is_disabled":false,"rental_uris":{"android":"levelo://app?vid=1117a5e4-e4e6-4b15-9964-83aa5407fc14","ios":"levelo://app?vid=1117a5e4-e4e6-4b15-9964-83aa5407fc14"},"vehicle_type_id":"4","last_reported":1706202408,"current_range_meters":12800,"station_id":"ce4bhah2rcd13ifvqei0","pricing_plan_id":"free"},{"bike_id":"83663181-fd3c-470d-8a75-b5687c19a4e5","system_id":"levelo_inurba_marseille","lat":43.284534,"lon":5.358662,"is_reserved":false,"is_disabled":false,"rental_uris":{"android":"levelo://app?vid=83663181-fd3c-470d-8a75-b5687c19a4e5","ios":"levelo://app?vid=83663181-fd3c-470d-8a75-b5687c19a4e5"},"vehicle_type_id":"4","last_reported":1706202408,"current_range_meters":13600,"station_id":"ce4bhah2rcd13ifvqei0","pricing_plan_id":"free"},{"bike_id":"1a4cfbc6-7f57-439c-b15d-69de0cf41f20","system_id":"levelo_inurba_marseille","lat":43.294314,"lon":5.397498,"is_reserved":false,"is_disabled":false,"rental_uris":{"android":"levelo://app?vid=1a4cfbc6-7f57-439c-b15d-69de0cf41f20","ios":"levelo://app?vid=1a4cfbc6-7f57-439c-b15d-69de0cf41f20"},"vehicle_type_id":"4","last_reported":1706202408,"current_range_meters":13200,"station_id":"ce4bh3h2rcd13ifvqdo0","pricing_plan_id":"free"},{"bike_id":"1aef3aab-bf49-4d67-81f9-f27a8989d455","system_id":"levelo_inurba_marseille","lat":43.284534,"lon":5.358662,"is_reserved":false,"is_disabled":false,"rental_uris":{"android":"levelo://app?vid=1aef3aab-bf49-4d67-81f9-f27a8989d455","ios":"levelo://app?vid=1aef3aab-bf49-4d67-81f9-f27a8989d455"},"vehicle_type_id":"4","last_reported":1706202408,"current_range_meters":400,"station_id":"ce4bhah2rcd13ifvqei0","pricing_plan_id":"free"},{"bike_id":"dd637fc9-f6b0-4e96-a0c1-ff04b868a965","system_id":"levelo_inurba_marseille","lat":43.295196,"lon":5.39397,"is_reserved":false,"is_disabled":false,"rental_uris":{"android":"levelo://app?vid=dd637fc9-f6b0-4e96-a0c1-ff04b868a965","ios":"levelo://app?vid=dd637fc9-f6b0-4e96-a0c1-ff04b868a965"},"vehicle_type_id":"4","last_reported":1706202408,"current_range_meters":11600,"station_id":"ce4bh292rcd13ifvqdf0","pricing_plan_id":"free"},{"bike_id":"a500314c-2242-45ff-a557-62a0072f731c","system_id":"levelo_inurba_marseille","lat":43.284538,"lon":5.358657,"is_reserved":false,"is_disabled":false,"rental_uris":{"android":"levelo://app?vid=a500314c-2242-45ff-a557-62a0072f731c","ios":"levelo://app?vid=a500314c-2242-45ff-a557-62a0072f731c"},"vehicle_type_id":"4","last_reported":1706202408,"current_range_meters":10800,"station_id":"ce4bhah2rcd13ifvqei0","pricing_plan_id":"free"},{"bike_id":"b7116a02-7067-495e-bfd8-ec63fe608f1e","system_id":"levelo_inurba_marseille","lat":43.284534,"lon":5.358662,"is_reserved":false,"is_disabled":false,"rental_uris":{"android":"levelo://app?vid=b7116a02-7067-495e-bfd8-ec63fe608f1e","ios":"levelo://app?vid=b7116a02-7067-495e-bfd8-ec63fe608f1e"},"vehicle_type_id":"4","last_reported":1706202408,"current_range_meters":19200,"station_id":"ce4bhah2rcd13ifvqei0","pricing_plan_id":"free"},{"bike_id":"ad3509d2-0790-4b80-9385-963bcce903ff","system_id":"levelo_inurba_marseille","lat":43.284534,"lon":5.358662,"is_reserved":false,"is_disabled":false,"rental_uris":{"android":"levelo://app?vid=ad3509d2-0790-4b80-9385-963bcce903ff","ios":"levelo://app?vid=ad3509d2-0790-4b80-9385-963bcce903ff"},"vehicle_type_id":"4","last_reported":1706202408,"current_range_meters":5200,"station_id":"ce4bhah2rcd13ifvqei0","pricing_plan_id":"free"},{"bike_id":"2f5c295c-1111-4b09-9c41-7f8487254766","system_id":"levelo_inurba_marseille","lat":43.285848,"lon":5.350787,"is_reserved":false,"is_disabled":false,"rental_uris":{"android":"levelo://app?vid=2f5c295c-1111-4b09-9c41-7f8487254766","ios":"levelo://app?vid=2f5c295c-1111-4b09-9c41-7f8487254766"},"vehicle_type_id":"4","last_reported":1706202408,"current_range_meters":0,"station_id":"ce4bhch2rcd13ifvqeug","pricing_plan_id":"free"},{"bike_id":"c959214e-162a-4c06-9687-5edea7bfdbcb","system_id":"levelo_inurba_marseille","lat":43.286096,"lon":5.351069,"is_reserved":false,"is_disabled":false,"rental_uris":{"android":"levelo://app?vid=c959214e-162a-4c06-9687-5edea7bfdbcb","ios":"levelo://app?vid=c959214e-162a-4c06-9687-5edea7bfdbcb"},"vehicle_type_id":"4","last_reported":1706202408,"current_range_meters":8400,"station_id":"ce4bhch2rcd13ifvqeug","pricing_plan_id":"free"},{"bike_id":"4e758179-49d3-4d41-ad61-6123c8c76c1c","system_id":"levelo_inurba_marseille","lat":43.284538,"lon":5.358657,"is_reserved":false,"is_disabled":false,"rental_uris":{"android":"levelo://app?vid=4e758179-49d3-4d41-ad61-6123c8c76c1c","ios":"levelo://app?vid=4e758179-49d3-4d41-ad61-6123c8c76c1c"},"vehicle_type_id":"4","last_reported":1706202408,"current_range_meters":17200,"station_id":"ce4bhah2rcd13ifvqei0","pricing_plan_id":"free"},{"bike_id":"0c5ed17f-7c56-4673-b914-a22e7d01f9ed","system_id":"levelo_inurba_marseille","lat":43.295713,"lon":5.399639,"is_reserved":false,"is_disabled":false,"rental_uris":{"android":"levelo://app?vid=0c5ed17f-7c56-4673-b914-a22e7d01f9ed","ios":"levelo://app?vid=0c5ed17f-7c56-4673-b914-a22e7d01f9ed"},"vehicle_type_id":"4","last_reported":1706202408,"current_range_meters":26800,"station_id":"ce4bh312rcd13ifvqdj0","pricing_plan_id":"free"},{"bike_id":"d1e497bc-2eab-4b2b-8afe-7d6e0fa9ba56","system_id":"levelo_inurba_marseille","lat":43.283998,"lon":5.375062,"is_reserved":false,"is_disabled":false,"rental_uris":{"android":"levelo://app?vid=d1e497bc-2eab-4b2b-8afe-7d6e0fa9ba56","ios":"levelo://app?vid=d1e497bc-2eab-4b2b-8afe-7d6e0fa9ba56"},"vehicle_type_id":"4","last_reported":1706202408,"current_range_meters":18800,"station_id":"ce4bh412rcd13ifvqds0","pricing_plan_id":"free"},{"bike_id":"e0ad4f56-99b7-480b-b69a-bfef907f5b06","system_id":"levelo_inurba_marseille","lat":43.283998,"lon":5.375062,"is_reserved":false,"is_disabled":false,"rental_uris":{"android":"levelo://app?vid=e0ad4f56-99b7-480b-b69a-bfef907f5b06","ios":"levelo://app?vid=e0ad4f56-99b7-480b-b69a-bfef907f5b06"},"vehicle_type_id":"4","last_reported":1706202408,"current_range_meters":10400,"station_id":"ce4bh412rcd13ifvqds0","pricing_plan_id":"free"},{"bike_id":"09d741f0-1c24-4b31-ab65-cd158d12c500","system_id":"levelo_inurba_marseille","lat":43.295713,"lon":5.399639,"is_reserved":false,"is_disabled":false,"rental_uris":{"android":"levelo://app?vid=09d741f0-1c24-4b31-ab65-cd158d12c500","ios":"levelo://app?vid=09d741f0-1c24-4b31-ab65-cd158d12c500"},"vehicle_type_id":"4","last_reported":1706202408,"current_range_meters":800,"station_id":"ce4bh312rcd13ifvqdj0","pricing_plan_id":"free"},{"bike_id":"26b9b946-959c-4a5e-bc75-facd15501a52","system_id":"levelo_inurba_marseille","lat":43.286595,"lon":5.386795,"is_reserved":false,"is_disabled":false,"rental_uris":{"android":"levelo://app?vid=26b9b946-959c-4a5e-bc75-facd15501a52","ios":"levelo://app?vid=26b9b946-959c-4a5e-bc75-facd15501a52"},"vehicle_type_id":"4","last_reported":1706202408,"current_range_meters":9600,"station_id":"ce4bh492rcd13ifvqdug","pricing_plan_id":"free"},{"bike_id":"31b48c81-e322-4f25-935f-533708853008","system_id":"levelo_inurba_marseille","lat":43.297946,"lon":5.404063,"is_reserved":false,"is_disabled":false,"rental_uris":{"android":"levelo://app?vid=31b48c81-e322-4f25-935f-533708853008","ios":"levelo://app?vid=31b48c81-e322-4f25-935f-533708853008"},"vehicle_type_id":"4","last_reported":1706202408,"current_range_meters":11600,"station_id":"ce4bh112rcd13ifvqd90","pricing_plan_id":"free"},{"bike_id":"9c128090-5a8d-4999-9354-10fd54133f5b","system_id":"levelo_inurba_marseille","lat":43.319179,"lon":5.407725,"is_reserved":false,"is_disabled":false,"rental_uris":{"android":"levelo://app?vid=9c128090-5a8d-4999-9354-10fd54133f5b","ios":"levelo://app?vid=9c128090-5a8d-4999-9354-10fd54133f5b"},"vehicle_type_id":"4","last_reported":1706202408,"current_range_meters":8800,"station_id":"ce4bhq12rcd13ifvqhig","pricing_plan_id":"free"},{"bike_id":"e25a0201-1e7e-4b0c-b11f-0146fbdb3ea2","system_id":"levelo_inurba_marseille","lat":43.319179,"lon":5.407725,"is_reserved":false,"is_disabled":false,"rental_uris":{"android":"levelo://app?vid=e25a0201-1e7e-4b0c-b11f-0146fbdb3ea2","ios":"levelo://app?vid=e25a0201-1e7e-4b0c-b11f-0146fbdb3ea2"},"vehicle_type_id":"4","last_reported":1706202408,"current_range_meters":19200,"station_id":"ce4bhq12rcd13ifvqhig","pricing_plan_id":"free"},{"bike_id":"29c971f3-912e-4f79-8c22-d20e1f4b5d74","system_id":"levelo_inurba_marseille","lat":43.337168,"lon":5.391825,"is_reserved":false,"is_disabled":false,"rental_uris":{"android":"levelo://app?vid=29c971f3-912e-4f79-8c22-d20e1f4b5d74","ios":"levelo://app?vid=29c971f3-912e-4f79-8c22-d20e1f4b5d74"},"vehicle_type_id":"4","last_reported":1706202408,"current_range_meters":28800,"station_id":"ce4bhr92rcd13ifvqhsg","pricing_plan_id":"free"},{"bike_id":"f4ffd5d2-0b9a-4e8e-ad6a-8351653abc08","system_id":"levelo_inurba_marseille","lat":43.283494,"lon":5.380945,"is_reserved":false,"is_disabled":false,"rental_uris":{"android":"levelo://app?vid=f4ffd5d2-0b9a-4e8e-ad6a-8351653abc08","ios":"levelo://app?vid=f4ffd5d2-0b9a-4e8e-ad6a-8351653abc08"},"vehicle_type_id":"4","last_reported":1706202408,"current_range_meters":4000,"station_id":"ce4bh412rcd13ifvqdr0","pricing_plan_id":"free"},{"bike_id":"8461bfe7-c96e-484a-a225-4643d9284fc4","system_id":"levelo_inurba_marseille","lat":43.284793,"lon":5.384119,"is_reserved":false,"is_disabled":false,"rental_uris":{"android":"levelo://app?vid=8461bfe7-c96e-484a-a225-4643d9284fc4","ios":"levelo://app?vid=8461bfe7-c96e-484a-a225-4643d9284fc4"},"vehicle_type_id":"4","last_reported":1706202408,"current_range_meters":14800,"station_id":"ce4bh512rcd13ifvqe3g","pricing_plan_id":"free"},{"bike_id":"edd9e1f4-3f11-4608-8581-7d606151d4d0","system_id":"levelo_inurba_marseille","lat":43.284787,"lon":5.384116,"is_reserved":false,"is_disabled":false,"rental_uris":{"android":"levelo://app?vid=edd9e1f4-3f11-4608-8581-7d606151d4d0","ios":"levelo://app?vid=edd9e1f4-3f11-4608-8581-7d606151d4d0"},"vehicle_type_id":"4","last_reported":1706202408,"current_range_meters":10400,"station_id":"ce4bh512rcd13ifvqe3g","pricing_plan_id":"free"},{"bike_id":"4d7e0a0b-40e1-4b21-8066-c2b08f2e8907","system_id":"levelo_inurba_marseille","lat":43.297946,"lon":5.404063,"is_reserved":false,"is_disabled":false,"rental_uris":{"android":"levelo://app?vid=4d7e0a0b-40e1-4b21-8066-c2b08f2e8907","ios":"levelo://app?vid=4d7e0a0b-40e1-4b21-8066-c2b08f2e8907"},"vehicle_type_id":"4","last_reported":1706202408,"current_range_meters":21200,"station_id":"ce4bh112rcd13ifvqd90","pricing_plan_id":"free"},{"bike_id":"3e303a93-d0d8-4bdd-b67e-2b0e8a0e5d8e","system_id":"levelo_inurba_marseille","lat":43.29795,"lon":5.404086,"is_reserved":false,"is_disabled":false,"rental_uris":{"android":"levelo://app?vid=3e303a93-d0d8-4bdd-b67e-2b0e8a0e5d8e","ios":"levelo://app?vid=3e303a93-d0d8-4bdd-b67e-2b0e8a0e5d8e"},"vehicle_type_id":"4","last_reported":1706202408,"current_range_meters":9600,"station_id":"ce4bh112rcd13ifvqd90","pricing_plan_id":"free"},{"bike_id":"be17dd61-ed0c-452b-b6fe-a58aaa2c7d29","system_id":"levelo_inurba_marseille","lat":43.283498,"lon":5.380948,"is_reserved":false,"is_disabled":false,"rental_uris":{"android":"levelo://app?vid=be17dd61-ed0c-452b-b6fe-a58aaa2c7d29","ios":"levelo://app?vid=be17dd61-ed0c-452b-b6fe-a58aaa2c7d29"},"vehicle_type_id":"4","last_reported":1706202408,"current_range_meters":0,"station_id":"ce4bh412rcd13ifvqdr0","pricing_plan_id":"free"},{"bike_id":"daa32aac-1f28-4b44-8b8d-bf4e7ecaf06b","system_id":"levelo_inurba_marseille","lat":43.283498,"lon":5.380948,"is_reserved":false,"is_disabled":false,"rental_uris":{"android":"levelo://app?vid=daa32aac-1f28-4b44-8b8d-bf4e7ecaf06b","ios":"levelo://app?vid=daa32aac-1f28-4b44-8b8d-bf4e7ecaf06b"},"vehicle_type_id":"4","last_reported":1706202408,"current_range_meters":19600,"station_id":"ce4bh412rcd13ifvqdr0","pricing_plan_id":"free"},{"bike_id":"36046b53-941d-4858-8f80-d3363acb4ff7","system_id":"levelo_inurba_marseille","lat":43.28421,"lon":5.34991,"is_reserved":false,"is_disabled":false,"rental_uris":{"android":"levelo://app?vid=36046b53-941d-4858-8f80-d3363acb4ff7","ios":"levelo://app?vid=36046b53-941d-4858-8f80-d3363acb4ff7"},"vehicle_type_id":"4","last_reported":1706202408,"current_range_meters":3200,"station_id":"ce4bhbh2rcd13ifvqepg","pricing_plan_id":"free"},{"bike_id":"8be5127c-9334-4740-9f5d-be88de2b5ae0","system_id":"levelo_inurba_marseille","lat":43.284214,"lon":5.349706,"is_reserved":false,"is_disabled":false,"rental_uris":{"android":"levelo://app?vid=8be5127c-9334-4740-9f5d-be88de2b5ae0","ios":"levelo://app?vid=8be5127c-9334-4740-9f5d-be88de2b5ae0"},"vehicle_type_id":"4","last_reported":1706202408,"current_range_meters":30000,"station_id":"ce4bhbh2rcd13ifvqepg","pricing_plan_id":"free"},{"bike_id":"f7f95eb8-d862-483b-8da6-59cae52e3e5b","system_id":"levelo_inurba_marseille","lat":43.2842,"lon":5.34982,"is_reserved":false,"is_disabled":false,"rental_uris":{"android":"levelo://app?vid=f7f95eb8-d862-483b-8da6-59cae52e3e5b","ios":"levelo://app?vid=f7f95eb8-d862-483b-8da6-59cae52e3e5b"},"vehicle_type_id":"4","last_reported":1706202408,"current_range_meters":31200,"station_id":"ce4bhbh2rcd13ifvqepg","pricing_plan_id":"free"},{"bike_id":"b5b151c7-8972-40ea-85dc-0852e2aa9a0d","system_id":"levelo_inurba_marseille","lat":43.284196,"lon":5.349796,"is_reserved":false,"is_disabled":false,"rental_uris":{"android":"levelo://app?vid=b5b151c7-8972-40ea-85dc-0852e2aa9a0d","ios":"levelo://app?vid=b5b151c7-8972-40ea-85dc-0852e2aa9a0d"},"vehicle_type_id":"4","last_reported":1706202408,"current_range_meters":23600,"station_id":"ce4bhbh2rcd13ifvqepg","pricing_plan_id":"free"},{"bike_id":"aa320e8b-6aab-49a8-ab73-959e7692fbda","system_id":"levelo_inurba_marseille","lat":43.284214,"lon":5.349706,"is_reserved":false,"is_disabled":false,"rental_uris":{"android":"levelo://app?vid=aa320e8b-6aab-49a8-ab73-959e7692fbda","ios":"levelo://app?vid=aa320e8b-6aab-49a8-ab73-959e7692fbda"},"vehicle_type_id":"4","last_reported":1706202408,"current_range_meters":8800,"station_id":"ce4bhbh2rcd13ifvqepg","pricing_plan_id":"free"},{"bike_id":"6d7adc34-ead4-4970-9287-8d8397bd0db7","system_id":"levelo_inurba_marseille","lat":43.28415,"lon":5.34979,"is_reserved":false,"is_disabled":false,"rental_uris":{"android":"levelo://app?vid=6d7adc34-ead4-4970-9287-8d8397bd0db7","ios":"levelo://app?vid=6d7adc34-ead4-4970-9287-8d8397bd0db7"},"vehicle_type_id":"4","last_reported":1706202408,"current_range_meters":0,"station_id":"ce4bhbh2rcd13ifvqepg","pricing_plan_id":"free"},{"bike_id":"eb55bed2-e559-469f-b2c9-10822210c7a7","system_id":"levelo_inurba_marseille","lat":43.284044,"lon":5.349782,"is_reserved":false,"is_disabled":false,"rental_uris":{"android":"levelo://app?vid=eb55bed2-e559-469f-b2c9-10822210c7a7","ios":"levelo://app?vid=eb55bed2-e559-469f-b2c9-10822210c7a7"},"vehicle_type_id":"4","last_reported":1706202408,"current_range_meters":12000,"station_id":"","pricing_plan_id":"free"},{"bike_id":"bdcc165f-0ddb-4298-93f2-40962b411a2a","system_id":"levelo_inurba_marseille","lat":43.292628,"lon":5.400111,"is_reserved":false,"is_disabled":false,"rental_uris":{"android":"levelo://app?vid=bdcc165f-0ddb-4298-93f2-40962b411a2a","ios":"levelo://app?vid=bdcc165f-0ddb-4298-93f2-40962b411a2a"},"vehicle_type_id":"4","last_reported":1706202408,"current_range_meters":0,"station_id":"","pricing_plan_id":"free"},{"bike_id":"b41bcd76-cb12-4b33-95cd-9444d1e23578","system_id":"levelo_inurba_marseille","lat":43.293556,"lon":5.401561,"is_reserved":false,"is_disabled":false,"rental_uris":{"android":"levelo://app?vid=b41bcd76-cb12-4b33-95cd-9444d1e23578","ios":"levelo://app?vid=b41bcd76-cb12-4b33-95cd-9444d1e23578"},"vehicle_type_id":"4","last_reported":1706202408,"current_range_meters":17200,"station_id":"","pricing_plan_id":"free"},{"bike_id":"539f8dc2-77fc-4ccf-9a71-6d183945e819","system_id":"levelo_inurba_marseille","lat":43.290412,"lon":5.399633,"is_reserved":false,"is_disabled":false,"rental_uris":{"android":"levelo://app?vid=539f8dc2-77fc-4ccf-9a71-6d183945e819","ios":"levelo://app?vid=539f8dc2-77fc-4ccf-9a71-6d183945e819"},"vehicle_type_id":"4","last_reported":1706202408,"current_range_meters":18000,"station_id":"ce4bh392rcd13ifvqdm0","pricing_plan_id":"free"},{"bike_id":"9acaba2b-d8a3-42e3-a6b3-aaed5849211e","system_id":"levelo_inurba_marseille","lat":43.282687,"lon":5.350665,"is_reserved":false,"is_disabled":false,"rental_uris":{"android":"levelo://app?vid=9acaba2b-d8a3-42e3-a6b3-aaed5849211e","ios":"levelo://app?vid=9acaba2b-d8a3-42e3-a6b3-aaed5849211e"},"vehicle_type_id":"4","last_reported":1706202408,"current_range_meters":0,"station_id":"ce4bhbp2rcd13ifvqerg","pricing_plan_id":"free"},{"bike_id":"93cf0954-64bc-42e8-87ed-0f3d3101fe1f","system_id":"levelo_inurba_marseille","lat":43.28265,"lon":5.35059,"is_reserved":false,"is_disabled":false,"rental_uris":{"android":"levelo://app?vid=93cf0954-64bc-42e8-87ed-0f3d3101fe1f","ios":"levelo://app?vid=93cf0954-64bc-42e8-87ed-0f3d3101fe1f"},"vehicle_type_id":"4","last_reported":1706202408,"current_range_meters":0,"station_id":"ce4bhbp2rcd13ifvqerg","pricing_plan_id":"free"},{"bike_id":"a4cfa3e7-ab48-47be-878c-1d8ee3dfca13","system_id":"levelo_inurba_marseille","lat":43.283572,"lon":5.386264,"is_reserved":false,"is_disabled":false,"rental_uris":{"android":"levelo://app?vid=a4cfa3e7-ab48-47be-878c-1d8ee3dfca13","ios":"levelo://app?vid=a4cfa3e7-ab48-47be-878c-1d8ee3dfca13"},"vehicle_type_id":"4","last_reported":1706202408,"current_range_meters":0,"station_id":"ce4bh492rcd13ifvqdvg","pricing_plan_id":"free"},{"bike_id":"da2675d0-bd27-44b7-b735-321d2916f92a","system_id":"levelo_inurba_marseille","lat":43.283525,"lon":5.386302,"is_reserved":false,"is_disabled":false,"rental_uris":{"android":"levelo://app?vid=da2675d0-bd27-44b7-b735-321d2916f92a","ios":"levelo://app?vid=da2675d0-bd27-44b7-b735-321d2916f92a"},"vehicle_type_id":"4","last_reported":1706202408,"current_range_meters":0,"station_id":"ce4bh492rcd13ifvqdvg","pricing_plan_id":"free"},{"bike_id":"2db3cf1f-064a-4a78-b561-171ad882a8a2","system_id":"levelo_inurba_marseille","lat":43.28039,"lon":5.369297,"is_reserved":false,"is_disabled":false,"rental_uris":{"android":"levelo://app?vid=2db3cf1f-064a-4a78-b561-171ad882a8a2","ios":"levelo://app?vid=2db3cf1f-064a-4a78-b561-171ad882a8a2"},"vehicle_type_id":"4","last_reported":1706202408,"current_range_meters":13600,"station_id":"ce4bha12rcd13ifvqef0","pricing_plan_id":"free"},{"bike_id":"845022f7-3b41-4868-9d42-bbb5ab002ada","system_id":"levelo_inurba_marseille","lat":43.290647,"lon":5.399688,"is_reserved":false,"is_disabled":false,"rental_uris":{"android":"levelo://app?vid=845022f7-3b41-4868-9d42-bbb5ab002ada","ios":"levelo://app?vid=845022f7-3b41-4868-9d42-bbb5ab002ada"},"vehicle_type_id":"4","last_reported":1706202408,"current_range_meters":14400,"station_id":"ce4bh392rcd13ifvqdm0","pricing_plan_id":"free"},{"bike_id":"2955b232-7d39-41d9-8642-180c033ac3a3","system_id":"levelo_inurba_marseille","lat":43.2904,"lon":5.39943,"is_reserved":false,"is_disabled":false,"rental_uris":{"android":"levelo://app?vid=2955b232-7d39-41d9-8642-180c033ac3a3","ios":"levelo://app?vid=2955b232-7d39-41d9-8642-180c033ac3a3"},"vehicle_type_id":"4","last_reported":1706202408,"current_range_meters":24000,"station_id":"ce4bh392rcd13ifvqdm0","pricing_plan_id":"free"},{"bike_id":"9ee0ac7c-9639-49ec-8c41-9f70a19aaf0e","system_id":"levelo_inurba_marseille","lat":43.29041,"lon":5.399634,"is_reserved":false,"is_disabled":false,"rental_uris":{"android":"levelo://app?vid=9ee0ac7c-9639-49ec-8c41-9f70a19aaf0e","ios":"levelo://app?vid=9ee0ac7c-9639-49ec-8c41-9f70a19aaf0e"},"vehicle_type_id":"4","last_reported":1706202408,"current_range_meters":1600,"station_id":"ce4bh392rcd13ifvqdm0","pricing_plan_id":"free"},{"bike_id":"2a09900a-72e1-4e1a-b411-d443c1fbcb4a","system_id":"levelo_inurba_marseille","lat":43.29041,"lon":5.399634,"is_reserved":false,"is_disabled":false,"rental_uris":{"android":"levelo://app?vid=2a09900a-72e1-4e1a-b411-d443c1fbcb4a","ios":"levelo://app?vid=2a09900a-72e1-4e1a-b411-d443c1fbcb4a"},"vehicle_type_id":"4","last_reported":1706202408,"current_range_meters":6400,"station_id":"ce4bh392rcd13ifvqdm0","pricing_plan_id":"free"},{"bike_id":"cbd9ba96-8ab7-43a6-bfc8-b89393d6b239","system_id":"levelo_inurba_marseille","lat":43.281044,"lon":5.378308,"is_reserved":false,"is_disabled":false,"rental_uris":{"android":"levelo://app?vid=cbd9ba96-8ab7-43a6-bfc8-b89393d6b239","ios":"levelo://app?vid=cbd9ba96-8ab7-43a6-bfc8-b89393d6b239"},"vehicle_type_id":"4","last_reported":1706202408,"current_range_meters":3200,"station_id":"ce4bha12rcd13ifvqee0","pricing_plan_id":"free"},{"bike_id":"fd8b2095-8021-4a22-8c2c-a9926956be4d","system_id":"levelo_inurba_marseille","lat":43.281044,"lon":5.378308,"is_reserved":false,"is_disabled":false,"rental_uris":{"android":"levelo://app?vid=fd8b2095-8021-4a22-8c2c-a9926956be4d","ios":"levelo://app?vid=fd8b2095-8021-4a22-8c2c-a9926956be4d"},"vehicle_type_id":"4","last_reported":1706202408,"current_range_meters":10800,"station_id":"ce4bha12rcd13ifvqee0","pricing_plan_id":"free"},