{"last_updated":1762812673,"ttl":60,"version":"2.2","data":{"bikes":[{"bike_id":"a22621ed-dce3-441e-82fa-0978db9d5cc0","system_id":"levelo_inurba_marseille","lat":43.337444,"lon":5.374475,"is_reserved":false,"is_disabled":false,"rental_uris":{"android":"levelo://app?vid=a22621ed-dce3-441e-82fa-0978db9d5cc0","ios":"levelo://app?vid=a22621ed-dce3-441e-82fa-0978db9d5cc0"},"vehicle_type_id":"4","last_reported":1762812674,"current_range_meters":0,"station_id":"","pricing_plan_id":"cebpf4jnsgd1na2vs0mg"},{"bike_id":"3e21e62b-899e-437a-a078-a3f0b3b73a6a","system_id":"levelo_inurba_marseille","lat":43.316881,"lon":5.404807,"is_reserved":false,"is_disabled":false,"rental_uris":{"android":"levelo://app?vid=3e21e62b-899e-437a-a078-a3f0b3b73a6a","ios":"levelo://app?vid=3e21e62b-899e-437a-a078-a3f0b3b73a6a"},"vehicle_type_id":"4","last_reported":1762812674,"current_range_meters":3200,"station_id":"ce4bgi92rcd13ifvqb90","pricing_plan_id":"cebpf4jnsgd1na2vs0mg"},{"bike_id":"18c3c53d-77eb-4735-a1ed-c6225cd10942","system_id":"levelo_inurba_marseille","lat":43.313579,"lon":5.384878,"is_reserved":false,"is_disabled":true,"rental_uris":{"android":"levelo://app?vid=18c3c53d-77eb-4735-a1ed-c6225cd10942","ios":"levelo://app?vid=18c3c53d-77eb-4735-a1ed-c6225cd10942"},"vehicle_type_id":"4","last_reported":1762812674,"current_range_meters":3200,"station_id":"ce4bgt92rcd13ifvqcf0","pricing_plan_id":"cebpf4jnsgd1na2vs0mg"},{"bike_id":"d040c9b2-eb4a-4dcb-a3e5-415606b3efd8","system_id":"levelo_inurba_marseille","lat":43.29786,"lon":5.37102,"is_reserved":false,"is_disabled":false,"rental_uris":{"android":"levelo://app?vid=d040c9b2-eb4a-4dcb-a3e5-415606b3efd8","ios":"levelo://app?vid=d040c9b2-eb4a-4dcb-a3e5-415606b3efd8"},"vehicle_type_id":"4","last_reported":1762812674,"current_range_meters":3600,"station_id":"ce4bgop2rcd13ifvqc1g","pricing_plan_id":"cebpf4jnsgd1na2vs0mg"},{"bike_id":"6f98b7a7-ae98-40be-aded-6fe2b547bfca","system_id":"levelo_inurba_marseille","lat":43.2849,"lon":5.48394,"is_reserved":false,"is_disabled":false,"rental_uris":{"android":"levelo://app?vid=6f98b7a7-ae98-40be-aded-6fe2b547bfca","ios":"levelo://app?vid=6f98b7a7-ae98-40be-aded-6fe2b547bfca"},"vehicle_type_id":"4","last_reported":1762812674,"current_range_meters":3600,"station_id":"","pricing_plan_id":"cebpf4jnsgd1na2vs0mg"},{"bike_id":"15db09df-59b0-446a-87c5-e354a3319258","system_id":"levelo_inurba_marseille","lat":43.28492,"lon":5.48393,"is_reserved":false,"is_disabled":false,"rental_uris":{"android":"levelo://app?vid=15db09df-59b0-446a-87c5-e354a3319258","ios":"levelo://app?vid=15db09df-59b0-446a-87c5-e354a3319258"},"vehicle_type_id":"4","last_reported":1762812674,"current_range_meters":4000,"station_id":"","pricing_plan_id":"cebpf4jnsgd1na2vs0mg"},{"bike_id":"c2f11af9-1f56-469c-a643-0a181c21b850","system_id":"levelo_inurba_marseille","lat":43.29307,"lon":5.37175,"is_reserved":false,"is_disabled":false,"rental_uris":{"android":"levelo://app?vid=c2f11af9-1f56-469c-a643-0a181c21b850","ios":"levelo://app?vid=c2f11af9-1f56-469c-a643-0a181c21b850"},"vehicle_type_id":"4","last_reported":1762812674,"current_range_meters":4000,"station_id":"ce4bgh92rcd13ifvqb40","pricing_plan_id":"cebpf4jnsgd1na2vs0mg"},{"bike_id":"593c3104-1780-4ff9-9af4-86690d73f749","system_id":"levelo_inurba_marseille","lat":43.295147,"lon":5.394045,"is_reserved":false,"is_disabled":false,"rental_uris":{"android":"levelo://app?vid=593c3104-1780-4ff9-9af4-86690d73f749","ios":"levelo://app?vid=593c3104-1780-4ff9-9af4-86690d73f749"},"vehicle_type_id":"4","last_reported":1762812674,"current_range_meters":4000,"station_id":"","pricing_plan_id":"cebpf4jnsgd1na2vs0mg"},{"bike_id":"c1a8951c-0b8b-4e04-9556-ddc347871e56","system_id":"levelo_inurba_marseille","lat":43.33608,"lon":5.35447,"is_reserved":false,"is_disabled":false,"rental_uris":{"android":"levelo://app?vid=c1a8951c-0b8b-4e04-9556-ddc347871e56","ios":"levelo://app?vid=c1a8951c-0b8b-4e04-9556-ddc347871e56"},"vehicle_type_id":"4","last_reported":1762812674,"current_range_meters":4000,"station_id":"","pricing_plan_id":"cebpf4jnsgd1na2vs0mg"},{"bike_id":"8eeaf525-fbd2-4a61-a18d-c244037b4494","system_id":"levelo_inurba_marseille","lat":43.30779,"lon":5.37641,"is_reserved":false,"is_disabled":false,"rental_uris":{"android":"levelo://app?vid=8eeaf525-fbd2-4a61-a18d-c244037b4494","ios":"levelo://app?vid=8eeaf525-fbd2-4a61-a18d-c244037b4494"},"vehicle_type_id":"4","last_reported":1762812674,"current_range_meters":4400,"station_id":"ce4bgv92rcd13ifvqcq0","pricing_plan_id":"cebpf4jnsgd1na2vs0mg"},{"bike_id":"f898cdb3-c2f6-4501-8e06-2f0f07eb471d","system_id":"levelo_inurba_marseille","lat":43.290236,"lon":5.381245,"is_reserved":false,"is_disabled":false,"rental_uris":{"android":"levelo://app?vid=f898cdb3-c2f6-4501-8e06-2f0f07eb471d","ios":"levelo://app?vid=f898cdb3-c2f6-4501-8e06-2f0f07eb471d"},"vehicle_type_id":"4","last_reported":1762812674,"current_range_meters":4400,"station_id":"ce4bh4p2rcd13ifvqe1g","pricing_plan_id":"cebpf4jnsgd1na2vs0mg"},{"bike_id":"7bd80802-0863-4b38-bef4-9b78fecd9652","system_id":"levelo_inurba_marseille","lat":43.289385,"lon":5.3963,"is_reserved":false,"is_disabled":false,"rental_uris":{"android":"levelo://app?vid=7bd80802-0863-4b38-bef4-9b78fecd9652","ios":"levelo://app?vid=7bd80802-0863-4b38-bef4-9b78fecd9652"},"vehicle_type_id":"4","last_reported":1762812674,"current_range_meters":4800,"station_id":"","pricing_plan_id":"cebpf4jnsgd1na2vs0mg"},{"bike_id":"e2f5ebc7-347d-489c-94c6-240ec75a35bf","system_id":"levelo_inurba_marseille","lat":43.23187,"lon":5.39984,"is_reserved":false,"is_disabled":false,"rental_uris":{"android":"levelo://app?vid=e2f5ebc7-347d-489c-94c6-240ec75a35bf","ios":"levelo://app?vid=e2f5ebc7-347d-489c-94c6-240ec75a35bf"},"vehicle_type_id":"4","last_reported":1762812674,"current_range_meters":5600,"station_id":"ce4bhn12rcd13ifvqgqg","pricing_plan_id":"cebpf4jnsgd1na2vs0mg"},{"bike_id":"e9f32197-be1e-4f0a-86d4-a4297374f6f7","system_id":"levelo_inurba_marseille","lat":43.25479,"lon":5.37671,"is_reserved":false,"is_disabled":false,"rental_uris":{"android":"levelo://app?vid=e9f32197-be1e-4f0a-86d4-a4297374f6f7","ios":"levelo://app?vid=e9f32197-be1e-4f0a-86d4-a4297374f6f7"},"vehicle_type_id":"4","last_reported":1762812674,"current_range_meters":5600,"station_id":"ce4bhh12rcd13ifvqff0","pricing_plan_id":"cebpf4jnsgd1na2vs0mg"},{"bike_id":"25b6bf02-c31a-485b-b3e2-4f14e0cdb42c","system_id":"levelo_inurba_marseille","lat":43.30923,"lon":5.40134,"is_reserved":false,"is_disabled":false,"rental_uris":{"android":"levelo://app?vid=25b6bf02-c31a-485b-b3e2-4f14e0cdb42c","ios":"levelo://app?vid=25b6bf02-c31a-485b-b3e2-4f14e0cdb42c"},"vehicle_type_id":"4","last_reported":1762812674,"current_range_meters":5600,"station_id":"ce4bgvp2rcd13ifvqct0","pricing_plan_id":"cebpf4jnsgd1na2vs0mg"},{"bike_id":"9abe4451-d5ed-4488-bfa7-5967ecce73aa","system_id":"levelo_inurba_marseille","lat":43.23967,"lon":5.36628,"is_reserved":false,"is_disabled":false,"rental_uris":{"android":"levelo://app?vid=9abe4451-d5ed-4488-bfa7-5967ecce73aa","ios":"levelo://app?vid=9abe4451-d5ed-4488-bfa7-5967ecce73aa"},"vehicle_type_id":"4","last_reported":1762812674,"current_range_meters":6000,"station_id":"ce4bhi12rcd13ifvqfp0","pricing_plan_id":"cebpf4jnsgd1na2vs0mg"},{"bike_id":"7a041376-145a-4d32-b629-7eeda788f394","system_id":"levelo_inurba_marseille","lat":43.29756,"lon":5.42769,"is_reserved":false,"is_disabled":false,"rental_uris":{"android":"levelo://app?vid=7a041376-145a-4d32-b629-7eeda788f394","ios":"levelo://app?vid=7a041376-145a-4d32-b629-7eeda788f394"},"vehicle_type_id":"4","last_reported":1762812674,"current_range_meters":6000,"station_id":"st_d3md5207bmas73dh9klg","pricing_plan_id":"cebpf4jnsgd1na2vs0mg"},{"bike_id":"8141e900-fdef-42d2-bc8e-9a1fd7194868","system_id":"levelo_inurba_marseille","lat":43.30431,"lon":5.39746,"is_reserved":false,"is_disabled":false,"rental_uris":{"android":"levelo://app?vid=8141e900-fdef-42d2-bc8e-9a1fd7194868","ios":"levelo://app?vid=8141e900-fdef-42d2-bc8e-9a1fd7194868"},"vehicle_type_id":"4","last_reported":1762812674,"current_range_meters":6400,"station_id":"ce4bh092rcd13ifvqd20","pricing_plan_id":"cebpf4jnsgd1na2vs0mg"},{"bike_id":"ef0611b8-db6e-4fda-ad83-d05d06ae9568","system_id":"levelo_inurba_marseille","lat":43.29271,"lon":5.36848,"is_reserved":false,"is_disabled":false,"rental_uris":{"android":"levelo://app?vid=ef0611b8-db6e-4fda-ad83-d05d06ae9568","ios":"levelo://app?vid=ef0611b8-db6e-4fda-ad83-d05d06ae9568"},"vehicle_type_id":"4","last_reported":1762812674,"current_range_meters":6400,"station_id":"ce4bhbp2rcd13ifvqesg","pricing_plan_id":"cebpf4jnsgd1na2vs0mg"},{"bike_id":"bcb7664a-39c2-46f8-930f-41cebd3d0b86","system_id":"levelo_inurba_marseille","lat":43.21192,"lon":5.35071,"is_reserved":false,"is_disabled":true,"rental_uris":{"android":"levelo://app?vid=bcb7664a-39c2-46f8-930f-41cebd3d0b86","ios":"levelo://app?vid=bcb7664a-39c2-46f8-930f-41cebd3d0b86"},"vehicle_type_id":"4","last_reported":1762812674,"current_range_meters":6400,"station_id":"st_cvj6sg6p6f1abm77japg","pricing_plan_id":"cebpf4jnsgd1na2vs0mg"},{"bike_id":"fa6a8f8a-a4e6-4098-bf82-ede47d2001d4","system_id":"levelo_inurba_marseille","lat":43.24668,"lon":5.3812,"is_reserved":false,"is_disabled":false,"rental_uris":{"android":"levelo://app?vid=fa6a8f8a-a4e6-4098-bf82-ede47d2001d4","ios":"levelo://app?vid=fa6a8f8a-a4e6-4098-bf82-ede47d2001d4"},"vehicle_type_id":"4","last_reported":1762812674,"current_range_meters":6800,"station_id":"ce4bhih2rcd13ifvqfr0","pricing_plan_id":"cebpf4jnsgd1na2vs0mg"},{"bike_id":"d0006cd0-fe92-4fc5-96c8-b26bce4c250b","system_id":"levelo_inurba_marseille","lat":43.30909,"lon":5.36838,"is_reserved":false,"is_disabled":false,"rental_uris":{"android":"levelo://app?vid=d0006cd0-fe92-4fc5-96c8-b26bce4c250b","ios":"levelo://app?vid=d0006cd0-fe92-4fc5-96c8-b26bce4c250b"},"vehicle_type_id":"4","last_reported":1762812674,"current_range_meters":6800,"station_id":"ce4bgn92rcd13ifvqbvg","pricing_plan_id":"cebpf4jnsgd1na2vs0mg"},{"bike_id":"5997c6b0-b0f4-4848-a8f1-63ca201df211","system_id":"levelo_inurba_marseille","lat":43.33953,"lon":5.41512,"is_reserved":false,"is_disabled":false,"rental_uris":{"android":"levelo://app?vid=5997c6b0-b0f4-4848-a8f1-63ca201df211","ios":"levelo://app?vid=5997c6b0-b0f4-4848-a8f1-63ca201df211"},"vehicle_type_id":"4","last_reported":1762812674,"current_range_meters":6800,"station_id":"","pricing_plan_id":"cebpf4jnsgd1na2vs0mg"},{"bike_id":"cc715024-b728-4e70-8c9e-3b39211bc7ef","system_id":"levelo_inurba_marseille","lat":43.30792,"lon":5.381511,"is_reserved":false,"is_disabled":false,"rental_uris":{"android":"levelo://app?vid=cc715024-b728-4e70-8c9e-3b39211bc7ef","ios":"levelo://app?vid=cc715024-b728-4e70-8c9e-3b39211bc7ef"},"vehicle_type_id":"4","last_reported":1762812674,"current_range_meters":7200,"station_id":"ce4bgt12rcd13ifvqce0","pricing_plan_id":"cebpf4jnsgd1na2vs0mg"},{"bike_id":"6070274f-3519-489f-af00-0f06b307615f","system_id":"levelo_inurba_marseille","lat":43.28149,"lon":5.4265,"is_reserved":false,"is_disabled":false,"rental_uris":{"android":"levelo://app?vid=6070274f-3519-489f-af00-0f06b307615f","ios":"levelo://app?vid=6070274f-3519-489f-af00-0f06b307615f"},"vehicle_type_id":"4","last_reported":1762812674,"current_range_meters":7200,"station_id":"ce4bhnh2rcd13ifvqgug","pricing_plan_id":"cebpf4jnsgd1na2vs0mg"},{"bike_id":"8298846b-4beb-464e-ae72-19bc05be9ad3","system_id":"levelo_inurba_marseille","lat":43.2603,"lon":5.41736,"is_reserved":false,"is_disabled":false,"rental_uris":{"android":"levelo://app?vid=8298846b-4beb-464e-ae72-19bc05be9ad3","ios":"levelo://app?vid=8298846b-4beb-464e-ae72-19bc05be9ad3"},"vehicle_type_id":"4","last_reported":1762812674,"current_range_meters":7200,"station_id":"","pricing_plan_id":"cebpf4jnsgd1na2vs0mg"},{"bike_id":"9ace3699-2d10-452d-8a6f-3b7436938943","system_id":"levelo_inurba_marseille","lat":43.27992,"lon":5.41665,"is_reserved":false,"is_disabled":false,"rental_uris":{"android":"levelo://app?vid=9ace3699-2d10-452d-8a6f-3b7436938943","ios":"levelo://app?vid=9ace3699-2d10-452d-8a6f-3b7436938943"},"vehicle_type_id":"4","last_reported":1762812674,"current_range_meters":8000,"station_id":"ce4bho12rcd13ifvqh1g","pricing_plan_id":"cebpf4jnsgd1na2vs0mg"},{"bike_id":"e18ba85f-c3d1-48a8-8456-e9cd02a57da4","system_id":"levelo_inurba_marseille","lat":43.25325,"lon":5.42173,"is_reserved":false,"is_disabled":false,"rental_uris":{"android":"levelo://app?vid=e18ba85f-c3d1-48a8-8456-e9cd02a57da4","ios":"levelo://app?vid=e18ba85f-c3d1-48a8-8456-e9cd02a57da4"},"vehicle_type_id":"4","last_reported":1762812674,"current_range_meters":8000,"station_id":"st_d2m65c5bi1j21697t3ng","pricing_plan_id":"cebpf4jnsgd1na2vs0mg"},{"bike_id":"f08621f1-92b2-4985-8a3a-96dd283a7c2b","system_id":"levelo_inurba_marseille","lat":43.31354,"lon":5.37932,"is_reserved":false,"is_disabled":false,"rental_uris":{"android":"levelo://app?vid=f08621f1-92b2-4985-8a3a-96dd283a7c2b","ios":"levelo://app?vid=f08621f1-92b2-4985-8a3a-96dd283a7c2b"},"vehicle_type_id":"4","last_reported":1762812674,"current_range_meters":8400,"station_id":"","pricing_plan_id":"cebpf4jnsgd1na2vs0mg"},{"bike_id":"296b35f4-bf34-48bd-a614-0084f905815f","system_id":"levelo_inurba_marseille","lat":43.29923,"lon":5.36388,"is_reserved":false,"is_disabled":false,"rental_uris":{"android":"levelo://app?vid=296b35f4-bf34-48bd-a614-0084f905815f","ios":"levelo://app?vid=296b35f4-bf34-48bd-a614-0084f905815f"},"vehicle_type_id":"4","last_reported":1762812674,"current_range_meters":8400,"station_id":"","pricing_plan_id":"cebpf4jnsgd1na2vs0mg"},{"bike_id":"07618fb4-fdf4-452a-a76e-4b0defae3541","system_id":"levelo_inurba_marseille","lat":43.225361,"lon":5.348313,"is_reserved":false,"is_disabled":false,"rental_uris":{"android":"levelo://app?vid=07618fb4-fdf4-452a-a76e-4b0defae3541","ios":"levelo://app?vid=07618fb4-fdf4-452a-a76e-4b0defae3541"},"vehicle_type_id":"4","last_reported":1762812674,"current_range_meters":9200,"station_id":"","pricing_plan_id":"cebpf4jnsgd1na2vs0mg"},{"bike_id":"ebdb5bec-ac33-4499-96e4-2713090e0a8e","system_id":"levelo_inurba_marseille","lat":43.29252,"lon":5.38414,"is_reserved":false,"is_disabled":true,"rental_uris":{"android":"levelo://app?vid=ebdb5bec-ac33-4499-96e4-2713090e0a8e","ios":"levelo://app?vid=ebdb5bec-ac33-4499-96e4-2713090e0a8e"},"vehicle_type_id":"4","last_reported":1762812674,"current_range_meters":9200,"station_id":"ce4bh692rcd13ifvqea0","pricing_plan_id":"cebpf4jnsgd1na2vs0mg"},{"bike_id":"edf57e92-02e6-41b6-bd53-6b87cc862278","system_id":"levelo_inurba_marseille","lat":43.30117,"lon":5.39877,"is_reserved":false,"is_disabled":false,"rental_uris":{"android":"levelo://app?vid=edf57e92-02e6-41b6-bd53-6b87cc862278","ios":"levelo://app?vid=edf57e92-02e6-41b6-bd53-6b87cc862278"},"vehicle_type_id":"4","last_reported":1762812674,"current_range_meters":9200,"station_id":"ce4bh0h2rcd13ifvqd40","pricing_plan_id":"cebpf4jnsgd1na2vs0mg"},{"bike_id":"b4cb9bc3-2674-422b-8c74-5594292dd02e","system_id":"levelo_inurba_marseille","lat":43.27539,"lon":5.37509,"is_reserved":false,"is_disabled":false,"rental_uris":{"android":"levelo://app?vid=b4cb9bc3-2674-422b-8c74-5594292dd02e","ios":"levelo://app?vid=b4cb9bc3-2674-422b-8c74-5594292dd02e"},"vehicle_type_id":"4","last_reported":1762812674,"current_range_meters":9200,"station_id":"","pricing_plan_id":"cebpf4jnsgd1na2vs0mg"},{"bike_id":"79ebb990-ac95-487f-b756-01164fca3fd0","system_id":"levelo_inurba_marseille","lat":43.26064,"lon":5.39394,"is_reserved":false,"is_disabled":false,"rental_uris":{"android":"levelo://app?vid=79ebb990-ac95-487f-b756-01164fca3fd0","ios":"levelo://app?vid=79ebb990-ac95-487f-b756-01164fca3fd0"},"vehicle_type_id":"4","last_reported":1762812674,"current_range_meters":9200,"station_id":"ce4bhh92rcd13ifvqfj0","pricing_plan_id":"cebpf4jnsgd1na2vs0mg"},{"bike_id":"088df78c-6b8f-4cd0-9523-05494d878b88","system_id":"levelo_inurba_marseille","lat":43.28378,"lon":5.38632,"is_reserved":false,"is_disabled":false,"rental_uris":{"android":"levelo://app?vid=088df78c-6b8f-4cd0-9523-05494d878b88","ios":"levelo://app?vid=088df78c-6b8f-4cd0-9523-05494d878b88"},"vehicle_type_id":"4","last_reported":1762812674,"current_range_meters":9600,"station_id":"ce4bh492rcd13ifvqdvg","pricing_plan_id":"cebpf4jnsgd1na2vs0mg"},{"bike_id":"ab4ac132-5519-4aac-ac12-8b8c2929bb7e","system_id":"levelo_inurba_marseille","lat":43.32302,"lon":5.38493,"is_reserved":false,"is_disabled":true,"rental_uris":{"android":"levelo://app?vid=ab4ac132-5519-4aac-ac12-8b8c2929bb7e","ios":"levelo://app?vid=ab4ac132-5519-4aac-ac12-8b8c2929bb7e"},"vehicle_type_id":"4","last_reported":1762812674,"current_range_meters":9600,"station_id":"st_d45171o9ee8s73djdqug","pricing_plan_id":"cebpf4jnsgd1na2vs0mg"},{"bike_id":"be3d8650-9293-46bc-b0c9-a47bad563b96","system_id":"levelo_inurba_marseille","lat":43.21754,"lon":5.34602,"is_reserved":false,"is_disabled":false,"rental_uris":{"android":"levelo://app?vid=be3d8650-9293-46bc-b0c9-a47bad563b96","ios":"levelo://app?vid=be3d8650-9293-46bc-b0c9-a47bad563b96"},"vehicle_type_id":"4","last_reported":1762812674,"current_range_meters":9600,"station_id":"st_cvj6r9ubvosntc0bgbag","pricing_plan_id":"cebpf4jnsgd1na2vs0mg"},{"bike_id":"39ff6a52-7c15-4e36-9056-950efe8be9ca","system_id":"levelo_inurba_marseille","lat":43.28476,"lon":5.48395,"is_reserved":false,"is_disabled":false,"rental_uris":{"android":"levelo://app?vid=39ff6a52-7c15-4e36-9056-950efe8be9ca","ios":"levelo://app?vid=39ff6a52-7c15-4e36-9056-950efe8be9ca"},"vehicle_type_id":"4","last_reported":1762812674,"current_range_meters":9600,"station_id":"","pricing_plan_id":"cebpf4jnsgd1na2vs0mg"},{"bike_id":"d32acf6f-21aa-4fbf-bed6-33d296ca0f9f","system_id":"levelo_inurba_marseille","lat":43.21754,"lon":5.34621,"is_reserved":false,"is_disabled":false,"rental_uris":{"android":"levelo://app?vid=d32acf6f-21aa-4fbf-bed6-33d296ca0f9f","ios":"levelo://app?vid=d32acf6f-21aa-4fbf-bed6-33d296ca0f9f"},"vehicle_type_id":"4","last_reported":1762812674,"current_range_meters":10000,"station_id":"st_cvj6r9ubvosntc0bgbag","pricing_plan_id":"cebpf4jnsgd1na2vs0mg"},{"bike_id":"a906f7c6-e9b7-42af-8bd2-6e1feeb979a5","system_id":"levelo_inurba_marseille","lat":43.28854,"lon":5.3955,"is_reserved":false,"is_disabled":false,"rental_uris":{"android":"levelo://app?vid=a906f7c6-e9b7-42af-8bd2-6e1feeb979a5","ios":"levelo://app?vid=a906f7c6-e9b7-42af-8bd2-6e1feeb979a5"},"vehicle_type_id":"4","last_reported":1762812674,"current_range_meters":10000,"station_id":"","pricing_plan_id":"cebpf4jnsgd1na2vs0mg"},{"bike_id":"2fbc5984-23e2-4bfb-ab2c-c28302b6693e","system_id":"levelo_inurba_marseille","lat":43.28109,"lon":5.37835,"is_reserved":false,"is_disabled":false,"rental_uris":{"android":"levelo://app?vid=2fbc5984-23e2-4bfb-ab2c-c28302b6693e","ios":"levelo://app?vid=2fbc5984-23e2-4bfb-ab2c-c28302b6693e"},"vehicle_type_id":"4","last_reported":1762812674,"current_range_meters":10000,"station_id":"ce4bha12rcd13ifvqee0","pricing_plan_id":"cebpf4jnsgd1na2vs0mg"},{"bike_id":"45647221-5c69-443e-8eb2-d66dfb530235","system_id":"levelo_inurba_marseille","lat":43.262268,"lon":5.404506,"is_reserved":false,"is_disabled":false,"rental_uris":{"android":"levelo://app?vid=45647221-5c69-443e-8eb2-d66dfb530235","ios":"levelo://app?vid=45647221-5c69-443e-8eb2-d66dfb530235"},"vehicle_type_id":"4","last_reported":1762812674,"current_range_meters":10800,"station_id":"ce4bhmh2rcd13ifvqgmg","pricing_plan_id":"cebpf4jnsgd1na2vs0mg"},{"bike_id":"96807a8e-1b45-4a36-b7ed-92091f4bcaf6","system_id":"levelo_inurba_marseille","lat":43.30555,"lon":5.40141,"is_reserved":false,"is_disabled":true,"rental_uris":{"android":"levelo://app?vid=96807a8e-1b45-4a36-b7ed-92091f4bcaf6","ios":"levelo://app?vid=96807a8e-1b45-4a36-b7ed-92091f4bcaf6"},"vehicle_type_id":"4","last_reported":1762812674,"current_range_meters":10800,"station_id":"","pricing_plan_id":"cebpf4jnsgd1na2vs0mg"},{"bike_id":"6ae87b41-3981-4b69-b43c-0b6bde62265a","system_id":"levelo_inurba_marseille","lat":43.33792,"lon":5.37418,"is_reserved":false,"is_disabled":false,"rental_uris":{"android":"levelo://app?vid=6ae87b41-3981-4b69-b43c-0b6bde62265a","ios":"levelo://app?vid=6ae87b41-3981-4b69-b43c-0b6bde62265a"},"vehicle_type_id":"4","last_reported":1762812674,"current_range_meters":10800,"station_id":"","pricing_plan_id":"cebpf4jnsgd1na2vs0mg"},{"bike_id":"77920ee6-1944-4f7a-b6fc-9aa5e2636094","system_id":"levelo_inurba_marseille","lat":43.30002,"lon":5.38162,"is_reserved":false,"is_disabled":false,"rental_uris":{"android":"levelo://app?vid=77920ee6-1944-4f7a-b6fc-9aa5e2636094","ios":"levelo://app?vid=77920ee6-1944-4f7a-b6fc-9aa5e2636094"},"vehicle_type_id":"4","last_reported":1762812674,"current_range_meters":10800,"station_id":"","pricing_plan_id":"cebpf4jnsgd1na2vs0mg"},{"bike_id":"b5c4eef7-c933-41c2-a6fc-72bf1dce1419","system_id":"levelo_inurba_marseille","lat":43.29536,"lon":5.38556,"is_reserved":false,"is_disabled":false,"rental_uris":{"android":"levelo://app?vid=b5c4eef7-c933-41c2-a6fc-72bf1dce1419","ios":"levelo://app?vid=b5c4eef7-c933-41c2-a6fc-72bf1dce1419"},"vehicle_type_id":"4","last_reported":1762812674,"current_range_meters":10800,"station_id":"ce4bgih2rcd13ifvqba0","pricing_plan_id":"cebpf4jnsgd1na2vs0mg"},{"bike_id":"93b49ebf-d9fa-49cd-9da3-22e867a810f3","system_id":"levelo_inurba_marseille","lat":43.29741,"lon":5.41106,"is_reserved":false,"is_disabled":false,"rental_uris":{"android":"levelo://app?vid=93b49ebf-d9fa-49cd-9da3-22e867a810f3","ios":"levelo://app?vid=93b49ebf-d9fa-49cd-9da3-22e867a810f3"},"vehicle_type_id":"4","last_reported":1762812674,"current_range_meters":10800,"station_id":"","pricing_plan_id":"cebpf4jnsgd1na2vs0mg"},{"bike_id":"ffe050e8-e964-43f0-affe-fdb013a22c0b","system_id":"levelo_inurba_marseille","lat":43.28474,"lon":5.48417,"is_reserved":false,"is_disabled":false,"rental_uris":{"android":"levelo://app?vid=ffe050e8-e964-43f0-affe-fdb013a22c0b","ios":"levelo://app?vid=ffe050e8-e964-43f0-affe-fdb013a22c0b"},"vehicle_type_id":"4","last_reported":1762812674,"current_range_meters":10800,"station_id":"","pricing_plan_id":"cebpf4jnsgd1na2vs0mg"},{"bike_id":"cc7e9749-d205-466e-a3ba-a04ec3ee1c9f","system_id":"levelo_inurba_marseille","lat":43.270714,"lon":5.422774,"is_reserved":false,"is_disabled":false,"rental_uris":{"android":"levelo://app?vid=cc7e9749-d205-466e-a3ba-a04ec3ee1c9f","ios":"levelo://app?vid=cc7e9749-d205-466e-a3ba-a04ec3ee1c9f"},"vehicle_type_id":"4","last_reported":1762812674,"current_range_meters":11200,"station_id":"ce4bhk92rcd13ifvqgb0","pricing_plan_id":"cebpf4jnsgd1na2vs0mg"},{"bike_id":"81ae76cc-b801-4759-b58f-2b51d812735a","system_id":"levelo_inurba_marseille","lat":43.21754,"lon":5.34603,"is_reserved":false,"is_disabled":false,"rental_uris":{"android":"levelo://app?vid=81ae76cc-b801-4759-b58f-2b51d812735a","ios":"levelo://app?vid=81ae76cc-b801-4759-b58f-2b51d812735a"},"vehicle_type_id":"4","last_reported":1762812674,"current_range_meters":11200,"station_id":"st_cvj6r9ubvosntc0bgbag","pricing_plan_id":"cebpf4jnsgd1na2vs0mg"},{"bike_id":"e514181b-0d58-4655-bea7-51d9bb4eef7c","system_id":"levelo_inurba_marseille","lat":43.25336,"lon":5.42173,"is_reserved":false,"is_disabled":false,"rental_uris":{"android":"levelo://app?vid=e514181b-0d58-4655-bea7-51d9bb4eef7c","ios":"levelo://app?vid=e514181b-0d58-4655-bea7-51d9bb4eef7c"},"vehicle_type_id":"4","last_reported":1762812674,"current_range_meters":11200,"station_id":"st_d2m65c5bi1j21697t3ng","pricing_plan_id":"cebpf4jnsgd1na2vs0mg"},{"bike_id":"ac8a8750-1d87-4cf8-9c77-e78b99da5512","system_id":"levelo_inurba_marseille","lat":43.23605,"lon":5.361713,"is_reserved":false,"is_disabled":false,"rental_uris":{"android":"levelo://app?vid=ac8a8750-1d87-4cf8-9c77-e78b99da5512","ios":"levelo://app?vid=ac8a8750-1d87-4cf8-9c77-e78b99da5512"},"vehicle_type_id":"4","last_reported":1762812674,"current_range_meters":11200,"station_id":"","pricing_plan_id":"cebpf4jnsgd1na2vs0mg"},{"bike_id":"896a0fc4-e98e-425f-b646-7db4d5ace172","system_id":"levelo_inurba_marseille","lat":43.3199,"lon":5.38155,"is_reserved":false,"is_disabled":true,"rental_uris":{"android":"levelo://app?vid=896a0fc4-e98e-425f-b646-7db4d5ace172","ios":"levelo://app?vid=896a0fc4-e98e-425f-b646-7db4d5ace172"},"vehicle_type_id":"4","last_reported":1762812674,"current_range_meters":11200,"station_id":"ce4bhr12rcd13ifvqhpg","pricing_plan_id":"cebpf4jnsgd1na2vs0mg"},{"bike_id":"33382fd9-7369-4606-a4d3-9ef89d743f75","system_id":"levelo_inurba_marseille","lat":43.29285,"lon":5.37153,"is_reserved":false,"is_disabled":false,"rental_uris":{"android":"levelo://app?vid=33382fd9-7369-4606-a4d3-9ef89d743f75","ios":"levelo://app?vid=33382fd9-7369-4606-a4d3-9ef89d743f75"},"vehicle_type_id":"4","last_reported":1762812674,"current_range_meters":11200,"station_id":"ce4bgh92rcd13ifvqb40","pricing_plan_id":"cebpf4jnsgd1na2vs0mg"},{"bike_id":"24de70df-9b80-4721-8771-f61cb7be1ef9","system_id":"levelo_inurba_marseille","lat":43.3192,"lon":5.38126,"is_reserved":false,"is_disabled":false,"rental_uris":{"android":"levelo://app?vid=24de70df-9b80-4721-8771-f61cb7be1ef9","ios":"levelo://app?vid=24de70df-9b80-4721-8771-f61cb7be1ef9"},"vehicle_type_id":"4","last_reported":1762812674,"current_range_meters":11200,"station_id":"","pricing_plan_id":"cebpf4jnsgd1na2vs0mg"},{"bike_id":"d331b58f-0754-4181-93f7-d4d5e2f8b496","system_id":"levelo_inurba_marseille","lat":43.225347,"lon":5.348291,"is_reserved":false,"is_disabled":false,"rental_uris":{"android":"levelo://app?vid=d331b58f-0754-4181-93f7-d4d5e2f8b496","ios":"levelo://app?vid=d331b58f-0754-4181-93f7-d4d5e2f8b496"},"vehicle_type_id":"4","last_reported":1762812674,"current_range_meters":11200,"station_id":"","pricing_plan_id":"cebpf4jnsgd1na2vs0mg"},{"bike_id":"800e0191-8705-4306-b8be-ec1495e20aa4","system_id":"levelo_inurba_marseille","lat":43.28936,"lon":5.39631,"is_reserved":false,"is_disabled":false,"rental_uris":{"android":"levelo://app?vid=800e0191-8705-4306-b8be-ec1495e20aa4","ios":"levelo://app?vid=800e0191-8705-4306-b8be-ec1495e20aa4"},"vehicle_type_id":"4","last_reported":1762812674,"current_range_meters":11200,"station_id":"ce4bh3h2rcd13ifvqdn0","pricing_plan_id":"cebpf4jnsgd1na2vs0mg"},{"bike_id":"fb0e6bea-d078-4452-905b-07db49a4858c","system_id":"levelo_inurba_marseille","lat":43.28487,"lon":5.48408,"is_reserved":false,"is_disabled":false,"rental_uris":{"android":"levelo://app?vid=fb0e6bea-d078-4452-905b-07db49a4858c","ios":"levelo://app?vid=fb0e6bea-d078-4452-905b-07db49a4858c"},"vehicle_type_id":"4","last_reported":1762812674,"current_range_meters":11200,"station_id":"","pricing_plan_id":"cebpf4jnsgd1na2vs0mg"},{"bike_id":"eeb4f6c6-0773-48b0-b402-394c440f4bbc","system_id":"levelo_inurba_marseille","lat":43.29506,"lon":5.39394,"is_reserved":false,"is_disabled":true,"rental_uris":{"android":"levelo://app?vid=eeb4f6c6-0773-48b0-b402-394c440f4bbc","ios":"levelo://app?vid=eeb4f6c6-0773-48b0-b402-394c440f4bbc"},"vehicle_type_id":"4","last_reported":1762812674,"current_range_meters":11200,"station_id":"ce4bh292rcd13ifvqdf0","pricing_plan_id":"cebpf4jnsgd1na2vs0mg"},{"bike_id":"ce74b7d5-f6bc-493c-b4de-c059351424e9","system_id":"levelo_inurba_marseille","lat":43.31171,"lon":5.38715,"is_reserved":false,"is_disabled":true,"rental_uris":{"android":"levelo://app?vid=ce74b7d5-f6bc-493c-b4de-c059351424e9","ios":"levelo://app?vid=ce74b7d5-f6bc-493c-b4de-c059351424e9"},"vehicle_type_id":"4","last_reported":1762812674,"current_range_meters":11200,"station_id":"ce4bgv12rcd13ifvqcp0","pricing_plan_id":"cebpf4jnsgd1na2vs0mg"},{"bike_id":"16a2af70-4270-4d88-b22c-fc9e929c8994","system_id":"levelo_inurba_marseille","lat":43.30304,"lon":5.39214,"is_reserved":false,"is_disabled":false,"rental_uris":{"android":"levelo://app?vid=16a2af70-4270-4d88-b22c-fc9e929c8994","ios":"levelo://app?vid=16a2af70-4270-4d88-b22c-fc9e929c8994"},"vehicle_type_id":"4","last_reported":1762812674,"current_range_meters":11200,"station_id":"ce4bgkh2rcd13ifvqbk0","pricing_plan_id":"cebpf4jnsgd1na2vs0mg"},{"bike_id":"ed63a729-2c24-4076-bfcb-5692187ed558","system_id":"levelo_inurba_marseille","lat":43.26581,"lon":5.40318,"is_reserved":false,"is_disabled":false,"rental_uris":{"android":"levelo://app?vid=ed63a729-2c24-4076-bfcb-5692187ed558","ios":"levelo://app?vid=ed63a729-2c24-4076-bfcb-5692187ed558"},"vehicle_type_id":"4","last_reported":1762812674,"current_range_meters":11200,"station_id":"ce4bhmp2rcd13ifvqgng","pricing_plan_id":"cebpf4jnsgd1na2vs0mg"},{"bike_id":"2d003246-289e-4235-87e3-d86a55465f5e","system_id":"levelo_inurba_marseille","lat":43.29892,"lon":5.37537,"is_reserved":false,"is_disabled":false,"rental_uris":{"android":"levelo://app?vid=2d003246-289e-4235-87e3-d86a55465f5e","ios":"levelo://app?vid=2d003246-289e-4235-87e3-d86a55465f5e"},"vehicle_type_id":"4","last_reported":1762812674,"current_range_meters":11600,"station_id":"","pricing_plan_id":"cebpf4jnsgd1na2vs0mg"},{"bike_id":"6a6a3d47-88c2-4d92-a474-8f3788a6af57","system_id":"levelo_inurba_marseille","lat":43.30124,"lon":5.43123,"is_reserved":false,"is_disabled":false,"rental_uris":{"android":"levelo://app?vid=6a6a3d47-88c2-4d92-a474-8f3788a6af57","ios":"levelo://app?vid=6a6a3d47-88c2-4d92-a474-8f3788a6af57"},"vehicle_type_id":"4","last_reported":1762812674,"current_range_meters":11600,"station_id":"st_d3js3co5814s73ftftug","pricing_plan_id":"cebpf4jnsgd1na2vs0mg"},{"bike_id":"fc060f43-44b3-413f-ad17-c77810326c57","system_id":"levelo_inurba_marseille","lat":43.29522,"lon":5.39403,"is_reserved":false,"is_disabled":false,"rental_uris":{"android":"levelo://app?vid=fc060f43-44b3-413f-ad17-c77810326c57","ios":"levelo://app?vid=fc060f43-44b3-413f-ad17-c77810326c57"},"vehicle_type_id":"4","last_reported":1762812674,"current_range_meters":11600,"station_id":"ce4bh292rcd13ifvqdf0","pricing_plan_id":"cebpf4jnsgd1na2vs0mg"},{"bike_id":"19d97750-977b-4379-8bf5-4d571f1f6aec","system_id":"levelo_inurba_marseille","lat":43.34114,"lon":5.40715,"is_reserved":false,"is_disabled":false,"rental_uris":{"android":"levelo://app?vid=19d97750-977b-4379-8bf5-4d571f1f6aec","ios":"levelo://app?vid=19d97750-977b-4379-8bf5-4d571f1f6aec"},"vehicle_type_id":"4","last_reported":1762812674,"current_range_meters":11600,"station_id":"","pricing_plan_id":"cebpf4jnsgd1na2vs0mg"},{"bike_id":"65417ce1-2776-4dc6-8aca-118ed3563d0f","system_id":"levelo_inurba_marseille","lat":43.22567,"lon":5.41644,"is_reserved":false,"is_disabled":false,"rental_uris":{"android":"levelo://app?vid=65417ce1-2776-4dc6-8aca-118ed3563d0f","ios":"levelo://app?vid=65417ce1-2776-4dc6-8aca-118ed3563d0f"},"vehicle_type_id":"4","last_reported":1762812674,"current_range_meters":11600,"station_id":"st_d2o4gvlbi1j2169b742g","pricing_plan_id":"cebpf4jnsgd1na2vs0mg"},{"bike_id":"efa71dda-7de7-469b-bcf8-5ba17c7af271","system_id":"levelo_inurba_marseille","lat":43.292833,"lon":5.368387,"is_reserved":false,"is_disabled":false,"rental_uris":{"android":"levelo://app?vid=efa71dda-7de7-469b-bcf8-5ba17c7af271","ios":"levelo://app?vid=efa71dda-7de7-469b-bcf8-5ba17c7af271"},"vehicle_type_id":"4","last_reported":1762812674,"current_range_meters":11600,"station_id":"ce4bhbp2rcd13ifvqesg","pricing_plan_id":"cebpf4jnsgd1na2vs0mg"},{"bike_id":"24e988b4-3e95-4f9e-bd68-257986f5dcb4","system_id":"levelo_inurba_marseille","lat":43.33786,"lon":5.40649,"is_reserved":false,"is_disabled":false,"rental_uris":{"android":"levelo://app?vid=24e988b4-3e95-4f9e-bd68-257986f5dcb4","ios":"levelo://app?vid=24e988b4-3e95-4f9e-bd68-257986f5dcb4"},"vehicle_type_id":"4","last_reported":1762812674,"current_range_meters":12000,"station_id":"","pricing_plan_id":"cebpf4jnsgd1na2vs0mg"},{"bike_id":"d4f8445f-c08b-4ec0-bd23-f4923b49b196","system_id":"levelo_inurba_marseille","lat":43.29027,"lon":5.38633,"is_reserved":false,"is_disabled":false,"rental_uris":{"android":"levelo://app?vid=d4f8445f-c08b-4ec0-bd23-f4923b49b196","ios":"levelo://app?vid=d4f8445f-c08b-4ec0-bd23-f4923b49b196"},"vehicle_type_id":"4","last_reported":1762812674,"current_range_meters":12000,"station_id":"ce4bh4p2rcd13ifvqe0g","pricing_plan_id":"cebpf4jnsgd1na2vs0mg"},{"bike_id":"6bc3789a-2114-48e0-80cb-310ee71707d8","system_id":"levelo_inurba_marseille","lat":43.285402,"lon":5.440971,"is_reserved":false,"is_disabled":false,"rental_uris":{"android":"levelo://app?vid=6bc3789a-2114-48e0-80cb-310ee71707d8","ios":"levelo://app?vid=6bc3789a-2114-48e0-80cb-310ee71707d8"},"vehicle_type_id":"4","last_reported":1762812674,"current_range_meters":12000,"station_id":"st_d3j3df2ikq2c7380ej80","pricing_plan_id":"cebpf4jnsgd1na2vs0mg"},{"bike_id":"bb673994-b9ec-4ca4-a388-67c43209657a","system_id":"levelo_inurba_marseille","lat":43.30714,"lon":5.36831,"is_reserved":false,"is_disabled":false,"rental_uris":{"android":"levelo://app?vid=bb673994-b9ec-4ca4-a388-67c43209657a","ios":"levelo://app?vid=bb673994-b9ec-4ca4-a388-67c43209657a"},"vehicle_type_id":"4","last_reported":1762812674,"current_range_meters":12000,"station_id":"","pricing_plan_id":"cebpf4jnsgd1na2vs0mg"},{"bike_id":"029cf118-7bbb-43a1-bdde-a12b5b13016b","system_id":"levelo_inurba_marseille","lat":43.29963,"lon":5.41326,"is_reserved":false,"is_disabled":false,"rental_uris":{"android":"levelo://app?vid=029cf118-7bbb-43a1-bdde-a12b5b13016b","ios":"levelo://app?vid=029cf118-7bbb-43a1-bdde-a12b5b13016b"},"vehicle_type_id":"4","last_reported":1762812674,"current_range_meters":12000,"station_id":"ce4bhp12rcd13ifvqh9g","pricing_plan_id":"cebpf4jnsgd1na2vs0mg"},{"bike_id":"fd572400-4e62-443b-b2d9-86ea88c2dfdf","system_id":"levelo_inurba_marseille","lat":43.21752,"lon":5.34613,"is_reserved":false,"is_disabled":true,"rental_uris":{"android":"levelo://app?vid=fd572400-4e62-443b-b2d9-86ea88c2dfdf","ios":"levelo://app?vid=fd572400-4e62-443b-b2d9-86ea88c2dfdf"},"vehicle_type_id":"4","last_reported":1762812674,"current_range_meters":12000,"station_id":"","pricing_plan_id":"cebpf4jnsgd1na2vs0mg"},{"bike_id":"9b25880f-a64a-416b-864b-54f865b4f13b","system_id":"levelo_inurba_marseille","lat":43.29295,"lon":5.3715,"is_reserved":false,"is_disabled":false,"rental_uris":{"android":"levelo://app?vid=9b25880f-a64a-416b-864b-54f865b4f13b","ios":"levelo://app?vid=9b25880f-a64a-416b-864b-54f865b4f13b"},"vehicle_type_id":"4","last_reported":1762812674,"current_range_meters":12000,"station_id":"ce4bgh92rcd13ifvqb40","pricing_plan_id":"cebpf4jnsgd1na2vs0mg"},{"bike_id":"b7589c36-c725-4ae0-a367-12f6a2c5f1ef","system_id":"levelo_inurba_marseille","lat":43.29815,"lon":5.44075,"is_reserved":false,"is_disabled":false,"rental_uris":{"android":"levelo://app?vid=b7589c36-c725-4ae0-a367-12f6a2c5f1ef","ios":"levelo://app?vid=b7589c36-c725-4ae0-a367-12f6a2c5f1ef"},"vehicle_type_id":"4","last_reported":1762812674,"current_range_meters":12400,"station_id":"st_d3jp68qikq2c7381ktn0","pricing_plan_id":"cebpf4jnsgd1na2vs0mg"},{"bike_id":"61dce50e-6510-4945-af49-a43ad9d82ef9","system_id":"levelo_inurba_marseille","lat":43.29204,"lon":5.3933,"is_reserved":false,"is_disabled":false,"rental_uris":{"android":"levelo://app?vid=61dce50e-6510-4945-af49-a43ad9d82ef9","ios":"levelo://app?vid=61dce50e-6510-4945-af49-a43ad9d82ef9"},"vehicle_type_id":"4","last_reported":1762812674,"current_range_meters":12400,"station_id":"ce4bh192rcd13ifvqdd0","pricing_plan_id":"cebpf4jnsgd1na2vs0mg"},{"bike_id":"1086c95b-b74f-4e99-9e15-ae33be8101e5","system_id":"levelo_inurba_marseille","lat":43.30147,"lon":5.3763,"is_reserved":false,"is_disabled":false,"rental_uris":{"android":"levelo://app?vid=1086c95b-b74f-4e99-9e15-ae33be8101e5","ios":"levelo://app?vid=1086c95b-b74f-4e99-9e15-ae33be8101e5"},"vehicle_type_id":"4","last_reported":1762812674,"current_range_meters":12400,"station_id":"","pricing_plan_id":"cebpf4jnsgd1na2vs0mg"},{"bike_id":"d68251d0-1943-4657-a149-37535cb91892","system_id":"levelo_inurba_marseille","lat":43.31085,"lon":5.42436,"is_reserved":false,"is_disabled":false,"rental_uris":{"android":"levelo://app?vid=d68251d0-1943-4657-a149-37535cb91892","ios":"levelo://app?vid=d68251d0-1943-4657-a149-37535cb91892"},"vehicle_type_id":"4","last_reported":1762812674,"current_range_meters":12400,"station_id":"ce4bhp92rcd13ifvqhag","pricing_plan_id":"cebpf4jnsgd1na2vs0mg"},{"bike_id":"9c241647-20ac-4941-8d18-01a6e3add973","system_id":"levelo_inurba_marseille","lat":43.24537,"lon":5.39555,"is_reserved":false,"is_disabled":true,"rental_uris":{"android":"levelo://app?vid=9c241647-20ac-4941-8d18-01a6e3add973","ios":"levelo://app?vid=9c241647-20ac-4941-8d18-01a6e3add973"},"vehicle_type_id":"4","last_reported":1762812674,"current_range_meters":12400,"station_id":"ce4bhlp2rcd13ifvqgjg","pricing_plan_id":"cebpf4jnsgd1na2vs0mg"},{"bike_id":"a33005c1-f643-4adb-8bee-fa011c7be68c","system_id":"levelo_inurba_marseille","lat":43.22532,"lon":5.34831,"is_reserved":false,"is_disabled":false,"rental_uris":{"android":"levelo://app?vid=a33005c1-f643-4adb-8bee-fa011c7be68c","ios":"levelo://app?vid=a33005c1-f643-4adb-8bee-fa011c7be68c"},"vehicle_type_id":"4","last_reported":1762812674,"current_range_meters":12400,"station_id":"","pricing_plan_id":"cebpf4jnsgd1na2vs0mg"},{"bike_id":"9fc59d22-8e56-48e1-b7b6-6b21b0982bb9","system_id":"levelo_inurba_marseille","lat":43.23193,"lon":5.35549,"is_reserved":false,"is_disabled":false,"rental_uris":{"android":"levelo://app?vid=9fc59d22-8e56-48e1-b7b6-6b21b0982bb9","ios":"levelo://app?vid=9fc59d22-8e56-48e1-b7b6-6b21b0982bb9"},"vehicle_type_id":"4","last_reported":1762812674,"current_range_meters":12400,"station_id":"ce4bhu92rcd13ifvqi70","pricing_plan_id":"cebpf4jnsgd1na2vs0mg"},{"bike_id":"9a00faeb-2967-47dd-bb7a-fab347bc5d7f","system_id":"levelo_inurba_marseille","lat":43.30086,"lon":5.38281,"is_reserved":false,"is_disabled":false,"rental_uris":{"android":"levelo://app?vid=9a00faeb-2967-47dd-bb7a-fab347bc5d7f","ios":"levelo://app?vid=9a00faeb-2967-47dd-bb7a-fab347bc5d7f"},"vehicle_type_id":"4","last_reported":1762812674,"current_range_meters":12400,"station_id":"","pricing_plan_id":"cebpf4jnsgd1na2vs0mg"},{"bike_id":"c64fee4c-3836-4a94-a755-da7f55e34d14","system_id":"levelo_inurba_marseille","lat":43.29537,"lon":5.38541,"is_reserved":false,"is_disabled":false,"rental_uris":{"android":"levelo://app?vid=c64fee4c-3836-4a94-a755-da7f55e34d14","ios":"levelo://app?vid=c64fee4c-3836-4a94-a755-da7f55e34d14"},"vehicle_type_id":"4","last_reported":1762812674,"current_range_meters":12400,"station_id":"ce4bgih2rcd13ifvqba0","pricing_plan_id":"cebpf4jnsgd1na2vs0mg"},{"bike_id":"4ef56f27-b618-4191-843e-9c861890082c","system_id":"levelo_inurba_marseille","lat":43.285496,"lon":5.392399,"is_reserved":false,"is_disabled":true,"rental_uris":{"android":"levelo://app?vid=4ef56f27-b618-4191-843e-9c861890082c","ios":"levelo://app?vid=4ef56f27-b618-4191-843e-9c861890082c"},"vehicle_type_id":"4","last_reported":1762812674,"current_range_meters":12400,"station_id":"","pricing_plan_id":"cebpf4jnsgd1na2vs0mg"},{"bike_id":"9be94b56-15ef-463f-ba7e-e63df6171cb1","system_id":"levelo_inurba_marseille","lat":43.21746,"lon":5.34605,"is_reserved":false,"is_disabled":false,"rental_uris":{"android":"levelo://app?vid=9be94b56-15ef-463f-ba7e-e63df6171cb1","ios":"levelo://app?vid=9be94b56-15ef-463f-ba7e-e63df6171cb1"},"vehicle_type_id":"4","last_reported":1762812674,"current_range_meters":12400,"station_id":"st_cvj6r9ubvosntc0bgbag","pricing_plan_id":"cebpf4jnsgd1na2vs0mg"},{"bike_id":"b646a158-2a00-4a5f-b725-1c8e4c990367","system_id":"levelo_inurba_marseille","lat":43.28536,"lon":5.44104,"is_reserved":false,"is_disabled":false,"rental_uris":{"android":"levelo://app?vid=b646a158-2a00-4a5f-b725-1c8e4c990367","ios":"levelo://app?vid=b646a158-2a00-4a5f-b725-1c8e4c990367"},"vehicle_type_id":"4","last_reported":1762812674,"current_range_meters":12800,"station_id":"st_d3j3df2ikq2c7380ej80","pricing_plan_id":"cebpf4jnsgd1na2vs0mg"},{"bike_id":"e3ca31e7-8c60-464d-95fd-3aad12a4aaf3","system_id":"levelo_inurba_marseille","lat":43.30962,"lon":5.38294,"is_reserved":false,"is_disabled":false,"rental_uris":{"android":"levelo://app?vid=e3ca31e7-8c60-464d-95fd-3aad12a4aaf3","ios":"levelo://app?vid=e3ca31e7-8c60-464d-95fd-3aad12a4aaf3"},"vehicle_type_id":"4","last_reported":1762812674,"current_range_meters":12800,"station_id":"","pricing_plan_id":"cebpf4jnsgd1na2vs0mg"},{"bike_id":"14ae8280-220d-4b5f-b74a-98c3bf5b5927","system_id":"levelo_inurba_marseille","lat":43.29613,"lon":5.37739,"is_reserved":false,"is_disabled":true,"rental_uris":{"android":"levelo://app?vid=14ae8280-220d-4b5f-b74a-98c3bf5b5927","ios":"levelo://app?vid=14ae8280-220d-4b5f-b74a-98c3bf5b5927"},"vehicle_type_id":"4","last_reported":1762812674,"current_range_meters":12800,"station_id":"ce4bgi92rcd13ifvqb90","pricing_plan_id":"cebpf4jnsgd1na2vs0mg"},{"bike_id":"d868764c-db05-41d0-a0d0-b9b0f856b6dc","system_id":"levelo_inurba_marseille","lat":43.31066,"lon":5.38352,"is_reserved":false,"is_disabled":false,"rental_uris":{"android":"levelo://app?vid=d868764c-db05-41d0-a0d0-b9b0f856b6dc","ios":"levelo://app?vid=d868764c-db05-41d0-a0d0-b9b0f856b6dc"},"vehicle_type_id":"4","last_reported":1762812674,"current_range_meters":12800,"station_id":"ce4bgv92rcd13ifvqcr0","pricing_plan_id":"cebpf4jnsgd1na2vs0mg"},{"bike_id":"cb81e143-8757-4e98-a0c3-c6e0658de95c","system_id":"levelo_inurba_marseille","lat":43.31334,"lon":5.39691,"is_reserved":false,"is_disabled":false,"rental_uris":{"android":"levelo://app?vid=cb81e143-8757-4e98-a0c3-c6e0658de95c","ios":"levelo://app?vid=cb81e143-8757-4e98-a0c3-c6e0658de95c"},"vehicle_type_id":"4","last_reported":1762812674,"current_range_meters":12800,"station_id":"ce4bgvp2rcd13ifvqcu0","pricing_plan_id":"cebpf4jnsgd1na2vs0mg"},{"bike_id":"bc073eec-9acd-4364-9e4d-76a8d8739999","system_id":"levelo_inurba_marseille","lat":43.28863,"lon":5.42518,"is_reserved":false,"is_disabled":false,"rental_uris":{"android":"levelo://app?vid=bc073eec-9acd-4364-9e4d-76a8d8739999","ios":"levelo://app?vid=bc073eec-9acd-4364-9e4d-76a8d8739999"},"vehicle_type_id":"4","last_reported":1762812674,"current_range_meters":12800,"station_id":"st_d3b462108ojc7389ooeg","pricing_plan_id":"cebpf4jnsgd1na2vs0mg"},{"bike_id":"9778b994-32b1-414b-b3d2-74abe2925ec7","system_id":"levelo_inurba_marseille","lat":43.31316,"lon":5.39704,"is_reserved":false,"is_disabled":false,"rental_uris":{"android":"levelo://app?vid=9778b994-32b1-414b-b3d2-74abe2925ec7","ios":"levelo://app?vid=9778b994-32b1-414b-b3d2-74abe2925ec7"},"vehicle_type_id":"4","last_reported":1762812674,"current_range_meters":12800,"station_id":"ce4bgvp2rcd13ifvqcu0","pricing_plan_id":"cebpf4jnsgd1na2vs0mg"},{"bike_id":"f8b13c86-6460-4e3d-9eea-485aad09b3e1","system_id":"levelo_inurba_marseille","lat":43.31169,"lon":5.3871,"is_reserved":false,"is_disabled":false,"rental_uris":{"android":"levelo://app?vid=f8b13c86-6460-4e3d-9eea-485aad09b3e1","ios":"levelo://app?vid=f8b13c86-6460-4e3d-9eea-485aad09b3e1"},"vehicle_type_id":"4","last_reported":1762812674,"current_range_meters":13600,"station_id":"ce4bgv12rcd13ifvqcp0","pricing_plan_id":"cebpf4jnsgd1na2vs0mg"},{"bike_id":"c505da9f-74ce-46d6-be25-14e9f37952fb","system_id":"levelo_inurba_marseille","lat":43.30948,"lon":5.40145,"is_reserved":false,"is_disabled":false,"rental_uris":{"android":"levelo://app?vid=c505da9f-74ce-46d6-be25-14e9f37952fb","ios":"levelo://app?vid=c505da9f-74ce-46d6-be25-14e9f37952fb"},"vehicle_type_id":"4","last_reported":1762812674,"current_range_meters":13600,"station_id":"ce4bgvp2rcd13ifvqct0","pricing_plan_id":"cebpf4jnsgd1na2vs0mg"},{"bike_id":"eb49ec4a-c46d-4cc9-b666-f70d555094f8","system_id":"levelo_inurba_marseille","lat":43.311758,"lon":5.387167,"is_reserved":false,"is_disabled":false,"rental_uris":{"android":"levelo://app?vid=eb49ec4a-c46d-4cc9-b666-f70d555094f8","ios":"levelo://app?vid=eb49ec4a-c46d-4cc9-b666-f70d555094f8"},"vehicle_type_id":"4","last_reported":1762812674,"current_range_meters":13600,"station_id":"ce4bgv12rcd13ifvqcp0","pricing_plan_id":"cebpf4jnsgd1na2vs0mg"},{"bike_id":"80a5b288-c4c3-4a25-8c6c-ea160c21372f","system_id":"levelo_inurba_marseille","lat":43.25342,"lon":5.42173,"is_reserved":false,"is_disabled":false,"rental_uris":{"android":"levelo://app?vid=80a5b288-c4c3-4a25-8c6c-ea160c21372f","ios":"levelo://app?vid=80a5b288-c4c3-4a25-8c6c-ea160c21372f"},"vehicle_type_id":"4","last_reported":1762812674,"current_range_meters":14000,"station_id":"st_d2m65c5bi1j21697t3ng","pricing_plan_id":"cebpf4jnsgd1na2vs0mg"},{"bike_id":"99d9d76d-d94f-48e3-abc3-f50dd41e3269","system_id":"levelo_inurba_marseille","lat":43.31153,"lon":5.38352,"is_reserved":false,"is_disabled":false,"rental_uris":{"android":"levelo://app?vid=99d9d76d-d94f-48e3-abc3-f50dd41e3269","ios":"levelo://app?vid=99d9d76d-d94f-48e3-abc3-f50dd41e3269"},"vehicle_type_id":"4","last_reported":1762812674,"current_range_meters":14000,"station_id":"","pricing_plan_id":"cebpf4jnsgd1na2vs0mg"},{"bike_id":"2432e63d-da8c-4a11-ad0a-c3c5dc5ef705","system_id":"levelo_inurba_marseille","lat":43.29258,"lon":5.4091,"is_reserved":false,"is_disabled":false,"rental_uris":{"android":"levelo://app?vid=2432e63d-da8c-4a11-ad0a-c3c5dc5ef705","ios":"levelo://app?vid=2432e63d-da8c-4a11-ad0a-c3c5dc5ef705"},"vehicle_type_id":"4","last_reported":1762812674,"current_range_meters":14000,"station_id":"ce4bh192rcd13ifvqdc0","pricing_plan_id":"cebpf4jnsgd1na2vs0mg"},{"bike_id":"ccccdf6a-e39c-4e65-86c2-14eeda0f9209","system_id":"levelo_inurba_marseille","lat":43.23189,"lon":5.3998,"is_reserved":false,"is_disabled":false,"rental_uris":{"android":"levelo://app?vid=ccccdf6a-e39c-4e65-86c2-14eeda0f9209","ios":"levelo://app?vid=ccccdf6a-e39c-4e65-86c2-14eeda0f9209"},"vehicle_type_id":"4","last_reported":1762812674,"current_range_meters":14400,"station_id":"ce4bhn12rcd13ifvqgqg","pricing_plan_id":"cebpf4jnsgd1na2vs0mg"},{"bike_id":"50bd906f-f66c-4773-8e69-65d41802e55d","system_id":"levelo_inurba_marseille","lat":43.22533,"lon":5.34834,"is_reserved":false,"is_disabled":false,"rental_uris":{"android":"levelo://app?vid=50bd906f-f66c-4773-8e69-65d41802e55d","ios":"levelo://app?vid=50bd906f-f66c-4773-8e69-65d41802e55d"},"vehicle_type_id":"4","last_reported":1762812674,"current_range_meters":14400,"station_id":"","pricing_plan_id":"cebpf4jnsgd1na2vs0mg"},{"bike_id":"4b68d13f-f5d9-4b23-871f-a9d0ced8871b","system_id":"levelo_inurba_marseille","lat":43.31283,"lon":5.37813,"is_reserved":false,"is_disabled":false,"rental_uris":{"android":"levelo://app?vid=4b68d13f-f5d9-4b23-871f-a9d0ced8871b","ios":"levelo://app?vid=4b68d13f-f5d9-4b23-871f-a9d0ced8871b"},"vehicle_type_id":"4","last_reported":1762812674,"current_range_meters":14400,"station_id":"","pricing_plan_id":"cebpf4jnsgd1na2vs0mg"},{"bike_id":"f718f863-71ed-42d9-8520-c218f0eb3b76","system_id":"levelo_inurba_marseille","lat":43.285828,"lon":5.394899,"is_reserved":false,"is_disabled":false,"rental_uris":{"android":"levelo://app?vid=f718f863-71ed-42d9-8520-c218f0eb3b76","ios":"levelo://app?vid=f718f863-71ed-42d9-8520-c218f0eb3b76"},"vehicle_type_id":"4","last_reported":1762812674,"current_range_meters":14400,"station_id":"ce4bh292rcd13ifvqdg0","pricing_plan_id":"cebpf4jnsgd1na2vs0mg"},{"bike_id":"42bbdb4f-c9b7-4299-b4a6-0178a6a32bf3","system_id":"levelo_inurba_marseille","lat":43.3181,"lon":5.37444,"is_reserved":false,"is_disabled":false,"rental_uris":{"android":"levelo://app?vid=42bbdb4f-c9b7-4299-b4a6-0178a6a32bf3","ios":"levelo://app?vid=42bbdb4f-c9b7-4299-b4a6-0178a6a32bf3"},"vehicle_type_id":"4","last_reported":1762812674,"current_range_meters":14400,"station_id":"","pricing_plan_id":"cebpf4jnsgd1na2vs0mg"},{"bike_id":"c88172e6-9ca8-4917-9fec-dae0082b9849","system_id":"levelo_inurba_marseille","lat":43.23056,"lon":5.35493,"is_reserved":false,"is_disabled":false,"rental_uris":{"android":"levelo://app?vid=c88172e6-9ca8-4917-9fec-dae0082b9849","ios":"levelo://app?vid=c88172e6-9ca8-4917-9fec-dae0082b9849"},"vehicle_type_id":"4","last_reported":1762812674,"current_range_meters":14400,"station_id":"cpo3342slgdg3j2ifvpg","pricing_plan_id":"cebpf4jnsgd1na2vs0mg"},{"bike_id":"0001f610-ee0b-4dfa-a101-19ef82b4afb7","system_id":"levelo_inurba_marseille","lat":43.29813,"lon":5.44066,"is_reserved":false,"is_disabled":false,"rental_uris":{"android":"levelo://app?vid=0001f610-ee0b-4dfa-a101-19ef82b4afb7","ios":"levelo://app?vid=0001f610-ee0b-4dfa-a101-19ef82b4afb7"},"vehicle_type_id":"4","last_reported":1762812674,"current_range_meters":14400,"station_id":"st_d3jp68qikq2c7381ktn0","pricing_plan_id":"cebpf4jnsgd1na2vs0mg"},{"bike_id":"e92fd170-4280-4dd6-943b-5cd795efb5ee","system_id":"levelo_inurba_marseille","lat":43.2815,"lon":5.42641,"is_reserved":false,"is_disabled":false,"rental_uris":{"android":"levelo://app?vid=e92fd170-4280-4dd6-943b-5cd795efb5ee","ios":"levelo://app?vid=e92fd170-4280-4dd6-943b-5cd795efb5ee"},"vehicle_type_id":"4","last_reported":1762812674,"current_range_meters":14400,"station_id":"ce4bhnh2rcd13ifvqgug","pricing_plan_id":"cebpf4jnsgd1na2vs0mg"},{"bike_id":"c80766a6-aa9a-4c09-88b6-397546065fcc","system_id":"levelo_inurba_marseille","lat":43.23192,"lon":5.35556,"is_reserved":false,"is_disabled":false,"rental_uris":{"android":"levelo://app?vid=c80766a6-aa9a-4c09-88b6-397546065fcc","ios":"levelo://app?vid=c80766a6-aa9a-4c09-88b6-397546065fcc"},"vehicle_type_id":"4","last_reported":1762812674,"current_range_meters":14800,"station_id":"ce4bhu92rcd13ifvqi70","pricing_plan_id":"cebpf4jnsgd1na2vs0mg"},{"bike_id":"f6d47fb7-db41-4e96-ba28-8326c8ac0ede","system_id":"levelo_inurba_marseille","lat":43.309322,"lon":5.401366,"is_reserved":false,"is_disabled":false,"rental_uris":{"android":"levelo://app?vid=f6d47fb7-db41-4e96-ba28-8326c8ac0ede","ios":"levelo://app?vid=f6d47fb7-db41-4e96-ba28-8326c8ac0ede"},"vehicle_type_id":"4","last_reported":1762812674,"current_range_meters":14800,"station_id":"","pricing_plan_id":"cebpf4jnsgd1na2vs0mg"},{"bike_id":"1016aac3-b163-4bd4-b914-896c361c935b","system_id":"levelo_inurba_marseille","lat":43.32115,"lon":5.38852,"is_reserved":false,"is_disabled":false,"rental_uris":{"android":"levelo://app?vid=1016aac3-b163-4bd4-b914-896c361c935b","ios":"levelo://app?vid=1016aac3-b163-4bd4-b914-896c361c935b"},"vehicle_type_id":"4","last_reported":1762812674,"current_range_meters":14800,"station_id":"","pricing_plan_id":"cebpf4jnsgd1na2vs0mg"},{"bike_id":"71a4db39-13b5-4ad2-a6d2-50dbaa41784f","system_id":"levelo_inurba_marseille","lat":43.30456,"lon":5.37901,"is_reserved":false,"is_disabled":true,"rental_uris":{"android":"levelo://app?vid=71a4db39-13b5-4ad2-a6d2-50dbaa41784f","ios":"levelo://app?vid=71a4db39-13b5-4ad2-a6d2-50dbaa41784f"},"vehicle_type_id":"4","last_reported":1762812674,"current_range_meters":14800,"station_id":"ce4bgup2rcd13ifvqcn0","pricing_plan_id":"cebpf4jnsgd1na2vs0mg"},{"bike_id":"9e91c0f5-ecc5-4304-b4d7-6577b188615a","system_id":"levelo_inurba_marseille","lat":43.29255,"lon":5.38458,"is_reserved":false,"is_disabled":false,"rental_uris":{"android":"levelo://app?vid=9e91c0f5-ecc5-4304-b4d7-6577b188615a","ios":"levelo://app?vid=9e91c0f5-ecc5-4304-b4d7-6577b188615a"},"vehicle_type_id":"4","last_reported":1762812674,"current_range_meters":14800,"station_id":"ce4bh692rcd13ifvqea0","pricing_plan_id":"cebpf4jnsgd1na2vs0mg"},{"bike_id":"9093134c-76dd-4d84-9339-bb51f6d5bb73","system_id":"levelo_inurba_marseille","lat":43.284917,"lon":5.439608,"is_reserved":false,"is_disabled":false,"rental_uris":{"android":"levelo://app?vid=9093134c-76dd-4d84-9339-bb51f6d5bb73","ios":"levelo://app?vid=9093134c-76dd-4d84-9339-bb51f6d5bb73"},"vehicle_type_id":"4","last_reported":1762812674,"current_range_meters":15200,"station_id":"","pricing_plan_id":"cebpf4jnsgd1na2vs0mg"},{"bike_id":"1f41fd9b-c0a9-4aba-91e7-2f4f5dd58d96","system_id":"levelo_inurba_marseille","lat":43.309556,"lon":5.390308,"is_reserved":false,"is_disabled":true,"rental_uris":{"android":"levelo://app?vid=1f41fd9b-c0a9-4aba-91e7-2f4f5dd58d96","ios":"levelo://app?vid=1f41fd9b-c0a9-4aba-91e7-2f4f5dd58d96"},"vehicle_type_id":"4","last_reported":1762812674,"current_range_meters":15200,"station_id":"ce4bgup2rcd13ifvqco0","pricing_plan_id":"cebpf4jnsgd1na2vs0mg"},{"bike_id":"180a70a9-8924-4885-9ca3-10c578c02589","system_id":"levelo_inurba_marseille","lat":43.225256,"lon":5.348423,"is_reserved":false,"is_disabled":false,"rental_uris":{"android":"levelo://app?vid=180a70a9-8924-4885-9ca3-10c578c02589","ios":"levelo://app?vid=180a70a9-8924-4885-9ca3-10c578c02589"},"vehicle_type_id":"4","last_reported":1762812674,"current_range_meters":15200,"station_id":"","pricing_plan_id":"cebpf4jnsgd1na2vs0mg"},{"bike_id":"f9a1b970-6de3-468d-96e6-e10aa15ca1ee","system_id":"levelo_inurba_marseille","lat":43.31162,"lon":5.3871,"is_reserved":false,"is_disabled":false,"rental_uris":{"android":"levelo://app?vid=f9a1b970-6de3-468d-96e6-e10aa15ca1ee","ios":"levelo://app?vid=f9a1b970-6de3-468d-96e6-e10aa15ca1ee"},"vehicle_type_id":"4","last_reported":1762812674,"current_range_meters":15200,"station_id":"ce4bgv12rcd13ifvqcp0","pricing_plan_id":"cebpf4jnsgd1na2vs0mg"},{"bike_id":"3ed50cd3-7c4d-4fe8-9772-d651a4355fe6","system_id":"levelo_inurba_marseille","lat":43.27954,"lon":5.41053,"is_reserved":false,"is_disabled":false,"rental_uris":{"android":"levelo://app?vid=3ed50cd3-7c4d-4fe8-9772-d651a4355fe6","ios":"levelo://app?vid=3ed50cd3-7c4d-4fe8-9772-d651a4355fe6"},"vehicle_type_id":"4","last_reported":1762812674,"current_range_meters":16000,"station_id":"ce4bhnp2rcd13ifvqh0g","pricing_plan_id":"cebpf4jnsgd1na2vs0mg"},{"bike_id":"452b7847-3943-4a87-adaf-3ad701424820","system_id":"levelo_inurba_marseille","lat":43.29084,"lon":5.37161,"is_reserved":false,"is_disabled":false,"rental_uris":{"android":"levelo://app?vid=452b7847-3943-4a87-adaf-3ad701424820","ios":"levelo://app?vid=452b7847-3943-4a87-adaf-3ad701424820"},"vehicle_type_id":"4","last_reported":1762812674,"current_range_meters":16000,"station_id":"ce4bh5p2rcd13ifvqe4g","pricing_plan_id":"cebpf4jnsgd1na2vs0mg"},{"bike_id":"4cae9d5c-a24c-41f1-9f54-aaa487e732a6","system_id":"levelo_inurba_marseille","lat":43.29995,"lon":5.3821,"is_reserved":false,"is_disabled":false,"rental_uris":{"android":"levelo://app?vid=4cae9d5c-a24c-41f1-9f54-aaa487e732a6","ios":"levelo://app?vid=4cae9d5c-a24c-41f1-9f54-aaa487e732a6"},"vehicle_type_id":"4","last_reported":1762812674,"current_range_meters":16000,"station_id":"","pricing_plan_id":"cebpf4jnsgd1na2vs0mg"},{"bike_id":"122bdab4-68f6-41de-a130-9cd3d01ccdfd","system_id":"levelo_inurba_marseille","lat":43.22533,"lon":5.34829,"is_reserved":false,"is_disabled":false,"rental_uris":{"android":"levelo://app?vid=122bdab4-68f6-41de-a130-9cd3d01ccdfd","ios":"levelo://app?vid=122bdab4-68f6-41de-a130-9cd3d01ccdfd"},"vehicle_type_id":"4","last_reported":1762812674,"current_range_meters":16000,"station_id":"","pricing_plan_id":"cebpf4jnsgd1na2vs0mg"},{"bike_id":"aeb0221f-71af-4103-8b76-16a634c41a2b","system_id":"levelo_inurba_marseille","lat":43.29272,"lon":5.36844,"is_reserved":false,"is_disabled":false,"rental_uris":{"android":"levelo://app?vid=aeb0221f-71af-4103-8b76-16a634c41a2b","ios":"levelo://app?vid=aeb0221f-71af-4103-8b76-16a634c41a2b"},"vehicle_type_id":"4","last_reported":1762812674,"current_range_meters":16000,"station_id":"ce4bhbp2rcd13ifvqesg","pricing_plan_id":"cebpf4jnsgd1na2vs0mg"},{"bike_id":"f87e62e1-871c-4e2c-b6f2-0e01154a6f73","system_id":"levelo_inurba_marseille","lat":43.280035,"lon":5.42514,"is_reserved":false,"is_disabled":false,"rental_uris":{"android":"levelo://app?vid=f87e62e1-871c-4e2c-b6f2-0e01154a6f73","ios":"levelo://app?vid=f87e62e1-871c-4e2c-b6f2-0e01154a6f73"},"vehicle_type_id":"4","last_reported":1762812674,"current_range_meters":16000,"station_id":"ce4bhnh2rcd13ifvqgug","pricing_plan_id":"cebpf4jnsgd1na2vs0mg"},{"bike_id":"27cca840-19f5-4d6e-8605-40d0457055ad","system_id":"levelo_inurba_marseille","lat":43.27942,"lon":5.41037,"is_reserved":false,"is_disabled":false,"rental_uris":{"android":"levelo://app?vid=27cca840-19f5-4d6e-8605-40d0457055ad","ios":"levelo://app?vid=27cca840-19f5-4d6e-8605-40d0457055ad"},"vehicle_type_id":"4","last_reported":1762812674,"current_range_meters":16000,"station_id":"ce4bhnp2rcd13ifvqh0g","pricing_plan_id":"cebpf4jnsgd1na2vs0mg"},{"bike_id":"598c9c63-4da0-4992-9b4c-61f3ba4a8f98","system_id":"levelo_inurba_marseille","lat":43.285345,"lon":5.360087,"is_reserved":false,"is_disabled":false,"rental_uris":{"android":"levelo://app?vid=598c9c63-4da0-4992-9b4c-61f3ba4a8f98","ios":"levelo://app?vid=598c9c63-4da0-4992-9b4c-61f3ba4a8f98"},"vehicle_type_id":"4","last_reported":1762812674,"current_range_meters":16000,"station_id":"ce4bhah2rcd13ifvqei0","pricing_plan_id":"cebpf4jnsgd1na2vs0mg"},{"bike_id":"e87b937c-e986-465d-ab91-00a23f40a3bc","system_id":"levelo_inurba_marseille","lat":43.28041,"lon":5.36963,"is_reserved":false,"is_disabled":false,"rental_uris":{"android":"levelo://app?vid=e87b937c-e986-465d-ab91-00a23f40a3bc","ios":"levelo://app?vid=e87b937c-e986-465d-ab91-00a23f40a3bc"},"vehicle_type_id":"4","last_reported":1762812674,"current_range_meters":16000,"station_id":"ce4bha12rcd13ifvqef0","pricing_plan_id":"cebpf4jnsgd1na2vs0mg"},{"bike_id":"3cd0af46-f551-42f8-bf6b-0edd6c7a4cd2","system_id":"levelo_inurba_marseille","lat":43.308887,"lon":5.396642,"is_reserved":false,"is_disabled":false,"rental_uris":{"android":"levelo://app?vid=3cd0af46-f551-42f8-bf6b-0edd6c7a4cd2","ios":"levelo://app?vid=3cd0af46-f551-42f8-bf6b-0edd6c7a4cd2"},"vehicle_type_id":"4","last_reported":1762812674,"current_range_meters":16400,"station_id":"ce4bh012rcd13ifvqcv0","pricing_plan_id":"cebpf4jnsgd1na2vs0mg"},{"bike_id":"d6d15477-e809-40c4-bd6c-ee71bd57582f","system_id":"levelo_inurba_marseille","lat":43.24156,"lon":5.39712,"is_reserved":false,"is_disabled":false,"rental_uris":{"android":"levelo://app?vid=d6d15477-e809-40c4-bd6c-ee71bd57582f","ios":"levelo://app?vid=d6d15477-e809-40c4-bd6c-ee71bd57582f"},"vehicle_type_id":"4","last_reported":1762812674,"current_range_meters":16400,"station_id":"ce4bhn12rcd13ifvqgpg","pricing_plan_id":"cebpf4jnsgd1na2vs0mg"},{"bike_id":"b3d24f66-b9d1-45b6-b060-f49353fab0ed","system_id":"levelo_inurba_marseille","lat":43.25829,"lon":5.39434,"is_reserved":false,"is_disabled":false,"rental_uris":{"android":"levelo://app?vid=b3d24f66-b9d1-45b6-b060-f49353fab0ed","ios":"levelo://app?vid=b3d24f66-b9d1-45b6-b060-f49353fab0ed"},"vehicle_type_id":"4","last_reported":1762812674,"current_range_meters":16400,"station_id":"ce4bhip2rcd13ifvqft0","pricing_plan_id":"cebpf4jnsgd1na2vs0mg"},{"bike_id":"cb78ed9e-fb0a-42e8-a761-9e875758b3ab","system_id":"levelo_inurba_marseille","lat":43.25498,"lon":5.3765,"is_reserved":false,"is_disabled":false,"rental_uris":{"android":"levelo://app?vid=cb78ed9e-fb0a-42e8-a761-9e875758b3ab","ios":"levelo://app?vid=cb78ed9e-fb0a-42e8-a761-9e875758b3ab"},"vehicle_type_id":"4","last_reported":1762812674,"current_range_meters":16400,"station_id":"ce4bhh12rcd13ifvqff0","pricing_plan_id":"cebpf4jnsgd1na2vs0mg"},{"bike_id":"909bdbfc-1aa3-47b1-ab23-3eca7b376e92","system_id":"levelo_inurba_marseille","lat":43.231517,"lon":5.437012,"is_reserved":false,"is_disabled":false,"rental_uris":{"android":"levelo://app?vid=909bdbfc-1aa3-47b1-ab23-3eca7b376e92","ios":"levelo://app?vid=909bdbfc-1aa3-47b1-ab23-3eca7b376e92"},"vehicle_type_id":"4","last_reported":1762812674,"current_range_meters":16400,"station_id":"ce4bhmp2rcd13ifvqgog","pricing_plan_id":"cebpf4jnsgd1na2vs0mg"},{"bike_id":"577af4c1-3156-4fe9-b705-d0eaa7a11759","system_id":"levelo_inurba_marseille","lat":43.31676,"lon":5.3773,"is_reserved":false,"is_disabled":false,"rental_uris":{"android":"levelo://app?vid=577af4c1-3156-4fe9-b705-d0eaa7a11759","ios":"levelo://app?vid=577af4c1-3156-4fe9-b705-d0eaa7a11759"},"vehicle_type_id":"4","last_reported":1762812674,"current_range_meters":16400,"station_id":"ce4bgth2rcd13ifvqch0","pricing_plan_id":"cebpf4jnsgd1na2vs0mg"},{"bike_id":"5eb28dc9-1056-4fe2-a3f0-4c13efc57df0","system_id":"levelo_inurba_marseille","lat":43.25918,"lon":5.40904,"is_reserved":false,"is_disabled":true,"rental_uris":{"android":"levelo://app?vid=5eb28dc9-1056-4fe2-a3f0-4c13efc57df0","ios":"levelo://app?vid=5eb28dc9-1056-4fe2-a3f0-4c13efc57df0"},"vehicle_type_id":"4","last_reported":1762812674,"current_range_meters":16400,"station_id":"ce4bhm92rcd13ifvqglg","pricing_plan_id":"cebpf4jnsgd1na2vs0mg"},{"bike_id":"e93f9df3-e26e-4a9e-a58e-ca0615a746f8","system_id":"levelo_inurba_marseille","lat":43.32648,"lon":5.41004,"is_reserved":false,"is_disabled":false,"rental_uris":{"android":"levelo://app?vid=e93f9df3-e26e-4a9e-a58e-ca0615a746f8","ios":"levelo://app?vid=e93f9df3-e26e-4a9e-a58e-ca0615a746f8"},"vehicle_type_id":"4","last_reported":1762812674,"current_range_meters":16400,"station_id":"ce4bhpp2rcd13ifvqhgg","pricing_plan_id":"cebpf4jnsgd1na2vs0mg"},{"bike_id":"7177c944-2e3a-4e1f-b479-66d7a9727a4d","system_id":"levelo_inurba_marseille","lat":43.33167,"lon":5.37697,"is_reserved":false,"is_disabled":false,"rental_uris":{"android":"levelo://app?vid=7177c944-2e3a-4e1f-b479-66d7a9727a4d","ios":"levelo://app?vid=7177c944-2e3a-4e1f-b479-66d7a9727a4d"},"vehicle_type_id":"4","last_reported":1762812674,"current_range_meters":16400,"station_id":"st_d46cu089ee8s73dldbu0","pricing_plan_id":"cebpf4jnsgd1na2vs0mg"},{"bike_id":"851e52a7-7701-41a2-9335-4b4a9404896b","system_id":"levelo_inurba_marseille","lat":43.2982,"lon":5.44073,"is_reserved":false,"is_disabled":false,"rental_uris":{"android":"levelo://app?vid=851e52a7-7701-41a2-9335-4b4a9404896b","ios":"levelo://app?vid=851e52a7-7701-41a2-9335-4b4a9404896b"},"vehicle_type_id":"4","last_reported":1762812674,"current_range_meters":16400,"station_id":"st_d3jp68qikq2c7381ktn0","pricing_plan_id":"cebpf4jnsgd1na2vs0mg"},{"bike_id":"78560129-1799-45d9-88a5-c853a208aef1","system_id":"levelo_inurba_marseille","lat":43.23183,"lon":5.39981,"is_reserved":false,"is_disabled":false,"rental_uris":{"android":"levelo://app?vid=78560129-1799-45d9-88a5-c853a208aef1","ios":"levelo://app?vid=78560129-1799-45d9-88a5-c853a208aef1"},"vehicle_type_id":"4","last_reported":1762812674,"current_range_meters":16800,"station_id":"ce4bhn12rcd13ifvqgqg","pricing_plan_id":"cebpf4jnsgd1na2vs0mg"},{"bike_id":"7ab9f50c-fe33-422d-9108-7c4207ec1290","system_id":"levelo_inurba_marseille","lat":43.28699,"lon":5.37395,"is_reserved":false,"is_disabled":false,"rental_uris":{"android":"levelo://app?vid=7ab9f50c-fe33-422d-9108-7c4207ec1290","ios":"levelo://app?vid=7ab9f50c-fe33-422d-9108-7c4207ec1290"},"vehicle_type_id":"4","last_reported":1762812674,"current_range_meters":16800,"station_id":"ce4bh3p2rcd13ifvqdq0","pricing_plan_id":"cebpf4jnsgd1na2vs0mg"},{"bike_id":"25fc85c3-2a3f-49f9-be81-5010574d4ae3","system_id":"levelo_inurba_marseille","lat":43.29274,"lon":5.36845,"is_reserved":false,"is_disabled":false,"rental_uris":{"android":"levelo://app?vid=25fc85c3-2a3f-49f9-be81-5010574d4ae3","ios":"levelo://app?vid=25fc85c3-2a3f-49f9-be81-5010574d4ae3"},"vehicle_type_id":"4","last_reported":1762812674,"current_range_meters":16800,"station_id":"ce4bhbp2rcd13ifvqesg","pricing_plan_id":"cebpf4jnsgd1na2vs0mg"},{"bike_id":"d610cd16-c813-406e-bee7-295ec8ce6047","system_id":"levelo_inurba_marseille","lat":43.33767,"lon":5.37467,"is_reserved":false,"is_disabled":false,"rental_uris":{"android":"levelo://app?vid=d610cd16-c813-406e-bee7-295ec8ce6047","ios":"levelo://app?vid=d610cd16-c813-406e-bee7-295ec8ce6047"},"vehicle_type_id":"4","last_reported":1762812674,"current_range_meters":16800,"station_id":"","pricing_plan_id":"cebpf4jnsgd1na2vs0mg"},{"bike_id":"08da735d-b58f-44f9-9128-6ddfbcba212e","system_id":"levelo_inurba_marseille","lat":43.28421,"lon":5.374965,"is_reserved":false,"is_disabled":false,"rental_uris":{"android":"levelo://app?vid=08da735d-b58f-44f9-9128-6ddfbcba212e","ios":"levelo://app?vid=08da735d-b58f-44f9-9128-6ddfbcba212e"},"vehicle_type_id":"4","last_reported":1762812674,"current_range_meters":16800,"station_id":"ce4bh412rcd13ifvqds0","pricing_plan_id":"cebpf4jnsgd1na2vs0mg"},{"bike_id":"d900c339-5489-4108-89e5-9b53f0f4d1db","system_id":"levelo_inurba_marseille","lat":43.225329,"lon":5.348353,"is_reserved":false,"is_disabled":false,"rental_uris":{"android":"levelo://app?vid=d900c339-5489-4108-89e5-9b53f0f4d1db","ios":"levelo://app?vid=d900c339-5489-4108-89e5-9b53f0f4d1db"},"vehicle_type_id":"4","last_reported":1762812674,"current_range_meters":16800,"station_id":"","pricing_plan_id":"cebpf4jnsgd1na2vs0mg"},{"bike_id":"5834a1d2-e303-461a-b0be-885b39c40baa","system_id":"levelo_inurba_marseille","lat":43.29367,"lon":5.37853,"is_reserved":false,"is_disabled":false,"rental_uris":{"android":"levelo://app?vid=5834a1d2-e303-461a-b0be-885b39c40baa","ios":"levelo://app?vid=5834a1d2-e303-461a-b0be-885b39c40baa"},"vehicle_type_id":"4","last_reported":1762812674,"current_range_meters":16800,"station_id":"ce4bgjh2rcd13ifvqbf0","pricing_plan_id":"cebpf4jnsgd1na2vs0mg"},{"bike_id":"e2104b6a-7e12-4a20-ae1b-cf4b446d5e26","system_id":"levelo_inurba_marseille","lat":43.28483,"lon":5.48398,"is_reserved":false,"is_disabled":false,"rental_uris":{"android":"levelo://app?vid=e2104b6a-7e12-4a20-ae1b-cf4b446d5e26","ios":"levelo://app?vid=e2104b6a-7e12-4a20-ae1b-cf4b446d5e26"},"vehicle_type_id":"4","last_reported":1762812674,"current_range_meters":16800,"station_id":"st_d3svhcjqgbts73a3dn0g","pricing_plan_id":"cebpf4jnsgd1na2vs0mg"},{"bike_id":"e53892d3-9933-44c1-9c4a-3908f0c8be99","system_id":"levelo_inurba_marseille","lat":43.3079,"lon":5.37655,"is_reserved":false,"is_disabled":false,"rental_uris":{"android":"levelo://app?vid=e53892d3-9933-44c1-9c4a-3908f0c8be99","ios":"levelo://app?vid=e53892d3-9933-44c1-9c4a-3908f0c8be99"},"vehicle_type_id":"4","last_reported":1762812674,"current_range_meters":16800,"station_id":"ce4bgv92rcd13ifvqcq0","pricing_plan_id":"cebpf4jnsgd1na2vs0mg"},{"bike_id":"72519289-0544-4653-9c86-3b1b90b3ff62","system_id":"levelo_inurba_marseille","lat":43.28202,"lon":5.39037,"is_reserved":false,"is_disabled":false,"rental_uris":{"android":"levelo://app?vid=72519289-0544-4653-9c86-3b1b90b3ff62","ios":"levelo://app?vid=72519289-0544-4653-9c86-3b1b90b3ff62"},"vehicle_type_id":"4","last_reported":1762812674,"current_range_meters":16800,"station_id":"ce4bhn92rcd13ifvqgsg","pricing_plan_id":"cebpf4jnsgd1na2vs0mg"},{"bike_id":"b5427a01-5d59-4bae-bbce-213366efb6f8","system_id":"levelo_inurba_marseille","lat":43.29778,"lon":5.38129,"is_reserved":false,"is_disabled":true,"rental_uris":{"android":"levelo://app?vid=b5427a01-5d59-4bae-bbce-213366efb6f8","ios":"levelo://app?vid=b5427a01-5d59-4bae-bbce-213366efb6f8"},"vehicle_type_id":"4","last_reported":1762812674,"current_range_meters":16800,"station_id":"ce4bgip2rcd13ifvqbb0","pricing_plan_id":"cebpf4jnsgd1na2vs0mg"},{"bike_id":"c89d2b8d-c9be-46ae-a13d-99e2de68472d","system_id":"levelo_inurba_marseille","lat":43.237896,"lon":5.366233,"is_reserved":false,"is_disabled":false,"rental_uris":{"android":"levelo://app?vid=c89d2b8d-c9be-46ae-a13d-99e2de68472d","ios":"levelo://app?vid=c89d2b8d-c9be-46ae-a13d-99e2de68472d"},"vehicle_type_id":"4","last_reported":1762812674,"current_range_meters":17200,"station_id":"st_d3nk18o9ro0c73en2l3g","pricing_plan_id":"cebpf4jnsgd1na2vs0mg"},{"bike_id":"96d132e6-f9ce-4bce-a02d-cee681ed88c4","system_id":"levelo_inurba_marseille","lat":43.26229,"lon":5.40475,"is_reserved":false,"is_disabled":false,"rental_uris":{"android":"levelo://app?vid=96d132e6-f9ce-4bce-a02d-cee681ed88c4","ios":"levelo://app?vid=96d132e6-f9ce-4bce-a02d-cee681ed88c4"},"vehicle_type_id":"4","last_reported":1762812674,"current_range_meters":17200,"station_id":"ce4bhmh2rcd13ifvqgmg","pricing_plan_id":"cebpf4jnsgd1na2vs0mg"},{"bike_id":"20a5d121-e153-495c-8951-3d263bb127f2","system_id":"levelo_inurba_marseille","lat":43.28018,"lon":5.40077,"is_reserved":false,"is_disabled":false,"rental_uris":{"android":"levelo://app?vid=20a5d121-e153-495c-8951-3d263bb127f2","ios":"levelo://app?vid=20a5d121-e153-495c-8951-3d263bb127f2"},"vehicle_type_id":"4","last_reported":1762812674,"current_range_meters":17200,"station_id":"","pricing_plan_id":"cebpf4jnsgd1na2vs0mg"},{"bike_id":"73063390-3d50-4c20-8d0a-733d072c0633","system_id":"levelo_inurba_marseille","lat":43.308809,"lon":5.396451,"is_reserved":false,"is_disabled":false,"rental_uris":{"android":"levelo://app?vid=73063390-3d50-4c20-8d0a-733d072c0633","ios":"levelo://app?vid=73063390-3d50-4c20-8d0a-733d072c0633"},"vehicle_type_id":"4","last_reported":1762812674,"current_range_meters":17200,"station_id":"ce4bh012rcd13ifvqcv0","pricing_plan_id":"cebpf4jnsgd1na2vs0mg"},{"bike_id":"e2ae78b6-0e45-4d14-be67-9fe3a6a70a8e","system_id":"levelo_inurba_marseille","lat":43.28975,"lon":5.37848,"is_reserved":false,"is_disabled":true,"rental_uris":{"android":"levelo://app?vid=e2ae78b6-0e45-4d14-be67-9fe3a6a70a8e","ios":"levelo://app?vid=e2ae78b6-0e45-4d14-be67-9fe3a6a70a8e"},"vehicle_type_id":"4","last_reported":1762812674,"current_range_meters":17200,"station_id":"ce4bh9p2rcd13ifvqed0","pricing_plan_id":"cebpf4jnsgd1na2vs0mg"},{"bike_id":"5e398c49-04b3-4191-8eb0-b362e8d4081d","system_id":"levelo_inurba_marseille","lat":43.291997,"lon":5.358007,"is_reserved":false,"is_disabled":false,"rental_uris":{"android":"levelo://app?vid=5e398c49-04b3-4191-8eb0-b362e8d4081d","ios":"levelo://app?vid=5e398c49-04b3-4191-8eb0-b362e8d4081d"},"vehicle_type_id":"4","last_reported":1762812674,"current_range_meters":17200,"station_id":"ce4bhb12rcd13ifvqel0","pricing_plan_id":"cebpf4jnsgd1na2vs0mg"},{"bike_id":"89f48309-fa84-45ca-ba8c-1519d88f534d","system_id":"levelo_inurba_marseille","lat":43.28775,"lon":5.4083,"is_reserved":false,"is_disabled":true,"rental_uris":{"android":"levelo://app?vid=89f48309-fa84-45ca-ba8c-1519d88f534d","ios":"levelo://app?vid=89f48309-fa84-45ca-ba8c-1519d88f534d"},"vehicle_type_id":"4","last_reported":1762812674,"current_range_meters":17200,"station_id":"","pricing_plan_id":"cebpf4jnsgd1na2vs0mg"},{"bike_id":"c75bdf80-b3ee-48b7-8b2f-9a051c5b5cf1","system_id":"levelo_inurba_marseille","lat":43.31538,"lon":5.38029,"is_reserved":false,"is_disabled":false,"rental_uris":{"android":"levelo://app?vid=c75bdf80-b3ee-48b7-8b2f-9a051c5b5cf1","ios":"levelo://app?vid=c75bdf80-b3ee-48b7-8b2f-9a051c5b5cf1"},"vehicle_type_id":"4","last_reported":1762812674,"current_range_meters":17200,"station_id":"ce4bhsp2rcd13ifvqi50","pricing_plan_id":"cebpf4jnsgd1na2vs0mg"},{"bike_id":"3e73c293-a4c6-4a53-9fe4-e67c888898c0","system_id":"levelo_inurba_marseille","lat":43.29933,"lon":5.36507,"is_reserved":false,"is_disabled":false,"rental_uris":{"android":"levelo://app?vid=3e73c293-a4c6-4a53-9fe4-e67c888898c0","ios":"levelo://app?vid=3e73c293-a4c6-4a53-9fe4-e67c888898c0"},"vehicle_type_id":"4","last_reported":1762812674,"current_range_meters":17200,"station_id":"ce4bgm92rcd13ifvqbr0","pricing_plan_id":"cebpf4jnsgd1na2vs0mg"},{"bike_id":"4235869e-e646-431b-9230-dfc11b9a35e5","system_id":"levelo_inurba_marseille","lat":43.29683,"lon":5.37271,"is_reserved":false,"is_disabled":false,"rental_uris":{"android":"levelo://app?vid=4235869e-e646-431b-9230-dfc11b9a35e5","ios":"levelo://app?vid=4235869e-e646-431b-9230-dfc11b9a35e5"},"vehicle_type_id":"4","last_reported":1762812674,"current_range_meters":17600,"station_id":"ce4bgk12rcd13ifvqbj0","pricing_plan_id":"cebpf4jnsgd1na2vs0mg"},{"bike_id":"d2ebd1a5-3260-48f4-9a78-80adb89d1d73","system_id":"levelo_inurba_marseille","lat":43.27943,"lon":5.41051,"is_reserved":false,"is_disabled":false,"rental_uris":{"android":"levelo://app?vid=d2ebd1a5-3260-48f4-9a78-80adb89d1d73","ios":"levelo://app?vid=d2ebd1a5-3260-48f4-9a78-80adb89d1d73"},"vehicle_type_id":"4","last_reported":1762812674,"current_range_meters":17600,"station_id":"ce4bhnp2rcd13ifvqh0g","pricing_plan_id":"cebpf4jnsgd1na2vs0mg"},{"bike_id":"ff3ac263-2799-481a-bb7f-13b77687a1e1","system_id":"levelo_inurba_marseille","lat":43.286987,"lon":5.373861,"is_reserved":false,"is_disabled":false,"rental_uris":{"android":"levelo://app?vid=ff3ac263-2799-481a-bb7f-13b77687a1e1","ios":"levelo://app?vid=ff3ac263-2799-481a-bb7f-13b77687a1e1"},"vehicle_type_id":"4","last_reported":1762812674,"current_range_meters":17600,"station_id":"ce4bh3p2rcd13ifvqdq0","pricing_plan_id":"cebpf4jnsgd1na2vs0mg"},{"bike_id":"279c10dc-fa65-4c8e-900c-326f37b2f636","system_id":"levelo_inurba_marseille","lat":43.29784,"lon":5.37103,"is_reserved":false,"is_disabled":false,"rental_uris":{"android":"levelo://app?vid=279c10dc-fa65-4c8e-900c-326f37b2f636","ios":"levelo://app?vid=279c10dc-fa65-4c8e-900c-326f37b2f636"},"vehicle_type_id":"4","last_reported":1762812674,"current_range_meters":17600,"station_id":"ce4bgop2rcd13ifvqc1g","pricing_plan_id":"cebpf4jnsgd1na2vs0mg"},{"bike_id":"f428f3a3-1b9d-40ab-a469-b0b9b6a401cf","system_id":"levelo_inurba_marseille","lat":43.28269,"lon":5.35067,"is_reserved":false,"is_disabled":false,"rental_uris":{"android":"levelo://app?vid=f428f3a3-1b9d-40ab-a469-b0b9b6a401cf","ios":"levelo://app?vid=f428f3a3-1b9d-40ab-a469-b0b9b6a401cf"},"vehicle_type_id":"4","last_reported":1762812674,"current_range_meters":18000,"station_id":"ce4bhbp2rcd13ifvqerg","pricing_plan_id":"cebpf4jnsgd1na2vs0mg"},{"bike_id":"f4bf7e8c-fd8e-42ab-8034-86107c53741b","system_id":"levelo_inurba_marseille","lat":43.2175,"lon":5.34604,"is_reserved":false,"is_disabled":false,"rental_uris":{"android":"levelo://app?vid=f4bf7e8c-fd8e-42ab-8034-86107c53741b","ios":"levelo://app?vid=f4bf7e8c-fd8e-42ab-8034-86107c53741b"},"vehicle_type_id":"4","last_reported":1762812674,"current_range_meters":18000,"station_id":"st_cvj6r9ubvosntc0bgbag","pricing_plan_id":"cebpf4jnsgd1na2vs0mg"},{"bike_id":"93bb4453-d155-4beb-bf35-fe038be88cd3","system_id":"levelo_inurba_marseille","lat":43.22929,"lon":5.35383,"is_reserved":false,"is_disabled":false,"rental_uris":{"android":"levelo://app?vid=93bb4453-d155-4beb-bf35-fe038be88cd3","ios":"levelo://app?vid=93bb4453-d155-4beb-bf35-fe038be88cd3"},"vehicle_type_id":"4","last_reported":1762812674,"current_range_meters":18000,"station_id":"cpo3532slgdg3j2ikp40","pricing_plan_id":"cebpf4jnsgd1na2vs0mg"},{"bike_id":"511f67c3-31ad-4c04-90b2-7f220b0a3ae1","system_id":"levelo_inurba_marseille","lat":43.288558,"lon":5.393178,"is_reserved":false,"is_disabled":true,"rental_uris":{"android":"levelo://app?vid=511f67c3-31ad-4c04-90b2-7f220b0a3ae1","ios":"levelo://app?vid=511f67c3-31ad-4c04-90b2-7f220b0a3ae1"},"vehicle_type_id":"4","last_reported":1762812674,"current_range_meters":18000,"station_id":"ce4bh2p2rcd13ifvqdi0","pricing_plan_id":"cebpf4jnsgd1na2vs0mg"},{"bike_id":"9e700c13-688f-4019-8a1b-0d5cd9746b2d","system_id":"levelo_inurba_marseille","lat":43.33161,"lon":5.37696,"is_reserved":false,"is_disabled":false,"rental_uris":{"android":"levelo://app?vid=9e700c13-688f-4019-8a1b-0d5cd9746b2d","ios":"levelo://app?vid=9e700c13-688f-4019-8a1b-0d5cd9746b2d"},"vehicle_type_id":"4","last_reported":1762812674,"current_range_meters":18000,"station_id":"st_d46cu089ee8s73dldbu0","pricing_plan_id":"cebpf4jnsgd1na2vs0mg"},{"bike_id":"06bcecb6-f282-453f-9d38-83607438480e","system_id":"levelo_inurba_marseille","lat":43.30475,"lon":5.40168,"is_reserved":false,"is_disabled":false,"rental_uris":{"android":"levelo://app?vid=06bcecb6-f282-453f-9d38-83607438480e","ios":"levelo://app?vid=06bcecb6-f282-453f-9d38-83607438480e"},"vehicle_type_id":"4","last_reported":1762812674,"current_range_meters":18000,"station_id":"","pricing_plan_id":"cebpf4jnsgd1na2vs0mg"},{"bike_id":"9e16b28d-7106-421d-b0b7-d6f19657834a","system_id":"levelo_inurba_marseille","lat":43.33964,"lon":5.374,"is_reserved":false,"is_disabled":false,"rental_uris":{"android":"levelo://app?vid=9e16b28d-7106-421d-b0b7-d6f19657834a","ios":"levelo://app?vid=9e16b28d-7106-421d-b0b7-d6f19657834a"},"vehicle_type_id":"4","last_reported":1762812674,"current_range_meters":18000,"station_id":"","pricing_plan_id":"cebpf4jnsgd1na2vs0mg"},{"bike_id":"a103640e-8128-4b6c-a436-d3256fab2427","system_id":"levelo_inurba_marseille","lat":43.29893,"lon":5.36552,"is_reserved":false,"is_disabled":false,"rental_uris":{"android":"levelo://app?vid=a103640e-8128-4b6c-a436-d3256fab2427","ios":"levelo://app?vid=a103640e-8128-4b6c-a436-d3256fab2427"},"vehicle_type_id":"4","last_reported":1762812674,"current_range_meters":18000,"station_id":"ce4bgm92rcd13ifvqbr0","pricing_plan_id":"cebpf4jnsgd1na2vs0mg"},{"bike_id":"c621245b-a4cd-4aa8-8a9e-f8e1f9e7dc5c","system_id":"levelo_inurba_marseille","lat":43.26578,"lon":5.37306,"is_reserved":false,"is_disabled":false,"rental_uris":{"android":"levelo://app?vid=c621245b-a4cd-4aa8-8a9e-f8e1f9e7dc5c","ios":"levelo://app?vid=c621245b-a4cd-4aa8-8a9e-f8e1f9e7dc5c"},"vehicle_type_id":"4","last_reported":1762812674,"current_range_meters":18000,"station_id":"ce4bhg12rcd13ifvqf70","pricing_plan_id":"cebpf4jnsgd1na2vs0mg"},{"bike_id":"4769b1c6-7f7a-4f9d-912c-7d06119dc9bd","system_id":"levelo_inurba_marseille","lat":43.29263,"lon":5.38442,"is_reserved":false,"is_disabled":false,"rental_uris":{"android":"levelo://app?vid=4769b1c6-7f7a-4f9d-912c-7d06119dc9bd","ios":"levelo://app?vid=4769b1c6-7f7a-4f9d-912c-7d06119dc9bd"},"vehicle_type_id":"4","last_reported":1762812674,"current_range_meters":18000,"station_id":"ce4bh692rcd13ifvqea0","pricing_plan_id":"cebpf4jnsgd1na2vs0mg"},{"bike_id":"915022bf-db5e-4399-b6a8-9c3317e6d8a1","system_id":"levelo_inurba_marseille","lat":43.28861,"lon":5.42511,"is_reserved":false,"is_disabled":false,"rental_uris":{"android":"levelo://app?vid=915022bf-db5e-4399-b6a8-9c3317e6d8a1","ios":"levelo://app?vid=915022bf-db5e-4399-b6a8-9c3317e6d8a1"},"vehicle_type_id":"4","last_reported":1762812674,"current_range_meters":18000,"station_id":"st_d3b462108ojc7389ooeg","pricing_plan_id":"cebpf4jnsgd1na2vs0mg"},{"bike_id":"ca107e80-312e-4a49-94ac-592925af2d5b","system_id":"levelo_inurba_marseille","lat":43.29236,"lon":5.38444,"is_reserved":false,"is_disabled":false,"rental_uris":{"android":"levelo://app?vid=ca107e80-312e-4a49-94ac-592925af2d5b","ios":"levelo://app?vid=ca107e80-312e-4a49-94ac-592925af2d5b"},"vehicle_type_id":"4","last_reported":1762812674,"current_range_meters":18000,"station_id":"ce4bh692rcd13ifvqea0","pricing_plan_id":"cebpf4jnsgd1na2vs0mg"},{"bike_id":"77273adc-ed14-4c21-8568-1a2a57ad68f4","system_id":"levelo_inurba_marseille","lat":43.23186,"lon":5.40021,"is_reserved":false,"is_disabled":false,"rental_uris":{"android":"levelo://app?vid=77273adc-ed14-4c21-8568-1a2a57ad68f4","ios":"levelo://app?vid=77273adc-ed14-4c21-8568-1a2a57ad68f4"},"vehicle_type_id":"4","last_reported":1762812674,"current_range_meters":18000,"station_id":"ce4bhn12rcd13ifvqgqg","pricing_plan_id":"cebpf4jnsgd1na2vs0mg"},{"bike_id":"703c918d-5469-4ffc-9762-20b7fca0dace","system_id":"levelo_inurba_marseille","lat":43.2464,"lon":5.43152,"is_reserved":false,"is_disabled":false,"rental_uris":{"android":"levelo://app?vid=703c918d-5469-4ffc-9762-20b7fca0dace","ios":"levelo://app?vid=703c918d-5469-4ffc-9762-20b7fca0dace"},"vehicle_type_id":"4","last_reported":1762812674,"current_range_meters":18000,"station_id":"st_d2m6c4gdas8pm72e190g","pricing_plan_id":"cebpf4jnsgd1na2vs0mg"},{"bike_id":"1c6c0b0c-8ed3-40a6-a12a-c7af3755bbe4","system_id":"levelo_inurba_marseille","lat":43.27813,"lon":5.40708,"is_reserved":false,"is_disabled":false,"rental_uris":{"android":"levelo://app?vid=1c6c0b0c-8ed3-40a6-a12a-c7af3755bbe4","ios":"levelo://app?vid=1c6c0b0c-8ed3-40a6-a12a-c7af3755bbe4"},"vehicle_type_id":"4","last_reported":1762812674,"current_range_meters":18000,"station_id":"ce4bhnh2rcd13ifvqgtg","pricing_plan_id":"cebpf4jnsgd1na2vs0mg"},{"bike_id":"8af6a9af-26b2-419e-adda-6a680c2b6e7c","system_id":"levelo_inurba_marseille","lat":43.28656,"lon":5.36343,"is_reserved":false,"is_disabled":false,"rental_uris":{"android":"levelo://app?vid=8af6a9af-26b2-419e-adda-6a680c2b6e7c","ios":"levelo://app?vid=8af6a9af-26b2-419e-adda-6a680c2b6e7c"},"vehicle_type_id":"4","last_reported":1762812674,"current_range_meters":18800,"station_id":"ce4bhah2rcd13ifvqej0","pricing_plan_id":"cebpf4jnsgd1na2vs0mg"},{"bike_id":"ded78add-31cd-4ff1-b88b-c783be5a9eff","system_id":"levelo_inurba_marseille","lat":43.29597,"lon":5.36744,"is_reserved":false,"is_disabled":true,"rental_uris":{"android":"levelo://app?vid=ded78add-31cd-4ff1-b88b-c783be5a9eff","ios":"levelo://app?vid=ded78add-31cd-4ff1-b88b-c783be5a9eff"},"vehicle_type_id":"4","last_reported":1762812674,"current_range_meters":18800,"station_id":"ce4bgph2rcd13ifvqc2g","pricing_plan_id":"cebpf4jnsgd1na2vs0mg"},{"bike_id":"e53c5b0f-19c9-4f6a-99d5-28c94942f484","system_id":"levelo_inurba_marseille","lat":43.28871,"lon":5.42517,"is_reserved":false,"is_disabled":false,"rental_uris":{"android":"levelo://app?vid=e53c5b0f-19c9-4f6a-99d5-28c94942f484","ios":"levelo://app?vid=e53c5b0f-19c9-4f6a-99d5-28c94942f484"},"vehicle_type_id":"4","last_reported":1762812674,"current_range_meters":18800,"station_id":"st_d3b462108ojc7389ooeg","pricing_plan_id":"cebpf4jnsgd1na2vs0mg"},{"bike_id":"e7c73df9-b4db-4acf-b0bd-71e022634ff3","system_id":"levelo_inurba_marseille","lat":43.29856,"lon":5.37661,"is_reserved":false,"is_disabled":false,"rental_uris":{"android":"levelo://app?vid=e7c73df9-b4db-4acf-b0bd-71e022634ff3","ios":"levelo://app?vid=e7c73df9-b4db-4acf-b0bd-71e022634ff3"},"vehicle_type_id":"4","last_reported":1762812674,"current_range_meters":18800,"station_id":"","pricing_plan_id":"cebpf4jnsgd1na2vs0mg"},{"bike_id":"721186a3-1cd7-4822-a583-ab5eff8a0750","system_id":"levelo_inurba_marseille","lat":43.297665,"lon":5.388979,"is_reserved":false,"is_disabled":false,"rental_uris":{"android":"levelo://app?vid=721186a3-1cd7-4822-a583-ab5eff8a0750","ios":"levelo://app?vid=721186a3-1cd7-4822-a583-ab5eff8a0750"},"vehicle_type_id":"4","last_reported":1762812674,"current_range_meters":18800,"station_id":"","pricing_plan_id":"cebpf4jnsgd1na2vs0mg"},{"bike_id":"b7274164-d104-4569-8e8d-d56b2a397565","system_id":"levelo_inurba_marseille","lat":43.28478,"lon":5.48394,"is_reserved":false,"is_disabled":false,"rental_uris":{"android":"levelo://app?vid=b7274164-d104-4569-8e8d-d56b2a397565","ios":"levelo://app?vid=b7274164-d104-4569-8e8d-d56b2a397565"},"vehicle_type_id":"4","last_reported":1762812674,"current_range_meters":18800,"station_id":"st_d3svhcjqgbts73a3dn0g","pricing_plan_id":"cebpf4jnsgd1na2vs0mg"},{"bike_id":"e22ab737-288b-4a27-95de-de8a1c2d1192","system_id":"levelo_inurba_marseille","lat":43.31058,"lon":5.38335,"is_reserved":false,"is_disabled":false,"rental_uris":{"android":"levelo://app?vid=e22ab737-288b-4a27-95de-de8a1c2d1192","ios":"levelo://app?vid=e22ab737-288b-4a27-95de-de8a1c2d1192"},"vehicle_type_id":"4","last_reported":1762812674,"current_range_meters":18800,"station_id":"ce4bgv92rcd13ifvqcr0","pricing_plan_id":"cebpf4jnsgd1na2vs0mg"},{"bike_id":"79db459f-06da-4605-af5d-5c6f2573fdb9","system_id":"levelo_inurba_marseille","lat":43.23182,"lon":5.39984,"is_reserved":false,"is_disabled":false,"rental_uris":{"android":"levelo://app?vid=79db459f-06da-4605-af5d-5c6f2573fdb9","ios":"levelo://app?vid=79db459f-06da-4605-af5d-5c6f2573fdb9"},"vehicle_type_id":"4","last_reported":1762812674,"current_range_meters":18800,"station_id":"ce4bhn12rcd13ifvqgqg","pricing_plan_id":"cebpf4jnsgd1na2vs0mg"},{"bike_id":"d2e4de48-f62c-4c0a-848a-fa77d7b01b91","system_id":"levelo_inurba_marseille","lat":43.25338,"lon":5.4218,"is_reserved":false,"is_disabled":false,"rental_uris":{"android":"levelo://app?vid=d2e4de48-f62c-4c0a-848a-fa77d7b01b91","ios":"levelo://app?vid=d2e4de48-f62c-4c0a-848a-fa77d7b01b91"},"vehicle_type_id":"4","last_reported":1762812674,"current_range_meters":18800,"station_id":"st_d2m65c5bi1j21697t3ng","pricing_plan_id":"cebpf4jnsgd1na2vs0mg"},{"bike_id":"bca8af9d-2bac-4b80-bf6d-2bfb00c32099","system_id":"levelo_inurba_marseille","lat":43.304116,"lon":5.424896,"is_reserved":false,"is_disabled":false,"rental_uris":{"android":"levelo://app?vid=bca8af9d-2bac-4b80-bf6d-2bfb00c32099","ios":"levelo://app?vid=bca8af9d-2bac-4b80-bf6d-2bfb00c32099"},"vehicle_type_id":"4","last_reported":1762812674,"current_range_meters":18800,"station_id":"ce4bghh2rcd13ifvqb60","pricing_plan_id":"cebpf4jnsgd1na2vs0mg"},{"bike_id":"137f5fea-1e5f-403b-bb43-82880e0570e1","system_id":"levelo_inurba_marseille","lat":43.28863,"lon":5.42517,"is_reserved":false,"is_disabled":false,"rental_uris":{"android":"levelo://app?vid=137f5fea-1e5f-403b-bb43-82880e0570e1","ios":"levelo://app?vid=137f5fea-1e5f-403b-bb43-82880e0570e1"},"vehicle_type_id":"4","last_reported":1762812674,"current_range_meters":18800,"station_id":"st_d3b462108ojc7389ooeg","pricing_plan_id":"cebpf4jnsgd1na2vs0mg"},{"bike_id":"375f722e-03df-4e42-8acb-b44f44a654dd","system_id":"levelo_inurba_marseille","lat":43.2583,"lon":5.39446,"is_reserved":false,"is_disabled":false,"rental_uris":{"android":"levelo://app?vid=375f722e-03df-4e42-8acb-b44f44a654dd","ios":"levelo://app?vid=375f722e-03df-4e42-8acb-b44f44a654dd"},"vehicle_type_id":"4","last_reported":1762812674,"current_range_meters":18800,"station_id":"ce4bhip2rcd13ifvqft0","pricing_plan_id":"cebpf4jnsgd1na2vs0mg"},{"bike_id":"baa5d425-2150-484d-9a66-eefac6caa70a","system_id":"levelo_inurba_marseille","lat":43.27943,"lon":5.41043,"is_reserved":false,"is_disabled":false,"rental_uris":{"android":"levelo://app?vid=baa5d425-2150-484d-9a66-eefac6caa70a","ios":"levelo://app?vid=baa5d425-2150-484d-9a66-eefac6caa70a"},"vehicle_type_id":"4","last_reported":1762812674,"current_range_meters":18800,"station_id":"ce4bhnp2rcd13ifvqh0g","pricing_plan_id":"cebpf4jnsgd1na2vs0mg"},{"bike_id":"285a005d-247e-46a8-b4b3-732cc9ea4c86","system_id":"levelo_inurba_marseille","lat":43.27499,"lon":5.42457,"is_reserved":false,"is_disabled":false,"rental_uris":{"android":"levelo://app?vid=285a005d-247e-46a8-b4b3-732cc9ea4c86","ios":"levelo://app?vid=285a005d-247e-46a8-b4b3-732cc9ea4c86"},"vehicle_type_id":"4","last_reported":1762812674,"current_range_meters":18800,"station_id":"ce4bhn92rcd13ifvqgrg","pricing_plan_id":"cebpf4jnsgd1na2vs0mg"},{"bike_id":"544f6aec-d212-4c1b-8fb6-22b00bfbba59","system_id":"levelo_inurba_marseille","lat":43.285358,"lon":5.441001,"is_reserved":false,"is_disabled":false,"rental_uris":{"android":"levelo://app?vid=544f6aec-d212-4c1b-8fb6-22b00bfbba59","ios":"levelo://app?vid=544f6aec-d212-4c1b-8fb6-22b00bfbba59"},"vehicle_type_id":"4","last_reported":1762812674,"current_range_meters":18800,"station_id":"st_d3j3df2ikq2c7380ej80","pricing_plan_id":"cebpf4jnsgd1na2vs0mg"},{"bike_id":"2a849e99-c913-4b92-ba1c-5dfaf3aca3a8","system_id":"levelo_inurba_marseille","lat":43.28546,"lon":5.44119,"is_reserved":false,"is_disabled":false,"rental_uris":{"android":"levelo://app?vid=2a849e99-c913-4b92-ba1c-5dfaf3aca3a8","ios":"levelo://app?vid=2a849e99-c913-4b92-ba1c-5dfaf3aca3a8"},"vehicle_type_id":"4","last_reported":1762812674,"current_range_meters":19200,"station_id":"st_d3j3df2ikq2c7380ej80","pricing_plan_id":"cebpf4jnsgd1na2vs0mg"},{"bike_id":"fc123cd8-f1f3-4c27-a431-f78081c248eb","system_id":"levelo_inurba_marseille","lat":43.30339,"lon":5.36935,"is_reserved":false,"is_disabled":true,"rental_uris":{"android":"levelo://app?vid=fc123cd8-f1f3-4c27-a431-f78081c248eb","ios":"levelo://app?vid=fc123cd8-f1f3-4c27-a431-f78081c248eb"},"vehicle_type_id":"4","last_reported":1762812674,"current_range_meters":19200,"station_id":"ce4bgqh2rcd13ifvqc5g","pricing_plan_id":"cebpf4jnsgd1na2vs0mg"},{"bike_id":"cf92b678-7bfc-4392-a329-38ce6a689ab7","system_id":"levelo_inurba_marseille","lat":43.29519,"lon":5.39405,"is_reserved":false,"is_disabled":false,"rental_uris":{"android":"levelo://app?vid=cf92b678-7bfc-4392-a329-38ce6a689ab7","ios":"levelo://app?vid=cf92b678-7bfc-4392-a329-38ce6a689ab7"},"vehicle_type_id":"4","last_reported":1762812674,"current_range_meters":19200,"station_id":"ce4bh292rcd13ifvqdf0","pricing_plan_id":"cebpf4jnsgd1na2vs0mg"},{"bike_id":"e091556a-3d72-407d-a600-ef46392ceba1","system_id":"levelo_inurba_marseille","lat":43.28614,"lon":5.37045,"is_reserved":false,"is_disabled":false,"rental_uris":{"android":"levelo://app?vid=e091556a-3d72-407d-a600-ef46392ceba1","ios":"levelo://app?vid=e091556a-3d72-407d-a600-ef46392ceba1"},"vehicle_type_id":"4","last_reported":1762812674,"current_range_meters":19200,"station_id":"ce4bht12rcd13ifvqi60","pricing_plan_id":"cebpf4jnsgd1na2vs0mg"},{"bike_id":"b99541e7-6e3e-4a2f-a832-3ecf9392f829","system_id":"levelo_inurba_marseille","lat":43.29595,"lon":5.38091,"is_reserved":false,"is_disabled":false,"rental_uris":{"android":"levelo://app?vid=b99541e7-6e3e-4a2f-a832-3ecf9392f829","ios":"levelo://app?vid=b99541e7-6e3e-4a2f-a832-3ecf9392f829"},"vehicle_type_id":"4","last_reported":1762812674,"current_range_meters":19200,"station_id":"ce4bgl12rcd13ifvqbo0","pricing_plan_id":"cebpf4jnsgd1na2vs0mg"},{"bike_id":"c2f13ed8-842d-4a6b-96c6-507197f38fec","system_id":"levelo_inurba_marseille","lat":43.330268,"lon":5.390397,"is_reserved":false,"is_disabled":false,"rental_uris":{"android":"levelo://app?vid=c2f13ed8-842d-4a6b-96c6-507197f38fec","ios":"levelo://app?vid=c2f13ed8-842d-4a6b-96c6-507197f38fec"},"vehicle_type_id":"4","last_reported":1762812674,"current_range_meters":19200,"station_id":"ce4bhr92rcd13ifvqhrg","pricing_plan_id":"cebpf4jnsgd1na2vs0mg"},{"bike_id":"2d8804f7-aead-44af-af3a-572518203fa3","system_id":"levelo_inurba_marseille","lat":43.29954,"lon":5.37154,"is_reserved":false,"is_disabled":false,"rental_uris":{"android":"levelo://app?vid=2d8804f7-aead-44af-af3a-572518203fa3","ios":"levelo://app?vid=2d8804f7-aead-44af-af3a-572518203fa3"},"vehicle_type_id":"4","last_reported":1762812674,"current_range_meters":19200,"station_id":"ce4bgr92rcd13ifvqc7g","pricing_plan_id":"cebpf4jnsgd1na2vs0mg"},{"bike_id":"83985f8b-cd4a-440b-b76b-210a500d76cc","system_id":"levelo_inurba_marseille","lat":43.28925,"lon":5.38402,"is_reserved":false,"is_disabled":false,"rental_uris":{"android":"levelo://app?vid=83985f8b-cd4a-440b-b76b-210a500d76cc","ios":"levelo://app?vid=83985f8b-cd4a-440b-b76b-210a500d76cc"},"vehicle_type_id":"4","last_reported":1762812674,"current_range_meters":19200,"station_id":"ce4bh612rcd13ifvqe6g","pricing_plan_id":"cebpf4jnsgd1na2vs0mg"},{"bike_id":"1e33422e-17f8-4911-93be-22ff36466568","system_id":"levelo_inurba_marseille","lat":43.29535,"lon":5.38545,"is_reserved":false,"is_disabled":true,"rental_uris":{"android":"levelo://app?vid=1e33422e-17f8-4911-93be-22ff36466568","ios":"levelo://app?vid=1e33422e-17f8-4911-93be-22ff36466568"},"vehicle_type_id":"4","last_reported":1762812674,"current_range_meters":19200,"station_id":"ce4bgih2rcd13ifvqba0","pricing_plan_id":"cebpf4jnsgd1na2vs0mg"},{"bike_id":"cf237bda-02c6-4f4b-94cd-35dd55141703","system_id":"levelo_inurba_marseille","lat":43.31363,"lon":5.38495,"is_reserved":false,"is_disabled":false,"rental_uris":{"android":"levelo://app?vid=cf237bda-02c6-4f4b-94cd-35dd55141703","ios":"levelo://app?vid=cf237bda-02c6-4f4b-94cd-35dd55141703"},"vehicle_type_id":"4","last_reported":1762812674,"current_range_meters":19200,"station_id":"ce4bgt92rcd13ifvqcf0","pricing_plan_id":"cebpf4jnsgd1na2vs0mg"},{"bike_id":"1a256eea-eb3f-48c7-96ec-3186ad2eb64c","system_id":"levelo_inurba_marseille","lat":43.30746,"lon":5.42444,"is_reserved":false,"is_disabled":false,"rental_uris":{"android":"levelo://app?vid=1a256eea-eb3f-48c7-96ec-3186ad2eb64c","ios":"levelo://app?vid=1a256eea-eb3f-48c7-96ec-3186ad2eb64c"},"vehicle_type_id":"4","last_reported":1762812674,"current_range_meters":19200,"station_id":"st_cvj6ca6bvosntc0bfgr0","pricing_plan_id":"cebpf4jnsgd1na2vs0mg"},{"bike_id":"9c3fefff-8e65-40e8-b230-3291baf13381","system_id":"levelo_inurba_marseille","lat":43.28106,"lon":5.37841,"is_reserved":false,"is_disabled":false,"rental_uris":{"android":"levelo://app?vid=9c3fefff-8e65-40e8-b230-3291baf13381","ios":"levelo://app?vid=9c3fefff-8e65-40e8-b230-3291baf13381"},"vehicle_type_id":"4","last_reported":1762812674,"current_range_meters":19200,"station_id":"ce4bha12rcd13ifvqee0","pricing_plan_id":"cebpf4jnsgd1na2vs0mg"},{"bike_id":"090af6d0-4a77-4c68-9f67-83d55516e190","system_id":"levelo_inurba_marseille","lat":43.30532,"lon":5.36713,"is_reserved":false,"is_disabled":false,"rental_uris":{"android":"levelo://app?vid=090af6d0-4a77-4c68-9f67-83d55516e190","ios":"levelo://app?vid=090af6d0-4a77-4c68-9f67-83d55516e190"},"vehicle_type_id":"4","last_reported":1762812674,"current_range_meters":19200,"station_id":"ce4bgrp2rcd13ifvqc9g","pricing_plan_id":"cebpf4jnsgd1na2vs0mg"},{"bike_id":"2cab5180-def3-4e7d-acd5-1ecbc528e394","system_id":"levelo_inurba_marseille","lat":43.30935,"lon":5.40151,"is_reserved":false,"is_disabled":false,"rental_uris":{"android":"levelo://app?vid=2cab5180-def3-4e7d-acd5-1ecbc528e394","ios":"levelo://app?vid=2cab5180-def3-4e7d-acd5-1ecbc528e394"},"vehicle_type_id":"4","last_reported":1762812674,"current_range_meters":19200,"station_id":"ce4bgvp2rcd13ifvqct0","pricing_plan_id":"cebpf4jnsgd1na2vs0mg"},{"bike_id":"c20562bb-9093-43eb-8ae7-fbc11795ea95","system_id":"levelo_inurba_marseille","lat":43.2959,"lon":5.38079,"is_reserved":false,"is_disabled":false,"rental_uris":{"android":"levelo://app?vid=c20562bb-9093-43eb-8ae7-fbc11795ea95","ios":"levelo://app?vid=c20562bb-9093-43eb-8ae7-fbc11795ea95"},"vehicle_type_id":"4","last_reported":1762812674,"current_range_meters":19200,"station_id":"ce4bgl12rcd13ifvqbo0","pricing_plan_id":"cebpf4jnsgd1na2vs0mg"},{"bike_id":"d2f265e1-6f87-4fc6-aa90-e2e3161c35d8","system_id":"levelo_inurba_marseille","lat":43.29275,"lon":5.3685,"is_reserved":false,"is_disabled":false,"rental_uris":{"android":"levelo://app?vid=d2f265e1-6f87-4fc6-aa90-e2e3161c35d8","ios":"levelo://app?vid=d2f265e1-6f87-4fc6-aa90-e2e3161c35d8"},"vehicle_type_id":"4","last_reported":1762812674,"current_range_meters":19200,"station_id":"ce4bhbp2rcd13ifvqesg","pricing_plan_id":"cebpf4jnsgd1na2vs0mg"},{"bike_id":"270031b6-4359-42a3-b971-1838bf45c6e2","system_id":"levelo_inurba_marseille","lat":43.29299,"lon":5.37153,"is_reserved":false,"is_disabled":false,"rental_uris":{"android":"levelo://app?vid=270031b6-4359-42a3-b971-1838bf45c6e2","ios":"levelo://app?vid=270031b6-4359-42a3-b971-1838bf45c6e2"},"vehicle_type_id":"4","last_reported":1762812674,"current_range_meters":19200,"station_id":"ce4bgh92rcd13ifvqb40","pricing_plan_id":"cebpf4jnsgd1na2vs0mg"},{"bike_id":"c7c4d145-8673-4bd1-bd56-178a874a86e3","system_id":"levelo_inurba_marseille","lat":43.29763,"lon":5.42783,"is_reserved":false,"is_disabled":false,"rental_uris":{"android":"levelo://app?vid=c7c4d145-8673-4bd1-bd56-178a874a86e3","ios":"levelo://app?vid=c7c4d145-8673-4bd1-bd56-178a874a86e3"},"vehicle_type_id":"4","last_reported":1762812674,"current_range_meters":19200,"station_id":"st_d3md5207bmas73dh9klg","pricing_plan_id":"cebpf4jnsgd1na2vs0mg"},{"bike_id":"9aadcd09-1165-41fb-b7fa-d8f112ff36d9","system_id":"levelo_inurba_marseille","lat":43.29254,"lon":5.36831,"is_reserved":false,"is_disabled":false,"rental_uris":{"android":"levelo://app?vid=9aadcd09-1165-41fb-b7fa-d8f112ff36d9","ios":"levelo://app?vid=9aadcd09-1165-41fb-b7fa-d8f112ff36d9"},"vehicle_type_id":"4","last_reported":1762812674,"current_range_meters":19200,"station_id":"ce4bhbp2rcd13ifvqesg","pricing_plan_id":"cebpf4jnsgd1na2vs0mg"},{"bike_id":"15719b23-6d6c-492e-a397-6920707bdcca","system_id":"levelo_inurba_marseille","lat":43.29819,"lon":5.44053,"is_reserved":false,"is_disabled":false,"rental_uris":{"android":"levelo://app?vid=15719b23-6d6c-492e-a397-6920707bdcca","ios":"levelo://app?vid=15719b23-6d6c-492e-a397-6920707bdcca"},"vehicle_type_id":"4","last_reported":1762812674,"current_range_meters":19200,"station_id":"st_d3jp68qikq2c7381ktn0","pricing_plan_id":"cebpf4jnsgd1na2vs0mg"},{"bike_id":"17d33e90-d3d6-445b-a18b-d20d691539f2","system_id":"levelo_inurba_marseille","lat":43.30883,"lon":5.37199,"is_reserved":false,"is_disabled":false,"rental_uris":{"android":"levelo://app?vid=17d33e90-d3d6-445b-a18b-d20d691539f2","ios":"levelo://app?vid=17d33e90-d3d6-445b-a18b-d20d691539f2"},"vehicle_type_id":"4","last_reported":1762812674,"current_range_meters":19600,"station_id":"ce4bguh2rcd13ifvqckg","pricing_plan_id":"cebpf4jnsgd1na2vs0mg"},{"bike_id":"31d06f6e-263b-4ab4-a1b2-7c4858e4dbff","system_id":"levelo_inurba_marseille","lat":43.24649,"lon":5.38925,"is_reserved":false,"is_disabled":true,"rental_uris":{"android":"levelo://app?vid=31d06f6e-263b-4ab4-a1b2-7c4858e4dbff","ios":"levelo://app?vid=31d06f6e-263b-4ab4-a1b2-7c4858e4dbff"},"vehicle_type_id":"4","last_reported":1762812674,"current_range_meters":19600,"station_id":"ce4bhg12rcd13ifvqf60","pricing_plan_id":"cebpf4jnsgd1na2vs0mg"},{"bike_id":"84f926bc-9013-4ee7-8773-28adae791496","system_id":"levelo_inurba_marseille","lat":43.239624,"lon":5.366347,"is_reserved":false,"is_disabled":false,"rental_uris":{"android":"levelo://app?vid=84f926bc-9013-4ee7-8773-28adae791496","ios":"levelo://app?vid=84f926bc-9013-4ee7-8773-28adae791496"},"vehicle_type_id":"4","last_reported":1762812674,"current_range_meters":19600,"station_id":"ce4bhi12rcd13ifvqfp0","pricing_plan_id":"cebpf4jnsgd1na2vs0mg"},{"bike_id":"4ab171ff-cd30-4865-b775-001bf8be35d8","system_id":"levelo_inurba_marseille","lat":43.286128,"lon":5.350004,"is_reserved":false,"is_disabled":false,"rental_uris":{"android":"levelo://app?vid=4ab171ff-cd30-4865-b775-001bf8be35d8","ios":"levelo://app?vid=4ab171ff-cd30-4865-b775-001bf8be35d8"},"vehicle_type_id":"4","last_reported":1762812674,"current_range_meters":19600,"station_id":"","pricing_plan_id":"cebpf4jnsgd1na2vs0mg"},{"bike_id":"a375fcb3-2645-4320-97b3-3fc9e71803b1","system_id":"levelo_inurba_marseille","lat":43.249166,"lon":5.387248,"is_reserved":false,"is_disabled":false,"rental_uris":{"android":"levelo://app?vid=a375fcb3-2645-4320-97b3-3fc9e71803b1","ios":"levelo://app?vid=a375fcb3-2645-4320-97b3-3fc9e71803b1"},"vehicle_type_id":"4","last_reported":1762812674,"current_range_meters":19600,"station_id":"ce4bhg12rcd13ifvqf60","pricing_plan_id":"cebpf4jnsgd1na2vs0mg"},{"bike_id":"a652226a-9d72-4fbd-badc-7063b09062fd","system_id":"levelo_inurba_marseille","lat":43.26066,"lon":5.39412,"is_reserved":false,"is_disabled":false,"rental_uris":{"android":"levelo://app?vid=a652226a-9d72-4fbd-badc-7063b09062fd","ios":"levelo://app?vid=a652226a-9d72-4fbd-badc-7063b09062fd"},"vehicle_type_id":"4","last_reported":1762812674,"current_range_meters":19600,"station_id":"ce4bhh92rcd13ifvqfj0","pricing_plan_id":"cebpf4jnsgd1na2vs0mg"},{"bike_id":"98712c90-894c-4ae3-8479-3af44991d1f7","system_id":"levelo_inurba_marseille","lat":43.28475,"lon":5.38433,"is_reserved":false,"is_disabled":true,"rental_uris":{"android":"levelo://app?vid=98712c90-894c-4ae3-8479-3af44991d1f7","ios":"levelo://app?vid=98712c90-894c-4ae3-8479-3af44991d1f7"},"vehicle_type_id":"4","last_reported":1762812674,"current_range_meters":19600,"station_id":"ce4bh512rcd13ifvqe3g","pricing_plan_id":"cebpf4jnsgd1na2vs0mg"},{"bike_id":"c25d4223-7fb9-4a20-ab8b-9aefce29e637","system_id":"levelo_inurba_marseille","lat":43.29196,"lon":5.35804,"is_reserved":false,"is_disabled":true,"rental_uris":{"android":"levelo://app?vid=c25d4223-7fb9-4a20-ab8b-9aefce29e637","ios":"levelo://app?vid=c25d4223-7fb9-4a20-ab8b-9aefce29e637"},"vehicle_type_id":"4","last_reported":1762812674,"current_range_meters":19600,"station_id":"ce4bhb12rcd13ifvqel0","pricing_plan_id":"cebpf4jnsgd1na2vs0mg"},{"bike_id":"1199aba2-8993-4cc7-ae3c-5b54916b5f6c","system_id":"levelo_inurba_marseille","lat":43.33604,"lon":5.41023,"is_reserved":false,"is_disabled":false,"rental_uris":{"android":"levelo://app?vid=1199aba2-8993-4cc7-ae3c-5b54916b5f6c","ios":"levelo://app?vid=1199aba2-8993-4cc7-ae3c-5b54916b5f6c"},"vehicle_type_id":"4","last_reported":1762812674,"current_range_meters":19600,"station_id":"ce4bhqh2rcd13ifvqhmg","pricing_plan_id":"cebpf4jnsgd1na2vs0mg"},{"bike_id":"301ac03f-f287-44fc-a12c-f41b9caef8d1","system_id":"levelo_inurba_marseille","lat":43.292989,"lon":5.368384,"is_reserved":false,"is_disabled":false,"rental_uris":{"android":"levelo://app?vid=301ac03f-f287-44fc-a12c-f41b9caef8d1","ios":"levelo://app?vid=301ac03f-f287-44fc-a12c-f41b9caef8d1"},"vehicle_type_id":"4","last_reported":1762812674,"current_range_meters":19600,"station_id":"ce4bhbp2rcd13ifvqesg","pricing_plan_id":"cebpf4jnsgd1na2vs0mg"},{"bike_id":"4d67ebc4-ed3f-49d2-9138-123e6ae8ff35","system_id":"levelo_inurba_marseille","lat":43.21752,"lon":5.34608,"is_reserved":false,"is_disabled":false,"rental_uris":{"android":"levelo://app?vid=4d67ebc4-ed3f-49d2-9138-123e6ae8ff35","ios":"levelo://app?vid=4d67ebc4-ed3f-49d2-9138-123e6ae8ff35"},