{"last_updated":1742501448,"ttl":60,"version":"2.2","data":{"bikes":[{"bike_id":"5b034f6c-b781-4614-b284-b1b81a5bd187","system_id":"levelo_inurba_marseille","lat":43.311708,"lon":5.387204,"is_reserved":false,"is_disabled":false,"rental_uris":{"android":"levelo://app?vid=5b034f6c-b781-4614-b284-b1b81a5bd187","ios":"levelo://app?vid=5b034f6c-b781-4614-b284-b1b81a5bd187"},"vehicle_type_id":"4","last_reported":1742501449,"current_range_meters":2800,"station_id":"ce4bgv12rcd13ifvqcp0","pricing_plan_id":"cebpf4jnsgd1na2vs0mg"},{"bike_id":"49068b70-410f-4779-b53d-b6bcfbcd6066","system_id":"levelo_inurba_marseille","lat":43.29277,"lon":5.36837,"is_reserved":false,"is_disabled":false,"rental_uris":{"android":"levelo://app?vid=49068b70-410f-4779-b53d-b6bcfbcd6066","ios":"levelo://app?vid=49068b70-410f-4779-b53d-b6bcfbcd6066"},"vehicle_type_id":"4","last_reported":1742501449,"current_range_meters":2800,"station_id":"ce4bhbp2rcd13ifvqesg","pricing_plan_id":"cebpf4jnsgd1na2vs0mg"},{"bike_id":"162c19d4-504b-458d-8662-31b95e1d0280","system_id":"levelo_inurba_marseille","lat":43.2846,"lon":5.35883,"is_reserved":false,"is_disabled":false,"rental_uris":{"android":"levelo://app?vid=162c19d4-504b-458d-8662-31b95e1d0280","ios":"levelo://app?vid=162c19d4-504b-458d-8662-31b95e1d0280"},"vehicle_type_id":"4","last_reported":1742501449,"current_range_meters":2800,"station_id":"ce4bhah2rcd13ifvqei0","pricing_plan_id":"cebpf4jnsgd1na2vs0mg"},{"bike_id":"c406f2e3-79cb-4793-90e1-5322098553a5","system_id":"levelo_inurba_marseille","lat":43.29239,"lon":5.35827,"is_reserved":false,"is_disabled":false,"rental_uris":{"android":"levelo://app?vid=c406f2e3-79cb-4793-90e1-5322098553a5","ios":"levelo://app?vid=c406f2e3-79cb-4793-90e1-5322098553a5"},"vehicle_type_id":"4","last_reported":1742501449,"current_range_meters":2800,"station_id":"","pricing_plan_id":"cebpf4jnsgd1na2vs0mg"},{"bike_id":"2b67c8cc-c7bc-48d3-87a5-6c2949145687","system_id":"levelo_inurba_marseille","lat":43.29272,"lon":5.36847,"is_reserved":false,"is_disabled":false,"rental_uris":{"android":"levelo://app?vid=2b67c8cc-c7bc-48d3-87a5-6c2949145687","ios":"levelo://app?vid=2b67c8cc-c7bc-48d3-87a5-6c2949145687"},"vehicle_type_id":"4","last_reported":1742501449,"current_range_meters":2800,"station_id":"","pricing_plan_id":"cebpf4jnsgd1na2vs0mg"},{"bike_id":"90a9493b-8818-4d2d-a054-d148eed3c66d","system_id":"levelo_inurba_marseille","lat":43.28727,"lon":5.36087,"is_reserved":false,"is_disabled":false,"rental_uris":{"android":"levelo://app?vid=90a9493b-8818-4d2d-a054-d148eed3c66d","ios":"levelo://app?vid=90a9493b-8818-4d2d-a054-d148eed3c66d"},"vehicle_type_id":"4","last_reported":1742501449,"current_range_meters":3200,"station_id":"cki0cbj6b192h4jlfktg","pricing_plan_id":"cebpf4jnsgd1na2vs0mg"},{"bike_id":"42b3cdbc-800d-4bee-883e-cfa636aa6e56","system_id":"levelo_inurba_marseille","lat":43.30125,"lon":5.39859,"is_reserved":false,"is_disabled":false,"rental_uris":{"android":"levelo://app?vid=42b3cdbc-800d-4bee-883e-cfa636aa6e56","ios":"levelo://app?vid=42b3cdbc-800d-4bee-883e-cfa636aa6e56"},"vehicle_type_id":"4","last_reported":1742501449,"current_range_meters":3200,"station_id":"","pricing_plan_id":"cebpf4jnsgd1na2vs0mg"},{"bike_id":"efbacec4-d2a2-4658-b963-f539ff7b79ac","system_id":"levelo_inurba_marseille","lat":43.3229,"lon":5.38282,"is_reserved":false,"is_disabled":false,"rental_uris":{"android":"levelo://app?vid=efbacec4-d2a2-4658-b963-f539ff7b79ac","ios":"levelo://app?vid=efbacec4-d2a2-4658-b963-f539ff7b79ac"},"vehicle_type_id":"4","last_reported":1742501449,"current_range_meters":3200,"station_id":"ce4bhr12rcd13ifvqhqg","pricing_plan_id":"cebpf4jnsgd1na2vs0mg"},{"bike_id":"55908588-7f7c-4551-af9a-e222eb87a764","system_id":"levelo_inurba_marseille","lat":43.2835,"lon":5.38107,"is_reserved":false,"is_disabled":false,"rental_uris":{"android":"levelo://app?vid=55908588-7f7c-4551-af9a-e222eb87a764","ios":"levelo://app?vid=55908588-7f7c-4551-af9a-e222eb87a764"},"vehicle_type_id":"4","last_reported":1742501449,"current_range_meters":3200,"station_id":"ce4bh412rcd13ifvqdr0","pricing_plan_id":"cebpf4jnsgd1na2vs0mg"},{"bike_id":"ce3fb986-9790-4457-a575-321e2fbef041","system_id":"levelo_inurba_marseille","lat":43.28112,"lon":5.37916,"is_reserved":false,"is_disabled":false,"rental_uris":{"android":"levelo://app?vid=ce3fb986-9790-4457-a575-321e2fbef041","ios":"levelo://app?vid=ce3fb986-9790-4457-a575-321e2fbef041"},"vehicle_type_id":"4","last_reported":1742501449,"current_range_meters":3200,"station_id":"","pricing_plan_id":"cebpf4jnsgd1na2vs0mg"},{"bike_id":"8d28e9ae-6fdb-40eb-b9e1-5facd42fb9fa","system_id":"levelo_inurba_marseille","lat":43.2898,"lon":5.37843,"is_reserved":false,"is_disabled":true,"rental_uris":{"android":"levelo://app?vid=8d28e9ae-6fdb-40eb-b9e1-5facd42fb9fa","ios":"levelo://app?vid=8d28e9ae-6fdb-40eb-b9e1-5facd42fb9fa"},"vehicle_type_id":"4","last_reported":1742501449,"current_range_meters":3200,"station_id":"ce4bh9p2rcd13ifvqed0","pricing_plan_id":"cebpf4jnsgd1na2vs0mg"},{"bike_id":"9cf5a5cb-65b0-4fa2-ad7c-969fd489975f","system_id":"levelo_inurba_marseille","lat":43.28692,"lon":5.37386,"is_reserved":false,"is_disabled":true,"rental_uris":{"android":"levelo://app?vid=9cf5a5cb-65b0-4fa2-ad7c-969fd489975f","ios":"levelo://app?vid=9cf5a5cb-65b0-4fa2-ad7c-969fd489975f"},"vehicle_type_id":"4","last_reported":1742501449,"current_range_meters":3200,"station_id":"ce4bh3p2rcd13ifvqdq0","pricing_plan_id":"cebpf4jnsgd1na2vs0mg"},{"bike_id":"e9f78bcb-b7b2-4578-ab08-651864fed234","system_id":"levelo_inurba_marseille","lat":43.2827,"lon":5.35114,"is_reserved":false,"is_disabled":false,"rental_uris":{"android":"levelo://app?vid=e9f78bcb-b7b2-4578-ab08-651864fed234","ios":"levelo://app?vid=e9f78bcb-b7b2-4578-ab08-651864fed234"},"vehicle_type_id":"4","last_reported":1742501449,"current_range_meters":3200,"station_id":"ce4bhbp2rcd13ifvqerg","pricing_plan_id":"cebpf4jnsgd1na2vs0mg"},{"bike_id":"6f410ca0-187f-4db6-8573-7f0ce11fd1ee","system_id":"levelo_inurba_marseille","lat":43.28846,"lon":5.35856,"is_reserved":false,"is_disabled":false,"rental_uris":{"android":"levelo://app?vid=6f410ca0-187f-4db6-8573-7f0ce11fd1ee","ios":"levelo://app?vid=6f410ca0-187f-4db6-8573-7f0ce11fd1ee"},"vehicle_type_id":"4","last_reported":1742501449,"current_range_meters":3200,"station_id":"ce4bhb12rcd13ifvqem0","pricing_plan_id":"cebpf4jnsgd1na2vs0mg"},{"bike_id":"75fca2c2-72e4-4c07-8de8-e1ef62170fbc","system_id":"levelo_inurba_marseille","lat":43.26691,"lon":5.38263,"is_reserved":false,"is_disabled":true,"rental_uris":{"android":"levelo://app?vid=75fca2c2-72e4-4c07-8de8-e1ef62170fbc","ios":"levelo://app?vid=75fca2c2-72e4-4c07-8de8-e1ef62170fbc"},"vehicle_type_id":"4","last_reported":1742501449,"current_range_meters":3600,"station_id":"ce4bhg92rcd13ifvqf90","pricing_plan_id":"cebpf4jnsgd1na2vs0mg"},{"bike_id":"c4d10f38-78ed-4fa4-9f79-b948b8d83932","system_id":"levelo_inurba_marseille","lat":43.32366,"lon":5.38896,"is_reserved":false,"is_disabled":false,"rental_uris":{"android":"levelo://app?vid=c4d10f38-78ed-4fa4-9f79-b948b8d83932","ios":"levelo://app?vid=c4d10f38-78ed-4fa4-9f79-b948b8d83932"},"vehicle_type_id":"4","last_reported":1742501449,"current_range_meters":3600,"station_id":"ce4bhqp2rcd13ifvqhog","pricing_plan_id":"cebpf4jnsgd1na2vs0mg"},{"bike_id":"e10c0d45-e464-450b-a10f-befa85f1304c","system_id":"levelo_inurba_marseille","lat":43.29903,"lon":5.43673,"is_reserved":false,"is_disabled":false,"rental_uris":{"android":"levelo://app?vid=e10c0d45-e464-450b-a10f-befa85f1304c","ios":"levelo://app?vid=e10c0d45-e464-450b-a10f-befa85f1304c"},"vehicle_type_id":"4","last_reported":1742501449,"current_range_meters":3600,"station_id":"ce4bhpp2rcd13ifvqhfg","pricing_plan_id":"cebpf4jnsgd1na2vs0mg"},{"bike_id":"67939909-c130-4e10-8f45-0fc487cee1a5","system_id":"levelo_inurba_marseille","lat":43.28845,"lon":5.39311,"is_reserved":false,"is_disabled":false,"rental_uris":{"android":"levelo://app?vid=67939909-c130-4e10-8f45-0fc487cee1a5","ios":"levelo://app?vid=67939909-c130-4e10-8f45-0fc487cee1a5"},"vehicle_type_id":"4","last_reported":1742501449,"current_range_meters":3600,"station_id":"ce4bh2p2rcd13ifvqdi0","pricing_plan_id":"cebpf4jnsgd1na2vs0mg"},{"bike_id":"ef3a343d-e1e4-4eb9-9e35-05228ef626be","system_id":"levelo_inurba_marseille","lat":43.281578,"lon":5.426443,"is_reserved":false,"is_disabled":false,"rental_uris":{"android":"levelo://app?vid=ef3a343d-e1e4-4eb9-9e35-05228ef626be","ios":"levelo://app?vid=ef3a343d-e1e4-4eb9-9e35-05228ef626be"},"vehicle_type_id":"4","last_reported":1742501449,"current_range_meters":4000,"station_id":"ce4bhnh2rcd13ifvqgug","pricing_plan_id":"cebpf4jnsgd1na2vs0mg"},{"bike_id":"644a7d9b-a535-4435-b787-ef3b7fa404de","system_id":"levelo_inurba_marseille","lat":43.29172,"lon":5.37169,"is_reserved":false,"is_disabled":false,"rental_uris":{"android":"levelo://app?vid=644a7d9b-a535-4435-b787-ef3b7fa404de","ios":"levelo://app?vid=644a7d9b-a535-4435-b787-ef3b7fa404de"},"vehicle_type_id":"4","last_reported":1742501449,"current_range_meters":4000,"station_id":"ce4bha92rcd13ifvqeh0","pricing_plan_id":"cebpf4jnsgd1na2vs0mg"},{"bike_id":"24c5d896-8e5c-4d3b-a814-61a4b7be682e","system_id":"levelo_inurba_marseille","lat":43.28277,"lon":5.35026,"is_reserved":false,"is_disabled":false,"rental_uris":{"android":"levelo://app?vid=24c5d896-8e5c-4d3b-a814-61a4b7be682e","ios":"levelo://app?vid=24c5d896-8e5c-4d3b-a814-61a4b7be682e"},"vehicle_type_id":"4","last_reported":1742501449,"current_range_meters":4000,"station_id":"ce4bhbp2rcd13ifvqerg","pricing_plan_id":"cebpf4jnsgd1na2vs0mg"},{"bike_id":"240837ef-0fc8-4630-a319-393027fc7a1c","system_id":"levelo_inurba_marseille","lat":43.26551,"lon":5.37292,"is_reserved":false,"is_disabled":false,"rental_uris":{"android":"levelo://app?vid=240837ef-0fc8-4630-a319-393027fc7a1c","ios":"levelo://app?vid=240837ef-0fc8-4630-a319-393027fc7a1c"},"vehicle_type_id":"4","last_reported":1742501449,"current_range_meters":4000,"station_id":"ce4bhg12rcd13ifvqf70","pricing_plan_id":"cebpf4jnsgd1na2vs0mg"},{"bike_id":"9128601a-f956-4e67-957d-684d6e79451c","system_id":"levelo_inurba_marseille","lat":43.29191,"lon":5.39316,"is_reserved":false,"is_disabled":false,"rental_uris":{"android":"levelo://app?vid=9128601a-f956-4e67-957d-684d6e79451c","ios":"levelo://app?vid=9128601a-f956-4e67-957d-684d6e79451c"},"vehicle_type_id":"4","last_reported":1742501449,"current_range_meters":4000,"station_id":"ce4bh192rcd13ifvqdd0","pricing_plan_id":"cebpf4jnsgd1na2vs0mg"},{"bike_id":"9392d0d5-a234-4c05-a998-e92eb9d71788","system_id":"levelo_inurba_marseille","lat":43.26502,"lon":5.39541,"is_reserved":false,"is_disabled":false,"rental_uris":{"android":"levelo://app?vid=9392d0d5-a234-4c05-a998-e92eb9d71788","ios":"levelo://app?vid=9392d0d5-a234-4c05-a998-e92eb9d71788"},"vehicle_type_id":"4","last_reported":1742501449,"current_range_meters":4000,"station_id":"ce4bhi12rcd13ifvqfq0","pricing_plan_id":"cebpf4jnsgd1na2vs0mg"},{"bike_id":"dee499bc-12d8-44b6-8a09-72b12b0226e5","system_id":"levelo_inurba_marseille","lat":43.29029,"lon":5.3999,"is_reserved":false,"is_disabled":false,"rental_uris":{"android":"levelo://app?vid=dee499bc-12d8-44b6-8a09-72b12b0226e5","ios":"levelo://app?vid=dee499bc-12d8-44b6-8a09-72b12b0226e5"},"vehicle_type_id":"4","last_reported":1742501449,"current_range_meters":4000,"station_id":"ce4bh392rcd13ifvqdm0","pricing_plan_id":"cebpf4jnsgd1na2vs0mg"},{"bike_id":"788bb78e-f182-411f-989b-2e1813909415","system_id":"levelo_inurba_marseille","lat":43.27993,"lon":5.41664,"is_reserved":false,"is_disabled":false,"rental_uris":{"android":"levelo://app?vid=788bb78e-f182-411f-989b-2e1813909415","ios":"levelo://app?vid=788bb78e-f182-411f-989b-2e1813909415"},"vehicle_type_id":"4","last_reported":1742501449,"current_range_meters":4000,"station_id":"ce4bho12rcd13ifvqh1g","pricing_plan_id":"cebpf4jnsgd1na2vs0mg"},{"bike_id":"99743687-257a-444c-b1d0-3101ba257cca","system_id":"levelo_inurba_marseille","lat":43.28112,"lon":5.39857,"is_reserved":false,"is_disabled":false,"rental_uris":{"android":"levelo://app?vid=99743687-257a-444c-b1d0-3101ba257cca","ios":"levelo://app?vid=99743687-257a-444c-b1d0-3101ba257cca"},"vehicle_type_id":"4","last_reported":1742501449,"current_range_meters":4400,"station_id":"","pricing_plan_id":"cebpf4jnsgd1na2vs0mg"},{"bike_id":"cd424a00-601b-4d45-9c94-9997373b63b9","system_id":"levelo_inurba_marseille","lat":43.28149,"lon":5.4266,"is_reserved":false,"is_disabled":false,"rental_uris":{"android":"levelo://app?vid=cd424a00-601b-4d45-9c94-9997373b63b9","ios":"levelo://app?vid=cd424a00-601b-4d45-9c94-9997373b63b9"},"vehicle_type_id":"4","last_reported":1742501449,"current_range_meters":4400,"station_id":"ce4bhnh2rcd13ifvqgug","pricing_plan_id":"cebpf4jnsgd1na2vs0mg"},{"bike_id":"ab119603-6df2-41d3-9ddd-f949d2760144","system_id":"levelo_inurba_marseille","lat":43.29261,"lon":5.36845,"is_reserved":false,"is_disabled":false,"rental_uris":{"android":"levelo://app?vid=ab119603-6df2-41d3-9ddd-f949d2760144","ios":"levelo://app?vid=ab119603-6df2-41d3-9ddd-f949d2760144"},"vehicle_type_id":"4","last_reported":1742501449,"current_range_meters":4400,"station_id":"ce4bhbp2rcd13ifvqesg","pricing_plan_id":"cebpf4jnsgd1na2vs0mg"},{"bike_id":"a0806a74-dcd1-467b-a8b2-ac43d6e35553","system_id":"levelo_inurba_marseille","lat":43.28496,"lon":5.35914,"is_reserved":false,"is_disabled":false,"rental_uris":{"android":"levelo://app?vid=a0806a74-dcd1-467b-a8b2-ac43d6e35553","ios":"levelo://app?vid=a0806a74-dcd1-467b-a8b2-ac43d6e35553"},"vehicle_type_id":"4","last_reported":1742501449,"current_range_meters":4800,"station_id":"ce4bhah2rcd13ifvqei0","pricing_plan_id":"cebpf4jnsgd1na2vs0mg"},{"bike_id":"b6b55721-b180-4355-a096-a2357f93b352","system_id":"levelo_inurba_marseille","lat":43.28,"lon":5.40032,"is_reserved":false,"is_disabled":false,"rental_uris":{"android":"levelo://app?vid=b6b55721-b180-4355-a096-a2357f93b352","ios":"levelo://app?vid=b6b55721-b180-4355-a096-a2357f93b352"},"vehicle_type_id":"4","last_reported":1742501449,"current_range_meters":4800,"station_id":"ce4bho92rcd13ifvqh4g","pricing_plan_id":"cebpf4jnsgd1na2vs0mg"},{"bike_id":"5878ff92-b226-4716-ad00-9dcb529b92d8","system_id":"levelo_inurba_marseille","lat":43.287,"lon":5.39971,"is_reserved":false,"is_disabled":false,"rental_uris":{"android":"levelo://app?vid=5878ff92-b226-4716-ad00-9dcb529b92d8","ios":"levelo://app?vid=5878ff92-b226-4716-ad00-9dcb529b92d8"},"vehicle_type_id":"4","last_reported":1742501449,"current_range_meters":4800,"station_id":"ce4bho92rcd13ifvqh3g","pricing_plan_id":"cebpf4jnsgd1na2vs0mg"},{"bike_id":"abc16553-8c19-4c2a-8ae6-2755ac13bae6","system_id":"levelo_inurba_marseille","lat":43.30994,"lon":5.39155,"is_reserved":false,"is_disabled":true,"rental_uris":{"android":"levelo://app?vid=abc16553-8c19-4c2a-8ae6-2755ac13bae6","ios":"levelo://app?vid=abc16553-8c19-4c2a-8ae6-2755ac13bae6"},"vehicle_type_id":"4","last_reported":1742501449,"current_range_meters":4800,"station_id":"ce4bgup2rcd13ifvqco0","pricing_plan_id":"cebpf4jnsgd1na2vs0mg"},{"bike_id":"37386457-e11b-4618-b8a5-112d7bd783f2","system_id":"levelo_inurba_marseille","lat":43.28702,"lon":5.374,"is_reserved":false,"is_disabled":false,"rental_uris":{"android":"levelo://app?vid=37386457-e11b-4618-b8a5-112d7bd783f2","ios":"levelo://app?vid=37386457-e11b-4618-b8a5-112d7bd783f2"},"vehicle_type_id":"4","last_reported":1742501449,"current_range_meters":4800,"station_id":"ce4bh3p2rcd13ifvqdq0","pricing_plan_id":"cebpf4jnsgd1na2vs0mg"},{"bike_id":"3455258b-4135-46b9-9a26-10bf95160e40","system_id":"levelo_inurba_marseille","lat":43.231914,"lon":5.355592,"is_reserved":false,"is_disabled":false,"rental_uris":{"android":"levelo://app?vid=3455258b-4135-46b9-9a26-10bf95160e40","ios":"levelo://app?vid=3455258b-4135-46b9-9a26-10bf95160e40"},"vehicle_type_id":"4","last_reported":1742501449,"current_range_meters":4800,"station_id":"ce4bhu92rcd13ifvqi70","pricing_plan_id":"cebpf4jnsgd1na2vs0mg"},{"bike_id":"ca7956c3-b942-489c-88de-b0f44f9a8936","system_id":"levelo_inurba_marseille","lat":43.27971,"lon":5.3874,"is_reserved":false,"is_disabled":false,"rental_uris":{"android":"levelo://app?vid=ca7956c3-b942-489c-88de-b0f44f9a8936","ios":"levelo://app?vid=ca7956c3-b942-489c-88de-b0f44f9a8936"},"vehicle_type_id":"4","last_reported":1742501449,"current_range_meters":4800,"station_id":"ce4bhg12rcd13ifvqf80","pricing_plan_id":"cebpf4jnsgd1na2vs0mg"},{"bike_id":"b1cfa601-5b57-4a04-8c79-cbc90bdc56fc","system_id":"levelo_inurba_marseille","lat":43.28413,"lon":5.37519,"is_reserved":false,"is_disabled":false,"rental_uris":{"android":"levelo://app?vid=b1cfa601-5b57-4a04-8c79-cbc90bdc56fc","ios":"levelo://app?vid=b1cfa601-5b57-4a04-8c79-cbc90bdc56fc"},"vehicle_type_id":"4","last_reported":1742501449,"current_range_meters":4800,"station_id":"ce4bh412rcd13ifvqds0","pricing_plan_id":"cebpf4jnsgd1na2vs0mg"},{"bike_id":"c1db5d4a-fa51-4cbb-929e-18900f4feb45","system_id":"levelo_inurba_marseille","lat":43.24653,"lon":5.38882,"is_reserved":false,"is_disabled":false,"rental_uris":{"android":"levelo://app?vid=c1db5d4a-fa51-4cbb-929e-18900f4feb45","ios":"levelo://app?vid=c1db5d4a-fa51-4cbb-929e-18900f4feb45"},"vehicle_type_id":"4","last_reported":1742501449,"current_range_meters":4800,"station_id":"ce4bhg12rcd13ifvqf60","pricing_plan_id":"cebpf4jnsgd1na2vs0mg"},{"bike_id":"5bd36dea-7ef8-48de-8469-97644e913b78","system_id":"levelo_inurba_marseille","lat":43.27813,"lon":5.40708,"is_reserved":false,"is_disabled":false,"rental_uris":{"android":"levelo://app?vid=5bd36dea-7ef8-48de-8469-97644e913b78","ios":"levelo://app?vid=5bd36dea-7ef8-48de-8469-97644e913b78"},"vehicle_type_id":"4","last_reported":1742501449,"current_range_meters":4800,"station_id":"ce4bhnh2rcd13ifvqgtg","pricing_plan_id":"cebpf4jnsgd1na2vs0mg"},{"bike_id":"c1b2ac8b-aa9a-4eb8-9a76-828f440b36e4","system_id":"levelo_inurba_marseille","lat":43.28105,"lon":5.37866,"is_reserved":false,"is_disabled":false,"rental_uris":{"android":"levelo://app?vid=c1b2ac8b-aa9a-4eb8-9a76-828f440b36e4","ios":"levelo://app?vid=c1b2ac8b-aa9a-4eb8-9a76-828f440b36e4"},"vehicle_type_id":"4","last_reported":1742501449,"current_range_meters":4800,"station_id":"ce4bha12rcd13ifvqee0","pricing_plan_id":"cebpf4jnsgd1na2vs0mg"},{"bike_id":"0bad582e-4be8-4c83-ba3a-2b34ffc91979","system_id":"levelo_inurba_marseille","lat":43.27942,"lon":5.41045,"is_reserved":false,"is_disabled":false,"rental_uris":{"android":"levelo://app?vid=0bad582e-4be8-4c83-ba3a-2b34ffc91979","ios":"levelo://app?vid=0bad582e-4be8-4c83-ba3a-2b34ffc91979"},"vehicle_type_id":"4","last_reported":1742501449,"current_range_meters":4800,"station_id":"ce4bhnp2rcd13ifvqh0g","pricing_plan_id":"cebpf4jnsgd1na2vs0mg"},{"bike_id":"f4394049-b808-4693-a8c7-5602cc740f35","system_id":"levelo_inurba_marseille","lat":43.27203,"lon":5.39187,"is_reserved":false,"is_disabled":false,"rental_uris":{"android":"levelo://app?vid=f4394049-b808-4693-a8c7-5602cc740f35","ios":"levelo://app?vid=f4394049-b808-4693-a8c7-5602cc740f35"},"vehicle_type_id":"4","last_reported":1742501449,"current_range_meters":4800,"station_id":"ce4bhhp2rcd13ifvqfm0","pricing_plan_id":"cebpf4jnsgd1na2vs0mg"},{"bike_id":"38bbadf1-b60d-4f5b-9e52-b1513e4bd86f","system_id":"levelo_inurba_marseille","lat":43.29413,"lon":5.38623,"is_reserved":false,"is_disabled":false,"rental_uris":{"android":"levelo://app?vid=38bbadf1-b60d-4f5b-9e52-b1513e4bd86f","ios":"levelo://app?vid=38bbadf1-b60d-4f5b-9e52-b1513e4bd86f"},"vehicle_type_id":"4","last_reported":1742501449,"current_range_meters":5600,"station_id":"ce4bh2h2rcd13ifvqdh0","pricing_plan_id":"cebpf4jnsgd1na2vs0mg"},{"bike_id":"6fb8d408-85b5-4079-80a5-359db11eacf6","system_id":"levelo_inurba_marseille","lat":43.29164,"lon":5.37172,"is_reserved":false,"is_disabled":false,"rental_uris":{"android":"levelo://app?vid=6fb8d408-85b5-4079-80a5-359db11eacf6","ios":"levelo://app?vid=6fb8d408-85b5-4079-80a5-359db11eacf6"},"vehicle_type_id":"4","last_reported":1742501449,"current_range_meters":5600,"station_id":"ce4bha92rcd13ifvqeh0","pricing_plan_id":"cebpf4jnsgd1na2vs0mg"},{"bike_id":"4a343c8d-a91c-4069-9d2e-88a4d811ac35","system_id":"levelo_inurba_marseille","lat":43.27825,"lon":5.40716,"is_reserved":false,"is_disabled":false,"rental_uris":{"android":"levelo://app?vid=4a343c8d-a91c-4069-9d2e-88a4d811ac35","ios":"levelo://app?vid=4a343c8d-a91c-4069-9d2e-88a4d811ac35"},"vehicle_type_id":"4","last_reported":1742501449,"current_range_meters":5600,"station_id":"ce4bhnh2rcd13ifvqgtg","pricing_plan_id":"cebpf4jnsgd1na2vs0mg"},{"bike_id":"56417d02-75b4-47a9-aff6-9889ad77151d","system_id":"levelo_inurba_marseille","lat":43.32277,"lon":5.38285,"is_reserved":false,"is_disabled":false,"rental_uris":{"android":"levelo://app?vid=56417d02-75b4-47a9-aff6-9889ad77151d","ios":"levelo://app?vid=56417d02-75b4-47a9-aff6-9889ad77151d"},"vehicle_type_id":"4","last_reported":1742501449,"current_range_meters":5600,"station_id":"ce4bhr12rcd13ifvqhqg","pricing_plan_id":"cebpf4jnsgd1na2vs0mg"},{"bike_id":"30448cfc-53ac-4088-86ed-3a624fbeb1f7","system_id":"levelo_inurba_marseille","lat":43.23982,"lon":5.36619,"is_reserved":false,"is_disabled":false,"rental_uris":{"android":"levelo://app?vid=30448cfc-53ac-4088-86ed-3a624fbeb1f7","ios":"levelo://app?vid=30448cfc-53ac-4088-86ed-3a624fbeb1f7"},"vehicle_type_id":"4","last_reported":1742501449,"current_range_meters":5600,"station_id":"ce4bhi12rcd13ifvqfp0","pricing_plan_id":"cebpf4jnsgd1na2vs0mg"},{"bike_id":"97bcb5d3-3984-4782-9dc2-f9e7f9f5103b","system_id":"levelo_inurba_marseille","lat":43.30797,"lon":5.38161,"is_reserved":false,"is_disabled":false,"rental_uris":{"android":"levelo://app?vid=97bcb5d3-3984-4782-9dc2-f9e7f9f5103b","ios":"levelo://app?vid=97bcb5d3-3984-4782-9dc2-f9e7f9f5103b"},"vehicle_type_id":"4","last_reported":1742501449,"current_range_meters":5600,"station_id":"ce4bgt12rcd13ifvqce0","pricing_plan_id":"cebpf4jnsgd1na2vs0mg"},{"bike_id":"9cb0cd48-c912-4e95-a0b3-623322292242","system_id":"levelo_inurba_marseille","lat":43.3107,"lon":5.38347,"is_reserved":false,"is_disabled":false,"rental_uris":{"android":"levelo://app?vid=9cb0cd48-c912-4e95-a0b3-623322292242","ios":"levelo://app?vid=9cb0cd48-c912-4e95-a0b3-623322292242"},"vehicle_type_id":"4","last_reported":1742501449,"current_range_meters":5600,"station_id":"ce4bgv92rcd13ifvqcr0","pricing_plan_id":"cebpf4jnsgd1na2vs0mg"},{"bike_id":"28a07579-9ac3-4da1-82a2-f9d200b8d575","system_id":"levelo_inurba_marseille","lat":43.2465,"lon":5.38919,"is_reserved":false,"is_disabled":false,"rental_uris":{"android":"levelo://app?vid=28a07579-9ac3-4da1-82a2-f9d200b8d575","ios":"levelo://app?vid=28a07579-9ac3-4da1-82a2-f9d200b8d575"},"vehicle_type_id":"4","last_reported":1742501449,"current_range_meters":5600,"station_id":"ce4bhg12rcd13ifvqf60","pricing_plan_id":"cebpf4jnsgd1na2vs0mg"},{"bike_id":"93346c00-108a-4a63-9169-b0a90fc9072b","system_id":"levelo_inurba_marseille","lat":43.28357,"lon":5.38105,"is_reserved":false,"is_disabled":false,"rental_uris":{"android":"levelo://app?vid=93346c00-108a-4a63-9169-b0a90fc9072b","ios":"levelo://app?vid=93346c00-108a-4a63-9169-b0a90fc9072b"},"vehicle_type_id":"4","last_reported":1742501449,"current_range_meters":5600,"station_id":"ce4bh412rcd13ifvqdr0","pricing_plan_id":"cebpf4jnsgd1na2vs0mg"},{"bike_id":"b2bfa9bb-895f-46d2-a293-640350a8f771","system_id":"levelo_inurba_marseille","lat":43.29265,"lon":5.36854,"is_reserved":false,"is_disabled":false,"rental_uris":{"android":"levelo://app?vid=b2bfa9bb-895f-46d2-a293-640350a8f771","ios":"levelo://app?vid=b2bfa9bb-895f-46d2-a293-640350a8f771"},"vehicle_type_id":"4","last_reported":1742501449,"current_range_meters":6000,"station_id":"ce4bhbp2rcd13ifvqesg","pricing_plan_id":"cebpf4jnsgd1na2vs0mg"},{"bike_id":"5e392e7f-04c4-4e48-9def-f15bcc8a4749","system_id":"levelo_inurba_marseille","lat":43.25095,"lon":5.39518,"is_reserved":false,"is_disabled":false,"rental_uris":{"android":"levelo://app?vid=5e392e7f-04c4-4e48-9def-f15bcc8a4749","ios":"levelo://app?vid=5e392e7f-04c4-4e48-9def-f15bcc8a4749"},"vehicle_type_id":"4","last_reported":1742501449,"current_range_meters":6000,"station_id":"ce4bhm12rcd13ifvqgkg","pricing_plan_id":"cebpf4jnsgd1na2vs0mg"},{"bike_id":"c3562de0-8d86-41c8-a4a0-8a1a926e1139","system_id":"levelo_inurba_marseille","lat":43.27953,"lon":5.41036,"is_reserved":false,"is_disabled":false,"rental_uris":{"android":"levelo://app?vid=c3562de0-8d86-41c8-a4a0-8a1a926e1139","ios":"levelo://app?vid=c3562de0-8d86-41c8-a4a0-8a1a926e1139"},"vehicle_type_id":"4","last_reported":1742501449,"current_range_meters":6000,"station_id":"ce4bhnp2rcd13ifvqh0g","pricing_plan_id":"cebpf4jnsgd1na2vs0mg"},{"bike_id":"ef18834d-9847-4f01-92af-3b09513275e8","system_id":"levelo_inurba_marseille","lat":43.31085,"lon":5.38363,"is_reserved":false,"is_disabled":false,"rental_uris":{"android":"levelo://app?vid=ef18834d-9847-4f01-92af-3b09513275e8","ios":"levelo://app?vid=ef18834d-9847-4f01-92af-3b09513275e8"},"vehicle_type_id":"4","last_reported":1742501449,"current_range_meters":6000,"station_id":"ce4bgv92rcd13ifvqcr0","pricing_plan_id":"cebpf4jnsgd1na2vs0mg"},{"bike_id":"8c0bf3da-1aad-4201-81c1-9672928a2736","system_id":"levelo_inurba_marseille","lat":43.27823,"lon":5.4072,"is_reserved":false,"is_disabled":false,"rental_uris":{"android":"levelo://app?vid=8c0bf3da-1aad-4201-81c1-9672928a2736","ios":"levelo://app?vid=8c0bf3da-1aad-4201-81c1-9672928a2736"},"vehicle_type_id":"4","last_reported":1742501449,"current_range_meters":6000,"station_id":"ce4bhnh2rcd13ifvqgtg","pricing_plan_id":"cebpf4jnsgd1na2vs0mg"},{"bike_id":"a27e9e25-06bf-4175-9bd6-9c00c02ad86d","system_id":"levelo_inurba_marseille","lat":43.24424,"lon":5.37078,"is_reserved":false,"is_disabled":false,"rental_uris":{"android":"levelo://app?vid=a27e9e25-06bf-4175-9bd6-9c00c02ad86d","ios":"levelo://app?vid=a27e9e25-06bf-4175-9bd6-9c00c02ad86d"},"vehicle_type_id":"4","last_reported":1742501449,"current_range_meters":6000,"station_id":"ce4bhhh2rcd13ifvqfk0","pricing_plan_id":"cebpf4jnsgd1na2vs0mg"},{"bike_id":"b92f3d05-9f5c-4305-8d4c-6f2dbeca87c4","system_id":"levelo_inurba_marseille","lat":43.28408,"lon":5.37533,"is_reserved":false,"is_disabled":false,"rental_uris":{"android":"levelo://app?vid=b92f3d05-9f5c-4305-8d4c-6f2dbeca87c4","ios":"levelo://app?vid=b92f3d05-9f5c-4305-8d4c-6f2dbeca87c4"},"vehicle_type_id":"4","last_reported":1742501449,"current_range_meters":6000,"station_id":"ce4bh412rcd13ifvqds0","pricing_plan_id":"cebpf4jnsgd1na2vs0mg"},{"bike_id":"ba9a59da-ca87-40c5-a87c-3837aa5b63d8","system_id":"levelo_inurba_marseille","lat":43.29533,"lon":5.38539,"is_reserved":false,"is_disabled":false,"rental_uris":{"android":"levelo://app?vid=ba9a59da-ca87-40c5-a87c-3837aa5b63d8","ios":"levelo://app?vid=ba9a59da-ca87-40c5-a87c-3837aa5b63d8"},"vehicle_type_id":"4","last_reported":1742501449,"current_range_meters":6000,"station_id":"ce4bgih2rcd13ifvqba0","pricing_plan_id":"cebpf4jnsgd1na2vs0mg"},{"bike_id":"de0fa488-b838-4ec6-a581-3daeefe017e4","system_id":"levelo_inurba_marseille","lat":43.298889,"lon":5.388941,"is_reserved":false,"is_disabled":false,"rental_uris":{"android":"levelo://app?vid=de0fa488-b838-4ec6-a581-3daeefe017e4","ios":"levelo://app?vid=de0fa488-b838-4ec6-a581-3daeefe017e4"},"vehicle_type_id":"4","last_reported":1742501449,"current_range_meters":6000,"station_id":"ce4bh392rcd13ifvqdl0","pricing_plan_id":"cebpf4jnsgd1na2vs0mg"},{"bike_id":"dd3884dc-0b6b-4a2b-8af5-b0f72ae3a61b","system_id":"levelo_inurba_marseille","lat":43.23184,"lon":5.35544,"is_reserved":false,"is_disabled":false,"rental_uris":{"android":"levelo://app?vid=dd3884dc-0b6b-4a2b-8af5-b0f72ae3a61b","ios":"levelo://app?vid=dd3884dc-0b6b-4a2b-8af5-b0f72ae3a61b"},"vehicle_type_id":"4","last_reported":1742501449,"current_range_meters":6000,"station_id":"ce4bhu92rcd13ifvqi70","pricing_plan_id":"cebpf4jnsgd1na2vs0mg"},{"bike_id":"1fea0b3c-94ab-41af-b18e-d9bbaa7dda49","system_id":"levelo_inurba_marseille","lat":43.31702,"lon":5.43701,"is_reserved":false,"is_disabled":false,"rental_uris":{"android":"levelo://app?vid=1fea0b3c-94ab-41af-b18e-d9bbaa7dda49","ios":"levelo://app?vid=1fea0b3c-94ab-41af-b18e-d9bbaa7dda49"},"vehicle_type_id":"4","last_reported":1742501449,"current_range_meters":6000,"station_id":"ce4bhp92rcd13ifvqhcg","pricing_plan_id":"cebpf4jnsgd1na2vs0mg"},{"bike_id":"caee4412-4e45-4e98-a1db-7160ecb5cb52","system_id":"levelo_inurba_marseille","lat":43.29194,"lon":5.37176,"is_reserved":false,"is_disabled":false,"rental_uris":{"android":"levelo://app?vid=caee4412-4e45-4e98-a1db-7160ecb5cb52","ios":"levelo://app?vid=caee4412-4e45-4e98-a1db-7160ecb5cb52"},"vehicle_type_id":"4","last_reported":1742501449,"current_range_meters":6000,"station_id":"ce4bha92rcd13ifvqeh0","pricing_plan_id":"cebpf4jnsgd1na2vs0mg"},{"bike_id":"9ca04de1-e0f1-4186-9bba-159fbcc2fc30","system_id":"levelo_inurba_marseille","lat":43.26238,"lon":5.37902,"is_reserved":false,"is_disabled":true,"rental_uris":{"android":"levelo://app?vid=9ca04de1-e0f1-4186-9bba-159fbcc2fc30","ios":"levelo://app?vid=9ca04de1-e0f1-4186-9bba-159fbcc2fc30"},"vehicle_type_id":"4","last_reported":1742501449,"current_range_meters":6000,"station_id":"ce4bhjp2rcd13ifvqg90","pricing_plan_id":"cebpf4jnsgd1na2vs0mg"},{"bike_id":"3b276e99-234c-4646-acfe-1384ad70d051","system_id":"levelo_inurba_marseille","lat":43.2511,"lon":5.39508,"is_reserved":false,"is_disabled":false,"rental_uris":{"android":"levelo://app?vid=3b276e99-234c-4646-acfe-1384ad70d051","ios":"levelo://app?vid=3b276e99-234c-4646-acfe-1384ad70d051"},"vehicle_type_id":"4","last_reported":1742501449,"current_range_meters":6400,"station_id":"ce4bhm12rcd13ifvqgkg","pricing_plan_id":"cebpf4jnsgd1na2vs0mg"},{"bike_id":"4a4f3811-2ad7-4fc4-a059-e5c5f9cfa94d","system_id":"levelo_inurba_marseille","lat":43.25581,"lon":5.38239,"is_reserved":false,"is_disabled":false,"rental_uris":{"android":"levelo://app?vid=4a4f3811-2ad7-4fc4-a059-e5c5f9cfa94d","ios":"levelo://app?vid=4a4f3811-2ad7-4fc4-a059-e5c5f9cfa94d"},"vehicle_type_id":"4","last_reported":1742501449,"current_range_meters":6400,"station_id":"ce4bhih2rcd13ifvqfs0","pricing_plan_id":"cebpf4jnsgd1na2vs0mg"},{"bike_id":"9a6e2ba2-f2b0-463e-aed1-752a3cc20324","system_id":"levelo_inurba_marseille","lat":43.29438,"lon":5.39744,"is_reserved":false,"is_disabled":false,"rental_uris":{"android":"levelo://app?vid=9a6e2ba2-f2b0-463e-aed1-752a3cc20324","ios":"levelo://app?vid=9a6e2ba2-f2b0-463e-aed1-752a3cc20324"},"vehicle_type_id":"4","last_reported":1742501449,"current_range_meters":6400,"station_id":"ce4bh3h2rcd13ifvqdo0","pricing_plan_id":"cebpf4jnsgd1na2vs0mg"},{"bike_id":"f972342e-35ba-4316-836b-a5baae10b490","system_id":"levelo_inurba_marseille","lat":43.28699,"lon":5.39965,"is_reserved":false,"is_disabled":false,"rental_uris":{"android":"levelo://app?vid=f972342e-35ba-4316-836b-a5baae10b490","ios":"levelo://app?vid=f972342e-35ba-4316-836b-a5baae10b490"},"vehicle_type_id":"4","last_reported":1742501449,"current_range_meters":6400,"station_id":"ce4bho92rcd13ifvqh3g","pricing_plan_id":"cebpf4jnsgd1na2vs0mg"},{"bike_id":"181a4fde-9b69-4103-90f9-7e9ef00b3a7a","system_id":"levelo_inurba_marseille","lat":43.2481,"lon":5.37445,"is_reserved":false,"is_disabled":false,"rental_uris":{"android":"levelo://app?vid=181a4fde-9b69-4103-90f9-7e9ef00b3a7a","ios":"levelo://app?vid=181a4fde-9b69-4103-90f9-7e9ef00b3a7a"},"vehicle_type_id":"4","last_reported":1742501449,"current_range_meters":6400,"station_id":"ce4bhgh2rcd13ifvqfb0","pricing_plan_id":"cebpf4jnsgd1na2vs0mg"},{"bike_id":"860d8f7e-d8c4-41ba-b96f-3adc7da649a7","system_id":"levelo_inurba_marseille","lat":43.25034,"lon":5.38951,"is_reserved":false,"is_disabled":false,"rental_uris":{"android":"levelo://app?vid=860d8f7e-d8c4-41ba-b96f-3adc7da649a7","ios":"levelo://app?vid=860d8f7e-d8c4-41ba-b96f-3adc7da649a7"},"vehicle_type_id":"4","last_reported":1742501449,"current_range_meters":6400,"station_id":"ce4bhgp2rcd13ifvqfd0","pricing_plan_id":"cebpf4jnsgd1na2vs0mg"},{"bike_id":"02f43b01-3b74-45fa-a40e-2df823c84cda","system_id":"levelo_inurba_marseille","lat":43.24186,"lon":5.39728,"is_reserved":false,"is_disabled":false,"rental_uris":{"android":"levelo://app?vid=02f43b01-3b74-45fa-a40e-2df823c84cda","ios":"levelo://app?vid=02f43b01-3b74-45fa-a40e-2df823c84cda"},"vehicle_type_id":"4","last_reported":1742501449,"current_range_meters":6400,"station_id":"ce4bhn12rcd13ifvqgpg","pricing_plan_id":"cebpf4jnsgd1na2vs0mg"},{"bike_id":"ae8a3b30-a47f-42b4-88a7-3718548127e6","system_id":"levelo_inurba_marseille","lat":43.28464,"lon":5.35906,"is_reserved":false,"is_disabled":false,"rental_uris":{"android":"levelo://app?vid=ae8a3b30-a47f-42b4-88a7-3718548127e6","ios":"levelo://app?vid=ae8a3b30-a47f-42b4-88a7-3718548127e6"},"vehicle_type_id":"4","last_reported":1742501449,"current_range_meters":6400,"station_id":"ce4bhah2rcd13ifvqei0","pricing_plan_id":"cebpf4jnsgd1na2vs0mg"},{"bike_id":"397a4bde-aeba-43ea-98d8-4e8e97b2e020","system_id":"levelo_inurba_marseille","lat":43.28086,"lon":5.39652,"is_reserved":false,"is_disabled":false,"rental_uris":{"android":"levelo://app?vid=397a4bde-aeba-43ea-98d8-4e8e97b2e020","ios":"levelo://app?vid=397a4bde-aeba-43ea-98d8-4e8e97b2e020"},"vehicle_type_id":"4","last_reported":1742501449,"current_range_meters":6400,"station_id":"ce4bho12rcd13ifvqh2g","pricing_plan_id":"cebpf4jnsgd1na2vs0mg"},{"bike_id":"c4d4ab50-d40f-4c3b-89c5-917e0e85c453","system_id":"levelo_inurba_marseille","lat":43.28926,"lon":5.38401,"is_reserved":false,"is_disabled":false,"rental_uris":{"android":"levelo://app?vid=c4d4ab50-d40f-4c3b-89c5-917e0e85c453","ios":"levelo://app?vid=c4d4ab50-d40f-4c3b-89c5-917e0e85c453"},"vehicle_type_id":"4","last_reported":1742501449,"current_range_meters":6400,"station_id":"ce4bh612rcd13ifvqe6g","pricing_plan_id":"cebpf4jnsgd1na2vs0mg"},{"bike_id":"9d26c008-8ec1-4269-9cd2-f45774f03ccb","system_id":"levelo_inurba_marseille","lat":43.27938,"lon":5.37941,"is_reserved":false,"is_disabled":false,"rental_uris":{"android":"levelo://app?vid=9d26c008-8ec1-4269-9cd2-f45774f03ccb","ios":"levelo://app?vid=9d26c008-8ec1-4269-9cd2-f45774f03ccb"},"vehicle_type_id":"4","last_reported":1742501449,"current_range_meters":6400,"station_id":"","pricing_plan_id":"cebpf4jnsgd1na2vs0mg"},{"bike_id":"d526b6e2-b103-4339-baa5-b85128efba8c","system_id":"levelo_inurba_marseille","lat":43.23071,"lon":5.35487,"is_reserved":false,"is_disabled":false,"rental_uris":{"android":"levelo://app?vid=d526b6e2-b103-4339-baa5-b85128efba8c","ios":"levelo://app?vid=d526b6e2-b103-4339-baa5-b85128efba8c"},"vehicle_type_id":"4","last_reported":1742501449,"current_range_meters":6400,"station_id":"cpo3342slgdg3j2ifvpg","pricing_plan_id":"cebpf4jnsgd1na2vs0mg"},{"bike_id":"e06f7386-e9b3-433f-80f6-5f351b544911","system_id":"levelo_inurba_marseille","lat":43.28156,"lon":5.42651,"is_reserved":false,"is_disabled":false,"rental_uris":{"android":"levelo://app?vid=e06f7386-e9b3-433f-80f6-5f351b544911","ios":"levelo://app?vid=e06f7386-e9b3-433f-80f6-5f351b544911"},"vehicle_type_id":"4","last_reported":1742501449,"current_range_meters":6800,"station_id":"ce4bhnh2rcd13ifvqgug","pricing_plan_id":"cebpf4jnsgd1na2vs0mg"},{"bike_id":"3ae4f3bd-c485-4c98-8e8e-3c9bb312423a","system_id":"levelo_inurba_marseille","lat":43.24827,"lon":5.37453,"is_reserved":false,"is_disabled":false,"rental_uris":{"android":"levelo://app?vid=3ae4f3bd-c485-4c98-8e8e-3c9bb312423a","ios":"levelo://app?vid=3ae4f3bd-c485-4c98-8e8e-3c9bb312423a"},"vehicle_type_id":"4","last_reported":1742501449,"current_range_meters":6800,"station_id":"ce4bhgh2rcd13ifvqfb0","pricing_plan_id":"cebpf4jnsgd1na2vs0mg"},{"bike_id":"a8b8dae1-87ef-4f8a-a2c8-fe9fd9bf0f77","system_id":"levelo_inurba_marseille","lat":43.23542,"lon":5.37738,"is_reserved":false,"is_disabled":false,"rental_uris":{"android":"levelo://app?vid=a8b8dae1-87ef-4f8a-a2c8-fe9fd9bf0f77","ios":"levelo://app?vid=a8b8dae1-87ef-4f8a-a2c8-fe9fd9bf0f77"},"vehicle_type_id":"4","last_reported":1742501449,"current_range_meters":6800,"station_id":"","pricing_plan_id":"cebpf4jnsgd1na2vs0mg"},{"bike_id":"e6c6012c-5a57-4b90-971f-9808c015cff2","system_id":"levelo_inurba_marseille","lat":43.31371,"lon":5.38487,"is_reserved":false,"is_disabled":false,"rental_uris":{"android":"levelo://app?vid=e6c6012c-5a57-4b90-971f-9808c015cff2","ios":"levelo://app?vid=e6c6012c-5a57-4b90-971f-9808c015cff2"},"vehicle_type_id":"4","last_reported":1742501449,"current_range_meters":6800,"station_id":"ce4bgt92rcd13ifvqcf0","pricing_plan_id":"cebpf4jnsgd1na2vs0mg"},{"bike_id":"af951099-dabe-44cd-ad39-b037adc1f87c","system_id":"levelo_inurba_marseille","lat":43.28712,"lon":5.37945,"is_reserved":false,"is_disabled":false,"rental_uris":{"android":"levelo://app?vid=af951099-dabe-44cd-ad39-b037adc1f87c","ios":"levelo://app?vid=af951099-dabe-44cd-ad39-b037adc1f87c"},"vehicle_type_id":"4","last_reported":1742501449,"current_range_meters":6800,"station_id":"ce4bh9p2rcd13ifvqec0","pricing_plan_id":"cebpf4jnsgd1na2vs0mg"},{"bike_id":"21fb5aff-48a4-4205-ac44-8fb5b9599d5d","system_id":"levelo_inurba_marseille","lat":43.296191,"lon":5.377318,"is_reserved":false,"is_disabled":false,"rental_uris":{"android":"levelo://app?vid=21fb5aff-48a4-4205-ac44-8fb5b9599d5d","ios":"levelo://app?vid=21fb5aff-48a4-4205-ac44-8fb5b9599d5d"},"vehicle_type_id":"4","last_reported":1742501449,"current_range_meters":6800,"station_id":"ce4bgn12rcd13ifvqbt0","pricing_plan_id":"cebpf4jnsgd1na2vs0mg"},{"bike_id":"28f34723-7aef-4dd9-ba81-7d6deba682cf","system_id":"levelo_inurba_marseille","lat":43.28185,"lon":5.42675,"is_reserved":false,"is_disabled":false,"rental_uris":{"android":"levelo://app?vid=28f34723-7aef-4dd9-ba81-7d6deba682cf","ios":"levelo://app?vid=28f34723-7aef-4dd9-ba81-7d6deba682cf"},"vehicle_type_id":"4","last_reported":1742501449,"current_range_meters":6800,"station_id":"ce4bhnh2rcd13ifvqgug","pricing_plan_id":"cebpf4jnsgd1na2vs0mg"},{"bike_id":"36f5e0b3-fb09-4335-b1e4-03aac5478eef","system_id":"levelo_inurba_marseille","lat":43.29026,"lon":5.35913,"is_reserved":false,"is_disabled":false,"rental_uris":{"android":"levelo://app?vid=36f5e0b3-fb09-4335-b1e4-03aac5478eef","ios":"levelo://app?vid=36f5e0b3-fb09-4335-b1e4-03aac5478eef"},"vehicle_type_id":"4","last_reported":1742501449,"current_range_meters":6800,"station_id":"ce4bha92rcd13ifvqeg0","pricing_plan_id":"cebpf4jnsgd1na2vs0mg"},{"bike_id":"512f2792-2981-4ce7-b669-855f9cdc9154","system_id":"levelo_inurba_marseille","lat":43.32657,"lon":5.40994,"is_reserved":false,"is_disabled":false,"rental_uris":{"android":"levelo://app?vid=512f2792-2981-4ce7-b669-855f9cdc9154","ios":"levelo://app?vid=512f2792-2981-4ce7-b669-855f9cdc9154"},"vehicle_type_id":"4","last_reported":1742501449,"current_range_meters":6400,"station_id":"ce4bhpp2rcd13ifvqhgg","pricing_plan_id":"cebpf4jnsgd1na2vs0mg"},{"bike_id":"05f5704d-b721-4228-869b-cb96f3680706","system_id":"levelo_inurba_marseille","lat":43.27822,"lon":5.40767,"is_reserved":false,"is_disabled":false,"rental_uris":{"android":"levelo://app?vid=05f5704d-b721-4228-869b-cb96f3680706","ios":"levelo://app?vid=05f5704d-b721-4228-869b-cb96f3680706"},"vehicle_type_id":"4","last_reported":1742501449,"current_range_meters":6800,"station_id":"ce4bhnh2rcd13ifvqgtg","pricing_plan_id":"cebpf4jnsgd1na2vs0mg"},{"bike_id":"176d2e0b-da43-4b98-b92e-b45d4ab12b2f","system_id":"levelo_inurba_marseille","lat":43.30221,"lon":5.38482,"is_reserved":false,"is_disabled":false,"rental_uris":{"android":"levelo://app?vid=176d2e0b-da43-4b98-b92e-b45d4ab12b2f","ios":"levelo://app?vid=176d2e0b-da43-4b98-b92e-b45d4ab12b2f"},"vehicle_type_id":"4","last_reported":1742501449,"current_range_meters":6800,"station_id":"","pricing_plan_id":"cebpf4jnsgd1na2vs0mg"},{"bike_id":"34f62ef8-0841-43ad-ae47-94f77f1fd13a","system_id":"levelo_inurba_marseille","lat":43.29248,"lon":5.40911,"is_reserved":false,"is_disabled":false,"rental_uris":{"android":"levelo://app?vid=34f62ef8-0841-43ad-ae47-94f77f1fd13a","ios":"levelo://app?vid=34f62ef8-0841-43ad-ae47-94f77f1fd13a"},"vehicle_type_id":"4","last_reported":1742501449,"current_range_meters":7200,"station_id":"ce4bh192rcd13ifvqdc0","pricing_plan_id":"cebpf4jnsgd1na2vs0mg"},{"bike_id":"6eb98e18-92f8-411c-92c0-82d5569fb85c","system_id":"levelo_inurba_marseille","lat":43.32374,"lon":5.36748,"is_reserved":false,"is_disabled":false,"rental_uris":{"android":"levelo://app?vid=6eb98e18-92f8-411c-92c0-82d5569fb85c","ios":"levelo://app?vid=6eb98e18-92f8-411c-92c0-82d5569fb85c"},"vehicle_type_id":"4","last_reported":1742501449,"current_range_meters":7200,"station_id":"ce4bhsh2rcd13ifvqi2g","pricing_plan_id":"cebpf4jnsgd1na2vs0mg"},{"bike_id":"d860ed04-a05e-48fa-b121-1cae9cfdfb86","system_id":"levelo_inurba_marseille","lat":43.30124,"lon":5.39879,"is_reserved":false,"is_disabled":false,"rental_uris":{"android":"levelo://app?vid=d860ed04-a05e-48fa-b121-1cae9cfdfb86","ios":"levelo://app?vid=d860ed04-a05e-48fa-b121-1cae9cfdfb86"},"vehicle_type_id":"4","last_reported":1742501449,"current_range_meters":7200,"station_id":"ce4bh0h2rcd13ifvqd40","pricing_plan_id":"cebpf4jnsgd1na2vs0mg"},{"bike_id":"90e30534-300b-4c7d-a549-211f21035f8c","system_id":"levelo_inurba_marseille","lat":43.32277,"lon":5.38281,"is_reserved":false,"is_disabled":false,"rental_uris":{"android":"levelo://app?vid=90e30534-300b-4c7d-a549-211f21035f8c","ios":"levelo://app?vid=90e30534-300b-4c7d-a549-211f21035f8c"},"vehicle_type_id":"4","last_reported":1742501449,"current_range_meters":7200,"station_id":"ce4bhr12rcd13ifvqhqg","pricing_plan_id":"cebpf4jnsgd1na2vs0mg"},{"bike_id":"fc222273-d050-4743-b8b5-353fd8ca2aff","system_id":"levelo_inurba_marseille","lat":43.31114,"lon":5.37748,"is_reserved":false,"is_disabled":false,"rental_uris":{"android":"levelo://app?vid=fc222273-d050-4743-b8b5-353fd8ca2aff","ios":"levelo://app?vid=fc222273-d050-4743-b8b5-353fd8ca2aff"},"vehicle_type_id":"4","last_reported":1742501449,"current_range_meters":7200,"station_id":"ce4bgt92rcd13ifvqcg0","pricing_plan_id":"cebpf4jnsgd1na2vs0mg"},{"bike_id":"0a57a4f6-3e5e-4d8b-81e8-69e3a2b871c2","system_id":"levelo_inurba_marseille","lat":43.29555,"lon":5.42289,"is_reserved":false,"is_disabled":false,"rental_uris":{"android":"levelo://app?vid=0a57a4f6-3e5e-4d8b-81e8-69e3a2b871c2","ios":"levelo://app?vid=0a57a4f6-3e5e-4d8b-81e8-69e3a2b871c2"},"vehicle_type_id":"4","last_reported":1742501449,"current_range_meters":7200,"station_id":"ce4bhph2rcd13ifvqhdg","pricing_plan_id":"cebpf4jnsgd1na2vs0mg"},{"bike_id":"ed5cea79-0bea-4c86-8c80-f8de23687c7f","system_id":"levelo_inurba_marseille","lat":43.27489,"lon":5.43996,"is_reserved":false,"is_disabled":false,"rental_uris":{"android":"levelo://app?vid=ed5cea79-0bea-4c86-8c80-f8de23687c7f","ios":"levelo://app?vid=ed5cea79-0bea-4c86-8c80-f8de23687c7f"},"vehicle_type_id":"4","last_reported":1742501449,"current_range_meters":7200,"station_id":"","pricing_plan_id":"cebpf4jnsgd1na2vs0mg"},{"bike_id":"805df977-0f21-4189-bb5b-2a25da6add44","system_id":"levelo_inurba_marseille","lat":43.31325,"lon":5.39736,"is_reserved":false,"is_disabled":false,"rental_uris":{"android":"levelo://app?vid=805df977-0f21-4189-bb5b-2a25da6add44","ios":"levelo://app?vid=805df977-0f21-4189-bb5b-2a25da6add44"},"vehicle_type_id":"4","last_reported":1742501449,"current_range_meters":7200,"station_id":"ce4bgvp2rcd13ifvqcu0","pricing_plan_id":"cebpf4jnsgd1na2vs0mg"},{"bike_id":"b591aef1-724a-4134-87b0-a708fce80ff2","system_id":"levelo_inurba_marseille","lat":43.28729,"lon":5.36094,"is_reserved":false,"is_disabled":false,"rental_uris":{"android":"levelo://app?vid=b591aef1-724a-4134-87b0-a708fce80ff2","ios":"levelo://app?vid=b591aef1-724a-4134-87b0-a708fce80ff2"},"vehicle_type_id":"4","last_reported":1742501449,"current_range_meters":7200,"station_id":"cki0cbj6b192h4jlfktg","pricing_plan_id":"cebpf4jnsgd1na2vs0mg"},{"bike_id":"0de773f6-90bb-4966-9e55-1628b3d7ea12","system_id":"levelo_inurba_marseille","lat":43.24647,"lon":5.38898,"is_reserved":false,"is_disabled":false,"rental_uris":{"android":"levelo://app?vid=0de773f6-90bb-4966-9e55-1628b3d7ea12","ios":"levelo://app?vid=0de773f6-90bb-4966-9e55-1628b3d7ea12"},"vehicle_type_id":"4","last_reported":1742501449,"current_range_meters":7200,"station_id":"ce4bhg12rcd13ifvqf60","pricing_plan_id":"cebpf4jnsgd1na2vs0mg"},{"bike_id":"ce256e8b-7217-444a-8fea-49fe2e2ffe7e","system_id":"levelo_inurba_marseille","lat":43.293666,"lon":5.378337,"is_reserved":false,"is_disabled":false,"rental_uris":{"android":"levelo://app?vid=ce256e8b-7217-444a-8fea-49fe2e2ffe7e","ios":"levelo://app?vid=ce256e8b-7217-444a-8fea-49fe2e2ffe7e"},"vehicle_type_id":"4","last_reported":1742501449,"current_range_meters":7200,"station_id":"ce4bgjh2rcd13ifvqbf0","pricing_plan_id":"cebpf4jnsgd1na2vs0mg"},{"bike_id":"304459b3-67a6-43ef-92a7-878fae315948","system_id":"levelo_inurba_marseille","lat":43.28413,"lon":5.37517,"is_reserved":false,"is_disabled":false,"rental_uris":{"android":"levelo://app?vid=304459b3-67a6-43ef-92a7-878fae315948","ios":"levelo://app?vid=304459b3-67a6-43ef-92a7-878fae315948"},"vehicle_type_id":"4","last_reported":1742501449,"current_range_meters":8000,"station_id":"ce4bh412rcd13ifvqds0","pricing_plan_id":"cebpf4jnsgd1na2vs0mg"},{"bike_id":"471b8c1a-1a85-4080-b533-fb41f3dbfd81","system_id":"levelo_inurba_marseille","lat":43.23208,"lon":5.35578,"is_reserved":false,"is_disabled":false,"rental_uris":{"android":"levelo://app?vid=471b8c1a-1a85-4080-b533-fb41f3dbfd81","ios":"levelo://app?vid=471b8c1a-1a85-4080-b533-fb41f3dbfd81"},"vehicle_type_id":"4","last_reported":1742501449,"current_range_meters":8000,"station_id":"ce4bhu92rcd13ifvqi70","pricing_plan_id":"cebpf4jnsgd1na2vs0mg"},{"bike_id":"504ee4bc-f94f-46d1-b4aa-bb159ff861b7","system_id":"levelo_inurba_marseille","lat":43.27158,"lon":5.41007,"is_reserved":false,"is_disabled":false,"rental_uris":{"android":"levelo://app?vid=504ee4bc-f94f-46d1-b4aa-bb159ff861b7","ios":"levelo://app?vid=504ee4bc-f94f-46d1-b4aa-bb159ff861b7"},"vehicle_type_id":"4","last_reported":1742501449,"current_range_meters":8000,"station_id":"ce4bhl12rcd13ifvqgf0","pricing_plan_id":"cebpf4jnsgd1na2vs0mg"},{"bike_id":"671210b1-9e8f-4893-953f-985ab8b97e34","system_id":"levelo_inurba_marseille","lat":43.32138,"lon":5.36766,"is_reserved":false,"is_disabled":false,"rental_uris":{"android":"levelo://app?vid=671210b1-9e8f-4893-953f-985ab8b97e34","ios":"levelo://app?vid=671210b1-9e8f-4893-953f-985ab8b97e34"},"vehicle_type_id":"4","last_reported":1742501449,"current_range_meters":8000,"station_id":"ce4bhrh2rcd13ifvqhug","pricing_plan_id":"cebpf4jnsgd1na2vs0mg"},{"bike_id":"bb55ab9d-3223-4c62-9ba4-1c929d3f7ca3","system_id":"levelo_inurba_marseille","lat":43.29901,"lon":5.43671,"is_reserved":false,"is_disabled":false,"rental_uris":{"android":"levelo://app?vid=bb55ab9d-3223-4c62-9ba4-1c929d3f7ca3","ios":"levelo://app?vid=bb55ab9d-3223-4c62-9ba4-1c929d3f7ca3"},"vehicle_type_id":"4","last_reported":1742501449,"current_range_meters":8000,"station_id":"ce4bhpp2rcd13ifvqhfg","pricing_plan_id":"cebpf4jnsgd1na2vs0mg"},{"bike_id":"f8e69801-e786-4f8e-84e0-e330fc8defd7","system_id":"levelo_inurba_marseille","lat":43.32705,"lon":5.38319,"is_reserved":false,"is_disabled":false,"rental_uris":{"android":"levelo://app?vid=f8e69801-e786-4f8e-84e0-e330fc8defd7","ios":"levelo://app?vid=f8e69801-e786-4f8e-84e0-e330fc8defd7"},"vehicle_type_id":"4","last_reported":1742501449,"current_range_meters":8000,"station_id":"","pricing_plan_id":"cebpf4jnsgd1na2vs0mg"},{"bike_id":"bf11d2fe-f55c-4671-b347-4107e536dd5f","system_id":"levelo_inurba_marseille","lat":43.2781,"lon":5.4072,"is_reserved":false,"is_disabled":false,"rental_uris":{"android":"levelo://app?vid=bf11d2fe-f55c-4671-b347-4107e536dd5f","ios":"levelo://app?vid=bf11d2fe-f55c-4671-b347-4107e536dd5f"},"vehicle_type_id":"4","last_reported":1742501449,"current_range_meters":8000,"station_id":"ce4bhnh2rcd13ifvqgtg","pricing_plan_id":"cebpf4jnsgd1na2vs0mg"},{"bike_id":"9af1814f-49bc-49da-8ede-56b8b534c2c7","system_id":"levelo_inurba_marseille","lat":43.30792,"lon":5.3816,"is_reserved":false,"is_disabled":false,"rental_uris":{"android":"levelo://app?vid=9af1814f-49bc-49da-8ede-56b8b534c2c7","ios":"levelo://app?vid=9af1814f-49bc-49da-8ede-56b8b534c2c7"},"vehicle_type_id":"4","last_reported":1742501449,"current_range_meters":8000,"station_id":"ce4bgt12rcd13ifvqce0","pricing_plan_id":"cebpf4jnsgd1na2vs0mg"},{"bike_id":"dd5644c3-a42b-4aac-af60-75f3f29573ec","system_id":"levelo_inurba_marseille","lat":43.23194,"lon":5.3998,"is_reserved":false,"is_disabled":false,"rental_uris":{"android":"levelo://app?vid=dd5644c3-a42b-4aac-af60-75f3f29573ec","ios":"levelo://app?vid=dd5644c3-a42b-4aac-af60-75f3f29573ec"},"vehicle_type_id":"4","last_reported":1742501449,"current_range_meters":8000,"station_id":"ce4bhn12rcd13ifvqgqg","pricing_plan_id":"cebpf4jnsgd1na2vs0mg"},{"bike_id":"19234861-a10c-41d2-8715-84ed172bce10","system_id":"levelo_inurba_marseille","lat":43.28735,"lon":5.36081,"is_reserved":false,"is_disabled":false,"rental_uris":{"android":"levelo://app?vid=19234861-a10c-41d2-8715-84ed172bce10","ios":"levelo://app?vid=19234861-a10c-41d2-8715-84ed172bce10"},"vehicle_type_id":"4","last_reported":1742501449,"current_range_meters":8400,"station_id":"cki0cbj6b192h4jlfktg","pricing_plan_id":"cebpf4jnsgd1na2vs0mg"},{"bike_id":"aa0c7091-1f8d-4294-97bb-df9bff05a5bb","system_id":"levelo_inurba_marseille","lat":43.29547,"lon":5.4229,"is_reserved":false,"is_disabled":false,"rental_uris":{"android":"levelo://app?vid=aa0c7091-1f8d-4294-97bb-df9bff05a5bb","ios":"levelo://app?vid=aa0c7091-1f8d-4294-97bb-df9bff05a5bb"},"vehicle_type_id":"4","last_reported":1742501449,"current_range_meters":8400,"station_id":"ce4bhph2rcd13ifvqhdg","pricing_plan_id":"cebpf4jnsgd1na2vs0mg"},{"bike_id":"9b2a4ae1-45d2-42a7-b1d8-970226b193d0","system_id":"levelo_inurba_marseille","lat":43.24178,"lon":5.39727,"is_reserved":false,"is_disabled":false,"rental_uris":{"android":"levelo://app?vid=9b2a4ae1-45d2-42a7-b1d8-970226b193d0","ios":"levelo://app?vid=9b2a4ae1-45d2-42a7-b1d8-970226b193d0"},"vehicle_type_id":"4","last_reported":1742501449,"current_range_meters":8400,"station_id":"ce4bhn12rcd13ifvqgpg","pricing_plan_id":"cebpf4jnsgd1na2vs0mg"},{"bike_id":"d33ebc01-4bb7-4759-b3f0-c2402a693d75","system_id":"levelo_inurba_marseille","lat":43.29759,"lon":5.39351,"is_reserved":false,"is_disabled":false,"rental_uris":{"android":"levelo://app?vid=d33ebc01-4bb7-4759-b3f0-c2402a693d75","ios":"levelo://app?vid=d33ebc01-4bb7-4759-b3f0-c2402a693d75"},"vehicle_type_id":"4","last_reported":1742501449,"current_range_meters":8400,"station_id":"chh1huq6cuj3fo74tm60","pricing_plan_id":"cebpf4jnsgd1na2vs0mg"},{"bike_id":"6e8ebb0f-fd7b-4db1-8bcf-335431ba3090","system_id":"levelo_inurba_marseille","lat":43.27814,"lon":5.40732,"is_reserved":false,"is_disabled":false,"rental_uris":{"android":"levelo://app?vid=6e8ebb0f-fd7b-4db1-8bcf-335431ba3090","ios":"levelo://app?vid=6e8ebb0f-fd7b-4db1-8bcf-335431ba3090"},"vehicle_type_id":"4","last_reported":1742501449,"current_range_meters":8400,"station_id":"ce4bhnh2rcd13ifvqgtg","pricing_plan_id":"cebpf4jnsgd1na2vs0mg"},{"bike_id":"88235f40-31c6-4a2f-8946-34e3a8b8f4b1","system_id":"levelo_inurba_marseille","lat":43.29915,"lon":5.39745,"is_reserved":false,"is_disabled":false,"rental_uris":{"android":"levelo://app?vid=88235f40-31c6-4a2f-8946-34e3a8b8f4b1","ios":"levelo://app?vid=88235f40-31c6-4a2f-8946-34e3a8b8f4b1"},"vehicle_type_id":"4","last_reported":1742501449,"current_range_meters":8400,"station_id":"","pricing_plan_id":"cebpf4jnsgd1na2vs0mg"},{"bike_id":"21e9785d-34cb-4681-81ac-31e3a2b71570","system_id":"levelo_inurba_marseille","lat":43.27817,"lon":5.40712,"is_reserved":false,"is_disabled":false,"rental_uris":{"android":"levelo://app?vid=21e9785d-34cb-4681-81ac-31e3a2b71570","ios":"levelo://app?vid=21e9785d-34cb-4681-81ac-31e3a2b71570"},"vehicle_type_id":"4","last_reported":1742501449,"current_range_meters":8400,"station_id":"ce4bhnh2rcd13ifvqgtg","pricing_plan_id":"cebpf4jnsgd1na2vs0mg"},{"bike_id":"f9ce18f8-017a-4892-9602-341b88a494fb","system_id":"levelo_inurba_marseille","lat":43.29269,"lon":5.38443,"is_reserved":false,"is_disabled":false,"rental_uris":{"android":"levelo://app?vid=f9ce18f8-017a-4892-9602-341b88a494fb","ios":"levelo://app?vid=f9ce18f8-017a-4892-9602-341b88a494fb"},"vehicle_type_id":"4","last_reported":1742501449,"current_range_meters":8400,"station_id":"ce4bh692rcd13ifvqea0","pricing_plan_id":"cebpf4jnsgd1na2vs0mg"},{"bike_id":"20eeab25-1a21-40ce-bf91-ee12f5a2e3d8","system_id":"levelo_inurba_marseille","lat":43.24645,"lon":5.38901,"is_reserved":false,"is_disabled":false,"rental_uris":{"android":"levelo://app?vid=20eeab25-1a21-40ce-bf91-ee12f5a2e3d8","ios":"levelo://app?vid=20eeab25-1a21-40ce-bf91-ee12f5a2e3d8"},"vehicle_type_id":"4","last_reported":1742501449,"current_range_meters":8400,"station_id":"ce4bhg12rcd13ifvqf60","pricing_plan_id":"cebpf4jnsgd1na2vs0mg"},{"bike_id":"1983241e-dcf4-412a-b965-b9e661a9d6d5","system_id":"levelo_inurba_marseille","lat":43.29828,"lon":5.4016,"is_reserved":false,"is_disabled":false,"rental_uris":{"android":"levelo://app?vid=1983241e-dcf4-412a-b965-b9e661a9d6d5","ios":"levelo://app?vid=1983241e-dcf4-412a-b965-b9e661a9d6d5"},"vehicle_type_id":"4","last_reported":1742501449,"current_range_meters":8400,"station_id":"","pricing_plan_id":"cebpf4jnsgd1na2vs0mg"},{"bike_id":"7c224956-29bd-44f8-9283-bf6973722232","system_id":"levelo_inurba_marseille","lat":43.28717,"lon":5.37945,"is_reserved":false,"is_disabled":false,"rental_uris":{"android":"levelo://app?vid=7c224956-29bd-44f8-9283-bf6973722232","ios":"levelo://app?vid=7c224956-29bd-44f8-9283-bf6973722232"},"vehicle_type_id":"4","last_reported":1742501449,"current_range_meters":8400,"station_id":"ce4bh9p2rcd13ifvqec0","pricing_plan_id":"cebpf4jnsgd1na2vs0mg"},{"bike_id":"cb6062cd-3cfa-4917-b79b-5707b99e3c03","system_id":"levelo_inurba_marseille","lat":43.321185,"lon":5.367534,"is_reserved":false,"is_disabled":false,"rental_uris":{"android":"levelo://app?vid=cb6062cd-3cfa-4917-b79b-5707b99e3c03","ios":"levelo://app?vid=cb6062cd-3cfa-4917-b79b-5707b99e3c03"},"vehicle_type_id":"4","last_reported":1742501449,"current_range_meters":8800,"station_id":"ce4bho92rcd13ifvqh3g","pricing_plan_id":"cebpf4jnsgd1na2vs0mg"},{"bike_id":"b8f633d7-3da3-4e25-a757-e56731aaf835","system_id":"levelo_inurba_marseille","lat":43.27948,"lon":5.4105,"is_reserved":false,"is_disabled":false,"rental_uris":{"android":"levelo://app?vid=b8f633d7-3da3-4e25-a757-e56731aaf835","ios":"levelo://app?vid=b8f633d7-3da3-4e25-a757-e56731aaf835"},"vehicle_type_id":"4","last_reported":1742501449,"current_range_meters":8800,"station_id":"ce4bhnp2rcd13ifvqh0g","pricing_plan_id":"cebpf4jnsgd1na2vs0mg"},{"bike_id":"df446069-6124-47b5-871e-1e0922d42d2c","system_id":"levelo_inurba_marseille","lat":43.24184,"lon":5.39718,"is_reserved":false,"is_disabled":false,"rental_uris":{"android":"levelo://app?vid=df446069-6124-47b5-871e-1e0922d42d2c","ios":"levelo://app?vid=df446069-6124-47b5-871e-1e0922d42d2c"},"vehicle_type_id":"4","last_reported":1742501449,"current_range_meters":8800,"station_id":"ce4bhn12rcd13ifvqgpg","pricing_plan_id":"cebpf4jnsgd1na2vs0mg"},{"bike_id":"5a0461c7-dfa8-47dc-96ec-63050e713f87","system_id":"levelo_inurba_marseille","lat":43.29268,"lon":5.38448,"is_reserved":false,"is_disabled":false,"rental_uris":{"android":"levelo://app?vid=5a0461c7-dfa8-47dc-96ec-63050e713f87","ios":"levelo://app?vid=5a0461c7-dfa8-47dc-96ec-63050e713f87"},"vehicle_type_id":"4","last_reported":1742501449,"current_range_meters":8800,"station_id":"ce4bh692rcd13ifvqea0","pricing_plan_id":"cebpf4jnsgd1na2vs0mg"},{"bike_id":"2916d7dc-590b-4121-bfa3-f3b10c548cce","system_id":"levelo_inurba_marseille","lat":43.29166,"lon":5.37173,"is_reserved":false,"is_disabled":false,"rental_uris":{"android":"levelo://app?vid=2916d7dc-590b-4121-bfa3-f3b10c548cce","ios":"levelo://app?vid=2916d7dc-590b-4121-bfa3-f3b10c548cce"},"vehicle_type_id":"4","last_reported":1742501449,"current_range_meters":8800,"station_id":"ce4bha92rcd13ifvqeh0","pricing_plan_id":"cebpf4jnsgd1na2vs0mg"},{"bike_id":"b0ce47a3-709d-47a5-8da5-31f168002e83","system_id":"levelo_inurba_marseille","lat":43.29165,"lon":5.37179,"is_reserved":false,"is_disabled":false,"rental_uris":{"android":"levelo://app?vid=b0ce47a3-709d-47a5-8da5-31f168002e83","ios":"levelo://app?vid=b0ce47a3-709d-47a5-8da5-31f168002e83"},"vehicle_type_id":"4","last_reported":1742501449,"current_range_meters":8800,"station_id":"ce4bha92rcd13ifvqeh0","pricing_plan_id":"cebpf4jnsgd1na2vs0mg"},{"bike_id":"be111b0f-1f72-4ed6-9ae8-0137038913ce","system_id":"levelo_inurba_marseille","lat":43.28446,"lon":5.39203,"is_reserved":false,"is_disabled":false,"rental_uris":{"android":"levelo://app?vid=be111b0f-1f72-4ed6-9ae8-0137038913ce","ios":"levelo://app?vid=be111b0f-1f72-4ed6-9ae8-0137038913ce"},"vehicle_type_id":"4","last_reported":1742501449,"current_range_meters":8800,"station_id":"ce4bhoh2rcd13ifvqh5g","pricing_plan_id":"cebpf4jnsgd1na2vs0mg"},{"bike_id":"49924b7e-04a6-47f7-9535-206be66abb4e","system_id":"levelo_inurba_marseille","lat":43.29276,"lon":5.40926,"is_reserved":false,"is_disabled":false,"rental_uris":{"android":"levelo://app?vid=49924b7e-04a6-47f7-9535-206be66abb4e","ios":"levelo://app?vid=49924b7e-04a6-47f7-9535-206be66abb4e"},"vehicle_type_id":"4","last_reported":1742501449,"current_range_meters":8800,"station_id":"ce4bh192rcd13ifvqdc0","pricing_plan_id":"cebpf4jnsgd1na2vs0mg"},{"bike_id":"b2b37dff-7acd-4472-990c-189cd04091d5","system_id":"levelo_inurba_marseille","lat":43.27836,"lon":5.40719,"is_reserved":false,"is_disabled":false,"rental_uris":{"android":"levelo://app?vid=b2b37dff-7acd-4472-990c-189cd04091d5","ios":"levelo://app?vid=b2b37dff-7acd-4472-990c-189cd04091d5"},"vehicle_type_id":"4","last_reported":1742501449,"current_range_meters":8800,"station_id":"ce4bhnh2rcd13ifvqgtg","pricing_plan_id":"cebpf4jnsgd1na2vs0mg"},{"bike_id":"d7645557-54c5-44ed-8c44-41e433a350da","system_id":"levelo_inurba_marseille","lat":43.2947,"lon":5.3557,"is_reserved":false,"is_disabled":false,"rental_uris":{"android":"levelo://app?vid=d7645557-54c5-44ed-8c44-41e433a350da","ios":"levelo://app?vid=d7645557-54c5-44ed-8c44-41e433a350da"},"vehicle_type_id":"4","last_reported":1742501449,"current_range_meters":8800,"station_id":"","pricing_plan_id":"cebpf4jnsgd1na2vs0mg"},{"bike_id":"bd2e72e2-6ae3-41f8-84dc-79cbf208609c","system_id":"levelo_inurba_marseille","lat":43.27832,"lon":5.40713,"is_reserved":false,"is_disabled":false,"rental_uris":{"android":"levelo://app?vid=bd2e72e2-6ae3-41f8-84dc-79cbf208609c","ios":"levelo://app?vid=bd2e72e2-6ae3-41f8-84dc-79cbf208609c"},"vehicle_type_id":"4","last_reported":1742501449,"current_range_meters":9200,"station_id":"ce4bhnh2rcd13ifvqgtg","pricing_plan_id":"cebpf4jnsgd1na2vs0mg"},{"bike_id":"294818fe-f961-4f2d-85c2-45f9b2579a29","system_id":"levelo_inurba_marseille","lat":43.27699,"lon":5.39102,"is_reserved":false,"is_disabled":false,"rental_uris":{"android":"levelo://app?vid=294818fe-f961-4f2d-85c2-45f9b2579a29","ios":"levelo://app?vid=294818fe-f961-4f2d-85c2-45f9b2579a29"},"vehicle_type_id":"4","last_reported":1742501449,"current_range_meters":9200,"station_id":"","pricing_plan_id":"cebpf4jnsgd1na2vs0mg"},{"bike_id":"a0deeb6c-62a7-4efb-834c-1bec837aaba6","system_id":"levelo_inurba_marseille","lat":43.33696,"lon":5.37844,"is_reserved":false,"is_disabled":false,"rental_uris":{"android":"levelo://app?vid=a0deeb6c-62a7-4efb-834c-1bec837aaba6","ios":"levelo://app?vid=a0deeb6c-62a7-4efb-834c-1bec837aaba6"},"vehicle_type_id":"4","last_reported":1742501449,"current_range_meters":9200,"station_id":"","pricing_plan_id":"cebpf4jnsgd1na2vs0mg"},{"bike_id":"d95e8599-7c3a-4015-83ce-3263f4b5326c","system_id":"levelo_inurba_marseille","lat":43.25742,"lon":5.41129,"is_reserved":false,"is_disabled":false,"rental_uris":{"android":"levelo://app?vid=d95e8599-7c3a-4015-83ce-3263f4b5326c","ios":"levelo://app?vid=d95e8599-7c3a-4015-83ce-3263f4b5326c"},"vehicle_type_id":"4","last_reported":1742501449,"current_range_meters":9200,"station_id":"ce4bhkp2rcd13ifvqgd0","pricing_plan_id":"cebpf4jnsgd1na2vs0mg"},{"bike_id":"a115a50a-6b07-4e25-ae5a-9408c0c21195","system_id":"levelo_inurba_marseille","lat":43.29312,"lon":5.3719,"is_reserved":false,"is_disabled":false,"rental_uris":{"android":"levelo://app?vid=a115a50a-6b07-4e25-ae5a-9408c0c21195","ios":"levelo://app?vid=a115a50a-6b07-4e25-ae5a-9408c0c21195"},"vehicle_type_id":"4","last_reported":1742501449,"current_range_meters":9200,"station_id":"ce4bgh92rcd13ifvqb40","pricing_plan_id":"cebpf4jnsgd1na2vs0mg"},{"bike_id":"76a129e6-b305-42b8-a863-5a99730d4d66","system_id":"levelo_inurba_marseille","lat":43.30419,"lon":5.41281,"is_reserved":false,"is_disabled":false,"rental_uris":{"android":"levelo://app?vid=76a129e6-b305-42b8-a863-5a99730d4d66","ios":"levelo://app?vid=76a129e6-b305-42b8-a863-5a99730d4d66"},"vehicle_type_id":"4","last_reported":1742501449,"current_range_meters":9200,"station_id":"ce4bhop2rcd13ifvqh8g","pricing_plan_id":"cebpf4jnsgd1na2vs0mg"},{"bike_id":"bfb8aceb-271f-407e-8f66-f0880d7ac280","system_id":"levelo_inurba_marseille","lat":43.31338,"lon":5.39727,"is_reserved":false,"is_disabled":false,"rental_uris":{"android":"levelo://app?vid=bfb8aceb-271f-407e-8f66-f0880d7ac280","ios":"levelo://app?vid=bfb8aceb-271f-407e-8f66-f0880d7ac280"},"vehicle_type_id":"4","last_reported":1742501449,"current_range_meters":9200,"station_id":"ce4bgvp2rcd13ifvqcu0","pricing_plan_id":"cebpf4jnsgd1na2vs0mg"},{"bike_id":"903f6220-d336-47d5-ac04-7b97af688388","system_id":"levelo_inurba_marseille","lat":43.27818,"lon":5.40712,"is_reserved":false,"is_disabled":false,"rental_uris":{"android":"levelo://app?vid=903f6220-d336-47d5-ac04-7b97af688388","ios":"levelo://app?vid=903f6220-d336-47d5-ac04-7b97af688388"},"vehicle_type_id":"4","last_reported":1742501449,"current_range_meters":9200,"station_id":"ce4bhnh2rcd13ifvqgtg","pricing_plan_id":"cebpf4jnsgd1na2vs0mg"},{"bike_id":"e94b4c1a-6466-446d-b72e-1634f5ff4245","system_id":"levelo_inurba_marseille","lat":43.28334,"lon":5.38091,"is_reserved":false,"is_disabled":false,"rental_uris":{"android":"levelo://app?vid=e94b4c1a-6466-446d-b72e-1634f5ff4245","ios":"levelo://app?vid=e94b4c1a-6466-446d-b72e-1634f5ff4245"},"vehicle_type_id":"4","last_reported":1742501449,"current_range_meters":9600,"station_id":"ce4bh412rcd13ifvqdr0","pricing_plan_id":"cebpf4jnsgd1na2vs0mg"},{"bike_id":"feb56253-4a63-4940-9b3d-2354add15506","system_id":"levelo_inurba_marseille","lat":43.29317,"lon":5.37191,"is_reserved":false,"is_disabled":false,"rental_uris":{"android":"levelo://app?vid=feb56253-4a63-4940-9b3d-2354add15506","ios":"levelo://app?vid=feb56253-4a63-4940-9b3d-2354add15506"},"vehicle_type_id":"4","last_reported":1742501449,"current_range_meters":9600,"station_id":"ce4bgh92rcd13ifvqb40","pricing_plan_id":"cebpf4jnsgd1na2vs0mg"},{"bike_id":"9b587ed0-3dc3-41bf-808b-fb05c0948f99","system_id":"levelo_inurba_marseille","lat":43.29486,"lon":5.3816,"is_reserved":false,"is_disabled":false,"rental_uris":{"android":"levelo://app?vid=9b587ed0-3dc3-41bf-808b-fb05c0948f99","ios":"levelo://app?vid=9b587ed0-3dc3-41bf-808b-fb05c0948f99"},"vehicle_type_id":"4","last_reported":1742501449,"current_range_meters":9600,"station_id":"ce4bgl12rcd13ifvqbo0","pricing_plan_id":"cebpf4jnsgd1na2vs0mg"},{"bike_id":"2605817b-6d9d-44a7-bb7f-db92a902278f","system_id":"levelo_inurba_marseille","lat":43.24072,"lon":5.37765,"is_reserved":false,"is_disabled":false,"rental_uris":{"android":"levelo://app?vid=2605817b-6d9d-44a7-bb7f-db92a902278f","ios":"levelo://app?vid=2605817b-6d9d-44a7-bb7f-db92a902278f"},"vehicle_type_id":"4","last_reported":1742501449,"current_range_meters":9200,"station_id":"ce4bhnp2rcd13ifvqgvg","pricing_plan_id":"cebpf4jnsgd1na2vs0mg"},{"bike_id":"6c3117c3-09fd-4d54-96ed-b753848a5cec","system_id":"levelo_inurba_marseille","lat":43.28,"lon":5.40017,"is_reserved":false,"is_disabled":false,"rental_uris":{"android":"levelo://app?vid=6c3117c3-09fd-4d54-96ed-b753848a5cec","ios":"levelo://app?vid=6c3117c3-09fd-4d54-96ed-b753848a5cec"},"vehicle_type_id":"4","last_reported":1742501449,"current_range_meters":9600,"station_id":"ce4bho92rcd13ifvqh4g","pricing_plan_id":"cebpf4jnsgd1na2vs0mg"},{"bike_id":"4fdfb7d6-8ab3-43f7-8bc5-8c9a50e46a96","system_id":"levelo_inurba_marseille","lat":43.26596,"lon":5.37314,"is_reserved":false,"is_disabled":false,"rental_uris":{"android":"levelo://app?vid=4fdfb7d6-8ab3-43f7-8bc5-8c9a50e46a96","ios":"levelo://app?vid=4fdfb7d6-8ab3-43f7-8bc5-8c9a50e46a96"},"vehicle_type_id":"4","last_reported":1742501449,"current_range_meters":9600,"station_id":"ce4bhg12rcd13ifvqf70","pricing_plan_id":"cebpf4jnsgd1na2vs0mg"},{"bike_id":"ffbee1c9-ab8d-45ee-b606-c546ab78c5f2","system_id":"levelo_inurba_marseille","lat":43.29731,"lon":5.37852,"is_reserved":false,"is_disabled":false,"rental_uris":{"android":"levelo://app?vid=ffbee1c9-ab8d-45ee-b606-c546ab78c5f2","ios":"levelo://app?vid=ffbee1c9-ab8d-45ee-b606-c546ab78c5f2"},"vehicle_type_id":"4","last_reported":1742501449,"current_range_meters":9600,"station_id":"","pricing_plan_id":"cebpf4jnsgd1na2vs0mg"},{"bike_id":"7ab40b8d-fa18-4b14-83b5-9c3e7b9f2127","system_id":"levelo_inurba_marseille","lat":43.27177,"lon":5.40998,"is_reserved":false,"is_disabled":false,"rental_uris":{"android":"levelo://app?vid=7ab40b8d-fa18-4b14-83b5-9c3e7b9f2127","ios":"levelo://app?vid=7ab40b8d-fa18-4b14-83b5-9c3e7b9f2127"},"vehicle_type_id":"4","last_reported":1742501449,"current_range_meters":9600,"station_id":"ce4bhl12rcd13ifvqgf0","pricing_plan_id":"cebpf4jnsgd1na2vs0mg"},{"bike_id":"3fe08d45-9276-421c-bc87-9103631ac2f0","system_id":"levelo_inurba_marseille","lat":43.287814,"lon":5.362491,"is_reserved":false,"is_disabled":false,"rental_uris":{"android":"levelo://app?vid=3fe08d45-9276-421c-bc87-9103631ac2f0","ios":"levelo://app?vid=3fe08d45-9276-421c-bc87-9103631ac2f0"},"vehicle_type_id":"4","last_reported":1742501449,"current_range_meters":9600,"station_id":"cki0cbj6b192h4jlfktg","pricing_plan_id":"cebpf4jnsgd1na2vs0mg"},{"bike_id":"b9e4bdd0-024c-4547-9a94-39d0c7923642","system_id":"levelo_inurba_marseille","lat":43.24164,"lon":5.36412,"is_reserved":false,"is_disabled":false,"rental_uris":{"android":"levelo://app?vid=b9e4bdd0-024c-4547-9a94-39d0c7923642","ios":"levelo://app?vid=b9e4bdd0-024c-4547-9a94-39d0c7923642"},"vehicle_type_id":"4","last_reported":1742501449,"current_range_meters":9600,"station_id":"cpo36qri1sfpv3e86is0","pricing_plan_id":"cebpf4jnsgd1na2vs0mg"},{"bike_id":"c5bb5dca-1dc9-450e-9a3d-9fa737cf345d","system_id":"levelo_inurba_marseille","lat":43.24601,"lon":5.3864,"is_reserved":false,"is_disabled":false,"rental_uris":{"android":"levelo://app?vid=c5bb5dca-1dc9-450e-9a3d-9fa737cf345d","ios":"levelo://app?vid=c5bb5dca-1dc9-450e-9a3d-9fa737cf345d"},"vehicle_type_id":"4","last_reported":1742501449,"current_range_meters":9600,"station_id":"ce4bhg12rcd13ifvqf60","pricing_plan_id":"cebpf4jnsgd1na2vs0mg"},{"bike_id":"a1d4474e-dc54-4e96-8359-81b099ba1a93","system_id":"levelo_inurba_marseille","lat":43.2317,"lon":5.4,"is_reserved":false,"is_disabled":false,"rental_uris":{"android":"levelo://app?vid=a1d4474e-dc54-4e96-8359-81b099ba1a93","ios":"levelo://app?vid=a1d4474e-dc54-4e96-8359-81b099ba1a93"},"vehicle_type_id":"4","last_reported":1742501449,"current_range_meters":10000,"station_id":"ce4bhn12rcd13ifvqgqg","pricing_plan_id":"cebpf4jnsgd1na2vs0mg"},{"bike_id":"69a1267d-4f9b-471a-98e9-7d2631052ef0","system_id":"levelo_inurba_marseille","lat":43.28012,"lon":5.40029,"is_reserved":false,"is_disabled":false,"rental_uris":{"android":"levelo://app?vid=69a1267d-4f9b-471a-98e9-7d2631052ef0","ios":"levelo://app?vid=69a1267d-4f9b-471a-98e9-7d2631052ef0"},"vehicle_type_id":"4","last_reported":1742501449,"current_range_meters":10000,"station_id":"ce4bho92rcd13ifvqh4g","pricing_plan_id":"cebpf4jnsgd1na2vs0mg"},{"bike_id":"cfc4b35f-d62d-40dd-88d4-6f603d8b53ec","system_id":"levelo_inurba_marseille","lat":43.30132,"lon":5.38789,"is_reserved":false,"is_disabled":false,"rental_uris":{"android":"levelo://app?vid=cfc4b35f-d62d-40dd-88d4-6f603d8b53ec","ios":"levelo://app?vid=cfc4b35f-d62d-40dd-88d4-6f603d8b53ec"},"vehicle_type_id":"4","last_reported":1742501449,"current_range_meters":10000,"station_id":"ce4bghh2rcd13ifvqb60","pricing_plan_id":"cebpf4jnsgd1na2vs0mg"},{"bike_id":"8f06304f-aa23-4806-97d2-b7ca1238b659","system_id":"levelo_inurba_marseille","lat":43.2871,"lon":5.37947,"is_reserved":false,"is_disabled":false,"rental_uris":{"android":"levelo://app?vid=8f06304f-aa23-4806-97d2-b7ca1238b659","ios":"levelo://app?vid=8f06304f-aa23-4806-97d2-b7ca1238b659"},"vehicle_type_id":"4","last_reported":1742501449,"current_range_meters":10000,"station_id":"ce4bh9p2rcd13ifvqec0","pricing_plan_id":"cebpf4jnsgd1na2vs0mg"},{"bike_id":"298094ff-1b8f-403e-b315-5326030acb86","system_id":"levelo_inurba_marseille","lat":43.28145,"lon":5.42654,"is_reserved":false,"is_disabled":false,"rental_uris":{"android":"levelo://app?vid=298094ff-1b8f-403e-b315-5326030acb86","ios":"levelo://app?vid=298094ff-1b8f-403e-b315-5326030acb86"},"vehicle_type_id":"4","last_reported":1742501449,"current_range_meters":10000,"station_id":"ce4bhnh2rcd13ifvqgug","pricing_plan_id":"cebpf4jnsgd1na2vs0mg"},{"bike_id":"af6c0963-0249-4212-bc85-04308e89d83b","system_id":"levelo_inurba_marseille","lat":43.29683,"lon":5.37285,"is_reserved":false,"is_disabled":false,"rental_uris":{"android":"levelo://app?vid=af6c0963-0249-4212-bc85-04308e89d83b","ios":"levelo://app?vid=af6c0963-0249-4212-bc85-04308e89d83b"},"vehicle_type_id":"4","last_reported":1742501449,"current_range_meters":10000,"station_id":"ce4bgk12rcd13ifvqbj0","pricing_plan_id":"cebpf4jnsgd1na2vs0mg"},{"bike_id":"b609a389-4906-4653-9af6-bf59fab25d06","system_id":"levelo_inurba_marseille","lat":43.29374,"lon":5.37855,"is_reserved":false,"is_disabled":false,"rental_uris":{"android":"levelo://app?vid=b609a389-4906-4653-9af6-bf59fab25d06","ios":"levelo://app?vid=b609a389-4906-4653-9af6-bf59fab25d06"},"vehicle_type_id":"4","last_reported":1742501449,"current_range_meters":10000,"station_id":"ce4bgjh2rcd13ifvqbf0","pricing_plan_id":"cebpf4jnsgd1na2vs0mg"},{"bike_id":"337128a1-9d67-42aa-ad07-8afb26b54490","system_id":"levelo_inurba_marseille","lat":43.29284,"lon":5.40928,"is_reserved":false,"is_disabled":false,"rental_uris":{"android":"levelo://app?vid=337128a1-9d67-42aa-ad07-8afb26b54490","ios":"levelo://app?vid=337128a1-9d67-42aa-ad07-8afb26b54490"},"vehicle_type_id":"4","last_reported":1742501449,"current_range_meters":10000,"station_id":"ce4bh192rcd13ifvqdc0","pricing_plan_id":"cebpf4jnsgd1na2vs0mg"},{"bike_id":"9da420ab-0c4e-445e-b9d4-67006829108b","system_id":"levelo_inurba_marseille","lat":43.29196,"lon":5.39326,"is_reserved":false,"is_disabled":false,"rental_uris":{"android":"levelo://app?vid=9da420ab-0c4e-445e-b9d4-67006829108b","ios":"levelo://app?vid=9da420ab-0c4e-445e-b9d4-67006829108b"},"vehicle_type_id":"4","last_reported":1742501449,"current_range_meters":10000,"station_id":"ce4bh192rcd13ifvqdd0","pricing_plan_id":"cebpf4jnsgd1na2vs0mg"},{"bike_id":"dcc18eac-d2e5-4e6e-91aa-19e270f58587","system_id":"levelo_inurba_marseille","lat":43.31323,"lon":5.39709,"is_reserved":false,"is_disabled":false,"rental_uris":{"android":"levelo://app?vid=dcc18eac-d2e5-4e6e-91aa-19e270f58587","ios":"levelo://app?vid=dcc18eac-d2e5-4e6e-91aa-19e270f58587"},"vehicle_type_id":"4","last_reported":1742501449,"current_range_meters":10000,"station_id":"ce4bgvp2rcd13ifvqcu0","pricing_plan_id":"cebpf4jnsgd1na2vs0mg"},{"bike_id":"5a6a26d9-9948-42b8-a5b3-4d12b7b6bb56","system_id":"levelo_inurba_marseille","lat":43.27835,"lon":5.40718,"is_reserved":false,"is_disabled":false,"rental_uris":{"android":"levelo://app?vid=5a6a26d9-9948-42b8-a5b3-4d12b7b6bb56","ios":"levelo://app?vid=5a6a26d9-9948-42b8-a5b3-4d12b7b6bb56"},"vehicle_type_id":"4","last_reported":1742501449,"current_range_meters":10800,"station_id":"ce4bhnh2rcd13ifvqgtg","pricing_plan_id":"cebpf4jnsgd1na2vs0mg"},{"bike_id":"10040ff5-09c7-4549-9697-fbeae20cf216","system_id":"levelo_inurba_marseille","lat":43.24674,"lon":5.3889,"is_reserved":false,"is_disabled":false,"rental_uris":{"android":"levelo://app?vid=10040ff5-09c7-4549-9697-fbeae20cf216","ios":"levelo://app?vid=10040ff5-09c7-4549-9697-fbeae20cf216"},"vehicle_type_id":"4","last_reported":1742501449,"current_range_meters":10800,"station_id":"ce4bhg12rcd13ifvqf60","pricing_plan_id":"cebpf4jnsgd1na2vs0mg"},{"bike_id":"d4172fa0-e90c-4f07-b5ea-4aaf1c755fde","system_id":"levelo_inurba_marseille","lat":43.28483,"lon":5.38415,"is_reserved":false,"is_disabled":false,"rental_uris":{"android":"levelo://app?vid=d4172fa0-e90c-4f07-b5ea-4aaf1c755fde","ios":"levelo://app?vid=d4172fa0-e90c-4f07-b5ea-4aaf1c755fde"},"vehicle_type_id":"4","last_reported":1742501449,"current_range_meters":10800,"station_id":"ce4bh512rcd13ifvqe3g","pricing_plan_id":"cebpf4jnsgd1na2vs0mg"},{"bike_id":"d4b8f3ac-69da-4a13-8307-f3070663ea65","system_id":"levelo_inurba_marseille","lat":43.2846,"lon":5.35895,"is_reserved":false,"is_disabled":false,"rental_uris":{"android":"levelo://app?vid=d4b8f3ac-69da-4a13-8307-f3070663ea65","ios":"levelo://app?vid=d4b8f3ac-69da-4a13-8307-f3070663ea65"},"vehicle_type_id":"4","last_reported":1742501449,"current_range_meters":10800,"station_id":"ce4bhah2rcd13ifvqei0","pricing_plan_id":"cebpf4jnsgd1na2vs0mg"},{"bike_id":"8406e6c4-37a3-4d00-b8cd-8faffb48c912","system_id":"levelo_inurba_marseille","lat":43.29269,"lon":5.36839,"is_reserved":false,"is_disabled":false,"rental_uris":{"android":"levelo://app?vid=8406e6c4-37a3-4d00-b8cd-8faffb48c912","ios":"levelo://app?vid=8406e6c4-37a3-4d00-b8cd-8faffb48c912"},"vehicle_type_id":"4","last_reported":1742501449,"current_range_meters":10800,"station_id":"ce4bhbp2rcd13ifvqesg","pricing_plan_id":"cebpf4jnsgd1na2vs0mg"},{"bike_id":"d80d9367-b4c7-4495-9d42-12d632cf5a06","system_id":"levelo_inurba_marseille","lat":43.28412,"lon":5.37533,"is_reserved":false,"is_disabled":false,"rental_uris":{"android":"levelo://app?vid=d80d9367-b4c7-4495-9d42-12d632cf5a06","ios":"levelo://app?vid=d80d9367-b4c7-4495-9d42-12d632cf5a06"},"vehicle_type_id":"4","last_reported":1742501449,"current_range_meters":10800,"station_id":"ce4bh412rcd13ifvqds0","pricing_plan_id":"cebpf4jnsgd1na2vs0mg"},{"bike_id":"295451a4-a71a-48b3-9f2c-dfa8b727f166","system_id":"levelo_inurba_marseille","lat":43.28406,"lon":5.37537,"is_reserved":false,"is_disabled":false,"rental_uris":{"android":"levelo://app?vid=295451a4-a71a-48b3-9f2c-dfa8b727f166","ios":"levelo://app?vid=295451a4-a71a-48b3-9f2c-dfa8b727f166"},"vehicle_type_id":"4","last_reported":1742501449,"current_range_meters":10800,"station_id":"ce4bh412rcd13ifvqds0","pricing_plan_id":"cebpf4jnsgd1na2vs0mg"},{"bike_id":"d44778e8-1bb1-4731-a3b6-df7901299486","system_id":"levelo_inurba_marseille","lat":43.31073,"lon":5.38351,"is_reserved":false,"is_disabled":false,"rental_uris":{"android":"levelo://app?vid=d44778e8-1bb1-4731-a3b6-df7901299486","ios":"levelo://app?vid=d44778e8-1bb1-4731-a3b6-df7901299486"},"vehicle_type_id":"4","last_reported":1742501449,"current_range_meters":10800,"station_id":"ce4bgv92rcd13ifvqcr0","pricing_plan_id":"cebpf4jnsgd1na2vs0mg"},{"bike_id":"b0463522-3367-4a05-80cd-883380f134f1","system_id":"levelo_inurba_marseille","lat":43.29295,"lon":5.37468,"is_reserved":false,"is_disabled":false,"rental_uris":{"android":"levelo://app?vid=b0463522-3367-4a05-80cd-883380f134f1","ios":"levelo://app?vid=b0463522-3367-4a05-80cd-883380f134f1"},"vehicle_type_id":"4","last_reported":1742501449,"current_range_meters":10800,"station_id":"ce4bgi12rcd13ifvqb70","pricing_plan_id":"cebpf4jnsgd1na2vs0mg"},{"bike_id":"f75d32cd-32c5-4f70-9df2-f2320d24a18d","system_id":"levelo_inurba_marseille","lat":43.32004,"lon":5.38151,"is_reserved":false,"is_disabled":false,"rental_uris":{"android":"levelo://app?vid=f75d32cd-32c5-4f70-9df2-f2320d24a18d","ios":"levelo://app?vid=f75d32cd-32c5-4f70-9df2-f2320d24a18d"},"vehicle_type_id":"4","last_reported":1742501449,"current_range_meters":10800,"station_id":"ce4bhr12rcd13ifvqhpg","pricing_plan_id":"cebpf4jnsgd1na2vs0mg"},{"bike_id":"64eb4326-a936-4815-87ad-b69bb6fce8ba","system_id":"levelo_inurba_marseille","lat":43.29261,"lon":5.36847,"is_reserved":false,"is_disabled":false,"rental_uris":{"android":"levelo://app?vid=64eb4326-a936-4815-87ad-b69bb6fce8ba","ios":"levelo://app?vid=64eb4326-a936-4815-87ad-b69bb6fce8ba"},"vehicle_type_id":"4","last_reported":1742501449,"current_range_meters":11200,"station_id":"ce4bhbp2rcd13ifvqesg","pricing_plan_id":"cebpf4jnsgd1na2vs0mg"},{"bike_id":"2b28a32f-7c10-4c94-be71-86d15310c87f","system_id":"levelo_inurba_marseille","lat":43.29522,"lon":5.39411,"is_reserved":false,"is_disabled":false,"rental_uris":{"android":"levelo://app?vid=2b28a32f-7c10-4c94-be71-86d15310c87f","ios":"levelo://app?vid=2b28a32f-7c10-4c94-be71-86d15310c87f"},"vehicle_type_id":"4","last_reported":1742501449,"current_range_meters":11200,"station_id":"ce4bh292rcd13ifvqdf0","pricing_plan_id":"cebpf4jnsgd1na2vs0mg"},{"bike_id":"066c1698-0503-4fbb-ac50-5d68702acd84","system_id":"levelo_inurba_marseille","lat":43.28267,"lon":5.3506,"is_reserved":false,"is_disabled":false,"rental_uris":{"android":"levelo://app?vid=066c1698-0503-4fbb-ac50-5d68702acd84","ios":"levelo://app?vid=066c1698-0503-4fbb-ac50-5d68702acd84"},"vehicle_type_id":"4","last_reported":1742501449,"current_range_meters":11200,"station_id":"ce4bhbp2rcd13ifvqerg","pricing_plan_id":"cebpf4jnsgd1na2vs0mg"},{"bike_id":"100e505b-1b3b-41a4-b9dc-58d4e3b6ed34","system_id":"levelo_inurba_marseille","lat":43.25714,"lon":5.41072,"is_reserved":false,"is_disabled":false,"rental_uris":{"android":"levelo://app?vid=100e505b-1b3b-41a4-b9dc-58d4e3b6ed34","ios":"levelo://app?vid=100e505b-1b3b-41a4-b9dc-58d4e3b6ed34"},"vehicle_type_id":"4","last_reported":1742501449,"current_range_meters":11200,"station_id":"ce4bhkp2rcd13ifvqgd0","pricing_plan_id":"cebpf4jnsgd1na2vs0mg"},{"bike_id":"82ebedbb-ce2e-43e2-9f6a-790708582ba9","system_id":"levelo_inurba_marseille","lat":43.31277,"lon":5.40168,"is_reserved":false,"is_disabled":false,"rental_uris":{"android":"levelo://app?vid=82ebedbb-ce2e-43e2-9f6a-790708582ba9","ios":"levelo://app?vid=82ebedbb-ce2e-43e2-9f6a-790708582ba9"},"vehicle_type_id":"4","last_reported":1742501449,"current_range_meters":11200,"station_id":"ce4bh092rcd13ifvqd30","pricing_plan_id":"cebpf4jnsgd1na2vs0mg"},{"bike_id":"bf45b5b3-9ca0-42d5-80c6-92d4b3af6692","system_id":"levelo_inurba_marseille","lat":43.28413,"lon":5.37531,"is_reserved":false,"is_disabled":false,"rental_uris":{"android":"levelo://app?vid=bf45b5b3-9ca0-42d5-80c6-92d4b3af6692","ios":"levelo://app?vid=bf45b5b3-9ca0-42d5-80c6-92d4b3af6692"},"vehicle_type_id":"4","last_reported":1742501449,"current_range_meters":11200,"station_id":"ce4bh412rcd13ifvqds0","pricing_plan_id":"cebpf4jnsgd1na2vs0mg"},{"bike_id":"9d3d1a00-8f76-4fc3-8595-e2626ff79503","system_id":"levelo_inurba_marseille","lat":43.29253,"lon":5.40912,"is_reserved":false,"is_disabled":false,"rental_uris":{"android":"levelo://app?vid=9d3d1a00-8f76-4fc3-8595-e2626ff79503","ios":"levelo://app?vid=9d3d1a00-8f76-4fc3-8595-e2626ff79503"},"vehicle_type_id":"4","last_reported":1742501449,"current_range_meters":11200,"station_id":"ce4bh192rcd13ifvqdc0","pricing_plan_id":"cebpf4jnsgd1na2vs0mg"},{"bike_id":"8ac4a016-64dd-4aa7-b186-1c7ad144a626","system_id":"levelo_inurba_marseille","lat":43.29279,"lon":5.38451,"is_reserved":false,"is_disabled":false,"rental_uris":{"android":"levelo://app?vid=8ac4a016-64dd-4aa7-b186-1c7ad144a626","ios":"levelo://app?vid=8ac4a016-64dd-4aa7-b186-1c7ad144a626"},"vehicle_type_id":"4","last_reported":1742501449,"current_range_meters":11200,"station_id":"ce4bh692rcd13ifvqea0","pricing_plan_id":"cebpf4jnsgd1na2vs0mg"},{"bike_id":"3164ce17-d6ac-483f-b723-1911543dd307","system_id":"levelo_inurba_marseille","lat":43.30418,"lon":5.41288,"is_reserved":false,"is_disabled":false,"rental_uris":{"android":"levelo://app?vid=3164ce17-d6ac-483f-b723-1911543dd307","ios":"levelo://app?vid=3164ce17-d6ac-483f-b723-1911543dd307"},"vehicle_type_id":"4","last_reported":1742501449,"current_range_meters":11200,"station_id":"ce4bhop2rcd13ifvqh8g","pricing_plan_id":"cebpf4jnsgd1na2vs0mg"},{"bike_id":"e1505ad8-0820-4da2-b94d-8bb4a6059155","system_id":"levelo_inurba_marseille","lat":43.30803,"lon":5.3815,"is_reserved":false,"is_disabled":false,"rental_uris":{"android":"levelo://app?vid=e1505ad8-0820-4da2-b94d-8bb4a6059155","ios":"levelo://app?vid=e1505ad8-0820-4da2-b94d-8bb4a6059155"},"vehicle_type_id":"4","last_reported":1742501449,"current_range_meters":11200,"station_id":"ce4bgt12rcd13ifvqce0","pricing_plan_id":"cebpf4jnsgd1na2vs0mg"},{"bike_id":"bb532565-2202-409c-9683-9edd37326f1b","system_id":"levelo_inurba_marseille","lat":43.28702,"lon":5.37418,"is_reserved":false,"is_disabled":false,"rental_uris":{"android":"levelo://app?vid=bb532565-2202-409c-9683-9edd37326f1b","ios":"levelo://app?vid=bb532565-2202-409c-9683-9edd37326f1b"},"vehicle_type_id":"4","last_reported":1742501449,"current_range_meters":11200,"station_id":"ce4bh3p2rcd13ifvqdq0","pricing_plan_id":"cebpf4jnsgd1na2vs0mg"},{"bike_id":"9f5b80fc-8e66-46f1-bdb8-51b3dd89e118","system_id":"levelo_inurba_marseille","lat":43.31063,"lon":5.38349,"is_reserved":false,"is_disabled":false,"rental_uris":{"android":"levelo://app?vid=9f5b80fc-8e66-46f1-bdb8-51b3dd89e118","ios":"levelo://app?vid=9f5b80fc-8e66-46f1-bdb8-51b3dd89e118"},"vehicle_type_id":"4","last_reported":1742501449,"current_range_meters":11200,"station_id":"ce4bgv92rcd13ifvqcr0","pricing_plan_id":"cebpf4jnsgd1na2vs0mg"},{"bike_id":"a83d89b4-34dc-4f00-ab7a-a53ca0d404af","system_id":"levelo_inurba_marseille","lat":43.28459,"lon":5.35876,"is_reserved":false,"is_disabled":false,"rental_uris":{"android":"levelo://app?vid=a83d89b4-34dc-4f00-ab7a-a53ca0d404af","ios":"levelo://app?vid=a83d89b4-34dc-4f00-ab7a-a53ca0d404af"},"vehicle_type_id":"4","last_reported":1742501449,"current_range_meters":11200,"station_id":"ce4bhah2rcd13ifvqei0","pricing_plan_id":"cebpf4jnsgd1na2vs0mg"},{"bike_id":"f354ba47-6515-46ef-af82-c1cd1a4747b5","system_id":"levelo_inurba_marseille","lat":43.29201,"lon":5.3933,"is_reserved":false,"is_disabled":false,"rental_uris":{"android":"levelo://app?vid=f354ba47-6515-46ef-af82-c1cd1a4747b5","ios":"levelo://app?vid=f354ba47-6515-46ef-af82-c1cd1a4747b5"},"vehicle_type_id":"4","last_reported":1742501449,"current_range_meters":10800,"station_id":"ce4bh192rcd13ifvqdd0","pricing_plan_id":"cebpf4jnsgd1na2vs0mg"},{"bike_id":"a7fe0957-19c5-4692-9769-cafab82db1eb","system_id":"levelo_inurba_marseille","lat":43.28947,"lon":5.3641,"is_reserved":false,"is_disabled":false,"rental_uris":{"android":"levelo://app?vid=a7fe0957-19c5-4692-9769-cafab82db1eb","ios":"levelo://app?vid=a7fe0957-19c5-4692-9769-cafab82db1eb"},"vehicle_type_id":"4","last_reported":1742501449,"current_range_meters":11200,"station_id":"ce4bhc92rcd13ifvqetg","pricing_plan_id":"cebpf4jnsgd1na2vs0mg"},{"bike_id":"9d72b590-376e-48de-9f71-fb9c3868a5c2","system_id":"levelo_inurba_marseille","lat":43.28418,"lon":5.37536,"is_reserved":false,"is_disabled":false,"rental_uris":{"android":"levelo://app?vid=9d72b590-376e-48de-9f71-fb9c3868a5c2","ios":"levelo://app?vid=9d72b590-376e-48de-9f71-fb9c3868a5c2"},"vehicle_type_id":"4","last_reported":1742501449,"current_range_meters":11200,"station_id":"ce4bh412rcd13ifvqds0","pricing_plan_id":"cebpf4jnsgd1na2vs0mg"},{"bike_id":"13b40ed5-bac7-4994-8482-fe1837487301","system_id":"levelo_inurba_marseille","lat":43.2942,"lon":5.38621,"is_reserved":false,"is_disabled":false,"rental_uris":{"android":"levelo://app?vid=13b40ed5-bac7-4994-8482-fe1837487301","ios":"levelo://app?vid=13b40ed5-bac7-4994-8482-fe1837487301"},"vehicle_type_id":"4","last_reported":1742501449,"current_range_meters":11200,"station_id":"ce4bh2h2rcd13ifvqdh0","pricing_plan_id":"cebpf4jnsgd1na2vs0mg"},{"bike_id":"1c3b5361-695c-4ccc-94f9-aca7f37b6d45","system_id":"levelo_inurba_marseille","lat":43.23185,"lon":5.35575,"is_reserved":false,"is_disabled":false,"rental_uris":{"android":"levelo://app?vid=1c3b5361-695c-4ccc-94f9-aca7f37b6d45","ios":"levelo://app?vid=1c3b5361-695c-4ccc-94f9-aca7f37b6d45"},"vehicle_type_id":"4","last_reported":1742501449,"current_range_meters":11600,"station_id":"ce4bhu92rcd13ifvqi70","pricing_plan_id":"cebpf4jnsgd1na2vs0mg"},{"bike_id":"39036aae-8f0c-4ed2-8157-a35d0a4f55ee","system_id":"levelo_inurba_marseille","lat":43.23971,"lon":5.36646,"is_reserved":false,"is_disabled":false,"rental_uris":{"android":"levelo://app?vid=39036aae-8f0c-4ed2-8157-a35d0a4f55ee","ios":"levelo://app?vid=39036aae-8f0c-4ed2-8157-a35d0a4f55ee"},"vehicle_type_id":"4","last_reported":1742501449,"current_range_meters":11600,"station_id":"ce4bhi12rcd13ifvqfp0","pricing_plan_id":"cebpf4jnsgd1na2vs0mg"},{"bike_id":"2678929a-312d-4089-b116-1e816de7db90","system_id":"levelo_inurba_marseille","lat":43.32109,"lon":5.36763,"is_reserved":false,"is_disabled":false,"rental_uris":{"android":"levelo://app?vid=2678929a-312d-4089-b116-1e816de7db90","ios":"levelo://app?vid=2678929a-312d-4089-b116-1e816de7db90"},"vehicle_type_id":"4","last_reported":1742501449,"current_range_meters":11600,"station_id":"ce4bhrh2rcd13ifvqhug","pricing_plan_id":"cebpf4jnsgd1na2vs0mg"},{"bike_id":"1295e912-beee-47fe-a5c8-2ae149d6d129","system_id":"levelo_inurba_marseille","lat":43.31707,"lon":5.37731,"is_reserved":false,"is_disabled":false,"rental_uris":{"android":"levelo://app?vid=1295e912-beee-47fe-a5c8-2ae149d6d129","ios":"levelo://app?vid=1295e912-beee-47fe-a5c8-2ae149d6d129"},"vehicle_type_id":"4","last_reported":1742501449,"current_range_meters":11600,"station_id":"ce4bgth2rcd13ifvqch0","pricing_plan_id":"cebpf4jnsgd1na2vs0mg"},{"bike_id":"24016567-79c9-417a-ad0a-921105cb0978","system_id":"levelo_inurba_marseille","lat":43.32362,"lon":5.38921,"is_reserved":false,"is_disabled":false,"rental_uris":{"android":"levelo://app?vid=24016567-79c9-417a-ad0a-921105cb0978","ios":"levelo://app?vid=24016567-79c9-417a-ad0a-921105cb0978"},"vehicle_type_id":"4","last_reported":1742501449,"current_range_meters":11600,"station_id":"ce4bhqp2rcd13ifvqhog","pricing_plan_id":"cebpf4jnsgd1na2vs0mg"},{"bike_id":"2b124485-3f63-417d-9cde-2aed42bc55d1","system_id":"levelo_inurba_marseille","lat":43.28107,"lon":5.37873,"is_reserved":false,"is_disabled":false,"rental_uris":{"android":"levelo://app?vid=2b124485-3f63-417d-9cde-2aed42bc55d1","ios":"levelo://app?vid=2b124485-3f63-417d-9cde-2aed42bc55d1"},"vehicle_type_id":"4","last_reported":1742501449,"current_range_meters":11600,"station_id":"ce4bha12rcd13ifvqee0","pricing_plan_id":"cebpf4jnsgd1na2vs0mg"},{"bike_id":"377332cd-b448-4751-9ed6-6ae3e30be665","system_id":"levelo_inurba_marseille","lat":43.24415,"lon":5.3704,"is_reserved":false,"is_disabled":false,"rental_uris":{"android":"levelo://app?vid=377332cd-b448-4751-9ed6-6ae3e30be665","ios":"levelo://app?vid=377332cd-b448-4751-9ed6-6ae3e30be665"},"vehicle_type_id":"4","last_reported":1742501449,"current_range_meters":11600,"station_id":"ce4bhhh2rcd13ifvqfk0","pricing_plan_id":"cebpf4jnsgd1na2vs0mg"},{"bike_id":"ea8117b5-be8a-4eb4-b34f-ca48496db485","system_id":"levelo_inurba_marseille","lat":43.29068,"lon":5.3717,"is_reserved":false,"is_disabled":false,"rental_uris":{"android":"levelo://app?vid=ea8117b5-be8a-4eb4-b34f-ca48496db485","ios":"levelo://app?vid=ea8117b5-be8a-4eb4-b34f-ca48496db485"},"vehicle_type_id":"4","last_reported":1742501449,"current_range_meters":11600,"station_id":"ce4bh5p2rcd13ifvqe4g","pricing_plan_id":"cebpf4jnsgd1na2vs0mg"},{"bike_id":"0a882e65-9659-49b9-ace9-cf4561f7b9d0","system_id":"levelo_inurba_marseille","lat":43.30803,"lon":5.38165,"is_reserved":false,"is_disabled":false,"rental_uris":{"android":"levelo://app?vid=0a882e65-9659-49b9-ace9-cf4561f7b9d0","ios":"levelo://app?vid=0a882e65-9659-49b9-ace9-cf4561f7b9d0"},"vehicle_type_id":"4","last_reported":1742501449,"current_range_meters":12000,"station_id":"ce4bgt12rcd13ifvqce0","pricing_plan_id":"cebpf4jnsgd1na2vs0mg"},{"bike_id":"a8e54271-f43e-4238-be61-5a0d0f7d1259","system_id":"levelo_inurba_marseille","lat":43.24681,"lon":5.38148,"is_reserved":false,"is_disabled":false,"rental_uris":{"android":"levelo://app?vid=a8e54271-f43e-4238-be61-5a0d0f7d1259","ios":"levelo://app?vid=a8e54271-f43e-4238-be61-5a0d0f7d1259"},"vehicle_type_id":"4","last_reported":1742501449,"current_range_meters":12000,"station_id":"ce4bhih2rcd13ifvqfr0","pricing_plan_id":"cebpf4jnsgd1na2vs0mg"},{"bike_id":"00680b70-50da-4667-89e8-2322036bb32d","system_id":"levelo_inurba_marseille","lat":43.28007,"lon":5.40057,"is_reserved":false,"is_disabled":false,"rental_uris":{"android":"levelo://app?vid=00680b70-50da-4667-89e8-2322036bb32d","ios":"levelo://app?vid=00680b70-50da-4667-89e8-2322036bb32d"},"vehicle_type_id":"4","last_reported":1742501449,"current_range_meters":12000,"station_id":"ce4bho92rcd13ifvqh4g","pricing_plan_id":"cebpf4jnsgd1na2vs0mg"},{"bike_id":"cd6d272d-7f4c-4a49-87e6-6c3630524a40","system_id":"levelo_inurba_marseille","lat":43.25576,"lon":5.38251,"is_reserved":false,"is_disabled":false,"rental_uris":{"android":"levelo://app?vid=cd6d272d-7f4c-4a49-87e6-6c3630524a40","ios":"levelo://app?vid=cd6d272d-7f4c-4a49-87e6-6c3630524a40"},"vehicle_type_id":"4","last_reported":1742501449,"current_range_meters":12000,"station_id":"ce4bhih2rcd13ifvqfs0","pricing_plan_id":"cebpf4jnsgd1na2vs0mg"},{"bike_id":"e32966df-7f6a-4dc5-bedd-3ae28f972c06","system_id":"levelo_inurba_marseille","lat":43.27805,"lon":5.40727,"is_reserved":false,"is_disabled":false,"rental_uris":{"android":"levelo://app?vid=e32966df-7f6a-4dc5-bedd-3ae28f972c06","ios":"levelo://app?vid=e32966df-7f6a-4dc5-bedd-3ae28f972c06"},"vehicle_type_id":"4","last_reported":1742501449,"current_range_meters":12000,"station_id":"ce4bhnh2rcd13ifvqgtg","pricing_plan_id":"cebpf4jnsgd1na2vs0mg"},{"bike_id":"fb3b7291-3c04-447e-ad34-807e47169d30","system_id":"levelo_inurba_marseille","lat":43.33276,"lon":5.39577,"is_reserved":false,"is_disabled":false,"rental_uris":{"android":"levelo://app?vid=fb3b7291-3c04-447e-ad34-807e47169d30","ios":"levelo://app?vid=fb3b7291-3c04-447e-ad34-807e47169d30"},"vehicle_type_id":"4","last_reported":1742501449,"current_range_meters":12000,"station_id":"","pricing_plan_id":"cebpf4jnsgd1na2vs0mg"},{"bike_id":"fa08c945-f019-47fa-9ef8-7919d313b341","system_id":"levelo_inurba_marseille","lat":43.2871,"lon":5.37946,"is_reserved":false,"is_disabled":false,"rental_uris":{"android":"levelo://app?vid=fa08c945-f019-47fa-9ef8-7919d313b341","ios":"levelo://app?vid=fa08c945-f019-47fa-9ef8-7919d313b341"},"vehicle_type_id":"4","last_reported":1742501449,"current_range_meters":12400,"station_id":"ce4bh9p2rcd13ifvqec0","pricing_plan_id":"cebpf4jnsgd1na2vs0mg"},{"bike_id":"90ed294f-924d-4f4d-b687-f15c2e696ec8","system_id":"levelo_inurba_marseille","lat":43.28468,"lon":5.35895,"is_reserved":false,"is_disabled":false,"rental_uris":{"android":"levelo://app?vid=90ed294f-924d-4f4d-b687-f15c2e696ec8","ios":"levelo://app?vid=90ed294f-924d-4f4d-b687-f15c2e696ec8"},"vehicle_type_id":"4","last_reported":1742501449,"current_range_meters":12400,"station_id":"ce4bhah2rcd13ifvqei0","pricing_plan_id":"cebpf4jnsgd1na2vs0mg"},{"bike_id":"bd2330e2-e649-44b8-9176-e3cc84f69cce","system_id":"levelo_inurba_marseille","lat":43.28718,"lon":5.37943,"is_reserved":false,"is_disabled":false,"rental_uris":{"android":"levelo://app?vid=bd2330e2-e649-44b8-9176-e3cc84f69cce","ios":"levelo://app?vid=bd2330e2-e649-44b8-9176-e3cc84f69cce"},"vehicle_type_id":"4","last_reported":1742501449,"current_range_meters":12400,"station_id":"ce4bh9p2rcd13ifvqec0","pricing_plan_id":"cebpf4jnsgd1na2vs0mg"},{"bike_id":"a67c54b6-5ce9-4632-8070-5ca7d5b7fc9e","system_id":"levelo_inurba_marseille","lat":43.23062,"lon":5.3549,"is_reserved":false,"is_disabled":false,"rental_uris":{"android":"levelo://app?vid=a67c54b6-5ce9-4632-8070-5ca7d5b7fc9e","ios":"levelo://app?vid=a67c54b6-5ce9-4632-8070-5ca7d5b7fc9e"},"vehicle_type_id":"4","last_reported":1742501449,"current_range_meters":12400,"station_id":"cpo3342slgdg3j2ifvpg","pricing_plan_id":"cebpf4jnsgd1na2vs0mg"},{"bike_id":"82e8d7f1-42cc-4a59-a51c-44762ad63878","system_id":"levelo_inurba_marseille","lat":43.29531,"lon":5.37508,"is_reserved":false,"is_disabled":false,"rental_uris":{"android":"levelo://app?vid=82e8d7f1-42cc-4a59-a51c-44762ad63878","ios":"levelo://app?vid=82e8d7f1-42cc-4a59-a51c-44762ad63878"},"vehicle_type_id":"4","last_reported":1742501449,"current_range_meters":12400,"station_id":"ce4bgkp2rcd13ifvqbmg","pricing_plan_id":"cebpf4jnsgd1na2vs0mg"},{"bike_id":"08b8d70a-6010-4efe-af08-e0f4336b15e3","system_id":"levelo_inurba_marseille","lat":43.27057,"lon":5.4026,"is_reserved":false,"is_disabled":false,"rental_uris":{"android":"levelo://app?vid=08b8d70a-6010-4efe-af08-e0f4336b15e3","ios":"levelo://app?vid=08b8d70a-6010-4efe-af08-e0f4336b15e3"},"vehicle_type_id":"4","last_reported":1742501449,"current_range_meters":12400,"station_id":"ce4bhk92rcd13ifvqgc0","pricing_plan_id":"cebpf4jnsgd1na2vs0mg"},{"bike_id":"e7099a91-f011-4f51-8f8e-c8f0d1018eb5","system_id":"levelo_inurba_marseille","lat":43.23184,"lon":5.39985,"is_reserved":false,"is_disabled":false,"rental_uris":{"android":"levelo://app?vid=e7099a91-f011-4f51-8f8e-c8f0d1018eb5","ios":"levelo://app?vid=e7099a91-f011-4f51-8f8e-c8f0d1018eb5"},"vehicle_type_id":"4","last_reported":1742501449,"current_range_meters":12400,"station_id":"ce4bhn12rcd13ifvqgqg","pricing_plan_id":"cebpf4jnsgd1na2vs0mg"},{"bike_id":"f2387910-c486-4275-a7ab-dbeb87afdc12","system_id":"levelo_inurba_marseille","lat":43.33752,"lon":5.39197,"is_reserved":false,"is_disabled":false,"rental_uris":{"android":"levelo://app?vid=f2387910-c486-4275-a7ab-dbeb87afdc12","ios":"levelo://app?vid=f2387910-c486-4275-a7ab-dbeb87afdc12"},"vehicle_type_id":"4","last_reported":1742501449,"current_range_meters":12800,"station_id":"ce4bhr92rcd13ifvqhsg","pricing_plan_id":"cebpf4jnsgd1na2vs0mg"},{"bike_id":"28a8c5cb-d6b9-4354-80f8-901f45b27f4f","system_id":"levelo_inurba_marseille","lat":43.31067,"lon":5.38349,"is_reserved":false,"is_disabled":false,"rental_uris":{"android":"levelo://app?vid=28a8c5cb-d6b9-4354-80f8-901f45b27f4f","ios":"levelo://app?vid=28a8c5cb-d6b9-4354-80f8-901f45b27f4f"},"vehicle_type_id":"4","last_reported":1742501449,"current_range_meters":12800,"station_id":"ce4bgv92rcd13ifvqcr0","pricing_plan_id":"cebpf4jnsgd1na2vs0mg"},{"bike_id":"1c232a44-42c3-41bd-bc41-cc838d874756","system_id":"levelo_inurba_marseille","lat":43.29534,"lon":5.38533,"is_reserved":false,"is_disabled":false,"rental_uris":{"android":"levelo://app?vid=1c232a44-42c3-41bd-bc41-cc838d874756","ios":"levelo://app?vid=1c232a44-42c3-41bd-bc41-cc838d874756"},"vehicle_type_id":"4","last_reported":1742501449,"current_range_meters":12800,"station_id":"ce4bgih2rcd13ifvqba0","pricing_plan_id":"cebpf4jnsgd1na2vs0mg"},{"bike_id":"bf5d7bdb-65a8-4310-b955-6a76e2cbd7fe","system_id":"levelo_inurba_marseille","lat":43.33734,"lon":5.39181,"is_reserved":false,"is_disabled":false,"rental_uris":{"android":"levelo://app?vid=bf5d7bdb-65a8-4310-b955-6a76e2cbd7fe","ios":"levelo://app?vid=bf5d7bdb-65a8-4310-b955-6a76e2cbd7fe"},"vehicle_type_id":"4","last_reported":1742501449,"current_range_meters":12800,"station_id":"ce4bhr92rcd13ifvqhsg","pricing_plan_id":"cebpf4jnsgd1na2vs0mg"},{"bike_id":"6c330427-92a6-4314-a091-866c54ffa826","system_id":"levelo_inurba_marseille","lat":43.29408,"lon":5.38627,"is_reserved":false,"is_disabled":false,"rental_uris":{"android":"levelo://app?vid=6c330427-92a6-4314-a091-866c54ffa826","ios":"levelo://app?vid=6c330427-92a6-4314-a091-866c54ffa826"},"vehicle_type_id":"4","last_reported":1742501449,"current_range_meters":12800,"station_id":"ce4bh2h2rcd13ifvqdh0","pricing_plan_id":"cebpf4jnsgd1na2vs0mg"},{"bike_id":"adf1442b-34a0-4885-b3ba-d26a7beec424","system_id":"levelo_inurba_marseille","lat":43.25095,"lon":5.3953,"is_reserved":false,"is_disabled":false,"rental_uris":{"android":"levelo://app?vid=adf1442b-34a0-4885-b3ba-d26a7beec424","ios":"levelo://app?vid=adf1442b-34a0-4885-b3ba-d26a7beec424"},"vehicle_type_id":"4","last_reported":1742501449,"current_range_meters":12800,"station_id":"ce4bhm12rcd13ifvqgkg","pricing_plan_id":"cebpf4jnsgd1na2vs0mg"},{"bike_id":"047e5970-8daa-41b8-aeee-f3b49ecc2693","system_id":"levelo_inurba_marseille","lat":43.28452,"lon":5.35898,"is_reserved":false,"is_disabled":false,"rental_uris":{"android":"levelo://app?vid=047e5970-8daa-41b8-aeee-f3b49ecc2693","ios":"levelo://app?vid=047e5970-8daa-41b8-aeee-f3b49ecc2693"},"vehicle_type_id":"4","last_reported":1742501449,"current_range_meters":12800,"station_id":"ce4bhah2rcd13ifvqei0","pricing_plan_id":"cebpf4jnsgd1na2vs0mg"},{"bike_id":"d6e63a09-4ed2-404b-8f3d-e9ab203ef266","system_id":"levelo_inurba_marseille","lat":43.29272,"lon":5.36846,"is_reserved":false,"is_disabled":false,"rental_uris":{"android":"levelo://app?vid=d6e63a09-4ed2-404b-8f3d-e9ab203ef266","ios":"levelo://app?vid=d6e63a09-4ed2-404b-8f3d-e9ab203ef266"},"vehicle_type_id":"4","last_reported":1742501449,"current_range_meters":12800,"station_id":"ce4bhbp2rcd13ifvqesg","pricing_plan_id":"cebpf4jnsgd1na2vs0mg"},{"bike_id":"94ea12e2-4f7a-41b1-9bbe-5736f367cd97","system_id":"levelo_inurba_marseille","lat":43.27996,"lon":5.40021,"is_reserved":false,"is_disabled":false,"rental_uris":{"android":"levelo://app?vid=94ea12e2-4f7a-41b1-9bbe-5736f367cd97","ios":"levelo://app?vid=94ea12e2-4f7a-41b1-9bbe-5736f367cd97"},"vehicle_type_id":"4","last_reported":1742501449,"current_range_meters":12800,"station_id":"ce4bho92rcd13ifvqh4g","pricing_plan_id":"cebpf4jnsgd1na2vs0mg"},{"bike_id":"ff066277-3122-404f-8fc9-18b331abea9b","system_id":"levelo_inurba_marseille","lat":43.23183,"lon":5.39991,"is_reserved":false,"is_disabled":false,"rental_uris":{"android":"levelo://app?vid=ff066277-3122-404f-8fc9-18b331abea9b","ios":"levelo://app?vid=ff066277-3122-404f-8fc9-18b331abea9b"},"vehicle_type_id":"4","last_reported":1742501449,"current_range_meters":12800,"station_id":"ce4bhn12rcd13ifvqgqg","pricing_plan_id":"cebpf4jnsgd1na2vs0mg"},{"bike_id":"53c5623d-273f-4f47-b264-a64d42ca6e47","system_id":"levelo_inurba_marseille","lat":43.31385,"lon":5.37423,"is_reserved":false,"is_disabled":false,"rental_uris":{"android":"levelo://app?vid=53c5623d-273f-4f47-b264-a64d42ca6e47","ios":"levelo://app?vid=53c5623d-273f-4f47-b264-a64d42ca6e47"},"vehicle_type_id":"4","last_reported":1742501449,"current_range_meters":12800,"station_id":"","pricing_plan_id":"cebpf4jnsgd1na2vs0mg"},{"bike_id":"28272ba0-38c9-4fb7-b8f6-5b66b3d8708e","system_id":"levelo_inurba_marseille","lat":43.29373,"lon":5.37874,"is_reserved":false,"is_disabled":false,"rental_uris":{"android":"levelo://app?vid=28272ba0-38c9-4fb7-b8f6-5b66b3d8708e","ios":"levelo://app?vid=28272ba0-38c9-4fb7-b8f6-5b66b3d8708e"},"vehicle_type_id":"4","last_reported":1742501449,"current_range_meters":12800,"station_id":"ce4bgjh2rcd13ifvqbf0","pricing_plan_id":"cebpf4jnsgd1na2vs0mg"},{"bike_id":"82fa3e81-e88f-46d8-9053-9f59230099a4","system_id":"levelo_inurba_marseille","lat":43.24657,"lon":5.38172,"is_reserved":false,"is_disabled":false,"rental_uris":{"android":"levelo://app?vid=82fa3e81-e88f-46d8-9053-9f59230099a4","ios":"levelo://app?vid=82fa3e81-e88f-46d8-9053-9f59230099a4"},"vehicle_type_id":"4","last_reported":1742501449,"current_range_meters":12800,"station_id":"ce4bhih2rcd13ifvqfr0","pricing_plan_id":"cebpf4jnsgd1na2vs0mg"},{"bike_id":"7fd0caf9-41c0-4c12-b9d0-0eab10b48b28","system_id":"levelo_inurba_marseille","lat":43.30088,"lon":5.3907,"is_reserved":false,"is_disabled":false,"rental_uris":{"android":"levelo://app?vid=7fd0caf9-41c0-4c12-b9d0-0eab10b48b28","ios":"levelo://app?vid=7fd0caf9-41c0-4c12-b9d0-0eab10b48b28"},"vehicle_type_id":"4","last_reported":1742501449,"current_range_meters":13600,"station_id":"ce4bh192rcd13ifvqdb0","pricing_plan_id":"cebpf4jnsgd1na2vs0mg"},{"bike_id":"7b8f275f-a662-46cb-a52f-a0bcd7d08c7c","system_id":"levelo_inurba_marseille","lat":43.28673,"lon":5.38662,"is_reserved":false,"is_disabled":false,"rental_uris":{"android":"levelo://app?vid=7b8f275f-a662-46cb-a52f-a0bcd7d08c7c","ios":"levelo://app?vid=7b8f275f-a662-46cb-a52f-a0bcd7d08c7c"},